timestamp,voltage_v,current_a,current_average_a,discharged_mah,remaining,scale,time_remaining_s,temperature,voltage_cell_v[0],voltage_cell_v[1],voltage_cell_v[2],voltage_cell_v[3],voltage_cell_v[4],voltage_cell_v[5],voltage_cell_v[6],voltage_cell_v[7],voltage_cell_v[8],voltage_cell_v[9],voltage_cell_v[10],voltage_cell_v[11],voltage_cell_v[12],voltage_cell_v[13],max_cell_voltage_delta,full_charge_capacity_wh,remaining_capacity_wh,nominal_voltage,internal_resistance_estimate,ocv_estimate,ocv_estimate_filtered,volt_based_soc_estimate,voltage_prediction,prediction_error,estimation_covariance_norm,capacity,cycle_count,average_time_to_empty,manufacture_date,state_of_health,max_error,interface_error,faults,over_discharge_count,connected,cell_count,source,priority,id,is_powering_off,is_required,warning
2043328000,16.2,-1.0,1.9747667,0.0,0.9999466,1.0000058,nan,nan,0.0,0.0,0.0,0.0,0.0,0.0,0.0,0.0,0.0,0.0,0.0,0.0,0.0,0.0,0.0,0.0,0.0,0.0,0.005,16.18,16.18,0.98888874,0.0,0.0,6.0133185,0,0,0,0,0,0,0,0,0,1,4,0,0,1,0,0,0
2043336000,16.19976,-1.0,1.9743719,0.0,0.99994564,1.000006,nan,nan,0.0,0.0,0.0,0.0,0.0,0.0,0.0,0.0,0.0,0.0,0.0,0.0,0.0,0.0,0.0,0.0,0.0,0.0,0.005,16.17976,16.18,0.98888874,0.0,0.0,6.0133185,0,0,0,0,0,0,0,0,0,1,4,0,0,1,0,0,0
2043528000,16.194,-1.0,1.9668843,0.0,0.9996319,1.0000409,nan,nan,0.0,0.0,0.0,0.0,0.0,0.0,0.0,0.0,0.0,0.0,0.0,0.0,0.0,0.0,0.0,0.0,0.0,0.0,0.005,16.174,16.18,0.98888874,0.0,0.0,6.0133185,0,0,0,0,0,0,0,0,0,1,4,0,0,1,0,0,0
2043728000,16.188002,-1.0,1.9590331,0.0,0.9987745,1.0001361,nan,nan,0.0,0.0,0.0,0.0,0.0,0.0,0.0,0.0,0.0,0.0,0.0,0.0,0.0,0.0,0.0,0.0,0.0,0.0,0.005,16.168001,16.18,0.98888874,0.0,0.0,6.0133185,0,0,0,0,0,0,0,0,0,1,4,0,0,1,0,0,0
2043928000,16.182003,-1.0,1.9512135,0.0,0.9974718,1.000281,nan,nan,0.0,0.0,0.0,0.0,0.0,0.0,0.0,0.0,0.0,0.0,0.0,0.0,0.0,0.0,0.0,0.0,0.0,0.0,0.005,16.162003,16.18,0.98888874,0.0,0.0,6.0133185,0,0,0,0,0,0,0,0,0,1,4,0,0,1,0,0,0
2044128000,16.176003,-1.0,1.943425,0.0,0.9958,1.0004668,nan,nan,0.0,0.0,0.0,0.0,0.0,0.0,0.0,0.0,0.0,0.0,0.0,0.0,0.0,0.0,0.0,0.0,0.0,0.0,0.005,16.156002,16.18,0.98888874,0.0,0.0,6.0133185,0,0,0,0,0,0,0,0,0,1,4,0,0,1,0,0,0
2044328000,16.170002,-1.0,1.9356676,0.0,0.9938288,1.0006862,nan,nan,0.0,0.0,0.0,0.0,0.0,0.0,0.0,0.0,0.0,0.0,0.0,0.0,0.0,0.0,0.0,0.0,0.0,0.0,0.005,16.150002,16.18,0.98888874,0.0,0.0,6.0133185,0,0,0,0,0,0,0,0,0,1,4,0,0,1,0,0,0
2044528000,16.164003,-1.0,1.9279412,0.0,0.9916086,1.0009333,nan,nan,0.0,0.0,0.0,0.0,0.0,0.0,0.0,0.0,0.0,0.0,0.0,0.0,0.0,0.0,0.0,0.0,0.0,0.0,0.005,16.144003,16.18,0.98888874,0.0,0.0,6.0133185,0,0,0,0,0,0,0,0,0,1,4,0,0,1,0,0,0
2044728000,16.158005,-1.0,1.9202455,0.0,0.98919296,1.0012022,nan,nan,0.0,0.0,0.0,0.0,0.0,0.0,0.0,0.0,0.0,0.0,0.0,0.0,0.0,0.0,0.0,0.0,0.0,0.0,0.005,16.138004,16.18,0.98888874,0.0,0.0,6.0133185,0,0,0,0,0,0,0,0,0,1,4,0,0,1,0,0,0
2044928000,16.152004,-1.0,1.9125807,0.0,0.98660946,1.0014901,nan,nan,0.0,0.0,0.0,0.0,0.0,0.0,0.0,0.0,0.0,0.0,0.0,0.0,0.0,0.0,0.0,0.0,0.0,0.0,0.005,16.132004,16.18,0.98888874,0.0,0.0,6.0133185,0,0,0,0,0,0,0,0,0,1,4,0,0,1,0,0,0
2045128000,16.146004,-1.0,1.9049464,0.0,0.9838915,1.001793,nan,nan,0.0,0.0,0.0,0.0,0.0,0.0,0.0,0.0,0.0,0.0,0.0,0.0,0.0,0.0,0.0,0.0,0.0,0.0,0.005,16.126003,16.18,0.98888874,0.0,0.0,6.0133185,0,0,0,0,0,0,0,0,0,1,4,0,0,1,0,0,0
2045328000,16.140005,-1.0,1.8973428,0.0,0.98106194,1.0021087,nan,nan,0.0,0.0,0.0,0.0,0.0,0.0,0.0,0.0,0.0,0.0,0.0,0.0,0.0,0.0,0.0,0.0,0.0,0.0,0.005,16.120005,16.18,0.98888874,0.0,0.0,6.0133185,0,0,0,0,0,0,0,0,0,1,4,0,0,1,0,0,0
2045528000,16.134007,-1.0,1.8897693,0.0,0.9781418,1.0024346,nan,nan,0.0,0.0,0.0,0.0,0.0,0.0,0.0,0.0,0.0,0.0,0.0,0.0,0.0,0.0,0.0,0.0,0.0,0.0,0.005,16.114006,16.18,0.98888874,0.0,0.0,6.0133185,0,0,0,0,0,0,0,0,0,1,4,0,0,1,0,0,0
2045716000,16.128366,-1.0,1.8826026,0.0,0.9752989,1.0027522,nan,nan,0.0,0.0,0.0,0.0,0.0,0.0,0.0,0.0,0.0,0.0,0.0,0.0,0.0,0.0,0.0,0.0,0.0,0.0,0.005,16.108366,16.18,0.98888874,0.0,0.0,6.0133185,0,0,0,0,0,0,0,0,0,1,4,0,0,1,0,0,0
2045928000,16.122005,-1.0,1.874713,0.0,0.9720907,1.0031106,nan,nan,0.0,0.0,0.0,0.0,0.0,0.0,0.0,0.0,0.0,0.0,0.0,0.0,0.0,0.0,0.0,0.0,0.0,0.0,0.005,16.102005,16.18,0.98888874,0.0,0.0,6.0133185,0,0,0,0,0,0,0,0,0,1,4,0,0,1,0,0,0
2046128000,16.116007,-1.0,1.8672298,0.0,0.9689865,1.0034579,nan,nan,0.0,0.0,0.0,0.0,0.0,0.0,0.0,0.0,0.0,0.0,0.0,0.0,0.0,0.0,0.0,0.0,0.0,0.0,0.005,16.096006,16.18,0.98888874,0.0,0.0,6.0133185,0,0,0,0,0,0,0,0,0,1,4,0,0,1,0,0,0
2046328000,16.110008,-1.0,1.8597766,0.0,0.96584034,1.0038099,nan,nan,0.0,0.0,0.0,0.0,0.0,0.0,0.0,0.0,0.0,0.0,0.0,0.0,0.0,0.0,0.0,0.0,0.0,0.0,0.005,16.090008,16.18,0.98888874,0.0,0.0,6.0133185,0,0,0,0,0,0,0,0,0,1,4,0,0,1,0,0,0
2046528000,16.104008,-1.0,1.8523531,0.0,0.9626589,1.0041662,nan,nan,0.0,0.0,0.0,0.0,0.0,0.0,0.0,0.0,0.0,0.0,0.0,0.0,0.0,0.0,0.0,0.0,0.0,0.0,0.005,16.084007,16.18,0.98888874,0.0,0.0,6.0133185,0,0,0,0,0,0,0,0,0,1,4,0,0,1,0,0,0
2046728000,16.098007,-1.0,1.8449593,0.0,0.9594507,1.0045259,nan,nan,0.0,0.0,0.0,0.0,0.0,0.0,0.0,0.0,0.0,0.0,0.0,0.0,0.0,0.0,0.0,0.0,0.0,0.0,0.005,16.078007,16.18,0.98888874,0.0,0.0,6.0133185,0,0,0,0,0,0,0,0,0,1,4,0,0,1,0,0,0
2046928000,16.092009,-1.0,1.8375949,0.0,0.9562197,1.0048882,nan,nan,0.0,0.0,0.0,0.0,0.0,0.0,0.0,0.0,0.0,0.0,0.0,0.0,0.0,0.0,0.0,0.0,0.0,0.0,0.005,16.072008,16.18,0.98888874,0.0,0.0,6.0133185,0,0,0,0,0,0,0,0,0,1,4,0,0,1,0,0,0
2047128000,16.086008,-1.0,1.8302598,0.0,0.9529724,1.0052527,nan,nan,0.0,0.0,0.0,0.0,0.0,0.0,0.0,0.0,0.0,0.0,0.0,0.0,0.0,0.0,0.0,0.0,0.0,0.0,0.005,16.066008,16.18,0.98888874,0.0,0.0,6.0133185,0,0,0,0,0,0,0,0,0,1,4,0,0,1,0,0,0
2047328000,16.08001,-1.0,1.8229542,0.0,0.949708,1.0056193,nan,nan,0.0,0.0,0.0,0.0,0.0,0.0,0.0,0.0,0.0,0.0,0.0,0.0,0.0,0.0,0.0,0.0,0.0,0.0,0.005,16.060009,16.18,0.98888874,0.0,0.0,6.0133185,0,0,0,0,0,0,0,0,0,1,4,0,0,1,0,0,0
2047528000,16.074009,-1.0,1.8156776,0.0,0.9464302,1.0059879,nan,nan,0.0,0.0,0.0,0.0,0.0,0.0,0.0,0.0,0.0,0.0,0.0,0.0,0.0,0.0,0.0,0.0,0.0,0.0,0.005,16.054008,16.18,0.98888874,0.0,0.0,6.0133185,0,0,0,0,0,0,0,0,0,1,4,0,0,1,0,0,0
2047728000,16.06801,-1.0,1.8084301,0.0,0.9431448,1.0063573,nan,nan,0.0,0.0,0.0,0.0,0.0,0.0,0.0,0.0,0.0,0.0,0.0,0.0,0.0,0.0,0.0,0.0,0.0,0.0,0.005,16.04801,16.18,0.98888874,0.0,0.0,6.0133185,0,0,0,0,0,0,0,0,0,1,4,0,0,1,0,0,0
2047928000,16.06201,-1.0,1.8012115,0.0,0.93984985,1.0067283,nan,nan,0.0,0.0,0.0,0.0,0.0,0.0,0.0,0.0,0.0,0.0,0.0,0.0,0.0,0.0,0.0,0.0,0.0,0.0,0.005,16.04201,16.18,0.98888874,0.0,0.0,6.0133185,0,0,0,0,0,0,0,0,0,1,4,0,0,1,0,0,0
2048128000,16.056011,-1.0,1.7940218,0.0,0.93654346,1.0071008,nan,nan,0.0,0.0,0.0,0.0,0.0,0.0,0.0,0.0,0.0,0.0,0.0,0.0,0.0,0.0,0.0,0.0,0.0,0.0,0.005,16.03601,16.18,0.98888874,0.0,0.0,6.0133185,0,0,0,0,0,0,0,0,0,1,4,0,0,1,0,0,0
2048328000,16.05001,-1.0,1.786861,0.0,0.9332371,1.0074735,nan,nan,0.0,0.0,0.0,0.0,0.0,0.0,0.0,0.0,0.0,0.0,0.0,0.0,0.0,0.0,0.0,0.0,0.0,0.0,0.005,16.03001,16.18,0.98888874,0.0,0.0,6.0133185,0,0,0,0,0,0,0,0,0,1,4,0,0,1,0,0,0
2048528000,16.044012,-1.0,1.7797287,0.0,0.9299278,1.0078468,nan,nan,0.0,0.0,0.0,0.0,0.0,0.0,0.0,0.0,0.0,0.0,0.0,0.0,0.0,0.0,0.0,0.0,0.0,0.0,0.005,16.024012,16.18,0.98888874,0.0,0.0,6.0133185,0,0,0,0,0,0,0,0,0,1,4,0,0,1,0,0,0
2048728000,16.038012,-1.0,1.7726245,0.0,0.9266119,1.0082213,nan,nan,0.0,0.0,0.0,0.0,0.0,0.0,0.0,0.0,0.0,0.0,0.0,0.0,0.0,0.0,0.0,0.0,0.0,0.0,0.005,16.018011,16.18,0.98888874,0.0,0.0,6.0133185,0,0,0,0,0,0,0,0,0,1,4,0,0,1,0,0,0
2048928000,16.032013,-1.0,1.765549,0.0,0.9232912,1.0085964,nan,nan,0.0,0.0,0.0,0.0,0.0,0.0,0.0,0.0,0.0,0.0,0.0,0.0,0.0,0.0,0.0,0.0,0.0,0.0,0.005,16.012012,16.18,0.98888874,0.0,0.0,6.0133185,0,0,0,0,0,0,0,0,0,1,4,0,0,1,0,0,0
2049128000,16.026012,-1.0,1.7585015,0.0,0.9199648,1.0089726,nan,nan,0.0,0.0,0.0,0.0,0.0,0.0,0.0,0.0,0.0,0.0,0.0,0.0,0.0,0.0,0.0,0.0,0.0,0.0,0.005,16.006012,16.18,0.98888874,0.0,0.0,6.0133185,0,0,0,0,0,0,0,0,0,1,4,0,0,1,0,0,0
2049328000,16.020014,-1.0,1.7514822,0.0,0.9166374,1.0093491,nan,nan,0.0,0.0,0.0,0.0,0.0,0.0,0.0,0.0,0.0,0.0,0.0,0.0,0.0,0.0,0.0,0.0,0.0,0.0,0.005,16.000013,16.18,0.98888874,0.0,0.0,6.0133185,0,0,0,0,0,0,0,0,0,1,4,0,0,1,0,0,0
2049528000,16.014013,-1.0,1.744491,0.0,0.91331005,1.0097259,nan,nan,0.0,0.0,0.0,0.0,0.0,0.0,0.0,0.0,0.0,0.0,0.0,0.0,0.0,0.0,0.0,0.0,0.0,0.0,0.005,15.994013,16.18,0.98888874,0.0,0.0,6.0133185,0,0,0,0,0,0,0,0,0,1,4,0,0,1,0,0,0
2049728000,16.008015,-1.0,1.7375276,0.0,0.9099827,1.010103,nan,nan,0.0,0.0,0.0,0.0,0.0,0.0,0.0,0.0,0.0,0.0,0.0,0.0,0.0,0.0,0.0,0.0,0.0,0.0,0.005,15.988014,16.18,0.98888874,0.0,0.0,6.0133185,0,0,0,0,0,0,0,0,0,1,4,0,0,1,0,0,0
2049928000,16.002014,-1.0,1.730592,0.0,0.9066553,1.0104803,nan,nan,0.0,0.0,0.0,0.0,0.0,0.0,0.0,0.0,0.0,0.0,0.0,0.0,0.0,0.0,0.0,0.0,0.0,0.0,0.005,15.982014,16.18,0.98888874,0.0,0.0,6.0133185,0,0,0,0,0,0,0,0,0,1,4,0,0,1,0,0,0
2050128000,15.996016,-1.0,1.7236842,0.0,0.90332794,1.0108579,nan,nan,0.0,0.0,0.0,0.0,0.0,0.0,0.0,0.0,0.0,0.0,0.0,0.0,0.0,0.0,0.0,0.0,0.0,0.0,0.005,15.976015,16.18,0.98888874,0.0,0.0,6.0133185,0,0,0,0,0,0,0,0,0,1,4,0,0,1,0,0,0
2050328000,15.990016,-1.0,1.7168039,0.0,0.9000006,1.0112358,nan,nan,0.0,0.0,0.0,0.0,0.0,0.0,0.0,0.0,0.0,0.0,0.0,0.0,0.0,0.0,0.0,0.0,0.0,0.0,0.005,15.970016,16.18,0.98888874,0.0,0.0,6.0133185,0,0,0,0,0,0,0,0,0,1,4,0,0,1,0,0,0
2050520000,15.984257,-1.0,1.710293,0.0,0.89683914,1.0115952,nan,nan,0.0,0.0,0.0,0.0,0.0,0.0,0.0,0.0,0.0,0.0,0.0,0.0,0.0,0.0,0.0,0.0,0.0,0.0,0.005,15.964256,16.18,0.98888874,0.0,0.0,6.0133185,0,0,0,0,0,0,0,0,0,1,4,0,0,1,0,0,0
2050728000,15.978017,-1.0,1.7031255,0.0,0.8933449,1.0119927,nan,nan,0.0,0.0,0.0,0.0,0.0,0.0,0.0,0.0,0.0,0.0,0.0,0.0,0.0,0.0,0.0,0.0,0.0,0.0,0.005,15.958016,16.18,0.98888874,0.0,0.0,6.0133185,0,0,0,0,0,0,0,0,0,1,4,0,0,1,0,0,0
2050928000,15.972017,-1.0,1.6963271,0.0,0.8900175,1.0123714,nan,nan,0.0,0.0,0.0,0.0,0.0,0.0,0.0,0.0,0.0,0.0,0.0,0.0,0.0,0.0,0.0,0.0,0.0,0.0,0.005,15.952017,16.18,0.98888874,0.0,0.0,6.0133185,0,0,0,0,0,0,0,0,0,1,4,0,0,1,0,0,0
2051128000,15.966018,-1.0,1.689556,0.0,0.8866863,1.012751,nan,nan,0.0,0.0,0.0,0.0,0.0,0.0,0.0,0.0,0.0,0.0,0.0,0.0,0.0,0.0,0.0,0.0,0.0,0.0,0.005,15.946017,16.18,0.98888874,0.0,0.0,6.0133185,0,0,0,0,0,0,0,0,0,1,4,0,0,1,0,0,0
2051328000,15.960018,-1.0,1.682812,0.0,0.88335323,1.0131309,nan,nan,0.0,0.0,0.0,0.0,0.0,0.0,0.0,0.0,0.0,0.0,0.0,0.0,0.0,0.0,0.0,0.0,0.0,0.0,0.005,15.940018,16.18,0.98888874,0.0,0.0,6.0133185,0,0,0,0,0,0,0,0,0,1,4,0,0,1,0,0,0
2051528000,15.954019,-1.0,1.6760948,0.0,0.8800211,1.0135112,nan,nan,0.0,0.0,0.0,0.0,0.0,0.0,0.0,0.0,0.0,0.0,0.0,0.0,0.0,0.0,0.0,0.0,0.0,0.0,0.005,15.934018,16.18,0.98888874,0.0,0.0,6.0133185,0,0,0,0,0,0,0,0,0,1,4,0,0,1,0,0,0
2051728000,15.948019,-1.0,1.6694045,0.0,0.876688,1.0138916,nan,nan,0.0,0.0,0.0,0.0,0.0,0.0,0.0,0.0,0.0,0.0,0.0,0.0,0.0,0.0,0.0,0.0,0.0,0.0,0.005,15.928019,16.18,0.98888874,0.0,0.0,6.0133185,0,0,0,0,0,0,0,0,0,1,4,0,0,1,0,0,0
2051928000,15.942019,-1.0,1.6627408,0.0,0.87335587,1.0142725,nan,nan,0.0,0.0,0.0,0.0,0.0,0.0,0.0,0.0,0.0,0.0,0.0,0.0,0.0,0.0,0.0,0.0,0.0,0.0,0.005,15.922019,16.18,0.98888874,0.0,0.0,6.0133185,0,0,0,0,0,0,0,0,0,1,4,0,0,1,0,0,0
2052128000,15.93602,-1.0,1.6561038,0.0,0.8700228,1.0146534,nan,nan,0.0,0.0,0.0,0.0,0.0,0.0,0.0,0.0,0.0,0.0,0.0,0.0,0.0,0.0,0.0,0.0,0.0,0.0,0.005,15.916019,16.18,0.98888874,0.0,0.0,6.0133185,0,0,0,0,0,0,0,0,0,1,4,0,0,1,0,0,0
2052328000,15.93002,-1.0,1.6494935,0.0,0.86669064,1.0150348,nan,nan,0.0,0.0,0.0,0.0,0.0,0.0,0.0,0.0,0.0,0.0,0.0,0.0,0.0,0.0,0.0,0.0,0.0,0.0,0.005,15.91002,16.18,0.98888874,0.0,0.0,6.0133185,0,0,0,0,0,0,0,0,0,1,4,0,0,1,0,0,0
2052528000,15.924021,-1.0,1.6429093,0.0,0.86335754,1.0154165,nan,nan,0.0,0.0,0.0,0.0,0.0,0.0,0.0,0.0,0.0,0.0,0.0,0.0,0.0,0.0,0.0,0.0,0.0,0.0,0.005,15.90402,16.18,0.98888874,0.0,0.0,6.0133185,0,0,0,0,0,0,0,0,0,1,4,0,0,1,0,0,0
2052728000,15.918021,-1.0,1.6363515,0.0,0.8600254,1.0157984,nan,nan,0.0,0.0,0.0,0.0,0.0,0.0,0.0,0.0,0.0,0.0,0.0,0.0,0.0,0.0,0.0,0.0,0.0,0.0,0.005,15.898021,16.18,0.98888874,0.0,0.0,6.0133185,0,0,0,0,0,0,0,0,0,1,4,0,0,1,0,0,0
2052928000,15.912022,-1.0,1.6298198,0.0,0.85669327,1.0161806,nan,nan,0.0,0.0,0.0,0.0,0.0,0.0,0.0,0.0,0.0,0.0,0.0,0.0,0.0,0.0,0.0,0.0,0.0,0.0,0.005,15.892021,16.18,0.98888874,0.0,0.0,6.0133185,0,0,0,0,0,0,0,0,0,1,4,0,0,1,0,0,0
2053128000,15.906022,-1.0,1.6233141,0.0,0.8533602,1.0165632,nan,nan,0.0,0.0,0.0,0.0,0.0,0.0,0.0,0.0,0.0,0.0,0.0,0.0,0.0,0.0,0.0,0.0,0.0,0.0,0.005,15.886022,16.18,0.98888874,0.0,0.0,6.0133185,0,0,0,0,0,0,0,0,0,1,4,0,0,1,0,0,0
2053328000,15.9000225,-1.0,1.6168345,0.0,0.8500271,1.016946,nan,nan,0.0,0.0,0.0,0.0,0.0,0.0,0.0,0.0,0.0,0.0,0.0,0.0,0.0,0.0,0.0,0.0,0.0,0.0,0.005,15.880022,16.18,0.98888874,0.0,0.0,6.0133185,0,0,0,0,0,0,0,0,0,1,4,0,0,1,0,0,0
2053528000,15.894023,-1.0,1.6103808,0.0,0.846694,1.0173292,nan,nan,0.0,0.0,0.0,0.0,0.0,0.0,0.0,0.0,0.0,0.0,0.0,0.0,0.0,0.0,0.0,0.0,0.0,0.0,0.005,15.8740225,16.18,0.98888874,0.0,0.0,6.0133185,0,0,0,0,0,0,0,0,0,1,4,0,0,1,0,0,0
2053728000,15.888023,-1.0,1.6039526,0.0,0.84336185,1.0177126,nan,nan,0.0,0.0,0.0,0.0,0.0,0.0,0.0,0.0,0.0,0.0,0.0,0.0,0.0,0.0,0.0,0.0,0.0,0.0,0.005,15.868023,16.18,0.98888874,0.0,0.0,6.0133185,0,0,0,0,0,0,0,0,0,1,4,0,0,1,0,0,0
2053928000,15.882024,-1.0,1.5975504,0.0,0.84002876,1.0180962,nan,nan,0.0,0.0,0.0,0.0,0.0,0.0,0.0,0.0,0.0,0.0,0.0,0.0,0.0,0.0,0.0,0.0,0.0,0.0,0.005,15.862023,16.18,0.98888874,0.0,0.0,6.0133185,0,0,0,0,0,0,0,0,0,1,4,0,0,1,0,0,0
2054128000,15.876024,-1.0,1.5911735,0.0,0.8366966,1.0184802,nan,nan,0.0,0.0,0.0,0.0,0.0,0.0,0.0,0.0,0.0,0.0,0.0,0.0,0.0,0.0,0.0,0.0,0.0,0.0,0.005,15.856024,16.18,0.98888874,0.0,0.0,6.0133185,0,0,0,0,0,0,0,0,0,1,4,0,0,1,0,0,0
2054328000,15.870025,-1.0,1.5848223,0.0,0.8333626,1.0188645,nan,nan,0.0,0.0,0.0,0.0,0.0,0.0,0.0,0.0,0.0,0.0,0.0,0.0,0.0,0.0,0.0,0.0,0.0,0.0,0.005,15.850024,16.18,0.98888874,0.0,0.0,6.0133185,0,0,0,0,0,0,0,0,0,1,4,0,0,1,0,0,0
2054528000,15.864025,-1.0,1.5784963,0.0,0.83003044,1.0192491,nan,nan,0.0,0.0,0.0,0.0,0.0,0.0,0.0,0.0,0.0,0.0,0.0,0.0,0.0,0.0,0.0,0.0,0.0,0.0,0.005,15.844025,16.18,0.98888874,0.0,0.0,6.0133185,0,0,0,0,0,0,0,0,0,1,4,0,0,1,0,0,0
2054728000,15.858026,-1.0,1.5721955,0.0,0.82669735,1.0196339,nan,nan,0.0,0.0,0.0,0.0,0.0,0.0,0.0,0.0,0.0,0.0,0.0,0.0,0.0,0.0,0.0,0.0,0.0,0.0,0.005,15.838025,16.18,0.98888874,0.0,0.0,6.0133185,0,0,0,0,0,0,0,0,0,1,4,0,0,1,0,0,0
2054928000,15.852026,-1.0,1.56592,0.0,0.8233652,1.0200189,nan,nan,0.0,0.0,0.0,0.0,0.0,0.0,0.0,0.0,0.0,0.0,0.0,0.0,0.0,0.0,0.0,0.0,0.0,0.0,0.005,15.832026,16.18,0.98888874,0.0,0.0,6.0133185,0,0,0,0,0,0,0,0,0,1,4,0,0,1,0,0,0
2055128000,15.846026,-1.0,1.5596694,0.0,0.8200321,1.0204043,nan,nan,0.0,0.0,0.0,0.0,0.0,0.0,0.0,0.0,0.0,0.0,0.0,0.0,0.0,0.0,0.0,0.0,0.0,0.0,0.005,15.826026,16.18,0.98888874,0.0,0.0,6.0133185,0,0,0,0,0,0,0,0,0,1,4,0,0,1,0,0,0
2055328000,15.840027,-1.0,1.5534438,0.0,0.8167,1.0207901,nan,nan,0.0,0.0,0.0,0.0,0.0,0.0,0.0,0.0,0.0,0.0,0.0,0.0,0.0,0.0,0.0,0.0,0.0,0.0,0.005,15.820026,16.18,0.98888874,0.0,0.0,6.0133185,0,0,0,0,0,0,0,0,0,1,4,0,0,1,0,0,0
2055528000,15.834027,-1.0,1.547243,0.0,0.8133669,1.0211761,nan,nan,0.0,0.0,0.0,0.0,0.0,0.0,0.0,0.0,0.0,0.0,0.0,0.0,0.0,0.0,0.0,0.0,0.0,0.0,0.005,15.814027,16.18,0.98888874,0.0,0.0,6.0133185,0,0,0,0,0,0,0,0,0,1,4,0,0,1,0,0,0
2055728000,15.828028,-1.0,1.5410669,0.0,0.8100338,1.0215625,nan,nan,0.0,0.0,0.0,0.0,0.0,0.0,0.0,0.0,0.0,0.0,0.0,0.0,0.0,0.0,0.0,0.0,0.0,0.0,0.005,15.808027,16.18,0.98888874,0.0,0.0,6.0133185,0,0,0,0,0,0,0,0,0,1,4,0,0,1,0,0,0
2055928000,15.822028,-1.0,1.5349157,0.0,0.80670166,1.021949,nan,nan,0.0,0.0,0.0,0.0,0.0,0.0,0.0,0.0,0.0,0.0,0.0,0.0,0.0,0.0,0.0,0.0,0.0,0.0,0.005,15.802028,16.18,0.98888874,0.0,0.0,6.0133185,0,0,0,0,0,0,0,0,0,1,4,0,0,1,0,0,0
2056128000,15.816029,-1.0,1.5287888,0.0,0.80336857,1.022336,nan,nan,0.0,0.0,0.0,0.0,0.0,0.0,0.0,0.0,0.0,0.0,0.0,0.0,0.0,0.0,0.0,0.0,0.0,0.0,0.005,15.796028,16.18,0.98888874,0.0,0.0,6.0133185,0,0,0,0,0,0,0,0,0,1,4,0,0,1,0,0,0
2056328000,15.810029,-1.0,1.5226865,0.0,0.8000355,1.0227231,nan,nan,0.0,0.0,0.0,0.0,0.0,0.0,0.0,0.0,0.0,0.0,0.0,0.0,0.0,0.0,0.0,0.0,0.0,0.0,0.005,15.790029,16.18,0.98888874,0.0,0.0,6.0133185,0,0,0,0,0,0,0,0,0,1,4,0,0,1,0,0,0
2056528000,15.804029,-1.0,1.5166084,0.0,0.79670334,1.0231106,nan,nan,0.0,0.0,0.0,0.0,0.0,0.0,0.0,0.0,0.0,0.0,0.0,0.0,0.0,0.0,0.0,0.0,0.0,0.0,0.005,15.784029,16.18,0.98888874,0.0,0.0,6.0133185,0,0,0,0,0,0,0,0,0,1,4,0,0,1,0,0,0
2056728000,15.79803,-1.0,1.5105549,0.0,0.79337025,1.0234983,nan,nan,0.0,0.0,0.0,0.0,0.0,0.0,0.0,0.0,0.0,0.0,0.0,0.0,0.0,0.0,0.0,0.0,0.0,0.0,0.005,15.778029,16.18,0.98888874,0.0,0.0,6.0133185,0,0,0,0,0,0,0,0,0,1,4,0,0,1,0,0,0
2056928000,15.79203,-1.0,1.5045253,0.0,0.7900381,1.0238863,nan,nan,0.0,0.0,0.0,0.0,0.0,0.0,0.0,0.0,0.0,0.0,0.0,0.0,0.0,0.0,0.0,0.0,0.0,0.0,0.005,15.77203,16.18,0.98888874,0.0,0.0,6.0133185,0,0,0,0,0,0,0,0,0,1,4,0,0,1,0,0,0
2057128000,15.786031,-1.0,1.4985195,0.0,0.786705,1.0242747,nan,nan,0.0,0.0,0.0,0.0,0.0,0.0,0.0,0.0,0.0,0.0,0.0,0.0,0.0,0.0,0.0,0.0,0.0,0.0,0.005,15.76603,16.18,0.98888874,0.0,0.0,6.0133185,0,0,0,0,0,0,0,0,0,1,4,0,0,1,0,0,0
2057328000,15.780031,-1.0,1.4925376,0.0,0.7833729,1.0246633,nan,nan,0.0,0.0,0.0,0.0,0.0,0.0,0.0,0.0,0.0,0.0,0.0,0.0,0.0,0.0,0.0,0.0,0.0,0.0,0.005,15.760031,16.18,0.98888874,0.0,0.0,6.0133185,0,0,0,0,0,0,0,0,0,1,4,0,0,1,0,0,0
2057528000,15.774032,-1.0,1.4865795,0.0,0.78004074,1.0250522,nan,nan,0.0,0.0,0.0,0.0,0.0,0.0,0.0,0.0,0.0,0.0,0.0,0.0,0.0,0.0,0.0,0.0,0.0,0.0,0.005,15.754031,16.18,0.98888874,0.0,0.0,6.0133185,0,0,0,0,0,0,0,0,0,1,4,0,0,1,0,0,0
2057728000,15.768032,-1.0,1.4806453,0.0,0.77670574,1.0254416,nan,nan,0.0,0.0,0.0,0.0,0.0,0.0,0.0,0.0,0.0,0.0,0.0,0.0,0.0,0.0,0.0,0.0,0.0,0.0,0.005,15.748032,16.18,0.98888874,0.0,0.0,6.0133185,0,0,0,0,0,0,0,0,0,1,4,0,0,1,0,0,0
2057928000,15.7620325,-1.0,1.4747349,0.0,0.77337265,1.0258312,nan,nan,0.0,0.0,0.0,0.0,0.0,0.0,0.0,0.0,0.0,0.0,0.0,0.0,0.0,0.0,0.0,0.0,0.0,0.0,0.005,15.742032,16.18,0.98888874,0.0,0.0,6.0133185,0,0,0,0,0,0,0,0,0,1,4,0,0,1,0,0,0
2058128000,15.756033,-1.0,1.4688483,0.0,0.7700405,1.026221,nan,nan,0.0,0.0,0.0,0.0,0.0,0.0,0.0,0.0,0.0,0.0,0.0,0.0,0.0,0.0,0.0,0.0,0.0,0.0,0.005,15.7360325,16.18,0.98888874,0.0,0.0,6.0133185,0,0,0,0,0,0,0,0,0,1,4,0,0,1,0,0,0
2058328000,15.750033,-1.0,1.4629856,0.0,0.7667084,1.0266111,nan,nan,0.0,0.0,0.0,0.0,0.0,0.0,0.0,0.0,0.0,0.0,0.0,0.0,0.0,0.0,0.0,0.0,0.0,0.0,0.005,15.730033,16.18,0.98888874,0.0,0.0,6.0133185,0,0,0,0,0,0,0,0,0,1,4,0,0,1,0,0,0
2058516000,15.744393,-1.0,1.457437,0.0,0.7635422,1.026982,nan,nan,0.0,0.0,0.0,0.0,0.0,0.0,0.0,0.0,0.0,0.0,0.0,0.0,0.0,0.0,0.0,0.0,0.0,0.0,0.005,15.724393,16.18,0.98888874,0.0,0.0,6.0133185,0,0,0,0,0,0,0,0,0,1,4,0,0,1,0,0,0
2058728000,15.738034,-1.0,1.4516196,0.0,0.76019955,1.0273738,nan,nan,0.0,0.0,0.0,0.0,0.0,0.0,0.0,0.0,0.0,0.0,0.0,0.0,0.0,0.0,0.0,0.0,0.0,0.0,0.005,15.718034,16.18,0.98888874,0.0,0.0,6.0133185,0,0,0,0,0,0,0,0,0,1,4,0,0,1,0,0,0
2058928000,15.732035,-1.0,1.4458252,0.0,0.75683594,1.0277685,nan,nan,0.0,0.0,0.0,0.0,0.0,0.0,0.0,0.0,0.0,0.0,0.0,0.0,0.0,0.0,0.0,0.0,0.0,0.0,0.005,15.712034,16.18,0.98888874,0.0,0.0,6.0133185,0,0,0,0,0,0,0,0,0,1,4,0,0,1,0,0,0
2059128000,15.726035,-1.0,1.4400543,0.0,0.75347805,1.0281627,nan,nan,0.0,0.0,0.0,0.0,0.0,0.0,0.0,0.0,0.0,0.0,0.0,0.0,0.0,0.0,0.0,0.0,0.0,0.0,0.005,15.706035,16.18,0.98888874,0.0,0.0,6.0133185,0,0,0,0,0,0,0,0,0,1,4,0,0,1,0,0,0
2059316000,15.720395,-1.0,1.4345928,0.0,0.7502918,1.0285372,nan,nan,0.0,0.0,0.0,0.0,0.0,0.0,0.0,0.0,0.0,0.0,0.0,0.0,0.0,0.0,0.0,0.0,0.0,0.0,0.005,15.700395,16.18,0.98888874,0.0,0.0,6.0133185,0,0,0,0,0,0,0,0,0,1,4,0,0,1,0,0,0
2059528000,15.714036,-1.0,1.4285808,0.0,0.7467747,1.0289507,nan,nan,0.0,0.0,0.0,0.0,0.0,0.0,0.0,0.0,0.0,0.0,0.0,0.0,0.0,0.0,0.0,0.0,0.0,0.0,0.005,15.694036,16.18,0.98888874,0.0,0.0,6.0133185,0,0,0,0,0,0,0,0,0,1,4,0,0,1,0,0,0
2059728000,15.708036,-1.0,1.4228785,0.0,0.7434292,1.0293444,nan,nan,0.0,0.0,0.0,0.0,0.0,0.0,0.0,0.0,0.0,0.0,0.0,0.0,0.0,0.0,0.0,0.0,0.0,0.0,0.005,15.688036,16.18,0.98888874,0.0,0.0,6.0133185,0,0,0,0,0,0,0,0,0,1,4,0,0,1,0,0,0
2059928000,15.702037,-1.0,1.4171989,0.0,0.74008656,1.0297382,nan,nan,0.0,0.0,0.0,0.0,0.0,0.0,0.0,0.0,0.0,0.0,0.0,0.0,0.0,0.0,0.0,0.0,0.0,0.0,0.005,15.682036,16.18,0.98888874,0.0,0.0,6.0133185,0,0,0,0,0,0,0,0,0,1,4,0,0,1,0,0,0
2060128000,15.696037,-1.0,1.411542,0.0,0.736743,1.0301322,nan,nan,0.0,0.0,0.0,0.0,0.0,0.0,0.0,0.0,0.0,0.0,0.0,0.0,0.0,0.0,0.0,0.0,0.0,0.0,0.005,15.676037,16.18,0.98888874,0.0,0.0,6.0133185,0,0,0,0,0,0,0,0,0,1,4,0,0,1,0,0,0
2060328000,15.690038,-1.0,1.4059078,0.0,0.7334013,1.0305263,nan,nan,0.0,0.0,0.0,0.0,0.0,0.0,0.0,0.0,0.0,0.0,0.0,0.0,0.0,0.0,0.0,0.0,0.0,0.0,0.005,15.670037,16.18,0.98888874,0.0,0.0,6.0133185,0,0,0,0,0,0,0,0,0,1,4,0,0,1,0,0,0
2060528000,15.684038,-1.0,1.400296,0.0,0.73006344,1.0309204,nan,nan,0.0,0.0,0.0,0.0,0.0,0.0,0.0,0.0,0.0,0.0,0.0,0.0,0.0,0.0,0.0,0.0,0.0,0.0,0.005,15.664038,16.18,0.98888874,0.0,0.0,6.0133185,0,0,0,0,0,0,0,0,0,1,4,0,0,1,0,0,0
2060728000,15.678039,-1.0,1.3947066,0.0,0.7267256,1.0313146,nan,nan,0.0,0.0,0.0,0.0,0.0,0.0,0.0,0.0,0.0,0.0,0.0,0.0,0.0,0.0,0.0,0.0,0.0,0.0,0.005,15.658038,16.18,0.98888874,0.0,0.0,6.0133185,0,0,0,0,0,0,0,0,0,1,4,0,0,1,0,0,0
2060928000,15.672039,-1.0,1.3891394,0.0,0.7233877,1.0317093,nan,nan,0.0,0.0,0.0,0.0,0.0,0.0,0.0,0.0,0.0,0.0,0.0,0.0,0.0,0.0,0.0,0.0,0.0,0.0,0.005,15.652039,16.18,0.98888874,0.0,0.0,6.0133185,0,0,0,0,0,0,0,0,0,1,4,0,0,1,0,0,0
2061128000,15.666039,-1.0,1.3835945,0.0,0.7200508,1.0321041,nan,nan,0.0,0.0,0.0,0.0,0.0,0.0,0.0,0.0,0.0,0.0,0.0,0.0,0.0,0.0,0.0,0.0,0.0,0.0,0.005,15.646039,16.18,0.98888874,0.0,0.0,6.0133185,0,0,0,0,0,0,0,0,0,1,4,0,0,1,0,0,0
2061328000,15.66004,-1.0,1.3780718,0.0,0.7167177,1.0324987,nan,nan,0.0,0.0,0.0,0.0,0.0,0.0,0.0,0.0,0.0,0.0,0.0,0.0,0.0,0.0,0.0,0.0,0.0,0.0,0.005,15.640039,16.18,0.98888874,0.0,0.0,6.0133185,0,0,0,0,0,0,0,0,0,1,4,0,0,1,0,0,0
2061528000,15.65404,-1.0,1.372571,0.0,0.7133846,1.0328938,nan,nan,0.0,0.0,0.0,0.0,0.0,0.0,0.0,0.0,0.0,0.0,0.0,0.0,0.0,0.0,0.0,0.0,0.0,0.0,0.005,15.63404,16.18,0.98888874,0.0,0.0,6.0133185,0,0,0,0,0,0,0,0,0,1,4,0,0,1,0,0,0
2061728000,15.648041,-1.0,1.3670923,0.0,0.71005154,1.033289,nan,nan,0.0,0.0,0.0,0.0,0.0,0.0,0.0,0.0,0.0,0.0,0.0,0.0,0.0,0.0,0.0,0.0,0.0,0.0,0.005,15.62804,16.18,0.98888874,0.0,0.0,6.0133185,0,0,0,0,0,0,0,0,0,1,4,0,0,1,0,0,0
2061928000,15.642041,-1.0,1.3616354,0.0,0.7067175,1.0336846,nan,nan,0.0,0.0,0.0,0.0,0.0,0.0,0.0,0.0,0.0,0.0,0.0,0.0,0.0,0.0,0.0,0.0,0.0,0.0,0.005,15.622041,16.18,0.98888874,0.0,0.0,6.0133185,0,0,0,0,0,0,0,0,0,1,4,0,0,1,0,0,0
2062128000,15.636042,-1.0,1.3562002,0.0,0.70338535,1.0340804,nan,nan,0.0,0.0,0.0,0.0,0.0,0.0,0.0,0.0,0.0,0.0,0.0,0.0,0.0,0.0,0.0,0.0,0.0,0.0,0.005,15.616041,16.18,0.98888874,0.0,0.0,6.0133185,0,0,0,0,0,0,0,0,0,1,4,0,0,1,0,0,0
2062328000,15.630042,-1.0,1.3507867,0.0,0.70005226,1.0344766,nan,nan,0.0,0.0,0.0,0.0,0.0,0.0,0.0,0.0,0.0,0.0,0.0,0.0,0.0,0.0,0.0,0.0,0.0,0.0,0.005,15.610042,16.18,0.98888874,0.0,0.0,6.0133185,0,0,0,0,0,0,0,0,0,1,4,0,0,1,0,0,0
2062528000,15.6240425,-1.0,1.3453948,0.0,0.69671917,1.034873,nan,nan,0.0,0.0,0.0,0.0,0.0,0.0,0.0,0.0,0.0,0.0,0.0,0.0,0.0,0.0,0.0,0.0,0.0,0.0,0.005,15.604042,16.18,0.98888874,0.0,0.0,6.0133185,0,0,0,0,0,0,0,0,0,1,4,0,0,1,0,0,0
2062728000,15.618043,-1.0,1.3400246,0.0,0.6933861,1.0352699,nan,nan,0.0,0.0,0.0,0.0,0.0,0.0,0.0,0.0,0.0,0.0,0.0,0.0,0.0,0.0,0.0,0.0,0.0,0.0,0.005,15.5980425,16.18,0.98888874,0.0,0.0,6.0133185,0,0,0,0,0,0,0,0,0,1,4,0,0,1,0,0,0
2062928000,15.612043,-1.0,1.3346758,0.0,0.690053,1.035667,nan,nan,0.0,0.0,0.0,0.0,0.0,0.0,0.0,0.0,0.0,0.0,0.0,0.0,0.0,0.0,0.0,0.0,0.0,0.0,0.005,15.592043,16.18,0.98888874,0.0,0.0,6.0133185,0,0,0,0,0,0,0,0,0,1,4,0,0,1,0,0,0
2063128000,15.606044,-1.0,1.3293482,0.0,0.6867199,1.0360643,nan,nan,0.0,0.0,0.0,0.0,0.0,0.0,0.0,0.0,0.0,0.0,0.0,0.0,0.0,0.0,0.0,0.0,0.0,0.0,0.005,15.586043,16.18,0.98888874,0.0,0.0,6.0133185,0,0,0,0,0,0,0,0,0,1,4,0,0,1,0,0,0
2063328000,15.600044,-1.0,1.3240421,0.0,0.6833868,1.036462,nan,nan,0.0,0.0,0.0,0.0,0.0,0.0,0.0,0.0,0.0,0.0,0.0,0.0,0.0,0.0,0.0,0.0,0.0,0.0,0.005,15.580044,16.18,0.98888874,0.0,0.0,6.0133185,0,0,0,0,0,0,0,0,0,1,4,0,0,1,0,0,0
2063528000,15.594045,-1.0,1.318757,0.0,0.6800537,1.03686,nan,nan,0.0,0.0,0.0,0.0,0.0,0.0,0.0,0.0,0.0,0.0,0.0,0.0,0.0,0.0,0.0,0.0,0.0,0.0,0.005,15.574044,16.18,0.98888874,0.0,0.0,6.0133185,0,0,0,0,0,0,0,0,0,1,4,0,0,1,0,0,0
2063728000,15.588045,-1.0,1.313493,0.0,0.6767206,1.0372583,nan,nan,0.0,0.0,0.0,0.0,0.0,0.0,0.0,0.0,0.0,0.0,0.0,0.0,0.0,0.0,0.0,0.0,0.0,0.0,0.005,15.568045,16.18,0.98888874,0.0,0.0,6.0133185,0,0,0,0,0,0,0,0,0,1,4,0,0,1,0,0,0
2063928000,15.582046,-1.0,1.3082501,0.0,0.6733875,1.0376569,nan,nan,0.0,0.0,0.0,0.0,0.0,0.0,0.0,0.0,0.0,0.0,0.0,0.0,0.0,0.0,0.0,0.0,0.0,0.0,0.005,15.562045,16.18,0.98888874,0.0,0.0,6.0133185,0,0,0,0,0,0,0,0,0,1,4,0,0,1,0,0,0
2064128000,15.576046,-1.0,1.3030281,0.0,0.67005444,1.0380558,nan,nan,0.0,0.0,0.0,0.0,0.0,0.0,0.0,0.0,0.0,0.0,0.0,0.0,0.0,0.0,0.0,0.0,0.0,0.0,0.005,15.556046,16.18,0.98888874,0.0,0.0,6.0133185,0,0,0,0,0,0,0,0,0,1,4,0,0,1,0,0,0
2064328000,15.570046,-1.0,1.297827,0.0,0.66672134,1.038455,nan,nan,0.0,0.0,0.0,0.0,0.0,0.0,0.0,0.0,0.0,0.0,0.0,0.0,0.0,0.0,0.0,0.0,0.0,0.0,0.005,15.550046,16.18,0.98888874,0.0,0.0,6.0133185,0,0,0,0,0,0,0,0,0,1,4,0,0,1,0,0,0
2064528000,15.564047,-1.0,1.2926465,0.0,0.6633873,1.0388546,nan,nan,0.0,0.0,0.0,0.0,0.0,0.0,0.0,0.0,0.0,0.0,0.0,0.0,0.0,0.0,0.0,0.0,0.0,0.0,0.005,15.544046,16.18,0.98888874,0.0,0.0,6.0133185,0,0,0,0,0,0,0,0,0,1,4,0,0,1,0,0,0
2064728000,15.558047,-1.0,1.2874868,0.0,0.66005516,1.0392544,nan,nan,0.0,0.0,0.0,0.0,0.0,0.0,0.0,0.0,0.0,0.0,0.0,0.0,0.0,0.0,0.0,0.0,0.0,0.0,0.005,15.538047,16.18,0.98888874,0.0,0.0,6.0133185,0,0,0,0,0,0,0,0,0,1,4,0,0,1,0,0,0
2064928000,15.552048,-1.0,1.2823477,0.0,0.65672207,1.0396545,nan,nan,0.0,0.0,0.0,0.0,0.0,0.0,0.0,0.0,0.0,0.0,0.0,0.0,0.0,0.0,0.0,0.0,0.0,0.0,0.005,15.532047,16.18,0.98888874,0.0,0.0,6.0133185,0,0,0,0,0,0,0,0,0,1,4,0,0,1,0,0,0
2065128000,15.546048,-1.0,1.277229,0.0,0.653389,1.040055,nan,nan,0.0,0.0,0.0,0.0,0.0,0.0,0.0,0.0,0.0,0.0,0.0,0.0,0.0,0.0,0.0,0.0,0.0,0.0,0.005,15.526048,16.18,0.98888874,0.0,0.0,6.0133185,0,0,0,0,0,0,0,0,0,1,4,0,0,1,0,0,0
2065328000,15.540049,-1.0,1.2721307,0.0,0.6500559,1.0404557,nan,nan,0.0,0.0,0.0,0.0,0.0,0.0,0.0,0.0,0.0,0.0,0.0,0.0,0.0,0.0,0.0,0.0,0.0,0.0,0.005,15.520048,16.18,0.98888874,0.0,0.0,6.0133185,0,0,0,0,0,0,0,0,0,1,4,0,0,1,0,0,0
2065528000,15.534048,-1.0,1.2670529,0.0,0.6467228,1.0408568,nan,nan,0.0,0.0,0.0,0.0,0.0,0.0,0.0,0.0,0.0,0.0,0.0,0.0,0.0,0.0,0.0,0.0,0.0,0.0,0.005,15.514048,16.18,0.98888874,0.0,0.0,6.0133185,0,0,0,0,0,0,0,0,0,1,4,0,0,1,0,0,0
2065728000,15.528049,-1.0,1.2619953,0.0,0.6433878,1.0412583,nan,nan,0.0,0.0,0.0,0.0,0.0,0.0,0.0,0.0,0.0,0.0,0.0,0.0,0.0,0.0,0.0,0.0,0.0,0.0,0.005,15.508049,16.18,0.98888874,0.0,0.0,6.0133185,0,0,0,0,0,0,0,0,0,1,4,0,0,1,0,0,0
2065928000,15.522049,-1.0,1.2569579,0.0,0.64005566,1.04166,nan,nan,0.0,0.0,0.0,0.0,0.0,0.0,0.0,0.0,0.0,0.0,0.0,0.0,0.0,0.0,0.0,0.0,0.0,0.0,0.005,15.5020485,16.18,0.98888874,0.0,0.0,6.0133185,0,0,0,0,0,0,0,0,0,1,4,0,0,1,0,0,0
2066128000,15.51605,-1.0,1.2519406,0.0,0.63672256,1.0420619,nan,nan,0.0,0.0,0.0,0.0,0.0,0.0,0.0,0.0,0.0,0.0,0.0,0.0,0.0,0.0,0.0,0.0,0.0,0.0,0.005,15.49605,16.18,0.98888874,0.0,0.0,6.0133185,0,0,0,0,0,0,0,0,0,1,4,0,0,1,0,0,0
2066328000,15.51005,-1.0,1.2469434,0.0,0.6333904,1.0424641,nan,nan,0.0,0.0,0.0,0.0,0.0,0.0,0.0,0.0,0.0,0.0,0.0,0.0,0.0,0.0,0.0,0.0,0.0,0.0,0.005,15.490049,16.18,0.98888874,0.0,0.0,6.0133185,0,0,0,0,0,0,0,0,0,1,4,0,0,1,0,0,0
2066528000,15.504051,-1.0,1.2419659,0.0,0.63005733,1.0428668,nan,nan,0.0,0.0,0.0,0.0,0.0,0.0,0.0,0.0,0.0,0.0,0.0,0.0,0.0,0.0,0.0,0.0,0.0,0.0,0.005,15.484051,16.18,0.98888874,0.0,0.0,6.0133185,0,0,0,0,0,0,0,0,0,1,4,0,0,1,0,0,0
2066728000,15.498051,-1.0,1.2370085,0.0,0.62672424,1.0432698,nan,nan,0.0,0.0,0.0,0.0,0.0,0.0,0.0,0.0,0.0,0.0,0.0,0.0,0.0,0.0,0.0,0.0,0.0,0.0,0.005,15.47805,16.18,0.98888874,0.0,0.0,6.0133185,0,0,0,0,0,0,0,0,0,1,4,0,0,1,0,0,0
2066928000,15.492052,-1.0,1.2320708,0.0,0.62339115,1.0436729,nan,nan,0.0,0.0,0.0,0.0,0.0,0.0,0.0,0.0,0.0,0.0,0.0,0.0,0.0,0.0,0.0,0.0,0.0,0.0,0.005,15.472052,16.18,0.98888874,0.0,0.0,6.0133185,0,0,0,0,0,0,0,0,0,1,4,0,0,1,0,0,0
2067128000,15.486052,-1.0,1.2271528,0.0,0.62005806,1.0440766,nan,nan,0.0,0.0,0.0,0.0,0.0,0.0,0.0,0.0,0.0,0.0,0.0,0.0,0.0,0.0,0.0,0.0,0.0,0.0,0.005,15.466051,16.18,0.98888874,0.0,0.0,6.0133185,0,0,0,0,0,0,0,0,0,1,4,0,0,1,0,0,0
2067316000,15.4804125,-1.0,1.222499,0.0,0.61689186,1.0444602,nan,nan,0.0,0.0,0.0,0.0,0.0,0.0,0.0,0.0,0.0,0.0,0.0,0.0,0.0,0.0,0.0,0.0,0.0,0.0,0.005,15.460412,16.18,0.98888874,0.0,0.0,6.0133185,0,0,0,0,0,0,0,0,0,1,4,0,0,1,0,0,0
2067528000,15.474052,-1.0,1.2173758,0.0,0.6133919,1.0448846,nan,nan,0.0,0.0,0.0,0.0,0.0,0.0,0.0,0.0,0.0,0.0,0.0,0.0,0.0,0.0,0.0,0.0,0.0,0.0,0.005,15.454052,16.18,0.98888874,0.0,0.0,6.0133185,0,0,0,0,0,0,0,0,0,1,4,0,0,1,0,0,0
2067728000,15.468054,-1.0,1.2125164,0.0,0.6100588,1.045289,nan,nan,0.0,0.0,0.0,0.0,0.0,0.0,0.0,0.0,0.0,0.0,0.0,0.0,0.0,0.0,0.0,0.0,0.0,0.0,0.005,15.448053,16.18,0.98888874,0.0,0.0,6.0133185,0,0,0,0,0,0,0,0,0,1,4,0,0,1,0,0,0
2067928000,15.462053,-1.0,1.2076765,0.0,0.6067257,1.0456939,nan,nan,0.0,0.0,0.0,0.0,0.0,0.0,0.0,0.0,0.0,0.0,0.0,0.0,0.0,0.0,0.0,0.0,0.0,0.0,0.005,15.442053,16.18,0.98888874,0.0,0.0,6.0133185,0,0,0,0,0,0,0,0,0,1,4,0,0,1,0,0,0
2068116000,15.456414,-1.0,1.2030965,0.0,0.6035595,1.0460787,nan,nan,0.0,0.0,0.0,0.0,0.0,0.0,0.0,0.0,0.0,0.0,0.0,0.0,0.0,0.0,0.0,0.0,0.0,0.0,0.005,15.436414,16.18,0.98888874,0.0,0.0,6.0133185,0,0,0,0,0,0,0,0,0,1,4,0,0,1,0,0,0
2068328000,15.450054,-1.0,1.1980547,0.0,0.6000595,1.0465044,nan,nan,0.0,0.0,0.0,0.0,0.0,0.0,0.0,0.0,0.0,0.0,0.0,0.0,0.0,0.0,0.0,0.0,0.0,0.0,0.005,15.430054,16.18,0.98888874,0.0,0.0,6.0133185,0,0,0,0,0,0,0,0,0,1,4,0,0,1,0,0,0
2068528000,15.444056,-1.0,1.1932725,0.0,0.5967264,1.0469102,nan,nan,0.0,0.0,0.0,0.0,0.0,0.0,0.0,0.0,0.0,0.0,0.0,0.0,0.0,0.0,0.0,0.0,0.0,0.0,0.005,15.424055,16.18,0.98888874,0.0,0.0,6.0133185,0,0,0,0,0,0,0,0,0,1,4,0,0,1,0,0,0
2068728000,15.438055,-1.0,1.1885093,0.0,0.5933933,1.0473162,nan,nan,0.0,0.0,0.0,0.0,0.0,0.0,0.0,0.0,0.0,0.0,0.0,0.0,0.0,0.0,0.0,0.0,0.0,0.0,0.005,15.418055,16.18,0.98888874,0.0,0.0,6.0133185,0,0,0,0,0,0,0,0,0,1,4,0,0,1,0,0,0
2068928000,15.432056,-1.0,1.1837653,0.0,0.59006023,1.0477226,nan,nan,0.0,0.0,0.0,0.0,0.0,0.0,0.0,0.0,0.0,0.0,0.0,0.0,0.0,0.0,0.0,0.0,0.0,0.0,0.005,15.412056,16.18,0.98888874,0.0,0.0,6.0133185,0,0,0,0,0,0,0,0,0,1,4,0,0,1,0,0,0
2069128000,15.426056,-1.0,1.1790403,0.0,0.58672714,1.0481293,nan,nan,0.0,0.0,0.0,0.0,0.0,0.0,0.0,0.0,0.0,0.0,0.0,0.0,0.0,0.0,0.0,0.0,0.0,0.0,0.005,15.406055,16.18,0.98888874,0.0,0.0,6.0133185,0,0,0,0,0,0,0,0,0,1,4,0,0,1,0,0,0
2069328000,15.420057,-1.0,1.1743339,0.0,0.58339405,1.0485363,nan,nan,0.0,0.0,0.0,0.0,0.0,0.0,0.0,0.0,0.0,0.0,0.0,0.0,0.0,0.0,0.0,0.0,0.0,0.0,0.005,15.400057,16.18,0.98888874,0.0,0.0,6.0133185,0,0,0,0,0,0,0,0,0,1,4,0,0,1,0,0,0
2069516000,15.414417,-1.0,1.1698804,0.0,0.58022785,1.0489233,nan,nan,0.0,0.0,0.0,0.0,0.0,0.0,0.0,0.0,0.0,0.0,0.0,0.0,0.0,0.0,0.0,0.0,0.0,0.0,0.005,15.394417,16.18,0.98888874,0.0,0.0,6.0133185,0,0,0,0,0,0,0,0,0,1,4,0,0,1,0,0,0
2069728000,15.408058,-1.0,1.1649777,0.0,0.57672787,1.0493512,nan,nan,0.0,0.0,0.0,0.0,0.0,0.0,0.0,0.0,0.0,0.0,0.0,0.0,0.0,0.0,0.0,0.0,0.0,0.0,0.005,15.388058,16.18,0.98888874,0.0,0.0,6.0133185,0,0,0,0,0,0,0,0,0,1,4,0,0,1,0,0,0
2069928000,15.402058,-1.0,1.1603276,0.0,0.5733948,1.0497593,nan,nan,0.0,0.0,0.0,0.0,0.0,0.0,0.0,0.0,0.0,0.0,0.0,0.0,0.0,0.0,0.0,0.0,0.0,0.0,0.005,15.382057,16.18,0.98888874,0.0,0.0,6.0133185,0,0,0,0,0,0,0,0,0,1,4,0,0,1,0,0,0
2070128000,15.396058,-1.0,1.155696,0.0,0.5700617,1.0501676,nan,nan,0.0,0.0,0.0,0.0,0.0,0.0,0.0,0.0,0.0,0.0,0.0,0.0,0.0,0.0,0.0,0.0,0.0,0.0,0.005,15.376058,16.18,0.98888874,0.0,0.0,6.0133185,0,0,0,0,0,0,0,0,0,1,4,0,0,1,0,0,0
2070328000,15.3900585,-1.0,1.1510829,0.0,0.5667286,1.0505761,nan,nan,0.0,0.0,0.0,0.0,0.0,0.0,0.0,0.0,0.0,0.0,0.0,0.0,0.0,0.0,0.0,0.0,0.0,0.0,0.005,15.370058,16.18,0.98888874,0.0,0.0,6.0133185,0,0,0,0,0,0,0,0,0,1,4,0,0,1,0,0,0
2070528000,15.384059,-1.0,1.1464883,0.0,0.5633955,1.050985,nan,nan,0.0,0.0,0.0,0.0,0.0,0.0,0.0,0.0,0.0,0.0,0.0,0.0,0.0,0.0,0.0,0.0,0.0,0.0,0.005,15.3640585,16.18,0.98888874,0.0,0.0,6.0133185,0,0,0,0,0,0,0,0,0,1,4,0,0,1,0,0,0
2070728000,15.378059,-1.0,1.141912,0.0,0.5600624,1.0513942,nan,nan,0.0,0.0,0.0,0.0,0.0,0.0,0.0,0.0,0.0,0.0,0.0,0.0,0.0,0.0,0.0,0.0,0.0,0.0,0.005,15.358059,16.18,0.98888874,0.0,0.0,6.0133185,0,0,0,0,0,0,0,0,0,1,4,0,0,1,0,0,0
2070928000,15.37206,-1.0,1.1373539,0.0,0.5567293,1.0518038,nan,nan,0.0,0.0,0.0,0.0,0.0,0.0,0.0,0.0,0.0,0.0,0.0,0.0,0.0,0.0,0.0,0.0,0.0,0.0,0.005,15.352059,16.18,0.98888874,0.0,0.0,6.0133185,0,0,0,0,0,0,0,0,0,1,4,0,0,1,0,0,0
2071128000,15.36606,-1.0,1.132814,0.0,0.5533962,1.0522137,nan,nan,0.0,0.0,0.0,0.0,0.0,0.0,0.0,0.0,0.0,0.0,0.0,0.0,0.0,0.0,0.0,0.0,0.0,0.0,0.005,15.34606,16.18,0.98888874,0.0,0.0,6.0133185,0,0,0,0,0,0,0,0,0,1,4,0,0,1,0,0,0
2071328000,15.360061,-1.0,1.1282923,0.0,0.55006313,1.0526239,nan,nan,0.0,0.0,0.0,0.0,0.0,0.0,0.0,0.0,0.0,0.0,0.0,0.0,0.0,0.0,0.0,0.0,0.0,0.0,0.005,15.34006,16.18,0.98888874,0.0,0.0,6.0133185,0,0,0,0,0,0,0,0,0,1,4,0,0,1,0,0,0
2071528000,15.354061,-1.0,1.1237886,0.0,0.54673004,1.0530343,nan,nan,0.0,0.0,0.0,0.0,0.0,0.0,0.0,0.0,0.0,0.0,0.0,0.0,0.0,0.0,0.0,0.0,0.0,0.0,0.005,15.334061,16.18,0.98888874,0.0,0.0,6.0133185,0,0,0,0,0,0,0,0,0,1,4,0,0,1,0,0,0
2071728000,15.348062,-1.0,1.1193027,0.0,0.54339695,1.0534452,nan,nan,0.0,0.0,0.0,0.0,0.0,0.0,0.0,0.0,0.0,0.0,0.0,0.0,0.0,0.0,0.0,0.0,0.0,0.0,0.005,15.328061,16.18,0.98888874,0.0,0.0,6.0133185,0,0,0,0,0,0,0,0,0,1,4,0,0,1,0,0,0
2071928000,15.342062,-1.0,1.1148348,0.0,0.54006386,1.0538564,nan,nan,0.0,0.0,0.0,0.0,0.0,0.0,0.0,0.0,0.0,0.0,0.0,0.0,0.0,0.0,0.0,0.0,0.0,0.0,0.005,15.322062,16.18,0.98888874,0.0,0.0,6.0133185,0,0,0,0,0,0,0,0,0,1,4,0,0,1,0,0,0
2072128000,15.336062,-1.0,1.1103847,0.0,0.53673077,1.0542678,nan,nan,0.0,0.0,0.0,0.0,0.0,0.0,0.0,0.0,0.0,0.0,0.0,0.0,0.0,0.0,0.0,0.0,0.0,0.0,0.005,15.316062,16.18,0.98888874,0.0,0.0,6.0133185,0,0,0,0,0,0,0,0,0,1,4,0,0,1,0,0,0
2072328000,15.330063,-1.0,1.1059525,0.0,0.5333977,1.0546796,nan,nan,0.0,0.0,0.0,0.0,0.0,0.0,0.0,0.0,0.0,0.0,0.0,0.0,0.0,0.0,0.0,0.0,0.0,0.0,0.005,15.310062,16.18,0.98888874,0.0,0.0,6.0133185,0,0,0,0,0,0,0,0,0,1,4,0,0,1,0,0,0
2072528000,15.324063,-1.0,1.101538,0.0,0.5300646,1.0550917,nan,nan,0.0,0.0,0.0,0.0,0.0,0.0,0.0,0.0,0.0,0.0,0.0,0.0,0.0,0.0,0.0,0.0,0.0,0.0,0.005,15.304063,16.18,0.98888874,0.0,0.0,6.0133185,0,0,0,0,0,0,0,0,0,1,4,0,0,1,0,0,0
2072716000,15.318424,-1.0,1.0973605,0.0,0.5268984,1.0554835,nan,nan,0.0,0.0,0.0,0.0,0.0,0.0,0.0,0.0,0.0,0.0,0.0,0.0,0.0,0.0,0.0,0.0,0.0,0.0,0.005,15.298424,16.18,0.98888874,0.0,0.0,6.0133185,0,0,0,0,0,0,0,0,0,1,4,0,0,1,0,0,0
2072928000,15.312064,-1.0,1.0927618,0.0,0.5233984,1.0559169,nan,nan,0.0,0.0,0.0,0.0,0.0,0.0,0.0,0.0,0.0,0.0,0.0,0.0,0.0,0.0,0.0,0.0,0.0,0.0,0.005,15.292064,16.18,0.98888874,0.0,0.0,6.0133185,0,0,0,0,0,0,0,0,0,1,4,0,0,1,0,0,0
2073128000,15.306065,-1.0,1.0883999,0.0,0.5200653,1.05633,nan,nan,0.0,0.0,0.0,0.0,0.0,0.0,0.0,0.0,0.0,0.0,0.0,0.0,0.0,0.0,0.0,0.0,0.0,0.0,0.005,15.286064,16.18,0.98888874,0.0,0.0,6.0133185,0,0,0,0,0,0,0,0,0,1,4,0,0,1,0,0,0
2073328000,15.300065,-1.0,1.0840554,0.0,0.5167322,1.0567434,nan,nan,0.0,0.0,0.0,0.0,0.0,0.0,0.0,0.0,0.0,0.0,0.0,0.0,0.0,0.0,0.0,0.0,0.0,0.0,0.005,15.280065,16.18,0.98888874,0.0,0.0,6.0133185,0,0,0,0,0,0,0,0,0,1,4,0,0,1,0,0,0
2073528000,15.3,-1.0,1.0797284,0.0,0.5137119,1.0571182,nan,nan,0.0,0.0,0.0,0.0,0.0,0.0,0.0,0.0,0.0,0.0,0.0,0.0,0.0,0.0,0.0,0.0,0.0,0.0,0.005,15.28,16.18,0.98888874,0.0,0.0,6.0133185,0,0,0,0,0,0,0,0,0,1,4,0,0,1,0,0,0
2073728000,15.3,-1.0,1.0754185,0.0,0.5112381,1.0574255,nan,nan,0.0,0.0,0.0,0.0,0.0,0.0,0.0,0.0,0.0,0.0,0.0,0.0,0.0,0.0,0.0,0.0,0.0,0.0,0.005,15.28,16.18,0.98888874,0.0,0.0,6.0133185,0,0,0,0,0,0,0,0,0,1,4,0,0,1,0,0,0
2073928000,15.3,-1.0,1.0711259,0.0,0.5092087,1.0576776,nan,nan,0.0,0.0,0.0,0.0,0.0,0.0,0.0,0.0,0.0,0.0,0.0,0.0,0.0,0.0,0.0,0.0,0.0,0.0,0.005,15.28,16.18,0.98888874,0.0,0.0,6.0133185,0,0,0,0,0,0,0,0,0,1,4,0,0,1,0,0,0
2074128000,15.3,-1.0,1.0668503,0.0,0.5075474,1.0578842,nan,nan,0.0,0.0,0.0,0.0,0.0,0.0,0.0,0.0,0.0,0.0,0.0,0.0,0.0,0.0,0.0,0.0,0.0,0.0,0.005,15.28,16.18,0.98888874,0.0,0.0,6.0133185,0,0,0,0,0,0,0,0,0,1,4,0,0,1,0,0,0
2074328000,15.3,-1.0,1.0625918,0.0,0.50618553,1.0580536,nan,nan,0.0,0.0,0.0,0.0,0.0,0.0,0.0,0.0,0.0,0.0,0.0,0.0,0.0,0.0,0.0,0.0,0.0,0.0,0.005,15.28,16.18,0.98888874,0.0,0.0,6.0133185,0,0,0,0,0,0,0,0,0,1,4,0,0,1,0,0,0
2074528000,15.3,-1.0,1.0583503,0.0,0.5050669,1.0581927,nan,nan,0.0,0.0,0.0,0.0,0.0,0.0,0.0,0.0,0.0,0.0,0.0,0.0,0.0,0.0,0.0,0.0,0.0,0.0,0.005,15.28,16.18,0.98888874,0.0,0.0,6.0133185,0,0,0,0,0,0,0,0,0,1,4,0,0,1,0,0,0
2074728000,15.3,-1.0,1.0541258,0.0,0.5041523,1.0583066,nan,nan,0.0,0.0,0.0,0.0,0.0,0.0,0.0,0.0,0.0,0.0,0.0,0.0,0.0,0.0,0.0,0.0,0.0,0.0,0.005,15.28,16.18,0.98888874,0.0,0.0,6.0133185,0,0,0,0,0,0,0,0,0,1,4,0,0,1,0,0,0
2074928000,15.3,-1.0,1.0499182,0.0,0.5034027,1.0583999,nan,nan,0.0,0.0,0.0,0.0,0.0,0.0,0.0,0.0,0.0,0.0,0.0,0.0,0.0,0.0,0.0,0.0,0.0,0.0,0.005,15.28,16.18,0.98888874,0.0,0.0,6.0133185,0,0,0,0,0,0,0,0,0,1,4,0,0,1,0,0,0
2075128000,15.3,-1.0,1.0457274,0.0,0.50278854,1.0584763,nan,nan,0.0,0.0,0.0,0.0,0.0,0.0,0.0,0.0,0.0,0.0,0.0,0.0,0.0,0.0,0.0,0.0,0.0,0.0,0.005,15.28,16.18,0.98888874,0.0,0.0,6.0133185,0,0,0,0,0,0,0,0,0,1,4,0,0,1,0,0,0
2075328000,15.3,-1.0,1.0415533,0.0,0.50228405,1.058539,nan,nan,0.0,0.0,0.0,0.0,0.0,0.0,0.0,0.0,0.0,0.0,0.0,0.0,0.0,0.0,0.0,0.0,0.0,0.0,0.005,15.28,16.18,0.98888874,0.0,0.0,6.0133185,0,0,0,0,0,0,0,0,0,1,4,0,0,1,0,0,0
2075528000,15.3,-1.0,1.0373957,0.0,0.50187206,1.0585904,nan,nan,0.0,0.0,0.0,0.0,0.0,0.0,0.0,0.0,0.0,0.0,0.0,0.0,0.0,0.0,0.0,0.0,0.0,0.0,0.005,15.28,16.18,0.98888874,0.0,0.0,6.0133185,0,0,0,0,0,0,0,0,0,1,4,0,0,1,0,0,0
2075728000,15.3,-1.0,1.0332547,0.0,0.50153446,1.0586325,nan,nan,0.0,0.0,0.0,0.0,0.0,0.0,0.0,0.0,0.0,0.0,0.0,0.0,0.0,0.0,0.0,0.0,0.0,0.0,0.005,15.28,16.18,0.98888874,0.0,0.0,6.0133185,0,0,0,0,0,0,0,0,0,1,4,0,0,1,0,0,0
2075928000,15.3,-1.0,1.0291305,0.0,0.5012579,1.058667,nan,nan,0.0,0.0,0.0,0.0,0.0,0.0,0.0,0.0,0.0,0.0,0.0,0.0,0.0,0.0,0.0,0.0,0.0,0.0,0.005,15.28,16.18,0.98888874,0.0,0.0,6.0133185,0,0,0,0,0,0,0,0,0,1,4,0,0,1,0,0,0
2076128000,15.3,-1.0,1.0250226,0.0,0.5010309,1.0586952,nan,nan,0.0,0.0,0.0,0.0,0.0,0.0,0.0,0.0,0.0,0.0,0.0,0.0,0.0,0.0,0.0,0.0,0.0,0.0,0.005,15.28,16.18,0.98888874,0.0,0.0,6.0133185,0,0,0,0,0,0,0,0,0,1,4,0,0,1,0,0,0
2076328000,15.3,-1.0,1.020931,0.0,0.50084496,1.0587183,nan,nan,0.0,0.0,0.0,0.0,0.0,0.0,0.0,0.0,0.0,0.0,0.0,0.0,0.0,0.0,0.0,0.0,0.0,0.0,0.005,15.28,16.18,0.98888874,0.0,0.0,6.0133185,0,0,0,0,0,0,0,0,0,1,4,0,0,1,0,0,0
2076516000,15.3,-1.0,1.0170594,0.0,0.5007,1.0587364,nan,nan,0.0,0.0,0.0,0.0,0.0,0.0,0.0,0.0,0.0,0.0,0.0,0.0,0.0,0.0,0.0,0.0,0.0,0.0,0.005,15.28,16.18,0.98888874,0.0,0.0,6.0133185,0,0,0,0,0,0,0,0,0,1,4,0,0,1,0,0,0
2076728000,15.3,-1.0,1.012797,0.0,0.50056744,1.0587528,nan,nan,0.0,0.0,0.0,0.0,0.0,0.0,0.0,0.0,0.0,0.0,0.0,0.0,0.0,0.0,0.0,0.0,0.0,0.0,0.005,15.28,16.18,0.98888874,0.0,0.0,6.0133185,0,0,0,0,0,0,0,0,0,1,4,0,0,1,0,0,0
2076928000,15.3,-1.0,1.0087545,0.0,0.5004654,1.0587656,nan,nan,0.0,0.0,0.0,0.0,0.0,0.0,0.0,0.0,0.0,0.0,0.0,0.0,0.0,0.0,0.0,0.0,0.0,0.0,0.005,15.28,16.18,0.98888874,0.0,0.0,6.0133185,0,0,0,0,0,0,0,0,0,1,4,0,0,1,0,0,0
2077116000,15.3,-1.0,1.004929,0.0,0.5003853,1.0587755,nan,nan,0.0,0.0,0.0,0.0,0.0,0.0,0.0,0.0,0.0,0.0,0.0,0.0,0.0,0.0,0.0,0.0,0.0,0.0,0.005,15.28,16.18,0.98888874,0.0,0.0,6.0133185,0,0,0,0,0,0,0,0,0,1,4,0,0,1,0,0,0
2077328000,15.3,-1.0,1.0007174,0.0,0.5003128,1.0587846,nan,nan,0.0,0.0,0.0,0.0,0.0,0.0,0.0,0.0,0.0,0.0,0.0,0.0,0.0,0.0,0.0,0.0,0.0,0.0,0.005,15.28,16.18,0.98888874,0.0,0.0,6.0133185,0,0,0,0,0,0,0,0,0,1,4,0,0,1,0,0,0
2077528000,15.3,-1.0,0.99672306,0.0,0.50025654,1.0587916,nan,nan,0.0,0.0,0.0,0.0,0.0,0.0,0.0,0.0,0.0,0.0,0.0,0.0,0.0,0.0,0.0,0.0,0.0,0.0,0.005,15.28,16.18,0.98888874,0.0,0.0,6.0133185,0,0,0,0,0,0,0,0,0,1,4,0,0,1,0,0,0
2077728000,15.3,-1.0,0.9927446,0.0,0.50021076,1.0587972,nan,nan,0.0,0.0,0.0,0.0,0.0,0.0,0.0,0.0,0.0,0.0,0.0,0.0,0.0,0.0,0.0,0.0,0.0,0.0,0.005,15.28,16.18,0.98888874,0.0,0.0,6.0133185,0,0,0,0,0,0,0,0,0,1,4,0,0,1,0,0,0
2077928000,15.3,-1.0,0.9887821,0.0,0.5001726,1.058802,nan,nan,0.0,0.0,0.0,0.0,0.0,0.0,0.0,0.0,0.0,0.0,0.0,0.0,0.0,0.0,0.0,0.0,0.0,0.0,0.005,15.28,16.18,0.98888874,0.0,0.0,6.0133185,0,0,0,0,0,0,0,0,0,1,4,0,0,1,0,0,0
2078128000,15.3,-1.0,0.98483527,0.0,0.50014114,1.0588061,nan,nan,0.0,0.0,0.0,0.0,0.0,0.0,0.0,0.0,0.0,0.0,0.0,0.0,0.0,0.0,0.0,0.0,0.0,0.0,0.005,15.28,16.18,0.98888874,0.0,0.0,6.0133185,0,0,0,0,0,0,0,0,0,1,4,0,0,1,0,0,0
2078328000,15.3,-1.0,0.98090416,0.0,0.5001173,1.0588089,nan,nan,0.0,0.0,0.0,0.0,0.0,0.0,0.0,0.0,0.0,0.0,0.0,0.0,0.0,0.0,0.0,0.0,0.0,0.0,0.005,15.28,16.18,0.98888874,0.0,0.0,6.0133185,0,0,0,0,0,0,0,0,0,1,4,0,0,1,0,0,0
2078528000,15.3,-1.0,0.9769888,0.0,0.50009537,1.0588117,nan,nan,0.0,0.0,0.0,0.0,0.0,0.0,0.0,0.0,0.0,0.0,0.0,0.0,0.0,0.0,0.0,0.0,0.0,0.0,0.005,15.28,16.18,0.98888874,0.0,0.0,6.0133185,0,0,0,0,0,0,0,0,0,1,4,0,0,1,0,0,0
2078728000,15.3,-1.0,0.97308904,0.0,0.50007725,1.0588139,nan,nan,0.0,0.0,0.0,0.0,0.0,0.0,0.0,0.0,0.0,0.0,0.0,0.0,0.0,0.0,0.0,0.0,0.0,0.0,0.005,15.28,16.18,0.98888874,0.0,0.0,6.0133185,0,0,0,0,0,0,0,0,0,1,4,0,0,1,0,0,0
2078928000,15.3,-1.0,0.96920484,0.0,0.50006676,1.0588152,nan,nan,0.0,0.0,0.0,0.0,0.0,0.0,0.0,0.0,0.0,0.0,0.0,0.0,0.0,0.0,0.0,0.0,0.0,0.0,0.005,15.28,16.18,0.98888874,0.0,0.0,6.0133185,0,0,0,0,0,0,0,0,0,1,4,0,0,1,0,0,0
2079128000,15.3,-1.0,0.96533614,0.0,0.50005627,1.0588166,nan,nan,0.0,0.0,0.0,0.0,0.0,0.0,0.0,0.0,0.0,0.0,0.0,0.0,0.0,0.0,0.0,0.0,0.0,0.0,0.005,15.28,16.18,0.98888874,0.0,0.0,6.0133185,0,0,0,0,0,0,0,0,0,1,4,0,0,1,0,0,0
2079328000,15.3,-1.0,0.96148294,0.0,0.5000458,1.0588179,nan,nan,0.0,0.0,0.0,0.0,0.0,0.0,0.0,0.0,0.0,0.0,0.0,0.0,0.0,0.0,0.0,0.0,0.0,0.0,0.005,15.28,16.18,0.98888874,0.0,0.0,6.0133185,0,0,0,0,0,0,0,0,0,1,4,0,0,1,0,0,0
2079528000,15.3,-1.0,0.95764506,0.0,0.50003433,1.0588192,nan,nan,0.0,0.0,0.0,0.0,0.0,0.0,0.0,0.0,0.0,0.0,0.0,0.0,0.0,0.0,0.0,0.0,0.0,0.0,0.005,15.28,16.18,0.98888874,0.0,0.0,6.0133185,0,0,0,0,0,0,0,0,0,1,4,0,0,1,0,0,0
2079728000,15.3,-1.0,0.95382255,0.0,0.5000267,1.0588202,nan,nan,0.0,0.0,0.0,0.0,0.0,0.0,0.0,0.0,0.0,0.0,0.0,0.0,0.0,0.0,0.0,0.0,0.0,0.0,0.005,15.28,16.18,0.98888874,0.0,0.0,6.0133185,0,0,0,0,0,0,0,0,0,1,4,0,0,1,0,0,0
2079928000,15.3,-1.0,0.95001525,0.0,0.5000267,1.0588202,nan,nan,0.0,0.0,0.0,0.0,0.0,0.0,0.0,0.0,0.0,0.0,0.0,0.0,0.0,0.0,0.0,0.0,0.0,0.0,0.005,15.28,16.18,0.98888874,0.0,0.0,6.0133185,0,0,0,0,0,0,0,0,0,1,4,0,0,1,0,0,0
2080128000,15.3,-1.0,0.94622314,0.0,0.5000267,1.0588202,nan,nan,0.0,0.0,0.0,0.0,0.0,0.0,0.0,0.0,0.0,0.0,0.0,0.0,0.0,0.0,0.0,0.0,0.0,0.0,0.005,15.28,16.18,0.98888874,0.0,0.0,6.0133185,0,0,0,0,0,0,0,0,0,1,4,0,0,1,0,0,0
2080328000,15.3,-1.0,0.94244623,0.0,0.5000267,1.0588202,nan,nan,0.0,0.0,0.0,0.0,0.0,0.0,0.0,0.0,0.0,0.0,0.0,0.0,0.0,0.0,0.0,0.0,0.0,0.0,0.005,15.28,16.18,0.98888874,0.0,0.0,6.0133185,0,0,0,0,0,0,0,0,0,1,4,0,0,1,0,0,0
2080528000,15.3,-1.0,0.93868434,0.0,0.5000267,1.0588202,nan,nan,0.0,0.0,0.0,0.0,0.0,0.0,0.0,0.0,0.0,0.0,0.0,0.0,0.0,0.0,0.0,0.0,0.0,0.0,0.005,15.28,16.18,0.98888874,0.0,0.0,6.0133185,0,0,0,0,0,0,0,0,0,1,4,0,0,1,0,0,0
2080728000,15.3,-1.0,0.9349375,0.0,0.5000267,1.0588202,nan,nan,0.0,0.0,0.0,0.0,0.0,0.0,0.0,0.0,0.0,0.0,0.0,0.0,0.0,0.0,0.0,0.0,0.0,0.0,0.005,15.28,16.18,0.98888874,0.0,0.0,6.0133185,0,0,0,0,0,0,0,0,0,1,4,0,0,1,0,0,0
2080928000,15.3,-1.0,0.9312056,0.0,0.5000267,1.0588202,nan,nan,0.0,0.0,0.0,0.0,0.0,0.0,0.0,0.0,0.0,0.0,0.0,0.0,0.0,0.0,0.0,0.0,0.0,0.0,0.005,15.28,16.18,0.98888874,0.0,0.0,6.0133185,0,0,0,0,0,0,0,0,0,1,4,0,0,1,0,0,0
2081128000,15.3,-1.0,0.9274886,0.0,0.5000267,1.0588202,nan,nan,0.0,0.0,0.0,0.0,0.0,0.0,0.0,0.0,0.0,0.0,0.0,0.0,0.0,0.0,0.0,0.0,0.0,0.0,0.005,15.28,16.18,0.98888874,0.0,0.0,6.0133185,0,0,0,0,0,0,0,0,0,1,4,0,0,1,0,0,0
2081328000,15.3,-1.0,0.9237864,0.0,0.5000267,1.0588202,nan,nan,0.0,0.0,0.0,0.0,0.0,0.0,0.0,0.0,0.0,0.0,0.0,0.0,0.0,0.0,0.0,0.0,0.0,0.0,0.005,15.28,16.18,0.98888874,0.0,0.0,6.0133185,0,0,0,0,0,0,0,0,0,1,4,0,0,1,0,0,0
2081528000,15.3,-1.0,0.920099,0.0,0.5000267,1.0588202,nan,nan,0.0,0.0,0.0,0.0,0.0,0.0,0.0,0.0,0.0,0.0,0.0,0.0,0.0,0.0,0.0,0.0,0.0,0.0,0.005,15.28,16.18,0.98888874,0.0,0.0,6.0133185,0,0,0,0,0,0,0,0,0,1,4,0,0,1,0,0,0
2081728000,15.3,-1.0,0.91642636,0.0,0.5000267,1.0588202,nan,nan,0.0,0.0,0.0,0.0,0.0,0.0,0.0,0.0,0.0,0.0,0.0,0.0,0.0,0.0,0.0,0.0,0.0,0.0,0.005,15.28,16.18,0.98888874,0.0,0.0,6.0133185,0,0,0,0,0,0,0,0,0,1,4,0,0,1,0,0,0
2081928000,15.3,-1.0,0.91276836,0.0,0.5000267,1.0588202,nan,nan,0.0,0.0,0.0,0.0,0.0,0.0,0.0,0.0,0.0,0.0,0.0,0.0,0.0,0.0,0.0,0.0,0.0,0.0,0.005,15.28,16.18,0.98888874,0.0,0.0,6.0133185,0,0,0,0,0,0,0,0,0,1,4,0,0,1,0,0,0
2082128000,15.3,-1.0,0.9091249,0.0,0.5000267,1.0588202,nan,nan,0.0,0.0,0.0,0.0,0.0,0.0,0.0,0.0,0.0,0.0,0.0,0.0,0.0,0.0,0.0,0.0,0.0,0.0,0.005,15.28,16.18,0.98888874,0.0,0.0,6.0133185,0,0,0,0,0,0,0,0,0,1,4,0,0,1,0,0,0
2082328000,15.3,-1.0,0.90549606,0.0,0.5000267,1.0588202,nan,nan,0.0,0.0,0.0,0.0,0.0,0.0,0.0,0.0,0.0,0.0,0.0,0.0,0.0,0.0,0.0,0.0,0.0,0.0,0.005,15.28,16.18,0.98888874,0.0,0.0,6.0133185,0,0,0,0,0,0,0,0,0,1,4,0,0,1,0,0,0
2082528000,15.3,-1.0,0.9018817,0.0,0.5000267,1.0588202,nan,nan,0.0,0.0,0.0,0.0,0.0,0.0,0.0,0.0,0.0,0.0,0.0,0.0,0.0,0.0,0.0,0.0,0.0,0.0,0.005,15.28,16.18,0.98888874,0.0,0.0,6.0133185,0,0,0,0,0,0,0,0,0,1,4,0,0,1,0,0,0
2082728000,15.3,-1.0,0.8982817,0.0,0.5000267,1.0588202,nan,nan,0.0,0.0,0.0,0.0,0.0,0.0,0.0,0.0,0.0,0.0,0.0,0.0,0.0,0.0,0.0,0.0,0.0,0.0,0.005,15.28,16.18,0.98888874,0.0,0.0,6.0133185,0,0,0,0,0,0,0,0,0,1,4,0,0,1,0,0,0
2082928000,15.3,-1.0,0.894696,0.0,0.5000267,1.0588202,nan,nan,0.0,0.0,0.0,0.0,0.0,0.0,0.0,0.0,0.0,0.0,0.0,0.0,0.0,0.0,0.0,0.0,0.0,0.0,0.005,15.28,16.18,0.98888874,0.0,0.0,6.0133185,0,0,0,0,0,0,0,0,0,1,4,0,0,1,0,0,0
2083128000,15.3,-1.0,0.8911246,0.0,0.5000267,1.0588202,nan,nan,0.0,0.0,0.0,0.0,0.0,0.0,0.0,0.0,0.0,0.0,0.0,0.0,0.0,0.0,0.0,0.0,0.0,0.0,0.005,15.28,16.18,0.98888874,0.0,0.0,6.0133185,0,0,0,0,0,0,0,0,0,1,4,0,0,1,0,0,0
2083328000,15.3,-1.0,0.8875675,0.0,0.5000267,1.0588202,nan,nan,0.0,0.0,0.0,0.0,0.0,0.0,0.0,0.0,0.0,0.0,0.0,0.0,0.0,0.0,0.0,0.0,0.0,0.0,0.005,15.28,16.18,0.98888874,0.0,0.0,6.0133185,0,0,0,0,0,0,0,0,0,1,4,0,0,1,0,0,0
2083528000,15.3,-1.0,0.88402474,0.0,0.5000267,1.0588202,nan,nan,0.0,0.0,0.0,0.0,0.0,0.0,0.0,0.0,0.0,0.0,0.0,0.0,0.0,0.0,0.0,0.0,0.0,0.0,0.005,15.28,16.18,0.98888874,0.0,0.0,6.0133185,0,0,0,0,0,0,0,0,0,1,4,0,0,1,0,0,0
2083728000,15.3,-1.0,0.880496,0.0,0.5000267,1.0588202,nan,nan,0.0,0.0,0.0,0.0,0.0,0.0,0.0,0.0,0.0,0.0,0.0,0.0,0.0,0.0,0.0,0.0,0.0,0.0,0.005,15.28,16.18,0.98888874,0.0,0.0,6.0133185,0,0,0,0,0,0,0,0,0,1,4,0,0,1,0,0,0
2083928000,15.3,-1.0,0.8769814,0.0,0.5000267,1.0588202,nan,nan,0.0,0.0,0.0,0.0,0.0,0.0,0.0,0.0,0.0,0.0,0.0,0.0,0.0,0.0,0.0,0.0,0.0,0.0,0.005,15.28,16.18,0.98888874,0.0,0.0,6.0133185,0,0,0,0,0,0,0,0,0,1,4,0,0,1,0,0,0
2084128000,15.3,-1.0,0.8734808,0.0,0.5000267,1.0588202,nan,nan,0.0,0.0,0.0,0.0,0.0,0.0,0.0,0.0,0.0,0.0,0.0,0.0,0.0,0.0,0.0,0.0,0.0,0.0,0.005,15.28,16.18,0.98888874,0.0,0.0,6.0133185,0,0,0,0,0,0,0,0,0,1,4,0,0,1,0,0,0
2084328000,15.3,-1.0,0.8699942,0.0,0.5000267,1.0588202,nan,nan,0.0,0.0,0.0,0.0,0.0,0.0,0.0,0.0,0.0,0.0,0.0,0.0,0.0,0.0,0.0,0.0,0.0,0.0,0.005,15.28,16.18,0.98888874,0.0,0.0,6.0133185,0,0,0,0,0,0,0,0,0,1,4,0,0,1,0,0,0
2084528000,15.3,-1.0,0.86652154,0.0,0.5000267,1.0588202,nan,nan,0.0,0.0,0.0,0.0,0.0,0.0,0.0,0.0,0.0,0.0,0.0,0.0,0.0,0.0,0.0,0.0,0.0,0.0,0.005,15.28,16.18,0.98888874,0.0,0.0,6.0133185,0,0,0,0,0,0,0,0,0,1,4,0,0,1,0,0,0
2084728000,15.3,-1.0,0.86306274,0.0,0.5000267,1.0588202,nan,nan,0.0,0.0,0.0,0.0,0.0,0.0,0.0,0.0,0.0,0.0,0.0,0.0,0.0,0.0,0.0,0.0,0.0,0.0,0.005,15.28,16.18,0.98888874,0.0,0.0,6.0133185,0,0,0,0,0,0,0,0,0,1,4,0,0,1,0,0,0
2084928000,15.3,-1.0,0.85961777,0.0,0.5000267,1.0588202,nan,nan,0.0,0.0,0.0,0.0,0.0,0.0,0.0,0.0,0.0,0.0,0.0,0.0,0.0,0.0,0.0,0.0,0.0,0.0,0.005,15.28,16.18,0.98888874,0.0,0.0,6.0133185,0,0,0,0,0,0,0,0,0,1,4,0,0,1,0,0,0
2085128000,15.3,-1.0,0.8561865,0.0,0.5000267,1.0588202,nan,nan,0.0,0.0,0.0,0.0,0.0,0.0,0.0,0.0,0.0,0.0,0.0,0.0,0.0,0.0,0.0,0.0,0.0,0.0,0.005,15.28,16.18,0.98888874,0.0,0.0,6.0133185,0,0,0,0,0,0,0,0,0,1,4,0,0,1,0,0,0
2085328000,15.3,-1.0,0.85276896,0.0,0.5000267,1.0588202,nan,nan,0.0,0.0,0.0,0.0,0.0,0.0,0.0,0.0,0.0,0.0,0.0,0.0,0.0,0.0,0.0,0.0,0.0,0.0,0.005,15.28,16.18,0.98888874,0.0,0.0,6.0133185,0,0,0,0,0,0,0,0,0,1,4,0,0,1,0,0,0
2085528000,15.3,-1.0,0.849365,0.0,0.5000267,1.0588202,nan,nan,0.0,0.0,0.0,0.0,0.0,0.0,0.0,0.0,0.0,0.0,0.0,0.0,0.0,0.0,0.0,0.0,0.0,0.0,0.005,15.28,16.18,0.98888874,0.0,0.0,6.0133185,0,0,0,0,0,0,0,0,0,1,4,0,0,1,0,0,0
2085728000,15.3,-1.0,0.8459747,0.0,0.5000267,1.0588202,nan,nan,0.0,0.0,0.0,0.0,0.0,0.0,0.0,0.0,0.0,0.0,0.0,0.0,0.0,0.0,0.0,0.0,0.0,0.0,0.005,15.28,16.18,0.98888874,0.0,0.0,6.0133185,0,0,0,0,0,0,0,0,0,1,4,0,0,1,0,0,0
2085928000,15.3,-1.0,0.8425979,0.0,0.5000267,1.0588202,nan,nan,0.0,0.0,0.0,0.0,0.0,0.0,0.0,0.0,0.0,0.0,0.0,0.0,0.0,0.0,0.0,0.0,0.0,0.0,0.005,15.28,16.18,0.98888874,0.0,0.0,6.0133185,0,0,0,0,0,0,0,0,0,1,4,0,0,1,0,0,0
2086128000,15.3,-1.0,0.83923453,0.0,0.5000267,1.0588202,nan,nan,0.0,0.0,0.0,0.0,0.0,0.0,0.0,0.0,0.0,0.0,0.0,0.0,0.0,0.0,0.0,0.0,0.0,0.0,0.005,15.28,16.18,0.98888874,0.0,0.0,6.0133185,0,0,0,0,0,0,0,0,0,1,4,0,0,1,0,0,0
2086328000,15.3,-1.0,0.83588463,0.0,0.5000267,1.0588202,nan,nan,0.0,0.0,0.0,0.0,0.0,0.0,0.0,0.0,0.0,0.0,0.0,0.0,0.0,0.0,0.0,0.0,0.0,0.0,0.005,15.28,16.18,0.98888874,0.0,0.0,6.0133185,0,0,0,0,0,0,0,0,0,1,4,0,0,1,0,0,0
2086528000,15.3,-1.0,0.8325481,0.0,0.5000267,1.0588202,nan,nan,0.0,0.0,0.0,0.0,0.0,0.0,0.0,0.0,0.0,0.0,0.0,0.0,0.0,0.0,0.0,0.0,0.0,0.0,0.005,15.28,16.18,0.98888874,0.0,0.0,6.0133185,0,0,0,0,0,0,0,0,0,1,4,0,0,1,0,0,0
2086728000,15.3,-1.0,0.8292249,0.0,0.5000267,1.0588202,nan,nan,0.0,0.0,0.0,0.0,0.0,0.0,0.0,0.0,0.0,0.0,0.0,0.0,0.0,0.0,0.0,0.0,0.0,0.0,0.005,15.28,16.18,0.98888874,0.0,0.0,6.0133185,0,0,0,0,0,0,0,0,0,1,4,0,0,1,0,0,0
2086916000,15.3,-1.0,0.8260801,0.0,0.5000267,1.0588202,nan,nan,0.0,0.0,0.0,0.0,0.0,0.0,0.0,0.0,0.0,0.0,0.0,0.0,0.0,0.0,0.0,0.0,0.0,0.0,0.005,15.28,16.18,0.98888874,0.0,0.0,6.0133185,0,0,0,0,0,0,0,0,0,1,4,0,0,1,0,0,0
2087128000,15.3,-1.0,0.8226182,0.0,0.5000267,1.0588202,nan,nan,0.0,0.0,0.0,0.0,0.0,0.0,0.0,0.0,0.0,0.0,0.0,0.0,0.0,0.0,0.0,0.0,0.0,0.0,0.005,15.28,16.18,0.98888874,0.0,0.0,6.0133185,0,0,0,0,0,0,0,0,0,1,4,0,0,1,0,0,0
2087328000,15.3,-1.0,0.8193346,0.0,0.5000267,1.0588202,nan,nan,0.0,0.0,0.0,0.0,0.0,0.0,0.0,0.0,0.0,0.0,0.0,0.0,0.0,0.0,0.0,0.0,0.0,0.0,0.005,15.28,16.18,0.98888874,0.0,0.0,6.0133185,0,0,0,0,0,0,0,0,0,1,4,0,0,1,0,0,0
2087528000,15.3,-1.0,0.8160642,0.0,0.5000267,1.0588202,nan,nan,0.0,0.0,0.0,0.0,0.0,0.0,0.0,0.0,0.0,0.0,0.0,0.0,0.0,0.0,0.0,0.0,0.0,0.0,0.005,15.28,16.18,0.98888874,0.0,0.0,6.0133185,0,0,0,0,0,0,0,0,0,1,4,0,0,1,0,0,0
2087728000,15.3,-1.0,0.8128067,0.0,0.5000267,1.0588202,nan,nan,0.0,0.0,0.0,0.0,0.0,0.0,0.0,0.0,0.0,0.0,0.0,0.0,0.0,0.0,0.0,0.0,0.0,0.0,0.005,15.28,16.18,0.98888874,0.0,0.0,6.0133185,0,0,0,0,0,0,0,0,0,1,4,0,0,1,0,0,0
2087928000,15.3,-1.0,0.80956227,0.0,0.5000267,1.0588202,nan,nan,0.0,0.0,0.0,0.0,0.0,0.0,0.0,0.0,0.0,0.0,0.0,0.0,0.0,0.0,0.0,0.0,0.0,0.0,0.005,15.28,16.18,0.98888874,0.0,0.0,6.0133185,0,0,0,0,0,0,0,0,0,1,4,0,0,1,0,0,0
2088128000,15.3,-1.0,0.8063308,0.0,0.5000267,1.0588202,nan,nan,0.0,0.0,0.0,0.0,0.0,0.0,0.0,0.0,0.0,0.0,0.0,0.0,0.0,0.0,0.0,0.0,0.0,0.0,0.005,15.28,16.18,0.98888874,0.0,0.0,6.0133185,0,0,0,0,0,0,0,0,0,1,4,0,0,1,0,0,0
2088328000,15.3,-1.0,0.80311227,0.0,0.5000267,1.0588202,nan,nan,0.0,0.0,0.0,0.0,0.0,0.0,0.0,0.0,0.0,0.0,0.0,0.0,0.0,0.0,0.0,0.0,0.0,0.0,0.005,15.28,16.18,0.98888874,0.0,0.0,6.0133185,0,0,0,0,0,0,0,0,0,1,4,0,0,1,0,0,0
2088528000,15.3,-1.0,0.79990655,0.0,0.5000267,1.0588202,nan,nan,0.0,0.0,0.0,0.0,0.0,0.0,0.0,0.0,0.0,0.0,0.0,0.0,0.0,0.0,0.0,0.0,0.0,0.0,0.005,15.28,16.18,0.98888874,0.0,0.0,6.0133185,0,0,0,0,0,0,0,0,0,1,4,0,0,1,0,0,0
2088716000,15.3,-1.0,0.796873,0.0,0.5000267,1.0588202,nan,nan,0.0,0.0,0.0,0.0,0.0,0.0,0.0,0.0,0.0,0.0,0.0,0.0,0.0,0.0,0.0,0.0,0.0,0.0,0.005,15.28,16.18,0.98888874,0.0,0.0,6.0133185,0,0,0,0,0,0,0,0,0,1,4,0,0,1,0,0,0
2088928000,15.3,-1.0,0.79353344,0.0,0.5000267,1.0588202,nan,nan,0.0,0.0,0.0,0.0,0.0,0.0,0.0,0.0,0.0,0.0,0.0,0.0,0.0,0.0,0.0,0.0,0.0,0.0,0.005,15.28,16.18,0.98888874,0.0,0.0,6.0133185,0,0,0,0,0,0,0,0,0,1,4,0,0,1,0,0,0
2089128000,15.3,-1.0,0.79036593,0.0,0.5000267,1.0588202,nan,nan,0.0,0.0,0.0,0.0,0.0,0.0,0.0,0.0,0.0,0.0,0.0,0.0,0.0,0.0,0.0,0.0,0.0,0.0,0.005,15.28,16.18,0.98888874,0.0,0.0,6.0133185,0,0,0,0,0,0,0,0,0,1,4,0,0,1,0,0,0
2089328000,15.3,-1.0,0.7872112,0.0,0.5000267,1.0588202,nan,nan,0.0,0.0,0.0,0.0,0.0,0.0,0.0,0.0,0.0,0.0,0.0,0.0,0.0,0.0,0.0,0.0,0.0,0.0,0.005,15.28,16.18,0.98888874,0.0,0.0,6.0133185,0,0,0,0,0,0,0,0,0,1,4,0,0,1,0,0,0
2089528000,16.2,-1.0,0.7868964,0.0,0.5861521,1.0481994,nan,nan,0.0,0.0,0.0,0.0,0.0,0.0,0.0,0.0,0.0,0.0,0.0,0.0,0.0,0.0,0.0,0.0,0.0,0.0,0.005,16.18,16.18,0.98888874,0.0,0.0,6.0133185,0,0,0,0,0,0,0,0,0,1,4,0,0,1,0,0,0
2089728000,16.2,-1.0,0.7868964,0.0,0.6608324,1.0391611,nan,nan,0.0,0.0,0.0,0.0,0.0,0.0,0.0,0.0,0.0,0.0,0.0,0.0,0.0,0.0,0.0,0.0,0.0,0.0,0.005,16.18,16.18,0.98888874,0.0,0.0,6.0133185,0,0,0,0,0,0,0,0,0,1,4,0,0,1,0,0,0
2089916000,16.2,-1.0,0.7868964,0.0,0.71925735,1.032198,nan,nan,0.0,0.0,0.0,0.0,0.0,0.0,0.0,0.0,0.0,0.0,0.0,0.0,0.0,0.0,0.0,0.0,0.0,0.0,0.005,16.18,16.18,0.98888874,0.0,0.0,6.0133185,0,0,0,0,0,0,0,0,0,1,4,0,0,1,0,0,0
2090128000,16.2,-1.0,0.7868964,0.0,0.77219677,1.0259688,nan,nan,0.0,0.0,0.0,0.0,0.0,0.0,0.0,0.0,0.0,0.0,0.0,0.0,0.0,0.0,0.0,0.0,0.0,0.0,0.005,16.18,16.18,0.98888874,0.0,0.0,6.0133185,0,0,0,0,0,0,0,0,0,1,4,0,0,1,0,0,0
2090328000,16.2,-1.0,0.7868964,0.0,0.81330585,1.0211833,nan,nan,0.0,0.0,0.0,0.0,0.0,0.0,0.0,0.0,0.0,0.0,0.0,0.0,0.0,0.0,0.0,0.0,0.0,0.0,0.005,16.18,16.18,0.98888874,0.0,0.0,6.0133185,0,0,0,0,0,0,0,0,0,1,4,0,0,1,0,0,0
