timestamp,timestamp_sample,accel_device_id,gyro_device_id,delta_angle[0],delta_angle[1],delta_angle[2],delta_velocity[0],delta_velocity[1],delta_velocity[2],delta_angle_dt,delta_velocity_dt,delta_angle_clipping,delta_velocity_clipping,accel_calibration_count,gyro_calibration_count
2016292000,2016292000,1310988,1310988,7.563374e-05,-2.4501254e-05,5.326283e-06,-0.00022026658,0.00015322962,-0.03930322,4000,4000,0,0,0,1
2016792000,2016792000,1310988,1310988,1.7044114e-05,2.3435905e-05,4.1545318e-05,-0.0003878607,0.00016280642,-0.039279275,4000,4000,0,0,0,1
2017292000,2017292000,1310988,1310988,5.326284e-06,-2.769703e-05,-3.6218888e-05,9.576807e-05,-0.0002298427,-0.03903507,4000,4000,0,0,0,1
2017792000,2017792000,1310988,1310988,-4.687159e-05,1.810962e-05,7.456881e-06,7.182605e-05,-0.00021547748,-0.038958456,4000,4000,0,0,0,1
2018292000,2018292000,1310988,1310988,-1.2783061e-05,-4.1545238e-05,3.4088607e-05,0.0002825158,0.00022026726,-0.039039854,4000,4000,0,0,0,1
2018792000,2018792000,1310988,1310988,1.4913589e-05,-3.7284168e-05,2.6631807e-05,-0.00084754743,0.00024899768,-0.038896203,4000,4000,0,0,0,1
2019292000,2019292000,1310988,1310988,-1.8109435e-05,-1.9174731e-05,2.4501158e-05,0.00030645786,0.00011492237,-0.03943729,4000,4000,0,0,0,1
2019792000,2019792000,1310988,1310988,3.8349557e-05,1.2783225e-05,-2.8762077e-05,0.00017717094,-7.661378e-05,-0.039126046,4000,4000,0,0,0,1
2020292000,2020292000,1310988,1310988,3.195607e-06,6.285057e-05,-2.2370652e-05,-4.3095635e-05,0.00011013397,-0.03920266,4000,4000,0,0,0,1
2020792000,2020792000,1310988,1310988,-0.00058909087,0.00028016538,2.9828629e-05,0.00041659115,-2.3941284e-05,-0.042027824,4000,4000,0,0,0,1
2021292000,2021292000,1310988,1310988,0.00032916677,-0.00013741903,-2.450167e-05,-0.00028730422,0.00021547893,-0.042793967,4000,4000,0,0,0,1
2021792000,2021792000,1310988,1310988,2.6631535e-05,-3.0892817e-05,2.6631524e-05,0.00018195936,0.00045011067,-0.039595313,4000,4000,0,0,0,1
2022292000,2022292000,1310988,1310988,-3.1958127e-05,1.8052367e-10,-7.0307375e-05,0.00044532158,0.00014844124,-0.039834734,4000,4000,0,0,0,1
2022792000,2022792000,1310988,1310988,1.38483e-05,3.195784e-05,6.711173e-05,-6.224924e-05,0.00044053383,-0.039231393,4000,4000,0,0,0,1
2023292000,2023292000,1310988,1310988,1.6312587e-10,2.8762308e-05,7.03074e-05,-0.00032561144,0.00029688174,-0.038968027,4000,4000,0,0,0,1
2023792000,2023792000,1310988,1310988,-8.522154e-06,2.130525e-05,-2.1305317e-05,0.0002825158,-0.00036870642,-0.038671147,4000,4000,0,0,0,1
2024292000,2024292000,1310988,1310988,-3.1956195e-06,-5.1132694e-05,-2.1305337e-05,0.0004261679,-0.00030645722,-0.03597049,4000,4000,0,0,0,1
2024792000,2024792000,1310988,1310988,-1.3848244e-05,-7.3503266e-05,-2.769692e-05,-0.00022026658,-0.00020590068,-0.03995923,4000,4000,0,0,0,1
2025292000,2025292000,1310988,1310988,-7.4568397e-06,-2.237055e-05,6.3916277e-06,6.2249244e-05,0.00011492237,-0.03866636,4000,4000,0,0,0,1
2025792000,2025792000,1310988,1310988,8.096014e-05,-3.302311e-05,1.0653957e-06,-5.267244e-05,-7.182538e-05,-0.03876692,4000,4000,0,0,0,1
2026292000,2026292000,1310988,1310988,-2.556637e-05,3.408851e-05,6.4981105e-05,-4.788403e-06,-8.6190594e-05,-0.038824372,4000,4000,0,0,0,1
2026792000,2026792000,1310988,1310988,4.9002123e-05,5.432861e-05,-3.834941e-05,-7.1826056e-05,-0.00051235844,-0.039308008,4000,4000,0,0,0,1
2027292000,2027292000,1310988,1310988,2.343572e-05,7.4569525e-06,5.965484e-05,0.00017717094,-0.0003543412,-0.038924936,4000,4000,0,0,0,1
2027792000,2027792000,1310988,1310988,3.302328e-05,-4.7936806e-05,-5.113274e-05,-0.00018674775,-0.00019153548,-0.03871904,4000,4000,0,0,0,1
2028292000,2028292000,1310988,1310988,1.4913793e-05,-1.597885e-05,-5.0067447e-05,9.097969e-05,0.00010534556,-0.03936547,4000,4000,0,0,0,1
2028792000,2028792000,1310988,1310988,4.2610674e-05,-2.8761882e-05,2.450123e-05,0.00035434187,-0.00017238186,-0.03948997,4000,4000,0,0,0,1
2029292000,2029292000,1310988,1310988,-6.817706e-05,-4.474113e-05,0.00010972217,-0.00021068976,-0.00012928621,-0.03891057,4000,4000,0,0,0,1
2029792000,2029792000,1310988,1310988,-0.001598964,0.00057737005,-0.00034194693,0.00024899698,0.00029688174,-0.039839517,4000,4000,0,0,0,1
2030292000,2030292000,1310988,1310988,-0.0014764579,0.00027802732,-0.0012367724,0.0003734955,0.0018962087,-0.040701438,4000,4000,0,0,0,1
2030792000,2030792000,1310988,1310988,-0.000102266415,-0.00013209555,-0.002017611,0.00032082302,0.0031220396,-0.040835503,4000,4000,0,0,0,1
2031292000,2031292000,1310988,1310988,-0.00012358418,-0.0001288807,-0.0028357345,-0.0012593501,0.00497994,-0.039930496,4000,4000,0,0,0,1
2031792000,2031792000,1310988,1310988,0.0009725749,0.00075525773,-0.0032266933,-0.0039217025,0.0057604504,-0.039341528,4000,4000,0,0,0,1
2032292000,2032292000,1310988,1310988,0.0007371716,0.00047298122,-0.0024916504,-0.0061195795,0.0033901904,-0.039796427,4000,4000,0,0,0,1
2032792000,2032792000,1310988,1310988,-0.00029507774,-0.00024074256,-0.0018631488,-0.0069383974,0.0015801741,-0.03864721,4000,4000,0,0,0,1
2033292000,2033292000,1310988,1310988,-8.734902e-05,-8.948081e-05,-0.0011419639,-0.006574479,0.0002873049,-0.03876692,4000,4000,0,0,0,1
2033792000,2033792000,1310988,1310988,-0.000107591244,-0.00010652665,-0.00043782382,-0.0069910698,-0.00031124556,-0.038853105,4000,4000,0,0,0,1
2034292000,2034292000,1310988,1310988,-6.498178e-05,-7.4559057e-06,0.00027696867,-0.006622363,-0.0006272802,-0.038690306,4000,4000,0,0,0,1
2034792000,2034792000,1310988,1310988,5.645866e-05,6.924244e-05,-7.350331e-05,-0.0069862814,-0.00010055582,-0.038604114,4000,4000,0,0,0,1
2035292000,2035292000,1310988,1310988,2.9827354e-05,2.3435883e-05,5.3263425e-06,-0.006727707,-0.00035434123,-0.03833596,4000,4000,0,0,0,1
2035792000,2035792000,1310988,1310988,2.3435947e-05,-3.3023116e-05,-9.58738e-06,-0.007359776,0.00022984407,-0.038896203,4000,4000,0,0,0,1
2036292000,2036292000,1310988,1310988,9.693908e-05,7.4566647e-06,2.130654e-06,-0.0065744785,0.00018196003,-0.03821146,4000,4000,0,0,0,1
2036792000,2036792000,1310988,1310988,3.7284226e-05,1.5979018e-05,-1.4913719e-05,-0.0066319397,-0.00011970943,-0.038369477,4000,4000,0,0,0,1
2037292000,2037292000,1310988,1310988,2.4501061e-05,4.7936897e-05,-1.9174813e-05,-0.0070581073,0.0001532296,-0.03858017,4000,4000,0,0,0,1
2037792000,2037792000,1310988,1310988,-2.343588e-05,-3.5153727e-05,3.6218964e-05,-0.006919244,0.00029209335,-0.038503557,4000,4000,0,0,0,1
2038292000,2038292000,1310988,1310988,1.0652221e-06,-7.456864e-05,-6.071993e-05,-0.007077261,0.00030645856,-0.038699877,4000,4000,0,0,0,1
2038792000,2038792000,1310988,1310988,-2.8762428e-05,2.2370357e-05,-4.687156e-05,-0.0071203564,-0.00015322826,-0.0385275,4000,4000,0,0,0,1
2039292000,2039292000,1310988,1310988,-1.4913718e-05,1.5978929e-05,-1.810952e-05,-0.0069767046,-0.00017238187,-0.038426943,4000,4000,0,0,0,1
2039792000,2039792000,1310988,1310988,7.243803e-05,6.391682e-06,-1.5978807e-05,-0.0071059912,-0.0002011123,-0.038417365,4000,4000,0,0,0,1
2040292000,2040292000,1310988,1310988,-1.3848494e-05,-3.0892646e-05,3.195812e-06,-0.0071347216,-0.0003112456,-0.038355112,4000,4000,0,0,0,1
2040792000,2040792000,1310988,1310988,8.948237e-05,-2.130757e-06,4.793662e-05,-0.0068186866,-0.00023941952,-0.038838744,4000,4000,0,0,0,1
2041292000,2041292000,1310988,1310988,9.267803e-05,-9.587232e-06,2.2370561e-05,-0.007196971,-0.0003016688,-0.038302444,4000,4000,0,0,0,1
2041792000,2041792000,1310988,1310988,1.5978938e-05,-1.8109533e-05,1.9174751e-05,-0.0067803795,0.00018196003,-0.038517915,4000,4000,0,0,0,1
2042292000,2042292000,1310988,1310988,-6.711157e-05,7.243802e-05,3.4088596e-05,-0.0068426286,-0.00016759348,-0.038187522,4000,4000,0,0,0,1
2042792000,2042792000,1310988,1310988,-2.5566706e-05,7.9894824e-05,4.0479863e-05,-0.007354988,-8.140219e-05,-0.038149215,4000,4000,0,0,0,1
2043292000,2043292000,1310988,1310988,7.4569925e-06,3.3023167e-05,5.006744e-05,-0.0071586636,-5.746017e-05,-0.038709454,4000,4000,0,0,0,1
2043792000,2043792000,1310988,1310988,3.0892665e-05,-5.3263984e-06,-7.456816e-06,-0.007445968,-0.0003926484,-0.03866636,4000,4000,0,0,0,1
2044292000,2044292000,1310988,1310988,-2.1305275e-05,1.1717917e-05,-1.0652671e-05,-0.00723049,0.00031124693,-0.038671143,4000,4000,0,0,0,1
2044792000,2044792000,1310988,1310988,-3.621885e-05,-4.5806602e-05,-3.0892505e-05,-0.006967128,0.00020111365,-0.038786065,4000,4000,0,0,0,1
2045292000,2045292000,1310988,1310988,3.1956563e-06,0.00010546119,8.522212e-06,-0.0074316035,7.6615135e-05,-0.03849398,4000,4000,0,0,0,1
2045792000,2045792000,1310988,1310988,-4.261062e-05,-5.3263984e-06,-2.023992e-05,-0.0077332724,9.5768744e-05,-0.03839342,4000,4000,0,0,0,1
2046292000,2046292000,1310988,1310988,-1.8109462e-05,-1.1717963e-05,-1.0652833e-06,-0.0074507566,0.00038786136,-0.039327163,4000,4000,0,0,0,1
2046792000,2046792000,1310988,1310988,4.367596e-05,-6.7111614e-05,-6.3913385e-06,-0.0069527626,-0.00013407464,-0.038541865,4000,4000,0,0,0,1
2047292000,2047292000,1310988,1310988,1.9174757e-05,-1.0652846e-06,-2.1305292e-05,-0.007173029,2.873109e-05,-0.03824977,4000,4000,0,0,0,1
2047792000,2047792000,1310988,1310988,1.9174835e-05,8.202535e-05,-8.522242e-06,-0.0076518697,-0.00010534421,-0.038604114,4000,4000,0,0,0,1
2048292000,2048292000,1310988,1310988,-2.1303324e-06,3.834957e-05,-1.7044164e-05,-0.007297527,0.00014365277,-0.038259346,4000,4000,0,0,0,1
2048792000,2048792000,1310988,1310988,-8.522105e-06,-5.7524237e-05,4.6871704e-05,-0.007067684,0.0003160353,-0.038374264,4000,4000,0,0,0,1
2049292000,2049292000,1310988,1310988,1.065315e-06,-5.3262265e-06,-3.515375e-05,-0.007445968,-0.00018195869,-0.038690306,4000,4000,0,0,0,1
2049792000,2049792000,1310988,1310988,4.9002116e-05,0.00041332247,-3.6221358e-05,-0.007393295,-0.00013407465,-0.03833117,4000,4000,0,0,0,1
2050292000,2050292000,1310988,1310988,-2.3437797e-05,0.0010503508,-1.1717481e-05,-0.00687136,-0.00021068908,-0.038996764,4000,4000,0,0,0,1
2050792000,2050792000,1310988,1310988,2.2370785e-05,0.00013741903,8.2025465e-05,-0.005731719,-0.00032561074,-0.03945645,4000,4000,0,0,0,1
2051292000,2051292000,1310988,1310988,2.0240135e-05,0.00012037464,4.6872257e-05,-0.004084508,-0.00030645716,-0.039580945,4000,4000,0,0,0,1
2051792000,2051792000,1310988,1310988,6.39159e-05,-1.704428e-05,-6.178531e-05,-0.0030837317,0.00021069046,-0.039767694,4000,4000,0,0,0,1
2052292000,2052292000,1310988,1310988,-0.000103331055,-7.350294e-05,-8.628622e-05,-0.0023894138,-8.619059e-05,-0.039480392,4000,4000,0,0,0,1
2052792000,2052792000,1310988,1310988,5.3263106e-05,-7.8829355e-05,6.498151e-05,-0.0009672576,-0.00014843985,-0.039628834,4000,4000,0,0,0,1
2053292000,2053292000,1310988,1310988,1.4913554e-05,-4.900223e-05,3.089265e-05,-0.0009002199,0.00011013397,-0.0394373,4000,4000,0,0,0,1
2053792000,2053792000,1310988,1310988,-2.5566229e-05,-4.154534e-05,-2.4501172e-05,-0.0010582373,0.00034476578,-0.038848322,4000,4000,0,0,0,1
2054292000,2054292000,1310988,1310988,1.81094e-05,-1.8109607e-05,4.154531e-05,-0.0006703766,0.0001436528,-0.039379835,4000,4000,0,0,0,1
2054792000,2054792000,1310988,1310988,-5.3262092e-06,-2.3435869e-05,-1.5978932e-05,-0.00046926358,0.00024899768,-0.038896203,4000,4000,0,0,0,1
2055292000,2055292000,1310988,1310988,-3.515372e-05,-3.6219037e-05,2.237052e-05,3.351883e-05,-4.309496e-05,-0.038944084,4000,4000,0,0,0,1
2055792000,2055792000,1310988,1310988,4.261049e-05,-3.089281e-05,2.1303654e-06,-0.0003734955,-0.00013886302,-0.039274488,4000,4000,0,0,0,1
2056292000,2056292000,1310988,1310988,5.1132716e-05,-1.06527905e-05,2.0239913e-05,-0.00036391872,0.00040701503,-0.039480392,4000,4000,0,0,0,1
2056792000,2056792000,1310988,1310988,-9.587306e-06,1.3848502e-05,4.0480045e-05,9.097968e-05,0.00013407599,-0.03894888,4000,4000,0,0,0,1
2057292000,2057292000,1310988,1310988,-1.91746e-05,-3.3023294e-05,1.1717906e-05,0.000114921684,-0.00036391802,-0.03877649,4000,4000,0,0,0,1
2057792000,2057792000,1310988,1310988,-8.5221145e-05,-2.2370456e-05,-2.6631773e-05,-6.703766e-05,0.00013407599,-0.039628837,4000,4000,0,0,0,1
2058292000,2058292000,1310988,1310988,5.2197818e-05,8.522193e-06,-5.219809e-05,0.0004884172,0.00045011067,-0.039466023,4000,4000,0,0,0,1
2058792000,2058792000,1310988,1310988,-9.98614e-11,-4.6871766e-05,4.261044e-05,2.8730421e-05,-0.00022505429,-0.039461233,4000,4000,0,0,0,1
2059292000,2059292000,1310988,1310988,-3.1958307e-06,-4.154532e-05,5.3262675e-06,-6.7037654e-05,-9.097899e-05,-0.03937026,4000,4000,0,0,0,1
2059792000,2059792000,1310988,1310988,-1.1718002e-05,-5.645903e-05,2.1305203e-05,-4.7883996e-06,0.000100557176,-0.039576158,4000,4000,0,0,0,1
2060292000,2060292000,1310988,1310988,-1.3848327e-05,-7.137248e-05,-3.7284764e-05,0.00062728085,8.1403545e-05,-0.039020706,4000,4000,0,0,0,1
2060792000,2060792000,1310988,1310988,1.4913521e-05,-9.1612725e-05,-5.965491e-05,0.0001388637,9.5768606e-05,-0.030253133,4000,4000,0,0,0,1
2061292000,2061292000,1310988,1310988,3.5153982e-05,0.00022583605,3.9414852e-05,9.097968e-05,-9.097895e-05,-0.041232947,4000,4000,0,0,0,1
2061792000,2061792000,1310988,1310988,4.6871526e-05,-7.243802e-05,-2.9827535e-05,9.5768075e-05,0.00012449917,-0.03909732,4000,4000,0,0,0,1
2062292000,2062292000,1310988,1310988,2.4500909e-05,-2.76968e-05,-7.4568605e-05,-0.00020590136,6.224993e-05,-0.038632836,4000,4000,0,0,0,1
2062792000,2062792000,1310988,1310988,-1.49138305e-05,-1.9174651e-05,5.432849e-05,-0.00018674775,0.0005602439,-0.039442085,4000,4000,0,0,0,1
2063292000,2063292000,1310988,1310988,-3.3023265e-05,9.587324e-06,2.7696824e-05,0.000119710094,0.00031603535,-0.039274484,4000,4000,0,0,0,1
2063792000,2063792000,1310988,1310988,-4.6871646e-05,2.0240008e-05,-1.065325e-06,0.0001436521,0.00031124693,-0.039121255,4000,4000,0,0,0,1
2064292000,2064292000,1310988,1310988,2.4501078e-05,2.769689e-05,-4.261021e-06,-0.00032082302,-0.00022984268,-0.03964798,4000,4000,0,0,0,1
2064792000,2064792000,1310988,1310988,-2.6631637e-05,-3.1959098e-06,-1.3848367e-05,0.00017717094,2.394277e-05,-0.04299029,4000,4000,0,0,0,1
2065292000,2065292000,1310988,1310988,-5.326322e-05,-9.480853e-05,-2.5566384e-05,4.7884064e-06,-0.00011013261,-0.038680732,4000,4000,0,0,0,1
2065792000,2065792000,1310988,1310988,-4.3675864e-05,1.0652662e-05,-9.587282e-06,3.8307233e-05,0.00015801795,-0.036909018,4000,4000,0,0,0,1
2066292000,2066292000,1310988,1310988,-2.1305173e-06,-1.7044233e-05,3.089267e-05,-8.140285e-05,0.0002968817,-0.037114915,4000,4000,0,0,0,1
2066792000,2066792000,1310988,1310988,2.0239917e-05,3.1956513e-06,2.9827495e-05,0.00019632454,9.576875e-05,-0.038546648,4000,4000,0,0,0,1
2067292000,2067292000,1310988,1310988,5.4328437e-05,7.45704e-06,5.7524314e-05,0.00017717094,4.7890617e-06,-0.037679948,4000,4000,0,0,0,1
2067792000,2067792000,1310988,1310988,-9.587395e-06,8.522153e-06,2.0240004e-05,-4.3095635e-05,3.351947e-05,-0.03677494,4000,4000,0,0,0,1
2068292000,2068292000,1310988,1310988,4.0480034e-05,-2.024024e-05,-2.5566203e-05,0.00020111297,3.830791e-05,-0.038948882,4000,4000,0,0,0,1
2068792000,2068792000,1310988,1310988,-4.2610955e-06,4.2610504e-06,1.5978962e-05,-3.8307233e-05,-0.00041180203,-0.038939293,4000,4000,0,0,0,1
2069292000,2069292000,1310988,1310988,8.0960104e-05,3.6218957e-05,-5.3264903e-06,7.182605e-05,-0.0005267237,-0.03931279,4000,4000,0,0,0,1
2069792000,2069792000,1310988,1310988,-8.52223e-06,5.4930505e-11,2.237051e-05,-0.00026336222,-9.0978996e-05,-0.039020706,4000,4000,0,0,0,1
2070292000,2070292000,1310988,1310988,3.7284324e-05,5.3263666e-06,1.9174619e-05,7.6614466e-05,-0.00040222527,-0.039494753,4000,4000,0,0,0,1
