timestamp,timestamp_sample,xyz[0],xyz[1],xyz[2]
2015920000,2015920000,0.071229756,-0.034332443,-9.751734
2015924000,2015924000,0.06518917,-0.036161277,-9.734777
2015972000,2015972000,0.022684913,0.019598218,-9.877201
2016020000,2016020000,0.047292702,-0.010156596,-9.8663025
2016072000,2016072000,0.024806876,0.048390325,-9.79814
2016120000,2016120000,0.024392752,-0.04794262,-9.837508
2016172000,2016172000,0.06453894,0.06944635,-9.815733
2016216000,2016216000,0.011130256,-0.022468472,-9.842962
2016272000,2016272000,0.050030097,-0.09682153,-9.751867
2016320000,2016320000,0.029375792,-0.08946337,-9.71698
2016372000,2016372000,0.020535305,-0.011451163,-9.7836
2016420000,2016420000,-0.008030276,-0.0020038185,-9.822899
2016472000,2016472000,0.09445279,-0.0349914,-9.86658
2016520000,2016520000,0.0055634477,-0.076594904,-9.878037
2016572000,2016572000,0.012107828,-0.038665183,-9.803163
2016620000,2016620000,-0.033357628,-0.016632456,-9.862115
2016672000,2016672000,-0.04751743,-0.034356505,-9.8149805
2016720000,2016720000,-0.06134573,-0.16207367,-9.7635355
2016772000,2016772000,0.032147963,-0.03437386,-9.814636
2016820000,2016820000,-0.010430647,0.051146895,-9.79147
2016872000,2016872000,0.034258425,-0.038370907,-9.840031
2016920000,2016920000,0.08843276,0.03529851,-9.839243
2016972000,2016972000,0.045179024,0.050356828,-9.909328
2017020000,2017020000,0.030611508,-0.10608468,-9.845891
2017068000,2017068000,-0.049354002,0.07971803,-9.861598
2017120000,2017120000,-0.020695332,-0.05516786,-9.758167
2017172000,2017172000,0.13811809,-0.025098879,-9.832489
2017220000,2017220000,-0.0025150753,0.048600957,-9.839186
2017268000,2017268000,-0.012848202,0.017389204,-9.818429
2017320000,2017320000,-0.052226186,0.008797145,-9.796923
2017372000,2017372000,0.004869678,-0.06357822,-9.8474865
2017420000,2017420000,0.020308338,0.03810659,-9.830362
2017472000,2017472000,0.12948488,0.022517687,-9.753689
2017520000,2017520000,0.009520285,-0.015467493,-9.813459
2017572000,2017572000,0.013783514,0.060703658,-9.807645
2017620000,2017620000,0.06754195,-0.0698866,-9.887423
2017672000,2017672000,-0.017646374,-0.04598302,-9.867868
2017720000,2017720000,-0.040251978,0.056020234,-9.709642
2017772000,2017772000,0.0083730295,-0.026527904,-9.779409
2017820000,2017820000,-0.05196141,-0.11983554,-9.850517
2017872000,2017872000,0.043511912,0.023574565,-9.708738
2017920000,2017920000,0.03755308,-0.015647683,-9.680812
2017972000,2017972000,-0.035749394,-0.034244273,-9.75898
2018020000,2018020000,-0.07710532,-0.024744142,-9.794464
2018072000,2018072000,0.008265899,-0.0718527,-9.808307
2018116000,2018116000,0.04501393,0.07600844,-9.8244095
2018172000,2018172000,0.028681342,-0.009096239,-9.788143
2018220000,2018220000,0.09716474,-0.01255733,-9.756884
2018272000,2018272000,-0.0012199124,-0.024401292,-9.804352
2018320000,2018320000,0.07255587,0.024000593,-9.852224
2018372000,2018372000,-0.003987669,-0.034037344,-9.933633
2018416000,2018416000,-0.013844567,-0.00239834,-9.788712
2018472000,2018472000,-0.027216628,-0.007185782,-9.850178
2018516000,2018516000,0.112788826,-0.05076742,-9.8216305
2018572000,2018572000,0.03753988,-0.027987985,-9.865502
2018620000,2018620000,-0.0031393082,-0.017456006,-9.830557
2018672000,2018672000,0.07631072,-0.03637901,-9.779791
2018720000,2018720000,0.07513939,-0.09171829,-9.690769
2018768000,2018768000,0.01793342,-0.018767092,-9.796057
2018820000,2018820000,-0.041406956,-0.10803729,-9.822887
2018872000,2018872000,0.06932512,-0.00928889,-9.859995
2018920000,2018920000,0.034076765,-0.04888707,-9.738227
2018972000,2018972000,-0.115390986,-0.011164028,-9.756464
2019020000,2019020000,0.019477684,-0.0039568506,-9.739644
2019072000,2019072000,0.02786864,-0.048405576,-9.813695
2019120000,2019120000,-0.10134224,0.030987054,-9.886225
2019172000,2019172000,-0.020352438,0.020946227,-9.920609
2019220000,2019220000,0.02479015,-0.022714574,-9.879191
2019268000,2019268000,0.005841581,0.051475603,-9.844291
2019320000,2019320000,-0.0588822,0.07945796,-9.748661
2019372000,2019372000,-0.017802346,-0.016525583,-9.779307
2019420000,2019420000,0.06509855,-0.016221251,-9.8814
2019472000,2019472000,0.0686975,0.024143696,-9.790295
2019520000,2019520000,-0.033605076,-0.0198591,-9.789228
2019572000,2019572000,0.02102742,-0.002520137,-9.767906
2019620000,2019620000,-0.0082606245,9.8397024e-05,-9.746984
2019672000,2019672000,-0.00088791735,0.05554993,-9.783451
2019720000,2019720000,-0.031494107,-0.012507319,-9.841423
2019772000,2019772000,0.0018658461,0.073620915,-9.839095
2019820000,2019820000,-0.022727128,-0.02542424,-9.814739
2019872000,2019872000,0.01898278,0.051230144,-9.847452
2019920000,2019920000,0.061371002,0.07428687,-9.86775
2019972000,2019972000,-0.021657124,0.05506909,-9.841334
2020020000,2020020000,0.092227444,0.026773488,-9.764457
2020072000,2020072000,0.15473631,-0.04645557,-9.672391
2020116000,2020116000,0.095324054,-0.04662709,-9.698546
2020172000,2020172000,0.109589055,0.00057337806,-9.756792
2020216000,2020216000,0.040914316,0.0013638027,-9.87353
2020272000,2020272000,0.024432715,-0.040851742,-9.806401
2020320000,2020320000,0.031014409,0.06376806,-9.77586
2020372000,2020372000,-0.031954158,-0.0036317154,-9.7727585
2020420000,2020420000,-0.009493365,0.073435746,-9.829976
2020472000,2020472000,-0.027262941,-0.03815774,-9.818138
2020516000,2020516000,0.043369133,0.0051168245,-9.8000765
2020572000,2020572000,0.009245437,-0.039374426,-9.945525
2020620000,2020620000,-0.013627741,0.014675992,-10.017452
2020672000,2020672000,0.04538004,-0.08506791,-10.2654505
2020720000,2020720000,-0.048387907,-0.015000965,-10.165781
2020772000,2020772000,0.0927536,0.02411982,-10.405727
2020820000,2020820000,0.009997846,0.07787948,-10.479305
2020872000,2020872000,0.008418728,0.011582929,-10.688533
2020920000,2020920000,0.049228325,-0.053091247,-10.699003
2020972000,2020972000,-0.05137248,0.093848705,-10.668163
2021020000,2021020000,0.03157211,0.015105311,-10.732594
2021072000,2021072000,0.0800421,0.090159625,-10.7146435
2021120000,2021120000,0.0062391353,0.113409914,-10.732023
2021172000,2021172000,0.0551705,0.061417647,-10.69626
2021220000,2021220000,0.014255127,0.04345352,-10.783769
2021272000,2021272000,-0.018576104,0.08056246,-10.716666
2021320000,2021320000,0.016135463,-0.055684425,-10.680307
2021372000,2021372000,-0.03091178,0.1291964,-10.654762
2021420000,2021420000,0.08315717,0.0577847,-10.73379
2021472000,2021472000,0.016264318,0.0718618,-10.452814
2021520000,2021520000,-0.03317175,0.10516484,-10.090057
2021572000,2021572000,-0.0032461043,-0.0248796,-9.950846
2021620000,2021620000,0.026574573,0.061302565,-10.056692
2021672000,2021672000,0.036508426,0.056893334,-10.0307865
2021720000,2021720000,-0.022512518,0.081696354,-9.896387
2021772000,2021772000,-0.043674964,0.061383024,-9.799576
2021816000,2021816000,-0.09112828,-0.04225798,-9.842869
2021872000,2021872000,0.05855125,0.11418768,-9.937024
2021920000,2021920000,-0.020562964,0.008843971,-9.898628
2021972000,2021972000,0.04591175,-0.052232344,-9.966093
2022020000,2022020000,-0.039263897,0.020024238,-9.823278
2022072000,2022072000,0.004141711,0.055797756,-9.868515
2022120000,2022120000,-0.058808617,0.017954662,-9.888504
2022172000,2022172000,0.06448866,-0.020473313,-9.924223
2022220000,2022220000,0.020280473,-0.024907287,-9.864632
2022268000,2022268000,-0.016253866,-0.06571339,-9.964385
2022320000,2022320000,-0.02600226,0.018369837,-9.833708
2022372000,2022372000,-0.052705638,0.072687685,-9.8520775
2022420000,2022420000,0.02880282,-0.008781733,-9.792779
2022472000,2022472000,-0.030217182,0.008979949,-9.828951
2022520000,2022520000,-0.0034678844,0.051617943,-9.76483
2022572000,2022572000,-0.01300413,-0.08347048,-9.767406
2022620000,2022620000,0.0016293954,-0.012933021,-9.823002
2022672000,2022672000,-0.039406262,-0.16162403,-9.855647
2022720000,2022720000,-0.08064622,-0.024776613,-9.743211
2022772000,2022772000,-0.0014396422,-0.0588273,-9.778982
2022816000,2022816000,0.110073335,-0.075871415,-9.699558
2022868000,2022868000,0.05775418,0.006526364,-9.7764225
2022920000,2022920000,0.07187713,0.015012909,-9.696295
2022972000,2022972000,-0.030707017,-0.07597752,-9.643068
2023020000,2023020000,0.00013092067,-0.0320493,-9.842249
2023072000,2023072000,-0.020312812,0.0071693487,-9.718994
2023120000,2023120000,0.0030095568,-0.1278751,-9.625864
2023172000,2023172000,0.02594774,-0.07320682,-9.646701
2023220000,2023220000,-0.0071790824,-0.016395992,-9.728531
2023272000,2023272000,-0.009901457,-0.0382494,-9.740798
2023320000,2023320000,0.018024521,0.06579031,-9.71125
2023372000,2023372000,-0.04380796,-0.079420924,-9.623371
2023420000,2023420000,0.015483682,-0.08525389,-9.575474
2023472000,2023472000,-0.05985083,-0.09222297,-9.773768
2023520000,2023520000,-0.013450236,-0.004063373,-9.6374655
2023572000,2023572000,0.027950697,0.02746893,-9.617653
2023620000,2023620000,0.10502316,-0.17366646,-9.749174
2023668000,2023668000,0.00048569916,-0.062574774,-9.636309
2023720000,2023720000,-0.038854815,-0.06955811,-9.549329
2023772000,2023772000,-0.054486502,-0.08190566,-9.674557
2023820000,2023820000,-0.060338758,-0.024223486,-9.605886
2023872000,2023872000,-0.07682921,-0.04287844,-9.604948
2023920000,2023920000,-0.0043536173,-0.0448792,-9.548939
2023972000,2023972000,0.023487054,-0.0688822,-9.664622
2024020000,2024020000,-0.0049691056,-0.04171018,-9.728686
2024072000,2024072000,0.040897887,-0.06723279,-9.5787
2024116000,2024116000,-0.03719591,-0.11637664,-9.540523
2024172000,2024172000,0.041648254,-0.04169455,-9.51627
2024220000,2024220000,0.0061084926,0.006450337,-9.445475
2024272000,2024272000,-0.008085496,-0.05094264,-9.117416
2024320000,2024320000,0.018933387,-0.021184098,-8.99821
2024372000,2024372000,0.05057124,-0.055297233,-8.7494545
2024420000,2024420000,-0.06770182,-0.05215484,-8.569349
2024472000,2024472000,-0.07452608,0.05118669,-8.657963
2024520000,2024520000,0.032946248,-0.04639007,-8.692802
2024572000,2024572000,0.019434784,-0.020875292,-8.960185
2024620000,2024620000,0.00610104,-0.10892009,-9.263338
2024672000,2024672000,0.006430454,-0.018059421,-9.477926
2024720000,2024720000,0.027681017,-0.062139235,-9.771769
2024772000,2024772000,0.004361571,0.055182077,-10.040461
2024820000,2024820000,0.027618086,-0.032253046,-10.11698
2024872000,2024872000,-0.024778226,-0.016194599,-10.135383
2024920000,2024920000,0.064972475,-0.07847695,-10.054953
2024968000,2024968000,0.059699457,-0.0947966,-9.976452
2025020000,2025020000,0.031834863,0.006824966,-9.970683
2025072000,2025072000,0.04605598,-0.080270275,-9.834623
2025120000,2025120000,0.0366379,0.011422047,-9.704065
2025172000,2025172000,0.009704637,-0.056077324,-9.6608715
2025216000,2025216000,-0.007881309,-0.046158858,-9.727956
2025272000,2025272000,-0.06109864,-0.025661888,-9.609327
2025320000,2025320000,-0.039846137,-0.07136742,-9.726451
2025372000,2025372000,-0.05607771,0.0044026384,-9.71369
2025420000,2025420000,0.0010943457,0.05485142,-9.669079
2025468000,2025468000,-0.018330693,0.021747954,-9.717318
2025520000,2025520000,-0.05320173,-0.0518626,-9.68844
2025572000,2025572000,-0.05798178,0.015151987,-9.51663
2025620000,2025620000,0.047185212,-0.019027205,-9.789171
2025668000,2025668000,-0.049567398,-0.03968785,-9.734875
2025716000,2025716000,-0.0002366663,0.09307542,-9.82757
2025772000,2025772000,0.024237085,-0.011349879,-9.715005
2025820000,2025820000,-0.042966265,-0.061361216,-9.7428255
2025872000,2025872000,-0.06595575,0.05712081,-9.770223
2025920000,2025920000,-0.016504705,-0.024458548,-9.668213
2025972000,2025972000,-0.014109565,-0.102979355,-9.849576
2026020000,2026020000,0.034270085,-0.06781841,-9.794608
2026068000,2026068000,0.07175518,-0.0011877874,-9.78824
2026120000,2026120000,0.013785327,-0.023472358,-9.623164
2026172000,2026172000,0.014420042,-0.039002396,-9.672492
2026220000,2026220000,-0.016879926,0.0073575834,-9.749783
2026272000,2026272000,-0.04988121,-0.019317057,-9.797339
2026320000,2026320000,0.023440799,-0.021378186,-9.737736
2026372000,2026372000,0.03184917,0.0376679,-9.823017
2026420000,2026420000,-0.031580187,0.064336784,-9.708843
2026472000,2026472000,-0.044635195,0.008745462,-9.712782
2026520000,2026520000,-0.02203334,-0.051566742,-9.852199
2026572000,2026572000,0.011787299,0.020825427,-9.775895
2026620000,2026620000,-0.03763547,0.033749975,-9.714526
2026668000,2026668000,-0.02739222,-0.014226046,-9.809231
2026720000,2026720000,0.11073172,-0.027665662,-9.787055
2026772000,2026772000,0.018821988,0.033735715,-9.751927
2026820000,2026820000,0.04888946,0.104283705,-9.790488
2026868000,2026868000,-0.04498034,-0.07980277,-9.795056
2026920000,2026920000,-0.038456257,0.048113152,-9.681011
2026972000,2026972000,-0.072925426,0.10644238,-9.702253
2027016000,2027016000,0.013992883,-0.10049519,-9.852119
2027072000,2027072000,-0.07848447,-0.0023186752,-9.788548
2027120000,2027120000,-0.012934455,0.009094512,-9.694107
2027172000,2027172000,-0.034587678,0.0064170696,-9.746067
2027220000,2027220000,-0.0039578313,-0.008368102,-9.738777
2027268000,2027268000,-0.04261092,0.04436621,-9.784236
2027320000,2027320000,-0.005925879,-0.07207926,-9.731419
2027372000,2027372000,0.08532629,0.016940854,-9.882305
2027420000,2027420000,-0.004382122,-0.07531624,-9.795964
2027472000,2027472000,0.04376615,0.013567254,-9.740643
2027516000,2027516000,0.059113353,0.013806655,-9.72184
2027572000,2027572000,-0.103570595,0.004334772,-9.767368
2027620000,2027620000,-0.007996569,-0.03820081,-9.784925
2027672000,2027672000,-0.055422645,-0.0021398002,-9.810329
2027720000,2027720000,0.03845641,-0.047309645,-9.774555
2027772000,2027772000,0.033414833,-0.044869974,-9.833475
2027820000,2027820000,0.00089103775,-0.04812414,-9.839508
2027872000,2027872000,0.053859867,-0.0058278036,-9.835676
2027920000,2027920000,0.021329382,0.079305,-9.780684
2027972000,2027972000,-0.013873071,0.04791395,-9.738509
2028020000,2028020000,-0.012066941,0.119156875,-9.812951
2028072000,2028072000,-0.13592078,-0.0098512955,-9.801186
2028120000,2028120000,0.0035639296,-0.035267916,-9.848833
2028172000,2028172000,0.0495642,0.06553898,-9.768055
2028220000,2028220000,-0.0791091,-0.028669002,-9.845266
2028272000,2028272000,0.053811055,0.079893574,-9.746021
2028320000,2028320000,-0.029702228,0.0041276673,-9.834489
2028372000,2028372000,-0.12802197,0.01458904,-9.726524
2028420000,2028420000,-0.0546145,0.009183274,-9.798518
2028472000,2028472000,0.03877475,0.03475173,-9.759354
2028520000,2028520000,1.3345387e-05,-0.035518073,-9.769748
2028572000,2028572000,0.0003269841,-0.023249477,-9.783713
2028620000,2028620000,-0.0117399,-0.0118638035,-9.71236
2028672000,2028672000,0.008464818,-0.0137421675,-9.836174
2028720000,2028720000,-0.09312688,0.02863702,-9.758574
2028772000,2028772000,0.032220017,0.010480826,-9.872726
2028820000,2028820000,0.0029849573,0.03522972,-9.785958
2028872000,2028872000,0.007625325,0.033614285,-9.834574
2028920000,2028920000,-0.06329793,-0.07371676,-9.731596
2028968000,2028968000,-0.06365042,-0.040920056,-9.811386
2029020000,2029020000,0.095308356,0.0053942106,-9.749544
2029072000,2029072000,0.08072395,0.071213536,-9.661605
2029116000,2029116000,0.046832692,0.015387234,-9.805566
2029172000,2029172000,-0.0030487478,-0.05369797,-9.845213
2029220000,2029220000,-0.059240527,-0.024771474,-9.792879
2029272000,2029272000,-0.043780822,-0.00049185334,-9.743916
2029316000,2029316000,-0.023188803,0.049649253,-9.751143
2029372000,2029372000,-0.0486056,0.063916646,-9.801696
2029420000,2029420000,-0.0695263,-0.029962206,-9.75136
2029472000,2029472000,-0.00051440625,-0.030369584,-9.723401
2029520000,2029520000,-0.09946889,-0.023463827,-9.959103
2029572000,2029572000,-0.011252556,-0.06589895,-9.786522
2029616000,2029616000,-0.048147704,0.017571695,-9.858357
2029672000,2029672000,-0.11294966,-0.0037802635,-9.838003
2029720000,2029720000,-0.036034808,-0.02225022,-9.825448
2029772000,2029772000,0.010690657,-0.058352612,-9.945032
2029820000,2029820000,0.048375785,0.08955908,-10.030378
2029872000,2029872000,0.041059628,-0.10219519,-9.999951
2029920000,2029920000,0.07236788,0.17462483,-9.92646
2029972000,2029972000,0.061297067,0.095286325,-10.002919
2030020000,2030020000,0.1024725,0.1503712,-10.085141
2030068000,2030068000,0.012607917,0.1449191,-10.068373
2030120000,2030120000,0.096235834,0.1832609,-10.167857
2030172000,2030172000,0.115740806,0.26604542,-10.120854
2030220000,2030220000,0.15635753,0.2331614,-10.17391
2030272000,2030272000,0.15969345,0.41439545,-10.128674
2030320000,2030320000,0.16680019,0.35321686,-10.095955
2030372000,2030372000,0.10767218,0.39990687,-10.030096
2030420000,2030420000,0.03348184,0.47818267,-10.109816
2030468000,2030468000,0.19583124,0.56185806,-10.010839
2030520000,2030520000,0.15134135,0.55629444,-10.139143
2030568000,2030568000,0.115863234,0.5715201,-10.0950365
2030620000,2030620000,0.06352015,0.6874964,-10.03911
2030672000,2030672000,0.17145245,0.71095264,-10.185541
2030720000,2030720000,0.040024612,0.76091886,-10.117945
2030772000,2030772000,0.094423145,0.8542798,-10.070017
2030820000,2030820000,0.049903635,0.8351367,-10.0181
2030872000,2030872000,0.10116719,0.9095758,-10.076599
2030920000,2030920000,0.03746381,0.857247,-10.194379
2030972000,2030972000,0.008721707,1.0499308,-10.132914
2031020000,2031020000,0.03460416,1.0443022,-10.094821
2031072000,2031072000,-0.10620042,1.089883,-10.074468
2031120000,2031120000,-0.15712485,1.0859466,-10.027266
2031168000,2031168000,-0.104764,1.1492512,-10.043678
2031220000,2031220000,-0.14702861,1.270577,-10.116992
2031272000,2031272000,-0.24590296,1.2026594,-9.953728
2031320000,2031320000,-0.2580243,1.3259723,-9.961971
2031372000,2031372000,-0.39994696,1.3135433,-9.90099
2031420000,2031420000,-0.48419487,1.3316493,-9.701609
2031468000,2031468000,-0.47177312,1.3069246,-9.68309
2031520000,2031520000,-0.61895025,1.377913,-9.681284
2031572000,2031572000,-0.7155972,1.4092275,-9.694357
2031620000,2031620000,-0.73612994,1.3649971,-9.658836
2031672000,2031672000,-0.80723476,1.3642768,-9.714184
2031720000,2031720000,-0.9116156,1.3724523,-9.713936
2031772000,2031772000,-0.9260839,1.3892448,-9.746292
2031820000,2031820000,-1.0740657,1.3616389,-9.70109
2031872000,2031872000,-1.1158553,1.2144196,-9.724542
2031920000,2031920000,-1.137533,1.2127621,-9.61469
2031972000,2031972000,-1.1842427,1.2708491,-9.632153
2032020000,2032020000,-1.3254622,1.200145,-9.719157
2032072000,2032072000,-1.3319111,1.1123037,-9.686629
2032120000,2032120000,-1.3464459,1.2299126,-9.763073
2032172000,2032172000,-1.5280153,1.1052508,-9.746745
2032220000,2032220000,-1.4573823,1.0212822,-9.814568
2032268000,2032268000,-1.5224016,0.92220205,-9.808537
2032320000,2032320000,-1.462332,0.84421134,-9.879549
2032372000,2032372000,-1.6426395,0.8301258,-9.899488
2032420000,2032420000,-1.6068783,0.8381918,-9.766209
2032472000,2032472000,-1.6112404,0.7111273,-9.778628
2032520000,2032520000,-1.620338,0.5882191,-9.71096
2032572000,2032572000,-1.666122,0.641028,-9.720079
2032616000,2032616000,-1.6086481,0.5838926,-9.771241
2032672000,2032672000,-1.6537102,0.63164896,-9.688265
2032716000,2032716000,-1.5649016,0.41470096,-9.704239
2032772000,2032772000,-1.6627281,0.41334453,-9.644468
2032820000,2032820000,-1.6567519,0.32473227,-9.769734
2032868000,2032868000,-1.7175578,0.35333282,-9.703098
2032916000,2032916000,-1.6252067,0.33000222,-9.698366
2032972000,2032972000,-1.6207126,0.29107612,-9.669136
2033020000,2033020000,-1.7178316,0.1344893,-9.729129
2033072000,2033072000,-1.6479635,0.08547424,-9.664988
2033120000,2033120000,-1.6102529,0.25572178,-9.703995
2033172000,2033172000,-1.6521072,0.12039635,-9.694345
2033220000,2033220000,-1.718385,0.19857422,-9.716404
2033272000,2033272000,-1.6098162,0.1601251,-9.766881
2033320000,2033320000,-1.7244406,0.04442646,-9.786527
2033372000,2033372000,-1.5865102,0.077201955,-9.788083
2033420000,2033420000,-1.6036351,0.09161878,-9.640671
2033472000,2033472000,-1.6499052,-0.08545552,-9.689286
2033516000,2033516000,-1.6431447,0.07526727,-9.616217
2033568000,2033568000,-1.6698396,-0.07324095,-9.639307
2033620000,2033620000,-1.560435,-0.073824145,-9.651022
2033672000,2033672000,-1.6702979,0.0013114752,-9.516394
2033720000,2033720000,-1.6996261,0.0070291185,-9.654435
2033772000,2033772000,-1.6271585,-0.19565503,-9.632337
2033820000,2033820000,-1.7732775,-0.04785751,-9.729939
2033872000,2033872000,-1.6494154,-0.15222764,-9.742045
2033920000,2033920000,-1.7317472,-0.0395587,-9.635415
2033972000,2033972000,-1.7680131,-0.13530608,-9.662453
2034020000,2034020000,-1.6552488,-0.15138799,-9.719295
2034072000,2034072000,-1.607085,-0.03453914,-9.673748
2034120000,2034120000,-1.6733149,-0.10865377,-9.659952
2034172000,2034172000,-1.7068955,-0.009502058,-9.636253
2034220000,2034220000,-1.6640064,-0.12483235,-9.661238
2034272000,2034272000,-1.6329209,-0.0688747,-9.63685
2034320000,2034320000,-1.6669323,-0.06202666,-9.735811
2034372000,2034372000,-1.6755573,-0.12215047,-9.663775
2034420000,2034420000,-1.6799177,-0.017006433,-9.48884
2034468000,2034468000,-1.6401409,-0.11050786,-9.660891
2034520000,2034520000,-1.7379308,0.0071366765,-9.583347
2034572000,2034572000,-1.780441,-0.043241963,-9.663685
2034620000,2034620000,-1.7287427,-0.025381524,-9.735976
2034672000,2034672000,-1.7975221,0.013202033,-9.651661
2034720000,2034720000,-1.6735766,-0.1208025,-9.540513
2034772000,2034772000,-1.7368305,-0.071529776,-9.705261
2034820000,2034820000,-1.7447803,-0.05445624,-9.57199
2034872000,2034872000,-1.6837106,0.021040305,-9.709836
2034920000,2034920000,-1.732907,0.033108637,-9.630478
2034972000,2034972000,-1.665451,-0.07075092,-9.685283
2035020000,2035020000,-1.7220964,-0.02390545,-9.642433
2035072000,2035072000,-1.7305557,-0.082714915,-9.680834
2035120000,2035120000,-1.7417198,0.04679669,-9.636395
2035172000,2035172000,-1.7288553,0.020181417,-9.845297
2035220000,2035220000,-1.7578334,-0.018946778,-9.710787
2035272000,2035272000,-1.6355616,0.01619534,-9.700647
2035320000,2035320000,-1.6635553,0.006302309,-9.630089
2035368000,2035368000,-1.7753574,-0.046523225,-9.534996
2035420000,2035420000,-1.666375,0.010754397,-9.693567
2035472000,2035472000,-1.7160478,0.03898913,-9.603149
2035520000,2035520000,-1.76305,0.06022474,-9.591154
2035572000,2035572000,-1.6790105,0.045587085,-9.685499
2035616000,2035616000,-1.6790459,0.003113234,-9.597309
2035672000,2035672000,-1.6473833,0.041808248,-9.601087
2035716000,2035716000,-1.6799734,0.058965247,-9.742442
2035772000,2035772000,-1.6932254,0.10130088,-9.647253
2035820000,2035820000,-1.7260232,0.057865124,-9.663781
2035872000,2035872000,-1.6855891,0.003223295,-9.669179
2035920000,2035920000,-1.7251565,0.03301626,-9.77911
2035972000,2035972000,-1.6846917,-0.012631237,-9.690206
2036020000,2036020000,-1.6193578,0.038804203,-9.767136
2036072000,2036072000,-1.6519969,-0.008345498,-9.597823
2036120000,2036120000,-1.6730134,0.094041415,-9.630493
2036172000,2036172000,-1.6838157,0.06811644,-9.756182
2036220000,2036220000,-1.6182157,0.004504293,-9.65489
2036272000,2036272000,-1.731705,0.023661448,-9.719226
2036320000,2036320000,-1.7246604,0.005491102,-9.599761
2036372000,2036372000,-1.6377915,-0.012631875,-9.622059
2036420000,2036420000,-1.6152673,0.046777405,-9.667694
2036472000,2036472000,-1.6065565,-0.0747024,-9.711251
2036520000,2036520000,-1.6898011,-0.074498795,-9.690363
2036568000,2036568000,-1.7086356,0.037281256,-9.605639
2036620000,2036620000,-1.6756105,0.006455498,-9.775869
2036672000,2036672000,-1.6548961,0.1531002,-9.651502
2036720000,2036720000,-1.6879984,0.047279082,-9.685813
2036772000,2036772000,-1.7268809,0.014903509,-9.682214
2036820000,2036820000,-1.7044126,0.029013647,-9.625915
2036872000,2036872000,-1.7807199,0.06461445,-9.644836
2036920000,2036920000,-1.6378822,0.05815144,-9.5920315
2036972000,2036972000,-1.6838533,0.058900617,-9.637657
2037020000,2037020000,-1.6451292,-0.013322021,-9.592767
2037072000,2037072000,-1.6742287,0.049102366,-9.702766
2037120000,2037120000,-1.7146484,0.060680237,-9.612291
2037168000,2037168000,-1.7590848,-0.04391548,-9.630444
2037220000,2037220000,-1.6544254,-0.032573424,-9.655544
2037272000,2037272000,-1.7817136,0.08161031,-9.717443
2037320000,2037320000,-1.6926765,0.002174248,-9.671758
2037372000,2037372000,-1.6516602,0.019179298,-9.677104
2037420000,2037420000,-1.625088,-0.04855938,-9.634744
2037472000,2037472000,-1.7693053,0.016339006,-9.678567
2037516000,2037516000,-1.6973605,0.060173925,-9.578233
2037572000,2037572000,-1.7250426,-0.004886487,-9.615267
2037620000,2037620000,-1.7468393,0.05122314,-9.675142
2037672000,2037672000,-1.5980165,-0.031638898,-9.734147
2037720000,2037720000,-1.7249221,-0.020072676,-9.704157
2037772000,2037772000,-1.6716383,0.03714951,-9.64659
2037820000,2037820000,-1.6965905,0.028141398,-9.715884
2037872000,2037872000,-1.7921603,0.041079763,-9.670084
2037920000,2037920000,-1.7508029,-0.03291623,-9.585285
2037972000,2037972000,-1.7902669,-0.036850587,-9.674746
2038020000,2038020000,-1.7082267,0.014893139,-9.651346
2038072000,2038072000,-1.7013446,-0.07551998,-9.720398
2038120000,2038120000,-1.6752537,-0.048972826,-9.556631
2038172000,2038172000,-1.72993,-0.004959082,-9.702264
2038220000,2038220000,-1.7324269,-0.023452686,-9.626629
2038272000,2038272000,-1.8008447,0.029723546,-9.612794
2038320000,2038320000,-1.6939509,-0.0038575605,-9.712082
2038372000,2038372000,-1.7460084,-0.0015696865,-9.649081
2038420000,2038420000,-1.6805358,-0.055085294,-9.701628
2038472000,2038472000,-1.694474,0.025698485,-9.67679
2038520000,2038520000,-1.6755866,-0.07196461,-9.691704
2038572000,2038572000,-1.7538476,0.014789712,-9.617008
2038616000,2038616000,-1.7832696,-0.07479707,-9.649235
2038672000,2038672000,-1.7845529,0.08078742,-9.680558
2038720000,2038720000,-1.6291012,0.0677934,-9.577422
2038772000,2038772000,-1.8054868,-0.02786085,-9.711092
2038820000,2038820000,-1.7474167,-0.028108297,-9.6632395
2038872000,2038872000,-1.7355556,-0.0004105072,-9.55625
2038920000,2038920000,-1.7688465,-0.0038749136,-9.566437
2038972000,2038972000,-1.7629273,0.018082391,-9.645217
2039020000,2039020000,-1.7735714,-0.111368984,-9.677422
2039072000,2039072000,-1.7054262,-0.054979105,-9.620225
2039120000,2039120000,-1.7650337,0.06660853,-9.608772
2039172000,2039172000,-1.7879777,-0.05149232,-9.6819515
2039220000,2039220000,-1.7716621,-0.01096749,-9.651169
2039272000,2039272000,-1.794631,0.050222367,-9.629075
2039316000,2039316000,-1.7842865,0.044719998,-9.558678
2039372000,2039372000,-1.7599175,0.0035954742,-9.579529
2039420000,2039420000,-1.7449257,0.04295946,-9.535851
2039472000,2039472000,-1.6964383,-0.023755852,-9.552992
2039520000,2039520000,-1.824661,-0.011838462,-9.54467
2039568000,2039568000,-1.8171837,0.045130834,-9.682367
2039620000,2039620000,-1.7151532,0.009349766,-9.679181
2039672000,2039672000,-1.7332007,-0.04223207,-9.592184
2039720000,2039720000,-1.6880908,-0.011547607,-9.629713
2039772000,2039772000,-1.7401257,-0.050536606,-9.60843
2039820000,2039820000,-1.7819723,-0.1098127,-9.745844
2039872000,2039872000,-1.7827113,0.034255024,-9.709707
2039920000,2039920000,-1.7382518,-0.078253604,-9.642954
2039968000,2039968000,-1.79978,0.037501246,-9.619305
2040016000,2040016000,-1.7848883,0.029467553,-9.615032
2040068000,2040068000,-1.7270615,0.0057992763,-9.60015
2040120000,2040120000,-1.76214,-0.00768538,-9.662113
2040172000,2040172000,-1.7881261,0.07724893,-9.581908
2040216000,2040216000,-1.7357391,0.041603707,-9.674659
2040272000,2040272000,-1.7542983,-0.060507126,-9.597611
2040316000,2040316000,-1.7565283,-0.087031215,-9.658602
2040372000,2040372000,-1.7642863,0.016835926,-9.608686
2040420000,2040420000,-1.8407075,-0.012067738,-9.649354
2040472000,2040472000,-1.7243296,-0.08746983,-9.626951
2040516000,2040516000,-1.7912583,-0.020865653,-9.657987
2040572000,2040572000,-1.7097139,-0.019299751,-9.634863
2040620000,2040620000,-1.7550628,0.028570848,-9.693748
2040672000,2040672000,-1.768229,0.012542695,-9.664583
2040720000,2040720000,-1.7343934,-0.019969974,-9.643751
2040772000,2040772000,-1.8163695,-0.07923849,-9.642071
2040820000,2040820000,-1.7523819,0.01796233,-9.73352
2040872000,2040872000,-1.7977608,-0.02055423,-9.641981
2040920000,2040920000,-1.7911156,-0.058475573,-9.553371
2040972000,2040972000,-1.7929597,0.014198178,-9.671051
2041020000,2041020000,-1.8213348,0.0894164,-9.62546
2041072000,2041072000,-1.7953782,-0.013529495,-9.680294
2041120000,2041120000,-1.7785275,-0.012140079,-9.704528
2041172000,2041172000,-1.7514948,-0.1034858,-9.629036
2041220000,2041220000,-1.8104671,0.023265254,-9.640109
2041272000,2041272000,-1.7430177,0.032926492,-9.5905485
2041320000,2041320000,-1.7999471,-0.045129817,-9.587263
2041372000,2041372000,-1.7544601,0.015122094,-9.620173
2041420000,2041420000,-1.8384709,-0.045085404,-9.704926
2041472000,2041472000,-1.8000214,-0.06621447,-9.758172
2041520000,2041520000,-1.7875468,0.03028272,-9.637812
2041572000,2041572000,-1.7708815,-0.081754476,-9.615397
2041620000,2041620000,-1.8043783,0.027526036,-9.636041
2041668000,2041668000,-1.8007141,-0.0093044,-9.706116
2041716000,2041716000,-1.8605404,0.06642031,-9.646479
2041772000,2041772000,-1.7680914,-0.02551983,-9.622104
2041820000,2041820000,-1.819185,0.012028515,-9.654323
2041872000,2041872000,-1.8040414,-0.0014209147,-9.572489
2041920000,2041920000,-1.7540772,-0.059121117,-9.681582
2041972000,2041972000,-1.8109331,0.026274212,-9.615993
2042020000,2042020000,-1.7232305,-0.067037955,-9.696793
2042068000,2042068000,-1.7967732,-0.12714341,-9.619129
2042120000,2042120000,-1.7458162,0.016929183,-9.680344
2042168000,2042168000,-1.8750126,0.03818126,-9.63538
2042220000,2042220000,-1.7180692,-0.04137497,-9.6558
2042272000,2042272000,-1.7829065,-0.069332294,-9.620771
2042320000,2042320000,-1.701118,-0.018125448,-9.6152725
2042372000,2042372000,-1.7765648,-0.006528952,-9.661296
2042420000,2042420000,-1.8918355,-0.031655706,-9.572184
2042472000,2042472000,-1.8484247,-0.058306463,-9.715245
2042520000,2042520000,-1.7543834,-0.057199653,-9.631636
2042572000,2042572000,-1.8048389,-0.0212113,-9.64884
2042616000,2042616000,-1.8452827,-0.040074073,-9.62773
2042672000,2042672000,-1.7894741,-0.071712084,-9.62656
2042720000,2042720000,-1.9358484,-0.015571088,-9.723284
2042772000,2042772000,-1.8004414,0.04033806,-9.680114
2042820000,2042820000,-1.7552936,-0.055597898,-9.565925
2042868000,2042868000,-1.8275131,0.025105452,-9.585638
2042920000,2042920000,-1.7407428,-0.056248292,-9.649138
2042972000,2042972000,-1.7413709,0.0017978677,-9.533247
2043020000,2043020000,-1.8096956,-0.054938577,-9.665332
2043072000,2043072000,-1.7836733,0.024189092,-9.762827
2043120000,2043120000,-1.8112726,-0.010568747,-9.603359
2043172000,2043172000,-1.7893661,0.106245995,-9.623646
2043220000,2043220000,-1.8633869,-0.06763564,-9.639751
2043272000,2043272000,-1.8206398,0.02744774,-9.626567
2043316000,2043316000,-1.8285472,-0.058779955,-9.6156
2043372000,2043372000,-1.8522663,-0.04731594,-9.611159
2043420000,2043420000,-1.7708683,0.012643047,-9.651932
2043472000,2043472000,-1.7947532,-0.025050232,-9.64476
2043516000,2043516000,-1.7215533,-0.05327091,-9.677107
2043568000,2043568000,-1.8924367,0.0006832825,-9.704367
2043620000,2043620000,-1.7956243,-0.0043868064,-9.546445
2043672000,2043672000,-1.7961398,0.07990161,-9.701803
2043720000,2043720000,-1.7183089,-0.019476019,-9.526322
2043772000,2043772000,-1.8114119,-0.0504845,-9.672715
2043820000,2043820000,-1.8321983,-0.020797485,-9.648499
2043868000,2043868000,-1.800897,-0.08374174,-9.552063
2043920000,2043920000,-1.8500628,0.013345661,-9.612381
2043972000,2043972000,-1.8174005,-0.1258411,-9.606584
2044020000,2044020000,-1.8384148,-0.016297437,-9.736528
2044072000,2044072000,-1.7835693,0.04455594,-9.595198
2044120000,2044120000,-1.860151,-0.085299164,-9.656696
2044172000,2044172000,-1.7944679,0.0037989225,-9.532402
2044220000,2044220000,-1.8524866,0.036685828,-9.7127285
2044272000,2044272000,-1.7379379,0.013286857,-9.595433
2044320000,2044320000,-1.8313168,-0.06420141,-9.627023
2044372000,2044372000,-1.8579297,-0.012227489,-9.607454
2044420000,2044420000,-1.8317369,-0.02379626,-9.718062
2044472000,2044472000,-1.7780647,-0.07937532,-9.637408
2044520000,2044520000,-1.7843661,-0.022402676,-9.521549
2044572000,2044572000,-1.867789,-0.048175614,-9.661787
2044620000,2044620000,-1.8562726,0.047782697,-9.64953
2044672000,2044672000,-1.86813,0.009915488,-9.635763
2044720000,2044720000,-1.7772058,0.0025224164,-9.597594
2044772000,2044772000,-1.8501122,-0.12334808,-9.735811
2044820000,2044820000,-1.8309243,-0.026624314,-9.631344
2044872000,2044872000,-1.8852066,-0.11372446,-9.671139
2044920000,2044920000,-1.8249723,-0.0043645306,-9.642518
2044972000,2044972000,-1.7446196,0.077372536,-9.720853
2045020000,2045020000,-1.8089094,-0.0963615,-9.703217
2045072000,2045072000,-1.7999663,-0.04954934,-9.726382
2045120000,2045120000,-1.7523437,-0.07115956,-9.582936
2045172000,2045172000,-1.8002634,0.071618415,-9.691145
2045220000,2045220000,-1.8051054,-0.05142111,-9.668185
2045268000,2045268000,-1.8529751,-0.036691997,-9.608371
2045320000,2045320000,-1.8128767,-0.007502041,-9.628475
2045372000,2045372000,-1.7761803,-0.069304846,-9.786497
2045420000,2045420000,-1.8566996,0.04851814,-9.649914
2045472000,2045472000,-1.8496652,-0.11003951,-9.667086
2045520000,2045520000,-1.8616192,-0.0420111,-9.590769
2045572000,2045572000,-1.818889,-0.065188095,-9.6430435
2045616000,2045616000,-1.8222681,-0.011916155,-9.662498
2045672000,2045672000,-1.9316591,-0.034529693,-9.622757
2045720000,2045720000,-1.7856492,-0.11119495,-9.637496
2045772000,2045772000,-1.80137,0.0037312056,-9.630906
2045820000,2045820000,-1.79794,-0.039000075,-9.69902
2045868000,2045868000,-1.7924507,-0.044296585,-9.698299
2045920000,2045920000,-1.8628186,0.015596991,-9.642767
2045972000,2045972000,-1.7411706,-5.140109e-05,-9.578836
2046020000,2046020000,-1.7445613,-0.074764036,-9.636707
2046068000,2046068000,-1.8634326,0.034058932,-9.617848
2046120000,2046120000,-1.857322,0.0071006957,-9.732609
2046172000,2046172000,-1.8508899,-0.033724442,-9.711211
2046220000,2046220000,-1.6839113,-0.022203643,-9.599787
2046272000,2046272000,-1.8502948,0.03239448,-9.631568
2046320000,2046320000,-1.8354746,0.02140257,-9.626806
2046372000,2046372000,-1.775114,-0.016309632,-9.695206
2046420000,2046420000,-1.79739,-0.096903056,-9.638086
2046472000,2046472000,-1.8553232,0.036210548,-9.631114
2046520000,2046520000,-1.8180647,0.011341867,-9.659151
2046572000,2046572000,-1.8956044,0.068039626,-9.610671
2046620000,2046620000,-1.871025,0.045739733,-9.6199665
2046668000,2046668000,-1.8663533,-0.03997609,-9.600501
2046720000,2046720000,-1.8220106,-0.019633144,-9.672251
2046772000,2046772000,-1.8169651,0.028334986,-9.664835
2046820000,2046820000,-1.8419007,0.028333131,-9.667763
2046872000,2046872000,-1.7982697,-0.033928692,-9.63443
2046920000,2046920000,-1.92665,-0.030527422,-9.705799
2046972000,2046972000,-1.7705358,-0.114022434,-9.668946
2047020000,2047020000,-1.7630739,0.012819075,-9.636668
2047072000,2047072000,-1.8830314,-0.013854962,-9.639185
2047120000,2047120000,-1.7805445,0.017639695,-9.61291
2047172000,2047172000,-1.8437077,-0.067649655,-9.631655
2047220000,2047220000,-1.7828176,0.008520035,-9.6894655
2047272000,2047272000,-1.795086,-0.024614032,-9.646773
2047320000,2047320000,-1.8794982,0.02931915,-9.596942
2047372000,2047372000,-1.7686442,-0.11261672,-9.616344
2047420000,2047420000,-1.8540885,0.02686323,-9.634045
2047472000,2047472000,-1.7883517,-0.006143551,-9.651296
2047520000,2047520000,-1.701112,0.076019496,-9.716989
2047572000,2047572000,-1.8943794,-0.02956293,-9.649387
2047620000,2047620000,-1.7705463,-0.10115709,-9.602831
2047672000,2047672000,-1.8166199,-0.07050853,-9.617132
2047720000,2047720000,-1.8305823,-0.035266038,-9.547163
2047772000,2047772000,-1.817868,-0.05551731,-9.629144
2047820000,2047820000,-1.7244554,0.040748693,-9.570687
2047872000,2047872000,-1.833335,-0.03646795,-9.658191
2047920000,2047920000,-1.8299576,-0.012224855,-9.619571
2047972000,2047972000,-1.7836207,0.048403613,-9.608991
2048020000,2048020000,-1.7610861,-0.0046762107,-9.556746
2048072000,2048072000,-1.8645604,-0.00050644204,-9.6136
2048120000,2048120000,-1.7654967,-0.005721102,-9.557984
2048172000,2048172000,-1.7655869,0.041458465,-9.601391
2048220000,2048220000,-1.8113688,0.053091906,-9.676583
2048272000,2048272000,-1.7808424,-0.01857907,-9.672319
2048320000,2048320000,-1.8492521,-0.06042051,-9.689456
2048372000,2048372000,-1.7830594,-0.027542248,-9.582876
2048420000,2048420000,-1.7854823,0.0066546137,-9.717736
2048472000,2048472000,-1.812822,-0.027094107,-9.571745
2048520000,2048520000,-1.6806335,-0.059597056,-9.697394
2048572000,2048572000,-1.835994,-0.0066041634,-9.701358
2048620000,2048620000,-1.7592924,-0.0036196806,-9.696064
2048672000,2048672000,-1.8084337,0.0010695814,-9.681545
2048720000,2048720000,-1.7994838,-0.056523185,-9.573331
2048772000,2048772000,-1.7995857,-0.016486956,-9.61112
2048820000,2048820000,-1.7827015,0.042611144,-9.685468
2048872000,2048872000,-1.8404098,-0.10850899,-9.603929
2048920000,2048920000,-1.7896364,-0.007272182,-9.555651
2048972000,2048972000,-1.8627249,0.002076755,-9.550808
2049020000,2049020000,-1.8501447,0.003709923,-9.660541
2049072000,2049072000,-1.8200876,-0.031931136,-9.642914
2049120000,2049120000,-1.789197,-0.039275933,-9.671413
2049172000,2049172000,-1.925954,-0.076184094,-9.712732
2049220000,2049220000,-1.6896462,0.0020549623,-9.6487255
2049272000,2049272000,-1.7445014,-0.086132556,-9.715473
2049320000,2049320000,-1.7911655,-0.0138496235,-9.585489
2049372000,2049372000,-1.8255002,-0.041393258,-9.572871
2049420000,2049420000,-1.8204732,-0.072842166,-9.626776
2049468000,2049468000,-1.8314621,-0.050555702,-9.583809
2049520000,2049520000,-1.8358884,-0.040927723,-9.5956955
2049572000,2049572000,-1.8068918,-0.07079025,-9.578484
2049620000,2049620000,-1.7428801,-0.02211259,-9.639695
2049668000,2049668000,-1.8080184,-0.03894368,-9.588132
2049720000,2049720000,-1.8766286,-0.00821163,-9.6924095
2049772000,2049772000,-1.8347027,-0.047202542,-9.631815
2049820000,2049820000,-1.8272209,0.06018469,-9.508922
2049872000,2049872000,-1.7663306,-0.08085976,-9.606622
2049920000,2049920000,-1.8307579,-0.008696436,-9.57718
2049972000,2049972000,-1.8263658,-0.026896082,-9.608799
2050020000,2050020000,-1.8390906,-0.121427745,-9.661271
2050072000,2050072000,-1.7477171,-0.07607495,-9.747308
2050120000,2050120000,-1.7615249,-0.012437061,-9.740526
2050172000,2050172000,-1.6754789,-0.07096376,-9.831106
2050220000,2050220000,-1.6739295,0.009293612,-9.768172
2050272000,2050272000,-1.6235359,-0.001879462,-9.760736
2050320000,2050320000,-1.5763496,-0.06977152,-9.757152
2050372000,2050372000,-1.6402539,-0.02096171,-9.874704
2050420000,2050420000,-1.5275431,-0.006311012,-9.740347
2050472000,2050472000,-1.5191187,0.07648521,-9.716817
2050520000,2050520000,-1.5339564,-0.07856021,-9.777253
2050572000,2050572000,-1.3972393,-0.017746914,-9.790535
2050620000,2050620000,-1.429519,0.032991663,-9.841804
2050668000,2050668000,-1.3737314,-0.04221692,-9.865509
2050720000,2050720000,-1.3264186,-0.074015506,-9.829508
2050772000,2050772000,-1.3812199,-0.03562629,-9.852606
2050820000,2050820000,-1.3163623,0.008984661,-9.890312
2050872000,2050872000,-1.3352478,-0.06589786,-9.885101
2050916000,2050916000,-1.2318617,-0.014328083,-9.899276
2050972000,2050972000,-1.2533885,-0.094093904,-9.84341
2051016000,2051016000,-1.3023586,0.016191574,-9.872772
2051072000,2051072000,-1.1485279,0.025606072,-9.909502
2051120000,2051120000,-1.2461367,-0.035115503,-9.906307
2051172000,2051172000,-1.0512483,0.031444095,-9.767217
2051220000,2051220000,-1.1206403,0.025280928,-9.891449
2051272000,2051272000,-1.0814253,0.009671828,-9.975303
2051320000,2051320000,-1.031606,0.010912508,-9.945278
2051372000,2051372000,-1.1094491,-0.019571649,-9.882767
2051420000,2051420000,-0.9479672,0.061835386,-9.882783
2051472000,2051472000,-1.0345309,-0.0128317755,-9.876289
2051520000,2051520000,-0.92223364,-0.04445416,-9.852702
2051568000,2051568000,-1.0114701,0.003842804,-9.927476
2051620000,2051620000,-0.8850194,-0.018662512,-9.875375
2051672000,2051672000,-0.8867549,0.07182729,-9.85292
2051720000,2051720000,-0.8540152,0.01777944,-9.814876
2051772000,2051772000,-0.90356165,-0.024526868,-9.911252
2051820000,2051820000,-0.91710985,0.024034718,-9.959358
2051872000,2051872000,-0.68198276,0.045169685,-9.821914
2051920000,2051920000,-0.7656613,-0.056335337,-9.920025
2051972000,2051972000,-0.7141971,-0.080970034,-9.891313
2052020000,2052020000,-0.6553906,-0.011577608,-9.960216
2052072000,2052072000,-0.6848893,0.0056527373,-9.897531
2052120000,2052120000,-0.60236585,-0.009277953,-9.862714
2052172000,2052172000,-0.59173393,-0.049233854,-9.789624
2052220000,2052220000,-0.5784365,-0.0023636972,-9.923165
2052272000,2052272000,-0.48213822,-0.037415657,-9.915119
2052320000,2052320000,-0.524016,-0.05045207,-9.755047
2052372000,2052372000,-0.48424542,-0.023204997,-9.834103
2052420000,2052420000,-0.55212975,0.019459594,-9.887717
2052472000,2052472000,-0.59518236,0.03198331,-9.859754
2052520000,2052520000,-0.39682853,-0.049224924,-9.894648
2052572000,2052572000,-0.40126327,0.019728165,-9.904723
2052620000,2052620000,-0.52128375,-0.0808522,-9.882121
2052672000,2052672000,-0.3977816,-0.102625534,-9.839621
2052720000,2052720000,-0.45365077,-0.070239566,-9.82982
2052772000,2052772000,-0.4290158,0.041502364,-9.863281
2052820000,2052820000,-0.36329406,-0.0021891817,-9.78644
2052872000,2052872000,-0.41942364,0.058127083,-9.931001
2052920000,2052920000,-0.27920628,0.0077258497,-9.807083
2052972000,2052972000,-0.30230054,-0.056193788,-9.854092
2053020000,2053020000,-0.28214243,-0.014341702,-9.8375
2053072000,2053072000,-0.3188942,-0.06254067,-9.796203
2053120000,2053120000,-0.27550238,-0.08210835,-9.900325
2053172000,2053172000,-0.21675275,-0.017505283,-9.837877
2053220000,2053220000,-0.30257198,0.045021966,-9.849484
2053272000,2053272000,-0.31360832,0.08200453,-9.799745
2053320000,2053320000,-0.25389487,-0.0037690885,-9.772423
2053372000,2053372000,-0.21452332,-0.01000005,-9.876217
2053420000,2053420000,-0.2577172,-0.05492378,-9.800737
2053472000,2053472000,-0.2068666,0.00759633,-9.750823
2053520000,2053520000,-0.20307225,0.011705354,-9.886281
2053572000,2053572000,-0.26145032,0.03091637,-9.848009
2053620000,2053620000,-0.14799306,-0.027921397,-9.815979
2053672000,2053672000,-0.25554356,-0.028007392,-9.787515
2053720000,2053720000,-0.19388995,-0.09185608,-9.874918
2053772000,2053772000,-0.17920503,-0.023568243,-9.69091
2053820000,2053820000,-0.16759634,-0.015990226,-9.826561
2053872000,2053872000,-0.17379364,0.04814629,-9.845026
2053920000,2053920000,-0.1701194,-0.0081300875,-9.811631
2053972000,2053972000,-0.121445015,-0.0028060814,-9.798664
2054020000,2054020000,-0.15021627,-0.08259879,-9.785806
2054072000,2054072000,-0.11016469,0.019458275,-9.749594
2054120000,2054120000,-0.019827325,-0.038213916,-9.866108
2054172000,2054172000,-0.09586415,-0.00074959,-9.814664
2054220000,2054220000,-0.14597741,0.022240782,-9.845688
2054268000,2054268000,-0.108119115,0.02669989,-9.863598
2054316000,2054316000,-0.1603944,0.04991641,-9.855119
2054372000,2054372000,-0.10612011,-0.018128267,-9.85332
2054420000,2054420000,-0.16172619,0.058520716,-9.840909
2054472000,2054472000,-0.056072153,0.012619527,-9.835033
2054520000,2054520000,-0.10389699,0.007950547,-9.850363
2054572000,2054572000,-0.11611618,0.0122391265,-9.88474
2054620000,2054620000,-0.09512699,-0.040725004,-9.815064
2054672000,2054672000,-0.026957273,0.044258267,-9.788677
2054720000,2054720000,-0.12979923,0.007229943,-9.828064
2054772000,2054772000,0.020128695,-0.0051771877,-9.834879
2054820000,2054820000,-0.116976775,0.048801884,-9.840901
2054868000,2054868000,-0.08138038,-0.12730297,-9.806309
2054920000,2054920000,-0.15515324,-0.076248914,-9.833446
2054972000,2054972000,-0.1515624,-0.03750435,-9.820385
2055020000,2055020000,0.03932663,0.045959577,-9.789249
2055072000,2055072000,-0.110243484,-0.005541157,-9.876261
2055120000,2055120000,0.011465995,0.046782,-9.781988
2055172000,2055172000,-0.09834256,-0.046626996,-9.742837
2055220000,2055220000,-0.032068394,-0.0005759923,-9.858003
2055268000,2055268000,0.0071968413,-0.012430893,-9.778973
2055320000,2055320000,-0.114659056,0.052782454,-9.742964
2055372000,2055372000,-0.10381651,0.01489968,-9.863164
2055416000,2055416000,-0.048394173,0.0011547492,-9.780646
2055472000,2055472000,-0.007893848,0.020951942,-9.706263
2055520000,2055520000,-0.020949708,0.06339455,-9.813469
2055572000,2055572000,-0.02515448,-0.03905088,-9.8042
2055620000,2055620000,-0.08954514,-0.033687346,-9.830879
2055672000,2055672000,-0.07382535,-0.017628664,-9.842276
2055716000,2055716000,-0.045736052,-0.04485365,-9.783377
2055772000,2055772000,-0.1119167,-0.025271956,-9.739632
2055820000,2055820000,-0.005325043,-0.0947444,-9.742254
2055872000,2055872000,0.0012084413,0.036326766,-9.825103
2055920000,2055920000,-0.034898978,-0.019249406,-9.862303
2055972000,2055972000,-0.08991997,0.039210983,-9.791082
2056020000,2056020000,-0.031191131,0.01126674,-9.859562
2056072000,2056072000,-0.010350228,0.077056564,-9.849175
2056120000,2056120000,0.0075608715,-0.0058934367,-9.858903
2056172000,2056172000,-0.06591728,0.002276843,-9.741391
2056220000,2056220000,-0.02877262,-0.016124701,-9.763297
2056272000,2056272000,-0.08508921,-0.023078065,-9.806676
2056320000,2056320000,-0.116965875,0.07562721,-9.888191
2056372000,2056372000,-0.0052915737,-0.044294894,-9.912504
2056420000,2056420000,-0.06812694,-0.030934991,-9.803099
2056472000,2056472000,0.039709367,0.010368763,-9.724442
2056516000,2056516000,-0.0061653834,0.009664239,-9.828325
2056572000,2056572000,-9.719934e-05,0.05637961,-9.822665
2056620000,2056620000,0.001570819,0.0032792538,-9.868471
2056668000,2056668000,-0.091281794,-0.017565418,-9.846968
2056720000,2056720000,-0.08150761,0.09208793,-9.762879
2056772000,2056772000,-0.10564262,0.014202853,-9.66682
2056820000,2056820000,-0.004726329,0.03428196,-9.748545
2056868000,2056868000,-0.13491894,-0.0071497764,-9.797095
2056920000,2056920000,0.04602628,0.025230125,-9.810062
2056972000,2056972000,0.0014333604,0.061133113,-9.851154
2057020000,2057020000,-0.0005657878,-0.0016363778,-9.845504
2057072000,2057072000,-0.049392752,-0.0013703089,-9.78131
2057120000,2057120000,0.081263006,-0.006317211,-9.851448
2057172000,2057172000,-0.032034043,0.008925887,-9.810003
2057220000,2057220000,0.10025254,-0.03388524,-9.806417
2057272000,2057272000,-0.020080507,0.05104757,-9.854685
2057316000,2057316000,-0.03442923,-0.016135775,-9.86862
2057372000,2057372000,0.021060968,0.07197933,-9.871843
2057420000,2057420000,-0.034086287,-0.036300737,-9.767599
2057472000,2057472000,-0.017116861,0.020340793,-9.80911
2057516000,2057516000,-0.042831723,0.09853943,-9.862006
2057572000,2057572000,-0.02304082,-0.0055127363,-9.709408
2057620000,2057620000,-0.008201346,-0.045530625,-9.765352
2057672000,2057672000,0.0013941294,-0.020417817,-9.765352
2057720000,2057720000,-0.0041344184,0.099107094,-9.800928
2057772000,2057772000,-0.06368922,0.11344585,-9.7659645
2057820000,2057820000,0.0026808516,0.0037265704,-9.770806
2057872000,2057872000,0.09393101,0.048940025,-9.958232
2057920000,2057920000,-0.0017169095,0.027114358,-9.856241
2057972000,2057972000,0.033199817,0.007919878,-9.718818
2058020000,2058020000,0.0019622743,0.03269338,-9.820652
2058072000,2058072000,0.004556427,0.037134852,-9.795826
2058120000,2058120000,0.088007025,0.099645615,-9.83074
2058172000,2058172000,-0.0053532426,0.017600777,-9.800895
2058216000,2058216000,0.09573595,-0.052976504,-9.831732
2058272000,2058272000,0.039172746,0.012928562,-9.790226
2058320000,2058320000,-0.03240007,-0.020651786,-9.907411
2058372000,2058372000,0.039061315,0.040684395,-9.811783
2058420000,2058420000,0.05048363,-0.024650704,-9.894827
2058472000,2058472000,0.033731136,-0.014364227,-9.753052
2058520000,2058520000,-0.02265364,-0.036840945,-9.785283
2058572000,2058572000,0.03059144,0.10143497,-9.847612
2058620000,2058620000,0.010889586,-0.014994578,-9.725324
2058672000,2058672000,-0.0040148385,0.033973455,-9.816583
2058720000,2058720000,-0.031888288,-0.008374112,-9.74679
2058772000,2058772000,0.023716835,-0.012874216,-9.760244
2058820000,2058820000,-0.013983563,0.00577165,-9.808584
2058872000,2058872000,0.019866606,0.045445643,-9.705721
2058920000,2058920000,0.051032834,-0.05964681,-9.823009
2058972000,2058972000,0.0391831,0.17919868,-9.829191
2059020000,2059020000,0.087445244,0.047301844,-9.801916
2059072000,2059072000,0.035605997,-0.07823303,-9.763556
2059120000,2059120000,0.083159715,-0.022632727,-9.828787
2059172000,2059172000,0.026690805,0.082799174,-9.879651
2059220000,2059220000,0.03698366,-0.036989987,-9.822315
2059268000,2059268000,-0.08221992,0.015670082,-9.779582
2059320000,2059320000,0.0020676786,0.036973912,-9.804043
2059372000,2059372000,0.1831691,0.050290324,-9.693255
2059420000,2059420000,-0.028951978,-0.12952618,-9.803466
2059472000,2059472000,0.09956087,0.040645935,-9.74896
2059520000,2059520000,-0.025724951,0.013448709,-9.715313
2059572000,2059572000,0.09949527,0.07816089,-9.8041725
2059620000,2059620000,0.076834425,-0.059200052,-9.848469
2059672000,2059672000,-0.021682048,0.07905847,-9.806969
2059720000,2059720000,0.06692215,0.050038964,-9.818513
2059772000,2059772000,0.02522239,-0.058237713,-9.869085
2059820000,2059820000,0.0242742,0.02120839,-9.811254
2059868000,2059868000,0.015156945,0.026709985,-9.820811
2059920000,2059920000,0.03431496,-0.0067578494,-9.806274
2059972000,2059972000,0.10711243,0.00024097538,-9.776514
2060020000,2060020000,-0.058089618,-0.007830966,-9.844231
2060072000,2060072000,-0.06934811,-0.014547938,-9.732472
2060120000,2060120000,-0.018119978,-0.008056858,-9.774692
2060172000,2060172000,-0.017937567,0.056143265,-9.765537
2060216000,2060216000,-0.023396451,0.042731777,-9.813618
2060272000,2060272000,-0.06349809,-0.00745463,-9.8383665
2060316000,2060316000,0.0006298935,-0.025338663,-9.769582
2060372000,2060372000,0.0066236025,0.05406269,-9.850238
2060420000,2060420000,0.0010003904,0.0021741989,-9.65385
2060472000,2060472000,0.0687905,0.077240236,-9.253644
2060520000,2060520000,-0.024277553,-0.10483965,-8.878431
2060572000,2060572000,0.012507977,0.038045302,-8.563406
2060620000,2060620000,0.09161386,-0.06624146,-8.283877
2060672000,2060672000,0.048488695,0.00035139572,-8.098933
2060720000,2060720000,0.014933915,-0.012588989,-7.871423
2060772000,2060772000,-0.07796761,-0.03843715,-7.722069
2060820000,2060820000,0.049145013,-0.0052035213,-7.7557964
2060872000,2060872000,0.026632369,-0.059522487,-8.2126045
2060920000,2060920000,0.09037278,-0.0042472784,-8.673496
2060972000,2060972000,0.04559069,0.030798823,-9.171951
2061020000,2061020000,-0.005872376,0.06737611,-9.501099
2061068000,2061068000,-0.024509551,-0.010815814,-9.863472
2061120000,2061120000,-0.06394535,-0.009316172,-10.004066
2061172000,2061172000,-0.050948262,-0.018419264,-10.272827
2061220000,2061220000,0.07507589,-0.0065297694,-10.55772
2061272000,2061272000,0.036421508,0.039605267,-10.3300295
2061316000,2061316000,0.05612067,-0.025798017,-10.194343
2061372000,2061372000,-0.037110414,-0.038312603,-10.069693
2061420000,2061420000,-0.02419279,-0.017160205,-9.887526
2061472000,2061472000,0.03712117,-0.09627441,-9.768845
2061520000,2061520000,-0.028771745,0.019475814,-9.721907
2061572000,2061572000,-0.065745704,0.044649348,-9.663552
2061620000,2061620000,-0.016704576,0.044596527,-9.702846
2061672000,2061672000,0.0048029935,-0.07896493,-9.820459
2061720000,2061720000,0.04542304,-0.0052288165,-9.757891
2061772000,2061772000,-0.053254545,-0.024499407,-9.794657
2061820000,2061820000,0.0392563,-0.12784983,-9.76112
2061872000,2061872000,-0.07312912,0.044075526,-9.81498
2061920000,2061920000,-0.025440894,-0.08030486,-9.746704
2061972000,2061972000,-0.0048334077,-0.0330457,-9.773048
2062020000,2062020000,-0.020019429,0.01504462,-9.801176
2062072000,2062072000,0.079433575,0.009765662,-9.693401
2062120000,2062120000,-0.003111601,0.07565077,-9.811724
2062172000,2062172000,-0.05655376,-0.030466573,-9.804817
2062220000,2062220000,-0.016358377,-0.0055598062,-9.771462
2062272000,2062272000,-0.037531294,0.048926577,-9.761503
2062320000,2062320000,0.078256965,-0.03811232,-9.739119
2062372000,2062372000,-0.06625018,-0.042453833,-9.8113575
2062420000,2062420000,-0.002555617,0.025957044,-9.835376
2062472000,2062472000,-0.008434689,-0.033535946,-9.84193
2062516000,2062516000,-0.027420707,-0.00577931,-9.701393
2062572000,2062572000,0.0080028735,0.025830239,-9.75103
2062620000,2062620000,-0.06691283,-0.08465383,-9.732148
2062672000,2062672000,-0.029894195,0.040405255,-9.778229
2062716000,2062716000,-0.047533695,0.036666397,-9.7903185
2062772000,2062772000,-0.10180065,-0.0007060673,-9.736507
2062820000,2062820000,-0.049974177,-0.044755008,-9.795224
2062872000,2062872000,-0.0321506,0.008690481,-9.70015
2062920000,2062920000,0.0064145625,-0.037277583,-9.822564
2062972000,2062972000,-0.053877115,0.00084173493,-9.764996
2063020000,2063020000,-0.012503566,-0.079854056,-9.803653
2063072000,2063072000,-0.022252243,-0.06507494,-9.797556
2063120000,2063120000,-0.01915788,-0.051859796,-9.851315
2063172000,2063172000,0.038785473,-0.061042324,-9.835236
2063220000,2063220000,-0.04782414,0.04110043,-9.839899
2063272000,2063272000,-9.3697105e-05,0.023179503,-9.719345
2063320000,2063320000,0.05128558,-0.021208022,-9.800085
2063372000,2063372000,-0.081767365,-0.02886172,-9.791905
2063420000,2063420000,0.007925201,-0.008871498,-9.83394
2063472000,2063472000,-0.013031851,-0.024638994,-9.787928
2063520000,2063520000,-0.013130648,0.02715508,-9.846445
2063572000,2063572000,0.032220554,0.010515669,-9.844373
2063620000,2063620000,-0.027553227,0.0022515573,-9.8448105
2063672000,2063672000,-0.04118867,-0.011260575,-9.799671
2063720000,2063720000,0.02618559,0.047991827,-9.770199
2063772000,2063772000,-0.085857674,0.035857473,-9.772123
2063820000,2063820000,-0.0428987,0.054732513,-9.745838
2063872000,2063872000,0.07864521,-0.060231067,-9.811396
2063920000,2063920000,0.1111719,-0.06313785,-9.827879
2063972000,2063972000,-0.043577224,-0.068631835,-9.756134
2064020000,2064020000,-0.049398225,-0.008948077,-9.891003
2064072000,2064072000,-0.09755017,-0.052940406,-9.899287
2064120000,2064120000,-0.04239723,-0.073707625,-9.758158
2064172000,2064172000,-0.0037973388,0.04733851,-9.863504
2064220000,2064220000,-0.015011586,0.033585873,-9.7280445
2064272000,2064272000,0.07545681,-0.025777321,-9.83134
2064320000,2064320000,-0.022625633,-0.12588489,-9.8464775
2064372000,2064372000,0.0038029682,-0.073502004,-9.803427
2064420000,2064420000,-0.013648059,-0.03090484,-9.768046
2064472000,2064472000,0.024092825,-0.028217718,-9.850712
2064516000,2064516000,-0.055372324,0.0796948,-9.773054
2064572000,2064572000,-0.013299045,-0.0048646294,-9.730456
2064620000,2064620000,-0.009054636,0.059186835,-9.758039
2064672000,2064672000,0.07992759,-0.0056927428,-9.878863
2064720000,2064720000,0.021366544,0.037060715,-9.776959
2064772000,2064772000,0.22931555,-1.2718536,27.111176
2064820000,2064820000,0.030425627,0.053163994,-13.463472
2064872000,2064872000,0.03168215,0.026177693,-13.718476
2064920000,2064920000,0.033170387,0.05060189,-12.515922
2064972000,2064972000,0.042728793,0.04505587,-11.279856
2065016000,2065016000,-0.024965195,-0.034114096,-10.512675
2065072000,2065072000,-0.09592779,0.05780176,-10.096104
2065120000,2065120000,0.097721025,-0.12084463,-9.838861
2065172000,2065172000,-0.0017008828,-0.03214871,-9.768401
2065220000,2065220000,-0.10922247,0.0026715214,-9.7106905
2065272000,2065272000,0.0663293,-0.021130724,-9.625404
2065320000,2065320000,0.014207922,-0.03262314,-9.551828
2065372000,2065372000,-0.1137427,-0.065705225,-9.357082
2065420000,2065420000,0.037561268,0.026964054,-9.384247
2065472000,2065472000,-0.010243524,-0.08043158,-9.509256
2065516000,2065516000,-0.024994666,0.011952189,-9.488676
2065572000,2065572000,0.13179515,0.02248016,-9.4998255
2065620000,2065620000,-0.0416973,0.042073183,-9.482146
2065672000,2065672000,0.037587013,0.04417275,-9.459334
2065720000,2065720000,0.004507497,-0.01932596,-9.348997
2065768000,2065768000,0.014568525,-0.04946796,-9.259209
2065816000,2065816000,-0.060047384,-0.026288448,-9.221101
2065872000,2065872000,0.009876406,0.023904137,-9.26341
2065920000,2065920000,0.041961484,-0.03440607,-9.273671
2065972000,2065972000,-0.08054857,-0.027672574,-9.433917
2066020000,2066020000,0.083139546,0.105272695,-9.470096
2066068000,2066068000,0.01718482,-0.0229792,-9.433693
2066120000,2066120000,0.08473338,-0.07132718,-9.353843
2066168000,2066168000,0.010458325,-0.024494672,-9.2637615
2066220000,2066220000,0.038677294,-0.022491356,-9.208231
2066272000,2066272000,0.04620614,-0.023391768,-9.144781
2066320000,2066320000,0.018343505,0.030883715,-9.320646
2066372000,2066372000,-0.06334037,0.065429196,-9.333885
2066420000,2066420000,0.11289441,-0.024330193,-9.440364
2066472000,2066472000,-0.054109085,0.0591499,-9.516306
2066520000,2066520000,0.030253883,-0.014955167,-9.336729
2066572000,2066572000,0.09554445,0.03816389,-9.276427
2066620000,2066620000,0.07788302,0.072889715,-9.214201
2066672000,2066672000,-0.04230036,-0.031438164,-9.21932
2066720000,2066720000,-0.02622086,-0.08123292,-9.364366
2066772000,2066772000,0.10101102,-0.039213076,-9.523823
2066820000,2066820000,0.039735876,0.048789635,-9.492153
2066872000,2066872000,0.060775056,0.079669535,-9.554249
2066920000,2066920000,0.13714921,0.040092915,-9.347397
2066972000,2066972000,0.12593283,-0.017781738,-9.175212
2067020000,2067020000,-0.11309813,0.092414156,-9.260922
2067072000,2067072000,-0.032659046,0.0853081,-9.2499275
2067120000,2067120000,-0.0046774605,0.039555147,-9.401475
2067168000,2067168000,-0.055943884,-0.033829156,-9.524273
2067216000,2067216000,-0.07240346,0.0049923584,-9.642767
2067272000,2067272000,-0.027370324,-0.04015161,-9.545513
2067320000,2067320000,0.07293768,0.0072032884,-9.408561
2067372000,2067372000,0.058801994,0.030801203,-9.22091
2067420000,2067420000,-0.00069396803,-0.025523394,-9.206561
2067472000,2067472000,0.09870774,0.017681029,-9.4001
2067520000,2067520000,-0.013479102,0.081079215,-9.455881
2067572000,2067572000,0.040764824,0.0020787297,-9.607008
2067616000,2067616000,0.060964324,0.0467768,-9.684135
2067672000,2067672000,-0.04051832,-0.0059961043,-9.708723
2067720000,2067720000,0.035250474,-0.002697957,-9.418283
2067772000,2067772000,0.072691694,-0.005069195,-9.335636
2067820000,2067820000,-0.008087732,0.09290143,-9.321303
2067872000,2067872000,-0.057895772,0.047408123,-9.360701
2067920000,2067920000,0.04144465,-0.044109568,-9.086107
2067972000,2067972000,0.056815237,0.028202856,-9.111547
2068020000,2068020000,0.043024935,-0.06587478,-9.113196
2068072000,2068072000,0.013620678,-0.048103914,-9.274761
2068120000,2068120000,-0.039465882,-0.00872112,-9.444344
2068168000,2068168000,0.047618896,-0.10639741,-9.554421
2068220000,2068220000,0.018024338,-0.008803505,-9.774783
2068272000,2068272000,-0.07128366,0.099059016,-9.823168
2068320000,2068320000,-0.07573206,-0.06222085,-9.56941
2068372000,2068372000,0.12983227,0.014484895,-9.508565
2068420000,2068420000,-0.08057305,0.059569944,-9.497573
2068472000,2068472000,-0.0648903,-0.044390008,-9.630038
2068520000,2068520000,-0.03251069,0.11476687,-9.623583
2068572000,2068572000,0.001339268,-0.06624893,-9.803875
2068620000,2068620000,0.045210384,0.009922788,-9.8567295
2068668000,2068668000,0.31428668,-0.058862515,-7.835081
2068720000,2068720000,0.3193885,-0.040353984,-10.884484
2068772000,2068772000,-0.031078542,0.061134197,-9.764747
2068820000,2068820000,-0.0060923076,-0.025496198,-9.781847
2068868000,2068868000,-0.0236117,-0.058982827,-9.927744
2068920000,2068920000,0.034022965,-0.00016305153,-9.841125
2068972000,2068972000,0.09012258,0.054819677,-9.803734
2069020000,2069020000,0.05695498,-0.005374771,-9.837682
2069072000,2069072000,-0.05524089,0.010287648,-9.8325
2069120000,2069120000,0.0031529162,0.024953768,-9.896586
2069172000,2069172000,0.040372893,0.086987205,-9.786322
2069220000,2069220000,0.099755324,0.063252956,-9.841359
2069272000,2069272000,0.07373028,-0.025723696,-9.846335
2069320000,2069320000,0.011688854,-0.018794304,-9.826857
2069368000,2069368000,-0.02078648,-0.013433333,-9.783367
2069420000,2069420000,-0.028162528,-0.029693943,-9.915756
2069472000,2069472000,-0.00807878,-0.04019067,-9.782349
