timestamp,timestamp_sample,device_id,magnetometer_ga[0],magnetometer_ga[1],magnetometer_ga[2],calibration_count
2015884000,2015847428,197388,-0.035309978,-0.21245332,0.4292664,0
2015944000,2015919200,197388,-0.03880119,-0.21653166,0.4301506,0
2016028000,2015990857,197388,-0.037137248,-0.21819448,0.42578557,0
2016088000,2016063200,197388,-0.036895584,-0.21328805,0.42892447,0
2016172000,2016135428,197388,-0.038059644,-0.21300262,0.43005043,0
2016232000,2016208000,197388,-0.03740231,-0.2130935,0.42994195,0
2016316000,2016280000,197388,-0.0349733,-0.2166813,0.42821786,0
2016376000,2016350400,197388,-0.039823793,-0.21237814,0.43019715,0
2016448000,2016418000,197388,-0.0373643,-0.2123218,0.42981097,0
2016520000,2016490000,197388,-0.035371628,-0.21343611,0.42917487,0
2016592000,2016561333,197388,-0.035772562,-0.21107584,0.43081927,0
2016652000,2016628000,197388,-0.034820586,-0.2147568,0.4312949,0
2016736000,2016698857,197388,-0.036517035,-0.2105909,0.42871508,0
2016784000,2016766000,197388,-0.03627327,-0.21202031,0.42736778,0
2016880000,2016837500,197388,-0.035341267,-0.21488546,0.429501,0
2016924000,2016908000,197388,-0.03873957,-0.215872,0.42938316,0
2017012000,2016975428,197388,-0.03921859,-0.2116726,0.42984822,0
2017072000,2017046400,197388,-0.037583526,-0.21364763,0.42893568,0
2017144000,2017113333,197388,-0.034548465,-0.21548097,0.42678055,0
2017216000,2017185333,197388,-0.03723363,-0.21357511,0.42896613,0
2017288000,2017257333,197388,-0.037560202,-0.21579961,0.42917523,0
2017360000,2017329333,197388,-0.038604856,-0.21178035,0.43044156,0
2017420000,2017396000,197388,-0.035802342,-0.21413215,0.42892295,0
2017504000,2017467428,197388,-0.0344343,-0.21382752,0.43129382,0
2017564000,2017540000,197388,-0.038605165,-0.21307579,0.42733842,0
2017648000,2017610857,197388,-0.036293324,-0.21410725,0.4296542,0
2017696000,2017678000,197388,-0.03491929,-0.21143493,0.43185815,0
2017792000,2017749500,197388,-0.038953595,-0.21250531,0.4311449,0
2017840000,2017821000,197388,-0.036214635,-0.21696131,0.43009305,0
2017936000,2017893000,197388,-0.036840398,-0.21160853,0.43053472,0
2017984000,2017964000,197388,-0.038272217,-0.21193093,0.4282703,0
2018068000,2018032000,197388,-0.037360933,-0.21232384,0.43132952,0
2018124000,2018101600,197388,-0.037472203,-0.21303473,0.42634353,0
2018200000,2018170000,197388,-0.035062082,-0.21402328,0.43210298,0
2018268000,2018241333,197388,-0.039940815,-0.21244341,0.43214497,0
2018344000,2018313333,197388,-0.03682975,-0.2134866,0.42905992,0
2018412000,2018384000,197388,-0.040650096,-0.2126367,0.42865467,0
2018476000,2018451200,197388,-0.038212344,-0.21490958,0.43037114,0
2018560000,2018523428,197388,-0.035418503,-0.21301223,0.43033662,0
2018620000,2018596000,197388,-0.037799653,-0.21446414,0.43217713,0
2018704000,2018668000,197388,-0.03576364,-0.21399926,0.4290451,0
2018764000,2018739200,197388,-0.038076594,-0.21484625,0.4321181,0
2018848000,2018811428,197388,-0.03916733,-0.21085294,0.42929187,0
2018908000,2018882400,197388,-0.035826918,-0.21295384,0.42861852,0
2018980000,2018949333,197388,-0.036657915,-0.21497485,0.42893183,0
2019048000,2019020666,197388,-0.03690384,-0.21257582,0.43083256,0
2019112000,2019088000,197388,-0.036556765,-0.21187904,0.4303994,0
2019196000,2019159428,197388,-0.036642488,-0.21204095,0.43022397,0
2019256000,2019231200,197388,-0.037983667,-0.21129201,0.4304331,0
2019340000,2019303428,197388,-0.038269572,-0.21241872,0.4273066,0
2019396000,2019375200,197388,-0.035677977,-0.21225472,0.42460594,0
2019472000,2019442000,197388,-0.037095964,-0.21511452,0.42619652,0
2019544000,2019514000,197388,-0.037838392,-0.21371096,0.42801702,0
2019616000,2019585333,197388,-0.037178777,-0.21118733,0.42891014,0
2019688000,2019656666,197388,-0.037862696,-0.21280947,0.43083167,0
2019748000,2019724000,197388,-0.037935536,-0.21206689,0.43127942,0
2019832000,2019795428,197388,-0.037548296,-0.21211304,0.42904574,0
2019892000,2019867200,197388,-0.037558813,-0.2120442,0.42958775,0
2019976000,2019939428,197388,-0.0376101,-0.21401294,0.42863816,0
2020036000,2020011200,197388,-0.039929654,-0.21314979,0.42965847,0
2020108000,2020078000,197388,-0.038188245,-0.21213287,0.43076777,0
2020176000,2020149333,197388,-0.040468633,-0.21452092,0.42746186,0
2020252000,2020221333,197388,-0.03651069,-0.21402119,0.42912862,0
2020312000,2020288000,197388,-0.036879245,-0.21538155,0.4285589,0
2020396000,2020359428,197388,-0.036536656,-0.2143809,0.43007615,0
2020456000,2020431200,197388,-0.038282,-0.21275468,0.42995968,0
2020536000,2020502857,197388,-0.039717413,-0.2147829,0.4300682,0
2020600000,2020575200,197388,-0.036405303,-0.21375774,0.4299612,0
2020672000,2020642000,197388,-0.034694683,-0.21382475,0.42793906,0
2020744000,2020713333,197388,-0.038923204,-0.22218677,0.42681122,0
2020816000,2020785333,197388,-0.04190415,-0.22100948,0.42155915,0
2020876000,2020852000,197388,-0.04079297,-0.22757848,0.42008862,0
2020956000,2020922857,197388,-0.04220466,-0.22674069,0.42273992,0
2021008000,2020990000,197388,-0.04649144,-0.22803374,0.42366508,0
2021104000,2021061000,197388,-0.04230011,-0.22417492,0.42329848,0
2021140000,2021128000,197388,-0.047475442,-0.22097036,0.42224163,0
2021248000,2021198666,197388,-0.03971295,-0.22009666,0.4237582,0
2021272000,2021266000,197388,-0.041415565,-0.21985036,0.42951348,0
2021392000,2021338000,197388,-0.037148207,-0.21681471,0.43012124,0
2021416000,2021410000,197388,-0.0372108,-0.21609479,0.42725253,0
2021536000,2021481200,197388,-0.0351188,-0.21079855,0.42822742,0
2021548000,2021548000,197388,-0.032469835,-0.21121693,0.4292807,0
2021676000,2021618545,197388,-0.034705788,-0.21098384,0.43083262,0
2021692000,2021692000,197388,-0.038386017,-0.21461375,0.42697453,0
2021824000,2021762909,197388,-0.035791267,-0.21009028,0.43322796,0
2021836000,2021836000,197388,-0.035427995,-0.20652868,0.43543035,0
2021968000,2021907636,197388,-0.032888543,-0.20474394,0.43239275,0
2021980000,2021980000,197388,-0.037385646,-0.20459959,0.43012676,0
2022112000,2022050909,197388,-0.035421107,-0.20581864,0.432733,0
2022124000,2022124000,197388,-0.032411426,-0.20981966,0.42626235,0
2022256000,2022194909,197388,-0.031647656,-0.20343474,0.4322482,0
2022268000,2022268000,197388,-0.03675227,-0.20540676,0.4418424,0
2022400000,2022340000,197388,-0.03295455,-0.20250043,0.43341634,0
2022408000,2022408000,197388,-0.030466814,-0.19993438,0.43669987,0
2022528000,2022477600,197388,-0.034445688,-0.20478795,0.43244645,0
2022556000,2022550000,197388,-0.03305299,-0.20420808,0.4333725,0
2022672000,2022620800,197388,-0.034414656,-0.20567761,0.4325305,0
2022688000,2022688000,197388,-0.042345263,-0.20697284,0.431401,0
2022820000,2022758545,197388,-0.033474967,-0.20711797,0.434173,0
2022832000,2022832000,197388,-0.036306698,-0.2073543,0.4305403,0
2022964000,2022903636,197388,-0.03380432,-0.20836568,0.43258312,0
2022976000,2022976000,197388,-0.034133695,-0.21084471,0.4339389,0
2023108000,2023047636,197388,-0.036177445,-0.2089127,0.43131444,0
2023116000,2023116000,197388,-0.03527065,-0.20873825,0.43273395,0
2023240000,2023186000,197388,-0.038125735,-0.20842683,0.43243217,0
2023260000,2023256000,197388,-0.033717994,-0.20886686,0.43305838,0
2023372000,2023324000,197388,-0.03459366,-0.20969418,0.43193865,0
2023404000,2023393333,197388,-0.034180135,-0.20899116,0.43217176,0
2023504000,2023460500,197388,-0.03545526,-0.21177371,0.42875218,0
2023540000,2023528000,197388,-0.035678037,-0.21020435,0.43181247,0
2023648000,2023599555,197388,-0.037728716,-0.21245044,0.43013912,0
2023684000,2023672000,197388,-0.040989548,-0.21046162,0.4307823,0
2023792000,2023743555,197388,-0.035408642,-0.21265729,0.42960405,0
2023828000,2023814666,197388,-0.035118148,-0.20958039,0.43146288,0
2023924000,2023881500,197388,-0.038993828,-0.21239987,0.4283365,0
2023972000,2023954000,197388,-0.039312117,-0.21125183,0.4275502,0
2024068000,2024025000,197388,-0.037308726,-0.21387562,0.43181494,0
2024104000,2024092000,197388,-0.040785875,-0.21842006,0.4290175,0
2024208000,2024163111,197388,-0.037636895,-0.2115737,0.42931512,0
2024236000,2024230000,197388,-0.03850309,-0.21579623,0.42808336,0
2024356000,2024302000,197388,-0.03686515,-0.21308103,0.43208376,0
2024380000,2024374000,197388,-0.03812065,-0.2136957,0.4287287,0
2024496000,2024445600,197388,-0.037481654,-0.21498111,0.42920503,0
2024524000,2024516000,197388,-0.040025078,-0.21060619,0.4330016,0
2024628000,2024582666,197388,-0.039598186,-0.21311188,0.42845932,0
2024656000,2024650000,197388,-0.040706392,-0.22040236,0.43192422,0
2024772000,2024721200,197388,-0.04031786,-0.21427868,0.4292349,0
2024788000,2024788000,197388,-0.03185106,-0.20732547,0.43366215,0
2024916000,2024858909,197388,-0.037956566,-0.21506672,0.4291294,0
2024932000,2024932000,197388,-0.04274264,-0.2068165,0.4288925,0
2025064000,2025004000,197388,-0.040927537,-0.21407312,0.42942026,0
2025076000,2025076000,197388,-0.0342788,-0.21453045,0.42949462,0
2025208000,2025147636,197388,-0.03807142,-0.21242012,0.42710933,0
2025220000,2025220000,197388,-0.04035793,-0.2152694,0.4240782,0
2025352000,2025290545,197388,-0.037695095,-0.21490295,0.430031,0
2025360000,2025360000,197388,-0.034490906,-0.20880473,0.42749557,0
2025484000,2025428800,197388,-0.03822751,-0.2134291,0.42743593,0
2025496000,2025496000,197388,-0.036302503,-0.21620391,0.42908213,0
2025628000,2025566909,197388,-0.03635784,-0.21449421,0.42909965,0
2025640000,2025640000,197388,-0.035300236,-0.21486713,0.4279472,0
2025768000,2025710909,197388,-0.03769645,-0.21538323,0.42713735,0
2025784000,2025784000,197388,-0.03676292,-0.20907581,0.4317127,0
2025916000,2025855636,197388,-0.035262294,-0.21384394,0.42868727,0
2025928000,2025928000,197388,-0.039410572,-0.21529293,0.42840183,0
2026060000,2026000000,197388,-0.035849433,-0.21326363,0.4288895,0
2026072000,2026072000,197388,-0.039652728,-0.21093619,0.42675298,0
2026204000,2026143272,197388,-0.035863098,-0.21722245,0.42922348,0
2026216000,2026216000,197388,-0.03416372,-0.21812376,0.43312562,0
2026348000,2026287636,197388,-0.035085797,-0.2154931,0.4290873,0
2026360000,2026360000,197388,-0.033030458,-0.21430314,0.42838216,0
2026492000,2026431272,197388,-0.035474874,-0.2137862,0.42905506,0
2026504000,2026504000,197388,-0.040450767,-0.21784925,0.43097192,0
2026636000,2026575272,197388,-0.035815485,-0.21214025,0.42862982,0
2026648000,2026648000,197388,-0.031607043,-0.20895424,0.42653924,0
2026780000,2026719636,197388,-0.03634429,-0.21332666,0.43214267,0
2026792000,2026792000,197388,-0.033073436,-0.2057613,0.4305062,0
2026924000,2026863272,197388,-0.038615435,-0.21353778,0.42674893,0
2026936000,2026936000,197388,-0.034463983,-0.21069345,0.4281278,0
2027068000,2027007272,197388,-0.03735707,-0.21386683,0.4283713,0
2027080000,2027080000,197388,-0.038551323,-0.21131462,0.4268432,0
2027212000,2027150909,197388,-0.03936555,-0.21483123,0.4280914,0
2027220000,2027220000,197388,-0.039299276,-0.21205014,0.42404494,0
2027344000,2027289600,197388,-0.038010996,-0.21465874,0.42888466,0
2027368000,2027362000,197388,-0.034187116,-0.2131116,0.4264378,0
2027488000,2027433600,197388,-0.037605982,-0.21255071,0.42898604,0
2027508000,2027504000,197388,-0.03707188,-0.21644107,0.43133828,0
2027620000,2027571111,197388,-0.037177734,-0.21461938,0.42735904,0
2027644000,2027638000,197388,-0.039781675,-0.21296638,0.42586052,0
2027764000,2027709600,197388,-0.03735875,-0.2159239,0.4272965,0
2027788000,2027782000,197388,-0.043213166,-0.20885143,0.42766082,0
2027908000,2027852800,197388,-0.037321534,-0.21168151,0.42880613,0
2027932000,2027924000,197388,-0.034031563,-0.21521948,0.42942694,0
2028040000,2027990666,197388,-0.03873188,-0.21207213,0.42980614,0
2028072000,2028061333,197388,-0.03911604,-0.2126933,0.42641836,0
2028172000,2028130000,197388,-0.035984937,-0.21226102,0.4310736,0
2028220000,2028202000,197388,-0.03990027,-0.21548219,0.42863172,0
2028316000,2028273500,197388,-0.036266487,-0.21264209,0.42958105,0
2028364000,2028346000,197388,-0.038955282,-0.21865611,0.42895246,0
2028460000,2028417000,197388,-0.036086194,-0.21284306,0.4308902,0
2028508000,2028489000,197388,-0.03775423,-0.2142137,0.4311661,0
2028592000,2028556000,197388,-0.037666854,-0.21400958,0.43059915,0
2028652000,2028627200,197388,-0.03548365,-0.21071577,0.4284095,0
2028736000,2028699428,197388,-0.040320482,-0.21409994,0.42841998,0
2028796000,2028772000,197388,-0.038773004,-0.21151729,0.4326295,0
2028880000,2028844000,197388,-0.040305473,-0.20996867,0.4295913,0
2028940000,2028915200,197388,-0.03912562,-0.21383865,0.42979413,0
2029012000,2028982000,197388,-0.036315754,-0.21322268,0.4282884,0
2029084000,2029052666,197388,-0.03893511,-0.21153519,0.4309208,0
2029156000,2029124666,197388,-0.038051628,-0.21520105,0.42683744,0
2029216000,2029192000,197388,-0.03812733,-0.2153184,0.43137953,0
2029300000,2029264000,197388,-0.03965441,-0.2126139,0.42937645,0
2029360000,2029336000,197388,-0.039465044,-0.21050262,0.43120846,0
2029444000,2029407428,197388,-0.03620581,-0.21374041,0.42802057,0
2029504000,2029480000,197388,-0.03880816,-0.21221736,0.42799583,0
2029588000,2029552000,197388,-0.04123366,-0.21586502,0.42554408,0
2029648000,2029622400,197388,-0.0463588,-0.22289346,0.4243661,0
2029720000,2029689333,197388,-0.04825466,-0.22991721,0.42122716,0
2029780000,2029756000,197388,-0.053425085,-0.24097903,0.4120724,0
2029864000,2029826857,197388,-0.055919927,-0.25269207,0.40546933,0
2029924000,2029899200,197388,-0.05697741,-0.2657737,0.39764628,0
2030008000,2029970857,197388,-0.056946773,-0.2781042,0.3884455,0
2030056000,2030038000,197388,-0.05524595,-0.28670424,0.37644073,0
2030152000,2030109000,197388,-0.056065477,-0.3019757,0.3693214,0
2030200000,2030181000,197388,-0.05160398,-0.31305963,0.36386436,0
2030292000,2030252500,197388,-0.045027062,-0.325071,0.34924248,0
2030332000,2030320000,197388,-0.037323743,-0.33456445,0.33944315,0
2030436000,2030390666,197388,-0.03341337,-0.3417094,0.33551925,0
2030476000,2030462666,197388,-0.028775444,-0.3456467,0.33390635,0
2030572000,2030530000,197388,-0.018312335,-0.34897813,0.32814914,0
2030620000,2030601000,197388,-0.008446812,-0.35765234,0.32627827,0
2030716000,2030672500,197388,0.00392287,-0.35322347,0.325029,0
2030752000,2030740000,197388,0.016838852,-0.35747048,0.3245128,0
2030860000,2030811555,197388,0.02883705,-0.35381252,0.32069764,0
2030896000,2030882666,197388,0.04209776,-0.3533722,0.32135355,0
2031004000,2030954666,197388,0.056651037,-0.35035175,0.32373613,0
2031040000,2031026666,197388,0.07346736,-0.3454177,0.3232066,0
2031148000,2031098666,197388,0.09055977,-0.3453691,0.31963587,0
2031180000,2031169333,197388,0.1028308,-0.34304196,0.32402915,0
2031280000,2031237500,197388,0.11924818,-0.33519405,0.3208935,0
2031328000,2031310000,197388,0.13908231,-0.33037704,0.32273355,0
2031420000,2031381500,197388,0.15484665,-0.32038146,0.32169378,0
2031468000,2031452000,197388,0.17212975,-0.31100702,0.32459277,0
2031556000,2031520000,197388,0.18577757,-0.3001729,0.32858056,0
2031616000,2031592000,197388,0.20010363,-0.28282663,0.33198878,0
2031700000,2031662857,197388,0.21350855,-0.2685927,0.339333,0
2031756000,2031734400,197388,0.22295569,-0.25061354,0.3441951,0
2031832000,2031801333,197388,0.23278806,-0.23197238,0.35009405,0
2031904000,2031873333,197388,0.24098991,-0.21524215,0.35865352,0
2031972000,2031944666,197388,0.2473049,-0.19202453,0.36401242,0
2032044000,2032016666,197388,0.2535936,-0.16597691,0.37275076,0
2032108000,2032084000,197388,0.2561676,-0.15223414,0.37729952,0
2032192000,2032155428,197388,0.2566199,-0.13320945,0.3837098,0
2032252000,2032227200,197388,0.2565095,-0.113565974,0.38914648,0
2032324000,2032294000,197388,0.2583409,-0.095620655,0.3923113,0
2032396000,2032366000,197388,0.25626034,-0.08221203,0.3979326,0
2032468000,2032438000,197388,0.2561646,-0.06857079,0.39906526,0
2032540000,2032510000,197388,0.26478094,-0.058261387,0.39680886,0
2032612000,2032581333,197388,0.26875576,-0.049848314,0.3973642,0
2032672000,2032648000,197388,0.2712397,-0.04271574,0.3929461,0
2032756000,2032719428,197388,0.27373916,-0.035601206,0.3907448,0
2032816000,2032792000,197388,0.2772768,-0.030524928,0.39121068,0
2032900000,2032864000,197388,0.27899852,-0.0194785,0.39239886,0
2032960000,2032936000,197388,0.278198,-0.014109962,0.39210364,0
2033044000,2033007428,197388,0.28112078,-0.003367961,0.38752264,0
2033104000,2033079200,197388,0.28085732,-0.002677283,0.38812757,0
2033176000,2033146000,197388,0.28111395,0.007574895,0.38504434,0
2033244000,2033217333,197388,0.28293914,0.012353915,0.3872385,0
2033320000,2033288666,197388,0.28436875,0.01589617,0.3852609,0
2033380000,2033356000,197388,0.28327137,0.022340503,0.38534147,0
2033464000,2033427428,197388,0.28573793,0.023947423,0.38745847,0
2033524000,2033498400,197388,0.28514344,0.031153012,0.38653088,0
2033596000,2033565333,197388,0.28385782,0.032652147,0.3855445,0
2033668000,2033637333,197388,0.28463182,0.035904665,0.38568664,0
2033740000,2033709333,197388,0.28234023,0.036475234,0.38494474,0
2033812000,2033781333,197388,0.28741503,0.039385922,0.38829654,0
2033884000,2033853333,197388,0.28374314,0.039873272,0.3841854,0
2033944000,2033920000,197388,0.28711718,0.044698592,0.3809708,0
2034028000,2033990857,197388,0.2878132,0.04353241,0.38408187,0
2034088000,2034063200,197388,0.28866583,0.043799266,0.384072,0
2034160000,2034130000,197388,0.28933233,0.042768642,0.3854754,0
2034228000,2034200666,197388,0.2878317,0.042714186,0.38372716,0
2034304000,2034272666,197388,0.289555,0.041965347,0.38554543,0
2034376000,2034344666,197388,0.28593317,0.035251826,0.3828398,0
2034436000,2034412000,197388,0.28765917,0.036763143,0.38346258,0
2034520000,2034484000,197388,0.28790623,0.037470415,0.38399598,0
2034580000,2034555200,197388,0.28750092,0.034665596,0.38060507,0
2034652000,2034622000,197388,0.28912124,0.032466397,0.38327536,0
2034724000,2034692666,197388,0.28819203,0.033302926,0.3861887,0
2034792000,2034764000,197388,0.2869927,0.031219456,0.3806625,0
2034856000,2034831200,197388,0.2911076,0.032567836,0.3849855,0
2034940000,2034903428,197388,0.2817834,0.037056524,0.38725725,0
2035000000,2034975200,197388,0.28400755,0.03503043,0.38517007,0
2035080000,2035046857,197388,0.28542697,0.036216684,0.38686353,0
2035132000,2035114000,197388,0.28758615,0.036228538,0.38425565,0
2035228000,2035185500,197388,0.2812867,0.036276802,0.38642526,0
2035272000,2035256000,197388,0.28793043,0.035479173,0.3821434,0
2035360000,2035322857,197388,0.28700438,0.03698614,0.384676,0
2035408000,2035390000,197388,0.28467038,0.03781376,0.38600492,0
2035504000,2035461500,197388,0.2843441,0.036929395,0.3865543,0
2035548000,2035531000,197388,0.28176594,0.03750138,0.38397664,0
2035632000,2035598857,197388,0.28302628,0.037374,0.38685977,0
2035696000,2035671200,197388,0.28027406,0.035577625,0.38572216,0
2035768000,2035738000,197388,0.28308275,0.03763491,0.3862922,0
2035840000,2035810000,197388,0.28144872,0.03825961,0.38627845,0
2035912000,2035882000,197388,0.28280258,0.038032692,0.38344905,0
2035984000,2035952666,197388,0.28403285,0.03318953,0.3875011,0
2036056000,2036024666,197388,0.28334615,0.036172364,0.38712725,0
2036128000,2036096666,197388,0.28473595,0.03935861,0.38513327,0
2036188000,2036164000,197388,0.2852586,0.04042188,0.38705155,0
2036272000,2036236000,197388,0.28449905,0.0371926,0.38548034,0
2036332000,2036308000,197388,0.2870533,0.036115285,0.38456836,0
2036416000,2036379428,197388,0.28677663,0.038444646,0.38436523,0
2036476000,2036452000,197388,0.28655222,0.041004717,0.38705245,0
2036560000,2036523428,197388,0.28495213,0.039924964,0.38551652,0
2036620000,2036596000,197388,0.2854738,0.036871683,0.38261834,0
2036704000,2036668000,197388,0.28581873,0.03864856,0.38386816,0
2036760000,2036737600,197388,0.28683192,0.037263956,0.3851591,0
2036836000,2036805333,197388,0.28471386,0.038179517,0.38333678,0
2036896000,2036872000,197388,0.2798532,0.04029044,0.38694194,0
2036980000,2036943428,197388,0.28288397,0.035540503,0.38322243,0
2037036000,2037014400,197388,0.28548265,0.04334727,0.38357735,0
2037112000,2037081333,197388,0.28137633,0.04170951,0.3858263,0
2037184000,2037153333,197388,0.28140542,0.040553756,0.38903356,0
2037244000,2037220000,197388,0.2839987,0.03773056,0.38364384,0
2037324000,2037290857,197388,0.283915,0.03922068,0.38434398,0
2037388000,2037363200,197388,0.28548518,0.03947419,0.38333124,0
2037460000,2037430000,197388,0.28459364,0.04027362,0.3840624,0
2037532000,2037501333,197388,0.28557888,0.04005755,0.38375324,0
2037604000,2037573333,197388,0.28521383,0.04170352,0.38366532,0
2037676000,2037644666,197388,0.28789568,0.04117704,0.3848363,0
2037736000,2037712000,197388,0.28645274,0.041798428,0.38401052,0
2037820000,2037783428,197388,0.28955862,0.040482152,0.3813669,0
2037880000,2037855200,197388,0.28660616,0.041070033,0.38318253,0
2037964000,2037926857,197388,0.2874004,0.03995819,0.38309187,0
2038024000,2037998400,197388,0.28555402,0.039952613,0.38184723,0
2038108000,2038070857,197388,0.2886541,0.042227603,0.38486418,0
2038168000,2038143200,197388,0.29116377,0.040916257,0.3818173,0
2038252000,2038215428,197388,0.2882496,0.03956544,0.38285092,0
2038312000,2038288000,197388,0.29021525,0.043837477,0.38242623,0
2038396000,2038358857,197388,0.28706145,0.040311616,0.38346538,0
2038444000,2038426000,197388,0.28786564,0.042406194,0.38066417,0
2038540000,2038497000,197388,0.28896597,0.037994273,0.38082606,0
2038588000,2038569000,197388,0.2899901,0.04346255,0.38385364,0
2038684000,2038641000,197388,0.28969944,0.04218439,0.3807209,0
2038732000,2038713000,197388,0.2889085,0.04023647,0.38609442,0
2038828000,2038785500,197388,0.2909935,0.039186288,0.38174146,0
2038876000,2038858000,197388,0.28984514,0.040395606,0.38331416,0
2038972000,2038929500,197388,0.2893323,0.04126201,0.38071182,0
2039020000,2039002000,197388,0.2898829,0.039575618,0.38301057,0
2039116000,2039073500,197388,0.29024118,0.040711768,0.3805028,0
2039164000,2039144000,197388,0.28749248,0.04000693,0.3818816,0
2039248000,2039211428,197388,0.28913867,0.039728668,0.38266194,0
2039308000,2039284000,197388,0.28788257,0.038573515,0.38197777,0
2039392000,2039355428,197388,0.2878205,0.040615745,0.38388726,0
2039452000,2039427200,197388,0.28738722,0.038507756,0.38135135,0
2039532000,2039498285,197388,0.28685933,0.04074143,0.38244775,0
2039584000,2039566000,197388,0.29201227,0.036712855,0.38164482,0
2039676000,2039637500,197388,0.28826642,0.041378688,0.3827234,0
2039728000,2039709000,197388,0.28754488,0.03883967,0.38328135,0
2039824000,2039781500,197388,0.28900978,0.040136445,0.3830238,0
2039872000,2039854000,197388,0.2881694,0.037144803,0.380129,0
2039964000,2039924500,197388,0.28970534,0.039904922,0.38242096,0
2040016000,2039997000,197388,0.28487375,0.039680332,0.38358432,0
2040112000,2040069500,197388,0.2871841,0.041395776,0.38449025,0
2040160000,2040142000,197388,0.28722936,0.042242844,0.38324976,0
2040256000,2040214000,197388,0.2840506,0.039683394,0.38350832,0
2040304000,2040285000,197388,0.28821027,0.039745986,0.38358682,0
2040396000,2040357000,197388,0.28888705,0.037404396,0.3845687,0
2040448000,2040429000,197388,0.2892847,0.039366417,0.38161713,0
2040544000,2040500500,197388,0.28809574,0.041819796,0.38400644,0
2040580000,2040568000,197388,0.29156363,0.039786793,0.38080758,0
2040688000,2040639555,197388,0.2872405,0.038805034,0.3834045,0
2040724000,2040710666,197388,0.28719926,0.038574718,0.38259476,0
2040832000,2040783111,197388,0.28765306,0.04127652,0.38265213,0
2040856000,2040850000,197388,0.28639892,0.038092714,0.38188195,0
2040976000,2040921200,197388,0.2885488,0.041100487,0.3826471,0
2040988000,2040988000,197388,0.2850662,0.040920317,0.3751881,0
2041120000,2041058545,197388,0.28796574,0.040300265,0.3825776,0
2041132000,2041132000,197388,0.29267234,0.040570185,0.38904363,0
2041264000,2041203272,197388,0.28921765,0.04122947,0.38303813,0
2041272000,2041272000,197388,0.2893456,0.0277716,0.3834974,0
2041392000,2041341200,197388,0.2899004,0.03727152,0.38226458,0
2041408000,2041408000,197388,0.28575873,0.044013605,0.38667318,0
2041540000,2041479272,197388,0.28771302,0.041476388,0.38268143,0
2041552000,2041552000,197388,0.29104155,0.03881081,0.3851427,0
2041680000,2041623272,197388,0.28757086,0.041826613,0.3836935,0
2041696000,2041696000,197388,0.28314102,0.03880254,0.3750392,0
2041824000,2041766545,197388,0.2891556,0.04051636,0.3820891,0
2041840000,2041840000,197388,0.2882713,0.046612512,0.3834848,0
2041972000,2041911272,197388,0.29020128,0.04054646,0.38230008,0
2041984000,2041984000,197388,0.29235786,0.038087595,0.38673735,0
2042112000,2042055272,197388,0.28824684,0.0422254,0.3819859,0
2042128000,2042128000,197388,0.28386813,0.04466879,0.37779742,0
2042260000,2042198909,197388,0.2883437,0.039478835,0.38342112,0
2042272000,2042272000,197388,0.2922316,0.03783805,0.38637558,0
2042404000,2042344000,197388,0.28664446,0.03919233,0.38228408,0
2042416000,2042416000,197388,0.28962454,0.03676056,0.3791943,0
2042548000,2042486545,197388,0.28941274,0.04038554,0.38123968,0
2042560000,2042560000,197388,0.2923755,0.04051303,0.3845145,0
2042688000,2042631272,197388,0.2876175,0.04141138,0.38150468,0
2042704000,2042704000,197388,0.29230806,0.04641048,0.380942,0
2042836000,2042775272,197388,0.2881011,0.041998312,0.38164172,0
2042844000,2042844000,197388,0.2910398,0.043105032,0.38286558,0
2042968000,2042914000,197388,0.2903477,0.03996203,0.38079593,0
2042988000,2042982000,197388,0.29234272,0.040708162,0.3800878,0
2043100000,2043051111,197388,0.29189423,0.040413503,0.38129097,0
2043124000,2043118000,197388,0.28713214,0.042425998,0.38164362,0
2043240000,2043188400,197388,0.29005522,0.041790444,0.38206118,0
2043256000,2043256000,197388,0.28855053,0.039755724,0.38340053,0
2043388000,2043327272,197388,0.29015142,0.04338354,0.38003016,0
2043400000,2043400000,197388,0.29034972,0.03700369,0.37701568,0
2043532000,2043471272,197388,0.2903366,0.042334184,0.3807044,0
2043544000,2043544000,197388,0.2944571,0.04393592,0.3772019,0
2043676000,2043615636,197388,0.28904292,0.041012503,0.3800695,0
2043688000,2043688000,197388,0.29301983,0.03358779,0.37223858,0
2043820000,2043760000,197388,0.29009724,0.04102919,0.38091746,0
2043832000,2043832000,197388,0.29018387,0.041713104,0.38229668,0
2043964000,2043902909,197388,0.2895746,0.0402194,0.38084227,0
2043976000,2043976000,197388,0.28739515,0.044342216,0.3817103,0
2044108000,2044047636,197388,0.28838906,0.04054416,0.38219777,0
2044116000,2044116000,197388,0.28251693,0.039031282,0.38632458,0
2044236000,2044185600,197388,0.28946102,0.041462008,0.3823032,0
2044260000,2044256000,197388,0.28697538,0.042367946,0.37954092,0
2044372000,2044322666,197388,0.28827354,0.04070818,0.3811049,0
2044396000,2044390000,197388,0.2872659,0.035410043,0.38601047,0
2044516000,2044461200,197388,0.28881904,0.03896777,0.38335398,0
2044528000,2044528000,197388,0.2823342,0.034161035,0.38102594,0
2044656000,2044598909,197388,0.28613427,0.040787905,0.38289285,0
2044672000,2044672000,197388,0.29124036,0.044759378,0.37670943,0
2044804000,2044743636,197388,0.2896111,0.040448148,0.38178453,0
2044816000,2044816000,197388,0.2885287,0.04549943,0.3783598,0
2044948000,2044887636,197388,0.29014653,0.039966095,0.38195008,0
2044960000,2044960000,197388,0.2893589,0.03373068,0.3846704,0
2045092000,2045030909,197388,0.2883569,0.040516943,0.3828389,0
2045100000,2045100000,197388,0.2839517,0.04357729,0.3786743,0
2045224000,2045170000,197388,0.28772298,0.04072391,0.3832664,0
2045248000,2045242000,197388,0.2901678,0.0392515,0.3773693,0
2045368000,2045312800,197388,0.2891793,0.042598583,0.3845478,0
2045380000,2045380000,197388,0.29452163,0.038911644,0.3849022,0
2045508000,2045450545,197388,0.2888205,0.040577877,0.38224044,0
2045524000,2045524000,197388,0.28505307,0.04151858,0.38550812,0
2045656000,2045595636,197388,0.28889894,0.03921124,0.383568,0
2045668000,2045668000,197388,0.28476846,0.04390548,0.38362703,0
2045800000,2045740000,197388,0.28881148,0.041820433,0.3829149,0
2045812000,2045812000,197388,0.27840176,0.036571465,0.3829311,0
2045944000,2045883636,197388,0.28746605,0.040969178,0.3839086,0
2045956000,2045956000,197388,0.2929066,0.043484233,0.38347757,0
2046088000,2046027636,197388,0.28768516,0.04078725,0.38262814,0
2046096000,2046096000,197388,0.28523964,0.041577388,0.3851751,0
2046220000,2046164800,197388,0.28794983,0.04151484,0.3819417,0
2046232000,2046232000,197388,0.2874644,0.039672855,0.37971842,0
2046364000,2046302909,197388,0.28832775,0.037246503,0.3815792,0
2046372000,2046372000,197388,0.2845712,0.03905975,0.38704586,0
2046496000,2046441600,197388,0.28781053,0.0382702,0.38217103,0
2046520000,2046514000,197388,0.28677434,0.041694075,0.38199252,0
2046640000,2046584000,197388,0.28804442,0.03909092,0.382933,0
2046664000,2046656000,197388,0.28952473,0.04111109,0.3860761,0
2046768000,2046722666,197388,0.2871291,0.04249231,0.38374588,0
2046796000,2046790000,197388,0.2852297,0.03898769,0.381743,0
2046916000,2046861600,197388,0.28623673,0.040488604,0.38285214,0
2046940000,2046934000,197388,0.28410983,0.043779336,0.38402012,0
2047060000,2047005600,197388,0.28763792,0.042887893,0.38436067,0
2047080000,2047076000,197388,0.28643778,0.042521544,0.38634223,0
2047192000,2047144000,197388,0.28750476,0.040639456,0.3822298,0
2047228000,2047214666,197388,0.2858435,0.040928736,0.3822999,0
2047336000,2047287111,197388,0.2880682,0.041099027,0.3811242,0
2047360000,2047354000,197388,0.2880724,0.040405817,0.37924632,0
2047480000,2047425600,197388,0.28791803,0.040380877,0.3810482,0
2047504000,2047496000,197388,0.28845912,0.042875193,0.38066882,0
2047612000,2047563111,197388,0.289409,0.042007655,0.38438153,0
2047636000,2047630000,197388,0.28686523,0.04346212,0.38378295,0
2047756000,2047700400,197388,0.28754947,0.041753452,0.38225862,0
2047768000,2047768000,197388,0.28750813,0.04551571,0.38431266,0
2047900000,2047840000,197388,0.28780952,0.040344678,0.38415685,0
2047912000,2047912000,197388,0.2909435,0.048823908,0.3764079,0
2048044000,2047982545,197388,0.28791457,0.04100858,0.38449323,0
2048056000,2048056000,197388,0.28762826,0.0389335,0.388599,0
2048188000,2048126909,197388,0.2861144,0.04183205,0.38387707,0
2048196000,2048196000,197388,0.28381816,0.037990764,0.37884548,0
2048316000,2048264400,197388,0.287081,0.04245425,0.3809153,0
2048332000,2048332000,197388,0.28816393,0.03817813,0.38465956,0
2048460000,2048402909,197388,0.2890788,0.041143667,0.38240537,0
2048476000,2048476000,197388,0.29088107,0.041580297,0.38148105,0
2048604000,2048547636,197388,0.28938022,0.042108685,0.381667,0
2048620000,2048620000,197388,0.27905762,0.041804727,0.39087912,0
2048752000,2048691272,197388,0.28849176,0.040832385,0.38241687,0
2048764000,2048764000,197388,0.2828832,0.042065125,0.38285062,0
2048896000,2048835272,197388,0.28715998,0.040079657,0.38338554,0
2048908000,2048908000,197388,0.29052544,0.045098424,0.38568637,0
2049040000,2048979636,197388,0.28884187,0.04159859,0.3833181,0
2049052000,2049052000,197388,0.2956243,0.04580331,0.3863579,0
2049184000,2049124000,197388,0.28763568,0.040710945,0.38267583,0
2049196000,2049196000,197388,0.290779,0.03569067,0.3840036,0
2049328000,2049267636,197388,0.28651348,0.039764382,0.3829,0
2049340000,2049340000,197388,0.2910199,0.03591445,0.39021146,0
2049472000,2049411272,197388,0.28904384,0.03916364,0.3842569,0
2049480000,2049480000,197388,0.28630728,0.045660913,0.38780206,0
2049604000,2049548800,197388,0.28522834,0.039397236,0.38239053,0
2049616000,2049616000,197388,0.28640395,0.038033437,0.38345098,0
2049748000,2049688000,197388,0.28626916,0.040851332,0.3840392,0
2049756000,2049756000,197388,0.27851114,0.04034029,0.3886857,0
2049880000,2049825600,197388,0.28491044,0.03930637,0.38523117,0
2049904000,2049898000,197388,0.2774278,0.035899207,0.382787,0
2050024000,2049970000,197388,0.2694222,0.03952881,0.396386,0
2050048000,2050042000,197388,0.25673556,0.038406096,0.3989771,0
2050168000,2050113200,197388,0.24363856,0.038753446,0.41228923,0
2050180000,2050180000,197388,0.23733774,0.042011134,0.4157856,0
2050312000,2050250909,197388,0.22240585,0.03694076,0.42226976,0
2050324000,2050324000,197388,0.2174037,0.032697547,0.4326976,0
2050456000,2050395636,197388,0.20793356,0.03639669,0.43206644,0
2050468000,2050468000,197388,0.2081274,0.039171994,0.43643633,0
2050600000,2050539272,197388,0.20362404,0.038201753,0.4330859,0
2050612000,2050612000,197388,0.19987997,0.041899554,0.4342054,0
2050740000,2050682545,197388,0.20034929,0.039438695,0.4363073,0
2050756000,2050756000,197388,0.19624984,0.046137948,0.43308604,0
2050888000,2050827272,197388,0.19736741,0.039983492,0.43802658,0
2050900000,2050900000,197388,0.2002531,0.03564388,0.4367998,0
2051032000,2050971272,197388,0.19449341,0.03895876,0.43533897,0
2051044000,2051044000,197388,0.19505031,0.036257,0.44038892,0
2051176000,2051115636,197388,0.19146322,0.039732117,0.44015673,0
2051188000,2051188000,197388,0.19028553,0.035237297,0.43421695,0
2051316000,2051259272,197388,0.19026883,0.041294258,0.4404343,0
2051332000,2051332000,197388,0.19181195,0.03948628,0.44002503,0
2051464000,2051403272,197388,0.18733242,0.040923346,0.4411623,0
2051476000,2051476000,197388,0.18434684,0.042552743,0.4383907,0
2051608000,2051546909,197388,0.18443522,0.041326273,0.44031635,0
2051620000,2051620000,197388,0.18270579,0.04611715,0.4453695,0
2051752000,2051691636,197388,0.18685673,0.041426167,0.44321123,0
2051764000,2051764000,197388,0.18265134,0.04358751,0.44805372,0
2051896000,2051835272,197388,0.18463409,0.041470677,0.44323146,0
2051908000,2051908000,197388,0.18694745,0.03538449,0.44013467,0
2052040000,2051979636,197388,0.18547843,0.042774785,0.44202122,0
2052048000,2052048000,197388,0.18328726,0.040633917,0.43741965,0
2052172000,2052117200,197388,0.18543176,0.042324405,0.44069263,0
2052184000,2052184000,197388,0.1942541,0.035090163,0.4435642,0
2052316000,2052256000,197388,0.18833494,0.042896945,0.44081733,0
2052324000,2052324000,197388,0.18976787,0.0439249,0.43864837,0
2052448000,2052394000,197388,0.18796651,0.0409072,0.4388406,0
2052472000,2052464000,197388,0.19282675,0.040770017,0.44029915,0
2052580000,2052531111,197388,0.18751892,0.03978043,0.43887293,0
2052616000,2052602666,197388,0.19086951,0.039667066,0.44065976,0
2052712000,2052670000,197388,0.19301508,0.041504912,0.4400714,0
2052760000,2052742000,197388,0.18844548,0.043365724,0.44222578,0
2052856000,2052813500,197388,0.19228417,0.039813794,0.43891546,0
2052904000,2052886000,197388,0.19389857,0.038208917,0.43755126,0
2052996000,2052956500,197388,0.19546156,0.03763745,0.43819618,0
2053036000,2053024000,197388,0.19853732,0.039280295,0.4409073,0
2053140000,2053095111,197388,0.1958251,0.03988731,0.43576616,0
2053168000,2053162000,197388,0.19690837,0.039968524,0.4341014,0
2053288000,2053233600,197388,0.19781218,0.04138344,0.4363323,0
2053312000,2053306000,197388,0.19574454,0.042290643,0.43750784,0
2053432000,2053376800,197388,0.19652979,0.041990217,0.43600035,0
2053444000,2053444000,197388,0.19875376,0.042439327,0.44159764,0
2053576000,2053515636,197388,0.20113213,0.040990364,0.43461704,0
2053588000,2053588000,197388,0.19826558,0.037211504,0.4283115,0
2053720000,2053659272,197388,0.20387743,0.04371285,0.43375957,0
2053732000,2053732000,197388,0.20749366,0.044545554,0.42850947,0
2053864000,2053804000,197388,0.205212,0.042783886,0.43427512,0
2053876000,2053876000,197388,0.20304757,0.039481763,0.43537283,0
2054008000,2053947272,197388,0.20515454,0.0412672,0.4317142,0
2054020000,2054020000,197388,0.20088825,0.0378449,0.4265901,0
2054152000,2054090545,197388,0.20500101,0.041682635,0.4314763,0
2054164000,2054164000,197388,0.2033024,0.042288862,0.43148357,0
2054296000,2054235636,197388,0.20707509,0.039883666,0.43267515,0
2054308000,2054308000,197388,0.20531754,0.04193638,0.43392748,0
2054436000,2054378909,197388,0.20732845,0.040825836,0.43119344,0
2054452000,2054452000,197388,0.20786643,0.0421995,0.4334222,0
2054584000,2054524000,197388,0.20787518,0.041007765,0.430963,0
2054596000,2054596000,197388,0.20794562,0.049660403,0.42947352,0
2054728000,2054667636,197388,0.21025614,0.04067543,0.42936447,0
2054740000,2054740000,197388,0.20813206,0.03377369,0.42743194,0
2054872000,2054811272,197388,0.21145295,0.041918732,0.43086785,0
2054884000,2054884000,197388,0.20649208,0.040155858,0.42785642,0
2055016000,2054955272,197388,0.21122816,0.04164499,0.42871034,0
2055024000,2055024000,197388,0.20784006,0.04300646,0.4277522,0
2055148000,2055093600,197388,0.2088907,0.04274665,0.43084463,0
2055172000,2055166000,197388,0.2081441,0.04771209,0.42944455,0
2055292000,2055237600,197388,0.21014662,0.040899977,0.42940196,0
2055316000,2055310000,197388,0.20994142,0.042053282,0.4229086,0
2055436000,2055381600,197388,0.2113411,0.042074896,0.42989358,0
2055456000,2055452000,197388,0.21437897,0.040856335,0.42798477,0
2055568000,2055519555,197388,0.21024518,0.040221103,0.4278746,0
2055604000,2055592000,197388,0.21084517,0.03918087,0.43282485,0
2055712000,2055663555,197388,0.21532384,0.040464863,0.42944494,0
2055748000,2055734666,197388,0.21214263,0.04059101,0.42921114,0
2055856000,2055807111,197388,0.2130014,0.044790883,0.4286837,0
2055880000,2055874000,197388,0.21194825,0.04211812,0.43155113,0
2056000000,2055945600,197388,0.21260165,0.043004274,0.42825183,0
2056024000,2056018000,197388,0.21126644,0.040798314,0.42743927,0
2056140000,2056088400,197388,0.21181543,0.045830507,0.43131742,0
2056156000,2056156000,197388,0.21426086,0.042433567,0.43663236,0
2056288000,2056226909,197388,0.21239278,0.04401968,0.43121117,0
2056300000,2056300000,197388,0.21166179,0.04306902,0.4309946,0
2056428000,2056370909,197388,0.21313807,0.043006726,0.43115595,0
2056444000,2056444000,197388,0.20329376,0.035502356,0.42824414,0
2056576000,2056515636,197388,0.21081628,0.043371312,0.42842212,0
2056588000,2056588000,197388,0.21005479,0.045960374,0.43035933,0
2056720000,2056659636,197388,0.21166515,0.041884,0.4298533,0
2056732000,2056732000,197388,0.21262296,0.04518732,0.43129545,0
2056864000,2056803272,197388,0.21064456,0.044332653,0.4292155,0
2056876000,2056876000,197388,0.208749,0.039956633,0.43134725,0
2057008000,2056946909,197388,0.21061753,0.041467644,0.43179947,0
2057020000,2057020000,197388,0.21362904,0.0438066,0.4349196,0
2057152000,2057091272,197388,0.21036394,0.040975545,0.43074697,0
2057164000,2057164000,197388,0.21165873,0.042167746,0.4339294,0
2057296000,2057235636,197388,0.21174872,0.041725993,0.42880788,0
2057308000,2057308000,197388,0.21083911,0.044181507,0.42900544,0
2057440000,2057379636,197388,0.20857784,0.04070301,0.43238348,0
2057452000,2057452000,197388,0.20731153,0.04556827,0.43321946,0
2057584000,2057524000,197388,0.21000637,0.04045075,0.42854488,0
2057596000,2057596000,197388,0.21071021,0.04063397,0.4372628,0
2057728000,2057667636,197388,0.20994456,0.040477596,0.42979822,0
2057740000,2057740000,197388,0.21067482,0.046399523,0.42577702,0
2057868000,2057810545,197388,0.20959385,0.0439263,0.4317375,0
2057884000,2057884000,197388,0.20750007,0.03802949,0.43684354,0
2058016000,2057955636,197388,0.20947564,0.043824285,0.4315535,0
2058028000,2058028000,197388,0.20508079,0.04354684,0.4239301,0
2058160000,2058099272,197388,0.20766318,0.042766366,0.4298932,0
2058172000,2058172000,197388,0.21680811,0.0434793,0.42676353,0
2058304000,2058243272,197388,0.20875745,0.04258473,0.4298699,0
2058316000,2058316000,197388,0.21235034,0.039373916,0.43245324,0
2058448000,2058387272,197388,0.20970528,0.041311342,0.43199128,0
2058460000,2058460000,197388,0.20912485,0.039674133,0.43194923,0
2058588000,2058530909,197388,0.21047848,0.043081984,0.43183848,0
2058604000,2058604000,197388,0.20160955,0.043011982,0.4326818,0
2058736000,2058674909,197388,0.20850614,0.042664945,0.42946896,0
2058748000,2058748000,197388,0.20982093,0.04426857,0.4261907,0
2058880000,2058820000,197388,0.20970649,0.041476607,0.42982146,0
2058892000,2058892000,197388,0.20642635,0.03521186,0.422926,0
2059024000,2058962909,197388,0.21126616,0.040560726,0.4302508,0
2059032000,2059032000,197388,0.2030066,0.041016806,0.4341475,0
2059152000,2059100400,197388,0.21139145,0.042761043,0.4297851,0
2059168000,2059168000,197388,0.20899129,0.040970527,0.43151635,0
2059300000,2059239636,197388,0.2107044,0.04432968,0.4307239,0
2059312000,2059312000,197388,0.2103996,0.040288668,0.42734268,0
2059444000,2059384000,197388,0.2117288,0.042278577,0.42888355,0
2059456000,2059456000,197388,0.20509072,0.043069664,0.42869818,0
2059584000,2059527636,197388,0.21100795,0.042271703,0.42994016,0
2059600000,2059600000,197388,0.21301052,0.043579984,0.43450475,0
2059732000,2059671272,197388,0.21098597,0.045756638,0.42987564,0
2059744000,2059744000,197388,0.21313666,0.03927325,0.43109095,0
2059876000,2059814909,197388,0.21078455,0.04277246,0.43003058,0
2059888000,2059888000,197388,0.20716634,0.04545716,0.42405933,0
2060020000,2059959272,197388,0.21249136,0.04398905,0.42889994,0
2060032000,2060032000,197388,0.21281207,0.04453093,0.43267274,0
2060164000,2060102545,197388,0.21121329,0.04678048,0.42872113,0
2060176000,2060176000,197388,0.21057723,0.0417484,0.43203372,0
2060308000,2060247272,197388,0.21170895,0.045793522,0.42856756,0
2060320000,2060320000,197388,0.21135041,0.048266515,0.43199798,0
2060452000,2060392000,197388,0.21209171,0.046046052,0.42826116,0
2060464000,2060464000,197388,0.2101525,0.047179,0.43193433,0
2060596000,2060535272,197388,0.2169435,0.044391602,0.42871904,0
2060608000,2060608000,197388,0.2162198,0.044026274,0.43256631,0
2060740000,2060679272,197388,0.2185664,0.04454135,0.42330492,0
2060752000,2060752000,197388,0.21728237,0.040708136,0.4262064,0
2060884000,2060823272,197388,0.21820712,0.04288125,0.42704558,0
2060896000,2060896000,197388,0.21411909,0.045975443,0.421302,0
2061028000,2060967636,197388,0.221054,0.045064647,0.42529216,0
2061036000,2061036000,197388,0.2238587,0.039345168,0.4311185,0
2061160000,2061105600,197388,0.21812335,0.0428367,0.42601186,0
2061180000,2061176000,197388,0.21836689,0.043792836,0.4273549,0
2061292000,2061243111,197388,0.21537727,0.044142913,0.42788637,0
2061316000,2061310000,197388,0.21511288,0.035486087,0.4296062,0
2061436000,2061381200,197388,0.21195273,0.039815348,0.428951,0
2061448000,2061448000,197388,0.21055493,0.04298047,0.4323594,0
2061580000,2061519636,197388,0.21259578,0.04164999,0.4282515,0
2061588000,2061588000,197388,0.21207502,0.037908554,0.4382865,0
2061712000,2061656800,197388,0.21104775,0.04127108,0.43216798,0
2061724000,2061724000,197388,0.21303089,0.044869434,0.42992142,0
2061856000,2061794545,197388,0.21335538,0.03890724,0.42925572,0
2061864000,2061864000,197388,0.21468987,0.0436913,0.42790318,0
2061988000,2061932800,197388,0.21285878,0.04210976,0.42669412,0
2062012000,2062004000,197388,0.2146253,0.03938829,0.4253949,0
2062120000,2062071555,197388,0.21326177,0.041645657,0.43055707,0
2062156000,2062144000,197388,0.21235898,0.04177844,0.42930302,0
2062260000,2062214222,197388,0.21261394,0.04118325,0.42643437,0
2062288000,2062282000,197388,0.21469066,0.042962432,0.4279635,0
2062408000,2062354000,197388,0.2143034,0.042504307,0.4277185,0
2062432000,2062426000,197388,0.21137197,0.04557768,0.4261025,0
2062552000,2062498000,197388,0.21427865,0.04133269,0.42957184,0
2062576000,2062568000,197388,0.21122205,0.0427057,0.4278412,0
2062684000,2062635111,197388,0.21177241,0.041975964,0.4282571,0
2062708000,2062702000,197388,0.21054897,0.042001627,0.43002945,0
2062828000,2062773600,197388,0.21132551,0.042777378,0.42929655,0
2062852000,2062846000,197388,0.21423025,0.040387064,0.43352458,0
2062972000,2062917600,197388,0.21310571,0.04250091,0.42809245,0
2062996000,2062990000,197388,0.21141008,0.038648587,0.4309271,0
2063116000,2063062000,197388,0.21179457,0.041131534,0.4303092,0
2063136000,2063132000,197388,0.2143577,0.042794153,0.4260636,0
2063248000,2063199111,197388,0.21111003,0.04318568,0.4294729,0
2063272000,2063266000,197388,0.2111942,0.039041944,0.43310118,0
2063392000,2063337600,197388,0.21202831,0.044294573,0.4276331,0
2063412000,2063408000,197388,0.21294466,0.042182975,0.4261967,0
2063524000,2063476000,197388,0.21064991,0.04047816,0.43173233,0
2063560000,2063548000,197388,0.21433012,0.042660218,0.43096882,0
2063668000,2063619111,197388,0.21214512,0.042407997,0.42956537,0
2063704000,2063690666,197388,0.21522686,0.042117923,0.4291157,0
2063800000,2063757500,197388,0.21059573,0.043747667,0.42959666,0
2063848000,2063830000,197388,0.21193466,0.045035608,0.43166518,0
2063940000,2063901000,197388,0.21103428,0.042064823,0.42938384,0
2063980000,2063968000,197388,0.2099064,0.04772582,0.42989397,0
2064084000,2064039111,197388,0.21309528,0.04211635,0.4287042,0
2064112000,2064106000,197388,0.21153292,0.0465763,0.42365628,0
2064232000,2064176400,197388,0.20922175,0.0444613,0.42967135,0
2064244000,2064244000,197388,0.20916472,0.04190058,0.43146738,0
2064372000,2064314545,197388,0.2104064,0.043505717,0.43114993,0
2064388000,2064388000,197388,0.21533696,0.04720554,0.4285589,0
2064520000,2064458909,197388,0.21145214,0.043870453,0.43008068,0
2064528000,2064528000,197388,0.21096478,0.043791592,0.4398758,0
2064648000,2064596800,197388,0.20932272,0.044073947,0.42669836,0
2064664000,2064664000,197388,0.2118349,0.042429958,0.42845997,0
2064792000,2064734545,197388,0.21088216,0.04370548,0.4321554,0
2064808000,2064808000,197388,0.2104918,0.046885077,0.43001214,0
2064936000,2064878545,197388,0.21075805,0.041671824,0.42726082,0
2064952000,2064952000,197388,0.20463398,0.045919243,0.430569,0
2065084000,2065023272,197388,0.21226537,0.043622218,0.42948294,0
2065096000,2065096000,197388,0.20897824,0.045019317,0.42977652,0
2065228000,2065167636,197388,0.21129867,0.04357331,0.42898062,0
2065240000,2065240000,197388,0.21829331,0.040395353,0.43537974,0
2065372000,2065311272,197388,0.21218064,0.04396579,0.43012065,0
2065380000,2065380000,197388,0.21173123,0.040966514,0.4308432,0
2065504000,2065449200,197388,0.2093664,0.045210075,0.4295485,0
2065516000,2065516000,197388,0.21860781,0.046272002,0.43655902,0
2065648000,2065587636,197388,0.20928633,0.04314034,0.4280314,0
2065660000,2065660000,197388,0.20630312,0.045338932,0.43015686,0
2065792000,2065731272,197388,0.21138863,0.042691123,0.42899826,0
2065804000,2065804000,197388,0.2115839,0.045203093,0.42924774,0
2065936000,2065875636,197388,0.20982392,0.042164687,0.42941326,0
2065948000,2065948000,197388,0.21318541,0.050660208,0.42350808,0
2066076000,2066018909,197388,0.2102383,0.04180195,0.42979002,0
2066092000,2066092000,197388,0.20956959,0.038287874,0.42367166,0
2066224000,2066163636,197388,0.21215968,0.03997744,0.43044192,0
2066236000,2066236000,197388,0.207124,0.039309643,0.43485126,0
2066368000,2066307272,197388,0.21320629,0.04125749,0.43139616,0
2066376000,2066376000,197388,0.2148888,0.03946428,0.42938402,0
2066500000,2066446000,197388,0.21240059,0.042002924,0.4281098,0
2066524000,2066518000,197388,0.20889433,0.037977565,0.43155718,0
2066644000,2066589200,197388,0.21228014,0.041985214,0.4287624,0
2066656000,2066656000,197388,0.21264255,0.032893695,0.42735657,0
2066788000,2066726545,197388,0.2126057,0.04025477,0.4289628,0
2066800000,2066800000,197388,0.21019152,0.039758194,0.43092042,0
2066932000,2066871636,197388,0.21273658,0.0423359,0.42914686,0
2066944000,2066944000,197388,0.21254338,0.038972944,0.42841566,0
2067076000,2067014181,197388,0.21409309,0.04125948,0.4271914,0
2067088000,2067088000,197388,0.21258213,0.041733507,0.43297148,0
2067220000,2067160000,197388,0.21310794,0.042472474,0.43040788,0
2067228000,2067228000,197388,0.20995973,0.046137217,0.42951044,0
2067352000,2067297200,197388,0.21157208,0.042201165,0.42977166,0
2067364000,2067364000,197388,0.21069369,0.041550286,0.43037328,0
2067496000,2067435636,197388,0.21117003,0.04225157,0.42889765,0
2067508000,2067508000,197388,0.21273449,0.04087465,0.4337743,0
2067640000,2067579636,197388,0.21224192,0.040433466,0.42685828,0
2067652000,2067652000,197388,0.219523,0.046090342,0.42787057,0
2067784000,2067723272,197388,0.21145257,0.041449428,0.43118572,0
2067796000,2067796000,197388,0.21368873,0.040897172,0.4189255,0
2067928000,2067867636,197388,0.21207888,0.04176068,0.43111748,0
2067940000,2067940000,197388,0.21206978,0.04253815,0.42625245,0
2068072000,2068011272,197388,0.21334398,0.04249167,0.42964944,0
2068080000,2068080000,197388,0.21215355,0.039088346,0.43172643,0
2068204000,2068149200,197388,0.2132973,0.042422604,0.430645,0
2068216000,2068216000,197388,0.21320197,0.04165615,0.4287066,0
2068348000,2068287272,197388,0.21317288,0.041769754,0.43073308,0
2068360000,2068360000,197388,0.21271057,0.046801966,0.42808938,0
2068492000,2068432000,197388,0.2119688,0.040741276,0.43190467,0
2068504000,2068504000,197388,0.21212874,0.045528855,0.42239723,0
2068636000,2068574909,197388,0.21163201,0.042517006,0.43057182,0
2068648000,2068648000,197388,0.21264705,0.04596659,0.43260124,0
2068780000,2068718545,197388,0.21126235,0.041962355,0.4304427,0
2068792000,2068792000,197388,0.20615675,0.038953476,0.42977718,0
2068924000,2068863272,197388,0.21345499,0.042193968,0.4280813,0
2068936000,2068936000,197388,0.21396685,0.032300796,0.43052515,0
2069068000,2069006909,197388,0.21299438,0.04091853,0.43006223,0
2069080000,2069080000,197388,0.21160258,0.037075825,0.42699608,0
2069212000,2069151272,197388,0.2108478,0.041752446,0.42719677,0
2069224000,2069224000,197388,0.20723397,0.049606834,0.4306786,0
2069356000,2069296000,197388,0.21255875,0.041390296,0.43016925,0
2069364000,2069364000,197388,0.21449314,0.04149225,0.42464766,0
2069488000,2069433600,197388,0.21431433,0.041923128,0.43079358,0
2069512000,2069506000,197388,0.2143577,0.041344013,0.42581955,0
2069628000,2069576400,197388,0.21298078,0.042100295,0.42975017,0
2069656000,2069648000,197388,0.2113377,0.042827718,0.432174,0
2069764000,2069715111,197388,0.21205151,0.043396637,0.42943755,0
2069800000,2069786666,197388,0.21360803,0.04041519,0.4293759,0
2069896000,2069853500,197388,0.21000488,0.041247364,0.43116772,0
2069944000,2069926000,197388,0.20972623,0.041086324,0.42887115,0
2070036000,2069995500,197388,0.21140608,0.043713406,0.42790443,0
2070076000,2070064000,197388,0.21084175,0.042147465,0.42932397,0
2070180000,2070135555,197388,0.21322273,0.042115528,0.42782465,0
2070220000,2070208000,197388,0.214225,0.042373307,0.42872244,0
2070328000,2070279111,197388,0.21266171,0.043349206,0.42805067,0
2070352000,2070346000,197388,0.21284655,0.03909087,0.43474963,0
2070472000,2070417600,197388,0.21184905,0.040667623,0.42947063,0
2070496000,2070488000,197388,0.20724693,0.046954595,0.42855957,0
2070604000,2070555555,197388,0.21218581,0.04368495,0.42949378,0
