timestamp,timestamp_sample,q[0],q[1],q[2],q[3],delta_q_reset[0],delta_q_reset[1],delta_q_reset[2],delta_q_reset[3],quat_reset_counter
2015920000,2015920000,0.623097,-0.00013851654,0.001082611,0.7821439,0.9997057,-9.313227e-10,1.3969841e-09,0.024263714,3
2015928000,2015928000,0.6231325,-0.00017482946,0.001039066,0.78211564,0.9997057,-9.313227e-10,1.3969841e-09,0.024263714,3
2015932000,2015932000,0.62315136,-0.00017094657,0.0010385377,0.7821006,0.9997057,-9.313227e-10,1.3969841e-09,0.024263714,3
2015936000,2015936000,0.6231706,-0.0001565618,0.0010323818,0.7820853,0.9997057,-9.313227e-10,1.3969841e-09,0.024263714,3
2015940000,2015940000,0.6231749,-0.00013238045,0.0010034558,0.7820819,0.9997057,-9.313227e-10,1.3969841e-09,0.024263714,3
2015944000,2015944000,0.62316334,-0.00011121998,0.00096130924,0.78209114,0.9997057,-9.313227e-10,1.3969841e-09,0.024263714,3
2015948000,2015948000,0.6231455,-0.000114974595,0.0009451511,0.7821054,0.9997057,-9.313227e-10,1.3969841e-09,0.024263714,3
2015952000,2015952000,0.623136,-0.00013624519,0.00095317204,0.78211296,0.9997057,-9.313227e-10,1.3969841e-09,0.024263714,3
2015956000,2015956000,0.6231377,-0.00013829573,0.00095199613,0.7821116,0.9997057,-9.313227e-10,1.3969841e-09,0.024263714,3
2015960000,2015960000,0.62314445,-0.0001192961,0.0009490518,0.7821062,0.9997057,-9.313227e-10,1.3969841e-09,0.024263714,3
2015964000,2015964000,0.62315035,-0.00012062295,0.00096162263,0.7821015,0.9997057,-9.313227e-10,1.3969841e-09,0.024263714,3
2015972000,2015972000,0.62314373,-0.00016058778,0.0009886227,0.78210664,0.9997057,-9.313227e-10,1.3969841e-09,0.024263714,3
2015980000,2015980000,0.6231288,-0.0001731171,0.0010380709,0.78211856,0.9997057,-9.313227e-10,1.3969841e-09,0.024263714,3
2015984000,2015984000,0.6231142,-0.00018317525,0.0010345142,0.7821302,0.9997057,-9.313227e-10,1.3969841e-09,0.024263714,3
2015988000,2015988000,0.62310046,-0.00020569075,0.001020451,0.78214115,0.9997057,-9.313227e-10,1.3969841e-09,0.024263714,3
2015992000,2015992000,0.6230988,-0.00024001287,0.0010001289,0.7821425,0.9997057,-9.313227e-10,1.3969841e-09,0.024263714,3
2015996000,2015996000,0.6231059,-0.0002669601,0.0009882208,0.78213686,0.9997057,-9.313227e-10,1.3969841e-09,0.024263714,3
2016000000,2016000000,0.62309647,-0.00026380125,0.001005479,0.78214437,0.9997057,-9.313227e-10,1.3969841e-09,0.024263714,3
2016004000,2016004000,0.62308043,-0.00024294546,0.0010372495,0.7821571,0.9997057,-9.313227e-10,1.3969841e-09,0.024263714,3
2016008000,2016008000,0.6230664,-0.00023316381,0.0010363121,0.78216827,0.9997057,-9.313227e-10,1.3969841e-09,0.024263714,3
2016012000,2016012000,0.62305075,-0.00023749494,0.0010227851,0.7821807,0.9997057,-9.313227e-10,1.3969841e-09,0.024263714,3
2016016000,2016016000,0.6230416,-0.00024176647,0.001029132,0.782188,0.9997057,-9.313227e-10,1.3969841e-09,0.024263714,3
2016020000,2016020000,0.6230309,-0.00024266666,0.0010157722,0.7821966,0.9997057,-9.313227e-10,1.3969841e-09,0.024263714,3
2016024000,2016024000,0.62302095,-0.00024154143,0.0009912769,0.7822045,0.9997057,-9.313227e-10,1.3969841e-09,0.024263714,3
2016032000,2016032000,0.6230023,-0.00022184955,0.000995817,0.78221935,0.9997057,-9.313227e-10,1.3969841e-09,0.024263714,3
2016036000,2016036000,0.62298113,-0.00022624123,0.0009934464,0.78223634,0.9997057,-9.313227e-10,1.3969841e-09,0.024263714,3
2016040000,2016040000,0.6229686,-0.0002431698,0.0009779094,0.7822462,0.9997057,-9.313227e-10,1.3969841e-09,0.024263714,3
2016044000,2016044000,0.6229608,-0.00025826792,0.00095954706,0.78225255,0.9997057,-9.313227e-10,1.3969841e-09,0.024263714,3
2016052000,2016052000,0.6229417,-0.00025193527,0.0009618463,0.78226763,0.9997057,-9.313227e-10,1.3969841e-09,0.024263714,3
2016056000,2016056000,0.6229384,-0.00023438095,0.00096311537,0.7822704,0.9997057,-9.313227e-10,1.3969841e-09,0.024263714,3
2016060000,2016060000,0.62292296,-0.00022476714,0.0009509773,0.78228253,0.9997057,-9.313227e-10,1.3969841e-09,0.024263714,3
2016064000,2016064000,0.62289846,-0.00023552337,0.0009414635,0.7823022,0.9997057,-9.313227e-10,1.3969841e-09,0.024263714,3
2016068000,2016068000,0.62288755,-0.0002454941,0.00094492384,0.7823107,0.9997057,-9.313227e-10,1.3969841e-09,0.024263714,3
2016072000,2016072000,0.62290376,-0.00025159298,0.000970401,0.7822978,0.9997057,-9.313227e-10,1.3969841e-09,0.024263714,3
2016076000,2016076000,0.62292665,-0.00026077105,0.0009928744,0.78227955,0.9997057,-9.313227e-10,1.3969841e-09,0.024263714,3
2016084000,2016084000,0.6228895,-0.00025544094,0.0009870875,0.7823092,0.9997057,-9.313227e-10,1.3969841e-09,0.024263714,3
2016088000,2016088000,0.6228782,-0.0002569203,0.0009755782,0.7823182,0.9997057,-9.313227e-10,1.3969841e-09,0.024263714,3
2016092000,2016092000,0.6228873,-0.00025295495,0.00097264285,0.7823109,0.9997057,-9.313227e-10,1.3969841e-09,0.024263714,3
2016096000,2016096000,0.62289566,-0.00025017353,0.0009801917,0.7823044,0.9997057,-9.313227e-10,1.3969841e-09,0.024263714,3
2016100000,2016100000,0.6228926,-0.0002583344,0.000977404,0.7823067,0.9997057,-9.313227e-10,1.3969841e-09,0.024263714,3
2016104000,2016104000,0.62290347,-0.0002703282,0.0009715306,0.7822982,0.9997057,-9.313227e-10,1.3969841e-09,0.024263714,3
2016108000,2016108000,0.62292373,-0.00028680218,0.00099168,0.7822819,0.9997057,-9.313227e-10,1.3969841e-09,0.024263714,3
2016112000,2016112000,0.6229195,-0.00029581098,0.0009997989,0.7822853,0.9997057,-9.313227e-10,1.3969841e-09,0.024263714,3
2016116000,2016116000,0.6228961,-0.00029563592,0.0009672692,0.7823039,0.9997057,-9.313227e-10,1.3969841e-09,0.024263714,3
2016120000,2016120000,0.6228823,-0.00030063163,0.0009368081,0.7823151,0.9997057,-9.313227e-10,1.3969841e-09,0.024263714,3
2016124000,2016124000,0.62288755,-0.0003041238,0.0009296343,0.7823107,0.9997057,-9.313227e-10,1.3969841e-09,0.024263714,3
2016132000,2016132000,0.62289697,-0.0002850668,0.0009163548,0.7823034,0.9997057,-9.313227e-10,1.3969841e-09,0.024263714,3
2016136000,2016136000,0.6228914,-0.00029334074,0.0009348035,0.7823078,0.9997057,-9.313227e-10,1.3969841e-09,0.024263714,3
2016144000,2016144000,0.62287706,-0.00028992366,0.0009822308,0.7823191,0.9997057,-9.313227e-10,1.3969841e-09,0.024263714,3
2016148000,2016148000,0.62287706,-0.00028145275,0.0009960594,0.7823191,0.9997057,-9.313227e-10,1.3969841e-09,0.024263714,3
2016152000,2016152000,0.6228891,-0.00027413643,0.000999903,0.78230953,0.9997057,-9.313227e-10,1.3969841e-09,0.024263714,3
2016156000,2016156000,0.62288696,-0.00027920963,0.0010095456,0.7823112,0.9997057,-9.313227e-10,1.3969841e-09,0.024263714,3
2016160000,2016160000,0.6228652,-0.0002813562,0.0010210653,0.7823285,0.9997057,-9.313227e-10,1.3969841e-09,0.024263714,3
2016164000,2016164000,0.62284386,-0.00028131093,0.0010199462,0.7823455,0.9997057,-9.313227e-10,1.3969841e-09,0.024263714,3
2016172000,2016172000,0.6228328,-0.00029634155,0.0010637523,0.78235424,0.9997057,-9.313227e-10,1.3969841e-09,0.024263714,3
2016176000,2016176000,0.6228218,-0.00029290662,0.0010796876,0.78236294,0.9997057,-9.313227e-10,1.3969841e-09,0.024263714,3
2016180000,2016180000,0.62282336,-0.0002890151,0.001071413,0.78236175,0.9997057,-9.313227e-10,1.3969841e-09,0.024263714,3
2016184000,2016184000,0.62283945,-0.00028037498,0.0010648011,0.78234893,0.9997057,-9.313227e-10,1.3969841e-09,0.024263714,3
2016188000,2016188000,0.622843,-0.00026002183,0.0010720298,0.78234607,0.9997057,-9.313227e-10,1.3969841e-09,0.024263714,3
2016192000,2016192000,0.62284327,-0.00023903033,0.0010706029,0.7823459,0.9997057,-9.313227e-10,1.3969841e-09,0.024263714,3
2016196000,2016196000,0.6228522,-0.00022525617,0.001055847,0.78233874,0.9997057,-9.313227e-10,1.3969841e-09,0.024263714,3
2016200000,2016200000,0.62285656,-0.00022055156,0.0010578668,0.7823353,0.9997057,-9.313227e-10,1.3969841e-09,0.024263714,3
2016204000,2016204000,0.6228455,-0.0002288447,0.0010777449,0.7823441,0.9997057,-9.313227e-10,1.3969841e-09,0.024263714,3
2016212000,2016212000,0.62283957,-0.00026126736,0.0010770162,0.7823489,0.9997057,-9.313227e-10,1.3969841e-09,0.024263714,3
2016216000,2016216000,0.6228248,-0.0002519564,0.0010692896,0.7823606,0.9997057,-9.313227e-10,1.3969841e-09,0.024263714,3
2016220000,2016220000,0.6227996,-0.00022668339,0.001071337,0.7823807,0.9997057,-9.313227e-10,1.3969841e-09,0.024263714,3
2016228000,2016228000,0.62278825,-0.00017863867,0.0010808065,0.78238964,0.9997057,-9.313227e-10,1.3969841e-09,0.024263714,3
2016232000,2016232000,0.6227951,-0.00018671255,0.001086243,0.7823842,0.9997057,-9.313227e-10,1.3969841e-09,0.024263714,3
2016236000,2016236000,0.6227957,-0.00020642942,0.0010941481,0.78238374,0.9997057,-9.313227e-10,1.3969841e-09,0.024263714,3
2016240000,2016240000,0.62279165,-0.00019225857,0.0011043756,0.78238696,0.9997057,-9.313227e-10,1.3969841e-09,0.024263714,3
2016244000,2016244000,0.6227884,-0.00018216282,0.001113761,0.7823895,0.9997057,-9.313227e-10,1.3969841e-09,0.024263714,3
2016248000,2016248000,0.6227856,-0.00019825695,0.0011303951,0.7823918,0.9997057,-9.313227e-10,1.3969841e-09,0.024263714,3
2016252000,2016252000,0.622779,-0.00020330567,0.0011566232,0.7823969,0.9997057,-9.313227e-10,1.3969841e-09,0.024263714,3
2016256000,2016256000,0.6227707,-0.00019449205,0.0011745599,0.78240347,0.9997057,-9.313227e-10,1.3969841e-09,0.024263714,3
2016260000,2016260000,0.622755,-0.00019062597,0.0011794266,0.78241605,0.9997057,-9.313227e-10,1.3969841e-09,0.024263714,3
2016264000,2016264000,0.6227371,-0.00018863092,0.001181037,0.7824303,0.9997057,-9.313227e-10,1.3969841e-09,0.024263714,3
2016268000,2016268000,0.6227447,-0.0001800576,0.0011977975,0.7824243,0.9997057,-9.313227e-10,1.3969841e-09,0.024263714,3
2016272000,2016272000,0.6227592,-0.0001778004,0.0012202723,0.7824125,0.9997057,-9.313227e-10,1.3969841e-09,0.024263714,3
2016280000,2016280000,0.622808,-0.00016737578,0.0012298713,0.7823737,0.9997057,-9.313227e-10,1.3969841e-09,0.024263714,3
2016284000,2016284000,0.6228322,-0.00015408048,0.0012353937,0.7823546,0.9997057,-9.313227e-10,1.3969841e-09,0.024263714,3
2016292000,2016292000,0.6228404,-9.856862e-05,0.0012766157,0.7823479,0.9997057,-9.313227e-10,1.3969841e-09,0.024263714,3
2016296000,2016296000,0.6228253,-7.6922464e-05,0.0012864759,0.7823599,0.9997057,-9.313227e-10,1.3969841e-09,0.024263714,3
2016300000,2016300000,0.62281066,-7.778277e-05,0.0012808933,0.7823716,0.9997057,-9.313227e-10,1.3969841e-09,0.024263714,3
2016304000,2016304000,0.6228064,-7.6418066e-05,0.0012558444,0.782375,0.9997057,-9.313227e-10,1.3969841e-09,0.024263714,3
2016308000,2016308000,0.6228038,-7.820338e-05,0.0012251312,0.78237724,0.9997057,-9.313227e-10,1.3969841e-09,0.024263714,3
2016312000,2016312000,0.6228074,-9.30297e-05,0.00119596,0.7823743,0.9997057,-9.313227e-10,1.3969841e-09,0.024263714,3
2016316000,2016316000,0.6228185,-8.673281e-05,0.0011642603,0.7823655,0.9997057,-9.313227e-10,1.3969841e-09,0.024263714,3
2016320000,2016320000,0.6228201,-7.109478e-05,0.0011408124,0.7823643,0.9997057,-9.313227e-10,1.3969841e-09,0.024263714,3
2016328000,2016328000,0.6228277,-3.9638137e-05,0.0011325898,0.78235835,0.9997057,-9.313227e-10,1.3969841e-09,0.024263714,3
2016332000,2016332000,0.6228279,-2.2848379e-05,0.0011627075,0.782358,0.9997057,-9.313227e-10,1.3969841e-09,0.024263714,3
2016336000,2016336000,0.6228252,-2.0322259e-05,0.0011885421,0.78236026,0.9997057,-9.313227e-10,1.3969841e-09,0.024263714,3
2016344000,2016344000,0.62282425,-4.2369258e-05,0.0011719287,0.78236085,0.9997057,-9.313227e-10,1.3969841e-09,0.024263714,3
2016348000,2016348000,0.6228249,-2.8289107e-05,0.0011763228,0.7823605,0.9997057,-9.313227e-10,1.3969841e-09,0.024263714,3
2016352000,2016352000,0.62282956,-1.2512511e-05,0.0011759725,0.7823566,0.9997057,-9.313227e-10,1.3969841e-09,0.024263714,3
2016356000,2016356000,0.6228439,-1.4806165e-05,0.001177742,0.78234535,0.9997057,-9.313227e-10,1.3969841e-09,0.024263714,3
2016360000,2016360000,0.6228524,-2.8756995e-05,0.0011922015,0.78233844,0.9997057,-9.313227e-10,1.3969841e-09,0.024263714,3
2016364000,2016364000,0.62286717,-4.4299253e-05,0.0012072391,0.7823267,0.9997057,-9.313227e-10,1.3969841e-09,0.024263714,3
2016368000,2016368000,0.6229007,-5.4496428e-05,0.0012118844,0.7823001,0.9997057,-9.313227e-10,1.3969841e-09,0.024263714,3
2016372000,2016372000,0.6229304,-6.376944e-05,0.0012151178,0.78227633,0.9997057,-9.313227e-10,1.3969841e-09,0.024263714,3
2016380000,2016380000,0.6229511,-9.550748e-05,0.0012185525,0.7822598,0.9997057,-9.313227e-10,1.3969841e-09,0.024263714,3
2016388000,2016388000,0.6229271,-0.000117582334,0.0012314026,0.7822789,0.9997057,-9.313227e-10,1.3969841e-09,0.024263714,3
2016392000,2016392000,0.6229168,-0.0001189112,0.0012392999,0.7822871,0.9997057,-9.313227e-10,1.3969841e-09,0.024263714,3
2016396000,2016396000,0.6229248,-0.00013445877,0.0012319395,0.78228074,0.9997057,-9.313227e-10,1.3969841e-09,0.024263714,3
2016400000,2016400000,0.6229474,-0.00014933522,0.0012219946,0.78226274,0.9997057,-9.313227e-10,1.3969841e-09,0.024263714,3
2016404000,2016404000,0.6229608,-0.00013398156,0.0012029686,0.7822521,0.9997057,-9.313227e-10,1.3969841e-09,0.024263714,3
2016408000,2016408000,0.62295634,-0.0001172285,0.0011753764,0.7822557,0.9997057,-9.313227e-10,1.3969841e-09,0.024263714,3
2016412000,2016412000,0.6229435,-0.000111627705,0.0011559958,0.7822661,0.9997057,-9.313227e-10,1.3969841e-09,0.024263714,3
2016416000,2016416000,0.62293446,-0.00010866305,0.0011380817,0.7822733,0.9997057,-9.313227e-10,1.3969841e-09,0.024263714,3
2016420000,2016420000,0.62293625,-0.00010820642,0.0011187464,0.78227186,0.9997057,-9.313227e-10,1.3969841e-09,0.024263714,3
2016424000,2016424000,0.62293845,-9.4914e-05,0.0010966903,0.78227013,0.9997057,-9.313227e-10,1.3969841e-09,0.024263714,3
2016432000,2016432000,0.62292856,-5.1133153e-05,0.0011116824,0.78227794,0.9997057,-9.313227e-10,1.3969841e-09,0.024263714,3
2016440000,2016440000,0.6229027,-4.9857394e-05,0.0011475412,0.78229856,0.9997057,-9.313227e-10,1.3969841e-09,0.024263714,3
2016444000,2016444000,0.6228768,-4.570338e-05,0.0011497558,0.7823191,0.9997057,-9.313227e-10,1.3969841e-09,0.024263714,3
2016448000,2016448000,0.6228597,-3.672214e-05,0.0011528921,0.7823328,0.9997057,-9.313227e-10,1.3969841e-09,0.024263714,3
2016452000,2016452000,0.622863,-2.6908801e-05,0.0011784891,0.7823301,0.9997057,-9.313227e-10,1.3969841e-09,0.024263714,3
2016456000,2016456000,0.6228663,-2.0457142e-05,0.0011904322,0.7823275,0.9997057,-9.313227e-10,1.3969841e-09,0.024263714,3
2016460000,2016460000,0.62285787,-2.5280635e-05,0.001158262,0.7823342,0.9997057,-9.313227e-10,1.3969841e-09,0.024263714,3
2016464000,2016464000,0.6228498,-4.1740477e-05,0.0011285563,0.7823405,0.9997057,-9.313227e-10,1.3969841e-09,0.024263714,3
2016468000,2016468000,0.6228511,-5.3455493e-05,0.0011270607,0.7823397,0.9997057,-9.313227e-10,1.3969841e-09,0.024263714,3
2016472000,2016472000,0.6228564,-5.4051983e-05,0.0011412262,0.78233546,0.9997057,-9.313227e-10,1.3969841e-09,0.024263714,3
2016476000,2016476000,0.6228608,-5.8931237e-05,0.0011730994,0.78233176,0.9997057,-9.313227e-10,1.3969841e-09,0.024263714,3
2016480000,2016480000,0.62287194,-6.5812936e-05,0.00120929,0.782323,0.9997057,-9.313227e-10,1.3969841e-09,0.024263714,3
2016484000,2016484000,0.6228843,-8.3265244e-05,0.0012116833,0.782313,0.9997057,-9.313227e-10,1.3969841e-09,0.024263714,3
2016488000,2016488000,0.62288964,-0.00011453447,0.0011924147,0.78230894,0.9997057,-9.313227e-10,1.3969841e-09,0.024263714,3
2016492000,2016492000,0.6228911,-0.00012463372,0.0011937415,0.78230757,0.9997057,-9.313227e-10,1.3969841e-09,0.024263714,3
2016500000,2016500000,0.6228651,-0.00013889695,0.0011781076,0.7823284,0.9997057,-9.313227e-10,1.3969841e-09,0.024263714,3
2016504000,2016504000,0.6228623,-0.00014422555,0.0011743029,0.7823307,0.9997057,-9.313227e-10,1.3969841e-09,0.024263714,3
2016508000,2016508000,0.62287235,-0.00014398164,0.0011980425,0.7823225,0.9997057,-9.313227e-10,1.3969841e-09,0.024263714,3
2016512000,2016512000,0.6228916,-0.00013942769,0.0012271951,0.78230715,0.9997057,-9.313227e-10,1.3969841e-09,0.024263714,3
2016516000,2016516000,0.6229142,-0.00014296423,0.0012273807,0.78228915,0.9997057,-9.313227e-10,1.3969841e-09,0.024263714,3
2016524000,2016524000,0.6229006,-0.00016104945,0.0011821488,0.7823002,0.9997057,-9.313227e-10,1.3969841e-09,0.024263714,3
2016528000,2016528000,0.6228981,-0.00014722606,0.0011835387,0.782302,0.9997057,-9.313227e-10,1.3969841e-09,0.024263714,3
2016532000,2016532000,0.6229045,-0.00014931112,0.0011880517,0.78229713,0.9997057,-9.313227e-10,1.3969841e-09,0.024263714,3
2016536000,2016536000,0.62290275,-0.00016470032,0.0011997705,0.7822983,0.9997057,-9.313227e-10,1.3969841e-09,0.024263714,3
2016540000,2016540000,0.6228911,-0.00016951874,0.0012153422,0.7823076,0.9997057,-9.313227e-10,1.3969841e-09,0.024263714,3
2016544000,2016544000,0.62287444,-0.0001700608,0.0012234366,0.7823209,0.9997057,-9.313227e-10,1.3969841e-09,0.024263714,3
2016548000,2016548000,0.6228661,-0.00016992855,0.0012221311,0.78232753,0.9997057,-9.313227e-10,1.3969841e-09,0.024263714,3
2016552000,2016552000,0.6228615,-0.00017918396,0.0012167252,0.7823312,0.9997057,-9.313227e-10,1.3969841e-09,0.024263714,3
2016556000,2016556000,0.62285066,-0.00018886238,0.0012184734,0.7823399,0.9997057,-9.313227e-10,1.3969841e-09,0.024263714,3
2016560000,2016560000,0.62284964,-0.00018399893,0.0012119891,0.78234065,0.9997057,-9.313227e-10,1.3969841e-09,0.024263714,3
2016564000,2016564000,0.622857,-0.00017606965,0.0012050942,0.7823348,0.9997057,-9.313227e-10,1.3969841e-09,0.024263714,3
2016572000,2016572000,0.62286496,-0.000114404924,0.0012488074,0.78232837,0.9997057,-9.313227e-10,1.3969841e-09,0.024263714,3
2016576000,2016576000,0.6228823,-0.00012363787,0.0012630866,0.78231454,0.9997057,-9.313227e-10,1.3969841e-09,0.024263714,3
2016580000,2016580000,0.6228821,-0.0001558431,0.0012595971,0.78231466,0.9997057,-9.313227e-10,1.3969841e-09,0.024263714,3
2016588000,2016588000,0.62288886,-0.00020081383,0.0012051708,0.7823094,0.9997057,-9.313227e-10,1.3969841e-09,0.024263714,3
2016592000,2016592000,0.6229045,-0.00018999215,0.0012001228,0.78229696,0.9997057,-9.313227e-10,1.3969841e-09,0.024263714,3
2016596000,2016596000,0.62291974,-0.00015838293,0.0011989487,0.78228486,0.9997057,-9.313227e-10,1.3969841e-09,0.024263714,3
2016600000,2016600000,0.6229258,-0.00012164668,0.0011896422,0.7822801,0.9997057,-9.313227e-10,1.3969841e-09,0.024263714,3
2016604000,2016604000,0.62292016,-0.00010402081,0.0011785474,0.7822846,0.9997057,-9.313227e-10,1.3969841e-09,0.024263714,3
2016608000,2016608000,0.622912,-0.000108948596,0.0011827133,0.7822911,0.9997057,-9.313227e-10,1.3969841e-09,0.024263714,3
2016616000,2016616000,0.6229371,-0.000118865646,0.0012714006,0.78227097,0.9997057,-9.313227e-10,1.3969841e-09,0.024263714,3
2016620000,2016620000,0.6229546,-0.00012234875,0.0012893808,0.78225684,0.9997057,-9.313227e-10,1.3969841e-09,0.024263714,3
2016624000,2016624000,0.6229497,-0.00012620131,0.0012743464,0.7822609,0.9997057,-9.313227e-10,1.3969841e-09,0.024263714,3
2016628000,2016628000,0.62293816,-0.000133955,0.0012603855,0.78227013,0.9997057,-9.313227e-10,1.3969841e-09,0.024263714,3
2016636000,2016636000,0.62293327,-0.0001600871,0.0012259608,0.78227407,0.9997057,-9.313227e-10,1.3969841e-09,0.024263714,3
2016644000,2016644000,0.62296367,-0.0002081749,0.0011810947,0.7822498,0.9997057,-9.313227e-10,1.3969841e-09,0.024263714,3
2016652000,2016652000,0.6229546,-0.00019764139,0.0011685931,0.7822572,0.9997057,-9.313227e-10,1.3969841e-09,0.024263714,3
2016660000,2016660000,0.6229293,-0.0001712699,0.0011306062,0.7822774,0.9997057,-9.313227e-10,1.3969841e-09,0.024263714,3
2016664000,2016664000,0.62292194,-0.00017400034,0.0011100012,0.78228325,0.9997057,-9.313227e-10,1.3969841e-09,0.024263714,3
2016668000,2016668000,0.62292004,-0.00017590512,0.0010887317,0.78228474,0.9997057,-9.313227e-10,1.3969841e-09,0.024263714,3
2016672000,2016672000,0.62292653,-0.0001858829,0.0010718568,0.78227973,0.9997057,-9.313227e-10,1.3969841e-09,0.024263714,3
2016680000,2016680000,0.6229593,-0.0001918287,0.0010548595,0.7822536,0.9997057,-9.313227e-10,1.3969841e-09,0.024263714,3
2016684000,2016684000,0.6229707,-0.00020081655,0.0010460608,0.78224456,0.9997057,-9.313227e-10,1.3969841e-09,0.024263714,3
2016688000,2016688000,0.62297744,-0.0002182991,0.0010522237,0.782239,0.9997057,-9.313227e-10,1.3969841e-09,0.024263714,3
2016692000,2016692000,0.6229872,-0.00020311523,0.0010677744,0.7822314,0.9997057,-9.313227e-10,1.3969841e-09,0.024263714,3
2016696000,2016696000,0.62299603,-0.00016502818,0.0010787229,0.7822242,0.9997057,-9.313227e-10,1.3969841e-09,0.024263714,3
2016700000,2016700000,0.62300116,-0.00013282406,0.0010814245,0.7822201,0.9997057,-9.313227e-10,1.3969841e-09,0.024263714,3
2016708000,2016708000,0.6230097,-0.00013973973,0.00108103,0.78221345,0.9997057,-9.313227e-10,1.3969841e-09,0.024263714,3
2016712000,2016712000,0.62303597,-0.00015297542,0.0010566078,0.78219247,0.9997057,-9.313227e-10,1.3969841e-09,0.024263714,3
2016716000,2016716000,0.6230523,-0.0001454659,0.0010231645,0.7821795,0.9997057,-9.313227e-10,1.3969841e-09,0.024263714,3
2016720000,2016720000,0.6230709,-0.00014913605,0.0009952849,0.7821648,0.9997057,-9.313227e-10,1.3969841e-09,0.024263714,3
2016724000,2016724000,0.6231053,-0.00016728039,0.0009979837,0.7821374,0.9997057,-9.313227e-10,1.3969841e-09,0.024263714,3
2016728000,2016728000,0.62313294,-0.0001798633,0.001018753,0.7821152,0.9997057,-9.313227e-10,1.3969841e-09,0.024263714,3
2016732000,2016732000,0.62315524,-0.0001992195,0.0010190471,0.78209746,0.9997057,-9.313227e-10,1.3969841e-09,0.024263714,3
2016736000,2016736000,0.6231709,-0.00021886322,0.0010087021,0.7820851,0.9997057,-9.313227e-10,1.3969841e-09,0.024263714,3
2016740000,2016740000,0.62317985,-0.00022093792,0.0009939012,0.78207797,0.9997057,-9.313227e-10,1.3969841e-09,0.024263714,3
2016744000,2016744000,0.6231813,-0.00022398394,0.0009778597,0.78207684,0.9997057,-9.313227e-10,1.3969841e-09,0.024263714,3
2016748000,2016748000,0.6231648,-0.00023793598,0.000978023,0.78208995,0.9997057,-9.313227e-10,1.3969841e-09,0.024263714,3
2016752000,2016752000,0.62315243,-0.00024390606,0.0009847789,0.7820998,0.9997057,-9.313227e-10,1.3969841e-09,0.024263714,3
2016756000,2016756000,0.62315637,-0.00022508505,0.0009799331,0.7820967,0.9997057,-9.313227e-10,1.3969841e-09,0.024263714,3
2016760000,2016760000,0.62316495,-0.00020034974,0.0009662931,0.7820898,0.9997057,-9.313227e-10,1.3969841e-09,0.024263714,3
2016764000,2016764000,0.62317437,-0.00019034451,0.00095553556,0.7820823,0.9997057,-9.313227e-10,1.3969841e-09,0.024263714,3
2016768000,2016768000,0.62316924,-0.0001824888,0.0009540173,0.78208643,0.9997057,-9.313227e-10,1.3969841e-09,0.024263714,3
2016772000,2016772000,0.6231512,-0.00017812583,0.00096006476,0.78210086,0.9997057,-9.313227e-10,1.3969841e-09,0.024263714,3
2016776000,2016776000,0.6231456,-0.00018231022,0.0009545365,0.7821053,0.9997057,-9.313227e-10,1.3969841e-09,0.024263714,3
2016780000,2016780000,0.6231475,-0.00018471223,0.0009264673,0.7821038,0.9997057,-9.313227e-10,1.3969841e-09,0.024263714,3
2016788000,2016788000,0.6231294,-0.00018188971,0.0008908223,0.78211814,0.9997057,-9.313227e-10,1.3969841e-09,0.024263714,3
2016792000,2016792000,0.62311417,-0.00018555528,0.00090464856,0.7821304,0.9997057,-9.313227e-10,1.3969841e-09,0.024263714,3
2016800000,2016800000,0.62312484,-0.00017412589,0.0009336657,0.7821219,0.9997057,-9.313227e-10,1.3969841e-09,0.024263714,3
2016804000,2016804000,0.62311155,-0.00016114581,0.0009478632,0.7821323,0.9997057,-9.313227e-10,1.3969841e-09,0.024263714,3
2016808000,2016808000,0.62310964,-0.00016203751,0.00095064094,0.782134,0.9997057,-9.313227e-10,1.3969841e-09,0.024263714,3
2016816000,2016816000,0.6230975,-0.00014049502,0.00090563856,0.7821437,0.9997057,-9.313227e-10,1.3969841e-09,0.024263714,3
2016820000,2016820000,0.62309605,-0.00011253447,0.0008759191,0.7821449,0.9997057,-9.313227e-10,1.3969841e-09,0.024263714,3
2016824000,2016824000,0.6230933,-8.719653e-05,0.0008728192,0.7821471,0.9997057,-9.313227e-10,1.3969841e-09,0.024263714,3
2016828000,2016828000,0.623091,-5.3342854e-05,0.0008949413,0.7821489,0.9997057,-9.313227e-10,1.3969841e-09,0.024263714,3
2016832000,2016832000,0.62308407,-2.1035778e-05,0.00090741715,0.78215444,0.9997057,-9.313227e-10,1.3969841e-09,0.024263714,3
2016840000,2016840000,0.62308395,1.3380313e-06,0.0008802147,0.7821545,0.9997057,-9.313227e-10,1.3969841e-09,0.024263714,3
2016848000,2016848000,0.62307507,-4.7040007e-06,0.0008899813,0.7821616,0.9997057,-9.313227e-10,1.3969841e-09,0.024263714,3
2016852000,2016852000,0.62308395,5.6128038e-06,0.0009158988,0.7821545,0.9997057,-9.313227e-10,1.3969841e-09,0.024263714,3
2016856000,2016856000,0.6230887,1.4199345e-05,0.000954139,0.7821506,0.9997057,-9.313227e-10,1.3969841e-09,0.024263714,3
2016860000,2016860000,0.6230864,2.0676518e-05,0.001011091,0.7821524,0.9997057,-9.313227e-10,1.3969841e-09,0.024263714,3
2016864000,2016864000,0.6230795,1.4131793e-05,0.0010559598,0.78215796,0.9997057,-9.313227e-10,1.3969841e-09,0.024263714,3
2016872000,2016872000,0.62308764,-2.406246e-05,0.0010860082,0.7821512,0.9997057,-9.313227e-10,1.3969841e-09,0.024263714,3
2016876000,2016876000,0.6230933,-2.1473732e-05,0.0010936349,0.7821469,0.9997057,-9.313227e-10,1.3969841e-09,0.024263714,3
2016880000,2016880000,0.6231018,-2.177936e-05,0.0010933576,0.78213996,0.9997057,-9.313227e-10,1.3969841e-09,0.024263714,3
2016884000,2016884000,0.6231082,-3.267459e-05,0.0010661073,0.7821349,0.9997057,-9.313227e-10,1.3969841e-09,0.024263714,3
2016888000,2016888000,0.6231026,-3.1325948e-05,0.0010413826,0.78213954,0.9997057,-9.313227e-10,1.3969841e-09,0.024263714,3
2016892000,2016892000,0.6230952,-9.64539e-06,0.0010413214,0.78214526,0.9997057,-9.313227e-10,1.3969841e-09,0.024263714,3
2016896000,2016896000,0.6231096,4.356257e-06,0.0010419145,0.782134,0.9997057,-9.313227e-10,1.3969841e-09,0.024263714,3
2016900000,2016900000,0.62313634,2.0593598e-05,0.0010393509,0.78211254,0.9997057,-9.313227e-10,1.3969841e-09,0.024263714,3
2016904000,2016904000,0.6231528,6.3350104e-05,0.0010538136,0.78209955,0.9997057,-9.313227e-10,1.3969841e-09,0.024263714,3
2016908000,2016908000,0.6231546,9.9623685e-05,0.0010754992,0.78209805,0.9997057,-9.313227e-10,1.3969841e-09,0.024263714,3
2016912000,2016912000,0.62314385,0.00010918875,0.001068769,0.7821066,0.9997057,-9.313227e-10,1.3969841e-09,0.024263714,3
2016916000,2016916000,0.6231356,0.000120592784,0.0010558042,0.78211313,0.9997057,-9.313227e-10,1.3969841e-09,0.024263714,3
2016920000,2016920000,0.6231367,0.0001368658,0.0010634713,0.7821123,0.9997057,-9.313227e-10,1.3969841e-09,0.024263714,3
2016924000,2016924000,0.6231419,0.00014516068,0.0010645518,0.7821081,0.9997057,-9.313227e-10,1.3969841e-09,0.024263714,3
2016932000,2016932000,0.62316597,0.00014677222,0.0011052063,0.7820888,0.9997057,-9.313227e-10,1.3969841e-09,0.024263714,3
2016936000,2016936000,0.62314576,0.00014477254,0.0011172484,0.7821049,0.9997057,-9.313227e-10,1.3969841e-09,0.024263714,3
2016940000,2016940000,0.62312937,0.00013110664,0.0010949968,0.78211814,0.9997057,-9.313227e-10,1.3969841e-09,0.024263714,3
2016948000,2016948000,0.6231605,0.000111272646,0.0010437899,0.78209335,0.9997057,-9.313227e-10,1.3969841e-09,0.024263714,3
2016952000,2016952000,0.6231747,9.330748e-05,0.0010726182,0.78208196,0.9997057,-9.313227e-10,1.3969841e-09,0.024263714,3
2016956000,2016956000,0.62318814,7.394424e-05,0.0010937076,0.78207123,0.9997057,-9.313227e-10,1.3969841e-09,0.024263714,3
2016960000,2016960000,0.6232063,5.8011763e-05,0.001108032,0.78205675,0.9997057,-9.313227e-10,1.3969841e-09,0.024263714,3
2016964000,2016964000,0.623222,4.983455e-05,0.0011141357,0.78204423,0.9997057,-9.313227e-10,1.3969841e-09,0.024263714,3
2016968000,2016968000,0.62321895,4.0135525e-05,0.001103769,0.7820467,0.9997057,-9.313227e-10,1.3969841e-09,0.024263714,3
2016972000,2016972000,0.62320715,2.7936703e-05,0.0011022146,0.7820561,0.9997057,-9.313227e-10,1.3969841e-09,0.024263714,3
2016980000,2016980000,0.62320554,1.8588049e-05,0.0011470667,0.78205734,0.9997057,-9.313227e-10,1.3969841e-09,0.024263714,3
2016984000,2016984000,0.6231999,5.436552e-06,0.0011776374,0.7820618,0.9997057,-9.313227e-10,1.3969841e-09,0.024263714,3
2016988000,2016988000,0.6232042,-4.169948e-06,0.001216949,0.7820582,0.9997057,-9.313227e-10,1.3969841e-09,0.024263714,3
2016996000,2016996000,0.6232141,-2.3057853e-05,0.0012762075,0.7820503,0.9997057,-9.313227e-10,1.3969841e-09,0.024263714,3
2017004000,2017004000,0.6232361,-6.1006984e-05,0.0013030046,0.7820328,0.9997057,-9.313227e-10,1.3969841e-09,0.024263714,3
2017008000,2017008000,0.6232456,-6.628412e-05,0.0012741802,0.7820251,0.9997057,-9.313227e-10,1.3969841e-09,0.024263714,3
2017012000,2017012000,0.62323225,-6.173425e-05,0.0012593509,0.78203577,0.9997057,-9.313227e-10,1.3969841e-09,0.024263714,3
2017016000,2017016000,0.62321764,-5.777914e-05,0.0012600007,0.78204757,0.9997057,-9.313227e-10,1.3969841e-09,0.024263714,3
2017020000,2017020000,0.6232055,-6.254315e-05,0.0012505687,0.7820572,0.9997057,-9.313227e-10,1.3969841e-09,0.024263714,3
2017024000,2017024000,0.62319416,-6.419627e-05,0.001230503,0.7820662,0.9997057,-9.313227e-10,1.3969841e-09,0.024263714,3
2017028000,2017028000,0.6231941,-4.9830025e-05,0.001219451,0.7820663,0.9997057,-9.313227e-10,1.3969841e-09,0.024263714,3
2017032000,2017032000,0.62319773,-4.0617055e-05,0.0012104762,0.78206336,0.9997057,-9.313227e-10,1.3969841e-09,0.024263714,3
2017036000,2017036000,0.62319183,-4.250586e-05,0.0011858422,0.7820682,0.9997057,-9.313227e-10,1.3969841e-09,0.024263714,3
2017044000,2017044000,0.62319285,-2.2773016e-05,0.0011566811,0.7820674,0.9997057,-9.313227e-10,1.3969841e-09,0.024263714,3
2017052000,2017052000,0.62318915,-9.072899e-06,0.001167784,0.7820702,0.9997057,-9.313227e-10,1.3969841e-09,0.024263714,3
2017056000,2017056000,0.6231878,2.1451962e-05,0.0011752603,0.7820715,0.9997057,-9.313227e-10,1.3969841e-09,0.024263714,3
2017060000,2017060000,0.6231759,3.878021e-05,0.0011755568,0.7820809,0.9997057,-9.313227e-10,1.3969841e-09,0.024263714,3
2017064000,2017064000,0.6231623,3.0976138e-05,0.0011665475,0.7820917,0.9997057,-9.313227e-10,1.3969841e-09,0.024263714,3
2017068000,2017068000,0.6231604,1.1210003e-05,0.0011827198,0.7820932,0.9997057,-9.313227e-10,1.3969841e-09,0.024263714,3
2017076000,2017076000,0.62314606,-2.6646712e-05,0.0012308038,0.7821046,0.9997057,-9.313227e-10,1.3969841e-09,0.024263714,3
2017080000,2017080000,0.62313986,-4.993293e-05,0.0012348387,0.7821094,0.9997057,-9.313227e-10,1.3969841e-09,0.024263714,3
2017084000,2017084000,0.62313455,-5.652703e-05,0.0012521332,0.7821136,0.9997057,-9.313227e-10,1.3969841e-09,0.024263714,3
2017088000,2017088000,0.6231289,-4.757925e-05,0.0012829418,0.78211826,0.9997057,-9.313227e-10,1.3969841e-09,0.024263714,3
2017092000,2017092000,0.6231181,-4.6321034e-05,0.001294686,0.78212667,0.9997057,-9.313227e-10,1.3969841e-09,0.024263714,3
2017096000,2017096000,0.6231078,-6.0500977e-05,0.0012955925,0.7821349,0.9997057,-9.313227e-10,1.3969841e-09,0.024263714,3
2017100000,2017100000,0.6230999,-7.5969525e-05,0.0013145473,0.78214127,0.9997057,-9.313227e-10,1.3969841e-09,0.024263714,3
2017104000,2017104000,0.6230991,-7.0550675e-05,0.0013298076,0.78214175,0.9997057,-9.313227e-10,1.3969841e-09,0.024263714,3
2017112000,2017112000,0.62312263,-2.4990453e-05,0.0012877021,0.7821231,0.9997057,-9.313227e-10,1.3969841e-09,0.024263714,3
2017116000,2017116000,0.6231323,-2.6730842e-05,0.0012623613,0.7821156,0.9997057,-9.313227e-10,1.3969841e-09,0.024263714,3
2017120000,2017120000,0.6231318,-4.0154682e-05,0.001270193,0.78211576,0.9997057,-9.313227e-10,1.3969841e-09,0.024263714,3
2017124000,2017124000,0.62313145,-4.7837915e-05,0.0012775373,0.7821162,0.9997057,-9.313227e-10,1.3969841e-09,0.024263714,3
2017132000,2017132000,0.6231461,-6.141121e-05,0.0012629259,0.7821045,0.9997057,-9.313227e-10,1.3969841e-09,0.024263714,3
2017136000,2017136000,0.62314045,-5.6258792e-05,0.0012709976,0.78210884,0.9997057,-9.313227e-10,1.3969841e-09,0.024263714,3
2017140000,2017140000,0.6231279,-6.173617e-05,0.001275971,0.78211904,0.9997057,-9.313227e-10,1.3969841e-09,0.024263714,3
2017144000,2017144000,0.6231127,-8.6912536e-05,0.0012809931,0.78213114,0.9997057,-9.313227e-10,1.3969841e-09,0.024263714,3
2017148000,2017148000,0.62308663,-0.00010071086,0.001262665,0.78215176,0.9997057,-9.313227e-10,1.3969841e-09,0.024263714,3
2017152000,2017152000,0.6230594,-9.9428034e-05,0.0012384685,0.78217363,0.9997057,-9.313227e-10,1.3969841e-09,0.024263714,3
2017156000,2017156000,0.62305504,-9.632507e-05,0.0012413904,0.7821771,0.9997057,-9.313227e-10,1.3969841e-09,0.024263714,3
2017164000,2017164000,0.62303555,-7.991887e-05,0.0012940925,0.78219247,0.9997057,-9.313227e-10,1.3969841e-09,0.024263714,3
2017168000,2017168000,0.62304103,-6.979936e-05,0.001311759,0.7821881,0.9997057,-9.313227e-10,1.3969841e-09,0.024263714,3
2017172000,2017172000,0.62305856,-6.562472e-05,0.0013382294,0.7821741,0.9997057,-9.313227e-10,1.3969841e-09,0.024263714,3
2017176000,2017176000,0.62308526,-6.9498376e-05,0.0013520436,0.78215283,0.9997057,-9.313227e-10,1.3969841e-09,0.024263714,3
2017184000,2017184000,0.6231245,-6.9395646e-05,0.0013407641,0.7821216,0.9997057,-9.313227e-10,1.3969841e-09,0.024263714,3
2017188000,2017188000,0.6231278,-5.532622e-05,0.0013505454,0.7821189,0.9997057,-9.313227e-10,1.3969841e-09,0.024263714,3
2017192000,2017192000,0.6231294,-5.9249473e-05,0.0013787623,0.7821175,0.9997057,-9.313227e-10,1.3969841e-09,0.024263714,3
2017196000,2017196000,0.6231336,-8.480523e-05,0.0014071855,0.78211427,0.9997057,-9.313227e-10,1.3969841e-09,0.024263714,3
2017200000,2017200000,0.6231356,-0.000114719485,0.0014104658,0.7821126,0.9997057,-9.313227e-10,1.3969841e-09,0.024263714,3
2017204000,2017204000,0.6231393,-0.000135035,0.0013958806,0.78210956,0.9997057,-9.313227e-10,1.3969841e-09,0.024263714,3
2017212000,2017212000,0.6231198,-0.00016563777,0.0013758114,0.7821253,0.9997057,-9.313227e-10,1.3969841e-09,0.024263714,3
2017220000,2017220000,0.6230785,-0.0002445688,0.0013314423,0.7821582,0.9997057,-9.313227e-10,1.3969841e-09,0.024263714,3
2017224000,2017224000,0.6230715,-0.0002682816,0.0013273427,0.7821638,0.9997057,-9.313227e-10,1.3969841e-09,0.024263714,3
2017228000,2017228000,0.623069,-0.0002559272,0.0013360435,0.78216577,0.9997057,-9.313227e-10,1.3969841e-09,0.024263714,3
2017232000,2017232000,0.6230719,-0.00024340425,0.0013432504,0.78216344,0.9997057,-9.313227e-10,1.3969841e-09,0.024263714,3
2017236000,2017236000,0.6230735,-0.0002489201,0.0013457618,0.782162,0.9997057,-9.313227e-10,1.3969841e-09,0.024263714,3
2017244000,2017244000,0.62310266,-0.00028203204,0.0013547324,0.78213876,0.9997057,-9.313227e-10,1.3969841e-09,0.024263714,3
2017248000,2017248000,0.62311727,-0.00029378955,0.0013554058,0.78212726,0.9997057,-9.313227e-10,1.3969841e-09,0.024263714,3
2017252000,2017252000,0.62311846,-0.00031286682,0.0013673822,0.78212625,0.9997057,-9.313227e-10,1.3969841e-09,0.024263714,3
2017260000,2017260000,0.6231033,-0.0003517728,0.0014151391,0.7821382,0.9997057,-9.313227e-10,1.3969841e-09,0.024263714,3
2017264000,2017264000,0.62309414,-0.00035592538,0.0014261601,0.78214556,0.9997057,-9.313227e-10,1.3969841e-09,0.024263714,3
2017268000,2017268000,0.62307656,-0.00036065577,0.0014424241,0.7821594,0.9997057,-9.313227e-10,1.3969841e-09,0.024263714,3
2017272000,2017272000,0.6230631,-0.0003723017,0.001459352,0.7821701,0.9997057,-9.313227e-10,1.3969841e-09,0.024263714,3
2017280000,2017280000,0.6230499,-0.00035208117,0.0014803198,0.7821806,0.9997057,-9.313227e-10,1.3969841e-09,0.024263714,3
2017284000,2017284000,0.62307066,-0.0003361753,0.0014609426,0.78216416,0.9997057,-9.313227e-10,1.3969841e-09,0.024263714,3
2017288000,2017288000,0.6230926,-0.0003377205,0.001435043,0.78214675,0.9997057,-9.313227e-10,1.3969841e-09,0.024263714,3
2017292000,2017292000,0.623107,-0.00032515053,0.0014285572,0.78213525,0.9997057,-9.313227e-10,1.3969841e-09,0.024263714,3
2017296000,2017296000,0.6231177,-0.0002996951,0.0014322503,0.7821267,0.9997057,-9.313227e-10,1.3969841e-09,0.024263714,3
2017304000,2017304000,0.6231349,-0.0002725395,0.0014286126,0.78211313,0.9997057,-9.313227e-10,1.3969841e-09,0.024263714,3
2017308000,2017308000,0.62313175,-0.00027401518,0.0013959078,0.7821155,0.9997057,-9.313227e-10,1.3969841e-09,0.024263714,3
2017312000,2017312000,0.62312126,-0.0002830486,0.0013665204,0.7821241,0.9997057,-9.313227e-10,1.3969841e-09,0.024263714,3
2017316000,2017316000,0.62310195,-0.00029644315,0.001362415,0.7821395,0.9997057,-9.313227e-10,1.3969841e-09,0.024263714,3
2017320000,2017320000,0.62308675,-0.00030481792,0.0013842758,0.78215146,0.9997057,-9.313227e-10,1.3969841e-09,0.024263714,3
2017328000,2017328000,0.62307566,-0.00030382368,0.0013614016,0.78216046,0.9997057,-9.313227e-10,1.3969841e-09,0.024263714,3
2017336000,2017336000,0.6230774,-0.00031973157,0.001340409,0.7821591,0.9997057,-9.313227e-10,1.3969841e-09,0.024263714,3
2017344000,2017344000,0.6230663,-0.000336391,0.0013731438,0.7821678,0.9997057,-9.313227e-10,1.3969841e-09,0.024263714,3
2017348000,2017348000,0.6230554,-0.00035034303,0.0013572181,0.7821765,0.9997057,-9.313227e-10,1.3969841e-09,0.024263714,3
2017352000,2017352000,0.6230395,-0.00036418272,0.0013337292,0.78218925,0.9997057,-9.313227e-10,1.3969841e-09,0.024263714,3
2017356000,2017356000,0.6230294,-0.00037039976,0.0013198198,0.7821973,0.9997057,-9.313227e-10,1.3969841e-09,0.024263714,3
2017364000,2017364000,0.62299466,-0.0003454296,0.0012533793,0.7822251,0.9997057,-9.313227e-10,1.3969841e-09,0.024263714,3
2017368000,2017368000,0.62297314,-0.00033318397,0.0012207051,0.78224224,0.9997057,-9.313227e-10,1.3969841e-09,0.024263714,3
2017372000,2017372000,0.622967,-0.0003294102,0.0012090511,0.7822471,0.9997057,-9.313227e-10,1.3969841e-09,0.024263714,3
2017376000,2017376000,0.62298167,-0.0003216973,0.0012092069,0.78223544,0.9997057,-9.313227e-10,1.3969841e-09,0.024263714,3
2017380000,2017380000,0.62298965,-0.00031297118,0.0012072049,0.78222907,0.9997057,-9.313227e-10,1.3969841e-09,0.024263714,3
2017384000,2017384000,0.62299055,-0.0003131339,0.0012068473,0.78222835,0.9997057,-9.313227e-10,1.3969841e-09,0.024263714,3
2017388000,2017388000,0.6229935,-0.00031099937,0.001219637,0.78222597,0.9997057,-9.313227e-10,1.3969841e-09,0.024263714,3
2017396000,2017396000,0.6229804,-0.00032838236,0.0012359377,0.78223646,0.9997057,-9.313227e-10,1.3969841e-09,0.024263714,3
2017400000,2017400000,0.6229622,-0.0003291777,0.00123816,0.782251,0.9997057,-9.313227e-10,1.3969841e-09,0.024263714,3
2017408000,2017408000,0.62291944,-0.00033766925,0.0012099801,0.7822851,0.9997057,-9.313227e-10,1.3969841e-09,0.024263714,3
2017412000,2017412000,0.622912,-0.00036303818,0.0011847715,0.78229094,0.9997057,-9.313227e-10,1.3969841e-09,0.024263714,3
2017420000,2017420000,0.6229191,-0.00035986613,0.0011327942,0.7822855,0.9997057,-9.313227e-10,1.3969841e-09,0.024263714,3
2017424000,2017424000,0.62292796,-0.0003571622,0.0011436942,0.78227824,0.9997057,-9.313227e-10,1.3969841e-09,0.024263714,3
2017428000,2017428000,0.62292695,-0.00037605647,0.0011479786,0.7822792,0.9997057,-9.313227e-10,1.3969841e-09,0.024263714,3
2017432000,2017432000,0.6229317,-0.0003907582,0.0011352987,0.7822754,0.9997057,-9.313227e-10,1.3969841e-09,0.024263714,3
2017436000,2017436000,0.6229619,-0.00039124495,0.0011473437,0.78225124,0.9997057,-9.313227e-10,1.3969841e-09,0.024263714,3
2017440000,2017440000,0.6229875,-0.00039841834,0.0011783406,0.78223085,0.9997057,-9.313227e-10,1.3969841e-09,0.024263714,3
2017448000,2017448000,0.62297577,-0.00042382706,0.0012083983,0.7822402,0.9997057,-9.313227e-10,1.3969841e-09,0.024263714,3
2017452000,2017452000,0.6229797,-0.00043107517,0.0012136173,0.78223705,0.9997057,-9.313227e-10,1.3969841e-09,0.024263714,3
2017456000,2017456000,0.6229886,-0.00044338257,0.0012099203,0.78222984,0.9997057,-9.313227e-10,1.3969841e-09,0.024263714,3
2017460000,2017460000,0.6229838,-0.0004676368,0.0012014636,0.7822338,0.9997057,-9.313227e-10,1.3969841e-09,0.024263714,3
2017468000,2017468000,0.62293965,-0.0004689357,0.0011531451,0.78226906,0.9997057,-9.313227e-10,1.3969841e-09,0.024263714,3
2017472000,2017472000,0.6229398,-0.00045164835,0.0011293018,0.7822688,0.9997057,-9.313227e-10,1.3969841e-09,0.024263714,3
2017476000,2017476000,0.62296754,-0.0004442386,0.0011153197,0.7822469,0.9997057,-9.313227e-10,1.3969841e-09,0.024263714,3
2017480000,2017480000,0.6229902,-0.00044323862,0.0011078124,0.7822288,0.9997057,-9.313227e-10,1.3969841e-09,0.024263714,3
2017484000,2017484000,0.6229895,-0.0004272437,0.0011054248,0.78222924,0.9997057,-9.313227e-10,1.3969841e-09,0.024263714,3
2017488000,2017488000,0.6229763,-0.0003994076,0.0011025046,0.7822399,0.9997057,-9.313227e-10,1.3969841e-09,0.024263714,3
2017492000,2017492000,0.62296724,-0.0003721486,0.0010945898,0.7822471,0.9997057,-9.313227e-10,1.3969841e-09,0.024263714,3
2017496000,2017496000,0.62296444,-0.0003634455,0.0010864626,0.7822494,0.9997057,-9.313227e-10,1.3969841e-09,0.024263714,3
2017500000,2017500000,0.6229679,-0.00036883235,0.0010888657,0.78224665,0.9997057,-9.313227e-10,1.3969841e-09,0.024263714,3
2017504000,2017504000,0.62296796,-0.0003690427,0.00108579,0.7822465,0.9997057,-9.313227e-10,1.3969841e-09,0.024263714,3
2017508000,2017508000,0.6229606,-0.00035989922,0.0010705107,0.7822525,0.9997057,-9.313227e-10,1.3969841e-09,0.024263714,3
2017516000,2017516000,0.62296295,-0.00034298864,0.0010519163,0.7822507,0.9997057,-9.313227e-10,1.3969841e-09,0.024263714,3
2017520000,2017520000,0.6229672,-0.00033900392,0.0010318757,0.7822473,0.9997057,-9.313227e-10,1.3969841e-09,0.024263714,3
2017524000,2017524000,0.6229598,-0.00032286634,0.0010151112,0.7822532,0.9997057,-9.313227e-10,1.3969841e-09,0.024263714,3
2017528000,2017528000,0.62295485,-0.0002989214,0.0010030197,0.78225714,0.9997057,-9.313227e-10,1.3969841e-09,0.024263714,3
2017536000,2017536000,0.622985,-0.00025918064,0.0010302096,0.7822331,0.9997057,-9.313227e-10,1.3969841e-09,0.024263714,3
2017540000,2017540000,0.6229834,-0.00023916284,0.0010627754,0.7822343,0.9997057,-9.313227e-10,1.3969841e-09,0.024263714,3
2017544000,2017544000,0.6229801,-0.00022536865,0.0010900862,0.7822369,0.9997057,-9.313227e-10,1.3969841e-09,0.024263714,3
2017548000,2017548000,0.6229948,-0.00021699349,0.0011114739,0.7822252,0.9997057,-9.313227e-10,1.3969841e-09,0.024263714,3
2017552000,2017552000,0.6230067,-0.00018802799,0.0011184766,0.7822157,0.9997057,-9.313227e-10,1.3969841e-09,0.024263714,3
2017560000,2017560000,0.62300545,-0.000119862496,0.0011264826,0.78221667,0.9997057,-9.313227e-10,1.3969841e-09,0.024263714,3
2017564000,2017564000,0.6229998,-9.2847775e-05,0.0011412658,0.78222126,0.9997057,-9.313227e-10,1.3969841e-09,0.024263714,3
2017572000,2017572000,0.6229684,-4.6094323e-05,0.0011650767,0.7822462,0.9997057,-9.313227e-10,1.3969841e-09,0.024263714,3
2017576000,2017576000,0.62295806,-3.5860823e-05,0.0011741667,0.7822544,0.9997057,-9.313227e-10,1.3969841e-09,0.024263714,3
2017584000,2017584000,0.62293947,-7.711578e-05,0.0011917936,0.7822692,0.9997057,-9.313227e-10,1.3969841e-09,0.024263714,3
2017588000,2017588000,0.6229308,-9.472277e-05,0.0011890099,0.7822761,0.9997057,-9.313227e-10,1.3969841e-09,0.024263714,3
2017592000,2017592000,0.6229505,-9.791126e-05,0.0011924112,0.7822604,0.9997057,-9.313227e-10,1.3969841e-09,0.024263714,3
2017596000,2017596000,0.6229839,-9.987834e-05,0.0011982258,0.7822337,0.9997057,-9.313227e-10,1.3969841e-09,0.024263714,3
2017600000,2017600000,0.6230103,-9.548364e-05,0.0011914951,0.78221285,0.9997057,-9.313227e-10,1.3969841e-09,0.024263714,3
2017604000,2017604000,0.62303907,-9.092307e-05,0.001183267,0.7821898,0.9997057,-9.313227e-10,1.3969841e-09,0.024263714,3
2017608000,2017608000,0.62306076,-8.887882e-05,0.0011906732,0.7821725,0.9997057,-9.313227e-10,1.3969841e-09,0.024263714,3
2017612000,2017612000,0.62306124,-7.9106e-05,0.0012171471,0.7821721,0.9997057,-9.313227e-10,1.3969841e-09,0.024263714,3
2017616000,2017616000,0.6230739,-6.6848406e-05,0.0012468226,0.78216213,0.9997057,-9.313227e-10,1.3969841e-09,0.024263714,3
2017620000,2017620000,0.62310344,-6.311957e-05,0.0012444532,0.7821384,0.9997057,-9.313227e-10,1.3969841e-09,0.024263714,3
2017624000,2017624000,0.6231163,-6.775521e-05,0.001216086,0.7821282,0.9997057,-9.313227e-10,1.3969841e-09,0.024263714,3
2017632000,2017632000,0.62311155,-0.00013150244,0.0011789583,0.7821321,0.9997057,-9.313227e-10,1.3969841e-09,0.024263714,3
2017636000,2017636000,0.62312645,-0.00018670884,0.0011888348,0.7821202,0.9997057,-9.313227e-10,1.3969841e-09,0.024263714,3
2017644000,2017644000,0.6231467,-0.00023262377,0.0012014838,0.78210413,0.9997057,-9.313227e-10,1.3969841e-09,0.024263714,3
2017652000,2017652000,0.6231503,-0.0002761338,0.0011897691,0.78210115,0.9997057,-9.313227e-10,1.3969841e-09,0.024263714,3
2017656000,2017656000,0.6231514,-0.0003029519,0.0012002062,0.7821002,0.9997057,-9.313227e-10,1.3969841e-09,0.024263714,3
2017664000,2017664000,0.62316024,-0.00035595716,0.0012757302,0.78209305,0.9997057,-9.313227e-10,1.3969841e-09,0.024263714,3
2017668000,2017668000,0.6231535,-0.00035948062,0.0012914576,0.7820984,0.9997057,-9.313227e-10,1.3969841e-09,0.024263714,3
2017676000,2017676000,0.6231346,-0.00036124123,0.0012628672,0.7821136,0.9997057,-9.313227e-10,1.3969841e-09,0.024263714,3
2017680000,2017680000,0.6231365,-0.00036359578,0.0012279345,0.782112,0.9997057,-9.313227e-10,1.3969841e-09,0.024263714,3
2017684000,2017684000,0.62314314,-0.0003755865,0.0012245071,0.7821069,0.9997057,-9.313227e-10,1.3969841e-09,0.024263714,3
2017688000,2017688000,0.62314796,-0.00037194733,0.0012270175,0.7821029,0.9997057,-9.313227e-10,1.3969841e-09,0.024263714,3
2017696000,2017696000,0.6231561,-0.00032614273,0.0012163022,0.78209645,0.9997057,-9.313227e-10,1.3969841e-09,0.024263714,3
2017700000,2017700000,0.6231622,-0.0003133757,0.0012183227,0.78209174,0.9997057,-9.313227e-10,1.3969841e-09,0.024263714,3
2017704000,2017704000,0.62316567,-0.00029312598,0.0012246013,0.7820888,0.9997057,-9.313227e-10,1.3969841e-09,0.024263714,3
2017712000,2017712000,0.62318486,-0.0003147828,0.0012369512,0.7820737,0.9997057,-9.313227e-10,1.3969841e-09,0.024263714,3
2017716000,2017716000,0.6231858,-0.0003348492,0.0012310919,0.7820727,0.9997057,-9.313227e-10,1.3969841e-09,0.024263714,3
2017720000,2017720000,0.62318313,-0.0003356641,0.0012092174,0.78207505,0.9997057,-9.313227e-10,1.3969841e-09,0.024263714,3
2017724000,2017724000,0.6231858,-0.0003225332,0.0011980148,0.7820729,0.9997057,-9.313227e-10,1.3969841e-09,0.024263714,3
2017728000,2017728000,0.6231976,-0.00030747807,0.001216592,0.7820635,0.9997057,-9.313227e-10,1.3969841e-09,0.024263714,3
2017732000,2017732000,0.62320775,-0.00030757242,0.0012417956,0.7820554,0.9997057,-9.313227e-10,1.3969841e-09,0.024263714,3
2017740000,2017740000,0.62323093,-0.00030656357,0.0012714914,0.7820369,0.9997057,-9.313227e-10,1.3969841e-09,0.024263714,3
2017744000,2017744000,0.6232427,-0.00029529879,0.001269931,0.7820274,0.9997057,-9.313227e-10,1.3969841e-09,0.024263714,3
2017748000,2017748000,0.6232382,-0.00028450243,0.0012660469,0.782031,0.9997057,-9.313227e-10,1.3969841e-09,0.024263714,3
2017752000,2017752000,0.62323624,-0.000284509,0.0012537403,0.7820326,0.9997057,-9.313227e-10,1.3969841e-09,0.024263714,3
2017756000,2017756000,0.6232409,-0.00028856247,0.0012201288,0.782029,0.9997057,-9.313227e-10,1.3969841e-09,0.024263714,3
2017760000,2017760000,0.6232355,-0.00028058473,0.0011837252,0.7820333,0.9997057,-9.313227e-10,1.3969841e-09,0.024263714,3
2017768000,2017768000,0.62322396,-0.00023291995,0.0011925515,0.7820425,0.9997057,-9.313227e-10,1.3969841e-09,0.024263714,3
2017772000,2017772000,0.6232203,-0.00022697159,0.0012176698,0.7820454,0.9997057,-9.313227e-10,1.3969841e-09,0.024263714,3
2017776000,2017776000,0.6232158,-0.00022556222,0.0012259803,0.7820489,0.9997057,-9.313227e-10,1.3969841e-09,0.024263714,3
2017784000,2017784000,0.6232701,-0.00018245522,0.0012206209,0.7820056,0.9997057,-9.313227e-10,1.3969841e-09,0.024263714,3
2017788000,2017788000,0.62328434,-0.00017641268,0.0012279417,0.7819943,0.9997057,-9.313227e-10,1.3969841e-09,0.024263714,3
2017792000,2017792000,0.6232823,-0.00019800647,0.0012150905,0.781996,0.9997057,-9.313227e-10,1.3969841e-09,0.024263714,3
2017796000,2017796000,0.62329733,-0.00021217695,0.0011765446,0.7819841,0.9997057,-9.313227e-10,1.3969841e-09,0.024263714,3
2017800000,2017800000,0.62332654,-0.00020508294,0.0011441928,0.78196084,0.9997057,-9.313227e-10,1.3969841e-09,0.024263714,3
2017804000,2017804000,0.6233424,-0.00020617819,0.0011442717,0.7819482,0.9997057,-9.313227e-10,1.3969841e-09,0.024263714,3
2017812000,2017812000,0.623334,-0.00021488013,0.0011456021,0.7819549,0.9997057,-9.313227e-10,1.3969841e-09,0.024263714,3
2017816000,2017816000,0.6233081,-0.00021207791,0.0011419646,0.7819755,0.9997057,-9.313227e-10,1.3969841e-09,0.024263714,3
2017820000,2017820000,0.62329304,-0.00021387912,0.0011453865,0.7819875,0.9997057,-9.313227e-10,1.3969841e-09,0.024263714,3
2017824000,2017824000,0.6232934,-0.00022002906,0.0011502149,0.78198725,0.9997057,-9.313227e-10,1.3969841e-09,0.024263714,3
2017828000,2017828000,0.6232942,-0.000222763,0.0011516389,0.78198665,0.9997057,-9.313227e-10,1.3969841e-09,0.024263714,3
2017832000,2017832000,0.6232968,-0.0002157617,0.0011378644,0.78198457,0.9997057,-9.313227e-10,1.3969841e-09,0.024263714,3
2017836000,2017836000,0.62330776,-0.0002031827,0.0011148643,0.7819758,0.9997057,-9.313227e-10,1.3969841e-09,0.024263714,3
2017840000,2017840000,0.6233208,-0.00020117454,0.0010948437,0.78196543,0.9997057,-9.313227e-10,1.3969841e-09,0.024263714,3
2017848000,2017848000,0.6233385,-0.0001799831,0.001087447,0.7819513,0.9997057,-9.313227e-10,1.3969841e-09,0.024263714,3
2017852000,2017852000,0.6233469,-0.00018359788,0.0011005293,0.7819446,0.9997057,-9.313227e-10,1.3969841e-09,0.024263714,3
2017856000,2017856000,0.62335783,-0.00019901509,0.0011073564,0.7819359,0.9997057,-9.313227e-10,1.3969841e-09,0.024263714,3
2017864000,2017864000,0.62338257,-0.00018657511,0.0010599482,0.7819162,0.9997057,-9.313227e-10,1.3969841e-09,0.024263714,3
2017868000,2017868000,0.6233935,-0.00016658881,0.0010385577,0.78190756,0.9997057,-9.313227e-10,1.3969841e-09,0.024263714,3
2017876000,2017876000,0.623386,-0.00017048817,0.0010423848,0.7819135,0.9997057,-9.313227e-10,1.3969841e-09,0.024263714,3
2017880000,2017880000,0.6233677,-0.00019068734,0.0010517205,0.78192824,0.9997057,-9.313227e-10,1.3969841e-09,0.024263714,3
2017884000,2017884000,0.62335974,-0.00018235539,0.0010532826,0.78193444,0.9997057,-9.313227e-10,1.3969841e-09,0.024263714,3
2017892000,2017892000,0.6233663,-0.00016156379,0.0010599119,0.7819292,0.9997057,-9.313227e-10,1.3969841e-09,0.024263714,3
2017896000,2017896000,0.6233708,-0.00014610829,0.00107214,0.78192556,0.9997057,-9.313227e-10,1.3969841e-09,0.024263714,3
2017900000,2017900000,0.6233808,-0.00012342274,0.0010840464,0.78191763,0.9997057,-9.313227e-10,1.3969841e-09,0.024263714,3
2017908000,2017908000,0.6234109,-9.5518575e-05,0.0011013858,0.7818936,0.9997057,-9.313227e-10,1.3969841e-09,0.024263714,3
2017916000,2017916000,0.6234201,-7.439537e-05,0.0011153151,0.7818862,0.9997057,-9.313227e-10,1.3969841e-09,0.024263714,3
2017920000,2017920000,0.6234283,-6.310065e-05,0.0011308944,0.78187984,0.9997057,-9.313227e-10,1.3969841e-09,0.024263714,3
2017924000,2017924000,0.62345177,-3.6430476e-05,0.0011410072,0.78186095,0.9997057,-9.313227e-10,1.3969841e-09,0.024263714,3
2017928000,2017928000,0.62345743,-1.3494542e-05,0.0011643461,0.78185654,0.9997057,-9.313227e-10,1.3969841e-09,0.024263714,3
2017932000,2017932000,0.62345093,7.0504525e-06,0.0011855186,0.78186166,0.9997057,-9.313227e-10,1.3969841e-09,0.024263714,3
2017940000,2017940000,0.6234605,1.618204e-06,0.0011729818,0.78185403,0.9997057,-9.313227e-10,1.3969841e-09,0.024263714,3
2017944000,2017944000,0.6234615,-2.683582e-06,0.0011758242,0.78185326,0.9997057,-9.313227e-10,1.3969841e-09,0.024263714,3
2017948000,2017948000,0.62346995,-5.0095764e-06,0.0011845757,0.7818465,0.9997057,-9.313227e-10,1.3969841e-09,0.024263714,3
2017952000,2017952000,0.6234821,-9.66234e-06,0.0011904167,0.7818367,0.9997057,-9.313227e-10,1.3969841e-09,0.024263714,3
2017956000,2017956000,0.62348557,-1.3052473e-05,0.0011952618,0.78183395,0.9997057,-9.313227e-10,1.3969841e-09,0.024263714,3
2017960000,2017960000,0.623484,-2.2414397e-05,0.0011960262,0.7818352,0.9997057,-9.313227e-10,1.3969841e-09,0.024263714,3
2017964000,2017964000,0.6234858,-2.5930247e-05,0.0011784993,0.78183377,0.9997057,-9.313227e-10,1.3969841e-09,0.024263714,3
2017968000,2017968000,0.6234872,-1.2052164e-05,0.0011580092,0.7818327,0.9997057,-9.313227e-10,1.3969841e-09,0.024263714,3
2017972000,2017972000,0.6234856,-8.501434e-06,0.0011484833,0.78183395,0.9997057,-9.313227e-10,1.3969841e-09,0.024263714,3
2017976000,2017976000,0.6234889,-1.5527905e-05,0.0011453506,0.7818315,0.9997057,-9.313227e-10,1.3969841e-09,0.024263714,3
2017984000,2017984000,0.6234857,1.1499749e-05,0.0011581184,0.78183395,0.9997057,-9.313227e-10,1.3969841e-09,0.024263714,3
2017988000,2017988000,0.6234797,1.8348232e-05,0.0011766389,0.7818387,0.9997057,-9.313227e-10,1.3969841e-09,0.024263714,3
2017992000,2017992000,0.6234866,2.1705304e-05,0.0011822648,0.7818331,0.9997057,-9.313227e-10,1.3969841e-09,0.024263714,3
2017996000,2017996000,0.62350184,1.5340138e-05,0.0011731527,0.7818211,0.9997057,-9.313227e-10,1.3969841e-09,0.024263714,3
2018000000,2018000000,0.62351453,1.3192552e-05,0.0011838484,0.78181094,0.9997057,-9.313227e-10,1.3969841e-09,0.024263714,3
2018004000,2018004000,0.62352014,1.7043823e-05,0.0011952184,0.78180647,0.9997057,-9.313227e-10,1.3969841e-09,0.024263714,3
2018008000,2018008000,0.62350535,2.1781287e-05,0.0011922856,0.7818183,0.9997057,-9.313227e-10,1.3969841e-09,0.024263714,3
2018012000,2018012000,0.6234738,3.1030024e-05,0.0011932686,0.78184325,0.9997057,-9.313227e-10,1.3969841e-09,0.024263714,3
2018016000,2018016000,0.6234575,3.5460616e-05,0.0011898355,0.7818564,0.9997057,-9.313227e-10,1.3969841e-09,0.024263714,3
2018020000,2018020000,0.6234632,4.619945e-05,0.0011738527,0.7818519,0.9997057,-9.313227e-10,1.3969841e-09,0.024263714,3
2018024000,2018024000,0.6234656,7.764438e-05,0.0011658912,0.78184986,0.9997057,-9.313227e-10,1.3969841e-09,0.024263714,3
2018028000,2018028000,0.62345546,0.00010858567,0.0011726511,0.78185797,0.9997057,-9.313227e-10,1.3969841e-09,0.024263714,3
2018036000,2018036000,0.6234585,0.00013062818,0.0011627437,0.7818557,0.9997057,-9.313227e-10,1.3969841e-09,0.024263714,3
2018044000,2018044000,0.62350726,0.00019716226,0.0011711385,0.78181666,0.9997057,-9.313227e-10,1.3969841e-09,0.024263714,3
2018048000,2018048000,0.6235146,0.00019870995,0.0011829392,0.7818108,0.9997057,-9.313227e-10,1.3969841e-09,0.024263714,3
2018052000,2018052000,0.62350696,0.00021209319,0.0011941715,0.7818169,0.9997057,-9.313227e-10,1.3969841e-09,0.024263714,3
2018056000,2018056000,0.6234989,0.00023039596,0.0011987595,0.78182334,0.9997057,-9.313227e-10,1.3969841e-09,0.024263714,3
2018064000,2018064000,0.6235032,0.00018570895,0.0011487592,0.78182,0.9997057,-9.313227e-10,1.3969841e-09,0.024263714,3
2018068000,2018068000,0.62351215,0.00015033105,0.0011552684,0.78181285,0.9997057,-9.313227e-10,1.3969841e-09,0.024263714,3
2018072000,2018072000,0.6235186,0.0001454423,0.001190607,0.78180766,0.9997057,-9.313227e-10,1.3969841e-09,0.024263714,3
2018076000,2018076000,0.6235309,0.00016450755,0.0012218236,0.78179777,0.9997057,-9.313227e-10,1.3969841e-09,0.024263714,3
2018080000,2018080000,0.6235478,0.00016197907,0.0012259767,0.7817843,0.9997057,-9.313227e-10,1.3969841e-09,0.024263714,3
2018084000,2018084000,0.6235709,0.00014249762,0.0012123049,0.7817659,0.9997057,-9.313227e-10,1.3969841e-09,0.024263714,3
2018088000,2018088000,0.62358654,0.0001528854,0.0012027525,0.7817534,0.9997057,-9.313227e-10,1.3969841e-09,0.024263714,3
2018092000,2018092000,0.6235938,0.00016969061,0.0011935403,0.7817476,0.9997057,-9.313227e-10,1.3969841e-09,0.024263714,3
2018096000,2018096000,0.6235999,0.00016827606,0.0011879643,0.7817429,0.9997057,-9.313227e-10,1.3969841e-09,0.024263714,3
2018100000,2018100000,0.62358505,0.00017404626,0.0011828097,0.78175455,0.9997057,-9.313227e-10,1.3969841e-09,0.024263714,3
2018104000,2018104000,0.62356156,0.00017334621,0.0011746512,0.78177345,0.9997057,-9.313227e-10,1.3969841e-09,0.024263714,3
2018108000,2018108000,0.6235584,0.0001684267,0.001186871,0.78177595,0.9997057,-9.313227e-10,1.3969841e-09,0.024263714,3
2018112000,2018112000,0.6235627,0.00017696476,0.0012040213,0.7817724,0.9997057,-9.313227e-10,1.3969841e-09,0.024263714,3
2018116000,2018116000,0.62355787,0.00017024396,0.0011986049,0.78177625,0.9997057,-9.313227e-10,1.3969841e-09,0.024263714,3
2018124000,2018124000,0.6235481,0.00012159274,0.0011470469,0.7817842,0.9997057,-9.313227e-10,1.3969841e-09,0.024263714,3
2018128000,2018128000,0.62356776,0.000111336274,0.0011457914,0.7817685,0.9997057,-9.313227e-10,1.3969841e-09,0.024263714,3
2018132000,2018132000,0.6235812,0.00011645129,0.0011629408,0.78175783,0.9997057,-9.313227e-10,1.3969841e-09,0.024263714,3
2018136000,2018136000,0.62358207,0.00013504874,0.0011884271,0.78175706,0.9997057,-9.313227e-10,1.3969841e-09,0.024263714,3
2018140000,2018140000,0.6235825,0.00014100602,0.0012117326,0.7817566,0.9997057,-9.313227e-10,1.3969841e-09,0.024263714,3
2018144000,2018144000,0.6235788,0.00012953003,0.0012148835,0.7817595,0.9997057,-9.313227e-10,1.3969841e-09,0.024263714,3
2018148000,2018148000,0.6235693,0.00012174585,0.0012021507,0.7817672,0.9997057,-9.313227e-10,1.3969841e-09,0.024263714,3
2018152000,2018152000,0.6235606,0.00012619447,0.0011851111,0.78177416,0.9997057,-9.313227e-10,1.3969841e-09,0.024263714,3
2018156000,2018156000,0.62355405,0.0001395578,0.0011561897,0.78177947,0.9997057,-9.313227e-10,1.3969841e-09,0.024263714,3
2018160000,2018160000,0.6235553,0.00015373722,0.0011300168,0.78177834,0.9997057,-9.313227e-10,1.3969841e-09,0.024263714,3
2018164000,2018164000,0.62355995,0.0001724375,0.0011377069,0.78177476,0.9997057,-9.313227e-10,1.3969841e-09,0.024263714,3
2018168000,2018168000,0.6235633,0.0001975391,0.0011491502,0.7817721,0.9997057,-9.313227e-10,1.3969841e-09,0.024263714,3
2018172000,2018172000,0.6235749,0.00022298523,0.0011439592,0.78176266,0.9997057,-9.313227e-10,1.3969841e-09,0.024263714,3
2018176000,2018176000,0.6235837,0.00023088194,0.0011534712,0.7817557,0.9997057,-9.313227e-10,1.3969841e-09,0.024263714,3
2018180000,2018180000,0.62357324,0.00021508255,0.0011750887,0.7817641,0.9997057,-9.313227e-10,1.3969841e-09,0.024263714,3
2018188000,2018188000,0.62356734,0.00016923175,0.0011902008,0.78176874,0.9997057,-9.313227e-10,1.3969841e-09,0.024263714,3
2018192000,2018192000,0.62357646,0.00017393295,0.0011913996,0.78176147,0.9997057,-9.313227e-10,1.3969841e-09,0.024263714,3
2018196000,2018196000,0.62357694,0.00019655716,0.0011749043,0.78176117,0.9997057,-9.313227e-10,1.3969841e-09,0.024263714,3
2018200000,2018200000,0.6235756,0.0002058978,0.0011553997,0.7817622,0.9997057,-9.313227e-10,1.3969841e-09,0.024263714,3
2018204000,2018204000,0.6235864,0.00020818718,0.0011680801,0.7817536,0.9997057,-9.313227e-10,1.3969841e-09,0.024263714,3
2018212000,2018212000,0.62362754,0.00025809754,0.001201589,0.78172076,0.9997057,-9.313227e-10,1.3969841e-09,0.024263714,3
2018216000,2018216000,0.62361413,0.00025740216,0.0012010417,0.7817314,0.9997057,-9.313227e-10,1.3969841e-09,0.024263714,3
2018224000,2018224000,0.6236394,0.00024674382,0.0011807409,0.7817113,0.9997057,-9.313227e-10,1.3969841e-09,0.024263714,3
2018228000,2018228000,0.623656,0.00025926105,0.0011703272,0.78169805,0.9997057,-9.313227e-10,1.3969841e-09,0.024263714,3
2018236000,2018236000,0.6236733,0.00029990767,0.0011527686,0.7816842,0.9997057,-9.313227e-10,1.3969841e-09,0.024263714,3
2018244000,2018244000,0.6236765,0.00030712865,0.0011060565,0.78168184,0.9997057,-9.313227e-10,1.3969841e-09,0.024263714,3
2018252000,2018252000,0.6237033,0.00032024813,0.0010676059,0.78166044,0.9997057,-9.313227e-10,1.3969841e-09,0.024263714,3
2018256000,2018256000,0.6237036,0.00030209843,0.001047683,0.7816602,0.9997057,-9.313227e-10,1.3969841e-09,0.024263714,3
2018264000,2018264000,0.62372255,0.00030262742,0.0010207052,0.78164524,0.9997057,-9.313227e-10,1.3969841e-09,0.024263714,3
2018268000,2018268000,0.62372607,0.00032837794,0.0010284598,0.78164226,0.9997057,-9.313227e-10,1.3969841e-09,0.024263714,3
