timestamp,timestamp_sample,lat,lon,alt,alt_ellipsoid,delta_alt,delta_terrain,eph,epv,terrain_alt,lat_lon_valid,alt_valid,lat_lon_reset_counter,alt_reset_counter,terrain_reset_counter,terrain_alt_valid,dead_reckoning
2015920000,0,47.3975496,8.546708299999999,488.104,0.0,0.0,0.0,0.0,0.0,0.0,0,0,0,0,0,0,0
2015924000,0,47.3975496,8.546708299999999,488.104,0.0,0.0,0.0,0.0,0.0,0.0,0,0,0,0,0,0,0
2016020000,0,47.3975496,8.546708299999999,488.104,0.0,0.0,0.0,0.0,0.0,0.0,0,0,0,0,0,0,0
2016120000,0,47.3975496,8.546708299999999,488.104,0.0,0.0,0.0,0.0,0.0,0.0,0,0,0,0,0,0,0
2016220000,0,47.3975496,8.546708299999999,488.104,0.0,0.0,0.0,0.0,0.0,0.0,0,0,0,0,0,0,0
2016320000,0,47.3975496,8.546708299999999,488.104,0.0,0.0,0.0,0.0,0.0,0.0,0,0,0,0,0,0,0
2016420000,0,47.3975496,8.546708299999999,488.104,0.0,0.0,0.0,0.0,0.0,0.0,0,0,0,0,0,0,0
2016520000,0,47.3975496,8.546708299999999,488.104,0.0,0.0,0.0,0.0,0.0,0.0,0,0,0,0,0,0,0
2016620000,0,47.3975496,8.546708299999999,488.104,0.0,0.0,0.0,0.0,0.0,0.0,0,0,0,0,0,0,0
2016720000,0,47.3975496,8.546708299999999,488.104,0.0,0.0,0.0,0.0,0.0,0.0,0,0,0,0,0,0,0
2016820000,0,47.3975496,8.546708299999999,488.104,0.0,0.0,0.0,0.0,0.0,0.0,0,0,0,0,0,0,0
2016920000,0,47.3975496,8.546708299999999,488.104,0.0,0.0,0.0,0.0,0.0,0.0,0,0,0,0,0,0,0
2017020000,0,47.3975496,8.546708299999999,488.104,0.0,0.0,0.0,0.0,0.0,0.0,0,0,0,0,0,0,0
2017120000,0,47.3975496,8.546708299999999,488.104,0.0,0.0,0.0,0.0,0.0,0.0,0,0,0,0,0,0,0
2017220000,0,47.3975496,8.546708299999999,488.104,0.0,0.0,0.0,0.0,0.0,0.0,0,0,0,0,0,0,0
2017320000,0,47.3975496,8.546708299999999,488.104,0.0,0.0,0.0,0.0,0.0,0.0,0,0,0,0,0,0,0
2017420000,0,47.3975496,8.546708299999999,488.104,0.0,0.0,0.0,0.0,0.0,0.0,0,0,0,0,0,0,0
2017520000,0,47.3975496,8.546708299999999,488.104,0.0,0.0,0.0,0.0,0.0,0.0,0,0,0,0,0,0,0
2017620000,0,47.3975496,8.546708299999999,488.104,0.0,0.0,0.0,0.0,0.0,0.0,0,0,0,0,0,0,0
2017720000,0,47.3975496,8.546708299999999,488.104,0.0,0.0,0.0,0.0,0.0,0.0,0,0,0,0,0,0,0
2017820000,0,47.3975496,8.546708299999999,488.104,0.0,0.0,0.0,0.0,0.0,0.0,0,0,0,0,0,0,0
2017920000,0,47.3975496,8.546708299999999,488.104,0.0,0.0,0.0,0.0,0.0,0.0,0,0,0,0,0,0,0
2018020000,0,47.3975496,8.546708299999999,488.104,0.0,0.0,0.0,0.0,0.0,0.0,0,0,0,0,0,0,0
2018120000,0,47.3975496,8.546708299999999,488.104,0.0,0.0,0.0,0.0,0.0,0.0,0,0,0,0,0,0,0
2018220000,0,47.3975496,8.546708299999999,488.104,0.0,0.0,0.0,0.0,0.0,0.0,0,0,0,0,0,0,0
2018320000,0,47.3975496,8.546708299999999,488.104,0.0,0.0,0.0,0.0,0.0,0.0,0,0,0,0,0,0,0
2018420000,0,47.3975496,8.546708299999999,488.104,0.0,0.0,0.0,0.0,0.0,0.0,0,0,0,0,0,0,0
2018520000,0,47.3975496,8.546708299999999,488.104,0.0,0.0,0.0,0.0,0.0,0.0,0,0,0,0,0,0,0
2018620000,0,47.3975496,8.546708299999999,488.104,0.0,0.0,0.0,0.0,0.0,0.0,0,0,0,0,0,0,0
2018720000,0,47.3975496,8.546708299999999,488.104,0.0,0.0,0.0,0.0,0.0,0.0,0,0,0,0,0,0,0
2018820000,0,47.3975496,8.546708299999999,488.104,0.0,0.0,0.0,0.0,0.0,0.0,0,0,0,0,0,0,0
2018920000,0,47.3975496,8.546708299999999,488.104,0.0,0.0,0.0,0.0,0.0,0.0,0,0,0,0,0,0,0
2019020000,0,47.3975496,8.546708299999999,488.104,0.0,0.0,0.0,0.0,0.0,0.0,0,0,0,0,0,0,0
2019120000,0,47.3975496,8.546708299999999,488.104,0.0,0.0,0.0,0.0,0.0,0.0,0,0,0,0,0,0,0
2019220000,0,47.3975496,8.546708299999999,488.104,0.0,0.0,0.0,0.0,0.0,0.0,0,0,0,0,0,0,0
2019320000,0,47.3975496,8.546708299999999,488.104,0.0,0.0,0.0,0.0,0.0,0.0,0,0,0,0,0,0,0
2019420000,0,47.3975496,8.546708299999999,488.104,0.0,0.0,0.0,0.0,0.0,0.0,0,0,0,0,0,0,0
2019520000,0,47.3975496,8.546708299999999,488.104,0.0,0.0,0.0,0.0,0.0,0.0,0,0,0,0,0,0,0
2019620000,0,47.3975496,8.546708299999999,488.104,0.0,0.0,0.0,0.0,0.0,0.0,0,0,0,0,0,0,0
2019720000,0,47.3975496,8.546708299999999,488.104,0.0,0.0,0.0,0.0,0.0,0.0,0,0,0,0,0,0,0
2019820000,0,47.3975496,8.546708299999999,488.104,0.0,0.0,0.0,0.0,0.0,0.0,0,0,0,0,0,0,0
2019920000,0,47.3975496,8.546708299999999,488.104,0.0,0.0,0.0,0.0,0.0,0.0,0,0,0,0,0,0,0
2020020000,0,47.3975496,8.546708299999999,488.104,0.0,0.0,0.0,0.0,0.0,0.0,0,0,0,0,0,0,0
2020120000,0,47.3975496,8.546708299999999,488.104,0.0,0.0,0.0,0.0,0.0,0.0,0,0,0,0,0,0,0
2020220000,0,47.3975496,8.546708299999999,488.104,0.0,0.0,0.0,0.0,0.0,0.0,0,0,0,0,0,0,0
2020320000,0,47.3975496,8.546708299999999,488.104,0.0,0.0,0.0,0.0,0.0,0.0,0,0,0,0,0,0,0
2020420000,0,47.3975496,8.546708299999999,488.104,0.0,0.0,0.0,0.0,0.0,0.0,0,0,0,0,0,0,0
2020520000,0,47.3975496,8.546708299999999,488.104,0.0,0.0,0.0,0.0,0.0,0.0,0,0,0,0,0,0,0
2020620000,0,47.3975496,8.546708299999999,488.105,0.0,0.0,0.0,0.0,0.0,0.0,0,0,0,0,0,0,0
2020720000,0,47.3975496,8.546708299999999,488.108,0.0,0.0,0.0,0.0,0.0,0.0,0,0,0,0,0,0,0
2020820000,0,47.3975496,8.546708299999999,488.116,0.0,0.0,0.0,0.0,0.0,0.0,0,0,0,0,0,0,0
2020920000,0,47.3975497,8.5467082,488.132,0.0,0.0,0.0,0.0,0.0,0.0,0,0,0,0,0,0,0
2021020000,0,47.3975498,8.5467082,488.155,0.0,0.0,0.0,0.0,0.0,0.0,0,0,0,0,0,0,0
2021120000,0,47.3975499,8.5467082,488.19,0.0,0.0,0.0,0.0,0.0,0.0,0,0,0,0,0,0,0
2021220000,0,47.397549999999995,8.5467082,488.232,0.0,0.0,0.0,0.0,0.0,0.0,0,0,0,0,0,0,0
2021320000,0,47.3975502,8.5467081,488.282,0.0,0.0,0.0,0.0,0.0,0.0,0,0,0,0,0,0,0
2021420000,0,47.3975503,8.5467081,488.342,0.0,0.0,0.0,0.0,0.0,0.0,0,0,0,0,0,0,0
2021520000,0,47.3975505,8.546707999999999,488.41,0.0,0.0,0.0,0.0,0.0,0.0,0,0,0,0,0,0,0
2021620000,0,47.397550599999995,8.546707999999999,488.485,0.0,0.0,0.0,0.0,0.0,0.0,0,0,0,0,0,0,0
2021720000,0,47.3975507,8.5467079,488.559,0.0,0.0,0.0,0.0,0.0,0.0,0,0,0,0,0,0,0
2021820000,0,47.3975508,8.5467079,488.63,0.0,0.0,0.0,0.0,0.0,0.0,0,0,0,0,0,0,0
2021920000,0,47.3975509,8.5467078,488.706,0.0,0.0,0.0,0.0,0.0,0.0,0,0,0,0,0,0,0
2022020000,0,47.397551,8.5467078,488.785,0.0,0.0,0.0,0.0,0.0,0.0,0,0,0,0,0,0,0
2022120000,0,47.3975511,8.5467078,488.862,0.0,0.0,0.0,0.0,0.0,0.0,0,0,0,0,0,0,0
2022220000,0,47.3975511,8.5467078,488.937,0.0,0.0,0.0,0.0,0.0,0.0,0,0,0,0,0,0,0
2022320000,0,47.3975511,8.546707699999999,489.019,0.0,0.0,0.0,0.0,0.0,0.0,0,0,0,0,0,0,0
2022420000,0,47.3975511,8.546707699999999,489.095,0.0,0.0,0.0,0.0,0.0,0.0,0,0,0,0,0,0,0
2022520000,0,47.3975511,8.546707699999999,489.178,0.0,0.0,0.0,0.0,0.0,0.0,0,0,0,0,0,0,0
2022620000,0,47.3975511,8.546707699999999,489.257,0.0,0.0,0.0,0.0,0.0,0.0,0,0,0,0,0,0,0
2022720000,0,47.397551,8.546707699999999,489.336,0.0,0.0,0.0,0.0,0.0,0.0,0,0,0,0,0,0,0
2022820000,0,47.397551,8.5467078,489.412,0.0,0.0,0.0,0.0,0.0,0.0,0,0,0,0,0,0,0
2022920000,0,47.3975509,8.5467078,489.49,0.0,0.0,0.0,0.0,0.0,0.0,0,0,0,0,0,0,0
2023020000,0,47.3975508,8.5467078,489.569,0.0,0.0,0.0,0.0,0.0,0.0,0,0,0,0,0,0,0
2023120000,0,47.3975508,8.5467078,489.642,0.0,0.0,0.0,0.0,0.0,0.0,0,0,0,0,0,0,0
2023220000,0,47.3975507,8.5467079,489.72,0.0,0.0,0.0,0.0,0.0,0.0,0,0,0,0,0,0,0
2023320000,0,47.397550599999995,8.5467079,489.794,0.0,0.0,0.0,0.0,0.0,0.0,0,0,0,0,0,0,0
2023420000,0,47.3975505,8.5467079,489.864,0.0,0.0,0.0,0.0,0.0,0.0,0,0,0,0,0,0,0
2023520000,0,47.3975504,8.5467079,489.939,0.0,0.0,0.0,0.0,0.0,0.0,0,0,0,0,0,0,0
2023620000,0,47.3975503,8.546707999999999,490.005,0.0,0.0,0.0,0.0,0.0,0.0,0,0,0,0,0,0,0
2023720000,0,47.3975501,8.546707999999999,490.076,0.0,0.0,0.0,0.0,0.0,0.0,0,0,0,0,0,0,0
2023820000,0,47.397549999999995,8.546707999999999,490.14,0.0,0.0,0.0,0.0,0.0,0.0,0,0,0,0,0,0,0
2023920000,0,47.3975499,8.546707999999999,490.207,0.0,0.0,0.0,0.0,0.0,0.0,0,0,0,0,0,0,0
2024020000,0,47.3975498,8.5467081,490.269,0.0,0.0,0.0,0.0,0.0,0.0,0,0,0,0,0,0,0
2024120000,0,47.3975497,8.5467081,490.33,0.0,0.0,0.0,0.0,0.0,0.0,0,0,0,0,0,0,0
2024220000,0,47.3975497,8.5467081,490.386,0.0,0.0,0.0,0.0,0.0,0.0,0,0,0,0,0,0,0
2024320000,0,47.3975496,8.5467081,490.441,0.0,0.0,0.0,0.0,0.0,0.0,0,0,0,0,0,0,0
2024420000,0,47.3975495,8.5467081,490.485,0.0,0.0,0.0,0.0,0.0,0.0,0,0,0,0,0,0,0
2024520000,0,47.397549399999996,8.5467081,490.515,0.0,0.0,0.0,0.0,0.0,0.0,0,0,0,0,0,0,0
2024620000,0,47.397549299999994,8.5467081,490.536,0.0,0.0,0.0,0.0,0.0,0.0,0,0,0,0,0,0,0
2024720000,0,47.397549299999994,8.5467081,490.554,0.0,0.0,0.0,0.0,0.0,0.0,0,0,0,0,0,0,0
2024820000,0,47.3975492,8.5467081,490.57,0.0,0.0,0.0,0.0,0.0,0.0,0,0,0,0,0,0,0
2024920000,0,47.3975491,8.5467081,490.59,0.0,0.0,0.0,0.0,0.0,0.0,0,0,0,0,0,0,0
2025020000,0,47.3975491,8.5467081,490.612,0.0,0.0,0.0,0.0,0.0,0.0,0,0,0,0,0,0,0
2025120000,0,47.397549,8.5467081,490.634,0.0,0.0,0.0,0.0,0.0,0.0,0,0,0,0,0,0,0
2025220000,0,47.397549,8.546707999999999,490.656,0.0,0.0,0.0,0.0,0.0,0.0,0,0,0,0,0,0,0
2025320000,0,47.397549,8.546707999999999,490.677,0.0,0.0,0.0,0.0,0.0,0.0,0,0,0,0,0,0,0
2025420000,0,47.3975489,8.546707999999999,490.696,0.0,0.0,0.0,0.0,0.0,0.0,0,0,0,0,0,0,0
2025520000,0,47.3975489,8.546707999999999,490.714,0.0,0.0,0.0,0.0,0.0,0.0,0,0,0,0,0,0,0
2025620000,0,47.3975489,8.5467079,490.733,0.0,0.0,0.0,0.0,0.0,0.0,0,0,0,0,0,0,0
2025720000,0,47.3975489,8.5467079,490.75,0.0,0.0,0.0,0.0,0.0,0.0,0,0,0,0,0,0,0
2025820000,0,47.397548799999996,8.5467079,490.766,0.0,0.0,0.0,0.0,0.0,0.0,0,0,0,0,0,0,0
2025920000,0,47.397548799999996,8.5467079,490.781,0.0,0.0,0.0,0.0,0.0,0.0,0,0,0,0,0,0,0
2026020000,0,47.397548799999996,8.5467079,490.796,0.0,0.0,0.0,0.0,0.0,0.0,0,0,0,0,0,0,0
2026120000,0,47.397548799999996,8.5467078,490.81,0.0,0.0,0.0,0.0,0.0,0.0,0,0,0,0,0,0,0
2026220000,0,47.397548799999996,8.5467078,490.823,0.0,0.0,0.0,0.0,0.0,0.0,0,0,0,0,0,0,0
2026320000,0,47.397548799999996,8.5467078,490.835,0.0,0.0,0.0,0.0,0.0,0.0,0,0,0,0,0,0,0
2026420000,0,47.397548799999996,8.5467078,490.847,0.0,0.0,0.0,0.0,0.0,0.0,0,0,0,0,0,0,0
2026520000,0,47.397548799999996,8.5467078,490.858,0.0,0.0,0.0,0.0,0.0,0.0,0,0,0,0,0,0,0
2026620000,0,47.397548799999996,8.5467079,490.868,0.0,0.0,0.0,0.0,0.0,0.0,0,0,0,0,0,0,0
2026720000,0,47.397548799999996,8.5467079,490.878,0.0,0.0,0.0,0.0,0.0,0.0,0,0,0,0,0,0,0
2026820000,0,47.397548799999996,8.5467079,490.887,0.0,0.0,0.0,0.0,0.0,0.0,0,0,0,0,0,0,0
2026920000,0,47.397548799999996,8.5467079,490.895,0.0,0.0,0.0,0.0,0.0,0.0,0,0,0,0,0,0,0
2027020000,0,47.397548799999996,8.5467079,490.903,0.0,0.0,0.0,0.0,0.0,0.0,0,0,0,0,0,0,0
2027120000,0,47.397548799999996,8.5467079,490.911,0.0,0.0,0.0,0.0,0.0,0.0,0,0,0,0,0,0,0
2027220000,0,47.397548799999996,8.5467079,490.918,0.0,0.0,0.0,0.0,0.0,0.0,0,0,0,0,0,0,0
2027320000,0,47.397548799999996,8.5467079,490.924,0.0,0.0,0.0,0.0,0.0,0.0,0,0,0,0,0,0,0
2027420000,0,47.397548799999996,8.5467079,490.931,0.0,0.0,0.0,0.0,0.0,0.0,0,0,0,0,0,0,0
2027520000,0,47.397548799999996,8.5467079,490.937,0.0,0.0,0.0,0.0,0.0,0.0,0,0,0,0,0,0,0
2027620000,0,47.3975489,8.5467079,490.943,0.0,0.0,0.0,0.0,0.0,0.0,0,0,0,0,0,0,0
2027720000,0,47.3975489,8.5467079,490.949,0.0,0.0,0.0,0.0,0.0,0.0,0,0,0,0,0,0,0
2027820000,0,47.3975489,8.546707999999999,490.954,0.0,0.0,0.0,0.0,0.0,0.0,0,0,0,0,0,0,0
2027920000,0,47.3975489,8.546707999999999,490.959,0.0,0.0,0.0,0.0,0.0,0.0,0,0,0,0,0,0,0
2028020000,0,47.3975489,8.546707999999999,490.964,0.0,0.0,0.0,0.0,0.0,0.0,0,0,0,0,0,0,0
2028120000,0,47.3975489,8.546707999999999,490.968,0.0,0.0,0.0,0.0,0.0,0.0,0,0,0,0,0,0,0
2028220000,0,47.3975489,8.546707999999999,490.972,0.0,0.0,0.0,0.0,0.0,0.0,0,0,0,0,0,0,0
2028320000,0,47.3975489,8.546707999999999,490.975,0.0,0.0,0.0,0.0,0.0,0.0,0,0,0,0,0,0,0
2028420000,0,47.3975489,8.546707999999999,490.979,0.0,0.0,0.0,0.0,0.0,0.0,0,0,0,0,0,0,0
2028520000,0,47.3975489,8.546707999999999,490.982,0.0,0.0,0.0,0.0,0.0,0.0,0,0,0,0,0,0,0
2028620000,0,47.3975489,8.5467081,490.985,0.0,0.0,0.0,0.0,0.0,0.0,0,0,0,0,0,0,0
2028720000,0,47.3975489,8.5467081,490.988,0.0,0.0,0.0,0.0,0.0,0.0,0,0,0,0,0,0,0
2028820000,0,47.3975489,8.5467081,490.991,0.0,0.0,0.0,0.0,0.0,0.0,0,0,0,0,0,0,0
2028920000,0,47.3975489,8.5467081,490.994,0.0,0.0,0.0,0.0,0.0,0.0,0,0,0,0,0,0,0
2029020000,0,47.3975489,8.5467081,490.996,0.0,0.0,0.0,0.0,0.0,0.0,0,0,0,0,0,0,0
2029120000,0,47.3975489,8.5467082,490.998,0.0,0.0,0.0,0.0,0.0,0.0,0,0,0,0,0,0,0
2029220000,0,47.397549,8.5467082,491.0,0.0,0.0,0.0,0.0,0.0,0.0,0,0,0,0,0,0,0
2029320000,0,47.397549,8.5467082,491.001,0.0,0.0,0.0,0.0,0.0,0.0,0,0,0,0,0,0,0
2029420000,0,47.397549,8.5467082,491.003,0.0,0.0,0.0,0.0,0.0,0.0,0,0,0,0,0,0,0
2029520000,0,47.397549,8.5467082,491.004,0.0,0.0,0.0,0.0,0.0,0.0,0,0,0,0,0,0,0
2029620000,0,47.397549,8.5467082,491.006,0.0,0.0,0.0,0.0,0.0,0.0,0,0,0,0,0,0,0
2029720000,0,47.397549,8.5467082,491.008,0.0,0.0,0.0,0.0,0.0,0.0,0,0,0,0,0,0,0
2029820000,0,47.3975491,8.5467082,491.01,0.0,0.0,0.0,0.0,0.0,0.0,0,0,0,0,0,0,0
2029920000,0,47.3975492,8.5467081,491.014,0.0,0.0,0.0,0.0,0.0,0.0,0,0,0,0,0,0,0
2030020000,0,47.3975495,8.5467079,491.019,0.0,0.0,0.0,0.0,0.0,0.0,0,0,0,0,0,0,0
2030120000,0,47.397549999999995,8.546707699999999,491.026,0.0,0.0,0.0,0.0,0.0,0.0,0,0,0,0,0,0,0
2030220000,0,47.397550599999995,8.5467075,491.034,0.0,0.0,0.0,0.0,0.0,0.0,0,0,0,0,0,0,0
2030320000,0,47.3975514,8.5467072,491.042,0.0,0.0,0.0,0.0,0.0,0.0,0,0,0,0,0,0,0
2030420000,0,47.397552499999996,8.5467069,491.05,0.0,0.0,0.0,0.0,0.0,0.0,0,0,0,0,0,0,0
2030520000,0,47.3975539,8.546706499999999,491.056,0.0,0.0,0.0,0.0,0.0,0.0,0,0,0,0,0,0,0
2030620000,0,47.397555499999996,8.546706,491.06,0.0,0.0,0.0,0.0,0.0,0.0,0,0,0,0,0,0,0
2030720000,0,47.3975574,8.5467055,491.063,0.0,0.0,0.0,0.0,0.0,0.0,0,0,0,0,0,0,0
2030820000,0,47.3975595,8.5467049,491.065,0.0,0.0,0.0,0.0,0.0,0.0,0,0,0,0,0,0,0
2030920000,0,47.3975619,8.5467043,491.066,0.0,0.0,0.0,0.0,0.0,0.0,0,0,0,0,0,0,0
2031020000,0,47.397564599999995,8.546703599999999,491.066,0.0,0.0,0.0,0.0,0.0,0.0,0,0,0,0,0,0,0
2031120000,0,47.3975675,8.5467029,491.067,0.0,0.0,0.0,0.0,0.0,0.0,0,0,0,0,0,0,0
2031220000,0,47.3975704,8.5467022,491.067,0.0,0.0,0.0,0.0,0.0,0.0,0,0,0,0,0,0,0
2031320000,0,47.3975739,8.5467014,491.066,0.0,0.0,0.0,0.0,0.0,0.0,0,0,0,0,0,0,0
2031420000,0,47.397577399999996,8.5467006,491.065,0.0,0.0,0.0,0.0,0.0,0.0,0,0,0,0,0,0,0
2031520000,0,47.3975812,8.546699799999999,491.063,0.0,0.0,0.0,0.0,0.0,0.0,0,0,0,0,0,0,0
2031620000,0,47.3975849,8.546699,491.059,0.0,0.0,0.0,0.0,0.0,0.0,0,0,0,0,0,0,0
2031720000,0,47.3975891,8.5466981,491.053,0.0,0.0,0.0,0.0,0.0,0.0,0,0,0,0,0,0,0
2031820000,0,47.3975933,8.546697199999999,491.048,0.0,0.0,0.0,0.0,0.0,0.0,0,0,0,0,0,0,0
2031920000,0,47.3975976,8.546696299999999,491.042,0.0,0.0,0.0,0.0,0.0,0.0,0,0,0,0,0,0,0
2032020000,0,47.3976018,8.5466955,491.036,0.0,0.0,0.0,0.0,0.0,0.0,0,0,0,0,0,0,0
2032120000,0,47.3976063,8.5466946,491.03,0.0,0.0,0.0,0.0,0.0,0.0,0,0,0,0,0,0,0
2032220000,0,47.3976107,8.546693699999999,491.025,0.0,0.0,0.0,0.0,0.0,0.0,0,0,0,0,0,0,0
2032320000,0,47.397615099999996,8.5466929,491.021,0.0,0.0,0.0,0.0,0.0,0.0,0,0,0,0,0,0,0
2032420000,0,47.397619299999995,8.5466921,491.018,0.0,0.0,0.0,0.0,0.0,0.0,0,0,0,0,0,0,0
2032520000,0,47.397623599999996,8.5466914,491.016,0.0,0.0,0.0,0.0,0.0,0.0,0,0,0,0,0,0,0
2032620000,0,47.397627799999995,8.5466907,491.016,0.0,0.0,0.0,0.0,0.0,0.0,0,0,0,0,0,0,0
2032720000,0,47.3976322,8.5466901,491.015,0.0,0.0,0.0,0.0,0.0,0.0,0,0,0,0,0,0,0
2032820000,0,47.397636299999995,8.5466895,491.016,0.0,0.0,0.0,0.0,0.0,0.0,0,0,0,0,0,0,0
2032920000,0,47.3976404,8.5466889,491.016,0.0,0.0,0.0,0.0,0.0,0.0,0,0,0,0,0,0,0
2033020000,0,47.397644799999995,8.5466883,491.017,0.0,0.0,0.0,0.0,0.0,0.0,0,0,0,0,0,0,0
2033120000,0,47.3976489,8.546687799999999,491.018,0.0,0.0,0.0,0.0,0.0,0.0,0,0,0,0,0,0,0
2033220000,0,47.3976529,8.5466873,491.02,0.0,0.0,0.0,0.0,0.0,0.0,0,0,0,0,0,0,0
2033320000,0,47.3976572,8.5466868,491.022,0.0,0.0,0.0,0.0,0.0,0.0,0,0,0,0,0,0,0
2033420000,0,47.397661199999995,8.5466863,491.024,0.0,0.0,0.0,0.0,0.0,0.0,0,0,0,0,0,0,0
2033520000,0,47.397665499999995,8.546685799999999,491.026,0.0,0.0,0.0,0.0,0.0,0.0,0,0,0,0,0,0,0
2033620000,0,47.397669699999994,8.5466853,491.028,0.0,0.0,0.0,0.0,0.0,0.0,0,0,0,0,0,0,0
2033720000,0,47.3976738,8.5466848,491.03,0.0,0.0,0.0,0.0,0.0,0.0,0,0,0,0,0,0,0
2033820000,0,47.3976778,8.546684299999999,491.032,0.0,0.0,0.0,0.0,0.0,0.0,0,0,0,0,0,0,0
2033920000,0,47.3976821,8.5466838,491.035,0.0,0.0,0.0,0.0,0.0,0.0,0,0,0,0,0,0,0
2034020000,0,47.3976861,8.5466833,491.037,0.0,0.0,0.0,0.0,0.0,0.0,0,0,0,0,0,0,0
2034120000,0,47.397690399999995,8.5466827,491.04,0.0,0.0,0.0,0.0,0.0,0.0,0,0,0,0,0,0,0
2034220000,0,47.3976946,8.5466822,491.042,0.0,0.0,0.0,0.0,0.0,0.0,0,0,0,0,0,0,0
2034320000,0,47.3976986,8.5466816,491.044,0.0,0.0,0.0,0.0,0.0,0.0,0,0,0,0,0,0,0
2034420000,0,47.3977028,8.546681,491.046,0.0,0.0,0.0,0.0,0.0,0.0,0,0,0,0,0,0,0
2034520000,0,47.3977072,8.5466804,491.048,0.0,0.0,0.0,0.0,0.0,0.0,0,0,0,0,0,0,0
2034620000,0,47.3977114,8.5466798,491.05,0.0,0.0,0.0,0.0,0.0,0.0,0,0,0,0,0,0,0
2034720000,0,47.3977155,8.5466791,491.051,0.0,0.0,0.0,0.0,0.0,0.0,0,0,0,0,0,0,0
2034820000,0,47.397719699999996,8.546678499999999,491.053,0.0,0.0,0.0,0.0,0.0,0.0,0,0,0,0,0,0,0
2034920000,0,47.397723899999995,8.5466778,491.054,0.0,0.0,0.0,0.0,0.0,0.0,0,0,0,0,0,0,0
2035020000,0,47.3977283,8.546676999999999,491.056,0.0,0.0,0.0,0.0,0.0,0.0,0,0,0,0,0,0,0
2035120000,0,47.3977325,8.5466763,491.057,0.0,0.0,0.0,0.0,0.0,0.0,0,0,0,0,0,0,0
2035220000,0,47.3977368,8.5466755,491.059,0.0,0.0,0.0,0.0,0.0,0.0,0,0,0,0,0,0,0
2035320000,0,47.397740999999996,8.546674699999999,491.061,0.0,0.0,0.0,0.0,0.0,0.0,0,0,0,0,0,0,0
2035420000,0,47.397745199999996,8.5466739,491.062,0.0,0.0,0.0,0.0,0.0,0.0,0,0,0,0,0,0,0
2035520000,0,47.397749499999996,8.5466731,491.064,0.0,0.0,0.0,0.0,0.0,0.0,0,0,0,0,0,0,0
2035620000,0,47.3977535,8.5466724,491.065,0.0,0.0,0.0,0.0,0.0,0.0,0,0,0,0,0,0,0
2035720000,0,47.397757899999995,8.5466715,491.066,0.0,0.0,0.0,0.0,0.0,0.0,0,0,0,0,0,0,0
2035820000,0,47.3977621,8.5466707,491.067,0.0,0.0,0.0,0.0,0.0,0.0,0,0,0,0,0,0,0
2035920000,0,47.397766399999995,8.5466698,491.068,0.0,0.0,0.0,0.0,0.0,0.0,0,0,0,0,0,0,0
2036020000,0,47.3977706,8.546669,491.069,0.0,0.0,0.0,0.0,0.0,0.0,0,0,0,0,0,0,0
2036120000,0,47.3977748,8.5466681,491.07,0.0,0.0,0.0,0.0,0.0,0.0,0,0,0,0,0,0,0
2036220000,0,47.3977789,8.5466673,491.071,0.0,0.0,0.0,0.0,0.0,0.0,0,0,0,0,0,0,0
2036320000,0,47.3977833,8.5466664,491.072,0.0,0.0,0.0,0.0,0.0,0.0,0,0,0,0,0,0,0
2036420000,0,47.3977873,8.546665599999999,491.072,0.0,0.0,0.0,0.0,0.0,0.0,0,0,0,0,0,0,0
2036520000,0,47.3977917,8.5466646,491.073,0.0,0.0,0.0,0.0,0.0,0.0,0,0,0,0,0,0,0
2036620000,0,47.3977959,8.5466638,491.074,0.0,0.0,0.0,0.0,0.0,0.0,0,0,0,0,0,0,0
2036720000,0,47.3978001,8.5466629,491.074,0.0,0.0,0.0,0.0,0.0,0.0,0,0,0,0,0,0,0
2036820000,0,47.397804199999996,8.546662,491.075,0.0,0.0,0.0,0.0,0.0,0.0,0,0,0,0,0,0,0
2036920000,0,47.397808399999995,8.5466611,491.075,0.0,0.0,0.0,0.0,0.0,0.0,0,0,0,0,0,0,0
2037020000,0,47.3978128,8.5466602,491.075,0.0,0.0,0.0,0.0,0.0,0.0,0,0,0,0,0,0,0
2037120000,0,47.3978171,8.5466593,491.075,0.0,0.0,0.0,0.0,0.0,0.0,0,0,0,0,0,0,0
2037220000,0,47.3978213,8.5466584,491.074,0.0,0.0,0.0,0.0,0.0,0.0,0,0,0,0,0,0,0
2037320000,0,47.397825499999996,8.5466575,491.074,0.0,0.0,0.0,0.0,0.0,0.0,0,0,0,0,0,0,0
2037420000,0,47.397829599999994,8.5466567,491.073,0.0,0.0,0.0,0.0,0.0,0.0,0,0,0,0,0,0,0
2037520000,0,47.397833999999996,8.5466558,491.072,0.0,0.0,0.0,0.0,0.0,0.0,0,0,0,0,0,0,0
2037620000,0,47.3978381,8.5466549,491.071,0.0,0.0,0.0,0.0,0.0,0.0,0,0,0,0,0,0,0
2037720000,0,47.3978423,8.5466541,491.07,0.0,0.0,0.0,0.0,0.0,0.0,0,0,0,0,0,0,0
2037820000,0,47.397846699999995,8.5466532,491.069,0.0,0.0,0.0,0.0,0.0,0.0,0,0,0,0,0,0,0
2037920000,0,47.397850999999996,8.5466523,491.068,0.0,0.0,0.0,0.0,0.0,0.0,0,0,0,0,0,0,0
2038020000,0,47.3978551,8.5466515,491.066,0.0,0.0,0.0,0.0,0.0,0.0,0,0,0,0,0,0,0
2038120000,0,47.397859499999996,8.5466506,491.064,0.0,0.0,0.0,0.0,0.0,0.0,0,0,0,0,0,0,0
2038220000,0,47.397863799999996,8.5466497,491.063,0.0,0.0,0.0,0.0,0.0,0.0,0,0,0,0,0,0,0
2038320000,0,47.3978681,8.5466489,491.061,0.0,0.0,0.0,0.0,0.0,0.0,0,0,0,0,0,0,0
2038420000,0,47.3978724,8.546648,491.06,0.0,0.0,0.0,0.0,0.0,0.0,0,0,0,0,0,0,0
2038520000,0,47.397876499999995,8.546647199999999,491.059,0.0,0.0,0.0,0.0,0.0,0.0,0,0,0,0,0,0,0
2038620000,0,47.397881,8.5466464,491.058,0.0,0.0,0.0,0.0,0.0,0.0,0,0,0,0,0,0,0
2038716000,0,47.397885099999996,8.5466456,491.057,0.0,0.0,0.0,0.0,0.0,0.0,0,0,0,0,0,0,0
2038820000,0,47.3978895,8.5466447,491.056,0.0,0.0,0.0,0.0,0.0,0.0,0,0,0,0,0,0,0
2038920000,0,47.3978938,8.5466439,491.055,0.0,0.0,0.0,0.0,0.0,0.0,0,0,0,0,0,0,0
2039020000,0,47.3978981,8.546643099999999,491.054,0.0,0.0,0.0,0.0,0.0,0.0,0,0,0,0,0,0,0
2039120000,0,47.397902599999995,8.546642199999999,491.053,0.0,0.0,0.0,0.0,0.0,0.0,0,0,0,0,0,0,0
2039220000,0,47.3979068,8.5466414,491.052,0.0,0.0,0.0,0.0,0.0,0.0,0,0,0,0,0,0,0
2039320000,0,47.397911099999995,8.5466406,491.052,0.0,0.0,0.0,0.0,0.0,0.0,0,0,0,0,0,0,0
2039420000,0,47.3979157,8.5466398,491.051,0.0,0.0,0.0,0.0,0.0,0.0,0,0,0,0,0,0,0
2039520000,0,47.39792,8.5466389,491.049,0.0,0.0,0.0,0.0,0.0,0.0,0,0,0,0,0,0,0
2039620000,0,47.3979244,8.5466381,491.048,0.0,0.0,0.0,0.0,0.0,0.0,0,0,0,0,0,0,0
2039720000,0,47.397928799999995,8.5466373,491.047,0.0,0.0,0.0,0.0,0.0,0.0,0,0,0,0,0,0,0
2039820000,0,47.3979329,8.5466365,491.046,0.0,0.0,0.0,0.0,0.0,0.0,0,0,0,0,0,0,0
2039920000,0,47.3979375,8.5466356,491.045,0.0,0.0,0.0,0.0,0.0,0.0,0,0,0,0,0,0,0
2040020000,0,47.3979419,8.5466348,491.044,0.0,0.0,0.0,0.0,0.0,0.0,0,0,0,0,0,0,0
2040120000,0,47.3979462,8.5466339,491.042,0.0,0.0,0.0,0.0,0.0,0.0,0,0,0,0,0,0,0
2040220000,0,47.397950599999994,8.5466331,491.041,0.0,0.0,0.0,0.0,0.0,0.0,0,0,0,0,0,0,0
2040320000,0,47.397954999999996,8.546632299999999,491.039,0.0,0.0,0.0,0.0,0.0,0.0,0,0,0,0,0,0,0
2040420000,0,47.3979594,8.5466315,491.037,0.0,0.0,0.0,0.0,0.0,0.0,0,0,0,0,0,0,0
2040520000,0,47.3979638,8.5466306,491.036,0.0,0.0,0.0,0.0,0.0,0.0,0,0,0,0,0,0,0
2040620000,0,47.3979681,8.5466298,491.034,0.0,0.0,0.0,0.0,0.0,0.0,0,0,0,0,0,0,0
2040720000,0,47.3979723,8.546629,491.033,0.0,0.0,0.0,0.0,0.0,0.0,0,0,0,0,0,0,0
2040820000,0,47.3979767,8.5466281,491.032,0.0,0.0,0.0,0.0,0.0,0.0,0,0,0,0,0,0,0
2040920000,0,47.3979813,8.546627299999999,491.03,0.0,0.0,0.0,0.0,0.0,0.0,0,0,0,0,0,0,0
2041020000,0,47.3979857,8.5466264,491.029,0.0,0.0,0.0,0.0,0.0,0.0,0,0,0,0,0,0,0
2041120000,0,47.3979899,8.5466256,491.027,0.0,0.0,0.0,0.0,0.0,0.0,0,0,0,0,0,0,0
2041220000,0,47.397994499999996,8.546624699999999,491.026,0.0,0.0,0.0,0.0,0.0,0.0,0,0,0,0,0,0,0
2041320000,0,47.3979989,8.5466239,491.024,0.0,0.0,0.0,0.0,0.0,0.0,0,0,0,0,0,0,0
2041420000,0,47.3980031,8.5466231,491.023,0.0,0.0,0.0,0.0,0.0,0.0,0,0,0,0,0,0,0
2041520000,0,47.3980077,8.5466222,491.022,0.0,0.0,0.0,0.0,0.0,0.0,0,0,0,0,0,0,0
2041620000,0,47.398012099999995,8.5466213,491.021,0.0,0.0,0.0,0.0,0.0,0.0,0,0,0,0,0,0,0
2041720000,0,47.398016299999995,8.5466205,491.02,0.0,0.0,0.0,0.0,0.0,0.0,0,0,0,0,0,0,0
2041820000,0,47.3980209,8.5466196,491.019,0.0,0.0,0.0,0.0,0.0,0.0,0,0,0,0,0,0,0
2041920000,0,47.3980252,8.5466188,491.018,0.0,0.0,0.0,0.0,0.0,0.0,0,0,0,0,0,0,0
2042020000,0,47.398029799999996,8.546618,491.018,0.0,0.0,0.0,0.0,0.0,0.0,0,0,0,0,0,0,0
2042120000,0,47.3980342,8.546617099999999,491.017,0.0,0.0,0.0,0.0,0.0,0.0,0,0,0,0,0,0,0
2042220000,0,47.3980384,8.5466163,491.016,0.0,0.0,0.0,0.0,0.0,0.0,0,0,0,0,0,0,0
2042320000,0,47.398043,8.5466154,491.015,0.0,0.0,0.0,0.0,0.0,0.0,0,0,0,0,0,0,0
2042420000,0,47.3980475,8.5466146,491.014,0.0,0.0,0.0,0.0,0.0,0.0,0,0,0,0,0,0,0
2042520000,0,47.3980519,8.5466137,491.013,0.0,0.0,0.0,0.0,0.0,0.0,0,0,0,0,0,0,0
2042620000,0,47.3980562,8.5466129,491.013,0.0,0.0,0.0,0.0,0.0,0.0,0,0,0,0,0,0,0
2042720000,0,47.3980606,8.546612099999999,491.012,0.0,0.0,0.0,0.0,0.0,0.0,0,0,0,0,0,0,0
2042820000,0,47.398064999999995,8.5466113,491.011,0.0,0.0,0.0,0.0,0.0,0.0,0,0,0,0,0,0,0
2042920000,0,47.3980697,8.5466104,491.011,0.0,0.0,0.0,0.0,0.0,0.0,0,0,0,0,0,0,0
2043020000,0,47.398074099999995,8.5466096,491.01,0.0,0.0,0.0,0.0,0.0,0.0,0,0,0,0,0,0,0
2043120000,0,47.3980786,8.5466087,491.009,0.0,0.0,0.0,0.0,0.0,0.0,0,0,0,0,0,0,0
2043220000,0,47.398083,8.5466079,491.008,0.0,0.0,0.0,0.0,0.0,0.0,0,0,0,0,0,0,0
2043320000,0,47.3980873,8.5466071,491.007,0.0,0.0,0.0,0.0,0.0,0.0,0,0,0,0,0,0,0
2043420000,0,47.398091799999996,8.546606299999999,491.006,0.0,0.0,0.0,0.0,0.0,0.0,0,0,0,0,0,0,0
2043520000,0,47.3980964,8.546605399999999,491.005,0.0,0.0,0.0,0.0,0.0,0.0,0,0,0,0,0,0,0
2043620000,0,47.398100899999996,8.5466046,491.004,0.0,0.0,0.0,0.0,0.0,0.0,0,0,0,0,0,0,0
2043720000,0,47.398105199999996,8.5466038,491.003,0.0,0.0,0.0,0.0,0.0,0.0,0,0,0,0,0,0,0
2043820000,0,47.398109899999994,8.5466029,491.001,0.0,0.0,0.0,0.0,0.0,0.0,0,0,0,0,0,0,0
2043920000,0,47.398114199999995,8.5466021,490.999,0.0,0.0,0.0,0.0,0.0,0.0,0,0,0,0,0,0,0
2044020000,0,47.3981187,8.546601299999999,490.997,0.0,0.0,0.0,0.0,0.0,0.0,0,0,0,0,0,0,0
2044120000,0,47.398123399999996,8.5466005,490.996,0.0,0.0,0.0,0.0,0.0,0.0,0,0,0,0,0,0,0
2044220000,0,47.3981279,8.5465996,490.994,0.0,0.0,0.0,0.0,0.0,0.0,0,0,0,0,0,0,0
2044320000,0,47.398132399999994,8.5465988,490.992,0.0,0.0,0.0,0.0,0.0,0.0,0,0,0,0,0,0,0
2044420000,0,47.398136699999995,8.546598,490.99,0.0,0.0,0.0,0.0,0.0,0.0,0,0,0,0,0,0,0
2044520000,0,47.3981412,8.546597199999999,490.988,0.0,0.0,0.0,0.0,0.0,0.0,0,0,0,0,0,0,0
2044620000,0,47.398145899999996,8.5465963,490.986,0.0,0.0,0.0,0.0,0.0,0.0,0,0,0,0,0,0,0
2044720000,0,47.3981504,8.5465955,490.984,0.0,0.0,0.0,0.0,0.0,0.0,0,0,0,0,0,0,0
2044820000,0,47.398154899999994,8.546594599999999,490.983,0.0,0.0,0.0,0.0,0.0,0.0,0,0,0,0,0,0,0
2044920000,0,47.3981594,8.5465938,490.981,0.0,0.0,0.0,0.0,0.0,0.0,0,0,0,0,0,0,0
2045020000,0,47.3981639,8.546593,490.98,0.0,0.0,0.0,0.0,0.0,0.0,0,0,0,0,0,0,0
2045120000,0,47.398168399999996,8.5465921,490.978,0.0,0.0,0.0,0.0,0.0,0.0,0,0,0,0,0,0,0
2045220000,0,47.398172699999996,8.5465913,490.977,0.0,0.0,0.0,0.0,0.0,0.0,0,0,0,0,0,0,0
2045320000,0,47.3981772,8.5465904,490.976,0.0,0.0,0.0,0.0,0.0,0.0,0,0,0,0,0,0,0
2045420000,0,47.3981819,8.546589599999999,490.974,0.0,0.0,0.0,0.0,0.0,0.0,0,0,0,0,0,0,0
2045520000,0,47.3981864,8.5465887,490.973,0.0,0.0,0.0,0.0,0.0,0.0,0,0,0,0,0,0,0
2045620000,0,47.3981907,8.5465879,490.971,0.0,0.0,0.0,0.0,0.0,0.0,0,0,0,0,0,0,0
2045720000,0,47.398195199999996,8.546586999999999,490.97,0.0,0.0,0.0,0.0,0.0,0.0,0,0,0,0,0,0,0
2045820000,0,47.3981997,8.5465862,490.969,0.0,0.0,0.0,0.0,0.0,0.0,0,0,0,0,0,0,0
2045920000,0,47.3982044,8.5465853,490.969,0.0,0.0,0.0,0.0,0.0,0.0,0,0,0,0,0,0,0
2046020000,0,47.3982088,8.5465844,490.968,0.0,0.0,0.0,0.0,0.0,0.0,0,0,0,0,0,0,0
2046120000,0,47.3982132,8.5465836,490.967,0.0,0.0,0.0,0.0,0.0,0.0,0,0,0,0,0,0,0
2046220000,0,47.3982177,8.5465827,490.967,0.0,0.0,0.0,0.0,0.0,0.0,0,0,0,0,0,0,0
2046320000,0,47.3982223,8.5465818,490.967,0.0,0.0,0.0,0.0,0.0,0.0,0,0,0,0,0,0,0
2046420000,0,47.398226799999996,8.546581,490.967,0.0,0.0,0.0,0.0,0.0,0.0,0,0,0,0,0,0,0
2046520000,0,47.3982313,8.5465801,490.967,0.0,0.0,0.0,0.0,0.0,0.0,0,0,0,0,0,0,0
2046620000,0,47.398235799999995,8.5465792,490.968,0.0,0.0,0.0,0.0,0.0,0.0,0,0,0,0,0,0,0
2046720000,0,47.3982403,8.5465784,490.969,0.0,0.0,0.0,0.0,0.0,0.0,0,0,0,0,0,0,0
2046820000,0,47.3982446,8.5465775,490.97,0.0,0.0,0.0,0.0,0.0,0.0,0,0,0,0,0,0,0
2046920000,0,47.3982491,8.5465767,490.971,0.0,0.0,0.0,0.0,0.0,0.0,0,0,0,0,0,0,0
2047020000,0,47.3982537,8.5465758,490.973,0.0,0.0,0.0,0.0,0.0,0.0,0,0,0,0,0,0,0
2047120000,0,47.3982582,8.5465749,490.974,0.0,0.0,0.0,0.0,0.0,0.0,0,0,0,0,0,0,0
2047220000,0,47.3982627,8.546574,490.976,0.0,0.0,0.0,0.0,0.0,0.0,0,0,0,0,0,0,0
2047320000,0,47.3982672,8.5465732,490.977,0.0,0.0,0.0,0.0,0.0,0.0,0,0,0,0,0,0,0
2047416000,0,47.3982715,8.546572399999999,490.978,0.0,0.0,0.0,0.0,0.0,0.0,0,0,0,0,0,0,0
2047520000,0,47.3982761,8.546571499999999,490.98,0.0,0.0,0.0,0.0,0.0,0.0,0,0,0,0,0,0,0
2047620000,0,47.3982804,8.5465707,490.98,0.0,0.0,0.0,0.0,0.0,0.0,0,0,0,0,0,0,0
2047720000,0,47.398285099999995,8.5465698,490.981,0.0,0.0,0.0,0.0,0.0,0.0,0,0,0,0,0,0,0
2047820000,0,47.398289399999996,8.5465691,490.981,0.0,0.0,0.0,0.0,0.0,0.0,0,0,0,0,0,0,0
2047920000,0,47.398294,8.5465682,490.981,0.0,0.0,0.0,0.0,0.0,0.0,0,0,0,0,0,0,0
2048020000,0,47.398298499999996,8.546567399999999,490.981,0.0,0.0,0.0,0.0,0.0,0.0,0,0,0,0,0,0,0
2048120000,0,47.398303,8.5465666,490.981,0.0,0.0,0.0,0.0,0.0,0.0,0,0,0,0,0,0,0
2048220000,0,47.3983073,8.5465658,490.981,0.0,0.0,0.0,0.0,0.0,0.0,0,0,0,0,0,0,0
2048320000,0,47.398311899999996,8.546565,490.982,0.0,0.0,0.0,0.0,0.0,0.0,0,0,0,0,0,0,0
2048420000,0,47.3983164,8.546564199999999,490.982,0.0,0.0,0.0,0.0,0.0,0.0,0,0,0,0,0,0,0
2048520000,0,47.3983207,8.5465634,490.983,0.0,0.0,0.0,0.0,0.0,0.0,0,0,0,0,0,0,0
2048620000,0,47.398325299999996,8.5465626,490.983,0.0,0.0,0.0,0.0,0.0,0.0,0,0,0,0,0,0,0
2048720000,0,47.3983296,8.5465618,490.984,0.0,0.0,0.0,0.0,0.0,0.0,0,0,0,0,0,0,0
2048820000,0,47.398334,8.546560999999999,490.985,0.0,0.0,0.0,0.0,0.0,0.0,0,0,0,0,0,0,0
2048920000,0,47.3983387,8.5465602,490.986,0.0,0.0,0.0,0.0,0.0,0.0,0,0,0,0,0,0,0
2049020000,0,47.3983431,8.5465594,490.987,0.0,0.0,0.0,0.0,0.0,0.0,0,0,0,0,0,0,0
2049120000,0,47.3983476,8.5465586,490.988,0.0,0.0,0.0,0.0,0.0,0.0,0,0,0,0,0,0,0
2049220000,0,47.3983521,8.5465578,490.989,0.0,0.0,0.0,0.0,0.0,0.0,0,0,0,0,0,0,0
2049320000,0,47.3983565,8.5465571,490.99,0.0,0.0,0.0,0.0,0.0,0.0,0,0,0,0,0,0,0
2049420000,0,47.398361,8.546556299999999,490.991,0.0,0.0,0.0,0.0,0.0,0.0,0,0,0,0,0,0,0
2049520000,0,47.398365399999996,8.5465555,490.992,0.0,0.0,0.0,0.0,0.0,0.0,0,0,0,0,0,0,0
2049620000,0,47.3983699,8.5465547,490.993,0.0,0.0,0.0,0.0,0.0,0.0,0,0,0,0,0,0,0
2049720000,0,47.3983743,8.5465539,490.994,0.0,0.0,0.0,0.0,0.0,0.0,0,0,0,0,0,0,0
2049820000,0,47.3983786,8.5465532,490.994,0.0,0.0,0.0,0.0,0.0,0.0,0,0,0,0,0,0,0
2049920000,0,47.3983832,8.5465523,490.995,0.0,0.0,0.0,0.0,0.0,0.0,0,0,0,0,0,0,0
2050020000,0,47.3983875,8.546551599999999,490.994,0.0,0.0,0.0,0.0,0.0,0.0,0,0,0,0,0,0,0
2050120000,0,47.398392,8.5465508,490.994,0.0,0.0,0.0,0.0,0.0,0.0,0,0,0,0,0,0,0
2050220000,0,47.3983961,8.54655,490.994,0.0,0.0,0.0,0.0,0.0,0.0,0,0,0,0,0,0,0
2050320000,0,47.3984002,8.546549299999999,490.994,0.0,0.0,0.0,0.0,0.0,0.0,0,0,0,0,0,0,0
2050420000,0,47.398404199999995,8.5465486,490.994,0.0,0.0,0.0,0.0,0.0,0.0,0,0,0,0,0,0,0
2050520000,0,47.3984082,8.546547799999999,490.994,0.0,0.0,0.0,0.0,0.0,0.0,0,0,0,0,0,0,0
2050620000,0,47.3984117,8.5465472,490.994,0.0,0.0,0.0,0.0,0.0,0.0,0,0,0,0,0,0,0
2050720000,0,47.3984154,8.5465465,490.994,0.0,0.0,0.0,0.0,0.0,0.0,0,0,0,0,0,0,0
2050820000,0,47.3984187,8.5465459,490.993,0.0,0.0,0.0,0.0,0.0,0.0,0,0,0,0,0,0,0
2050920000,0,47.3984218,8.5465453,490.992,0.0,0.0,0.0,0.0,0.0,0.0,0,0,0,0,0,0,0
2051020000,0,47.398424999999996,8.5465448,490.991,0.0,0.0,0.0,0.0,0.0,0.0,0,0,0,0,0,0,0
2051120000,0,47.398427899999994,8.5465442,490.99,0.0,0.0,0.0,0.0,0.0,0.0,0,0,0,0,0,0,0
2051220000,0,47.3984306,8.5465438,490.988,0.0,0.0,0.0,0.0,0.0,0.0,0,0,0,0,0,0,0
2051320000,0,47.3984332,8.5465433,490.987,0.0,0.0,0.0,0.0,0.0,0.0,0,0,0,0,0,0,0
2051420000,0,47.398435799999994,8.5465429,490.986,0.0,0.0,0.0,0.0,0.0,0.0,0,0,0,0,0,0,0
2051520000,0,47.3984381,8.5465424,490.984,0.0,0.0,0.0,0.0,0.0,0.0,0,0,0,0,0,0,0
2051620000,0,47.3984403,8.5465421,490.982,0.0,0.0,0.0,0.0,0.0,0.0,0,0,0,0,0,0,0
2051720000,0,47.3984424,8.546541699999999,490.981,0.0,0.0,0.0,0.0,0.0,0.0,0,0,0,0,0,0,0
2051820000,0,47.3984443,8.546541399999999,490.979,0.0,0.0,0.0,0.0,0.0,0.0,0,0,0,0,0,0,0
2051920000,0,47.398446199999995,8.546541099999999,490.977,0.0,0.0,0.0,0.0,0.0,0.0,0,0,0,0,0,0,0
2052020000,0,47.3984478,8.5465409,490.975,0.0,0.0,0.0,0.0,0.0,0.0,0,0,0,0,0,0,0
2052120000,0,47.3984495,8.5465406,490.973,0.0,0.0,0.0,0.0,0.0,0.0,0,0,0,0,0,0,0
2052220000,0,47.398450999999994,8.5465404,490.972,0.0,0.0,0.0,0.0,0.0,0.0,0,0,0,0,0,0,0
2052320000,0,47.398452299999995,8.546540199999999,490.971,0.0,0.0,0.0,0.0,0.0,0.0,0,0,0,0,0,0,0
2052420000,0,47.398453599999996,8.54654,490.97,0.0,0.0,0.0,0.0,0.0,0.0,0,0,0,0,0,0,0
2052520000,0,47.398454799999996,8.546539899999999,490.969,0.0,0.0,0.0,0.0,0.0,0.0,0,0,0,0,0,0,0
2052620000,0,47.3984558,8.5465397,490.969,0.0,0.0,0.0,0.0,0.0,0.0,0,0,0,0,0,0,0
2052720000,0,47.3984569,8.5465396,490.969,0.0,0.0,0.0,0.0,0.0,0.0,0,0,0,0,0,0,0
2052820000,0,47.398457799999996,8.5465394,490.969,0.0,0.0,0.0,0.0,0.0,0.0,0,0,0,0,0,0,0
2052920000,0,47.3984587,8.5465393,490.97,0.0,0.0,0.0,0.0,0.0,0.0,0,0,0,0,0,0,0
2053020000,0,47.3984595,8.5465392,490.97,0.0,0.0,0.0,0.0,0.0,0.0,0,0,0,0,0,0,0
2053120000,0,47.398460199999995,8.546539,490.971,0.0,0.0,0.0,0.0,0.0,0.0,0,0,0,0,0,0,0
2053220000,0,47.398460899999996,8.5465389,490.972,0.0,0.0,0.0,0.0,0.0,0.0,0,0,0,0,0,0,0
2053320000,0,47.398461499999996,8.5465388,490.973,0.0,0.0,0.0,0.0,0.0,0.0,0,0,0,0,0,0,0
2053420000,0,47.398462099999996,8.5465387,490.973,0.0,0.0,0.0,0.0,0.0,0.0,0,0,0,0,0,0,0
2053520000,0,47.398462599999995,8.5465386,490.974,0.0,0.0,0.0,0.0,0.0,0.0,0,0,0,0,0,0,0
2053620000,0,47.3984631,8.5465385,490.974,0.0,0.0,0.0,0.0,0.0,0.0,0,0,0,0,0,0,0
2053720000,0,47.3984636,8.5465384,490.974,0.0,0.0,0.0,0.0,0.0,0.0,0,0,0,0,0,0,0
2053820000,0,47.398464,8.5465383,490.974,0.0,0.0,0.0,0.0,0.0,0.0,0,0,0,0,0,0,0
2053920000,0,47.398464399999995,8.546538199999999,490.975,0.0,0.0,0.0,0.0,0.0,0.0,0,0,0,0,0,0,0
2054020000,0,47.3984648,8.5465381,490.975,0.0,0.0,0.0,0.0,0.0,0.0,0,0,0,0,0,0,0
2054116000,0,47.398465099999996,8.546538,490.976,0.0,0.0,0.0,0.0,0.0,0.0,0,0,0,0,0,0,0
2054220000,0,47.3984654,8.546538,490.976,0.0,0.0,0.0,0.0,0.0,0.0,0,0,0,0,0,0,0
2054320000,0,47.398465699999996,8.546537899999999,490.977,0.0,0.0,0.0,0.0,0.0,0.0,0,0,0,0,0,0,0
2054420000,0,47.398466,8.5465378,490.978,0.0,0.0,0.0,0.0,0.0,0.0,0,0,0,0,0,0,0
2054520000,0,47.398466199999994,8.5465377,490.979,0.0,0.0,0.0,0.0,0.0,0.0,0,0,0,0,0,0,0
2054620000,0,47.3984665,8.546537599999999,490.98,0.0,0.0,0.0,0.0,0.0,0.0,0,0,0,0,0,0,0
2054720000,0,47.3984667,8.546537599999999,490.98,0.0,0.0,0.0,0.0,0.0,0.0,0,0,0,0,0,0,0
2054820000,0,47.398466899999995,8.5465375,490.982,0.0,0.0,0.0,0.0,0.0,0.0,0,0,0,0,0,0,0
2054920000,0,47.3984671,8.5465374,490.983,0.0,0.0,0.0,0.0,0.0,0.0,0,0,0,0,0,0,0
2055020000,0,47.3984673,8.5465374,490.984,0.0,0.0,0.0,0.0,0.0,0.0,0,0,0,0,0,0,0
2055120000,0,47.398467499999995,8.546537299999999,490.985,0.0,0.0,0.0,0.0,0.0,0.0,0,0,0,0,0,0,0
2055220000,0,47.3984677,8.5465372,490.986,0.0,0.0,0.0,0.0,0.0,0.0,0,0,0,0,0,0,0
2055320000,0,47.3984678,8.5465372,490.987,0.0,0.0,0.0,0.0,0.0,0.0,0,0,0,0,0,0,0
2055420000,0,47.398468,8.5465371,490.988,0.0,0.0,0.0,0.0,0.0,0.0,0,0,0,0,0,0,0
2055520000,0,47.398468099999995,8.5465371,490.989,0.0,0.0,0.0,0.0,0.0,0.0,0,0,0,0,0,0,0
2055620000,0,47.3984683,8.546536999999999,490.99,0.0,0.0,0.0,0.0,0.0,0.0,0,0,0,0,0,0,0
2055720000,0,47.3984684,8.5465369,490.991,0.0,0.0,0.0,0.0,0.0,0.0,0,0,0,0,0,0,0
2055820000,0,47.3984685,8.5465369,490.993,0.0,0.0,0.0,0.0,0.0,0.0,0,0,0,0,0,0,0
2055920000,0,47.3984686,8.5465369,490.994,0.0,0.0,0.0,0.0,0.0,0.0,0,0,0,0,0,0,0
2056020000,0,47.398468699999995,8.5465368,490.995,0.0,0.0,0.0,0.0,0.0,0.0,0,0,0,0,0,0,0
2056120000,0,47.3984689,8.5465368,490.996,0.0,0.0,0.0,0.0,0.0,0.0,0,0,0,0,0,0,0
2056220000,0,47.398469,8.546536699999999,490.997,0.0,0.0,0.0,0.0,0.0,0.0,0,0,0,0,0,0,0
2056320000,0,47.3984691,8.546536699999999,490.998,0.0,0.0,0.0,0.0,0.0,0.0,0,0,0,0,0,0,0
2056420000,0,47.3984692,8.546536699999999,490.999,0.0,0.0,0.0,0.0,0.0,0.0,0,0,0,0,0,0,0
2056520000,0,47.398469299999995,8.5465366,491.0,0.0,0.0,0.0,0.0,0.0,0.0,0,0,0,0,0,0,0
2056620000,0,47.398469399999996,8.5465366,491.0,0.0,0.0,0.0,0.0,0.0,0.0,0,0,0,0,0,0,0
2056720000,0,47.398469399999996,8.5465366,491.0,0.0,0.0,0.0,0.0,0.0,0.0,0,0,0,0,0,0,0
2056820000,0,47.3984695,8.5465366,491.0,0.0,0.0,0.0,0.0,0.0,0.0,0,0,0,0,0,0,0
2056920000,0,47.3984696,8.5465365,490.999,0.0,0.0,0.0,0.0,0.0,0.0,0,0,0,0,0,0,0
2057020000,0,47.3984696,8.5465365,490.998,0.0,0.0,0.0,0.0,0.0,0.0,0,0,0,0,0,0,0
2057120000,0,47.3984697,8.5465365,490.997,0.0,0.0,0.0,0.0,0.0,0.0,0,0,0,0,0,0,0
2057220000,0,47.3984697,8.5465365,490.996,0.0,0.0,0.0,0.0,0.0,0.0,0,0,0,0,0,0,0
2057320000,0,47.3984698,8.546536399999999,490.995,0.0,0.0,0.0,0.0,0.0,0.0,0,0,0,0,0,0,0
2057420000,0,47.3984698,8.546536399999999,490.994,0.0,0.0,0.0,0.0,0.0,0.0,0,0,0,0,0,0,0
2057520000,0,47.3984698,8.546536399999999,490.993,0.0,0.0,0.0,0.0,0.0,0.0,0,0,0,0,0,0,0
2057620000,0,47.398469899999995,8.5465363,490.992,0.0,0.0,0.0,0.0,0.0,0.0,0,0,0,0,0,0,0
2057720000,0,47.398469899999995,8.5465363,490.991,0.0,0.0,0.0,0.0,0.0,0.0,0,0,0,0,0,0,0
2057820000,0,47.398469899999995,8.5465363,490.99,0.0,0.0,0.0,0.0,0.0,0.0,0,0,0,0,0,0,0
2057920000,0,47.398469899999995,8.5465363,490.989,0.0,0.0,0.0,0.0,0.0,0.0,0,0,0,0,0,0,0
2058020000,0,47.398469899999995,8.5465362,490.988,0.0,0.0,0.0,0.0,0.0,0.0,0,0,0,0,0,0,0
2058120000,0,47.398469899999995,8.5465362,490.988,0.0,0.0,0.0,0.0,0.0,0.0,0,0,0,0,0,0,0
2058220000,0,47.398469899999995,8.5465362,490.987,0.0,0.0,0.0,0.0,0.0,0.0,0,0,0,0,0,0,0
2058320000,0,47.398469899999995,8.5465362,490.987,0.0,0.0,0.0,0.0,0.0,0.0,0,0,0,0,0,0,0
2058420000,0,47.3984698,8.546536099999999,490.987,0.0,0.0,0.0,0.0,0.0,0.0,0,0,0,0,0,0,0
2058520000,0,47.3984698,8.546536099999999,490.986,0.0,0.0,0.0,0.0,0.0,0.0,0,0,0,0,0,0,0
2058620000,0,47.3984698,8.546536099999999,490.986,0.0,0.0,0.0,0.0,0.0,0.0,0,0,0,0,0,0,0
2058720000,0,47.3984697,8.546536099999999,490.985,0.0,0.0,0.0,0.0,0.0,0.0,0,0,0,0,0,0,0
2058820000,0,47.3984697,8.546536,490.983,0.0,0.0,0.0,0.0,0.0,0.0,0,0,0,0,0,0,0
2058920000,0,47.3984697,8.546536,490.982,0.0,0.0,0.0,0.0,0.0,0.0,0,0,0,0,0,0,0
2059020000,0,47.3984696,8.546536,490.981,0.0,0.0,0.0,0.0,0.0,0.0,0,0,0,0,0,0,0
2059120000,0,47.3984696,8.546536,490.979,0.0,0.0,0.0,0.0,0.0,0.0,0,0,0,0,0,0,0
2059220000,0,47.3984695,8.546536,490.978,0.0,0.0,0.0,0.0,0.0,0.0,0,0,0,0,0,0,0
2059320000,0,47.3984695,8.546536,490.977,0.0,0.0,0.0,0.0,0.0,0.0,0,0,0,0,0,0,0
2059420000,0,47.398469399999996,8.5465359,490.976,0.0,0.0,0.0,0.0,0.0,0.0,0,0,0,0,0,0,0
2059520000,0,47.398469399999996,8.5465359,490.975,0.0,0.0,0.0,0.0,0.0,0.0,0,0,0,0,0,0,0
2059620000,0,47.398469299999995,8.5465359,490.974,0.0,0.0,0.0,0.0,0.0,0.0,0,0,0,0,0,0,0
2059720000,0,47.3984692,8.5465359,490.973,0.0,0.0,0.0,0.0,0.0,0.0,0,0,0,0,0,0,0
2059820000,0,47.3984692,8.5465359,490.973,0.0,0.0,0.0,0.0,0.0,0.0,0,0,0,0,0,0,0
2059920000,0,47.3984691,8.546536,490.972,0.0,0.0,0.0,0.0,0.0,0.0,0,0,0,0,0,0,0
2060020000,0,47.3984691,8.546536,490.971,0.0,0.0,0.0,0.0,0.0,0.0,0,0,0,0,0,0,0
2060120000,0,47.398469,8.546536,490.971,0.0,0.0,0.0,0.0,0.0,0.0,0,0,0,0,0,0,0
2060220000,0,47.398469,8.546536,490.971,0.0,0.0,0.0,0.0,0.0,0.0,0,0,0,0,0,0,0
2060320000,0,47.3984689,8.546536099999999,490.971,0.0,0.0,0.0,0.0,0.0,0.0,0,0,0,0,0,0,0
2060420000,0,47.398468799999996,8.546536099999999,490.971,0.0,0.0,0.0,0.0,0.0,0.0,0,0,0,0,0,0,0
2060520000,0,47.398468799999996,8.546536099999999,490.968,0.0,0.0,0.0,0.0,0.0,0.0,0,0,0,0,0,0,0
2060620000,0,47.398468799999996,8.5465362,490.955,0.0,0.0,0.0,0.0,0.0,0.0,0,0,0,0,0,0,0
2060720000,0,47.398468699999995,8.5465362,490.928,0.0,0.0,0.0,0.0,0.0,0.0,0,0,0,0,0,0,0
2060820000,0,47.398468699999995,8.5465363,490.881,0.0,0.0,0.0,0.0,0.0,0.0,0,0,0,0,0,0,0
2060920000,0,47.398468699999995,8.5465363,490.813,0.0,0.0,0.0,0.0,0.0,0.0,0,0,0,0,0,0,0
2061020000,0,47.398468699999995,8.546536399999999,490.739,0.0,0.0,0.0,0.0,0.0,0.0,0,0,0,0,0,0,0
2061120000,0,47.398468699999995,8.546536399999999,490.661,0.0,0.0,0.0,0.0,0.0,0.0,0,0,0,0,0,0,0
2061220000,0,47.398468799999996,8.546536399999999,490.582,0.0,0.0,0.0,0.0,0.0,0.0,0,0,0,0,0,0,0
2061320000,0,47.398468799999996,8.5465365,490.513,0.0,0.0,0.0,0.0,0.0,0.0,0,0,0,0,0,0,0
2061420000,0,47.398468799999996,8.5465365,490.446,0.0,0.0,0.0,0.0,0.0,0.0,0,0,0,0,0,0,0
2061520000,0,47.3984689,8.5465365,490.381,0.0,0.0,0.0,0.0,0.0,0.0,0,0,0,0,0,0,0
2061620000,0,47.3984689,8.5465365,490.317,0.0,0.0,0.0,0.0,0.0,0.0,0,0,0,0,0,0,0
2061720000,0,47.398469,8.5465366,490.248,0.0,0.0,0.0,0.0,0.0,0.0,0,0,0,0,0,0,0
2061820000,0,47.398469,8.5465366,490.181,0.0,0.0,0.0,0.0,0.0,0.0,0,0,0,0,0,0,0
2061920000,0,47.398469,8.5465366,490.116,0.0,0.0,0.0,0.0,0.0,0.0,0,0,0,0,0,0,0
2062020000,0,47.3984691,8.5465366,490.048,0.0,0.0,0.0,0.0,0.0,0.0,0,0,0,0,0,0,0
2062120000,0,47.3984691,8.546536699999999,489.977,0.0,0.0,0.0,0.0,0.0,0.0,0,0,0,0,0,0,0
2062220000,0,47.3984692,8.546536699999999,489.908,0.0,0.0,0.0,0.0,0.0,0.0,0,0,0,0,0,0,0
2062320000,0,47.3984692,8.546536699999999,489.842,0.0,0.0,0.0,0.0,0.0,0.0,0,0,0,0,0,0,0
2062420000,0,47.398469299999995,8.546536699999999,489.772,0.0,0.0,0.0,0.0,0.0,0.0,0,0,0,0,0,0,0
2062520000,0,47.398469299999995,8.546536699999999,489.699,0.0,0.0,0.0,0.0,0.0,0.0,0,0,0,0,0,0,0
2062620000,0,47.398469299999995,8.546536699999999,489.628,0.0,0.0,0.0,0.0,0.0,0.0,0,0,0,0,0,0,0
2062720000,0,47.398469399999996,8.5465368,489.56,0.0,0.0,0.0,0.0,0.0,0.0,0,0,0,0,0,0,0
2062820000,0,47.398469399999996,8.5465368,489.489,0.0,0.0,0.0,0.0,0.0,0.0,0,0,0,0,0,0,0
2062920000,0,47.3984695,8.5465368,489.415,0.0,0.0,0.0,0.0,0.0,0.0,0,0,0,0,0,0,0
2063016000,0,47.3984695,8.5465368,489.349,0.0,0.0,0.0,0.0,0.0,0.0,0,0,0,0,0,0,0
2063120000,0,47.3984695,8.5465368,489.275,0.0,0.0,0.0,0.0,0.0,0.0,0,0,0,0,0,0,0
2063220000,0,47.3984696,8.5465369,489.204,0.0,0.0,0.0,0.0,0.0,0.0,0,0,0,0,0,0,0
2063320000,0,47.3984696,8.5465369,489.13,0.0,0.0,0.0,0.0,0.0,0.0,0,0,0,0,0,0,0
2063420000,0,47.3984696,8.5465369,489.059,0.0,0.0,0.0,0.0,0.0,0.0,0,0,0,0,0,0,0
2063520000,0,47.3984697,8.5465369,488.991,0.0,0.0,0.0,0.0,0.0,0.0,0,0,0,0,0,0,0
2063620000,0,47.3984697,8.5465369,488.916,0.0,0.0,0.0,0.0,0.0,0.0,0,0,0,0,0,0,0
2063720000,0,47.3984697,8.546536999999999,488.845,0.0,0.0,0.0,0.0,0.0,0.0,0,0,0,0,0,0,0
2063820000,0,47.3984697,8.546536999999999,488.775,0.0,0.0,0.0,0.0,0.0,0.0,0,0,0,0,0,0,0
2063920000,0,47.3984697,8.546536999999999,488.701,0.0,0.0,0.0,0.0,0.0,0.0,0,0,0,0,0,0,0
2064020000,0,47.3984697,8.546536999999999,488.629,0.0,0.0,0.0,0.0,0.0,0.0,0,0,0,0,0,0,0
2064120000,0,47.3984698,8.546536999999999,488.558,0.0,0.0,0.0,0.0,0.0,0.0,0,0,0,0,0,0,0
2064220000,0,47.3984698,8.5465371,488.486,0.0,0.0,0.0,0.0,0.0,0.0,0,0,0,0,0,0,0
2064320000,0,47.3984698,8.5465371,488.417,0.0,0.0,0.0,0.0,0.0,0.0,0,0,0,0,0,0,0
2064420000,0,47.3984698,8.5465371,488.346,0.0,0.0,0.0,0.0,0.0,0.0,0,0,0,0,0,0,0
2064520000,0,47.3984698,8.5465371,488.274,0.0,0.0,0.0,0.0,0.0,0.0,0,0,0,0,0,0,0
2064620000,0,47.3984698,8.5465371,488.202,0.0,0.0,0.0,0.0,0.0,0.0,0,0,0,0,0,0,0
2064720000,0,47.3984698,8.5465372,488.13,0.0,0.0,0.0,0.0,0.0,0.0,0,0,0,0,0,0,0
2064820000,0,47.3984698,8.5465372,488.106,0.0,0.0,0.0,0.0,0.0,0.0,0,0,0,0,0,0,0
2064920000,0,47.3984698,8.5465372,488.139,0.0,0.0,0.0,0.0,0.0,0.0,0,0,0,0,0,0,0
2065020000,0,47.3984698,8.5465372,488.193,0.0,0.0,0.0,0.0,0.0,0.0,0,0,0,0,0,0,0
2065120000,0,47.3984698,8.5465372,488.258,0.0,0.0,0.0,0.0,0.0,0.0,0,0,0,0,0,0,0
2065220000,0,47.3984698,8.5465372,488.321,0.0,0.0,0.0,0.0,0.0,0.0,0,0,0,0,0,0,0
2065320000,0,47.3984698,8.5465372,488.383,0.0,0.0,0.0,0.0,0.0,0.0,0,0,0,0,0,0,0
2065420000,0,47.3984698,8.5465372,488.443,0.0,0.0,0.0,0.0,0.0,0.0,0,0,0,0,0,0,0
2065520000,0,47.3984698,8.546537299999999,488.496,0.0,0.0,0.0,0.0,0.0,0.0,0,0,0,0,0,0,0
2065620000,0,47.3984697,8.546537299999999,488.548,0.0,0.0,0.0,0.0,0.0,0.0,0,0,0,0,0,0,0
2065720000,0,47.3984697,8.546537299999999,488.598,0.0,0.0,0.0,0.0,0.0,0.0,0,0,0,0,0,0,0
2065820000,0,47.3984697,8.546537299999999,488.64,0.0,0.0,0.0,0.0,0.0,0.0,0,0,0,0,0,0,0
2065920000,0,47.3984697,8.5465374,488.68,0.0,0.0,0.0,0.0,0.0,0.0,0,0,0,0,0,0,0
2066020000,0,47.3984697,8.5465374,488.712,0.0,0.0,0.0,0.0,0.0,0.0,0,0,0,0,0,0,0
2066120000,0,47.3984697,8.5465374,488.742,0.0,0.0,0.0,0.0,0.0,0.0,0,0,0,0,0,0,0
2066220000,0,47.3984696,8.5465374,488.768,0.0,0.0,0.0,0.0,0.0,0.0,0,0,0,0,0,0,0
2066320000,0,47.3984696,8.5465374,488.787,0.0,0.0,0.0,0.0,0.0,0.0,0,0,0,0,0,0,0
2066420000,0,47.3984696,8.5465374,488.802,0.0,0.0,0.0,0.0,0.0,0.0,0,0,0,0,0,0,0
2066520000,0,47.3984696,8.5465374,488.814,0.0,0.0,0.0,0.0,0.0,0.0,0,0,0,0,0,0,0
2066620000,0,47.3984695,8.5465374,488.821,0.0,0.0,0.0,0.0,0.0,0.0,0,0,0,0,0,0,0
2066720000,0,47.3984695,8.5465374,488.822,0.0,0.0,0.0,0.0,0.0,0.0,0,0,0,0,0,0,0
2066820000,0,47.3984695,8.5465374,488.82,0.0,0.0,0.0,0.0,0.0,0.0,0,0,0,0,0,0,0
2066920000,0,47.3984695,8.5465374,488.814,0.0,0.0,0.0,0.0,0.0,0.0,0,0,0,0,0,0,0
2067020000,0,47.3984695,8.5465374,488.804,0.0,0.0,0.0,0.0,0.0,0.0,0,0,0,0,0,0,0
2067120000,0,47.398469399999996,8.5465374,488.789,0.0,0.0,0.0,0.0,0.0,0.0,0,0,0,0,0,0,0
2067220000,0,47.398469399999996,8.546537299999999,488.77,0.0,0.0,0.0,0.0,0.0,0.0,0,0,0,0,0,0,0
2067320000,0,47.398469399999996,8.546537299999999,488.749,0.0,0.0,0.0,0.0,0.0,0.0,0,0,0,0,0,0,0
2067420000,0,47.398469399999996,8.546537299999999,488.723,0.0,0.0,0.0,0.0,0.0,0.0,0,0,0,0,0,0,0
2067520000,0,47.398469399999996,8.5465372,488.691,0.0,0.0,0.0,0.0,0.0,0.0,0,0,0,0,0,0,0
2067620000,0,47.398469299999995,8.5465372,488.658,0.0,0.0,0.0,0.0,0.0,0.0,0,0,0,0,0,0,0
2067720000,0,47.398469299999995,8.5465372,488.621,0.0,0.0,0.0,0.0,0.0,0.0,0,0,0,0,0,0,0
2067820000,0,47.398469299999995,8.5465371,488.581,0.0,0.0,0.0,0.0,0.0,0.0,0,0,0,0,0,0,0
2067920000,0,47.398469299999995,8.5465371,488.538,0.0,0.0,0.0,0.0,0.0,0.0,0,0,0,0,0,0,0
2068020000,0,47.3984692,8.5465371,488.485,0.0,0.0,0.0,0.0,0.0,0.0,0,0,0,0,0,0,0
2068120000,0,47.3984692,8.546536999999999,488.427,0.0,0.0,0.0,0.0,0.0,0.0,0,0,0,0,0,0,0
2068220000,0,47.3984692,8.546536999999999,488.367,0.0,0.0,0.0,0.0,0.0,0.0,0,0,0,0,0,0,0
2068320000,0,47.3984692,8.546536999999999,488.306,0.0,0.0,0.0,0.0,0.0,0.0,0,0,0,0,0,0,0
2068420000,0,47.3984692,8.5465369,488.245,0.0,0.0,0.0,0.0,0.0,0.0,0,0,0,0,0,0,0
2068520000,0,47.3984691,8.5465369,488.177,0.0,0.0,0.0,0.0,0.0,0.0,0,0,0,0,0,0,0
2068620000,0,47.3984691,8.5465369,488.113,0.0,0.0,0.0,0.0,0.0,0.0,0,0,0,0,0,0,0
2068720000,0,47.3984691,8.5465369,488.104,0.0,0.0,0.0,0.0,0.0,0.0,0,0,0,0,0,0,0
2068820000,0,47.3984691,8.5465369,488.104,0.0,0.0,0.0,0.0,0.0,0.0,0,0,0,0,0,0,0
2068920000,0,47.3984691,8.5465369,488.104,0.0,0.0,0.0,0.0,0.0,0.0,0,0,0,0,0,0,0
2069020000,0,47.3984691,8.5465369,488.104,0.0,0.0,0.0,0.0,0.0,0.0,0,0,0,0,0,0,0
2069120000,0,47.3984691,8.5465369,488.104,0.0,0.0,0.0,0.0,0.0,0.0,0,0,0,0,0,0,0
2069220000,0,47.3984691,8.5465369,488.104,0.0,0.0,0.0,0.0,0.0,0.0,0,0,0,0,0,0,0
2069320000,0,47.3984691,8.5465369,488.104,0.0,0.0,0.0,0.0,0.0,0.0,0,0,0,0,0,0,0
2069420000,0,47.3984691,8.5465369,488.104,0.0,0.0,0.0,0.0,0.0,0.0,0,0,0,0,0,0,0
2069520000,0,47.3984691,8.5465369,488.104,0.0,0.0,0.0,0.0,0.0,0.0,0,0,0,0,0,0,0
2069620000,0,47.3984691,8.5465369,488.104,0.0,0.0,0.0,0.0,0.0,0.0,0,0,0,0,0,0,0
2069720000,0,47.3984691,8.5465369,488.104,0.0,0.0,0.0,0.0,0.0,0.0,0,0,0,0,0,0,0
2069820000,0,47.3984691,8.5465369,488.104,0.0,0.0,0.0,0.0,0.0,0.0,0,0,0,0,0,0,0
2069920000,0,47.3984691,8.5465369,488.104,0.0,0.0,0.0,0.0,0.0,0.0,0,0,0,0,0,0,0
2070020000,0,47.3984691,8.5465369,488.104,0.0,0.0,0.0,0.0,0.0,0.0,0,0,0,0,0,0,0
2070120000,0,47.3984691,8.5465369,488.104,0.0,0.0,0.0,0.0,0.0,0.0,0,0,0,0,0,0,0
2070220000,0,47.3984691,8.5465369,488.104,0.0,0.0,0.0,0.0,0.0,0.0,0,0,0,0,0,0,0
2070320000,0,47.3984691,8.5465369,488.104,0.0,0.0,0.0,0.0,0.0,0.0,0,0,0,0,0,0,0
2070420000,0,47.3984691,8.5465369,488.104,0.0,0.0,0.0,0.0,0.0,0.0,0,0,0,0,0,0,0
2070520000,0,47.3984691,8.5465369,488.104,0.0,0.0,0.0,0.0,0.0,0.0,0,0,0,0,0,0,0
2070620000,0,47.3984691,8.5465369,488.104,0.0,0.0,0.0,0.0,0.0,0.0,0,0,0,0,0,0,0
