timestamp,timestamp_sample,device_id,bias,bias_var,innov,innov_var,innov_test_ratio
2015852000,2015700000,6620172,0.0427203,0.12091503,-0.086968765,12.457801,6.7459434e-05
2015924000,2015772000,6620172,0.0438221,0.12093463,0.11240055,12.459326,0.00011266779
2015996000,2015844000,6620172,0.04311879,0.120953985,-0.07174568,12.460871,4.589872e-05
2016068000,2015916000,6620172,0.043947462,0.12097231,0.084475204,12.454138,6.3665226e-05
2016140000,2015986666,6620172,0.043389104,0.120990425,-0.056917433,12.455609,2.889902e-05
2016212000,2016060000,6620172,0.04367688,0.12100833,0.029334284,12.4571,7.675233e-06
2016284000,2016132000,6620172,0.04327683,0.121026024,-0.04077771,12.4586115,1.48297395e-05
2016356000,2016204000,6620172,0.043628,0.12104352,0.035794213,12.460144,1.1425102e-05
2016428000,2016276000,6620172,0.044120666,0.12106003,0.050183035,12.453457,2.246888e-05
2016500000,2016346666,6620172,0.04322851,0.12107635,-0.0908736,12.454914,7.3670264e-05
2016572000,2016420000,6620172,0.04328109,0.1210925,0.0053554736,12.456392,2.558356e-07
2016644000,2016492000,6620172,0.04370977,0.12110847,0.04366349,12.4578905,1.7003953e-05
2016716000,2016564000,6620172,0.044597756,0.12112428,0.0904455,12.45941,7.295146e-05
2016788000,2016634666,6620172,0.044692025,0.12113993,0.009601463,12.46095,8.220176e-07
2016852000,2016696000,6620172,0.044985093,0.12102204,0.029862419,12.45386,7.95616e-06
2016908000,2016756000,6620172,0.04532308,0.120773986,0.034513198,12.454608,1.0626686e-05
2016980000,2016828000,6620172,0.04561474,0.12079603,0.029780678,12.456093,7.911245e-06
2017052000,2016900000,6620172,0.045909543,0.120817795,0.03009937,12.457598,8.080496e-06
2017124000,2016970666,6620172,0.045977585,0.120839275,0.0069469027,12.459125,4.3038034e-07
2017196000,2017042666,6620172,0.045822263,0.12086048,-0.015856735,12.4606695,2.2420415e-06
2017268000,2017116000,6620172,0.045620788,0.120880626,-0.020553708,12.453956,3.7690381e-06
2017340000,2017186666,6620172,0.04584249,0.12090052,0.022616517,12.455426,4.562998e-06
2017412000,2017258666,6620172,0.045974374,0.12092017,0.013453163,12.456919,1.6143425e-06
2017484000,2017332000,6620172,0.04565201,0.120939575,-0.032882333,12.458432,9.643159e-06
2017556000,2017402666,6620172,0.046539735,0.12095875,0.09054794,12.459965,7.311355e-05
2017620000,2017464000,6620172,0.046540927,0.12084433,0.000121641904,12.452944,1.320237e-10
2017676000,2017522666,6620172,0.047145266,0.120599665,0.061796475,12.45369,3.4071156e-05
2017740000,2017582000,6620172,0.047608636,0.12049244,0.04742871,12.454807,2.0067953e-05
2017796000,2017644000,6620172,0.047658015,0.12025483,0.0050647035,12.455581,2.2882399e-07
2017868000,2017716000,6620172,0.04816996,0.12028712,0.052500676,12.457099,2.458501e-05
2017940000,2017786666,6620172,0.04849573,0.12031893,0.033403527,12.458637,9.951112e-06
2018004000,2017848000,6620172,0.04854595,0.120217666,0.005154174,12.45982,2.3689933e-07
2018060000,2017908000,6620172,0.048384786,0.11998511,-0.016563527,12.452462,2.4479803e-06
2018132000,2017980000,6620172,0.048964385,0.12002236,0.05955589,12.453944,3.1644628e-05
2018204000,2018052000,6620172,0.049907982,0.12005902,0.09694016,12.455447,8.38312e-05
2018276000,2018124000,6620172,0.050296187,0.12009511,0.039874732,12.456971,1.4182102e-05
2018348000,2018196000,6620172,0.05009171,0.12013065,-0.020999312,12.458516,3.9327947e-06
2018420000,2018268000,6620172,0.050306313,0.12016487,0.022021327,12.451945,4.327203e-06
2018492000,2018340000,6620172,0.050250858,0.12019856,-0.0056896135,12.453413,2.888249e-07
2018564000,2018410666,6620172,0.050385736,0.12023174,0.013836056,12.454903,1.7078187e-06
2018636000,2018484000,6620172,0.04896942,0.12026442,-0.1452649,12.456413,0.0001882287
2018708000,2018556000,6620172,0.048490122,0.120296605,-0.049152527,12.457944,2.1547794e-05
2018780000,2018628000,6620172,0.048158884,0.12032831,-0.033963755,12.459495,1.0286993e-05
2018852000,2018698666,6620172,0.048571404,0.12035876,0.0422647,12.452862,1.5938369e-05
2018916000,2018760000,6620172,0.047747526,0.12025616,-0.0844906,12.4539795,6.3689244e-05
2018972000,2018820000,6620172,0.04757926,0.12002308,-0.017290983,12.454754,2.6672376e-06
2019044000,2018892000,6620172,0.0471922,0.1200598,-0.03976676,12.45627,1.4106194e-05
2019116000,2018962666,6620172,0.0476395,0.12009596,0.045947447,12.457808,1.8829493e-05
2019180000,2019024000,6620172,0.04776652,0.11999896,0.013059963,12.45899,1.5211026e-06
2019236000,2019084000,6620172,0.048629344,0.11977059,0.08883016,12.451686,7.041258e-05
2019308000,2019156000,6620172,0.048710734,0.11981193,0.008377492,12.453166,6.2618955e-07
2019380000,2019228000,6620172,0.048753392,0.11985261,0.0043898523,12.454668,1.7191951e-07
2019452000,2019298666,6620172,0.049759656,0.11989265,0.10352932,12.456189,9.5609044e-05
2019524000,2019372000,6620172,0.04984376,0.119932055,0.008650988,12.457731,6.67498e-07
2019596000,2019444000,6620172,0.048973337,0.11997084,-0.08951661,12.459293,7.146137e-05
2019668000,2019516000,6620172,0.048937175,0.120008245,-0.0037157685,12.452693,1.2319455e-07
2019740000,2019588000,6620172,0.04940931,0.120045066,0.04850545,12.454182,2.099053e-05
2019812000,2019658666,6620172,0.049285408,0.12008131,-0.012727182,12.455689,1.4449547e-06
2019884000,2019730666,6620172,0.04903164,0.120116994,-0.026061531,12.457218,6.0580983e-06
2019948000,2019792000,6620172,0.04915079,0.120019525,0.012247656,12.458395,1.3378312e-06
2020004000,2019850666,6620172,0.049498767,0.11979146,0.035840664,12.459212,1.1455631e-05
2020068000,2019910000,6620172,0.048484474,0.11969975,-0.10449144,12.452246,9.742519e-05
2020124000,2019972000,6620172,0.048346184,0.1194773,-0.014274269,12.453023,1.8179858e-06
2020196000,2020044000,6620172,0.04843662,0.119524464,0.009332038,12.454535,7.7693204e-07
2020268000,2020114666,6620172,0.048345458,0.11957086,-0.009404637,12.456067,7.889702e-07
2020332000,2020176000,6620172,0.04871221,0.11948389,0.0378667,12.457251,1.2789402e-05
2020388000,2020236000,6620172,0.04866642,0.11926609,-0.004736379,12.458075,2.0007803e-07
2020460000,2020308000,6620172,0.04796696,0.11931707,-0.07228702,12.451535,4.6628906e-05
2020532000,2020380000,6620172,0.04809463,0.1193672,0.013190266,12.4530325,1.5523493e-06
2020604000,2020452000,6620172,0.04785915,0.1194165,-0.024321437,12.454549,5.277253e-06
2020676000,2020524000,6620172,0.046811044,0.119464986,-0.10822292,12.456087,0.000104475475
2020748000,2020596000,6620172,0.045728162,0.119512685,-0.11178297,12.457644,0.00011144815
2020820000,2020668000,6620172,0.0454126,0.11955884,-0.03254457,12.451126,9.451612e-06
2020892000,2020738666,6620172,0.046027336,0.119604245,0.063382566,12.452607,3.5845682e-05
2020964000,2020812000,6620172,0.04639705,0.11964891,0.038109627,12.45411,1.295729e-05
2021036000,2020884000,6620172,0.0462169,0.119692855,-0.018565018,12.455634,3.0745557e-06
2021108000,2020954666,6620172,0.046273645,0.11973609,0.005846087,12.457177,3.048375e-07
2021180000,2021028000,6620172,0.046702266,0.11977863,0.04414994,12.45874,1.7383754e-05
2021252000,2021100000,6620172,0.04628702,0.11981972,-0.04273498,12.45215,1.6295968e-05
2021324000,2021172000,6620172,0.046201974,0.11986016,-0.008750398,12.453638,6.831512e-07
2021396000,2021244000,6620172,0.046533067,0.11989995,0.034059256,12.455147,1.0348537e-05
2021468000,2021316000,6620172,0.046771694,0.11993911,0.024542373,12.456676,5.3726485e-06
2021540000,2021388000,6620172,0.047742583,0.11997766,0.099834755,12.458225,8.889244e-05
2021612000,2021460000,6620172,0.047315266,0.1200155,-0.043927886,12.458705,1.7209379e-05
2021684000,2021532000,6620172,0.04807896,0.12005208,0.07844767,12.4531355,5.4908414e-05
2021756000,2021604000,6620172,0.04869867,0.120088086,0.06364589,12.45463,3.6138277e-05
2021828000,2021674666,6620172,0.04852518,0.120123535,-0.017814882,12.456144,2.8309992e-06
2021900000,2021748000,6620172,0.04760696,0.12015844,-0.094271034,12.457681,7.926415e-05
2021972000,2021820000,6620172,0.04851015,0.12019281,0.092712864,12.459235,7.665599e-05
2022044000,2021892000,6620172,0.047857475,0.120225884,-0.06694277,12.452607,3.998568e-05
2022116000,2021964000,6620172,0.048377298,0.12025845,0.053308297,12.454086,2.5353344e-05
2022188000,2022036000,6620172,0.048493303,0.120290525,0.011894919,12.455586,1.2621655e-06
2022260000,2022108000,6620172,0.04852842,0.12032212,0.0036002025,12.4571085,1.1560966e-07
2022332000,2022180000,6620172,0.048755225,0.12035325,0.023248922,12.45865,4.820501e-06
2022404000,2022252000,6620172,0.048342064,0.12038392,-0.042346533,12.46021,1.5990714e-05
2022476000,2022324000,6620172,0.049270265,0.12041335,0.095060036,12.453521,8.062343e-05
2022548000,2022396000,6620172,0.04953953,0.120442346,0.027572997,12.455006,6.7823707e-06
2022620000,2022468000,6620172,0.048791613,0.12047092,-0.0765781,12.456512,5.2308253e-05
2022692000,2022540000,6620172,0.049513347,0.12049908,0.07388905,12.45804,4.8693153e-05
2022764000,2022612000,6620172,0.049438383,0.12052684,-0.007673748,12.459586,5.251325e-07
2022836000,2022682666,6620172,0.049879942,0.12055343,0.04516611,12.452932,1.8201668e-05
2022900000,2022744000,6620172,0.050738502,0.12044704,0.08790693,12.454047,6.8943475e-05
2022956000,2022804000,6620172,0.050557476,0.12021024,-0.018572975,12.454817,3.0773938e-06
2023028000,2022876000,6620172,0.05033178,0.120243326,-0.02315269,12.456328,4.7815684e-06
2023100000,2022948000,6620172,0.050157342,0.120275915,-0.017891593,12.457862,2.8550387e-06
2023172000,2023020000,6620172,0.049719736,0.12030801,-0.0448778,12.459414,1.796069e-05
2023244000,2023090666,6620172,0.049682446,0.12033885,-0.0038212985,12.452773,1.3029067e-07
2023308000,2023152000,6620172,0.049953204,0.120236635,0.027771167,12.453893,6.880827e-06
2023364000,2023212000,6620172,0.050680432,0.120003924,0.07474162,12.454668,4.983682e-05
2023436000,2023284000,6620172,0.050328292,0.12004101,-0.036184583,12.456185,1.1679374e-05
2023508000,2023354666,6620172,0.05010338,0.12007753,-0.023106612,12.457723,4.762022e-06
2023572000,2023414000,6620172,0.050204348,0.11998088,0.010382459,12.458906,9.613422e-07
2023628000,2023476000,6620172,0.05106382,0.11975285,0.08849804,12.451596,6.988754e-05
2023700000,2023548000,6620172,0.052370194,0.119794525,0.13448305,12.453077,0.00016136745
2023772000,2023620000,6620172,0.05207218,0.11983554,-0.030672196,12.454578,8.39302e-06
2023844000,2023692000,6620172,0.052163437,0.1198759,0.009390224,12.4561,7.865517e-07
2023916000,2023764000,6620172,0.051737078,0.11991562,-0.043862656,12.457643,1.7159771e-05
2023988000,2023836000,6620172,0.05171918,0.11995471,-0.0018408373,12.459205,3.0220246e-08
2024060000,2023908000,6620172,0.052108567,0.11999242,0.04001666,12.452582,1.4288272e-05
2024132000,2023980000,6620172,0.051910315,0.12002954,-0.020370286,12.454068,3.7020347e-06
2024204000,2024052000,6620172,0.052238576,0.12006608,0.03372201,12.455576,1.0144266e-05
2024276000,2024122666,6620172,0.05199947,0.12010205,-0.024559133,12.457104,5.379804e-06
2024340000,2024184000,6620172,0.052765068,0.12000486,0.07870732,12.45828,5.5249668e-05
2024396000,2024244000,6620172,0.052339636,0.11977707,-0.043823417,12.459097,1.7127082e-05
2024468000,2024314666,6620172,0.051697943,0.119818226,-0.06604203,12.4525,3.8917213e-05
2024532000,2024376000,6620172,0.05117769,0.119726114,-0.053590033,12.453635,2.5622967e-05
2024588000,2024436000,6620172,0.05035154,0.11950329,-0.08526583,12.454423,6.4861044e-05
2024660000,2024506666,6620172,0.05094251,0.11955009,0.060976584,12.4559555,3.3167034e-05
2024732000,2024580000,6620172,0.05125928,0.119596116,0.032675654,12.457507,9.523025e-06
2024804000,2024652000,6620172,0.05079685,0.11964141,-0.047688723,12.45908,2.0281634e-05
2024876000,2024724000,6620172,0.050855346,0.119685195,0.006026879,12.452466,3.2410597e-07
2024948000,2024794666,6620172,0.050975204,0.119728275,0.012346558,12.453962,1.3600089e-06
2025020000,2024866666,6620172,0.051326253,0.11977066,0.036152482,12.455481,1.165932e-05
2025092000,2024940000,6620172,0.051432703,0.11981237,0.010960124,12.457019,1.071456e-06
2025164000,2025012000,6620172,0.051697344,0.119853415,0.027241614,12.458575,6.618427e-06
2025236000,2025084000,6620172,0.052110076,0.11989304,0.042449385,12.451988,1.6079095e-05
2025308000,2025156000,6620172,0.05171371,0.11993203,-0.040757537,12.453471,1.4821186e-05
2025380000,2025228000,6620172,0.051894322,0.11997041,0.018568274,12.454973,3.0757976e-06
2025452000,2025298666,6620172,0.052102607,0.120008186,0.0214089,12.456497,4.088371e-06
2025524000,2025372000,6620172,0.05216102,0.12004537,0.006002862,12.458041,3.2138414e-07
2025596000,2025441333,6620172,0.052944764,0.12008198,0.08052941,12.459604,5.7831207e-05
2025660000,2025504000,6620172,0.05314968,0.11998465,0.021060362,12.452615,3.9575702e-06
2025716000,2025564000,6620172,0.05329412,0.11975671,0.014874,12.453386,1.973902e-06
2025788000,2025636000,6620172,0.052901268,0.11979849,-0.040446218,12.454895,1.4593963e-05
2025860000,2025708000,6620172,0.05284776,0.1198396,-0.005507469,12.456424,2.705629e-07
2025932000,2025780000,6620172,0.051990535,0.11988006,-0.08821763,12.457973,6.940982e-05
2026004000,2025852000,6620172,0.052212507,0.119919874,0.022838566,12.45954,4.6515015e-06
2026076000,2025924000,6620172,0.052670002,0.11995829,0.047030658,12.452892,1.9735555e-05
2026148000,2025996000,6620172,0.05168871,0.1199961,-0.10085726,12.454386,9.07506e-05
2026220000,2026068000,6620172,0.05143487,0.12003332,-0.02608446,12.455899,6.0694047e-06
2026292000,2026138666,6620172,0.05126425,0.12006996,-0.017529842,12.457434,2.7408475e-06
2026364000,2026212000,6620172,0.05173102,0.120106034,0.047948398,12.458988,2.0503261e-05
2026436000,2026282666,6620172,0.05224745,0.120140776,0.053005308,12.452371,2.5069414e-05
2026500000,2026344000,6620172,0.052035335,0.12004238,-0.021790907,12.453492,4.236595e-06
2026556000,2026402666,6620172,0.051986095,0.11981341,-0.0050687827,12.45427,2.2921685e-07
2026628000,2026476000,6620172,0.051489852,0.119854175,-0.051070567,12.455789,2.3266317e-05
2026700000,2026548000,6620172,0.051146626,0.11989429,-0.035315536,12.457328,1.11240815e-05
2026772000,2026620000,6620172,0.05227957,0.11993377,0.116547465,12.458886,0.00012113899
2026844000,2026692000,6620172,0.052675918,0.11997186,0.04073801,12.452278,1.4808405e-05
2026916000,2026764000,6620172,0.05153256,0.12000934,-0.11749525,12.45376,0.00012316793
2026988000,2026836000,6620172,0.051198818,0.12004624,-0.034290127,12.455265,1.0489209e-05
2027060000,2026908000,6620172,0.051396172,0.12008257,0.02027335,12.456789,3.666084e-06
2027132000,2026978666,6620172,0.050978955,0.120118335,-0.04285125,12.458334,1.6376629e-05
2027204000,2027052000,6620172,0.05027568,0.120153554,-0.07221919,12.459898,4.6510206e-05
2027276000,2027124000,6620172,0.0497497,0.120187454,-0.053968307,12.453225,2.5986827e-05
2027348000,2027194666,6620172,0.049493514,0.12022083,-0.02628168,12.454715,6.1621176e-06
2027412000,2027256000,6620172,0.048506875,0.12012111,-0.10131236,12.455861,9.156059e-05
2027468000,2027314666,6620172,0.04845038,0.119890824,-0.005812783,12.4566555,3.013868e-07
2027540000,2027388000,6620172,0.048346363,0.119930305,-0.010700136,12.458206,1.021129e-06
2027612000,2027458666,6620172,0.047913343,0.11996906,-0.044531666,12.458686,1.7685737e-05
2027684000,2027532000,6620172,0.047760688,0.12000654,-0.01568678,12.453113,2.1955696e-06
2027756000,2027602666,6620172,0.047381368,0.120043434,-0.038971625,12.454607,1.3549538e-05
2027828000,2027676000,6620172,0.04723443,0.12007975,-0.01509377,12.456122,2.032217e-06
2027900000,2027748000,6620172,0.046541862,0.1201155,-0.071129695,12.457657,4.5125606e-05
2027972000,2027818666,6620172,0.046453867,0.12015071,-0.009035759,12.459211,7.281086e-07
2028044000,2027892000,6620172,0.047075152,0.1201846,0.06374511,12.452581,3.6257e-05
2028116000,2027964000,6620172,0.046823315,0.12021797,-0.025834918,12.454061,5.9547106e-06
2028188000,2028036000,6620172,0.04754503,0.120250836,0.074026294,12.455562,4.888394e-05
2028260000,2028108000,6620172,0.04748791,0.1202832,-0.005858019,12.457082,3.060855e-07
2028332000,2028180000,6620172,0.047579553,0.12031508,0.009396855,12.458623,7.875035e-07
2028404000,2028252000,6620172,0.047408078,0.120346494,-0.017580774,12.460183,2.7561894e-06
2028476000,2028322666,6620172,0.048016537,0.120376654,0.062333133,12.453492,3.466604e-05
2028548000,2028396000,6620172,0.04716314,0.12040637,-0.08741473,12.454978,6.81685e-05
2028620000,2028468000,6620172,0.048030693,0.12043564,0.0888537,12.456485,7.0422764e-05
2028692000,2028540000,6620172,0.048259,0.12046449,0.02338044,12.458012,4.8754437e-06
2028764000,2028612000,6620172,0.047768924,0.12049292,-0.05018161,12.4595585,2.24566e-05
2028836000,2028682666,6620172,0.046618424,0.12052016,-0.11771521,12.452905,0.000123638
2028900000,2028744000,6620172,0.04646598,0.12041442,-0.015612565,12.454019,2.1746857e-06
2028956000,2028804000,6620172,0.046159517,0.12017825,-0.031451333,12.454788,8.824686e-06
2029028000,2028876000,6620172,0.046152215,0.12021196,-0.00074936077,12.456301,5.008992e-09
2029100000,2028948000,6620172,0.04580082,0.12024516,-0.036050897,12.457832,1.1591701e-05
2029172000,2029020000,6620172,0.045522712,0.12027785,-0.02852787,12.459385,7.2577104e-06
2029244000,2029092000,6620172,0.045077976,0.12030928,-0.045583747,12.452762,1.8540091e-05
2029316000,2029164000,6620172,0.0455809,0.120340236,0.051540677,12.454239,2.3699575e-05
2029388000,2029236000,6620172,0.04422413,0.12037073,-0.13902572,12.455737,0.00017241632
2029460000,2029308000,6620172,0.044007245,0.12040077,-0.022220958,12.457256,4.4041353e-06
2029532000,2029380000,6620172,0.044600952,0.12043037,0.060820635,12.458795,3.299008e-05
2029604000,2029452000,6620172,0.044848394,0.12045955,0.025345337,12.460353,5.7282673e-06
2029676000,2029524000,6620172,0.043888714,0.12048751,-0.09822364,12.45365,8.607814e-05
2029748000,2029596000,6620172,0.043059975,0.12051507,-0.08481279,12.455133,6.4169966e-05
2029820000,2029668000,6620172,0.042819604,0.120542236,-0.02459684,12.456638,5.3965387e-06
2029892000,2029740000,6620172,0.04270295,0.12056901,-0.011935815,12.458164,1.2705964e-06
2029964000,2029810666,6620172,0.042108968,0.12059542,-0.060769357,12.459709,3.2932057e-05
2030036000,2029882666,6620172,0.041727517,0.12062067,-0.038996175,12.453044,1.3568318e-05
2030108000,2029956000,6620172,0.040907625,0.12064557,-0.08381125,12.454514,6.266649e-05
2030180000,2030026666,6620172,0.040797316,0.12067012,-0.011275057,12.456003,1.1340084e-06
2030252000,2030098666,6620172,0.040826026,0.12069433,0.002934374,12.457515,7.679925e-08
2030324000,2030170666,6620172,0.039974745,0.120718226,-0.08699912,12.459046,6.749979e-05
2030396000,2030241333,6620172,0.03944709,0.1207418,-0.05392128,12.460597,2.5926209e-05
2030468000,2030316000,6620172,0.038959783,0.12076426,-0.049762033,12.453878,2.2092714e-05
2030540000,2030388000,6620172,0.038192984,0.12078643,-0.078296944,12.455355,5.468787e-05
2030612000,2030460000,6620172,0.037988987,0.1208083,-0.020828482,12.456853,3.869585e-06
2030684000,2030532000,6620172,0.03774782,0.120829895,-0.024622288,12.458371,5.4069583e-06
2030756000,2030602666,6620172,0.03752275,0.12085121,-0.022977311,12.45991,4.708049e-06
2030828000,2030676000,6620172,0.036977563,0.12087147,-0.055619676,12.453234,2.7601474e-05
2030900000,2030748000,6620172,0.03554652,0.120891474,-0.14598635,12.454697,0.0001901292
2030972000,2030820000,6620172,0.03536499,0.120911226,-0.01851771,12.4561825,3.0587719e-06
2031044000,2030892000,6620172,0.03443819,0.12093074,-0.09453857,12.457689,7.9714635e-05
2031116000,2030964000,6620172,0.0332401,0.12095001,-0.12220675,12.459219,0.00013318553
2031188000,2031036000,6620172,0.033572745,0.12096906,0.03392909,12.46077,1.0264955e-05
2031260000,2031108000,6620172,0.033481393,0.12098708,-0.00931127,12.454036,7.7350876e-07
2031332000,2031180000,6620172,0.033016965,0.121004894,-0.047336373,12.455512,1.9988762e-05
2031404000,2031252000,6620172,0.03310742,0.1210225,0.009219363,12.457011,7.581332e-07
2031476000,2031324000,6620172,0.03411234,0.12103991,0.10242115,12.458532,9.3555616e-05
2031548000,2031394666,6620172,0.033347946,0.12105713,-0.07790507,12.460076,5.4121294e-05
2031620000,2031466666,6620172,0.031998154,0.121073365,-0.13747393,12.453398,0.00016862046
2031692000,2031540000,6620172,0.031608764,0.12108942,-0.039658066,12.454867,1.4030768e-05
2031764000,2031612000,6620172,0.030560378,0.121105306,-0.106773555,12.456359,0.000101693644
2031836000,2031684000,6620172,0.03108494,0.12112103,0.053423997,12.457876,2.5455769e-05
2031908000,2031756000,6620172,0.030901078,0.12113659,-0.01872532,12.459416,3.126931e-06
2031980000,2031826666,6620172,0.03154156,0.121152,0.0652293,12.46098,3.793942e-05
2032044000,2031888000,6620172,0.032433387,0.12103387,0.09086445,12.4538555,7.3661686e-05
2032100000,2031945333,6620172,0.032007836,0.12078559,-0.043450233,12.454622,1.6842678e-05
2032164000,2032008000,6620172,0.030570503,0.120674826,-0.14690652,12.455767,0.00019251705
2032220000,2032068000,6620172,0.030612,0.12043375,0.0042500533,12.456562,1.6111949e-07
2032292000,2032140000,6620172,0.03055565,0.12046264,-0.0057706907,12.458117,2.970029e-07
2032364000,2032212000,6620172,0.030630084,0.120491125,0.0076218396,12.459694,5.1804767e-07
2032436000,2032284000,6620172,0.030728007,0.12051841,0.01001933,12.452999,8.9569653e-07
2032508000,2032356000,6620172,0.030807383,0.120545305,0.00812087,12.454497,5.883509e-07
2032580000,2032428000,6620172,0.029346958,0.12057182,-0.14939868,12.456018,0.00019910025
2032652000,2032500000,6620172,0.028661162,0.120597966,-0.07014896,12.457564,4.3890126e-05
2032724000,2032572000,6620172,0.028365124,0.12062375,-0.030278593,12.459132,8.176004e-06
2032796000,2032642666,6620172,0.028036147,0.12064918,-0.033644665,12.460722,1.0093614e-05
2032860000,2032702000,6620172,0.028239384,0.12054088,0.020791978,12.453584,3.8570456e-06
2032916000,2032764000,6620172,0.027984759,0.12030221,-0.026103154,12.45437,6.078854e-06
2032988000,2032836000,6620172,0.028562348,0.12033346,0.05920396,12.455901,3.126683e-05
2033060000,2032908000,6620172,0.029407728,0.120364256,0.086641505,12.457456,6.6954555e-05
2033132000,2032980000,6620172,0.02978337,0.120394595,0.038493883,12.459033,1.3214679e-05
2033204000,2033050666,6620172,0.029054273,0.120424494,-0.07470524,12.460632,4.976449e-05
2033276000,2033124000,6620172,0.028690008,0.120453164,-0.03729402,12.453846,1.2408875e-05
2033348000,2033196000,6620172,0.02805649,0.12048142,-0.06485334,12.455365,3.7520247e-05
2033420000,2033266666,6620172,0.027797297,0.12050927,-0.02653061,12.456908,6.2782947e-06
2033492000,2033340000,6620172,0.028365359,0.12053672,0.058140203,12.458473,3.0147115e-05
2033564000,2033412000,6620172,0.027724976,0.12056379,-0.06553577,12.460061,3.829959e-05
2033636000,2033481333,6620172,0.028549096,0.12058968,0.08427454,12.453296,6.3367406e-05
2033700000,2033544000,6620172,0.028115757,0.12048262,-0.044357203,12.45444,1.7553413e-05
2033756000,2033602666,6620172,0.027642012,0.12024517,-0.04859305,12.455237,2.1064629e-05
2033828000,2033674666,6620172,0.02653156,0.12027762,-0.11388469,12.456788,0.00011568634
2033892000,2033736000,6620172,0.02671933,0.120176986,0.019275324,12.457986,3.313699e-06
2033948000,2033796000,6620172,0.026217172,0.119945824,-0.051652193,12.458825,2.3793478e-05
2034020000,2033868000,6620172,0.025893478,0.119983666,-0.03326673,12.452152,9.874914e-06
2034092000,2033940000,6620172,0.025615344,0.12002091,-0.028579025,12.453664,7.287107e-06
2034164000,2034010666,6620172,0.025884962,0.12005758,0.027698865,12.455198,6.844328e-06
2034236000,2034084000,6620172,0.025001898,0.12009369,-0.0907043,12.456757,7.338516e-05
2034308000,2034156000,6620172,0.024951601,0.120129235,-0.0051654726,12.458338,2.3796744e-07
2034380000,2034226666,6620172,0.025768144,0.120164245,0.08384357,12.459942,6.2687504e-05
2034444000,2034288000,6620172,0.026861778,0.12006533,0.112323895,12.452803,0.00011257312
2034500000,2034346666,6620172,0.02679114,0.119835846,-0.0072694924,12.4536,4.7148814e-07
2034572000,2034420000,6620172,0.02694422,0.11987611,0.015750363,12.455142,2.2130437e-06
2034644000,2034492000,6620172,0.026635716,0.11991574,-0.03173548,12.456707,8.983476e-06
2034716000,2034562666,6620172,0.0266969,0.11995475,0.006292751,12.458296,3.5316685e-07
2034788000,2034636000,6620172,0.026392164,0.11999315,-0.03133557,12.459907,8.756245e-06
2034860000,2034708000,6620172,0.026382713,0.120030165,-0.00097102113,12.45314,8.4127105e-09
2034932000,2034780000,6620172,0.026147563,0.120066606,-0.02415493,12.454669,5.2051932e-06
2035004000,2034852000,6620172,0.025736079,0.12010248,-0.042260844,12.456222,1.5931164e-05
2035076000,2034924000,6620172,0.02592589,0.1201378,0.019490972,12.457796,3.3883111e-06
2035148000,2034996000,6620172,0.026343947,0.12017259,0.042921767,12.459395,1.6429172e-05
2035220000,2035068000,6620172,0.026087442,0.12020606,-0.02631343,12.452631,6.1780484e-06
2035292000,2035140000,6620172,0.026112486,0.12023902,0.0025685634,12.454145,5.886053e-08
2035364000,2035212000,6620172,0.026503606,0.12027148,0.04011066,12.455685,1.4351903e-05
2035436000,2035284000,6620172,0.026476085,0.12030346,-0.0028219651,12.457247,7.10295e-08
2035508000,2035354666,6620172,0.02731919,0.12033497,0.086438954,12.458832,6.663451e-05
2035580000,2035428000,6620172,0.028152093,0.120366015,0.08538222,12.46044,6.500684e-05
2035652000,2035500000,6620172,0.029010907,0.1203958,0.08796729,12.453599,6.904068e-05
2035724000,2035569333,6620172,0.02990703,0.12042515,0.09177767,12.455124,7.5142125e-05
2035796000,2035644000,6620172,0.029785145,0.12045407,-0.012481492,12.456673,1.3895956e-06
2035868000,2035716000,6620172,0.029718384,0.12048259,-0.0068359263,12.458244,4.1676898e-07
2035940000,2035788000,6620172,0.028927349,0.12051069,-0.080987915,12.45984,5.8490517e-05
2036012000,2035860000,6620172,0.029471776,0.12053829,0.055728413,12.460228,2.7693946e-05
2036084000,2035932000,6620172,0.029852536,0.120564796,0.038948633,12.454543,1.3533624e-05
2036156000,2036002666,6620172,0.030599583,0.12059093,0.07640967,12.456079,5.2080217e-05
2036228000,2036076000,6620172,0.031109631,0.12061671,0.05216409,12.457638,2.4269735e-05
2036300000,2036148000,6620172,0.0315273,0.12064214,0.04271239,12.45922,1.6269507e-05
2036372000,2036220000,6620172,0.030384537,0.12066722,-0.116854444,12.460825,0.000121759025
2036444000,2036292000,6620172,0.030532485,0.12069115,0.015117172,12.453947,2.0388795e-06
2036516000,2036362666,6620172,0.031743232,0.12071476,0.12370335,12.455469,0.00013650871
2036588000,2036436000,6620172,0.03160936,0.12073806,-0.013676826,12.457014,1.6684538e-06
2036660000,2036508000,6620172,0.031577762,0.12076105,-0.0032280125,12.458584,9.29307e-08
2036732000,2036580000,6620172,0.032014314,0.120783746,0.044594113,12.460176,1.7733251e-05
2036804000,2036652000,6620172,0.0329109,0.12080615,0.09158188,12.461792,7.4781834e-05
2036876000,2036724000,6620172,0.033024386,0.12082745,0.011583731,12.454846,1.1970602e-06
2036948000,2036794666,6620172,0.03346328,0.12084848,0.04479544,12.45638,1.7899183e-05
2037020000,2036868000,6620172,0.032383073,0.12086924,-0.11024551,12.457936,0.00010840098
2037092000,2036940000,6620172,0.03192462,0.12088975,-0.04678737,12.459516,1.9521518e-05
2037164000,2037010666,6620172,0.032446116,0.12091002,0.053219423,12.461119,2.5254616e-05
2037228000,2037070000,6620172,0.032029342,0.120796636,-0.042547435,12.453855,1.6151038e-05
2037284000,2037132000,6620172,0.031027766,0.120552994,-0.102463916,12.454646,9.366299e-05
2037356000,2037204000,6620172,0.03119641,0.12057938,0.017251043,12.456188,2.654624e-06
2037428000,2037276000,6620172,0.031368792,0.120605394,0.017631715,12.457754,2.772725e-06
2037500000,2037346666,6620172,0.03136047,0.120631054,-0.00085121393,12.459342,6.461596e-09
2037572000,2037420000,6620172,0.030992342,0.12065636,-0.03764709,12.460955,1.2637729e-05
2037644000,2037490666,6620172,0.030223478,0.12068052,-0.07856925,12.454061,5.5074644e-05
2037716000,2037562666,6620172,0.02988827,0.120704345,-0.034251798,12.45559,1.0465498e-05
2037788000,2037636000,6620172,0.029842757,0.12072786,-0.0046502333,12.457143,1.9288059e-07
2037860000,2037708000,6620172,0.030311456,0.12075106,0.047885515,12.458719,2.044996e-05
2037932000,2037778666,6620172,0.029999219,0.12077396,-0.031898372,12.4603195,9.073301e-06
2037996000,2037840000,6620172,0.030617833,0.120663986,0.0632625,12.461556,3.5684363e-05
2038052000,2037900000,6620172,0.030683905,0.12042287,0.0067662,12.453897,4.0845282e-07
2038124000,2037972000,6620172,0.031171355,0.120451726,0.04991302,12.455436,2.2224205e-05
2038196000,2038044000,6620172,0.031293735,0.120480165,0.0125298165,12.456999,1.40034e-06
2038268000,2038116000,6620172,0.031101033,0.1205082,-0.019727573,12.458584,3.470852e-06
2038340000,2038188000,6620172,0.031748235,0.12053584,0.06625004,12.460195,3.9138573e-05
2038412000,2038258666,6620172,0.030282546,0.12056298,-0.15000385,12.460594,0.0002006428
2038484000,2038332000,6620172,0.03021323,0.12058904,-0.0070891865,12.454872,4.4834363e-07
2038556000,2038404000,6620172,0.030201882,0.12061474,-0.001160495,12.456423,1.2012978e-08
2038628000,2038474666,6620172,0.030614732,0.120640084,0.04221633,12.457997,1.5895353e-05
2038700000,2038546666,6620172,0.029975062,0.12066509,-0.06540477,12.459595,3.814806e-05
2038764000,2038608000,6620172,0.030319678,0.12055717,0.035271518,12.460833,1.1093249e-05
2038820000,2038668000,6620172,0.030802779,0.12031807,0.04951431,12.453217,2.1874463e-05
2038892000,2038740000,6620172,0.03078332,0.1203489,-0.0019941851,12.454752,3.5477527e-08
2038964000,2038812000,6620172,0.030543057,0.120379284,-0.024618769,12.456312,5.4063066e-06
2039036000,2038884000,6620172,0.03049783,0.12040922,-0.0046336334,12.457896,1.9149442e-07
2039108000,2038956000,6620172,0.031105746,0.120438725,0.062275607,12.459504,3.4585388e-05
2039180000,2039028000,6620172,0.032035228,0.12046781,0.095206514,12.461135,8.0822676e-05
2039252000,2039100000,6620172,0.032308437,0.12049567,0.02796233,12.454217,6.9757e-06
2039324000,2039172000,6620172,0.03217225,0.12052313,-0.013936855,12.455765,1.7326731e-06
2039396000,2039244000,6620172,0.03172245,0.12055021,-0.046027232,12.457337,1.8895656e-05
2039468000,2039316000,6620172,0.03192781,0.1205769,0.021011926,12.458934,3.937389e-06
2039540000,2039386666,6620172,0.03186212,0.12060323,-0.0067202896,12.460553,4.0271343e-07
2039612000,2039460000,6620172,0.031421747,0.12062909,-0.045045715,12.460962,1.8093097e-05
2039684000,2039532000,6620172,0.03218822,0.12065388,0.07834998,12.455203,5.476265e-05
2039756000,2039604000,6620172,0.031529956,0.12067834,-0.06728344,12.456763,4.038021e-05
2039828000,2039676000,6620172,0.031855963,0.120702475,0.033319898,12.458347,9.901577e-06
2039900000,2039748000,6620172,0.032047417,0.120726295,0.019566156,12.459957,3.413909e-06
2039972000,2039820000,6620172,0.032246266,0.1207498,0.020320747,12.461588,3.6818278e-06
2040044000,2039892000,6620172,0.032335132,0.12077218,0.009074535,12.454625,7.346418e-07
2040116000,2039961333,6620172,0.032292526,0.120794274,-0.004350513,12.456174,1.6883162e-07
2040180000,2040024000,6620172,0.033084575,0.1206835,0.0809582,12.457374,5.845918e-05
2040236000,2040084000,6620172,0.03267755,0.12044241,-0.041690532,12.458214,1.5501602e-05
2040308000,2040156000,6620172,0.03302148,0.120471306,0.03522406,12.459832,1.1064305e-05
2040380000,2040228000,6620172,0.033140074,0.12049979,0.012144536,12.461473,1.3150732e-06
2040452000,2040300000,6620172,0.03315411,0.12052705,0.0014363416,12.4545145,1.8405437e-08
2040524000,2040370666,6620172,0.033175766,0.120553926,0.0022157617,12.456073,4.3794792e-08
2040596000,2040441333,6620172,0.032932322,0.12058043,-0.024905503,12.457656,5.532377e-06
2040668000,2040516000,6620172,0.033071008,0.120606564,0.014186818,12.459263,1.7948789e-06
2040740000,2040586666,6620172,0.033493575,0.12063235,0.043222938,12.460892,1.665854e-05
2040812000,2040660000,6620172,0.03309027,0.12065767,-0.04124504,12.461307,1.5168315e-05
2040884000,2040730666,6620172,0.03150248,0.120681934,-0.16227117,12.455508,0.00023489771
2040956000,2040804000,6620172,0.030224862,0.12070588,-0.13056254,12.457078,0.00015204723
2041028000,2040876000,6620172,0.03044395,0.120729506,0.022387443,12.458673,4.469868e-06
2041100000,2040948000,6620172,0.030711083,0.12075283,0.027295308,12.460292,6.643628e-06
2041172000,2041018666,6620172,0.030430214,0.12077585,-0.028696923,12.461932,7.34248e-06
2041244000,2041092000,6620172,0.02927757,0.120797746,-0.11767997,12.454926,0.00012354394
2041316000,2041162666,6620172,0.02957609,0.12081937,0.030475847,12.456484,8.284639e-06
2041388000,2041236000,6620172,0.029554222,0.12084071,-0.0022323392,12.458065,4.4445446e-08
2041460000,2041305333,6620172,0.030044083,0.1208618,0.050005104,12.459673,2.22987e-05
2041524000,2041368000,6620172,0.029980624,0.12075004,-0.0064845122,12.4609165,3.749403e-07
2041580000,2041426666,6620172,0.03038313,0.12050799,0.041216888,12.46179,1.51470285e-05
2041644000,2041486000,6620172,0.029454585,0.12040253,-0.095110916,12.454421,8.0703925e-05
2041700000,2041548000,6620172,0.029368607,0.12016664,-0.008824702,12.455248,6.9471275e-07
2041772000,2041620000,6620172,0.029517785,0.12020062,0.015309127,12.456838,2.0905018e-06
2041844000,2041690666,6620172,0.029028758,0.120234095,-0.050178185,12.45845,2.2455533e-05
2041908000,2041750000,6620172,0.029146064,0.12013447,0.012047902,12.459703,1.2944123e-06
2041964000,2041812000,6620172,0.028852766,0.1199043,-0.030183662,12.460586,8.123869e-06
2042036000,2041882666,6620172,0.028500028,0.1199431,-0.03626854,12.453659,1.1736015e-05
2042108000,2041954666,6620172,0.028569527,0.11998128,0.0071445033,12.455232,4.5535464e-07
2042180000,2042028000,6620172,0.028959926,0.12001888,0.04012554,12.45683,1.4361233e-05
2042252000,2042100000,6620172,0.028935587,0.12005589,-0.002501186,12.458452,5.5793727e-08
2042324000,2042170666,6620172,0.028593367,0.12009234,-0.035161175,12.460097,1.1024599e-05
2042388000,2042232000,6620172,0.029216265,0.11999564,0.064058,12.461374,3.6587968e-05
2042444000,2042292000,6620172,0.029725319,0.11976752,0.052418254,12.453653,2.4514657e-05
2042516000,2042364000,6620172,0.029223742,0.11980911,-0.05163694,12.455235,2.3786284e-05
2042588000,2042436000,6620172,0.029188873,0.119850054,-0.0035889763,12.456841,1.1489226e-07
2042660000,2042506666,6620172,0.028153451,0.119890355,-0.10655093,12.45847,0.000101252845
2042732000,2042580000,6620172,0.028004687,0.11993003,-0.015305551,12.460123,2.0889743e-06
2042804000,2042652000,6620172,0.028681505,0.11996909,0.06962104,12.461799,4.3217315e-05
2042876000,2042724000,6620172,0.02811262,0.120006725,-0.05846666,12.454774,3.0495676e-05
2042948000,2042796000,6620172,0.029104518,0.12004378,0.10192278,12.456366,9.266349e-05
2043020000,2042868000,6620172,0.02861775,0.12008026,-0.050009057,12.457982,2.2305252e-05
2043092000,2042940000,6620172,0.027637413,0.1201162,-0.100700274,12.459621,9.0430294e-05
2043164000,2043010666,6620172,0.027085433,0.12015159,-0.05669015,12.461285,2.8655624e-05
2043236000,2043082666,6620172,0.02698862,0.12018562,-0.009934554,12.454279,8.8051274e-07
2043308000,2043156000,6620172,0.026984943,0.12021914,-0.0003772918,12.455857,1.2698097e-09
2043380000,2043228000,6620172,0.027164256,0.12025216,0.018394696,12.4574585,3.0179585e-06
2043452000,2043298666,6620172,0.027295431,0.12028469,0.01345464,12.4590845,1.6144163e-06
2043524000,2043372000,6620172,0.027930023,0.120316744,0.065081276,12.460734,3.7768175e-05
2043596000,2043444000,6620172,0.028141262,0.120348334,0.021661041,12.462405,4.1832545e-06
2043668000,2043514666,6620172,0.027896982,0.12037863,-0.025028469,12.455317,5.588192e-06
2043740000,2043588000,6620172,0.027977671,0.12040848,0.008266348,12.456904,6.0950146e-07
2043812000,2043660000,6620172,0.027873466,0.12043791,-0.010674205,12.458516,1.0161602e-06
2043884000,2043732000,6620172,0.028365884,0.12046692,0.05043464,12.460152,2.268256e-05
2043956000,2043804000,6620172,0.028623499,0.12049552,0.026382651,12.46181,6.206021e-06
2044028000,2043873333,6620172,0.028876416,0.12052289,0.025880896,12.454749,5.9755944e-06
2044092000,2043936000,6620172,0.028806632,0.120417275,-0.0071479008,12.455951,4.557615e-07
2044148000,2043996000,6620172,0.02924372,0.12018125,0.0448628,12.456797,1.7952456e-05
2044220000,2044068000,6620172,0.028896315,0.120215096,-0.035652414,12.458415,1.1336333e-05
2044292000,2044140000,6620172,0.02791637,0.120248444,-0.10055159,12.460057,9.01603e-05
2044364000,2044212000,6620172,0.0276871,0.1202813,-0.023521839,12.461722,4.9331234e-06
2044436000,2044284000,6620172,0.02807196,0.12031285,0.03945157,12.454662,1.3885262e-05
2044508000,2044354666,6620172,0.027857624,0.12034392,-0.021968445,12.456242,4.30496e-06
2044580000,2044428000,6620172,0.027237091,0.120374545,-0.06359371,12.457846,3.6069727e-05
2044652000,2044500000,6620172,0.02644623,0.12040473,-0.08103958,12.459473,5.856689e-05
2044724000,2044570666,6620172,0.025441691,0.12043448,-0.10292328,12.4611225,9.445557e-05
2044788000,2044630000,6620172,0.025374241,0.120331205,-0.0069175214,12.462404,4.266352e-07
2044844000,2044692000,6620172,0.024664465,0.12009664,-0.07289011,12.454557,4.7398695e-05
2044916000,2044764000,6620172,0.024701854,0.120131925,0.0038389526,12.456142,1.3146176e-07
2044988000,2044836000,6620172,0.024007313,0.120166674,-0.0713022,12.457752,4.5344397e-05
2045060000,2044908000,6620172,0.024513436,0.1202009,0.05195094,12.459386,2.4068424e-05
2045132000,2044980000,6620172,0.024644198,0.120234616,0.013419913,12.461042,1.6058409e-06
2045204000,2045052000,6620172,0.023626337,0.12026784,-0.10444766,12.462721,9.726175e-05
2045276000,2045122666,6620172,0.023405423,0.120299734,-0.022649774,12.4555855,4.57637e-06
2045348000,2045196000,6620172,0.023093756,0.12033115,-0.031950347,12.45718,9.105187e-06
2045420000,2045266666,6620172,0.022097632,0.12036212,-0.10210377,12.458797,9.2974726e-05
2045492000,2045340000,6620172,0.02130108,0.120392635,-0.08163743,12.46044,5.9429593e-05
2045564000,2045410666,6620172,0.02101966,0.12042271,-0.028838921,12.462104,7.4152217e-06
2045636000,2045482666,6620172,0.02103612,0.120451525,0.0016854182,12.454999,2.5341315e-08
2045700000,2045544000,6620172,0.020501856,0.120347336,-0.054758042,12.456205,2.6746535e-05
2045756000,2045604000,6620172,0.019474672,0.120112695,-0.10549331,12.457055,9.9264034e-05
2045828000,2045676000,6620172,0.018873697,0.120147906,-0.061711,12.458678,3.3963363e-05
2045900000,2045748000,6620172,0.017868284,0.12018259,-0.103224285,12.460324,9.501494e-05
2045972000,2045820000,6620172,0.018479062,0.12021675,0.062698126,12.461993,3.504928e-05
2046044000,2045890666,6620172,0.018307522,0.12024958,-0.017594052,12.454896,2.761526e-06
2046108000,2045952000,6620172,0.018001966,0.120149314,-0.031369045,12.456108,8.77764e-06
2046164000,2046012000,6620172,0.017929614,0.11991852,-0.007442884,12.456962,4.9411483e-07
2046236000,2046084000,6620172,0.01744491,0.1199575,-0.049851,12.4585905,2.2163398e-05
2046308000,2046154666,6620172,0.016005637,0.11999588,-0.14799911,12.460241,0.00019532113
2046380000,2046226666,6620172,0.015909025,0.12003367,-0.009932639,12.461916,8.79634e-07
2046444000,2046286000,6620172,0.015651632,0.11993745,-0.026468107,12.454455,6.2499785e-06
2046500000,2046346666,6620172,0.015029976,0.11971061,-0.06405251,12.455299,3.6599537e-05
2046572000,2046420000,6620172,0.0147789,0.11975347,-0.025863716,12.456909,5.966629e-06
2046644000,2046492000,6620172,0.01325188,0.11979566,-0.15726547,12.458543,0.00022057536
2046716000,2046564000,6620172,0.013569238,0.11983718,0.032677077,12.460198,9.521797e-06
2046788000,2046636000,6620172,0.013328631,0.11987805,-0.024769189,12.461877,5.4701295e-06
2046860000,2046708000,6620172,0.0133373095,0.11991746,0.00089256,12.454785,7.1071597e-09
2046932000,2046780000,6620172,0.012975235,0.119956255,-0.037232574,12.456379,1.2365504e-05
2047004000,2046850666,6620172,0.012475321,0.11999445,-0.051396865,12.457996,2.3560395e-05
2047076000,2046924000,6620172,0.012798987,0.12003205,0.03327053,12.459637,9.871236e-06
2047148000,2046994666,6620172,0.012560726,0.12006908,-0.02448722,12.4613,5.3465433e-06
2047212000,2047056000,6620172,0.01216743,0.119972825,-0.04045379,12.461334,1.4591885e-05
2047268000,2047116000,6620172,0.011702645,0.11974524,-0.047872998,12.454711,2.0445847e-05
2047340000,2047188000,6620172,0.011236934,0.11978737,-0.04795753,12.456309,2.0515481e-05
2047412000,2047260000,6620172,0.011865277,0.11982884,0.0646908,12.457931,3.7324724e-05
2047484000,2047330666,6620172,0.011289274,0.11986966,-0.059289593,12.459576,3.1348096e-05
2047556000,2047404000,6620172,0.0112620145,0.11990984,-0.0028053876,12.461242,7.017492e-08
2047628000,2047476000,6620172,0.011382805,0.11994857,0.012419626,12.454186,1.3761291e-06
2047700000,2047548000,6620172,0.011582597,0.119986705,0.020538582,12.455768,3.7629452e-06
2047772000,2047618666,6620172,0.011860948,0.12002425,0.028609052,12.457373,7.3002543e-06
2047844000,2047689333,6620172,0.011899359,0.12006121,0.0039471574,12.459001,1.3894508e-07
2047916000,2047764000,6620172,0.011658496,0.120097615,-0.02474726,12.46065,5.460986e-06
2047988000,2047836000,6620172,0.01192021,0.12013347,0.026885204,12.462323,6.4444394e-06
2048060000,2047908000,6620172,0.011186218,0.12016794,-0.07533574,12.455195,5.0630133e-05
2048132000,2047980000,6620172,0.010965102,0.12020189,-0.022691345,12.456783,4.592742e-06
2048204000,2048052000,6620172,0.01170589,0.12023534,0.076009996,12.458395,5.1527233e-05
2048276000,2048120000,6620172,0.010921897,0.120268285,-0.080431476,12.460029,5.768867e-05
2048340000,2048184000,6620172,0.011523432,0.12016815,0.061770976,12.461297,3.402226e-05
2048396000,2048244000,6620172,0.010835173,0.11993748,-0.07081909,12.46219,4.4716086e-05
2048468000,2048314666,6620172,0.010367614,0.11997576,-0.048066616,12.455073,2.0610965e-05
2048540000,2048388000,6620172,0.009904814,0.120013446,-0.04756854,12.456666,2.0183446e-05
2048612000,2048458666,6620172,0.009858024,0.12005055,-0.0048083784,12.458281,2.062038e-07
2048684000,2048532000,6620172,0.010680154,0.12008709,0.08447181,12.459918,6.363058e-05
2048756000,2048602666,6620172,0.0110307,0.12012307,0.03601174,12.461578,1.1563057e-05
2048828000,2048676000,6620172,0.011235718,0.12015769,0.021043275,12.454498,3.950553e-06
2048900000,2048748000,6620172,0.011617786,0.120191775,0.03920984,12.456073,1.3714074e-05
2048972000,2048820000,6620172,0.011533709,0.12022535,-0.008627064,12.457671,6.638144e-07
2049044000,2048892000,6620172,0.011400467,0.12025842,-0.01366994,12.459291,1.6664694e-06
2049116000,2048962666,6620172,0.010761565,0.12029101,-0.06553865,12.460936,3.8300273e-05
2049188000,2049036000,6620172,0.010542683,0.120323114,-0.022449797,12.462601,4.493385e-06
2049260000,2049108000,6620172,0.010509193,0.120353915,-0.0034320876,12.455475,1.0507851e-07
2049332000,2049180000,6620172,0.011023431,0.12038427,0.05269271,12.457056,2.4765275e-05
2049404000,2049250666,6620172,0.012213626,0.12041418,0.121941656,12.458661,0.00013261428
2049476000,2049324000,6620172,0.012324975,0.120443664,0.0114069795,12.460288,1.1603012e-06
2049548000,2049394666,6620172,0.01210991,0.12047273,-0.022029564,12.461938,4.3269683e-06
2049612000,2049456000,6620172,0.011761393,0.120368674,-0.035730515,12.461963,1.1382813e-05
2049668000,2049516000,6620172,0.0112919295,0.120133445,-0.04819938,12.455292,2.0724618e-05
2049740000,2049586666,6620172,0.011564541,0.12016808,0.027984194,12.456877,6.985121e-06
2049812000,2049660000,6620172,0.010691872,0.1202022,-0.08956747,12.458485,7.154724e-05
2049884000,2049730666,6620172,0.011438791,0.1202358,0.076649435,12.460116,5.239059e-05
2049948000,2049792000,6620172,0.010759962,0.120136306,-0.06972736,12.461382,4.335086e-05
2050004000,2049850666,6620172,0.011103144,0.11990626,0.035321582,12.462271,1.1123478e-05
2050076000,2049924000,6620172,0.011238821,0.11994515,0.013951788,12.455156,1.736473e-06
2050148000,2049996000,6620172,0.011702689,0.11998344,0.047690623,12.456745,2.028705e-05
2050220000,2050068000,6620172,0.011073146,0.12002114,-0.06471172,12.458358,3.734759e-05
2050292000,2050140000,6620172,0.010647378,0.12005826,-0.043757472,12.459992,1.707435e-05
2050364000,2050212000,6620172,0.011058745,0.12009481,0.0422701,12.461649,1.5931202e-05
2050436000,2050284000,6620172,0.010828562,0.12012998,-0.023631986,12.454573,4.982291e-06
2050508000,2050356000,6620172,0.010558664,0.12016461,-0.027704783,12.456144,6.846732e-06
2050580000,2050428000,6620172,0.01070526,0.12019872,0.015045584,12.45774,2.0190002e-06
2050652000,2050500000,6620172,0.010670527,0.12023232,-0.0035641463,12.459356,1.1328513e-07
2050724000,2050570666,6620172,0.010963901,0.120265424,0.030100957,12.460996,8.079144e-06
2050796000,2050642666,6620172,0.011489165,0.120298035,0.05388595,12.462656,2.588797e-05
2050868000,2050716000,6620172,0.0118325995,0.120329335,0.03520273,12.455518,1.1054737e-05
2050940000,2050786666,6620172,0.012545233,0.12036017,0.07303678,12.457093,4.7579957e-05
2051012000,2050860000,6620172,0.012383799,0.12039056,-0.016543034,12.458693,2.4407054e-06
2051084000,2050930666,6620172,0.012919673,0.12042051,0.05490746,12.460315,2.6883834e-05
2051156000,2051004000,6620172,0.013042292,0.12045003,0.012562505,12.461957,1.407096e-06
2051228000,2051076000,6620172,0.012883584,0.120478295,-0.016246637,12.4548645,2.3547536e-06
2051300000,2051146666,6620172,0.013194202,0.12050616,0.03179415,12.456423,9.016927e-06
2051372000,2051220000,6620172,0.013140427,0.12053363,-0.0055037728,12.458003,2.701656e-07
2051444000,2051290666,6620172,0.013003375,0.12056071,-0.014025437,12.459606,1.7542277e-06
2051508000,2051352000,6620172,0.013606618,0.12045483,0.06179521,12.460846,3.405019e-05
2051564000,2051412000,6620172,0.013152087,0.12021854,-0.046657156,12.461715,1.9409583e-05
2051636000,2051484000,6620172,0.013213095,0.120251305,0.0062570926,12.454646,3.4927803e-07
2051708000,2051556000,6620172,0.014057086,0.12028358,0.086548865,12.456206,6.681815e-05
2051780000,2051628000,6620172,0.013746763,0.12031537,-0.031818315,12.4577875,9.02965e-06
2051852000,2051700000,6620172,0.012941116,0.1203467,-0.08259442,12.459393,6.0836188e-05
2051924000,2051770666,6620172,0.013940824,0.12037757,0.102476366,12.461019,9.3637835e-05
2051996000,2051844000,6620172,0.01373573,0.120408,-0.021020902,12.462666,3.939574e-06
2052068000,2051916000,6620172,0.013734511,0.12043715,-0.00012489036,12.455539,1.3914025e-10
2052140000,2051988000,6620172,0.01378218,0.12046588,0.0048812116,12.457101,2.1251802e-07
2052212000,2052060000,6620172,0.013603457,0.1204942,-0.018298782,12.458687,2.9862738e-06
2052284000,2052132000,6620172,0.013475945,0.12052213,-0.013054141,12.460293,1.5195878e-06
2052356000,2052204000,6620172,0.012847628,0.12054966,-0.06431823,12.46192,3.6884234e-05
2052428000,2052276000,6620172,0.012111579,0.12057597,-0.0752866,12.454845,5.056552e-05
2052500000,2052348000,6620172,0.012261407,0.12060192,0.015323724,12.456388,2.0945656e-06
2052572000,2052420000,6620172,0.011629136,0.120627515,-0.06466009,12.4579525,3.728923e-05
2052644000,2052490666,6620172,0.011925167,0.12065276,0.030271498,12.459538,8.171906e-06
2052716000,2052562666,6620172,0.012076856,0.120677665,0.015510135,12.461146,2.1450167e-06
2052780000,2052624000,6620172,0.010892938,0.12056965,-0.1211772,12.462388,0.0001309176
2052836000,2052684000,6620172,0.010635698,0.12033043,-0.026365351,12.454564,6.20149e-06
2052908000,2052756000,6620172,0.010700762,0.12036115,0.0066677686,12.456104,3.9658502e-07
2052980000,2052828000,6620172,0.010072448,0.12039142,-0.06438118,12.457669,3.6969075e-05
2053052000,2052900000,6620172,0.009999157,0.12042125,-0.0075089717,12.459254,5.0283603e-07
2053124000,2052972000,6620172,0.009783878,0.12045065,-0.0220536,12.46086,4.3367904e-06
2053196000,2053044000,6620172,0.009655588,0.120479636,-0.013140812,12.462487,1.5395618e-06
2053268000,2053114666,6620172,0.009602694,0.120507374,-0.005413645,12.455395,2.614445e-07
2053340000,2053188000,6620172,0.00976979,0.12053472,0.017100187,12.456937,2.6082423e-06
2053412000,2053260000,6620172,0.009693998,0.120561674,-0.0077556297,12.458501,5.364458e-07
2053484000,2053330666,6620172,0.009517231,0.12058826,-0.018086333,12.460085,2.9170076e-06
2053548000,2053392000,6620172,0.009336704,0.120481886,-0.018489398,12.461307,3.048172e-06
2053604000,2053450666,6620172,0.009656973,0.12024511,0.032869108,12.462158,9.632524e-06
2053668000,2053512000,6620172,0.009116975,0.1201448,-0.05543334,12.454739,2.7413531e-05
2053724000,2053572000,6620172,0.009267471,0.11991395,0.015480193,12.455544,2.1377039e-06
2053796000,2053644000,6620172,0.0096842,0.11995288,0.04285655,12.457105,1.6382299e-05
2053868000,2053716000,6620172,0.009906112,0.1199912,0.02281702,12.458685,4.6430473e-06
2053940000,2053788000,6620172,0.010209622,0.12002893,0.031201065,12.460286,8.6809705e-06
2054012000,2053860000,6620172,0.010203223,0.120065965,-0.0006576199,12.460712,3.856244e-09
2054084000,2053932000,6620172,0.009108634,0.12010173,-0.11240659,12.454883,0.00011272011
2054156000,2054004000,6620172,0.009215495,0.12013694,0.010971933,12.45642,1.0738177e-06
2054228000,2054076000,6620172,0.009635549,0.120171614,0.04312215,12.457979,1.6584818e-05
2054300000,2054146666,6620172,0.00931125,0.12020576,-0.033286672,12.459558,9.88088e-06
2054372000,2054220000,6620172,0.008715593,0.12023939,-0.0611301,12.461156,3.3320335e-05
2054444000,2054292000,6620172,0.0079585835,0.120271705,-0.077624284,12.454192,5.3757263e-05
2054516000,2054364000,6620172,0.007666645,0.120303534,-0.02993124,12.455708,7.991688e-06
2054588000,2054436000,6620172,0.007466228,0.120334886,-0.020545064,12.457244,3.7648745e-06
2054660000,2054508000,6620172,0.007448467,0.120365776,-0.0018204763,12.458801,2.9556382e-08
2054732000,2054580000,6620172,0.0076089473,0.12039621,0.016446797,12.460379,2.4120645e-06
2054804000,2054652000,6620172,0.00725743,0.12042621,-0.03602081,12.461973,1.1568516e-05
2054876000,2054724000,6620172,0.007422012,0.12045495,0.016851457,12.454974,2.5333172e-06
2054948000,2054796000,6620172,0.0069363657,0.12048328,-0.049719375,12.45649,2.2050232e-05
2055020000,2054868000,6620172,0.0065907575,0.1205112,-0.035378747,12.458025,1.1163315e-05
2055092000,2054940000,6620172,0.005881167,0.12053872,-0.07263079,12.45958,4.704307e-05
2055164000,2055012000,6620172,0.005545202,0.120565854,-0.034384586,12.461156,1.0542091e-05
2055236000,2055084000,6620172,0.00542682,0.1205918,-0.012106482,12.454225,1.3076054e-06
2055308000,2055156000,6620172,0.005810071,0.120617375,0.03918988,12.45572,1.3700503e-05
2055380000,2055228000,6620172,0.0053103208,0.120642595,-0.051098157,12.457234,2.3288756e-05
2055452000,2055300000,6620172,0.0049983934,0.12066747,-0.03189113,12.45877,9.070311e-06
2055524000,2055372000,6620172,0.0054220515,0.12069201,0.043310933,12.460325,1.6727197e-05
2055596000,2055444000,6620172,0.005925188,0.120716214,0.051432196,12.461901,2.3585406e-05
2055668000,2055516000,6620172,0.005963383,0.12073928,0.0039014723,12.454941,1.357916e-07
2055740000,2055588000,6620172,0.007097451,0.12076204,0.11583227,12.456436,0.00011968034
2055812000,2055660000,6620172,0.006413914,0.120784506,-0.069811076,12.4579525,4.3466982e-05
2055884000,2055732000,6620172,0.0059662256,0.12080667,-0.045720555,12.459489,1.8641475e-05
2055956000,2055804000,6620172,0.0056140423,0.120828554,-0.035965003,12.461044,1.1533557e-05
2056028000,2055876000,6620172,0.00582519,0.12084935,0.021546602,12.454158,4.1419107e-06
2056100000,2055946666,6620172,0.005292574,0.120869875,-0.05434814,12.455634,2.6348813e-05
2056164000,2056008000,6620172,0.0068788957,0.12075756,0.1620353,12.456767,0.00023419166
2056220000,2056066666,6620172,0.0071014855,0.12051496,0.02278419,12.457549,4.630118e-06
2056292000,2056138666,6620172,0.007406605,0.12054236,0.031228593,12.459086,8.697133e-06
2056364000,2056212000,6620172,0.0072426833,0.12056938,-0.016775502,12.460643,2.5093896e-06
2056436000,2056284000,6620172,0.008507043,0.12059521,0.12929296,12.453804,0.00014914382
2056508000,2056356000,6620172,0.0077251494,0.120620675,-0.07994869,12.455281,5.701993e-05
2056580000,2056428000,6620172,0.0079128565,0.12064579,0.019191355,12.45678,3.2852085e-06
2056652000,2056500000,6620172,0.008459644,0.12067056,0.0558994,12.4583,2.7868464e-05
2056724000,2056572000,6620172,0.008257176,0.12069499,-0.020697193,12.459839,3.8200405e-06
2056796000,2056644000,6620172,0.008098769,0.12071909,-0.016191747,12.461398,2.3376426e-06
2056868000,2056716000,6620172,0.0076710987,0.12074206,-0.043682266,12.45453,1.7023172e-05
2056940000,2056788000,6620172,0.0071570487,0.120764725,-0.05250142,12.456011,2.4587856e-05
2057012000,2056860000,6620172,0.007573152,0.12078709,0.04249505,12.457514,1.610656e-05
2057084000,2056932000,6620172,0.0076170345,0.12080917,0.0044812914,12.459036,1.7909333e-07
2057156000,2057004000,6620172,0.0075708325,0.12083095,-0.0047178646,12.460578,1.9847703e-07
2057228000,2057076000,6620172,0.00788992,0.120851666,0.032559782,12.453776,9.4584375e-06
2057300000,2057146666,6620172,0.0076065212,0.12087211,-0.02891653,12.455241,7.459294e-06
2057364000,2057208000,6620172,0.0098114535,0.12075971,0.22521208,12.456366,0.00045242804
2057420000,2057268000,6620172,0.008719455,0.12051703,-0.11177068,12.45714,0.00011142816
2057492000,2057338666,6620172,0.008473832,0.12054435,-0.025137912,12.458666,5.635655e-06
2057564000,2057412000,6620172,0.008646598,0.120571285,0.017679732,12.460212,2.7872982e-06
2057636000,2057484000,6620172,0.009840878,0.12059705,0.12212122,12.453451,0.00013306078
2057708000,2057554666,6620172,0.010008182,0.12062245,0.017106144,12.45492,2.6104826e-06
2057772000,2057616000,6620172,0.0102676125,0.12051491,0.026551876,12.456048,6.288798e-06
2057828000,2057676000,6620172,0.010204693,0.12027697,-0.0064529153,12.456826,3.714172e-07
2057900000,2057746666,6620172,0.009643588,0.12030895,-0.05753746,12.458356,2.9525556e-05
2057964000,2057808000,6620172,0.009963809,0.12020785,0.032867398,12.459532,9.633552e-06
2058020000,2057866666,6620172,0.010104701,0.11997546,0.0144807715,12.452127,1.8711015e-06
2058092000,2057940000,6620172,0.009971026,0.120012864,-0.013736293,12.453599,1.6834557e-06
2058164000,2058012000,6620172,0.010527755,0.12004968,0.057198163,12.455093,2.9186005e-05
2058236000,2058084000,6620172,0.0109867705,0.12008592,0.047150467,12.456606,1.983032e-05
2058308000,2058156000,6620172,0.011532025,0.1201216,0.055999313,12.458139,2.7968534e-05
2058380000,2058228000,6620172,0.011247348,0.120156735,-0.02923222,12.459694,7.6203296e-06
2058452000,2058300000,6620172,0.010957179,0.120190546,-0.029771518,12.452995,7.908346e-06
2058524000,2058370666,6620172,0.011218658,0.12022384,0.026823584,12.4544735,6.4189758e-06
2058596000,2058444000,6620172,0.012022411,0.12025663,0.08243979,12.455972,6.0625258e-05
2058668000,2058516000,6620172,0.011436793,0.12028892,-0.06005708,12.457491,3.217032e-05
2058740000,2058586666,6620172,0.011135077,0.12032073,-0.030937526,12.45903,8.535803e-06
2058812000,2058660000,6620172,0.010088447,0.12035196,-0.10729597,12.459491,0.00010266538
2058884000,2058732000,6620172,0.009751947,0.12038205,-0.034471992,12.453844,1.0601976e-05
2058956000,2058804000,6620172,0.009559911,0.12041169,-0.019670159,12.455328,3.4515808e-06
2059028000,2058876000,6620172,0.009648033,0.12044089,0.009025294,12.456833,7.265619e-07
2059100000,2058948000,6620172,0.009507031,0.120469674,-0.014439293,12.458357,1.8594675e-06
2059172000,2059020000,6620172,0.009643378,0.12049804,0.013960986,12.459902,1.7381013e-06
2059244000,2059090666,6620172,0.008610764,0.12052521,-0.10565168,12.453223,9.959292e-05
2059316000,2059164000,6620172,0.009065927,0.120551996,0.04656502,12.454693,1.93439e-05
2059388000,2059236000,6620172,0.009651234,0.12057839,0.059873283,12.456183,3.197707e-05
2059460000,2059308000,6620172,0.009768117,0.120604426,0.011955211,12.457695,1.2747771e-06
2059532000,2059380000,6620172,0.00960577,0.12063009,-0.016604055,12.459228,2.4586384e-06
2059604000,2059452000,6620172,0.009443504,0.1206554,-0.016594294,12.460779,2.455443e-06
2059676000,2059524000,6620172,0.009857582,0.12067957,0.04231431,12.454031,1.5974309e-05
2059748000,2059596000,6620172,0.0104928315,0.120703414,0.06491049,12.455508,3.758597e-05
2059820000,2059666666,6620172,0.010658354,0.12072693,0.016911954,12.457006,2.5511226e-06
2059892000,2059740000,6620172,0.009761564,0.12075013,-0.09162149,12.458524,7.486617e-05
2059964000,2059812000,6620172,0.009796555,0.120773025,0.0035746172,12.460063,1.1394528e-07
2060036000,2059884000,6620172,0.009846773,0.12079483,0.0051265405,12.453364,2.3448744e-07
2060180000,2060026666,6620172,0.010029645,0.12083759,0.01859491,12.45631,3.0842968e-06
2060244000,2060088000,6620172,0.010619624,0.120725974,0.060282856,12.45745,3.2412758e-05
2060300000,2060145333,6620172,0.010922445,0.12048406,0.031006353,12.458236,8.574372e-06
2060372000,2060220000,6620172,0.009475889,0.120512135,-0.14809896,12.45978,0.00019559203
2060444000,2060292000,6620172,0.010154391,0.120539024,0.06941205,12.453107,4.2988228e-05
2060516000,2060364000,6620172,0.010497858,0.120565526,0.035133697,12.454576,1.10122555e-05
2060588000,2060436000,6620172,0.010696573,0.12059165,0.020324897,12.456066,3.6849642e-06
2060660000,2060508000,6620172,0.011365129,0.120617405,0.06837447,12.457577,4.1697673e-05
2060732000,2060580000,6620172,0.010887231,0.1206428,-0.048871234,12.459108,2.1299878e-05
2060804000,2060652000,6620172,0.011001908,0.12066786,0.011726295,12.460659,1.2261344e-06
2060876000,2060724000,6620172,0.01137151,0.12069178,0.037765183,12.453936,1.2724305e-05
2060948000,2060796000,6620172,0.011856702,0.120715365,0.049572095,12.455412,2.1921685e-05
2061020000,2060868000,6620172,0.0120085925,0.12073864,0.015517565,12.45691,2.1478024e-06
2061092000,2060940000,6620172,0.012786054,0.1207616,0.07942207,12.458428,5.6257013e-05
2061164000,2061012000,6620172,0.011512467,0.12078427,-0.13009563,12.459967,0.00015092669
2061236000,2061084000,6620172,0.011431972,0.120805845,-0.008216568,12.453287,6.0235766e-07
2061308000,2061153333,6620172,0.011484114,0.12082714,0.005322179,12.45475,2.5269776e-07
2061372000,2061216000,6620172,0.012046143,0.12071557,0.057424575,12.4558735,2.941568e-05
2061428000,2061274666,6620172,0.011469181,0.12047371,-0.05907373,12.456648,3.112756e-05
2061500000,2061348000,6620172,0.011049816,0.12050183,-0.042932805,12.458173,1.6439237e-05
2061572000,2061420000,6620172,0.010907885,0.12052955,-0.01452882,12.459717,1.8823918e-06
2061644000,2061492000,6620172,0.011109443,0.12055609,0.020616774,12.453058,3.7924763e-06
2061716000,2061564000,6620172,0.0112610115,0.120582245,0.015501885,12.454528,2.1438739e-06
2061788000,2061634666,6620172,0.011184917,0.12060804,-0.0077820076,12.456019,5.4020865e-07
2061852000,2061696000,6620172,0.011018119,0.120500885,-0.017074808,12.457165,2.6004586e-06
2061908000,2061756000,6620172,0.010895237,0.12026334,-0.012605033,12.457956,1.4170939e-06
2061980000,2061828000,6620172,0.011010978,0.12029569,0.011870876,12.459507,1.2566727e-06
2062052000,2061900000,6620172,0.011396071,0.12032678,0.039465096,12.452867,1.389679e-05
2062124000,2061970666,6620172,0.010643043,0.1203574,-0.07716145,12.454343,5.3117477e-05
2062196000,2062044000,6620172,0.010506695,0.12038757,-0.013969459,12.45584,1.740779e-06
2062268000,2062116000,6620172,0.0103415735,0.1204173,-0.016915387,12.457357,2.5520865e-06
2062340000,2062188000,6620172,0.010698839,0.120446585,0.03659446,12.458897,1.1942869e-05
2062412000,2062258666,6620172,0.011305689,0.12047535,0.06214662,12.459363,3.4442655e-05
2062484000,2062332000,6620172,0.010379033,0.120503016,-0.0948323,12.453754,8.0236096e-05
2062556000,2062404000,6620172,0.01040316,0.120530285,0.0024688672,12.455237,5.437521e-08
2062628000,2062476000,6620172,0.009900316,0.12055717,-0.051449303,12.456743,2.3610868e-05
2062700000,2062546666,6620172,0.009749255,0.12058367,-0.015454515,12.458268,2.1301519e-06
2062772000,2062618666,6620172,0.008022122,0.1206098,-0.1766804,12.459814,0.00027837016
2062844000,2062692000,6620172,0.008107546,0.12063478,0.008732028,12.453152,6.803125e-07
2062916000,2062764000,6620172,0.0072098356,0.12065941,-0.091756225,12.454622,7.511004e-05
2062988000,2062836000,6620172,0.007317554,0.12068371,0.011009159,12.456113,1.0811432e-06
2063060000,2062908000,6620172,0.006261397,0.12070767,-0.10793401,12.457625,0.00010390558
2063132000,2062980000,6620172,0.006903726,0.12073131,0.06563802,12.459158,3.8421982e-05
