timestamp,position[0],position[1],position[2],velocity[0],velocity[1],velocity[2],acceleration[0],acceleration[1],acceleration[2],jerk[0],jerk[1],jerk[2],yaw,yawspeed
2015908000,-68.55124,-23.07162,-488.04556,-0.0005118358,0.0005118358,0.69948816,-0.063989736,0.063989736,-0.063989736,-4.0,4.0,-4.0,1.7963525,-0.0042404025
2015932000,-68.55149,-23.071444,-488.0398,0.0010318586,-0.00103231,0.69884855,0.06504774,-0.06510615,-0.09597626,0.0,0.0,-4.0,1.7963268,0.0
2016108000,-68.55266,-23.073225,-488.045,-0.0005117723,0.0005117723,0.6994882,-0.063985765,0.063985765,-0.063985765,-4.0,4.0,-4.0,1.7967366,0.0
2016308000,-68.553535,-23.07691,-488.04547,-0.00051186513,6.8728373e-06,0.6994881,-0.06399157,0.0004310608,-0.06399157,-4.0,0.0,-4.0,1.7968568,0.0
2016508000,-68.55448,-23.078959,-488.046,0.0,8.493695e-06,0.69948804,0.0,0.00053310394,-0.06399667,0.0,0.0,-4.0,1.796727,0.0
2016708000,-68.55539,-23.079336,-488.04663,4.8812376e-07,8.977477e-06,0.6994881,3.0517578e-05,0.0005636215,-0.063994616,0.0,0.0,-4.0,1.7964817,0.0
2016908000,-68.555695,-23.079594,-488.04724,6.7112353e-07,9.264961e-06,0.69948804,4.196167e-05,0.00058174133,-0.06399589,0.0,0.0,-4.0,1.796205,0.0
2017108000,-68.55557,-23.07962,-488.04852,9.256545e-05,0.00016564701,0.6312508,0.00046634674,0.0008993149,-0.5,0.0,0.0,0.0,1.7960535,0.0
2017308000,-68.555565,-23.07957,-488.05112,0.00018577144,0.0003453878,0.5313186,0.00046634674,0.0008993149,-0.5,0.0,0.0,0.0,1.7960535,0.0
2017508000,-68.55551,-23.079487,-488.05325,0.0002787491,0.00052468816,0.4316313,0.00046634674,0.0008993149,-0.5,0.0,0.0,0.0,1.7960535,0.0
2017708000,-68.555435,-23.079367,-488.0558,0.0003714754,0.00070350396,0.3322135,0.00046634674,0.0008993149,-0.5,0.0,0.0,0.0,1.7960535,0.0
2017908000,-68.55536,-23.07921,-488.05862,0.00046398243,0.0008818969,0.23303081,0.00046634674,0.0008993149,-0.5,0.0,0.0,0.0,1.7960535,0.0
2018108000,-68.55525,-23.07902,-488.06064,0.0005563058,0.0010599355,0.13404514,0.00046634674,0.0008993149,-0.5,0.0,0.0,0.0,nan,0.0
2018308000,-68.55514,-23.078793,-488.06238,0.0006485987,0.0012379158,0.035091966,0.00046634674,0.0008993149,-0.5,0.0,0.0,0.0,nan,0.0
2018508000,-68.555016,-23.078533,-488.06506,0.0007407924,0.0014157044,-0.063754775,0.00046634674,0.0008993149,-0.5,0.0,0.0,0.0,nan,0.0
2018708000,-68.554855,-23.07824,-488.06754,0.00083294255,0.0015934089,-0.16255473,0.00046634674,0.0008993149,-0.5,0.0,0.0,0.0,nan,0.0
2018908000,-68.554665,-23.077908,-488.06827,0.0009249697,0.0017708763,-0.26122284,0.00046634674,0.0008993149,-0.5,0.0,0.0,0.0,nan,0.0
2019108000,-68.554474,-23.077543,-488.068,0.0010169004,0.0019481583,-0.35978773,0.00046634674,0.0008993149,-0.5,0.0,0.0,0.0,nan,0.0
2019308000,-68.55428,-23.077145,-488.0693,0.0011086878,0.0021251633,-0.45819885,0.00046634674,0.0008993149,-0.5,0.0,0.0,0.0,nan,0.0
2019508000,-68.55407,-23.07671,-488.0714,0.0012004996,0.0023022154,-0.55663615,0.00046634674,0.0008993149,-0.5,0.0,0.0,0.0,nan,0.0
2019708000,-68.55381,-23.076242,-488.0743,0.0012736301,0.0024433471,-0.6550221,-1.1444092e-05,-1.9788742e-05,-0.5,0.0,0.0,0.0,nan,0.0
2019908000,-68.55354,-23.075766,-488.07718,0.0012628761,0.0024242185,-0.75346243,-9.1552734e-05,-0.00016260147,-0.5,0.0,0.0,0.0,nan,0.0
2020108000,-68.553276,-23.075289,-488.08228,0.0012352689,0.0023749662,-0.851786,-0.0001821518,-0.00032424927,-0.5,0.0,0.0,0.0,nan,0.0
2020308000,-68.553024,-23.07483,-488.08694,0.0011884433,0.0022917774,-0.9501237,-0.00028395653,-0.00050616264,-0.5,0.0,0.0,0.0,nan,0.0
2020508000,-68.552795,-23.07439,-488.09174,0.0011212401,0.0021702326,-1.0483751,-0.0003902912,-0.00071287155,-0.5,0.0,0.0,0.0,nan,0.0
2020708000,-68.552605,-23.073975,-488.09943,0.0010322214,0.0020044346,-1.1467962,-0.0005027056,-0.000952363,-0.5,0.0,0.0,0.0,nan,0.0
2020908000,-68.552414,-23.073599,-488.12326,0.00091875665,0.0017873487,-1.2453958,-0.0006392002,-0.0012261868,-0.5,0.0,0.0,0.0,nan,0.0
2021108000,-68.55222,-23.073267,-488.1791,0.00077234895,0.0015084563,-1.3447914,-0.0008251667,-0.0015535355,-0.5,0.0,0.0,0.0,nan,0.0
2021308000,-68.55209,-23.072998,-488.27048,0.00058259646,0.0011515747,-1.444759,-0.0010453165,-0.001995623,-0.5,0.0,0.0,0.0,nan,0.0
2021508000,-68.55199,-23.072813,-488.39648,0.0003607279,0.00072888256,-1.5,0.0,0.0,0.0,0.0,0.0,0.0,nan,0.0
2021708000,-68.55191,-23.072678,-488.53696,0.00033408994,0.00069263094,-1.4848589,-0.00013485551,-0.00023899972,0.22239918,0.0,0.0,-4.0,nan,0.0
2021908000,-68.551834,-23.072544,-488.68118,0.0002995986,0.00063035305,-1.439764,-0.00017996132,-0.00031918287,0.23360425,0.0,0.0,-4.0,nan,0.0
2022108000,-68.55176,-23.072424,-488.82922,0.00026261096,0.0005665167,-1.3920497,-0.00018928945,-0.00031918287,0.24556693,0.0,0.0,-4.0,nan,0.0
2022308000,-68.5517,-23.072317,-488.98135,0.00022386674,0.0005081379,-1.3416797,-0.00019726157,2.2828579e-05,0.26160157,0.0,0.0,-4.0,nan,0.0
2022508000,-68.55166,-23.072222,-489.1367,0.00020106143,0.00047742348,-1.288142,-5.249679e-05,-0.0002079606,0.2761334,0.0,0.0,-4.0,nan,0.0
2022708000,-68.55162,-23.072126,-489.29306,0.0001832332,0.00042905577,-1.2318487,-0.000113263726,-0.0002875179,0.28890014,0.0,0.0,-4.0,nan,0.0
2022908000,-68.55158,-23.072048,-489.44867,0.00015883046,0.000369919,-1.1731061,-0.0001243949,-0.00029568374,0.2993297,0.0,0.0,-4.0,nan,0.0
2023108000,-68.55158,-23.071978,-489.60095,0.0001474762,0.0003107822,-1.112598,1.7628074e-05,-0.00029568374,0.30733857,0.0,0.0,-4.0,nan,0.0
2023308000,-68.55158,-23.071918,-489.74835,0.00014751474,0.00027476007,-1.0507433,5.5134296e-07,-0.00010100007,0.312477,0.0,0.0,-4.0,nan,0.0
2023508000,-68.55158,-23.07187,-489.89178,0.00014748552,0.00024504442,-0.9874452,-2.220273e-06,-0.00015832484,0.32133394,0.0,0.0,-4.0,nan,0.0
2023708000,-68.55158,-23.071823,-490.0294,0.0001475133,0.00021337945,-0.9226859,3.7252903e-07,-0.00015832484,0.32659978,0.0,0.0,-4.0,nan,0.0
2023908000,-68.55158,-23.07178,-490.16028,0.00014753916,0.00018171448,-0.8569189,9.23872e-07,-0.00015832484,0.33187485,0.0,0.0,-4.0,nan,0.0
2024108000,-68.55158,-23.07175,-490.29343,0.00014752414,0.00015004951,-0.7902794,-8.940697e-07,-0.00015832484,0.33660084,0.0,0.0,-4.0,nan,0.0
2024308000,-68.55158,-23.071722,-490.43948,0.0001336369,0.000118384545,-0.6429594,-6.943941e-05,-0.00015832484,1.136601,0.0,0.0,4.0,1.8015941,0.002422724
2024508000,-68.55158,-23.071703,-490.5424,0.00011975554,8.673437e-05,-0.39271355,-6.943941e-05,-0.00015832484,1.0235009,0.0,0.0,-4.0,1.801594,0.0
2024708000,-68.55158,-23.071684,-490.60416,0.00010880442,8.14383e-05,-0.24973464,2.5480986e-06,-3.3169985e-05,0.4096796,0.0,0.0,-4.0,1.801594,0.0
2024908000,-68.55158,-23.071665,-490.64825,0.00010921284,6.9400194e-05,-0.20731218,2.2351742e-07,-6.978959e-05,0.08824031,0.0,0.0,-4.0,1.801594,0.0
2025108000,-68.55158,-23.071646,-490.6871,0.00010933794,6.0316594e-05,-0.1876902,6.7800283e-07,-4.874915e-05,0.07626846,0.0,0.0,-4.0,1.801594,0.0
2025308000,-68.55158,-23.071636,-490.72214,0.00010947056,5.3797594e-05,-0.1700441,6.7800283e-07,-2.4028122e-05,0.06777978,0.0,0.0,-4.0,1.801594,0.0
2025508000,-68.55158,-23.071627,-490.7537,0.00010956669,4.9077284e-05,-0.15413897,5.5134296e-07,-2.4288893e-05,0.05990795,0.0,0.0,-4.0,1.801594,0.0
2025708000,-68.55158,-23.071617,-490.78226,0.00010967363,4.434598e-05,-0.13973978,5.5134296e-07,-2.4415553e-05,0.053614594,0.0,0.0,-4.0,1.801594,0.0
2025908000,-68.55158,-23.07161,-490.8081,0.00010975449,3.961066e-05,-0.12670691,4.4330955e-07,-2.4482608e-05,0.047346145,0.0,0.0,-4.0,1.801594,0.0
2026108000,-68.55158,-23.07161,-490.8315,0.00010984038,3.9767994e-05,-0.11486937,4.4330955e-07,1.1175871e-07,0.041272357,0.0,0.0,-4.0,1.801594,0.0
2026308000,-68.55158,-23.07161,-490.8527,0.000109909284,3.9796025e-05,-0.10417056,3.7252903e-07,1.4528632e-07,0.03703192,0.0,0.0,-4.0,1.801594,0.0
2026508000,-68.55158,-23.07161,-490.872,0.00010998145,3.9819377e-05,-0.09439904,3.7252903e-07,1.3038516e-07,0.032981504,0.0,0.0,-4.0,1.801594,0.0
2026708000,-68.55158,-23.07161,-490.8894,0.00011003811,3.984071e-05,-0.08559691,3.2410026e-07,9.313226e-08,0.03049124,0.0,0.0,-4.0,1.801594,0.0
2026908000,-68.55158,-23.07161,-490.9052,0.00011009181,3.9862338e-05,-0.07761892,2.4586916e-07,1.1175871e-07,0.028079148,0.0,0.0,-4.0,1.801594,0.0
2027108000,-68.55158,-23.07161,-490.9195,0.0001101457,3.9879862e-05,-0.070367455,2.8312206e-07,1.0430813e-07,0.024336778,0.0,0.0,-4.0,1.801594,0.0
2027308000,-68.55158,-23.07161,-490.9325,0.00011018855,3.9895815e-05,-0.063797936,2.4214387e-07,8.568168e-08,0.023917202,0.0,0.0,-4.0,1.801594,0.0
2027508000,-68.55158,-23.07161,-490.94434,0.000110228306,3.9910257e-05,-0.057796832,1.937151e-07,7.0780516e-08,0.02317157,0.0,0.0,-4.0,1.801594,0.0
2027708000,-68.55158,-23.07161,-490.95496,0.000110265995,3.992394e-05,-0.0523793,1.5646219e-07,5.5879354e-08,0.018870587,0.0,0.0,-4.0,1.801594,0.0
2027908000,-68.55158,-23.07161,-490.96463,0.00011029819,3.9935505e-05,-0.047482625,5.2154064e-08,2.2351742e-08,0.015901059,0.0,0.0,-4.0,1.801594,0.0
2028108000,-68.55158,-23.07161,-490.9734,0.000110330104,3.99471e-05,-0.043026082,1.3411045e-07,4.8428774e-08,0.012693744,0.0,0.0,-4.0,1.801594,0.0
2028308000,-68.55158,-23.07161,-490.98135,0.000110358735,3.9957504e-05,-0.03894836,1.2293458e-07,4.0978193e-08,0.009292383,0.0,0.0,-4.0,1.801594,0.0
2028508000,-68.55158,-23.07161,-490.98862,0.000110382,3.9965915e-05,-0.03529373,6.3329935e-08,2.6077032e-08,0.004060842,0.0,0.0,-4.0,1.801594,0.0
2028708000,-68.55158,-23.07161,-490.9951,0.00011040631,3.99747e-05,-0.031995386,9.313226e-08,3.3527613e-08,0.0021280944,0.0,0.0,-4.0,1.801594,0.0
2028908000,-68.55158,-23.07161,-491.00104,0.00011042699,3.9982206e-05,-0.028969767,6.3329935e-08,2.4214387e-08,0.00011001155,0.0,0.0,-4.0,1.801594,0.0
2029108000,-68.55158,-23.07161,-491.00647,0.0001104463,3.9989172e-05,-0.02621746,0.0,0.0,0.0,0.0,0.0,0.0,1.801594,0.0
2029308000,-68.55158,-23.07161,-491.0114,0.00011046287,3.9995175e-05,-0.02370739,0.0,0.0,0.0,0.0,0.0,0.0,1.801594,0.0
2029508000,-68.55052,-23.072588,-491.01587,0.027499365,-0.022360895,-0.021604994,0.46809313,-0.26833323,0.010035038,4.0,0.0,0.0,1.798366,-0.047472954
2029708000,-68.5314,-23.082024,-491.01993,0.19438374,-0.074590415,-0.01964185,1.2466701,-0.26833323,0.010126591,4.0,0.0,0.0,1.78189,-0.11728612
2029908000,-68.46644,-23.101284,-491.02356,0.50733405,-0.12609196,-0.017688606,2.0143952,-0.26833323,0.010216951,4.0,0.0,0.0,1.7514517,-0.18709932
2030108000,-68.33209,-23.129536,-491.0267,0.95369166,-0.17624378,-0.015769929,2.7620003,-0.26833323,0.010304689,4.0,0.0,0.0,1.7070506,-0.2569125
2030308000,-68.1141,-23.165436,-491.02936,1.484296,-0.22433668,-0.013914579,3.0,-0.26833323,0.010390043,0.0,0.0,0.0,1.6486868,-0.32672563
2030508000,-67.81358,-23.208105,-491.03162,2.001554,-0.27060252,-0.0121153295,3.0,-0.26833323,0.010473013,0.0,0.0,0.0,1.5763601,-0.39653876
2030708000,-67.43902,-23.25684,-491.0335,2.5006967,-0.31524804,-0.010365592,3.0,-0.26833323,0.010552406,0.0,0.0,0.0,1.490071,-0.4663519
2030908000,-66.98629,-23.312422,-491.0351,2.9949787,-0.35945877,-0.008619541,3.0,-0.26833323,0.010633707,0.0,0.0,0.0,1.3898196,-0.53616506
2031108000,-66.45398,-23.375076,-491.03638,3.4876666,-0.403527,-0.0068655997,3.0,-0.26833323,0.010716081,0.0,0.0,0.0,1.2756058,-0.6059782
2031308000,-65.83283,-23.445864,-491.03738,3.9813356,-0.44813383,-0.0050771255,2.7991765,-0.26833323,0.010777473,-4.0,0.0,0.0,1.1474288,-0.6757913
2031508000,-65.13035,-23.524632,-491.0381,4.393834,-0.49304804,-0.003273168,2.1296475,-0.26833323,0.010777473,-4.0,0.0,0.0,1.005289,-0.74560446
2031708000,-64.35722,-23.612175,-491.03848,4.697664,-0.5385887,-0.0014440507,1.4507805,-0.26833323,0.010777473,-4.0,0.0,0.0,0.8491865,-0.8154176
2031908000,-63.531837,-23.708698,-491.03857,4.8879232,-0.58470434,0.00040816164,0.7633421,-0.26833323,0.010777473,-4.0,0.0,0.0,0.69141287,-0.75422865
2032108000,-62.674698,-23.814245,-491.03836,4.9601727,-0.62656695,0.0022820383,0.068476975,-0.07337132,0.01079604,-4.0,4.0,0.0,0.54754865,-0.6844155
2032308000,-61.778313,-23.92753,-491.0379,4.9605446,-0.62689614,0.002612885,0.0,0.0,0.0,0.0,0.0,0.0,0.41764683,-0.6146024
2032508000,-60.83661,-24.04654,-491.03745,4.9605446,-0.62689626,0.0026148874,0.0,0.0,0.0,0.0,0.0,0.0,0.30170763,-0.54478925
2032708000,-59.89282,-24.16581,-491.037,4.9605446,-0.6268962,0.0026169806,0.0,0.0,0.0,0.0,0.0,0.0,0.19973105,-0.47497612
2032908000,-58.97229,-24.28214,-491.03653,4.960544,-0.62689656,0.0026184458,0.0,0.0,0.0,0.0,0.0,0.0,0.11171689,-0.40517887
2033108000,-58.042774,-24.399605,-491.03607,4.960544,-0.62689674,0.0026205124,0.0,0.0,0.0,0.0,0.0,0.0,0.03763581,-0.3356188
2033308000,-57.114746,-24.51688,-491.0356,4.9605446,-0.62689704,0.0026219278,0.0,0.0,0.0,0.0,0.0,0.0,-0.022547117,-0.266219
2033508000,-56.188343,-24.633951,-491.03516,4.9605446,-0.62689734,0.0026238502,0.0,0.0,0.0,0.0,0.0,0.0,-0.06887229,-0.19699688
2033708000,-55.245422,-24.753113,-491.0347,4.9605446,-0.6268974,0.0026260356,0.0,0.0,0.0,0.0,0.0,0.0,-0.10138952,-0.12823294
2033908000,-54.290913,-24.873737,-491.03424,4.9605446,-0.6268976,0.002628695,0.0,0.0,0.0,0.0,0.0,0.0,-0.120242216,-0.060265586
2034108000,-53.343163,-24.993505,-491.03378,4.960544,-0.62689775,0.0026312848,0.0,0.0,0.0,0.0,0.0,0.0,-0.125917,-0.00069484
2034308000,-52.404648,-25.112114,-491.03333,4.9605446,-0.6268978,0.002633655,0.0,0.0,0.0,0.0,0.0,0.0,-0.12633407,-0.0008640615
2034508000,-51.475174,-25.229574,-491.03287,4.9605446,-0.626898,0.002635782,0.0,0.0,0.0,0.0,0.0,0.0,-0.12672132,-0.0010579431
2034708000,-50.55192,-25.346249,-491.0324,4.9605446,-0.6268983,0.0026377481,0.0,0.0,0.0,0.0,0.0,0.0,-0.12705171,0.0
2034908000,-49.632698,-25.462414,-491.03195,4.960544,-0.6268984,0.0026396154,0.0,0.0,0.0,0.0,0.0,0.0,-0.12728857,0.0
2035108000,-48.715683,-25.5783,-491.0315,4.9605446,-0.62689865,0.002641442,0.0,0.0,0.0,0.0,0.0,0.0,-0.12743828,0.0
2035308000,-47.799328,-25.694109,-491.03104,4.960544,-0.6268984,0.0026432867,0.0,0.0,0.0,0.0,0.0,0.0,-0.1275559,0.0
2035508000,-46.86637,-25.812008,-491.03058,4.9605446,-0.6268987,0.0026454176,0.0,0.0,0.0,0.0,0.0,0.0,-0.12762572,0.0
2035708000,-45.92447,-25.931042,-491.03012,4.960544,-0.6268989,0.002648193,0.0,0.0,0.0,0.0,0.0,0.0,-0.1276496,0.0
2035908000,-44.982338,-26.050106,-491.02966,4.960544,-0.6268987,0.002651038,0.0,0.0,0.0,0.0,0.0,0.0,-0.12763226,0.0
2036108000,-44.04766,-26.168228,-491.0292,4.960544,-0.62689877,0.0026539974,0.0,0.0,0.0,0.0,0.0,0.0,-0.12760745,0.0
2036308000,-43.10296,-26.28762,-491.02875,4.960544,-0.62689865,0.0026567646,0.0,0.0,0.0,0.0,0.0,0.0,-0.12756905,0.0
2036508000,-42.164116,-26.406271,-491.0283,4.960544,-0.62689817,0.0026599788,0.0,0.0,0.0,0.0,0.0,0.0,-0.1274664,0.0
2036708000,-41.21355,-26.526394,-491.02783,4.960544,-0.62689865,0.0026631185,0.0,0.0,0.0,0.0,0.0,0.0,-0.12731908,0.0
2036908000,-40.272358,-26.645336,-491.02737,4.960544,-0.62689894,0.002666518,0.0,0.0,0.0,0.0,0.0,0.0,-0.1271556,0.0
2037108000,-39.32509,-26.765047,-491.02692,4.960544,-0.626899,0.0026699621,0.0,0.0,0.0,0.0,0.0,0.0,-0.12698112,0.0
2037308000,-38.37255,-26.885427,-491.02646,4.960544,-0.62689906,0.0026737028,0.0,0.0,0.0,0.0,0.0,0.0,-0.12681818,0.0
2037508000,-37.420513,-27.005743,-491.026,4.960544,-0.6268988,0.0026775307,0.0,0.0,0.0,0.0,0.0,0.0,-0.12666917,0.0
2037708000,-36.46491,-27.126503,-491.02554,4.960544,-0.62689924,0.0026816153,0.0,0.0,0.0,0.0,0.0,0.0,-0.12652282,0.0
2037908000,-35.508305,-27.247393,-491.0251,4.960544,-0.62689984,0.002685865,0.0,0.0,0.0,0.0,0.0,0.0,-0.12638766,0.0
2038108000,-34.551186,-27.368351,-491.02463,4.960544,-0.6268996,0.0026902584,0.0,0.0,0.0,0.0,0.0,0.0,-0.1262353,0.0
2038308000,-33.593994,-27.48932,-491.02417,4.960544,-0.6268993,0.002694775,0.0,0.0,0.0,0.0,0.0,0.0,-0.12607802,0.0
2038508000,-32.6362,-27.610363,-491.0237,4.960544,-0.62689966,0.002699459,0.0,0.0,0.0,0.0,0.0,0.0,-0.12598082,0.0
2038708000,-31.679386,-27.731287,-491.02325,4.960544,-0.62689924,0.002704227,0.0,0.0,0.0,0.0,0.0,0.0,-0.12593243,0.0
2038908000,-30.721066,-27.852398,-491.0228,4.960544,-0.62689924,0.0027092039,0.0,0.0,0.0,0.0,0.0,0.0,-0.1258973,0.0
2039108000,-29.763044,-27.973467,-491.02234,4.960544,-0.62689954,0.0027143103,0.0,0.0,0.0,0.0,0.0,0.0,-0.12586834,0.0
2039308000,-28.802948,-28.0948,-491.02188,4.960544,-0.6268993,0.0027196635,0.0,0.0,0.0,0.0,0.0,0.0,-0.12584697,0.0
2039508000,-27.842167,-28.216217,-491.02142,4.960544,-0.6268996,0.0027252068,0.0,0.0,0.0,0.0,0.0,0.0,-0.125837,0.0
2039708000,-26.878532,-28.338001,-491.02097,4.960544,-0.6268995,0.0027310513,0.0,0.0,0.0,0.0,0.0,0.0,-0.12582085,0.0
2039908000,-25.91275,-28.460054,-491.0205,4.960544,-0.62689984,0.0027371775,0.0,0.0,0.0,0.0,0.0,0.0,-0.12580232,0.0
2040108000,-24.944012,-28.582474,-491.02005,4.960544,-0.6269001,0.0027436567,0.0,0.0,0.0,0.0,0.0,0.0,-0.12578094,0.0
2040308000,-23.974747,-28.704967,-491.0196,4.960544,-0.62690014,0.002750379,0.0,0.0,0.0,0.0,0.0,0.0,-0.12578808,0.0
2040508000,-23.00357,-28.827702,-491.01913,4.960544,-0.62689996,0.0027574305,0.0,0.0,0.0,0.0,0.0,0.0,-0.12574388,0.0
2040708000,-22.032366,-28.95044,-491.01868,4.960544,-0.6269002,0.002764728,0.0,0.0,0.0,0.0,0.0,0.0,-0.1256873,0.0
2040908000,-21.059822,-29.073347,-491.01822,4.960544,-0.6269,0.0027723603,0.0,0.0,0.0,0.0,0.0,0.0,-0.12562406,0.0
2041108000,-20.087774,-29.196192,-491.01776,4.960544,-0.6269,0.0027802365,0.0,0.0,0.0,0.0,0.0,0.0,-0.12558647,0.0
2041308000,-19.113747,-29.319284,-491.0173,4.9605436,-0.6269002,0.0027884957,0.0,0.0,0.0,0.0,0.0,0.0,-0.12551412,0.0
2041508000,-18.138348,-29.442553,-491.01685,4.960544,-0.6269005,0.0027971396,0.0,0.0,0.0,0.0,0.0,0.0,-0.12543744,0.0
2041708000,-17.16199,-29.565935,-491.0164,4.9605436,-0.6269008,0.0028061992,0.0,0.0,0.0,0.0,0.0,0.0,-0.12530397,0.0
2041908000,-16.187977,-29.68903,-491.01593,4.960544,-0.626901,0.0028154822,0.0,0.0,0.0,0.0,0.0,0.0,-0.12518229,0.0
2042108000,-15.210576,-29.812553,-491.01547,4.9605436,-0.6269006,0.0028252178,0.0,0.0,0.0,0.0,0.0,0.0,-0.12512977,0.0
2042308000,-14.227896,-29.936747,-491.015,4.960544,-0.62690026,0.0028357562,0.0,0.0,0.0,0.0,0.0,0.0,-0.12516367,0.0
2042508000,-13.244647,-30.061005,-491.01456,4.960544,-0.62690055,0.0028467774,0.0,0.0,0.0,0.0,0.0,0.0,-0.12513503,0.0
2042708000,-12.26178,-30.185217,-491.0141,4.9605436,-0.62690055,0.0028582471,0.0,0.0,0.0,0.0,0.0,0.0,-0.12508869,0.0
2042908000,-11.278952,-30.30942,-491.01364,4.9605436,-0.6269008,0.0028702205,0.0,0.0,0.0,0.0,0.0,0.0,-0.12499693,0.0
2043108000,-10.296742,-30.433548,-491.01318,4.960544,-0.6269012,0.002882685,0.0,0.0,0.0,0.0,0.0,0.0,-0.12490702,0.0
2043308000,-9.314219,-30.55772,-491.01273,4.960544,-0.62690073,0.00289573,0.0,0.0,0.0,0.0,0.0,0.0,-0.124880224,0.0
2043508000,-8.330941,-30.681982,-491.01227,4.9605436,-0.62690055,0.0029094291,0.0,0.0,0.0,0.0,0.0,0.0,-0.124934286,0.0
2043708000,-7.346535,-30.806389,-491.0118,4.960544,-0.6269009,0.0029238665,0.0,0.0,0.0,0.0,0.0,0.0,-0.12497446,0.0
2043908000,-6.3612638,-30.930906,-491.01135,4.9605436,-0.62690055,0.002939075,0.0,0.0,0.0,0.0,0.0,0.0,-0.12503088,0.0
2044108000,-5.374692,-31.055582,-491.0109,4.960544,-0.6269006,0.002955142,0.0,0.0,0.0,0.0,0.0,0.0,-0.12509346,0.0
2044308000,-4.3844366,-31.180727,-491.01044,4.9605436,-0.62690157,0.0029722736,0.0,0.0,0.0,0.0,0.0,0.0,-0.12519805,0.0
2044508000,-3.3923285,-31.306107,-491.00998,4.960544,-0.62690145,0.002990548,0.0,0.0,0.0,0.0,0.0,0.0,-0.12528823,0.0
2044708000,-2.4002204,-31.431482,-491.00952,4.9605436,-0.6269018,0.003009826,0.0,0.0,0.0,0.0,0.0,0.0,-0.12537216,0.0
2044908000,-1.4081118,-31.556858,-491.00906,4.9605436,-0.62690246,0.0030301933,0.0,0.0,0.0,0.0,0.0,0.0,-0.12545602,0.0
2045108000,-0.41600293,-31.682236,-491.0086,4.960544,-0.6269029,0.0030517445,0.0,0.0,0.0,0.0,0.0,0.0,-0.12552792,0.0
2045308000,0.5761058,-31.80762,-491.00815,4.960543,-0.62690294,0.0030745862,0.0,0.0,0.0,0.0,0.0,0.0,-0.12552173,0.0
2045508000,1.5682145,-31.933008,-491.0077,4.9605436,-0.62690204,0.0030988387,0.0,0.0,0.0,0.0,0.0,0.0,-0.12552698,0.0
2045708000,2.5603232,-32.058395,-491.00723,4.960544,-0.6269012,0.0031246354,0.0,0.0,0.0,0.0,0.0,0.0,-0.12557076,0.0
2045908000,3.552433,-32.183784,-491.00677,4.960544,-0.62689793,0.0031521297,0.0,0.0,0.0,0.0,0.0,0.0,-0.12562597,0.0
2046108000,4.544541,-32.30917,-491.00632,4.960544,-0.62689704,0.0031814938,0.0,0.0,0.0,0.0,0.0,0.0,-0.12560979,0.0
2046308000,5.5366483,-32.434547,-491.00586,4.960544,-0.6268986,0.0032129255,0.0,0.0,0.0,0.0,0.0,0.0,-0.12558599,0.0
2046508000,6.5287557,-32.559937,-491.0054,4.960544,-0.62689686,0.0032466517,0.0,0.0,0.0,0.0,0.0,0.0,-0.12539066,0.0007845296
2046708000,7.520863,-32.68531,-491.0049,4.960544,-0.6268971,0.003282933,0.0,0.0,0.0,0.0,0.0,0.0,-0.12512547,0.0
2046908000,8.512971,-32.810688,-491.0043,4.960544,-0.6268982,0.0032920341,0.0,0.0,0.0,0.0,0.0,0.0,-0.1248008,0.0013031939
2047108000,9.505078,-32.936073,-491.0037,4.960544,-0.62689704,0.003301881,0.0,0.0,0.0,0.0,0.0,0.0,-0.12448817,0.0
2047308000,10.497186,-33.06145,-491.00308,4.960544,-0.6268974,0.0033125703,0.0,0.0,0.0,0.0,0.0,0.0,-0.124247916,3.3933902e-05
2047508000,11.489292,-33.186832,-491.00247,4.9605446,-0.62689525,0.0033242132,0.0,0.0,0.0,0.0,0.0,0.0,-0.124098256,0.0
2047708000,12.4814,-33.312214,-491.00186,4.9605446,-0.6268964,0.0033369446,0.0,0.0,0.0,0.0,0.0,0.0,-0.1239031,0.0001584494
2047908000,13.473507,-33.4376,-491.00125,4.9605446,-0.6268949,0.003350924,0.0,0.0,0.0,0.0,0.0,0.0,-0.12374961,0.0
2048108000,14.465614,-33.562977,-491.00064,4.9605446,-0.62689424,0.0033663448,0.0,0.0,0.0,0.0,0.0,0.0,-0.12367812,0.0
2048308000,15.457721,-33.688335,-491.00003,4.960544,-0.62689954,0.0033834407,0.0,0.0,0.0,0.0,0.0,0.0,-0.12371242,0.0
2048508000,16.44983,-33.813717,-490.99942,4.9605436,-0.6269012,0.0034025025,0.0,0.0,0.0,0.0,0.0,0.0,-0.123647675,0.0
2048708000,17.441938,-33.9391,-490.9988,4.960544,-0.6268986,0.0034238896,0.0,0.0,0.0,0.0,0.0,0.0,-0.123575166,0.0
2048908000,18.434044,-34.06447,-490.9982,4.9605436,-0.6269015,0.0034480523,0.0,0.0,0.0,0.0,0.0,0.0,-0.12360756,0.0
2049108000,19.426151,-34.18986,-490.9976,4.960544,-0.6268985,0.0034755727,0.0,0.0,0.0,0.0,0.0,0.0,-0.12381069,-0.00039101578
2049308000,20.41826,-34.31523,-490.99698,4.9605436,-0.62690055,0.0035071992,0.0,0.0,0.0,0.0,0.0,0.0,-0.12410402,-3.5784906e-05
2049508000,21.410368,-34.4406,-490.99637,4.960543,-0.62690455,0.003543928,0.0,0.0,0.0,0.0,0.0,0.0,-0.12442332,-0.0005980625
2049708000,22.402359,-34.56594,-490.99573,4.954271,-0.62527615,0.0035712493,-0.224,0.03921157,-0.00019177794,-4.0,0.0,0.0,-0.12494163,-0.0022110448
2049908000,23.383408,-34.689728,-490.99496,4.8294706,-0.61085594,0.0034877267,-1.024,0.09482902,-0.0005659163,-4.0,0.0,0.0,-0.12560028,-0.0023029863
2050108000,24.323603,-34.809666,-490.9942,4.5507956,-0.58716506,0.003342979,-1.5821098,0.1368702,-0.0008479655,4.0,0.0,0.0,-0.12585172,0.0
2050308000,25.201817,-34.9241,-490.99344,4.2321086,-0.5562856,0.0031471374,-1.560543,0.16662663,-0.0010770857,4.0,0.0,0.0,-0.12570205,0.0
2050508000,26.016827,-35.031868,-490.99283,3.9193027,-0.52082306,0.002922589,-1.5241094,0.18449843,-0.0011404455,4.0,0.0,0.0,-0.12528966,0.0024440926
2050708000,26.77008,-35.132263,-490.99234,3.6149523,-0.48278415,0.0026917027,-1.4765462,0.19368994,-0.0011585057,4.0,0.0,0.0,-0.124546535,0.0029867215
2050908000,27.46349,-35.224907,-490.99188,3.3210151,-0.44364884,0.0024600013,-1.4203843,0.19642377,-0.0011585057,4.0,0.0,0.0,-0.12397069,0.0002732235
2051108000,28.09928,-35.309692,-490.99142,3.0390244,-0.40436417,0.0022282999,-1.3574045,0.19642377,-0.0011585057,4.0,0.0,0.0,-0.12349712,0.002225106
2051308000,28.679974,-35.38662,-490.99097,2.770198,-0.3650795,0.0019965984,-1.2890012,0.19642377,-0.0011585057,4.0,0.0,0.0,-0.1238666,-0.005112149
2051508000,29.208296,-35.4557,-490.9906,2.5155027,-0.32579482,0.001764897,-1.2163336,0.19642377,-0.0011585057,4.0,0.0,0.0,-0.1250178,-0.0028486827
2051708000,29.687155,-35.516922,-490.9903,2.2756827,-0.28651014,0.0015331956,-1.1404662,0.19642377,-0.0011585057,4.0,0.0,0.0,-0.12672068,-0.013226211
2051908000,30.119589,-35.570286,-490.99,2.0512712,-0.24722546,0.0013014942,-1.0624511,0.19642377,-0.0011585057,4.0,0.0,0.0,-0.12960222,-0.012718692
2052108000,30.50871,-35.615788,-490.9897,1.8425941,-0.20794071,0.001209413,-0.983337,0.19642377,-0.00027033687,4.0,0.0,0.0,-0.13317661,-0.022517487
2052308000,30.85768,-35.654606,-490.98938,1.6497632,-0.18504,0.001119836,-0.9041838,0.068423755,-0.0005812049,4.0,0.0,0.0,-0.13812456,-0.02265764
2052508000,31.16966,-35.690254,-490.98907,1.4726852,-0.17135529,0.0009842557,-0.82600415,0.068423755,-0.0007583797,4.0,0.0,0.0,-0.13885975,0.0
2052708000,31.447777,-35.723164,-490.9889,1.3110539,-0.15767059,0.00082513166,-0.74990726,0.068423755,-0.0008057654,4.0,0.0,0.0,-0.13885975,0.0
2052908000,31.695072,-35.753326,-490.98874,1.1643486,-0.14381753,0.0006639785,-0.67691636,0.07296888,-0.0008057654,4.0,0.0,0.0,-0.13885975,0.0
2053108000,31.914463,-35.780544,-490.9887,1.0318624,-0.12827842,0.0006013673,-0.60784584,0.07921002,2.1904707e-05,4.0,0.0,0.0,-0.13885975,0.0
2053308000,32.108704,-35.804604,-490.9887,0.91274863,-0.11243643,0.00060711073,-0.54327303,0.07921002,3.20673e-05,4.0,0.0,0.0,-0.13885975,0.0
2053508000,32.28038,-35.8255,-490.9887,0.80606854,-0.096594445,0.00061372604,-0.4835669,0.07921002,3.325939e-05,4.0,0.0,0.0,-0.13885975,0.0
2053708000,32.43189,-35.84323,-490.9887,0.71083987,-0.08075246,0.0006203777,-0.4288578,0.07921002,3.325939e-05,4.0,0.0,0.0,-0.13885975,0.0
2053908000,32.565403,-35.85866,-490.9887,0.6260659,-0.07457594,0.0006270294,-0.37897965,0.033458024,3.325939e-05,4.0,0.0,0.0,-0.13885975,0.0
2054108000,32.68292,-35.872784,-490.9887,0.5507964,-0.06636636,0.0006336811,-0.3338733,0.043230116,3.325939e-05,4.0,0.0,0.0,-0.13885975,0.0
2054308000,32.78627,-35.885212,-490.9887,0.48409876,-0.057720333,0.0006363259,-0.29333335,0.043230116,1.770258e-05,4.0,0.0,0.0,-0.13885975,0.0
2054508000,32.87705,-35.895905,-490.98868,0.42510194,-0.049074307,0.0006201653,-0.25687638,0.043230116,4.452467e-05,4.0,0.0,0.0,-0.13885975,0.0
2054708000,32.95675,-35.905132,-490.98868,0.3730056,-0.044127073,0.0006248387,-0.22444272,0.023926422,9.760261e-06,4.0,0.0,0.0,-0.13885975,0.0
2054908000,33.026646,-35.913425,-490.98868,0.3270709,-0.03874348,0.00062766345,-0.19540003,0.027298182,1.4975667e-05,4.0,0.0,0.0,-0.13885975,0.0
2055108000,33.087914,-35.920628,-490.98868,0.2866192,-0.033283845,0.0006306585,-0.16975048,0.027298182,1.4975667e-05,4.0,0.0,0.0,-0.13885975,0.0
2055308000,33.141594,-35.92683,-490.98868,0.2510318,-0.029496852,0.0006336536,-0.14695016,0.015714988,1.4975667e-05,4.0,0.0,0.0,-0.13885975,0.0
2055508000,33.188602,-35.932365,-490.98868,0.21975602,-0.025818827,0.00063524453,-0.12693447,0.018625863,1.0095537e-05,4.0,0.0,0.0,-0.13885975,0.0
2055708000,33.229748,-35.937153,-490.98865,0.19229196,-0.022093657,0.00061429344,-0.109151706,0.018625863,0.00011818856,4.0,0.0,0.0,-0.13885975,0.0
2055908000,33.26574,-35.941353,-490.98865,0.16819796,-0.019731233,0.0006189508,-0.09357834,0.013607472,7.4878335e-06,4.0,0.0,0.0,-0.13885975,0.0
2056108000,33.2972,-35.945034,-490.98865,0.14708571,-0.01700974,0.00062048255,-0.07989833,0.013607472,7.659197e-06,4.0,0.0,0.0,-0.13885975,0.0
2056308000,33.324703,-35.94824,-490.98865,0.12859206,-0.015033701,0.0006217184,-0.06813531,0.010438077,4.425645e-06,4.0,0.0,0.0,-0.13885975,0.0
2056508000,33.348747,-35.951042,-490.98865,0.112392224,-0.012946086,0.0006228622,-0.057734266,0.010438077,5.789101e-06,4.0,0.0,0.0,-0.13885975,0.0
2056708000,33.369762,-35.953476,-490.98865,0.09821491,-0.0114579,0.00062381814,-0.049082935,0.007938415,3.6656857e-06,4.0,0.0,0.0,-0.13885975,0.0
2056908000,33.38812,-35.955605,-490.98865,0.08580951,-0.009870218,0.0006247166,-0.041540664,0.007938415,4.4927e-06,4.0,0.0,0.0,-0.13885975,0.0
2057108000,33.40417,-35.95747,-490.98865,0.074951224,-0.008701977,0.0006254443,-0.035551112,0.0065213405,3.7327409e-06,4.0,0.0,0.0,-0.13885975,0.0
2057308000,33.41819,-35.9591,-490.98865,0.06545761,-0.0076289997,0.0006261238,-0.030519642,0.0041819066,-4.5448542e-07,4.0,0.0,0.0,-0.13885975,0.0
2057508000,33.430424,-35.96053,-490.98865,0.057164904,-0.006622032,0.0006266964,-0.027246073,-0.001323346,-2.8312206e-07,4.0,0.0,0.0,-0.13885975,0.0
2057708000,33.441128,-35.96177,-490.98865,0.04991131,-0.005731221,0.0006272038,-0.025544886,0.0042897947,-7.4505806e-08,4.0,0.0,0.0,-0.13885975,0.0
2057908000,33.450462,-35.962868,-490.98865,0.043567132,-0.005065858,0.00062763115,-0.023270285,0.0026182234,1.5124679e-06,4.0,0.0,0.0,-0.13885975,0.0
2058108000,33.458607,-35.963818,-490.98865,0.038009264,-0.0044137277,0.00062802667,-0.017575853,0.0024201088,1.5497208e-06,4.0,0.0,0.0,-0.13885975,0.0
2058308000,33.465714,-35.96465,-490.98865,0.03316019,-0.0038475934,0.00062836654,-0.0122324955,0.0023207292,1.616776e-06,4.0,0.0,0.0,-0.13885975,0.0
2058508000,33.471905,-35.965366,-490.98865,0.02893265,-0.00335186,0.0006286561,-0.0073841065,0.0020410158,1.1138618e-06,4.0,0.0,0.0,-0.13885975,0.0
2058708000,33.477306,-35.96598,-490.98865,0.025248922,-0.0029298686,0.000628918,-0.002724573,0.0018720068,1.0244548e-06,4.0,0.0,0.0,-0.13885975,0.0
2058908000,33.482025,-35.966503,-490.98865,0.022032805,-0.0025723968,0.0006291477,0.0,0.0,0.0,0.0,0.0,0.0,-0.13885975,0.0
2059108000,33.48615,-35.96697,-490.98865,0.019222891,-0.0022559937,0.00062934513,0.0,0.0,0.0,0.0,0.0,0.0,-0.13885975,0.0
2059308000,33.48974,-35.967377,-490.98865,0.016771019,-0.0019773913,0.0006295179,0.0,0.0,0.0,0.0,0.0,0.0,-0.13885975,0.0
2059508000,33.49289,-35.967728,-490.98865,0.01462454,-0.001739203,0.0006296699,0.0,0.0,0.0,0.0,0.0,0.0,-0.13885975,0.0
2059708000,33.49563,-35.96805,-490.98865,0.012750809,-0.001521158,0.0006297976,0.0,0.0,0.0,0.0,0.0,0.0,-0.13885975,0.0
2059908000,33.498005,-35.968334,-490.98865,0.011125212,-0.0013284213,0.00062992366,0.0,0.0,0.0,0.0,0.0,0.0,-0.13885975,0.0
2060108000,33.50008,-35.968575,-490.98865,0.009704058,-0.0011609305,0.0006300052,0.0,0.0,0.0,0.0,0.0,0.0,-0.13885975,0.0
2060308000,33.501892,-35.968784,-490.98865,0.00846842,-0.001016312,0.0006301175,0.0,0.0,0.0,0.0,0.0,0.0,-0.13885975,0.0
2060508000,33.50503,-35.96949,-490.98495,0.026482912,-0.0069031855,0.062582105,0.112053625,-0.034374118,0.70400006,0.0,0.0,4.0,-0.13885975,0.0
2060708000,33.512566,-35.971558,-490.95306,0.04889364,-0.0137780085,0.28338212,0.112053625,-0.034374118,1.504,0.0,0.0,4.0,-0.13885975,0.0
2060908000,33.524582,-35.975006,-490.8662,0.071304366,-0.020652829,0.5645051,0.112053625,-0.034374118,1.0411336,0.0,0.0,-4.0,-0.13885975,0.0
2061108000,33.54036,-35.979664,-490.73776,0.07896959,-0.023749884,0.6927319,-0.055558853,0.013184622,0.24113351,0.0,0.0,-4.0,-0.13885975,0.0
2061308000,33.554688,-35.98399,-490.5978,0.06637734,-0.020067204,0.7,-0.03094165,0.014812112,2.5108457e-06,4.0,0.0,0.0,-0.13885975,0.0
2061508000,33.5671,-35.987732,-490.45773,0.057969265,-0.017535198,0.7,-0.027560718,0.011508912,-2.603978e-06,4.0,0.0,0.0,-0.13885975,0.0
2061708000,33.57795,-35.99102,-490.31766,0.050619554,-0.0153345745,0.7,-0.025540285,0.008088447,2.6598573e-06,4.0,0.0,0.0,-0.13885975,0.0
2061908000,33.587425,-35.993874,-490.1776,0.044187743,-0.013391022,0.7,-0.023944862,0.007237226,-2.7120113e-06,4.0,0.0,0.0,-0.13885975,0.0
2062108000,33.59568,-35.996372,-490.03757,0.038554695,-0.011686121,0.7,-0.018045418,0.0066856183,2.9057264e-06,4.0,0.0,0.0,-0.13885975,0.0
2062308000,33.602894,-35.998577,-489.89758,0.03363401,-0.010181341,0.7,-0.012800759,0.0064618997,-3.1031668e-06,4.0,0.0,0.0,-0.13885975,0.0
2062508000,33.60917,-36.000492,-489.75754,0.029349921,-0.008870531,0.7,-0.007882312,0.005971715,3.3192337e-06,4.0,0.0,0.0,-0.13885975,0.0
2062708000,33.614643,-36.002155,-489.61758,0.025615651,-0.0077321273,0.7,-0.0029802397,0.0029802397,-3.5576522e-06,4.0,-4.0,0.0,-0.13885975,0.0
2062908000,33.619434,-36.0036,-489.47757,0.022354903,-0.006744773,0.7,0.0,0.0,0.0,0.0,0.0,0.0,-0.13885975,0.0
2063108000,33.623608,-36.00487,-489.3375,0.019509902,-0.005876568,0.7,0.0,0.0,0.0,0.0,0.0,0.0,-0.13885975,0.0
2063308000,33.627266,-36.005985,-489.19742,0.017015424,-0.0051193484,0.7,0.0,0.0,0.0,0.0,0.0,0.0,-0.13885975,0.0
2063508000,33.630444,-36.00695,-489.05734,0.014844103,-0.004463132,0.7,0.0,0.0,0.0,0.0,0.0,0.0,-0.13885975,0.0
2063708000,33.633224,-36.00778,-488.91727,0.01294524,-0.0038927137,0.7,0.0,0.0,0.0,0.0,0.0,0.0,-0.13885975,0.0
2063908000,33.63564,-36.00849,-488.7772,0.011294596,-0.0034059035,0.7,0.0,0.0,0.0,0.0,0.0,0.0,-0.13885975,0.0
2064108000,33.63774,-36.009136,-488.63712,0.009855867,-0.002969461,0.7,0.0,0.0,0.0,0.0,0.0,0.0,-0.13885975,0.0
2064308000,33.639587,-36.009705,-488.49704,0.0086000655,-0.0025787493,0.7,0.0,0.0,0.0,0.0,0.0,0.0,-0.13885975,0.0
2064508000,33.641193,-36.010212,-488.35696,0.0074933865,-0.0022335323,0.7,0.0,0.0,0.0,0.0,0.0,0.0,-0.13885975,0.0
2064708000,33.64259,-36.010616,-488.2169,0.006538487,-0.0019516353,0.7,0.0,0.0,0.0,0.0,0.0,0.0,-0.13885975,0.0
2064908000,33.643814,-36.010956,-488.0768,0.005703017,-0.0017180212,0.7,0.0,0.0,0.0,0.0,0.0,0.0,-0.13885975,0.0
2065108000,33.644882,-36.011253,-487.93674,0.004974136,-0.0015123204,0.7,0.0,0.0,0.0,0.0,0.0,0.0,-0.13885975,0.0
2065308000,33.64581,-36.011513,-487.79666,0.0043389136,-0.0013344638,0.7,0.0,0.0,0.0,0.0,0.0,0.0,-0.13885975,0.0
2065508000,33.646618,-36.011745,-487.6566,0.0037849122,-0.0011794488,0.7,0.0,0.0,0.0,0.0,0.0,0.0,-0.13885975,0.0
2065708000,33.64733,-36.011963,-487.5165,0.0032998873,-0.0010321682,0.7,0.0,0.0,0.0,0.0,0.0,0.0,-0.13885975,0.0
2065908000,33.64794,-36.012142,-487.37643,0.002880487,-0.00090507796,0.7,0.0,0.0,0.0,0.0,0.0,0.0,-0.13885975,0.0
2066108000,33.64848,-36.012295,-487.23636,0.0025120284,-0.0008034424,0.7,0.0,0.0,0.0,0.0,0.0,0.0,-0.13885975,0.0
2066308000,33.648956,-36.01244,-487.09628,0.002181297,-0.0007042183,0.7,0.0,0.0,0.0,0.0,0.0,0.0,-0.13885975,0.0
2066508000,33.64936,-36.012573,-486.9562,0.001904353,-0.0006152916,0.7,0.0,0.0,0.0,0.0,0.0,0.0,-0.13885975,0.0
2066708000,33.6497,-36.0127,-486.81613,0.0016731556,-0.00052890024,0.7,0.0,0.0,0.0,0.0,0.0,0.0,-0.13885975,0.0
2066908000,33.650017,-36.012787,-486.67606,0.0014567283,-0.00046523786,0.7,0.0,0.0,0.0,0.0,0.0,0.0,-0.13885975,0.0
2067108000,33.650303,-36.012848,-486.53598,0.0012636601,-0.00042206756,0.7,0.0,0.0,0.0,0.0,0.0,0.0,-0.13885975,0.0
2067308000,33.650566,-36.012905,-486.3959,0.0010856767,-0.00038392784,0.7,0.0,0.0,0.0,0.0,0.0,0.0,-0.13885975,0.0
2067508000,33.65076,-36.012962,-486.25583,0.00094839063,-0.00034579393,0.7,0.0,0.0,0.0,0.0,0.0,0.0,-0.13885975,0.0
2067708000,33.650925,-36.01302,-486.11575,0.0008313502,-0.000307625,0.7,0.0,0.0,0.0,0.0,0.0,0.0,-0.13885975,0.0
2067908000,33.65106,-36.013073,-485.97568,0.0007426972,-0.00026960927,0.7,0.0,0.0,0.0,0.0,0.0,0.0,-0.13885975,0.0
2068108000,33.65118,-36.01311,-485.8356,0.0006585956,-0.00024411269,0.7,0.0,0.0,0.0,0.0,0.0,0.0,-0.13885975,0.0
2068308000,33.65128,-36.01315,-485.69553,0.00058973406,-0.00021860831,0.7,0.0,0.0,0.0,0.0,0.0,0.0,-0.13885975,0.0
2068508000,33.651375,-36.013187,-485.55545,0.0005264025,-0.00019326854,0.7,0.0,0.0,0.0,0.0,0.0,0.0,-0.13885975,0.0
2068708000,33.65147,-36.013226,-485.41537,0.00046261676,-0.00016776212,0.7,0.0,0.0,0.0,0.0,0.0,0.0,-0.13885975,0.0
2068908000,33.651546,-36.013264,-485.2753,0.00040686032,-0.0001424011,0.7,0.0,0.0,0.0,0.0,0.0,0.0,-0.13885975,0.0
2069108000,33.651608,-36.013287,-485.13522,0.00036610014,-0.00012457574,0.7,0.0,0.0,0.0,0.0,0.0,0.0,-0.13885975,0.0
2069308000,33.651665,-36.013306,-484.99515,0.00032810014,-0.00011191012,0.7,0.0,0.0,0.0,0.0,0.0,0.0,-0.13885975,0.0
2069508000,33.651722,-36.013325,-484.85507,0.00029009982,-9.924468e-05,0.7,0.0,0.0,0.0,0.0,0.0,0.0,-0.13885975,0.0
2069708000,33.651775,-36.013344,-484.715,0.00025416998,-8.6417785e-05,0.7,0.0,0.0,0.0,0.0,0.0,0.0,-0.13885975,0.0
2069908000,33.665905,-35.97751,-486.14276,-4.0448034e-05,-0.00051186513,0.7,-0.0025803596,-0.06399157,0.0,0.0,-4.0,0.0,-0.13968237,0.005585054
2070108000,33.665436,-35.977528,-486.15167,0.0,-0.0005118339,0.7,0.0,-0.06398962,0.0,0.0,-4.0,0.0,-0.13999894,0.005585054
2070308000,33.665016,-35.977432,-486.16827,0.0,-0.0005118663,0.7,0.0,-0.06399164,0.0,0.0,-4.0,0.0,-0.13932599,0.005585054
2070508000,33.664818,-35.978165,-486.184,0.0,-0.00051182706,0.7,0.0,-0.06398919,0.0,0.0,-4.0,0.0,-0.1393169,0.005585054
