timestamp,accel_device_id,gyro_device_id,accel_clipping[0],accel_clipping[1],accel_clipping[2],gyro_clipping[0],gyro_clipping[1],gyro_clipping[2],accel_error_count,gyro_error_count,accel_rate_hz,gyro_rate_hz,accel_raw_rate_hz,gyro_raw_rate_hz,accel_vibration_metric,gyro_vibration_metric,delta_angle_coning_metric,mean_accel[0],mean_accel[1],mean_accel[2],mean_gyro[0],mean_gyro[1],mean_gyro[2],var_accel[0],var_accel[1],var_accel[2],var_gyro[0],var_gyro[1],var_gyro[2],temperature_accel,temperature_gyro
2016708000,1310988,1310988,0,0,0,0,0,0,0,0,250.0,250.0,250.0,250.0,0.0815585,0.010592092,1.0618132e-10,0.010917559,-0.013215823,-9.79238,-0.00221575,-0.0008309064,-0.0025353292,0.0055578863,0.004466398,0.004202446,0.00012316425,8.135203e-05,6.419309e-05,11.832729,11.832729
2017708000,1310988,1310988,0,0,0,0,0,0,0,0,250.0,250.0,250.0,250.0,0.07945062,0.010327547,1.7131087e-10,0.0026815059,-0.040701255,-9.821686,-0.0020453075,0.0038988679,-0.002300971,0.0032761064,0.002933932,0.0051774,0.00010670983,0.00014683028,5.6354533e-05,11.832729,11.832729
2018708000,1310988,1310988,0,0,0,0,0,0,0,0,250.0,250.0,250.0,250.0,0.08114412,0.0106021045,1.1767635e-10,0.042904094,-0.005745914,-9.7891245,-0.005901565,-0.0019813918,-0.0048363004,0.004387962,0.0033103465,0.004567969,5.456252e-05,8.516871e-05,5.9669066e-05,11.832729,11.832729
2019708000,1310988,1310988,0,0,0,0,0,0,0,0,250.0,250.0,250.0,250.0,0.079217404,0.011075845,2.011802e-10,0.012258314,0.017142655,-9.799085,-0.0007456852,0.002130529,-0.00080960087,0.0020651787,0.006869414,0.0035638623,0.00014038279,4.962335e-05,0.00017275073,11.832729,11.832729
2020708000,1310988,1310988,0,0,0,0,0,0,0,0,250.0,250.0,250.0,250.0,0.08091607,0.0107969055,1.1180871e-09,-0.009385269,0.009002376,-10.15697,-0.11779694,0.007542073,-0.0006604638,0.004166317,0.0058536674,0.014971408,0.0013605091,0.00014900434,8.121491e-05,11.832703,11.832703
2021708000,1310988,1310988,0,0,0,0,0,0,0,0,250.0,250.0,250.0,250.0,0.08304861,0.011267135,3.0815023e-10,0.031124622,0.048075747,-10.001443,0.021965753,-0.018258633,-0.0043462794,0.0043082274,0.003500904,0.004877555,9.0860616e-05,8.143336e-05,5.602261e-05,11.830116,11.830116
2022708000,1310988,1310988,0,0,0,0,0,0,0,0,250.0,250.0,250.0,250.0,0.08481403,0.0110749705,1.2929276e-10,0.03380613,-0.04951192,-9.802436,-0.0073503247,0.0019174763,-0.0033662356,0.004853417,0.007422113,0.005301978,0.00012239166,7.506152e-05,4.644878e-05,11.825077,11.825077
2023708000,1310988,1310988,0,0,0,0,0,0,0,0,250.0,250.0,250.0,250.0,0.08231757,0.011387466,2.1363579e-10,0.019057846,-0.045010824,-9.611762,-0.011888351,-0.0021731395,0.0008309063,0.010595249,0.0079090055,0.005923284,6.921547e-05,0.00016272203,6.823104e-05,11.820232,11.820232
2024708000,1310988,1310988,0,0,0,0,0,0,0,0,250.0,250.0,250.0,250.0,0.07492925,0.011001826,1.2585574e-10,0.0023942022,-0.029879471,-9.487455,-0.0083303675,0.0020879183,0.0020453078,0.0026769382,0.0014684564,0.019038409,0.00015137321,4.1677937e-05,8.448689e-05,11.81687,11.81687
2025708000,1310988,1310988,0,0,0,0,0,0,0,0,250.0,250.0,250.0,250.0,0.08622528,0.010990082,1.784111e-10,-0.02288857,0.005458951,-9.763171,-0.002876214,-0.010013486,0.00042610563,0.004871932,0.013424588,0.0059126355,7.3075644e-05,0.00010373857,7.246097e-05,11.815597,11.815597
2026708000,1310988,1310988,0,0,0,0,0,0,0,0,250.0,250.0,250.0,250.0,0.07500798,0.0111928675,1.4295673e-10,-0.02030283,-0.03313558,-9.729557,-0.0022157498,0.0049854377,-0.005603291,0.0041305865,0.0036569918,0.002548933,7.748903e-05,7.1417904e-05,0.000109273504,11.814731,11.814731
2027708000,1310988,1310988,0,0,0,0,0,0,0,0,250.0,250.0,250.0,250.0,0.07868138,0.0109582,1.572941e-10,-0.016950948,-0.011779302,-9.776579,0.0034940676,-0.001384844,0.007435546,0.0070266863,0.0047280733,0.0048208553,0.0001252778,6.224788e-05,0.00012058261,11.814249,11.814249
2028708000,1310988,1310988,0,0,0,0,0,0,0,0,250.0,250.0,250.0,250.0,0.08235615,0.01090109,1.3481607e-10,-0.02375048,-0.021643413,-9.769205,0.002130529,-0.0022583606,0.005837649,0.0029338938,0.0054706605,0.006666507,6.695252e-05,0.00011523492,8.500227e-05,11.813991,11.813991
2029708000,1310988,1310988,0,0,0,0,0,0,0,0,250.0,250.0,250.0,250.0,0.0789835,0.011413818,3.5121233e-09,-0.033997662,0.008810833,-9.820632,-0.27292076,0.16735305,-0.034429345,0.0073295753,0.0031009875,0.006656864,0.0019202745,8.2484905e-05,0.0003237901,11.81385,11.81385
2030708000,1310988,1310988,0,0,0,0,0,0,0,0,250.0,250.0,250.0,250.0,0.07933496,0.010587509,4.6816506e-09,0.10304644,0.7253475,-10.07911,-0.049662627,-0.0067324634,-0.45970422,0.005717623,0.004782796,0.005394454,0.00039668602,0.00017196487,0.00023530121,11.813503,11.813503
2031708000,1310988,1310988,0,0,0,0,0,0,0,0,250.0,250.0,250.0,250.0,0.08091627,0.011401038,1.0841784e-08,-0.80933595,1.3868176,-9.685886,0.2098784,0.139294,-0.7948364,0.0081280125,0.0037958042,0.004966997,0.0002338014,0.0002559921,0.00010937761,11.813519,11.813519
2032708000,1310988,1310988,0,0,0,0,0,0,0,0,250.0,250.0,250.0,250.0,0.07921846,0.01142287,5.8181273e-09,-1.633516,0.5673302,-9.705136,-0.0572047,-0.07020092,-0.49967295,0.0030937276,0.0053650932,0.0054284018,0.00011503919,0.0001470733,7.530548e-05,11.813798,11.813798
2033708000,1310988,1310988,0,0,0,0,0,0,0,0,250.0,250.0,250.0,250.0,0.07907949,0.010680137,1.6372681e-09,-1.6383044,-0.025091065,-9.643174,-0.017086841,-0.023968449,-0.15050057,0.004497639,0.005045828,0.0057185916,7.9386016e-05,0.00012534684,0.00017929845,11.813713,11.813713
2034708000,1310988,1310988,0,0,0,0,0,0,0,0,250.0,250.0,250.0,250.0,0.084994994,0.010304426,1.8378701e-10,-1.7096516,-0.05813105,-9.648441,-0.013848438,0.014253238,-0.0016405071,0.0065007545,0.005275307,0.006681759,0.00014355073,5.3247102e-05,9.146678e-05,11.813564,11.813564
2035708000,1310988,1310988,0,0,0,0,0,0,0,0,250.0,250.0,250.0,250.0,0.08145624,0.01081277,1.531833e-10,-1.7066828,-0.026048746,-9.637332,0.008287758,0.001171791,-0.006711166,0.0030766071,0.005444312,0.004520563,3.9530354e-05,9.875023e-05,8.004987e-05,11.813473,11.813473
2036708000,1310988,1310988,0,0,0,0,0,0,0,0,250.0,250.0,250.0,250.0,0.07745018,0.011003729,3.1531525e-10,-1.6731639,0.027868677,-9.665967,0.008841695,-0.0056459014,-0.003941478,0.00482254,0.0067892577,0.0066442187,0.00012598516,0.000110594585,0.00019064445,11.813412,11.813412
2037708000,1310988,1310988,0,0,0,0,0,0,0,0,250.0,250.0,250.0,250.0,0.07613303,0.011423416,1.9472764e-10,-1.7326359,-0.01235391,-9.645473,0.006838998,-0.009800432,-0.0047723847,0.0056943325,0.00817349,0.003963668,0.00020347418,0.00012577238,8.471857e-05,11.813442,11.813442
2038708000,1310988,1310988,0,0,0,0,0,0,0,0,250.0,250.0,250.0,250.0,0.07640501,0.011010781,1.5729966e-10,-1.725166,0.0061293263,-9.665871,-0.00628506,0.004282363,0.0061359233,0.0062476597,0.0035750212,0.0038042418,8.317053e-05,9.54045e-05,7.033607e-05,11.81353,11.81353
2039708000,1310988,1310988,0,0,0,0,0,0,0,0,250.0,250.0,250.0,250.0,0.08452364,0.010558016,1.8331364e-10,-1.7571526,-0.01790846,-9.658497,-0.005454154,0.008692558,-0.0066259447,0.00658244,0.0034422444,0.008306593,0.00014017662,6.1579296e-05,6.388102e-05,11.813589,11.813589
2040708000,1310988,1310988,0,0,0,0,0,0,0,0,250.0,250.0,250.0,250.0,0.08030985,0.011050932,1.2241122e-10,-1.7926824,-0.006799364,-9.652368,-0.0017257284,-0.005986786,-0.0044101947,0.00884444,0.0024584841,0.005330026,3.2726355e-05,4.3908745e-05,0.00011405852,11.813678,11.813678
2041708000,1310988,1310988,0,0,0,0,0,0,0,0,250.0,250.0,250.0,250.0,0.07696318,0.010942435,1.3675999e-10,-1.7774553,-0.012258145,-9.659646,-0.00017044222,-0.00036218998,-0.0018961709,0.0022881033,0.007971735,0.003947097,9.3377006e-05,0.00013035219,7.286476e-05,11.813747,11.813747
2042708000,1310988,1310988,0,0,0,0,0,0,0,0,250.0,250.0,250.0,250.0,0.08051357,0.011399161,1.3538133e-10,-1.7920121,-0.047405027,-9.633501,0.0047723847,-0.007201188,0.0033023197,0.0030577094,0.0019957616,0.004140899,0.0001004874,7.825595e-05,7.815855e-05,11.813808,11.813808
2043708000,1310988,1310988,0,0,0,0,0,0,0,0,250.0,250.0,250.0,250.0,0.08808246,0.01063398,1.5446489e-10,-1.7940233,-0.005745916,-9.621818,-0.0059228707,6.391579e-05,0.0021092235,0.0076093664,0.004355996,0.0058692815,0.00016180947,6.0316837e-05,4.6963218e-05,11.813869,11.813869
2044708000,1310988,1310988,0,0,0,0,0,0,0,0,250.0,250.0,250.0,250.0,0.08295851,0.010891007,1.3320162e-10,-1.8408538,0.011588105,-9.634363,0.0010652646,-0.0016405074,0.0037710362,0.006157969,0.0037358096,0.00297428,0.000105417115,4.5980676e-05,0.0001107109,11.813992,11.813992
2045708000,1310988,1310988,0,0,0,0,0,0,0,0,250.0,250.0,250.0,250.0,0.08530295,0.010608581,1.2350584e-10,-1.8179653,-0.027485268,-9.640492,0.0025992454,0.0034940674,-0.0007030747,0.007853461,0.003366293,0.0065193996,0.00012788404,5.4660864e-05,0.00011999725,11.814083,11.814083
2046708000,1310988,1310988,0,0,0,0,0,0,0,0,250.0,250.0,250.0,250.0,0.081283726,0.010911864,2.3719732e-10,-1.8165287,-0.036104396,-9.643174,0.009651296,0.005667207,-0.0019600866,0.0059531396,0.0062284768,0.0050928304,6.9371505e-05,0.00016383221,0.00014654658,11.814114,11.814114
2047708000,1310988,1310988,0,0,0,0,0,0,0,0,250.0,250.0,250.0,250.0,0.07603926,0.010808964,1.4819303e-10,-1.7874153,-0.024516458,-9.582648,-0.006455503,0.0026844665,0.0052197957,0.0019475545,0.0033076142,0.005996857,7.140467e-05,0.00011462497,3.2885222e-05,11.814022,11.814022
2048708000,1310988,1310988,0,0,0,0,0,0,0,0,250.0,250.0,250.0,250.0,0.07536398,0.0107813645,1.4254152e-10,-1.7998651,-0.056407224,-9.644036,-0.0015978968,0.009757822,0.00085221184,0.0037456513,0.004073723,0.0049406383,5.711768e-05,7.0421185e-05,0.00010662283,11.813992,11.813992
2049708000,1310988,1310988,0,0,0,0,0,0,0,0,250.0,250.0,250.0,250.0,0.077869646,0.0108778775,1.4410263e-10,-1.7730501,-0.05267227,-9.6177,-0.001917476,0.0053263223,-0.0021092237,0.0040331213,0.0023138989,0.0020382318,9.466026e-05,9.0050184e-05,8.613706e-05,11.8139305,11.8139305
2050708000,1310988,1310988,0,0,0,0,0,0,0,0,250.0,250.0,250.0,250.0,0.07866437,0.011943277,5.980607e-10,-1.412579,-0.031411756,-9.833274,0.013337111,0.05042962,0.00021305372,0.0057837926,0.004733041,0.006089689,0.000120086144,0.00016581436,7.2413684e-05,11.8139305,11.8139305
2051708000,1310988,1310988,0,0,0,0,0,0,0,0,250.0,250.0,250.0,250.0,0.08058076,0.011175156,2.0805409e-10,-0.85875225,-0.01781269,-9.839786,0.0065407236,-0.0032810143,-0.006711166,0.00663298,0.0055144164,0.0034234272,0.00010694246,0.00020132281,9.059394e-05,11.814022,11.814022
2052708000,1310988,1310988,0,0,0,0,0,0,0,0,250.0,250.0,250.0,250.0,0.0819597,0.010877533,2.5915586e-10,-0.45930365,-0.03964781,-9.859227,0.002876214,-0.022029668,-0.0011078754,0.0055486183,0.005027179,0.0068588154,9.562956e-05,0.00013747205,6.562671e-05,11.814083,11.814083
2053708000,1310988,1310988,0,0,0,0,0,0,0,0,250.0,250.0,250.0,250.0,0.08118213,0.010939295,2.759861e-10,-0.19785683,-0.010534315,-9.79985,0.010013486,-0.017896444,-0.0025992454,0.0043248893,0.0039427998,0.00609749,6.250793e-05,0.00012922402,0.000100696394,11.814053,11.814053
2054708000,1310988,1310988,0,0,0,0,0,0,0,0,250.0,250.0,250.0,250.0,0.0748102,0.010817641,1.5353062e-10,-0.085137814,0.02882636,-9.795637,-0.0018109496,-0.007605988,-0.002130529,0.004129612,0.004409726,0.0029153274,9.309992e-05,6.649198e-05,0.00010908153,11.814022,11.814022
2055708000,1310988,1310988,0,0,0,0,0,0,0,0,250.0,250.0,250.0,250.0,0.07849293,0.011469736,2.0166319e-10,-0.07201759,-0.009959707,-9.813642,0.009203885,-0.0006817691,-0.0025992452,0.0028526874,0.0020285689,0.0042566163,0.00010148129,0.00012280585,0.00011544864,11.813961,11.813961
2056708000,1310988,1310988,0,0,0,0,0,0,0,0,250.0,250.0,250.0,250.0,0.08151565,0.010898094,2.3325208e-10,-0.048171338,-0.051331513,-9.771312,-0.008500811,0.006412892,-0.0023861923,0.007943552,0.0039356723,0.0065081157,0.00012261578,9.9730874e-05,8.7168766e-05,11.8139,11.8139
2057708000,1310988,1310988,0,0,0,0,0,0,0,0,250.0,250.0,250.0,250.0,0.078837015,0.010469764,1.2002753e-10,0.013024457,-0.010151243,-9.805214,0.0026844665,-0.003408846,-0.001917476,0.0050395993,0.006301257,0.004788312,0.00011623259,7.0498725e-05,0.00012553597,11.813961,11.813961
2058708000,1310988,1310988,0,0,0,0,0,0,0,0,250.0,250.0,250.0,250.0,0.080261186,0.010542013,1.7193938e-10,0.027964275,0.011492338,-9.7737055,0.0002769687,-2.1305308e-05,0.004687164,0.0034176917,0.006053205,0.0037948727,0.00019648674,5.2849933e-05,9.1043126e-05,11.813992,11.813992
2059708000,1310988,1310988,0,0,0,0,0,0,0,0,250.0,250.0,250.0,250.0,0.080646984,0.010853636,1.6517648e-10,0.038402993,0.02624062,-9.820824,0.0008948223,-0.0012783175,-0.0021305291,0.0069228183,0.0068607195,0.003748843,0.00014368596,9.849018e-05,6.480115e-05,11.814053,11.814053
2060708000,1310988,1310988,0,0,0,0,0,0,0,0,250.0,250.0,250.0,250.0,0.079933584,0.011466254,5.4379456e-10,0.027102364,-0.021834977,-8.128506,-0.018769959,-0.039734364,-0.0009161283,0.003678507,0.003920979,0.014919418,0.00013128745,0.00014591488,8.909317e-05,11.814231,11.814231
2061708000,1310988,1310988,0,0,0,0,0,0,0,0,250.0,250.0,250.0,250.0,0.08024125,0.010091576,1.2757873e-10,-0.057843912,-0.01934498,-9.766907,-0.0023435818,-0.0012144013,-0.005475459,0.0046563055,0.008206565,0.0032492196,0.00012293541,7.890373e-05,0.00010748621,11.818463,11.818463
2062708000,1310988,1310988,0,0,0,0,0,0,0,0,250.0,250.0,250.0,250.0,0.082395144,0.010021158,1.7191769e-10,0.014269441,0.011588108,-9.817376,0.0025992454,0.0054328484,0.004111921,0.004695858,0.0052381246,0.005333416,7.334327e-05,8.513277e-05,9.0795365e-05,11.822931,11.822931
2063708000,1310988,1310988,0,0,0,0,0,0,0,0,250.0,250.0,250.0,250.0,0.076373,0.009810728,1.5887351e-10,-0.026144683,-0.016471937,-9.798031,-0.008436894,0.0043249736,0.00091612776,0.0038061438,0.003066881,0.0033146597,8.460509e-05,5.2917072e-05,9.384511e-05,11.827563,11.827563
2064708000,1310988,1310988,0,0,0,0,0,0,0,0,250.0,250.0,250.0,250.0,0.07722213,0.009964727,1.4148144e-10,0.022697031,-0.041754708,-9.806267,-0.00406931,0.0019387811,-0.0030040457,0.0073926873,0.00701482,0.007813815,4.9336813e-05,0.00012418558,7.595706e-05,11.832227,11.832227
2065708000,1310988,1310988,0,0,0,0,0,0,0,0,250.0,250.0,250.0,250.0,0.21183646,0.009672291,1.0177324e-10,0.030358477,0.022888733,-9.432772,-0.006434197,-0.0040267,0.003174488,0.0023572342,0.0049149236,0.007899779,2.7398519e-05,4.728474e-05,7.989572e-05,11.82974,11.82974
2066708000,1310988,1310988,0,0,0,0,0,0,0,0,250.0,250.0,250.0,250.0,0.089343846,0.010250061,1.4054795e-10,-0.0026815063,-0.006128995,-9.245928,-0.00040480035,0.00221575,-0.00044741106,0.0028906155,0.003611803,0.0051852814,0.00010596748,9.5858406e-05,6.164927e-05,11.82806,11.82806
2067708000,1310988,1310988,0,0,0,0,0,0,0,0,250.0,250.0,250.0,250.0,0.08104464,0.0109104635,1.5169212e-10,0.0067995316,-0.009193566,-9.675639,0.002386192,-0.00149137,-0.003984089,0.0056451107,0.004891326,0.010584291,7.5797245e-05,0.00011697777,6.501676e-05,11.829187,11.829187
2068708000,1310988,1310988,0,0,0,0,0,0,0,0,250.0,250.0,250.0,250.0,1.4319481,0.028650818,2.6261515e-09,0.19325995,0.29917973,-16.36073,0.004623248,0.06291452,-0.0044528046,25.189125,0.9187381,414.56488,8.831775e-05,0.081240356,0.0001071874,11.832697,11.832697
2069708000,1310988,1310988,0,0,0,0,0,0,0,0,250.0,250.0,250.0,250.0,0.19191523,0.012238504,1.08574504e-10,0.012928689,-0.0043093916,-9.810193,0.0044315,0.001107875,0.00025566356,0.004832246,0.0034034948,0.005717948,7.5787786e-05,6.565034e-05,5.0524563e-05,11.832729,11.832729
