timestamp,timestamp_sample,gps_hvel[0],gps_hvel[1],gps_vvel,gps_hpos[0],gps_hpos[1],gps_vpos,ev_hvel[0],ev_hvel[1],ev_vvel,ev_hpos[0],ev_hpos[1],ev_vpos,rng_vpos,baro_vpos,aux_hvel[0],aux_hvel[1],flow[0],flow[1],heading,mag_field[0],mag_field[1],mag_field[2],gravity[0],gravity[1],gravity[2],drag[0],drag[1],airspeed,beta,hagl,hagl_rate
2015916000,2015764000,-0.024493078,0.002443049,-0.029641926,0.0057570105,0.002964955,0.04837036,0.0,0.0,0.0,0.0,0.0,0.0,0.0,-0.0869751,0.0,0.0,0.0,0.0,0.0019057393,-0.00071765296,0.0004877001,0.0019057393,0.0067419447,-0.0048588244,-1.5676022e-05,0.0,0.0,0.0,0.0,0.0,0.0
2015924000,2015772000,-0.024493078,0.002443049,-0.029641926,0.0057570105,0.002964955,0.04837036,0.0,0.0,0.0,0.0,0.0,0.0,0.0,0.11239624,0.0,0.0,0.0,0.0,0.0026997924,-0.00058881333,0.0026997924,-0.001073271,-0.0030093559,0.0014705607,-1.2695789e-05,0.0,0.0,0.0,0.0,0.0,0.0
2015932000,2015780000,-0.024493078,0.002443049,-0.029641926,0.0057570105,0.002964955,0.04837036,0.0,0.0,0.0,0.0,0.0,0.0,0.0,0.11239624,0.0,0.0,0.0,0.0,0.0026997924,-0.00058881333,0.0026997924,-0.001073271,-0.0025336046,-0.00071097945,-5.364418e-06,0.0,0.0,0.0,0.0,0.0,0.0
2015940000,2015788000,-0.024493078,0.002443049,-0.029641926,0.0057570105,0.002964955,0.04837036,0.0,0.0,0.0,0.0,0.0,0.0,0.0,0.11239624,0.0,0.0,0.0,0.0,0.0026997924,-0.00058881333,0.0026997924,-0.001073271,0.0011028303,0.006342312,-3.2186508e-05,0.0,0.0,0.0,0.0,0.0,0.0
2015948000,2015796000,-0.024493078,0.002443049,-0.029641926,0.0057570105,0.002964955,0.04837036,0.0,0.0,0.0,0.0,0.0,0.0,0.0,0.11239624,0.0,0.0,0.0,0.0,0.0026997924,-0.00058881333,0.0026997924,-0.001073271,-0.004067124,-0.0047940486,-1.513958e-05,0.0,0.0,0.0,0.0,0.0,0.0
2015956000,2015804000,-0.024493078,0.002443049,-0.029641926,0.0057570105,0.002964955,0.04837036,0.0,0.0,0.0,0.0,0.0,0.0,0.0,0.11239624,0.0,0.0,0.0,0.0,0.0026997924,-0.00058881333,0.0026997924,-0.001073271,-0.0011871667,-0.0003396367,-1.66893e-06,0.0,0.0,0.0,0.0,0.0,0.0
2015972000,2015820000,-0.024493078,0.002443049,-0.029641926,0.0057570105,0.002964955,0.04837036,0.0,0.0,0.0,0.0,0.0,0.0,0.0,0.11239624,0.0,0.0,0.0,0.0,0.0026997924,-0.00058881333,0.0026997924,-0.001073271,-0.004604945,-0.0031456957,-1.5199184e-05,0.0,0.0,0.0,0.0,0.0,0.0
2015980000,2015828000,-0.024493078,0.002443049,-0.029641926,0.0057570105,0.002964955,0.04837036,0.0,0.0,0.0,0.0,0.0,0.0,0.0,0.11239624,0.0,0.0,0.0,0.0,0.0026997924,-0.00058881333,0.0026997924,-0.001073271,-0.0074151903,0.0042884573,-5.4836273e-05,0.0,0.0,0.0,0.0,0.0,0.0
2015988000,2015836000,-0.024493078,0.002443049,-0.029641926,0.0057570105,0.002964955,0.04837036,0.0,0.0,0.0,0.0,0.0,0.0,0.0,0.11239624,0.0,0.0,0.0,0.0,0.0026997924,-0.00058881333,0.0026997924,-0.001073271,-0.0021932626,-0.00055094436,-4.23193e-06,0.0,0.0,0.0,0.0,0.0,0.0
2015996000,2015844000,-0.024493078,0.002443049,-0.029641926,0.0057570105,0.002964955,0.04837036,0.0,0.0,0.0,0.0,0.0,0.0,0.0,-0.071746826,0.0,0.0,0.0,0.0,0.0003092885,-0.0023818936,5.170703e-05,0.0003092885,-0.0035068432,-0.011013292,-4.798174e-05,0.0,0.0,0.0,0.0,0.0,0.0
2016012000,2015860000,-0.029959079,0.0459641,0.023751328,0.0018960113,0.007756103,0.047454834,0.0,0.0,0.0,0.0,0.0,0.0,0.0,-0.071746826,0.0,0.0,0.0,0.0,0.0003092885,-0.0023818936,5.170703e-05,0.0003092885,0.0025842527,-0.0050150454,-2.4437904e-06,0.0,0.0,0.0,0.0,0.0,0.0
2016020000,2015868000,-0.029959079,0.0459641,0.023751328,0.0018960113,0.007756103,0.047454834,0.0,0.0,0.0,0.0,0.0,0.0,0.0,-0.071746826,0.0,0.0,0.0,0.0,0.0003092885,-0.0023818936,5.170703e-05,0.0003092885,0.0007292912,-0.00107069,2.0861626e-06,0.0,0.0,0.0,0.0,0.0,0.0
2016028000,2015876000,-0.029959079,0.0459641,0.023751328,0.0018960113,0.007756103,0.047454834,0.0,0.0,0.0,0.0,0.0,0.0,0.0,-0.071746826,0.0,0.0,0.0,0.0,0.0003092885,-0.0023818936,5.170703e-05,0.0003092885,0.0013358654,-0.009202092,-2.6226044e-05,0.0,0.0,0.0,0.0,0.0,0.0
2016036000,2015884000,-0.029959079,0.0459641,0.023751328,0.0018960113,0.007756103,0.047454834,0.0,0.0,0.0,0.0,0.0,0.0,0.0,-0.071746826,0.0,0.0,0.0,0.0,0.0003092885,-0.0023818936,5.170703e-05,0.0003092885,0.0031662758,-0.0019266279,1.66893e-06,0.0,0.0,0.0,0.0,0.0,0.0
2016052000,2015900000,-0.029959079,0.0459641,0.023751328,0.0018960113,0.007756103,0.047454834,0.0,0.0,0.0,0.0,0.0,0.0,0.0,-0.071746826,0.0,0.0,0.0,0.0,0.0003092885,-0.0023818936,5.170703e-05,0.0003092885,0.006693113,0.0040797926,-2.527237e-05,0.0,0.0,0.0,0.0,0.0,0.0
2016060000,2015908000,-0.029959079,0.0459641,0.023751328,0.0018960113,0.007756103,0.047454834,0.0,0.0,0.0,0.0,0.0,0.0,0.0,-0.071746826,0.0,0.0,0.0,0.0,0.0003092885,-0.0023818936,5.170703e-05,0.0003092885,-0.0020500808,0.0012004983,-8.225441e-06,0.0,0.0,0.0,0.0,0.0,0.0
2016068000,2015916000,-0.029959079,0.0459641,0.023751328,0.0018960113,0.007756103,0.047454834,0.0,0.0,0.0,0.0,0.0,0.0,0.0,0.084472656,0.0,0.0,0.0,0.0,0.0038646609,0.0009173645,0.0038646609,-0.0007274449,-0.0054919105,0.002592498,-3.2186508e-05,0.0,0.0,0.0,0.0,0.0,0.0
2016076000,2015924000,-0.029959079,0.0459641,0.023751328,0.0018960113,0.007756103,0.047454834,0.0,0.0,0.0,0.0,0.0,0.0,0.0,0.084472656,0.0,0.0,0.0,0.0,0.0038646609,0.0009173645,0.0038646609,-0.0007274449,-0.0010615026,0.002891605,-1.0550022e-05,0.0,0.0,0.0,0.0,0.0,0.0
2016092000,2015940000,-0.029959079,0.0459641,0.023751328,0.0018960113,0.007756103,0.047454834,0.0,0.0,0.0,0.0,0.0,0.0,0.0,0.084472656,0.0,0.0,0.0,0.0,0.0038646609,0.0009173645,0.0038646609,-0.0007274449,-0.007406638,-2.5744783e-05,-3.9458275e-05,0.0,0.0,0.0,0.0,0.0,0.0
2016100000,2015948000,-0.029959079,0.0459641,0.023751328,0.0018960113,0.007756103,0.047454834,0.0,0.0,0.0,0.0,0.0,0.0,0.0,0.084472656,0.0,0.0,0.0,0.0,0.0038646609,0.0009173645,0.0038646609,-0.0007274449,0.0010236237,-0.0024407613,1.1920929e-06,0.0,0.0,0.0,0.0,0.0,0.0
2016108000,2015956000,-0.029959079,0.0459641,0.023751328,0.0018960113,0.007756103,0.047454834,0.0,0.0,0.0,0.0,0.0,0.0,0.0,0.084472656,0.0,0.0,0.0,0.0,0.0038646609,0.0009173645,0.0038646609,-0.0007274449,0.0020085787,-0.0054323226,-6.854534e-06,0.0,0.0,0.0,0.0,0.0,0.0
2016116000,2015964000,-0.029959079,0.0459641,0.023751328,0.0018960113,0.007756103,0.047454834,0.0,0.0,0.0,0.0,0.0,0.0,0.0,0.084472656,0.0,0.0,0.0,0.0,0.0038646609,0.0009173645,0.0038646609,-0.0007274449,0.00035757152,-0.00044550427,1.013279e-06,0.0,0.0,0.0,0.0,0.0,0.0
2016132000,2015980000,-0.029959079,0.0459641,0.023751328,0.0018960113,0.007756103,0.047454834,0.0,0.0,0.0,0.0,0.0,0.0,0.0,0.084472656,0.0,0.0,0.0,0.0,0.0038646609,0.0009173645,0.0038646609,-0.0007274449,0.0025750753,-0.002813199,9.536743e-07,0.0,0.0,0.0,0.0,0.0,0.0
2016140000,2015988000,-0.029959079,0.0459641,0.023751328,0.0018960113,0.007756103,0.047454834,0.0,0.0,0.0,0.0,0.0,0.0,0.0,-0.056915283,0.0,0.0,0.0,0.0,0.005430609,-0.0007414289,0.005430609,0.0035904646,0.0018298168,-0.0014534551,2.3841858e-06,0.0,0.0,0.0,0.0,0.0,0.0
2016148000,2015996000,-0.029959079,0.0459641,0.023751328,0.0018960113,0.007756103,0.047454834,0.0,0.0,0.0,0.0,0.0,0.0,0.0,-0.056915283,0.0,0.0,0.0,0.0,0.005430609,-0.0007414289,0.005430609,0.0035904646,0.00089581846,-0.0028685369,2.9802322e-07,0.0,0.0,0.0,0.0,0.0,0.0
2016156000,2016004000,-0.029959079,0.0459641,0.023751328,0.0018960113,0.007756103,0.047454834,0.0,0.0,0.0,0.0,0.0,0.0,0.0,-0.056915283,0.0,0.0,0.0,0.0,0.005430609,-0.0007414289,0.005430609,0.0035904646,-0.001208075,0.0038795052,-1.5258789e-05,0.0,0.0,0.0,0.0,0.0,0.0
2016172000,2016020000,-0.029959079,0.0459641,0.023751328,0.0018960113,0.007756103,0.047454834,0.0,0.0,0.0,0.0,0.0,0.0,0.0,-0.056915283,0.0,0.0,0.0,0.0,0.005430609,-0.0007414289,0.005430609,0.0035904646,-0.0022957441,-0.0068524727,-2.1874905e-05,0.0,0.0,0.0,0.0,0.0,0.0
2016180000,2016028000,-0.029959079,0.0459641,0.023751328,0.0018960113,0.007756103,0.047454834,0.0,0.0,0.0,0.0,0.0,0.0,0.0,-0.056915283,0.0,0.0,0.0,0.0,0.005430609,-0.0007414289,0.005430609,0.0035904646,0.0034412136,-0.008540607,-2.6226044e-05,0.0,0.0,0.0,0.0,0.0,0.0
2016188000,2016036000,-0.029959079,0.0459641,0.023751328,0.0018960113,0.007756103,0.047454834,0.0,0.0,0.0,0.0,0.0,0.0,0.0,-0.056915283,0.0,0.0,0.0,0.0,0.005430609,-0.0007414289,0.005430609,0.0035904646,0.0087289475,-0.005175133,-2.9921532e-05,0.0,0.0,0.0,0.0,0.0,0.0
2016196000,2016044000,-0.029959079,0.0459641,0.023751328,0.0018960113,0.007756103,0.047454834,0.0,0.0,0.0,0.0,0.0,0.0,0.0,-0.056915283,0.0,0.0,0.0,0.0,0.005430609,-0.0007414289,0.005430609,0.0035904646,0.0033513976,-0.0042401827,-3.9339066e-06,0.0,0.0,0.0,0.0,0.0,0.0
2016212000,2016060000,-0.029959079,0.0459641,0.023751328,0.0018960113,0.007756103,0.047454834,0.0,0.0,0.0,0.0,0.0,0.0,0.0,0.029327393,0.0,0.0,0.0,0.0,0.0004862398,-0.0010481519,0.0004862398,0.00042885542,-0.0047324756,-0.0036740052,-2.169609e-05,0.0,0.0,0.0,0.0,0.0,0.0
2016220000,2016068000,-0.029959079,0.0459641,0.023751328,0.0018960113,0.007756103,0.047454834,0.0,0.0,0.0,0.0,0.0,0.0,0.0,0.029327393,0.0,0.0,0.0,0.0,0.0004862398,-0.0010481519,0.0004862398,0.00042885542,0.00035678828,-0.006345853,-1.2457371e-05,0.0,0.0,0.0,0.0,0.0,0.0
2016228000,2016076000,-0.029959079,0.0459641,0.023751328,0.0018960113,0.007756103,0.047454834,0.0,0.0,0.0,0.0,0.0,0.0,0.0,0.029327393,0.0,0.0,0.0,0.0,0.0004862398,-0.0010481519,0.0004862398,0.00042885542,-0.0016179004,-0.001237812,-3.516674e-06,0.0,0.0,0.0,0.0,0.0,0.0
2016236000,2016084000,-0.029959079,0.0459641,0.023751328,0.0018960113,0.007756103,0.047454834,0.0,0.0,0.0,0.0,0.0,0.0,0.0,0.029327393,0.0,0.0,0.0,0.0,0.0004862398,-0.0010481519,0.0004862398,0.00042885542,-0.0013894117,0.010224909,-6.771088e-05,0.0,0.0,0.0,0.0,0.0,0.0
2016252000,2016100000,-0.029959079,0.0459641,0.023751328,0.0018960113,0.007756103,0.047454834,0.0,0.0,0.0,0.0,0.0,0.0,0.0,0.029327393,0.0,0.0,0.0,0.0,0.0004862398,-0.0010481519,0.0004862398,0.00042885542,-0.0068492675,-0.012112387,-9.4771385e-05,0.0,0.0,0.0,0.0,0.0,0.0
2016260000,2016108000,-0.029959079,0.0459641,0.023751328,0.0018960113,0.007756103,0.047454834,0.0,0.0,0.0,0.0,0.0,0.0,0.0,0.029327393,0.0,0.0,0.0,0.0,0.0004862398,-0.0010481519,0.0004862398,0.00042885542,-0.0014455433,-0.00056601706,-3.1590462e-06,0.0,0.0,0.0,0.0,0.0,0.0
2016268000,2016116000,-0.029959079,0.0459641,0.023751328,0.0018960113,0.007756103,0.047454834,0.0,0.0,0.0,0.0,0.0,0.0,0.0,0.029327393,0.0,0.0,0.0,0.0,0.0004862398,-0.0010481519,0.0004862398,0.00042885542,0.0007861488,0.004433432,-1.3530254e-05,0.0,0.0,0.0,0.0,0.0,0.0
2016276000,2016124000,-0.029959079,0.0459641,0.023751328,0.0018960113,0.007756103,0.047454834,0.0,0.0,0.0,0.0,0.0,0.0,0.0,0.029327393,0.0,0.0,0.0,0.0,0.0004862398,-0.0010481519,0.0004862398,0.00042885542,-0.00757912,0.0017845875,-4.541874e-05,0.0,0.0,0.0,0.0,0.0,0.0
2016292000,2016140000,-0.029959079,0.0459641,0.023751328,0.0018960113,0.007756103,0.047454834,0.0,0.0,0.0,0.0,0.0,0.0,0.0,-0.040771484,0.0,0.0,0.0,0.0,0.00015692413,9.075063e-05,0.00015692413,-0.00072163343,-0.007018506,-0.004338866,-4.1663647e-05,0.0,0.0,0.0,0.0,0.0,0.0
2016300000,2016148000,-0.029959079,0.0459641,0.023751328,0.0018960113,0.007756103,0.047454834,0.0,0.0,0.0,0.0,0.0,0.0,0.0,-0.040771484,0.0,0.0,0.0,0.0,0.00015692413,9.075063e-05,0.00015692413,-0.00072163343,-0.0017258836,0.005250671,-2.4557114e-05,0.0,0.0,0.0,0.0,0.0,0.0
2016308000,2016156000,-0.029959079,0.0459641,0.023751328,0.0018960113,0.007756103,0.047454834,0.0,0.0,0.0,0.0,0.0,0.0,0.0,-0.040771484,0.0,0.0,0.0,0.0,0.00015692413,9.075063e-05,0.00015692413,-0.00072163343,0.0009420166,-0.0005513942,1.66893e-06,0.0,0.0,0.0,0.0,0.0,0.0
2016316000,2016164000,-0.029959079,0.0459641,0.023751328,0.0018960113,0.007756103,0.047454834,0.0,0.0,0.0,0.0,0.0,0.0,0.0,-0.040771484,0.0,0.0,0.0,0.0,0.00015692413,9.075063e-05,0.00015692413,-0.00072163343,-0.0034024676,-0.0048575727,-1.7881393e-05,0.0,0.0,0.0,0.0,0.0,0.0
2016332000,2016180000,-0.029959079,0.0459641,0.023751328,0.0018960113,0.007756103,0.047454834,0.0,0.0,0.0,0.0,0.0,0.0,0.0,-0.040771484,0.0,0.0,0.0,0.0,0.00015692413,9.075063e-05,0.00015692413,-0.00072163343,0.010855958,0.0024045124,-4.4584274e-05,0.0,0.0,0.0,0.0,0.0,0.0
2016340000,2016188000,-0.029959079,0.0459641,0.023751328,0.0018960113,0.007756103,0.047454834,0.0,0.0,0.0,0.0,0.0,0.0,0.0,-0.040771484,0.0,0.0,0.0,0.0,0.00015692413,9.075063e-05,0.00015692413,-0.00072163343,0.0013708654,0.010091773,-6.276369e-05,0.0,0.0,0.0,0.0,0.0,0.0
2016348000,2016196000,-0.029959079,0.0459641,0.023751328,0.0018960113,0.007756103,0.047454834,0.0,0.0,0.0,0.0,0.0,0.0,0.0,-0.040771484,0.0,0.0,0.0,0.0,0.00015692413,9.075063e-05,0.00015692413,-0.00072163343,0.004443527,0.0046520387,-1.92523e-05,0.0,0.0,0.0,0.0,0.0,0.0
2016356000,2016204000,-0.029959079,0.0459641,0.023751328,0.0018960113,0.007756103,0.047454834,0.0,0.0,0.0,0.0,0.0,0.0,0.0,0.03579712,0.0,0.0,0.0,0.0,0.0003992319,-0.0006374457,0.0003992319,-0.0005427897,-0.0007315796,-0.0002984862,-1.3113022e-06,0.0,0.0,0.0,0.0,0.0,0.0
2016372000,2016220000,-0.029959079,0.0459641,0.023751328,0.0018960113,0.007756103,0.047454834,0.0,0.0,0.0,0.0,0.0,0.0,0.0,0.03579712,0.0,0.0,0.0,0.0,0.0003992319,-0.0006374457,0.0003992319,-0.0005427897,0.007816272,0.0029207594,-2.503395e-05,0.0,0.0,0.0,0.0,0.0,0.0
2016380000,2016228000,-0.029959079,0.0459641,0.023751328,0.0018960113,0.007756103,0.047454834,0.0,0.0,0.0,0.0,0.0,0.0,0.0,0.03579712,0.0,0.0,0.0,0.0,0.0003992319,-0.0006374457,0.0003992319,-0.0005427897,0.0066909166,0.0037008654,-2.336502e-05,0.0,0.0,0.0,0.0,0.0,0.0
2016388000,2016236000,-0.029959079,0.0459641,0.023751328,0.0018960113,0.007756103,0.047454834,0.0,0.0,0.0,0.0,0.0,0.0,0.0,0.03579712,0.0,0.0,0.0,0.0,0.0003992319,-0.0006374457,0.0003992319,-0.0005427897,0.0054946532,-0.0029980275,-5.6624413e-06,0.0,0.0,0.0,0.0,0.0,0.0
2016396000,2016244000,-0.029959079,0.0459641,0.023751328,0.0018960113,0.007756103,0.047454834,0.0,0.0,0.0,0.0,0.0,0.0,0.0,0.03579712,0.0,0.0,0.0,0.0,0.0003992319,-0.0006374457,0.0003992319,-0.0005427897,0.0008938002,0.0068809073,-3.296137e-05,0.0,0.0,0.0,0.0,0.0,0.0
2016412000,2016260000,-0.025879672,0.010194289,0.01797668,-0.00017980515,-0.00964353,0.037261963,0.0,0.0,0.0,0.0,0.0,0.0,0.0,0.03579712,0.0,0.0,0.0,0.0,0.0003992319,-0.0006374457,0.0003992319,-0.0005427897,-0.005303907,0.0031941135,-3.3795834e-05,0.0,0.0,0.0,0.0,0.0,0.0
2016420000,2016268000,-0.025879672,0.010194289,0.01797668,-0.00017980515,-0.00964353,0.037261963,0.0,0.0,0.0,0.0,0.0,0.0,0.0,0.03579712,0.0,0.0,0.0,0.0,0.0003992319,-0.0006374457,0.0003992319,-0.0005427897,-0.003714391,0.010351218,-8.350611e-05,0.0,0.0,0.0,0.0,0.0,0.0
2016428000,2016276000,-0.025879672,0.010194289,0.01797668,-0.00017980515,-0.00964353,0.037261963,0.0,0.0,0.0,0.0,0.0,0.0,0.0,0.0501709,0.0,0.0,0.0,0.0,0.00409168,-0.0031452111,0.00409168,0.0012265444,0.00024250627,-2.7078902e-05,4.7683716e-07,0.0,0.0,0.0,0.0,0.0,0.0
2016436000,2016284000,-0.025879672,0.010194289,0.01797668,-0.00017980515,-0.00964353,0.037261963,0.0,0.0,0.0,0.0,0.0,0.0,0.0,0.0501709,0.0,0.0,0.0,0.0,0.00409168,-0.0031452111,0.00409168,0.0012265444,0.013949665,-0.011591442,-0.00011944771,0.0,0.0,0.0,0.0,0.0,0.0
2016452000,2016300000,-0.025879672,0.010194289,0.01797668,-0.00017980515,-0.00964353,0.037261963,0.0,0.0,0.0,0.0,0.0,0.0,0.0,0.0501709,0.0,0.0,0.0,0.0,0.00409168,-0.0031452111,0.00409168,0.0012265444,0.0055531375,-0.016174974,-0.00010699034,0.0,0.0,0.0,0.0,0.0,0.0
2016460000,2016308000,-0.025879672,0.010194289,0.01797668,-0.00017980515,-0.00964353,0.037261963,0.0,0.0,0.0,0.0,0.0,0.0,0.0,0.0501709,0.0,0.0,0.0,0.0,0.00409168,-0.0031452111,0.00409168,0.0012265444,0.003545309,-0.0033957679,5.9604645e-08,0.0,0.0,0.0,0.0,0.0,0.0
2016468000,2016316000,-0.025879672,0.010194289,0.01797668,-0.00017980515,-0.00964353,0.037261963,0.0,0.0,0.0,0.0,0.0,0.0,0.0,0.0501709,0.0,0.0,0.0,0.0,0.00409168,-0.0031452111,0.00409168,0.0012265444,-0.0037745987,0.010012182,-7.969141e-05,0.0,0.0,0.0,0.0,0.0,0.0
2016476000,2016324000,-0.025879672,0.010194289,0.01797668,-0.00017980515,-0.00964353,0.037261963,0.0,0.0,0.0,0.0,0.0,0.0,0.0,0.0501709,0.0,0.0,0.0,0.0,0.00409168,-0.0031452111,0.00409168,0.0012265444,0.0012515653,0.0011340667,-1.3709068e-06,0.0,0.0,0.0,0.0,0.0,0.0
2016492000,2016340000,-0.025879672,0.010194289,0.01797668,-0.00017980515,-0.00964353,0.037261963,0.0,0.0,0.0,0.0,0.0,0.0,0.0,0.0501709,0.0,0.0,0.0,0.0,0.00409168,-0.0031452111,0.00409168,0.0012265444,0.0023841783,0.0019718916,-4.4107437e-06,0.0,0.0,0.0,0.0,0.0,0.0
2016500000,2016348000,-0.025879672,0.010194289,0.01797668,-0.00017980515,-0.00964353,0.037261963,0.0,0.0,0.0,0.0,0.0,0.0,0.0,-0.09088135,0.0,0.0,0.0,0.0,0.0018771312,0.0018771312,-0.00017231703,-0.00071781874,0.0013594178,-0.009071633,-2.4497509e-05,0.0,0.0,0.0,0.0,0.0,0.0
2016508000,2016356000,-0.025879672,0.010194289,0.01797668,-0.00017980515,-0.00964353,0.037261963,0.0,0.0,0.0,0.0,0.0,0.0,0.0,-0.09088135,0.0,0.0,0.0,0.0,0.0018771312,0.0018771312,-0.00017231703,-0.00071781874,0.004128442,0.0019473272,-7.390976e-06,0.0,0.0,0.0,0.0,0.0,0.0
2016516000,2016364000,-0.025879672,0.010194289,0.01797668,-0.00017980515,-0.00964353,0.037261963,0.0,0.0,0.0,0.0,0.0,0.0,0.0,-0.09088135,0.0,0.0,0.0,0.0,0.0018771312,0.0018771312,-0.00017231703,-0.00071781874,-0.0057450794,0.003617763,-3.886223e-05,0.0,0.0,0.0,0.0,0.0,0.0
2016532000,2016380000,-0.025879672,0.010194289,0.01797668,-0.00017980515,-0.00964353,0.037261963,0.0,0.0,0.0,0.0,0.0,0.0,0.0,-0.09088135,0.0,0.0,0.0,0.0,0.0018771312,0.0018771312,-0.00017231703,-0.00071781874,0.00036472583,-0.007853918,-1.680851e-05,0.0,0.0,0.0,0.0,0.0,0.0
2016540000,2016388000,-0.025879672,0.010194289,0.01797668,-0.00017980515,-0.00964353,0.037261963,0.0,0.0,0.0,0.0,0.0,0.0,0.0,-0.09088135,0.0,0.0,0.0,0.0,0.0018771312,0.0018771312,-0.00017231703,-0.00071781874,0.0062962873,-0.010666762,-4.7326088e-05,0.0,0.0,0.0,0.0,0.0,0.0
2016548000,2016396000,-0.025879672,0.010194289,0.01797668,-0.00017980515,-0.00964353,0.037261963,0.0,0.0,0.0,0.0,0.0,0.0,0.0,-0.09088135,0.0,0.0,0.0,0.0,0.0018771312,0.0018771312,-0.00017231703,-0.00071781874,0.0027139813,0.00021160801,8.34465e-07,0.0,0.0,0.0,0.0,0.0,0.0
2016556000,2016404000,-0.025879672,0.010194289,0.01797668,-0.00017980515,-0.00964353,0.037261963,0.0,0.0,0.0,0.0,0.0,0.0,0.0,-0.09088135,0.0,0.0,0.0,0.0,0.0018771312,0.0018771312,-0.00017231703,-0.00071781874,-0.0019390164,0.0013454903,-8.404255e-06,0.0,0.0,0.0,0.0,0.0,0.0
2016572000,2016420000,-0.025879672,0.010194289,0.01797668,-0.00017980515,-0.00964353,0.037261963,0.0,0.0,0.0,0.0,0.0,0.0,0.0,0.005340576,0.0,0.0,0.0,0.0,-0.00031632185,-0.0005602337,-0.00031632185,-0.00037238002,0.0023939714,-0.0016526636,2.2053719e-06,0.0,0.0,0.0,0.0,0.0,0.0
2016580000,2016428000,-0.025879672,0.010194289,0.01797668,-0.00017980515,-0.00964353,0.037261963,0.0,0.0,0.0,0.0,0.0,0.0,0.0,0.005340576,0.0,0.0,0.0,0.0,-0.00031632185,-0.0005602337,-0.00031632185,-0.00037238002,-0.007945902,-0.002478412,-4.2915344e-05,0.0,0.0,0.0,0.0,0.0,0.0
2016588000,2016436000,-0.025879672,0.010194289,0.01797668,-0.00017980515,-0.00964353,0.037261963,0.0,0.0,0.0,0.0,0.0,0.0,0.0,0.005340576,0.0,0.0,0.0,0.0,-0.00031632185,-0.0005602337,-0.00031632185,-0.00037238002,-0.008118973,0.00088210776,-4.7385693e-05,0.0,0.0,0.0,0.0,0.0,0.0
2016596000,2016444000,-0.025879672,0.010194289,0.01797668,-0.00017980515,-0.00964353,0.037261963,0.0,0.0,0.0,0.0,0.0,0.0,0.0,0.005340576,0.0,0.0,0.0,0.0,-0.00031632185,-0.0005602337,-0.00031632185,-0.00037238002,-0.009984193,-0.013662361,-0.00013613701,0.0,0.0,0.0,0.0,0.0,0.0
2016612000,2016460000,-0.025879672,0.010194289,0.01797668,-0.00017980515,-0.00964353,0.037261963,0.0,0.0,0.0,0.0,0.0,0.0,0.0,0.005340576,0.0,0.0,0.0,0.0,-0.00031632185,-0.0005602337,-0.00031632185,-0.00037238002,-0.005947861,0.0020717378,-3.2424927e-05,0.0,0.0,0.0,0.0,0.0,0.0
2016620000,2016468000,-0.025879672,0.010194289,0.01797668,-0.00017980515,-0.00964353,0.037261963,0.0,0.0,0.0,0.0,0.0,0.0,0.0,0.005340576,0.0,0.0,0.0,0.0,-0.00031632185,-0.0005602337,-0.00031632185,-0.00037238002,-0.008974556,0.0015127952,-5.77569e-05,0.0,0.0,0.0,0.0,0.0,0.0
2016628000,2016476000,-0.025879672,0.010194289,0.01797668,-0.00017980515,-0.00964353,0.037261963,0.0,0.0,0.0,0.0,0.0,0.0,0.0,0.005340576,0.0,0.0,0.0,0.0,-0.00031632185,-0.0005602337,-0.00031632185,-0.00037238002,-0.005535843,-0.0022405265,-2.2888184e-05,0.0,0.0,0.0,0.0,0.0,0.0
2016636000,2016484000,-0.025879672,0.010194289,0.01797668,-0.00017980515,-0.00964353,0.037261963,0.0,0.0,0.0,0.0,0.0,0.0,0.0,0.005340576,0.0,0.0,0.0,0.0,-0.00031632185,-0.0005602337,-0.00031632185,-0.00037238002,-0.0021701509,0.0036459614,-1.9013882e-05,0.0,0.0,0.0,0.0,0.0,0.0
2016652000,2016500000,-0.025879672,0.010194289,0.01797668,-0.00017980515,-0.00964353,0.037261963,0.0,0.0,0.0,0.0,0.0,0.0,0.0,0.043670654,0.0,0.0,0.0,0.0,0.0008542985,-0.0026296442,0.0008542985,0.00028550625,0.0012439161,-0.004110694,-3.5762787e-07,0.0,0.0,0.0,0.0,0.0,0.0
2016660000,2016508000,-0.025879672,0.010194289,0.01797668,-0.00017980515,-0.00964353,0.037261963,0.0,0.0,0.0,0.0,0.0,0.0,0.0,0.043670654,0.0,0.0,0.0,0.0,0.0008542985,-0.0026296442,0.0008542985,0.00028550625,-0.002790921,0.010498727,-8.112192e-05,0.0,0.0,0.0,0.0,0.0,0.0
2016668000,2016516000,-0.025879672,0.010194289,0.01797668,-0.00017980515,-0.00964353,0.037261963,0.0,0.0,0.0,0.0,0.0,0.0,0.0,0.043670654,0.0,0.0,0.0,0.0,0.0008542985,-0.0026296442,0.0008542985,0.00028550625,0.0043924074,0.005996217,-2.9981136e-05,0.0,0.0,0.0,0.0,0.0,0.0
2016676000,2016524000,-0.025879672,0.010194289,0.01797668,-0.00017980515,-0.00964353,0.037261963,0.0,0.0,0.0,0.0,0.0,0.0,0.0,0.043670654,0.0,0.0,0.0,0.0,0.0008542985,-0.0026296442,0.0008542985,0.00028550625,-0.006873848,-0.0009993864,-3.4689903e-05,0.0,0.0,0.0,0.0,0.0,0.0
2016692000,2016540000,-0.025879672,0.010194289,0.01797668,-0.00017980515,-0.00964353,0.037261963,0.0,0.0,0.0,0.0,0.0,0.0,0.0,0.043670654,0.0,0.0,0.0,0.0,0.0008542985,-0.0026296442,0.0008542985,0.00028550625,-0.0118117435,-0.004525216,-9.3877316e-05,0.0,0.0,0.0,0.0,0.0,0.0
2016700000,2016548000,-0.025879672,0.010194289,0.01797668,-0.00017980515,-0.00964353,0.037261963,0.0,0.0,0.0,0.0,0.0,0.0,0.0,0.043670654,0.0,0.0,0.0,0.0,0.0008542985,-0.0026296442,0.0008542985,0.00028550625,0.0023698858,-0.007016871,-1.1622906e-05,0.0,0.0,0.0,0.0,0.0,0.0
2016708000,2016556000,-0.025879672,0.010194289,0.01797668,-0.00017980515,-0.00964353,0.037261963,0.0,0.0,0.0,0.0,0.0,0.0,0.0,0.043670654,0.0,0.0,0.0,0.0,0.0008542985,-0.0026296442,0.0008542985,0.00028550625,-0.0009219857,0.001806302,-6.6161156e-06,0.0,0.0,0.0,0.0,0.0,0.0
2016716000,2016564000,-0.025879672,0.010194289,0.01797668,-0.00017980515,-0.00964353,0.037261963,0.0,0.0,0.0,0.0,0.0,0.0,0.0,0.0904541,0.0,0.0,0.0,0.0,-0.0013665557,-0.0022779736,-0.0015147626,-0.0013665557,0.0028645287,-0.0001972036,1.3709068e-06,0.0,0.0,0.0,0.0,0.0,0.0
2016732000,2016580000,-0.025879672,0.010194289,0.01797668,-0.00017980515,-0.00964353,0.037261963,0.0,0.0,0.0,0.0,0.0,0.0,0.0,0.0904541,0.0,0.0,0.0,0.0,-0.0013665557,-0.0022779736,-0.0015147626,-0.0013665557,-0.004112114,-0.005563347,-2.1755695e-05,0.0,0.0,0.0,0.0,0.0,0.0
2016740000,2016588000,-0.025879672,0.010194289,0.01797668,-0.00017980515,-0.00964353,0.037261963,0.0,0.0,0.0,0.0,0.0,0.0,0.0,0.0904541,0.0,0.0,0.0,0.0,-0.0013665557,-0.0022779736,-0.0015147626,-0.0013665557,0.008949153,-0.008928357,-4.9233437e-05,0.0,0.0,0.0,0.0,0.0,0.0
2016748000,2016596000,-0.025879672,0.010194289,0.01797668,-0.00017980515,-0.00964353,0.037261963,0.0,0.0,0.0,0.0,0.0,0.0,0.0,0.0904541,0.0,0.0,0.0,0.0,-0.0013665557,-0.0022779736,-0.0015147626,-0.0013665557,0.0046427483,0.002348422,-9.179115e-06,0.0,0.0,0.0,0.0,0.0,0.0
2016756000,2016604000,-0.025879672,0.010194289,0.01797668,-0.00017980515,-0.00964353,0.037261963,0.0,0.0,0.0,0.0,0.0,0.0,0.0,0.0904541,0.0,0.0,0.0,0.0,-0.0013665557,-0.0022779736,-0.0015147626,-0.0013665557,0.005493422,0.0062981676,-3.6597252e-05,0.0,0.0,0.0,0.0,0.0,0.0
2016772000,2016620000,-0.025879672,0.010194289,0.01797668,-0.00017980515,-0.00964353,0.037261963,0.0,0.0,0.0,0.0,0.0,0.0,0.0,0.0904541,0.0,0.0,0.0,0.0,-0.0013665557,-0.0022779736,-0.0015147626,-0.0013665557,0.003793771,-0.0042722514,-1.4901161e-06,0.0,0.0,0.0,0.0,0.0,0.0
2016780000,2016628000,-0.025879672,0.010194289,0.01797668,-0.00017980515,-0.00964353,0.037261963,0.0,0.0,0.0,0.0,0.0,0.0,0.0,0.0904541,0.0,0.0,0.0,0.0,0.002226144,-0.0031743834,0.002226144,-0.0018086731,-0.0067654476,0.0026246582,-4.2915344e-05,0.0,0.0,0.0,0.0,0.0,0.0
2016788000,2016636000,-0.025879672,0.010194289,0.01797668,-0.00017980515,-0.00964353,0.037261963,0.0,0.0,0.0,0.0,0.0,0.0,0.0,0.009613037,0.0,0.0,0.0,0.0,0.002226144,-0.0031743834,0.002226144,-0.0018086731,-0.0120798815,-0.010052917,-0.00012797117,0.0,0.0,0.0,0.0,0.0,0.0
2016796000,2016644000,-0.025879672,0.010194289,0.01797668,-0.00017980515,-0.00964353,0.037261963,0.0,0.0,0.0,0.0,0.0,0.0,0.0,0.009613037,0.0,0.0,0.0,0.0,0.002226144,-0.0031743834,0.002226144,-0.0018086731,-0.0056680366,-0.0053342576,-3.2126904e-05,0.0,0.0,0.0,0.0,0.0,0.0
2016812000,2016660000,-0.026823742,0.009312079,-0.013608035,-0.002861341,-0.0002526997,0.05609131,0.0,0.0,0.0,0.0,0.0,0.0,0.0,0.009613037,0.0,0.0,0.0,0.0,0.002226144,-0.0031743834,0.002226144,-0.0018086731,0.0127625745,-0.00017555512,-5.9068203e-05,0.0,0.0,0.0,0.0,0.0,0.0
2016820000,2016668000,-0.026823742,0.009312079,-0.013608035,-0.002861341,-0.0002526997,0.05609131,0.0,0.0,0.0,0.0,0.0,0.0,0.0,0.009613037,0.0,0.0,0.0,0.0,0.002226144,-0.0031743834,0.002226144,-0.0018086731,0.0064258026,0.004227272,-2.4735928e-05,0.0,0.0,0.0,0.0,0.0,0.0
2016828000,2016676000,-0.026823742,0.009312079,-0.013608035,-0.002861341,-0.0002526997,0.05609131,0.0,0.0,0.0,0.0,0.0,0.0,0.0,0.009613037,0.0,0.0,0.0,0.0,0.002226144,-0.0031743834,0.002226144,-0.0018086731,0.00035738456,-0.0016913132,1.2516975e-06,0.0,0.0,0.0,0.0,0.0,0.0
2016836000,2016684000,-0.026823742,0.009312079,-0.013608035,-0.002861341,-0.0002526997,0.05609131,0.0,0.0,0.0,0.0,0.0,0.0,0.0,0.009613037,0.0,0.0,0.0,0.0,0.002226144,-0.0031743834,0.002226144,-0.0018086731,-0.001373022,0.005557827,-2.604723e-05,0.0,0.0,0.0,0.0,0.0,0.0
2016852000,2016700000,-0.026823742,0.009312079,-0.013608035,-0.002861341,-0.0002526997,0.05609131,0.0,0.0,0.0,0.0,0.0,0.0,0.0,0.029876709,0.0,0.0,0.0,0.0,0.0007074475,-0.0013519326,-0.0020936131,0.0007074475,0.002705386,-0.0015479369,1.7881393e-06,0.0,0.0,0.0,0.0,0.0,0.0
2016860000,2016708000,-0.026823742,0.009312079,-0.013608035,-0.002861341,-0.0002526997,0.05609131,0.0,0.0,0.0,0.0,0.0,0.0,0.0,0.029876709,0.0,0.0,0.0,0.0,0.0007074475,-0.0013519326,-0.0020936131,0.0007074475,-0.0015234916,0.0069388393,-3.772974e-05,0.0,0.0,0.0,0.0,0.0,0.0
2016868000,2016716000,-0.026823742,0.009312079,-0.013608035,-0.002861341,-0.0002526997,0.05609131,0.0,0.0,0.0,0.0,0.0,0.0,0.0,0.029876709,0.0,0.0,0.0,0.0,0.0007074475,-0.0013519326,-0.0020936131,0.0007074475,0.011207454,0.018160785,-0.00023472309,0.0,0.0,0.0,0.0,0.0,0.0
2016876000,2016724000,-0.026823742,0.009312079,-0.013608035,-0.002861341,-0.0002526997,0.05609131,0.0,0.0,0.0,0.0,0.0,0.0,0.0,0.029876709,0.0,0.0,0.0,0.0,0.0007074475,-0.0013519326,-0.0020936131,0.0007074475,-0.0017157054,0.00722532,-3.9339066e-05,0.0,0.0,0.0,0.0,0.0,0.0
2016892000,2016740000,-0.026823742,0.009312079,-0.013608035,-0.002861341,-0.0002526997,0.05609131,0.0,0.0,0.0,0.0,0.0,0.0,0.0,0.029876709,0.0,0.0,0.0,0.0,0.0007074475,-0.0013519326,-0.0020936131,0.0007074475,0.0021400184,-0.0069028465,-1.424551e-05,0.0,0.0,0.0,0.0,0.0,0.0
2016900000,2016748000,-0.026823742,0.009312079,-0.013608035,-0.002861341,-0.0002526997,0.05609131,0.0,0.0,0.0,0.0,0.0,0.0,0.0,0.029876709,0.0,0.0,0.0,0.0,0.0007074475,-0.0013519326,-0.0020936131,0.0007074475,-0.00045697426,-0.0019471401,-5.364418e-07,0.0,0.0,0.0,0.0,0.0,0.0
2016908000,2016756000,-0.026823742,0.009312079,-0.013608035,-0.002861341,-0.0002526997,0.05609131,0.0,0.0,0.0,0.0,0.0,0.0,0.0,0.03451538,0.0,0.0,0.0,0.0,0.0007074475,-0.0013519326,-0.0020936131,0.0007074475,0.0052405754,-0.008247659,-2.9683113e-05,0.0,0.0,0.0,0.0,0.0,0.0
2016916000,2016764000,-0.026823742,0.009312079,-0.013608035,-0.002861341,-0.0002526997,0.05609131,0.0,0.0,0.0,0.0,0.0,0.0,0.0,0.03451538,0.0,0.0,0.0,0.0,0.002001673,-0.0014712785,-0.00078859925,0.002001673,-0.0010258164,0.0016946844,-5.543232e-06,0.0,0.0,0.0,0.0,0.0,0.0
2016932000,2016780000,-0.026823742,0.009312079,-0.013608035,-0.002861341,-0.0002526997,0.05609131,0.0,0.0,0.0,0.0,0.0,0.0,0.0,0.03451538,0.0,0.0,0.0,0.0,0.002001673,-0.0014712785,-0.00078859925,0.002001673,-0.003746897,0.003327821,-2.1994114e-05,0.0,0.0,0.0,0.0,0.0,0.0
2016940000,2016788000,-0.026823742,0.009312079,-0.013608035,-0.002861341,-0.0002526997,0.05609131,0.0,0.0,0.0,0.0,0.0,0.0,0.0,0.03451538,0.0,0.0,0.0,0.0,0.002001673,-0.0014712785,-0.00078859925,0.002001673,-0.0020098074,-0.005534198,-1.41859055e-05,0.0,0.0,0.0,0.0,0.0,0.0
2016948000,2016796000,-0.026823742,0.009312079,-0.013608035,-0.002861341,-0.0002526997,0.05609131,0.0,0.0,0.0,0.0,0.0,0.0,0.0,0.03451538,0.0,0.0,0.0,0.0,0.002001673,-0.0014712785,-0.00078859925,0.002001673,0.011155955,-0.0063805724,-5.8710575e-05,0.0,0.0,0.0,0.0,0.0,0.0
2016956000,2016804000,-0.026823742,0.009312079,-0.013608035,-0.002861341,-0.0002526997,0.05609131,0.0,0.0,0.0,0.0,0.0,0.0,0.0,0.03451538,0.0,0.0,0.0,0.0,0.002001673,-0.0014712785,-0.00078859925,0.002001673,0.014462604,-0.006831852,-9.8347664e-05,0.0,0.0,0.0,0.0,0.0,0.0
2016972000,2016820000,-0.026823742,0.009312079,-0.013608035,-0.002861341,-0.0002526997,0.05609131,0.0,0.0,0.0,0.0,0.0,0.0,0.0,0.03451538,0.0,0.0,0.0,0.0,0.002001673,-0.0014712785,-0.00078859925,0.002001673,0.0021976132,-0.0029213156,-3.5762787e-07,0.0,0.0,0.0,0.0,0.0,0.0
2016980000,2016828000,-0.026823742,0.009312079,-0.013608035,-0.002861341,-0.0002526997,0.05609131,0.0,0.0,0.0,0.0,0.0,0.0,0.0,0.029785156,0.0,0.0,0.0,0.0,0.002001673,-0.0014712785,-0.00078859925,0.002001673,0.0054505426,0.0019299625,-1.2457371e-05,0.0,0.0,0.0,0.0,0.0,0.0
2016988000,2016836000,-0.026823742,0.009312079,-0.013608035,-0.002861341,-0.0002526997,0.05609131,0.0,0.0,0.0,0.0,0.0,0.0,0.0,0.029785156,0.0,0.0,0.0,0.0,0.0021552742,-0.002309422,0.0021552742,-8.624792e-05,0.004252036,-0.007983778,-2.5331974e-05,0.0,0.0,0.0,0.0,0.0,0.0
2016996000,2016844000,-0.026823742,0.009312079,-0.013608035,-0.002861341,-0.0002526997,0.05609131,0.0,0.0,0.0,0.0,0.0,0.0,0.0,0.029785156,0.0,0.0,0.0,0.0,0.0021552742,-0.002309422,0.0021552742,-8.624792e-05,-0.0024680858,0.00012183655,-6.0796738e-06,0.0,0.0,0.0,0.0,0.0,0.0
2017012000,2016860000,-0.026823742,0.009312079,-0.013608035,-0.002861341,-0.0002526997,0.05609131,0.0,0.0,0.0,0.0,0.0,0.0,0.0,0.029785156,0.0,0.0,0.0,0.0,0.0021552742,-0.002309422,0.0021552742,-8.624792e-05,0.00067509373,0.007629235,-4.0352345e-05,0.0,0.0,0.0,0.0,0.0,0.0
2017020000,2016868000,-0.026823742,0.009312079,-0.013608035,-0.002861341,-0.0002526997,0.05609131,0.0,0.0,0.0,0.0,0.0,0.0,0.0,0.029785156,0.0,0.0,0.0,0.0,0.0021552742,-0.002309422,0.0021552742,-8.624792e-05,-0.0009093095,0.00019253732,-1.9669533e-06,0.0,0.0,0.0,0.0,0.0,0.0
2017028000,2016876000,-0.026823742,0.009312079,-0.013608035,-0.002861341,-0.0002526997,0.05609131,0.0,0.0,0.0,0.0,0.0,0.0,0.0,0.029785156,0.0,0.0,0.0,0.0,0.0021552742,-0.002309422,0.0021552742,-8.624792e-05,-0.010183146,0.007087659,-0.00010305643,0.0,0.0,0.0,0.0,0.0,0.0
2017036000,2016884000,-0.026823742,0.009312079,-0.013608035,-0.002861341,-0.0002526997,0.05609131,0.0,0.0,0.0,0.0,0.0,0.0,0.0,0.029785156,0.0,0.0,0.0,0.0,0.0021552742,-0.002309422,0.0021552742,-8.624792e-05,-0.004741312,0.00679158,-5.185604e-05,0.0,0.0,0.0,0.0,0.0,0.0
2017052000,2016900000,-0.026823742,0.009312079,-0.013608035,-0.002861341,-0.0002526997,0.05609131,0.0,0.0,0.0,0.0,0.0,0.0,0.0,0.030090332,0.0,0.0,0.0,0.0,0.0021552742,-0.002309422,0.0021552742,-8.624792e-05,-0.000370982,0.007022965,-3.6358833e-05,0.0,0.0,0.0,0.0,0.0,0.0
2017060000,2016908000,-0.026823742,0.009312079,-0.013608035,-0.002861341,-0.0002526997,0.05609131,0.0,0.0,0.0,0.0,0.0,0.0,0.0,0.030090332,0.0,0.0,0.0,0.0,0.0033159405,0.0011079949,0.0033159405,0.000119268894,-0.006783407,0.0022845108,-3.8027763e-05,0.0,0.0,0.0,0.0,0.0,0.0
2017068000,2016916000,-0.026823742,0.009312079,-0.013608035,-0.002861341,-0.0002526997,0.05609131,0.0,0.0,0.0,0.0,0.0,0.0,0.0,0.030090332,0.0,0.0,0.0,0.0,0.0033159405,0.0011079949,0.0033159405,0.000119268894,-0.008983996,-0.006457937,-6.03199e-05,0.0,0.0,0.0,0.0,0.0,0.0
2017076000,2016924000,-0.026823742,0.009312079,-0.013608035,-0.002861341,-0.0002526997,0.05609131,0.0,0.0,0.0,0.0,0.0,0.0,0.0,0.030090332,0.0,0.0,0.0,0.0,0.0033159405,0.0011079949,0.0033159405,0.000119268894,0.00041561312,0.0011480805,-2.3245811e-06,0.0,0.0,0.0,0.0,0.0,0.0
2017092000,2016940000,-0.026823742,0.009312079,-0.013608035,-0.002861341,-0.0002526997,0.05609131,0.0,0.0,0.0,0.0,0.0,0.0,0.0,0.030090332,0.0,0.0,0.0,0.0,0.0033159405,0.0011079949,0.0033159405,0.000119268894,-0.01120377,-0.0042834925,-7.748604e-05,0.0,0.0,0.0,0.0,0.0,0.0
2017100000,2016948000,-0.026823742,0.009312079,-0.013608035,-0.002861341,-0.0002526997,0.05609131,0.0,0.0,0.0,0.0,0.0,0.0,0.0,0.030090332,0.0,0.0,0.0,0.0,0.0033159405,0.0011079949,0.0033159405,0.000119268894,-0.0021923291,-0.0010677429,-3.695488e-06,0.0,0.0,0.0,0.0,0.0,0.0
2017108000,2016956000,-0.026823742,0.009312079,-0.013608035,-0.002861341,-0.0002526997,0.05609131,0.0,0.0,0.0,0.0,0.0,0.0,0.0,0.030090332,0.0,0.0,0.0,0.0,0.0033159405,0.0011079949,0.0033159405,0.000119268894,0.00043728994,-0.002881403,1.4901161e-06,0.0,0.0,0.0,0.0,0.0,0.0
2017116000,2016964000,-0.026823742,0.009312079,-0.013608035,-0.002861341,-0.0002526997,0.05609131,0.0,0.0,0.0,0.0,0.0,0.0,0.0,0.030090332,0.0,0.0,0.0,0.0,0.0033159405,0.0011079949,0.0033159405,0.000119268894,-0.008586033,-0.0030088017,-4.7683716e-05,0.0,0.0,0.0,0.0,0.0,0.0
2017132000,2016980000,-0.026823742,0.009312079,-0.013608035,-0.002861341,-0.0002526997,0.05609131,0.0,0.0,0.0,0.0,0.0,0.0,0.0,0.006958008,0.0,0.0,0.0,0.0,0.0015464358,0.0015464358,-0.0009047538,-0.00035727024,0.0020756684,-0.0049079345,-2.4437904e-06,0.0,0.0,0.0,0.0,0.0,0.0
2017140000,2016988000,-0.026823742,0.009312079,-0.013608035,-0.002861341,-0.0002526997,0.05609131,0.0,0.0,0.0,0.0,0.0,0.0,0.0,0.006958008,0.0,0.0,0.0,0.0,0.0015464358,0.0015464358,-0.0009047538,-0.00035727024,-0.007749919,0.004269272,-5.9187412e-05,0.0,0.0,0.0,0.0,0.0,0.0
2017148000,2016996000,-0.026823742,0.009312079,-0.013608035,-0.002861341,-0.0002526997,0.05609131,0.0,0.0,0.0,0.0,0.0,0.0,0.0,0.006958008,0.0,0.0,0.0,0.0,0.0015464358,0.0015464358,-0.0009047538,-0.00035727024,-0.0027745657,0.005252791,-3.2305717e-05,0.0,0.0,0.0,0.0,0.0,0.0
2017156000,2017004000,-0.026823742,0.009312079,-0.013608035,-0.002861341,-0.0002526997,0.05609131,0.0,0.0,0.0,0.0,0.0,0.0,0.0,0.006958008,0.0,0.0,0.0,0.0,0.0015464358,0.0015464358,-0.0009047538,-0.00035727024,-0.0017844056,0.008104533,-5.3346157e-05,0.0,0.0,0.0,0.0,0.0,0.0
2017172000,2017020000,-0.026823742,0.009312079,-0.013608035,-0.002861341,-0.0002526997,0.05609131,0.0,0.0,0.0,0.0,0.0,0.0,0.0,0.006958008,0.0,0.0,0.0,0.0,0.0015464358,0.0015464358,-0.0009047538,-0.00035727024,-0.00017790531,0.007165516,-3.9219856e-05,0.0,0.0,0.0,0.0,0.0,0.0
2017180000,2017028000,-0.026823742,0.009312079,-0.013608035,-0.002861341,-0.0002526997,0.05609131,0.0,0.0,0.0,0.0,0.0,0.0,0.0,0.006958008,0.0,0.0,0.0,0.0,0.0015464358,0.0015464358,-0.0009047538,-0.00035727024,0.00086943666,-0.0032552613,1.6093254e-06,0.0,0.0,0.0,0.0,0.0,0.0
2017188000,2017036000,-0.026823742,0.009312079,-0.013608035,-0.002861341,-0.0002526997,0.05609131,0.0,0.0,0.0,0.0,0.0,0.0,0.0,0.006958008,0.0,0.0,0.0,0.0,0.0015464358,0.0015464358,-0.0009047538,-0.00035727024,0.0022743733,-0.015578099,-9.286404e-05,0.0,0.0,0.0,0.0,0.0,0.0
2017196000,2017044000,-0.026823742,0.009312079,-0.013608035,-0.002861341,-0.0002526997,0.05609131,0.0,0.0,0.0,0.0,0.0,0.0,0.0,-0.01586914,0.0,0.0,0.0,0.0,0.0010854304,-0.00017355464,0.0010854304,0.00055521727,-0.003802283,-0.00785253,-2.9861927e-05,0.0,0.0,0.0,0.0,0.0,0.0
2017212000,2017060000,0.007006619,0.008929061,0.020386184,-0.003267193,0.00052047166,0.051239014,0.0,0.0,0.0,0.0,0.0,0.0,0.0,-0.01586914,0.0,0.0,0.0,0.0,0.0010854304,-0.00017355464,0.0010854304,0.00055521727,0.011609649,-0.009876476,-8.070469e-05,0.0,0.0,0.0,0.0,0.0,0.0
2017220000,2017068000,0.007006619,0.008929061,0.020386184,-0.003267193,0.00052047166,0.051239014,0.0,0.0,0.0,0.0,0.0,0.0,0.0,-0.01586914,0.0,0.0,0.0,0.0,0.0010854304,-0.00017355464,0.0010854304,0.00055521727,0.00159133,-0.009773281,-2.8371811e-05,0.0,0.0,0.0,0.0,0.0,0.0
2017228000,2017076000,0.007006619,0.008929061,0.020386184,-0.003267193,0.00052047166,0.051239014,0.0,0.0,0.0,0.0,0.0,0.0,0.0,-0.01586914,0.0,0.0,0.0,0.0,0.0010854304,-0.00017355464,0.0010854304,0.00055521727,0.0076717385,-0.006307967,-2.4974346e-05,0.0,0.0,0.0,0.0,0.0,0.0
2017236000,2017084000,0.007006619,0.008929061,0.020386184,-0.003267193,0.00052047166,0.051239014,0.0,0.0,0.0,0.0,0.0,0.0,0.0,-0.01586914,0.0,0.0,0.0,0.0,0.0010854304,-0.00017355464,0.0010854304,0.00055521727,0.0022159396,-0.00301342,2.4437904e-06,0.0,0.0,0.0,0.0,0.0,0.0
2017252000,2017100000,0.007006619,0.008929061,0.020386184,-0.003267193,0.00052047166,0.051239014,0.0,0.0,0.0,0.0,0.0,0.0,0.0,-0.01586914,0.0,0.0,0.0,0.0,0.0010854304,-0.00017355464,0.0010854304,0.00055521727,0.006596962,0.007790326,-5.555153e-05,0.0,0.0,0.0,0.0,0.0,0.0
2017260000,2017108000,0.007006619,0.008929061,0.020386184,-0.003267193,0.00052047166,0.051239014,0.0,0.0,0.0,0.0,0.0,0.0,0.0,-0.01586914,0.0,0.0,0.0,0.0,0.0010854304,-0.00017355464,0.0010854304,0.00055521727,0.009221192,0.002267078,-3.349781e-05,0.0,0.0,0.0,0.0,0.0,0.0
2017268000,2017116000,0.007006619,0.008929061,0.020386184,-0.003267193,0.00052047166,0.051239014,0.0,0.0,0.0,0.0,0.0,0.0,0.0,-0.020568848,0.0,0.0,0.0,0.0,0.0030057728,-0.0033091893,0.0030057728,0.002745539,0.0042163725,0.0034591528,-1.4722347e-05,0.0,0.0,0.0,0.0,0.0,0.0
2017276000,2017124000,0.007006619,0.008929061,0.020386184,-0.003267193,0.00052047166,0.051239014,0.0,0.0,0.0,0.0,0.0,0.0,0.0,-0.020568848,0.0,0.0,0.0,0.0,0.0030057728,-0.0033091893,0.0030057728,0.002745539,-0.003371863,0.007966048,-5.865097e-05,0.0,0.0,0.0,0.0,0.0,0.0
2017292000,2017140000,0.007006619,0.008929061,0.020386184,-0.003267193,0.00052047166,0.051239014,0.0,0.0,0.0,0.0,0.0,0.0,0.0,-0.020568848,0.0,0.0,0.0,0.0,0.0030057728,-0.0033091893,0.0030057728,0.002745539,-0.009170214,-0.007572716,-7.200241e-05,0.0,0.0,0.0,0.0,0.0,0.0
2017300000,2017148000,0.007006619,0.008929061,0.020386184,-0.003267193,0.00052047166,0.051239014,0.0,0.0,0.0,0.0,0.0,0.0,0.0,-0.020568848,0.0,0.0,0.0,0.0,0.0030057728,-0.0033091893,0.0030057728,0.002745539,-0.003975711,-0.006935236,-2.6226044e-05,0.0,0.0,0.0,0.0,0.0,0.0
2017308000,2017156000,0.007006619,0.008929061,0.020386184,-0.003267193,0.00052047166,0.051239014,0.0,0.0,0.0,0.0,0.0,0.0,0.0,-0.020568848,0.0,0.0,0.0,0.0,0.0030057728,-0.0033091893,0.0030057728,0.002745539,-0.003842592,0.0067106,-4.8816204e-05,0.0,0.0,0.0,0.0,0.0,0.0
2017316000,2017164000,0.007006619,0.008929061,0.020386184,-0.003267193,0.00052047166,0.051239014,0.0,0.0,0.0,0.0,0.0,0.0,0.0,-0.020568848,0.0,0.0,0.0,0.0,0.0030057728,-0.0033091893,0.0030057728,0.002745539,-0.011010084,0.0025531792,-8.827448e-05,0.0,0.0,0.0,0.0,0.0,0.0
2017332000,2017180000,0.007006619,0.008929061,0.020386184,-0.003267193,0.00052047166,0.051239014,0.0,0.0,0.0,0.0,0.0,0.0,0.0,-0.020568848,0.0,0.0,0.0,0.0,0.0030057728,-0.0033091893,0.0030057728,0.002745539,-0.00012336369,-0.004985817,-2.6226044e-06,0.0,0.0,0.0,0.0,0.0,0.0
2017340000,2017188000,0.007006619,0.008929061,0.020386184,-0.003267193,0.00052047166,0.051239014,0.0,0.0,0.0,0.0,0.0,0.0,0.0,0.022613525,0.0,0.0,0.0,0.0,0.0011416376,-0.00067579537,0.0011416376,0.00057569146,0.001820705,-0.0010726327,3.1590462e-06,0.0,0.0,0.0,0.0,0.0,0.0
2017348000,2017196000,0.007006619,0.008929061,0.020386184,-0.003267193,0.00052047166,0.051239014,0.0,0.0,0.0,0.0,0.0,0.0,0.0,0.022613525,0.0,0.0,0.0,0.0,0.0011416376,-0.00067579537,0.0011416376,0.00057569146,0.00087327487,-0.009444238,-2.360344e-05,0.0,0.0,0.0,0.0,0.0,0.0
2017356000,2017204000,0.007006619,0.008929061,0.020386184,-0.003267193,0.00052047166,0.051239014,0.0,0.0,0.0,0.0,0.0,0.0,0.0,0.022613525,0.0,0.0,0.0,0.0,0.0011416376,-0.00067579537,0.0011416376,0.00057569146,0.008486561,-0.0056902915,-2.3841858e-05,0.0,0.0,0.0,0.0,0.0,0.0
2017372000,2017220000,0.007006619,0.008929061,0.020386184,-0.003267193,0.00052047166,0.051239014,0.0,0.0,0.0,0.0,0.0,0.0,0.0,0.022613525,0.0,0.0,0.0,0.0,0.0011416376,-0.00067579537,0.0011416376,0.00057569146,0.0008779826,-0.0031849807,1.9669533e-06,0.0,0.0,0.0,0.0,0.0,0.0
2017380000,2017228000,0.007006619,0.008929061,0.020386184,-0.003267193,0.00052047166,0.051239014,0.0,0.0,0.0,0.0,0.0,0.0,0.0,0.022613525,0.0,0.0,0.0,0.0,0.0011416376,-0.00067579537,0.0011416376,0.00057569146,0.0032008663,-0.0027750595,2.6226044e-06,0.0,0.0,0.0,0.0,0.0,0.0
2017388000,2017236000,0.007006619,0.008929061,0.020386184,-0.003267193,0.00052047166,0.051239014,0.0,0.0,0.0,0.0,0.0,0.0,0.0,0.022613525,0.0,0.0,0.0,0.0,0.0011416376,-0.00067579537,0.0011416376,0.00057569146,0.00723548,-0.0037860048,-1.1503696e-05,0.0,0.0,0.0,0.0,0.0,0.0
2017396000,2017244000,0.007006619,0.008929061,0.020386184,-0.003267193,0.00052047166,0.051239014,0.0,0.0,0.0,0.0,0.0,0.0,0.0,0.022613525,0.0,0.0,0.0,0.0,0.0011416376,-0.00067579537,0.0011416376,0.00057569146,-1.2976816e-05,0.0089626,-5.596876e-05,0.0,0.0,0.0,0.0,0.0,0.0
2017412000,2017260000,0.007006619,0.008929061,0.020386184,-0.003267193,0.00052047166,0.051239014,0.0,0.0,0.0,0.0,0.0,0.0,0.0,0.013458252,0.0,0.0,0.0,0.0,0.0032514632,-0.00058024854,0.0032514632,0.00028809905,0.002595975,-0.007526363,-1.2397766e-05,0.0,0.0,0.0,0.0,0.0,0.0
2017420000,2017268000,0.007006619,0.008929061,0.020386184,-0.003267193,0.00052047166,0.051239014,0.0,0.0,0.0,0.0,0.0,0.0,0.0,0.013458252,0.0,0.0,0.0,0.0,0.0032514632,-0.00058024854,0.0032514632,0.00028809905,0.0038905349,0.0003150265,1.1920929e-06,0.0,0.0,0.0,0.0,0.0,0.0
2017428000,2017276000,0.007006619,0.008929061,0.020386184,-0.003267193,0.00052047166,0.051239014,0.0,0.0,0.0,0.0,0.0,0.0,0.0,0.013458252,0.0,0.0,0.0,0.0,0.0032514632,-0.00058024854,0.0032514632,0.00028809905,0.0003542821,0.0021720175,-5.6028366e-06,0.0,0.0,0.0,0.0,0.0,0.0
2017436000,2017284000,0.007006619,0.008929061,0.020386184,-0.003267193,0.00052047166,0.051239014,0.0,0.0,0.0,0.0,0.0,0.0,0.0,0.013458252,0.0,0.0,0.0,0.0,0.0032514632,-0.00058024854,0.0032514632,0.00028809905,0.00996433,0.002791746,-3.516674e-05,0.0,0.0,0.0,0.0,0.0,0.0
2017452000,2017300000,0.007006619,0.008929061,0.020386184,-0.003267193,0.00052047166,0.051239014,0.0,0.0,0.0,0.0,0.0,0.0,0.0,0.013458252,0.0,0.0,0.0,0.0,0.0032514632,-0.00058024854,0.0032514632,0.00028809905,-0.005775431,-0.004687674,-3.1769276e-05,0.0,0.0,0.0,0.0,0.0,0.0
2017460000,2017308000,0.007006619,0.008929061,0.020386184,-0.003267193,0.00052047166,0.051239014,0.0,0.0,0.0,0.0,0.0,0.0,0.0,0.013458252,0.0,0.0,0.0,0.0,0.0032514632,-0.00058024854,0.0032514632,0.00028809905,0.004837368,-0.008459211,-2.1219254e-05,0.0,0.0,0.0,0.0,0.0,0.0
2017468000,2017316000,0.007006619,0.008929061,0.020386184,-0.003267193,0.00052047166,0.051239014,0.0,0.0,0.0,0.0,0.0,0.0,0.0,0.013458252,0.0,0.0,0.0,0.0,0.0032514632,-0.00058024854,0.0032514632,0.00028809905,0.0073933033,-0.0010882202,-9.834766e-06,0.0,0.0,0.0,0.0,0.0,0.0
2017476000,2017324000,0.007006619,0.008929061,0.020386184,-0.003267193,0.00052047166,0.051239014,0.0,0.0,0.0,0.0,0.0,0.0,0.0,0.013458252,0.0,0.0,0.0,0.0,0.0032514632,-0.00058024854,0.0032514632,0.00028809905,0.0060679647,-0.00058898446,-4.053116e-06,0.0,0.0,0.0,0.0,0.0,0.0
2017492000,2017340000,0.007006619,0.008929061,0.020386184,-0.003267193,0.00052047166,0.051239014,0.0,0.0,0.0,0.0,0.0,0.0,0.0,-0.03286743,0.0,0.0,0.0,0.0,0.00051943876,0.00051943876,-0.0007941425,-0.0009845495,-0.00041577476,-0.013184955,-6.54459e-05,0.0,0.0,0.0,0.0,0.0,0.0
2017500000,2017348000,0.007006619,0.008929061,0.020386184,-0.003267193,0.00052047166,0.051239014,0.0,0.0,0.0,0.0,0.0,0.0,0.0,-0.03286743,0.0,0.0,0.0,0.0,0.00051943876,0.00051943876,-0.0007941425,-0.0009845495,0.005691965,-0.010770163,-4.3272972e-05,0.0,0.0,0.0,0.0,0.0,0.0
2017508000,2017356000,0.007006619,0.008929061,0.020386184,-0.003267193,0.00052047166,0.051239014,0.0,0.0,0.0,0.0,0.0,0.0,0.0,-0.03286743,0.0,0.0,0.0,0.0,0.00051943876,0.00051943876,-0.0007941425,-0.0009845495,0.005553996,0.0076071797,-4.3988228e-05,0.0,0.0,0.0,0.0,0.0,0.0
2017516000,2017364000,0.007006619,0.008929061,0.020386184,-0.003267193,0.00052047166,0.051239014,0.0,0.0,0.0,0.0,0.0,0.0,0.0,-0.03286743,0.0,0.0,0.0,0.0,0.00051943876,0.00051943876,-0.0007941425,-0.0009845495,0.007340788,0.006568538,-4.3034554e-05,0.0,0.0,0.0,0.0,0.0,0.0
2017532000,2017380000,0.007006619,0.008929061,0.020386184,-0.003267193,0.00052047166,0.051239014,0.0,0.0,0.0,0.0,0.0,0.0,0.0,-0.03286743,0.0,0.0,0.0,0.0,0.00051943876,0.00051943876,-0.0007941425,-0.0009845495,-0.00015961821,0.0025580965,-7.4505806e-06,0.0,0.0,0.0,0.0,0.0,0.0
2017540000,2017388000,0.007006619,0.008929061,0.020386184,-0.003267193,0.00052047166,0.051239014,0.0,0.0,0.0,0.0,0.0,0.0,0.0,-0.03286743,0.0,0.0,0.0,0.0,0.00051943876,0.00051943876,-0.0007941425,-0.0009845495,0.006909233,-0.0015368003,-8.821487e-06,0.0,0.0,0.0,0.0,0.0,0.0
2017548000,2017396000,0.007006619,0.008929061,0.020386184,-0.003267193,0.00052047166,0.051239014,0.0,0.0,0.0,0.0,0.0,0.0,0.0,-0.03286743,0.0,0.0,0.0,0.0,0.0014852136,-0.0022940855,0.0014852136,0.0004969537,0.014809335,-0.008310763,-0.00010085106,0.0,0.0,0.0,0.0,0.0,0.0
2017556000,2017404000,0.007006619,0.008929061,0.020386184,-0.003267193,0.00052047166,0.051239014,0.0,0.0,0.0,0.0,0.0,0.0,0.0,0.090545654,0.0,0.0,0.0,0.0,0.0014852136,-0.0022940855,0.0014852136,0.0004969537,0.0074917963,0.0005994518,-1.3828278e-05,0.0,0.0,0.0,0.0,0.0,0.0
2017572000,2017420000,0.007006619,0.008929061,0.020386184,-0.003267193,0.00052047166,0.051239014,0.0,0.0,0.0,0.0,0.0,0.0,0.0,0.090545654,0.0,0.0,0.0,0.0,0.0014852136,-0.0022940855,0.0014852136,0.0004969537,-0.0009495381,-0.0017565638,-1.6093254e-06,0.0,0.0,0.0,0.0,0.0,0.0
2017580000,2017428000,0.007006619,0.008929061,0.020386184,-0.003267193,0.00052047166,0.051239014,0.0,0.0,0.0,0.0,0.0,0.0,0.0,0.090545654,0.0,0.0,0.0,0.0,0.0014852136,-0.0022940855,0.0014852136,0.0004969537,-0.0023619141,0.0014199915,-1.0430813e-05,0.0,0.0,0.0,0.0,0.0,0.0
2017588000,2017436000,0.007006619,0.008929061,0.020386184,-0.003267193,0.00052047166,0.051239014,0.0,0.0,0.0,0.0,0.0,0.0,0.0,0.090545654,0.0,0.0,0.0,0.0,0.0014852136,-0.0022940855,0.0014852136,0.0004969537,-0.0032131763,0.0129684005,-0.0001129508,0.0,0.0,0.0,0.0,0.0,0.0
2017596000,2017444000,0.007006619,0.008929061,0.020386184,-0.003267193,0.00052047166,0.051239014,0.0,0.0,0.0,0.0,0.0,0.0,0.0,0.090545654,0.0,0.0,0.0,0.0,0.0014852136,-0.0022940855,0.0014852136,0.0004969537,0.0076648286,0.0025901205,-1.9848347e-05,0.0,0.0,0.0,0.0,0.0,0.0
2017612000,2017460000,-0.007962782,-0.000390673,0.02054094,-0.015057979,8.6087995e-05,0.04498291,0.0,0.0,0.0,0.0,0.0,0.0,0.0,0.090545654,0.0,0.0,0.0,0.0,0.0014852136,-0.0022940855,0.0014852136,0.0004969537,-0.0046788934,-0.0001210419,-2.1338463e-05,0.0,0.0,0.0,0.0,0.0,0.0
2017620000,2017468000,-0.007962782,-0.000390673,0.02054094,-0.015057979,8.6087995e-05,0.04498291,0.0,0.0,0.0,0.0,0.0,0.0,0.0,0.00012207031,0.0,0.0,0.0,0.0,0.0010407716,-0.0037174062,0.0010407716,-0.0019481182,-0.01431645,-0.0035403757,-0.00013566017,0.0,0.0,0.0,0.0,0.0,0.0
2017628000,2017476000,-0.007962782,-0.000390673,0.02054094,-0.015057979,8.6087995e-05,0.04498291,0.0,0.0,0.0,0.0,0.0,0.0,0.0,0.00012207031,0.0,0.0,0.0,0.0,0.0010407716,-0.0037174062,0.0010407716,-0.0019481182,0.0039048055,-0.004505225,-4.23193e-06,0.0,0.0,0.0,0.0,0.0,0.0
2017636000,2017484000,-0.007962782,-0.000390673,0.02054094,-0.015057979,8.6087995e-05,0.04498291,0.0,0.0,0.0,0.0,0.0,0.0,0.0,0.00012207031,0.0,0.0,0.0,0.0,0.0010407716,-0.0037174062,0.0010407716,-0.0019481182,-0.004147997,-0.001135467,-1.6450882e-05,0.0,0.0,0.0,0.0,0.0,0.0
2017652000,2017500000,-0.007962782,-0.000390673,0.02054094,-0.015057979,8.6087995e-05,0.04498291,0.0,0.0,0.0,0.0,0.0,0.0,0.0,0.00012207031,0.0,0.0,0.0,0.0,0.0010407716,-0.0037174062,0.0010407716,-0.0019481182,-0.0063902177,-0.00064329855,-3.2305717e-05,0.0,0.0,0.0,0.0,0.0,0.0
2017660000,2017508000,-0.007962782,-0.000390673,0.02054094,-0.015057979,8.6087995e-05,0.04498291,0.0,0.0,0.0,0.0,0.0,0.0,0.0,0.00012207031,0.0,0.0,0.0,0.0,0.0010407716,-0.0037174062,0.0010407716,-0.0019481182,-0.0009985769,-0.010792572,-4.7564507e-05,0.0,0.0,0.0,0.0,0.0,0.0
2017668000,2017516000,-0.007962782,-0.000390673,0.02054094,-0.015057979,8.6087995e-05,0.04498291,0.0,0.0,0.0,0.0,0.0,0.0,0.0,0.00012207031,0.0,0.0,0.0,0.0,0.0010407716,-0.0037174062,0.0010407716,-0.0019481182,0.002739372,0.00035180873,8.34465e-07,0.0,0.0,0.0,0.0,0.0,0.0
2017676000,2017524000,-0.007962782,-0.000390673,0.02054094,-0.015057979,8.6087995e-05,0.04498291,0.0,0.0,0.0,0.0,0.0,0.0,0.0,0.061798096,0.0,0.0,0.0,0.0,0.0010407716,-0.0037174062,0.0010407716,-0.0019481182,-0.0060180807,0.00949845,-8.4877014e-05,0.0,0.0,0.0,0.0,0.0,0.0
2017692000,2017540000,-0.007962782,-0.000390673,0.02054094,-0.015057979,8.6087995e-05,0.04498291,0.0,0.0,0.0,0.0,0.0,0.0,0.0,0.061798096,0.0,0.0,0.0,0.0,0.0020570755,0.0006917553,0.00034750998,0.0020570755,-0.0019188183,-0.011133593,-5.221367e-05,0.0,0.0,0.0,0.0,0.0,0.0
2017700000,2017548000,-0.007962782,-0.000390673,0.02054094,-0.015057979,8.6087995e-05,0.04498291,0.0,0.0,0.0,0.0,0.0,0.0,0.0,0.061798096,0.0,0.0,0.0,0.0,0.0020570755,0.0006917553,0.00034750998,0.0020570755,-0.008935454,0.0006441348,-5.6564808e-05,0.0,0.0,0.0,0.0,0.0,0.0
2017708000,2017556000,-0.007962782,-0.000390673,0.02054094,-0.015057979,8.6087995e-05,0.04498291,0.0,0.0,0.0,0.0,0.0,0.0,0.0,0.061798096,0.0,0.0,0.0,0.0,0.0020570755,0.0006917553,0.00034750998,0.0020570755,-0.010236561,-0.0031769886,-6.914139e-05,0.0,0.0,0.0,0.0,0.0,0.0
2017716000,2017564000,-0.007962782,-0.000390673,0.02054094,-0.015057979,8.6087995e-05,0.04498291,0.0,0.0,0.0,0.0,0.0,0.0,0.0,0.061798096,0.0,0.0,0.0,0.0,0.0020570755,0.0006917553,0.00034750998,0.0020570755,-0.008584366,-0.0028442196,-4.976988e-05,0.0,0.0,0.0,0.0,0.0,0.0
2017732000,2017580000,-0.007962782,-0.000390673,0.02054094,-0.015057979,8.6087995e-05,0.04498291,0.0,0.0,0.0,0.0,0.0,0.0,0.0,0.061798096,0.0,0.0,0.0,0.0,0.0020570755,0.0006917553,0.00034750998,0.0020570755,-0.0030107826,-0.017285205,-0.00012803078,0.0,0.0,0.0,0.0,0.0,0.0
2017740000,2017588000,-0.007962782,-0.000390673,0.02054094,-0.015057979,8.6087995e-05,0.04498291,0.0,0.0,0.0,0.0,0.0,0.0,0.0,0.047424316,0.0,0.0,0.0,0.0,0.0020570755,0.0006917553,0.00034750998,0.0020570755,-0.010299278,-0.014481012,-0.00014996529,0.0,0.0,0.0,0.0,0.0,0.0
2017748000,2017596000,-0.007962782,-0.000390673,0.02054094,-0.015057979,8.6087995e-05,0.04498291,0.0,0.0,0.0,0.0,0.0,0.0,0.0,0.047424316,0.0,0.0,0.0,0.0,0.0020570755,0.0006917553,0.00034750998,0.0020570755,-0.0016417316,-0.0075569954,-1.9669533e-05,0.0,0.0,0.0,0.0,0.0,0.0
2017756000,2017604000,-0.007962782,-0.000390673,0.02054094,-0.015057979,8.6087995e-05,0.04498291,0.0,0.0,0.0,0.0,0.0,0.0,0.0,0.047424316,0.0,0.0,0.0,0.0,0.0020570755,0.0006917553,0.00034750998,0.0020570755,0.0049940627,-0.003452306,-4.4107437e-06,0.0,0.0,0.0,0.0,0.0,0.0
2017772000,2017620000,-0.007962782,-0.000390673,0.02054094,-0.015057979,8.6087995e-05,0.04498291,0.0,0.0,0.0,0.0,0.0,0.0,0.0,0.047424316,0.0,0.0,0.0,0.0,0.001557827,-0.001570301,0.001557827,-0.00016543269,-0.0067039644,0.009619821,-9.75728e-05,0.0,0.0,0.0,0.0,0.0,0.0
2017780000,2017628000,-0.007962782,-0.000390673,0.02054094,-0.015057979,8.6087995e-05,0.04498291,0.0,0.0,0.0,0.0,0.0,0.0,0.0,0.047424316,0.0,0.0,0.0,0.0,0.001557827,-0.001570301,0.001557827,-0.00016543269,0.00042892015,0.00044310698,-2.9802322e-07,0.0,0.0,0.0,0.0,0.0,0.0
2017788000,2017636000,-0.007962782,-0.000390673,0.02054094,-0.015057979,8.6087995e-05,0.04498291,0.0,0.0,0.0,0.0,0.0,0.0,0.0,0.047424316,0.0,0.0,0.0,0.0,0.001557827,-0.001570301,0.001557827,-0.00016543269,-0.00096627045,0.00791419,-4.61936e-05,0.0,0.0,0.0,0.0,0.0,0.0
2017796000,2017644000,-0.007962782,-0.000390673,0.02054094,-0.015057979,8.6087995e-05,0.04498291,0.0,0.0,0.0,0.0,0.0,0.0,0.0,0.005065918,0.0,0.0,0.0,0.0,0.001557827,-0.001570301,0.001557827,-0.00016543269,0.0066628656,9.373599e-05,-9.775162e-06,0.0,0.0,0.0,0.0,0.0,0.0
2017812000,2017660000,-0.007962782,-0.000390673,0.02054094,-0.015057979,8.6087995e-05,0.04498291,0.0,0.0,0.0,0.0,0.0,0.0,0.0,0.005065918,0.0,0.0,0.0,0.0,0.001557827,-0.001570301,0.001557827,-0.00016543269,0.0054056533,-0.0013294774,-2.2649765e-06,0.0,0.0,0.0,0.0,0.0,0.0
2017820000,2017668000,-0.007962782,-0.000390673,0.02054094,-0.015057979,8.6087995e-05,0.04498291,0.0,0.0,0.0,0.0,0.0,0.0,0.0,0.005065918,0.0,0.0,0.0,0.0,0.001557827,-0.001570301,0.001557827,-0.00016543269,0.003186693,0.0028175395,-6.4969063e-06,0.0,0.0,0.0,0.0,0.0,0.0
2017828000,2017676000,-0.007962782,-0.000390673,0.02054094,-0.015057979,8.6087995e-05,0.04498291,0.0,0.0,0.0,0.0,0.0,0.0,0.0,0.005065918,0.0,0.0,0.0,0.0,-0.0012405515,-0.0031181215,-0.0012405515,-0.0024453402,0.0040647807,0.009923167,-6.377697e-05,0.0,0.0,0.0,0.0,0.0,0.0
2017836000,2017684000,-0.007962782,-0.000390673,0.02054094,-0.015057979,8.6087995e-05,0.04498291,0.0,0.0,0.0,0.0,0.0,0.0,0.0,0.005065918,0.0,0.0,0.0,0.0,-0.0012405515,-0.0031181215,-0.0012405515,-0.0024453402,-0.00049264054,0.0010720822,-3.1590462e-06,0.0,0.0,0.0,0.0,0.0,0.0
2017852000,2017700000,-0.007962782,-0.000390673,0.02054094,-0.015057979,8.6087995e-05,0.04498291,0.0,0.0,0.0,0.0,0.0,0.0,0.0,0.005065918,0.0,0.0,0.0,0.0,-0.0012405515,-0.0031181215,-0.0012405515,-0.0024453402,0.00052653893,0.004086664,-1.3649464e-05,0.0,0.0,0.0,0.0,0.0,0.0
2017860000,2017708000,-0.007962782,-0.000390673,0.02054094,-0.015057979,8.6087995e-05,0.04498291,0.0,0.0,0.0,0.0,0.0,0.0,0.0,0.005065918,0.0,0.0,0.0,0.0,-0.0012405515,-0.0031181215,-0.0012405515,-0.0024453402,0.008977557,0.0009682677,-2.425909e-05,0.0,0.0,0.0,0.0,0.0,0.0
2017868000,2017716000,-0.007962782,-0.000390673,0.02054094,-0.015057979,8.6087995e-05,0.04498291,0.0,0.0,0.0,0.0,0.0,0.0,0.0,0.052490234,0.0,0.0,0.0,0.0,-0.0012405515,-0.0031181215,-0.0012405515,-0.0024453402,0.004758802,-0.009075041,-2.9146671e-05,0.0,0.0,0.0,0.0,0.0,0.0
2017876000,2017724000,-0.007962782,-0.000390673,0.02054094,-0.015057979,8.6087995e-05,0.04498291,0.0,0.0,0.0,0.0,0.0,0.0,0.0,0.052490234,0.0,0.0,0.0,0.0,-0.0012405515,-0.0031181215,-0.0012405515,-0.0024453402,0.0035160438,-0.0031494845,5.9604645e-07,0.0,0.0,0.0,0.0,0.0,0.0
2017892000,2017740000,-0.007962782,-0.000390673,0.02054094,-0.015057979,8.6087995e-05,0.04498291,0.0,0.0,0.0,0.0,0.0,0.0,0.0,0.052490234,0.0,0.0,0.0,0.0,-0.0012405515,-0.0031181215,-0.0012405515,-0.0024453402,-0.0016874825,0.0064624446,-3.606081e-05,0.0,0.0,0.0,0.0,0.0,0.0
2017900000,2017748000,-0.007962782,-0.000390673,0.02054094,-0.015057979,8.6087995e-05,0.04498291,0.0,0.0,0.0,0.0,0.0,0.0,0.0,0.052490234,0.0,0.0,0.0,0.0,0.0010262042,0.0010262042,-0.00012902915,-0.0017032027,-0.0037774474,0.0022569718,-2.0861626e-05,0.0,0.0,0.0,0.0,0.0,0.0
2017908000,2017756000,-0.007962782,-0.000390673,0.02054094,-0.015057979,8.6087995e-05,0.04498291,0.0,0.0,0.0,0.0,0.0,0.0,0.0,0.052490234,0.0,0.0,0.0,0.0,0.0010262042,0.0010262042,-0.00012902915,-0.0017032027,-0.007949907,0.0007682075,-4.8816204e-05,0.0,0.0,0.0,0.0,0.0,0.0
2017916000,2017764000,-0.007962782,-0.000390673,0.02054094,-0.015057979,8.6087995e-05,0.04498291,0.0,0.0,0.0,0.0,0.0,0.0,0.0,0.052490234,0.0,0.0,0.0,0.0,0.0010262042,0.0010262042,-0.00012902915,-0.0017032027,0.003649078,0.0047009094,-1.7940998e-05,0.0,0.0,0.0,0.0,0.0,0.0
2017932000,2017780000,-0.007962782,-0.000390673,0.02054094,-0.015057979,8.6087995e-05,0.04498291,0.0,0.0,0.0,0.0,0.0,0.0,0.0,0.052490234,0.0,0.0,0.0,0.0,0.0010262042,0.0010262042,-0.00012902915,-0.0017032027,-0.0017149497,0.000112080714,-4.7683716e-06,0.0,0.0,0.0,0.0,0.0,0.0
2017940000,2017788000,-0.007962782,-0.000390673,0.02054094,-0.015057979,8.6087995e-05,0.04498291,0.0,0.0,0.0,0.0,0.0,0.0,0.0,0.033416748,0.0,0.0,0.0,0.0,0.0010262042,0.0010262042,-0.00012902915,-0.0017032027,0.0043364856,0.0030546004,-1.13248825e-05,0.0,0.0,0.0,0.0,0.0,0.0
2017948000,2017796000,-0.007962782,-0.000390673,0.02054094,-0.015057979,8.6087995e-05,0.04498291,0.0,0.0,0.0,0.0,0.0,0.0,0.0,0.033416748,0.0,0.0,0.0,0.0,0.0010262042,0.0010262042,-0.00012902915,-0.0017032027,0.0014640046,0.0049755145,-1.847744e-05,0.0,0.0,0.0,0.0,0.0,0.0
2017956000,2017804000,-0.007962782,-0.000390673,0.02054094,-0.015057979,8.6087995e-05,0.04498291,0.0,0.0,0.0,0.0,0.0,0.0,0.0,0.033416748,0.0,0.0,0.0,0.0,0.0010262042,0.0010262042,-0.00012902915,-0.0017032027,-0.0011366382,0.011189105,-8.225441e-05,0.0,0.0,0.0,0.0,0.0,0.0
2017972000,2017820000,-0.007962782,-0.000390673,0.02054094,-0.015057979,8.6087995e-05,0.04498291,0.0,0.0,0.0,0.0,0.0,0.0,0.0,0.033416748,0.0,0.0,0.0,0.0,0.004283786,-0.0015837166,0.004283786,-0.00066038966,0.008682729,0.0032136268,-3.2424927e-05,0.0,0.0,0.0,0.0,0.0,0.0
2017980000,2017828000,-0.007962782,-0.000390673,0.02054094,-0.015057979,8.6087995e-05,0.04498291,0.0,0.0,0.0,0.0,0.0,0.0,0.0,0.033416748,0.0,0.0,0.0,0.0,0.004283786,-0.0015837166,0.004283786,-0.00066038966,0.0052259145,0.0038371845,-1.7285347e-05,0.0,0.0,0.0,0.0,0.0,0.0
2017988000,2017836000,-0.007962782,-0.000390673,0.02054094,-0.015057979,8.6087995e-05,0.04498291,0.0,0.0,0.0,0.0,0.0,0.0,0.0,0.033416748,0.0,0.0,0.0,0.0,0.004283786,-0.0015837166,0.004283786,-0.00066038966,-0.004499523,0.0022112033,-2.3663044e-05,0.0,0.0,0.0,0.0,0.0,0.0
2017996000,2017844000,-0.007962782,-0.000390673,0.02054094,-0.015057979,8.6087995e-05,0.04498291,0.0,0.0,0.0,0.0,0.0,0.0,0.0,0.033416748,0.0,0.0,0.0,0.0,0.004283786,-0.0015837166,0.004283786,-0.00066038966,-0.013578026,-0.004565023,-0.00011855364,0.0,0.0,0.0,0.0,0.0,0.0
2018012000,2017860000,-0.029155139,0.0142958425,0.0100680515,-0.023396509,0.0018427938,0.034057617,0.0,0.0,0.0,0.0,0.0,0.0,0.0,0.0051574707,0.0,0.0,0.0,0.0,0.004283786,-0.0015837166,0.004283786,-0.00066038966,0.0028179358,-0.008261208,-2.193451e-05,0.0,0.0,0.0,0.0,0.0,0.0
2018020000,2017868000,-0.029155139,0.0142958425,0.0100680515,-0.023396509,0.0018427938,0.034057617,0.0,0.0,0.0,0.0,0.0,0.0,0.0,0.0051574707,0.0,0.0,0.0,0.0,0.004283786,-0.0015837166,0.004283786,-0.00066038966,-0.0049635284,-0.0024250024,-2.002716e-05,0.0,0.0,0.0,0.0,0.0,0.0
2018028000,2017876000,-0.029155139,0.0142958425,0.0100680515,-0.023396509,0.0018427938,0.034057617,0.0,0.0,0.0,0.0,0.0,0.0,0.0,0.0051574707,0.0,0.0,0.0,0.0,0.004283786,-0.0015837166,0.004283786,-0.00066038966,-0.0002499126,-0.0020367107,1.7881393e-07,0.0,0.0,0.0,0.0,0.0,0.0
2018036000,2017884000,-0.029155139,0.0142958425,0.0100680515,-0.023396509,0.0018427938,0.034057617,0.0,0.0,0.0,0.0,0.0,0.0,0.0,0.0051574707,0.0,0.0,0.0,0.0,0.004283786,-0.0015837166,0.004283786,-0.00066038966,-0.0011780198,-0.0020280802,-2.026558e-06,0.0,0.0,0.0,0.0,0.0,0.0
2018052000,2017900000,-0.029155139,0.0142958425,0.0100680515,-0.023396509,0.0018427938,0.034057617,0.0,0.0,0.0,0.0,0.0,0.0,0.0,0.0051574707,0.0,0.0,0.0,0.0,-0.0008617033,-0.0008617033,-0.0011412203,-0.0011291206,-0.011896825,0.0015819491,-9.381771e-05,0.0,0.0,0.0,0.0,0.0,0.0
2018060000,2017908000,-0.029155139,0.0142958425,0.0100680515,-0.023396509,0.0018427938,0.034057617,0.0,0.0,0.0,0.0,0.0,0.0,0.0,-0.0,0.0,0.0,0.0,0.0,-0.0008617033,-0.0008617033,-0.0011412203,-0.0011291206,-0.012093923,0.0010138947,-9.4652176e-05,0.0,0.0,0.0,0.0,0.0,0.0
2018068000,2017916000,-0.029155139,0.0142958425,0.0100680515,-0.023396509,0.0018427938,0.034057617,0.0,0.0,0.0,0.0,0.0,0.0,0.0,-0.0,0.0,0.0,0.0,0.0,-0.0008617033,-0.0008617033,-0.0011412203,-0.0011291206,-0.001255625,0.002327009,-9.179115e-06,0.0,0.0,0.0,0.0,0.0,0.0
2018076000,2017924000,-0.029155139,0.0142958425,0.0100680515,-0.023396509,0.0018427938,0.034057617,0.0,0.0,0.0,0.0,0.0,0.0,0.0,-0.0,0.0,0.0,0.0,0.0,-0.0008617033,-0.0008617033,-0.0011412203,-0.0011291206,0.0028060153,-0.0063729254,-9.417534e-06,0.0,0.0,0.0,0.0,0.0,0.0
2018092000,2017940000,-0.029155139,0.0142958425,0.0100680515,-0.023396509,0.0018427938,0.034057617,0.0,0.0,0.0,0.0,0.0,0.0,0.0,-0.0,0.0,0.0,0.0,0.0,-0.0008617033,-0.0008617033,-0.0011412203,-0.0011291206,0.005742323,-0.0023583882,-6.3180923e-06,0.0,0.0,0.0,0.0,0.0,0.0
