timestamp,timestamp_sample,states[0],states[1],states[2],states[3],states[4],states[5],states[6],states[7],states[8],states[9],states[10],states[11],states[12],states[13],states[14],states[15],states[16],states[17],states[18],states[19],states[20],states[21],states[22],states[23],states[24],covariances[0],covariances[1],covariances[2],covariances[3],covariances[4],covariances[5],covariances[6],covariances[7],covariances[8],covariances[9],covariances[10],covariances[11],covariances[12],covariances[13],covariances[14],covariances[15],covariances[16],covariances[17],covariances[18],covariances[19],covariances[20],covariances[21],covariances[22],covariances[23],n_states
2015916000,2015764000,0.6230568,0.00015720123,0.0012173054,0.7821757,-0.027795456,0.01396677,0.009414829,0.0,0.0,-488.05576,-7.619016e-05,0.00014435298,0.00010079478,-0.0005066564,0.0038696514,0.003151467,0.21695301,0.012894554,0.42567918,-0.0012429408,0.0010509839,0.0034903975,0.0,0.0,-487.95575,2.758034e-05,4.0953604e-05,0.0009646085,0.014669203,0.014845057,0.0052643586,0.120193854,0.12064098,0.08695858,1.581499e-07,1.5855726e-07,2.9247374e-07,0.0012436913,0.0026591877,8.768542e-06,0.00030604942,4.82195e-06,0.00024928094,3.6590023e-05,0.00030586406,0.00024775334,1.0,1.0,0.010000001,25
2015924000,2015772000,0.62307554,0.0001534612,0.0012264022,0.78216064,-0.027628947,0.014273403,0.009619649,0.0,0.0,-488.05646,-7.592644e-05,0.00014442275,0.00010120801,-0.00050674257,0.0038695035,0.0031525504,0.21695407,0.01289465,0.42567945,-0.0012430414,0.0010509148,0.0034906373,0.0,0.0,-487.95645,2.7596721e-05,4.0962706e-05,0.0009639814,0.014719096,0.014900191,0.005255464,0.12062137,0.12108004,0.086583875,1.5816646e-07,1.5859075e-07,2.9213135e-07,0.0012436919,0.0026591881,8.767961e-06,0.00030604907,4.8214224e-06,0.00024928045,3.6589943e-05,0.000305864,0.0002477533,1.0,1.0,0.010000001,25
2015932000,2015780000,0.62310284,0.000120918194,0.0012234601,0.78213906,-0.0277273,0.014453839,0.009977117,0.0,0.0,-488.05637,-7.592644e-05,0.00014442275,0.00010120801,-0.00050674257,0.0038695035,0.0031525504,0.21695407,0.01289465,0.42567945,-0.0012430414,0.0010509148,0.0034906373,0.0,0.0,-487.95636,2.7623051e-05,4.0988874e-05,0.0009640752,0.0147784,0.0149603905,0.0052640084,0.12106332,0.121526495,0.08681841,1.5823046e-07,1.5865476e-07,2.9219535e-07,0.0012436925,0.0026591886,8.768537e-06,0.00030604913,4.8214865e-06,0.0002492805,3.6589943e-05,0.000305864,0.0002477533,1.0,1.0,0.010000001,25
2015940000,2015788000,0.6231038,0.00015091879,0.0011639094,0.7821382,-0.027225668,0.01448055,0.010396101,0.0,0.0,-488.05627,-7.592644e-05,0.00014442275,0.00010120801,-0.00050674257,0.0038695035,0.0031525504,0.21695407,0.01289465,0.42567945,-0.0012430414,0.0010509148,0.0034906373,0.0,0.0,-487.95627,2.7649423e-05,4.1015093e-05,0.0009641698,0.014837843,0.015020884,0.005272554,0.12150765,0.121975355,0.08705364,1.5829447e-07,1.5871876e-07,2.9225936e-07,0.001243693,0.002659189,8.769112e-06,0.0003060492,4.8215506e-06,0.00024928057,3.6589943e-05,0.000305864,0.0002477533,1.0,1.0,0.010000001,25
2015948000,2015796000,0.6230894,0.00014291347,0.0011523586,0.78214973,-0.02766096,0.014706112,0.010869004,0.0,0.0,-488.05618,-7.592644e-05,0.00014442275,0.00010120801,-0.00050674257,0.0038695035,0.0031525504,0.21695407,0.01289465,0.42567945,-0.0012430414,0.0010509148,0.0034906373,0.0,0.0,-487.95618,2.7675793e-05,4.1041305e-05,0.0009642637,0.014897453,0.01508131,0.0052811005,0.12195436,0.12242663,0.087289564,1.5835847e-07,1.5878277e-07,2.9232336e-07,0.0012436936,0.0026591895,8.769688e-06,0.00030604925,4.8216148e-06,0.00024928062,3.6589943e-05,0.000305864,0.0002477533,1.0,1.0,0.010000001,25
2015956000,2015804000,0.623109,9.490302e-05,0.0011713281,0.78213423,-0.02771842,0.014736201,0.011274427,0.0,0.0,-488.0561,-7.609485e-05,0.00014438054,0.000106122796,-0.00050693884,0.0038696292,0.00315255,0.2169547,0.012894205,0.42567953,-0.0012429717,0.0010515025,0.0034905453,0.0,0.0,-487.9561,2.7699636e-05,4.10651e-05,0.00096424704,0.014956136,0.015140828,0.005289648,0.12240227,0.122878954,0.08752617,1.5831101e-07,1.5873461e-07,2.9200783e-07,0.0012436942,0.00265919,8.770264e-06,0.0003060493,4.8216757e-06,0.00024928068,3.6589943e-05,0.000305864,0.0002477533,1.0,1.0,0.010000001,25
2015972000,2015820000,0.6231189,0.00011935504,0.0012255945,0.78212625,-0.027541578,0.015451801,0.011523634,0.0,0.0,-488.0559,-7.609485e-05,0.00014438054,0.000106122796,-0.00050693884,0.0038696292,0.00315255,0.2169547,0.012894205,0.42567953,-0.0012429717,0.0010515025,0.0034905453,0.0,0.0,-487.9559,2.7752483e-05,4.1117637e-05,0.0009644355,0.015076773,0.015263355,0.005306748,0.12330765,0.123793654,0.08800147,1.5843902e-07,1.5886262e-07,2.9213584e-07,0.0012436954,0.002659191,8.771415e-06,0.00030604942,4.821804e-06,0.0002492808,3.6589943e-05,0.000305864,0.0002477533,1.0,1.0,0.010000001,25
2015980000,2015828000,0.6231216,0.00012071369,0.0011779652,0.78212416,-0.027343895,0.01609315,0.011630803,0.0,0.0,-488.05582,-7.609485e-05,0.00014438054,0.000106122796,-0.00050693884,0.0038696292,0.00315255,0.2169547,0.012894205,0.42567953,-0.0012429717,0.0010515025,0.0034905453,0.0,0.0,-487.9558,2.777894e-05,4.1143936e-05,0.0009645299,0.015137409,0.015324948,0.0053153005,0.123763986,0.12425469,0.088240154,1.5850303e-07,1.5892662e-07,2.9219984e-07,0.001243696,0.0026591914,8.771991e-06,0.00030604948,4.821868e-06,0.00024928086,3.6589943e-05,0.000305864,0.0002477533,1.0,1.0,0.010000001,25
2015988000,2015836000,0.6231201,0.00014789759,0.0011969338,0.7821253,-0.027423382,0.016249029,0.012706555,0.0,0.0,-488.05573,-7.609485e-05,0.00014438054,0.000106122796,-0.00050693884,0.0038696292,0.00315255,0.2169547,0.012894205,0.42567953,-0.0012429717,0.0010515025,0.0034905453,0.0,0.0,-487.95572,2.7805418e-05,4.1170253e-05,0.0009646244,0.015197553,0.015386006,0.005323853,0.12422276,0.124718204,0.08847954,1.5856703e-07,1.5899063e-07,2.9226385e-07,0.0012436965,0.0026591918,8.772567e-06,0.00030604954,4.821932e-06,0.0002492809,3.6589943e-05,0.000305864,0.0002477533,1.0,1.0,0.010000001,25
2015996000,2015844000,0.6231325,0.00016438971,0.0012174138,0.78211534,-0.02832779,0.016429644,0.014114691,0.0,0.0,-488.05508,-7.6077136e-05,0.00014464183,0.00010706968,-0.0005068025,0.0038697117,0.0031518454,0.21695442,0.012894234,0.42567936,-0.0012429167,0.0010513754,0.0034905733,0.0,0.0,-487.95508,2.7821665e-05,4.1178977e-05,0.0009639979,0.015247811,0.015441613,0.0053142835,0.12467009,0.12517835,0.08808795,1.5858232e-07,1.5902336e-07,2.9192267e-07,0.0012436971,0.0026591923,8.77194e-06,0.0003060492,4.8214047e-06,0.00024928042,3.6589863e-05,0.00030586394,0.00024775328,1.0,1.0,0.010000001,25
2016012000,2015860000,0.623114,1.4555328e-05,0.0012162941,0.7821302,-0.025623813,0.00900805,0.012496309,0.0,0.0,-488.06036,-7.316838e-05,0.00013638816,0.00010863768,-0.00050746993,0.0038693377,0.0031620997,0.21695325,0.0128943315,0.42567968,-0.0012414748,0.0010511004,0.0034908194,0.0,0.0,-487.96036,2.6632359e-05,4.003176e-05,0.0009639978,0.012571242,0.012703925,0.004998008,0.10514516,0.10543369,0.08044548,1.5598668e-07,1.5633805e-07,2.9192464e-07,0.0012436977,0.0026591925,8.750501e-06,0.00030604925,4.8215306e-06,0.0002492802,3.6589492e-05,0.0003058636,0.00024775314,1.0,1.0,0.010000001,25
2016020000,2015868000,0.62311,-6.0614497e-05,0.0011581215,0.78213346,-0.02569311,0.008933283,0.012269907,0.0,0.0,-488.06027,-7.316838e-05,0.00013638816,0.00010863768,-0.00050746993,0.0038693377,0.0031620997,0.21695325,0.0128943315,0.42567968,-0.0012414748,0.0010511004,0.0034908194,0.0,0.0,-487.96027,2.6657963e-05,4.005723e-05,0.00096409203,0.012623983,0.012757382,0.0050065177,0.105503246,0.105794795,0.08066095,1.5605069e-07,1.5640205e-07,2.9198864e-07,0.0012436983,0.002659193,8.751077e-06,0.0003060493,4.8215948e-06,0.00024928025,3.6589492e-05,0.0003058636,0.00024775314,1.0,1.0,0.010000001,25
2016028000,2015876000,0.6231138,-0.0001278022,0.0011364835,0.7821303,-0.026374318,0.008669437,0.012164362,0.0,0.0,-488.06018,-7.316838e-05,0.00013638816,0.00010863768,-0.00050746993,0.0038693377,0.0031620997,0.21695325,0.0128943315,0.42567968,-0.0012414748,0.0010511004,0.0034908194,0.0,0.0,-487.96017,2.6683587e-05,4.0082723e-05,0.0009641863,0.012676825,0.012810828,0.0050150286,0.10586332,0.10615791,0.080877066,1.561147e-07,1.5646606e-07,2.9205265e-07,0.0012436989,0.0026591935,8.751653e-06,0.00030604936,4.821659e-06,0.0002492803,3.6589492e-05,0.0003058636,0.00024775314,1.0,1.0,0.010000001,25
2016036000,2015884000,0.6230731,-0.00019675879,0.0011578543,0.7821627,-0.026466185,0.008393309,0.012105994,0.0,0.0,-488.0601,-7.316838e-05,0.00013638816,0.00010863768,-0.00050746993,0.0038693377,0.0031620997,0.21695325,0.0128943315,0.42567968,-0.0012414748,0.0010511004,0.0034908194,0.0,0.0,-487.96008,2.6709222e-05,4.010822e-05,0.00096428033,0.012729816,0.012864544,0.0050235405,0.10622537,0.10652303,0.08109383,1.561787e-07,1.5653006e-07,2.9211665e-07,0.0012436995,0.002659194,8.7522285e-06,0.00030604942,4.821723e-06,0.00024928036,3.6589492e-05,0.0003058636,0.00024775314,1.0,1.0,0.010000001,25
2016052000,2015900000,0.62312305,-0.00021098647,0.0011509107,0.7821231,-0.02503086,0.008041507,0.011939146,0.0,0.0,-488.0599,-7.316838e-05,0.00013638816,0.00010863768,-0.00050746993,0.0038693377,0.0031620997,0.21695325,0.0128943315,0.42567968,-0.0012414748,0.0010511004,0.0034908194,0.0,0.0,-487.9599,2.676055e-05,4.015929e-05,0.00096446864,0.012836372,0.012972876,0.005040568,0.10695546,0.10725934,0.08152934,1.5630671e-07,1.5665807e-07,2.9224466e-07,0.0012437006,0.0026591949,8.75338e-06,0.00030604954,4.8218512e-06,0.00024928048,3.6589492e-05,0.0003058636,0.00024775314,1.0,1.0,0.010000001,25
2016060000,2015908000,0.62312984,-0.00023819787,0.0011444081,0.78211755,-0.02497499,0.008219334,0.011927575,0.0,0.0,-488.0598,-7.316838e-05,0.00013638816,0.00010863768,-0.00050746993,0.0038693377,0.0031620997,0.21695325,0.0128943315,0.42567968,-0.0012414748,0.0010511004,0.0034908194,0.0,0.0,-487.9598,2.6786258e-05,4.018488e-05,0.00096456334,0.012889893,0.013027138,0.0050490843,0.10732353,0.10763055,0.08174808,1.5637072e-07,1.5672208e-07,2.9230867e-07,0.0012437012,0.0026591953,8.753956e-06,0.0003060496,4.8219154e-06,0.00024928054,3.6589492e-05,0.0003058636,0.00024775314,1.0,1.0,0.010000001,25
2016068000,2015916000,0.6231626,-0.00023520723,0.001135422,0.78209144,-0.024699936,0.008682475,0.0121858725,0.0,0.0,-488.06027,-7.2756586e-05,0.00013629149,0.000108529384,-0.0005075718,0.0038688907,0.0031628583,0.2169549,0.012894444,0.42568,-0.0012416311,0.0010510061,0.0034908832,0.0,0.0,-487.96027,2.6803033e-05,4.0195184e-05,0.00096393307,0.012936035,0.013077446,0.0050424575,0.10768607,0.10800085,0.08142801,1.5639182e-07,1.5675829e-07,2.9196437e-07,0.0012437018,0.0026591958,8.753527e-06,0.00030604925,4.8213874e-06,0.00024928013,3.6589412e-05,0.0003058636,0.00024775314,1.0,1.0,0.010000001,25
2016076000,2015924000,0.6231932,-0.00025345062,0.0010761092,0.7820671,-0.024498599,0.008813513,0.012648307,0.0,0.0,-488.06018,-7.2756586e-05,0.00013629149,0.000108529384,-0.0005075718,0.0038688907,0.0031628583,0.2169549,0.012894444,0.42568,-0.0012416311,0.0010510061,0.0034908832,0.0,0.0,-487.96017,2.682876e-05,4.0220773e-05,0.0009640271,0.012989581,0.013131788,0.005050974,0.10805807,0.10837612,0.08164662,1.5645583e-07,1.568223e-07,2.9202837e-07,0.0012437024,0.0026591963,8.754103e-06,0.0003060493,4.8214515e-06,0.0002492802,3.6589412e-05,0.0003058636,0.00024775314,1.0,1.0,0.010000001,25
2016092000,2015940000,0.62325233,-0.00022660835,0.0010309693,0.78202003,-0.024592064,0.009474528,0.011849098,0.0,0.0,-488.06,-7.2756586e-05,0.00013629149,0.000108529384,-0.0005075718,0.0038688907,0.0031628583,0.2169549,0.012894444,0.42568,-0.0012416311,0.0010510061,0.0034908832,0.0,0.0,-487.96,2.6880287e-05,4.027203e-05,0.0009642156,0.0130982455,0.013241946,0.0050680107,0.10880821,0.10913288,0.08208583,1.5658384e-07,1.569503e-07,2.921564e-07,0.0012437035,0.0026591972,8.755254e-06,0.00030604942,4.8215798e-06,0.0002492803,3.6589412e-05,0.0003058636,0.00024775314,1.0,1.0,0.010000001,25
2016100000,2015948000,0.62322223,-0.00020892575,0.0009730725,0.7820443,-0.024758479,0.009355165,0.012930095,0.0,0.0,-488.0599,-7.2756586e-05,0.00013629149,0.000108529384,-0.0005075718,0.0038688907,0.0031628583,0.2169549,0.012894444,0.42568,-0.0012416311,0.0010510061,0.0034908832,0.0,0.0,-487.9599,2.6906071e-05,4.0297666e-05,0.0009643096,0.013151948,0.013296382,0.00507653,0.10918637,0.109514385,0.08230643,1.5664784e-07,1.5701431e-07,2.922204e-07,0.0012437041,0.0026591977,8.75583e-06,0.00030604948,4.821644e-06,0.00024928036,3.6589412e-05,0.0003058636,0.00024775314,1.0,1.0,0.010000001,25
2016108000,2015956000,0.6232136,-0.0002319853,0.0009803092,0.782051,-0.025138892,0.009106326,0.012900606,0.0,0.0,-488.0598,-7.2756586e-05,0.00013629149,0.000108529384,-0.0005075718,0.0038688907,0.0031628583,0.2169549,0.012894444,0.42568,-0.0012416311,0.0010510061,0.0034908832,0.0,0.0,-487.9598,2.6931892e-05,4.0323357e-05,0.0009644042,0.013206482,0.013351623,0.0050850497,0.1095666,0.109897986,0.08252769,1.5671185e-07,1.5707832e-07,2.922844e-07,0.0012437047,0.0026591981,8.756406e-06,0.00030604954,4.821708e-06,0.00024928042,3.6589412e-05,0.0003058636,0.00024775314,1.0,1.0,0.010000001,25
2016116000,2015964000,0.6232246,-0.00021406503,0.0009902802,0.78204226,-0.025166828,0.009071019,0.012563974,0.0,0.0,-488.05972,-7.2756586e-05,0.00013629149,0.000108529384,-0.0005075718,0.0038688907,0.0031628583,0.2169549,0.012894444,0.42568,-0.0012416311,0.0010510061,0.0034908832,0.0,0.0,-487.95972,2.6957718e-05,4.034905e-05,0.0009644984,0.013261391,0.0134073105,0.0050935713,0.10994891,0.110283695,0.08274961,1.5677585e-07,1.5714232e-07,2.923484e-07,0.0012437053,0.0026591986,8.7569815e-06,0.0003060496,4.821772e-06,0.00024928048,3.6589412e-05,0.0003058636,0.00024775314,1.0,1.0,0.010000001,25
2016132000,2015980000,0.6231999,-0.00026611428,0.0010673832,0.78206193,-0.025814887,0.009099233,0.011943728,0.0,0.0,-488.05954,-7.2756586e-05,0.00013629149,0.000108529384,-0.0005075718,0.0038688907,0.0031628583,0.2169549,0.012894444,0.42568,-0.0012416311,0.0010510061,0.0034908832,0.0,0.0,-487.95953,2.7009432e-05,4.040049e-05,0.00096468686,0.013371732,0.013519079,0.005110618,0.11071982,0.11106148,0.08319547,1.5690387e-07,1.5727034e-07,2.9247641e-07,0.0012437064,0.0026591995,8.758133e-06,0.0003060497,4.8219003e-06,0.0002492806,3.6589412e-05,0.0003058636,0.00024775314,1.0,1.0,0.010000001,25
2016140000,2015988000,0.62318057,-0.0003033197,0.0010436432,0.7820772,-0.02554504,0.009022727,0.012997371,0.0,0.0,-488.05908,-7.190037e-05,0.00013632269,0.000109180364,-0.000507791,0.003867998,0.0031623372,0.21695687,0.01289461,0.42567846,-0.0012416022,0.0010506926,0.0034908557,0.0,0.0,-487.95908,2.702611e-05,4.041047e-05,0.0009640573,0.013418511,0.013570295,0.0051033692,0.111099735,0.111450106,0.082860716,1.5692369e-07,1.5730579e-07,2.9213226e-07,0.001243707,0.0026592,8.757663e-06,0.00030604936,4.8213724e-06,0.0002492802,3.6589332e-05,0.0003058636,0.00024775314,1.0,1.0,0.010000001,25
2016148000,2015996000,0.6231845,-0.00036441933,0.0010117021,0.78207415,-0.0257485,0.008904089,0.013082407,0.0,0.0,-488.059,-7.190037e-05,0.00013632269,0.000109180364,-0.000507791,0.003867998,0.0031623372,0.21695687,0.01289461,0.42567846,-0.0012416022,0.0010506926,0.0034908557,0.0,0.0,-487.95898,2.7052009e-05,4.043622e-05,0.00096415135,0.013473835,0.013626389,0.005111893,0.11149034,0.111844294,0.083083816,1.569877e-07,1.573698e-07,2.9219626e-07,0.0012437076,0.0026592005,8.758238e-06,0.00030604942,4.8214365e-06,0.00024928025,3.6589332e-05,0.0003058636,0.00024775314,1.0,1.0,0.010000001,25
2016156000,2016004000,0.6231565,-0.00033488937,0.0010631323,0.78209645,-0.025702883,0.009136349,0.013353652,0.0,0.0,-488.0589,-7.410825e-05,0.00013760128,0.00010910824,-0.0005078012,0.003868125,0.0031623375,0.21695687,0.012894615,0.42567837,-0.0012415876,0.0010506267,0.0034909048,0.0,0.0,-487.9589,2.7075574e-05,4.045975e-05,0.000964135,0.013528277,0.013681625,0.005120419,0.111882284,0.11223972,0.08330758,1.5694215e-07,1.5732364e-07,2.9188104e-07,0.0012437082,0.002659201,8.758814e-06,0.00030604948,4.8214974e-06,0.0002492803,3.6589332e-05,0.0003058636,0.00024775314,1.0,1.0,0.010000001,25
2016172000,2016020000,0.62310266,-0.00033212567,0.0010414504,0.7821393,-0.025841232,0.009420996,0.012540795,0.0,0.0,-488.05872,-7.410825e-05,0.00013760128,0.00010910824,-0.0005078012,0.003868125,0.0031623375,0.21695687,0.012894615,0.42567837,-0.0012415876,0.0010506267,0.0034909048,0.0,0.0,-487.9587,2.7127473e-05,4.0511364e-05,0.0009643235,0.013640453,0.013795398,0.0051374733,0.11267417,0.1130389,0.0837571,1.5707016e-07,1.5745165e-07,2.9200905e-07,0.0012437094,0.0026592019,8.759966e-06,0.0003060496,4.8216257e-06,0.00024928042,3.6589332e-05,0.0003058636,0.00024775314,1.0,1.0,0.010000001,25
2016180000,2016028000,0.6230858,-0.0003183306,0.0010145768,0.7821529,-0.026434617,0.009007626,0.012459114,0.0,0.0,-488.05862,-7.410825e-05,0.00013760128,0.00010910824,-0.0005078012,0.003868125,0.0031623375,0.21695687,0.012894615,0.42567837,-0.0012415876,0.0010506267,0.0034909048,0.0,0.0,-487.95862,2.7153445e-05,4.0537197e-05,0.00096441765,0.01369659,0.013852248,0.005146001,0.11307335,0.11344177,0.08398288,1.5713417e-07,1.5751566e-07,2.9207305e-07,0.0012437099,0.0026592023,8.760541e-06,0.00030604965,4.82169e-06,0.00024928048,3.6589332e-05,0.0003058636,0.00024775314,1.0,1.0,0.010000001,25
2016188000,2016036000,0.623048,-0.00031097562,0.0010180593,0.7821828,-0.026679114,0.008243395,0.011846364,0.0,0.0,-488.05853,-7.410825e-05,0.00013760128,0.00010910824,-0.0005078012,0.003868125,0.0031623375,0.21695687,0.012894615,0.42567837,-0.0012415876,0.0010506267,0.0034909048,0.0,0.0,-487.95853,2.717945e-05,4.0563067e-05,0.00096451223,0.013753223,0.013909696,0.005154529,0.113474704,0.11384685,0.08420933,1.5719817e-07,1.5757966e-07,2.9213706e-07,0.0012437105,0.0026592028,8.761117e-06,0.0003060497,4.821754e-06,0.00024928054,3.6589332e-05,0.0003058636,0.00024775314,1.0,1.0,0.010000001,25
2016196000,2016044000,0.6230253,-0.00034066007,0.0009836102,0.7822011,-0.02694498,0.007912156,0.011716388,0.0,0.0,-488.05844,-7.410825e-05,0.00013760128,0.00010910824,-0.0005078012,0.003868125,0.0031623375,0.21695687,0.012894615,0.42567837,-0.0012415876,0.0010506267,0.0034909048,0.0,0.0,-487.95844,2.720546e-05,4.058893e-05,0.0009646063,0.013809766,0.013967021,0.005163059,0.11387824,0.11425415,0.084436454,1.5726218e-07,1.5764367e-07,2.9220107e-07,0.0012437111,0.0026592033,8.761693e-06,0.00030604977,4.821818e-06,0.0002492806,3.6589332e-05,0.0003058636,0.00024775314,1.0,1.0,0.010000001,25
2016212000,2016060000,0.62298995,-0.00030221065,0.0009727035,0.78222924,-0.02707496,0.008440319,0.011697989,0.0,0.0,-488.05847,-7.40272e-05,0.00013770847,0.000109556284,-0.00050785666,0.0038681626,0.0031626117,0.2169569,0.01289464,0.42567813,-0.0012415622,0.0010505059,0.0034909544,0.0,0.0,-487.95847,2.724807e-05,4.062447e-05,0.00096407416,0.013914884,0.014077665,0.005163707,0.114681944,0.115071364,0.08431419,1.5734479e-07,1.5774238e-07,2.919221e-07,0.0012437123,0.0026592042,8.761755e-06,0.00030604945,4.8213547e-06,0.00024928027,3.6589252e-05,0.00030586356,0.00024775314,1.0,1.0,0.010000001,25
2016220000,2016068000,0.6229522,-0.00032062334,0.0009660646,0.7822593,-0.027553786,0.008301616,0.011721,0.0,0.0,-488.05838,-7.40272e-05,0.00013770847,0.000109556284,-0.00050785666,0.0038681626,0.0031626117,0.2169569,0.01289464,0.42567813,-0.0012415622,0.0010505059,0.0034909544,0.0,0.0,-487.95837,2.7274142e-05,4.0650393e-05,0.0009641684,0.01397184,0.014135377,0.0051722387,0.11509195,0.11548528,0.084541775,1.5740879e-07,1.5780638e-07,2.919861e-07,0.0012437128,0.0026592046,8.762331e-06,0.0003060495,4.8214188e-06,0.00024928033,3.6589252e-05,0.00030586356,0.00024775314,1.0,1.0,0.010000001,25
2016228000,2016076000,0.622989,-0.0003335091,0.001013477,0.78222996,-0.027676305,0.008403137,0.012064099,0.0,0.0,-488.0583,-7.40272e-05,0.00013770847,0.000109556284,-0.00050785666,0.0038681626,0.0031626117,0.2169569,0.01289464,0.42567813,-0.0012415622,0.0010505059,0.0034909544,0.0,0.0,-487.95828,2.7300233e-05,4.067634e-05,0.0009642627,0.014028793,0.014193153,0.005180772,0.115504175,0.115901455,0.08477004,1.574728e-07,1.5787039e-07,2.9205012e-07,0.0012437134,0.002659205,8.762907e-06,0.00030604957,4.821483e-06,0.0002492804,3.6589252e-05,0.00030586356,0.00024775314,1.0,1.0,0.010000001,25
2016236000,2016084000,0.62294954,-0.00032579803,0.001007147,0.78226125,-0.026920076,0.008688505,0.012190707,0.0,0.0,-488.0582,-7.40272e-05,0.00013770847,0.000109556284,-0.00050785666,0.0038681626,0.0031626117,0.2169569,0.01289464,0.42567813,-0.0012415622,0.0010505059,0.0034909544,0.0,0.0,-487.9582,2.7326345e-05,4.0702304e-05,0.00096435705,0.014086077,0.014251456,0.005189307,0.11591864,0.116319895,0.08499898,1.575368e-07,1.579344e-07,2.9211412e-07,0.001243714,0.0026592056,8.763483e-06,0.00030604962,4.821547e-06,0.00024928045,3.6589252e-05,0.00030586356,0.00024775314,1.0,1.0,0.010000001,25
2016252000,2016100000,0.6229482,-0.00032395602,0.0009963383,0.7822623,-0.027615901,0.009532468,0.01173158,0.0,0.0,-488.058,-7.40272e-05,0.00013770847,0.000109556284,-0.00050785666,0.0038681626,0.0031626117,0.2169569,0.01289464,0.42567813,-0.0012415622,0.0010505059,0.0034909544,0.0,0.0,-487.958,2.7378634e-05,4.0754294e-05,0.0009645458,0.014201671,0.014368583,0.0052063805,0.11675431,0.11716362,0.085458905,1.5766481e-07,1.580624e-07,2.9224213e-07,0.0012437152,0.0026592065,8.764634e-06,0.00030604974,4.8216752e-06,0.00024928057,3.6589252e-05,0.00030586356,0.00024775314,1.0,1.0,0.010000001,25
2016260000,2016108000,0.62297714,-0.0003500665,0.0010100349,0.7822393,-0.027684847,0.0096334545,0.01141385,0.0,0.0,-488.05792,-7.40272e-05,0.00013770847,0.000109556284,-0.00050785666,0.0038681626,0.0031626117,0.2169569,0.01289464,0.42567813,-0.0012415622,0.0010505059,0.0034909544,0.0,0.0,-487.95792,2.7404798e-05,4.078031e-05,0.00096464006,0.01425979,0.014427555,0.0052149184,0.117175534,0.11758892,0.08568989,1.5772882e-07,1.5812641e-07,2.9230614e-07,0.0012437158,0.002659207,8.76521e-06,0.0003060498,4.8217394e-06,0.00024928062,3.6589252e-05,0.00030586356,0.00024775314,1.0,1.0,0.010000001,25
2016268000,2016116000,0.6229474,-0.00035655103,0.000985038,0.78226316,-0.027331099,0.009651246,0.0112013295,0.0,0.0,-488.05783,-7.40272e-05,0.00013770847,0.000109556284,-0.00050785666,0.0038681626,0.0031626117,0.2169569,0.01289464,0.42567813,-0.0012415622,0.0010505059,0.0034909544,0.0,0.0,-487.95782,2.7430982e-05,4.0806342e-05,0.0009647343,0.014318027,0.014486747,0.0052234572,0.11759905,0.11801654,0.08592155,1.5779283e-07,1.5819042e-07,2.9237015e-07,0.0012437163,0.0026592074,8.765785e-06,0.00030604986,4.8218035e-06,0.00024928068,3.6589252e-05,0.00030586356,0.00024775314,1.0,1.0,0.010000001,25
2016276000,2016124000,0.6229367,-0.00036269752,0.00094680634,0.7822717,-0.027327787,0.0102615,0.01128,0.0,0.0,-488.05774,-7.40272e-05,0.00013770847,0.000109556284,-0.00050785666,0.0038681626,0.0031626117,0.2169569,0.01289464,0.42567813,-0.0012415622,0.0010505059,0.0034909544,0.0,0.0,-487.95773,2.7457205e-05,4.083242e-05,0.00096482906,0.014376297,0.01454586,0.0052319984,0.11802484,0.11844648,0.086153895,1.5785683e-07,1.5825442e-07,2.9243415e-07,0.0012437169,0.002659208,8.766361e-06,0.00030604991,4.8218676e-06,0.00024928074,3.6589252e-05,0.00030586356,0.00024775314,1.0,1.0,0.010000001,25
2016292000,2016140000,0.62293,-0.00034958293,0.0009783903,0.782277,-0.028192965,0.010466715,0.011990413,0.0,0.0,-488.05728,-7.405223e-05,0.00013770585,0.00010953127,-0.0005077401,0.0038681224,0.003162223,0.21695697,0.012894647,0.42567843,-0.0012416058,0.0010505114,0.0034909705,0.0,0.0,-487.95728,2.7499898e-05,4.0867795e-05,0.0009642977,0.014483986,0.014659311,0.005232002,0.118871786,0.119308576,0.08602002,1.5793813e-07,1.5835236e-07,2.921553e-07,0.0012437181,0.0026592088,8.766379e-06,0.00030604954,4.821404e-06,0.00024928042,3.6589172e-05,0.00030586353,0.00024775314,1.0,1.0,0.010000001,25
2016300000,2016148000,0.6229193,-0.0003327658,0.0010117483,0.7822854,-0.027818773,0.0106927585,0.011346512,0.0,0.0,-488.0572,-7.405223e-05,0.00013770585,0.00010953127,-0.0005077401,0.0038681224,0.003162223,0.21695697,0.012894647,0.42567843,-0.0012416058,0.0010505114,0.0034909705,0.0,0.0,-487.95718,2.7526166e-05,4.0893905e-05,0.00096439203,0.01454321,0.014719529,0.0052405437,0.119304344,0.11974545,0.0862528,1.5800214e-07,1.5841637e-07,2.922193e-07,0.0012437187,0.0026592093,8.766955e-06,0.0003060496,4.8214683e-06,0.00024928048,3.6589172e-05,0.00030586353,0.00024775314,1.0,1.0,0.010000001,25
2016308000,2016156000,0.622927,-0.00032807075,0.0010247742,0.78227925,-0.02784466,0.01061018,0.01053112,0.0,0.0,-488.0571,-7.405223e-05,0.00013770585,0.00010953127,-0.0005077401,0.0038681224,0.003162223,0.21695697,0.012894647,0.42567843,-0.0012416058,0.0010505114,0.0034909705,0.0,0.0,-487.9571,2.7552445e-05,4.0920033e-05,0.0009644862,0.014602721,0.014779962,0.005249086,0.11973924,0.1201847,0.086486265,1.5806614e-07,1.5848038e-07,2.9228332e-07,0.0012437192,0.0026592098,8.767531e-06,0.00030604965,4.8215325e-06,0.00024928054,3.6589172e-05,0.00030586353,0.00024775314,1.0,1.0,0.010000001,25
2016316000,2016164000,0.62288177,-0.00032787398,0.001034651,0.78231525,-0.028273892,0.010784133,0.010893472,0.0,0.0,-488.057,-7.405223e-05,0.00013770585,0.00010953127,-0.0005077401,0.0038681224,0.003162223,0.21695697,0.012894647,0.42567843,-0.0012416058,0.0010505114,0.0034909705,0.0,0.0,-487.957,2.7578744e-05,4.0946175e-05,0.00096458045,0.014661668,0.014839709,0.0052576293,0.12017648,0.12062632,0.086720414,1.5813015e-07,1.5854438e-07,2.9234732e-07,0.0012437198,0.0026592102,8.768106e-06,0.0003060497,4.8215966e-06,0.0002492806,3.6589172e-05,0.00030586353,0.00024775314,1.0,1.0,0.010000001,25
2016332000,2016180000,0.62285703,-0.0003310498,0.0010850637,0.7823349,-0.028711786,0.010244178,0.010259762,0.0,0.0,-488.05682,-7.405223e-05,0.00013770585,0.00010953127,-0.0005077401,0.0038681224,0.003162223,0.21695697,0.012894647,0.42567843,-0.0012416058,0.0010505114,0.0034909705,0.0,0.0,-487.95682,2.7631402e-05,4.0998522e-05,0.000964769,0.014780978,0.01496079,0.0052747177,0.12105802,0.12151674,0.08719079,1.5825816e-07,1.5867239e-07,2.9247533e-07,0.001243721,0.0026592112,8.769258e-06,0.00030604983,4.821725e-06,0.0002492807,3.6589172e-05,0.00030586353,0.00024775314,1.0,1.0,0.010000001,25
2016340000,2016188000,0.62287474,-0.00029988764,0.0010851709,0.78232086,-0.02790806,0.010317478,0.009472057,0.0,0.0,-488.05673,-7.405223e-05,0.00013770585,0.00010953127,-0.0005077401,0.0038681224,0.003162223,0.21695697,0.012894647,0.42567843,-0.0012416058,0.0010505114,0.0034909705,0.0,0.0,-487.95673,2.765777e-05,4.1024734e-05,0.0009648635,0.014841251,0.0150221875,0.0052832644,0.12150235,0.12196556,0.08742701,1.5832217e-07,1.587364e-07,2.9253934e-07,0.0012437216,0.0026592116,8.769834e-06,0.0003060499,4.821789e-06,0.00024928077,3.6589172e-05,0.00030586353,0.00024775314,1.0,1.0,0.010000001,25
2016348000,2016196000,0.62288207,-0.00026301562,0.001068493,0.7823151,-0.027468728,0.010056182,0.008469857,0.0,0.0,-488.05667,-7.405223e-05,0.00013770585,0.00010953127,-0.0005077401,0.0038681224,0.003162223,0.21695697,0.012894647,0.42567843,-0.0012416058,0.0010505114,0.0034909705,0.0,0.0,-487.95667,2.7684164e-05,4.1050986e-05,0.00096495834,0.014901844,0.015083842,0.0052918117,0.12194907,0.1224168,0.087663926,1.5838617e-07,1.588004e-07,2.9260335e-07,0.0012437222,0.002659212,8.770409e-06,0.00030604994,4.821853e-06,0.00024928083,3.6589172e-05,0.00030586353,0.00024775314,1.0,1.0,0.010000001,25
2016356000,2016204000,0.6229098,-0.00026582924,0.0010896896,0.7822929,-0.027450005,0.010065642,0.007893874,0.0,0.0,-488.05685,-7.36087e-05,0.00013740777,0.00011455253,-0.00050792505,0.0038682811,0.0031625705,0.21695764,0.012894238,0.4256787,-0.0012415731,0.0010510216,0.003490932,0.0,0.0,-487.95685,2.7697944e-05,4.1057472e-05,0.0009642237,0.014951617,0.015138934,0.005282609,0.12238406,0.12286371,0.08728142,1.582907e-07,1.5872139e-07,2.9188143e-07,0.0012437227,0.0026592126,8.769807e-06,0.00030604954,4.8213224e-06,0.0002492804,3.6589092e-05,0.0003058635,0.0002477531,1.0,1.0,0.010000001,25
2016372000,2016220000,0.6228602,-0.0002597726,0.0010824013,0.7823324,-0.026968509,0.009566307,0.007910475,0.0,0.0,-488.05673,-7.36087e-05,0.00013740777,0.00011455253,-0.00050792505,0.0038682811,0.0031625705,0.21695764,0.012894238,0.4256787,-0.0012415731,0.0010510216,0.003490932,0.0,0.0,-487.95673,2.775077e-05,4.1109983e-05,0.0009644119,0.015072285,0.015261674,0.005299704,0.123289146,0.12377821,0.08775535,1.5841871e-07,1.588494e-07,2.9200945e-07,0.0012437239,0.0026592135,8.770959e-06,0.00030604965,4.8214506e-06,0.0002492805,3.6589092e-05,0.0003058635,0.0002477531,1.0,1.0,0.010000001,25
2016380000,2016228000,0.6228471,-0.00020987482,0.001091465,0.78234285,-0.02656926,0.009121303,0.008177549,0.0,0.0,-488.05667,-7.36087e-05,0.00013740777,0.00011455253,-0.00050792505,0.0038682811,0.0031625705,0.21695764,0.012894238,0.4256787,-0.0012415731,0.0010510216,0.003490932,0.0,0.0,-487.95667,2.7777221e-05,4.113627e-05,0.00096450624,0.015132723,0.015323203,0.005308253,0.12374532,0.124239154,0.08799335,1.5848272e-07,1.5891341e-07,2.9207345e-07,0.0012437245,0.002659214,8.771534e-06,0.0003060497,4.8215147e-06,0.00024928057,3.6589092e-05,0.0003058635,0.0002477531,1.0,1.0,0.010000001,25
2016388000,2016236000,0.6228526,-0.00023587549,0.0011044202,0.7823384,-0.026702218,0.008647273,0.007980734,0.0,0.0,-488.0566,-7.36087e-05,0.00013740777,0.00011455253,-0.00050792505,0.0038682811,0.0031625705,0.21695764,0.012894238,0.4256787,-0.0012415731,0.0010510216,0.003490932,0.0,0.0,-487.9566,2.7803686e-05,4.116257e-05,0.0009646004,0.015193667,0.015385109,0.005316803,0.124203935,0.124702565,0.088232055,1.5854673e-07,1.5897741e-07,2.9213746e-07,0.0012437251,0.0026592144,8.77211e-06,0.00030604977,4.821579e-06,0.00024928062,3.6589092e-05,0.0003058635,0.0002477531,1.0,1.0,0.010000001,25
2016396000,2016244000,0.6228437,-0.00020988085,0.0011236577,0.7823456,-0.026157703,0.008700179,0.0075906143,0.0,0.0,-488.05655,-7.36087e-05,0.00013740777,0.00011455253,-0.00050792505,0.0038682811,0.0031625705,0.21695764,0.012894238,0.4256787,-0.0012415731,0.0010510216,0.003490932,0.0,0.0,-487.95654,2.7830172e-05,4.118889e-05,0.0009646946,0.015254963,0.015447521,0.0053253556,0.12466501,0.12516847,0.08847145,1.5861073e-07,1.5904142e-07,2.9220146e-07,0.0012437257,0.002659215,8.772686e-06,0.00030604983,4.821643e-06,0.00024928068,3.6589092e-05,0.0003058635,0.0002477531,1.0,1.0,0.010000001,25
2016412000,2016260000,0.62281376,-0.00025765042,0.0011745788,0.78236926,-0.02209675,0.008901981,0.007007752,0.0,0.0,-488.06076,-6.999124e-05,0.00013502807,0.00011490317,-0.000508776,0.0038686849,0.0031705091,0.21695729,0.012894204,0.42567974,-0.0012418076,0.0010517424,0.003490419,0.0,0.0,-487.96075,2.6638874e-05,4.003892e-05,0.0009646826,0.012576176,0.012708249,0.005006928,0.10514018,0.10542564,0.08076357,1.560104e-07,1.5635283e-07,2.9220334e-07,0.0012437261,0.0026592151,8.751103e-06,0.00030604991,4.82177e-06,0.0002492805,3.6588848e-05,0.00030586327,0.000247753,1.0,1.0,0.010000001,25
2016420000,2016268000,0.62280184,-0.00024555722,0.0011926156,0.78237873,-0.02137522,0.009365153,0.00750231,0.0,0.0,-488.0607,-6.999124e-05,0.00013502807,0.00011490317,-0.000508776,0.0038686849,0.0031705091,0.21695729,0.012894204,0.42567974,-0.0012418076,0.0010517424,0.003490419,0.0,0.0,-487.9607,2.6664482e-05,4.00644e-05,0.0009647771,0.012628564,0.012761483,0.0050154408,0.105498284,0.10578675,0.08097987,1.560744e-07,1.5641683e-07,2.9226734e-07,0.0012437267,0.0026592156,8.751679e-06,0.00030604997,4.821834e-06,0.00024928057,3.6588848e-05,0.00030586327,0.000247753,1.0,1.0,0.010000001,25
2016428000,2016276000,0.6228567,-0.00024232367,0.0012173977,0.7823351,-0.02118521,0.00950308,0.0075416183,0.0,0.0,-488.06097,-6.945536e-05,0.00013533485,0.00011642581,-0.00050886197,0.003868429,0.0031709552,0.21695805,0.012894337,0.42567876,-0.001241842,0.0010509599,0.0034908722,0.0,0.0,-487.96097,2.6681328e-05,4.0074887e-05,0.00096414983,0.012674244,0.012811208,0.0050091445,0.10585141,0.106147155,0.080667414,1.560962e-07,1.5645347e-07,2.9192262e-07,0.0012437273,0.002659216,8.7512735e-06,0.00030604957,4.8213064e-06,0.0002492801,3.6588768e-05,0.0003058632,0.00024775296,1.0,1.0,0.010000001,25
2016436000,2016284000,0.6229114,-0.00021766154,0.0012239603,0.78229135,-0.021830978,0.008223733,0.0069928244,0.0,0.0,-488.0609,-6.945536e-05,0.00013533485,0.00011642581,-0.00050886197,0.003868429,0.0031709552,0.21695805,0.012894337,0.42567876,-0.001241842,0.0010509599,0.0034908722,0.0,0.0,-487.9609,2.670697e-05,4.0100407e-05,0.0009642443,0.012727455,0.012865088,0.005017653,0.10621337,0.10651222,0.08088361,1.5616021e-07,1.5651747e-07,2.9198662e-07,0.0012437279,0.0026592165,8.751849e-06,0.00030604962,4.8213706e-06,0.00024928016,3.6588768e-05,0.0003058632,0.00024775296,1.0,1.0,0.010000001,25
2016452000,2016300000,0.6228872,-0.0001387515,0.0012688796,0.78231055,-0.023227876,0.0066531287,0.0067313537,0.0,0.0,-488.0608,-6.945536e-05,0.00013533485,0.00011642581,-0.00050886197,0.003868429,0.0031709552,0.21695805,0.012894337,0.42567876,-0.001241842,0.0010509599,0.0034908722,0.0,0.0,-487.9608,2.6758304e-05,4.0151466e-05,0.0009644326,0.012833981,0.01297288,0.0050346763,0.10694328,0.10724843,0.08131796,1.5628822e-07,1.5664548e-07,2.9211463e-07,0.001243729,0.0026592175,8.753001e-06,0.00030604974,4.821499e-06,0.00024928027,3.6588768e-05,0.0003058632,0.00024775296,1.0,1.0,0.010000001,25
2016460000,2016308000,0.62287915,-0.00013796911,0.0012128508,0.7823172,-0.023424797,0.006323037,0.006893441,0.0,0.0,-488.06073,-6.945536e-05,0.00013533485,0.00011642581,-0.00050886197,0.003868429,0.0031709552,0.21695805,0.012894337,0.42567876,-0.001241842,0.0010509599,0.0034908722,0.0,0.0,-487.96072,2.6783986e-05,4.0177012e-05,0.0009645264,0.0128873605,0.01302698,0.005043191,0.10731125,0.10761958,0.08153612,1.5635223e-07,1.5670949e-07,2.9217864e-07,0.0012437296,0.002659218,8.753576e-06,0.0003060498,4.821563e-06,0.00024928033,3.6588768e-05,0.0003058632,0.00024775296,1.0,1.0,0.010000001,25
2016468000,2016316000,0.6228927,-0.00014536022,0.0011517246,0.7823064,-0.022732576,0.0067829606,0.007680081,0.0,0.0,-488.06067,-6.945536e-05,0.00013533485,0.00011642581,-0.00050886197,0.003868429,0.0031709552,0.21695805,0.012894337,0.42567876,-0.001241842,0.0010509599,0.0034908722,0.0,0.0,-487.96066,2.6809708e-05,4.0202598e-05,0.0009646208,0.012940585,0.013081081,0.0050517083,0.10768124,0.10799278,0.08175494,1.5641623e-07,1.567735e-07,2.9224265e-07,0.0012437302,0.0026592184,8.754152e-06,0.00030604986,4.821627e-06,0.0002492804,3.6588768e-05,0.0003058632,0.00024775296,1.0,1.0,0.010000001,25
2016476000,2016324000,0.6228942,-0.000117272,0.0011154716,0.78230536,-0.022624975,0.006707949,0.008473344,0.0,0.0,-488.0606,-6.945536e-05,0.00013533485,0.00011642581,-0.00050886197,0.003868429,0.0031709552,0.21695805,0.012894337,0.42567876,-0.001241842,0.0010509599,0.0034908722,0.0,0.0,-487.9606,2.6835436e-05,4.0228188e-05,0.0009647148,0.012993959,0.013135231,0.0050602253,0.10805325,0.10836804,0.08197442,1.5648024e-07,1.568375e-07,2.9230665e-07,0.0012437308,0.0026592189,8.754728e-06,0.00030604991,4.821691e-06,0.00024928045,3.6588768e-05,0.0003058632,0.00024775296,1.0,1.0,0.010000001,25
2016492000,2016340000,0.62289417,-8.9413574e-05,0.0011690061,0.7823053,-0.0231097,0.0069837077,0.009906672,0.0,0.0,-488.06046,-6.945536e-05,0.00013533485,0.00011642581,-0.00050886197,0.003868429,0.0031709552,0.21695805,0.012894337,0.42567876,-0.001241842,0.0010509599,0.0034908722,0.0,0.0,-487.96045,2.6886972e-05,4.0279454e-05,0.00096490356,0.013101344,0.013244007,0.005077264,0.108803414,0.10912475,0.082415365,1.5660825e-07,1.5696551e-07,2.9243466e-07,0.0012437319,0.0026592198,8.755879e-06,0.00030605003,4.8218194e-06,0.00024928057,3.6588768e-05,0.0003058632,0.00024775296,1.0,1.0,0.010000001,25
2016500000,2016348000,0.6228824,-8.3966195e-05,0.0011643706,0.78231466,-0.023785608,0.0066453144,0.010108086,0.0,0.0,-488.05975,-6.951217e-05,0.00013514479,0.0001156681,-0.0005087116,0.003868209,0.0031701317,0.21695839,0.012894327,0.4256792,-0.0012419083,0.0010512494,0.0034907574,0.0,0.0,-487.95975,2.6903723e-05,4.0289622e-05,0.00096427574,0.013148067,0.013294907,0.0050703543,0.109173544,0.10950305,0.08208854,1.566288e-07,1.5700138e-07,2.9209005e-07,0.0012437325,0.0026592202,8.755432e-06,0.00030604962,4.821292e-06,0.00024928013,3.6588688e-05,0.00030586316,0.00024775296,1.0,1.0,0.010000001,25
2016508000,2016356000,0.62290055,-6.963168e-05,0.001165601,0.78230023,-0.023563517,0.00636303,0.009876832,0.0,0.0,-488.05966,-6.951217e-05,0.00013514479,0.0001156681,-0.0005087116,0.003868209,0.0031701317,0.21695839,0.012894327,0.4256792,-0.0012419083,0.0010512494,0.0034907574,0.0,0.0,-487.95966,2.6929529e-05,4.031529e-05,0.00096436986,0.013202698,0.013350392,0.0050788736,0.10955365,0.10988658,0.082309194,1.566928e-07,1.5706539e-07,2.9215406e-07,0.0012437331,0.0026592207,8.756007e-06,0.00030604968,4.821356e-06,0.0002492802,3.6588688e-05,0.00030586316,0.00024775296,1.0,1.0,0.010000001,25
2016516000,2016364000,0.62292194,-9.8289354e-05,0.0011949312,0.7822832,-0.023388565,0.006863767,0.01020436,0.0,0.0,-488.05957,-6.951217e-05,0.00013514479,0.0001156681,-0.0005087116,0.003868209,0.0031701317,0.21695839,0.012894327,0.4256792,-0.0012419083,0.0010512494,0.0034907574,0.0,0.0,-487.95956,2.6955364e-05,4.0340987e-05,0.0009644642,0.013257209,0.01340571,0.0050873957,0.10993584,0.110272214,0.08253051,1.5675681e-07,1.5712939e-07,2.9221806e-07,0.0012437337,0.0026592212,8.756583e-06,0.00030604974,4.82142e-06,0.00024928025,3.6588688e-05,0.00030586316,0.00024775296,1.0,1.0,0.010000001,25
2016532000,2016380000,0.6230023,-0.00014798423,0.0012059426,0.7822192,-0.024234056,0.006319456,0.011031635,0.0,0.0,-488.0594,-6.951217e-05,0.00013514479,0.0001156681,-0.0005087116,0.003868209,0.0031701317,0.21695839,0.012894327,0.4256792,-0.0012419083,0.0010512494,0.0034907574,0.0,0.0,-487.95938,2.7007081e-05,4.039241e-05,0.00096465275,0.013366604,0.013516518,0.0051044393,0.110706516,0.111049846,0.08297515,1.5688482e-07,1.572574e-07,2.9234607e-07,0.0012437348,0.002659222,8.757735e-06,0.00030604986,4.8215484e-06,0.00024928036,3.6588688e-05,0.00030586316,0.00024775296,1.0,1.0,0.010000001,25
2016540000,2016388000,0.6229766,-0.00016937702,0.0012186622,0.7822395,-0.024936805,0.0056529343,0.011295624,0.0,0.0,-488.0593,-6.951217e-05,0.00013514479,0.0001156681,-0.0005087116,0.003868209,0.0031701317,0.21695839,0.012894327,0.4256792,-0.0012419083,0.0010512494,0.0034907574,0.0,0.0,-487.9593,2.7032977e-05,4.0418156e-05,0.0009647472,0.013421647,0.013572225,0.0051129623,0.11109501,0.111441866,0.08319847,1.5694883e-07,1.5732141e-07,2.9241008e-07,0.0012437354,0.0026592226,8.75831e-06,0.00030604991,4.8216125e-06,0.00024928042,3.6588688e-05,0.00030586316,0.00024775296,1.0,1.0,0.010000001,25
2016548000,2016396000,0.62297267,-0.00018561895,0.0012190772,0.7822428,-0.024872566,0.0054478077,0.010791533,0.0,0.0,-488.0592,-6.951217e-05,0.00013514479,0.0001156681,-0.0005087116,0.003868209,0.0031701317,0.21695839,0.012894327,0.4256792,-0.0012419083,0.0010512494,0.0034907574,0.0,0.0,-487.9592,2.705888e-05,4.044391e-05,0.0009648414,0.013477356,0.013628761,0.005121487,0.11148562,0.11183602,0.08342247,1.5701283e-07,1.5738541e-07,2.9247408e-07,0.001243736,0.002659223,8.758886e-06,0.00030604997,4.8216766e-06,0.00024928048,3.6588688e-05,0.00030586316,0.00024775296,1.0,1.0,0.010000001,25
2016556000,2016404000,0.6229978,-0.00018645254,0.001187997,0.7822227,-0.024691286,0.0056408104,0.0101332655,0.0,0.0,-488.0591,-6.832154e-05,0.00013495948,0.00011430492,-0.0005086233,0.0038681363,0.003170132,0.21695818,0.01289445,0.42567918,-0.001241906,0.001051082,0.0034907828,0.0,0.0,-487.9591,2.708247e-05,4.046746e-05,0.0009648251,0.013532391,0.013684545,0.005130014,0.11187758,0.112231426,0.08364713,1.5696726e-07,1.5733923e-07,2.9215815e-07,0.0012437366,0.0026592235,8.759462e-06,0.00030605003,4.8217375e-06,0.00024928054,3.6588688e-05,0.00030586316,0.00024775296,1.0,1.0,0.010000001,25
2016572000,2016420000,0.6229733,-0.00015767648,0.0011040351,0.78224236,-0.024950244,0.0053051617,0.010005229,0.0,0.0,-488.05896,-6.838349e-05,0.00013502369,0.00011450683,-0.0005085919,0.003868245,0.0031701813,0.216958,0.01289445,0.4256793,-0.0012418991,0.0010510691,0.0034908114,0.0,0.0,-487.95895,2.7125046e-05,4.050308e-05,0.00096429227,0.013636072,0.013793597,0.005131003,0.112660244,0.11302685,0.08353069,1.570506e-07,1.5743838e-07,2.9187873e-07,0.0012437378,0.0026592244,8.759548e-06,0.00030604974,4.8212746e-06,0.00024928016,3.6588608e-05,0.00030586313,0.00024775296,1.0,1.0,0.010000001,25
2016580000,2016428000,0.6229698,-0.00011779037,0.0010740419,0.7822452,-0.025276965,0.0058652447,0.010558374,0.0,0.0,-488.05887,-6.838349e-05,0.00013502369,0.00011450683,-0.0005085919,0.003868245,0.0031701813,0.216958,0.01289445,0.4256793,-0.0012418991,0.0010510691,0.0034908114,0.0,0.0,-487.95886,2.7151027e-05,4.052891e-05,0.00096438656,0.013691836,0.013850093,0.0051395316,0.113059305,0.11342964,0.08375583,1.571146e-07,1.5750238e-07,2.9194274e-07,0.0012437383,0.002659225,8.760124e-06,0.0003060498,4.8213387e-06,0.00024928022,3.6588608e-05,0.00030586313,0.00024775296,1.0,1.0,0.010000001,25
2016588000,2016436000,0.6229525,-9.394564e-05,0.0011222076,0.7822589,-0.025352016,0.0065007512,0.01065623,0.0,0.0,-488.05878,-6.838349e-05,0.00013502369,0.00011450683,-0.0005085919,0.003868245,0.0031701813,0.216958,0.01289445,0.4256793,-0.0012418991,0.0010510691,0.0034908114,0.0,0.0,-487.95877,2.7177028e-05,4.0554758e-05,0.0009644809,0.0137480665,0.013907119,0.0051480616,0.11346053,0.113834634,0.08398164,1.571786e-07,1.5756639e-07,2.9200675e-07,0.0012437389,0.0026592254,8.7606995e-06,0.00030604986,4.821403e-06,0.00024928027,3.6588608e-05,0.00030586313,0.00024775296,1.0,1.0,0.010000001,25
2016596000,2016444000,0.62290764,-9.0448026e-05,0.0011362263,0.7822945,-0.026570696,0.007023498,0.010755718,0.0,0.0,-488.0587,-6.838349e-05,0.00013502369,0.00011450683,-0.0005085919,0.003868245,0.0031701813,0.216958,0.01289445,0.4256793,-0.0012418991,0.0010510691,0.0034908114,0.0,0.0,-487.95868,2.7203047e-05,4.0580628e-05,0.0009645753,0.013804476,0.013964064,0.0051565925,0.11386394,0.11424184,0.08420813,1.5724261e-07,1.576304e-07,2.9207075e-07,0.0012437395,0.0026592258,8.761275e-06,0.00030604991,4.821467e-06,0.00024928033,3.6588608e-05,0.00030586313,0.00024775296,1.0,1.0,0.010000001,25
2016612000,2016460000,0.62288433,-6.7037145e-05,0.0011456612,0.7823132,-0.027190784,0.0075333575,0.010780998,0.0,0.0,-488.0585,-6.838349e-05,0.00013502369,0.00011450683,-0.0005085919,0.003868245,0.0031701813,0.216958,0.01289445,0.4256793,-0.0012418991,0.0010510691,0.0034908114,0.0,0.0,-487.9585,2.725513e-05,4.063241e-05,0.0009647636,0.013917936,0.0140790455,0.005173657,0.11467735,0.115062915,0.08466314,1.5737062e-07,1.5775841e-07,2.9219876e-07,0.0012437407,0.0026592268,8.762427e-06,0.00030605003,4.821595e-06,0.00024928045,3.6588608e-05,0.00030586313,0.00024775296,1.0,1.0,0.010000001,25
2016620000,2016468000,0.6228753,-9.376745e-05,0.0011149361,0.7823203,-0.02723331,0.008253576,0.009964056,0.0,0.0,-488.0584,-6.838349e-05,0.00013502369,0.00011450683,-0.0005085919,0.003868245,0.0031701813,0.216958,0.01289445,0.4256793,-0.0012418991,0.0010510691,0.0034908114,0.0,0.0,-487.9584,2.7281218e-05,4.065836e-05,0.0009648583,0.013975485,0.014137407,0.005182192,0.11508737,0.11547682,0.084891655,1.5743463e-07,1.5782241e-07,2.9226277e-07,0.0012437413,0.0026592272,8.763002e-06,0.0003060501,4.8216593e-06,0.0002492805,3.6588608e-05,0.00030586313,0.00024775296,1.0,1.0,0.010000001,25
2016628000,2016476000,0.62288296,-9.782579e-05,0.0011614563,0.78231424,-0.027500967,0.008636083,0.010244563,0.0,0.0,-488.05832,-6.838349e-05,0.00013502369,0.00011450683,-0.0005085919,0.003868245,0.0031701813,0.216958,0.01289445,0.4256793,-0.0012418991,0.0010510691,0.0034908114,0.0,0.0,-487.9583,2.7307306e-05,4.06843e-05,0.00096495246,0.0140325185,0.0141952075,0.0051907273,0.11549961,0.11589298,0.08512085,1.5749863e-07,1.5788642e-07,2.9232677e-07,0.0012437418,0.0026592277,8.763578e-06,0.00030605015,4.8217235e-06,0.00024928057,3.6588608e-05,0.00030586313,0.00024775296,1.0,1.0,0.010000001,25
2016636000,2016484000,0.6229043,-0.000120770645,0.0012005277,0.7822971,-0.027259225,0.008867128,0.009883001,0.0,0.0,-488.05823,-6.838349e-05,0.00013502369,0.00011450683,-0.0005085919,0.003868245,0.0031701813,0.216958,0.01289445,0.4256793,-0.0012418991,0.0010510691,0.0034908114,0.0,0.0,-487.95822,2.7333419e-05,4.0710267e-05,0.00096504675,0.014090137,0.014253726,0.0051992633,0.11591409,0.1163114,0.08535072,1.5756264e-07,1.5795042e-07,2.9239078e-07,0.0012437424,0.0026592282,8.764154e-06,0.0003060502,4.8217876e-06,0.00024928062,3.6588608e-05,0.00030586313,0.00024775296,1.0,1.0,0.010000001,25
2016652000,2016500000,0.622899,-0.00017235377,0.001165556,0.78230137,-0.02705889,0.008847302,0.009992011,0.0,0.0,-488.05835,-6.8271445e-05,0.00013530321,0.000115607785,-0.0005086276,0.003868396,0.0031705936,0.21695782,0.0128944935,0.42567894,-0.0012418587,0.0010506976,0.0034910366,0.0,0.0,-487.95834,2.7376076e-05,4.0745723e-05,0.000964515,0.014196634,0.014366056,0.005199618,0.116739064,0.117150694,0.08522301,1.5764468e-07,1.5804879e-07,2.9211154e-07,0.0012437436,0.002659229,8.7641965e-06,0.00030604986,4.8213246e-06,0.00024928022,3.6588528e-05,0.0003058631,0.00024775296,1.0,1.0,0.010000001,25
2016660000,2016508000,0.6229046,-0.00017609817,0.0011859558,0.7822969,-0.026297348,0.009249319,0.009179398,0.0,0.0,-488.05826,-6.8271445e-05,0.00013530321,0.000115607785,-0.0005086276,0.003868396,0.0031705936,0.21695782,0.0128944935,0.42567894,-0.0012418587,0.0010506976,0.0034910366,0.0,0.0,-487.95825,2.7402237e-05,4.0771727e-05,0.00096460903,0.014255053,0.014425535,0.0052081556,0.11716016,0.117575906,0.08545334,1.5770868e-07,1.581128e-07,2.9217554e-07,0.0012437442,0.0026592296,8.764772e-06,0.00030604991,4.8213888e-06,0.00024928027,3.6588528e-05,0.0003058631,0.00024775296,1.0,1.0,0.010000001,25
2016668000,2016516000,0.6229448,-0.00017376189,0.0012157619,0.7822649,-0.025758393,0.009017343,0.008693919,0.0,0.0,-488.0582,-6.8271445e-05,0.00013530321,0.000115607785,-0.0005086276,0.003868396,0.0031705936,0.21695782,0.0128944935,0.42567894,-0.0012418587,0.0010506976,0.0034910366,0.0,0.0,-487.9582,2.7428423e-05,4.0797757e-05,0.0009647032,0.014313426,0.014484942,0.005216693,0.117583536,0.118003435,0.085684344,1.5777269e-07,1.581768e-07,2.9223955e-07,0.0012437447,0.00265923,8.765348e-06,0.00030604997,4.821453e-06,0.00024928033,3.6588528e-05,0.0003058631,0.00024775296,1.0,1.0,0.010000001,25
2016676000,2016524000,0.6229296,-0.00019055408,0.0011710052,0.78227705,-0.0259572,0.009529573,0.008044995,0.0,0.0,-488.05814,-6.8271445e-05,0.00013530321,0.000115607785,-0.0005086276,0.003868396,0.0031705936,0.21695782,0.0128944935,0.42567894,-0.0012418587,0.0010506976,0.0034910366,0.0,0.0,-487.95813,2.7454638e-05,4.082381e-05,0.0009647977,0.014372127,0.014544468,0.0052252333,0.1180092,0.11843329,0.085916035,1.578367e-07,1.5824081e-07,2.9230355e-07,0.0012437453,0.0026592305,8.765924e-06,0.00030605003,4.821517e-06,0.0002492804,3.6588528e-05,0.0003058631,0.00024775296,1.0,1.0,0.010000001,25
2016692000,2016540000,0.622917,-0.00019649303,0.0012051597,0.78228706,-0.025616663,0.010820184,0.0074448213,0.0,0.0,-488.058,-6.8271445e-05,0.00013530321,0.000115607785,-0.0005086276,0.003868396,0.0031705936,0.21695782,0.0128944935,0.42567894,-0.0012418587,0.0010506976,0.0034910366,0.0,0.0,-487.958,2.750712e-05,4.0875977e-05,0.00096498645,0.0144896675,0.014663829,0.0052423174,0.11886746,0.11930001,0.08638147,1.579647e-07,1.5836882e-07,2.9243157e-07,0.0012437465,0.0026592314,8.767075e-06,0.00030605015,4.8216452e-06,0.0002492805,3.6588528e-05,0.0003058631,0.00024775296,1.0,1.0,0.010000001,25
2016700000,2016548000,0.6228905,-0.00019566578,0.0012124347,0.78230804,-0.026115015,0.010513505,0.006893754,0.0,0.0,-488.05795,-6.8271445e-05,0.00013530321,0.000115607785,-0.0005086276,0.003868396,0.0031705936,0.21695782,0.0128944935,0.42567894,-0.0012418587,0.0010506976,0.0034910366,0.0,0.0,-487.95795,2.7533395e-05,4.0902098e-05,0.00096508104,0.014548842,0.0147238,0.005250859,0.11930006,0.119736895,0.08661522,1.5802871e-07,1.5843283e-07,2.9249557e-07,0.0012437471,0.002659232,8.767651e-06,0.0003060502,4.8217094e-06,0.00024928057,3.6588528e-05,0.0003058631,0.00024775296,1.0,1.0,0.010000001,25
2016708000,2016556000,0.6228736,-0.00021337946,0.0012092668,0.7823215,-0.025990874,0.010617621,0.005445622,0.0,0.0,-488.0579,-6.8271445e-05,0.00013530321,0.000115607785,-0.0005086276,0.003868396,0.0031705936,0.21695782,0.0128944935,0.42567894,-0.0012418587,0.0010506976,0.0034910366,0.0,0.0,-487.9579,2.755968e-05,4.0928226e-05,0.0009651753,0.014608814,0.014784716,0.005259403,0.119734995,0.120176144,0.08684965,1.5809272e-07,1.5849683e-07,2.9255958e-07,0.0012437477,0.0026592324,8.7682265e-06,0.00030605026,4.8217735e-06,0.00024928062,3.6588528e-05,0.0003058631,0.00024775296,1.0,1.0,0.010000001,25
2016716000,2016564000,0.622892,-0.00019575679,0.001196973,0.78230697,-0.02609854,0.010474518,0.005361744,0.0,0.0,-488.0585,-6.854942e-05,0.00013557018,0.00011641319,-0.0005086232,0.003868958,0.003171464,0.21695693,0.012894473,0.4256794,-0.0012418126,0.001050589,0.0034911826,0.0,0.0,-487.9585,2.7576081e-05,4.0937346e-05,0.0009645509,0.014658765,0.0148399295,0.0052505634,0.12016022,0.120612785,0.086476095,1.5810943e-07,1.5853041e-07,2.9221647e-07,0.0012437482,0.0026592328,8.767649e-06,0.0003060499,4.8212464e-06,0.00024928016,3.6588448e-05,0.00030586307,0.00024775293,1.0,1.0,0.010000001,25
2016732000,2016580000,0.62291485,-0.00017310084,0.0012525659,0.7822887,-0.026437873,0.010866009,0.006047569,0.0,0.0,-488.05844,-6.854942e-05,0.00013557018,0.00011641319,-0.0005086232,0.003868958,0.003171464,0.21695693,0.012894473,0.4256794,-0.0012418126,0.001050589,0.0034911826,0.0,0.0,-487.95844,2.762876e-05,4.098971e-05,0.00096474,0.014777207,0.014960134,0.0052676527,0.12104152,0.12150306,0.08694511,1.5823744e-07,1.5865842e-07,2.9234448e-07,0.0012437494,0.0026592338,8.7688e-06,0.00030605,4.8213747e-06,0.00024928027,3.6588448e-05,0.00030586307,0.00024775293,1.0,1.0,0.010000001,25
2016740000,2016588000,0.62292045,-0.00021693489,0.0011986747,0.78228426,-0.026961561,0.010027699,0.0063164905,0.0,0.0,-488.05838,-6.854942e-05,0.00013557018,0.00011641319,-0.0005086232,0.003868958,0.003171464,0.21695693,0.012894473,0.4256794,-0.0012418126,0.001050589,0.0034911826,0.0,0.0,-487.95837,2.7655125e-05,4.101592e-05,0.0009648345,0.014836711,0.01502048,0.0052761966,0.12148572,0.1219518,0.087180644,1.5830145e-07,1.5872243e-07,2.924085e-07,0.00124375,0.0026592342,8.769376e-06,0.00030605006,4.821439e-06,0.00024928033,3.6588448e-05,0.00030586307,0.00024775293,1.0,1.0,0.010000001,25
2016748000,2016596000,0.6229503,-0.00017340688,0.001192972,0.78226054,-0.026702687,0.009716605,0.006985545,0.0,0.0,-488.05832,-6.854942e-05,0.00013557018,0.00011641319,-0.0005086232,0.003868958,0.003171464,0.21695693,0.012894473,0.4256794,-0.0012418126,0.001050589,0.0034911826,0.0,0.0,-487.9583,2.7681504e-05,4.1042138e-05,0.00096492877,0.014896165,0.015080951,0.005284743,0.1219323,0.12240296,0.08741687,1.5836545e-07,1.5878643e-07,2.924725e-07,0.0012437506,0.0026592347,8.769952e-06,0.00030605012,4.821503e-06,0.0002492804,3.6588448e-05,0.00030586307,0.00024775293,1.0,1.0,0.010000001,25
2016756000,2016604000,0.6229586,-0.00011922279,0.0011735522,0.7822539,-0.026095185,0.0093535,0.0071034203,0.0,0.0,-488.05826,-6.836046e-05,0.00013511183,0.000117725926,-0.00050869427,0.0038689629,0.0031714635,0.2169571,0.012894356,0.42567945,-0.0012418146,0.0010507731,0.0034911376,0.0,0.0,-487.95825,2.7705357e-05,4.106595e-05,0.0009649122,0.014955022,0.015140829,0.00529329,0.12238008,0.122855164,0.08765379,1.5831799e-07,1.5873827e-07,2.9215656e-07,0.0012437511,0.0026592351,8.7705275e-06,0.00030605018,4.821564e-06,0.00024928045,3.6588448e-05,0.00030586307,0.00024775293,1.0,1.0,0.010000001,25
2016772000,2016620000,0.6229914,-0.00013555458,0.00128537,0.78222764,-0.026014326,0.008556185,0.0062732324,0.0,0.0,-488.05814,-6.836046e-05,0.00013511183,0.000117725926,-0.00050869427,0.0038689629,0.0031714635,0.2169571,0.012894356,0.42567945,-0.0012418146,0.0010507731,0.0034911376,0.0,0.0,-487.95813,2.7758206e-05,4.111847e-05,0.0009651007,0.015076313,0.015264087,0.005310388,0.12328521,0.12376963,0.088129714,1.58446e-07,1.5886629e-07,2.9228457e-07,0.0012437523,0.002659236,8.771679e-06,0.0003060503,4.821692e-06,0.00024928057,3.6588448e-05,0.00030586307,0.00024775293,1.0,1.0,0.010000001,25
2016780000,2016628000,0.6229974,-0.00014447352,0.0012536498,0.7822229,-0.02589959,0.009278289,0.0065049096,0.0,0.0,-488.05807,-6.820803e-05,0.00013547752,0.0001191332,-0.00050848356,0.0038689803,0.003171464,0.21695758,0.012894461,0.42567992,-0.0012418858,0.0010505016,0.003491508,0.0,0.0,-487.95807,2.7774506e-05,4.1127267e-05,0.0009644777,0.01512709,0.015320407,0.0053189406,0.12372792,0.12422492,0.088368714,1.584616e-07,1.5889923e-07,2.9194305e-07,0.0012437529,0.0026592365,8.772255e-06,0.00030604991,4.821165e-06,0.0002492801,3.6588368e-05,0.000305863,0.00024775293,1.0,1.0,0.010000001,25
2016788000,2016636000,0.6229918,-0.00016970737,0.0012196872,0.78222746,-0.026883159,0.010027645,0.006275844,0.0,0.0,-488.05807,-6.820801e-05,0.0001354775,0.0001191332,-0.00050849875,0.003868993,0.0031715583,0.21695758,0.012894461,0.42567992,-0.0012418852,0.0010505012,0.003491508,0.0,0.0,-487.95807,2.7800977e-05,4.115357e-05,0.0009645721,0.015188075,0.015382086,0.0053094304,0.12418638,0.12468824,0.087978326,1.5852561e-07,1.5896323e-07,2.9200706e-07,0.0012437535,0.002659237,8.771632e-06,0.00030604997,4.821229e-06,0.00024928016,3.6588368e-05,0.000305863,0.00024775293,1.0,1.0,0.010000001,25
2016796000,2016644000,0.6230216,-0.00021693358,0.0011752703,0.7822038,-0.027389122,0.010366494,0.0064943284,0.0,0.0,-488.058,-6.820801e-05,0.0001354775,0.0001191332,-0.00050849875,0.003868993,0.0031715583,0.21695758,0.012894461,0.42567992,-0.0012418852,0.0010505012,0.003491508,0.0,0.0,-487.958,2.7827464e-05,4.1179883e-05,0.0009646662,0.015248939,0.015443784,0.0053179823,0.1246473,0.12515403,0.08821701,1.5858961e-07,1.5902724e-07,2.9207106e-07,0.001243754,0.0026592375,8.772207e-06,0.00030605003,4.8212933e-06,0.00024928022,3.6588368e-05,0.000305863,0.00024775293,1.0,1.0,0.010000001,25
2016812000,2016660000,0.6229919,-0.00022243452,0.0011103897,0.78222746,-0.022846323,0.007940946,0.0059821527,0.0,0.0,-488.06143,-6.4414664e-05,0.00013309192,0.00011949554,-0.00050829473,0.0038684502,0.003174766,0.21695709,0.012894427,0.42568094,-0.0012420478,0.0010511565,0.0034910652,0.0,0.0,-487.96143,2.6636852e-05,4.0031096e-05,0.0009646468,0.012572194,0.0127060255,0.0050010313,0.105129756,0.105416745,0.080552734,1.5599257e-07,1.5634082e-07,2.9207115e-07,0.0012437544,0.0026592375,8.750724e-06,0.0003060501,4.82142e-06,0.00024928007,3.658819e-05,0.0003058628,0.00024775285,1.0,1.0,0.010000001,25
2016820000,2016668000,0.6229817,-0.000226368,0.001068982,0.7822356,-0.022411006,0.007524507,0.006114967,0.0,0.0,-488.06137,-6.4414664e-05,0.00013309192,0.00011949554,-0.00050829473,0.0038684502,0.003174766,0.21695709,0.012894427,0.42568094,-0.0012420478,0.0010511565,0.0034910652,0.0,0.0,-487.96136,2.6662447e-05,4.005656e-05,0.000964741,0.0126247285,0.012759397,0.0050095413,0.10548777,0.10577779,0.08076845,1.5605657e-07,1.5640482e-07,2.9213516e-07,0.001243755,0.002659238,8.7513e-06,0.00030605015,4.8214843e-06,0.00024928013,3.658819e-05,0.0003058628,0.00024775285,1.0,1.0,0.010000001,25
2016828000,2016676000,0.62300193,-0.0002477646,0.0010441638,0.7822196,-0.022534741,0.0074671637,0.0056826025,0.0,0.0,-488.0613,-6.4414664e-05,0.00013309192,0.00011949554,-0.00050829473,0.0038684502,0.003174766,0.21695709,0.012894427,0.42568094,-0.0012420478,0.0010511565,0.0034910652,0.0,0.0,-487.9613,2.6688065e-05,4.0082035e-05,0.0009648352,0.012677778,0.012813155,0.005018053,0.10584776,0.10614084,0.08098482,1.5612058e-07,1.5646883e-07,2.9219916e-07,0.0012437556,0.0026592384,8.751876e-06,0.0003060502,4.8215484e-06,0.0002492802,3.658819e-05,0.0003058628,0.00024775285,1.0,1.0,0.010000001,25
2016836000,2016684000,0.6230305,-0.0002499744,0.0010272041,0.7821969,-0.022134375,0.007669403,0.005785547,0.0,0.0,-488.06125,-6.4414664e-05,0.00013309192,0.00011949554,-0.00050829473,0.0038684502,0.003174766,0.21695709,0.012894427,0.42568094,-0.0012420478,0.0010511565,0.0034910652,0.0,0.0,-487.96124,2.6713702e-05,4.0107538e-05,0.00096492947,0.0127307065,0.012866897,0.0050265663,0.10620973,0.106505886,0.08120185,1.5618458e-07,1.5653283e-07,2.9226317e-07,0.0012437562,0.0026592389,8.752451e-06,0.00030605026,4.8216125e-06,0.00024928025,3.658819e-05,0.0003058628,0.00024775285,1.0,1.0,0.010000001,25
2016852000,2016700000,0.6230657,-0.00017860401,0.0010641436,0.7821688,-0.022369277,0.007140084,0.006655838,0.0,0.0,-488.0613,-6.462124e-05,0.0001332301,0.000119893986,-0.0005083597,0.0038688262,0.0031750326,0.21695608,0.012894378,0.4256806,-0.0012419253,0.0010511343,0.0034910662,0.0,0.0,-487.9613,2.6756185e-05,4.014344e-05,0.0009643948,0.012829405,0.0129704615,0.0050285957,0.10693238,0.107239194,0.08110272,1.5626998e-07,1.5663325e-07,2.919825e-07,0.0012437573,0.0026592398,8.752609e-06,0.00030604997,4.821149e-06,0.0002492799,3.6588113e-05,0.0003058628,0.00024775285,1.0,1.0,0.010000001,25
2016860000,2016708000,0.6230734,-0.00018498111,0.0010641522,0.78216267,-0.021868942,0.0073765996,0.0072086602,0.0,0.0,-488.06125,-6.462124e-05,0.0001332301,0.000119893986,-0.0005083597,0.0038688262,0.0031750326,0.21695608,0.012894378,0.4256806,-0.0012419253,0.0010511343,0.0034910662,0.0,0.0,-487.96124,2.6781883e-05,4.0168998e-05,0.0009644891,0.012882553,0.013024473,0.0050371103,0.107300244,0.10761028,0.081320286,1.5633398e-07,1.5669725e-07,2.920465e-07,0.0012437579,0.0026592403,8.753184e-06,0.00030605003,4.821213e-06,0.00024927995,3.6588113e-05,0.0003058628,0.00024775285,1.0,1.0,0.010000001,25
2016868000,2016716000,0.6231153,-0.00019020477,0.0010066748,0.78212935,-0.02028737,0.0068392055,0.007407561,0.0,0.0,-488.0612,-6.462124e-05,0.0001332301,0.000119893986,-0.0005083597,0.0038688262,0.0031750326,0.21695608,0.012894378,0.4256806,-0.0012419253,0.0010511343,0.0034910662,0.0,0.0,-487.96118,2.68076e-05,4.0194576e-05,0.0009645835,0.012936057,0.013079122,0.005045625,0.10767013,0.10798341,0.081538506,1.5639799e-07,1.5676126e-07,2.921105e-07,0.0012437585,0.0026592407,8.75376e-06,0.0003060501,4.8212773e-06,0.00024928,3.6588113e-05,0.0003058628,0.00024775285,1.0,1.0,0.010000001,25
2016876000,2016724000,0.62316716,-0.00021164262,0.0009818544,0.7820881,-0.019769302,0.0070948214,0.008070588,0.0,0.0,-488.06113,-6.462124e-05,0.0001332301,0.000119893986,-0.0005083597,0.0038688262,0.0031750326,0.21695608,0.012894378,0.4256806,-0.0012419253,0.0010511343,0.0034910662,0.0,0.0,-487.96112,2.6833335e-05,4.0220177e-05,0.0009646779,0.012989493,0.013133434,0.005054142,0.10804204,0.10835861,0.08175738,1.56462e-07,1.5682527e-07,2.9217452e-07,0.0012437591,0.0026592412,8.754336e-06,0.00030605015,4.8213415e-06,0.00024928007,3.6588113e-05,0.0003058628,0.00024775285,1.0,1.0,0.010000001,25
2016892000,2016740000,0.6232396,-0.00026464066,0.0009784516,0.7820304,-0.019812942,0.007821261,0.008755527,0.0,0.0,-488.061,-6.462124e-05,0.0001332301,0.000119893986,-0.0005083597,0.0038688262,0.0031750326,0.21695608,0.012894378,0.4256806,-0.0012419253,0.0010511343,0.0034910662,0.0,0.0,-487.961,2.6884865e-05,4.027143e-05,0.0009648668,0.013097283,0.013242729,0.0050711795,0.10879199,0.109115206,0.08219712,1.5659e-07,1.5695328e-07,2.9230253e-07,0.0012437602,0.0026592421,8.755487e-06,0.00030605026,4.8214697e-06,0.0002492802,3.6588113e-05,0.0003058628,0.00024775285,1.0,1.0,0.010000001,25
