timestamp,timestamp_sample,gps_hvel[0],gps_hvel[1],gps_vvel,gps_hpos[0],gps_hpos[1],gps_vpos,ev_hvel[0],ev_hvel[1],ev_vvel,ev_hpos[0],ev_hpos[1],ev_vpos,rng_vpos,baro_vpos,aux_hvel[0],aux_hvel[1],flow[0],flow[1],heading,mag_field[0],mag_field[1],mag_field[2],gravity[0],gravity[1],gravity[2],drag[0],drag[1],airspeed,beta,hagl,hagl_rate
2015916000,2015764000,0.10537998,0.105574176,0.20783837,1.125621,1.1261367,1.0877228,0.0,0.0,0.0,0.0,0.0,0.0,0.0,12.457801,0.0,0.0,0.0,0.0,0.0025112208,0.0025112208,0.002503765,0.002501769,1.0000271,1.0000416,1.0,0.0,0.0,0.0,0.0,0.0,0.0
2015924000,2015772000,0.10537998,0.105574176,0.20783837,1.125621,1.1261367,1.0877228,0.0,0.0,0.0,0.0,0.0,0.0,0.0,12.459326,0.0,0.0,0.0,0.0,0.0025112464,0.0025112464,0.0025038032,0.002501779,1.0000271,1.0000416,1.0,0.0,0.0,0.0,0.0,0.0,0.0
2015932000,2015780000,0.10537998,0.105574176,0.20783837,1.125621,1.1261367,1.0877228,0.0,0.0,0.0,0.0,0.0,0.0,0.0,12.459326,0.0,0.0,0.0,0.0,0.0025112464,0.0025112464,0.0025038032,0.002501779,1.0000271,1.0000416,1.0,0.0,0.0,0.0,0.0,0.0,0.0
2015940000,2015788000,0.10537998,0.105574176,0.20783837,1.125621,1.1261367,1.0877228,0.0,0.0,0.0,0.0,0.0,0.0,0.0,12.459326,0.0,0.0,0.0,0.0,0.0025112464,0.0025112464,0.0025038032,0.002501779,1.0000271,1.0000416,1.0,0.0,0.0,0.0,0.0,0.0,0.0
2015948000,2015796000,0.10537998,0.105574176,0.20783837,1.125621,1.1261367,1.0877228,0.0,0.0,0.0,0.0,0.0,0.0,0.0,12.459326,0.0,0.0,0.0,0.0,0.0025112464,0.0025112464,0.0025038032,0.002501779,1.0000271,1.0000416,1.0,0.0,0.0,0.0,0.0,0.0,0.0
2015956000,2015804000,0.10537998,0.105574176,0.20783837,1.125621,1.1261367,1.0877228,0.0,0.0,0.0,0.0,0.0,0.0,0.0,12.459326,0.0,0.0,0.0,0.0,0.0025112464,0.0025112464,0.0025038032,0.002501779,1.0000272,1.0000417,1.0,0.0,0.0,0.0,0.0,0.0,0.0
2015972000,2015820000,0.10537998,0.105574176,0.20783837,1.125621,1.1261367,1.0877228,0.0,0.0,0.0,0.0,0.0,0.0,0.0,12.459326,0.0,0.0,0.0,0.0,0.0025112464,0.0025112464,0.0025038032,0.002501779,1.0000272,1.0000417,1.0,0.0,0.0,0.0,0.0,0.0,0.0
2015980000,2015828000,0.10537998,0.105574176,0.20783837,1.125621,1.1261367,1.0877228,0.0,0.0,0.0,0.0,0.0,0.0,0.0,12.459326,0.0,0.0,0.0,0.0,0.0025112464,0.0025112464,0.0025038032,0.002501779,1.0000272,1.0000417,1.0,0.0,0.0,0.0,0.0,0.0,0.0
2015988000,2015836000,0.10537998,0.105574176,0.20783837,1.125621,1.1261367,1.0877228,0.0,0.0,0.0,0.0,0.0,0.0,0.0,12.459326,0.0,0.0,0.0,0.0,0.0025112464,0.0025112464,0.0025038032,0.002501779,1.0000272,1.0000417,1.0,0.0,0.0,0.0,0.0,0.0,0.0
2015996000,2015844000,0.10537998,0.105574176,0.20783837,1.125621,1.1261367,1.0877228,0.0,0.0,0.0,0.0,0.0,0.0,0.0,12.460871,0.0,0.0,0.0,0.0,0.0025112685,0.0025112685,0.0025038393,0.0025017885,1.0000273,1.0000417,1.0,0.0,0.0,0.0,0.0,0.0,0.0
2016012000,2015860000,0.10537059,0.105565995,0.2078314,1.1255995,1.1261176,1.0874832,0.0,0.0,0.0,0.0,0.0,0.0,0.0,12.460871,0.0,0.0,0.0,0.0,0.0025112685,0.0025112685,0.0025038393,0.0025017885,1.0000261,1.0000405,1.0,0.0,0.0,0.0,0.0,0.0,0.0
2016020000,2015868000,0.10537059,0.105565995,0.2078314,1.1255995,1.1261176,1.0874832,0.0,0.0,0.0,0.0,0.0,0.0,0.0,12.460871,0.0,0.0,0.0,0.0,0.0025112685,0.0025112685,0.0025038393,0.0025017885,1.0000261,1.0000405,1.0,0.0,0.0,0.0,0.0,0.0,0.0
2016028000,2015876000,0.10537059,0.105565995,0.2078314,1.1255995,1.1261176,1.0874832,0.0,0.0,0.0,0.0,0.0,0.0,0.0,12.460871,0.0,0.0,0.0,0.0,0.0025112685,0.0025112685,0.0025038393,0.0025017885,1.0000261,1.0000407,1.0,0.0,0.0,0.0,0.0,0.0,0.0
2016036000,2015884000,0.10537059,0.105565995,0.2078314,1.1255995,1.1261176,1.0874832,0.0,0.0,0.0,0.0,0.0,0.0,0.0,12.460871,0.0,0.0,0.0,0.0,0.0025112685,0.0025112685,0.0025038393,0.0025017885,1.0000262,1.0000407,1.0,0.0,0.0,0.0,0.0,0.0,0.0
2016052000,2015900000,0.10537059,0.105565995,0.2078314,1.1255995,1.1261176,1.0874832,0.0,0.0,0.0,0.0,0.0,0.0,0.0,12.460871,0.0,0.0,0.0,0.0,0.0025112685,0.0025112685,0.0025038393,0.0025017885,1.0000262,1.0000407,1.0,0.0,0.0,0.0,0.0,0.0,0.0
2016060000,2015908000,0.10537059,0.105565995,0.2078314,1.1255995,1.1261176,1.0874832,0.0,0.0,0.0,0.0,0.0,0.0,0.0,12.460871,0.0,0.0,0.0,0.0,0.0025112685,0.0025112685,0.0025038393,0.0025017885,1.0000262,1.0000408,1.0,0.0,0.0,0.0,0.0,0.0,0.0
2016068000,2015916000,0.10537059,0.105565995,0.2078314,1.1255995,1.1261176,1.0874832,0.0,0.0,0.0,0.0,0.0,0.0,0.0,12.454138,0.0,0.0,0.0,0.0,0.0025111595,0.0025111595,0.00250367,0.0025017464,1.0000262,1.0000408,1.0,0.0,0.0,0.0,0.0,0.0,0.0
2016076000,2015924000,0.10537059,0.105565995,0.2078314,1.1255995,1.1261176,1.0874832,0.0,0.0,0.0,0.0,0.0,0.0,0.0,12.454138,0.0,0.0,0.0,0.0,0.0025111595,0.0025111595,0.00250367,0.0025017464,1.0000263,1.0000408,1.0,0.0,0.0,0.0,0.0,0.0,0.0
2016092000,2015940000,0.10537059,0.105565995,0.2078314,1.1255995,1.1261176,1.0874832,0.0,0.0,0.0,0.0,0.0,0.0,0.0,12.454138,0.0,0.0,0.0,0.0,0.0025111595,0.0025111595,0.00250367,0.0025017464,1.0000263,1.0000408,1.0,0.0,0.0,0.0,0.0,0.0,0.0
2016100000,2015948000,0.10537059,0.105565995,0.2078314,1.1255995,1.1261176,1.0874832,0.0,0.0,0.0,0.0,0.0,0.0,0.0,12.454138,0.0,0.0,0.0,0.0,0.0025111595,0.0025111595,0.00250367,0.0025017464,1.0000263,1.0000408,1.0,0.0,0.0,0.0,0.0,0.0,0.0
2016108000,2015956000,0.10537059,0.105565995,0.2078314,1.1255995,1.1261176,1.0874832,0.0,0.0,0.0,0.0,0.0,0.0,0.0,12.454138,0.0,0.0,0.0,0.0,0.0025111595,0.0025111595,0.00250367,0.0025017464,1.0000263,1.0000409,1.0,0.0,0.0,0.0,0.0,0.0,0.0
2016116000,2015964000,0.10537059,0.105565995,0.2078314,1.1255995,1.1261176,1.0874832,0.0,0.0,0.0,0.0,0.0,0.0,0.0,12.454138,0.0,0.0,0.0,0.0,0.0025111595,0.0025111595,0.00250367,0.0025017464,1.0000265,1.0000409,1.0,0.0,0.0,0.0,0.0,0.0,0.0
2016132000,2015980000,0.10537059,0.105565995,0.2078314,1.1255995,1.1261176,1.0874832,0.0,0.0,0.0,0.0,0.0,0.0,0.0,12.454138,0.0,0.0,0.0,0.0,0.0025111595,0.0025111595,0.00250367,0.0025017464,1.0000265,1.000041,1.0,0.0,0.0,0.0,0.0,0.0,0.0
2016140000,2015988000,0.10537059,0.105565995,0.2078314,1.1255995,1.1261176,1.0874832,0.0,0.0,0.0,0.0,0.0,0.0,0.0,12.455609,0.0,0.0,0.0,0.0,0.0025111865,0.0025111865,0.0025037061,0.0025017564,1.0000265,1.000041,1.0,0.0,0.0,0.0,0.0,0.0,0.0
2016148000,2015996000,0.10537059,0.105565995,0.2078314,1.1255995,1.1261176,1.0874832,0.0,0.0,0.0,0.0,0.0,0.0,0.0,12.455609,0.0,0.0,0.0,0.0,0.0025111865,0.0025111865,0.0025037061,0.0025017564,1.0000265,1.0000411,1.0,0.0,0.0,0.0,0.0,0.0,0.0
2016156000,2016004000,0.10537059,0.105565995,0.2078314,1.1255995,1.1261176,1.0874832,0.0,0.0,0.0,0.0,0.0,0.0,0.0,12.455609,0.0,0.0,0.0,0.0,0.0025111865,0.0025111865,0.0025037061,0.0025017564,1.0000266,1.0000411,1.0,0.0,0.0,0.0,0.0,0.0,0.0
2016172000,2016020000,0.10537059,0.105565995,0.2078314,1.1255995,1.1261176,1.0874832,0.0,0.0,0.0,0.0,0.0,0.0,0.0,12.455609,0.0,0.0,0.0,0.0,0.0025111865,0.0025111865,0.0025037061,0.0025017564,1.0000266,1.0000411,1.0,0.0,0.0,0.0,0.0,0.0,0.0
2016180000,2016028000,0.10537059,0.105565995,0.2078314,1.1255995,1.1261176,1.0874832,0.0,0.0,0.0,0.0,0.0,0.0,0.0,12.455609,0.0,0.0,0.0,0.0,0.0025111865,0.0025111865,0.0025037061,0.0025017564,1.0000266,1.0000411,1.0,0.0,0.0,0.0,0.0,0.0,0.0
2016188000,2016036000,0.10537059,0.105565995,0.2078314,1.1255995,1.1261176,1.0874832,0.0,0.0,0.0,0.0,0.0,0.0,0.0,12.455609,0.0,0.0,0.0,0.0,0.0025111865,0.0025111865,0.0025037061,0.0025017564,1.0000266,1.0000411,1.0,0.0,0.0,0.0,0.0,0.0,0.0
2016196000,2016044000,0.10537059,0.105565995,0.2078314,1.1255995,1.1261176,1.0874832,0.0,0.0,0.0,0.0,0.0,0.0,0.0,12.455609,0.0,0.0,0.0,0.0,0.0025111865,0.0025111865,0.0025037061,0.0025017564,1.0000267,1.0000412,1.0,0.0,0.0,0.0,0.0,0.0,0.0
2016212000,2016060000,0.10537059,0.105565995,0.2078314,1.1255995,1.1261176,1.0874832,0.0,0.0,0.0,0.0,0.0,0.0,0.0,12.4571,0.0,0.0,0.0,0.0,0.0025112075,0.0025112075,0.0025037439,0.0025017664,1.0000267,1.0000412,1.0,0.0,0.0,0.0,0.0,0.0,0.0
2016220000,2016068000,0.10537059,0.105565995,0.2078314,1.1255995,1.1261176,1.0874832,0.0,0.0,0.0,0.0,0.0,0.0,0.0,12.4571,0.0,0.0,0.0,0.0,0.0025112075,0.0025112075,0.0025037439,0.0025017664,1.0000267,1.0000412,1.0,0.0,0.0,0.0,0.0,0.0,0.0
2016228000,2016076000,0.10537059,0.105565995,0.2078314,1.1255995,1.1261176,1.0874832,0.0,0.0,0.0,0.0,0.0,0.0,0.0,12.4571,0.0,0.0,0.0,0.0,0.0025112075,0.0025112075,0.0025037439,0.0025017664,1.0000267,1.0000412,1.0,0.0,0.0,0.0,0.0,0.0,0.0
2016236000,2016084000,0.10537059,0.105565995,0.2078314,1.1255995,1.1261176,1.0874832,0.0,0.0,0.0,0.0,0.0,0.0,0.0,12.4571,0.0,0.0,0.0,0.0,0.0025112075,0.0025112075,0.0025037439,0.0025017664,1.0000267,1.0000414,1.0,0.0,0.0,0.0,0.0,0.0,0.0
2016252000,2016100000,0.10537059,0.105565995,0.2078314,1.1255995,1.1261176,1.0874832,0.0,0.0,0.0,0.0,0.0,0.0,0.0,12.4571,0.0,0.0,0.0,0.0,0.0025112075,0.0025112075,0.0025037439,0.0025017664,1.0000268,1.0000414,1.0,0.0,0.0,0.0,0.0,0.0,0.0
2016260000,2016108000,0.10537059,0.105565995,0.2078314,1.1255995,1.1261176,1.0874832,0.0,0.0,0.0,0.0,0.0,0.0,0.0,12.4571,0.0,0.0,0.0,0.0,0.0025112075,0.0025112075,0.0025037439,0.0025017664,1.0000268,1.0000414,1.0,0.0,0.0,0.0,0.0,0.0,0.0
2016268000,2016116000,0.10537059,0.105565995,0.2078314,1.1255995,1.1261176,1.0874832,0.0,0.0,0.0,0.0,0.0,0.0,0.0,12.4571,0.0,0.0,0.0,0.0,0.0025112075,0.0025112075,0.0025037439,0.0025017664,1.0000268,1.0000414,1.0,0.0,0.0,0.0,0.0,0.0,0.0
2016276000,2016124000,0.10537059,0.105565995,0.2078314,1.1255995,1.1261176,1.0874832,0.0,0.0,0.0,0.0,0.0,0.0,0.0,12.4571,0.0,0.0,0.0,0.0,0.0025112075,0.0025112075,0.0025037439,0.0025017664,1.000027,1.0000415,1.0,0.0,0.0,0.0,0.0,0.0,0.0
2016292000,2016140000,0.10537059,0.105565995,0.2078314,1.1255995,1.1261176,1.0874832,0.0,0.0,0.0,0.0,0.0,0.0,0.0,12.4586115,0.0,0.0,0.0,0.0,0.0025112338,0.0025112338,0.0025037804,0.0025017762,1.000027,1.0000415,1.0,0.0,0.0,0.0,0.0,0.0,0.0
2016300000,2016148000,0.10537059,0.105565995,0.2078314,1.1255995,1.1261176,1.0874832,0.0,0.0,0.0,0.0,0.0,0.0,0.0,12.4586115,0.0,0.0,0.0,0.0,0.0025112338,0.0025112338,0.0025037804,0.0025017762,1.000027,1.0000415,1.0,0.0,0.0,0.0,0.0,0.0,0.0
2016308000,2016156000,0.10537059,0.105565995,0.2078314,1.1255995,1.1261176,1.0874832,0.0,0.0,0.0,0.0,0.0,0.0,0.0,12.4586115,0.0,0.0,0.0,0.0,0.0025112338,0.0025112338,0.0025037804,0.0025017762,1.000027,1.0000415,1.0,0.0,0.0,0.0,0.0,0.0,0.0
2016316000,2016164000,0.10537059,0.105565995,0.2078314,1.1255995,1.1261176,1.0874832,0.0,0.0,0.0,0.0,0.0,0.0,0.0,12.4586115,0.0,0.0,0.0,0.0,0.0025112338,0.0025112338,0.0025037804,0.0025017762,1.000027,1.0000415,1.0,0.0,0.0,0.0,0.0,0.0,0.0
2016332000,2016180000,0.10537059,0.105565995,0.2078314,1.1255995,1.1261176,1.0874832,0.0,0.0,0.0,0.0,0.0,0.0,0.0,12.4586115,0.0,0.0,0.0,0.0,0.0025112338,0.0025112338,0.0025037804,0.0025017762,1.0000271,1.0000416,1.0,0.0,0.0,0.0,0.0,0.0,0.0
2016340000,2016188000,0.10537059,0.105565995,0.2078314,1.1255995,1.1261176,1.0874832,0.0,0.0,0.0,0.0,0.0,0.0,0.0,12.4586115,0.0,0.0,0.0,0.0,0.0025112338,0.0025112338,0.0025037804,0.0025017762,1.0000271,1.0000416,1.0,0.0,0.0,0.0,0.0,0.0,0.0
2016348000,2016196000,0.10537059,0.105565995,0.2078314,1.1255995,1.1261176,1.0874832,0.0,0.0,0.0,0.0,0.0,0.0,0.0,12.4586115,0.0,0.0,0.0,0.0,0.0025112338,0.0025112338,0.0025037804,0.0025017762,1.0000271,1.0000416,1.0,0.0,0.0,0.0,0.0,0.0,0.0
2016356000,2016204000,0.10537059,0.105565995,0.2078314,1.1255995,1.1261176,1.0874832,0.0,0.0,0.0,0.0,0.0,0.0,0.0,12.460144,0.0,0.0,0.0,0.0,0.00251126,0.00251126,0.0025038188,0.0025017848,1.0000271,1.0000416,1.0,0.0,0.0,0.0,0.0,0.0,0.0
2016372000,2016220000,0.10537059,0.105565995,0.2078314,1.1255995,1.1261176,1.0874832,0.0,0.0,0.0,0.0,0.0,0.0,0.0,12.460144,0.0,0.0,0.0,0.0,0.00251126,0.00251126,0.0025038188,0.0025017848,1.0000272,1.0000417,1.0,0.0,0.0,0.0,0.0,0.0,0.0
2016380000,2016228000,0.10537059,0.105565995,0.2078314,1.1255995,1.1261176,1.0874832,0.0,0.0,0.0,0.0,0.0,0.0,0.0,12.460144,0.0,0.0,0.0,0.0,0.00251126,0.00251126,0.0025038188,0.0025017848,1.0000272,1.0000417,1.0,0.0,0.0,0.0,0.0,0.0,0.0
2016388000,2016236000,0.10537059,0.105565995,0.2078314,1.1255995,1.1261176,1.0874832,0.0,0.0,0.0,0.0,0.0,0.0,0.0,12.460144,0.0,0.0,0.0,0.0,0.00251126,0.00251126,0.0025038188,0.0025017848,1.0000272,1.0000417,1.0,0.0,0.0,0.0,0.0,0.0,0.0
2016396000,2016244000,0.10537059,0.105565995,0.2078314,1.1255995,1.1261176,1.0874832,0.0,0.0,0.0,0.0,0.0,0.0,0.0,12.460144,0.0,0.0,0.0,0.0,0.00251126,0.00251126,0.0025038188,0.0025017848,1.0000272,1.0000417,1.0,0.0,0.0,0.0,0.0,0.0,0.0
2016412000,2016260000,0.10537742,0.105571926,0.20784248,1.1255946,1.1261078,1.0878594,0.0,0.0,0.0,0.0,0.0,0.0,0.0,12.460144,0.0,0.0,0.0,0.0,0.00251126,0.00251126,0.0025038188,0.0025017848,1.0000261,1.0000405,1.0,0.0,0.0,0.0,0.0,0.0,0.0
2016420000,2016268000,0.10537742,0.105571926,0.20784248,1.1255946,1.1261078,1.0878594,0.0,0.0,0.0,0.0,0.0,0.0,0.0,12.460144,0.0,0.0,0.0,0.0,0.00251126,0.00251126,0.0025038188,0.0025017848,1.0000261,1.0000407,1.0,0.0,0.0,0.0,0.0,0.0,0.0
2016428000,2016276000,0.10537742,0.105571926,0.20784248,1.1255946,1.1261078,1.0878594,0.0,0.0,0.0,0.0,0.0,0.0,0.0,12.453457,0.0,0.0,0.0,0.0,0.0025111465,0.0025111465,0.0025036528,0.002501741,1.0000261,1.0000407,1.0,0.0,0.0,0.0,0.0,0.0,0.0
2016436000,2016284000,0.10537742,0.105571926,0.20784248,1.1255946,1.1261078,1.0878594,0.0,0.0,0.0,0.0,0.0,0.0,0.0,12.453457,0.0,0.0,0.0,0.0,0.0025111465,0.0025111465,0.0025036528,0.002501741,1.0000262,1.0000407,1.0,0.0,0.0,0.0,0.0,0.0,0.0
2016452000,2016300000,0.10537742,0.105571926,0.20784248,1.1255946,1.1261078,1.0878594,0.0,0.0,0.0,0.0,0.0,0.0,0.0,12.453457,0.0,0.0,0.0,0.0,0.0025111465,0.0025111465,0.0025036528,0.002501741,1.0000262,1.0000408,1.0,0.0,0.0,0.0,0.0,0.0,0.0
2016460000,2016308000,0.10537742,0.105571926,0.20784248,1.1255946,1.1261078,1.0878594,0.0,0.0,0.0,0.0,0.0,0.0,0.0,12.453457,0.0,0.0,0.0,0.0,0.0025111465,0.0025111465,0.0025036528,0.002501741,1.0000262,1.0000408,1.0,0.0,0.0,0.0,0.0,0.0,0.0
2016468000,2016316000,0.10537742,0.105571926,0.20784248,1.1255946,1.1261078,1.0878594,0.0,0.0,0.0,0.0,0.0,0.0,0.0,12.453457,0.0,0.0,0.0,0.0,0.0025111465,0.0025111465,0.0025036528,0.002501741,1.0000262,1.0000409,1.0,0.0,0.0,0.0,0.0,0.0,0.0
2016476000,2016324000,0.10537742,0.105571926,0.20784248,1.1255946,1.1261078,1.0878594,0.0,0.0,0.0,0.0,0.0,0.0,0.0,12.453457,0.0,0.0,0.0,0.0,0.0025111465,0.0025111465,0.0025036528,0.002501741,1.0000263,1.0000409,1.0,0.0,0.0,0.0,0.0,0.0,0.0
2016492000,2016340000,0.10537742,0.105571926,0.20784248,1.1255946,1.1261078,1.0878594,0.0,0.0,0.0,0.0,0.0,0.0,0.0,12.453457,0.0,0.0,0.0,0.0,0.0025111465,0.0025111465,0.0025036528,0.002501741,1.0000263,1.0000409,1.0,0.0,0.0,0.0,0.0,0.0,0.0
2016500000,2016348000,0.10537742,0.105571926,0.20784248,1.1255946,1.1261078,1.0878594,0.0,0.0,0.0,0.0,0.0,0.0,0.0,12.454914,0.0,0.0,0.0,0.0,0.0025111737,0.0025111737,0.0025036891,0.00250175,1.0000263,1.0000409,1.0,0.0,0.0,0.0,0.0,0.0,0.0
2016508000,2016356000,0.10537742,0.105571926,0.20784248,1.1255946,1.1261078,1.0878594,0.0,0.0,0.0,0.0,0.0,0.0,0.0,12.454914,0.0,0.0,0.0,0.0,0.0025111737,0.0025111737,0.0025036891,0.00250175,1.0000263,1.0000409,1.0,0.0,0.0,0.0,0.0,0.0,0.0
2016516000,2016364000,0.10537742,0.105571926,0.20784248,1.1255946,1.1261078,1.0878594,0.0,0.0,0.0,0.0,0.0,0.0,0.0,12.454914,0.0,0.0,0.0,0.0,0.0025111737,0.0025111737,0.0025036891,0.00250175,1.0000265,1.000041,1.0,0.0,0.0,0.0,0.0,0.0,0.0
2016532000,2016380000,0.10537742,0.105571926,0.20784248,1.1255946,1.1261078,1.0878594,0.0,0.0,0.0,0.0,0.0,0.0,0.0,12.454914,0.0,0.0,0.0,0.0,0.0025111737,0.0025111737,0.0025036891,0.00250175,1.0000265,1.000041,1.0,0.0,0.0,0.0,0.0,0.0,0.0
2016540000,2016388000,0.10537742,0.105571926,0.20784248,1.1255946,1.1261078,1.0878594,0.0,0.0,0.0,0.0,0.0,0.0,0.0,12.454914,0.0,0.0,0.0,0.0,0.0025111737,0.0025111737,0.0025036891,0.00250175,1.0000265,1.000041,1.0,0.0,0.0,0.0,0.0,0.0,0.0
2016548000,2016396000,0.10537742,0.105571926,0.20784248,1.1255946,1.1261078,1.0878594,0.0,0.0,0.0,0.0,0.0,0.0,0.0,12.454914,0.0,0.0,0.0,0.0,0.0025111737,0.0025111737,0.0025036891,0.00250175,1.0000265,1.0000411,1.0,0.0,0.0,0.0,0.0,0.0,0.0
2016556000,2016404000,0.10537742,0.105571926,0.20784248,1.1255946,1.1261078,1.0878594,0.0,0.0,0.0,0.0,0.0,0.0,0.0,12.454914,0.0,0.0,0.0,0.0,0.0025111737,0.0025111737,0.0025036891,0.00250175,1.0000266,1.0000411,1.0,0.0,0.0,0.0,0.0,0.0,0.0
2016572000,2016420000,0.10537742,0.105571926,0.20784248,1.1255946,1.1261078,1.0878594,0.0,0.0,0.0,0.0,0.0,0.0,0.0,12.456392,0.0,0.0,0.0,0.0,0.0025111954,0.0025111954,0.0025037243,0.00250176,1.0000266,1.0000411,1.0,0.0,0.0,0.0,0.0,0.0,0.0
2016580000,2016428000,0.10537742,0.105571926,0.20784248,1.1255946,1.1261078,1.0878594,0.0,0.0,0.0,0.0,0.0,0.0,0.0,12.456392,0.0,0.0,0.0,0.0,0.0025111954,0.0025111954,0.0025037243,0.00250176,1.0000266,1.0000411,1.0,0.0,0.0,0.0,0.0,0.0,0.0
2016588000,2016436000,0.10537742,0.105571926,0.20784248,1.1255946,1.1261078,1.0878594,0.0,0.0,0.0,0.0,0.0,0.0,0.0,12.456392,0.0,0.0,0.0,0.0,0.0025111954,0.0025111954,0.0025037243,0.00250176,1.0000266,1.0000411,1.0,0.0,0.0,0.0,0.0,0.0,0.0
2016596000,2016444000,0.10537742,0.105571926,0.20784248,1.1255946,1.1261078,1.0878594,0.0,0.0,0.0,0.0,0.0,0.0,0.0,12.456392,0.0,0.0,0.0,0.0,0.0025111954,0.0025111954,0.0025037243,0.00250176,1.0000267,1.0000412,1.0,0.0,0.0,0.0,0.0,0.0,0.0
2016612000,2016460000,0.10537742,0.105571926,0.20784248,1.1255946,1.1261078,1.0878594,0.0,0.0,0.0,0.0,0.0,0.0,0.0,12.456392,0.0,0.0,0.0,0.0,0.0025111954,0.0025111954,0.0025037243,0.00250176,1.0000267,1.0000412,1.0,0.0,0.0,0.0,0.0,0.0,0.0
2016620000,2016468000,0.10537742,0.105571926,0.20784248,1.1255946,1.1261078,1.0878594,0.0,0.0,0.0,0.0,0.0,0.0,0.0,12.456392,0.0,0.0,0.0,0.0,0.0025111954,0.0025111954,0.0025037243,0.00250176,1.0000267,1.0000412,1.0,0.0,0.0,0.0,0.0,0.0,0.0
2016628000,2016476000,0.10537742,0.105571926,0.20784248,1.1255946,1.1261078,1.0878594,0.0,0.0,0.0,0.0,0.0,0.0,0.0,12.456392,0.0,0.0,0.0,0.0,0.0025111954,0.0025111954,0.0025037243,0.00250176,1.0000267,1.0000412,1.0,0.0,0.0,0.0,0.0,0.0,0.0
2016636000,2016484000,0.10537742,0.105571926,0.20784248,1.1255946,1.1261078,1.0878594,0.0,0.0,0.0,0.0,0.0,0.0,0.0,12.456392,0.0,0.0,0.0,0.0,0.0025111954,0.0025111954,0.0025037243,0.00250176,1.0000268,1.0000414,1.0,0.0,0.0,0.0,0.0,0.0,0.0
2016652000,2016500000,0.10537742,0.105571926,0.20784248,1.1255946,1.1261078,1.0878594,0.0,0.0,0.0,0.0,0.0,0.0,0.0,12.4578905,0.0,0.0,0.0,0.0,0.0025112217,0.0025112217,0.002503762,0.0025017695,1.0000268,1.0000414,1.0,0.0,0.0,0.0,0.0,0.0,0.0
2016660000,2016508000,0.10537742,0.105571926,0.20784248,1.1255946,1.1261078,1.0878594,0.0,0.0,0.0,0.0,0.0,0.0,0.0,12.4578905,0.0,0.0,0.0,0.0,0.0025112217,0.0025112217,0.002503762,0.0025017695,1.0000268,1.0000414,1.0,0.0,0.0,0.0,0.0,0.0,0.0
2016668000,2016516000,0.10537742,0.105571926,0.20784248,1.1255946,1.1261078,1.0878594,0.0,0.0,0.0,0.0,0.0,0.0,0.0,12.4578905,0.0,0.0,0.0,0.0,0.0025112217,0.0025112217,0.002503762,0.0025017695,1.0000268,1.0000414,1.0,0.0,0.0,0.0,0.0,0.0,0.0
2016676000,2016524000,0.10537742,0.105571926,0.20784248,1.1255946,1.1261078,1.0878594,0.0,0.0,0.0,0.0,0.0,0.0,0.0,12.4578905,0.0,0.0,0.0,0.0,0.0025112217,0.0025112217,0.002503762,0.0025017695,1.000027,1.0000415,1.0,0.0,0.0,0.0,0.0,0.0,0.0
2016692000,2016540000,0.10537742,0.105571926,0.20784248,1.1255946,1.1261078,1.0878594,0.0,0.0,0.0,0.0,0.0,0.0,0.0,12.4578905,0.0,0.0,0.0,0.0,0.0025112217,0.0025112217,0.002503762,0.0025017695,1.000027,1.0000415,1.0,0.0,0.0,0.0,0.0,0.0,0.0
2016700000,2016548000,0.10537742,0.105571926,0.20784248,1.1255946,1.1261078,1.0878594,0.0,0.0,0.0,0.0,0.0,0.0,0.0,12.4578905,0.0,0.0,0.0,0.0,0.0025112217,0.0025112217,0.002503762,0.0025017695,1.000027,1.0000415,1.0,0.0,0.0,0.0,0.0,0.0,0.0
2016708000,2016556000,0.10537742,0.105571926,0.20784248,1.1255946,1.1261078,1.0878594,0.0,0.0,0.0,0.0,0.0,0.0,0.0,12.4578905,0.0,0.0,0.0,0.0,0.0025112217,0.0025112217,0.002503762,0.0025017695,1.000027,1.0000415,1.0,0.0,0.0,0.0,0.0,0.0,0.0
2016716000,2016564000,0.10537742,0.105571926,0.20784248,1.1255946,1.1261078,1.0878594,0.0,0.0,0.0,0.0,0.0,0.0,0.0,12.45941,0.0,0.0,0.0,0.0,0.0025112482,0.0025112482,0.002503799,0.0025017792,1.000027,1.0000415,1.0,0.0,0.0,0.0,0.0,0.0,0.0
2016732000,2016580000,0.10537742,0.105571926,0.20784248,1.1255946,1.1261078,1.0878594,0.0,0.0,0.0,0.0,0.0,0.0,0.0,12.45941,0.0,0.0,0.0,0.0,0.0025112482,0.0025112482,0.002503799,0.0025017792,1.0000271,1.0000416,1.0,0.0,0.0,0.0,0.0,0.0,0.0
2016740000,2016588000,0.10537742,0.105571926,0.20784248,1.1255946,1.1261078,1.0878594,0.0,0.0,0.0,0.0,0.0,0.0,0.0,12.45941,0.0,0.0,0.0,0.0,0.0025112482,0.0025112482,0.002503799,0.0025017792,1.0000271,1.0000416,1.0,0.0,0.0,0.0,0.0,0.0,0.0
2016748000,2016596000,0.10537742,0.105571926,0.20784248,1.1255946,1.1261078,1.0878594,0.0,0.0,0.0,0.0,0.0,0.0,0.0,12.45941,0.0,0.0,0.0,0.0,0.0025112482,0.0025112482,0.002503799,0.0025017792,1.0000271,1.0000416,1.0,0.0,0.0,0.0,0.0,0.0,0.0
2016756000,2016604000,0.10537742,0.105571926,0.20784248,1.1255946,1.1261078,1.0878594,0.0,0.0,0.0,0.0,0.0,0.0,0.0,12.45941,0.0,0.0,0.0,0.0,0.0025112482,0.0025112482,0.002503799,0.0025017792,1.0000272,1.0000416,1.0,0.0,0.0,0.0,0.0,0.0,0.0
2016772000,2016620000,0.10537742,0.105571926,0.20784248,1.1255946,1.1261078,1.0878594,0.0,0.0,0.0,0.0,0.0,0.0,0.0,12.45941,0.0,0.0,0.0,0.0,0.0025112482,0.0025112482,0.002503799,0.0025017792,1.0000272,1.0000417,1.0,0.0,0.0,0.0,0.0,0.0,0.0
2016780000,2016628000,0.10537742,0.105571926,0.20784248,1.1255946,1.1261078,1.0878594,0.0,0.0,0.0,0.0,0.0,0.0,0.0,12.45941,0.0,0.0,0.0,0.0,0.0025112617,0.0025112617,0.0025038305,0.002501787,1.0000272,1.0000417,1.0,0.0,0.0,0.0,0.0,0.0,0.0
2016788000,2016636000,0.10537742,0.105571926,0.20784248,1.1255946,1.1261078,1.0878594,0.0,0.0,0.0,0.0,0.0,0.0,0.0,12.46095,0.0,0.0,0.0,0.0,0.0025112617,0.0025112617,0.0025038305,0.002501787,1.0000272,1.0000417,1.0,0.0,0.0,0.0,0.0,0.0,0.0
2016796000,2016644000,0.10537742,0.105571926,0.20784248,1.1255946,1.1261078,1.0878594,0.0,0.0,0.0,0.0,0.0,0.0,0.0,12.46095,0.0,0.0,0.0,0.0,0.0025112617,0.0025112617,0.0025038305,0.002501787,1.0000273,1.0000417,1.0,0.0,0.0,0.0,0.0,0.0,0.0
2016812000,2016660000,0.10537154,0.105568565,0.20783511,1.1255765,1.1260931,1.08761,0.0,0.0,0.0,0.0,0.0,0.0,0.0,12.46095,0.0,0.0,0.0,0.0,0.0025112617,0.0025112617,0.0025038305,0.002501787,1.0000261,1.0000405,1.0,0.0,0.0,0.0,0.0,0.0,0.0
2016820000,2016668000,0.10537154,0.105568565,0.20783511,1.1255765,1.1260931,1.08761,0.0,0.0,0.0,0.0,0.0,0.0,0.0,12.46095,0.0,0.0,0.0,0.0,0.0025112617,0.0025112617,0.0025038305,0.002501787,1.0000261,1.0000405,1.0,0.0,0.0,0.0,0.0,0.0,0.0
2016828000,2016676000,0.10537154,0.105568565,0.20783511,1.1255765,1.1260931,1.08761,0.0,0.0,0.0,0.0,0.0,0.0,0.0,12.46095,0.0,0.0,0.0,0.0,0.0025112617,0.0025112617,0.0025038305,0.002501787,1.0000261,1.0000407,1.0,0.0,0.0,0.0,0.0,0.0,0.0
2016836000,2016684000,0.10537154,0.105568565,0.20783511,1.1255765,1.1260931,1.08761,0.0,0.0,0.0,0.0,0.0,0.0,0.0,12.46095,0.0,0.0,0.0,0.0,0.0025112617,0.0025112617,0.0025038305,0.002501787,1.0000262,1.0000407,1.0,0.0,0.0,0.0,0.0,0.0,0.0
2016852000,2016700000,0.10537154,0.105568565,0.20783511,1.1255765,1.1260931,1.08761,0.0,0.0,0.0,0.0,0.0,0.0,0.0,12.45386,0.0,0.0,0.0,0.0,0.0025111542,0.0025111542,0.0025036624,0.002501744,1.0000262,1.0000407,1.0,0.0,0.0,0.0,0.0,0.0,0.0
2016860000,2016708000,0.10537154,0.105568565,0.20783511,1.1255765,1.1260931,1.08761,0.0,0.0,0.0,0.0,0.0,0.0,0.0,12.45386,0.0,0.0,0.0,0.0,0.0025111542,0.0025111542,0.0025036624,0.002501744,1.0000262,1.0000407,1.0,0.0,0.0,0.0,0.0,0.0,0.0
2016868000,2016716000,0.10537154,0.105568565,0.20783511,1.1255765,1.1260931,1.08761,0.0,0.0,0.0,0.0,0.0,0.0,0.0,12.45386,0.0,0.0,0.0,0.0,0.0025111542,0.0025111542,0.0025036624,0.002501744,1.0000262,1.0000408,1.0,0.0,0.0,0.0,0.0,0.0,0.0
2016876000,2016724000,0.10537154,0.105568565,0.20783511,1.1255765,1.1260931,1.08761,0.0,0.0,0.0,0.0,0.0,0.0,0.0,12.45386,0.0,0.0,0.0,0.0,0.0025111542,0.0025111542,0.0025036624,0.002501744,1.0000263,1.0000408,1.0,0.0,0.0,0.0,0.0,0.0,0.0
2016892000,2016740000,0.10537154,0.105568565,0.20783511,1.1255765,1.1260931,1.08761,0.0,0.0,0.0,0.0,0.0,0.0,0.0,12.45386,0.0,0.0,0.0,0.0,0.0025111542,0.0025111542,0.0025036624,0.002501744,1.0000263,1.0000408,1.0,0.0,0.0,0.0,0.0,0.0,0.0
2016900000,2016748000,0.10537154,0.105568565,0.20783511,1.1255765,1.1260931,1.08761,0.0,0.0,0.0,0.0,0.0,0.0,0.0,12.45386,0.0,0.0,0.0,0.0,0.0025111542,0.0025111542,0.0025036624,0.002501744,1.0000263,1.0000408,1.0,0.0,0.0,0.0,0.0,0.0,0.0
2016908000,2016756000,0.10537154,0.105568565,0.20783511,1.1255765,1.1260931,1.08761,0.0,0.0,0.0,0.0,0.0,0.0,0.0,12.454608,0.0,0.0,0.0,0.0,0.0025111542,0.0025111542,0.0025036624,0.002501744,1.0000263,1.0000409,1.0,0.0,0.0,0.0,0.0,0.0,0.0
2016916000,2016764000,0.10537154,0.105568565,0.20783511,1.1255765,1.1260931,1.08761,0.0,0.0,0.0,0.0,0.0,0.0,0.0,12.454608,0.0,0.0,0.0,0.0,0.002511173,0.002511173,0.0025036922,0.0025017532,1.0000265,1.0000409,1.0,0.0,0.0,0.0,0.0,0.0,0.0
2016932000,2016780000,0.10537154,0.105568565,0.20783511,1.1255765,1.1260931,1.08761,0.0,0.0,0.0,0.0,0.0,0.0,0.0,12.454608,0.0,0.0,0.0,0.0,0.002511173,0.002511173,0.0025036922,0.0025017532,1.0000265,1.000041,1.0,0.0,0.0,0.0,0.0,0.0,0.0
2016940000,2016788000,0.10537154,0.105568565,0.20783511,1.1255765,1.1260931,1.08761,0.0,0.0,0.0,0.0,0.0,0.0,0.0,12.454608,0.0,0.0,0.0,0.0,0.002511173,0.002511173,0.0025036922,0.0025017532,1.0000265,1.000041,1.0,0.0,0.0,0.0,0.0,0.0,0.0
2016948000,2016796000,0.10537154,0.105568565,0.20783511,1.1255765,1.1260931,1.08761,0.0,0.0,0.0,0.0,0.0,0.0,0.0,12.454608,0.0,0.0,0.0,0.0,0.002511173,0.002511173,0.0025036922,0.0025017532,1.0000265,1.0000411,1.0,0.0,0.0,0.0,0.0,0.0,0.0
2016956000,2016804000,0.10537154,0.105568565,0.20783511,1.1255765,1.1260931,1.08761,0.0,0.0,0.0,0.0,0.0,0.0,0.0,12.454608,0.0,0.0,0.0,0.0,0.002511173,0.002511173,0.0025036922,0.0025017532,1.0000266,1.0000411,1.0,0.0,0.0,0.0,0.0,0.0,0.0
2016972000,2016820000,0.10537154,0.105568565,0.20783511,1.1255765,1.1260931,1.08761,0.0,0.0,0.0,0.0,0.0,0.0,0.0,12.454608,0.0,0.0,0.0,0.0,0.002511173,0.002511173,0.0025036922,0.0025017532,1.0000266,1.0000411,1.0,0.0,0.0,0.0,0.0,0.0,0.0
2016980000,2016828000,0.10537154,0.105568565,0.20783511,1.1255765,1.1260931,1.08761,0.0,0.0,0.0,0.0,0.0,0.0,0.0,12.456093,0.0,0.0,0.0,0.0,0.002511173,0.002511173,0.0025036922,0.0025017532,1.0000266,1.0000411,1.0,0.0,0.0,0.0,0.0,0.0,0.0
2016988000,2016836000,0.10537154,0.105568565,0.20783511,1.1255765,1.1260931,1.08761,0.0,0.0,0.0,0.0,0.0,0.0,0.0,12.456093,0.0,0.0,0.0,0.0,0.0025111944,0.0025111944,0.0025037292,0.002501762,1.0000266,1.0000411,1.0,0.0,0.0,0.0,0.0,0.0,0.0
2016996000,2016844000,0.10537154,0.105568565,0.20783511,1.1255765,1.1260931,1.08761,0.0,0.0,0.0,0.0,0.0,0.0,0.0,12.456093,0.0,0.0,0.0,0.0,0.0025111944,0.0025111944,0.0025037292,0.002501762,1.0000267,1.0000412,1.0,0.0,0.0,0.0,0.0,0.0,0.0
2017012000,2016860000,0.10537154,0.105568565,0.20783511,1.1255765,1.1260931,1.08761,0.0,0.0,0.0,0.0,0.0,0.0,0.0,12.456093,0.0,0.0,0.0,0.0,0.0025111944,0.0025111944,0.0025037292,0.002501762,1.0000267,1.0000412,1.0,0.0,0.0,0.0,0.0,0.0,0.0
2017020000,2016868000,0.10537154,0.105568565,0.20783511,1.1255765,1.1260931,1.08761,0.0,0.0,0.0,0.0,0.0,0.0,0.0,12.456093,0.0,0.0,0.0,0.0,0.0025111944,0.0025111944,0.0025037292,0.002501762,1.0000267,1.0000412,1.0,0.0,0.0,0.0,0.0,0.0,0.0
2017028000,2016876000,0.10537154,0.105568565,0.20783511,1.1255765,1.1260931,1.08761,0.0,0.0,0.0,0.0,0.0,0.0,0.0,12.456093,0.0,0.0,0.0,0.0,0.0025111944,0.0025111944,0.0025037292,0.002501762,1.0000267,1.0000412,1.0,0.0,0.0,0.0,0.0,0.0,0.0
2017036000,2016884000,0.10537154,0.105568565,0.20783511,1.1255765,1.1260931,1.08761,0.0,0.0,0.0,0.0,0.0,0.0,0.0,12.456093,0.0,0.0,0.0,0.0,0.0025111944,0.0025111944,0.0025037292,0.002501762,1.0000268,1.0000414,1.0,0.0,0.0,0.0,0.0,0.0,0.0
2017052000,2016900000,0.10537154,0.105568565,0.20783511,1.1255765,1.1260931,1.08761,0.0,0.0,0.0,0.0,0.0,0.0,0.0,12.457598,0.0,0.0,0.0,0.0,0.0025111944,0.0025111944,0.0025037292,0.002501762,1.0000268,1.0000414,1.0,0.0,0.0,0.0,0.0,0.0,0.0
2017060000,2016908000,0.10537154,0.105568565,0.20783511,1.1255765,1.1260931,1.08761,0.0,0.0,0.0,0.0,0.0,0.0,0.0,12.457598,0.0,0.0,0.0,0.0,0.0025112214,0.0025112214,0.002503767,0.0025017706,1.0000268,1.0000414,1.0,0.0,0.0,0.0,0.0,0.0,0.0
2017068000,2016916000,0.10537154,0.105568565,0.20783511,1.1255765,1.1260931,1.08761,0.0,0.0,0.0,0.0,0.0,0.0,0.0,12.457598,0.0,0.0,0.0,0.0,0.0025112214,0.0025112214,0.002503767,0.0025017706,1.0000268,1.0000414,1.0,0.0,0.0,0.0,0.0,0.0,0.0
2017076000,2016924000,0.10537154,0.105568565,0.20783511,1.1255765,1.1260931,1.08761,0.0,0.0,0.0,0.0,0.0,0.0,0.0,12.457598,0.0,0.0,0.0,0.0,0.0025112214,0.0025112214,0.002503767,0.0025017706,1.000027,1.0000415,1.0,0.0,0.0,0.0,0.0,0.0,0.0
2017092000,2016940000,0.10537154,0.105568565,0.20783511,1.1255765,1.1260931,1.08761,0.0,0.0,0.0,0.0,0.0,0.0,0.0,12.457598,0.0,0.0,0.0,0.0,0.0025112214,0.0025112214,0.002503767,0.0025017706,1.000027,1.0000415,1.0,0.0,0.0,0.0,0.0,0.0,0.0
2017100000,2016948000,0.10537154,0.105568565,0.20783511,1.1255765,1.1260931,1.08761,0.0,0.0,0.0,0.0,0.0,0.0,0.0,12.457598,0.0,0.0,0.0,0.0,0.0025112214,0.0025112214,0.002503767,0.0025017706,1.000027,1.0000415,1.0,0.0,0.0,0.0,0.0,0.0,0.0
2017108000,2016956000,0.10537154,0.105568565,0.20783511,1.1255765,1.1260931,1.08761,0.0,0.0,0.0,0.0,0.0,0.0,0.0,12.457598,0.0,0.0,0.0,0.0,0.0025112214,0.0025112214,0.002503767,0.0025017706,1.000027,1.0000415,1.0,0.0,0.0,0.0,0.0,0.0,0.0
2017116000,2016964000,0.10537154,0.105568565,0.20783511,1.1255765,1.1260931,1.08761,0.0,0.0,0.0,0.0,0.0,0.0,0.0,12.457598,0.0,0.0,0.0,0.0,0.0025112214,0.0025112214,0.002503767,0.0025017706,1.0000271,1.0000416,1.0,0.0,0.0,0.0,0.0,0.0,0.0
2017132000,2016980000,0.10537154,0.105568565,0.20783511,1.1255765,1.1260931,1.08761,0.0,0.0,0.0,0.0,0.0,0.0,0.0,12.459125,0.0,0.0,0.0,0.0,0.0025112396,0.0025112396,0.0025037983,0.002501779,1.0000271,1.0000416,1.0,0.0,0.0,0.0,0.0,0.0,0.0
2017140000,2016988000,0.10537154,0.105568565,0.20783511,1.1255765,1.1260931,1.08761,0.0,0.0,0.0,0.0,0.0,0.0,0.0,12.459125,0.0,0.0,0.0,0.0,0.0025112396,0.0025112396,0.0025037983,0.002501779,1.0000271,1.0000416,1.0,0.0,0.0,0.0,0.0,0.0,0.0
2017148000,2016996000,0.10537154,0.105568565,0.20783511,1.1255765,1.1260931,1.08761,0.0,0.0,0.0,0.0,0.0,0.0,0.0,12.459125,0.0,0.0,0.0,0.0,0.0025112396,0.0025112396,0.0025037983,0.002501779,1.0000271,1.0000416,1.0,0.0,0.0,0.0,0.0,0.0,0.0
2017156000,2017004000,0.10537154,0.105568565,0.20783511,1.1255765,1.1260931,1.08761,0.0,0.0,0.0,0.0,0.0,0.0,0.0,12.459125,0.0,0.0,0.0,0.0,0.0025112396,0.0025112396,0.0025037983,0.002501779,1.0000272,1.0000417,1.0,0.0,0.0,0.0,0.0,0.0,0.0
2017172000,2017020000,0.10537154,0.105568565,0.20783511,1.1255765,1.1260931,1.08761,0.0,0.0,0.0,0.0,0.0,0.0,0.0,12.459125,0.0,0.0,0.0,0.0,0.0025112396,0.0025112396,0.0025037983,0.002501779,1.0000272,1.0000417,1.0,0.0,0.0,0.0,0.0,0.0,0.0
2017180000,2017028000,0.10537154,0.105568565,0.20783511,1.1255765,1.1260931,1.08761,0.0,0.0,0.0,0.0,0.0,0.0,0.0,12.459125,0.0,0.0,0.0,0.0,0.0025112396,0.0025112396,0.0025037983,0.002501779,1.0000272,1.0000417,1.0,0.0,0.0,0.0,0.0,0.0,0.0
2017188000,2017036000,0.10537154,0.105568565,0.20783511,1.1255765,1.1260931,1.08761,0.0,0.0,0.0,0.0,0.0,0.0,0.0,12.459125,0.0,0.0,0.0,0.0,0.0025112396,0.0025112396,0.0025037983,0.002501779,1.0000272,1.0000417,1.0,0.0,0.0,0.0,0.0,0.0,0.0
2017196000,2017044000,0.10537154,0.105568565,0.20783511,1.1255765,1.1260931,1.08761,0.0,0.0,0.0,0.0,0.0,0.0,0.0,12.4606695,0.0,0.0,0.0,0.0,0.0025112613,0.0025112613,0.0025038358,0.0025017885,1.0000273,1.0000417,1.0,0.0,0.0,0.0,0.0,0.0,0.0
2017212000,2017060000,0.105362855,0.10556346,0.20782894,1.1255596,1.1260805,1.0873804,0.0,0.0,0.0,0.0,0.0,0.0,0.0,12.4606695,0.0,0.0,0.0,0.0,0.0025112613,0.0025112613,0.0025038358,0.0025017885,1.0000261,1.0000405,1.0,0.0,0.0,0.0,0.0,0.0,0.0
2017220000,2017068000,0.105362855,0.10556346,0.20782894,1.1255596,1.1260805,1.0873804,0.0,0.0,0.0,0.0,0.0,0.0,0.0,12.4606695,0.0,0.0,0.0,0.0,0.0025112613,0.0025112613,0.0025038358,0.0025017885,1.0000261,1.0000405,1.0,0.0,0.0,0.0,0.0,0.0,0.0
2017228000,2017076000,0.105362855,0.10556346,0.20782894,1.1255596,1.1260805,1.0873804,0.0,0.0,0.0,0.0,0.0,0.0,0.0,12.4606695,0.0,0.0,0.0,0.0,0.0025112613,0.0025112613,0.0025038358,0.0025017885,1.0000261,1.0000407,1.0,0.0,0.0,0.0,0.0,0.0,0.0
2017236000,2017084000,0.105362855,0.10556346,0.20782894,1.1255596,1.1260805,1.0873804,0.0,0.0,0.0,0.0,0.0,0.0,0.0,12.4606695,0.0,0.0,0.0,0.0,0.0025112613,0.0025112613,0.0025038358,0.0025017885,1.0000262,1.0000407,1.0,0.0,0.0,0.0,0.0,0.0,0.0
2017252000,2017100000,0.105362855,0.10556346,0.20782894,1.1255596,1.1260805,1.0873804,0.0,0.0,0.0,0.0,0.0,0.0,0.0,12.4606695,0.0,0.0,0.0,0.0,0.0025112613,0.0025112613,0.0025038358,0.0025017885,1.0000262,1.0000407,1.0,0.0,0.0,0.0,0.0,0.0,0.0
2017260000,2017108000,0.105362855,0.10556346,0.20782894,1.1255596,1.1260805,1.0873804,0.0,0.0,0.0,0.0,0.0,0.0,0.0,12.4606695,0.0,0.0,0.0,0.0,0.0025112613,0.0025112613,0.0025038358,0.0025017885,1.0000262,1.0000407,1.0,0.0,0.0,0.0,0.0,0.0,0.0
2017268000,2017116000,0.105362855,0.10556346,0.20782894,1.1255596,1.1260805,1.0873804,0.0,0.0,0.0,0.0,0.0,0.0,0.0,12.453956,0.0,0.0,0.0,0.0,0.0025111532,0.0025111532,0.00250367,0.002501745,1.0000262,1.0000408,1.0,0.0,0.0,0.0,0.0,0.0,0.0
2017276000,2017124000,0.105362855,0.10556346,0.20782894,1.1255596,1.1260805,1.0873804,0.0,0.0,0.0,0.0,0.0,0.0,0.0,12.453956,0.0,0.0,0.0,0.0,0.0025111532,0.0025111532,0.00250367,0.002501745,1.0000263,1.0000408,1.0,0.0,0.0,0.0,0.0,0.0,0.0
2017292000,2017140000,0.105362855,0.10556346,0.20782894,1.1255596,1.1260805,1.0873804,0.0,0.0,0.0,0.0,0.0,0.0,0.0,12.453956,0.0,0.0,0.0,0.0,0.0025111532,0.0025111532,0.00250367,0.002501745,1.0000263,1.0000408,1.0,0.0,0.0,0.0,0.0,0.0,0.0
2017300000,2017148000,0.105362855,0.10556346,0.20782894,1.1255596,1.1260805,1.0873804,0.0,0.0,0.0,0.0,0.0,0.0,0.0,12.453956,0.0,0.0,0.0,0.0,0.0025111532,0.0025111532,0.00250367,0.002501745,1.0000263,1.0000409,1.0,0.0,0.0,0.0,0.0,0.0,0.0
2017308000,2017156000,0.105362855,0.10556346,0.20782894,1.1255596,1.1260805,1.0873804,0.0,0.0,0.0,0.0,0.0,0.0,0.0,12.453956,0.0,0.0,0.0,0.0,0.0025111532,0.0025111532,0.00250367,0.002501745,1.0000263,1.000041,1.0,0.0,0.0,0.0,0.0,0.0,0.0
2017316000,2017164000,0.105362855,0.10556346,0.20782894,1.1255596,1.1260805,1.0873804,0.0,0.0,0.0,0.0,0.0,0.0,0.0,12.453956,0.0,0.0,0.0,0.0,0.0025111532,0.0025111532,0.00250367,0.002501745,1.0000265,1.000041,1.0,0.0,0.0,0.0,0.0,0.0,0.0
2017332000,2017180000,0.105362855,0.10556346,0.20782894,1.1255596,1.1260805,1.0873804,0.0,0.0,0.0,0.0,0.0,0.0,0.0,12.453956,0.0,0.0,0.0,0.0,0.0025111532,0.0025111532,0.00250367,0.002501745,1.0000265,1.000041,1.0,0.0,0.0,0.0,0.0,0.0,0.0
2017340000,2017188000,0.105362855,0.10556346,0.20782894,1.1255596,1.1260805,1.0873804,0.0,0.0,0.0,0.0,0.0,0.0,0.0,12.455426,0.0,0.0,0.0,0.0,0.0025111798,0.0025111798,0.0025037068,0.0025017543,1.0000265,1.000041,1.0,0.0,0.0,0.0,0.0,0.0,0.0
2017348000,2017196000,0.105362855,0.10556346,0.20782894,1.1255596,1.1260805,1.0873804,0.0,0.0,0.0,0.0,0.0,0.0,0.0,12.455426,0.0,0.0,0.0,0.0,0.0025111798,0.0025111798,0.0025037068,0.0025017543,1.0000265,1.000041,1.0,0.0,0.0,0.0,0.0,0.0,0.0
2017356000,2017204000,0.105362855,0.10556346,0.20782894,1.1255596,1.1260805,1.0873804,0.0,0.0,0.0,0.0,0.0,0.0,0.0,12.455426,0.0,0.0,0.0,0.0,0.0025111798,0.0025111798,0.0025037068,0.0025017543,1.0000266,1.0000411,1.0,0.0,0.0,0.0,0.0,0.0,0.0
2017372000,2017220000,0.105362855,0.10556346,0.20782894,1.1255596,1.1260805,1.0873804,0.0,0.0,0.0,0.0,0.0,0.0,0.0,12.455426,0.0,0.0,0.0,0.0,0.0025111798,0.0025111798,0.0025037068,0.0025017543,1.0000266,1.0000411,1.0,0.0,0.0,0.0,0.0,0.0,0.0
2017380000,2017228000,0.105362855,0.10556346,0.20782894,1.1255596,1.1260805,1.0873804,0.0,0.0,0.0,0.0,0.0,0.0,0.0,12.455426,0.0,0.0,0.0,0.0,0.0025111798,0.0025111798,0.0025037068,0.0025017543,1.0000266,1.0000411,1.0,0.0,0.0,0.0,0.0,0.0,0.0
2017388000,2017236000,0.105362855,0.10556346,0.20782894,1.1255596,1.1260805,1.0873804,0.0,0.0,0.0,0.0,0.0,0.0,0.0,12.455426,0.0,0.0,0.0,0.0,0.0025111798,0.0025111798,0.0025037068,0.0025017543,1.0000266,1.0000411,1.0,0.0,0.0,0.0,0.0,0.0,0.0
2017396000,2017244000,0.105362855,0.10556346,0.20782894,1.1255596,1.1260805,1.0873804,0.0,0.0,0.0,0.0,0.0,0.0,0.0,12.455426,0.0,0.0,0.0,0.0,0.0025111798,0.0025111798,0.0025037068,0.0025017543,1.0000267,1.0000412,1.0,0.0,0.0,0.0,0.0,0.0,0.0
2017412000,2017260000,0.105362855,0.10556346,0.20782894,1.1255596,1.1260805,1.0873804,0.0,0.0,0.0,0.0,0.0,0.0,0.0,12.456919,0.0,0.0,0.0,0.0,0.0025112014,0.0025112014,0.0025037422,0.0025017648,1.0000267,1.0000412,1.0,0.0,0.0,0.0,0.0,0.0,0.0
2017420000,2017268000,0.105362855,0.10556346,0.20782894,1.1255596,1.1260805,1.0873804,0.0,0.0,0.0,0.0,0.0,0.0,0.0,12.456919,0.0,0.0,0.0,0.0,0.0025112014,0.0025112014,0.0025037422,0.0025017648,1.0000267,1.0000412,1.0,0.0,0.0,0.0,0.0,0.0,0.0
2017428000,2017276000,0.105362855,0.10556346,0.20782894,1.1255596,1.1260805,1.0873804,0.0,0.0,0.0,0.0,0.0,0.0,0.0,12.456919,0.0,0.0,0.0,0.0,0.0025112014,0.0025112014,0.0025037422,0.0025017648,1.0000267,1.0000412,1.0,0.0,0.0,0.0,0.0,0.0,0.0
2017436000,2017284000,0.105362855,0.10556346,0.20782894,1.1255596,1.1260805,1.0873804,0.0,0.0,0.0,0.0,0.0,0.0,0.0,12.456919,0.0,0.0,0.0,0.0,0.0025112014,0.0025112014,0.0025037422,0.0025017648,1.0000268,1.0000414,1.0,0.0,0.0,0.0,0.0,0.0,0.0
2017452000,2017300000,0.105362855,0.10556346,0.20782894,1.1255596,1.1260805,1.0873804,0.0,0.0,0.0,0.0,0.0,0.0,0.0,12.456919,0.0,0.0,0.0,0.0,0.0025112014,0.0025112014,0.0025037422,0.0025017648,1.0000268,1.0000414,1.0,0.0,0.0,0.0,0.0,0.0,0.0
2017460000,2017308000,0.105362855,0.10556346,0.20782894,1.1255596,1.1260805,1.0873804,0.0,0.0,0.0,0.0,0.0,0.0,0.0,12.456919,0.0,0.0,0.0,0.0,0.0025112014,0.0025112014,0.0025037422,0.0025017648,1.0000268,1.0000414,1.0,0.0,0.0,0.0,0.0,0.0,0.0
2017468000,2017316000,0.105362855,0.10556346,0.20782894,1.1255596,1.1260805,1.0873804,0.0,0.0,0.0,0.0,0.0,0.0,0.0,12.456919,0.0,0.0,0.0,0.0,0.0025112014,0.0025112014,0.0025037422,0.0025017648,1.0000268,1.0000414,1.0,0.0,0.0,0.0,0.0,0.0,0.0
2017476000,2017324000,0.105362855,0.10556346,0.20782894,1.1255596,1.1260805,1.0873804,0.0,0.0,0.0,0.0,0.0,0.0,0.0,12.456919,0.0,0.0,0.0,0.0,0.0025112014,0.0025112014,0.0025037422,0.0025017648,1.000027,1.0000415,1.0,0.0,0.0,0.0,0.0,0.0,0.0
2017492000,2017340000,0.105362855,0.10556346,0.20782894,1.1255596,1.1260805,1.0873804,0.0,0.0,0.0,0.0,0.0,0.0,0.0,12.458432,0.0,0.0,0.0,0.0,0.0025112284,0.0025112284,0.0025037793,0.0025017743,1.000027,1.0000415,1.0,0.0,0.0,0.0,0.0,0.0,0.0
2017500000,2017348000,0.105362855,0.10556346,0.20782894,1.1255596,1.1260805,1.0873804,0.0,0.0,0.0,0.0,0.0,0.0,0.0,12.458432,0.0,0.0,0.0,0.0,0.0025112284,0.0025112284,0.0025037793,0.0025017743,1.000027,1.0000415,1.0,0.0,0.0,0.0,0.0,0.0,0.0
2017508000,2017356000,0.105362855,0.10556346,0.20782894,1.1255596,1.1260805,1.0873804,0.0,0.0,0.0,0.0,0.0,0.0,0.0,12.458432,0.0,0.0,0.0,0.0,0.0025112284,0.0025112284,0.0025037793,0.0025017743,1.000027,1.0000415,1.0,0.0,0.0,0.0,0.0,0.0,0.0
2017516000,2017364000,0.105362855,0.10556346,0.20782894,1.1255596,1.1260805,1.0873804,0.0,0.0,0.0,0.0,0.0,0.0,0.0,12.458432,0.0,0.0,0.0,0.0,0.0025112284,0.0025112284,0.0025037793,0.0025017743,1.0000271,1.0000415,1.0,0.0,0.0,0.0,0.0,0.0,0.0
2017532000,2017380000,0.105362855,0.10556346,0.20782894,1.1255596,1.1260805,1.0873804,0.0,0.0,0.0,0.0,0.0,0.0,0.0,12.458432,0.0,0.0,0.0,0.0,0.0025112284,0.0025112284,0.0025037793,0.0025017743,1.0000271,1.0000416,1.0,0.0,0.0,0.0,0.0,0.0,0.0
2017540000,2017388000,0.105362855,0.10556346,0.20782894,1.1255596,1.1260805,1.0873804,0.0,0.0,0.0,0.0,0.0,0.0,0.0,12.458432,0.0,0.0,0.0,0.0,0.0025112284,0.0025112284,0.0025037793,0.0025017743,1.0000271,1.0000416,1.0,0.0,0.0,0.0,0.0,0.0,0.0
2017548000,2017396000,0.105362855,0.10556346,0.20782894,1.1255596,1.1260805,1.0873804,0.0,0.0,0.0,0.0,0.0,0.0,0.0,12.458432,0.0,0.0,0.0,0.0,0.0025112454,0.0025112454,0.0025038116,0.0025017834,1.0000271,1.0000416,1.0,0.0,0.0,0.0,0.0,0.0,0.0
2017556000,2017404000,0.105362855,0.10556346,0.20782894,1.1255596,1.1260805,1.0873804,0.0,0.0,0.0,0.0,0.0,0.0,0.0,12.459965,0.0,0.0,0.0,0.0,0.0025112454,0.0025112454,0.0025038116,0.0025017834,1.0000272,1.0000416,1.0,0.0,0.0,0.0,0.0,0.0,0.0
2017572000,2017420000,0.105362855,0.10556346,0.20782894,1.1255596,1.1260805,1.0873804,0.0,0.0,0.0,0.0,0.0,0.0,0.0,12.459965,0.0,0.0,0.0,0.0,0.0025112454,0.0025112454,0.0025038116,0.0025017834,1.0000272,1.0000417,1.0,0.0,0.0,0.0,0.0,0.0,0.0
2017580000,2017428000,0.105362855,0.10556346,0.20782894,1.1255596,1.1260805,1.0873804,0.0,0.0,0.0,0.0,0.0,0.0,0.0,12.459965,0.0,0.0,0.0,0.0,0.0025112454,0.0025112454,0.0025038116,0.0025017834,1.0000272,1.0000417,1.0,0.0,0.0,0.0,0.0,0.0,0.0
2017588000,2017436000,0.105362855,0.10556346,0.20782894,1.1255596,1.1260805,1.0873804,0.0,0.0,0.0,0.0,0.0,0.0,0.0,12.459965,0.0,0.0,0.0,0.0,0.0025112454,0.0025112454,0.0025038116,0.0025017834,1.0000272,1.0000417,1.0,0.0,0.0,0.0,0.0,0.0,0.0
2017596000,2017444000,0.105362855,0.10556346,0.20782894,1.1255596,1.1260805,1.0873804,0.0,0.0,0.0,0.0,0.0,0.0,0.0,12.459965,0.0,0.0,0.0,0.0,0.0025112454,0.0025112454,0.0025038116,0.0025017834,1.0000273,1.0000417,1.0,0.0,0.0,0.0,0.0,0.0,0.0
2017612000,2017460000,0.1053671,0.10556547,0.20784077,1.125559,1.1260756,1.0877684,0.0,0.0,0.0,0.0,0.0,0.0,0.0,12.459965,0.0,0.0,0.0,0.0,0.0025112454,0.0025112454,0.0025038116,0.0025017834,1.0000261,1.0000405,1.0,0.0,0.0,0.0,0.0,0.0,0.0
2017620000,2017468000,0.1053671,0.10556547,0.20784077,1.125559,1.1260756,1.0877684,0.0,0.0,0.0,0.0,0.0,0.0,0.0,12.452944,0.0,0.0,0.0,0.0,0.0025111332,0.0025111332,0.0025036444,0.0025017404,1.0000261,1.0000405,1.0,0.0,0.0,0.0,0.0,0.0,0.0
2017628000,2017476000,0.1053671,0.10556547,0.20784077,1.125559,1.1260756,1.0877684,0.0,0.0,0.0,0.0,0.0,0.0,0.0,12.452944,0.0,0.0,0.0,0.0,0.0025111332,0.0025111332,0.0025036444,0.0025017404,1.0000261,1.0000407,1.0,0.0,0.0,0.0,0.0,0.0,0.0
2017636000,2017484000,0.1053671,0.10556547,0.20784077,1.125559,1.1260756,1.0877684,0.0,0.0,0.0,0.0,0.0,0.0,0.0,12.452944,0.0,0.0,0.0,0.0,0.0025111332,0.0025111332,0.0025036444,0.0025017404,1.0000262,1.0000407,1.0,0.0,0.0,0.0,0.0,0.0,0.0
2017652000,2017500000,0.1053671,0.10556547,0.20784077,1.125559,1.1260756,1.0877684,0.0,0.0,0.0,0.0,0.0,0.0,0.0,12.452944,0.0,0.0,0.0,0.0,0.0025111332,0.0025111332,0.0025036444,0.0025017404,1.0000262,1.0000407,1.0,0.0,0.0,0.0,0.0,0.0,0.0
2017660000,2017508000,0.1053671,0.10556547,0.20784077,1.125559,1.1260756,1.0877684,0.0,0.0,0.0,0.0,0.0,0.0,0.0,12.452944,0.0,0.0,0.0,0.0,0.0025111332,0.0025111332,0.0025036444,0.0025017404,1.0000262,1.0000407,1.0,0.0,0.0,0.0,0.0,0.0,0.0
2017668000,2017516000,0.1053671,0.10556547,0.20784077,1.125559,1.1260756,1.0877684,0.0,0.0,0.0,0.0,0.0,0.0,0.0,12.452944,0.0,0.0,0.0,0.0,0.0025111332,0.0025111332,0.0025036444,0.0025017404,1.0000262,1.0000408,1.0,0.0,0.0,0.0,0.0,0.0,0.0
2017676000,2017524000,0.1053671,0.10556547,0.20784077,1.125559,1.1260756,1.0877684,0.0,0.0,0.0,0.0,0.0,0.0,0.0,12.45369,0.0,0.0,0.0,0.0,0.0025111332,0.0025111332,0.0025036444,0.0025017404,1.0000263,1.0000409,1.0,0.0,0.0,0.0,0.0,0.0,0.0
2017692000,2017540000,0.1053671,0.10556547,0.20784077,1.125559,1.1260756,1.0877684,0.0,0.0,0.0,0.0,0.0,0.0,0.0,12.45369,0.0,0.0,0.0,0.0,0.0025111602,0.0025111602,0.0025036812,0.0025017494,1.0000263,1.0000409,1.0,0.0,0.0,0.0,0.0,0.0,0.0
2017700000,2017548000,0.1053671,0.10556547,0.20784077,1.125559,1.1260756,1.0877684,0.0,0.0,0.0,0.0,0.0,0.0,0.0,12.45369,0.0,0.0,0.0,0.0,0.0025111602,0.0025111602,0.0025036812,0.0025017494,1.0000263,1.0000409,1.0,0.0,0.0,0.0,0.0,0.0,0.0
2017708000,2017556000,0.1053671,0.10556547,0.20784077,1.125559,1.1260756,1.0877684,0.0,0.0,0.0,0.0,0.0,0.0,0.0,12.45369,0.0,0.0,0.0,0.0,0.0025111602,0.0025111602,0.0025036812,0.0025017494,1.0000263,1.0000409,1.0,0.0,0.0,0.0,0.0,0.0,0.0
2017716000,2017564000,0.1053671,0.10556547,0.20784077,1.125559,1.1260756,1.0877684,0.0,0.0,0.0,0.0,0.0,0.0,0.0,12.45369,0.0,0.0,0.0,0.0,0.0025111602,0.0025111602,0.0025036812,0.0025017494,1.0000265,1.000041,1.0,0.0,0.0,0.0,0.0,0.0,0.0
2017732000,2017580000,0.1053671,0.10556547,0.20784077,1.125559,1.1260756,1.0877684,0.0,0.0,0.0,0.0,0.0,0.0,0.0,12.45369,0.0,0.0,0.0,0.0,0.0025111602,0.0025111602,0.0025036812,0.0025017494,1.0000265,1.000041,1.0,0.0,0.0,0.0,0.0,0.0,0.0
2017740000,2017588000,0.1053671,0.10556547,0.20784077,1.125559,1.1260756,1.0877684,0.0,0.0,0.0,0.0,0.0,0.0,0.0,12.454807,0.0,0.0,0.0,0.0,0.0025111602,0.0025111602,0.0025036812,0.0025017494,1.0000265,1.000041,1.0,0.0,0.0,0.0,0.0,0.0,0.0
2017748000,2017596000,0.1053671,0.10556547,0.20784077,1.125559,1.1260756,1.0877684,0.0,0.0,0.0,0.0,0.0,0.0,0.0,12.454807,0.0,0.0,0.0,0.0,0.0025111602,0.0025111602,0.0025036812,0.0025017494,1.0000265,1.0000411,1.0,0.0,0.0,0.0,0.0,0.0,0.0
2017756000,2017604000,0.1053671,0.10556547,0.20784077,1.125559,1.1260756,1.0877684,0.0,0.0,0.0,0.0,0.0,0.0,0.0,12.454807,0.0,0.0,0.0,0.0,0.0025111602,0.0025111602,0.0025036812,0.0025017494,1.0000266,1.0000411,1.0,0.0,0.0,0.0,0.0,0.0,0.0
2017772000,2017620000,0.1053671,0.10556547,0.20784077,1.125559,1.1260756,1.0877684,0.0,0.0,0.0,0.0,0.0,0.0,0.0,12.454807,0.0,0.0,0.0,0.0,0.0025111826,0.0025111826,0.0025037182,0.0025017576,1.0000266,1.0000411,1.0,0.0,0.0,0.0,0.0,0.0,0.0
2017780000,2017628000,0.1053671,0.10556547,0.20784077,1.125559,1.1260756,1.0877684,0.0,0.0,0.0,0.0,0.0,0.0,0.0,12.454807,0.0,0.0,0.0,0.0,0.0025111826,0.0025111826,0.0025037182,0.0025017576,1.0000266,1.0000411,1.0,0.0,0.0,0.0,0.0,0.0,0.0
2017788000,2017636000,0.1053671,0.10556547,0.20784077,1.125559,1.1260756,1.0877684,0.0,0.0,0.0,0.0,0.0,0.0,0.0,12.454807,0.0,0.0,0.0,0.0,0.0025111826,0.0025111826,0.0025037182,0.0025017576,1.0000266,1.0000411,1.0,0.0,0.0,0.0,0.0,0.0,0.0
2017796000,2017644000,0.1053671,0.10556547,0.20784077,1.125559,1.1260756,1.0877684,0.0,0.0,0.0,0.0,0.0,0.0,0.0,12.455581,0.0,0.0,0.0,0.0,0.0025111826,0.0025111826,0.0025037182,0.0025017576,1.0000267,1.0000412,1.0,0.0,0.0,0.0,0.0,0.0,0.0
2017812000,2017660000,0.1053671,0.10556547,0.20784077,1.125559,1.1260756,1.0877684,0.0,0.0,0.0,0.0,0.0,0.0,0.0,12.455581,0.0,0.0,0.0,0.0,0.0025111826,0.0025111826,0.0025037182,0.0025017576,1.0000267,1.0000412,1.0,0.0,0.0,0.0,0.0,0.0,0.0
2017820000,2017668000,0.1053671,0.10556547,0.20784077,1.125559,1.1260756,1.0877684,0.0,0.0,0.0,0.0,0.0,0.0,0.0,12.455581,0.0,0.0,0.0,0.0,0.0025111826,0.0025111826,0.0025037182,0.0025017576,1.0000267,1.0000412,1.0,0.0,0.0,0.0,0.0,0.0,0.0
2017828000,2017676000,0.1053671,0.10556547,0.20784077,1.125559,1.1260756,1.0877684,0.0,0.0,0.0,0.0,0.0,0.0,0.0,12.455581,0.0,0.0,0.0,0.0,0.0025112014,0.0025112014,0.0025037488,0.0025017674,1.0000267,1.0000412,1.0,0.0,0.0,0.0,0.0,0.0,0.0
2017836000,2017684000,0.1053671,0.10556547,0.20784077,1.125559,1.1260756,1.0877684,0.0,0.0,0.0,0.0,0.0,0.0,0.0,12.455581,0.0,0.0,0.0,0.0,0.0025112014,0.0025112014,0.0025037488,0.0025017674,1.0000268,1.0000414,1.0,0.0,0.0,0.0,0.0,0.0,0.0
2017852000,2017700000,0.1053671,0.10556547,0.20784077,1.125559,1.1260756,1.0877684,0.0,0.0,0.0,0.0,0.0,0.0,0.0,12.455581,0.0,0.0,0.0,0.0,0.0025112014,0.0025112014,0.0025037488,0.0025017674,1.0000268,1.0000414,1.0,0.0,0.0,0.0,0.0,0.0,0.0
2017860000,2017708000,0.1053671,0.10556547,0.20784077,1.125559,1.1260756,1.0877684,0.0,0.0,0.0,0.0,0.0,0.0,0.0,12.455581,0.0,0.0,0.0,0.0,0.0025112014,0.0025112014,0.0025037488,0.0025017674,1.0000268,1.0000414,1.0,0.0,0.0,0.0,0.0,0.0,0.0
2017868000,2017716000,0.1053671,0.10556547,0.20784077,1.125559,1.1260756,1.0877684,0.0,0.0,0.0,0.0,0.0,0.0,0.0,12.457099,0.0,0.0,0.0,0.0,0.0025112014,0.0025112014,0.0025037488,0.0025017674,1.0000268,1.0000414,1.0,0.0,0.0,0.0,0.0,0.0,0.0
2017876000,2017724000,0.1053671,0.10556547,0.20784077,1.125559,1.1260756,1.0877684,0.0,0.0,0.0,0.0,0.0,0.0,0.0,12.457099,0.0,0.0,0.0,0.0,0.0025112014,0.0025112014,0.0025037488,0.0025017674,1.000027,1.0000415,1.0,0.0,0.0,0.0,0.0,0.0,0.0
2017892000,2017740000,0.1053671,0.10556547,0.20784077,1.125559,1.1260756,1.0877684,0.0,0.0,0.0,0.0,0.0,0.0,0.0,12.457099,0.0,0.0,0.0,0.0,0.0025112014,0.0025112014,0.0025037488,0.0025017674,1.000027,1.0000415,1.0,0.0,0.0,0.0,0.0,0.0,0.0
2017900000,2017748000,0.1053671,0.10556547,0.20784077,1.125559,1.1260756,1.0877684,0.0,0.0,0.0,0.0,0.0,0.0,0.0,12.457099,0.0,0.0,0.0,0.0,0.0025112287,0.0025112287,0.0025037853,0.0025017762,1.000027,1.0000415,1.0,0.0,0.0,0.0,0.0,0.0,0.0
2017908000,2017756000,0.1053671,0.10556547,0.20784077,1.125559,1.1260756,1.0877684,0.0,0.0,0.0,0.0,0.0,0.0,0.0,12.457099,0.0,0.0,0.0,0.0,0.0025112287,0.0025112287,0.0025037853,0.0025017762,1.000027,1.0000415,1.0,0.0,0.0,0.0,0.0,0.0,0.0
2017916000,2017764000,0.1053671,0.10556547,0.20784077,1.125559,1.1260756,1.0877684,0.0,0.0,0.0,0.0,0.0,0.0,0.0,12.457099,0.0,0.0,0.0,0.0,0.0025112287,0.0025112287,0.0025037853,0.0025017762,1.0000271,1.0000416,1.0,0.0,0.0,0.0,0.0,0.0,0.0
2017932000,2017780000,0.1053671,0.10556547,0.20784077,1.125559,1.1260756,1.0877684,0.0,0.0,0.0,0.0,0.0,0.0,0.0,12.457099,0.0,0.0,0.0,0.0,0.0025112287,0.0025112287,0.0025037853,0.0025017762,1.0000271,1.0000416,1.0,0.0,0.0,0.0,0.0,0.0,0.0
2017940000,2017788000,0.1053671,0.10556547,0.20784077,1.125559,1.1260756,1.0877684,0.0,0.0,0.0,0.0,0.0,0.0,0.0,12.458637,0.0,0.0,0.0,0.0,0.0025112287,0.0025112287,0.0025037853,0.0025017762,1.0000271,1.0000416,1.0,0.0,0.0,0.0,0.0,0.0,0.0
2017948000,2017796000,0.1053671,0.10556547,0.20784077,1.125559,1.1260756,1.0877684,0.0,0.0,0.0,0.0,0.0,0.0,0.0,12.458637,0.0,0.0,0.0,0.0,0.0025112287,0.0025112287,0.0025037853,0.0025017762,1.0000271,1.0000416,1.0,0.0,0.0,0.0,0.0,0.0,0.0
2017956000,2017804000,0.1053671,0.10556547,0.20784077,1.125559,1.1260756,1.0877684,0.0,0.0,0.0,0.0,0.0,0.0,0.0,12.458637,0.0,0.0,0.0,0.0,0.0025112287,0.0025112287,0.0025037853,0.0025017762,1.0000272,1.0000417,1.0,0.0,0.0,0.0,0.0,0.0,0.0
2017972000,2017820000,0.1053671,0.10556547,0.20784077,1.125559,1.1260756,1.0877684,0.0,0.0,0.0,0.0,0.0,0.0,0.0,12.458637,0.0,0.0,0.0,0.0,0.0025112554,0.0025112554,0.0025038216,0.002501787,1.0000272,1.0000417,1.0,0.0,0.0,0.0,0.0,0.0,0.0
2017980000,2017828000,0.1053671,0.10556547,0.20784077,1.125559,1.1260756,1.0877684,0.0,0.0,0.0,0.0,0.0,0.0,0.0,12.458637,0.0,0.0,0.0,0.0,0.0025112554,0.0025112554,0.0025038216,0.002501787,1.0000272,1.0000417,1.0,0.0,0.0,0.0,0.0,0.0,0.0
2017988000,2017836000,0.1053671,0.10556547,0.20784077,1.125559,1.1260756,1.0877684,0.0,0.0,0.0,0.0,0.0,0.0,0.0,12.458637,0.0,0.0,0.0,0.0,0.0025112554,0.0025112554,0.0025038216,0.002501787,1.0000273,1.0000417,1.0,0.0,0.0,0.0,0.0,0.0,0.0
2017996000,2017844000,0.1053671,0.10556547,0.20784077,1.125559,1.1260756,1.0877684,0.0,0.0,0.0,0.0,0.0,0.0,0.0,12.458637,0.0,0.0,0.0,0.0,0.0025112554,0.0025112554,0.0025038216,0.002501787,1.0000273,1.0000418,1.0,0.0,0.0,0.0,0.0,0.0,0.0
2018012000,2017860000,0.10536377,0.10556481,0.20781846,1.1255469,1.1260672,1.086959,0.0,0.0,0.0,0.0,0.0,0.0,0.0,12.45982,0.0,0.0,0.0,0.0,0.0025112554,0.0025112554,0.0025038216,0.002501787,1.000026,1.0000407,1.0,0.0,0.0,0.0,0.0,0.0,0.0
2018020000,2017868000,0.10536377,0.10556481,0.20781846,1.1255469,1.1260672,1.086959,0.0,0.0,0.0,0.0,0.0,0.0,0.0,12.45982,0.0,0.0,0.0,0.0,0.0025112554,0.0025112554,0.0025038216,0.002501787,1.000026,1.0000407,1.0,0.0,0.0,0.0,0.0,0.0,0.0
2018028000,2017876000,0.10536377,0.10556481,0.20781846,1.1255469,1.1260672,1.086959,0.0,0.0,0.0,0.0,0.0,0.0,0.0,12.45982,0.0,0.0,0.0,0.0,0.0025112554,0.0025112554,0.0025038216,0.002501787,1.0000261,1.0000407,1.0,0.0,0.0,0.0,0.0,0.0,0.0
2018036000,2017884000,0.10536377,0.10556481,0.20781846,1.1255469,1.1260672,1.086959,0.0,0.0,0.0,0.0,0.0,0.0,0.0,12.45982,0.0,0.0,0.0,0.0,0.0025112554,0.0025112554,0.0025038216,0.002501787,1.0000261,1.0000407,1.0,0.0,0.0,0.0,0.0,0.0,0.0
2018052000,2017900000,0.10536377,0.10556481,0.20781846,1.1255469,1.1260672,1.086959,0.0,0.0,0.0,0.0,0.0,0.0,0.0,12.45982,0.0,0.0,0.0,0.0,0.0025111504,0.0025111504,0.002503658,0.002501744,1.0000261,1.0000408,1.0,0.0,0.0,0.0,0.0,0.0,0.0
2018060000,2017908000,0.10536377,0.10556481,0.20781846,1.1255469,1.1260672,1.086959,0.0,0.0,0.0,0.0,0.0,0.0,0.0,12.452462,0.0,0.0,0.0,0.0,0.0025111504,0.0025111504,0.002503658,0.002501744,1.0000262,1.0000408,1.0,0.0,0.0,0.0,0.0,0.0,0.0
2018068000,2017916000,0.10536377,0.10556481,0.20781846,1.1255469,1.1260672,1.086959,0.0,0.0,0.0,0.0,0.0,0.0,0.0,12.452462,0.0,0.0,0.0,0.0,0.0025111504,0.0025111504,0.002503658,0.002501744,1.0000262,1.0000408,1.0,0.0,0.0,0.0,0.0,0.0,0.0
2018076000,2017924000,0.10536377,0.10556481,0.20781846,1.1255469,1.1260672,1.086959,0.0,0.0,0.0,0.0,0.0,0.0,0.0,12.452462,0.0,0.0,0.0,0.0,0.0025111504,0.0025111504,0.002503658,0.002501744,1.0000262,1.0000408,1.0,0.0,0.0,0.0,0.0,0.0,0.0
2018092000,2017940000,0.10536377,0.10556481,0.20781846,1.1255469,1.1260672,1.086959,0.0,0.0,0.0,0.0,0.0,0.0,0.0,12.452462,0.0,0.0,0.0,0.0,0.0025111504,0.0025111504,0.002503658,0.002501744,1.0000263,1.0000409,1.0,0.0,0.0,0.0,0.0,0.0,0.0
2018100000,2017948000,0.10536377,0.10556481,0.20781846,1.1255469,1.1260672,1.086959,0.0,0.0,0.0,0.0,0.0,0.0,0.0,12.452462,0.0,0.0,0.0,0.0,0.0025111504,0.0025111504,0.002503658,0.002501744,1.0000265,1.0000409,1.0,0.0,0.0,0.0,0.0,0.0,0.0
2018108000,2017956000,0.10536377,0.10556481,0.20781846,1.1255469,1.1260672,1.086959,0.0,0.0,0.0,0.0,0.0,0.0,0.0,12.452462,0.0,0.0,0.0,0.0,0.0025111504,0.0025111504,0.002503658,0.002501744,1.0000265,1.0000409,1.0,0.0,0.0,0.0,0.0,0.0,0.0
2018116000,2017964000,0.10536377,0.10556481,0.20781846,1.1255469,1.1260672,1.086959,0.0,0.0,0.0,0.0,0.0,0.0,0.0,12.452462,0.0,0.0,0.0,0.0,0.00251118,0.00251118,0.0025036975,0.0025017536,1.0000265,1.0000409,1.0,0.0,0.0,0.0,0.0,0.0,0.0
2018132000,2017980000,0.10536377,0.10556481,0.20781846,1.1255469,1.1260672,1.086959,0.0,0.0,0.0,0.0,0.0,0.0,0.0,12.453943,0.0,0.0,0.0,0.0,0.00251118,0.00251118,0.0025036975,0.0025017536,1.0000265,1.000041,1.0,0.0,0.0,0.0,0.0,0.0,0.0
2018140000,2017988000,0.10536377,0.10556481,0.20781846,1.1255469,1.1260672,1.086959,0.0,0.0,0.0,0.0,0.0,0.0,0.0,12.453943,0.0,0.0,0.0,0.0,0.00251118,0.00251118,0.0025036975,0.0025017536,1.0000266,1.000041,1.0,0.0,0.0,0.0,0.0,0.0,0.0
2018148000,2017996000,0.10536377,0.10556481,0.20781846,1.1255469,1.1260672,1.086959,0.0,0.0,0.0,0.0,0.0,0.0,0.0,12.453943,0.0,0.0,0.0,0.0,0.00251118,0.00251118,0.0025036975,0.0025017536,1.0000266,1.000041,1.0,0.0,0.0,0.0,0.0,0.0,0.0
2018156000,2018004000,0.10536377,0.10556481,0.20781846,1.1255469,1.1260672,1.086959,0.0,0.0,0.0,0.0,0.0,0.0,0.0,12.453943,0.0,0.0,0.0,0.0,0.00251118,0.00251118,0.0025036975,0.0025017536,1.0000266,1.000041,1.0,0.0,0.0,0.0,0.0,0.0,0.0
2018172000,2018020000,0.10536377,0.10556481,0.20781846,1.1255469,1.1260672,1.086959,0.0,0.0,0.0,0.0,0.0,0.0,0.0,12.453943,0.0,0.0,0.0,0.0,0.00251118,0.00251118,0.0025036975,0.0025017536,1.0000266,1.0000412,1.0,0.0,0.0,0.0,0.0,0.0,0.0
2018180000,2018028000,0.10536377,0.10556481,0.20781846,1.1255469,1.1260672,1.086959,0.0,0.0,0.0,0.0,0.0,0.0,0.0,12.453943,0.0,0.0,0.0,0.0,0.0025111993,0.0025111993,0.002503733,0.0025017625,1.0000267,1.0000412,1.0,0.0,0.0,0.0,0.0,0.0,0.0
2018188000,2018036000,0.10536377,0.10556481,0.20781846,1.1255469,1.1260672,1.086959,0.0,0.0,0.0,0.0,0.0,0.0,0.0,12.453943,0.0,0.0,0.0,0.0,0.0025111993,0.0025111993,0.002503733,0.0025017625,1.0000267,1.0000412,1.0,0.0,0.0,0.0,0.0,0.0,0.0
2018196000,2018044000,0.10536377,0.10556481,0.20781846,1.1255469,1.1260672,1.086959,0.0,0.0,0.0,0.0,0.0,0.0,0.0,12.453943,0.0,0.0,0.0,0.0,0.0025111993,0.0025111993,0.002503733,0.0025017625,1.0000267,1.0000412,1.0,0.0,0.0,0.0,0.0,0.0,0.0
2018212000,2018060000,0.10536377,0.10556481,0.20781846,1.1255469,1.1260672,1.086959,0.0,0.0,0.0,0.0,0.0,0.0,0.0,12.455447,0.0,0.0,0.0,0.0,0.0025111993,0.0025111993,0.002503733,0.0025017625,1.0000267,1.0000414,1.0,0.0,0.0,0.0,0.0,0.0,0.0
2018220000,2018068000,0.10536377,0.10556481,0.20781846,1.1255469,1.1260672,1.086959,0.0,0.0,0.0,0.0,0.0,0.0,0.0,12.455447,0.0,0.0,0.0,0.0,0.0025111993,0.0025111993,0.002503733,0.0025017625,1.0000268,1.0000414,1.0,0.0,0.0,0.0,0.0,0.0,0.0
2018228000,2018076000,0.10536377,0.10556481,0.20781846,1.1255469,1.1260672,1.086959,0.0,0.0,0.0,0.0,0.0,0.0,0.0,12.455447,0.0,0.0,0.0,0.0,0.0025111993,0.0025111993,0.002503733,0.0025017625,1.0000268,1.0000414,1.0,0.0,0.0,0.0,0.0,0.0,0.0
2018236000,2018084000,0.10536377,0.10556481,0.20781846,1.1255469,1.1260672,1.086959,0.0,0.0,0.0,0.0,0.0,0.0,0.0,12.455447,0.0,0.0,0.0,0.0,0.0025111993,0.0025111993,0.002503733,0.0025017625,1.0000268,1.0000414,1.0,0.0,0.0,0.0,0.0,0.0,0.0
2018252000,2018100000,0.10536377,0.10556481,0.20781846,1.1255469,1.1260672,1.086959,0.0,0.0,0.0,0.0,0.0,0.0,0.0,12.455447,0.0,0.0,0.0,0.0,0.0025112291,0.0025112291,0.0025037723,0.0025017723,1.000027,1.0000415,1.0,0.0,0.0,0.0,0.0,0.0,0.0
2018260000,2018108000,0.10536377,0.10556481,0.20781846,1.1255469,1.1260672,1.086959,0.0,0.0,0.0,0.0,0.0,0.0,0.0,12.455447,0.0,0.0,0.0,0.0,0.0025112291,0.0025112291,0.0025037723,0.0025017723,1.000027,1.0000415,1.0,0.0,0.0,0.0,0.0,0.0,0.0
2018268000,2018116000,0.10536377,0.10556481,0.20781846,1.1255469,1.1260672,1.086959,0.0,0.0,0.0,0.0,0.0,0.0,0.0,12.455447,0.0,0.0,0.0,0.0,0.0025112291,0.0025112291,0.0025037723,0.0025017723,1.000027,1.0000415,1.0,0.0,0.0,0.0,0.0,0.0,0.0
2018276000,2018124000,0.10536377,0.10556481,0.20781846,1.1255469,1.1260672,1.086959,0.0,0.0,0.0,0.0,0.0,0.0,0.0,12.456971,0.0,0.0,0.0,0.0,0.0025112291,0.0025112291,0.0025037723,0.0025017723,1.000027,1.0000415,1.0,0.0,0.0,0.0,0.0,0.0,0.0
2018292000,2018140000,0.10536377,0.10556481,0.20781846,1.1255469,1.1260672,1.086959,0.0,0.0,0.0,0.0,0.0,0.0,0.0,12.456971,0.0,0.0,0.0,0.0,0.0025112291,0.0025112291,0.0025037723,0.0025017723,1.0000271,1.0000416,1.0,0.0,0.0,0.0,0.0,0.0,0.0
2018300000,2018148000,0.10536377,0.10556481,0.20781846,1.1255469,1.1260672,1.086959,0.0,0.0,0.0,0.0,0.0,0.0,0.0,12.456971,0.0,0.0,0.0,0.0,0.0025112291,0.0025112291,0.0025037723,0.0025017723,1.0000271,1.0000416,1.0,0.0,0.0,0.0,0.0,0.0,0.0
2018308000,2018156000,0.10536377,0.10556481,0.20781846,1.1255469,1.1260672,1.086959,0.0,0.0,0.0,0.0,0.0,0.0,0.0,12.456971,0.0,0.0,0.0,0.0,0.0025112291,0.0025112291,0.0025037723,0.0025017723,1.0000271,1.0000416,1.0,0.0,0.0,0.0,0.0,0.0,0.0
2018316000,2018164000,0.10536377,0.10556481,0.20781846,1.1255469,1.1260672,1.086959,0.0,0.0,0.0,0.0,0.0,0.0,0.0,12.456971,0.0,0.0,0.0,0.0,0.0025112291,0.0025112291,0.0025037723,0.0025017723,1.0000271,1.0000416,1.0,0.0,0.0,0.0,0.0,0.0,0.0
2018332000,2018180000,0.10536377,0.10556481,0.20781846,1.1255469,1.1260672,1.086959,0.0,0.0,0.0,0.0,0.0,0.0,0.0,12.456971,0.0,0.0,0.0,0.0,0.002511257,0.002511257,0.0025038128,0.0025017827,1.0000272,1.0000417,1.0,0.0,0.0,0.0,0.0,0.0,0.0
2018340000,2018188000,0.10536377,0.10556481,0.20781846,1.1255469,1.1260672,1.086959,0.0,0.0,0.0,0.0,0.0,0.0,0.0,12.456971,0.0,0.0,0.0,0.0,0.002511257,0.002511257,0.0025038128,0.0025017827,1.0000272,1.0000417,1.0,0.0,0.0,0.0,0.0,0.0,0.0
2018348000,2018196000,0.10536377,0.10556481,0.20781846,1.1255469,1.1260672,1.086959,0.0,0.0,0.0,0.0,0.0,0.0,0.0,12.458516,0.0,0.0,0.0,0.0,0.002511257,0.002511257,0.0025038128,0.0025017827,1.0000272,1.0000417,1.0,0.0,0.0,0.0,0.0,0.0,0.0
2018356000,2018204000,0.10536377,0.10556481,0.20781846,1.1255469,1.1260672,1.086959,0.0,0.0,0.0,0.0,0.0,0.0,0.0,12.458516,0.0,0.0,0.0,0.0,0.002511257,0.002511257,0.0025038128,0.0025017827,1.0000272,1.0000417,1.0,0.0,0.0,0.0,0.0,0.0,0.0
2018372000,2018220000,0.10536377,0.10556481,0.20781846,1.1255469,1.1260672,1.086959,0.0,0.0,0.0,0.0,0.0,0.0,0.0,12.458516,0.0,0.0,0.0,0.0,0.002511257,0.002511257,0.0025038128,0.0025017827,1.0000273,1.0000418,1.0,0.0,0.0,0.0,0.0,0.0,0.0
2018380000,2018228000,0.10536377,0.10556481,0.20781846,1.1255469,1.1260672,1.086959,0.0,0.0,0.0,0.0,0.0,0.0,0.0,12.458516,0.0,0.0,0.0,0.0,0.002511257,0.002511257,0.0025038128,0.0025017827,1.0000273,1.0000418,1.0,0.0,0.0,0.0,0.0,0.0,0.0
2018388000,2018236000,0.10536377,0.10556481,0.20781846,1.1255469,1.1260672,1.086959,0.0,0.0,0.0,0.0,0.0,0.0,0.0,12.458516,0.0,0.0,0.0,0.0,0.002511257,0.002511257,0.0025038128,0.0025017827,1.0000273,1.0000418,1.0,0.0,0.0,0.0,0.0,0.0,0.0
2018396000,2018244000,0.10536377,0.10556481,0.20781846,1.1255469,1.1260672,1.086959,0.0,0.0,0.0,0.0,0.0,0.0,0.0,12.458516,0.0,0.0,0.0,0.0,0.0025112869,0.0025112869,0.0025038521,0.0025017932,1.0000273,1.000042,1.0,0.0,0.0,0.0,0.0,0.0,0.0
2018412000,2018260000,0.10536051,0.10556373,0.20783359,1.1255367,1.1260613,1.0874082,0.0,0.0,0.0,0.0,0.0,0.0,0.0,12.458516,0.0,0.0,0.0,0.0,0.0025112869,0.0025112869,0.0025038521,0.0025017932,1.0000261,1.0000407,1.0,0.0,0.0,0.0,0.0,0.0,0.0
