timestamp,timestamp_sample,lat,lon,alt,alt_ellipsoid,delta_alt,delta_terrain,eph,epv,terrain_alt,lat_lon_valid,alt_valid,lat_lon_reset_counter,alt_reset_counter,terrain_reset_counter,terrain_alt_valid,dead_reckoning
2015916000,2015916000,47.3975495999935,8.54670828022623,488.05646,488.05646,-0.0,-0.0,0.49074927,0.2948874,487.95575,1,1,5,5,5,0,0
2015924000,2015924000,47.39754959882384,8.546708281607732,488.0564,488.0564,-0.0,-0.0,0.4916314,0.29425138,487.95645,1,1,5,5,5,0,0
2015932000,2015932000,47.397549597642595,8.546708282999742,488.0563,488.0563,-0.0,-0.0,0.49253407,0.29464963,487.95636,1,1,5,5,5,0,0
2015940000,2015940000,47.39754959643363,8.546708284440543,488.05624,488.05624,-0.0,-0.0,0.49343997,0.29504853,487.95627,1,1,5,5,5,0,0
2015948000,2015948000,47.39754959519089,8.546708285932874,488.05615,488.05615,-0.0,-0.0,0.49434903,0.29544806,487.95618,1,1,5,5,5,0,0
2015956000,2015956000,47.39754959390751,8.546708287358454,488.05606,488.05606,-0.0,-0.0,0.49525875,0.29584822,487.9561,1,1,5,5,5,0,0
2015972000,2015972000,47.3975495912225,8.546708290241394,488.05588,488.05588,-0.0,-0.0,0.49709284,0.2966504,487.9559,1,1,5,5,5,0,0
2015980000,2015980000,47.39754958981459,8.546708291728377,488.05582,488.05582,-0.0,-0.0,0.49801475,0.29705244,487.9558,1,1,5,5,5,0,0
2015988000,2015988000,47.397549588378716,8.546708293175735,488.05573,488.05573,-0.0,-0.0,0.49893984,0.2974551,487.95572,1,1,5,5,5,0,0
2015996000,2015996000,47.39754958690971,8.546708294683807,488.0556,488.0556,-0.0,-0.0,0.49984843,0.29679614,487.95508,1,1,5,5,5,0,0
2016012000,2016012000,47.39754958627602,8.546708291927745,488.05557,488.05557,-0.0,-0.0,0.4588887,0.28362912,487.96036,1,1,5,5,5,0,0
2016020000,2016020000,47.397549587062485,8.546708287814084,488.05563,488.05563,-0.0,-0.0,0.45967168,0.2840087,487.96027,1,1,5,5,5,0,0
2016028000,2016028000,47.39754958773356,8.546708283795036,488.0557,488.0557,-0.0,-0.0,0.46045762,0.28438893,487.96017,1,1,5,5,5,0,0
2016036000,2016036000,47.397549588322605,8.546708279849007,488.05573,488.05573,-0.0,-0.0,0.46124658,0.2847698,487.96008,1,1,5,5,5,0,0
2016052000,2016052000,47.3975495892679,8.546708272165002,488.05585,488.05585,-0.0,-0.0,0.46283346,0.28553343,487.9599,1,1,5,5,5,0,0
2016060000,2016060000,47.39754958964833,8.54670826852446,488.0559,488.0559,-0.0,-0.0,0.4636314,0.2859162,487.9598,1,1,5,5,5,0,0
2016068000,2016068000,47.39754958999462,8.546708265002376,488.05597,488.05597,-0.0,-0.0,0.46442106,0.28535593,487.96027,1,1,5,5,5,0,0
2016076000,2016076000,47.397549590256254,8.54670826157753,488.05603,488.05603,-0.0,-0.0,0.4652249,0.28573874,487.96017,1,1,5,5,5,0,0
2016092000,2016092000,47.39754959071871,8.546708255125797,488.05612,488.05612,-0.0,-0.0,0.4668416,0.28650627,487.96,1,1,5,5,5,0,0
2016100000,2016100000,47.39754959086917,8.546708252118652,488.05615,488.05615,-0.0,-0.0,0.46765453,0.28689098,487.9599,1,1,5,5,5,0,0
2016108000,2016108000,47.3975495909207,8.546708249222009,488.0562,488.0562,-0.0,-0.0,0.46847048,0.28727633,487.9598,1,1,5,5,5,0,0
2016116000,2016116000,47.397549590940756,8.546708246424865,488.05624,488.05624,-0.0,-0.0,0.46928948,0.28766233,487.95972,1,1,5,5,5,0,0
2016132000,2016132000,47.39754959085299,8.546708241186044,488.05634,488.05634,-0.0,-0.0,0.47093663,0.28843626,487.95953,1,1,5,5,5,0,0
2016140000,2016140000,47.39754959080876,8.546708238741912,488.05634,488.05634,-0.0,-0.0,0.4717519,0.2878554,487.95908,1,1,5,5,5,0,0
2016148000,2016148000,47.39754959071319,8.5467082364295,488.05637,488.05637,-0.0,-0.0,0.47258294,0.28824264,487.95898,1,1,5,5,5,0,0
2016156000,2016156000,47.39754959053197,8.54670823421585,488.05637,488.05637,-0.0,-0.0,0.47341526,0.28863052,487.9589,1,1,5,5,5,0,0
2016172000,2016172000,47.397549589966644,8.546708230068239,488.05643,488.05643,-0.0,-0.0,0.4750927,0.2894082,487.9587,1,1,5,5,5,0,0
2016180000,2016180000,47.39754958957826,8.54670822808706,488.05643,488.05643,-0.0,-0.0,0.47593603,0.289798,487.95862,1,1,5,5,5,0,0
2016188000,2016188000,47.39754958919885,8.546708226131909,488.05646,488.05646,-0.0,-0.0,0.4767825,0.29018843,487.95853,1,1,5,5,5,0,0
2016196000,2016196000,47.39754958883411,8.54670822424627,488.05646,488.05646,-0.0,-0.0,0.47763208,0.29057953,487.95844,1,1,5,5,5,0,0
2016212000,2016212000,47.39754958801161,8.546708220675578,488.05652,488.05652,-0.0,-0.0,0.4793259,0.29036906,487.95847,1,1,5,5,5,0,0
2016220000,2016220000,47.397549587567205,8.546708218977566,488.05655,488.05655,-0.0,-0.0,0.48018458,0.2907607,487.95837,1,1,5,5,5,0,0
2016228000,2016228000,47.39754958712166,8.546708217285536,488.05658,488.05658,-0.0,-0.0,0.48104638,0.29115295,487.95828,1,1,5,5,5,0,0
2016236000,2016236000,47.39754958664686,8.5467082156165,488.0566,488.0566,-0.0,-0.0,0.48191133,0.29154584,487.9582,1,1,5,5,5,0,0
2016252000,2016252000,47.397549585649394,8.546708212457515,488.05664,488.05664,-0.0,-0.0,0.48365062,0.29233354,487.958,1,1,5,5,5,0,0
2016260000,2016260000,47.397549585118334,8.546708211084619,488.05667,488.05667,-0.0,-0.0,0.484525,0.29272836,487.95792,1,1,5,5,5,0,0
2016268000,2016268000,47.397549584589,8.54670820981874,488.05667,488.05667,-0.0,-0.0,0.4854025,0.29312378,487.95782,1,1,5,5,5,0,0
2016276000,2016276000,47.397549584061906,8.546708208636081,488.05667,488.05667,-0.0,-0.0,0.48628318,0.29351982,487.95773,1,1,5,5,5,0,0
2016292000,2016292000,47.39754958281303,8.54670820617318,488.05667,488.05667,-0.0,-0.0,0.48803726,0.2932917,487.95728,1,1,5,5,5,0,0
2016300000,2016300000,47.397549582077005,8.546708204880375,488.05667,488.05667,-0.0,-0.0,0.4889272,0.29368827,487.95718,1,1,5,5,5,0,0
2016308000,2016308000,47.39754958126161,8.5467082035866,488.05667,488.05667,-0.0,-0.0,0.4898203,0.29408547,487.9571,1,1,5,5,5,0,0
2016316000,2016316000,47.39754958043442,8.546708202355449,488.05667,488.05667,-0.0,-0.0,0.4907166,0.2944833,487.957,1,1,5,5,5,0,0
2016332000,2016332000,47.39754957874639,8.546708200098704,488.0566,488.0566,-0.0,-0.0,0.49251878,0.29528087,487.95682,1,1,5,5,5,0,0
2016340000,2016340000,47.39754957782712,8.54670819906921,488.05658,488.05658,-0.0,-0.0,0.49342465,0.29568058,487.95673,1,1,5,5,5,0,0
2016348000,2016348000,47.397549576867355,8.546708198058287,488.05655,488.05655,-0.0,-0.0,0.49433377,0.29608095,487.95667,1,1,5,5,5,0,0
2016356000,2016356000,47.397549575876816,8.546708197044262,488.05652,488.05652,-0.0,-0.0,0.49522495,0.2954343,487.95685,1,1,5,5,5,0,0
2016372000,2016372000,47.39754957386078,8.546708195170874,488.05643,488.05643,-0.0,-0.0,0.49705872,0.2962353,487.95673,1,1,5,5,5,0,0
2016380000,2016380000,47.39754957278155,8.546708194277667,488.0564,488.0564,-0.0,-0.0,0.4979804,0.29663673,487.95667,1,1,5,5,5,0,0
2016388000,2016388000,47.39754957162861,8.546708193381129,488.05634,488.05634,-0.0,-0.0,0.4989053,0.29703882,487.9566,1,1,5,5,5,0,0
2016396000,2016396000,47.39754957042801,8.546708192478592,488.0563,488.0563,-0.0,-0.0,0.49983346,0.2974415,487.95654,1,1,5,5,5,0,0
2016412000,2016412000,47.39754957004293,8.546708190019377,488.05637,488.05637,-0.0,-0.0,0.45887452,0.2841893,487.96075,1,1,5,5,5,0,0
2016420000,2016420000,47.397549570802596,8.546708188444347,488.05646,488.05646,-0.0,-0.0,0.45965752,0.28456962,487.9607,1,1,5,5,5,0,0
2016428000,2016428000,47.39754957153289,8.54670818700285,488.05655,488.05655,-0.0,-0.0,0.460433,0.2840201,487.96097,1,1,5,5,5,0,0
2016436000,2016436000,47.39754957219218,8.54670818567696,488.05664,488.05664,-0.0,-0.0,0.46122184,0.28440043,487.9609,1,1,5,5,5,0,0
2016452000,2016452000,47.39754957316068,8.546708183325766,488.0568,488.0568,-0.0,-0.0,0.4628085,0.28516304,487.9608,1,1,5,5,5,0,0
2016460000,2016460000,47.39754957350576,8.546708182254772,488.05685,488.05685,-0.0,-0.0,0.46360633,0.28554532,487.96072,1,1,5,5,5,0,0
2016468000,2016468000,47.39754957379132,8.546708181303508,488.05692,488.05692,-0.0,-0.0,0.46440718,0.2859282,487.96066,1,1,5,5,5,0,0
2016476000,2016476000,47.39754957401449,8.546708180453622,488.057,488.057,-0.0,-0.0,0.465211,0.28631175,487.9606,1,1,5,5,5,0,0
2016492000,2016492000,47.3975495743267,8.546708178960715,488.05713,488.05713,-0.0,-0.0,0.46682778,0.28708076,487.96045,1,1,5,5,5,0,0
2016500000,2016500000,47.397549574418846,8.546708178247824,488.05716,488.05716,-0.0,-0.0,0.4676287,0.28651097,487.95975,1,1,5,5,5,0,0
2016508000,2016508000,47.39754957448471,8.546708177590164,488.0572,488.0572,-0.0,-0.0,0.46844447,0.28689578,487.95966,1,1,5,5,5,0,0
2016516000,2016516000,47.39754957454839,8.546708176976193,488.05722,488.05722,-0.0,-0.0,0.46926332,0.28728124,487.95956,1,1,5,5,5,0,0
2016532000,2016532000,47.39754957458924,8.546708175952144,488.0573,488.0573,-0.0,-0.0,0.47091016,0.28805408,487.95938,1,1,5,5,5,0,0
2016540000,2016540000,47.39754957457265,8.546708175591053,488.05734,488.05734,-0.0,-0.0,0.47173813,0.28844145,487.9593,1,1,5,5,5,0,0
2016548000,2016548000,47.39754957446685,8.54670817529905,488.05737,488.05737,-0.0,-0.0,0.4725692,0.28882948,487.9592,1,1,5,5,5,0,0
2016556000,2016556000,47.39754957433894,8.546708175038265,488.05743,488.05743,-0.0,-0.0,0.47340152,0.28921813,487.9591,1,1,5,5,5,0,0
2016572000,2016572000,47.39754957397334,8.546708174606675,488.05753,488.05753,-0.0,-0.0,0.47506535,0.28901675,487.95895,1,1,5,5,5,0,0
2016580000,2016580000,47.397549573718166,8.546708174473036,488.05756,488.05756,-0.0,-0.0,0.47590855,0.289406,487.95886,1,1,5,5,5,0,0
2016588000,2016588000,47.39754957338513,8.546708174331153,488.0576,488.0576,-0.0,-0.0,0.4767548,0.28979585,487.95877,1,1,5,5,5,0,0
2016596000,2016596000,47.397549573003595,8.546708174161289,488.05762,488.05762,-0.0,-0.0,0.4776042,0.29018638,487.95868,1,1,5,5,5,0,0
2016612000,2016612000,47.397549572232734,8.546708173807904,488.05765,488.05765,-0.0,-0.0,0.47931227,0.2909693,487.9585,1,1,5,5,5,0,0
2016620000,2016620000,47.39754957181799,8.546708173613265,488.05768,488.05768,-0.0,-0.0,0.480171,0.29136172,487.9584,1,1,5,5,5,0,0
2016628000,2016628000,47.39754957135617,8.546708173452572,488.0577,488.0577,-0.0,-0.0,0.48103285,0.29175478,487.9583,1,1,5,5,5,0,0
2016636000,2016636000,47.39754957083182,8.546708173395901,488.0577,488.0577,-0.0,-0.0,0.4818978,0.29214847,487.95822,1,1,5,5,5,0,0
2016652000,2016652000,47.39754956957971,8.546708173601939,488.05774,488.05774,-0.0,-0.0,0.4836215,0.2919298,487.95834,1,1,5,5,5,0,0
2016660000,2016660000,47.39754956892265,8.54670817369538,488.05777,488.05777,-0.0,-0.0,0.48449567,0.29232404,487.95825,1,1,5,5,5,0,0
2016668000,2016668000,47.39754956826424,8.546708173727263,488.05777,488.05777,-0.0,-0.0,0.48537302,0.2927189,487.9582,1,1,5,5,5,0,0
2016676000,2016676000,47.39754956757716,8.546708173774443,488.0578,488.0578,-0.0,-0.0,0.48625353,0.29311436,487.95813,1,1,5,5,5,0,0
2016692000,2016692000,47.39754956615733,8.546708173941216,488.05783,488.05783,-0.0,-0.0,0.48802406,0.29390725,487.958,1,1,5,5,5,0,0
2016700000,2016700000,47.39754956539987,8.546708174021205,488.05783,488.05783,-0.0,-0.0,0.48891404,0.29430464,487.95795,1,1,5,5,5,0,0
2016708000,2016708000,47.39754956462689,8.546708174132965,488.05783,488.05783,-0.0,-0.0,0.48980725,0.29470265,487.9579,1,1,5,5,5,0,0
2016716000,2016716000,47.39754956385702,8.546708174286442,488.05783,488.05783,-0.0,-0.0,0.49068627,0.2940682,487.9585,1,1,5,5,5,0,0
2016732000,2016732000,47.397549562431216,8.546708174682715,488.05786,488.05786,-0.0,-0.0,0.49248818,0.29486457,487.95844,1,1,5,5,5,0,0
2016740000,2016740000,47.3975495616929,8.546708174990856,488.05786,488.05786,-0.0,-0.0,0.4933939,0.29526368,487.95837,1,1,5,5,5,0,0
2016748000,2016748000,47.39754956090439,8.546708175303678,488.05783,488.05783,-0.0,-0.0,0.4943028,0.29566345,487.9583,1,1,5,5,5,0,0
2016756000,2016756000,47.39754956007842,8.5467081755768,488.05783,488.05783,-0.0,-0.0,0.49521232,0.29606384,487.95825,1,1,5,5,5,0,0
2016772000,2016772000,47.3975495583261,8.54670817615281,488.0578,488.0578,-0.0,-0.0,0.4970461,0.2968665,487.95813,1,1,5,5,5,0,0
2016780000,2016780000,47.39754955744592,8.546708176572405,488.0578,488.0578,-0.0,-0.0,0.49794865,0.29726875,487.95807,1,1,5,5,5,0,0
2016788000,2016788000,47.39754955653041,8.546708177047455,488.05777,488.05777,-0.0,-0.0,0.49887335,0.2966114,487.95807,1,1,5,5,5,0,0
2016796000,2016796000,47.397549555568716,8.546708177481541,488.05777,488.05777,-0.0,-0.0,0.4998013,0.2970135,487.958,1,1,5,5,5,0,0
2016812000,2016812000,47.39754955572345,8.546708176984025,488.05786,488.05786,-0.0,-0.0,0.45885345,0.28381813,487.96143,1,1,5,5,5,0,0
2016820000,2016820000,47.397549556782415,8.546708176162378,488.05792,488.05792,-0.0,-0.0,0.45963633,0.2841979,487.96136,1,1,5,5,5,0,0
2016828000,2016828000,47.39754955777847,8.546708175353798,488.058,488.058,-0.0,-0.0,0.4604222,0.28457832,487.9613,1,1,5,5,5,0,0
2016836000,2016836000,47.397549558708576,8.546708174533377,488.05807,488.05807,-0.0,-0.0,0.46121106,0.28495938,487.96124,1,1,5,5,5,0,0
2016852000,2016852000,47.39754956028459,8.546708173021575,488.05817,488.05817,-0.0,-0.0,0.46278673,0.2847854,487.9613,1,1,5,5,5,0,0
2016860000,2016860000,47.39754956097568,8.546708172390339,488.05823,488.05823,-0.0,-0.0,0.46358442,0.28516713,487.96124,1,1,5,5,5,0,0
2016868000,2016868000,47.39754956163434,8.546708171787165,488.05826,488.05826,-0.0,-0.0,0.46438512,0.2855495,487.96118,1,1,5,5,5,0,0
2016876000,2016876000,47.39754956224224,8.546708171274526,488.0583,488.0583,-0.0,-0.0,0.46518883,0.28593248,487.96112,1,1,5,5,5,0,0
2016892000,2016892000,47.397549563408084,8.5467081705271,488.05835,488.05835,-0.0,-0.0,0.4668053,0.2867004,487.961,1,1,5,5,5,0,0
2016900000,2016900000,47.39754956398013,8.5467081702338,488.05838,488.05838,-0.0,-0.0,0.4676181,0.28708532,487.96094,1,1,5,5,5,0,0
2016908000,2016908000,47.3975495645231,8.546708170001885,488.05844,488.05844,-0.0,-0.0,0.46843395,0.2865156,487.96112,1,1,5,5,5,0,0
2016916000,2016916000,47.39754956499493,8.54670816988662,488.05847,488.05847,-0.0,-0.0,0.4692405,0.28690052,487.96106,1,1,5,5,5,0,0
2016932000,2016932000,47.39754956576288,8.546708169779851,488.05853,488.05853,-0.0,-0.0,0.470887,0.28767228,487.96094,1,1,5,5,5,0,0
2016940000,2016940000,47.39754956606934,8.54670816978138,488.05856,488.05856,-0.0,-0.0,0.47171488,0.28805912,487.96088,1,1,5,5,5,0,0
2016948000,2016948000,47.3975495663064,8.546708169876368,488.05856,488.05856,-0.0,-0.0,0.47254583,0.2884466,487.96082,1,1,5,5,5,0,0
2016956000,2016956000,47.39754956646687,8.546708169963727,488.0586,488.0586,-0.0,-0.0,0.47337806,0.28883472,487.96075,1,1,5,5,5,0,0
2016972000,2016972000,47.39754956657611,8.546708170289792,488.05862,488.05862,-0.0,-0.0,0.47505528,0.28961286,487.96063,1,1,5,5,5,0,0
2016980000,2016980000,47.39754956651123,8.5467081704427,488.05865,488.05865,-0.0,-0.0,0.4758985,0.2890222,487.9608,1,1,5,5,5,0,0
2016988000,2016988000,47.39754956642683,8.54670817069103,488.05865,488.05865,-0.0,-0.0,0.47673082,0.28941157,487.9607,1,1,5,5,5,0,0
2016996000,2016996000,47.39754956632371,8.54670817101616,488.0587,488.0587,-0.0,-0.0,0.47758004,0.28980157,487.9606,1,1,5,5,5,0,0
2017012000,2017012000,47.397549566124304,8.546708171821107,488.0587,488.0587,-0.0,-0.0,0.47928777,0.29058343,487.96042,1,1,5,5,5,0,0
2017020000,2017020000,47.39754956603963,8.546708172300828,488.0587,488.0587,-0.0,-0.0,0.48014632,0.2909753,487.96033,1,1,5,5,5,0,0
2017028000,2017028000,47.397549565932884,8.546708172804927,488.0587,488.0587,-0.0,-0.0,0.48100796,0.29136783,487.96024,1,1,5,5,5,0,0
2017036000,2017036000,47.39754956573768,8.546708173288232,488.0587,488.0587,-0.0,-0.0,0.48187277,0.29176098,487.96014,1,1,5,5,5,0,0
2017052000,2017052000,47.39754956507399,8.546708174282585,488.0587,488.0587,-0.0,-0.0,0.48361176,0.29154256,487.96017,1,1,5,5,5,0,0
2017060000,2017060000,47.39754956470542,8.546708174714922,488.0587,488.0587,-0.0,-0.0,0.48447016,0.29193625,487.96008,1,1,5,5,5,0,0
2017068000,2017068000,47.39754956425441,8.54670817509663,488.0587,488.0587,-0.0,-0.0,0.48534733,0.2923306,487.96,1,1,5,5,5,0,0
2017076000,2017076000,47.397549563733314,8.546708175444389,488.0587,488.0587,-0.0,-0.0,0.48622763,0.29272556,487.9599,1,1,5,5,5,0,0
2017092000,2017092000,47.39754956255144,8.546708176067776,488.0587,488.0587,-0.0,-0.0,0.48799774,0.29351738,487.95972,1,1,5,5,5,0,0
2017100000,2017100000,47.39754956192276,8.546708176385893,488.0587,488.0587,-0.0,-0.0,0.48888755,0.29391423,487.95963,1,1,5,5,5,0,0
2017108000,2017108000,47.397549561312665,8.546708176648352,488.0587,488.0587,-0.0,-0.0,0.48978055,0.29431173,487.95953,1,1,5,5,5,0,0
2017116000,2017116000,47.39754956069423,8.546708176879372,488.05865,488.05865,-0.0,-0.0,0.49067667,0.29470986,487.95944,1,1,5,5,5,0,0
2017132000,2017132000,47.3975495594488,8.546708177395146,488.05862,488.05862,-0.0,-0.0,0.49246076,0.29447338,487.95932,1,1,5,5,5,0,0
2017140000,2017140000,47.397549558797394,8.54670817778512,488.0586,488.0586,-0.0,-0.0,0.49336627,0.29487202,487.95923,1,1,5,5,5,0,0
2017148000,2017148000,47.397549558062195,8.54670817822052,488.05856,488.05856,-0.0,-0.0,0.49427497,0.29527125,487.95914,1,1,5,5,5,0,0
2017156000,2017156000,47.39754955736549,8.546708178778124,488.05853,488.05853,-0.0,-0.0,0.4951843,0.2956711,487.95905,1,1,5,5,5,0,0
2017172000,2017172000,47.397549555927974,8.546708180161808,488.0585,488.0585,-0.0,-0.0,0.49701765,0.29647273,487.95886,1,1,5,5,5,0,0
2017180000,2017180000,47.3975495551313,8.54670818095764,488.05847,488.05847,-0.0,-0.0,0.49793914,0.2968745,487.95877,1,1,5,5,5,0,0
2017188000,2017188000,47.397549554299076,8.546708181746428,488.05844,488.05844,-0.0,-0.0,0.4988639,0.29727685,487.95868,1,1,5,5,5,0,0
2017196000,2017196000,47.39754955344049,8.546708182546324,488.0584,488.0584,-0.0,-0.0,0.4997722,0.2966195,487.95847,1,1,5,5,5,0,0
2017212000,2017212000,47.39754955108716,8.546708182911772,488.0585,488.0585,-0.0,-0.0,0.4588354,0.28347605,487.96387,1,1,5,5,5,0,0
2017220000,2017220000,47.397549549598374,8.54670818253062,488.05865,488.05865,-0.0,-0.0,0.4596181,0.28385538,487.9638,1,1,5,5,5,0,0
2017228000,2017228000,47.397549548089046,8.54670818216937,488.05878,488.05878,-0.0,-0.0,0.4604038,0.28423533,487.96375,1,1,5,5,5,0,0
2017236000,2017236000,47.397549546548504,8.546708181778543,488.0589,488.0589,-0.0,-0.0,0.4611925,0.28461593,487.96368,1,1,5,5,5,0,0
2017252000,2017252000,47.39754954349312,8.54670818100734,488.0591,488.0591,-0.0,-0.0,0.46277887,0.2853791,487.96356,1,1,5,5,5,0,0
2017260000,2017260000,47.39754954191528,8.546708180555312,488.0592,488.0592,-0.0,-0.0,0.46357656,0.28576165,487.9635,1,1,5,5,5,0,0
2017268000,2017268000,47.39754954036704,8.546708180163312,488.0593,488.0593,-0.0,-0.0,0.464366,0.28520265,487.96332,1,1,5,5,5,0,0
2017276000,2017276000,47.39754953880898,8.546708179781401,488.0594,488.0594,-0.0,-0.0,0.46516955,0.28558522,487.96326,1,1,5,5,5,0,0
2017292000,2017292000,47.39754953573933,8.546708178972853,488.05954,488.05954,-0.0,-0.0,0.46678573,0.28635228,487.9631,1,1,5,5,5,0,0
2017300000,2017300000,47.397549534204835,8.546708178598584,488.0596,488.0596,-0.0,-0.0,0.46759838,0.28673676,487.96304,1,1,5,5,5,0,0
2017308000,2017308000,47.39754953261272,8.546708178248336,488.05966,488.05966,-0.0,-0.0,0.4684141,0.2871219,487.96298,1,1,5,5,5,0,0
2017316000,2017316000,47.39754953099512,8.54670817784854,488.05972,488.05972,-0.0,-0.0,0.46923283,0.28750765,487.96292,1,1,5,5,5,0,0
2017332000,2017332000,47.39754952771951,8.546708177003747,488.05984,488.05984,-0.0,-0.0,0.4708795,0.2882811,487.9628,1,1,5,5,5,0,0
2017340000,2017340000,47.397549526011666,8.546708176649847,488.05988,488.05988,-0.0,-0.0,0.47169453,0.28770155,487.9629,1,1,5,5,5,0,0
2017348000,2017348000,47.39754952423155,8.546708176253148,488.05994,488.05994,-0.0,-0.0,0.47252533,0.28808856,487.96283,1,1,5,5,5,0,0
2017356000,2017356000,47.39754952243514,8.546708175854043,488.05997,488.05997,-0.0,-0.0,0.4733574,0.28847623,487.96277,1,1,5,5,5,0,0
2017372000,2017372000,47.397549518952104,8.546708175021744,488.06006,488.06006,-0.0,-0.0,0.47503433,0.28925347,487.96265,1,1,5,5,5,0,0
2017380000,2017380000,47.39754951721865,8.546708174645852,488.06012,488.06012,-0.0,-0.0,0.47587743,0.28964308,487.9626,1,1,5,5,5,0,0
2017388000,2017388000,47.39754951547882,8.546708174271265,488.06015,488.06015,-0.0,-0.0,0.47672364,0.29003328,487.96252,1,1,5,5,5,0,0
2017396000,2017396000,47.39754951371701,8.546708173803287,488.06018,488.06018,-0.0,-0.0,0.47757292,0.29042414,487.96246,1,1,5,5,5,0,0
2017412000,2017412000,47.397549510184064,8.546708172704125,488.0602,488.0602,-0.0,-0.0,0.4792662,0.2902148,487.96237,1,1,5,5,5,0,0
2017420000,2017420000,47.39754950838549,8.546708172152025,488.06024,488.06024,-0.0,-0.0,0.48012462,0.29060623,487.96228,1,1,5,5,5,0,0
2017428000,2017428000,47.39754950657126,8.546708171627554,488.06027,488.06027,-0.0,-0.0,0.48098615,0.29099828,487.9622,1,1,5,5,5,0,0
2017436000,2017436000,47.397549504783925,8.54670817115896,488.06027,488.06027,-0.0,-0.0,0.4818508,0.29139096,487.9621,1,1,5,5,5,0,0
2017452000,2017452000,47.39754950128019,8.546708170205326,488.0603,488.0603,-0.0,-0.0,0.4835896,0.2921782,487.9619,1,1,5,5,5,0,0
2017460000,2017460000,47.39754949948598,8.546708169718848,488.0603,488.0603,-0.0,-0.0,0.48446363,0.2925728,487.96182,1,1,5,5,5,0,0
2017468000,2017468000,47.39754949766815,8.546708169326656,488.0603,488.0603,-0.0,-0.0,0.48534086,0.29296803,487.96173,1,1,5,5,5,0,0
2017476000,2017476000,47.39754949580526,8.546708168988781,488.0603,488.0603,-0.0,-0.0,0.48622125,0.29336387,487.96164,1,1,5,5,5,0,0
2017492000,2017492000,47.397549491987775,8.54670816833832,488.06024,488.06024,-0.0,-0.0,0.48797476,0.29313692,487.96124,1,1,5,5,5,0,0
2017500000,2017500000,47.39754949006253,8.546708168121695,488.0602,488.0602,-0.0,-0.0,0.48886442,0.2935333,487.96115,1,1,5,5,5,0,0
2017508000,2017508000,47.397549488097084,8.546708167931378,488.06018,488.06018,-0.0,-0.0,0.48975724,0.2939303,487.96106,1,1,5,5,5,0,0
2017516000,2017516000,47.397549486086056,8.54670816773134,488.06015,488.06015,-0.0,-0.0,0.49065322,0.2943279,487.96097,1,1,5,5,5,0,0
2017532000,2017532000,47.39754948210927,8.54670816749197,488.06006,488.06006,-0.0,-0.0,0.49245477,0.29512507,487.9608,1,1,5,5,5,0,0
2017540000,2017540000,47.39754948003286,8.546708167440762,488.06003,488.06003,-0.0,-0.0,0.49336034,0.29552457,487.9607,1,1,5,5,5,0,0
2017548000,2017548000,47.39754947794304,8.546708167488205,488.05997,488.05997,-0.0,-0.0,0.49425086,0.29592472,487.9606,1,1,5,5,5,0,0
2017556000,2017556000,47.39754947577555,8.546708167594206,488.05994,488.05994,-0.0,-0.0,0.49516,0.29527947,487.96115,1,1,5,5,5,0,0
2017572000,2017572000,47.397549471331395,8.546708167969582,488.05984,488.05984,-0.0,-0.0,0.496993,0.29608005,487.96097,1,1,5,5,5,0,0
2017580000,2017580000,47.39754946899604,8.546708168103317,488.0598,488.0598,-0.0,-0.0,0.49791434,0.2964813,487.96088,1,1,5,5,5,0,0
2017588000,2017588000,47.397549466558814,8.546708168287521,488.05978,488.05978,-0.0,-0.0,0.4988389,0.29688317,487.9608,1,1,5,5,5,0,0
2017596000,2017596000,47.3975494640453,8.546708168510676,488.05972,488.05972,-0.0,-0.0,0.49976668,0.29728565,487.9607,1,1,5,5,5,0,0
2017612000,2017612000,47.39754946002739,8.546708168953291,488.0598,488.0598,-0.0,-0.0,0.45882937,0.28405407,487.96564,1,1,5,5,5,0,0
2017620000,2017620000,47.397549458532026,8.546708169312652,488.05994,488.05994,-0.0,-0.0,0.45960182,0.28350875,487.96555,1,1,5,5,5,0,0
2017628000,2017628000,47.397549457033236,8.546708169722212,488.06006,488.06006,-0.0,-0.0,0.4603874,0.28388828,487.96545,1,1,5,5,5,0,0
2017636000,2017636000,47.3975494555281,8.54670817013748,488.06018,488.06018,-0.0,-0.0,0.46117595,0.28426844,487.96536,1,1,5,5,5,0,0
2017652000,2017652000,47.39754945249956,8.54670817094391,488.0604,488.0604,-0.0,-0.0,0.46276203,0.2850307,487.96518,1,1,5,5,5,0,0
2017660000,2017660000,47.39754945094773,8.546708171321473,488.0605,488.0605,-0.0,-0.0,0.46355957,0.28541282,487.9651,1,1,5,5,5,0,0
2017668000,2017668000,47.39754944937861,8.54670817166706,488.06058,488.06058,-0.0,-0.0,0.46436012,0.28579554,487.965,1,1,5,5,5,0,0
2017676000,2017676000,47.39754944782535,8.546708172001399,488.0607,488.0607,-0.0,-0.0,0.4651637,0.28523636,487.9653,1,1,5,5,5,0,0
2017692000,2017692000,47.39754944474718,8.546708172692068,488.0609,488.0609,-0.0,-0.0,0.46676815,0.28600255,487.96512,1,1,5,5,5,0,0
2017700000,2017700000,47.39754944319354,8.546708173062996,488.061,488.061,-0.0,-0.0,0.46758062,0.28638658,487.96503,1,1,5,5,5,0,0
2017708000,2017708000,47.397549441638,8.546708173413608,488.06113,488.06113,-0.0,-0.0,0.46839613,0.28677127,487.96494,1,1,5,5,5,0,0
2017716000,2017716000,47.39754944005237,8.546708173697212,488.0612,488.0612,-0.0,-0.0,0.46921468,0.28715658,487.96484,1,1,5,5,5,0,0
2017732000,2017732000,47.397549436752385,8.546708174204424,488.06134,488.06134,-0.0,-0.0,0.470861,0.28792915,487.96466,1,1,5,5,5,0,0
2017740000,2017740000,47.39754943510503,8.546708174516302,488.06143,488.06143,-0.0,-0.0,0.47168872,0.28735262,487.96487,1,1,5,5,5,0,0
2017748000,2017748000,47.39754943345953,8.54670817486271,488.06152,488.06152,-0.0,-0.0,0.4725195,0.28773922,487.96478,1,1,5,5,5,0,0
2017756000,2017756000,47.39754943182094,8.546708175221006,488.0616,488.0616,-0.0,-0.0,0.47335157,0.28812644,487.9647,1,1,5,5,5,0,0
2017772000,2017772000,47.39754942855943,8.546708176070538,488.06177,488.06177,-0.0,-0.0,0.4750149,0.2889028,487.9645,1,1,5,5,5,0,0
2017780000,2017780000,47.39754942690109,8.546708176523461,488.06183,488.06183,-0.0,-0.0,0.47585782,0.28929192,487.96442,1,1,5,5,5,0,0
2017788000,2017788000,47.39754942523374,8.546708176962273,488.0619,488.0619,-0.0,-0.0,0.47670385,0.28968167,487.96432,1,1,5,5,5,0,0
2017796000,2017796000,47.397549423575946,8.546708177396555,488.06192,488.06192,-0.0,-0.0,0.47755298,0.28909066,487.96426,1,1,5,5,5,0,0
2017812000,2017812000,47.39754942038507,8.546708178314796,488.06204,488.06204,-0.0,-0.0,0.47926056,0.28987074,487.9641,1,1,5,5,5,0,0
2017820000,2017820000,47.397549418878185,8.546708178749999,488.06207,488.06207,-0.0,-0.0,0.48011908,0.29026175,487.96405,1,1,5,5,5,0,0
2017828000,2017828000,47.397549417326545,8.546708179181124,488.06213,488.06213,-0.0,-0.0,0.48096567,0.29065338,487.964,1,1,5,5,5,0,0
2017836000,2017836000,47.3975494157865,8.54670817961747,488.06216,488.06216,-0.0,-0.0,0.4818302,0.29104567,487.96393,1,1,5,5,5,0,0
2017852000,2017852000,47.397549412578975,8.546708180701962,488.06223,488.06223,-0.0,-0.0,0.48356867,0.2918321,487.9638,1,1,5,5,5,0,0
2017860000,2017860000,47.39754941089647,8.546708181224384,488.06226,488.06226,-0.0,-0.0,0.48444262,0.29222625,487.96375,1,1,5,5,5,0,0
2017868000,2017868000,47.39754940917371,8.54670818175787,488.0623,488.0623,-0.0,-0.0,0.48531973,0.29161364,487.96405,1,1,5,5,5,0,0
2017876000,2017876000,47.397549407416946,8.546708182314005,488.06232,488.06232,-0.0,-0.0,0.48619995,0.2920077,487.964,1,1,5,5,5,0,0
2017892000,2017892000,47.39754940384106,8.546708183428604,488.06235,488.06235,-0.0,-0.0,0.4879699,0.29279777,487.96387,1,1,5,5,5,0,0
2017900000,2017900000,47.3975494020199,8.546708184000998,488.06235,488.06235,-0.0,-0.0,0.4888428,0.29319376,487.9638,1,1,5,5,5,0,0
2017908000,2017908000,47.397549400176004,8.546708184689857,488.06238,488.06238,-0.0,-0.0,0.48973548,0.29359034,487.96375,1,1,5,5,5,0,0
2017916000,2017916000,47.39754939832376,8.546708185436948,488.06238,488.06238,-0.0,-0.0,0.49063134,0.29398757,487.96368,1,1,5,5,5,0,0
2017932000,2017932000,47.39754939454789,8.546708186882855,488.06238,488.06238,-0.0,-0.0,0.49243268,0.29478395,487.96356,1,1,5,5,5,0,0
2017940000,2017940000,47.39754939264238,8.546708187560139,488.06238,488.06238,-0.0,-0.0,0.4933381,0.29414904,487.96375,1,1,5,5,5,0,0
2017948000,2017948000,47.397549390705365,8.546708188201315,488.06235,488.06235,-0.0,-0.0,0.49424672,0.2945474,487.96375,1,1,5,5,5,0,0
2017956000,2017956000,47.39754938874689,8.54670818884553,488.06235,488.06235,-0.0,-0.0,0.49515855,0.2949464,487.96375,1,1,5,5,5,0,0
2017972000,2017972000,47.39754938491995,8.546708190105827,488.06235,488.06235,-0.0,-0.0,0.49697298,0.2957463,487.96375,1,1,5,5,5,0,0
2017980000,2017980000,47.39754938303825,8.54670819069516,488.06232,488.06232,-0.0,-0.0,0.49789423,0.29614717,487.96375,1,1,5,5,5,0,0
2017988000,2017988000,47.39754938116123,8.546708191271845,488.06232,488.06232,-0.0,-0.0,0.4988187,0.29654866,487.96375,1,1,5,5,5,0,0
2017996000,2017996000,47.3975493792387,8.5467081918798,488.0623,488.0623,-0.0,-0.0,0.4997464,0.29695082,487.96375,1,1,5,5,5,0,0
2018012000,2018012000,47.39754937832514,8.546708191266015,488.06232,488.06232,-0.0,-0.0,0.4588153,0.28284636,487.96375,1,1,5,5,5,0,0
2018020000,2018020000,47.39754937933138,8.546708190012268,488.0624,488.0624,-0.0,-0.0,0.459598,0.28322497,487.96375,1,1,5,5,5,0,0
2018028000,2018028000,47.39754938024478,8.546708188780787,488.06247,488.06247,-0.0,-0.0,0.46038365,0.2836042,487.96375,1,1,5,5,5,0,0
2018036000,2018036000,47.39754938105873,8.546708187565672,488.06253,488.06253,-0.0,-0.0,0.46117234,0.28398412,487.96375,1,1,5,5,5,0,0
2018052000,2018052000,47.3975493823415,8.54670818505576,488.06262,488.06262,-0.0,-0.0,0.4627477,0.2847458,487.96375,1,1,5,5,5,0,0
2018060000,2018060000,47.397549382847,8.546708183780568,488.06268,488.06268,-0.0,-0.0,0.4635452,0.2841954,487.96375,1,1,5,5,5,0,0
2018068000,2018068000,47.39754938330724,8.546708182541117,488.0627,488.0627,-0.0,-0.0,0.46434572,0.2845766,487.96375,1,1,5,5,5,0,0
2018076000,2018076000,47.397549383738365,8.546708181320128,488.06274,488.06274,-0.0,-0.0,0.46514922,0.28495845,487.96375,1,1,5,5,5,0,0
2018092000,2018092000,47.39754938442108,8.546708178979362,488.0628,488.0628,-0.0,-0.0,0.46676534,0.2857241,487.96375,1,1,5,5,5,0,0
2018100000,2018100000,47.397549384613846,8.546708177824287,488.06284,488.06284,-0.0,-0.0,0.46757793,0.2861079,487.96375,1,1,5,5,5,0,0
2018108000,2018108000,47.39754938471029,8.546708176693324,488.06284,488.06284,-0.0,-0.0,0.46839356,0.28649232,487.96375,1,1,5,5,5,0,0
2018116000,2018116000,47.39754938469583,8.546708175590148,488.06287,488.06287,-0.0,-0.0,0.46919996,0.2868774,487.96375,1,1,5,5,5,0,0
2018132000,2018132000,47.3975493845034,8.546708173390265,488.0629,488.0629,-0.0,-0.0,0.47084612,0.28669232,487.96375,1,1,5,5,5,0,0
2018140000,2018140000,47.3975493843905,8.54670817224565,488.06293,488.06293,-0.0,-0.0,0.47167382,0.28707802,487.96375,1,1,5,5,5,0,0
2018148000,2018148000,47.39754938423692,8.546708171162056,488.06296,488.06296,-0.0,-0.0,0.47250456,0.28746435,487.96375,1,1,5,5,5,0,0
2018156000,2018156000,47.39754938403938,8.546708170106879,488.06296,488.06296,-0.0,-0.0,0.47333837,0.28785133,487.96375,1,1,5,5,5,0,0
2018172000,2018172000,47.397549383474306,8.546708168097211,488.063,488.063,-0.0,-0.0,0.47501522,0.28862724,487.96375,1,1,5,5,5,0,0
2018180000,2018180000,47.3975493831047,8.546708167143402,488.063,488.063,-0.0,-0.0,0.47584447,0.28901616,487.96375,1,1,5,5,5,0,0
2018188000,2018188000,47.397549382673,8.5467081661986,488.063,488.063,-0.0,-0.0,0.47669047,0.2894057,487.96375,1,1,5,5,5,0,0
2018196000,2018196000,47.39754938218911,8.54670816527991,488.063,488.063,-0.0,-0.0,0.4775395,0.28979588,487.96375,1,1,5,5,5,0,0
2018212000,2018212000,47.39754938118798,8.54670816355955,488.06305,488.06305,-0.0,-0.0,0.47924694,0.2895942,487.96375,1,1,5,5,5,0,0
2018220000,2018220000,47.39754938061159,8.546708162810026,488.06305,488.06305,-0.0,-0.0,0.48010534,0.28998497,487.96375,1,1,5,5,5,0,0
2018228000,2018228000,47.3975493800134,8.546708162137168,488.06305,488.06305,-0.0,-0.0,0.48096687,0.29037637,487.96375,1,1,5,5,5,0,0
2018236000,2018236000,47.397549379400175,8.54670816146596,488.06305,488.06305,-0.0,-0.0,0.4818315,0.2907684,487.96375,1,1,5,5,5,0,0
2018252000,2018252000,47.397549378149094,8.546708160188548,488.06305,488.06305,-0.0,-0.0,0.4835546,0.2915544,487.96375,1,1,5,5,5,0,0
2018260000,2018260000,47.397549377479834,8.54670815963208,488.06305,488.06305,-0.0,-0.0,0.48442847,0.29194835,487.96375,1,1,5,5,5,0,0
2018268000,2018268000,47.39754937677535,8.546708159125997,488.06305,488.06305,-0.0,-0.0,0.48530546,0.2923429,487.96375,1,1,5,5,5,0,0
2018276000,2018276000,47.39754937604176,8.546708158585202,488.06305,488.06305,-0.0,-0.0,0.4861856,0.29172945,487.96375,1,1,5,5,5,0,0
2018292000,2018292000,47.397549374439116,8.546708157362211,488.06302,488.06302,-0.0,-0.0,0.4879554,0.29251903,487.96375,1,1,5,5,5,0,0
2018300000,2018300000,47.39754937354332,8.546708156822818,488.06302,488.06302,-0.0,-0.0,0.48884505,0.29291478,487.96375,1,1,5,5,5,0,0
2018308000,2018308000,47.39754937260906,8.546708156379134,488.063,488.063,-0.0,-0.0,0.48973787,0.29331115,487.96375,1,1,5,5,5,0,0
2018316000,2018316000,47.39754937162506,8.546708155983096,488.063,488.063,-0.0,-0.0,0.49063385,0.29370815,487.96375,1,1,5,5,5,0,0
2018332000,2018332000,47.39754936939667,8.546708155462921,488.06293,488.06293,-0.0,-0.0,0.49241766,0.29450405,487.96375,1,1,5,5,5,0,0
2018340000,2018340000,47.39754936818923,8.546708155254134,488.06293,488.06293,-0.0,-0.0,0.493323,0.29490295,487.96375,1,1,5,5,5,0,0
2018348000,2018348000,47.39754936694983,8.546708155079267,488.0629,488.0629,-0.0,-0.0,0.49423152,0.29426718,487.96375,1,1,5,5,5,0,0
2018356000,2018356000,47.39754936567584,8.54670815492692,488.06287,488.06287,-0.0,-0.0,0.4951433,0.29466593,487.96375,1,1,5,5,5,0,0
2018372000,2018372000,47.39754936306137,8.546708154615498,488.06284,488.06284,-0.0,-0.0,0.4969764,0.29546535,487.96375,1,1,5,5,5,0,0
2018380000,2018380000,47.39754936173021,8.546708154477455,488.06284,488.06284,-0.0,-0.0,0.49789777,0.29586598,487.96375,1,1,5,5,5,0,0
2018388000,2018388000,47.39754936036049,8.546708154370323,488.0628,488.0628,-0.0,-0.0,0.49882236,0.29626727,487.96375,1,1,5,5,5,0,0
2018396000,2018396000,47.39754935894311,8.546708154175265,488.0628,488.0628,-0.0,-0.0,0.49973056,0.29666916,487.96375,1,1,5,5,5,0,0
2018412000,2018412000,47.39754935811614,8.546708153952164,488.0629,488.0629,-0.0,-0.0,0.4588048,0.28351748,487.96375,1,1,5,5,5,0,0
2018420000,2018420000,47.397549358698825,8.546708153968282,488.06302,488.06302,-0.0,-0.0,0.4595874,0.28297684,487.96375,1,1,5,5,5,0,0
2018428000,2018428000,47.397549359225515,8.54670815392719,488.06314,488.06314,-0.0,-0.0,0.460373,0.2833559,487.96375,1,1,5,5,5,0,0
2018436000,2018436000,47.397549359677726,8.546708153849316,488.06326,488.06326,-0.0,-0.0,0.46116158,0.28373557,487.96375,1,1,5,5,5,0,0
2018452000,2018452000,47.39754936054125,8.546708153807943,488.06348,488.06348,-0.0,-0.0,0.46274778,0.28449687,487.96375,1,1,5,5,5,0,0
2018460000,2018460000,47.3975493609292,8.546708153844083,488.0636,488.0636,-0.0,-0.0,0.46354535,0.2848785,487.96375,1,1,5,5,5,0,0
2018468000,2018468000,47.397549361279445,8.546708153860438,488.0637,488.0637,-0.0,-0.0,0.46433467,0.28526077,487.96375,1,1,5,5,5,0,0
2018476000,2018476000,47.39754936157409,8.54670815386174,488.06378,488.06378,-0.0,-0.0,0.46513814,0.2856437,487.96375,1,1,5,5,5,0,0
2018492000,2018492000,47.397549361946254,8.546708153763111,488.06396,488.06396,-0.0,-0.0,0.46675414,0.28546655,487.96375,1,1,5,5,5,0,0
2018500000,2018500000,47.39754936200763,8.54670815368798,488.06406,488.06406,-0.0,-0.0,0.4675667,0.28585014,487.96375,1,1,5,5,5,0,0
2018508000,2018508000,47.397549362003126,8.546708153624964,488.06412,488.06412,-0.0,-0.0,0.46838227,0.28623432,487.96375,1,1,5,5,5,0,0
2018516000,2018516000,47.39754936195508,8.546708153667387,488.0642,488.0642,-0.0,-0.0,0.46920094,0.2866192,487.96375,1,1,5,5,5,0,0
2018532000,2018532000,47.39754936169778,8.546708153761168,488.06433,488.06433,-0.0,-0.0,0.47083476,0.2873908,487.96375,1,1,5,5,5,0,0
2018540000,2018540000,47.39754936147193,8.546708153893345,488.0644,488.0644,-0.0,-0.0,0.4716624,0.28777757,487.96375,1,1,5,5,5,0,0
2018548000,2018548000,47.39754936116008,8.546708154072604,488.06445,488.06445,-0.0,-0.0,0.47249314,0.288165,487.96375,1,1,5,5,5,0,0
2018556000,2018556000,47.39754936081041,8.546708154224733,488.0645,488.0645,-0.0,-0.0,0.47332698,0.28855306,487.96375,1,1,5,5,5,0,0
2018572000,2018572000,47.39754935994642,8.546708154593675,488.0646,488.0646,-0.0,-0.0,0.4750038,0.28835976,487.96375,1,1,5,5,5,0,0
2018580000,2018580000,47.397549359439054,8.546708154872961,488.06464,488.06464,-0.0,-0.0,0.47584683,0.2887484,487.96375,1,1,5,5,5,0,0
2018588000,2018588000,47.3975493588723,8.546708155201287,488.0647,488.0647,-0.0,-0.0,0.47669297,0.28913772,487.96375,1,1,5,5,5,0,0
2018596000,2018596000,47.39754935826486,8.546708155578422,488.06473,488.06473,-0.0,-0.0,0.47754222,0.28952768,487.96375,1,1,5,5,5,0,0
2018612000,2018612000,47.39754935698793,8.546708156497527,488.06482,488.06482,-0.0,-0.0,0.4792355,0.29030946,487.96375,1,1,5,5,5,0,0
2018620000,2018620000,47.39754935629444,8.546708156958827,488.06488,488.06488,-0.0,-0.0,0.4800939,0.2907013,487.96375,1,1,5,5,5,0,0
2018628000,2018628000,47.397549355533144,8.546708157486346,488.0649,488.0649,-0.0,-0.0,0.48095542,0.2910938,487.96375,1,1,5,5,5,0,0
2018636000,2018636000,47.39754935471307,8.546708158010443,488.06494,488.06494,-0.0,-0.0,0.48182008,0.2904911,487.96375,1,1,5,5,5,0,0
2018652000,2018652000,47.39754935286738,8.546708159073567,488.06497,488.06497,-0.0,-0.0,0.4835588,0.29127654,487.96375,1,1,5,5,5,0,0
2018660000,2018660000,47.397549351859105,8.546708159685526,488.065,488.065,-0.0,-0.0,0.48443288,0.29167023,487.96375,1,1,5,5,5,0,0
2018668000,2018668000,47.397549350814,8.546708160356724,488.065,488.065,-0.0,-0.0,0.4853101,0.29206452,487.96375,1,1,5,5,5,0,0
2018676000,2018676000,47.39754934972535,8.546708161129766,488.06503,488.06503,-0.0,-0.0,0.48617426,0.2924595,487.96375,1,1,5,5,5,0,0
2018692000,2018692000,47.39754934740122,8.546708162811168,488.06503,488.06503,-0.0,-0.0,0.48794407,0.29325128,487.96375,1,1,5,5,5,0,0
2018700000,2018700000,47.397549346183276,8.54670816374317,488.06503,488.06503,-0.0,-0.0,0.4888337,0.29364812,487.96375,1,1,5,5,5,0,0
2018708000,2018708000,47.397549344971104,8.546708164671394,488.06503,488.06503,-0.0,-0.0,0.48972654,0.29302344,487.96375,1,1,5,5,5,0,0
2018716000,2018716000,47.39754934376848,8.546708165670136,488.06503,488.06503,-0.0,-0.0,0.49062255,0.29342017,487.96375,1,1,5,5,5,0,0
2018732000,2018732000,47.39754934131325,8.546708167862677,488.065,488.065,-0.0,-0.0,0.4924241,0.29421553,487.96375,1,1,5,5,5,0,0
2018740000,2018740000,47.397549340030515,8.546708169015064,488.065,488.065,-0.0,-0.0,0.4933297,0.29461414,487.96375,1,1,5,5,5,0,0
2018748000,2018748000,47.39754933878283,8.54670817014092,488.06497,488.06497,-0.0,-0.0,0.49422026,0.29501337,487.96375,1,1,5,5,5,0,0
2018756000,2018756000,47.39754933753558,8.546708171203118,488.06497,488.06497,-0.0,-0.0,0.49513203,0.29541326,487.96375,1,1,5,5,5,0,0
2018772000,2018772000,47.397549334966534,8.546708173336276,488.0649,488.0649,-0.0,-0.0,0.49696523,0.29621488,487.96375,1,1,5,5,5,0,0
2018780000,2018780000,47.3975493336022,8.546708174450838,488.06488,488.06488,-0.0,-0.0,0.49788666,0.2955675,487.96375,1,1,5,5,5,0,0
2018788000,2018788000,47.39754933216528,8.546708175584666,488.06485,488.06485,-0.0,-0.0,0.4988113,0.29596847,487.96375,1,1,5,5,5,0,0
2018796000,2018796000,47.39754933067907,8.5467081766099,488.06482,488.06482,-0.0,-0.0,0.49973914,0.29637006,487.96375,1,1,5,5,5,0,0
2018812000,2018812000,47.39754932946338,8.546708175509101,488.06473,488.06473,-0.0,-0.0,0.45880565,0.2832572,487.96375,1,1,5,5,5,0,0
2018820000,2018820000,47.397549329757126,8.546708173493546,488.0647,488.0647,-0.0,-0.0,0.45957813,0.28363657,487.96375,1,1,5,5,5,0,0
2018828000,2018828000,47.397549330022066,8.546708171507117,488.06464,488.06464,-0.0,-0.0,0.46036372,0.28401658,487.96375,1,1,5,5,5,0,0
2018836000,2018836000,47.39754933021669,8.546708169579446,488.0646,488.0646,-0.0,-0.0,0.46115232,0.28439724,487.96375,1,1,5,5,5,0,0
2018852000,2018852000,47.39754933039467,8.546708165976039,488.06448,488.06448,-0.0,-0.0,0.46273848,0.28422794,487.96375,1,1,5,5,5,0,0
2018860000,2018860000,47.39754933037335,8.546708164336042,488.06445,488.06445,-0.0,-0.0,0.46353608,0.28460926,487.96375,1,1,5,5,5,0,0
2018868000,2018868000,47.397549330267914,8.546708162829947,488.0644,488.0644,-0.0,-0.0,0.46433672,0.28499126,487.96375,1,1,5,5,5,0,0
2018876000,2018876000,47.39754933012498,8.546708161407185,488.06436,488.06436,-0.0,-0.0,0.46514034,0.2853739,487.96375,1,1,5,5,5,0,0
2018892000,2018892000,47.39754932965893,8.54670815876,488.0643,488.0643,-0.0,-0.0,0.4667449,0.2861411,487.96375,1,1,5,5,5,0,0
2018900000,2018900000,47.39754932933017,8.546708157537832,488.06424,488.06424,-0.0,-0.0,0.46755746,0.28652567,487.96375,1,1,5,5,5,0,0
2018908000,2018908000,47.39754932895693,8.546708156362982,488.0642,488.0642,-0.0,-0.0,0.46837306,0.28691086,487.96375,1,1,5,5,5,0,0
2018916000,2018916000,47.39754932853531,8.546708155267504,488.06415,488.06415,-0.0,-0.0,0.46919173,0.28634307,487.96375,1,1,5,5,5,0,0
2018932000,2018932000,47.39754932764689,8.546708153329645,488.06403,488.06403,-0.0,-0.0,0.47083816,0.2871141,487.96375,1,1,5,5,5,0,0
2018940000,2018940000,47.397549327090864,8.546708152467863,488.06396,488.06396,-0.0,-0.0,0.47166598,0.2875006,487.96375,1,1,5,5,5,0,0
2018948000,2018948000,47.39754932643689,8.546708151679377,488.0639,488.0639,-0.0,-0.0,0.47249687,0.28788772,487.96375,1,1,5,5,5,0,0
2018956000,2018956000,47.39754932569304,8.546708150983319,488.06384,488.06384,-0.0,-0.0,0.47333083,0.28827548,487.96375,1,1,5,5,5,0,0
2018972000,2018972000,47.39754932410431,8.546708149571685,488.06372,488.06372,-0.0,-0.0,0.4749944,0.28808174,487.96375,1,1,5,5,5,0,0
2018980000,2018980000,47.39754932325874,8.546708148814574,488.06366,488.06366,-0.0,-0.0,0.47583744,0.28847012,487.96375,1,1,5,5,5,0,0
2018988000,2018988000,47.39754932237144,8.546708148125544,488.0636,488.0636,-0.0,-0.0,0.4766836,0.28885913,487.96375,1,1,5,5,5,0,0
2018996000,2018996000,47.39754932145021,8.546708147473925,488.06354,488.06354,-0.0,-0.0,0.47753283,0.2892488,487.96375,1,1,5,5,5,0,0
2019012000,2019012000,47.39754931943441,8.546708146396371,488.06342,488.06342,-0.0,-0.0,0.47924063,0.29002997,487.96375,1,1,5,5,5,0,0
2019020000,2019020000,47.397549318371226,8.546708145940396,488.06332,488.06332,-0.0,-0.0,0.4800992,0.29042155,487.96375,1,1,5,5,5,0,0
2019028000,2019028000,47.39754931724493,8.546708145517623,488.06326,488.06326,-0.0,-0.0,0.4809609,0.29081374,487.96375,1,1,5,5,5,0,0
2019036000,2019036000,47.39754931605464,8.546708145126766,488.06317,488.06317,-0.0,-0.0,0.48181057,0.29120657,487.96375,1,1,5,5,5,0,0
2019052000,2019052000,47.39754931354017,8.546708144465468,488.06302,488.06302,-0.0,-0.0,0.4835493,0.2909958,487.96375,1,1,5,5,5,0,0
2019060000,2019060000,47.39754931221233,8.546708144183599,488.06293,488.06293,-0.0,-0.0,0.4844234,0.29138917,487.96375,1,1,5,5,5,0,0
2019068000,2019068000,47.39754931086322,8.54670814397218,488.06284,488.06284,-0.0,-0.0,0.4853006,0.29178318,487.96375,1,1,5,5,5,0,0
2019076000,2019076000,47.39754930950465,8.546708143810003,488.06274,488.06274,-0.0,-0.0,0.486181,0.29217786,487.96375,1,1,5,5,5,0,0
2019092000,2019092000,47.39754930662265,8.546708143521688,488.06256,488.06256,-0.0,-0.0,0.48795122,0.29296905,487.96375,1,1,5,5,5,0,0
2019100000,2019100000,47.39754930508815,8.546708143426466,488.06247,488.06247,-0.0,-0.0,0.4888242,0.2933656,487.96375,1,1,5,5,5,0,0
2019108000,2019108000,47.39754930346606,8.546708143452145,488.06238,488.06238,-0.0,-0.0,0.48971704,0.29376277,487.96375,1,1,5,5,5,0,0
2019116000,2019116000,47.39754930178878,8.54670814345519,488.0623,488.0623,-0.0,-0.0,0.49061304,0.2931372,487.96375,1,1,5,5,5,0,0
2019132000,2019132000,47.39754929836665,8.546708143415328,488.06213,488.06213,-0.0,-0.0,0.49241462,0.29393193,487.96375,1,1,5,5,5,0,0
2019140000,2019140000,47.39754929666722,8.54670814346617,488.06204,488.06204,-0.0,-0.0,0.49332023,0.29433027,487.96375,1,1,5,5,5,0,0
2019148000,2019148000,47.39754929493406,8.546708143553968,488.06195,488.06195,-0.0,-0.0,0.494229,0.2947292,487.96375,1,1,5,5,5,0,0
2019156000,2019156000,47.39754929314548,8.546708143669807,488.06186,488.06186,-0.0,-0.0,0.49514103,0.2951288,487.96375,1,1,5,5,5,0,0
2019172000,2019172000,47.39754928941238,8.546708143955083,488.0617,488.0617,-0.0,-0.0,0.49695575,0.29592985,487.96375,1,1,5,5,5,0,0
2019180000,2019180000,47.397549287511644,8.54670814410464,488.0616,488.0616,-0.0,-0.0,0.49787715,0.29528517,487.96375,1,1,5,5,5,0,0
2019188000,2019188000,47.39754928557949,8.546708144280053,488.06155,488.06155,-0.0,-0.0,0.49880177,0.29568583,487.96375,1,1,5,5,5,0,0
2019196000,2019196000,47.39754928362686,8.546708144467855,488.06146,488.06146,-0.0,-0.0,0.49972963,0.29608715,487.96375,1,1,5,5,5,0,0
2019212000,2019212000,47.397549283544116,8.546708144374726,488.06143,488.06143,-0.0,-0.0,0.45879856,0.28301087,487.96375,1,1,5,5,5,0,0
2019220000,2019220000,47.39754928534582,8.546708144145859,488.0615,488.0615,-0.0,-0.0,0.45958132,0.28339002,487.96375,1,1,5,5,5,0,0
2019228000,2019228000,47.397549287074746,8.546708143933824,488.06155,488.06155,-0.0,-0.0,0.46036702,0.28376982,487.96375,1,1,5,5,5,0,0
2019236000,2019236000,47.397549288665004,8.546708143750287,488.0616,488.0616,-0.0,-0.0,0.46114516,0.28322747,487.96375,1,1,5,5,5,0,0
2019252000,2019252000,47.3975492914959,8.546708143500238,488.06177,488.06177,-0.0,-0.0,0.46273124,0.28398782,487.96375,1,1,5,5,5,0,0
2019260000,2019260000,47.397549292744166,8.54670814346508,488.06183,488.06183,-0.0,-0.0,0.4635288,0.28436893,487.96375,1,1,5,5,5,0,0
2019268000,2019268000,47.39754929385445,8.546708143448827,488.06192,488.06192,-0.0,-0.0,0.46432936,0.28475073,487.96375,1,1,5,5,5,0,0
2019276000,2019276000,47.39754929490664,8.546708143463317,488.06198,488.06198,-0.0,-0.0,0.46513295,0.28513315,487.96375,1,1,5,5,5,0,0
2019292000,2019292000,47.39754929680459,8.546708143655257,488.06207,488.06207,-0.0,-0.0,0.46674925,0.2858999,487.96375,1,1,5,5,5,0,0
2019300000,2019300000,47.39754929761388,8.546708143873307,488.06213,488.06213,-0.0,-0.0,0.46756193,0.28628427,487.96375,1,1,5,5,5,0,0
2019308000,2019308000,47.39754929834527,8.546708144159528,488.06216,488.06216,-0.0,-0.0,0.46836555,0.2857218,487.96375,1,1,5,5,5,0,0
2019316000,2019316000,47.397549298991805,8.546708144411769,488.06223,488.06223,-0.0,-0.0,0.46918416,0.28610617,487.96375,1,1,5,5,5,0,0
2019332000,2019332000,47.39754929991847,8.546708144961368,488.0623,488.0623,-0.0,-0.0,0.4708306,0.28687683,487.96375,1,1,5,5,5,0,0
2019340000,2019340000,47.397549300254695,8.546708145356229,488.06232,488.06232,-0.0,-0.0,0.4716584,0.2872631,487.96375,1,1,5,5,5,0,0
2019348000,2019348000,47.397549300524304,8.54670814581548,488.06232,488.06232,-0.0,-0.0,0.4724893,0.28765002,487.96375,1,1,5,5,5,0,0
2019356000,2019356000,47.397549300753276,8.546708146298599,488.06235,488.06235,-0.0,-0.0,0.47332326,0.2880376,487.96375,1,1,5,5,5,0,0
2019372000,2019372000,47.397549301020845,8.54670814729034,488.06238,488.06238,-0.0,-0.0,0.47500044,0.28881463,487.96375,1,1,5,5,5,0,0
2019380000,2019380000,47.397549301025734,8.546708147796865,488.0624,488.0624,-0.0,-0.0,0.4758299,0.2882314,487.96375,1,1,5,5,5,0,0
2019388000,2019388000,47.39754930093503,8.546708148352899,488.0624,488.0624,-0.0,-0.0,0.47667605,0.2886202,487.96375,1,1,5,5,5,0,0
2019396000,2019396000,47.39754930077223,8.546708148969188,488.06244,488.06244,-0.0,-0.0,0.4775253,0.28900963,487.96375,1,1,5,5,5,0,0
2019412000,2019412000,47.397549300150715,8.546708150441908,488.06247,488.06247,-0.0,-0.0,0.47923318,0.28979042,487.96375,1,1,5,5,5,0,0
2019420000,2019420000,47.39754929973044,8.546708151296444,488.06247,488.06247,-0.0,-0.0,0.48009178,0.2901818,487.96375,1,1,5,5,5,0,0
2019428000,2019428000,47.39754929925654,8.54670815227022,488.0625,488.0625,-0.0,-0.0,0.48095354,0.29057378,487.96375,1,1,5,5,5,0,0
2019436000,2019436000,47.397549298691956,8.546708153346463,488.0625,488.0625,-0.0,-0.0,0.4818184,0.29096642,487.96375,1,1,5,5,5,0,0
2019452000,2019452000,47.39754929748569,8.5467081555343,488.06256,488.06256,-0.0,-0.0,0.483542,0.290755,487.96375,1,1,5,5,5,0,0
2019460000,2019460000,47.397549296878395,8.546708156710821,488.0626,488.0626,-0.0,-0.0,0.4844161,0.2911482,487.96375,1,1,5,5,5,0,0
2019468000,2019468000,47.39754929619034,8.54670815800709,488.06262,488.06262,-0.0,-0.0,0.48529336,0.291542,487.96375,1,1,5,5,5,0,0
2019476000,2019476000,47.39754929544105,8.546708159306096,488.06265,488.06265,-0.0,-0.0,0.48617378,0.29193646,487.96375,1,1,5,5,5,0,0
2019492000,2019492000,47.39754929374106,8.54670816183898,488.06268,488.06268,-0.0,-0.0,0.48794407,0.29272726,487.96375,1,1,5,5,5,0,0
2019500000,2019500000,47.39754929277599,8.546708163132605,488.0627,488.0627,-0.0,-0.0,0.48883396,0.2931236,487.96375,1,1,5,5,5,0,0
2019508000,2019508000,47.397549291748305,8.546708164488336,488.0627,488.0627,-0.0,-0.0,0.48972708,0.29352057,487.96375,1,1,5,5,5,0,0
2019516000,2019516000,47.397549290667435,8.54670816584812,488.0627,488.0627,-0.0,-0.0,0.49062338,0.29391816,487.96375,1,1,5,5,5,0,0
2019532000,2019532000,47.39754928848225,8.546708168677554,488.06274,488.06274,-0.0,-0.0,0.49240774,0.2936889,487.96375,1,1,5,5,5,0,0
2019540000,2019540000,47.39754928735701,8.546708170146452,488.06274,488.06274,-0.0,-0.0,0.49331337,0.294087,487.96375,1,1,5,5,5,0,0
2019548000,2019548000,47.397549286215636,8.546708171620645,488.06274,488.06274,-0.0,-0.0,0.49422222,0.29448575,487.96375,1,1,5,5,5,0,0
2019556000,2019556000,47.39754928504576,8.54670817307555,488.06274,488.06274,-0.0,-0.0,0.49513432,0.29488513,487.96375,1,1,5,5,5,0,0
2019572000,2019572000,47.397549282547914,8.546708175935002,488.06274,488.06274,-0.0,-0.0,0.49696812,0.29568577,487.96375,1,1,5,5,5,0,0
2019580000,2019580000,47.39754928123946,8.546708177469895,488.06274,488.06274,-0.0,-0.0,0.49788985,0.29608706,487.96375,1,1,5,5,5,0,0
2019588000,2019588000,47.397549279910116,8.546708179145927,488.06274,488.06274,-0.0,-0.0,0.49881482,0.29648894,487.96375,1,1,5,5,5,0,0
2019596000,2019596000,47.39754927863041,8.546708180906222,488.06274,488.06274,-0.0,-0.0,0.49972332,0.2958394,487.96375,1,1,5,5,5,0,0
2019612000,2019612000,47.397549283129514,8.546708183836365,488.06302,488.06302,-0.0,-0.0,0.45889676,0.28282532,487.96375,1,1,5,5,5,0,0
2019620000,2019620000,47.397549285193385,8.546708185323888,488.06314,488.06314,-0.0,-0.0,0.4596802,0.2832044,487.96375,1,1,5,5,5,0,0
2019628000,2019628000,47.397549287180624,8.546708186832763,488.06323,488.06323,-0.0,-0.0,0.46046665,0.28358412,487.96375,1,1,5,5,5,0,0
2019636000,2019636000,47.397549289038245,8.546708188355266,488.06335,488.06335,-0.0,-0.0,0.46125612,0.2839645,487.96375,1,1,5,5,5,0,0
2019652000,2019652000,47.397549292350575,8.546708191465315,488.06354,488.06354,-0.0,-0.0,0.462844,0.2847272,487.96375,1,1,5,5,5,0,0
2019660000,2019660000,47.397549293834814,8.546708193079432,488.06363,488.06363,-0.0,-0.0,0.46364248,0.2851095,487.96375,1,1,5,5,5,0,0
2019668000,2019668000,47.39754929523062,8.546708194704589,488.0637,488.0637,-0.0,-0.0,0.46443266,0.28455657,487.96375,1,1,5,5,5,0,0
2019676000,2019676000,47.39754929649695,8.546708196324012,488.06378,488.06378,-0.0,-0.0,0.46523702,0.2849389,487.96375,1,1,5,5,5,0,0
2019692000,2019692000,47.397549298805544,8.546708199740415,488.0639,488.0639,-0.0,-0.0,0.46685484,0.2857055,487.96375,1,1,5,5,5,0,0
2019700000,2019700000,47.397549299790214,8.546708201516353,488.06396,488.06396,-0.0,-0.0,0.4676683,0.28608978,487.96375,1,1,5,5,5,0,0
2019708000,2019708000,47.39754930065127,8.54670820327235,488.06406,488.06406,-0.0,-0.0,0.46848485,0.28647467,487.96375,1,1,5,5,5,0,0
2019716000,2019716000,47.397549301447945,8.54670820504135,488.06412,488.06412,-0.0,-0.0,0.4693044,0.2868602,487.96375,1,1,5,5,5,0,0
2019732000,2019732000,47.39754930274186,8.546708208539707,488.06424,488.06424,-0.0,-0.0,0.47095278,0.2876332,487.96375,1,1,5,5,5,0,0
2019740000,2019740000,47.39754930318792,8.546708210348303,488.0643,488.0643,-0.0,-0.0,0.47176862,0.28705984,487.96375,1,1,5,5,5,0,0
2019748000,2019748000,47.397549303528756,8.546708212211744,488.06436,488.06436,-0.0,-0.0,0.47260028,0.28744665,487.96375,1,1,5,5,5,0,0
2019756000,2019756000,47.39754930379828,8.546708214158606,488.06445,488.06445,-0.0,-0.0,0.47343507,0.2878341,487.96375,1,1,5,5,5,0,0
2019772000,2019772000,47.39754930406283,8.54670821815948,488.06458,488.06458,-0.0,-0.0,0.47511384,0.2886109,487.96375,1,1,5,5,5,0,0
2019780000,2019780000,47.3975493040444,8.546708220129384,488.06464,488.06464,-0.0,-0.0,0.47595787,0.28900027,487.96375,1,1,5,5,5,0,0
2019788000,2019788000,47.39754930394565,8.54670822210834,488.06467,488.06467,-0.0,-0.0,0.476805,0.2893903,487.96375,1,1,5,5,5,0,0
2019796000,2019796000,47.397549303770376,8.546708224140673,488.06473,488.06473,-0.0,-0.0,0.47765526,0.2897809,487.96375,1,1,5,5,5,0,0
2019812000,2019812000,47.39754930320084,8.546708228266727,488.06482,488.06482,-0.0,-0.0,0.47935045,0.2895777,487.96375,1,1,5,5,5,0,0
2019820000,2019820000,47.39754930283101,8.546708230331514,488.06488,488.06488,-0.0,-0.0,0.48020983,0.2899689,487.96375,1,1,5,5,5,0,0
2019828000,2019828000,47.39754930243468,8.546708232359055,488.0649,488.0649,-0.0,-0.0,0.48107237,0.29036075,487.96375,1,1,5,5,5,0,0
2019836000,2019836000,47.39754930198635,8.54670823441836,488.06497,488.06497,-0.0,-0.0,0.48193803,0.29075325,487.96375,1,1,5,5,5,0,0
2019852000,2019852000,47.397549300845505,8.546708238677184,488.06506,488.06506,-0.0,-0.0,0.48367885,0.29154012,487.96375,1,1,5,5,5,0,0
2019860000,2019860000,47.3975493001861,8.546708240812587,488.0651,488.0651,-0.0,-0.0,0.484554,0.29193452,487.96375,1,1,5,5,5,0,0
2019868000,2019868000,47.39754929944199,8.546708242923097,488.06516,488.06516,-0.0,-0.0,0.48543227,0.29232955,487.96375,1,1,5,5,5,0,0
2019876000,2019876000,47.397549298582035,8.546708245062048,488.06522,488.06522,-0.0,-0.0,0.4862974,0.2927252,487.96375,1,1,5,5,5,0,0
2019892000,2019892000,47.39754929656974,8.546708249588033,488.06528,488.06528,-0.0,-0.0,0.48806944,0.29250443,487.96375,1,1,5,5,5,0,0
2019900000,2019900000,47.397549295396196,8.54670825193805,488.06534,488.06534,-0.0,-0.0,0.4889602,0.29290062,487.96375,1,1,5,5,5,0,0
2019908000,2019908000,47.39754929413431,8.546708254397057,488.06537,488.06537,-0.0,-0.0,0.4898542,0.29329744,487.96375,1,1,5,5,5,0,0
2019916000,2019916000,47.39754929277494,8.546708256915535,488.0654,488.0654,-0.0,-0.0,0.49075136,0.29369488,487.96375,1,1,5,5,5,0,0
2019932000,2019932000,47.397549289872266,8.546708262065875,488.06546,488.06546,-0.0,-0.0,0.4925553,0.29449165,487.96375,1,1,5,5,5,0,0
2019940000,2019940000,47.39754928840033,8.546708264637505,488.0655,488.0655,-0.0,-0.0,0.49346206,0.294891,487.96375,1,1,5,5,5,0,0
2019948000,2019948000,47.39754928687957,8.546708267142794,488.06552,488.06552,-0.0,-0.0,0.49435365,0.2942558,487.96375,1,1,5,5,5,0,0
2019956000,2019956000,47.39754928528126,8.546708269617879,488.06555,488.06555,-0.0,-0.0,0.49526662,0.29465497,487.96375,1,1,5,5,5,0,0
2019972000,2019972000,47.397549281845436,8.546708274466393,488.06558,488.06558,-0.0,-0.0,0.4971022,0.29545525,487.96375,1,1,5,5,5,0,0
2019980000,2019980000,47.39754928003082,8.546708276829685,488.0656,488.0656,-0.0,-0.0,0.49802485,0.29585636,487.96375,1,1,5,5,5,0,0
2019988000,2019988000,47.3975492781985,8.546708279175398,488.06564,488.06564,-0.0,-0.0,0.49895075,0.29625806,487.96375,1,1,5,5,5,0,0
2019996000,2019996000,47.39754927630818,8.546708281508133,488.06567,488.06567,-0.0,-0.0,0.4998799,0.2966604,487.96375,1,1,5,5,5,0,0
2020012000,2020012000,47.397549276200245,8.54670828121434,488.06598,488.06598,-0.0,-0.0,0.45888984,0.282593,487.96375,1,1,5,5,5,0,0
2020020000,2020020000,47.3975492779004,8.54670827876538,488.06628,488.06628,-0.0,-0.0,0.45966303,0.28297183,487.96375,1,1,5,5,5,0,0
2020028000,2020028000,47.39754927948189,8.546708276521473,488.06656,488.06656,-0.0,-0.0,0.46044937,0.28335127,487.96375,1,1,5,5,5,0,0
2020036000,2020036000,47.39754928092309,8.546708274391271,488.06683,488.06683,-0.0,-0.0,0.46123877,0.2837314,487.96375,1,1,5,5,5,0,0
2020052000,2020052000,47.39754928348821,8.546708270432196,488.06738,488.06738,-0.0,-0.0,0.4628265,0.28449354,487.96375,1,1,5,5,5,0,0
2020060000,2020060000,47.39754928463383,8.546708268688763,488.06763,488.06763,-0.0,-0.0,0.46362484,0.2848756,487.96375,1,1,5,5,5,0,0
2020068000,2020068000,47.397549285659686,8.546708267162002,488.06787,488.06787,-0.0,-0.0,0.46442625,0.2843247,487.96375,1,1,5,5,5,0,0
2020076000,2020076000,47.397549286625576,8.546708265847638,488.06808,488.06808,-0.0,-0.0,0.4652307,0.2847068,487.96375,1,1,5,5,5,0,0
2020092000,2020092000,47.39754928833045,8.546708263727346,488.0685,488.0685,-0.0,-0.0,0.46683687,0.2854729,487.96375,1,1,5,5,5,0,0
2020100000,2020100000,47.39754928905829,8.546708262849226,488.06873,488.06873,-0.0,-0.0,0.46765026,0.2858569,487.96375,1,1,5,5,5,0,0
2020108000,2020108000,47.3975492897412,8.546708262132741,488.06894,488.06894,-0.0,-0.0,0.4684667,0.28624156,487.96375,1,1,5,5,5,0,0
2020116000,2020116000,47.39754929034747,8.54670826157868,488.06912,488.06912,-0.0,-0.0,0.4692862,0.28662685,487.96375,1,1,5,5,5,0,0
2020132000,2020132000,47.39754929125732,8.546708260867497,488.06946,488.06946,-0.0,-0.0,0.47093442,0.28644723,487.96375,1,1,5,5,5,0,0
2020140000,2020140000,47.397549291536414,8.54670826075869,488.06964,488.06964,-0.0,-0.0,0.47176313,0.28683317,487.96375,1,1,5,5,5,0,0
2020148000,2020148000,47.39754929175299,8.546708260704433,488.0698,488.0698,-0.0,-0.0,0.47259495,0.28721976,487.96375,1,1,5,5,5,0,0
2020156000,2020156000,47.39754929189834,8.54670826067287,488.06995,488.06995,-0.0,-0.0,0.47342983,0.28760698,487.96375,1,1,5,5,5,0,0
2020172000,2020172000,47.39754929194222,8.54670826081888,488.07025,488.07025,-0.0,-0.0,0.4750952,0.28838333,487.96375,1,1,5,5,5,0,0
2020180000,2020180000,47.39754929182625,8.546708261060978,488.07037,488.07037,-0.0,-0.0,0.4759392,0.28877246,487.96375,1,1,5,5,5,0,0
2020188000,2020188000,47.39754929162621,8.546708261375612,488.0705,488.0705,-0.0,-0.0,0.47678632,0.28916222,487.96375,1,1,5,5,5,0,0
2020196000,2020196000,47.39754929131035,8.546708261675104,488.07062,488.07062,-0.0,-0.0,0.47763658,0.2885764,487.96375,1,1,5,5,5,0,0
2020212000,2020212000,47.39754929041094,8.546708262364588,488.07086,488.07086,-0.0,-0.0,0.4793464,0.28935653,487.96375,1,1,5,5,5,0,0
2020220000,2020220000,47.39754928986889,8.546708262829666,488.07098,488.07098,-0.0,-0.0,0.48020598,0.28974754,487.96375,1,1,5,5,5,0,0
2020228000,2020228000,47.39754928925428,8.54670826331902,488.07108,488.07108,-0.0,-0.0,0.48105362,0.29013917,487.96375,1,1,5,5,5,0,0
2020236000,2020236000,47.39754928858276,8.546708263915976,488.0712,488.0712,-0.0,-0.0,0.4819193,0.29053146,487.96375,1,1,5,5,5,0,0
2020252000,2020252000,47.39754928702816,8.546708265422064,488.0714,488.0714,-0.0,-0.0,0.48366007,0.29131794,487.96375,1,1,5,5,5,0,0
2020260000,2020260000,47.39754928613856,8.546708266375775,488.07153,488.07153,-0.0,-0.0,0.4845352,0.29171214,487.96375,1,1,5,5,5,0,0
2020268000,2020268000,47.39754928521029,8.546708267401792,488.07162,488.07162,-0.0,-0.0,0.4854135,0.29110473,487.96375,1,1,5,5,5,0,0
2020276000,2020276000,47.39754928424902,8.546708268509636,488.07172,488.07172,-0.0,-0.0,0.48629496,0.29149884,487.96375,1,1,5,5,5,0,0
2020292000,2020292000,47.39754928208234,8.546708270769917,488.07187,488.07187,-0.0,-0.0,0.48806736,0.29228896,487.96375,1,1,5,5,5,0,0
2020300000,2020300000,47.39754928095429,8.546708271876708,488.07196,488.07196,-0.0,-0.0,0.4889413,0.29268494,487.96375,1,1,5,5,5,0,0
2020308000,2020308000,47.397549279766324,8.54670827305932,488.07205,488.07205,-0.0,-0.0,0.4898353,0.29308158,487.96375,1,1,5,5,5,0,0
2020316000,2020316000,47.39754927849053,8.546708274318894,488.0721,488.0721,-0.0,-0.0,0.49073246,0.29347885,487.96375,1,1,5,5,5,0,0
2020332000,2020332000,47.39754927569871,8.546708276957894,488.07227,488.07227,-0.0,-0.0,0.49253634,0.29325065,487.96375,1,1,5,5,5,0,0
2020340000,2020340000,47.39754927420646,8.546708278362656,488.07236,488.07236,-0.0,-0.0,0.49344307,0.29364842,487.96375,1,1,5,5,5,0,0
2020348000,2020348000,47.39754927265317,8.54670827982343,488.07242,488.07242,-0.0,-0.0,0.49435303,0.29404685,487.96375,1,1,5,5,5,0,0
2020356000,2020356000,47.39754927102619,8.546708281333089,488.07248,488.07248,-0.0,-0.0,0.4952662,0.29444587,487.96375,1,1,5,5,5,0,0
2020372000,2020372000,47.39754926767225,8.546708284461058,488.07257,488.07257,-0.0,-0.0,0.49708313,0.29524586,487.96375,1,1,5,5,5,0,0
2020380000,2020380000,47.39754926594294,8.546708286008492,488.07263,488.07263,-0.0,-0.0,0.49800578,0.2956468,487.96375,1,1,5,5,5,0,0
2020388000,2020388000,47.3975492641563,8.546708287519742,488.07266,488.07266,-0.0,-0.0,0.49893165,0.2950051,487.96375,1,1,5,5,5,0,0
2020396000,2020396000,47.397549262322165,8.546708289031791,488.0727,488.0727,-0.0,-0.0,0.49986076,0.2954059,487.96375,1,1,5,5,5,0,0
2020412000,2020412000,47.39754926367474,8.546708288473289,488.07297,488.07297,-0.0,-0.0,0.4588761,0.28241658,487.96375,1,1,5,5,5,0,0
