timestamp,gyro_rad[0],gyro_rad[1],gyro_rad[2],gyro_integral_dt,accelerometer_timestamp_relative,accelerometer_m_s2[0],accelerometer_m_s2[1],accelerometer_m_s2[2],accelerometer_integral_dt,accelerometer_clipping,gyro_clipping,accel_calibration_count,gyro_calibration_count
2015920000,-0.0098537225,-0.008788386,-0.008788447,4000,0,0.07422026,-0.034715757,-9.672577,4000,0,0,0,1
2015928000,-0.009054728,0.0031957526,-0.011451622,4000,0,0.004788405,-0.02035054,-9.9383335,4000,0,0,0,1
2015932000,0.0010652462,-0.0015979361,-0.011717907,4000,0,0.050278246,-0.013167937,-9.920377,4000,0,0,0,1
2015936000,0.0021305063,-0.0074568563,-0.011984229,4000,0,0.07302317,-0.004788232,-9.838972,4000,0,0,0,1
2015940000,-0.0037284936,-0.018375799,-0.002396868,4000,0,0.104147784,-0.01316794,-9.715671,4000,0,0,0,1
2015944000,-0.009853762,-0.021305274,0.0077231345,4000,0,0.06105215,0.0059856726,-9.635467,4000,0,0,0,1
2015948000,-0.007456926,-0.0034620902,0.011717869,4000,0,-0.051475342,0.023942186,-9.701307,4000,0,0,0,1
2015952000,-0.0034621595,0.010918963,0.006391557,4000,0,-0.050278243,0.034716096,-9.791088,4000,0,0,0,1
2015956000,-0.0010652688,0.0005326286,-0.00079894514,4000,0,0.040701427,0.055066817,-9.823412,4000,0,0,0,1
2015960000,0.0047936873,-0.008255805,-0.0037284242,4000,0,0.05267244,0.0011972733,-9.841368,4000,0,0,0,1
2015964000,0.004527389,0.004527374,-0.003195774,4000,0,-0.029927524,-0.009576636,-9.849747,4000,0,0,0,1
2015972000,0.0026631602,0.011717917,0.0023968164,4000,0,0.12928692,0.038307402,-9.908405,4000,0,0,0,1
2015980000,0.003994773,0.0077231377,0.008522129,4000,0,-0.09097968,0.02274509,-9.745598,4000,0,0,0,1
2015984000,-0.004527358,0.0029294512,0.009853713,4000,0,-0.057460845,0.021547986,-9.688137,4000,0,0,0,1
2015988000,-0.012516865,0.0045273476,0.00932107,4000,0,0.055066645,-0.010773741,-9.671379,4000,0,0,0,1
2015992000,-0.01864215,0.0071904836,0.001597895,4000,0,0.02513912,0.0047885757,-9.76116,4000,0,0,0,1
2015996000,-0.013049504,0.0069241878,-0.0039947536,4000,0,-0.008379708,0.0359132,-9.824609,4000,0,0,0,1
2016000000,0.007723189,0.0042610774,0.006657867,4000,0,0.02633622,-0.016759243,-9.791088,4000,0,0,0,1
2016004000,0.018908456,0.0018642267,0.0109189395,4000,0,0.03232173,-0.07422009,-9.747993,4000,0,0,0,1
2016008000,0.0026631812,-0.0039947927,0.009587354,4000,0,0.016759414,-0.0873882,-9.813835,4000,0,0,0,1
2016012000,-0.00665791,-0.0023968762,0.010652635,4000,0,0.050278243,-0.04668677,-9.908405,4000,0,0,0,1
2016016000,0.001331564,0.0031958134,0.006657898,4000,0,0.07422027,0.026336389,-9.8677025,4000,0,0,0,1
2016020000,-0.0053263046,-0.004261074,0.0077231727,4000,0,0.005985504,0.092176944,-9.827002,4000,0,0,0,1
2016024000,-0.009054737,-0.008522127,0.0071905376,4000,0,-0.031124622,0.120907374,-9.813835,4000,0,0,0,1
2016032000,0.005592624,-0.0021305312,0.009853705,4000,0,-0.04548984,0.0035914753,-9.873688,4000,0,0,0,1
2016036000,-0.002130541,0.0005325983,0.014381072,4000,0,-0.09337388,0.08260014,-9.886856,4000,0,0,0,1
2016040000,-0.011185282,0.0013315331,0.008788435,4000,0,-0.038307235,0.05865812,-9.847352,4000,0,0,0,1
2016044000,-0.011717907,-0.00026632872,0.005858961,4000,0,0.005985504,0.009576979,-9.792285,4000,0,0,0,1
2016052000,0.006391586,-0.00079892535,0.00585896,4000,0,0.053869545,-0.044292558,-9.792284,4000,0,0,0,1
2016056000,0.0061252834,-0.006924214,0.002929464,4000,0,0.079008654,0.022745091,-9.810242,4000,0,0,0,1
2016060000,-0.0015979138,-0.007989507,0.010652626,4000,0,0.04668694,0.034716096,-9.834186,4000,0,0,0,1
2016064000,-0.006924267,0.0007989324,0.016511584,4000,0,0.02274492,0.037110306,-9.822214,4000,0,0,0,1
2016068000,-0.0015979199,0.0045273835,0.0077231578,4000,0,0.0023942017,0.073023334,-9.779117,4000,0,0,0,1
2016072000,0.008255761,0.009853714,-0.009587398,4000,0,0.02274492,0.04668711,-9.746797,4000,0,0,0,1
2016076000,0.0061252583,0.010120031,-0.0138484305,4000,0,0.041898537,-0.037109964,-9.77433,4000,0,0,0,1
2016084000,-0.0018641998,-0.005060021,0.01837581,4000,0,0.04668694,-0.10773892,-9.782708,4000,0,0,0,1
2016088000,-0.004793682,-0.0034621344,0.007989479,4000,0,0.07422027,-0.0873882,-9.847351,4000,0,0,0,1
2016092000,0.00026632976,-0.002929485,-0.0050600017,4000,0,0.06943185,-0.043095466,-9.862916,4000,0,0,0,1
2016096000,0.0039947475,0.00079894223,-0.0045273704,4000,0,0.096965164,0.08379724,-9.804258,4000,0,0,0,1
2016100000,-0.0034621062,0.0018642145,0.0026631646,4000,0,0.07062895,0.13886386,-9.813835,4000,0,0,0,1
2016104000,-0.00585896,0.0023968327,-0.0061252704,4000,0,0.029927524,0.0395045,-9.846155,4000,0,0,0,1
2016108000,0.0029294926,0.012250514,-0.012250568,4000,0,0.03232173,-0.043095466,-9.840169,4000,0,0,0,1
2016112000,0.00053266925,0.005592634,0.0034621132,4000,0,0.005985504,-0.056263573,-9.821015,4000,0,0,0,1
2016116000,-0.012516817,-0.010652663,0.015712675,4000,0,0.013168109,-0.04548967,-9.838972,4000,0,0,0,1
2016120000,-0.013315798,-0.007989515,0.009587365,4000,0,0.08140286,-0.040701255,-9.837775,4000,0,0,0,1
2016124000,-0.0037284144,-0.0013316046,-0.0026631656,4000,0,0.10055649,-0.007182434,-9.749191,4000,0,0,0,1
2016132000,0.00053261936,-0.0055926405,0.0010652648,4000,0,-0.023942018,0.051475517,-9.775528,4000,0,0,0,1
2016136000,0.0047936803,0.008522118,0.0042610685,4000,0,0.05626375,0.04189871,-9.751583,4000,0,0,0,1
2016144000,0.009853711,0.0034621041,0.006125253,4000,0,0.077811554,-0.04429256,-9.871296,4000,0,0,0,1
2016148000,0.008255801,0.00053264655,0.0007989406,4000,0,-0.009576809,-0.07422009,-9.896433,4000,0,0,0,1
2016152000,0.003994742,-0.0021305091,-0.006924226,4000,0,-0.029927524,-0.00478823,-9.911995,4000,0,0,0,1
2016156000,0.0023968539,0.004527366,0.002130537,4000,0,0.04548984,1.7276713e-07,-9.8988285,4000,0,0,0,1
2016160000,0.0039947615,0.0039947326,0.014647385,4000,0,0.053869545,0.0023943726,-9.794682,4000,0,0,0,1
2016164000,-0.00026629312,-0.0007989692,0.014381071,4000,0,0.04668694,0.07661464,-9.721657,4000,0,0,0,1
2016172000,0.010652627,0.011451614,0.002130512,4000,0,0.051475346,0.06584073,-9.923966,4000,0,0,0,1
2016176000,0.0074568787,0.0031957715,0.007723151,4000,0,-0.067037664,0.008379878,-9.829395,4000,0,0,0,1
2016180000,-0.0018642016,-0.0045273793,-0.00026632525,4000,0,-0.1101333,-0.07302299,-9.788694,4000,0,0,0,1
2016184000,0.00026633008,-0.0058589606,-0.009587376,4000,0,-0.01915362,-0.10175341,-9.866506,4000,0,0,0,1
2016188000,0.009321047,-0.0061253,-0.0015978795,4000,0,0.027533323,-0.11611863,-9.937136,4000,0,0,0,1
2016192000,0.006125265,-0.009054755,0.00053261645,4000,0,-0.02274492,-0.11611863,-9.961077,4000,0,0,0,1
2016196000,-0.0013315636,-0.010386321,-0.0050600315,4000,0,-0.031124622,0.004788576,-9.896433,4000,0,0,0,1
2016200000,0.0023968501,-0.0015979019,-0.0021305203,4000,0,0.0071826056,0.035913195,-9.8509445,4000,0,0,0,1
2016204000,0.0053263246,0.009054739,0.007723177,4000,0,0.040701427,-0.049080964,-9.889252,4000,0,0,0,1
2016212000,-0.0077231764,0.0029294626,-0.0005326119,4000,0,-0.0035913019,-0.009576637,-9.825806,4000,0,0,0,1
2016216000,8.747327e-09,-0.006391561,0.01012003,4000,0,-0.04548984,-0.019153448,-9.759963,4000,0,0,0,1
2016220000,0.00878843,-0.009587351,0.016777933,4000,0,-0.07302317,-0.056263573,-9.731234,4000,0,0,0,1
2016228000,0.00852214,-0.008255775,-5.2742783e-09,4000,0,-0.021547817,-0.022744747,-9.793484,4000,0,0,0,1
2016232000,-0.00026630587,0.004527385,-0.003728414,4000,0,-0.021547817,0.013168282,-9.813835,4000,0,0,0,1
2016236000,-0.002929465,0.0098537,0.0002663199,4000,0,-0.053869545,0.025139293,-9.842566,4000,0,0,0,1
2016240000,0.008522127,-0.0026631576,0.0031957685,4000,0,-0.017956514,-0.029927352,-9.872493,4000,0,0,0,1
2016244000,0.0069242185,-0.0013315808,0.0026631635,4000,0,0.033518832,-0.1268925,-9.831791,4000,0,0,0,1
2016248000,0.0015978857,0.011185274,0.0023968718,4000,0,0.1125275,-0.100556314,-9.801862,4000,0,0,0,1
2016252000,0.008788444,0.009853701,0.0047936626,4000,0,0.16519995,-0.011970838,-9.810242,4000,0,0,0,1
2016256000,0.009853714,0.0018642115,0.0058589275,4000,0,0.09217678,-0.015562142,-9.779117,4000,0,0,0,1
2016260000,0.0031958006,-0.00026634507,0.010652643,4000,0,0.04668694,-0.06823458,-9.725246,4000,0,0,0,1
2016264000,0.0013315814,-0.0005326405,0.011984227,4000,0,0.06943185,-0.10654181,-9.714474,4000,0,0,0,1
2016268000,0.009321058,0.0015979361,-0.0042610564,4000,0,0.038307235,-0.11731573,-9.768345,4000,0,0,0,1
2016272000,0.009587385,0.005858969,-0.00878842,4000,0,0.028730419,-0.065840386,-9.801862,4000,0,0,0,1
2016276000,0.0034620964,0.0021305515,-0.010120013,4000,0,0.0023942017,0.043095805,-9.781511,4000,0,0,0,1
2016280000,0.0037283993,-0.0037284154,-0.019973721,4000,0,-0.09337388,0.106542155,-9.824608,4000,0,0,0,1
2016284000,0.0063915807,-0.0037284496,-0.0149137005,4000,0,-0.14604634,0.09816245,-9.920377,4000,0,0,0,1
2016292000,0.018908435,-0.0061253137,0.0013315707,4000,0,-0.055066645,0.038307402,-9.825806,4000,0,0,0,1
2016296000,0.010652628,-0.0055926987,0.01012,4000,0,-0.04908113,0.14963779,-9.758768,4000,0,0,0,1
2016300000,-0.0023968585,-0.00159794,0.009853686,4000,0,-0.025139121,0.13886386,-9.776724,4000,0,0,0,1
2016304000,-0.009321039,-0.0085221445,0.0031957955,4000,0,-0.02274492,0.038307402,-9.809044,4000,0,0,0,1
2016308000,-0.012516856,-0.009054756,0.0021305217,4000,0,-0.01316811,0.001197271,-9.75757,4000,0,0,0,1
2016312000,-0.015978962,-0.0034621286,-0.0018642469,4000,0,0.067037664,-0.0909795,-9.703699,4000,0,0,0,1
2016316000,-0.010386328,-0.012516887,-0.006657849,4000,0,0.038307235,-0.12808962,-9.706093,4000,0,0,0,1
2016320000,-0.0042610858,-0.013582116,-0.00053260336,4000,0,-0.029927526,-0.05386937,-9.713276,4000,0,0,0,1
2016328000,0.007989493,-0.0066579054,-0.0037284,4000,0,0.104147784,0.041898705,-9.648633,4000,0,0,0,1
2016332000,0.017044237,0.0026631397,0.00026636114,4000,0,0.065840565,0.07541753,-9.6438465,4000,0,0,0,1
2016336000,0.010918962,0.0069242087,0.0021305592,4000,0,0.0023942024,-0.013167938,-9.744401,4000,0,0,0,1
2016340000,-0.0066579017,0.0031957831,0.0015979239,4000,0,-0.019153617,-0.05147517,-9.818621,4000,0,0,0,1
2016344000,-0.0066579035,-4.1326023e-09,-0.00026630907,4000,0,-0.025139121,0.07900883,-9.78989,4000,0,0,0,1
2016348000,0.006125271,-0.004261059,9.382203e-09,4000,0,0.028730422,0.07302333,-9.792285,4000,0,0,0,1
2016352000,0.004793694,-0.0063915816,-0.0026631677,4000,0,0.0071826056,-0.003591131,-9.842566,4000,0,0,0,1
2016356000,1.9906084e-08,0.0013315948,-0.008788431,4000,0,-0.05865795,-0.06105198,-9.822214,4000,0,0,0,1
2016360000,0.0013316075,0.009853693,-0.00479369,4000,0,0.051475346,-0.0873882,-9.759963,4000,0,0,0,1
2016364000,0.0010652527,0.010652646,-0.008788433,4000,0,0.09097968,-0.009576638,-9.764753,4000,0,0,0,1
2016368000,-0.0013316388,0.005326335,-0.02077265,4000,0,-0.01795651,0.02633639,-9.794681,4000,0,0,0,1
2016372000,-0.0015978982,0.004527378,-0.018375812,4000,0,-0.028730419,0.031124793,-9.787498,4000,0,0,0,1
2016380000,-0.0055926247,0.0050600246,-0.00133157,4000,0,0.005985504,0.073023334,-9.710884,4000,0,0,0,1
2016388000,0.0021305282,0.00745687,0.009587366,4000,0,-0.04548984,0.07661464,-9.762358,4000,0,0,0,1
2016392000,0.00266317,0.0029294805,0.007190531,4000,0,-0.017956512,0.01077408,-9.829395,4000,0,0,0,1
2016396000,-0.0077231806,0.003728411,-0.0045273635,4000,0,-0.0011971012,-0.040701255,-9.903616,4000,0,0,0,1
2016400000,-0.00852213,0.0026631388,-0.013848436,4000,0,0.02873042,-0.052672267,-9.885658,4000,0,0,0,1
2016404000,-0.0026632238,-0.0119842375,-0.007989448,4000,0,0.044292733,0.0011972723,-9.885658,4000,0,0,0,1
2016408000,-0.0055926936,-0.015180001,0.0034621002,4000,0,0.027533323,0.022745091,-9.8677025,4000,0,0,0,1
2016412000,-0.0058589904,-0.008255792,0.008788417,4000,0,-0.021547817,-0.0035911307,-9.873688,4000,0,0,0,1
2016416000,-0.0058589526,-0.0069242236,0.0063915844,4000,0,-0.041898537,-0.009576637,-9.812637,4000,0,0,0,1
2016420000,-0.00719052,-0.0063916035,-0.0005326365,4000,0,0.02633622,0.019153785,-9.690533,4000,0,0,0,1
2016424000,-0.004261059,-0.0122505445,-0.0007989283,4000,0,0.09097968,0.031124793,-9.702503,4000,0,0,0,1
2016432000,0.015180001,-0.0002663073,0.004527438,4000,0,0.09217678,-0.041898366,-9.787498,4000,0,0,0,1
2016440000,0.0039947564,0.004261025,0.0114516,4000,0,0.11133039,0.09935954,-9.781511,4000,0,0,0,1
2016444000,0.0023968737,-0.0010652789,0.017310543,4000,0,0.113724574,0.14365228,-9.800665,4000,0,0,0,1
2016448000,0.0042610695,-0.0026631465,0.01171791,4000,0,0.05746084,0.110133454,-9.830592,4000,0,0,0,1
2016452000,0.013315792,0.0039947964,-0.001331563,4000,0,0.01436521,0.027533494,-9.785105,4000,0,0,0,1
2016456000,0.006924218,0.0010652674,-0.0013315851,4000,0,0.040701427,-0.04070126,-9.755177,4000,0,0,0,1
2016460000,-0.01384844,-0.008255808,0.0061252574,4000,0,0.10534488,-0.02633605,-9.836577,4000,0,0,0,1
2016464000,-0.016511612,-0.0029294838,0.005858923,4000,0,0.1221043,-0.0155621385,-9.928757,4000,0,0,0,1
2016468000,-0.0039947494,0.003994734,-2.581764e-08,4000,0,0.084994175,-0.039504156,-9.88207,4000,0,0,0,1
2016472000,0.005592636,0.004527371,-0.0026631749,4000,0,0.07302317,0.002394372,-9.763555,4000,0,0,0,1
2016476000,0.011185285,0.011717905,-0.0021305238,4000,0,0.06464346,0.016759586,-9.773131,4000,0,0,0,1
2016480000,0.012250527,0.013848456,-0.006391583,4000,0,0.050278243,-0.032321554,-9.849747,4000,0,0,0,1
2016484000,-0.004261076,0.007456891,-0.0071904855,4000,0,0.023942016,-0.06584038,-9.847352,4000,0,0,0,1
2016488000,-0.017044228,0.0061253086,-0.0026631278,4000,0,-0.0035913025,-0.096965,-9.798271,4000,0,0,0,1
2016492000,-0.0023968415,0.004261059,-0.0002663354,4000,0,0.016759416,-0.04429256,-9.751583,4000,0,0,0,1
2016500000,-0.00985369,-0.0007989713,0.010918966,4000,0,-0.0023942024,-0.0023940278,-9.858126,4000,0,0,0,1
2016504000,-0.002929481,0.00079894555,0.0023968415,4000,0,0.051475346,-0.124498315,-9.915586,4000,0,0,0,1
2016508000,0.009587373,0.0071905376,-0.005858964,4000,0,0.037110135,-0.10773892,-9.894039,4000,0,0,0,1
2016512000,0.013049478,0.0071905474,-0.011717919,4000,0,-0.041898537,-0.06703748,-9.872493,4000,0,0,0,1
2016516000,-0.00079897617,0.0013316441,-0.013848432,4000,0,-0.010773908,-0.07661429,-9.855732,4000,0,0,0,1
2016524000,-0.007723178,-0.004527321,0.010386347,4000,0,0.100556485,0.007182779,-9.911995,4000,0,0,0,1
2016528000,0.005060021,-0.0050599826,0.00213055,4000,0,0.058657948,-0.13048382,-9.901223,4000,0,0,0,1
2016532000,0.0013315851,0.0021305361,-0.003462104,4000,0,0.038307235,-0.13766643,-9.841368,4000,0,0,0,1
2016536000,1.2198976e-08,0.009587379,0.0015979011,4000,0,0.12449849,-0.0011969303,-9.8198185,4000,0,0,0,1
2016540000,0.0047937124,0.006657906,0.007989469,4000,0,0.1412579,0.06584072,-9.800665,4000,0,0,0,1
2016544000,0.0031958113,0.0026631516,0.011185276,4000,0,0.023942016,0.07900883,-9.830592,4000,0,0,0,1
2016548000,-0.00026630898,-0.0005326397,0.0058589554,4000,0,-0.035913028,0.0347161,-9.91439,4000,0,0,0,1
2016552000,-0.0047936947,0.0018642038,0.003462109,4000,0,0.027533324,-0.029927349,-9.987413,4000,0,0,0,1
2016556000,-0.0021305296,0.0042610676,0.0074568465,4000,0,0.02633622,-0.031124448,-9.981426,4000,0,0,0,1
2016560000,-0.00079893705,-0.0039947433,0.0010652685,4000,0,-0.020350713,0.0011972731,-9.853338,4000,0,0,0,1
2016564000,7.565258e-09,-0.005326323,-0.0042610574,4000,0,-0.0011971008,-0.021547649,-9.747993,4000,0,0,0,1
2016568000,0.016777905,-0.005326346,0.00079897814,4000,0,0.017956514,-0.05865778,-9.78989,4000,0,0,0,1
2016572000,0.019973723,-0.0053262888,-0.0050600013,4000,0,0.050278246,-0.01436504,-9.815031,4000,0,0,0,1
2016576000,0.0029295099,0.007989551,-0.010652588,4000,0,0.08499418,0.02513929,-9.72884,4000,0,0,0,1
2016580000,-0.011185237,0.011451634,0.0005326735,4000,0,0.028730422,0.056263912,-9.70849,4000,0,0,0,1
2016588000,-0.014647392,-0.0018642673,-0.006125247,4000,0,-0.06943185,0.059855223,-9.776724,4000,0,0,0,1
2016592000,0.001597891,-0.0058590053,-0.009587351,4000,0,-0.020350713,-0.009576638,-9.740809,4000,0,0,0,1
2016596000,0.009587359,-0.0127832,-0.009321052,4000,0,-0.035913028,-0.059854884,-9.698914,4000,0,0,0,1
2016600000,0.007989446,-0.017310563,-0.0034621311,4000,0,-0.044292733,-0.06823458,-9.733627,4000,0,0,0,1
2016604000,0.0013315458,-0.010386342,0.0039947224,4000,0,-0.031124622,-0.08020559,-9.843761,4000,0,0,0,1
2016608000,0.0002662925,0.0031957917,0.005592641,4000,0,-0.044292733,-0.052672267,-9.901223,4000,0,0,0,1
2016616000,0.019441022,0.01757691,-0.013848456,4000,0,-0.033518832,-0.0035911312,-9.84017,4000,0,0,0,1
2016620000,0.00612524,0.006924261,-0.010918953,4000,0,-0.0071826056,0.059855223,-9.813835,4000,0,0,0,1
2016624000,-0.0069242227,-0.0031957757,0.0034621193,4000,0,0.055066645,-0.023941847,-9.7803135,4000,0,0,0,1
2016628000,-0.0077231755,-0.0013315718,0.0077231624,4000,0,0.11133039,-0.055066474,-9.768345,4000,0,0,0,1
2016636000,-0.012783174,-0.00053265574,-0.0010652631,4000,0,0.14125791,0.09935956,-9.859325,4000,0,0,0,1
2016644000,-0.01411474,0.0047936793,-0.009321093,4000,0,0.038307235,0.016759584,-9.734824,4000,0,0,0,1
2016652000,0.0018642183,-0.010652639,0.006924229,4000,0,-0.014365211,-0.04788387,-9.786302,4000,0,0,0,1
2016660000,-0.005592645,-0.0085221315,0.007456829,4000,0,-0.13168113,-0.022744745,-9.873688,4000,0,0,0,1
2016664000,-0.008788435,-0.0053263353,0.005059991,4000,0,-0.09696517,-0.07182589,-9.810242,4000,0,0,0,1
2016668000,-0.0087884255,-0.0058589643,0.0015978984,4000,0,0.0035913028,-0.031124454,-9.763555,4000,0,0,0,1
2016672000,-0.009587372,-0.0013315963,-0.0037284405,4000,0,0.044292733,0.031124793,-9.829395,4000,0,0,0,1
2016676000,-0.0069242124,0.0021305094,-0.0090547595,4000,0,-0.019153617,-0.016759243,-9.885659,4000,0,0,0,1
2016680000,-0.001331604,-0.0050600283,-0.011185265,4000,0,0.005985504,-0.07182589,-9.842566,4000,0,0,0,1
2016684000,-0.0061252574,0.0007989681,-0.0069242297,4000,0,0.05267244,-0.055066474,-9.738417,4000,0,0,0,1
2016688000,-0.0029294586,0.008788432,-0.0039947596,4000,0,-0.002394203,-0.014365043,-9.713276,4000,0,0,0,1
2016692000,0.010918943,-0.0010652851,-0.0058589857,4000,0,-0.041898537,0.0323219,-9.787498,4000,0,0,0,1
2016696000,0.016245263,-0.011451606,-0.005326359,4000,0,-0.03351883,0.025139293,-9.78989,4000,0,0,0,1
2016700000,0.011185268,-0.011717915,-0.0029294987,4000,0,0.011971008,-0.014365042,-9.697714,4000,0,0,0,1
2016708000,-0.0063915835,0.005326329,-0.0053263213,4000,0,0.011971008,-0.10414762,-9.776724,4000,0,0,0,1
2016712000,-0.013582156,-0.0023968564,-0.01651157,4000,0,-0.07661447,-0.1843534,-9.800665,4000,0,0,0,1
2016716000,-0.010652712,-0.013315795,-0.010119962,4000,0,-0.11252749,-0.1903389,-9.756373,4000,0,0,0,1
2016720000,-0.011984201,-0.0071905367,-0.011451622,4000,0,-0.02513912,-0.08259979,-9.71208,4000,0,0,0,1
2016724000,-0.004527292,0.007989414,-0.021571651,4000,0,0.08738836,-0.07541718,-9.72884,4000,0,0,0,1
2016728000,0.004261095,0.011451537,-0.01731058,4000,0,0.142455,-0.12569542,-9.76595,4000,0,0,0,1
2016732000,-0.0058589624,0.0077232216,-0.013848404,4000,0,0.10893619,-0.056263577,-9.756373,4000,0,0,0,1
2016736000,-0.010120016,0.0045274026,-0.009587364,4000,0,0.008379707,0.050278414,-9.758768,4000,0,0,0,1
2016740000,-0.0063916077,-0.0037284237,-0.005326301,4000,0,-0.019153617,0.06823493,-9.76116,4000,0,0,0,1
2016744000,-0.007190541,-0.0037284147,-0.0005326333,4000,0,0.03232173,0.017956685,-9.720461,4000,0,0,0,1
2016748000,-0.004261071,0.0055926656,0.010918942,4000,0,0.0071826056,0.004788574,-9.71567,4000,0,0,0,1
2016756000,0.003994763,-0.008788421,-0.002130538,4000,0,-0.027533323,0.08379724,-9.89045,4000,0,0,0,1
2016760000,0.0023968504,-0.013848434,-0.0050600185,4000,0,0.0071826046,0.005985679,-9.915586,4000,0,0,0,1
2016764000,-0.0010652511,-0.0071905293,-0.00559265,4000,0,0.043095633,-0.055066474,-9.832989,4000,0,0,0,1
2016768000,0.0018641977,-0.0034621116,0.0037284316,4000,0,0.04668694,-0.040701255,-9.746798,4000,0,0,0,1
2016772000,0.0037284119,0.00026631312,0.011984232,4000,0,0.016759416,-0.019153448,-9.764753,4000,0,0,0,1
2016776000,-0.0034621092,-1.8864657e-08,0.0039947433,4000,0,0.023942018,-0.04668677,-9.865308,4000,0,0,0,1
2016780000,-0.011717901,-0.0077231843,-0.00079893967,4000,0,0.079008654,-0.034715753,-9.892841,4000,0,0,0,1
2016788000,-0.001864243,-0.0026631241,0.010386334,4000,0,-0.016759418,0.051475517,-9.799467,4000,0,0,0,1
2016792000,0.0042610285,0.0058589764,0.010386329,4000,0,-0.09696517,0.040701605,-9.8198185,4000,0,0,0,1
2016800000,0.009587377,-0.0010652799,-0.00053265336,4000,0,-0.13168113,0.058658123,-9.813835,4000,0,0,0,1
2016804000,0.009587376,-0.0005326631,0.009054751,4000,0,-0.12330139,0.059855223,-9.744401,4000,0,0,0,1
2016808000,0.0007989441,0.0013315771,0.0018642175,4000,0,-0.01316811,0.09935955,-9.749191,4000,0,0,0,1
2016816000,-0.004793678,-0.017310543,0.005326348,4000,0,-0.019153617,0.037110306,-9.818621,4000,0,0,0,1
2016820000,-0.0026631346,-0.020240026,0.0015979136,4000,0,0.0023942022,0.0047885748,-9.777922,4000,0,0,0,1
2016824000,0.0069242087,-0.010918956,0.0023969011,4000,0,-0.021547817,-0.020350544,-9.664197,4000,0,0,0,1
2016828000,0.019441077,-0.0063915774,0.002130585,4000,0,-0.05985505,-0.032321557,-9.588778,4000,0,0,0,1
2016832000,0.015180016,-0.008788454,0.005059982,4000,0,-0.04548984,0.02274509,-9.594765,4000,0,0,0,1
2016840000,-0.005059999,-0.006657907,-0.0007989707,4000,0,0.016759416,0.040701613,-9.756373,4000,0,0,0,1
2016848000,0.005858946,0.004793702,0.0013315743,4000,0,0.09457098,0.0071827746,-9.763555,4000,0,0,0,1
2016852000,0.013582113,0.0039947582,-0.005060021,4000,0,0.096965164,0.019153783,-9.733627,4000,0,0,0,1
2016856000,0.01784319,0.008522097,-0.0023968304,4000,0,0.03232173,-0.084993996,-9.781511,4000,0,0,0,1
2016860000,0.024501104,0.015179989,0.0021305503,4000,0,-0.02274492,-0.0861911,-9.896433,4000,0,0,0,1
2016864000,0.015712667,0.01651157,0.005060062,4000,0,-0.01436521,-0.021547645,-9.877279,4000,0,0,0,1
2016872000,-0.000532654,0.007989486,-0.0039947373,4000,0,0.1209072,-0.03950416,-9.78989,4000,0,0,0,1
2016876000,0.0039947364,0.001331575,-0.0029294887,4000,0,0.10534488,-0.123301215,-9.785105,4000,0,0,0,1
2016880000,-2.1277287e-09,6.4668506e-09,-0.00479369,4000,0,0.06344634,-0.11492152,-9.758768,4000,0,0,0,1
2016884000,-0.013848444,-0.0042610364,-0.0034621095,4000,0,0.05626375,-0.041898366,-9.799467,4000,0,0,0,1
2016888000,-0.009054764,-0.0082557695,0.0042610834,4000,0,0.025139123,-0.071825884,-9.840169,4000,0,0,0,1
2016892000,0.0069242176,-0.0085220905,0.005326367,4000,0,0.008379708,-0.1280896,-9.865309,4000,0,0,0,1
2016896000,0.004793724,-0.005326295,-0.008522117,4000,0,0.017956514,-0.10295051,-9.848549,4000,0,0,0,1
2016900000,0.004261067,-0.007190521,-0.016511606,4000,0,0.01436521,-0.05865778,-9.809044,4000,0,0,0,1
2016904000,0.01917472,-0.012250636,-0.009853669,4000,0,0.056263745,-0.04908096,-9.856928,4000,0,0,0,1
2016908000,0.01997369,-0.0074569145,-0.0005325986,4000,0,0.101753585,-0.021547645,-9.91918,4000,0,0,0,1
2016912000,0.0005326128,-0.005859004,0.0074568144,4000,0,0.113724574,0.032321908,-9.928757,4000,0,0,0,1
2016916000,-0.001331571,-0.008522122,0.0058589512,4000,0,0.08619127,0.06823493,-9.805454,4000,0,0,0,1
2016920000,0.008255808,-0.0039947256,2.5155686e-08,4000,0,0.026336217,0.031124793,-9.672577,4000,0,0,0,1
2016924000,0.0031957976,-0.0029294703,-0.0026631653,4000,0,-0.013168109,-0.0802056,-9.714474,4000,0,0,0,1
2016932000,0.011984248,0.008522087,-0.004527375,4000,0,-0.0047884034,0.031124793,-9.75757,4000,0,0,0,1
2016936000,0.0042611035,0.0045273136,0.013582128,4000,0,0.084994175,0.04189871,-9.781511,4000,0,0,0,1
2016940000,-0.012783151,-0.001597971,0.011185295,4000,0,0.15682021,0.013168282,-9.799467,4000,0,0,0,1
2016948000,-0.0061252303,0.0013315161,-0.011984255,4000,0,-0.025139123,-0.017956343,-9.768345,4000,0,0,0,1
2016952000,0.0058590155,0.015978927,-0.008522153,4000,0,-0.019153617,-0.005985334,-9.791088,4000,0,0,0,1
2016956000,0.0023968425,0.014114764,-0.007989469,4000,0,0.033518832,0.035913195,-9.841368,4000,0,0,0,1
2016960000,0.0007989242,0.010652651,-0.011185274,4000,0,0.07541737,0.022745093,-9.885658,4000,0,0,0,1
2016964000,-1.5177797e-08,0.0050600087,-0.009587379,4000,0,0.1197101,0.009576981,-9.916785,4000,0,0,0,1
2016968000,-0.006924214,0.0005326544,0.0023968567,4000,0,0.037110135,0.074220434,-9.920377,4000,0,0,0,1
2016972000,-0.0042610606,0.004261073,0.0079894755,4000,0,-0.077811554,0.105345055,-9.862916,4000,0,0,0,1
2016980000,0.007989478,0.010386333,5.0041287e-09,4000,0,0.028730419,0.015562482,-9.758768,4000,0,0,0,1
2016984000,0.007989497,0.014647378,0.0039947536,4000,0,0.079008654,-0.034715753,-9.731234,4000,0,0,0,1
2016988000,0.012516827,0.01597899,-0.0023968634,4000,0,0.100556485,-0.07661429,-9.801862,4000,0,0,0,1
2016996000,0.008522164,0.013315776,0.0026631663,4000,0,0.03232173,-0.0861911,-9.803061,4000,0,0,0,1
2017004000,-0.0074569294,0.005858982,-0.013315751,4000,0,0.021547817,-0.065840386,-9.689337,4000,0,0,0,1
2017008000,-0.012783217,-0.0069241775,-0.0055925967,4000,0,0.03232173,-0.07541719,-9.7001095,4000,0,0,0,1
2017012000,-0.004261091,-0.0063915406,0.009054766,4000,0,0.056263745,-0.13168094,-9.815031,4000,0,0,0,1
2017016000,0.00159788,-0.0013315618,0.009853702,4000,0,0.02274492,-0.11492152,-9.911995,4000,0,0,0,1
2017020000,-0.005060006,-0.0010652856,0.008255798,4000,0,0.01316811,-0.056263573,-9.9108,4000,0,0,0,1
2017024000,-0.008255787,-0.005592648,0.0077231755,4000,0,0.02873042,-0.023941847,-9.841368,4000,0,0,0,1
2017028000,0.00026633844,-0.009054747,0.0005326575,4000,0,-0.014365209,0.059855223,-9.782708,4000,0,0,0,1
2017032000,-0.0005326256,-0.0063915877,-0.0018642151,4000,0,-0.02274492,0.13766676,-9.797075,4000,0,0,0,1
2017036000,-0.010120027,-0.0069242134,0.0042610383,4000,0,0.008379708,0.14006096,-9.792285,4000,0,0,0,1
2017044000,0.002663181,-0.004793696,-0.003462087,4000,0,0.077811554,0.034716096,-9.768345,4000,0,0,0,1
2017052000,0.004793693,-0.004261064,0.0037284165,4000,0,-0.08020576,0.050278414,-9.858126,4000,0,0,0,1
2017056000,0.012516869,-0.009587366,0.0013315831,4000,0,-0.12808979,0.06703783,-9.795878,4000,0,0,0,1
2017060000,0.0055926163,-0.0066579347,0.007989475,4000,0,-0.07182605,0.09816245,-9.827002,4000,0,0,0,1
2017064000,-0.0058589764,0.00026628355,0.009054736,4000,0,-0.005985505,0.092176944,-9.892841,4000,0,0,0,1
2017068000,0.00026627767,0.012783179,0.001597872,4000,0,0.0023942017,0.071826234,-9.866506,4000,0,0,0,1
2017076000,0.0005326495,0.012516846,0.005858979,4000,0,-0.06464346,0.035913195,-9.807848,4000,0,0,0,1
2017080000,-0.0055926414,0.010386319,0.004261083,4000,0,-0.0071826056,0.019153787,-9.807848,4000,0,0,0,1
2017084000,0.0047936924,0.007989497,0.0037283949,4000,0,-0.0047884043,0.010774079,-9.775528,4000,0,0,0,1
2017088000,0.014913707,0.006125283,0.0039947117,4000,0,-0.02274492,0.007182777,-9.806652,4000,0,0,0,1
2017092000,0.005060017,0.0031957645,0.007190541,4000,0,0.041898537,0.007182777,-9.854535,4000,0,0,0,1
2017096000,-0.0039947485,0.0058589345,0.0069242343,4000,0,0.015562311,-0.06105198,-9.809044,4000,0,0,0,1
2017100000,0.0026631441,0.011984239,0.005326302,4000,0,-0.11133039,-0.12210413,-9.758768,4000,0,0,0,1
2017104000,0.007723166,0.0026631742,0.00079892005,4000,0,-0.10295069,-0.058657777,-9.767147,4000,0,0,0,1
2017112000,-0.0055926405,-0.017576842,-0.007989529,4000,0,-0.040701427,-0.04429256,-9.720461,4000,0,0,0,1
2017116000,-0.010386315,-0.0071905185,-0.005859002,4000,0,-0.009576808,-0.05386937,-9.762358,4000,0,0,0,1
2017120000,-0.0010652512,0.0077231727,0.0005326032,4000,0,0.043095633,-0.07661429,-9.817424,4000,0,0,0,1
2017124000,0.00053263275,0.0053263227,0.00053262914,4000,0,0.055066645,-0.11013311,-9.816229,4000,0,0,0,1
2017128000,-0.007989493,-0.0018642133,-0.005858941,4000,0,0.06823475,-0.10773892,-9.787498,4000,0,0,0,1
2017132000,-0.0018642055,0.0026631567,-0.0031958017,4000,0,0.118513,-0.06823458,-9.770737,4000,0,0,0,1
2017136000,0.0047936947,0.0005326295,0.0037284214,4000,0,0.13287823,0.017956683,-9.75757,4000,0,0,0,1
2017140000,0.00026631297,0.0037284126,0.008255806,4000,0,0.079008654,0.10055665,-9.805454,4000,0,0,0,1
2017144000,-0.005858975,0.011451576,0.009853706,4000,0,0.058657948,0.089782745,-9.8988285,4000,0,0,0,1
2017148000,-0.011451528,-0.00026632153,0.016777962,4000,0,0.053869545,0.017956687,-9.91439,4000,0,0,0,1
2017152000,-0.009054706,-0.007989468,0.017576894,4000,0,0.055066645,-0.055066474,-9.871296,4000,0,0,0,1
2017156000,0.0021305229,-0.00026629487,0.0029294842,4000,0,0.053869545,-0.10534471,-9.8198185,4000,0,0,0,1
2017164000,0.013049502,0.0039947247,0.008255791,4000,0,0.16998835,-0.009576637,-9.806652,4000,0,0,0,1
2017168000,0.0101200035,0.0015979398,-0.0034621165,4000,0,0.16639705,-0.0059853317,-9.868899,4000,0,0,0,1
2017172000,0.011717913,0.0066579273,-0.011185262,4000,0,0.08619127,0.025139293,-9.8509445,4000,0,0,0,1
2017176000,0.004261043,0.0058590053,-0.017044222,4000,0,0.037110135,0.047884203,-9.804258,4000,0,0,0,1
2017184000,0.00026629207,-0.003994756,-0.007989478,4000,0,-0.017956514,-0.009576638,-9.788694,4000,0,0,0,1
2017188000,0.008255797,-0.0023968671,-0.0021305187,4000,0,0.016759414,-0.001196931,-9.733627,4000,0,0,0,1
2017192000,0.009853706,0.010386325,-0.0010652278,4000,0,0.041898537,0.06823493,-9.697714,4000,0,0,0,1
2017196000,0.0031957913,0.018908452,-0.0026631104,4000,0,-0.023942018,0.08260013,-9.7240505,4000,0,0,0,1
2017200000,-0.007989483,0.012783184,-0.0013315165,4000,0,-0.083797075,0.026336389,-9.791088,4000,0,0,0,1
2017204000,-0.011984237,0.0034621088,-0.0023968031,4000,0,-0.04548984,0.05267261,-9.849746,4000,0,0,0,1
2017212000,-0.008788415,0.0029295285,0.01518002,4000,0,-0.011971008,0.07781173,-9.837775,4000,0,0,0,1
2017220000,-0.0237022,0.011717793,0.0063915583,4000,0,0.023942016,-0.007182435,-9.797075,4000,0,0,0,1
2017224000,-0.009054749,0.0079895,0.0045273467,4000,0,0.011971008,-0.01316794,-9.77433,4000,0,0,0,1
2017228000,0.0071905423,-0.0021305133,0.0015978842,4000,0,-0.034715924,0.040701605,-9.76954,4000,0,0,0,1
2017232000,0.0066579063,-0.0026631532,-0.0018642145,4000,0,-0.07422027,0.057461016,-9.75757,4000,0,0,0,1
2017236000,-0.0007989456,0.0029294803,-0.0010652589,4000,0,-0.027533323,-0.010773738,-9.795877,4000,0,0,0,1
2017244000,-0.0029294896,0.0079894755,-0.011717914,4000,0,-0.0023942017,-0.0933737,-9.72884,4000,0,0,0,1
2017248000,-0.003462116,0.004793695,-0.009321059,4000,0,-0.10534488,0.02274509,-9.690533,4000,0,0,0,1
2017252000,-0.0013315472,0.011185281,-0.0007989591,4000,0,-0.104147784,0.09696534,-9.702503,4000,0,0,0,1
2017260000,0.0031957899,0.01198423,0.0034621034,4000,0,0.01316811,0.029927695,-9.849746,4000,0,0,0,1
2017264000,0.0029294952,0.005060003,0.005858949,4000,0,-0.01316811,-0.029927352,-9.827001,4000,0,0,0,1
2017268000,0.004793696,0.0069242185,0.011185278,4000,0,-0.017956514,-0.0035911303,-9.801862,4000,0,0,0,1
2017272000,0.002929461,0.009853694,0.008788443,4000,0,0.026336217,1.7145086e-07,-9.823412,4000,0,0,0,1
2017280000,0.009853717,-0.006657876,0.0002662883,4000,0,-0.06823475,-0.05147517,-9.822214,4000,0,0,0,1
2017284000,-0.002663131,-0.0122505,-0.013049536,4000,0,-0.08140285,-0.032321554,-9.843762,4000,0,0,0,1
2017288000,-0.01065262,-0.0074568177,-0.013848476,4000,0,-0.031124622,-0.07182589,-9.843762,4000,0,0,0,1
2017292000,0.0013315709,-0.006924257,-0.009054722,4000,0,0.023942016,-0.057460673,-9.758768,4000,0,0,0,1
2017296000,0.009321053,-0.008788457,-0.0066578854,4000,0,0.07062895,-0.0035911354,-9.611523,4000,0,0,0,1
2017304000,-0.0021305385,-0.0063915723,-0.0034621325,4000,0,0.023942018,0.089782745,-9.902418,4000,0,0,0,1
2017308000,-0.013315823,-0.009587364,0.0021305073,4000,0,-0.07661447,0.047884207,-9.842566,4000,0,0,0,1
2017312000,-0.014381089,-0.005592619,0.006924199,4000,0,-0.07541737,0.0023943712,-9.722853,4000,0,0,0,1
2017316000,-0.005858988,0.003994788,0.012516829,4000,0,-0.027533323,-0.008379536,-9.79827,4000,0,0,0,1
2017320000,0.0058589256,0.010120056,0.00985367,4000,0,-0.047884032,1.7107476e-07,-9.801862,4000,0,0,0,1
2017328000,-0.009587367,-0.008255814,0.003195794,4000,0,0.06464346,0.014365384,-9.861719,4000,0,0,0,1
2017336000,-0.004793689,0.002663157,-0.001331593,4000,0,0.079008654,0.116118975,-9.816229,4000,0,0,0,1
2017344000,0.0042610615,0.009054748,0.0045273737,4000,0,-0.07062895,0.106542155,-9.793484,4000,0,0,0,1
2017348000,-0.010652625,0.000532606,0.0071905684,4000,0,0.0023942024,0.07781173,-9.702503,4000,0,0,0,1
2017352000,-0.013582117,-0.001864209,0.010386338,4000,0,-0.015562313,-0.031124454,-9.734823,4000,0,0,0,1
2017356000,-0.00745685,-0.0018642088,0.0066579073,4000,0,-0.050278246,-0.14245482,-9.8677025,4000,0,0,0,1
2017364000,-0.00985369,-0.01917475,0.013848457,4000,0,-0.035913024,-0.05027807,-9.862916,4000,0,0,0,1
2017368000,-0.009054769,-0.0149137,0.014114747,4000,0,0.05267244,-0.02633605,-9.821015,4000,0,0,0,1
2017372000,-0.003462107,-0.00506001,0.004261057,4000,0,0.04548984,-0.027533151,-9.773131,4000,0,0,0,1
2017376000,0.0023968644,-0.0029294845,-0.009054741,4000,0,0.016759416,-0.055066474,-9.803061,4000,0,0,0,1
2017380000,0.0018642055,-0.0039947433,-0.004793691,4000,0,0.025139121,-0.016759243,-9.841368,4000,0,0,0,1
2017384000,-0.0002663158,5.956838e-10,-0.00026631646,4000,0,-0.0035913028,0.0011972717,-9.797075,4000,0,0,0,1
2017388000,0.00559264,0.003195793,-0.0015978971,4000,0,-0.09337388,0.007182777,-9.788693,4000,0,0,0,1
2017396000,-0.0042610513,0.0071905204,0.007190555,4000,0,-0.104147784,0.063446514,-9.7240505,4000,0,0,0,1
2017400000,0.0005326582,0.0010652824,0.011984224,4000,0,-0.062249243,-0.032321557,-9.702503,4000,0,0,0,1
2017408000,-0.014381101,0.0005325607,0.013582095,4000,0,-0.019153617,0.105345055,-9.758768,4000,0,0,0,1
2017412000,-0.017843189,0.0021304728,0.00506,4000,0,0.01436521,0.08260013,-9.837774,4000,0,0,0,1
2017420000,-0.005592634,-0.009321077,-0.0029294498,4000,0,0.03232173,0.009576979,-9.827002,4000,0,0,0,1
2017424000,0.005060025,0.0023968304,-0.0053263116,4000,0,0.037110135,0.0011972728,-9.861719,4000,0,0,0,1
2017428000,-0.004261042,0.0087884385,0.0010652828,4000,0,0.047884036,-0.04788387,-9.8509445,4000,0,0,0,1
2017432000,-0.0095873885,0.0018642057,-0.0026631355,4000,0,0.06584056,-0.11611863,-9.791088,4000,0,0,0,1
2017436000,0.004527366,0.003994678,-0.018908462,4000,0,0.035913024,-0.15562296,-9.775528,4000,0,0,0,1
2017440000,0.009853755,0.012516822,-0.015978964,4000,0,-0.025139121,-0.0825998,-9.801862,4000,0,0,0,1
2017448000,2.068625e-08,0.008788424,0.006924231,4000,0,-0.05626375,0.06823493,-9.821015,4000,0,0,0,1
2017452000,-0.00026633282,0.0045273746,-0.002130529,4000,0,0.029927526,0.058658123,-9.846155,4000,0,0,0,1
2017456000,-0.005326328,0.0037284289,-0.0053263153,4000,0,0.049081136,0.009576978,-9.786301,4000,0,0,0,1
2017464000,-0.010652612,-0.0018641771,0.013315837,4000,0,0.16400285,-0.0071824347,-9.752781,4000,0,0,0,1
2017468000,-0.008788386,-0.012516842,0.015712693,4000,0,0.15682021,0.05985522,-9.703699,4000,0,0,0,1
2017472000,-0.003994669,-0.014114776,0.0002663408,4000,0,0.02633622,0.055066817,-9.807847,4000,0,0,0,1
2017476000,-0.0031957119,-0.0071905577,-0.017310554,4000,0,-0.062249243,0.017956687,-9.825806,4000,0,0,0,1
2017480000,-0.0026631427,-0.0026631607,-0.014114758,4000,0,0.011971008,0.011971179,-9.719263,4000,0,0,0,1
2017484000,0.0039947084,-0.0069242376,0.0007989577,4000,0,0.10773909,-0.0047882353,-9.668983,4000,0,0,0,1
2017488000,0.007456835,-0.01171792,0.008788435,4000,0,0.09576807,-0.026336052,-9.7001095,4000,0,0,0,1
2017492000,0.005326337,-0.01304949,0.0061252597,4000,0,0.079008654,-0.031124454,-9.749191,4000,0,0,0,1
2017496000,-0.00053262967,-0.00585896,0.0021305163,4000,0,0.10654198,-0.01316794,-9.76954,4000,0,0,0,1
2017500000,-0.00079894694,0.0029294768,-0.0018642149,4000,0,0.055066645,0.009576978,-9.750386,4000,0,0,0,1
2017504000,-0.0013315808,-0.00079894747,0.00026631763,4000,0,0.023942018,0.07541753,-9.745598,4000,0,0,0,1
2017508000,-0.0031957945,-0.008255799,0.0050600087,4000,0,0.03232173,0.119710274,-9.810242,4000,0,0,0,1
2017516000,-0.002130521,-0.004793691,-0.0023968506,4000,0,0.0035913028,-0.070628785,-9.78989,4000,0,0,0,1
2017520000,-0.006657906,-0.0077231643,-0.0023968508,4000,0,0.06943185,-0.13646932,-9.8198185,4000,0,0,0,1
2017524000,-0.0015979192,-0.0114515815,0.005060028,4000,0,0.083797075,-0.06584038,-9.853339,4000,0,0,0,1
2017528000,0.0026631702,-0.013049482,0.003462127,4000,0,0.12569559,0.051475517,-9.810242,4000,0,0,0,1
2017536000,0.01651163,0.0013315534,-0.009853648,4000,0,0.017956512,0.13766676,-9.7001095,4000,0,0,0,1
2017540000,0.018908454,0.0023967756,0.0013315856,4000,0,0.051475342,0.06224942,-9.767147,4000,0,0,0,1
2017544000,0.014913705,0.0031957855,0.0023968534,4000,0,0.088585466,-0.019153446,-9.824609,4000,0,0,0,1
2017548000,0.01091895,0.0034621637,-0.009054744,4000,0,0.1197101,-0.013167939,-9.812637,4000,0,0,0,1
2017552000,0.0117178755,-0.0090547595,-0.0071905814,4000,0,0.1364695,0.026336389,-9.763555,4000,0,0,0,1
2017560000,0.010918952,-0.007989491,0.0018642356,4000,0,0.11492168,0.0035914741,-9.805454,4000,0,0,0,1
2017568000,0.015180013,-0.007456873,0.009054744,4000,0,-0.04429273,0.07900883,-9.812637,4000,0,0,0,1
2017572000,0.008522095,-0.00319583,0.012250548,4000,0,-0.079008654,0.14963779,-9.803061,4000,0,0,0,1
2017576000,0.0066579,-0.0010652579,0.007190539,4000,0,-0.009576809,0.16998851,-9.8281975,4000,0,0,0,1
2017584000,-0.007989481,0.014114739,0.009054778,4000,0,0.1388637,0.1304842,-9.859323,4000,0,0,0,1
2017588000,-0.0066578933,0.0061252676,0.0061252858,4000,0,0.09457098,0.12808998,-9.824608,4000,0,0,0,1
2017592000,0.0002662868,0.0023968194,-0.011984233,4000,0,0.06584056,0.08020593,-9.791088,4000,0,0,0,1
2017596000,0.0015978909,0.0026631574,-0.02077266,4000,0,-0.0023941998,0.04189871,-9.793484,4000,0,0,0,1
2017600000,-0.0013316208,-0.003728408,-0.016245283,4000,0,-0.06464346,0.028730594,-9.821016,4000,0,0,0,1
2017604000,-0.001864214,-0.004261056,-0.01784318,4000,0,-0.0023941998,0.013168283,-9.872493,4000,0,0,0,1
2017608000,0.0034621384,0.0015978683,-0.013315802,4000,0,0.05985505,0.015562484,-9.915586,4000,0,0,0,1
2017612000,0.013315828,0.0045273155,0.00026631434,4000,0,0.05865795,-0.022744745,-9.895236,4000,0,0,0,1
2017616000,0.015446325,0.004527409,-0.0074568554,4000,0,0.07661447,-0.102950506,-9.874886,4000,0,0,0,1
2017620000,0.00026628288,-0.0021304348,-0.018375821,4000,0,0.08738836,-0.11492151,-9.837774,4000,0,0,0,1
2017624000,-0.012516897,-0.0069241417,-0.0074568605,4000,0,0.040701427,-0.028730249,-9.775528,4000,0,0,0,1
2017632000,-0.018642144,0.013848427,0.0013315068,4000,0,0.0023942017,-0.07900849,-9.879675,4000,0,0,0,1
2017636000,-0.013315859,0.02476734,-0.008788525,4000,0,0.04908113,-0.10175341,-9.811439,4000,0,0,0,1
2017644000,-0.0045273663,0.003728441,-0.00079892663,4000,0,-0.082599975,0.013168283,-9.871296,4000,0,0,0,1
2017652000,-0.009321076,0.009587364,-0.0029294929,4000,0,0.041898537,-0.014365042,-9.775528,4000,0,0,0,1
2017656000,-0.0042610443,0.0138484435,-2.916823e-08,4000,0,-0.020350713,0.0035914737,-9.801862,4000,0,0,0,1
2017660000,0.0037284235,0.023435822,-0.00053268234,4000,0,-0.047884032,0.0011972736,-9.888056,4000,0,0,0,1
2017664000,0.00932104,0.02103898,-0.0037284722,4000,0,-0.015562313,-0.016759245,-9.866506,4000,0,0,0,1
2017668000,0.00506005,0.0063915653,0.005059991,4000,0,-0.005985504,-0.06105198,-9.8509445,4000,0,0,0,1
2017676000,-0.009853672,-0.007989512,0.00452738,4000,0,-0.01436521,-0.12808962,-9.79827,4000,0,0,0,1
2017680000,-0.014381055,-0.009853722,-0.00053263834,4000,0,0.005985504,-0.073022984,-9.768345,4000,0,0,0,1
2017684000,-0.0050599948,0.00372841,-0.0034621444,4000,0,0.044292733,0.031124793,-9.858126,4000,0,0,0,1
2017688000,0.0021305254,-0.0005326387,-0.0023968471,4000,0,0.06344634,0.009576979,-9.844959,4000,0,0,0,1
2017696000,0.0055926535,-0.0082557965,-0.0034620988,4000,0,0.011971008,-0.05027807,-9.858126,4000,0,0,0,1
2017700000,0.0047936947,-0.0042610583,-0.0031957887,4000,0,0.016759414,-0.051475175,-9.818621,4000,0,0,0,1
2017704000,0.00878843,-0.0058589615,-0.001597894,4000,0,-0.037110135,-0.027533153,-9.733627,4000,0,0,0,1
2017712000,-0.006125252,0.010918981,-0.004793671,4000,0,-0.049081136,0.05027841,-9.682154,4000,0,0,0,1
2017716000,-0.008522106,0.0061252844,1.8618145e-08,4000,0,-0.0047884043,0.10414796,-9.7324295,4000,0,0,0,1
2017720000,-0.008788428,-0.00639158,0.002396881,4000,0,-0.025139121,0.055066817,-9.756374,4000,0,0,0,1
2017724000,-0.00026630683,-0.008522121,-0.0010652404,4000,0,-0.0047884043,-0.014365039,-9.800665,4000,0,0,0,1
2017728000,0.011984246,-4.749284e-09,-0.006924185,4000,0,0.07182605,-0.04668677,-9.889252,4000,0,0,0,1
2017732000,0.009853716,0.007989487,-0.005858923,4000,0,0.082599975,-0.069431685,-9.926362,4000,0,0,0,1
2017740000,0.005858932,0.0010652754,-0.009321079,4000,0,0.034715924,-0.06703748,-9.854535,4000,0,0,0,1
2017744000,0.0029294605,-0.0047936854,-0.0069242306,4000,0,0.055066645,-0.040701255,-9.847351,4000,0,0,0,1
2017748000,0.001864195,-0.0053263307,0.0034621076,4000,0,0.05865795,-0.027533151,-9.8198185,4000,0,0,0,1
2017752000,-0.004793689,-0.0037284326,0.0018642021,4000,0,0.07661447,-0.014365041,-9.78989,4000,0,0,0,1
2017756000,-0.014381063,-0.008788445,-0.0023968494,4000,0,0.1173159,-0.023941848,-9.76954,4000,0,0,0,1
2017760000,-0.011717933,-0.014381042,0.003994777,4000,0,0.027533326,-0.05865778,-9.765951,4000,0,0,0,1
2017768000,0.01518002,-0.00346208,0.0021305876,4000,0,0.010773908,0.0023943726,-9.787498,4000,0,0,0,1
2017772000,0.011717903,0.005592633,0.0029295192,4000,0,0.07661447,0.0035914732,-9.752781,4000,0,0,0,1
2017776000,0.00372843,0.0021305196,0.0034621109,4000,0,0.06464346,-0.022744747,-9.786301,4000,0,0,0,1
2017784000,0.008255832,-0.009321073,-0.022104224,4000,0,-0.043095633,-0.023941847,-9.806652,4000,0,0,0,1
2017788000,0.004793717,-1.17192585e-08,-0.008522102,4000,0,-0.0071826056,-0.06105198,-9.815031,4000,0,0,0,1
2017792000,-0.011717898,0.004527405,0.0018642202,4000,0,0.017956512,-0.05386937,-9.7396145,4000,0,0,0,1
2017796000,-0.019441087,-0.006391635,-0.009054694,4000,0,-0.011971008,-0.067037486,-9.703699,4000,0,0,0,1
2017800000,-0.010386329,-0.012783262,-0.01810944,4000,0,0.015562311,-0.11013311,-9.79827,4000,0,0,0,1
2017804000,-0.00026627208,0.0005326009,-0.009587383,4000,0,0.040701427,-0.13287802,-9.896433,4000,0,0,0,1
2017812000,-0.0026631483,-0.0013315809,0.0077231727,4000,0,-0.055066645,-0.18076207,-9.8677025,4000,0,0,0,1
2017816000,-0.00053263444,-0.0021305154,0.017044237,4000,0,-0.07422027,-0.070628785,-9.811439,4000,0,0,0,1
2017820000,0.0007989306,0.0018642191,0.010120013,4000,0,-0.062249243,-0.014365041,-9.776724,4000,0,0,0,1
2017824000,-1.3310124e-08,0.0039947424,0.00026631728,4000,0,-0.04548984,-0.02394185,-9.740809,4000,0,0,0,1
2017828000,-0.00026631632,0.0015978969,3.8251e-10,4000,0,-0.02274492,-0.07302299,-9.794682,4000,0,0,0,1
2017832000,-0.0031957943,-0.0069242194,-0.0010652624,4000,0,0.03232173,-0.067037486,-9.783907,4000,0,0,0,1
2017836000,-0.005059996,-0.011984233,-0.0063915867,4000,0,0.088585466,0.0023943714,-9.682154,4000,0,0,0,1
2017840000,-0.0071905195,-0.0069242176,-0.0077231852,4000,0,0.13287821,0.021547986,-9.718067,4000,0,0,0,1
2017848000,0.0061252727,-0.004261073,-0.0045273593,4000,0,0.079008654,0.06464362,-9.818621,4000,0,0,0,1
2017852000,0.003994758,0.0055926424,-0.0047936733,4000,0,-0.065840565,0.04908131,-9.840169,4000,0,0,0,1
2017856000,-0.002130528,0.008255811,-0.0063915728,4000,0,-0.05267244,0.086191446,-9.755177,4000,0,0,0,1
2017864000,-0.007989518,-0.0165116,-0.0074568237,4000,0,0.05746084,-0.0023940336,-9.664197,4000,0,0,0,1
2017868000,-0.0021305298,-0.014381082,-0.006391561,4000,0,0.070628956,0.031124793,-9.71567,4000,0,0,0,1
2017876000,-0.0021305347,0.006657899,0.007456855,4000,0,0.0047884043,-0.009576637,-9.836578,4000,0,0,0,1
2017880000,-0.0026631611,0.010918963,0.012250542,4000,0,0.031124622,-0.013167938,-9.834186,4000,0,0,0,1
2017884000,0.003195825,-0.0026631432,0.0055926302,4000,0,0.023942018,0.034716096,-9.804258,4000,0,0,0,1
2017892000,0.005326329,0.00213053,-0.0021305121,4000,0,0.0,-0.04668677,-9.854535,4000,0,0,0,1
2017896000,0.009587376,-0.0021305315,-0.002396856,4000,0,0.09457098,-0.035912856,-9.894039,4000,0,0,0,1
2017900000,0.011717911,-0.005059997,-0.005858963,4000,0,0.17238253,-0.015562142,-9.888056,4000,0,0,0,1
2017908000,0.006924196,-0.0063915844,-0.0087884525,4000,0,0.10295069,-0.016759248,-9.589975,4000,0,0,0,1
2017916000,0.005060012,0.0037284151,0.00053265353,4000,0,0.0059855045,-0.015562142,-9.715671,4000,0,0,0,1
2017920000,0.009587374,0.00053264195,-0.004793701,4000,0,-0.016759416,0.06464362,-9.834186,4000,0,0,0,1
2017924000,0.012250529,-0.007190508,-0.014647413,4000,0,-0.008379708,0.037110306,-9.884462,4000,0,0,0,1
2017928000,0.016245283,-0.001597963,-0.003195761,4000,0,0.0011971011,-0.023941847,-9.8281975,4000,0,0,0,1
2017932000,0.014647384,-0.0013316208,0.0045273756,4000,0,-0.02633622,-0.019153448,-9.75757,4000,0,0,0,1
2017940000,-0.0063915825,0.0018642185,-0.002663169,4000,0,-0.039504327,0.02513929,-9.716867,4000,0,0,0,1
2017944000,-0.000266314,0.002663161,-0.0002663216,4000,0,-0.017956514,0.056263912,-9.844959,4000,0,0,0,1
2017948000,0.0026631574,0.0037284254,-0.005060009,4000,0,0.041898537,0.02394219,-9.913193,4000,0,0,0,1
2017952000,0.00079894543,0.0037284314,-0.00745685,4000,0,0.027533324,-0.013167937,-9.866506,4000,0,0,0,1
2017956000,0.0007989534,0.002929476,-0.0018642133,4000,0,-0.03232173,-0.044292558,-9.837775,4000,0,0,0,1
2017960000,-0.0026631576,0.0039947433,0.0013315845,4000,0,-0.02633622,-0.052672267,-9.804258,4000,0,0,0,1
2017964000,-0.007989485,-0.0039947457,-0.0007989343,4000,0,-0.019153617,-0.027533155,-9.72884,4000,0,0,0,1
2017968000,-0.0037284286,-0.011717911,-0.00053260627,4000,0,-0.04548984,-0.016759247,-9.737221,4000,0,0,0,1
2017972000,-0.0026631674,-0.0042610564,0.0013315754,4000,0,-0.04548984,-0.019153446,-9.788693,4000,0,0,0,1
2017976000,-0.0034621086,0.0018642099,-0.0015979036,4000,0,-0.04548984,-0.0035911321,-9.794681,4000,0,0,0,1
2017984000,0.008255795,-0.0029294896,0.0045273798,4000,0,0.017956514,-0.069431685,-9.706094,4000,0,0,0,1
2017988000,0.009321054,0.0031957962,0.0042610765,4000,0,0.09457098,-0.028730253,-9.737221,4000,0,0,0,1
2017992000,0.0031957887,0.00053264934,-0.003994744,4000,0,0.062249243,0.11013346,-9.817425,4000,0,0,0,1
2017996000,-0.0055926405,-0.0002662986,-0.009321063,4000,0,0.008379707,0.13527259,-9.829395,4000,0,0,0,1
2018000000,0.0034621235,0.004261033,-0.0077231764,4000,0,0.01316811,0.04189871,-9.733627,4000,0,0,0,1
2018004000,0.00559264,0.0021305187,-0.0031957994,4000,0,0.02274492,-0.053869378,-9.703699,4000,0,0,0,1
2018008000,0.00026632028,-0.0026631802,0.00985369,4000,0,-0.05267244,-0.10654181,-9.786301,4000,0,0,0,1
2018012000,0.0031957862,-0.0031957857,0.020506347,4000,0,-0.12330139,-0.05027807,-9.809044,4000,0,0,0,1
2018016000,0.00026632455,-0.0029294877,0.010918959,4000,0,-0.08619127,0.035913195,-9.785105,4000,0,0,0,1
2018020000,-0.0026631241,-0.009321074,-0.0031957976,4000,0,-0.0023942017,0.028730594,-9.807848,4000,0,0,0,1
2018024000,0.006924207,-0.014913713,-0.0010652301,4000,0,0.033518832,0.009576979,-9.823412,4000,0,0,0,1
2018028000,0.012516821,-0.010120033,0.0069242576,4000,0,0.027533323,0.0407016,-9.800665,4000,0,0,0,1
2018036000,0.0013315981,-0.00798948,-0.00506001,4000,0,-0.062249243,0.0407016,-9.853339,4000,0,0,0,1
2018044000,0.0117179565,-0.007989474,-0.01597894,4000,0,-0.062249243,0.07062913,-9.718067,4000,0,0,0,1
2018048000,0.0053263498,0.0029294658,-0.0042610327,4000,0,-0.04668694,0.009576978,-9.727644,4000,0,0,0,1
2018052000,0.008788437,-0.001864235,0.005326311,4000,0,-0.010773908,0.027533494,-9.76954,4000,0,0,0,1
2018056000,0.0077231764,-0.0058589582,0.0055926265,4000,0,-0.031124622,0.071826234,-9.8198185,4000,0,0,0,1
2018064000,-0.022104241,0.0047936547,-0.004527416,4000,0,0.04668694,-0.11252732,-9.714474,4000,0,0,0,1
2018068000,-0.008255784,0.015712623,-0.0053264247,4000,0,0.021547817,-0.08140269,-9.8281975,4000,0,0,0,1
2018072000,0.012516862,0.012783143,-0.0037285262,4000,0,-0.06584056,-0.03112445,-9.915586,4000,0,0,0,1
2018076000,0.018375786,0.0021305378,-0.0074569215,4000,0,-0.029927524,-0.07900849,-9.868899,4000,0,0,0,1
2018080000,0.0010652625,0.0021305901,-0.010386317,4000,0,0.05267244,-0.056263573,-9.831791,4000,0,0,0,1
2018084000,-0.011185278,0.003195838,-0.014381062,4000,0,0.053869545,0.05267261,-9.844959,4000,0,0,0,1
2018088000,-0.00026636108,-0.0071905702,-0.009587354,4000,0,0.035913028,0.081403024,-9.844959,4000,0,0,0,1
2018092000,0.0018641925,-0.009587388,-0.0042610527,4000,0,-0.0071826037,0.059855223,-9.818621,4000,0,0,0,1
2018096000,-0.002396836,-0.0013315751,-0.0034621183,4000,0,-0.031124622,0.07182623,-9.753977,4000,0,0,0,1
2018100000,-8.983743e-09,-0.003994734,0.0098537,4000,0,0.011971008,0.05985522,-9.679759,4000,0,0,0,1
2018104000,-0.0031958066,-0.002396856,0.01544633,4000,0,0.041898537,0.0430958,-9.694122,4000,0,0,0,1
2018108000,0.0034620794,0.00559266,0.0023968415,4000,0,0.06584056,0.07541753,-9.836577,4000,0,0,0,1
2018112000,0.009587374,0.0018642235,-0.0023968606,4000,0,0.05267244,0.10414796,-9.892841,4000,0,0,0,1
2018116000,-0.0039947396,0.0007989405,0.0034621148,4000,0,0.0011971008,0.07182623,-9.815031,4000,0,0,0,1
2018124000,-0.016777918,0.00053258735,-0.00053262356,4000,0,-0.0047884043,-0.05386937,-9.877279,4000,0,0,0,1
2018128000,-0.0034621113,0.0034620417,-0.01225056,4000,0,-0.09097968,-0.11013312,-9.866506,4000,0,0,0,1
2018132000,0.008522121,0.0031957498,-0.008255813,4000,0,-0.14245501,-0.10414762,-9.848549,4000,0,0,0,1
2018136000,0.015978971,0.00053258915,-0.00026633168,4000,0,-0.03950433,-0.01556214,-9.854535,4000,0,0,0,1
2018140000,0.011185279,0.0047936896,2.363053e-08,4000,0,0.07302317,-0.011970838,-9.827001,4000,0,0,0,1
2018144000,-0.0021305247,0.005326313,0.0026631847,4000,0,0.06943185,-0.06584038,-9.7396145,4000,0,0,0,1
2018148000,-0.0071905227,-0.0010652664,0.0063916007,4000,0,0.040701427,-0.04070126,-9.736021,4000,0,0,0,1
2018152000,-0.0050599934,-0.0071905325,0.005858971,4000,0,-0.008379709,0.008379877,-9.756374,4000,0,0,0,1
2018156000,-0.0069242017,-0.014381076,0.004527382,4000,0,-0.020350715,0.009576978,-9.76116,4000,0,0,0,1
2018160000,-0.005592616,-0.01384845,-0.0005326274,4000,0,0.067037664,0.0047885757,-9.812637,4000,0,0,0,1
2018164000,0.009054761,-0.005060013,-0.0026631104,4000,0,0.079008654,0.01077408,-9.793484,4000,0,0,0,1
2018168000,0.012516856,-0.0063915933,-0.0018642113,4000,0,-0.0011971015,-0.016759245,-9.75757,4000,0,0,0,1
2018172000,0.0061252797,-0.011717883,-0.007190572,4000,0,-0.0071826056,-0.032321554,-9.801862,4000,0,0,0,1
2018176000,0.0063916077,-0.0002663207,-0.0053262985,4000,0,0.049081136,-0.008379534,-9.852142,4000,0,0,0,1
2018180000,0.003728448,0.012783155,0.006924248,4000,0,0.038307235,-0.0023940294,-9.883265,4000,0,0,0,1
2018188000,-0.0047937282,0.008788415,-0.0034620976,4000,0,-0.019153617,0.063446514,-9.775527,4000,0,0,0,1
2018192000,0.0021305112,-0.0015979082,-0.0055926424,4000,0,0.07541737,-0.038307063,-9.795877,4000,0,0,0,1
2018196000,0.00079892215,-0.014114756,-9.844769e-09,4000,0,0.04668694,-0.099359214,-9.841368,4000,0,0,0,1
2018200000,-0.00452738,-0.009853696,0.0010652407,4000,0,-0.039504327,-0.10295051,-9.800665,4000,0,0,0,1
2018204000,0.005858977,0.0029294698,-0.0066578886,4000,0,0.014365209,-0.069431685,-9.752781,4000,0,0,0,1
2018212000,0.012250511,-0.006657932,-0.007989512,4000,0,0.08619127,0.033519,-9.765951,4000,0,0,0,1
2018220000,-0.007190536,-2.121646e-08,-0.0021305294,4000,0,0.10055648,-0.06105198,-9.791088,4000,0,0,0,1
2018224000,-0.0037284277,-0.0023968748,-0.013582118,4000,0,0.04668694,-0.070628785,-9.843762,4000,0,0,0,1
2018228000,-2.9078956e-08,-0.008255812,-0.010386321,4000,0,0.009576809,-0.047883864,-9.809044,4000,0,0,0,1
2018236000,0.0034620906,-0.008522125,-0.0015978898,4000,0,-0.06464346,-0.06105198,-9.856928,4000,0,0,0,1
2018244000,-0.010386299,-0.010652672,-0.00585896,4000,0,0.05506665,-0.02873025,-9.797075,4000,0,0,0,1
2018252000,-0.00585896,-0.005592622,-0.004527388,4000,0,0.047884032,-0.015562142,-9.781511,4000,0,0,0,1
2018256000,-0.013315804,0.0007989686,-2.636989e-08,4000,0,0.057460845,0.017956683,-9.745598,4000,0,0,0,1
2018260000,-0.011185279,-0.0021305494,-0.0045273625,4000,0,0.077811554,-0.0035911333,-9.725246,4000,0,0,0,1
2018264000,0.0010652598,-0.006657932,-0.00719051,4000,0,0.038307235,-0.047883864,-9.837774,4000,0,0,0,1
2018268000,0.011185265,-0.0077231945,-0.0021305073,4000,0,-0.02873042,-0.035912853,-9.842566,4000,0,0,0,1
2018272000,0.011717917,0.0018642129,-0.0021304924,4000,0,-0.09097968,0.021547986,-9.745598,4000,0,0,0,1
2018276000,0.010918968,0.015978979,-0.0053262664,4000,0,-0.10175359,0.019153785,-9.7324295,4000,0,0,0,1
2018284000,0.0021305748,0.012516828,0.0077232034,4000,0,-0.040701427,0.028730594,-9.860521,4000,0,0,0,1
2018288000,-0.01091891,-0.0029295138,0.010652688,4000,0,0.015562313,0.04189871,-9.847351,4000,0,0,0,1
2018292000,-0.0031957652,-0.01038631,0.008522152,4000,0,0.07062895,0.055066817,-9.759963,4000,0,0,0,1
2018296000,0.009321047,0.0010652951,0.0037284573,4000,0,0.13048401,0.011971181,-9.7396145,4000,0,0,0,1
2018300000,0.0026631511,0.008522115,0.0018642386,4000,0,0.12449849,-0.035912853,-9.775527,4000,0,0,0,1
2018308000,-0.0031957654,0.004261075,0.009587382,4000,0,0.06823475,-0.01436504,-9.836578,4000,0,0,0,1
2018312000,0.0058590155,-0.012250508,0.014647393,4000,0,0.023942018,0.029927699,-9.878476,4000,0,0,0,1
2018320000,0.0058589596,-0.0007989349,-0.0005326071,4000,0,0.14604634,0.0395045,-9.801861,4000,0,0,0,1
2018324000,0.0069242213,-0.0005326167,-0.008522117,4000,0,0.07900866,0.10773926,-9.807847,4000,0,0,0,1
2018328000,0.008255785,-0.0058589573,-0.009321077,4000,0,0.0023942022,0.11851317,-9.7803135,4000,0,0,0,1
2018332000,0.013315791,-0.002929528,0.0031958118,4000,0,0.038307235,0.019153785,-9.801862,4000,0,0,0,1
2018336000,0.014913695,0.00372842,0.0047937213,4000,0,0.065840565,-0.034715753,-9.885658,4000,0,0,0,1
2018340000,0.0010652414,0.016511591,0.0026632422,4000,0,0.019153617,-0.03112445,-9.849746,4000,0,0,0,1
2018344000,-0.013582116,0.014114742,0.0037285062,4000,0,0.031124625,-0.001196931,-9.776724,4000,0,0,0,1
2018348000,-0.01704423,-0.004527396,1.0060982e-07,4000,0,0.065840565,0.0047885748,-9.785104,4000,0,0,0,1
2018352000,-0.0061252764,-0.013848419,0.0034621786,4000,0,0.0011971015,-0.01795634,-9.834185,4000,0,0,0,1
2018356000,0.006657844,-0.007456815,0.0146474335,4000,0,-0.04548984,-0.0155621385,-9.900026,4000,0,0,0,1
2018360000,0.0039946516,0.009587362,0.017310582,4000,0,-0.0071826046,-0.013167936,-9.956289,4000,0,0,0,1
2018364000,-0.0066579636,0.015712602,0.009587422,4000,0,0.029927526,-0.022744745,-9.962274,4000,0,0,0,1
2018372000,-0.012783151,0.0045274007,0.0077231955,4000,0,-0.034715924,-0.043095466,-9.843761,4000,0,0,0,1
2018380000,-0.00079895306,-0.004527383,0.014381069,4000,0,0.058657948,-0.0011969307,-9.751583,4000,0,0,0,1
2018384000,-0.004793686,-0.0015979192,0.0023968385,4000,0,0.025139121,0.022745091,-9.854535,4000,0,0,0,1
2018388000,-0.0013315716,-0.0026631826,-0.012783171,4000,0,0.01436521,-0.008379535,-9.841368,4000,0,0,0,1
2018392000,0.00053264364,-0.00026632447,-0.014114755,4000,0,-0.083797075,0.0035914734,-9.759963,4000,0,0,0,1
2018396000,-0.0015978564,0.008522125,-0.0034621083,4000,0,-0.11372458,0.07541753,-9.76116,4000,0,0,0,1
2018404000,-0.010386323,-0.0034621186,0.00079898286,4000,0,-0.02873042,0.05147551,-9.680956,4000,0,0,0,1
2018412000,-0.019441085,0.002396879,0.004261015,4000,0,0.0071826056,-0.037109964,-9.852142,4000,0,0,0,1
2018416000,-0.0042610643,0.008255839,0.0066578537,4000,0,-0.04668694,0.004788576,-9.787498,4000,0,0,0,1
2018424000,0.0071905158,-0.013582114,-0.0061253156,4000,0,-0.06344634,-0.052672267,-9.755177,4000,0,0,0,1
2018432000,0.0045273243,0.0007989316,0.008255831,4000,0,-0.0035913028,0.04189871,-9.843761,4000,0,0,0,1
2018436000,-0.00053267047,0.01411475,0.0023968671,4000,0,0.049081136,-0.123301215,-9.89045,4000,0,0,0,1
2018444000,-0.010918997,-0.020506335,-0.009321045,4000,0,0.029927526,-0.09696501,-9.794682,4000,0,0,0,1
2018448000,-0.002396844,-0.012516873,-0.0058589256,4000,0,0.011971009,-0.005985334,-9.730038,4000,0,0,0,1
2018456000,0.0005326432,-0.006657891,-0.006924231,4000,0,0.07302317,-0.13527225,-9.870098,4000,0,0,0,1
2018460000,-0.005858958,-0.00026630278,0.00079893554,4000,0,-0.021547817,-0.043095462,-9.953894,4000,0,0,0,1
2018464000,-0.0045273765,0.00079896935,0.011451593,4000,0,-0.08259997,0.049081307,-9.908405,4000,0,0,0,1
2018468000,0.0013315885,-0.0013315609,0.009853698,4000,0,-0.015562311,1.7074048e-07,-9.782708,4000,0,0,0,1
2018476000,0.0023968571,-0.017843172,-0.0039947657,4000,0,-0.02873042,-0.03112445,-9.767147,4000,0,0,0,1
2018480000,-0.0023968592,-0.012783171,-0.000532657,4000,0,-0.07422027,0.02873059,-9.722853,4000,0,0,0,1
2018484000,-0.004527365,-0.0039947433,-0.002396861,4000,0,-0.026336221,0.08499434,-9.768345,4000,0,0,0,1
2018492000,0.00426105,-0.0031957873,0.0066579124,4000,0,0.0011971008,0.021547988,-9.823412,4000,0,0,0,1
2018496000,0.0018642003,0.003462108,0.004261065,4000,0,-0.019153617,0.023942187,-9.777922,4000,0,0,0,1
2018500000,-0.00559263,-0.0026631723,0.0050600115,4000,0,-0.011971009,0.0407016,-9.832989,4000,0,0,0,1
2018504000,-0.0055926275,-0.010918956,0.007989499,4000,0,0.034715924,-0.0047882306,-9.878479,4000,0,0,0,1
2018508000,0.0018642157,-0.0069242064,0.0042610783,4000,0,0.12808979,-0.07900849,-9.8509445,4000,0,0,0,1
2018512000,0.009587388,-0.006391575,0.0010652826,4000,0,0.1592144,-0.062249076,-9.794682,4000,0,0,0,1
2018516000,0.01358213,-0.003462096,-0.0029294598,4000,0,0.067037664,1.7021813e-07,-9.752781,4000,0,0,0,1
2018524000,-0.0090547595,-0.005592621,-0.0007989535,4000,0,-0.016759414,0.011971179,-9.751583,4000,0,0,0,1
2018528000,-0.01198423,-0.0127831735,-0.0005326162,4000,0,0.095768064,-0.06703748,-9.759963,4000,0,0,0,1
2018532000,-0.0018641906,-0.0023968662,-0.0053263213,4000,0,0.117315896,-0.029927352,-9.818621,4000,0,0,0,1
2018540000,0.008522111,-0.0023968606,-0.009587381,4000,0,0.12330139,0.08499434,-9.773131,4000,0,0,0,1
2018548000,0.00079895364,0.005059995,0.0061252797,4000,0,-0.056263745,-0.023941847,-9.824608,4000,0,0,0,1
2018556000,0.0021305326,-0.004527373,0.0010652646,4000,0,0.03232173,-0.004788232,-9.7803135,4000,0,0,0,1
2018560000,0.009853696,-0.014913703,0.0037284298,4000,0,0.055066645,0.0395045,-9.749191,4000,0,0,0,1
2018564000,0.009054746,-0.013315808,0.0039947433,4000,0,0.020350715,0.0059856763,-9.846154,4000,0,0,0,1
2018568000,0.005326328,-0.004261051,1.0706121e-08,4000,0,0.019153617,-0.05985488,-9.92277,4000,0,0,0,1
2018572000,0.0045273863,0.0034621246,-0.008255787,4000,0,0.083797075,-0.05027807,-9.872493,4000,0,0,0,1
2018576000,0.0013315941,0.0077231755,-0.006924209,4000,0,0.14006081,0.015562484,-9.77433,4000,0,0,0,1
2018580000,-0.0023968078,0.005858957,0.009321074,4000,0,0.09217678,0.034716096,-9.767147,4000,0,0,0,1
2018584000,-0.0029294356,-0.002663157,0.017310554,4000,0,0.021547817,-0.01436504,-9.841368,4000,0,0,0,1
2018592000,-0.0018642293,-0.0042610466,0.009054752,4000,0,0.079008654,-0.025138948,-9.928757,4000,0,0,0,1
2018596000,0.003994748,-0.0007989379,-0.0026631546,4000,0,0.10654198,1.7237015e-07,-9.876081,4000,0,0,0,1
2018600000,0.0026631535,-0.0133157885,-0.0151800355,4000,0,0.100556485,-0.019153446,-9.803061,4000,0,0,0,1
2018604000,0.0055925874,-0.019973727,-0.011185271,4000,0,0.053869545,-0.057460666,-9.812637,4000,0,0,0,1
2018608000,0.0074568493,-0.022104247,-0.011984219,4000,0,-0.025139121,-0.034715753,-9.852142,4000,0,0,0,1
2018616000,-0.0053263563,-0.022104204,-0.009054814,4000,0,-0.0023942017,-0.010773738,-9.834186,4000,0,0,0,1
2018620000,-0.007989466,-0.0045273583,-0.004261109,4000,0,0.09816227,-0.015562144,-9.78989,4000,0,0,0,1
2018628000,-0.015712673,-0.011717883,-0.005060005,4000,0,0.02873042,0.06105232,-9.7001095,4000,0,0,0,1
2018632000,-0.015712682,-0.0069241705,0.004261033,4000,0,-0.051475346,-0.013167941,-9.698913,4000,0,0,0,1
2018636000,-0.0013315789,-0.0037284193,0.001597913,4000,0,-0.05267244,0.0071827755,-9.721657,4000,0,0,0,1
2018640000,0.0045273877,-0.0021305312,-0.00985369,4000,0,0.01436521,0.063446514,-9.795878,4000,0,0,0,1
2018644000,-0.0061252685,-0.0021304882,-0.01358213,4000,0,0.06105215,0.07541753,-9.818621,4000,0,0,0,1
2018648000,-0.008788422,0.00053265,-0.010918967,4000,0,0.08379707,0.059855223,-9.781511,4000,0,0,0,1
2018652000,-0.0010652486,0.004793669,-0.00852213,4000,0,0.077811554,-0.004788234,-9.783907,4000,0,0,0,1
2018656000,0.0026631723,0.0055926307,-0.0029294835,4000,0,0.04668694,-0.043095466,-9.817424,4000,0,0,0,1
