timestamp,timestamp_sample,time_last_fuse,device_id,observation[0],observation[1],observation[2],observation_variance[0],observation_variance[1],observation_variance[2],innovation[0],innovation[1],innovation[2],innovation_filtered[0],innovation_filtered[1],innovation_filtered[2],innovation_variance[0],innovation_variance[1],innovation_variance[2],test_ratio[0],test_ratio[1],test_ratio[2],test_ratio_filtered[0],test_ratio_filtered[1],test_ratio_filtered[2],estimator_instance,innovation_rejected,fused
2015612000,2015454000,2015460000,0,0.0,0.01,0.04,0.09,0.09,0.20250002,-0.024493078,0.002443049,-0.029641926,-0.023944816,0.011606773,-0.004265761,0.10537998,0.105574176,0.20783837,0.00022771342,2.2613442e-06,0.00016910136,-0.00024416397,8.267084e-05,-2.3073997e-05,0,0,1
2016012000,2015854000,2015860000,0,0.0,-0.03,-0.01,0.09,0.09,0.20250002,-0.029959079,0.0459641,0.023751328,-0.026617821,0.026876695,0.00818628,0.10537059,0.105565995,0.2078314,0.0003407199,0.00080052234,0.0001085737,-0.00028707774,0.00040171598,3.5436096e-05,0,0,1
2016412000,2016254000,2016260000,0,0.0,0.0,-0.01,0.09,0.09,0.20250002,-0.025879672,0.010194289,0.01797668,-0.026289755,0.019462291,0.012537569,0.10537742,0.105571926,0.20784248,0.00025423185,3.9375438e-05,6.219345e-05,-0.00027247958,0.00024067573,4.7328256e-05,0,0,1
2016812000,2016654000,2016660000,0,0.0,0.0,0.02,0.09,0.09,0.20250002,-0.026823742,0.009312079,-0.013608035,-0.026527083,0.014951086,0.00091729965,0.10537154,0.105568565,0.20783511,0.00027313377,3.2856304e-05,3.5639525e-05,-0.00027277032,0.00014831153,1.0453685e-05,0,0,1
2017212000,2017054000,2017060000,0,-0.03,0.0,-0.01,0.09,0.09,0.20250002,0.007006619,0.008929061,0.020386184,-0.011623215,0.01227463,0.009570138,0.105362855,0.10556346,0.20782894,1.8637578e-05,3.02105e-05,7.998818e-05,-0.00014325569,9.582218e-05,4.1357907e-05,0,0,1
2017612000,2017454000,2017460000,0,-0.02,0.0,-0.01,0.09,0.09,0.20250002,-0.007962782,-0.000390673,0.02054094,-0.0099963555,0.0066456064,0.01444605,0.1053671,0.10556547,0.20784077,2.4070472e-05,5.7831556e-08,8.120258e-05,-9.028448e-05,5.3208838e-05,5.9066653e-05,0,0,1
2018012000,2017854000,2017860000,0,0.0,-0.01,0.0,0.09,0.09,0.20250002,-0.029155139,0.0142958425,0.0100680515,-0.018511372,0.010045712,0.012500273,0.10536377,0.10556481,0.20781846,0.00032269998,7.74391e-05,1.9510424e-05,-0.00019358026,6.3977845e-05,4.1486106e-05,0,0,1
2018412000,2018254000,2018260000,0,-0.01,0.0,-0.02,0.09,0.09,0.20250002,-0.018238842,0.00084172963,0.033163395,-0.018390248,0.0059550526,0.021683883,0.10536051,0.10556373,0.20783359,0.00012629225,2.6846675e-07,0.0002116714,-0.00016367447,3.5662564e-05,0.000117124015,0,0,1
2018812000,2018654000,2018660000,0,-0.02,-0.02,0.06,0.09,0.09,0.20250002,-0.011790719,0.026105264,-0.05073156,-0.0154571235,0.014910703,-0.010500759,0.105375275,0.1055737,0.20782961,5.2771793e-05,0.0002582025,0.0004953464,-0.000114384384,0.0001345692,-0.00015508507,0,0,1
2019212000,2019054000,2019060000,0,0.0,0.0,0.0,0.09,0.09,0.20250002,-0.032878477,0.009428406,0.0129227415,-0.023199948,0.012474126,-9.0313144e-05,0.105380006,0.1055778,0.20782588,0.00041032233,3.367937e-05,3.2141757e-05,-0.00024591235,8.972928e-05,-7.187314e-05,0,0,1
2019604000,2019450000,2019452000,0,0.0,0.01,0.0,0.09,0.09,0.20250002,-0.03393216,0.0064503364,0.007244572,-0.027943201,0.009811826,0.003151444,0.105333164,0.10552652,0.20781444,0.000437238,1.577114e-05,1.0102055e-05,-0.00033047143,5.7042424e-05,-3.5643032e-05,0,0,1
2020012000,2019858000,2019860000,0,0.0,-0.02,-0.07,0.09,0.09,0.20250002,-0.03704935,0.042516947,0.07416198,-0.032034952,0.024507519,0.03505926,0.10543802,0.105621785,0.20782052,0.0005207436,0.0006845901,0.0010586055,-0.00041596818,0.0003390242,0.0004560457,0,0,1
2020412000,2020254000,2020260000,0,0.01,0.0,-0.049999997,0.09,0.09,0.20250002,-0.051429875,0.03011146,0.054533027,-0.040606815,0.026984261,0.043665968,0.105452985,0.10562819,0.20781839,0.0010033029,0.00034335532,0.0005723942,-0.00067554915,0.0003409384,0.00050746754,0,0,1
2020812000,2020654000,2020660000,0,0.0,-0.01,0.0,0.09,0.09,0.20250002,-0.03187753,0.03684755,-0.023550823,-0.03672713,0.031367946,0.013791837,0.10549183,0.10566184,0.2078342,0.00038531018,0.00051399524,0.00010674688,-0.00054655405,0.00041785254,0.00023448333,0,0,1
2021212000,2021054000,2021060000,0,0.06,-0.02,-0.26999998,0.09,0.09,0.20250002,0.027421359,0.029905243,-0.039925843,-0.00821669,0.030717855,-0.01008269,0.10571495,0.105928436,0.2078307,0.00028451261,0.00033770857,0.00030680222,-0.00017719108,0.000382233,-6.088041e-06,0,0,1
2021612000,2021454000,2021460000,0,0.17999999,-0.04,-0.57,0.09,0.09,0.20250002,-0.058996014,0.024843417,-0.10483158,-0.030785281,0.028106993,-0.052193306,0.10598022,0.10619082,0.2078441,0.0013136526,0.00023248538,0.0021149814,-0.0006822852,0.0003156785,-0.00094337406,0,0,1
2022012000,2021854000,2021860000,0,0.12,-0.02,-0.74,0.09,0.09,0.20250002,-0.044275805,0.010669738,-0.0062021017,-0.03678107,0.020357102,-0.03175277,0.10597493,0.10613431,0.20783839,0.00073992857,4.2905373e-05,7.4030727e-06,-0.00070790446,0.00019444598,-0.0005273869,0,0,1
2022412000,2022254000,2022260000,0,0.06,-0.02,-0.81,0.09,0.09,0.20250002,-0.042753518,0.02389638,0.03094244,-0.03943549,0.021930113,-0.0038882308,0.10594868,0.10606223,0.20783183,0.00069009385,0.0002153592,0.00018427103,-0.0006999886,0.00020374075,-0.00021109448,0,0,1
2022812000,2022654000,2022660000,0,-0.01,0.01,-0.79999995,0.09,0.09,0.20250002,-0.039799936,0.003285965,0.011785269,-0.039597467,0.0136438245,0.0030777697,0.105898224,0.10598405,0.20784323,0.0005983235,4.0751665e-06,2.6730255e-05,-0.0006548041,0.00011500048,-0.00010539459,0,0,1
2023212000,2023054000,2023060000,0,-0.099999994,0.01,-0.77,0.09,0.09,0.20250002,0.015214443,0.019121308,0.0065939426,-0.015236616,0.016078262,0.004640513,0.10583276,0.105905116,0.20783706,8.74887e-05,0.00013809509,8.368109e-06,-0.0003248962,0.00012526475,-5.483339e-05,0,0,1
2023612000,2023454000,2023460000,0,-0.12,0.049999997,-0.72999996,0.09,0.09,0.20250002,0.01645302,-0.02162904,0.013431013,-0.0011523319,-0.00068053976,0.008547402,0.10582,0.105858855,0.20783186,0.000102325415,0.00017676948,3.4718854e-05,-0.00013501992,-8.972696e-06,-1.503239e-05,0,0,1
2024012000,2023854000,2023860000,0,-0.099999994,0.02,-0.68,0.09,0.09,0.20250002,0.0050035715,0.013185438,0.030442297,0.0015836253,0.005482117,0.018278467,0.105811216,0.105823435,0.20782766,9.4643e-06,6.5715416e-05,0.00017836576,-7.08047e-05,2.4222023e-05,7.092235e-05,0,0,1
2024404000,2024250000,2024252000,0,-0.089999996,0.03,-0.59999996,0.09,0.09,0.20250002,0.022144265,-0.008054107,0.044660985,0.0106706945,-0.00050041033,0.029938597,0.10572782,0.105761684,0.20781416,0.00018552109,2.4533894e-05,0.00038392062,4.248214e-05,2.6736507e-06,0.0002092564,0,0,1
2024812000,2024658000,2024660000,0,-0.08,0.0,-0.22999999,0.09,0.09,0.20250002,0.032327406,0.019238379,0.052494287,0.020401902,0.0083690025,0.040073752,0.10560361,0.105675265,0.20782076,0.00039584297,0.0001400953,0.00053038984,0.00020126102,6.442259e-05,0.00035355426,0,0,1
2025212000,2025058000,2025060000,0,-0.07,-0.01,-0.22999999,0.09,0.09,0.20250002,0.049851507,0.015250731,-0.0051630884,0.033490617,0.011427549,0.01996849,0.10574396,0.10590935,0.20783465,0.00094007177,8.784298e-05,5.130518e-06,0.0005296214,7.483165e-05,0.0001941388,0,0,1
2025604000,2025450000,2025452000,0,-0.01,-0.03,-0.17,0.09,0.09,0.20250002,0.008848089,0.023963595,-0.027847603,0.022661164,0.016936664,-0.0010448601,0.105737366,0.10596904,0.20782083,2.9616278e-05,0.00021676288,0.00014926106,0.00030988822,0.00013720502,4.3227643e-05,0,0,1
2026012000,2025854000,2025860000,0,-0.02,0.0,-0.17999999,0.09,0.09,0.20250002,0.04472456,-0.010006991,0.018680826,0.032521356,0.004895474,0.0077706007,0.10585655,0.106163114,0.20782615,0.00075584796,3.773057e-05,6.716638e-05,0.0005091888,5.9025842e-05,5.3925927e-05,0,0,1
2026412000,2026254000,2026260000,0,-0.02,0.01,-0.099999994,0.09,0.09,0.20250002,0.059380908,-0.0036988477,-0.03305219,0.044458933,0.0010757754,-0.010372865,0.105881825,0.10621564,0.20783877,0.0013320859,5.152339e-06,0.00021024898,0.00087492086,3.0502204e-05,-6.348515e-05,0,0,1
2026812000,2026654000,2026660000,0,0.0,0.02,-0.099999994,0.09,0.09,0.20250002,0.04082822,-0.004923161,-0.0059020445,0.042845283,-0.0015904189,-0.008385833,0.105914764,0.10616899,0.20783366,0.0006295415,9.131673e-06,6.7042315e-06,0.00076586334,1.2887147e-05,-3.8249185e-05,0,0,1
2027212000,2027054000,2027060000,0,0.01,0.0,-0.089999996,0.09,0.09,0.20250002,0.031128632,0.015323462,0.002568543,0.037637882,0.0059268624,-0.0035172212,0.10594143,0.10610698,0.20782802,0.00036585942,8.851764e-05,1.2697832e-06,0.0005880838,4.6500703e-05,-2.0685198e-05,0,0,1
2027612000,2027454000,2027460000,0,-0.01,0.0,-0.08,0.09,0.09,0.20250002,0.060540065,0.011307186,0.010401309,0.04781663,0.008318118,0.0026687928,0.105957836,0.10609567,0.2078407,0.0013836068,4.8202706e-05,2.0821182e-05,0.0009416496,4.725715e-05,-2.2379172e-06,0,0,1
2028012000,2027854000,2027860000,0,0.01,0.0,-0.03,0.09,0.09,0.20250002,0.03898269,0.0022901765,-0.028929988,0.043890435,0.0056390325,-0.011375111,0.10596936,0.10605321,0.20783536,0.0005736187,1.9782176e-06,0.00016107831,0.0007780803,2.7133177e-05,-7.2833645e-05,0,0,1
2028412000,2028254000,2028260000,0,0.0,0.01,-0.07,0.09,0.09,0.20250002,0.049378153,-0.005672527,0.022414058,0.04632942,0.00061167264,0.0036422992,0.10597605,0.106012665,0.20782915,0.00092028413,1.2141026e-05,9.669289e-05,0.000841282,9.677975e-06,2.511486e-06,0,0,1
2028812000,2028654000,2028660000,0,0.02,0.01,-0.04,0.09,0.09,0.20250002,0.030191585,-0.0023284312,0.0021151379,0.039157048,-0.00069504033,0.0029635609,0.10597556,0.105987184,0.20784074,0.0003440536,2.0461312e-06,8.610069e-07,0.00062029157,4.4672606e-06,1.7779396e-06,0,0,1
2029204000,2029050000,2029052000,0,0.0,0.0,-0.049999997,0.09,0.09,0.20250002,0.049901463,0.010385355,0.021061597,0.043905694,0.0042020986,0.010962246,0.1059057,0.10589387,0.20782626,0.0009405183,4.074102e-05,8.537726e-05,0.00076182035,2.0498966e-05,3.872585e-05,0,0,1
2029612000,2029454000,2029460000,0,0.0,0.0,-0.03,0.09,0.09,0.20250002,0.045027256,0.0065842327,0.008637203,0.044406924,0.0052666804,0.009923178,0.105975635,0.10595305,0.20783,0.0007652528,1.6366539e-05,1.4358135e-05,0.0007633543,1.8652174e-05,2.7835855e-05,0,0,1
2030012000,2029854000,2029860000,0,0.049999997,-0.04,-0.049999997,0.09,0.09,0.20250002,0.14679728,-0.015229814,0.012223326,0.089913756,-0.0038428735,0.010945465,0.10606151,0.10670113,0.20784189,0.008127149,8.695212e-05,2.875449e-05,0.0040361523,-2.8283068e-05,2.8244138e-05,0,0,1
2030412000,2030254000,2030260000,0,0.65,-0.17999999,-0.11,0.09,0.09,0.20250002,0.24850208,-0.0021460056,0.024753854,0.16039746,-0.00308871,0.017082527,0.10691115,0.12757713,0.20784502,0.023104522,1.4439391e-06,0.00011792503,0.012510983,-1.6354566e-05,6.8102316e-05,0,0,1
2030812000,2030654000,2030660000,0,1.75,-0.32999998,-0.01,0.09,0.09,0.20250002,0.23808181,-0.021531165,-0.02315898,0.19492385,-0.011285357,-0.0008025896,0.10818901,0.18515624,0.20789869,0.020957008,0.000100151316,0.00010319225,0.016264772,-5.359757e-05,-8.028612e-06,0,0,1
2031212000,2031054000,2031060000,0,2.86,-0.48999998,-0.01,0.09,0.09,0.20250002,0.19158244,-0.01585731,-0.0012363922,0.19343878,-0.013317335,-0.0009953908,0.10773115,0.18554759,0.20796442,0.013627936,5.420803e-05,2.9402446e-07,0.015092845,-5.3868887e-05,-4.591017e-06,0,0,1
2031604000,2031450000,2031452000,0,3.87,-0.58,0.0,0.09,0.09,0.20250002,0.083660364,-0.028182864,0.015073432,0.14492065,-0.019887367,0.006106454,0.106882274,0.15766576,0.20805794,0.0026193515,0.00020150827,4.3681743e-05,0.009580007,-0.00011912022,1.6743817e-05,0,0,1
2032012000,2031854000,2031860000,0,4.63,-0.65999997,0.04,0.09,0.09,0.20250002,-0.048552036,0.010741293,0.014374945,0.058457196,-0.0061993385,0.009801664,0.106755435,0.13676998,0.20814988,0.0008832525,3.3742897e-05,3.9709666e-05,0.004903949,-5.080529e-05,2.7007316e-05,0,0,1
2032412000,2032254000,2032260000,0,4.87,-0.64,0.07,0.09,0.09,0.20250002,-0.16751575,0.020876765,-0.024386793,-0.041975237,0.0058344863,-0.005393206,0.107160985,0.12089844,0.20817217,0.010474531,0.00014420015,0.00011427382,-0.0019309316,3.58638e-05,-3.578431e-05,0,0,1
2032812000,2032654000,2032660000,0,4.71,-0.52,0.0,0.09,0.09,0.20250002,-0.14953995,0.016226113,0.0077084675,-0.089781776,0.010452988,0.0004297602,0.108317316,0.11434899,0.20814556,0.008258032,9.209936e-05,1.14190225e-05,-0.0047429763,6.0857383e-05,-1.4805049e-05,0,0,1
2033212000,2033054000,2033060000,0,4.62,-0.41,-0.03,0.09,0.09,0.20250002,-0.106916904,-0.02920705,0.030481068,-0.09739739,-0.0071736965,0.013785899,0.10990224,0.11324641,0.20812912,0.0041605067,0.0003013082,0.00017856137,-0.0044841007,-0.00010010512,7.113558e-05,0,0,1
2033612000,2033454000,2033460000,0,4.62,-0.35,-0.02,0.09,0.09,0.20250002,-0.098291874,-0.06273955,0.013569269,-0.097794935,-0.031869635,0.013689619,0.11153331,0.11359133,0.20813611,0.0034648995,0.0013861097,3.538551e-05,-0.004031122,-0.0006716628,5.524666e-05,0,0,1
2034004000,2033850000,2033852000,0,4.62,-0.38,-0.01,0.09,0.09,0.20250002,-0.06758976,-0.032591164,0.005139461,-0.08444533,-0.032188524,0.009910755,0.11271747,0.113958165,0.20811954,0.0016211774,0.00037283296,5.076709e-06,-0.0029660128,-0.0005395907,3.307333e-05,0,0,1
2034412000,2034254000,2034260000,0,4.64,-0.41,-0.01,0.09,0.09,0.20250002,-0.034159184,-0.04302597,0.0050855596,-0.06197232,-0.037031807,0.007754362,0.11368668,0.114385635,0.20813158,0.00041054937,0.00064736593,4.970493e-06,-0.0018239694,-0.00058775576,2.05141e-05,0,0,1
2034804000,2034650000,2034652000,0,4.65,-0.48,-0.01,0.09,0.09,0.20250002,0.01276207,-0.02671519,0.009615796,-0.028942391,-0.03247223,0.00857705,0.11375302,0.11412457,0.20812742,5.727159e-05,0.0002501482,1.777056e-05,-0.0009925282,-0.00043854528,1.9301553e-05,0,0,1
2035212000,2035054000,2035060000,0,4.69,-0.53,-0.07,0.09,0.09,0.20250002,-0.007027149,-0.042905927,0.07665325,-0.019148413,-0.037135076,0.03900048,0.11367904,0.11386203,0.20816384,1.7375525e-05,0.00064671907,0.0011290569,-0.00055672985,-0.00053157867,0.00051525416,0,0,1
2035612000,2035454000,2035460000,0,4.7,-0.59,0.03,0.09,0.09,0.20250002,-0.00480175,-0.026218235,-0.021935944,-0.012772119,-0.032283146,0.011917625,0.11317299,0.11324592,0.20816521,8.149225e-06,0.00024279759,9.246226e-05,-0.00031291624,-0.00040323153,0.00024515798,0,0,1
2036012000,2035854000,2035860000,0,4.68,-0.59999996,0.0,0.09,0.09,0.20250002,0.019319534,-0.038808405,0.008568637,0.0014908398,-0.035183262,0.010429186,0.11251989,0.11253883,0.20818295,0.00013268566,0.0005353147,1.410712e-05,-0.00011487094,-0.00046193518,0.00014246869,0,0,1
2036412000,2036254000,2036260000,0,4.68,-0.65,0.02,0.09,0.09,0.20250002,0.040320396,0.00015842915,-0.011045698,0.018748421,-0.019475842,0.00088479277,0.11178417,0.11177211,0.20818046,0.00058174046,8.982489e-09,2.3442632e-05,0.00019473415,-0.00025662663,6.8730325e-05,0,0,1
2036812000,2036654000,2036660000,0,4.7,-0.65999997,0.0,0.09,0.09,0.20250002,0.044661045,-0.00809896,0.00904122,0.030265145,-0.0144194495,0.004509872,0.111021355,0.11100913,0.20817813,0.0007186397,2.3635228e-05,1.5706482e-05,0.00042758108,-0.00015307489,4.516417e-05,0,0,1
2037212000,2037054000,2037060000,0,4.7,-0.65999997,-0.03,0.09,0.09,0.20250002,0.061903,-0.012261748,0.04124774,0.044326417,-0.013460471,0.020837814,0.11028244,0.110273175,0.20819539,0.001389879,5.4537464e-05,0.00032688066,0.0008552691,-0.000109280474,0.00017037151,0,0,1
2037612000,2037454000,2037460000,0,4.7,-0.65,0.0,0.09,0.09,0.20250002,0.07855177,-0.008788049,0.010272481,0.059537686,-0.011383839,0.01614211,0.1095994,0.109588586,0.20819475,0.002251976,2.8188997e-05,2.0274067e-05,0.0014760278,-7.323982e-05,0.00010366153,0,0,1
2038012000,2037854000,2037860000,0,4.72,-0.65999997,0.0,0.09,0.09,0.20250002,0.07848549,0.012061417,0.012054652,0.067958936,-0.0009637242,0.014325461,0.10896871,0.10896272,0.20819515,0.002261189,5.3404605e-05,2.7918928e-05,0.0018249884,-1.6953407e-05,6.999815e-05,0,0,1
2038412000,2038254000,2038260000,0,4.74,-0.62,0.03,0.09,0.09,0.20250002,0.09275246,-0.023023784,-0.01099815,0.07897828,-0.010768196,0.003070522,0.10840005,0.10840294,0.20821767,0.0031745438,0.00019560159,2.323709e-05,0.002424791,-9.635261e-05,2.8560262e-05,0,0,1
2038812000,2038658000,2038660000,0,4.7599998,-0.62,0.0,0.09,0.09,0.20250002,0.109922886,-0.0035820007,0.0149534345,0.0928075,-0.007556666,0.008381027,0.10791501,0.1079168,0.20822003,0.0044787247,4.7557855e-06,4.295556e-05,0.0033426993,-5.541775e-05,3.4993558e-05,0,0,1
2039212000,2039054000,2039060000,0,4.7999997,-0.61,-0.03,0.09,0.09,0.20250002,0.09234381,-0.0044203997,0.044836186,0.092602566,-0.0061705485,0.024492905,0.10749315,0.10750548,0.20822331,0.0031731804,7.270303e-06,0.0003861784,0.003267778,-3.41383e-05,0.00019020472,0,0,1
2039612000,2039454000,2039460000,0,4.8399997,-0.61,0.0,0.09,0.09,0.20250002,0.06731939,-0.000620842,0.016515322,0.0813656,-0.0037040121,0.020947311,0.10713482,0.10715969,0.20824583,0.0016920366,1.4387678e-07,5.239113e-05,0.0025674484,-1.9029667e-05,0.00012895424,0,0,1
2040012000,2039854000,2039860000,0,4.83,-0.61,0.01,0.09,0.09,0.20250002,0.09678936,-0.005271673,0.002825288,0.088220604,-0.0044007506,0.012893078,0.10684073,0.106879264,0.20824723,0.0035073443,1.0400722e-05,1.5332263e-06,0.00298518,-1.5194581e-05,7.232268e-05,0,0,1
2040412000,2040258000,2040260000,0,4.8399997,-0.63,0.01,0.09,0.09,0.20250002,0.09704161,0.025317729,0.0015405249,0.092162736,0.008880516,0.007819592,0.10661585,0.10665861,0.20824805,0.0035330858,0.00024038841,4.5584426e-07,0.0032300404,9.902614e-05,4.02052e-05,0,0,1
2040812000,2040654000,2040660000,0,4.85,-0.62,0.02,0.09,0.09,0.20250002,0.09244776,0.01235199,-0.009191703,0.0922887,0.010414783,0.00030120695,0.10643676,0.106485754,0.2082685,0.0032118934,5.7311572e-05,1.6226633e-05,0.00322202,8.058979e-05,1.5264346e-05,0,0,1
2041212000,2041054000,2041060000,0,4.89,-0.64,0.0,0.09,0.09,0.20250002,0.055588722,0.035833538,0.010569341,0.0759776,0.021712009,0.004864822,0.10630659,0.10635767,0.20826805,0.0011627147,0.00048291482,2.1455227e-05,0.002306773,0.00025940093,1.801585e-05,0,0,1
2041612000,2041454000,2041460000,0,4.87,-0.65,0.02,0.09,0.09,0.20250002,0.08687258,0.04149151,-0.013142046,0.080819815,0.030502899,-0.003138231,0.106218904,0.10627242,0.20826648,0.002841997,0.00064797443,3.317161e-05,0.0025446503,0.00043210026,-4.7341346e-06,0,0,1
2042012000,2041858000,2041860000,0,4.91,-0.61,0.049999997,0.09,0.09,0.20250002,0.046896458,0.0016030669,-0.044408567,0.065659374,0.017587487,-0.021582054,0.106162235,0.106214486,0.20826693,0.00082864787,9.677865e-07,0.00037876796,0.0017777643,0.00023942602,-0.00017189083,0,0,1
2042412000,2042254000,2042260000,0,4.89,-0.63,0.01,0.09,0.09,0.20250002,0.07622719,0.035853148,-0.009607712,0.07032997,0.025660256,-0.016289823,0.106142215,0.10618853,0.2082668,0.0021897354,0.0004842136,1.7728822e-05,0.0019598408,0.0003476134,-0.00010375673,0,0,1
2042812000,2042654000,2042660000,0,4.9,-0.64,0.0,0.09,0.09,0.20250002,0.06282902,0.040970683,0.0009984374,0.06699622,0.03246489,-0.008606151,0.10612692,0.1061738,0.20826589,0.0014878357,0.00063239585,1.9146242e-07,0.0017500607,0.00047418338,-5.755753e-05,0,0,1
2043212000,2043054000,2043060000,0,4.92,-0.61,-0.01,0.09,0.09,0.20250002,0.04324627,0.006790936,0.011437895,0.056440685,0.021054244,0.00030231476,0.10612716,0.10617353,0.20828366,0.0007049053,1.7374128e-05,2.5124476e-05,0.0012855472,0.00027115704,-2.080997e-05,0,0,1
2043612000,2043454000,2043460000,0,4.94,-0.61,0.01,0.09,0.09,0.20250002,0.029432774,0.020177543,-0.010961691,0.04443717,0.020664599,-0.0047039106,0.10614872,0.10618905,0.20827898,0.00032644317,0.00015336167,2.3076485e-05,0.0008592787,0.00021880354,-2.181731e-05,0,0,1
2044012000,2043854000,2043860000,0,4.99,-0.59999996,-0.01,0.09,0.09,0.20250002,-0.017208576,0.009473026,0.012728864,0.017039059,0.015690565,0.0030439901,0.10616172,0.10620212,0.20829299,0.00011157886,3.379903e-05,3.1114632e-05,0.00042778644,0.00013657931,1.7080001e-06,0,0,1
2044412000,2044254000,2044260000,0,4.97,-0.59999996,-0.01,0.09,0.09,0.20250002,0.011311531,0.012000322,0.012564445,0.014493491,0.014050457,0.0072753034,0.10617995,0.106220335,0.2082858,4.820147e-05,5.422982e-05,3.0317051e-05,0.000259082,9.997954e-05,1.4423134e-05,0,0,1
2044812000,2044654000,2044660000,0,4.97,-0.59999996,0.04,0.09,0.09,0.20250002,0.0015311241,0.007299423,-0.03552439,0.008732438,0.011049997,-0.011746783,0.10620014,0.10624107,0.20827715,8.829898e-07,2.0060634e-05,0.00024236598,0.00014432688,6.446002e-05,-9.970537e-05,0,0,1
2045212000,2045054000,2045060000,0,4.98,-0.62,-0.02,0.09,0.09,0.20250002,-0.018254757,0.02011162,0.01568662,-0.0032618716,0.015077386,0.0004458418,0.10621993,0.10626322,0.20826867,0.00012548912,0.00015225486,4.7260113e-05,2.440864e-05,0.00010347995,-3.4387376e-05,0,0,1
2045612000,2045454000,2045460000,0,4.98,-0.59999996,0.0,0.09,0.09,0.20250002,-0.017426014,-0.0037911534,-0.003807947,-0.009557046,0.0066913683,-0.0014447311,0.10622796,0.106272675,0.20827933,0.00011434502,5.409798e-06,2.7848105e-06,-3.7259655e-05,5.5084503e-05,-2.0341791e-05,0,0,1
2046012000,2045854000,2045860000,0,4.97,-0.62,0.04,0.09,0.09,0.20250002,-0.013764381,0.010779381,-0.043299355,-0.011426973,0.008508263,-0.020046787,0.106236935,0.10628274,0.20826887,7.133421e-05,4.3730543e-05,0.00036007955,-5.2403902e-05,5.00383e-05,-0.00017133635,0,0,1
2046412000,2046254000,2046260000,0,4.98,-0.65999997,0.01,0.09,0.09,0.20250002,-0.032168865,0.04969555,-0.014908085,-0.020645592,0.026813725,-0.01776292,0.10623811,0.106284656,0.20825906,0.0003896289,0.00092944666,4.2687407e-05,-0.00020228169,0.0004408865,-0.00011415903,0,0,1
2046812000,2046654000,2046660000,0,4.96,-0.65,0.0,0.09,0.09,0.20250002,-0.01816225,0.033491373,-0.00857757,-0.019541886,0.029781569,-0.013680542,0.10623428,0.10628191,0.20824972,0.00012420373,0.00042214978,1.4132016e-05,-0.00016758038,0.00043255909,-6.970258e-05,0,0,1
2047212000,2047054000,2047060000,0,4.96,-0.63,-0.03,0.09,0.09,0.20250002,-0.02783823,0.01474762,0.017719677,-0.02322915,0.023099814,0.00027511176,0.10623233,0.10627874,0.20825982,0.00029180085,8.18573e-05,6.0306775e-05,-0.00022278949,0.00027669163,-1.1920642e-05,0,0,1
2047612000,2047454000,2047460000,0,4.95,-0.64,-0.01,0.09,0.09,0.20250002,-0.022668362,0.036144435,-0.0027316418,-0.022979911,0.028897423,-0.0010612232,0.10621702,0.10626318,0.2082496,0.00019351121,0.0004917678,1.4332544e-06,-0.00020977692,0.00037228104,-7.2595803e-06,0,0,1
2048012000,2047854000,2047860000,0,4.96,-0.61,0.0,0.09,0.09,0.20250002,-0.035637856,0.01882416,-0.0060347393,-0.028605664,0.024420418,-0.003271675,0.106192246,0.106238976,0.20823765,0.00047839904,0.00013341582,6.995484e-06,-0.00032916456,0.0002661187,-7.142204e-06,0,0,1
2048412000,2048254000,2048260000,0,4.93,-0.61,0.03,0.09,0.09,0.20250002,-0.009932995,0.02717185,-0.033143513,-0.020306699,0.025643276,-0.016548049,0.106173374,0.10622076,0.208225,3.717105e-05,0.0002780283,0.00021102028,-0.00019938966,0.00027141187,-9.775468e-05,0,0,1
2048812000,2048654000,2048660000,0,4.93,-0.59,-0.01,0.09,0.09,0.20250002,-0.0076293945,0.0031681657,0.006628031,-0.014672341,0.015654337,-0.006247568,0.10614422,0.106199436,0.20823245,2.1935311e-05,3.7805373e-06,8.438799e-06,-0.00012052105,0.0001524646,-5.0557574e-05,0,0,1
2049204000,2049050000,2049052000,0,4.96,-0.58,-0.02,0.09,0.09,0.20250002,-0.042051792,0.0005761385,0.01681717,-0.02677308,0.008990312,0.0039462214,0.10604772,0.106107324,0.20820901,0.00066700287,1.25132e-07,5.4333323e-05,-0.00036204647,8.5136e-05,-4.1995445e-06,0,0,1
2049612000,2049454000,2049460000,0,4.94,-0.57,0.0,0.09,0.09,0.20250002,-0.02192545,-0.021048129,-0.0006213933,-0.024606662,-0.0044339458,0.0019049423,0.10609921,0.10616569,0.20822647,0.00018123616,0.00016691785,7.417494e-08,-0.00028124187,-2.7507522e-05,-2.355906e-06,0,0,1
2050012000,2049854000,2049860000,0,4.94,-0.62,-0.03,0.09,0.09,0.20250002,-0.03780842,0.028182268,0.0427439,-0.03047411,0.01006215,0.02005559,0.106051266,0.10612178,0.20819277,0.00053916435,0.00029936936,0.0003510287,-0.00039587409,0.0001177711,0.00015470391,0,0,1
2050412000,2050254000,2050260000,0,4.73,-0.59,-0.049999997,0.09,0.09,0.20250002,-0.13756084,0.014404058,0.05615893,-0.07806822,0.011991887,0.03610152,0.1060231,0.10606414,0.20820199,0.007139194,7.824582e-05,0.0006059165,-0.0033929052,0.000100204314,0.00035524287,0,0,1
2050812000,2050654000,2050660000,0,4.11,-0.51,0.03,0.09,0.09,0.20250002,-0.15182686,-0.009360075,-0.017754285,-0.11084984,0.0025021248,0.012165604,0.10599945,0.10616951,0.20819339,0.008698684,3.300797e-05,6.0561888e-05,-0.0057510296,4.0998853e-05,0.00017044073,0,0,1
2051212000,2051054000,2051060000,0,3.4199998,-0.39999998,0.0,0.09,0.09,0.20250002,-0.103774786,-0.039465547,0.012960866,-0.10770537,-0.016150175,0.012519054,0.105980724,0.10645619,0.20820789,0.0040645907,0.00058522826,3.2272368e-05,-0.005001501,-0.00023732433,0.00010903257,0,0,1
2051612000,2051454000,2051460000,0,2.77,-0.31,0.01,0.09,0.09,0.20250002,-0.05441284,-0.03840059,-0.0009330753,-0.0840198,-0.02603925,0.0065403297,0.10597492,0.106766835,0.2081978,0.0011175313,0.00055245816,1.6726969e-07,-0.0032752922,-0.00037738384,6.0499304e-05,0,0,1
2052012000,2051854000,2051860000,0,2.2,-0.24,0.02,0.09,0.09,0.20250002,-0.04196191,-0.029562965,-0.016848292,-0.065327406,-0.027605345,-0.0038546142,0.10595742,0.10697534,0.20818314,0.0006647205,0.00032679265,5.454139e-05,-0.0021150382,-0.00035489886,9.3701055e-06,0,0,1
2052412000,2052254000,2052260000,0,1.66,-0.14999999,0.01,0.09,0.09,0.20250002,0.023046136,-0.05764182,-0.008215943,-0.026050273,-0.04095489,-0.005792983,0.10592884,0.107002854,0.20817952,0.00020055892,0.0012420526,1.29699065e-05,-0.0010858838,-0.00074918946,-5.587899e-07,0,0,1
2052812000,2052654000,2052660000,0,1.2099999,-0.099999994,0.02,0.09,0.09,0.20250002,0.07240665,-0.06818834,-0.025588226,0.017708361,-0.053058647,-0.014590869,0.105900295,0.10688212,0.20814678,0.0019802486,0.0017401039,0.00012582607,0.0002768418,-0.0011895959,-5.623314e-05,0,0,1
2053212000,2053054000,2053060000,0,0.88,-0.099999994,-0.049999997,0.09,0.09,0.20250002,0.08376914,-0.048051596,0.040322073,0.04706871,-0.050833292,0.0098148845,0.105858766,0.10662635,0.20810778,0.0026515592,0.0008661859,0.0003125053,0.0013322718,-0.0010458581,0.000107650616,0,0,1
2053612000,2053454000,2053460000,0,0.66999996,-0.08,0.0,0.09,0.09,0.20250002,0.060869396,-0.05710788,-0.011129722,0.05320235,-0.053622,0.0005061701,0.105817415,0.10631776,0.20806347,0.0014005571,0.0012270048,2.3814022e-05,0.0013626209,-0.0011263678,4.9221886e-05,0,0,1
2054012000,2053854000,2053860000,0,0.48,-0.06,0.0,0.09,0.09,0.20250002,0.088335186,-0.05077481,-0.0071013123,0.068816945,-0.052356582,-0.0028749334,0.10578773,0.10604758,0.20804043,0.0029504762,0.00097242434,9.69593e-06,0.0020683345,-0.0010579485,2.3036187e-05,0,0,1
2054412000,2054254000,2054260000,0,0.37,-0.06,0.0,0.09,0.09,0.20250002,0.07991606,-0.039658833,-0.005616933,0.073749885,-0.046713136,-0.0040936,0.10575559,0.10585255,0.20799817,0.0024155988,0.00059434486,6.0673487e-06,0.0022226742,-0.0008519024,1.0101282e-05,0,0,1
2054812000,2054654000,2054660000,0,0.26,-0.06,0.0,0.09,0.09,0.20250002,0.09618175,-0.027258161,-0.008057833,0.0837196,-0.03806648,-0.005855481,0.10573794,0.105769135,0.20795934,0.0034995682,0.00028099213,1.2488723e-05,0.0027901828,-0.0005981645,6.1279934e-08,0,0,1
2055212000,2055054000,2055060000,0,0.21,-0.04,0.03,0.09,0.09,0.20250002,0.07181929,-0.037864752,-0.03860057,0.07843058,-0.037976824,-0.020408854,0.10571566,0.105768755,0.20794344,0.0019516541,0.00054221664,0.0002866172,0.0024175034,-0.0005732988,-0.00012735139,0,0,1
2055612000,2055454000,2055460000,0,0.16,-0.03,0.0,0.09,0.09,0.20250002,0.060890645,-0.03617973,-0.007628441,0.07063505,-0.037178114,-0.01472867,0.10569586,0.105841264,0.2079127,0.001403147,0.0004946928,1.11956815e-05,0.0019666783,-0.0005383628,-7.5726624e-05,0,0,1
2056012000,2055854000,2055860000,0,0.14,-0.02,0.01,0.09,0.09,0.20250002,0.03410788,-0.036448456,-0.013398016,0.05440075,-0.03685382,-0.014137268,0.1056832,0.10596927,0.20790474,0.00044031497,0.0005014623,3.453636e-05,0.0012882946,-0.0005219626,-5.741984e-05,0,0,1
2056412000,2056254000,2056260000,0,0.12,0.0,-0.06,0.09,0.09,0.20250002,0.02234719,-0.040156666,0.055449184,0.04015472,-0.038321752,0.016790047,0.105670206,0.106131405,0.20788223,0.00018903981,0.000607759,0.0005916065,0.0007997369,-0.0005600943,0.00023103632,0,0,1
2056812000,2056654000,2056660000,0,0.099999994,-0.02,0.0,0.09,0.09,0.20250002,0.009517476,-0.0057577025,-0.0073155654,0.026538167,-0.02384884,0.006076441,0.10565883,0.106297344,0.2078636,3.4292392e-05,1.2474869e-05,1.029858e-05,0.0004595393,-0.00031670788,0.00012377635,0,0,1
2057212000,2057054000,2057060000,0,0.07,-0.01,0.0,0.09,0.09,0.20250002,-0.00025562197,-0.019239103,0.0021233037,0.014629816,-0.021800067,0.004319491,0.10564847,0.10643831,0.20786634,2.4739625e-08,0.00013910145,8.67561e-07,0.0002552886,-0.00023777169,6.9150214e-05,0,0,1
2057612000,2057454000,2057460000,0,0.049999997,-0.02,0.02,0.09,0.09,0.20250002,-0.012707982,-0.0018699747,-0.018406603,0.0024796827,-0.012942248,-0.005780996,0.10564013,0.10657032,0.20785339,6.114829e-05,1.3124875e-06,6.520039e-05,0.000114649985,-0.0001326787,9.438831e-06,0,0,1
2058012000,2057854000,2057860000,0,0.03,-0.01,0.02,0.09,0.09,0.20250002,-0.02311651,-0.0059255846,-0.017862488,-0.008896404,-0.00982373,-0.011150548,0.10563949,0.10667824,0.20784363,0.00020233837,1.3165779e-05,6.140548e-05,-2.6233742e-05,-7.956184e-05,-2.2047534e-05,0,0,1
2058412000,2058258000,2058260000,0,0.0,-0.01,-0.01,0.09,0.09,0.20250002,-0.011351942,0.0036529931,0.009592565,-0.009993791,-0.0038009468,-0.0018803962,0.10563399,0.10676903,0.20783672,4.8797396e-05,4.999337e-06,1.7709535e-05,-3.63175e-05,-4.1771225e-05,-4.2799948e-06,0,0,1
2058812000,2058654000,2058660000,0,-0.04,-0.01,0.04,0.09,0.09,0.20250002,0.009290351,0.007927217,-0.03909719,-0.0014708899,0.0013824827,-0.018328888,0.10563271,0.10682871,0.20784819,3.2683292e-05,2.3529543e-05,0.00029417436,-5.8216156e-06,-1.2910619e-05,-0.00013240294,0,0,1
2059204000,2059050000,2059052000,0,-0.03,-0.01,0.03,0.09,0.09,0.20250002,-0.01802673,0.012043113,-0.027785046,-0.00878798,0.0060941,-0.022508172,0.10556256,0.106791556,0.2078332,0.0001231357,5.4325108e-05,0.00014858239,-5.767025e-05,1.680517e-05,-0.00013955368,0,0,1
2059612000,2059454000,2059460000,0,-0.06,-0.02,0.02,0.09,0.09,0.20250002,0.00980797,0.024533248,-0.025873218,-0.0004774006,0.014334603,-0.02401202,0.10564008,0.10690957,0.20783667,3.6424157e-05,0.00022519229,0.00012883643,-1.561921e-05,0.00010993392,-0.00013476411,0,0,1
2060012000,2059854000,2059860000,0,-0.06,0.0,0.01,0.09,0.09,0.20250002,0.0069302283,0.008848463,-0.015831465,0.0028148792,0.011896319,-0.020376217,0.105636306,0.10690606,0.2078483,1.8186196e-05,2.9294992e-05,4.8234273e-05,-5.94584e-07,7.4094394e-05,-9.63064e-05,0,0,1
2060412000,2060254000,2060260000,0,-0.06,0.01,0.04,0.09,0.09,0.20250002,0.0018567964,0.0030281255,-0.04363557,0.0023890645,0.007954899,-0.030713707,0.105623886,0.10686975,0.20784234,1.305649e-06,3.4320449e-06,0.0003664437,2.4996405e-07,4.2688906e-05,-0.00021636744,0,0,1
2060812000,2060654000,2060660000,0,-0.04,0.07,0.12,0.09,0.09,0.20250002,0.00035051256,-0.049774967,0.12753335,0.0014830413,-0.017702822,0.03961832,0.10544704,0.106657974,0.20783693,4.6605034e-08,0.000929156,0.0031302916,1.5958226e-07,-0.0003892422,0.0012710367,0,0,1
2061212000,2061054000,2061060000,0,0.01,0.03,0.76,0.09,0.09,0.20250002,0.006100634,-0.008731501,0.024441183,0.003535305,-0.013715568,0.032872926,0.105102085,0.10630262,0.20784937,1.4164415e-05,2.8687575e-05,0.00011496238,6.3839525e-06,-0.00022899569,0.00075722585,0,0,1
2061612000,2061454000,2061460000,0,0.049999997,0.01,0.71999997,0.09,0.09,0.20250002,-0.0097527765,-0.012031312,-0.0764398,-0.0023705096,-0.01296701,-0.01571051,0.105280444,0.10646255,0.20784429,3.6138394e-05,5.4386248e-05,0.0011245039,-1.2514871e-05,-0.00015139149,-7.9098565e-05,0,0,1
2062012000,2061854000,2061860000,0,0.049999997,0.01,0.69,0.09,0.09,0.20250002,-0.017594945,-0.025728634,-0.021840274,-0.009136925,-0.018638844,-0.01843485,0.10532641,0.1064104,0.20783988,0.00011757055,0.0002488338,9.1800975e-05,-5.9206286e-05,-0.00019469918,-8.474408e-05,0,0,1
2062412000,2062254000,2062260000,0,0.03,0.0,0.69,0.09,0.09,0.20250002,-0.0061700866,-0.017570606,-0.009957254,-0.00781833,-0.01816407,-0.0146670295,0.10538295,0.106361866,0.20785365,1.4450144e-05,0.000116104085,1.9080138e-05,-3.9314666e-05,-0.00015976802,-5.5560104e-05,0,0,1
2062812000,2062654000,2062660000,0,0.04,0.01,0.69,0.09,0.09,0.20250002,-0.020099433,-0.032011997,0.0023456216,-0.013276598,-0.024318704,-0.00710585,0.105424605,0.10631397,0.20784873,0.00015328005,0.00038556286,1.0588356e-06,-8.996595e-05,-0.0002601213,-3.0396128e-05,0,0,1
2063212000,2063054000,2063060000,0,0.03,0.02,0.7,0.09,0.09,0.20250002,-0.019911319,-0.038926225,0.0026979446,-0.016225364,-0.030810937,-0.0027486081,0.105460495,0.10625559,0.20784289,0.00015037313,0.00057041744,1.4008476e-06,-0.00011681359,-0.0003980307,-1.6264137e-05,0,0,1
2063612000,2063454000,2063460000,0,0.03,0.0,0.71999997,0.09,0.09,0.20250002,-0.030356545,-0.01830934,-0.019042075,-0.022505889,-0.02525467,-0.009990149,0.105505936,0.10620809,0.2078549,0.00034937175,0.00012625474,6.977956e-05,-0.00022017278,-0.00027724137,-4.004877e-05,0,0,1
2064012000,2063854000,2063860000,0,0.0,0.02,0.71,0.09,0.09,0.20250002,-0.011299781,-0.043150462,-0.0028756857,-0.017525395,-0.033208355,-0.006828165,0.10553013,0.106150426,0.20784849,4.8397567e-05,0.0007016316,1.5914608e-06,-0.00014382823,-0.00046585925,-2.295663e-05,0,0,1
2064404000,2064250000,2064252000,0,0.01,0.02,0.71999997,0.09,0.09,0.20250002,-0.035283178,-0.050072514,-0.018265665,-0.025373701,-0.04066171,-0.011883131,0.10549265,0.1060379,0.20783432,0.0004720339,0.0009457964,6.421163e-05,-0.0002888834,-0.0006779743,-4.1189865e-05,0,0,1
2064812000,2064654000,2064660000,0,0.01,0.01,0.7,0.09,0.09,0.20250002,-0.042259134,-0.038081706,0.004016578,-0.032919846,-0.0395087,-0.004777509,0.10558394,0.106072135,0.20785771,0.0006765553,0.00054687925,3.1046047e-06,-0.000462135,-0.0006193876,-2.1394551e-05,0,0,1
2065212000,2065054000,2065060000,0,0.0,0.0,-0.52,0.09,0.09,0.20250002,-0.0316408,-0.042909097,1.1426504,-0.032351382,-0.041019987,0.5051905,0.10565692,0.10609424,0.20785253,0.00037901552,0.0006941717,0.25126466,-0.00042519302,-0.000652625,0.1116613,0,0,1
2065612000,2065454000,2065460000,0,-0.01,0.02,-0.55,0.09,0.09,0.20250002,-0.024777954,-0.055325005,1.2041926,-0.028985415,-0.047377773,0.8158581,0.105602175,0.105994314,0.20784856,0.0002325509,0.001155102,0.2790647,-0.0003395743,-0.0008759481,0.18606281,0,0,1
2066012000,2065854000,2065860000,0,-0.04,0.02,-0.48,0.09,0.09,0.20250002,-0.0036805049,-0.04859872,1.2590197,-0.017738787,-0.047920417,1.0128188,0.10549043,0.105834976,0.2078441,5.136434e-06,0.0008926484,0.3050615,-0.00019093524,-0.00088337046,0.23895112,0,0,1
2066412000,2066254000,2066260000,0,-0.02,0.0,-0.24,0.09,0.09,0.20250002,-0.027260453,-0.037030887,1.159389,-0.021970639,-0.043080624,1.0779611,0.10537509,0.105689496,0.20785694,0.0002820903,0.0005189869,0.25867462,-0.0002314486,-0.0007214222,0.24771711,0,0,1
2066812000,2066654000,2066660000,0,-0.04,0.0,-0.07,0.09,0.09,0.20250002,0.0009339042,-0.042389896,1.116708,-0.011790841,-0.042773634,1.095182,0.105286606,0.10558112,0.20785081,3.3135348e-07,0.0006807669,0.2399869,-0.00012843529,-0.00070335314,0.24428146,0,0,1
2067204000,2067050000,2067052000,0,-0.01,-0.03,0.02,0.09,0.09,0.20250002,-0.02136351,-0.014645817,1.1419504,-0.016021619,-0.030342143,1.1158519,0.1051692,0.1054439,0.20785372,0.00017358677,8.137026e-05,0.25095546,-0.00014839062,-0.0004284589,0.24723113,0,0,1
2067604000,2067450000,2067452000,0,-0.01,-0.01,0.22,0.09,0.09,0.20250002,-0.020159103,-0.042477094,1.0405488,-0.0178605,-0.035735454,1.0823839,0.105142735,0.10540048,0.2078486,0.00015460486,0.00068474206,0.20837127,-0.0001511525,-0.00054236257,0.22996008,0,0,1
2067812000,2067654000,2067660000,0,-0.049999997,-0.04,0.32,0.09,0.09,0.20250002,0.024196105,-0.0056625493,0.9391541,-0.005673643,-0.027021147,1.0408797,0.10378808,0.103997216,0.2076897,0.00022563343,1.2332817e-05,0.1698708,-4.197022e-05,-0.0003887744,0.21254784,0,0,1
2068212000,2068054000,2068060000,0,-0.02,-0.02,0.5,0.09,0.09,0.20250002,-0.0073514134,-0.021689355,0.9176519,-0.0064193187,-0.024651462,0.9861118,0.10406111,0.104266144,0.20771803,2.077367e-05,0.00018047205,0.16215925,-3.254953e-05,-0.00029619556,0.19015291,0,0,1
2068612000,2068454000,2068460000,0,-0.02,-0.03,0.56,0.09,0.09,0.20250002,-0.0115518235,-0.009320894,0.89657265,-0.008700432,-0.017837876,0.9463166,0.10435564,0.10455695,0.20775662,5.1149942e-05,3.3237033e-05,0.1547662,-4.0816383e-05,-0.0001793251,0.17442548,0,0,1
2069012000,2068854000,2068860000,0,-0.01,0.0,0.0,0.09,0.09,0.20250002,-0.01318351,-0.008466822,0.7427905,-0.010692911,-0.013672963,0.8558606,0.10510317,0.10531237,0.20777313,6.614641e-05,2.7228361e-05,0.10621928,-5.2074174e-05,-0.00011172655,0.1441116,0,0,1
2069412000,2069254000,2069260000,0,-0.01,0.0,0.0,0.09,0.09,0.20250002,-0.031508632,0.0011518644,0.68139875,-0.019944344,-0.0070841503,0.778322,0.10528802,0.1054803,0.20778552,0.0003771726,5.031429e-07,0.08938145,-0.00019656238,-6.184669e-05,0.11978709,0,0,1
2069812000,2069654000,2069660000,0,0.02,0.0,0.0,0.09,0.09,0.20250002,-0.07346489,0.002488771,0.6298824,-0.043731257,-0.0028295182,0.7123488,0.10540794,0.10559109,0.20781115,0.0020480775,2.3464029e-06,0.076367766,-0.001019458,-3.331642e-05,0.10048961,0,0,1
2070212000,2070054000,2070060000,0,0.0,0.0,0.0,0.09,0.09,0.20250002,-0.05934402,0.0008777615,0.5692742,-0.050670262,-0.0011818382,0.6487601,0.10549343,0.10566991,0.2078163,0.0013353297,2.9164983e-07,0.062376842,-0.0011598455,-1.8379498e-05,0.0835506,0,0,1
2070612000,2070454000,2070460000,0,0.0,0.0,-0.04,0.09,0.09,0.20250002,-0.058489073,-0.003280466,0.5570338,-0.05414529,-0.0021145619,0.6079928,0.10554789,0.10571861,0.20782064,0.0012964624,4.071736e-06,0.059722006,-0.0012205641,-1.2020492e-05,0.072960116,0,0,1
