timestamp,data_rate,rate_multiplier,tx_rate_avg,tx_error_rate_avg,tx_message_count,tx_buffer_overruns,rx_rate_avg,rx_message_count,rx_message_lost_count,rx_buffer_overruns,rx_parse_errors,rx_packet_drop_count,rx_message_lost_rate,type,mode,flow_control,forwarding,mavlink_v2,ftp,streams,heartbeat_type_antenna_tracker,heartbeat_type_gcs,heartbeat_type_onboard_controller,heartbeat_type_gimbal,heartbeat_type_adsb,heartbeat_type_camera,heartbeat_type_parachute,heartbeat_type_open_drone_id,heartbeat_component_telemetry_radio,heartbeat_component_log,heartbeat_component_osd,heartbeat_component_vio,heartbeat_component_pairing_manager,heartbeat_component_udp_bridge,heartbeat_component_uart_bridge,open_drone_id_system_healthy,parachute_system_healthy
2016064000,4000.0,0.1386454,3611.554,0.0,126119,0,0.0,0,0,0,0,0,0.0,0,2,0,1,1,1,61,0,0,0,0,0,0,0,0,0,0,0,0,0,0,0,0,0
2017316000,4000.0,0.1386454,4479.084,0.0,126191,0,0.0,0,0,0,0,0,0.0,0,2,0,1,1,1,61,0,0,0,0,0,0,0,0,0,0,0,0,0,0,0,0,0
2018576000,4000.0,0.1386454,3500.0,0.0,126270,0,0.0,0,0,0,0,0,0.0,0,2,0,1,1,1,61,0,0,0,0,0,0,0,0,0,0,0,0,0,0,0,0,0
2019836000,4000.0,0.1386454,3526.8926,0.0,126354,0,0.0,0,0,0,0,0,0.0,0,2,0,1,1,1,61,0,0,0,0,0,0,0,0,0,0,0,0,0,0,0,0,0
2020836000,4000.0,0.1386454,3873.506,0.0,126412,0,0.0,0,0,0,0,0,0.0,0,2,0,1,1,1,61,0,0,0,0,0,0,0,0,0,0,0,0,0,0,0,0,0
2021088000,4000.0,0.1386454,3529.8806,0.0,126431,0,0.0,0,0,0,0,0,0.0,0,2,0,1,1,1,61,0,0,0,0,0,0,0,0,0,0,0,0,0,0,0,0,0
2022348000,4000.0,0.1386454,4206.1753,0.0,126508,0,0.0,0,0,0,0,0,0.0,0,2,0,1,1,1,61,0,0,0,0,0,0,0,0,0,0,0,0,0,0,0,0,0
2023604000,4000.0,0.1386454,3393.4265,0.0,126599,0,0.0,0,0,0,0,0,0.0,0,2,0,1,1,1,61,0,0,0,0,0,0,0,0,0,0,0,0,0,0,0,0,0
2024856000,4000.0,0.1386454,3984.064,0.0,126680,0,0.0,0,0,0,0,0,0.0,0,2,0,1,1,1,61,0,0,0,0,0,0,0,0,0,0,0,0,0,0,0,0,0
2025856000,4000.0,0.1386454,3915.3389,0.0,126738,0,0.0,0,0,0,0,0,0.0,0,2,0,1,1,1,61,0,0,0,0,0,0,0,0,0,0,0,0,0,0,0,0,0
2026112000,4000.0,0.1386454,3422.3108,0.0,126757,0,0.0,0,0,0,0,0,0.0,0,2,0,1,1,1,61,0,0,0,0,0,0,0,0,0,0,0,0,0,0,0,0,0
2027372000,4000.0,0.1386454,3836.6536,0.0,126832,0,0.0,0,0,0,0,0,0.0,0,2,0,1,1,1,61,0,0,0,0,0,0,0,0,0,0,0,0,0,0,0,0,0
2028628000,4000.0,0.1386454,3954.1833,0.0,126914,0,0.0,0,0,0,0,0,0.0,0,2,0,1,1,1,61,0,0,0,0,0,0,0,0,0,0,0,0,0,0,0,0,0
2029628000,4000.0,0.1386454,3422.3108,0.0,126973,0,0.0,0,0,0,0,0,0.0,0,2,0,1,1,1,61,0,0,0,0,0,0,0,0,0,0,0,0,0,0,0,0,0
2029888000,4000.0,0.1386454,3978.0876,0.0,126996,0,0.0,0,0,0,0,0,0.0,0,2,0,1,1,1,61,0,0,0,0,0,0,0,0,0,0,0,0,0,0,0,0,0
2031144000,4000.0,0.1386454,3748.008,0.0,127080,0,0.0,0,0,0,0,0,0.0,0,2,0,1,1,1,61,0,0,0,0,0,0,0,0,0,0,0,0,0,0,0,0,0
2032404000,4000.0,0.1386454,3783.8647,0.0,127155,0,0.0,0,0,0,0,0,0.0,0,2,0,1,1,1,61,0,0,0,0,0,0,0,0,0,0,0,0,0,0,0,0,0
2033656000,4000.0,0.1386454,3899.4026,0.0,127236,0,0.0,0,0,0,0,0,0.0,0,2,0,1,1,1,61,0,0,0,0,0,0,0,0,0,0,0,0,0,0,0,0,0
2034656000,4000.0,0.1386454,3528.8845,0.0,127294,0,0.0,0,0,0,0,0,0.0,0,2,0,1,1,1,61,0,0,0,0,0,0,0,0,0,0,0,0,0,0,0,0,0
2034912000,4000.0,0.1386454,3896.4146,0.0,127320,0,0.0,0,0,0,0,0,0.0,0,2,0,1,1,1,61,0,0,0,0,0,0,0,0,0,0,0,0,0,0,0,0,0
2036168000,4000.0,0.1386454,3464.1436,0.0,127388,0,0.0,0,0,0,0,0,0.0,0,2,0,1,1,1,61,0,0,0,0,0,0,0,0,0,0,0,0,0,0,0,0,0
2037424000,4000.0,0.1386454,3537.8486,0.0,127467,0,0.0,0,0,0,0,0,0.0,0,2,0,1,1,1,61,0,0,0,0,0,0,0,0,0,0,0,0,0,0,0,0,0
2038676000,4000.0,0.1386454,4373.5063,0.0,127563,0,0.0,0,0,0,0,0,0.0,0,2,0,1,1,1,61,0,0,0,0,0,0,0,0,0,0,0,0,0,0,0,0,0
2039676000,4000.0,0.1386454,3578.6853,0.0,127622,0,0.0,0,0,0,0,0,0.0,0,2,0,1,1,1,61,0,0,0,0,0,0,0,0,0,0,0,0,0,0,0,0,0
2039932000,4000.0,0.1386454,3978.0876,0.0,127645,0,0.0,0,0,0,0,0,0.0,0,2,0,1,1,1,61,0,0,0,0,0,0,0,0,0,0,0,0,0,0,0,0,0
2041192000,4000.0,0.1386454,3488.0479,0.0,127717,0,0.0,0,0,0,0,0,0.0,0,2,0,1,1,1,61,0,0,0,0,0,0,0,0,0,0,0,0,0,0,0,0,0
2042448000,4000.0,0.1386454,3526.8926,0.0,127796,0,0.0,0,0,0,0,0,0.0,0,2,0,1,1,1,61,0,0,0,0,0,0,0,0,0,0,0,0,0,0,0,0,0
2043708000,4000.0,0.1386454,3860.5579,0.0,127880,0,0.0,0,0,0,0,0,0.0,0,2,0,1,1,1,61,0,0,0,0,0,0,0,0,0,0,0,0,0,0,0,0,0
2044708000,4000.0,0.1386454,3542.8289,0.0,127937,0,0.0,0,0,0,0,0,0.0,0,2,0,1,1,1,61,0,0,0,0,0,0,0,0,0,0,0,0,0,0,0,0,0
2044964000,4000.0,0.1386454,4479.084,0.0,127967,0,0.0,0,0,0,0,0,0.0,0,2,0,1,1,1,61,0,0,0,0,0,0,0,0,0,0,0,0,0,0,0,0,0
2046220000,4000.0,0.1386454,3464.1436,0.0,128036,0,0.0,0,0,0,0,0,0.0,0,2,0,1,1,1,61,0,0,0,0,0,0,0,0,0,0,0,0,0,0,0,0,0
2047480000,4000.0,0.1386454,3550.7969,0.0,128119,0,0.0,0,0,0,0,0,0.0,0,2,0,1,1,1,61,0,0,0,0,0,0,0,0,0,0,0,0,0,0,0,0,0
2048732000,4000.0,0.1386454,3831.6733,0.0,128201,0,0.0,0,0,0,0,0,0.0,0,2,0,1,1,1,61,0,0,0,0,0,0,0,0,0,0,0,0,0,0,0,0,0
2049732000,4000.0,0.1386454,3409.3625,0.0,128261,0,0.0,0,0,0,0,0,0.0,0,2,0,1,1,1,61,0,0,0,0,0,0,0,0,0,0,0,0,0,0,0,0,0
2049992000,4000.0,0.1386454,4273.9043,0.0,128283,0,0.0,0,0,0,0,0,0.0,0,2,0,1,1,1,61,0,0,0,0,0,0,0,0,0,0,0,0,0,0,0,0,0
2051252000,4000.0,0.1386454,3475.0996,0.0,128353,0,0.0,0,0,0,0,0,0.0,0,2,0,1,1,1,61,0,0,0,0,0,0,0,0,0,0,0,0,0,0,0,0,0
2052508000,4000.0,0.1386454,3464.1436,0.0,128447,0,0.0,0,0,0,0,0,0.0,0,2,0,1,1,1,61,0,0,0,0,0,0,0,0,0,0,0,0,0,0,0,0,0
2053768000,4000.0,0.1386454,4381.474,0.0,128527,0,0.0,0,0,0,0,0,0.0,0,2,0,1,1,1,61,0,0,0,0,0,0,0,0,0,0,0,0,0,0,0,0,0
2054768000,4000.0,0.1386454,3529.8806,0.0,128587,0,0.0,0,0,0,0,0,0.0,0,2,0,1,1,1,61,0,0,0,0,0,0,0,0,0,0,0,0,0,0,0,0,0
2055020000,4000.0,0.1386454,3716.1355,0.0,128608,0,0.0,0,0,0,0,0,0.0,0,2,0,1,1,1,61,0,0,0,0,0,0,0,0,0,0,0,0,0,0,0,0,0
2056280000,4000.0,0.1386454,3967.1316,0.0,128680,0,0.0,0,0,0,0,0,0.0,0,2,0,1,1,1,61,0,0,0,0,0,0,0,0,0,0,0,0,0,0,0,0,0
2057540000,4000.0,0.1386454,3475.0996,0.0,128761,0,0.0,0,0,0,0,0,0.0,0,2,0,1,1,1,61,0,0,0,0,0,0,0,0,0,0,0,0,0,0,0,0,0
2058800000,4000.0,0.1386454,3978.0876,0.0,128843,0,0.0,0,0,0,0,0,0.0,0,2,0,1,1,1,61,0,0,0,0,0,0,0,0,0,0,0,0,0,0,0,0,0
2059800000,4000.0,0.1386454,3422.3108,0.0,128909,0,0.0,0,0,0,0,0,0.0,0,2,0,1,1,1,61,0,0,0,0,0,0,0,0,0,0,0,0,0,0,0,0,0
2060052000,4000.0,0.1386454,4069.7212,0.0,128926,0,0.0,0,0,0,0,0,0.0,0,2,0,1,1,1,61,0,0,0,0,0,0,0,0,0,0,0,0,0,0,0,0,0
2061308000,4000.0,0.1386454,3745.02,0.0,129006,0,0.0,0,0,0,0,0,0.0,0,2,0,1,1,1,61,0,0,0,0,0,0,0,0,0,0,0,0,0,0,0,0,0
2062564000,4000.0,0.1386454,3849.6018,0.0,129089,0,0.0,0,0,0,0,0,0.0,0,2,0,1,1,1,61,0,0,0,0,0,0,0,0,0,0,0,0,0,0,0,0,0
2063824000,4000.0,0.1386454,3968.1277,0.0,129170,0,0.0,0,0,0,0,0,0.0,0,2,0,1,1,1,61,0,0,0,0,0,0,0,0,0,0,0,0,0,0,0,0,0
2064824000,4000.0,0.1386454,3416.3347,0.0,129229,0,0.0,0,0,0,0,0,0.0,0,2,0,1,1,1,61,0,0,0,0,0,0,0,0,0,0,0,0,0,0,0,0,0
2065084000,4000.0,0.1386454,3485.0598,0.0,129248,0,0.0,0,0,0,0,0,0.0,0,2,0,1,1,1,61,0,0,0,0,0,0,0,0,0,0,0,0,0,0,0,0,0
2066336000,4000.0,0.1386454,3915.3389,0.0,129324,0,0.0,0,0,0,0,0,0.0,0,2,0,1,1,1,61,0,0,0,0,0,0,0,0,0,0,0,0,0,0,0,0,0
2067596000,4000.0,0.1386454,4204.1836,0.0,129416,0,0.0,0,0,0,0,0,0.0,0,2,0,1,1,1,61,0,0,0,0,0,0,0,0,0,0,0,0,0,0,0,0,0
2068856000,4000.0,0.1386454,3991.036,0.0,129497,0,0.0,0,0,0,0,0,0.0,0,2,0,1,1,1,61,0,0,0,0,0,0,0,0,0,0,0,0,0,0,0,0,0
2069856000,4000.0,0.1386454,3464.1436,0.0,129558,0,0.0,0,0,0,0,0,0.0,0,2,0,1,1,1,61,0,0,0,0,0,0,0,0,0,0,0,0,0,0,0,0,0
