timestamp,data_rate,rate_multiplier,tx_rate_avg,tx_error_rate_avg,tx_message_count,tx_buffer_overruns,rx_rate_avg,rx_message_count,rx_message_lost_count,rx_buffer_overruns,rx_parse_errors,rx_packet_drop_count,rx_message_lost_rate,type,mode,flow_control,forwarding,mavlink_v2,ftp,streams,heartbeat_type_antenna_tracker,heartbeat_type_gcs,heartbeat_type_onboard_controller,heartbeat_type_gimbal,heartbeat_type_adsb,heartbeat_type_camera,heartbeat_type_parachute,heartbeat_type_open_drone_id,heartbeat_component_telemetry_radio,heartbeat_component_log,heartbeat_component_osd,heartbeat_component_vio,heartbeat_component_pairing_manager,heartbeat_component_udp_bridge,heartbeat_component_uart_bridge,open_drone_id_system_healthy,parachute_system_healthy
2016236000,400000.0,1.0,1333.6654,0.0,44995,0,0.0,0,0,0,0,0,0.0,0,10,0,1,1,1,5,0,0,0,0,0,0,0,0,0,0,0,0,0,0,0,0,0
2017488000,400000.0,1.0,1565.737,0.0,45023,0,0.0,0,0,0,0,0,0.0,0,10,0,1,1,1,5,0,0,0,0,0,0,0,0,0,0,0,0,0,0,0,0,0
2018740000,400000.0,1.0,1333.6654,0.0,45052,0,0.0,0,0,0,0,0,0.0,0,10,0,1,1,1,5,0,0,0,0,0,0,0,0,0,0,0,0,0,0,0,0,0
2019740000,400000.0,1.0,1358.5658,0.0,45075,0,0.0,0,0,0,0,0,0.0,0,10,0,1,1,1,5,0,0,0,0,0,0,0,0,0,0,0,0,0,0,0,0,0
2020000000,400000.0,1.0,1346.6135,0.0,45080,0,0.0,0,0,0,0,0,0.0,0,10,0,1,1,1,5,0,0,0,0,0,0,0,0,0,0,0,0,0,0,0,0,0
2021256000,400000.0,1.0,1333.6654,0.0,45108,0,0.0,0,0,0,0,0,0.0,0,10,0,1,1,1,5,0,0,0,0,0,0,0,0,0,0,0,0,0,0,0,0,0
2022516000,400000.0,1.0,1333.6654,0.0,45136,0,0.0,0,0,0,0,0,0.0,0,10,0,1,1,1,5,0,0,0,0,0,0,0,0,0,0,0,0,0,0,0,0,0
2023772000,400000.0,1.0,1346.6135,0.0,45164,0,0.0,0,0,0,0,0,0.0,0,10,0,1,1,1,5,0,0,0,0,0,0,0,0,0,0,0,0,0,0,0,0,0
2024772000,400000.0,1.0,1333.6654,0.0,45186,0,0.0,0,0,0,0,0,0.0,0,10,0,1,1,1,5,0,0,0,0,0,0,0,0,0,0,0,0,0,0,0,0,0
2025028000,400000.0,1.0,1333.6654,0.0,45192,0,0.0,0,0,0,0,0,0.0,0,10,0,1,1,1,5,0,0,0,0,0,0,0,0,0,0,0,0,0,0,0,0,0
2026288000,400000.0,1.0,1346.6135,0.0,45221,0,0.0,0,0,0,0,0,0.0,0,10,0,1,1,1,5,0,0,0,0,0,0,0,0,0,0,0,0,0,0,0,0,0
2027548000,400000.0,1.0,1398.4064,0.0,45248,0,0.0,0,0,0,0,0,0.0,0,10,0,1,1,1,5,0,0,0,0,0,0,0,0,0,0,0,0,0,0,0,0,0
2028800000,400000.0,1.0,1333.6654,0.0,45277,0,0.0,0,0,0,0,0,0.0,0,10,0,1,1,1,5,0,0,0,0,0,0,0,0,0,0,0,0,0,0,0,0,0
2029800000,400000.0,1.0,1346.6135,0.0,45299,0,0.0,0,0,0,0,0,0.0,0,10,0,1,1,1,5,0,0,0,0,0,0,0,0,0,0,0,0,0,0,0,0,0
2030060000,400000.0,1.0,1333.6654,0.0,45304,0,0.0,0,0,0,0,0,0.0,0,10,0,1,1,1,5,0,0,0,0,0,0,0,0,0,0,0,0,0,0,0,0,0
2031320000,400000.0,1.0,1333.6654,0.0,45332,0,0.0,0,0,0,0,0,0.0,0,10,0,1,1,1,5,0,0,0,0,0,0,0,0,0,0,0,0,0,0,0,0,0
2032572000,400000.0,1.0,1346.6135,0.0,45360,0,0.0,0,0,0,0,0,0.0,0,10,0,1,1,1,5,0,0,0,0,0,0,0,0,0,0,0,0,0,0,0,0,0
2033828000,400000.0,1.0,1333.6654,0.0,45389,0,0.0,0,0,0,0,0,0.0,0,10,0,1,1,1,5,0,0,0,0,0,0,0,0,0,0,0,0,0,0,0,0,0
2034828000,400000.0,1.0,1333.6654,0.0,45412,0,0.0,0,0,0,0,0,0.0,0,10,0,1,1,1,5,0,0,0,0,0,0,0,0,0,0,0,0,0,0,0,0,0
2035088000,400000.0,1.0,1346.6135,0.0,45417,0,0.0,0,0,0,0,0,0.0,0,10,0,1,1,1,5,0,0,0,0,0,0,0,0,0,0,0,0,0,0,0,0,0
2036348000,400000.0,1.0,1333.6654,0.0,45445,0,0.0,0,0,0,0,0,0.0,0,10,0,1,1,1,5,0,0,0,0,0,0,0,0,0,0,0,0,0,0,0,0,0
2037608000,400000.0,1.0,1333.6654,0.0,45473,0,0.0,0,0,0,0,0,0.0,0,10,0,1,1,1,5,0,0,0,0,0,0,0,0,0,0,0,0,0,0,0,0,0
2038860000,400000.0,1.0,1346.6135,0.0,45501,0,0.0,0,0,0,0,0,0.0,0,10,0,1,1,1,5,0,0,0,0,0,0,0,0,0,0,0,0,0,0,0,0,0
2039860000,400000.0,1.0,1333.6654,0.0,45523,0,0.0,0,0,0,0,0,0.0,0,10,0,1,1,1,5,0,0,0,0,0,0,0,0,0,0,0,0,0,0,0,0,0
2040120000,400000.0,1.0,1398.4064,0.0,45528,0,0.0,0,0,0,0,0,0.0,0,10,0,1,1,1,5,0,0,0,0,0,0,0,0,0,0,0,0,0,0,0,0,0
2041376000,400000.0,1.0,1346.6135,0.0,45557,0,0.0,0,0,0,0,0,0.0,0,10,0,1,1,1,5,0,0,0,0,0,0,0,0,0,0,0,0,0,0,0,0,0
2042636000,400000.0,1.0,1333.6654,0.0,45585,0,0.0,0,0,0,0,0,0.0,0,10,0,1,1,1,5,0,0,0,0,0,0,0,0,0,0,0,0,0,0,0,0,0
2043636000,400000.0,1.0,1333.6654,0.0,45608,0,0.0,0,0,0,0,0,0.0,0,10,0,1,1,1,5,0,0,0,0,0,0,0,0,0,0,0,0,0,0,0,0,0
2043892000,400000.0,1.0,1333.6654,0.0,45614,0,0.0,0,0,0,0,0,0.0,0,10,0,1,1,1,5,0,0,0,0,0,0,0,0,0,0,0,0,0,0,0,0,0
2045148000,400000.0,1.0,1333.6654,0.0,45641,0,0.0,0,0,0,0,0,0.0,0,10,0,1,1,1,5,0,0,0,0,0,0,0,0,0,0,0,0,0,0,0,0,0
2046400000,400000.0,1.0,1333.6654,0.0,45669,0,0.0,0,0,0,0,0,0.0,0,10,0,1,1,1,5,0,0,0,0,0,0,0,0,0,0,0,0,0,0,0,0,0
2047652000,400000.0,1.0,1346.6135,0.0,45697,0,0.0,0,0,0,0,0,0.0,0,10,0,1,1,1,5,0,0,0,0,0,0,0,0,0,0,0,0,0,0,0,0,0
2048652000,400000.0,1.0,1333.6654,0.0,45719,0,0.0,0,0,0,0,0,0.0,0,10,0,1,1,1,5,0,0,0,0,0,0,0,0,0,0,0,0,0,0,0,0,0
2048900000,400000.0,1.0,1333.6654,0.0,45725,0,0.0,0,0,0,0,0,0.0,0,10,0,1,1,1,5,0,0,0,0,0,0,0,0,0,0,0,0,0,0,0,0,0
2050164000,400000.0,1.0,1346.6135,0.0,45753,0,0.0,0,0,0,0,0,0.0,0,10,0,1,1,1,5,0,0,0,0,0,0,0,0,0,0,0,0,0,0,0,0,0
2051424000,400000.0,1.0,1333.6654,0.0,45781,0,0.0,0,0,0,0,0,0.0,0,10,0,1,1,1,5,0,0,0,0,0,0,0,0,0,0,0,0,0,0,0,0,0
2052684000,400000.0,1.0,1398.4064,0.0,45810,0,0.0,0,0,0,0,0,0.0,0,10,0,1,1,1,5,0,0,0,0,0,0,0,0,0,0,0,0,0,0,0,0,0
2053684000,400000.0,1.0,1346.6135,0.0,45832,0,0.0,0,0,0,0,0,0.0,0,10,0,1,1,1,5,0,0,0,0,0,0,0,0,0,0,0,0,0,0,0,0,0
2053940000,400000.0,1.0,1333.6654,0.0,45838,0,0.0,0,0,0,0,0,0.0,0,10,0,1,1,1,5,0,0,0,0,0,0,0,0,0,0,0,0,0,0,0,0,0
2055196000,400000.0,1.0,1333.6654,0.0,45865,0,0.0,0,0,0,0,0,0.0,0,10,0,1,1,1,5,0,0,0,0,0,0,0,0,0,0,0,0,0,0,0,0,0
2056448000,400000.0,1.0,1346.6135,0.0,45894,0,0.0,0,0,0,0,0,0.0,0,10,0,1,1,1,5,0,0,0,0,0,0,0,0,0,0,0,0,0,0,0,0,0
2057700000,400000.0,1.0,1333.6654,0.0,45921,0,0.0,0,0,0,0,0,0.0,0,10,0,1,1,1,5,0,0,0,0,0,0,0,0,0,0,0,0,0,0,0,0,0
2058700000,400000.0,1.0,1333.6654,0.0,45944,0,0.0,0,0,0,0,0,0.0,0,10,0,1,1,1,5,0,0,0,0,0,0,0,0,0,0,0,0,0,0,0,0,0
2058952000,400000.0,1.0,1333.6654,0.0,45950,0,0.0,0,0,0,0,0,0.0,0,10,0,1,1,1,5,0,0,0,0,0,0,0,0,0,0,0,0,0,0,0,0,0
2060208000,400000.0,1.0,1333.6654,0.0,45977,0,0.0,0,0,0,0,0,0.0,0,10,0,1,1,1,5,0,0,0,0,0,0,0,0,0,0,0,0,0,0,0,0,0
2061460000,400000.0,1.0,1462.1515,0.0,46009,0,0.0,0,0,0,0,0,0.0,0,10,0,1,1,1,5,0,0,0,0,0,0,0,0,0,0,0,0,0,0,0,0,0
2062720000,400000.0,1.0,1436.255,0.0,46039,0,0.0,0,0,0,0,0,0.0,0,10,0,1,1,1,5,0,0,0,0,0,0,0,0,0,0,0,0,0,0,0,0,0
2063720000,400000.0,1.0,1378.4861,0.0,46061,0,0.0,0,0,0,0,0,0.0,0,10,0,1,1,1,5,0,0,0,0,0,0,0,0,0,0,0,0,0,0,0,0,0
2063980000,400000.0,1.0,1333.6654,0.0,46068,0,0.0,0,0,0,0,0,0.0,0,10,0,1,1,1,5,0,0,0,0,0,0,0,0,0,0,0,0,0,0,0,0,0
2065236000,400000.0,1.0,1411.3546,0.0,46096,0,0.0,0,0,0,0,0,0.0,0,10,0,1,1,1,5,0,0,0,0,0,0,0,0,0,0,0,0,0,0,0,0,0
2066496000,400000.0,1.0,1333.6654,0.0,46124,0,0.0,0,0,0,0,0,0.0,0,10,0,1,1,1,5,0,0,0,0,0,0,0,0,0,0,0,0,0,0,0,0,0
2067748000,400000.0,1.0,1333.6654,0.0,46153,0,0.0,0,0,0,0,0,0.0,0,10,0,1,1,1,5,0,0,0,0,0,0,0,0,0,0,0,0,0,0,0,0,0
2068748000,400000.0,1.0,1346.6135,0.0,46175,0,0.0,0,0,0,0,0,0.0,0,10,0,1,1,1,5,0,0,0,0,0,0,0,0,0,0,0,0,0,0,0,0,0
2069000000,400000.0,1.0,1333.6654,0.0,46180,0,0.0,0,0,0,0,0,0.0,0,10,0,1,1,1,5,0,0,0,0,0,0,0,0,0,0,0,0,0,0,0,0,0
