timestamp,timestamp_sample,q[0],q[1],q[2],q[3],delta_q_reset[0],delta_q_reset[1],delta_q_reset[2],delta_q_reset[3],quat_reset_counter
2015920000,2015920000,0.623097,-0.00013851654,0.001082611,0.7821439,0.9997057,-9.313227e-10,1.3969841e-09,0.024263714,3
2015924000,2015924000,0.6231141,-0.0001586023,0.00104945,0.7821303,0.9997057,-9.313227e-10,1.3969841e-09,0.024263714,3
2015932000,2015932000,0.62315136,-0.00017094657,0.0010385377,0.7821006,0.9997057,-9.313227e-10,1.3969841e-09,0.024263714,3
2015940000,2015940000,0.6231749,-0.00013238045,0.0010034558,0.7820819,0.9997057,-9.313227e-10,1.3969841e-09,0.024263714,3
2015952000,2015952000,0.623136,-0.00013624519,0.00095317204,0.78211296,0.9997057,-9.313227e-10,1.3969841e-09,0.024263714,3
2015960000,2015960000,0.62314445,-0.0001192961,0.0009490518,0.7821062,0.9997057,-9.313227e-10,1.3969841e-09,0.024263714,3
2015972000,2015972000,0.62314373,-0.00016058778,0.0009886227,0.78210664,0.9997057,-9.313227e-10,1.3969841e-09,0.024263714,3
2015980000,2015980000,0.6231288,-0.0001731171,0.0010380709,0.78211856,0.9997057,-9.313227e-10,1.3969841e-09,0.024263714,3
2015992000,2015992000,0.6230988,-0.00024001287,0.0010001289,0.7821425,0.9997057,-9.313227e-10,1.3969841e-09,0.024263714,3
2016000000,2016000000,0.62309647,-0.00026380125,0.001005479,0.78214437,0.9997057,-9.313227e-10,1.3969841e-09,0.024263714,3
2016012000,2016012000,0.62305075,-0.00023749494,0.0010227851,0.7821807,0.9997057,-9.313227e-10,1.3969841e-09,0.024263714,3
2016020000,2016020000,0.6230309,-0.00024266666,0.0010157722,0.7821966,0.9997057,-9.313227e-10,1.3969841e-09,0.024263714,3
2016032000,2016032000,0.6230023,-0.00022184955,0.000995817,0.78221935,0.9997057,-9.313227e-10,1.3969841e-09,0.024263714,3
2016040000,2016040000,0.6229686,-0.0002431698,0.0009779094,0.7822462,0.9997057,-9.313227e-10,1.3969841e-09,0.024263714,3
2016052000,2016052000,0.6229417,-0.00025193527,0.0009618463,0.78226763,0.9997057,-9.313227e-10,1.3969841e-09,0.024263714,3
2016060000,2016060000,0.62292296,-0.00022476714,0.0009509773,0.78228253,0.9997057,-9.313227e-10,1.3969841e-09,0.024263714,3
2016072000,2016072000,0.62290376,-0.00025159298,0.000970401,0.7822978,0.9997057,-9.313227e-10,1.3969841e-09,0.024263714,3
2016080000,2016080000,0.62291706,-0.0002601275,0.0009960042,0.78228724,0.9997057,-9.313227e-10,1.3969841e-09,0.024263714,3
2016092000,2016092000,0.6228873,-0.00025295495,0.00097264285,0.7823109,0.9997057,-9.313227e-10,1.3969841e-09,0.024263714,3
2016100000,2016100000,0.6228926,-0.0002583344,0.000977404,0.7823067,0.9997057,-9.313227e-10,1.3969841e-09,0.024263714,3
2016112000,2016112000,0.6229195,-0.00029581098,0.0009997989,0.7822853,0.9997057,-9.313227e-10,1.3969841e-09,0.024263714,3
2016120000,2016120000,0.6228823,-0.00030063163,0.0009368081,0.7823151,0.9997057,-9.313227e-10,1.3969841e-09,0.024263714,3
2016132000,2016132000,0.62289697,-0.0002850668,0.0009163548,0.7823034,0.9997057,-9.313227e-10,1.3969841e-09,0.024263714,3
2016140000,2016140000,0.6228854,-0.0002958121,0.00096224947,0.78231245,0.9997057,-9.313227e-10,1.3969841e-09,0.024263714,3
2016152000,2016152000,0.6228891,-0.00027413643,0.000999903,0.78230953,0.9997057,-9.313227e-10,1.3969841e-09,0.024263714,3
2016160000,2016160000,0.6228652,-0.0002813562,0.0010210653,0.7823285,0.9997057,-9.313227e-10,1.3969841e-09,0.024263714,3
2016172000,2016172000,0.6228328,-0.00029634155,0.0010637523,0.78235424,0.9997057,-9.313227e-10,1.3969841e-09,0.024263714,3
2016180000,2016180000,0.62282336,-0.0002890151,0.001071413,0.78236175,0.9997057,-9.313227e-10,1.3969841e-09,0.024263714,3
2016192000,2016192000,0.62284327,-0.00023903033,0.0010706029,0.7823459,0.9997057,-9.313227e-10,1.3969841e-09,0.024263714,3
2016200000,2016200000,0.62285656,-0.00022055156,0.0010578668,0.7823353,0.9997057,-9.313227e-10,1.3969841e-09,0.024263714,3
2016212000,2016212000,0.62283957,-0.00026126736,0.0010770162,0.7823489,0.9997057,-9.313227e-10,1.3969841e-09,0.024263714,3
2016220000,2016220000,0.6227996,-0.00022668339,0.001071337,0.7823807,0.9997057,-9.313227e-10,1.3969841e-09,0.024263714,3
2016232000,2016232000,0.6227951,-0.00018671255,0.001086243,0.7823842,0.9997057,-9.313227e-10,1.3969841e-09,0.024263714,3
2016240000,2016240000,0.62279165,-0.00019225857,0.0011043756,0.78238696,0.9997057,-9.313227e-10,1.3969841e-09,0.024263714,3
2016252000,2016252000,0.622779,-0.00020330567,0.0011566232,0.7823969,0.9997057,-9.313227e-10,1.3969841e-09,0.024263714,3
2016260000,2016260000,0.622755,-0.00019062597,0.0011794266,0.78241605,0.9997057,-9.313227e-10,1.3969841e-09,0.024263714,3
2016272000,2016272000,0.6227592,-0.0001778004,0.0012202723,0.7824125,0.9997057,-9.313227e-10,1.3969841e-09,0.024263714,3
2016280000,2016280000,0.622808,-0.00016737578,0.0012298713,0.7823737,0.9997057,-9.313227e-10,1.3969841e-09,0.024263714,3
2016292000,2016292000,0.6228404,-9.856862e-05,0.0012766157,0.7823479,0.9997057,-9.313227e-10,1.3969841e-09,0.024263714,3
2016300000,2016300000,0.62281066,-7.778277e-05,0.0012808933,0.7823716,0.9997057,-9.313227e-10,1.3969841e-09,0.024263714,3
2016312000,2016312000,0.6228074,-9.30297e-05,0.00119596,0.7823743,0.9997057,-9.313227e-10,1.3969841e-09,0.024263714,3
2016320000,2016320000,0.6228201,-7.109478e-05,0.0011408124,0.7823643,0.9997057,-9.313227e-10,1.3969841e-09,0.024263714,3
2016332000,2016332000,0.6228279,-2.2848379e-05,0.0011627075,0.782358,0.9997057,-9.313227e-10,1.3969841e-09,0.024263714,3
2016340000,2016340000,0.6228233,-3.3858087e-05,0.0011822293,0.78236175,0.9997057,-9.313227e-10,1.3969841e-09,0.024263714,3
2016352000,2016352000,0.62282956,-1.2512511e-05,0.0011759725,0.7823566,0.9997057,-9.313227e-10,1.3969841e-09,0.024263714,3
2016360000,2016360000,0.6228524,-2.8756995e-05,0.0011922015,0.78233844,0.9997057,-9.313227e-10,1.3969841e-09,0.024263714,3
2016372000,2016372000,0.6229304,-6.376944e-05,0.0012151178,0.78227633,0.9997057,-9.313227e-10,1.3969841e-09,0.024263714,3
2016380000,2016380000,0.6229511,-9.550748e-05,0.0012185525,0.7822598,0.9997057,-9.313227e-10,1.3969841e-09,0.024263714,3
2016392000,2016392000,0.6229168,-0.0001189112,0.0012392999,0.7822871,0.9997057,-9.313227e-10,1.3969841e-09,0.024263714,3
2016400000,2016400000,0.6229474,-0.00014933522,0.0012219946,0.78226274,0.9997057,-9.313227e-10,1.3969841e-09,0.024263714,3
2016412000,2016412000,0.6229435,-0.000111627705,0.0011559958,0.7822661,0.9997057,-9.313227e-10,1.3969841e-09,0.024263714,3
2016420000,2016420000,0.62293625,-0.00010820642,0.0011187464,0.78227186,0.9997057,-9.313227e-10,1.3969841e-09,0.024263714,3
2016432000,2016432000,0.62292856,-5.1133153e-05,0.0011116824,0.78227794,0.9997057,-9.313227e-10,1.3969841e-09,0.024263714,3
2016440000,2016440000,0.6229027,-4.9857394e-05,0.0011475412,0.78229856,0.9997057,-9.313227e-10,1.3969841e-09,0.024263714,3
2016452000,2016452000,0.622863,-2.6908801e-05,0.0011784891,0.7823301,0.9997057,-9.313227e-10,1.3969841e-09,0.024263714,3
2016460000,2016460000,0.62285787,-2.5280635e-05,0.001158262,0.7823342,0.9997057,-9.313227e-10,1.3969841e-09,0.024263714,3
2016472000,2016472000,0.6228564,-5.4051983e-05,0.0011412262,0.78233546,0.9997057,-9.313227e-10,1.3969841e-09,0.024263714,3
2016480000,2016480000,0.62287194,-6.5812936e-05,0.00120929,0.782323,0.9997057,-9.313227e-10,1.3969841e-09,0.024263714,3
2016492000,2016492000,0.6228911,-0.00012463372,0.0011937415,0.78230757,0.9997057,-9.313227e-10,1.3969841e-09,0.024263714,3
2016500000,2016500000,0.6228651,-0.00013889695,0.0011781076,0.7823284,0.9997057,-9.313227e-10,1.3969841e-09,0.024263714,3
2016512000,2016512000,0.6228916,-0.00013942769,0.0012271951,0.78230715,0.9997057,-9.313227e-10,1.3969841e-09,0.024263714,3
2016520000,2016520000,0.622916,-0.00015812331,0.0012000909,0.78228796,0.9997057,-9.313227e-10,1.3969841e-09,0.024263714,3
2016532000,2016532000,0.6229045,-0.00014931112,0.0011880517,0.78229713,0.9997057,-9.313227e-10,1.3969841e-09,0.024263714,3
2016540000,2016540000,0.6228911,-0.00016951874,0.0012153422,0.7823076,0.9997057,-9.313227e-10,1.3969841e-09,0.024263714,3
2016552000,2016552000,0.6228615,-0.00017918396,0.0012167252,0.7823312,0.9997057,-9.313227e-10,1.3969841e-09,0.024263714,3
2016560000,2016560000,0.62284964,-0.00018399893,0.0012119891,0.78234065,0.9997057,-9.313227e-10,1.3969841e-09,0.024263714,3
2016572000,2016572000,0.62286496,-0.000114404924,0.0012488074,0.78232837,0.9997057,-9.313227e-10,1.3969841e-09,0.024263714,3
2016580000,2016580000,0.6228821,-0.0001558431,0.0012595971,0.78231466,0.9997057,-9.313227e-10,1.3969841e-09,0.024263714,3
2016592000,2016592000,0.6229045,-0.00018999215,0.0012001228,0.78229696,0.9997057,-9.313227e-10,1.3969841e-09,0.024263714,3
2016600000,2016600000,0.6229258,-0.00012164668,0.0011896422,0.7822801,0.9997057,-9.313227e-10,1.3969841e-09,0.024263714,3
2016612000,2016612000,0.62291497,-0.00011529835,0.001219316,0.7822887,0.9997057,-9.313227e-10,1.3969841e-09,0.024263714,3
2016620000,2016620000,0.6229546,-0.00012234875,0.0012893808,0.78225684,0.9997057,-9.313227e-10,1.3969841e-09,0.024263714,3
2016632000,2016632000,0.6229311,-0.00014477609,0.0012468391,0.78227574,0.9997057,-9.313227e-10,1.3969841e-09,0.024263714,3
2016640000,2016640000,0.6229487,-0.00018286992,0.0011974166,0.78226185,0.9997057,-9.313227e-10,1.3969841e-09,0.024263714,3
2016652000,2016652000,0.6229546,-0.00019764139,0.0011685931,0.7822572,0.9997057,-9.313227e-10,1.3969841e-09,0.024263714,3
2016660000,2016660000,0.6229293,-0.0001712699,0.0011306062,0.7822774,0.9997057,-9.313227e-10,1.3969841e-09,0.024263714,3
2016672000,2016672000,0.62292653,-0.0001858829,0.0010718568,0.78227973,0.9997057,-9.313227e-10,1.3969841e-09,0.024263714,3
2016680000,2016680000,0.6229593,-0.0001918287,0.0010548595,0.7822536,0.9997057,-9.313227e-10,1.3969841e-09,0.024263714,3
2016692000,2016692000,0.6229872,-0.00020311523,0.0010677744,0.7822314,0.9997057,-9.313227e-10,1.3969841e-09,0.024263714,3
2016700000,2016700000,0.62300116,-0.00013282406,0.0010814245,0.7822201,0.9997057,-9.313227e-10,1.3969841e-09,0.024263714,3
2016712000,2016712000,0.62303597,-0.00015297542,0.0010566078,0.78219247,0.9997057,-9.313227e-10,1.3969841e-09,0.024263714,3
2016720000,2016720000,0.6230709,-0.00014913605,0.0009952849,0.7821648,0.9997057,-9.313227e-10,1.3969841e-09,0.024263714,3
2016732000,2016732000,0.62315524,-0.0001992195,0.0010190471,0.78209746,0.9997057,-9.313227e-10,1.3969841e-09,0.024263714,3
2016740000,2016740000,0.62317985,-0.00022093792,0.0009939012,0.78207797,0.9997057,-9.313227e-10,1.3969841e-09,0.024263714,3
2016752000,2016752000,0.62315243,-0.00024390606,0.0009847789,0.7820998,0.9997057,-9.313227e-10,1.3969841e-09,0.024263714,3
2016760000,2016760000,0.62316495,-0.00020034974,0.0009662931,0.7820898,0.9997057,-9.313227e-10,1.3969841e-09,0.024263714,3
2016772000,2016772000,0.6231512,-0.00017812583,0.00096006476,0.78210086,0.9997057,-9.313227e-10,1.3969841e-09,0.024263714,3
2016780000,2016780000,0.6231475,-0.00018471223,0.0009264673,0.7821038,0.9997057,-9.313227e-10,1.3969841e-09,0.024263714,3
2016792000,2016792000,0.62311417,-0.00018555528,0.00090464856,0.7821304,0.9997057,-9.313227e-10,1.3969841e-09,0.024263714,3
2016800000,2016800000,0.62312484,-0.00017412589,0.0009336657,0.7821219,0.9997057,-9.313227e-10,1.3969841e-09,0.024263714,3
2016812000,2016812000,0.62310475,-0.00016122469,0.000935039,0.7821379,0.9997057,-9.313227e-10,1.3969841e-09,0.024263714,3
2016820000,2016820000,0.62309605,-0.00011253447,0.0008759191,0.7821449,0.9997057,-9.313227e-10,1.3969841e-09,0.024263714,3
2016832000,2016832000,0.62308407,-2.1035778e-05,0.00090741715,0.78215444,0.9997057,-9.313227e-10,1.3969841e-09,0.024263714,3
2016840000,2016840000,0.62308395,1.3380313e-06,0.0008802147,0.7821545,0.9997057,-9.313227e-10,1.3969841e-09,0.024263714,3
2016852000,2016852000,0.62308395,5.6128038e-06,0.0009158988,0.7821545,0.9997057,-9.313227e-10,1.3969841e-09,0.024263714,3
2016860000,2016860000,0.6230864,2.0676518e-05,0.001011091,0.7821524,0.9997057,-9.313227e-10,1.3969841e-09,0.024263714,3
2016872000,2016872000,0.62308764,-2.406246e-05,0.0010860082,0.7821512,0.9997057,-9.313227e-10,1.3969841e-09,0.024263714,3
2016880000,2016880000,0.6231018,-2.177936e-05,0.0010933576,0.78213996,0.9997057,-9.313227e-10,1.3969841e-09,0.024263714,3
2016892000,2016892000,0.6230952,-9.64539e-06,0.0010413214,0.78214526,0.9997057,-9.313227e-10,1.3969841e-09,0.024263714,3
2016900000,2016900000,0.62313634,2.0593598e-05,0.0010393509,0.78211254,0.9997057,-9.313227e-10,1.3969841e-09,0.024263714,3
2016912000,2016912000,0.62314385,0.00010918875,0.001068769,0.7821066,0.9997057,-9.313227e-10,1.3969841e-09,0.024263714,3
2016920000,2016920000,0.6231367,0.0001368658,0.0010634713,0.7821123,0.9997057,-9.313227e-10,1.3969841e-09,0.024263714,3
2016932000,2016932000,0.62316597,0.00014677222,0.0011052063,0.7820888,0.9997057,-9.313227e-10,1.3969841e-09,0.024263714,3
2016940000,2016940000,0.62312937,0.00013110664,0.0010949968,0.78211814,0.9997057,-9.313227e-10,1.3969841e-09,0.024263714,3
2016952000,2016952000,0.6231747,9.330748e-05,0.0010726182,0.78208196,0.9997057,-9.313227e-10,1.3969841e-09,0.024263714,3
2016960000,2016960000,0.6232063,5.8011763e-05,0.001108032,0.78205675,0.9997057,-9.313227e-10,1.3969841e-09,0.024263714,3
2016972000,2016972000,0.62320715,2.7936703e-05,0.0011022146,0.7820561,0.9997057,-9.313227e-10,1.3969841e-09,0.024263714,3
2016980000,2016980000,0.62320554,1.8588049e-05,0.0011470667,0.78205734,0.9997057,-9.313227e-10,1.3969841e-09,0.024263714,3
2016992000,2016992000,0.6232175,-1.2670511e-05,0.0012464968,0.7820477,0.9997057,-9.313227e-10,1.3969841e-09,0.024263714,3
2017000000,2017000000,0.6232144,-4.233977e-05,0.0013075735,0.7820499,0.9997057,-9.313227e-10,1.3969841e-09,0.024263714,3
2017012000,2017012000,0.62323225,-6.173425e-05,0.0012593509,0.78203577,0.9997057,-9.313227e-10,1.3969841e-09,0.024263714,3
2017020000,2017020000,0.6232055,-6.254315e-05,0.0012505687,0.7820572,0.9997057,-9.313227e-10,1.3969841e-09,0.024263714,3
2017032000,2017032000,0.62319773,-4.0617055e-05,0.0012104762,0.78206336,0.9997057,-9.313227e-10,1.3969841e-09,0.024263714,3
2017040000,2017040000,0.6231867,-3.3480224e-05,0.001158658,0.7820723,0.9997057,-9.313227e-10,1.3969841e-09,0.024263714,3
2017052000,2017052000,0.62318915,-9.072899e-06,0.001167784,0.7820702,0.9997057,-9.313227e-10,1.3969841e-09,0.024263714,3
2017060000,2017060000,0.6231759,3.878021e-05,0.0011755568,0.7820809,0.9997057,-9.313227e-10,1.3969841e-09,0.024263714,3
2017072000,2017072000,0.6231547,-7.6527795e-06,0.0012145395,0.78209776,0.9997057,-9.313227e-10,1.3969841e-09,0.024263714,3
2017080000,2017080000,0.62313986,-4.993293e-05,0.0012348387,0.7821094,0.9997057,-9.313227e-10,1.3969841e-09,0.024263714,3
2017092000,2017092000,0.6231181,-4.6321034e-05,0.001294686,0.78212667,0.9997057,-9.313227e-10,1.3969841e-09,0.024263714,3
2017100000,2017100000,0.6230999,-7.5969525e-05,0.0013145473,0.78214127,0.9997057,-9.313227e-10,1.3969841e-09,0.024263714,3
2017112000,2017112000,0.62312263,-2.4990453e-05,0.0012877021,0.7821231,0.9997057,-9.313227e-10,1.3969841e-09,0.024263714,3
2017120000,2017120000,0.6231318,-4.0154682e-05,0.001270193,0.78211576,0.9997057,-9.313227e-10,1.3969841e-09,0.024263714,3
2017132000,2017132000,0.6231461,-6.141121e-05,0.0012629259,0.7821045,0.9997057,-9.313227e-10,1.3969841e-09,0.024263714,3
2017140000,2017140000,0.6231279,-6.173617e-05,0.001275971,0.78211904,0.9997057,-9.313227e-10,1.3969841e-09,0.024263714,3
2017152000,2017152000,0.6230594,-9.9428034e-05,0.0012384685,0.78217363,0.9997057,-9.313227e-10,1.3969841e-09,0.024263714,3
2017160000,2017160000,0.6230484,-8.995946e-05,0.0012688602,0.7821823,0.9997057,-9.313227e-10,1.3969841e-09,0.024263714,3
2017172000,2017172000,0.62305856,-6.562472e-05,0.0013382294,0.7821741,0.9997057,-9.313227e-10,1.3969841e-09,0.024263714,3
2017180000,2017180000,0.62311196,-7.5991935e-05,0.0013454724,0.78213155,0.9997057,-9.313227e-10,1.3969841e-09,0.024263714,3
2017192000,2017192000,0.6231294,-5.9249473e-05,0.0013787623,0.7821175,0.9997057,-9.313227e-10,1.3969841e-09,0.024263714,3
2017200000,2017200000,0.6231356,-0.000114719485,0.0014104658,0.7821126,0.9997057,-9.313227e-10,1.3969841e-09,0.024263714,3
2017212000,2017212000,0.6231198,-0.00016563777,0.0013758114,0.7821253,0.9997057,-9.313227e-10,1.3969841e-09,0.024263714,3
2017220000,2017220000,0.6230785,-0.0002445688,0.0013314423,0.7821582,0.9997057,-9.313227e-10,1.3969841e-09,0.024263714,3
2017232000,2017232000,0.6230719,-0.00024340425,0.0013432504,0.78216344,0.9997057,-9.313227e-10,1.3969841e-09,0.024263714,3
2017240000,2017240000,0.6230844,-0.0002659251,0.0013492494,0.7821535,0.9997057,-9.313227e-10,1.3969841e-09,0.024263714,3
2017252000,2017252000,0.62311846,-0.00031286682,0.0013673822,0.78212625,0.9997057,-9.313227e-10,1.3969841e-09,0.024263714,3
2017260000,2017260000,0.6231033,-0.0003517728,0.0014151391,0.7821382,0.9997057,-9.313227e-10,1.3969841e-09,0.024263714,3
2017272000,2017272000,0.6230631,-0.0003723017,0.001459352,0.7821701,0.9997057,-9.313227e-10,1.3969841e-09,0.024263714,3
2017280000,2017280000,0.6230499,-0.00035208117,0.0014803198,0.7821806,0.9997057,-9.313227e-10,1.3969841e-09,0.024263714,3
2017292000,2017292000,0.623107,-0.00032515053,0.0014285572,0.78213525,0.9997057,-9.313227e-10,1.3969841e-09,0.024263714,3
2017300000,2017300000,0.6231292,-0.00027998872,0.001439841,0.78211755,0.9997057,-9.313227e-10,1.3969841e-09,0.024263714,3
2017312000,2017312000,0.62312126,-0.0002830486,0.0013665204,0.7821241,0.9997057,-9.313227e-10,1.3969841e-09,0.024263714,3
2017320000,2017320000,0.62308675,-0.00030481792,0.0013842758,0.78215146,0.9997057,-9.313227e-10,1.3969841e-09,0.024263714,3
2017332000,2017332000,0.623075,-0.00030972643,0.0013445028,0.7821608,0.9997057,-9.313227e-10,1.3969841e-09,0.024263714,3
2017340000,2017340000,0.62307304,-0.0003276846,0.0013551215,0.7821624,0.9997057,-9.313227e-10,1.3969841e-09,0.024263714,3
2017352000,2017352000,0.6230395,-0.00036418272,0.0013337292,0.78218925,0.9997057,-9.313227e-10,1.3969841e-09,0.024263714,3
2017360000,2017360000,0.62301576,-0.00036334072,0.0012926171,0.7822082,0.9997057,-9.313227e-10,1.3969841e-09,0.024263714,3
2017372000,2017372000,0.622967,-0.0003294102,0.0012090511,0.7822471,0.9997057,-9.313227e-10,1.3969841e-09,0.024263714,3
2017380000,2017380000,0.62298965,-0.00031297118,0.0012072049,0.78222907,0.9997057,-9.313227e-10,1.3969841e-09,0.024263714,3
2017392000,2017392000,0.62299114,-0.00031201565,0.0012335837,0.7822279,0.9997057,-9.313227e-10,1.3969841e-09,0.024263714,3
2017400000,2017400000,0.6229622,-0.0003291777,0.00123816,0.782251,0.9997057,-9.313227e-10,1.3969841e-09,0.024263714,3
2017412000,2017412000,0.622912,-0.00036303818,0.0011847715,0.78229094,0.9997057,-9.313227e-10,1.3969841e-09,0.024263714,3
2017420000,2017420000,0.6229191,-0.00035986613,0.0011327942,0.7822855,0.9997057,-9.313227e-10,1.3969841e-09,0.024263714,3
2017432000,2017432000,0.6229317,-0.0003907582,0.0011352987,0.7822754,0.9997057,-9.313227e-10,1.3969841e-09,0.024263714,3
2017440000,2017440000,0.6229875,-0.00039841834,0.0011783406,0.78223085,0.9997057,-9.313227e-10,1.3969841e-09,0.024263714,3
2017452000,2017452000,0.6229797,-0.00043107517,0.0012136173,0.78223705,0.9997057,-9.313227e-10,1.3969841e-09,0.024263714,3
2017460000,2017460000,0.6229838,-0.0004676368,0.0012014636,0.7822338,0.9997057,-9.313227e-10,1.3969841e-09,0.024263714,3
2017472000,2017472000,0.6229398,-0.00045164835,0.0011293018,0.7822688,0.9997057,-9.313227e-10,1.3969841e-09,0.024263714,3
2017480000,2017480000,0.6229902,-0.00044323862,0.0011078124,0.7822288,0.9997057,-9.313227e-10,1.3969841e-09,0.024263714,3
2017492000,2017492000,0.62296724,-0.0003721486,0.0010945898,0.7822471,0.9997057,-9.313227e-10,1.3969841e-09,0.024263714,3
2017500000,2017500000,0.6229679,-0.00036883235,0.0010888657,0.78224665,0.9997057,-9.313227e-10,1.3969841e-09,0.024263714,3
2017512000,2017512000,0.6229586,-0.00034802916,0.0010612223,0.782254,0.9997057,-9.313227e-10,1.3969841e-09,0.024263714,3
2017520000,2017520000,0.6229672,-0.00033900392,0.0010318757,0.7822473,0.9997057,-9.313227e-10,1.3969841e-09,0.024263714,3
2017532000,2017532000,0.6229691,-0.00027785552,0.0010027267,0.7822458,0.9997057,-9.313227e-10,1.3969841e-09,0.024263714,3
2017540000,2017540000,0.6229834,-0.00023916284,0.0010627754,0.7822343,0.9997057,-9.313227e-10,1.3969841e-09,0.024263714,3
2017552000,2017552000,0.6230067,-0.00018802799,0.0011184766,0.7822157,0.9997057,-9.313227e-10,1.3969841e-09,0.024263714,3
2017560000,2017560000,0.62300545,-0.000119862496,0.0011264826,0.78221667,0.9997057,-9.313227e-10,1.3969841e-09,0.024263714,3
2017572000,2017572000,0.6229684,-4.6094323e-05,0.0011650767,0.7822462,0.9997057,-9.313227e-10,1.3969841e-09,0.024263714,3
2017580000,2017580000,0.62295276,-4.535695e-05,0.0011867061,0.7822586,0.9997057,-9.313227e-10,1.3969841e-09,0.024263714,3
2017592000,2017592000,0.6229505,-9.791126e-05,0.0011924112,0.7822604,0.9997057,-9.313227e-10,1.3969841e-09,0.024263714,3
2017600000,2017600000,0.6230103,-9.548364e-05,0.0011914951,0.78221285,0.9997057,-9.313227e-10,1.3969841e-09,0.024263714,3
2017612000,2017612000,0.62306124,-7.9106e-05,0.0012171471,0.7821721,0.9997057,-9.313227e-10,1.3969841e-09,0.024263714,3
2017620000,2017620000,0.62310344,-6.311957e-05,0.0012444532,0.7821384,0.9997057,-9.313227e-10,1.3969841e-09,0.024263714,3
2017632000,2017632000,0.62311155,-0.00013150244,0.0011789583,0.7821321,0.9997057,-9.313227e-10,1.3969841e-09,0.024263714,3
2017640000,2017640000,0.6231442,-0.00022129991,0.0012040761,0.782106,0.9997057,-9.313227e-10,1.3969841e-09,0.024263714,3
2017652000,2017652000,0.6231503,-0.0002761338,0.0011897691,0.78210115,0.9997057,-9.313227e-10,1.3969841e-09,0.024263714,3
2017660000,2017660000,0.6231534,-0.00033481058,0.0012350889,0.7820987,0.9997057,-9.313227e-10,1.3969841e-09,0.024263714,3
2017672000,2017672000,0.6231405,-0.00036162516,0.0012883912,0.7821088,0.9997057,-9.313227e-10,1.3969841e-09,0.024263714,3
2017680000,2017680000,0.6231365,-0.00036359578,0.0012279345,0.782112,0.9997057,-9.313227e-10,1.3969841e-09,0.024263714,3
2017692000,2017692000,0.62314963,-0.00034615348,0.001218011,0.78210175,0.9997057,-9.313227e-10,1.3969841e-09,0.024263714,3
2017700000,2017700000,0.6231622,-0.0003133757,0.0012183227,0.78209174,0.9997057,-9.313227e-10,1.3969841e-09,0.024263714,3
2017712000,2017712000,0.62318486,-0.0003147828,0.0012369512,0.7820737,0.9997057,-9.313227e-10,1.3969841e-09,0.024263714,3
2017720000,2017720000,0.62318313,-0.0003356641,0.0012092174,0.78207505,0.9997057,-9.313227e-10,1.3969841e-09,0.024263714,3
2017732000,2017732000,0.62320775,-0.00030757242,0.0012417956,0.7820554,0.9997057,-9.313227e-10,1.3969841e-09,0.024263714,3
2017740000,2017740000,0.62323093,-0.00030656357,0.0012714914,0.7820369,0.9997057,-9.313227e-10,1.3969841e-09,0.024263714,3
2017752000,2017752000,0.62323624,-0.000284509,0.0012537403,0.7820326,0.9997057,-9.313227e-10,1.3969841e-09,0.024263714,3
2017760000,2017760000,0.6232355,-0.00028058473,0.0011837252,0.7820333,0.9997057,-9.313227e-10,1.3969841e-09,0.024263714,3
2017772000,2017772000,0.6232203,-0.00022697159,0.0012176698,0.7820454,0.9997057,-9.313227e-10,1.3969841e-09,0.024263714,3
2017780000,2017780000,0.6232347,-0.00020735853,0.0012195096,0.782034,0.9997057,-9.313227e-10,1.3969841e-09,0.024263714,3
2017792000,2017792000,0.6232823,-0.00019800647,0.0012150905,0.781996,0.9997057,-9.313227e-10,1.3969841e-09,0.024263714,3
2017800000,2017800000,0.62332654,-0.00020508294,0.0011441928,0.78196084,0.9997057,-9.313227e-10,1.3969841e-09,0.024263714,3
2017812000,2017812000,0.623334,-0.00021488013,0.0011456021,0.7819549,0.9997057,-9.313227e-10,1.3969841e-09,0.024263714,3
2017820000,2017820000,0.62329304,-0.00021387912,0.0011453865,0.7819875,0.9997057,-9.313227e-10,1.3969841e-09,0.024263714,3
2017832000,2017832000,0.6232968,-0.0002157617,0.0011378644,0.78198457,0.9997057,-9.313227e-10,1.3969841e-09,0.024263714,3
2017840000,2017840000,0.6233208,-0.00020117454,0.0010948437,0.78196543,0.9997057,-9.313227e-10,1.3969841e-09,0.024263714,3
2017852000,2017852000,0.6233469,-0.00018359788,0.0011005293,0.7819446,0.9997057,-9.313227e-10,1.3969841e-09,0.024263714,3
2017860000,2017860000,0.62337,-0.00020258613,0.0010931579,0.7819262,0.9997057,-9.313227e-10,1.3969841e-09,0.024263714,3
2017872000,2017872000,0.6233969,-0.00015760443,0.001037535,0.781905,0.9997057,-9.313227e-10,1.3969841e-09,0.024263714,3
2017880000,2017880000,0.6233677,-0.00019068734,0.0010517205,0.78192824,0.9997057,-9.313227e-10,1.3969841e-09,0.024263714,3
2017892000,2017892000,0.6233663,-0.00016156379,0.0010599119,0.7819292,0.9997057,-9.313227e-10,1.3969841e-09,0.024263714,3
2017900000,2017900000,0.6233808,-0.00012342274,0.0010840464,0.78191763,0.9997057,-9.313227e-10,1.3969841e-09,0.024263714,3
2017912000,2017912000,0.6234203,-7.505594e-05,0.0011028345,0.7818861,0.9997057,-9.313227e-10,1.3969841e-09,0.024263714,3
2017920000,2017920000,0.6234283,-6.310065e-05,0.0011308944,0.78187984,0.9997057,-9.313227e-10,1.3969841e-09,0.024263714,3
2017932000,2017932000,0.62345093,7.0504525e-06,0.0011855186,0.78186166,0.9997057,-9.313227e-10,1.3969841e-09,0.024263714,3
2017940000,2017940000,0.6234605,1.618204e-06,0.0011729818,0.78185403,0.9997057,-9.313227e-10,1.3969841e-09,0.024263714,3
2017952000,2017952000,0.6234821,-9.66234e-06,0.0011904167,0.7818367,0.9997057,-9.313227e-10,1.3969841e-09,0.024263714,3
2017960000,2017960000,0.623484,-2.2414397e-05,0.0011960262,0.7818352,0.9997057,-9.313227e-10,1.3969841e-09,0.024263714,3
2017972000,2017972000,0.6234856,-8.501434e-06,0.0011484833,0.78183395,0.9997057,-9.313227e-10,1.3969841e-09,0.024263714,3
2017980000,2017980000,0.62349206,-3.598913e-06,0.0011489016,0.7818288,0.9997057,-9.313227e-10,1.3969841e-09,0.024263714,3
2017992000,2017992000,0.6234866,2.1705304e-05,0.0011822648,0.7818331,0.9997057,-9.313227e-10,1.3969841e-09,0.024263714,3
2018000000,2018000000,0.62351453,1.3192552e-05,0.0011838484,0.78181094,0.9997057,-9.313227e-10,1.3969841e-09,0.024263714,3
2018012000,2018012000,0.6234738,3.1030024e-05,0.0011932686,0.78184325,0.9997057,-9.313227e-10,1.3969841e-09,0.024263714,3
2018020000,2018020000,0.6234632,4.619945e-05,0.0011738527,0.7818519,0.9997057,-9.313227e-10,1.3969841e-09,0.024263714,3
2018032000,2018032000,0.62344986,0.000116992276,0.0011708114,0.78186244,0.9997057,-9.313227e-10,1.3969841e-09,0.024263714,3
2018040000,2018040000,0.62348163,0.00017059951,0.0011629583,0.7818371,0.9997057,-9.313227e-10,1.3969841e-09,0.024263714,3
2018052000,2018052000,0.62350696,0.00021209319,0.0011941715,0.7818169,0.9997057,-9.313227e-10,1.3969841e-09,0.024263714,3
2018060000,2018060000,0.6234954,0.00022128076,0.00117752,0.781826,0.9997057,-9.313227e-10,1.3969841e-09,0.024263714,3
2018072000,2018072000,0.6235186,0.0001454423,0.001190607,0.78180766,0.9997057,-9.313227e-10,1.3969841e-09,0.024263714,3
2018080000,2018080000,0.6235478,0.00016197907,0.0012259767,0.7817843,0.9997057,-9.313227e-10,1.3969841e-09,0.024263714,3
2018092000,2018092000,0.6235938,0.00016969061,0.0011935403,0.7817476,0.9997057,-9.313227e-10,1.3969841e-09,0.024263714,3
2018100000,2018100000,0.62358505,0.00017404626,0.0011828097,0.78175455,0.9997057,-9.313227e-10,1.3969841e-09,0.024263714,3
2018112000,2018112000,0.6235627,0.00017696476,0.0012040213,0.7817724,0.9997057,-9.313227e-10,1.3969841e-09,0.024263714,3
2018120000,2018120000,0.6235467,0.00014384818,0.0011727802,0.7817852,0.9997057,-9.313227e-10,1.3969841e-09,0.024263714,3
2018132000,2018132000,0.6235812,0.00011645129,0.0011629408,0.78175783,0.9997057,-9.313227e-10,1.3969841e-09,0.024263714,3
2018140000,2018140000,0.6235825,0.00014100602,0.0012117326,0.7817566,0.9997057,-9.313227e-10,1.3969841e-09,0.024263714,3
2018152000,2018152000,0.6235606,0.00012619447,0.0011851111,0.78177416,0.9997057,-9.313227e-10,1.3969841e-09,0.024263714,3
2018160000,2018160000,0.6235553,0.00015373722,0.0011300168,0.78177834,0.9997057,-9.313227e-10,1.3969841e-09,0.024263714,3
2018172000,2018172000,0.6235749,0.00022298523,0.0011439592,0.78176266,0.9997057,-9.313227e-10,1.3969841e-09,0.024263714,3
2018180000,2018180000,0.62357324,0.00021508255,0.0011750887,0.7817641,0.9997057,-9.313227e-10,1.3969841e-09,0.024263714,3
2018192000,2018192000,0.62357646,0.00017393295,0.0011913996,0.78176147,0.9997057,-9.313227e-10,1.3969841e-09,0.024263714,3
2018200000,2018200000,0.6235756,0.0002058978,0.0011553997,0.7817622,0.9997057,-9.313227e-10,1.3969841e-09,0.024263714,3
2018212000,2018212000,0.62362754,0.00025809754,0.001201589,0.78172076,0.9997057,-9.313227e-10,1.3969841e-09,0.024263714,3
2018220000,2018220000,0.6236178,0.0002480445,0.0011896744,0.7817285,0.9997057,-9.313227e-10,1.3969841e-09,0.024263714,3
2018232000,2018232000,0.6236705,0.00028261644,0.0011581018,0.7816865,0.9997057,-9.313227e-10,1.3969841e-09,0.024263714,3
2018240000,2018240000,0.62366694,0.00030377088,0.00113569,0.7816893,0.9997057,-9.313227e-10,1.3969841e-09,0.024263714,3
2018252000,2018252000,0.6237033,0.00032024813,0.0010676059,0.78166044,0.9997057,-9.313227e-10,1.3969841e-09,0.024263714,3
2018260000,2018260000,0.623711,0.00029117664,0.001027439,0.7816543,0.9997057,-9.313227e-10,1.3969841e-09,0.024263714,3
2018272000,2018272000,0.62372965,0.00033982383,0.0010490115,0.7816394,0.9997057,-9.313227e-10,1.3969841e-09,0.024263714,3
2018280000,2018280000,0.6237375,0.0003137754,0.0011278248,0.781633,0.9997057,-9.313227e-10,1.3969841e-09,0.024263714,3
2018292000,2018292000,0.6236962,0.00029947096,0.0011078194,0.781666,0.9997057,-9.313227e-10,1.3969841e-09,0.024263714,3
2018300000,2018300000,0.6236879,0.00029905018,0.00113835,0.7816726,0.9997057,-9.313227e-10,1.3969841e-09,0.024263714,3
2018312000,2018312000,0.62364733,0.0002916938,0.0011354424,0.781705,0.9997057,-9.313227e-10,1.3969841e-09,0.024263714,3
2018320000,2018320000,0.62363905,0.00033332407,0.0011400153,0.78171164,0.9997057,-9.313227e-10,1.3969841e-09,0.024263714,3
2018332000,2018332000,0.623663,0.00038302198,0.001172756,0.78169245,0.9997057,-9.313227e-10,1.3969841e-09,0.024263714,3
2018340000,2018340000,0.6236521,0.0003711203,0.0012228596,0.781701,0.9997057,-9.313227e-10,1.3969841e-09,0.024263714,3
2018352000,2018352000,0.623642,0.00033171894,0.0011599218,0.7817091,0.9997057,-9.313227e-10,1.3969841e-09,0.024263714,3
2018360000,2018360000,0.62359285,0.00034162778,0.0011791134,0.7817483,0.9997057,-9.313227e-10,1.3969841e-09,0.024263714,3
2018372000,2018372000,0.6235599,0.00024492168,0.0011620251,0.7817748,0.9997057,-9.313227e-10,1.3969841e-09,0.024263714,3
2018380000,2018380000,0.62351644,0.0002606862,0.0011500588,0.78180933,0.9997057,-9.313227e-10,1.3969841e-09,0.024263714,3
2018392000,2018392000,0.6235559,0.00026073612,0.0011355742,0.78177804,0.9997057,-9.313227e-10,1.3969841e-09,0.024263714,3
2018400000,2018400000,0.62355715,0.00022565249,0.0011444436,0.7817769,0.9997057,-9.313227e-10,1.3969841e-09,0.024263714,3
2018412000,2018412000,0.6235517,0.00017538562,0.0010632635,0.78178144,0.9997057,-9.313227e-10,1.3969841e-09,0.024263714,3
2018420000,2018420000,0.6235466,0.0001627148,0.0010825301,0.78178555,0.9997057,-9.313227e-10,1.3969841e-09,0.024263714,3
2018432000,2018432000,0.62353945,0.00023369303,0.0010734311,0.7817911,0.9997057,-9.313227e-10,1.3969841e-09,0.024263714,3
2018440000,2018440000,0.623548,0.00021227585,0.0010731525,0.7817843,0.9997057,-9.313227e-10,1.3969841e-09,0.024263714,3
2018452000,2018452000,0.62358046,0.00026922472,0.0010071642,0.7817584,0.9997057,-9.313227e-10,1.3969841e-09,0.024263714,3
2018460000,2018460000,0.62359035,0.00027292475,0.0009896335,0.78175074,0.9997057,-9.313227e-10,1.3969841e-09,0.024263714,3
2018472000,2018472000,0.6235578,0.0002916129,0.0009788205,0.78177667,0.9997057,-9.313227e-10,1.3969841e-09,0.024263714,3
2018480000,2018480000,0.6235652,0.00033906798,0.0009400674,0.78177065,0.9997057,-9.313227e-10,1.3969841e-09,0.024263714,3
2018492000,2018492000,0.6235582,0.00035231028,0.0009206989,0.78177625,0.9997057,-9.313227e-10,1.3969841e-09,0.024263714,3
2018500000,2018500000,0.623544,0.00034604978,0.00091530674,0.78178763,0.9997057,-9.313227e-10,1.3969841e-09,0.024263714,3
2018512000,2018512000,0.62352353,0.0003907355,0.0008934136,0.7818039,0.9997057,-9.313227e-10,1.3969841e-09,0.024263714,3
2018520000,2018520000,0.6235363,0.00041761206,0.0009270209,0.7817938,0.9997057,-9.313227e-10,1.3969841e-09,0.024263714,3
2018532000,2018532000,0.6235471,0.00042102823,0.0008644972,0.7817852,0.9997057,-9.313227e-10,1.3969841e-09,0.024263714,3
2018540000,2018540000,0.62357837,0.00044195275,0.00088039343,0.7817602,0.9997057,-9.313227e-10,1.3969841e-09,0.024263714,3
2018552000,2018552000,0.6235645,0.00042801528,0.0009019383,0.7817713,0.9997057,-9.313227e-10,1.3969841e-09,0.024263714,3
2018560000,2018560000,0.6235566,0.0004730819,0.0008958923,0.7817776,0.9997057,-9.313227e-10,1.3969841e-09,0.024263714,3
2018572000,2018572000,0.62356263,0.0005183134,0.0009070603,0.7817727,0.9997057,-9.313227e-10,1.3969841e-09,0.024263714,3
2018580000,2018580000,0.62355846,0.0004955087,0.00092181517,0.781776,0.9997057,-9.313227e-10,1.3969841e-09,0.024263714,3
2018592000,2018592000,0.6234984,0.0005095457,0.0008817105,0.7818241,0.9997057,-9.313227e-10,1.3969841e-09,0.024263714,3
2018600000,2018600000,0.62352586,0.0005397055,0.0008740612,0.78180206,0.9997057,-9.313227e-10,1.3969841e-09,0.024263714,3
2018612000,2018612000,0.6235873,0.00066960265,0.00080772914,0.78175294,0.9997057,-9.313227e-10,1.3969841e-09,0.024263714,3
2018620000,2018620000,0.62360775,0.0006944907,0.0007532747,0.78173673,0.9997057,-9.313227e-10,1.3969841e-09,0.024263714,3
2018632000,2018632000,0.6236213,0.00068324246,0.0006559018,0.78172606,0.9997057,-9.313227e-10,1.3969841e-09,0.024263714,3
2018640000,2018640000,0.6236337,0.00069631205,0.00065320084,0.78171617,0.9997057,-9.313227e-10,1.3969841e-09,0.024263714,3
2018652000,2018652000,0.6236846,0.00067128194,0.00063167524,0.7816756,0.9997057,-9.313227e-10,1.3969841e-09,0.024263714,3
2018660000,2018660000,0.6236841,0.00065960735,0.00064402295,0.781676,0.9997057,-9.313227e-10,1.3969841e-09,0.024263714,3
2018672000,2018672000,0.62366337,0.0006290133,0.000595702,0.78169256,0.9997057,-9.313227e-10,1.3969841e-09,0.024263714,3
2018680000,2018680000,0.62368053,0.0005984279,0.0005945992,0.7816789,0.9997057,-9.313227e-10,1.3969841e-09,0.024263714,3
2018692000,2018692000,0.62368447,0.0005938437,0.0006053595,0.7816758,0.9997057,-9.313227e-10,1.3969841e-09,0.024263714,3
2018700000,2018700000,0.62371594,0.00054883433,0.00059471803,0.78165066,0.9997057,-9.313227e-10,1.3969841e-09,0.024263714,3
2018712000,2018712000,0.62375325,0.00054538646,0.0005351871,0.78162104,0.9997057,-9.313227e-10,1.3969841e-09,0.024263714,3
2018720000,2018720000,0.6237331,0.0005545547,0.0005726927,0.7816371,0.9997057,-9.313227e-10,1.3969841e-09,0.024263714,3
2018732000,2018732000,0.6236763,0.00048979605,0.00062827853,0.78168225,0.9997057,-9.313227e-10,1.3969841e-09,0.024263714,3
2018740000,2018740000,0.6236438,0.00050661474,0.0005813934,0.78170836,0.9997057,-9.313227e-10,1.3969841e-09,0.024263714,3
2018752000,2018752000,0.6236408,0.0005635487,0.0005325021,0.78171074,0.9997057,-9.313227e-10,1.3969841e-09,0.024263714,3
2018760000,2018760000,0.62366945,0.0005675888,0.00052177464,0.78168786,0.9997057,-9.313227e-10,1.3969841e-09,0.024263714,3
2018772000,2018772000,0.62367845,0.0005450214,0.0005534338,0.78168064,0.9997057,-9.313227e-10,1.3969841e-09,0.024263714,3
2018780000,2018780000,0.6236959,0.00057789916,0.0005327012,0.7816667,0.9997057,-9.313227e-10,1.3969841e-09,0.024263714,3
2018792000,2018792000,0.6237021,0.0006007044,0.0004478379,0.78166175,0.9997057,-9.313227e-10,1.3969841e-09,0.024263714,3
2018800000,2018800000,0.6236892,0.00064498594,0.00039692796,0.78167206,0.9997057,-9.313227e-10,1.3969841e-09,0.024263714,3
2018812000,2018812000,0.6236656,0.00067203224,0.00029852593,0.781691,0.9997057,-9.313227e-10,1.3969841e-09,0.024263714,3
2018820000,2018820000,0.6236872,0.0007000773,0.0002472489,0.7816737,0.9997057,-9.313227e-10,1.3969841e-09,0.024263714,3
2018832000,2018832000,0.62369454,0.0006541433,0.00028417638,0.7816679,0.9997057,-9.313227e-10,1.3969841e-09,0.024263714,3
2018840000,2018840000,0.6237285,0.0006213317,0.00022153888,0.78164077,0.9997057,-9.313227e-10,1.3969841e-09,0.024263714,3
2018852000,2018852000,0.62376505,0.00058543694,0.00016603566,0.7816118,0.9997057,-9.313227e-10,1.3969841e-09,0.024263714,3
2018860000,2018860000,0.6237625,0.0005136482,0.00016723157,0.7816138,0.9997057,-9.313227e-10,1.3969841e-09,0.024263714,3
2018872000,2018872000,0.6237898,0.00051564915,0.0002403115,0.7815919,0.9997057,-9.313227e-10,1.3969841e-09,0.024263714,3
2018880000,2018880000,0.6237677,0.0005860025,0.00027869557,0.78160954,0.9997057,-9.313227e-10,1.3969841e-09,0.024263714,3
2018892000,2018892000,0.6237493,0.00057690457,0.0002720655,0.7816242,0.9997057,-9.313227e-10,1.3969841e-09,0.024263714,3
2018900000,2018900000,0.62372416,0.00057907106,0.00030356276,0.7816443,0.9997057,-9.313227e-10,1.3969841e-09,0.024263714,3
2018912000,2018912000,0.6237493,0.00057148014,0.00029374746,0.78162426,0.9997057,-9.313227e-10,1.3969841e-09,0.024263714,3
2018920000,2018920000,0.6237454,0.0005698435,0.00024108775,0.7816274,0.9997057,-9.313227e-10,1.3969841e-09,0.024263714,3
2018932000,2018932000,0.6236806,0.0005789617,0.0002077033,0.7816791,0.9997057,-9.313227e-10,1.3969841e-09,0.024263714,3
2018940000,2018940000,0.6236642,0.0005960393,0.0002348431,0.78169215,0.9997057,-9.313227e-10,1.3969841e-09,0.024263714,3
2018952000,2018952000,0.6236686,0.000539147,0.0002964333,0.78168863,0.9997057,-9.313227e-10,1.3969841e-09,0.024263714,3
2018960000,2018960000,0.6236951,0.00057218055,0.00032995592,0.7816675,0.9997057,-9.313227e-10,1.3969841e-09,0.024263714,3
2018972000,2018972000,0.6236752,0.00063559297,0.00026218282,0.7816833,0.9997057,-9.313227e-10,1.3969841e-09,0.024263714,3
2018980000,2018980000,0.6236854,0.00066390046,0.00025384445,0.7816752,0.9997057,-9.313227e-10,1.3969841e-09,0.024263714,3
2018992000,2018992000,0.6237294,0.0006326959,0.00022622943,0.7816401,0.9997057,-9.313227e-10,1.3969841e-09,0.024263714,3
2019000000,2019000000,0.62373036,0.0006204487,0.0002557355,0.78163934,0.9997057,-9.313227e-10,1.3969841e-09,0.024263714,3
2019012000,2019012000,0.62374514,0.0006307559,0.00025772164,0.78162754,0.9997057,-9.313227e-10,1.3969841e-09,0.024263714,3
2019020000,2019020000,0.623714,0.0006480886,0.0002541018,0.78165233,0.9997057,-9.313227e-10,1.3969841e-09,0.024263714,3
2019032000,2019032000,0.62370336,0.0006533995,0.00023763163,0.7816608,0.9997057,-9.313227e-10,1.3969841e-09,0.024263714,3
2019040000,2019040000,0.62368435,0.00064372417,0.00027263854,0.78167593,0.9997057,-9.313227e-10,1.3969841e-09,0.024263714,3
2019052000,2019052000,0.62363434,0.00062058587,0.00029116002,0.781716,0.9997057,-9.313227e-10,1.3969841e-09,0.024263714,3
2019060000,2019060000,0.62359333,0.00059306325,0.0003002243,0.7817487,0.9997057,-9.313227e-10,1.3969841e-09,0.024263714,3
2019072000,2019072000,0.62360483,0.00059357146,0.00031494966,0.78173953,0.9997057,-9.313227e-10,1.3969841e-09,0.024263714,3
2019080000,2019080000,0.623657,0.0006421976,0.0003280702,0.78169775,0.9997057,-9.313227e-10,1.3969841e-09,0.024263714,3
2019092000,2019092000,0.6236864,0.00069539744,0.00033010822,0.78167427,0.9997057,-9.313227e-10,1.3969841e-09,0.024263714,3
2019100000,2019100000,0.6236844,0.00071814295,0.0003011914,0.7816758,0.9997057,-9.313227e-10,1.3969841e-09,0.024263714,3
2019112000,2019112000,0.623678,0.00070537,0.0002877548,0.78168094,0.9997057,-9.313227e-10,1.3969841e-09,0.024263714,3
2019120000,2019120000,0.62371737,0.0006826626,0.00033331505,0.7816496,0.9997057,-9.313227e-10,1.3969841e-09,0.024263714,3
2019132000,2019132000,0.6237197,0.00073080626,0.00031492542,0.7816478,0.9997057,-9.313227e-10,1.3969841e-09,0.024263714,3
2019140000,2019140000,0.6236915,0.0007543698,0.00029357028,0.78167015,0.9997057,-9.313227e-10,1.3969841e-09,0.024263714,3
2019152000,2019152000,0.6236852,0.0007791204,0.00025504467,0.78167534,0.9997057,-9.313227e-10,1.3969841e-09,0.024263714,3
2019160000,2019160000,0.6236878,0.000751373,0.0002692238,0.78167313,0.9997057,-9.313227e-10,1.3969841e-09,0.024263714,3
2019172000,2019172000,0.623686,0.000729639,0.00029098982,0.78167456,0.9997057,-9.313227e-10,1.3969841e-09,0.024263714,3
2019180000,2019180000,0.6237024,0.00073830667,0.00030203754,0.7816615,0.9997057,-9.313227e-10,1.3969841e-09,0.024263714,3
2019192000,2019192000,0.6237105,0.000714858,0.00030954138,0.78165513,0.9997057,-9.313227e-10,1.3969841e-09,0.024263714,3
2019200000,2019200000,0.62371683,0.0007079004,0.0002949112,0.78164995,0.9997057,-9.313227e-10,1.3969841e-09,0.024263714,3
2019212000,2019212000,0.623707,0.00073037203,0.00030258397,0.7816578,0.9997057,-9.313227e-10,1.3969841e-09,0.024263714,3
2019220000,2019220000,0.62368274,0.00072752166,0.00032912387,0.7816772,0.9997057,-9.313227e-10,1.3969841e-09,0.024263714,3
2019232000,2019232000,0.6237415,0.0007323476,0.00034198075,0.7816304,0.9997057,-9.313227e-10,1.3969841e-09,0.024263714,3
2019240000,2019240000,0.6237547,0.00074964564,0.00038178122,0.78161985,0.9997057,-9.313227e-10,1.3969841e-09,0.024263714,3
2019252000,2019252000,0.62376714,0.0007386709,0.00039088153,0.78160983,0.9997057,-9.313227e-10,1.3969841e-09,0.024263714,3
2019260000,2019260000,0.6237549,0.00072952965,0.000396582,0.7816196,0.9997057,-9.313227e-10,1.3969841e-09,0.024263714,3
2019272000,2019272000,0.6237392,0.00068517076,0.0003560033,0.7816323,0.9997057,-9.313227e-10,1.3969841e-09,0.024263714,3
2019280000,2019280000,0.62368864,0.0006361548,0.00036285014,0.7816726,0.9997057,-9.313227e-10,1.3969841e-09,0.024263714,3
2019292000,2019292000,0.6236487,0.0006165661,0.00032158903,0.7817045,0.9997057,-9.313227e-10,1.3969841e-09,0.024263714,3
2019300000,2019300000,0.62366354,0.0006425874,0.00026451668,0.7816926,0.9997057,-9.313227e-10,1.3969841e-09,0.024263714,3
2019312000,2019312000,0.6236644,0.0006756545,0.00018331948,0.78169197,0.9997057,-9.313227e-10,1.3969841e-09,0.024263714,3
2019320000,2019320000,0.62366754,0.0006632563,0.00020527824,0.7816894,0.9997057,-9.313227e-10,1.3969841e-09,0.024263714,3
2019332000,2019332000,0.6235817,0.0006774251,0.0002454121,0.7817579,0.9997057,-9.313227e-10,1.3969841e-09,0.024263714,3
2019340000,2019340000,0.6235957,0.00064132415,0.00027606473,0.78174675,0.9997057,-9.313227e-10,1.3969841e-09,0.024263714,3
2019352000,2019352000,0.6236223,0.00058858626,0.0002742524,0.7817255,0.9997057,-9.313227e-10,1.3969841e-09,0.024263714,3
2019360000,2019360000,0.62361085,0.00064174074,0.0002664,0.78173465,0.9997057,-9.313227e-10,1.3969841e-09,0.024263714,3
2019372000,2019372000,0.62364036,0.0007074923,0.00025592305,0.781711,0.9997057,-9.313227e-10,1.3969841e-09,0.024263714,3
2019380000,2019380000,0.62368226,0.00072853,0.0002812714,0.78167754,0.9997057,-9.313227e-10,1.3969841e-09,0.024263714,3
2019392000,2019392000,0.6236755,0.00071742345,0.0003356734,0.78168297,0.9997057,-9.313227e-10,1.3969841e-09,0.024263714,3
2019400000,2019400000,0.62371504,0.00071074,0.00033215544,0.78165144,0.9997057,-9.313227e-10,1.3969841e-09,0.024263714,3
2019412000,2019412000,0.62370753,0.00068659213,0.00036238792,0.78165746,0.9997057,-9.313227e-10,1.3969841e-09,0.024263714,3
2019420000,2019420000,0.6237208,0.00068388425,0.00033468354,0.78164685,0.9997057,-9.313227e-10,1.3969841e-09,0.024263714,3
2019432000,2019432000,0.6237357,0.00064361864,0.0003446018,0.7816349,0.9997057,-9.313227e-10,1.3969841e-09,0.024263714,3
2019440000,2019440000,0.62369615,0.0006335438,0.00032287446,0.7816667,0.9997057,-9.313227e-10,1.3969841e-09,0.024263714,3
2019452000,2019452000,0.6236748,0.0007496697,0.00025790674,0.78168356,0.9997057,-9.313227e-10,1.3969841e-09,0.024263714,3
2019460000,2019460000,0.6236874,0.0007455366,0.00020774195,0.78167355,0.9997057,-9.313227e-10,1.3969841e-09,0.024263714,3
2019472000,2019472000,0.6236923,0.0006446087,0.00021736242,0.7816697,0.9997057,-9.313227e-10,1.3969841e-09,0.024263714,3
2019480000,2019480000,0.623726,0.0006165958,0.00024566674,0.78164274,0.9997057,-9.313227e-10,1.3969841e-09,0.024263714,3
2019492000,2019492000,0.6237443,0.0006088162,0.00024383522,0.7816283,0.9997057,-9.313227e-10,1.3969841e-09,0.024263714,3
2019500000,2019500000,0.6237423,0.0005899807,0.00027241718,0.7816299,0.9997057,-9.313227e-10,1.3969841e-09,0.024263714,3
2019512000,2019512000,0.623743,0.00054664793,0.00029505478,0.7816293,0.9997057,-9.313227e-10,1.3969841e-09,0.024263714,3
2019520000,2019520000,0.62373304,0.0005058727,0.00032082098,0.78163725,0.9997057,-9.313227e-10,1.3969841e-09,0.024263714,3
2019532000,2019532000,0.6237276,0.00046906454,0.0002900397,0.78164154,0.9997057,-9.313227e-10,1.3969841e-09,0.024263714,3
2019540000,2019540000,0.623732,0.00048790543,0.00027517366,0.7816381,0.9997057,-9.313227e-10,1.3969841e-09,0.024263714,3
2019552000,2019552000,0.6237862,0.00052436616,0.000291755,0.7815948,0.9997057,-9.313227e-10,1.3969841e-09,0.024263714,3
2019560000,2019560000,0.6237919,0.0005305558,0.00028573355,0.78159034,0.9997057,-9.313227e-10,1.3969841e-09,0.024263714,3
2019572000,2019572000,0.62377703,0.00048544523,0.00025714416,0.78160226,0.9997057,-9.313227e-10,1.3969841e-09,0.024263714,3
2019580000,2019580000,0.62381893,0.0004938263,0.00021541814,0.7815688,0.9997057,-9.313227e-10,1.3969841e-09,0.024263714,3
2019592000,2019592000,0.6238685,0.000530868,0.00016165768,0.7815291,0.9997057,-9.313227e-10,1.3969841e-09,0.024263714,3
2019600000,2019600000,0.6239133,0.00053712865,0.0001496671,0.78149337,0.9997057,-9.313227e-10,1.3969841e-09,0.024263714,3
2019612000,2019612000,0.62390155,0.0005545448,0.00020788993,0.7815028,0.9997057,-9.313227e-10,1.3969841e-09,0.024263714,3
2019620000,2019620000,0.62389654,0.0005267425,0.00015921543,0.7815068,0.9997057,-9.313227e-10,1.3969841e-09,0.024263714,3
2019632000,2019632000,0.6238745,0.0005427193,0.00014346589,0.7815244,0.9997057,-9.313227e-10,1.3969841e-09,0.024263714,3
2019640000,2019640000,0.62383205,0.00050132483,0.00011183289,0.78155833,0.9997057,-9.313227e-10,1.3969841e-09,0.024263714,3
2019652000,2019652000,0.62390035,0.0004524035,9.41987e-05,0.7815038,0.9997057,-9.313227e-10,1.3969841e-09,0.024263714,3
2019660000,2019660000,0.62389624,0.00044932266,0.00014043828,0.7815071,0.9997057,-9.313227e-10,1.3969841e-09,0.024263714,3
2019672000,2019672000,0.6238738,0.0005070172,0.00015634556,0.781525,0.9997057,-9.313227e-10,1.3969841e-09,0.024263714,3
2019680000,2019680000,0.6238703,0.00052899745,0.00022285039,0.7815277,0.9997057,-9.313227e-10,1.3969841e-09,0.024263714,3
2019692000,2019692000,0.62395597,0.00052954734,0.0002620116,0.78145933,0.9997057,-9.313227e-10,1.3969841e-09,0.024263714,3
2019700000,2019700000,0.62398505,0.00047944006,0.0002450589,0.78143615,0.9997057,-9.313227e-10,1.3969841e-09,0.024263714,3
2019712000,2019712000,0.62393963,0.00045934273,0.000239397,0.78147244,0.9997057,-9.313227e-10,1.3969841e-09,0.024263714,3
2019720000,2019720000,0.62395126,0.0004899998,0.00018526014,0.78146315,0.9997057,-9.313227e-10,1.3969841e-09,0.024263714,3
2019732000,2019732000,0.62391955,0.00053766044,0.00017054226,0.7814884,0.9997057,-9.313227e-10,1.3969841e-09,0.024263714,3
2019740000,2019740000,0.6239137,0.00050091796,0.0001736581,0.7814931,0.9997057,-9.313227e-10,1.3969841e-09,0.024263714,3
2019752000,2019752000,0.6239417,0.00044253556,0.00017212596,0.7814708,0.9997057,-9.313227e-10,1.3969841e-09,0.024263714,3
2019760000,2019760000,0.6239599,0.0004532462,0.00015443831,0.7814563,0.9997057,-9.313227e-10,1.3969841e-09,0.024263714,3
2019772000,2019772000,0.6239539,0.0004938279,0.00017007306,0.7814611,0.9997057,-9.313227e-10,1.3969841e-09,0.024263714,3
2019780000,2019780000,0.62393373,0.0005253418,0.00016383248,0.78147715,0.9997057,-9.313227e-10,1.3969841e-09,0.024263714,3
2019792000,2019792000,0.62395316,0.000559,0.00020228954,0.78146166,0.9997057,-9.313227e-10,1.3969841e-09,0.024263714,3
2019800000,2019800000,0.6239838,0.0005099566,0.00024622964,0.78143704,0.9997057,-9.313227e-10,1.3969841e-09,0.024263714,3
2019812000,2019812000,0.62401694,0.00051968254,0.00023243354,0.78141063,0.9997057,-9.313227e-10,1.3969841e-09,0.024263714,3
2019820000,2019820000,0.6240662,0.0005009129,0.00020668456,0.7813715,0.9997057,-9.313227e-10,1.3969841e-09,0.024263714,3
2019832000,2019832000,0.6240927,0.00046101466,0.00014685732,0.7813502,0.9997057,-9.313227e-10,1.3969841e-09,0.024263714,3
2019840000,2019840000,0.62408406,0.00048616694,0.00015976165,0.78135705,0.9997057,-9.313227e-10,1.3969841e-09,0.024263714,3
2019852000,2019852000,0.62408483,0.0004722764,0.0002143125,0.7813564,0.9997057,-9.313227e-10,1.3969841e-09,0.024263714,3
2019860000,2019860000,0.6240716,0.00045460564,0.00022815273,0.78136694,0.9997057,-9.313227e-10,1.3969841e-09,0.024263714,3
2019872000,2019872000,0.62406665,0.00039573765,0.00023908146,0.78137106,0.9997057,-9.313227e-10,1.3969841e-09,0.024263714,3
2019880000,2019880000,0.62407744,0.0003808843,0.0002726243,0.7813624,0.9997057,-9.313227e-10,1.3969841e-09,0.024263714,3
2019892000,2019892000,0.62403625,0.00033495197,0.00030816428,0.7813953,0.9997057,-9.313227e-10,1.3969841e-09,0.024263714,3
2019900000,2019900000,0.6240307,0.00029794077,0.00029681638,0.7813997,0.9997057,-9.313227e-10,1.3969841e-09,0.024263714,3
2019912000,2019912000,0.624022,0.00022440638,0.00027894694,0.7814067,0.9997057,-9.313227e-10,1.3969841e-09,0.024263714,3
2019920000,2019920000,0.6240111,0.00020052395,0.00029677642,0.7814154,0.9997057,-9.313227e-10,1.3969841e-09,0.024263714,3
2019932000,2019932000,0.6240299,0.00020732215,0.0003410306,0.7814004,0.9997057,-9.313227e-10,1.3969841e-09,0.024263714,3
2019940000,2019940000,0.624061,0.00019590875,0.00035311095,0.7813755,0.9997057,-9.313227e-10,1.3969841e-09,0.024263714,3
2019952000,2019952000,0.62405646,0.00017216241,0.00029243506,0.7813793,0.9997057,-9.313227e-10,1.3969841e-09,0.024263714,3
2019960000,2019960000,0.6240986,0.00019909276,0.00030467802,0.7813456,0.9997057,-9.313227e-10,1.3969841e-09,0.024263714,3
2019972000,2019972000,0.62410635,0.00018225698,0.00036610532,0.7813394,0.9997057,-9.313227e-10,1.3969841e-09,0.024263714,3
2019980000,2019980000,0.6240878,0.00020938685,0.00035375459,0.78135425,0.9997057,-9.313227e-10,1.3969841e-09,0.024263714,3
2019992000,2019992000,0.62406975,0.00017055459,0.00029793454,0.78136855,0.9997057,-9.313227e-10,1.3969841e-09,0.024263714,3
2020000000,2020000000,0.6240625,0.00017045872,0.00028901512,0.78137434,0.9997057,-9.313227e-10,1.3969841e-09,0.024263714,3
2020012000,2020012000,0.6240953,0.0001834018,0.00027580684,0.7813482,0.9997057,-9.313227e-10,1.3969841e-09,0.024263714,3
2020020000,2020020000,0.62410873,0.00020918802,0.00025418683,0.7813374,0.9997057,-9.313227e-10,1.3969841e-09,0.024263714,3
2020032000,2020032000,0.62407243,0.0001620923,0.00026408726,0.7813664,0.9997057,-9.313227e-10,1.3969841e-09,0.024263714,3
2020040000,2020040000,0.6240403,0.00016596714,0.00026618002,0.78139204,0.9997057,-9.313227e-10,1.3969841e-09,0.024263714,3
2020052000,2020052000,0.6240399,0.00015422262,0.00024521246,0.78139246,0.9997057,-9.313227e-10,1.3969841e-09,0.024263714,3
2020060000,2020060000,0.62403864,0.00011516558,0.00020122062,0.7813934,0.9997057,-9.313227e-10,1.3969841e-09,0.024263714,3
2020072000,2020072000,0.62407124,5.4755063e-05,0.0001551407,0.78136754,0.9997057,-9.313227e-10,1.3969841e-09,0.024263714,3
2020080000,2020080000,0.6240363,5.8294012e-05,0.00015762394,0.7813954,0.9997057,-9.313227e-10,1.3969841e-09,0.024263714,3
2020092000,2020092000,0.6240319,5.4293232e-05,0.00017017701,0.7813989,0.9997057,-9.313227e-10,1.3969841e-09,0.024263714,3
2020100000,2020100000,0.6240198,7.242502e-05,0.00016446026,0.78140855,0.9997057,-9.313227e-10,1.3969841e-09,0.024263714,3
2020112000,2020112000,0.62393904,8.03376e-05,0.00023369337,0.781473,0.9997057,-9.313227e-10,1.3969841e-09,0.024263714,3
2020120000,2020120000,0.6239312,6.795773e-05,0.00024011168,0.78147936,0.9997057,-9.313227e-10,1.3969841e-09,0.024263714,3
2020132000,2020132000,0.6239354,7.086507e-05,0.0002459046,0.78147584,0.9997057,-9.313227e-10,1.3969841e-09,0.024263714,3
2020140000,2020140000,0.6238943,6.958602e-05,0.00024827017,0.7815087,0.9997057,-9.313227e-10,1.3969841e-09,0.024263714,3
2020152000,2020152000,0.6238728,0.000120949604,0.0002515557,0.7815259,0.9997057,-9.313227e-10,1.3969841e-09,0.024263714,3
2020160000,2020160000,0.6238725,0.00017968436,0.00022239107,0.78152615,0.9997057,-9.313227e-10,1.3969841e-09,0.024263714,3
2020172000,2020172000,0.6238497,0.00017598516,0.00016266196,0.78154427,0.9997057,-9.313227e-10,1.3969841e-09,0.024263714,3
2020180000,2020180000,0.6238764,0.0001410479,0.00013473425,0.781523,0.9997057,-9.313227e-10,1.3969841e-09,0.024263714,3
2020192000,2020192000,0.62388295,0.00010625989,0.00013135749,0.78151786,0.9997057,-9.313227e-10,1.3969841e-09,0.024263714,3
2020200000,2020200000,0.6238776,0.00011019295,9.637811e-05,0.78152215,0.9997057,-9.313227e-10,1.3969841e-09,0.024263714,3
2020212000,2020212000,0.6239,0.000111764,8.186879e-05,0.7815043,0.9997057,-9.313227e-10,1.3969841e-09,0.024263714,3
2020220000,2020220000,0.6238888,7.141684e-05,8.1678445e-05,0.7815131,0.9997057,-9.313227e-10,1.3969841e-09,0.024263714,3
2020232000,2020232000,0.62387437,1.0621629e-05,7.829774e-05,0.7815246,0.9997057,-9.313227e-10,1.3969841e-09,0.024263714,3
2020240000,2020240000,0.62389416,-3.743996e-05,6.0526938e-05,0.7815088,0.9997057,-9.313227e-10,1.3969841e-09,0.024263714,3
2020252000,2020252000,0.623895,-7.971683e-05,7.660186e-05,0.78150827,0.9997057,-9.313227e-10,1.3969841e-09,0.024263714,3
2020260000,2020260000,0.6238877,-9.761445e-05,9.552528e-05,0.78151405,0.9997057,-9.313227e-10,1.3969841e-09,0.024263714,3
2020272000,2020272000,0.62391764,-0.00017627624,8.016195e-05,0.7814901,0.9997057,-9.313227e-10,1.3969841e-09,0.024263714,3
2020280000,2020280000,0.6239325,-0.0001866523,6.387969e-05,0.7814783,0.9997057,-9.313227e-10,1.3969841e-09,0.024263714,3
2020292000,2020292000,0.623932,-0.0002663085,0.000116949464,0.7814787,0.9997057,-9.313227e-10,1.3969841e-09,0.024263714,3
2020300000,2020300000,0.6239614,-0.0002649903,0.00013300608,0.7814551,0.9997057,-9.313227e-10,1.3969841e-09,0.024263714,3
2020312000,2020312000,0.6239513,-0.0003211264,5.297258e-05,0.78146315,0.9997057,-9.313227e-10,1.3969841e-09,0.024263714,3
2020320000,2020320000,0.6240122,-0.0004000746,6.300556e-05,0.7814145,0.9997057,-9.313227e-10,1.3969841e-09,0.024263714,3
2020332000,2020332000,0.6240371,-0.0003532981,0.00012858165,0.7813946,0.9997057,-9.313227e-10,1.3969841e-09,0.024263714,3
2020340000,2020340000,0.62401056,-0.0002759681,0.00017278992,0.7814158,0.9997057,-9.313227e-10,1.3969841e-09,0.024263714,3
2020352000,2020352000,0.62398607,-0.00029314042,0.00012807541,0.78143543,0.9997057,-9.313227e-10,1.3969841e-09,0.024263714,3
2020360000,2020360000,0.6239688,-0.00031428927,0.00013922763,0.78144926,0.9997057,-9.313227e-10,1.3969841e-09,0.024263714,3
2020372000,2020372000,0.6239489,-0.0003018016,0.00017660699,0.7814652,0.9997057,-9.313227e-10,1.3969841e-09,0.024263714,3
2020380000,2020380000,0.62395954,-0.00032614544,0.00019038272,0.78145665,0.9997057,-9.313227e-10,1.3969841e-09,0.024263714,3
2020392000,2020392000,0.6239764,-0.00033756215,0.00021288058,0.7814431,0.9997057,-9.313227e-10,1.3969841e-09,0.024263714,3
2020400000,2020400000,0.6240279,-0.0003252202,0.00026216928,0.781402,0.9997057,-9.313227e-10,1.3969841e-09,0.024263714,3
2020412000,2020412000,0.6240107,-0.0003477731,0.00029437445,0.7814157,0.9997057,-9.313227e-10,1.3969841e-09,0.024263714,3
2020420000,2020420000,0.62401915,-0.00035986843,0.00031159815,0.78140897,0.9997057,-9.313227e-10,1.3969841e-09,0.024263714,3
2020432000,2020432000,0.6239946,-0.00038148908,0.00024247737,0.7814286,0.9997057,-9.313227e-10,1.3969841e-09,0.024263714,3
2020440000,2020440000,0.6239561,-0.0003720864,0.00016356213,0.78145933,0.9997057,-9.313227e-10,1.3969841e-09,0.024263714,3
2020452000,2020452000,0.62398833,-0.00039520557,0.00014271321,0.7814335,0.9997057,-9.313227e-10,1.3969841e-09,0.024263714,3
2020460000,2020460000,0.6240116,-0.00041093357,0.00016021894,0.781415,0.9997057,-9.313227e-10,1.3969841e-09,0.024263714,3
2020472000,2020472000,0.6240215,-0.0004005501,0.00013247938,0.78140706,0.9997057,-9.313227e-10,1.3969841e-09,0.024263714,3
2020480000,2020480000,0.62402356,-0.00040178045,0.00012620141,0.7814054,0.9997057,-9.313227e-10,1.3969841e-09,0.024263714,3
2020492000,2020492000,0.6240457,-0.00034985467,0.0001818999,0.78138787,0.9997057,-9.313227e-10,1.3969841e-09,0.024263714,3
2020500000,2020500000,0.62405914,-0.00035745025,0.00020936914,0.78137714,0.9997057,-9.313227e-10,1.3969841e-09,0.024263714,3
2020512000,2020512000,0.6241197,-0.0003944338,0.00026113124,0.7813287,0.9997057,-9.313227e-10,1.3969841e-09,0.024263714,3
2020520000,2020520000,0.62412363,-0.00039287,0.000251333,0.7813254,0.9997057,-9.313227e-10,1.3969841e-09,0.024263714,3
2020532000,2020532000,0.6241238,-0.0004034428,0.00026777305,0.78132546,0.9997057,-9.313227e-10,1.3969841e-09,0.024263714,3
2020540000,2020540000,0.62413126,-0.00039476677,0.0002693627,0.7813195,0.9997057,-9.313227e-10,1.3969841e-09,0.024263714,3
2020552000,2020552000,0.6241235,-0.00036239,0.00024131776,0.7813257,0.9997057,-9.313227e-10,1.3969841e-09,0.024263714,3
2020560000,2020560000,0.62412226,-0.0003491419,0.00019565657,0.7813266,0.9997057,-9.313227e-10,1.3969841e-09,0.024263714,3
2020572000,2020572000,0.6241288,-0.0004672968,8.063784e-05,0.7813214,0.9997057,-9.313227e-10,1.3969841e-09,0.024263714,3
2020580000,2020580000,0.6241206,-0.00048063011,1.608164e-05,0.781328,0.9997057,-9.313227e-10,1.3969841e-09,0.024263714,3
2020592000,2020592000,0.6241533,-0.0006154577,-9.286735e-05,0.7813016,0.9997057,-9.313227e-10,1.3969841e-09,0.024263714,3
2020600000,2020600000,0.6241227,-0.00073330867,-0.00017325944,0.781326,0.9997057,-9.313227e-10,1.3969841e-09,0.024263714,3
2020612000,2020612000,0.62409246,-0.0009289382,-0.0004644342,0.7813498,0.9997057,-9.313227e-10,1.3969841e-09,0.024263714,3
2020620000,2020620000,0.62413126,-0.0010826561,-0.0006557938,0.7813185,0.9997057,-9.313227e-10,1.3969841e-09,0.024263714,3
2020632000,2020632000,0.6241254,-0.0013684633,-0.0009782851,0.7813223,0.9997057,-9.313227e-10,1.3969841e-09,0.024263714,3
2020640000,2020640000,0.62410533,-0.0015597615,-0.0012321164,0.7813377,0.9997057,-9.313227e-10,1.3969841e-09,0.024263714,3
2020652000,2020652000,0.6240881,-0.0019495697,-0.0017269138,0.78134966,0.9997057,-9.313227e-10,1.3969841e-09,0.024263714,3
2020660000,2020660000,0.6241011,-0.002266526,-0.002115405,0.78133756,0.9997057,-9.313227e-10,1.3969841e-09,0.024263714,3
2020672000,2020672000,0.62409186,-0.0027975305,-0.0027241453,0.7813412,0.9997057,-9.313227e-10,1.3969841e-09,0.024263714,3
2020680000,2020680000,0.62404144,-0.0032048817,-0.0031683652,0.7813783,0.9997057,-9.313227e-10,1.3969841e-09,0.024263714,3
2020692000,2020692000,0.62403154,-0.0038393056,-0.0038626338,0.7813802,0.9997057,-9.313227e-10,1.3969841e-09,0.024263714,3
2020700000,2020700000,0.62406105,-0.0042903246,-0.0042575607,0.7813522,0.9997057,-9.313227e-10,1.3969841e-09,0.024263714,3
2020712000,2020712000,0.6240844,-0.0050247833,-0.0048771296,0.78132564,0.9997057,-9.313227e-10,1.3969841e-09,0.024263714,3
2020720000,2020720000,0.6240849,-0.005606156,-0.005237935,0.78131884,0.9997057,-9.313227e-10,1.3969841e-09,0.024263714,3
2020732000,2020732000,0.6240718,-0.006471824,-0.0057782945,0.78131896,0.9997057,-9.313227e-10,1.3969841e-09,0.024263714,3
2020740000,2020740000,0.62406886,-0.0070993337,-0.006077521,0.7813135,0.9997057,-9.313227e-10,1.3969841e-09,0.024263714,3
2020752000,2020752000,0.62403405,-0.008099937,-0.0065418044,0.7813278,0.9997057,-9.313227e-10,1.3969841e-09,0.024263714,3
2020760000,2020760000,0.62403375,-0.008803192,-0.0069174035,0.7813173,0.9997057,-9.313227e-10,1.3969841e-09,0.024263714,3
2020772000,2020772000,0.62406796,-0.0099261,-0.007406079,0.78127205,0.9997057,-9.313227e-10,1.3969841e-09,0.024263714,3
2020780000,2020780000,0.6240716,-0.010623485,-0.007707129,0.78125703,0.9997057,-9.313227e-10,1.3969841e-09,0.024263714,3
2020792000,2020792000,0.624046,-0.0116022965,-0.008148064,0.78125894,0.9997057,-9.313227e-10,1.3969841e-09,0.024263714,3
2020800000,2020800000,0.62399936,-0.012165933,-0.008387128,0.7812852,0.9997057,-9.313227e-10,1.3969841e-09,0.024263714,3
2020812000,2020812000,0.6239836,-0.01288981,-0.008662136,0.7812832,0.9997057,-9.313227e-10,1.3969841e-09,0.024263714,3
