timestamp,roll,pitch,yaw,thrust_body[0],thrust_body[1],thrust_body[2],reset_integral
2015920000,-0.0060836375,-0.0062632496,0.00010639429,0.0,0.0,-0.001,0
2015924000,-0.005775939,-0.006223707,0.00022906065,0.0,0.0,-0.001,0
2015936000,-0.0056788325,-0.0061263028,0.00014227629,0.0,0.0,-0.001,0
2015960000,-0.0053433874,-0.005477572,5.0902367e-05,0.0,0.0,-0.001,0
2015980000,-0.0056321193,-0.0062580463,-0.00010472536,0.0,0.0,-0.001,0
2015996000,-0.004852659,-0.006596513,4.2140484e-05,0.0,0.0,-0.001,0
2016020000,-0.0051466953,-0.006581419,-0.00013893843,0.0,0.0,-0.001,0
2016040000,-0.004907794,-0.0063954378,-8.46982e-05,0.0,0.0,-0.001,0
2016060000,-0.004831309,-0.0061457856,-0.00013101101,0.0,0.0,-0.001,0
2016076000,-0.0049142484,-0.0065797744,0.00028288364,0.0,0.0,-0.001,0
2016100000,-0.004829743,-0.0064873053,4.130602e-05,0.0,0.0,-0.001,0
2016120000,-0.0043649245,-0.0065497113,-9.5546246e-05,0.0,0.0,-0.001,0
2016136000,-0.0043886625,-0.0064941254,-3.5464764e-05,0.0,0.0,-0.001,0
2016156000,-0.004926941,-0.0067780716,7.468462e-05,0.0,0.0,-0.001,0
2016180000,-0.0052657877,-0.0071473517,-6.425381e-05,0.0,0.0,-0.001,0
2016196000,-0.0054858667,-0.006670884,6.92606e-05,0.0,0.0,-0.001,0
2016216000,-0.005437116,-0.00690485,-0.00010180473,0.0,0.0,-0.001,0
2016240000,-0.005954488,-0.0067057475,-2.5451183e-05,0.0,0.0,-0.001,0
2016260000,-0.0064326306,-0.0070692217,-0.00016856194,0.0,0.0,-0.001,0
2016280000,-0.006863933,-0.0071752844,0.00023323298,0.0,0.0,-0.001,0
2016300000,-0.00762943,-0.006868993,-0.00020861626,0.0,0.0,-0.001,0
2016320000,-0.0067860237,-0.0061291386,1.6272068e-05,0.0,0.0,-0.001,0
2016336000,-0.007337685,-0.0060492377,-1.50203705e-05,0.0,0.0,-0.001,0
2016360000,-0.0073183826,-0.006120476,6.5505505e-05,0.0,0.0,-0.001,0
2016380000,-0.0071499036,-0.0066704093,0.0001527071,0.0,0.0,-0.001,0
2016400000,-0.006903233,-0.007024387,0.00016605854,0.0,0.0,-0.001,0
2016420000,-0.0064620464,-0.006252462,-4.7147274e-05,0.0,0.0,-0.001,0
2016440000,-0.006933263,-0.006030541,-0.000115573406,0.0,0.0,-0.001,0
2016460000,-0.0071232053,-0.0059297048,-3.2544136e-05,0.0,0.0,-0.001,0
2016480000,-0.007240542,-0.006437719,8.34465e-05,0.0,0.0,-0.001,0
2016500000,-0.0066811405,-0.006739812,-0.00018316507,0.0,0.0,-0.001,0
2016516000,-0.0069690547,-0.0070109926,0.00030374527,0.0,0.0,-0.001,0
2016540000,-0.006761396,-0.007117181,-9.0539455e-05,0.0,0.0,-0.001,0
2016560000,-0.006668681,-0.007190701,-2.0861626e-06,0.0,0.0,-0.001,0
2016580000,-0.007106707,-0.007251932,0.00012767315,0.0,0.0,-0.001,0
2016600000,-0.00683888,-0.0066897464,4.839897e-05,0.0,0.0,-0.001,0
2016620000,-0.0074594296,-0.0071913227,0.00028955936,0.0,0.0,-0.001,0
2016636000,-0.0068745003,-0.007111411,-2.9206276e-05,0.0,0.0,-0.001,0
2016660000,-0.006221988,-0.006706229,-0.00017732382,0.0,0.0,-0.001,0
2016680000,-0.0056453934,-0.0064574964,0.00013309717,0.0,0.0,-0.001,0
2016700000,-0.0061053513,-0.006220969,0.00010514259,0.0,0.0,-0.001,0
2016720000,-0.0054844967,-0.0058942065,0.0001360178,0.0,0.0,-0.001,0
2016740000,-0.0051170764,-0.0063372958,0.00017982721,0.0,0.0,-0.001,0
2016760000,-0.0050470475,-0.0060707917,6.467104e-05,0.0,0.0,-0.001,0
2016780000,-0.0048759175,-0.005774331,-2.3782253e-05,0.0,0.0,-0.001,0
2016800000,-0.0049739145,-0.00574382,1.66893e-05,0.0,0.0,-0.001,0
2016820000,-0.004919787,-0.005070423,-5.966425e-05,0.0,0.0,-0.001,0
2016840000,-0.005514389,-0.0043792026,1.835823e-05,0.0,0.0,-0.001,0
2016856000,-0.0060410383,-0.004667244,3.7550926e-05,0.0,0.0,-0.001,0
2016880000,-0.006732734,-0.005586434,6.3836575e-05,0.0,0.0,-0.001,0
2016900000,-0.006605887,-0.0050522685,0.00029665232,0.0,0.0,-0.001,0
2016916000,-0.007207194,-0.004508807,-0.0001322627,0.0,0.0,-0.001,0
2016936000,-0.019737963,0.005021063,-6.0081482e-05,0.0,0.0,-0.008237185,0
2016960000,-0.021252358,0.0055177915,0.00037384033,0.0,0.0,-0.011300942,0
2016980000,-0.023949776,0.005106447,0.00037008524,0.0,0.0,-0.013070267,0
2016996000,-0.023585552,0.004756078,0.0004297495,0.0,0.0,-0.015281349,0
2017020000,-0.01804429,0.0049161958,0.00036633015,0.0,0.0,-0.018728012,0
2017036000,-0.017844336,0.004401588,0.0002695322,0.0,0.0,-0.020776538,0
2017060000,-0.024295907,0.0040445365,0.00015604496,0.0,0.0,-0.024232998,0
2017080000,-0.027560286,-0.0008516299,-0.000107228756,0.0,0.0,-0.027638573,0
2017100000,-0.027297651,-0.001066471,-0.00039303303,0.0,0.0,-0.030041099,0
2017120000,-0.023018993,-0.0032795996,-0.00016480684,0.0,0.0,-0.033979677,0
2017140000,-0.019697718,0.00018950217,-0.00019025803,0.0,0.0,-0.036544513,0
2017156000,-0.02300834,0.0029184532,-0.00071012974,0.0,0.0,-0.03900808,0
2017176000,-0.022462625,0.0069803568,-0.00049233437,0.0,0.0,-0.042847313,0
2017200000,-0.025806341,0.0038436097,-0.00013184547,0.0,0.0,-0.047153737,0
2017220000,-0.02753203,0.0004992379,-0.00054323673,0.0,0.0,-0.049828403,0
2017236000,-0.027730279,-0.0005048611,-0.00058078766,0.0,0.0,-0.052687455,0
2017260000,-0.026990991,-0.0052092895,-0.0003734231,0.0,0.0,-0.05728125,0
2017280000,-0.02737955,-0.0052231373,-0.0007547736,0.0,0.0,-0.061661117,0
2017296000,-0.025364751,-0.0062309084,-0.00026994944,0.0,0.0,-0.064629175,0
2017320000,-0.027994309,-0.0060355817,-0.00049316883,0.0,0.0,-0.06944958,0
2017336000,-0.02889336,-0.0045554643,-0.00055867434,0.0,0.0,-0.072513476,0
2017356000,-0.032707095,-0.0053770486,-0.0009058118,0.0,0.0,-0.07574728,0
2017380000,-0.02742334,-0.0051325713,-0.0011874437,0.0,0.0,-0.08048714,0
2017400000,-0.029289562,-0.008897633,-0.0013902187,0.0,0.0,-0.08552984,0
2017420000,-0.030363867,-0.008887124,-0.0017018914,0.0,0.0,-0.08906218,0
2017436000,-0.02955633,-0.0069892076,-0.0013902187,0.0,0.0,-0.0923361,0
2017456000,-0.028299361,-0.008297915,-0.0011999607,0.0,0.0,-0.09754934,0
2017480000,-0.029498084,-0.0041103503,-0.0011836886,0.0,0.0,-0.103004225,0
2017500000,-0.029262658,-0.0014468404,-0.0013380647,0.0,0.0,-0.10692569,0
2017520000,-0.031170392,-0.0013234711,-0.0013434887,0.0,0.0,-0.11254488,0
2017540000,-0.03185504,0.0019056358,-0.001222074,0.0,0.0,-0.11628739,0
2017560000,-0.034913916,0.005045718,-0.0010581017,0.0,0.0,-0.122117445,0
2017576000,-0.038477886,0.003596235,-0.0013989806,0.0,0.0,-0.12597173,0
2017600000,-0.04397615,0.004630783,-0.001020968,0.0,0.0,-0.13172857,0
2017620000,-0.042986892,0.003427811,-0.00035715103,0.0,0.0,-0.13545783,0
2017636000,-0.038269926,0.00333908,-0.00019317865,0.0,0.0,-0.139381,0
2017656000,-0.035579808,0.00043518504,-2.169609e-05,0.0,0.0,-0.14533526,0
2017680000,-0.033137053,-0.0025032891,-0.00013434887,0.0,0.0,-0.15131982,0
2017700000,-0.033914447,-0.0008270466,5.298853e-05,0.0,0.0,-0.15544441,0
2017720000,-0.035745546,-0.0033955795,0.00019818544,0.0,0.0,-0.1620907,0
2017740000,-0.03597256,-0.002032044,0.00054240227,0.0,0.0,-0.1662778,0
2017756000,-0.034372028,-0.00010724587,0.00061792135,0.0,0.0,-0.17048179,0
2017776000,-0.0349612,0.001392037,0.00044184923,0.0,0.0,-0.17724387,0
2017800000,-0.03368044,0.00072800147,0.0012337565,0.0,0.0,-0.18412267,0
2017820000,-0.028585032,-1.7724931e-05,0.0009921789,0.0,0.0,-0.18845694,0
2017840000,-0.029612578,-0.00056180754,0.0011907816,0.0,0.0,-0.19556753,0
2017856000,-0.03374367,0.0022437866,0.0014603138,0.0,0.0,-0.20028941,0
2017880000,-0.03642845,0.0028938558,0.001532495,0.0,0.0,-0.20771535,0
2017900000,-0.037251778,0.0027060397,0.0016263723,0.0,0.0,-0.21244307,0
2017920000,-0.03687655,0.0073177735,0.001975596,0.0,0.0,-0.22003053,0
2017940000,-0.03884603,0.005360817,0.002201736,0.0,0.0,-0.22487597,0
2017960000,-0.04008309,0.0033520672,-3.7550926e-06,0.0,0.0,-0.2323033,0
2017976000,-0.03910247,0.0018279178,2.6285648e-05,0.0,0.0,-0.23746677,0
2018000000,-0.042260773,0.0030645283,9.8884106e-05,0.0,0.0,-0.24527015,0
2018020000,-0.040056158,0.0010257468,-7.3850155e-05,0.0,0.0,-0.25057137,0
2018036000,-0.04141008,0.0010559871,2.4616718e-05,0.0,0.0,-0.25576845,0
2018056000,-0.044223227,-0.0013231338,-5.966425e-05,0.0,0.0,-0.2637771,0
2018080000,-0.04054043,-0.0023572666,0.000116825104,0.0,0.0,-0.27169642,0
2018100000,-0.042304933,-0.00055169326,-6.3836575e-05,0.0,0.0,-0.2769861,0
2018116000,-0.04483305,6.388058e-05,-2.503395e-06,0.0,0.0,-0.28263104,0
2018140000,-0.042421296,-0.0032431392,2.9206276e-06,0.0,0.0,-0.29062504,0
2018160000,-0.04129451,-0.0015837261,5.841255e-06,0.0,0.0,-0.29909796,0
2018176000,-0.04188468,-0.00017925678,6.133318e-05,0.0,0.0,-0.30476782,0
2018200000,-0.042034548,0.00044324587,-7.927418e-06,0.0,0.0,-0.31316444,0
2018216000,-0.04209316,0.0012604363,-9.2208385e-05,0.0,0.0,-0.31899548,0
2018236000,-0.040726393,0.0034859008,0.00013309717,0.0,0.0,-0.32311106,0
2018256000,-0.039564922,0.0030759857,8.761883e-06,0.0,0.0,-0.32525736,0
2018276000,-0.040355347,0.003478597,9.3877316e-05,0.0,0.0,-0.3269686,0
2018300000,-0.043954812,-0.00014268095,-5.8829784e-05,0.0,0.0,-0.32930955,0
2018320000,-0.044972405,0.004414634,1.7523766e-05,0.0,0.0,-0.3309033,0
2018340000,-0.04896064,0.0055413637,-6.3836575e-05,0.0,0.0,-0.333289,0
2018360000,-0.04720818,0.004625775,-0.00017815828,0.0,0.0,-0.33478078,0
2018380000,-0.045651264,0.002949646,-0.0003016591,0.0,0.0,-0.33681512,0
2018396000,-0.045945764,0.003520945,0.00021111965,0.0,0.0,-0.33849868,0
2018416000,-0.046995334,-0.0001417126,-7.343292e-05,0.0,0.0,-0.3412079,0
2018436000,-0.046558388,-0.0026375693,-0.00012558699,0.0,0.0,-0.3429816,0
2018456000,-0.04162313,0.0006195181,8.010864e-05,0.0,0.0,-0.3454953,0
2018476000,-0.041462928,0.00038220594,5.173683e-05,0.0,0.0,-0.3469034,0
2018500000,-0.04402744,0.00021070079,-0.0001013875,0.0,0.0,-0.3496552,0
2018516000,-0.04418848,0.0023941493,2.8789043e-05,0.0,0.0,-0.35120985,0
2018536000,-0.04343333,0.005889471,0.00013309717,0.0,0.0,-0.3540845,0
2018560000,-0.04547994,0.0063084885,-2.5868416e-05,0.0,0.0,-0.355802,0
2018576000,-0.04529904,0.0073731663,9.471178e-05,0.0,0.0,-0.35841233,0
2018600000,-0.04554098,0.010843464,0.00019651651,0.0,0.0,-0.35992405,0
2018620000,-0.045037083,0.011425689,0.00017565489,0.0,0.0,-0.36265305,0
2018640000,-0.046175662,0.011627057,0.00013977289,0.0,0.0,-0.36470821,0
2018660000,-0.04822119,0.013328938,3.671646e-05,0.0,0.0,-0.36761585,0
2018680000,-0.046475142,0.015567223,8.302927e-05,0.0,0.0,-0.36943185,0
2018700000,-0.046532657,0.017093487,0.00027620792,0.0,0.0,-0.372197,0
2018716000,-0.043762032,0.015684865,-8.678436e-05,0.0,0.0,-0.37392798,0
2018740000,-0.043692898,0.018037513,-0.00018274784,0.0,0.0,-0.3773268,0
2018760000,-0.04221861,0.013363393,0.00017273426,0.0,0.0,-0.37911668,0
2018776000,-0.043963287,0.014881202,2.5451183e-05,0.0,0.0,-0.3821629,0
2018800000,-0.04779082,0.012585336,1.001358e-05,0.0,0.0,-0.38430983,0
2018820000,-0.04336739,0.013823157,0.00019526482,0.0,0.0,-0.38738444,0
2018840000,-0.042427856,0.0123705985,0.00018775463,0.0,0.0,-0.38931355,0
2018860000,-0.04256892,0.013697586,2.4616718e-05,0.0,0.0,-0.3925091,0
2018880000,-0.043108292,0.015680108,-3.3795834e-05,0.0,0.0,-0.3940794,0
2018900000,-0.045507155,0.01670172,-0.00012809038,0.0,0.0,-0.3972598,0
2018920000,-0.04408866,0.016178114,-9.179115e-06,0.0,0.0,-0.39943275,0
2018940000,-0.04364789,0.016850244,-6.508827e-05,0.0,0.0,-0.4028903,0
2018960000,-0.04790751,0.018793838,0.00014978647,0.0,0.0,-0.4046611,0
2018976000,-0.047241565,0.013750957,3.504753e-05,0.0,0.0,-0.4081699,0
2019000000,-0.0470413,0.015021088,2.7120113e-05,0.0,0.0,-0.40992206,0
2019016000,-0.047272682,0.016215596,-1.50203705e-05,0.0,0.0,-0.4134084,0
2019036000,-0.049613543,0.016267061,-1.3768673e-05,0.0,0.0,-0.4152117,0
2019056000,-0.050701704,0.015597558,-0.00015896559,0.0,0.0,-0.41926935,0
2019080000,-0.049714793,0.016305495,0.00022029877,0.0,0.0,-0.42121345,0
2019100000,-0.054042704,0.015710732,4.506111e-05,0.0,0.0,-0.42502245,0
2019120000,-0.057046447,0.015666138,0.00019860268,0.0,0.0,-0.42692536,0
2019136000,-0.05473149,0.01666585,-2.4199486e-05,0.0,0.0,-0.43043038,0
2019160000,-0.055215742,0.017208347,5.173683e-05,0.0,0.0,-0.43256918,0
2019176000,-0.056010254,0.016239196,0.00012725592,0.0,0.0,-0.43594587,0
2019200000,-0.056343462,0.016062759,0.00010931492,0.0,0.0,-0.43812883,0
2019220000,-0.056810804,0.018208493,-0.00010097027,0.0,0.0,-0.44191077,0
2019240000,-0.05585833,0.01648023,6.425381e-05,0.0,0.0,-0.44361418,0
2019260000,-0.055028237,0.016794816,-2.3782253e-05,0.0,0.0,-0.44735354,0
2019280000,-0.05371692,0.016534407,-0.00014603138,0.0,0.0,-0.44940758,0
2019300000,-0.053170756,0.018222868,0.00017648935,0.0,0.0,-0.453353,0
2019320000,-0.053506125,0.017715406,2.8371811e-05,0.0,0.0,-0.45556164,0
2019340000,-0.055025484,0.019494312,0.00017732382,0.0,0.0,-0.45950368,0
2019360000,-0.052724637,0.018979738,2.2113323e-05,0.0,0.0,-0.46142706,0
2019380000,-0.053256292,0.018528037,0.00036883354,0.0,0.0,-0.46553254,0
2019400000,-0.055768635,0.021038428,0.00021904707,0.0,0.0,-0.4674703,0
2019420000,-0.057189513,0.023844367,0.00019234419,0.0,0.0,-0.4715426,0
2019436000,-0.056039147,0.026807118,-0.0001013875,0.0,0.0,-0.47304007,0
2019460000,-0.052356943,0.025511134,0.0001860857,0.0,0.0,-0.47749367,0
2019480000,-0.054218926,0.024977773,0.00022029877,0.0,0.0,-0.47966358,0
2019500000,-0.057209194,0.024101626,8.761883e-05,0.0,0.0,-0.48389098,0
2019520000,-0.05706902,0.022904053,8.0525875e-05,0.0,0.0,-0.4860531,0
2019540000,-0.05510756,0.024616517,0.00013267994,0.0,0.0,-0.4904136,0
2019560000,-0.05589464,0.022310285,2.503395e-05,0.0,0.0,-0.49249977,0
2019580000,-0.05584815,0.02390644,0.0004017949,0.0,0.0,-0.49696705,0
2019596000,-0.053786572,0.029740762,0.00060623884,0.0,0.0,-0.4986704,0
2019620000,-0.055046957,0.028174274,8.2194805e-05,0.0,0.0,-0.50372756,0
2019636000,-0.05282545,0.026916493,-0.00019192696,0.0,0.0,-0.50550246,0
2019660000,-0.055173796,0.02732633,8.636713e-05,0.0,0.0,-0.51073235,0
2019680000,-0.056285467,0.027113661,0.0001001358,0.0,0.0,-0.51296026,0
2019700000,-0.05384086,0.029898109,0.00032919645,0.0,0.0,-0.51738286,0
2019720000,-0.054938763,0.027952518,0.00012683868,0.0,0.0,-0.519406,0
2019740000,-0.057406202,0.028842105,8.428097e-05,0.0,0.0,-0.52381235,0
2019760000,-0.055821672,0.032595184,0.0001835823,0.0,0.0,-0.52595407,0
2019780000,-0.0589778,0.03230703,3.33786e-06,0.0,0.0,-0.5305552,0
2019796000,-0.059307355,0.031719837,0.0003554821,0.0,0.0,-0.53244483,0
2019820000,-0.057848927,0.03238812,0.000495255,0.0,0.0,-0.5375366,0
2019840000,-0.056152802,0.03200346,0.00012516975,0.0,0.0,-0.5395815,0
2019860000,-0.057035305,0.032284513,4.464388e-05,0.0,0.0,-0.5441569,0
2019876000,-0.05906909,0.031139757,0.00030708313,0.0,0.0,-0.5457644,0
2019900000,-0.062185306,0.03598655,0.0001360178,0.0,0.0,-0.5512759,0
2019920000,-0.06495748,0.039200127,0.000115156174,0.0,0.0,-0.5536576,0
2019940000,-0.061870504,0.03794321,0.0004068017,0.0,0.0,-0.58395594,0
2019960000,-0.06432742,0.034404043,0.00034046173,0.0,0.0,-0.5863929,0
2019980000,-0.06649603,0.033265907,4.2557716e-05,0.0,0.0,-0.59128964,0
2020000000,-0.06624938,0.03206513,0.00014853477,0.0,0.0,-0.5935585,0
2020020000,-0.06820181,0.033894643,0.0002824664,0.0,0.0,-0.598627,0
2020040000,-0.06642709,0.035587095,0.0001001358,0.0,0.0,-0.60073376,0
2020060000,-0.061720084,0.035078418,0.00016981363,0.0,0.0,-0.60590816,0
2020080000,-0.05718828,0.040313136,6.5505505e-05,0.0,0.0,-0.6086315,0
2020100000,-0.058370356,0.04082693,0.00011181831,0.0,0.0,-0.61372405,0
2020116000,-0.0558843,0.04131029,-7.8856945e-05,0.0,0.0,-0.61559063,0
2020140000,-0.059546757,0.043662857,-8.2194805e-05,0.0,0.0,-0.6216976,0
2020160000,-0.05989293,0.03999747,0.0001860857,0.0,0.0,-0.6240974,0
2020176000,-0.05979425,0.042977594,0.00022906065,0.0,0.0,-0.62959486,0
2020196000,-0.061273903,0.04118291,0.00019192696,0.0,0.0,-0.63149065,0
2020216000,-0.0637122,0.039460264,0.00021570921,0.0,0.0,-0.637363,0
2020240000,-0.060766187,0.03994675,0.00029248,0.0,0.0,-0.63957167,0
2020256000,-0.061219722,0.04272423,0.00021404028,0.0,0.0,-0.64509004,0
2020280000,-0.058789052,0.042362314,0.00024658442,0.0,0.0,-0.647589,0
2020296000,-0.06255468,0.038584333,0.00032126904,0.0,0.0,-0.6530359,0
2020320000,-0.06280083,0.039893284,0.0005198717,0.0,0.0,-0.6554429,0
2020340000,-0.0654339,0.040552896,4.339218e-05,0.0,0.0,-0.6611425,0
2020360000,-0.066196874,0.041053332,0.00025701523,0.0,0.0,-0.66383076,0
2020380000,-0.06567925,0.03888019,0.00030374527,0.0,0.0,-0.66955817,0
2020400000,-0.066665605,0.035769157,0.0003400445,0.0,0.0,-0.67237896,0
2020416000,-0.06694831,0.03484264,0.00031501055,0.0,0.0,-0.6779684,0
2020440000,-0.06420396,0.034962114,5.00679e-06,0.0,0.0,-0.68041474,0
2020460000,-0.060666382,0.035865724,0.00036382675,0.0,0.0,-0.68625516,0
2020476000,-0.05815849,0.03395684,0.000202775,0.0,0.0,-0.6880413,0
2020500000,-0.056166094,0.038150854,0.0002874732,0.0,0.0,-0.6945694,0
2020516000,-0.055711076,0.038850904,0.00028914213,0.0,0.0,-0.6963202,0
2020536000,-0.059517913,0.037969276,0.00026369095,0.0,0.0,-0.70289564,0
2020560000,-0.057267655,0.04040854,0.00021404028,0.0,0.0,-0.70498514,0
2020576000,-0.05382229,0.03894911,0.00013184547,0.0,0.0,-0.7104646,0
2020596000,-0.051562455,0.03567095,0.00017356873,0.0,0.0,-0.711208,0
2020620000,-0.044749204,0.03607362,0.00048190355,0.0,0.0,-0.7168184,0
2020640000,-0.037884526,0.033497415,0.00012141466,0.0,0.0,-0.7183396,0
2020660000,-0.030965198,0.031708382,0.0003233552,0.0,0.0,-0.72335577,0
2020680000,-0.015205041,0.03380161,0.000102221966,0.0,0.0,-0.72385335,0
2020700000,0.00058050454,0.033387728,0.0005119443,0.0,0.0,-0.72854334,0
2020720000,0.018665764,0.027023863,0.00030750036,0.0,0.0,-0.7288975,0
2020740000,0.034089938,0.020504527,0.00022989511,0.0,0.0,-0.73403966,0
2020760000,0.056202903,0.013323557,0.00014603138,0.0,0.0,-0.7342961,0
2020780000,0.07433159,0.008118905,0.00019776821,0.0,0.0,-0.73863494,0
2020800000,0.09296201,0.0031398833,-8.803606e-05,0.0,0.0,-0.73757267,0
2020820000,0.10801487,-0.0059688985,0.00011473894,0.0,0.0,-0.74184734,0
2020840000,0.12197256,-0.018438004,-0.00017440319,0.0,0.0,-0.7403818,0
2020860000,0.13424084,-0.02860254,-0.00025492907,0.0,0.0,-0.7445104,0
2020880000,0.14872551,-0.036333777,-0.0002603531,0.0,0.0,-0.74251395,0
2020900000,0.15576774,-0.043837138,-0.00044894218,0.0,0.0,-0.7463855,0
2020920000,0.16824332,-0.052213438,-0.0005540848,0.0,0.0,-0.7443038,0
2020940000,0.1733952,-0.055787545,-0.00035965443,0.0,0.0,-0.74811363,0
2020960000,0.17849551,-0.05833327,-0.00065380335,0.0,0.0,-0.7455486,0
2020980000,0.18028305,-0.06385292,-0.0008136034,0.0,0.0,-0.7493501,0
2021000000,0.18701056,-0.06611637,-0.00052154064,0.0,0.0,-0.7467369,0
2021020000,0.18804593,-0.07100091,-0.00039803982,0.0,0.0,-0.75057983,0
2021036000,0.1891649,-0.0734374,-0.0005528331,0.0,0.0,-0.74894655,0
2021060000,0.18947962,-0.072206944,-0.00060749054,0.0,0.0,-0.75171196,0
2021080000,0.18662553,-0.07219823,-0.00035256147,0.0,0.0,-0.74884677,0
2021096000,0.18794894,-0.07150712,-5.7578087e-05,0.0,0.0,-0.75248796,0
2021120000,0.1838787,-0.07462071,-0.00011765957,0.0,0.0,-0.7492067,0
2021140000,0.17942242,-0.07163179,-0.00012975931,0.0,0.0,-0.7529337,0
2021156000,0.176854,-0.0715427,-0.0002374053,0.0,0.0,-0.7508299,0
2021180000,0.17077091,-0.06974135,-0.0002232194,0.0,0.0,-0.7535688,0
2021200000,0.16407862,-0.06624316,-9.596348e-05,0.0,0.0,-0.7499998,0
2021220000,0.16259663,-0.064891964,-1.001358e-05,0.0,0.0,-0.75405616,0
2021240000,0.15207867,-0.06360233,0.00032418966,0.0,0.0,-0.75042933,0
2021260000,0.1445442,-0.062087826,2.2947788e-05,0.0,0.0,-0.75457484,0
2021280000,0.13742945,-0.06354508,0.0003387928,0.0,0.0,-0.75107527,0
2021300000,0.13117331,-0.063297935,0.00067716837,0.0,0.0,-0.7555051,0
2021320000,0.13186394,-0.060628958,0.000500679,0.0,0.0,-0.7520504,0
2021340000,0.12655197,-0.057724535,0.00056785345,0.0,0.0,-0.7561424,0
2021360000,0.11774388,-0.053095393,0.00042390823,0.0,0.0,-0.75224733,0
2021380000,0.112334974,-0.052354027,0.00016272068,0.0,0.0,-0.7534084,0
2021400000,0.10543385,-0.045930386,0.00042390823,0.0,0.0,-0.74562883,0
2021420000,0.09964318,-0.038742498,0.00012516975,0.0,0.0,-0.74427813,0
2021436000,0.096281834,-0.038734023,0.00022447109,0.0,0.0,-0.73762715,0
2021460000,0.091157906,-0.041610822,0.00038802624,0.0,0.0,-0.7340924,0
2021480000,0.08992941,-0.037943818,0.00040596724,0.0,0.0,-0.72648627,0
2021500000,0.08655727,-0.039400022,0.00022614002,0.0,0.0,-0.72715026,0
2021520000,0.07935844,-0.037904847,0.00021529198,0.0,0.0,-0.7238801,0
2021540000,0.074890934,-0.03717243,0.00043350458,0.0,0.0,-0.7280488,0
2021560000,0.06843742,-0.03356111,0.00040262938,0.0,0.0,-0.72509617,0
2021576000,0.07110898,-0.03314818,0.00026494265,0.0,0.0,-0.72956717,0
2021600000,0.068664,-0.030057086,0.00030249357,0.0,0.0,-0.72692955,0
2021620000,0.065892845,-0.028824512,0.00037050247,0.0,0.0,-0.731182,0
2021640000,0.06790016,-0.031707622,0.00049233437,0.0,0.0,-0.72533464,0
2021660000,0.0668657,-0.029323816,0.00033712387,0.0,0.0,-0.72396797,0
2021680000,0.064837456,-0.027096314,0.0003066659,0.0,0.0,-0.7173837,0
2021700000,0.06469986,-0.024256658,0.0005482435,0.0,0.0,-0.7223691,0
2021716000,0.06511935,-0.024726054,0.0006996989,0.0,0.0,-0.71839863,0
2021740000,0.06452131,-0.024889214,0.00022572279,0.0,0.0,-0.7230583,0
2021760000,0.060025986,-0.024730738,6.133318e-05,0.0,0.0,-0.71850497,0
2021780000,0.05805528,-0.0268257,0.000351727,0.0,0.0,-0.724066,0
2021800000,0.05703052,-0.023226537,0.00028914213,0.0,0.0,-0.7193992,0
2021816000,0.05897118,-0.025457874,0.00046229362,0.0,0.0,-0.7247637,0
2021840000,0.053737283,-0.022736039,0.00030124187,0.0,0.0,-0.72002333,0
2021860000,0.05143544,-0.022484992,0.00054115057,0.0,0.0,-0.72538954,0
2021876000,0.048825674,-0.018593326,0.0003784299,0.0,0.0,-0.72110623,0
2021900000,0.04660136,-0.019535393,0.00037884712,0.0,0.0,-0.72574514,0
2021916000,0.043411873,-0.016216181,-4.172325e-06,0.0,0.0,-0.72148865,0
2021940000,0.04679925,-0.017806228,9.179115e-06,0.0,0.0,-0.7256523,0
2021960000,0.0418599,-0.021273404,0.00041598082,0.0,0.0,-0.7205989,0
2021980000,0.04228671,-0.017671429,-6.258488e-05,0.0,0.0,-0.7253688,0
2021996000,0.043155205,-0.012835927,5.173683e-05,0.0,0.0,-0.7212661,0
2022016000,0.041682225,-0.016249761,0.00016105175,0.0,0.0,-0.7255543,0
2022040000,0.04153613,-0.016474951,0.000220716,0.0,0.0,-0.72074705,0
2022060000,0.04135713,-0.014884282,2.1278858e-05,0.0,0.0,-0.72572285,0
2022080000,0.037566848,-0.013268866,0.00019818544,0.0,0.0,-0.72080404,0
2022100000,0.03425409,-0.014309183,0.00039052963,0.0,0.0,-0.72570515,0
2022120000,0.031437114,-0.017284978,0.00014686584,0.0,0.0,-0.7206689,0
2022140000,0.031342648,-0.015049826,1.2516975e-06,0.0,0.0,-0.72540796,0
2022160000,0.033710256,-0.013569526,0.0002553463,0.0,0.0,-0.7205325,0
2022180000,0.032923292,-0.011169154,0.00012099743,0.0,0.0,-0.7251771,0
2022200000,0.028914921,-0.0055098496,0.00014394522,0.0,0.0,-0.71994066,0
2022220000,0.02873955,-0.0037411414,0.00035339594,0.0,0.0,-0.72487813,0
2022240000,0.023275133,-0.0062435046,3.796816e-05,0.0,0.0,-0.7197917,0
2022260000,0.02418563,-0.009850878,-0.00017231703,0.0,0.0,-0.7245281,0
2022280000,0.024823306,-0.010365691,0.00020444393,0.0,0.0,-0.71912336,0
2022296000,0.023490045,-0.0066325366,5.7160854e-05,0.0,0.0,-0.72362393,0
2022320000,0.01809623,-0.00751099,-1.2516975e-06,0.0,0.0,-0.71853966,0
2022340000,0.016571028,-0.006672792,0.00048315525,0.0,0.0,-0.7234841,0
2022360000,0.009664284,-0.0040630177,3.0040741e-05,0.0,0.0,-0.718435,0
2022376000,0.006489942,-0.0047444515,-5.5909157e-05,0.0,0.0,-0.7230569,0
2022400000,0.0035640635,-0.0009914078,-9.971857e-05,0.0,0.0,-0.717804,0
2022420000,0.0053069815,-0.0029613413,0.000108897686,0.0,0.0,-0.7224896,0
2022440000,0.00048455782,-0.003053937,2.503395e-05,0.0,0.0,-0.7175676,0
2022460000,0.0023970641,-0.00048088655,-8.8870525e-05,0.0,0.0,-0.72192377,0
2022476000,0.0036604237,-0.00026139617,1.168251e-05,0.0,0.0,-0.7177891,0
2022500000,0.0062008575,-0.006017536,-0.000105559826,0.0,0.0,-0.72155046,0
2022520000,0.006875895,-0.0046158284,-5.340576e-05,0.0,0.0,-0.71665883,0
2022536000,0.0027689505,-0.005564358,2.4199486e-05,0.0,0.0,-0.72118276,0
2022556000,0.0043205786,-0.0061715394,0.00016981363,0.0,0.0,-0.71745557,0
2022580000,0.0083420575,-0.007681329,0.0003629923,0.0,0.0,-0.7212889,0
2022596000,0.009419836,-0.0035751723,0.00020110607,0.0,0.0,-0.71703064,0
2022620000,0.007439116,-0.004929222,0.00037550926,0.0,0.0,-0.7207175,0
2022640000,0.009860259,0.0006283149,8.803606e-05,0.0,0.0,-0.7156286,0
2022656000,0.010703376,0.0006831959,-6.258488e-05,0.0,0.0,-0.7203256,0
2022680000,0.013458159,0.000111263245,2.0861626e-05,0.0,0.0,-0.71524614,0
2022700000,0.011340141,0.0034758411,6.67572e-05,0.0,0.0,-0.7198203,0
2022720000,0.0064252317,0.0041444525,0.00013101101,0.0,0.0,-0.71482056,0
2022740000,0.010912836,0.0033331811,-4.0888786e-05,0.0,0.0,-0.7191432,0
2022760000,0.007478468,0.006618332,-9.971857e-05,0.0,0.0,-0.7141945,0
2022776000,0.006727457,0.006314248,-8.7201595e-05,0.0,0.0,-0.71859586,0
2022800000,-0.0007607639,0.0060645416,-0.00016313791,0.0,0.0,-0.7136192,0
2022816000,0.0011059046,0.010488413,-0.00017565489,0.0,0.0,-0.71816975,0
2022836000,0.0009983089,0.011332007,8.928776e-05,0.0,0.0,-0.7143654,0
2022860000,0.0011932515,0.013364876,-0.0002757907,0.0,0.0,-0.71799976,0
2022880000,0.0003566295,0.011694366,2.7954578e-05,0.0,0.0,-0.7132432,0
2022896000,-0.0019149855,0.008431796,-0.000100553036,0.0,0.0,-0.71765906,0
2022920000,-0.0018862225,0.0072803516,-0.0002782941,0.0,0.0,-0.7131895,0
2022940000,-0.0030396543,0.0062201284,0.00021195412,0.0,0.0,-0.7174139,0
2022960000,-0.007295193,0.00057149306,-0.00012850761,0.0,0.0,-0.713142,0
2022976000,-0.0038643572,0.00059797615,8.845329e-05,0.0,0.0,-0.7177173,0
2023000000,0.0055728424,0.0016831271,-0.000120162964,0.0,0.0,-0.7135024,0
2023016000,0.0037759244,-0.0018359255,-0.00016731024,0.0,0.0,-0.7177665,0
2023040000,0.0059331264,-0.0006313715,-0.00015312433,0.0,0.0,-0.71321094,0
2023060000,0.003044106,-0.0015724786,-2.6285648e-05,0.0,0.0,-0.7170158,0
2023080000,-0.0011322554,-0.0003171917,-8.34465e-05,0.0,0.0,-0.712519,0
2023100000,-0.003866259,0.0033478402,4.339218e-05,0.0,0.0,-0.71694946,0
2023120000,-0.0003581941,0.0005247388,-0.00013810396,0.0,0.0,-0.71276015,0
2023140000,0.0015882663,0.001064416,0.000118494034,0.0,0.0,-0.7169454,0
2023160000,0.0011202935,-0.00010437891,-8.3863735e-05,0.0,0.0,-0.71264976,0
2023180000,0.0012474991,0.0025683418,-0.00031375885,0.0,0.0,-0.7169802,0
2023196000,-0.00025461148,3.186986e-05,-0.00011473894,0.0,0.0,-0.71328986,0
2023220000,-0.0047514904,-0.0008902978,0.00017273426,0.0,0.0,-0.71657217,0
2023236000,-0.0037899604,0.00041375682,5.632639e-05,0.0,0.0,-0.7128428,0
2023260000,-0.00368122,0.0027868096,0.00017523766,0.0,0.0,-0.7159239,0
2023280000,-0.0053537255,0.00042199902,-0.0001860857,0.0,0.0,-0.7114728,0
2023300000,-0.011199068,-0.002345726,-0.0001885891,0.0,0.0,-0.7152527,0
2023320000,-0.0147630125,-0.00023071654,0.0001205802,0.0,0.0,-0.7105495,0
2023340000,-0.018275723,-0.00053981505,0.00014060736,0.0,0.0,-0.71457654,0
2023360000,-0.013570825,0.0010231435,-0.0001693964,0.0,0.0,-0.71015453,0
2023376000,-0.012546429,0.00094031356,-0.0001718998,0.0,0.0,-0.71427894,0
2023396000,-0.011498804,0.005027745,-0.0004944205,0.0,0.0,-0.710572,0
2023420000,-0.008622485,0.003674129,7.0512295e-05,0.0,0.0,-0.71411246,0
2023436000,-0.0072101234,0.005719127,-0.0003684163,0.0,0.0,-0.7106726,0
2023460000,-0.01097178,0.0038776454,-0.00026535988,0.0,0.0,-0.7139485,0
2023480000,-0.009229658,0.0009386437,4.798174e-05,0.0,0.0,-0.709382,0
2023500000,-0.0077733696,-0.00094626937,-6.759167e-05,0.0,0.0,-0.71313626,0
2023520000,-0.010453865,-0.00010490883,4.8816204e-05,0.0,0.0,-0.70873487,0
2023540000,-0.010225328,0.0015525734,0.00017982721,0.0,0.0,-0.71269995,0
2023560000,-0.009348271,0.0023407694,8.0525875e-05,0.0,0.0,-0.7086782,0
2023576000,-0.011987469,0.0038344846,0.0001706481,0.0,0.0,-0.7126205,0
2023596000,-0.0106935585,0.004385619,-9.596348e-05,0.0,0.0,-0.70930916,0
2023620000,-0.0041261995,-0.00032176357,5.0485134e-05,0.0,0.0,-0.71236086,0
2023640000,-0.004949886,0.008774069,0.00019025803,0.0,0.0,-0.7081893,0
2023660000,-0.0038237632,0.0077487146,0.00033545494,0.0,0.0,-0.712028,0
2023676000,-0.0039279247,0.008919699,0.00019443035,0.0,0.0,-0.7086484,0
2023700000,-0.005820259,0.010712316,0.00027871132,0.0,0.0,-0.71194863,0
2023720000,-0.008963706,0.010218964,0.00017899275,0.0,0.0,-0.70840687,0
2023740000,-0.005121712,0.014075885,0.00029039383,0.0,0.0,-0.71193874,0
2023760000,-0.0060217325,0.014234563,4.339218e-05,0.0,0.0,-0.70782125,0
2023780000,-0.005010104,0.010607312,0.00022864342,0.0,0.0,-0.7113635,0
2023800000,-0.0035668549,0.014340506,-8.34465e-07,0.0,0.0,-0.707271,0
2023820000,-0.006824161,0.011793667,-0.00019943714,0.0,0.0,-0.7107977,0
2023840000,-0.0071946345,0.0042009903,-3.7550926e-05,0.0,0.0,-0.7070867,0
2023860000,-0.007404065,0.00423811,-1.835823e-05,0.0,0.0,-0.7107617,0
2023880000,-0.0067397594,0.002963567,-2.9623508e-05,0.0,0.0,-0.7068769,0
2023900000,-0.0049208784,0.00010818988,-0.00017774105,0.0,0.0,-0.7104111,0
2023916000,-0.0047920984,-0.0008733743,2.7120113e-05,0.0,0.0,-0.7071248,0
2023940000,-0.0043242676,-0.0003521978,-0.000274539,0.0,0.0,-0.71030587,0
2023956000,-0.0102878325,-0.0008300515,-9.512901e-05,0.0,0.0,-0.70716316,0
2023980000,-0.006536234,0.0013042977,0.00019192696,0.0,0.0,-0.70979166,0
2024000000,-0.009077325,0.0051308926,-8.928776e-05,0.0,0.0,-0.7060917,0
2024020000,-0.007899162,0.0026647914,0.000108897686,0.0,0.0,-0.7093036,0
2024040000,-0.0033315786,0.0032433504,-0.00014519691,0.0,0.0,-0.70545423,0
2024060000,-0.0022048529,0.001403193,-5.4240227e-05,0.0,0.0,-0.70878714,0
2024080000,-0.00044094512,0.002697654,-1.7940998e-05,0.0,0.0,-0.70507044,0
2024100000,0.00011112593,-0.0012123566,-6.842613e-05,0.0,0.0,-0.70857376,0
2024116000,0.0011597474,-0.0019779764,0.00033128262,0.0,0.0,-0.70744336,0
2024136000,0.0017034764,0.0017492063,-3.33786e-05,0.0,0.0,-0.7030965,0
2024160000,-0.0009182234,0.0025931774,-0.00013768673,0.0,0.0,-0.69954383,0
2024180000,-0.00072436413,0.0030909227,5.0902367e-05,0.0,0.0,-0.695087,0
2024200000,-0.0006678519,0.0001345696,1.3768673e-05,0.0,0.0,-0.69131935,0
2024220000,-0.0010124202,-0.00086805597,-0.00018399954,0.0,0.0,-0.6860961,0
2024236000,-0.0014026664,-0.00019450951,0.00032252073,0.0,0.0,-0.68240726,0
2024260000,-0.0010196109,-0.0003303783,-0.00010597706,0.0,0.0,-0.67703307,0
2024280000,-0.0010617955,-0.0016058581,-0.00027495623,0.0,0.0,-0.67403895,0
2024296000,-0.0012694135,0.0022684394,0.0076376293,0.0,0.0,-0.6684318,0
2024316000,-0.0006954832,0.006714116,0.0012448581,0.0,0.0,-0.6649846,0
2024340000,-0.00485577,0.005644317,-0.0020461082,0.0,0.0,-0.6598152,0
2024360000,-0.009197252,0.0048618102,-0.0025209188,0.0,0.0,-0.6575217,0
2024380000,-0.006926787,0.006142147,-0.0027549863,0.0,0.0,-0.65113145,0
2024396000,-0.0042814845,0.0075196708,-0.0027745962,0.0,0.0,-0.6504263,0
2024420000,-0.002623801,0.0068023046,-0.0023402572,0.0,0.0,-0.65436107,0
2024436000,-0.0051474227,0.0047063585,-0.0024007559,0.0,0.0,-0.65737563,0
2024456000,-0.0057082474,0.008087512,-0.002693653,0.0,0.0,-0.66228455,0
2024480000,-0.009532121,0.0038788356,-0.0027503967,0.0,0.0,-0.6670784,0
2024500000,-0.009591443,0.0049176943,-0.003032446,0.0,0.0,-0.6709978,0
2024520000,-0.0067173485,0.0062492117,-0.0025638938,0.0,0.0,-0.6761076,0
2024540000,-0.0071229218,0.0046695713,-0.0021833777,0.0,0.0,-0.6798423,0
2024556000,-0.0047416035,0.0027167108,-0.002743721,0.0,0.0,-0.6831005,0
2024580000,-0.003360944,0.002788119,-0.0035911202,0.0,0.0,-0.6879416,0
2024600000,-0.0047738818,0.0005344562,-0.0034601092,0.0,0.0,-0.69164586,0
2024620000,-0.0024518897,0.0002299808,-0.003473878,0.0,0.0,-0.695826,0
2024640000,-0.0013481841,-0.0020308848,-0.0038785934,0.0,0.0,-0.7001553,0
2024660000,0.0013147818,-0.001040766,-0.0041013956,0.0,0.0,-0.7042211,0
2024676000,0.0006918111,-0.0007662922,-0.0039411783,0.0,0.0,-0.7074381,0
2024700000,-0.00019244896,-0.0010072924,-0.0037096143,0.0,0.0,-0.7120848,0
2024716000,0.0009975702,0.0004986916,-0.0036215782,0.0,0.0,-0.71452576,0
2024740000,0.0030475615,-0.0023219548,-0.0030729175,0.0,0.0,-0.7180053,0
2024760000,0.0042797285,0.00019511208,-0.0021879673,0.0,0.0,-0.719165,0
2024776000,0.0013356856,0.0006359797,-0.0015458465,0.0,0.0,-0.721441,0
2024796000,0.0017202694,0.0020823553,-0.0013105273,0.0,0.0,-0.7223232,0
2024820000,0.0007623227,0.0018179212,-0.0007593632,0.0,0.0,-0.7234073,0
2024836000,-0.0014114892,0.00096872635,-0.00043433905,0.0,0.0,-0.7230926,0
2024860000,0.0013262504,3.8241968e-05,0.00050860643,0.0,0.0,-0.7225499,0
2024880000,-0.0016139001,-0.0020795744,0.00105685,0.0,0.0,-0.72022116,0
2024900000,-0.003019382,-0.003594499,0.0012183189,0.0,0.0,-0.7193581,0
2024920000,-0.0026699565,-0.0034059845,0.0013714433,0.0,0.0,-0.7167214,0
2024940000,-0.0019784365,-0.003420839,0.0015838146,0.0,0.0,-0.71580905,0
2024960000,-0.00206139,-0.0035293587,0.001891315,0.0,0.0,-0.71278566,0
2024976000,0.00017093006,-0.002021866,0.002221346,0.0,0.0,-0.7120878,0
2024996000,-0.0008760176,-0.00585315,0.0024875402,0.0,0.0,-0.7108935,0
2025020000,-0.004585626,-0.006027288,0.002411604,0.0,0.0,-0.7093328,0
2025040000,-0.005776198,-0.0005030185,0.0024645925,0.0,0.0,-0.70762086,0
2025060000,-0.0030384776,-0.004150089,0.0021746159,0.0,0.0,-0.7075302,0
2025080000,0.0017322996,-0.0035524853,0.0023010373,0.0,0.0,-0.7060909,0
2025100000,-0.00035732007,-0.0068023596,0.0025718212,0.0,0.0,-0.70598376,0
2025120000,-0.0031610327,-0.0036344267,0.0020281672,0.0,0.0,-0.7053665,0
2025140000,-0.0022525452,-0.008971291,0.002485454,0.0,0.0,-0.7058382,0
2025156000,-0.00046641845,-0.011786058,0.002867639,0.0,0.0,-0.70550275,0
2025180000,0.0018699956,-0.008053528,0.0032902956,0.0,0.0,-0.7060672,0
2025200000,-0.0025967914,-0.0071146404,0.0025363564,0.0,0.0,-0.7051664,0
2025216000,-0.0013758093,-0.0069662705,0.0024103522,0.0,0.0,-0.7053395,0
2025236000,-0.003885217,-0.005666458,0.0028547049,0.0,0.0,-0.7051304,0
2025260000,-0.0046680914,-0.0029328326,0.0028484464,0.0,0.0,-0.7052959,0
2025276000,-0.004195127,-0.0053053927,0.0023002028,0.0,0.0,-0.705463,0
2025296000,-0.004776042,-0.005133178,0.0023294091,0.0,0.0,-0.70571303,0
2025320000,-0.0034767957,-0.0035039885,0.0026423335,0.0,0.0,-0.7050986,0
2025340000,-0.0032456545,-0.0045867795,0.0027641654,0.0,0.0,-0.70541346,0
2025360000,-0.004214758,-0.00521065,0.002739966,0.0,0.0,-0.70510846,0
2025380000,-0.0058742724,-0.0063962946,0.0025146604,0.0,0.0,-0.7055771,0
2025400000,-0.0048724404,-0.007965139,0.0019388795,0.0,0.0,-0.7047573,0
2025420000,-0.0051657427,-0.0061264597,0.001681447,0.0,0.0,-0.7052243,0
2025440000,-0.007592772,-0.005727428,0.0013881326,0.0,0.0,-0.7050889,0
2025456000,-0.0073193163,-0.003699258,0.0013443232,0.0,0.0,-0.7053379,0
2025480000,-0.0067030992,-0.0044314973,0.00067967176,0.0,0.0,-0.7046364,0
2025500000,-0.0046224594,-0.0031729797,0.00027245283,0.0,0.0,-0.70497745,0
2025516000,-0.0032491665,-0.006420657,0.0002361536,0.0,0.0,-0.7048954,0
2025536000,-0.0030995458,-0.009042319,-1.835823e-05,0.0,0.0,-0.70553404,0
2025560000,-0.00297816,-0.010314412,0.00019943714,0.0,0.0,-0.7051347,0
2025580000,-0.0035278257,-0.012034527,0.00034588575,0.0,0.0,-0.7065399,0
2025600000,-0.0008152686,-0.0072718523,0.00038176775,0.0,0.0,-0.7062756,0
2025620000,0.0031445045,-0.002537636,0.00042307377,0.0,0.0,-0.7066894,0
2025636000,0.0017064242,-0.003952779,0.00045269728,0.0,0.0,-0.70651203,0
2025660000,0.0047783386,-0.0032578427,0.00064086914,0.0,0.0,-0.7068607,0
2025680000,0.0025615692,-0.0077536283,0.0010159612,0.0,0.0,-0.70599633,0
2025700000,0.004504472,-0.008622652,0.0013772845,0.0,0.0,-0.70614105,0
2025716000,-0.000118959695,-0.008463587,0.0011711717,0.0,0.0,-0.7053188,0
2025740000,0.0022528851,-0.009470151,0.0010218024,0.0,0.0,-0.7052749,0
2025760000,0.0018403968,-0.007348328,0.0014941096,0.0,0.0,-0.7045554,0
2025780000,0.00305234,-0.0064522168,0.0016576648,0.0,0.0,-0.7051649,0
2025800000,0.0037038885,-0.0068746973,0.0013689399,0.0,0.0,-0.70486534,0
2025820000,0.0046578627,-0.007922662,0.001448214,0.0,0.0,-0.70563227,0
2025836000,0.003689278,-0.0061047804,0.0015287399,0.0,0.0,-0.7052356,0
2025860000,0.003050767,-0.005073211,0.0016756058,0.0,0.0,-0.70548236,0
2025880000,-0.0002261363,-0.0068657896,0.0015675426,0.0,0.0,-0.70462507,0
2025900000,0.0011252677,-0.010704311,0.0016806126,0.0,0.0,-0.70528805,0
2025916000,0.0031992206,-0.010301361,0.0017336011,0.0,0.0,-0.70539325,0
2025940000,0.0026585963,-0.011165134,0.0021771193,0.0,0.0,-0.70617723,0
2025960000,0.0049961293,-0.010137194,0.0027416348,0.0,0.0,-0.7058149,0
2025976000,0.009619336,-0.008974599,0.0026978254,0.0,0.0,-0.70597786,0
2026000000,0.008567227,-0.008390071,0.0030320287,0.0,0.0,-0.7053332,0
2026020000,0.008373441,-0.004997149,0.0035343766,0.0,0.0,-0.70562565,0
2026040000,0.008501617,-0.003579243,0.004362583,0.0,0.0,-0.70450646,0
2026060000,0.008354504,-0.0035343715,0.0044668913,0.0,0.0,-0.70515186,0
2026080000,0.007167008,0.0024673573,0.0040776134,0.0,0.0,-0.7039561,0
2026100000,0.005728199,0.001837404,0.0037142038,0.0,0.0,-0.7045239,0
2026120000,0.0033835396,0.0033014275,0.0037404895,0.0,0.0,-0.7041419,0
2026136000,0.0035117734,0.0041505336,0.0033441186,0.0,0.0,-0.70493,0
2026160000,0.0031800782,0.006109092,0.0025029778,0.0,0.0,-0.7048543,0
2026180000,0.0048847226,0.006211767,0.001740694,0.0,0.0,-0.70583504,0
2026196000,0.005739658,0.006698464,0.0013247132,0.0,0.0,-0.7054726,0
2026220000,0.00073840097,0.0057853027,0.0006913543,0.0,0.0,-0.7057905,0
2026236000,-0.00015379395,0.007360138,0.00028663874,0.0,0.0,-0.70514953,0
2026260000,0.0037320154,0.008801151,2.4199486e-05,0.0,0.0,-0.7053522,0
2026280000,0.004124685,0.004430803,-0.00038218498,0.0,0.0,-0.70426244,0
2026296000,0.0055145947,0.0038379712,-0.0009291768,0.0,0.0,-0.70507884,0
2026320000,0.0067795697,0.0061577572,-0.00091582537,0.0,0.0,-0.7043194,0
2026340000,0.0037309593,0.0052986937,-0.0019096732,0.0,0.0,-0.7050688,0
2026360000,0.00511663,0.001757256,-0.0025593042,0.0,0.0,-0.70466655,0
2026376000,0.0035258685,0.0033664536,-0.0026302338,0.0,0.0,-0.7050961,0
2026400000,0.009120982,0.0056905774,-0.0031342506,0.0,0.0,-0.70462203,0
2026420000,0.005060006,0.0069293994,-0.0036299229,0.0,0.0,-0.70566994,0
2026436000,0.0033847587,0.00621041,-0.0039808154,0.0,0.0,-0.7049774,0
2026460000,0.0004413193,0.0017260577,-0.004105985,0.0,0.0,-0.7057063,0
2026476000,-0.0012316611,0.00045493367,-0.0039966702,0.0,0.0,-0.70526826,0
2026496000,-0.0034984574,-0.0003197272,-0.003545642,0.0,0.0,-0.70586395,0
2026520000,0.0018565934,0.00077692716,-0.0030082464,0.0,0.0,-0.70452946,0
2026540000,-0.0020838398,0.0013990359,-0.0022100806,0.0,0.0,-0.7050815,0
2026560000,-0.0052809613,0.00541071,-0.0019718409,0.0,0.0,-0.704047,0
2026576000,-0.0059024272,0.005663642,-0.0016960502,0.0,0.0,-0.7047723,0
2026600000,-0.0026703211,0.0055678505,-0.00086951256,0.0,0.0,-0.7043817,0
2026620000,-0.0027268552,0.006151162,-0.00040555,0.0,0.0,-0.70535094,0
2026640000,-0.00076107774,0.005760344,0.000238657,0.0,0.0,-0.70474833,0
2026656000,-0.0013531926,0.0064491127,0.0004685521,0.0,0.0,-0.7058602,0
2026680000,0.00094210263,0.0033020594,0.00021445751,0.0,0.0,-0.7046208,0
2026700000,0.0017817789,0.0012446062,0.00081568956,0.0,0.0,-0.7056813,0
2026720000,0.005475699,0.004250546,0.0013881326,0.0,0.0,-0.70487165,0
2026736000,0.002667916,0.0056425296,0.0018308163,0.0,0.0,-0.7059842,0
2026760000,0.0031522592,0.008922666,0.0020423532,0.0,0.0,-0.70533705,0
2026776000,0.0024304078,0.008749363,0.002485454,0.0,0.0,-0.70632094,0
2026800000,0.004108751,0.0077068233,0.003022015,0.0,0.0,-0.7051503,0
2026820000,0.0012242147,0.011172743,0.0031901598,0.0,0.0,-0.705867,0
2026840000,-0.005552896,0.013281119,0.0032110214,0.0,0.0,-0.7047884,0
2026860000,-0.0047182194,0.010032679,0.003213942,0.0,0.0,-0.705883,0
2026880000,-0.0017326623,0.006839873,0.0027962923,0.0,0.0,-0.70488083,0
2026900000,-0.0013328223,0.0114395395,0.0020436049,0.0,0.0,-0.70597464,0
2026920000,-0.0041290494,0.0067713135,0.0015500188,0.0,0.0,-0.7052069,0
2026940000,-0.0048991144,0.0020173462,0.0013305545,0.0,0.0,-0.70652264,0
2026960000,-0.008126408,-1.2095086e-05,0.0010560155,0.0,0.0,-0.7053072,0
2026980000,-0.012069562,-0.00261006,0.0007272363,0.0,0.0,-0.7068204,0
2026996000,-0.015594909,-0.0012129438,0.00054073334,0.0,0.0,-0.70551723,0
2027016000,-0.0066023823,0.00047695963,-0.00032293797,0.0,0.0,-0.70594096,0
2027040000,-0.004584293,-0.0017911596,-0.00054615736,0.0,0.0,-0.7046074,0
2027056000,-0.002033709,-0.0004904107,-0.00064504147,0.0,0.0,-0.70567614,0
2027076000,-0.0012038734,-0.004108258,-0.0005736947,0.0,0.0,-0.7043279,0
2027096000,0.0005971291,-0.0049626688,-0.0009508729,0.0,0.0,-0.7054006,0
2027120000,-0.0007484164,-0.0029100818,-0.0013756156,0.0,0.0,-0.70452744,0
2027140000,0.0021153158,-0.003844733,-0.0013209581,0.0,0.0,-0.7062781,0
2027160000,0.0039412486,-0.0034333132,-0.00089746714,0.0,0.0,-0.7053015,0
2027180000,0.003052801,-0.0042205136,-0.00067675114,0.0,0.0,-0.7067856,0
2027200000,0.006507459,-0.0021325718,-0.000852406,0.0,0.0,-0.70561516,0
2027220000,0.004614295,-0.0027651163,-0.0006492138,0.0,0.0,-0.7070306,0
2027240000,0.003081624,-0.002133533,-0.0005123615,0.0,0.0,-0.70570266,0
2027260000,0.007179522,-0.0047773398,-0.00044059753,0.0,0.0,-0.70717263,0
2027280000,0.0035195956,-0.0043234657,-0.0002528429,0.0,0.0,-0.70552367,0
2027300000,0.0049796333,-0.002572564,-0.00048148632,0.0,0.0,-0.70725775,0
2027320000,0.008103607,-0.0011661127,-0.00044935942,0.0,0.0,-0.7061365,0
2027340000,0.005130106,0.00054703373,-0.00065505505,0.0,0.0,-0.7080885,0
2027360000,0.002158711,0.0053548687,-0.00065630674,0.0,0.0,-0.7061424,0
2027380000,0.0004472169,0.0072307778,-8.970499e-05,0.0,0.0,-0.70736337,0
2027396000,0.00021652272,0.0061732735,0.000513196,0.0,0.0,-0.705484,0
2027420000,-0.00016804528,0.0032623378,0.0009237528,0.0,0.0,-0.7070281,0
2027440000,0.0026096986,0.0021694773,0.0009012222,0.0,0.0,-0.7049567,0
2027460000,0.0021149772,-0.001424144,0.0012487769,0.0,0.0,-0.70667624,0
2027480000,0.0010448515,0.00013833493,0.0017169118,0.0,0.0,-0.7050535,0
2027500000,-0.0016528072,-0.00152916,0.0017281771,0.0,0.0,-0.7069827,0
2027516000,-0.0029526728,-0.0005785513,0.0016785264,0.0,0.0,-0.70551336,0
2027540000,-0.0010182497,0.0011886847,0.0016413927,0.0,0.0,-0.70718616,0
2027560000,0.0015987714,-0.0019821227,0.0018253922,0.0,0.0,-0.70523894,0
2027580000,0.0025664815,-0.0053399894,0.0014903545,0.0,0.0,-0.7068441,0
2027600000,0.0033054391,-0.0061807516,0.0017402768,0.0,0.0,-0.7048532,0
2027620000,0.0032354319,-0.0065648095,0.0011094213,0.0,0.0,-0.7062698,0
2027640000,0.0028978272,-0.0088528665,0.0004810691,0.0,0.0,-0.70481855,0
2027656000,0.004109712,-0.0072214445,0.000113487244,0.0,0.0,-0.7061489,0
2027680000,0.00094429986,-0.008606914,-6.5505505e-05,0.0,0.0,-0.7042926,0
2027700000,-0.0042794878,-0.0057058837,-0.0003604889,0.0,0.0,-0.70613635,0
2027716000,-0.0041144527,-0.0039245645,-0.0005148649,0.0,0.0,-0.7045971,0
2027740000,-0.003073458,-0.0043820087,-0.00039678812,0.0,0.0,-0.70617616,0
2027760000,-0.0038711228,-0.005278074,-0.00023198128,0.0,0.0,-0.70486665,0
2027780000,-0.0030100185,-0.0038153804,0.00025993586,0.0,0.0,-0.7059033,0
2027800000,-0.0027535078,-0.0057296334,0.0006763339,0.0,0.0,-0.70471376,0
2027820000,5.3539407e-05,-0.0038129506,0.00063836575,0.0,0.0,-0.706225,0
2027836000,-0.0007613804,-0.0046976293,0.0009191632,0.0,0.0,-0.7049475,0
2027860000,-0.003186189,-0.0047810185,0.0010122061,0.0,0.0,-0.7056302,0
2027880000,-0.0034574554,0.0003589316,0.0011482239,0.0,0.0,-0.7042322,0
2027900000,-0.0003821468,0.000964212,0.00073850155,0.0,0.0,-0.7055124,0
2027920000,-0.00013496215,5.6904275e-05,0.00030124187,0.0,0.0,-0.70432365,0
2027940000,0.00065794867,0.00027321317,-0.00024741888,0.0,0.0,-0.70559764,0
2027956000,0.0032736508,-0.00028162662,-0.0007134676,0.0,0.0,-0.7046814,0
2027980000,0.0009526005,-8.942903e-05,-0.00074100494,0.0,0.0,-0.70604783,0
2028000000,0.0015051686,-0.0011005441,-0.00092834234,0.0,0.0,-0.7054262,0
2028020000,-0.0008384958,-0.000771728,-0.0013238788,0.0,0.0,-0.706505,0
2028040000,-0.0016389955,-0.001919902,-0.001623869,0.0,0.0,-0.70546216,0
2028060000,-0.0026823701,-0.0031771248,-0.0018566847,0.0,0.0,-0.7068233,0
2028076000,-0.0028518224,-0.0053402353,-0.002063632,0.0,0.0,-0.70584685,0
2028100000,-0.0052550216,-0.00417354,-0.002664864,0.0,0.0,-0.7065624,0
2028120000,-0.0012314538,-0.002746151,-0.0028434396,0.0,0.0,-0.70504683,0
2028140000,-0.0015993156,-0.0026202842,-0.0025693178,0.0,0.0,-0.70607287,0
2028156000,-0.0026455326,-0.00035556703,-0.0024182796,0.0,0.0,-0.7053199,0
2028180000,-0.005336428,0.0017707329,-0.0018587708,0.0,0.0,-0.70610785,0
2028200000,-0.0010067746,0.0017209699,-0.0015591979,0.0,0.0,-0.7055166,0
2028220000,0.00062050996,0.00012954627,-0.0011916161,0.0,0.0,-0.70623106,0
2028240000,0.00071403105,-0.0009816651,-0.0006329417,0.0,0.0,-0.70523876,0
2028260000,0.0018618195,-0.0023601407,-0.00065129995,0.0,0.0,-0.70574284,0
2028276000,-0.001426422,0.0009601793,-9.0539455e-05,0.0,0.0,-0.7051285,0
2028300000,-0.002312961,0.0036168764,2.7120113e-05,0.0,0.0,-0.7059184,0
2028316000,-0.004209676,-0.000763124,0.00025993586,0.0,0.0,-0.7051501,0
2028340000,-0.00021402072,0.00025521076,0.00057578087,0.0,0.0,-0.70537424,0
2028356000,0.00079636043,0.0031894522,0.0007251501,0.0,0.0,-0.70524573,0
2028380000,6.999448e-05,-0.004584294,0.0014699101,0.0,0.0,-0.706146,0
2028400000,0.001112897,-0.003013922,0.001665175,0.0,0.0,-0.7058743,0
2028420000,0.0021805414,-0.0064411126,0.0015637875,0.0,0.0,-0.7065643,0
2028440000,-0.0014968147,-0.0071352255,0.0016342998,0.0,0.0,-0.705896,0
2028460000,0.0009549195,-0.006469948,0.0018571019,0.0,0.0,-0.7065567,0
2028476000,-0.00043031294,-0.0025672098,0.001586318,0.0,0.0,-0.70628864,0
2028500000,-0.0008171699,-0.0020320495,0.0015813112,0.0,0.0,-0.70619434,0
2028516000,-0.001230971,0.00033076887,0.0013034344,0.0,0.0,-0.7056104,0
2028540000,-0.0012302124,0.00058434834,0.0006663203,0.0,0.0,-0.7060182,0
2028560000,0.0004187678,-0.0013429751,0.00040596724,0.0,0.0,-0.7056424,0
2028580000,0.0011223238,-0.00019960292,8.0525875e-05,0.0,0.0,-0.7059389,0
2028596000,-0.00016479101,0.0028312902,-0.00028830767,0.0,0.0,-0.705369,0
2028620000,0.0019744937,0.0051793675,-0.00041681528,0.0,0.0,-0.7054365,0
2028640000,0.0018894635,0.0025876213,-0.0009638071,0.0,0.0,-0.7053605,0
2028660000,0.0034660497,0.0026863925,-0.0012905002,0.0,0.0,-0.7057339,0
2028680000,0.0020500738,0.003920595,-0.0015416741,0.0,0.0,-0.7052554,0
2028700000,0.0034785466,0.0017764245,-0.0016188622,0.0,0.0,-0.70555943,0
2028716000,0.005969785,0.0023095591,-0.0019547343,0.0,0.0,-0.70538765,0
2028740000,0.0031027156,-0.00024448955,-0.0022330284,0.0,0.0,-0.70561856,0
2028760000,0.0034189993,0.0012079951,-0.0024049282,0.0,0.0,-0.7061491,0
2028780000,0.004323598,0.0023360087,-0.0030211806,0.0,0.0,-0.70585513,0
2028800000,0.007210985,0.0024409068,-0.0035523176,0.0,0.0,-0.7055443,0
2028820000,0.0052239364,0.0019790407,-0.003472209,0.0,0.0,-0.70542765,0
2028840000,-0.00081915176,0.0026124548,-0.002919376,0.0,0.0,-0.70573366,0
2028860000,-0.0005210382,0.0018261465,-0.0029857159,0.0,0.0,-0.7053475,0
2028880000,-0.0019295281,0.0044702264,-0.003014505,0.0,0.0,-0.7048902,0
2028900000,-0.004912556,0.0031198976,-0.0037517548,0.0,0.0,-0.705043,0
2028920000,-0.0014431519,0.0023592361,-0.0038585663,0.0,0.0,-0.7051702,0
2028940000,0.0022611755,0.0018239776,-0.004153967,0.0,0.0,-0.70506024,0
2028960000,0.0025125635,0.001131107,-0.004130602,0.0,0.0,-0.7055079,0
2028980000,0.0029522558,-0.0019683538,-0.004068017,0.0,0.0,-0.70543915,0
2029000000,0.002924957,-0.002958883,-0.0037167072,0.0,0.0,-0.7053112,0
2029020000,0.0034542305,0.003097763,-0.0031229854,0.0,0.0,-0.7052615,0
2029040000,-0.0007824821,0.0033793233,-0.0020469427,0.0,0.0,-0.7052228,0
2029060000,0.0011053784,0.003044492,-0.0012341738,0.0,0.0,-0.70567816,0
2029080000,-0.0010269522,0.0073825447,-0.00037300587,0.0,0.0,-0.70641774,0
2029100000,0.004197606,0.0035862832,5.841255e-06,0.0,0.0,-0.70641863,0
2029116000,0.0049503925,0.0030996546,0.00030750036,0.0,0.0,-0.70658815,0
2029140000,0.002689453,0.004550821,0.0009354353,0.0,0.0,-0.7062265,0
2029156000,0.0021662186,0.0043098712,0.0009521246,0.0,0.0,-0.70609206,0
2029180000,0.005055668,0.0031362753,0.00069594383,0.0,0.0,-0.70586133,0
2029200000,0.0047765253,0.001172443,0.00061416626,0.0,0.0,-0.70553595,0
2029220000,0.0016848652,0.00066137355,0.0002002716,0.0,0.0,-0.7054409,0
2029240000,0.0012951391,-2.213061e-05,-0.00015813112,0.0,0.0,-0.70542765,0
2029260000,-0.0013631254,0.0011797578,-0.000459373,0.0,0.0,-0.7052096,0
2029280000,-0.0029295515,-0.0017808746,-0.0006521344,0.0,0.0,-0.70526785,0
2029300000,-0.0020816468,-0.00011819962,-0.0013130307,0.0,0.0,-0.70550334,0
2029316000,-0.00576312,0.00035734416,-0.0011302829,0.0,0.0,-0.7056514,0
2029340000,-0.00555531,-0.001593068,-0.0009454489,0.0,0.0,-0.7060273,0
2029360000,-0.003107397,-0.0036014523,-0.0011607409,0.0,0.0,-0.70573467,0
2029376000,-0.0058636474,-0.003727354,-0.0010852218,0.0,0.0,-0.7056863,0
2029400000,-0.008181125,-0.0032722498,-0.006366112,0.0,0.0,-0.7060926,0
2029420000,-0.034276392,0.045263723,-0.014750368,0.0,0.0,-0.7057973,0
2029436000,-0.052276254,0.07822394,-0.020733872,0.0,0.0,-0.7057761,0
2029460000,-0.08082234,0.12902881,-0.029713102,0.0,0.0,-0.7059946,0
2029480000,-0.10341905,0.14351219,-0.035865568,0.0,0.0,-0.7066098,0
2029500000,-0.14261897,0.1583158,-0.04556029,0.0,0.0,-0.7069294,0
2029520000,-0.1642587,0.15833817,-0.052326713,0.0,0.0,-0.7064242,0
2029540000,-0.20227545,0.16774914,-0.063043416,0.0,0.0,-0.7067074,0
2029556000,-0.22349246,0.16875696,-0.07075839,0.0,0.0,-0.7067769,0
2029580000,-0.25112835,0.16763364,-0.08304617,0.0,0.0,-0.707543,0
2029600000,-0.26444584,0.16193081,-0.09099909,0.0,0.0,-0.707844,0
2029616000,-0.3000333,0.16291852,-0.10263593,0.0,0.0,-0.7084205,0
2029640000,-0.31027484,0.15472132,-0.110533416,0.0,0.0,-0.7089004,0
2029660000,-0.33792648,0.15561888,-0.122420646,0.0,0.0,-0.7100431,0
2029676000,-0.34969354,0.1483505,-0.13034856,0.0,0.0,-0.71034545,0
2029700000,-0.36696878,0.14341286,-0.14167352,0.0,0.0,-0.7117166,0
2029720000,-0.36602512,0.13431613,-0.14864263,0.0,0.0,-0.7119601,0
2029736000,-0.39300036,0.13944504,-0.1606141,0.0,0.0,-0.71316975,0
2029760000,-0.38424996,0.13064565,-0.16607179,0.0,0.0,-0.7133977,0
2029780000,-0.39989513,0.13147826,-0.17780778,0.0,0.0,-0.7144212,0
2029800000,-0.39202964,0.12619083,-0.1841931,0.0,0.0,-0.71440893,0
2029820000,-0.41302416,0.12906346,-0.19542928,0.0,0.0,-0.715697,0
2029840000,-0.40124798,0.11939191,-0.2012203,0.0,0.0,-0.7154461,0
2029860000,-0.42140532,0.118858926,-0.21189232,0.0,0.0,-0.71670395,0
2029876000,-0.41871372,0.11722483,-0.21785347,0.0,0.0,-0.7170361,0
2029900000,-0.41870475,0.11497236,-0.22666806,0.0,0.0,-0.7180676,0
2029916000,-0.4219677,0.11445351,-0.23232307,0.0,0.0,-0.7185117,0
2029940000,-0.42654452,0.11244227,-0.24036229,0.0,0.0,-0.7197185,0
2029960000,-0.41141596,0.099239916,-0.24467947,0.0,0.0,-0.71898866,0
2029980000,-0.42781356,0.10399688,-0.25333655,0.0,0.0,-0.72100127,0
2030000000,-0.40861127,0.09869455,-0.25648564,0.0,0.0,-0.71976006,0
2030020000,-0.43193954,0.105165556,-0.2657314,0.0,0.0,-0.7218124,0
2030040000,-0.41611397,0.09534602,-0.2690971,0.0,0.0,-0.72082144,0
2030056000,-0.44424084,0.10297936,-0.28081208,0.0,0.0,-0.7233998,0
2030080000,-0.42040095,0.09222318,-0.2817398,0.0,0.0,-0.7230277,0
2030100000,-0.4420957,0.10009983,-0.29040992,0.0,0.0,-0.7253406,0
2030120000,-0.42092866,0.09252079,-0.29393837,0.0,0.0,-0.72468525,0
2030136000,-0.44736257,0.09712483,-0.30672008,0.0,0.0,-0.7273161,0
2030160000,-0.41932467,0.08622837,-0.3075055,0.0,0.0,-0.7260832,0
2030180000,-0.4406369,0.090349734,-0.3175286,0.0,0.0,-0.7291231,0
2030200000,-0.40006298,0.07967297,-0.3226499,0.0,0.0,-0.7269327,0
2030220000,-0.38546526,0.07934939,-0.3344544,0.0,0.0,-0.72733456,0
2030240000,-0.3391763,0.069019,-0.33894718,0.0,0.0,-0.72533834,0
2030260000,-0.33045003,0.07211216,-0.350131,0.0,0.0,-0.72635597,0
2030280000,-0.28537244,0.062255897,-0.35459813,0.0,0.0,-0.7242505,0
2030300000,-0.2757342,0.061127417,-0.3680049,0.0,0.0,-0.724993,0
2030320000,-0.23012275,0.051337183,-0.37236908,0.0,0.0,-0.72296894,0
2030336000,-0.22925586,0.05467146,-0.38890514,0.0,0.0,-0.72429335,0
2030360000,-0.18195161,0.045029685,-0.39044338,0.0,0.0,-0.7231317,0
2030376000,-0.18416813,0.04624875,-0.408439,0.0,0.0,-0.72481,0
2030400000,-0.1408543,0.03701748,-0.40920183,0.0,0.0,-0.7244228,0
2030420000,-0.14872405,0.0338381,-0.42403615,0.0,0.0,-0.726332,0
2030440000,-0.12694323,0.022643916,-0.42781073,0.0,0.0,-0.726048,0
2030460000,-0.13828456,0.02526582,-0.44071132,0.0,0.0,-0.7281157,0
2030480000,-0.11340282,0.019001558,-0.44364485,0.0,0.0,-0.7276698,0
2030496000,-0.12790401,0.021359041,-0.4615498,0.0,0.0,-0.72914684,0
2030520000,-0.09827466,0.011758655,-0.45999935,0.0,0.0,-0.7276292,0
2030540000,-0.109758645,0.013475418,-0.47332954,0.0,0.0,-0.7293964,0
2030560000,-0.08040772,0.0073528886,-0.47539735,0.0,0.0,-0.72820014,0
2030576000,-0.09526696,0.005568996,-0.49448693,0.0,0.0,-0.73018974,0
2030600000,-0.06620391,-0.0019923747,-0.49099424,0.0,0.0,-0.72919685,0
2030620000,-0.08055104,-0.0012422949,-0.5049106,0.0,0.0,-0.73144627,0
2030636000,-0.07831605,-0.0051656514,-0.5115544,0.0,0.0,-0.73204464,0
2030660000,-0.07367543,-0.008651286,-0.5213747,0.0,0.0,-0.73295563,0
2030676000,-0.068352066,-0.0085012615,-0.52685213,0.0,0.0,-0.7325993,0
2030696000,-0.065282926,-0.008599281,-0.54101473,0.0,0.0,-0.7330314,0
2030720000,-0.038124163,-0.012578726,-0.5378684,0.0,0.0,-0.7315696,0
2030740000,-0.056806292,-0.012065187,-0.5532026,0.0,0.0,-0.73327386,0
2030760000,-0.02983668,-0.013912767,-0.55505574,0.0,0.0,-0.73153126,0
2030780000,-0.05219986,-0.010224089,-0.57125306,0.0,0.0,-0.73344165,0
2030796000,-0.04655099,-0.011169717,-0.5788566,0.0,0.0,-0.73321337,0
2030820000,-0.048455168,-0.0116120875,-0.5886507,0.0,0.0,-0.7337774,0
2030840000,-0.031210784,-0.016452476,-0.58887666,0.0,0.0,-0.73306024,0
2030860000,-0.05860459,-0.014445543,-0.60340065,0.0,0.0,-0.735421,0
2030880000,-0.039192982,-0.016081601,-0.6026538,0.0,0.0,-0.73433983,0
2030900000,-0.0666876,-0.015412942,-0.6180478,0.0,0.0,-0.7366659,0
2030920000,-0.037344627,-0.018092096,-0.6167134,0.0,0.0,-0.73427665,0
2030940000,-0.061048254,-0.017493948,-0.631925,0.0,0.0,-0.7359892,0
2030960000,-0.04166475,-0.022495061,-0.63142544,0.0,0.0,-0.7345111,0
2030980000,-0.06817718,-0.023081422,-0.6475266,0.0,0.0,-0.7362859,0
2031000000,-0.043140724,-0.023163974,-0.6460579,0.0,0.0,-0.73460793,0
2031020000,-0.068693385,-0.024810731,-0.6632627,0.0,0.0,-0.73665243,0
2031040000,-0.03880395,-0.023915127,-0.6614319,0.0,0.0,-0.73447233,0
2031060000,-0.06251179,-0.025546879,-0.6786962,0.0,0.0,-0.7363613,0
2031076000,-0.06139341,-0.027267918,-0.68578774,0.0,0.0,-0.7361745,0
2031100000,-0.06357736,-0.03185481,-0.6964635,0.0,0.0,-0.7369429,0
2031120000,-0.038456775,-0.030586943,-0.69463235,0.0,0.0,-0.7350968,0
2031140000,-0.06333943,-0.035123378,-0.7134644,0.0,0.0,-0.73741394,0
2031160000,-0.035364013,-0.02792783,-0.70957625,0.0,0.0,-0.73579866,0
2031180000,-0.06114539,-0.02820526,-0.727392,0.0,0.0,-0.7378933,0
2031200000,-0.033065677,-0.025230065,-0.72474885,0.0,0.0,-0.7361223,0
2031220000,-0.064142525,-0.029605806,-0.74316144,0.0,0.0,-0.7384397,0
2031236000,-0.071077384,-0.033164665,-0.7499667,0.0,0.0,-0.73847777,0
2031260000,-0.07102977,-0.040593475,-0.7599652,0.0,0.0,-0.7385478,0
2031280000,-0.028215945,-0.0315789,-0.75335366,0.0,0.0,-0.73539984,0
2031300000,-0.029203512,-0.03025411,-0.768616,0.0,0.0,-0.7352519,0
2031320000,0.011354789,-0.009208441,-0.7591704,0.0,0.0,-0.73212236,0
2031340000,0.0077284873,-0.007548496,-0.7740748,0.0,0.0,-0.73260474,0
2031360000,0.048032053,0.003762871,-0.7669966,0.0,0.0,-0.72999334,0
2031376000,0.046184868,0.008447513,-0.78949046,0.0,0.0,-0.7302208,0
2031400000,0.08581191,0.02619505,-0.7725366,0.0,0.0,-0.7280595,0
2031420000,0.07903633,0.027203858,-0.78777766,0.0,0.0,-0.72897345,0
2031440000,0.11472181,0.04141961,-0.7800395,0.0,0.0,-0.7275767,0
2031456000,0.106615886,0.0471285,-0.8034695,0.0,0.0,-0.7288735,0
2031476000,0.11547158,0.056148827,-0.7975862,0.0,0.0,-0.72882444,0
2031500000,0.12856837,0.06625903,-0.802395,0.0,0.0,-0.727903,0
2031516000,0.13839579,0.072567895,-0.80552524,0.0,0.0,-0.7275211,0
2031540000,0.14738697,0.0831562,-0.81031716,0.0,0.0,-0.7270566,0
2031560000,0.1763402,0.09656328,-0.80238676,0.0,0.0,-0.72602737,0
2031580000,0.16010618,0.09239188,-0.8191145,0.0,0.0,-0.7268651,0
2031600000,0.18368572,0.11223745,-0.8103332,0.0,0.0,-0.72572625,0
2031620000,0.16676083,0.10710256,-0.8270951,0.0,0.0,-0.72657216,0
2031636000,0.16599163,0.11169502,-0.830988,0.0,0.0,-0.7265292,0
2031660000,0.16825113,0.11656682,-0.83767956,0.0,0.0,-0.726642,0
2031680000,0.19013435,0.13436964,-0.8305648,0.0,0.0,-0.7251675,0
2031700000,0.1709493,0.12790637,-0.8492086,0.0,0.0,-0.7253698,0
2031716000,0.1702893,0.12857074,-0.8542452,0.0,0.0,-0.72530836,0
2031740000,0.17083398,0.13299127,-0.85375994,0.0,0.0,-0.724596,0
2031760000,0.1895089,0.1448462,-0.83698386,0.0,0.0,-0.72303724,0
2031780000,0.17346156,0.13553715,-0.8379588,0.0,0.0,-0.7230724,0
2031800000,0.19370992,0.14891538,-0.82024896,0.0,0.0,-0.7209106,0
2031820000,0.17778155,0.1361466,-0.8202696,0.0,0.0,-0.7209442,0
2031840000,0.19913355,0.14837797,-0.80140024,0.0,0.0,-0.71990794,0
2031856000,0.18948695,0.14042044,-0.8086463,0.0,0.0,-0.71996754,0
2031880000,0.20683831,0.15351701,-0.7799001,0.0,0.0,-0.71873033,0
2031900000,0.18684475,0.14460824,-0.77704495,0.0,0.0,-0.7193052,0
2031920000,0.20361222,0.16026188,-0.7561703,0.0,0.0,-0.71877474,0
2031940000,0.18821096,0.15063268,-0.7520626,0.0,0.0,-0.71894723,0
2031956000,0.18514869,0.15387422,-0.7419224,0.0,0.0,-0.7186877,0
2031980000,0.17831749,0.15904659,-0.7269565,0.0,0.0,-0.71835333,0
2032000000,0.18769899,0.1753524,-0.70684355,0.0,0.0,-0.71724904,0
2032020000,0.17185734,0.16474691,-0.70214474,0.0,0.0,-0.7166773,0
2032040000,0.18125,0.18769524,-0.6814965,0.0,0.0,-0.7155831,0
2032060000,0.16104029,0.1828948,-0.6767202,0.0,0.0,-0.71532935,0
2032080000,0.19004959,0.19175333,-0.65920526,0.0,0.0,-0.714686,0
2032100000,0.20363662,0.16174372,-0.6567437,0.0,0.0,-0.71526444,0
2032120000,0.22798884,0.17157742,-0.6397099,0.0,0.0,-0.71470225,0
2032140000,0.24343717,0.14295502,-0.6368027,0.0,0.0,-0.71459436,0
2032160000,0.23899265,0.13777746,-0.62095886,0.0,0.0,-0.7150401,0
2032180000,0.20024991,0.093667306,-0.6187395,0.0,0.0,-0.71611303,0
2032200000,0.18930835,0.09370205,-0.60363996,0.0,0.0,-0.7160602,0
2032220000,0.15809959,0.054144792,-0.60191286,0.0,0.0,-0.7163157,0
2032240000,0.15109968,0.057806723,-0.58768106,0.0,0.0,-0.7154755,0
2032260000,0.11537821,0.011291143,-0.5870148,0.0,0.0,-0.7163608,0
2032280000,0.1080605,0.013037356,-0.5734957,0.0,0.0,-0.71565205,0
2032300000,0.074368924,-0.027064636,-0.57240826,0.0,0.0,-0.7160625,0
2032320000,0.06737098,-0.018848352,-0.5598725,0.0,0.0,-0.7149147,0
2032336000,0.038595185,-0.056995317,-0.56616485,0.0,0.0,-0.715471,0
2032356000,0.027949326,-0.06596115,-0.5543569,0.0,0.0,-0.71521056,0
2032380000,0.008458406,-0.09006624,-0.5481223,0.0,0.0,-0.71476805,0
2032400000,0.0031311586,-0.07363672,-0.5362835,0.0,0.0,-0.7139017,0
2032416000,-0.020030782,-0.10538024,-0.5426342,0.0,0.0,-0.7146067,0
2032440000,-0.010910548,-0.0808073,-0.5258709,0.0,0.0,-0.71353173,0
2032460000,-0.027079739,-0.10841083,-0.525308,0.0,0.0,-0.7139958,0
2032480000,-0.01861348,-0.085115984,-0.51437265,0.0,0.0,-0.7128754,0
2032500000,-0.03249784,-0.113734126,-0.513407,0.0,0.0,-0.7134462,0
2032520000,-0.023383066,-0.086321816,-0.5022578,0.0,0.0,-0.71255976,0
2032536000,-0.033424746,-0.114509165,-0.50726515,0.0,0.0,-0.71313995,0
2032556000,-0.032802638,-0.1119256,-0.49648634,0.0,0.0,-0.7129218,0
2032576000,-0.037420623,-0.1201744,-0.49474514,0.0,0.0,-0.7134667,0
2032596000,-0.033932775,-0.1126383,-0.48392993,0.0,0.0,-0.7134209,0
2032616000,-0.036672596,-0.11508055,-0.48171663,0.0,0.0,-0.713447,0
2032640000,-0.023977503,-0.086748205,-0.464434,0.0,0.0,-0.7122622,0
2032660000,-0.033363264,-0.1119835,-0.46196634,0.0,0.0,-0.71315664,0
2032680000,-0.030425813,-0.08418137,-0.44962364,0.0,0.0,-0.7125796,0
2032700000,-0.04120634,-0.111422114,-0.44613057,0.0,0.0,-0.71371645,0
2032716000,-0.038861863,-0.10555977,-0.4395132,0.0,0.0,-0.71381235,0
2032736000,-0.028266028,-0.098927476,-0.43465164,0.0,0.0,-0.71344095,0
2032760000,-0.016370479,-0.07188788,-0.41726702,0.0,0.0,-0.7125626,0
