timestamp,x,y,z,vx,vy,vz,roll,pitch,yaw
2015916000,-68.55163,-23.071337,-488.05646,-0.029273855,0.01451278,0.013,,,
2015924000,-68.55176,-23.071234,-488.0564,-0.029025925,0.014651985,0.0134612415,0.0014439608754086087,0.0015559501937754078,1.7961571287413176
2015932000,-68.55189,-23.071129,-488.0563,-0.028944626,0.014755883,0.012452769,0.0014114329460083775,0.001561727776802066,1.7960618578707808
2015940000,-68.552025,-23.07102,-488.05624,-0.029034851,0.015329696,0.012660014,0.0014045788576650003,0.0014577222097066668,1.7960015236595726
2015948000,-68.55216,-23.070908,-488.05615,-0.02916026,0.015219972,0.013740062,,,
2015956000,-68.55231,-23.0708,-488.05606,-0.029501904,0.014976551,0.013709704,,,
2015972000,-68.552605,-23.070583,-488.05588,-0.029936008,0.015227361,0.012680464,0.0013462800357151013,0.0014833020596140794,1.79608095658794
2015980000,-68.55276,-23.07047,-488.05582,-0.030072503,0.014986685,0.012750727,0.001408042698267019,0.001564500560324747,1.7961193731073957
2015988000,-68.55292,-23.070362,-488.05573,-0.030117335,0.01483009,0.01374017,,,
2015996000,-68.553085,-23.07025,-488.0556,-0.030288132,0.014721775,0.013827468,,,
2016012000,-68.553154,-23.070456,-488.05557,-0.029390762,0.014909215,0.013600421,0.0013040649185801134,0.0016460225899680241,1.79631899281489
2016020000,-68.55306,-23.070766,-488.05563,-0.02979471,0.0147587,0.013212725,0.0012866916688655987,0.0016453417922440883,1.7963697310696263
2016028000,-68.55299,-23.071068,-488.0557,-0.030229837,0.014145909,0.013095172,,,
2016036000,-68.552925,-23.071365,-488.05573,-0.030321114,0.013186959,0.012447548,,,
2016052000,-68.55282,-23.071943,-488.05585,-0.030081294,0.012664488,0.012416698,0.001190962419572295,0.001592510587314513,1.796597733204556
2016060000,-68.55278,-23.072218,-488.0559,-0.030305997,0.012784166,0.012234784,0.0012078424617476423,0.0015364346551419944,1.7966454334064952
2016068000,-68.55274,-23.072483,-488.05597,-0.030641727,0.012470758,0.012224081,,,
2016076000,-68.55271,-23.07274,-488.05603,-0.030626683,0.012400824,0.012534477,,,
2016092000,-68.55266,-23.073227,-488.05612,-0.02925402,0.012894559,0.012183934,0.0012066952156689745,0.0016074732349504162,1.796736683407821
2016100000,-68.55264,-23.073452,-488.05615,-0.030174151,0.013049092,0.0121097285,0.0012074320086604626,0.0016218295911524553,1.796723106477941
2016108000,-68.552635,-23.073671,-488.0562,-0.030119145,0.012996985,0.011763086,,,
2016116000,-68.552635,-23.073881,-488.05624,-0.029644476,0.012867485,0.011522504,,,
2016132000,-68.55264,-23.074276,-488.05634,-0.029811192,0.012945257,0.011939546,0.0010786021042868362,0.0015876074005914697,1.796712295153707
2016140000,-68.55265,-23.07446,-488.05634,-0.030143894,0.013268895,0.012186927,0.001137047142777574,0.0016615780265431819,1.7967417138283228
2016148000,-68.55266,-23.074633,-488.05637,-0.029652812,0.013364441,0.011520235,,,
2016156000,-68.55268,-23.0748,-488.05637,-0.029571371,0.013157439,0.01068278,,,
2016172000,-68.55274,-23.075111,-488.05643,-0.030607421,0.0133388415,0.010412758,0.0012953221993966414,0.001788768707087385,1.7968761918369711
2016180000,-68.55279,-23.075262,-488.05643,-0.030133596,0.012435899,0.01034932,0.0013164569510191006,0.0017868317858674065,1.7969002809736698
2016188000,-68.552826,-23.075409,-488.05646,-0.029234271,0.01239833,0.009542159,,,
2016196000,-68.55287,-23.07555,-488.05646,-0.02870177,0.012029735,0.0085211005,,,
2016212000,-68.55296,-23.075819,-488.05652,-0.02843346,0.01191549,0.007503936,0.0013597520703137775,0.0017504219056956641,1.7968590186701943
2016220000,-68.55301,-23.075947,-488.05655,-0.027988646,0.011274642,0.007949448,0.0013940325929916442,0.001689162675764144,1.7969611561283663
2016228000,-68.55306,-23.076075,-488.05658,-0.027506357,0.01073441,0.008198922,,,
2016236000,-68.55311,-23.0762,-488.0566,-0.02755638,0.0101656495,0.0079851,,,
2016252000,-68.55322,-23.076437,-488.05664,-0.026721232,0.011069331,0.0075396067,0.0015566509521799771,0.0017587736701547981,1.7970136811569837
2016260000,-68.55328,-23.076542,-488.05667,-0.02650297,0.011444316,0.007933284,0.0016081812341850027,0.001767286088131593,1.7970752040070086
2016268000,-68.55334,-23.076637,-488.05667,-0.025715245,0.011825633,0.008412936,,,
2016276000,-68.5534,-23.076725,-488.05667,-0.02564964,0.011725749,0.008492711,,,
2016292000,-68.553535,-23.07691,-488.05667,-0.026438644,0.009428862,0.0073694442,0.0018747339404896692,0.0017444864614500866,1.796856833976359
2016300000,-68.55362,-23.077007,-488.05667,-0.027516138,0.008649021,0.007646669,0.001907385052489843,0.0017172190418497718,1.7969330194165194
2016308000,-68.55371,-23.077106,-488.05667,-0.027655283,0.008249044,0.007797592,,,
2016316000,-68.5538,-23.077198,-488.05667,-0.026906813,0.0086411815,0.008573427,,,
2016332000,-68.55399,-23.077368,-488.0566,-0.027374072,0.00885756,0.010604066,0.0017908486555965053,0.001484085069930526,1.7968886923873255
2016340000,-68.55409,-23.077446,-488.05658,-0.02713252,0.0086456705,0.0107698785,0.001807689851441671,0.0015256189605760639,1.7969006387758621
2016348000,-68.5542,-23.077522,-488.05655,-0.027753586,0.008321152,0.010860847,,,
2016356000,-68.554306,-23.077599,-488.05652,-0.027483972,0.007978017,0.010619118,,,
2016372000,-68.554535,-23.07774,-488.05643,-0.027474165,0.007979289,0.011026821,0.0018216713012135515,0.0016136389476369374,1.7966267232277648
2016380000,-68.55466,-23.077806,-488.0564,-0.02801857,0.0077581094,0.011744728,0.0017874597579649746,0.0016676212706871355,1.7965737869342866
2016388000,-68.55478,-23.077873,-488.05634,-0.028679078,0.00703627,0.011999665,,,
2016396000,-68.55492,-23.077942,-488.0563,-0.028574025,0.006778094,0.011486792,,,
2016412000,-68.554955,-23.078127,-488.05637,-0.028450033,0.0066688852,0.010243456,0.0016695199466182408,0.0016148859901891459,1.7965933998945653
2016420000,-68.55487,-23.078245,-488.05646,-0.028378956,0.006370704,0.010620774,0.001615518781755489,0.0015631096283588066,1.7966118777036955
2016428000,-68.554794,-23.078354,-488.05655,-0.028550297,0.006851763,0.011135236,,,
2016436000,-68.55472,-23.078453,-488.05664,-0.028475802,0.0074078324,0.011195519,,,
2016452000,-68.55461,-23.07863,-488.0568,-0.03007969,0.007798383,0.011189066,0.0018104169954856098,0.001510178196577514,1.7967991356725275
2016460000,-68.55457,-23.07871,-488.05685,-0.029886369,0.008217934,0.011214397,0.001780806442196248,0.0014824216095671008,1.7968123239947846
2016468000,-68.55454,-23.078783,-488.05692,-0.029792242,0.008868574,0.010364231,,,
2016476000,-68.55452,-23.078846,-488.057,-0.029929522,0.00918164,0.010612534,,,
2016492000,-68.55448,-23.078959,-488.05713,-0.028964141,0.009310025,0.010416921,0.001712482621239816,0.001682146547180342,1.7967269483943236
2016500000,-68.554474,-23.079012,-488.05716,-0.029135657,0.009077758,0.010322812,0.0016703090922868397,0.0016849310892092383,1.7967938101401133
2016508000,-68.55447,-23.079062,-488.0572,-0.028257538,0.009416137,0.009484835,,,
2016516000,-68.55446,-23.07911,-488.05722,-0.027605632,0.00912224,0.008974785,,,
2016532000,-68.55445,-23.079185,-488.0573,-0.026690988,0.0099852,0.0077342587,0.0016728088618026544,0.0017136975895983683,1.796693352618423
2016540000,-68.55445,-23.079212,-488.05734,-0.027140658,0.010752352,0.007656577,0.0016903629653643956,0.0017792842193094125,1.7967273102862398
2016548000,-68.55447,-23.079235,-488.05737,-0.027537685,0.010391341,0.0070838975,,,
2016556000,-68.55448,-23.079254,-488.05743,-0.027310705,0.010443259,0.00561481,,,
2016572000,-68.55452,-23.079287,-488.05753,-0.026928457,0.01029916,0.005604723,0.0018114411663280655,0.001734682064626304,1.7967939797427963
2016580000,-68.55455,-23.079296,-488.05756,-0.02732728,0.01046537,0.0062639797,0.0017766627789817032,0.0018129987329722885,1.7967501081007875
2016588000,-68.55459,-23.079308,-488.0576,-0.027757192,0.009581837,0.0065142903,,,
2016596000,-68.55463,-23.07932,-488.05762,-0.0274109,0.009227621,0.0071653035,,,
2016612000,-68.55472,-23.079348,-488.05765,-0.026324175,0.008403305,0.0066060005,0.0017640755327341625,0.001699454503477898,1.796666354989785
2016620000,-68.55476,-23.079361,-488.05768,-0.02650511,0.007994739,0.006402368,0.0018648226861310631,0.0017978686745966914,1.7965646861764888
2016628000,-68.55481,-23.079374,-488.0577,-0.02634353,0.008517578,0.006618174,,,
2016636000,-68.55487,-23.079378,-488.0577,-0.027248863,0.009228977,0.006385385,,,
2016652000,-68.55501,-23.079363,-488.05774,-0.027243491,0.009431102,0.006923951,0.0015820405367571197,0.001765174660146245,1.79656508419912
2016660000,-68.555084,-23.079355,-488.05777,-0.02696721,0.008419533,0.0064537427,0.00155552002436412,0.0016765372998191795,1.7966297612553492
2016668000,-68.55515,-23.079353,-488.05777,-0.02646845,0.007976646,0.0065716314,,,
2016676000,-68.55523,-23.07935,-488.0578,-0.026530737,0.0078928005,0.006124888,,,
2016692000,-68.55539,-23.079336,-488.05783,-0.026085794,0.0077147447,0.0066256747,0.001417419276537023,0.0016481865209054646,1.7964817331019822
2016700000,-68.55547,-23.07933,-488.05783,-0.02610371,0.0074593853,0.007090382,0.0015263274635306345,0.0015552534472312463,1.7964456974942018
2016708000,-68.55556,-23.079323,-488.05783,-0.025549967,0.0076726926,0.007630599,,,
2016716000,-68.55565,-23.079311,-488.05783,-0.023919873,0.007117417,0.007813781,,,
2016732000,-68.5558,-23.07928,-488.05786,-0.022866353,0.008344556,0.0087831495,0.0013457010297847625,0.0015816678834145615,1.796051631295943
2016740000,-68.555885,-23.079258,-488.05786,-0.023311097,0.008044058,0.009117915,0.0012792502448334302,0.0015843403168908487,1.7959889694990718
2016748000,-68.55598,-23.079235,-488.05783,-0.023424946,0.008028199,0.009787515,,,
2016756000,-68.55607,-23.079214,-488.05783,-0.02392609,0.007463251,0.009472479,,,
2016772000,-68.55626,-23.07917,-488.0578,-0.023596259,0.0077152103,0.009261437,0.0012797380292464558,0.001475156237803171,1.7960622064634724
2016780000,-68.55636,-23.07914,-488.0578,-0.023367787,0.008053009,0.008643796,0.0012189828019167543,0.0014435802943616133,1.7960714005718579
2016788000,-68.55646,-23.079103,-488.05777,-0.023789814,0.008100806,0.008601846,,,
2016796000,-68.556564,-23.079071,-488.05777,-0.024048993,0.007123101,0.008418212,,,
2016812000,-68.55655,-23.079107,-488.05786,-0.024868071,0.0055149337,0.008838373,0.001261740763307644,0.0014174548067664178,1.7961809322155695
2016820000,-68.556435,-23.07917,-488.05792,-0.024897587,0.0052481145,0.008857192,0.0012299530261089342,0.0012676003291256634,1.7962032614242802
2016828000,-68.55632,-23.079231,-488.058,-0.02451009,0.0048237974,0.01025082,,,
2016836000,-68.55622,-23.079292,-488.05807,-0.024892785,0.004319116,0.011464112,,,
2016852000,-68.556046,-23.079407,-488.05817,-0.024975855,0.005041012,0.012289135,0.0014397446176656152,0.0011325838370172417,1.7962341771293326
2016860000,-68.55597,-23.079454,-488.05823,-0.02424991,0.005078344,0.01198335,0.0016074230766290598,0.0012276500520389878,1.7962278419771835
2016868000,-68.55589,-23.079498,-488.05826,-0.024124255,0.0051074177,0.011693289,,,
2016876000,-68.555824,-23.079538,-488.0583,-0.023637539,0.005968258,0.011799373,,,
2016892000,-68.555695,-23.079594,-488.05835,-0.022280829,0.006561093,0.011560001,0.0016169113455072825,0.0013127734697164955,1.7962050346774414
2016900000,-68.55563,-23.079617,-488.05838,-0.02163622,0.006677488,0.0113386065,0.0016514460490162928,0.0012631019210737147,1.7960999487817604
2016908000,-68.55557,-23.079634,-488.05844,-0.021473547,0.007206882,0.010642464,,,
2016916000,-68.55552,-23.079641,-488.05847,-0.022022793,0.0077533023,0.010115551,,,
2016932000,-68.555435,-23.07965,-488.05853,-0.021579972,0.0074823406,0.011313691,0.001911668351970726,0.0011478762800489382,1.7960240986178768
2016940000,-68.5554,-23.07965,-488.05856,-0.022004886,0.008233663,0.011400854,0.0018762290098601688,0.0011595678786012781,1.7961180876386047
2016948000,-68.555374,-23.079643,-488.05856,-0.022027867,0.008354975,0.011599005,,,
2016956000,-68.55536,-23.079636,-488.0586,-0.022152347,0.008238865,0.011482113,,,
2016972000,-68.55534,-23.079613,-488.05862,-0.023111127,0.008348063,0.009966936,0.001758810521856026,0.0013301202991372052,1.7959190659931483
2016980000,-68.55535,-23.0796,-488.05865,-0.023368822,0.008075525,0.010114195,0.0018173150898784342,0.0014006433698676409,1.7959233459250523
2016988000,-68.55536,-23.079582,-488.05865,-0.023098078,0.008715554,0.01039355,,,
2016996000,-68.555374,-23.079557,-488.0587,-0.022665968,0.008996404,0.010261914,,,
2017012000,-68.5554,-23.079496,-488.0587,-0.021284949,0.00960858,0.011229679,0.001892769004467162,0.0016662937849279695,1.7958548838257027
2017020000,-68.555405,-23.07946,-488.0587,-0.020661876,0.009729782,0.010352428,0.0018780818204479901,0.0016565478299795757,1.7959235685709003
2017028000,-68.55541,-23.079422,-488.0587,-0.02082554,0.009588426,0.010272159,,,
2017036000,-68.555435,-23.079386,-488.0587,-0.021907676,0.009124844,0.010333091,,,
2017052000,-68.55551,-23.079311,-488.0587,-0.022840513,0.008907575,0.010284263,0.0018152729172510942,0.0014696923951656434,1.7959648936579091
2017060000,-68.55555,-23.079279,-488.0587,-0.023325,0.007831986,0.010211418,0.0018870977455379301,0.0014044992819498817,1.7959990532654555
2017068000,-68.5556,-23.07925,-488.0587,-0.023981897,0.007521716,0.009591955,,,
2017076000,-68.55566,-23.079224,-488.0587,-0.024264464,0.006808013,0.00952856,,,
2017092000,-68.55579,-23.079176,-488.0587,-0.024493689,0.0064654956,0.009385869,0.0019674939807013026,0.0016859432054547598,1.796146696432363
2017100000,-68.55586,-23.079153,-488.0587,-0.023723224,0.006085096,0.009532036,0.0019616543593913792,0.0017570273212137767,1.7961936195502604
2017108000,-68.55593,-23.079134,-488.0587,-0.023332506,0.005412084,0.0098904185,,,
2017116000,-68.556,-23.079115,-488.05865,-0.022939486,0.005142717,0.010377526,,,
2017132000,-68.55614,-23.079077,-488.05862,-0.021850877,0.0062471675,0.010443371,0.0018989475089243011,0.0016700354949929755,1.796075358541987
2017140000,-68.556206,-23.079048,-488.0586,-0.02253956,0.006801918,0.0106102675,0.0019189871154460583,0.0016867570661268708,1.796122062590287
2017148000,-68.55629,-23.079016,-488.05856,-0.023096051,0.006974165,0.009777233,,,
2017156000,-68.556366,-23.078974,-488.05853,-0.022593677,0.0073826173,0.009430946,,,
2017172000,-68.556526,-23.078869,-488.0585,-0.022882603,0.009062477,0.009059944,0.0020116849905663153,0.0017702514238477586,1.7962992102544342
2017180000,-68.55662,-23.07881,-488.05847,-0.023216367,0.008979294,0.009047071,0.002009974504430429,0.0017956322162390817,1.7961626009421516
2017188000,-68.55671,-23.078749,-488.05844,-0.023219185,0.00881769,0.009378884,,,
2017196000,-68.5568,-23.07869,-488.0584,-0.02387117,0.008581455,0.010115024,,,
2017212000,-68.55707,-23.078661,-488.0585,-0.024862826,0.007388781,0.009558017,0.0019456942875159435,0.0019736908151739368,1.7961428583127286
2017220000,-68.55723,-23.07869,-488.05865,-0.025072744,0.007220612,0.009465818,0.0017780304696251403,0.0020417706326057113,1.7962483195442847
2017228000,-68.557396,-23.078718,-488.05878,-0.025213793,0.006884589,0.009676896,,,
2017236000,-68.55757,-23.078747,-488.0589,-0.025362736,0.0062246947,0.009851716,,,
2017252000,-68.55791,-23.078806,-488.0591,-0.024998503,0.005192137,0.010912213,0.0017490300563171976,0.0021934866799589773,1.796145926691426
2017260000,-68.55808,-23.078838,-488.0592,-0.025517263,0.0048208483,0.010841371,0.001775292856024969,0.002313827599283748,1.7961848613214575
2017268000,-68.55826,-23.078869,-488.0593,-0.025408681,0.0044953986,0.010718852,,,
2017276000,-68.55843,-23.078897,-488.0594,-0.02522056,0.0044740764,0.010562929,,,
2017292000,-68.55877,-23.078959,-488.05954,-0.02436121,0.0035899514,0.010279796,0.0018294484947032601,0.0022889134902825733,1.7961752157304576
2017300000,-68.558945,-23.078987,-488.0596,-0.024801388,0.003916325,0.011481984,0.001903317335695426,0.002232383928193013,1.7961185670471271
2017308000,-68.55912,-23.079012,-488.05966,-0.025353244,0.003368664,0.010901427,,,
2017316000,-68.5593,-23.079042,-488.05972,-0.025292734,0.0027608129,0.011216568,,,
2017332000,-68.55966,-23.079107,-488.05984,-0.025832253,0.0026224703,0.01081332,0.0017172741669959728,0.002159965739946545,1.796256753631041
2017340000,-68.55985,-23.079134,-488.05988,-0.026836613,0.0023991424,0.010594254,0.0017115122876114831,0.0022012862925209938,1.7962621192766504
2017348000,-68.56005,-23.079163,-488.05994,-0.027542762,0.0017560361,0.0110136075,,,
2017356000,-68.56025,-23.079193,-488.05997,-0.026849616,0.0014462856,0.011005215,,,
2017372000,-68.56064,-23.079256,-488.06006,-0.026115334,0.0012217872,0.010339368,0.0014811337329980235,0.0020217594959715934,1.7965331895494778
2017380000,-68.56083,-23.079285,-488.06012,-0.025911842,0.0012621233,0.010165408,0.0014986694164822337,0.001993783906426253,1.7964751066159732
2017388000,-68.56103,-23.079311,-488.06015,-0.025898153,0.00069035473,0.0102284085,,,
2017396000,-68.56122,-23.079348,-488.06018,-0.02626196,-0.0005986625,0.010629383,,,
2017412000,-68.561615,-23.07943,-488.0602,-0.026836123,-0.0015427578,0.011361831,0.001401393840824086,0.0020440211783035087,1.7966737436523044
2017420000,-68.56181,-23.079472,-488.06024,-0.026972609,-0.0015119773,0.0110379895,0.0013240049843699603,0.00197431573383906,1.796655922869995
2017428000,-68.56202,-23.079512,-488.06027,-0.026891679,-0.0013184672,0.010594519,,,
2017436000,-68.56222,-23.079546,-488.06027,-0.02594498,-0.0008581768,0.010734557,,,
2017452000,-68.56261,-23.079618,-488.0603,-0.026097253,-0.0018201936,0.010495742,0.0013615742572002376,0.0021865254926816385,1.7965008262473912
2017460000,-68.562805,-23.079655,-488.0603,-0.026178159,-0.0014763196,0.010595467,0.0012969941529762702,0.0022285892449233355,1.7964901978381707
2017468000,-68.563,-23.079685,-488.0603,-0.02668666,-0.00046104722,0.011178078,,,
2017476000,-68.56321,-23.07971,-488.0603,-0.026954724,-0.00084789656,0.011055732,,,
2017492000,-68.56364,-23.07976,-488.06024,-0.027062926,-2.5081827e-06,0.012530146,0.0012488094153976553,0.0019460127864221544,1.7965325285779692
2017500000,-68.56385,-23.079775,-488.0602,-0.027218794,0.00046278446,0.012863467,0.001243984269960452,0.0019336936938877966,1.796530911443984
2017508000,-68.56407,-23.07979,-488.06018,-0.028054873,0.00034087052,0.013055381,,,
2017516000,-68.56429,-23.079803,-488.06015,-0.027975926,0.00012894174,0.012998218,,,
2017532000,-68.564735,-23.079823,-488.06006,-0.028246555,0.0013061248,0.013002036,0.0012225688321220118,0.001684038880916941,1.7965277666809731
2017540000,-68.564964,-23.079826,-488.06003,-0.02912523,0.001248464,0.013549976,0.0013646921924742722,0.0016983464608456985,1.7964911101288905
2017548000,-68.5652,-23.079823,-488.05997,-0.029230358,0.0019388975,0.013416154,,,
2017556000,-68.56544,-23.079815,-488.05994,-0.029655494,0.0026595113,0.013624345,,,
2017572000,-68.56593,-23.079786,-488.05984,-0.03088582,0.00243315,0.0135863265,0.0017653261107280396,0.0015237267437357396,1.7965296790061969
2017580000,-68.56619,-23.079777,-488.0598,-0.032269537,0.002353795,0.0132147,0.0018001148262945348,0.0015494861088233957,1.7965697888382448
2017588000,-68.56647,-23.079763,-488.05978,-0.03356384,0.0028830776,0.012894777,,,
2017596000,-68.56674,-23.079746,-488.05972,-0.03417241,0.0028711606,0.012972833,,,
2017612000,-68.56719,-23.079712,-488.0598,-0.03446222,0.0027427557,0.01175196,0.0018054646636056037,0.0016404641000920953,1.7962920979924775
2017620000,-68.56736,-23.079685,-488.05994,-0.033800025,0.003430229,0.01128021,0.001868012835022237,0.001649583390250985,1.796184116807971
2017628000,-68.56753,-23.079655,-488.06006,-0.03371609,0.0034091622,0.011262236,,,
2017636000,-68.56769,-23.079624,-488.06018,-0.033082947,0.0036232872,0.01088055,,,
2017652000,-68.56803,-23.079563,-488.0604,-0.0328592,0.003116705,0.010435558,0.0015168973289712384,0.0019147403130830253,1.7960644747237797
2017660000,-68.5682,-23.079535,-488.0605,-0.032829985,0.0026784884,0.010064643,0.0015146500318044829,0.002063011118470444,1.7960569110005236
2017668000,-68.568375,-23.079508,-488.06058,-0.03252346,0.0024839279,0.009583933,,,
2017676000,-68.56855,-23.079483,-488.0607,-0.031655673,0.0023501553,0.00924515,,,
2017692000,-68.56889,-23.079432,-488.0609,-0.03156152,0.0026348617,0.008825285,0.0014738098929682614,0.0020594620734298214,1.7960664403955338
2017700000,-68.56906,-23.079403,-488.061,-0.031206591,0.0026695454,0.008509277,0.0015151159785952472,0.002008603839400854,1.79603437234795
2017708000,-68.56924,-23.079376,-488.06113,-0.030946605,0.0020094041,0.00927821,,,
2017716000,-68.56941,-23.079355,-488.0612,-0.031518735,0.0014931678,0.010015241,,,
2017732000,-68.56978,-23.079317,-488.06134,-0.031375557,0.0017101007,0.009314185,0.0015589465680119151,0.002028872021061389,1.7959177283434016
2017740000,-68.56996,-23.079294,-488.06143,-0.030880254,0.0019559285,0.008747147,0.0016065906981376679,0.0020643550198073085,1.7958586492543984
2017748000,-68.570145,-23.079268,-488.06152,-0.030746548,0.0022891767,0.008473388,,,
2017756000,-68.57033,-23.07924,-488.0616,-0.030795854,0.0029100578,0.008631114,,,
2017772000,-68.57069,-23.079176,-488.06177,-0.030473413,0.0028964786,0.009014069,0.0016216430968885615,0.0018727584280278761,1.7958856070991374
2017780000,-68.57088,-23.079144,-488.06183,-0.030466793,0.0030323307,0.009060693,0.0016489334194395035,0.001844405311010206,1.7958489105388307
2017788000,-68.57106,-23.07911,-488.0619,-0.030130519,0.002757013,0.008974576,,,
2017796000,-68.57124,-23.079077,-488.06192,-0.029698612,0.002735711,0.009601969,,,
2017812000,-68.5716,-23.079008,-488.06204,-0.027363822,0.0029707216,0.008472461,0.001523737068907872,0.0017642394944098671,1.7955946611197444
2017820000,-68.57177,-23.078976,-488.06207,-0.026942171,0.002366627,0.008524101,0.001524740103740516,0.001762325390712757,1.7956993585113676
2017828000,-68.57194,-23.078943,-488.06213,-0.0265402,0.0020416183,0.00878664,,,
2017836000,-68.57211,-23.078909,-488.06216,-0.026432445,0.0024299282,0.009326504,,,
2017852000,-68.572464,-23.078829,-488.06223,-0.027492257,0.003205395,0.009499996,0.001492218181330447,0.0016591506473218572,1.7955614044640151
2017860000,-68.572655,-23.078789,-488.06226,-0.02806051,0.0028588069,0.010211715,0.0014569679891077202,0.0016796992608274905,1.795502441632458
2017868000,-68.572845,-23.078749,-488.0623,-0.028321793,0.0032049036,0.011097661,,,
2017876000,-68.573044,-23.078707,-488.06232,-0.02847517,0.0031984034,0.011003214,,,
2017892000,-68.57344,-23.078623,-488.06235,-0.0286087,0.0031016166,0.010619918,0.0014561276458752205,0.0015740902842685247,1.7955118415511544
2017900000,-68.57364,-23.078579,-488.06235,-0.028694183,0.004056506,0.009898265,0.0015413938185398456,0.0015445609199091774,1.7954748860298853
2017908000,-68.573845,-23.078527,-488.06238,-0.028823787,0.0049958085,0.010891563,,,
2017916000,-68.57405,-23.078472,-488.06238,-0.028667804,0.005139005,0.012044603,,,
2017932000,-68.57447,-23.078363,-488.06238,-0.028992249,0.0046306453,0.011649162,0.0018626173631243158,0.001467200871761623,1.7952957995712213
2017940000,-68.574684,-23.078312,-488.06238,-0.029069053,0.0041638506,0.012425723,0.0018362219584362462,0.0014600856760855993,1.7952711293296992
2017948000,-68.5749,-23.078264,-488.06235,-0.029480375,0.0040541003,0.011804451,,,
2017956000,-68.57512,-23.078215,-488.06235,-0.029329715,0.003952925,0.01139837,,,
2017972000,-68.57555,-23.078121,-488.06235,-0.02889787,0.003267421,0.0119867185,0.0017852481601839266,0.0014454195419500255,1.7952066978915318
2017980000,-68.57575,-23.078075,-488.06232,-0.028809581,0.0027623812,0.0122294575,0.0017920038538296618,0.0014382901438151937,1.7951901857879529
2017988000,-68.57596,-23.078033,-488.06232,-0.028599534,0.0031658956,0.012868291,,,
2017996000,-68.57617,-23.077988,-488.0623,-0.029695215,0.0030976932,0.01269637,,,
2018012000,-68.57628,-23.078033,-488.06232,-0.028913857,0.0023809343,0.01337103,0.001904593899971082,0.0014394227496536693,1.7952366839563905
2018020000,-68.576164,-23.078127,-488.0624,-0.029018212,0.0017871563,0.013392895,0.0018931681010360797,0.0013914662246896853,1.79526422306053
2018028000,-68.576065,-23.07822,-488.06247,-0.029209703,0.0017978667,0.013290408,,,
2018036000,-68.57597,-23.078312,-488.06253,-0.029431494,0.0012434657,0.0130558815,,,
2018052000,-68.57583,-23.0785,-488.06262,-0.029923359,5.7736725e-05,0.013777555,0.0021317330821726188,0.001157512681130486,1.7951520649727852
2018060000,-68.575775,-23.078596,-488.06268,-0.03010448,-0.0003594748,0.013823416,0.0021171696552443175,0.0011223506908938686,1.7951813139049033
2018068000,-68.57572,-23.07869,-488.0627,-0.02938026,-8.4947336e-05,0.014049501,,,
2018076000,-68.575676,-23.078781,-488.06274,-0.028845964,-0.0005326861,0.013310679,,,
2018092000,-68.5756,-23.078959,-488.0628,-0.02947401,-0.00046659313,0.012751529,0.0020777334509953053,0.0012232585135562365,1.7949298072556001
2018100000,-68.57558,-23.079044,-488.06284,-0.029959012,-0.0008200806,0.013419869,0.002066401941619063,0.0012030422795522575,1.7949520734991304
2018108000,-68.57557,-23.07913,-488.06284,-0.030509027,-0.000665858,0.013700422,,,
2018116000,-68.57557,-23.079212,-488.06287,-0.031241925,-0.0007759911,0.013273835,,,
2018132000,-68.57559,-23.079378,-488.0629,-0.029971171,-0.0017848461,0.012383904,0.0019635125725934403,0.0012683027797422324,1.7949625327399792
2018140000,-68.5756,-23.079464,-488.06293,-0.02989678,-0.0017929947,0.012061169,0.002070420839646278,0.0012907660658003234,1.7949588104630563
2018148000,-68.575615,-23.079546,-488.06296,-0.029583197,-0.0014318097,0.012561741,,,
2018156000,-68.57564,-23.079626,-488.06296,-0.02963193,-0.0017167437,0.012897174,,,
2018172000,-68.57571,-23.079777,-488.063,-0.029648358,-0.001443719,0.013046707,0.0020667078671130997,0.0010780456701411215,1.7949778428155883
2018180000,-68.575745,-23.07985,-488.063,-0.029710049,-0.0012389781,0.0125119565,0.0021055267446689297,0.0011292203633881768,1.7949825744008387
2018188000,-68.57579,-23.07992,-488.063,-0.030104399,-0.0016856997,0.012448728,,,
2018196000,-68.57584,-23.079988,-488.063,-0.02970338,-0.0012362907,0.012306662,,,
2018212000,-68.57596,-23.080118,-488.06305,-0.02941589,-0.00089037756,0.012670448,0.002200530719673317,0.0010951678129531702,1.7948436510101728
2018220000,-68.57602,-23.080175,-488.06305,-0.029330106,-0.00010781901,0.013044029,0.002169377671444379,0.001095997621865163,1.7948685934813666
2018228000,-68.57609,-23.080225,-488.06305,-0.028961882,7.882798e-05,0.012839274,,,
2018236000,-68.57616,-23.080276,-488.06305,-0.028516429,-0.00041103363,0.012664732,,,
2018252000,-68.576294,-23.080372,-488.06305,-0.028264549,0.0001389491,0.012618254,0.0020684924837541534,0.0008310881468730468,1.7946495932195794
2018260000,-68.57637,-23.080414,-488.06305,-0.028479815,0.00054129935,0.0131446775,0.0019694264565136453,0.0008264512065968917,1.7946297972509093
2018268000,-68.57645,-23.080452,-488.06305,-0.028205134,0.00054371497,0.012833313,,,
2018276000,-68.57653,-23.080492,-488.06305,-0.028243475,-0.00035518437,0.013331941,,,
2018292000,-68.576706,-23.080585,-488.06302,-0.028841717,-0.00083636574,0.013157073,0.0021054496415293246,0.00091371307989051,1.7946677222059095
2018300000,-68.576805,-23.080626,-488.06302,-0.029033791,5.957552e-05,0.013506819,0.0021526646028486858,0.0009524317268417022,1.7946889791514518
2018308000,-68.57691,-23.08066,-488.063,-0.02906941,0.0005886018,0.013344911,,,
2018316000,-68.57702,-23.080688,-488.063,-0.029528579,0.00077684736,0.012840074,,,
2018332000,-68.57727,-23.080729,-488.06293,-0.031025013,0.0013351596,0.012900667,0.002311225165643097,0.00086399836272157,1.7947527632071087
2018340000,-68.5774,-23.080744,-488.06293,-0.030930942,0.001608407,0.012372126,0.002374724313538041,0.000945067872345324,1.7947805511064656
2018348000,-68.57754,-23.080757,-488.0629,-0.031110344,0.0018634388,0.0125389155,,,
2018356000,-68.57768,-23.080769,-488.06287,-0.031020258,0.0016068814,0.012016815,,,
2018372000,-68.57797,-23.080791,-488.06284,-0.030711146,0.0014130259,0.010106547,0.00212233347115976,0.0010662374244307885,1.7950168770604409
2018380000,-68.578125,-23.080803,-488.06284,-0.030725555,0.0016908247,0.010552405,0.002123340461976624,0.0010265475777828169,1.7951275873860653
2018388000,-68.57827,-23.08081,-488.0628,-0.030889494,0.0017150007,0.010185273,,,
2018396000,-68.57843,-23.080824,-488.0628,-0.031095661,0.0007540046,0.010519163,,,
2018412000,-68.57852,-23.080841,-488.0629,-0.031458784,0.00016573332,0.011178402,0.0018812055352073695,0.0010517733946596255,1.7950376823316128
2018420000,-68.57846,-23.080841,-488.06302,-0.031283513,-0.0003724953,0.011533561,0.0018955355416108949,0.0010956000633024349,1.7950510002742788
2018428000,-68.5784,-23.080843,-488.06314,-0.031080257,-0.0010290435,0.011689209,,,
2018436000,-68.57835,-23.080849,-488.06326,-0.030780748,-0.00089160685,0.011131551,,,
2018452000,-68.578255,-23.080853,-488.06348,-0.029388955,-0.00031816424,0.011316487,0.0019104866366442773,0.000835158493598009,1.7949636052797635
2018460000,-68.57821,-23.08085,-488.0636,-0.02872601,-5.437325e-05,0.010403162,0.0018876814943892845,0.0008075335940708795,1.7949388290203074
2018468000,-68.57817,-23.080849,-488.0637,-0.028815428,-0.0005740643,0.010024866,,,
2018476000,-68.57814,-23.080849,-488.06378,-0.028501635,-0.0006402434,0.0103026265,,,
2018492000,-68.578094,-23.080856,-488.06396,-0.029198196,-0.0012406625,0.010438379,0.0018789345343890559,0.0005973631987788877,1.795020419879976
2018500000,-68.57809,-23.080862,-488.06406,-0.029423859,-0.001495646,0.010385649,0.0018627068508698917,0.0006003931991111019,1.7950569603637088
2018508000,-68.578094,-23.080866,-488.06412,-0.02924564,-0.0008571264,0.009858474,,,
2018516000,-68.578094,-23.080864,-488.0642,-0.029215574,1.304567e-05,0.010060291,,,
2018532000,-68.578125,-23.080856,-488.06433,-0.02920658,0.00047896578,0.010463647,0.0018767653801824795,0.00041980210294931296,1.79504887865726
2018540000,-68.57815,-23.080847,-488.0644,-0.030100146,0.0012761399,0.010502757,0.0019276989693100754,0.0004069864047355172,1.7949687885221677
2018548000,-68.578186,-23.080833,-488.06445,-0.030043477,0.0011550453,0.010580217,,,
2018556000,-68.578224,-23.080822,-488.0645,-0.029929131,0.0010269312,0.010376018,,,
2018572000,-68.57832,-23.080793,-488.0646,-0.029915385,0.0016611656,0.009609872,0.0020646331730078886,0.00032081135400457294,1.7950088850759207
2018580000,-68.57838,-23.080772,-488.06464,-0.030362079,0.0024607258,0.00984393,0.002059264807842269,0.00037485763610009093,1.7950196430106788
2018588000,-68.57844,-23.080748,-488.0647,-0.030233491,0.0026472646,0.0092259105,,,
2018596000,-68.57851,-23.080719,-488.06473,-0.030349063,0.0033370925,0.008407716,,,
2018612000,-68.57865,-23.08065,-488.06482,-0.03010477,0.0036426142,0.007961093,0.0020980021570629987,-3.9548380310712076e-05,1.7949453070270387
2018620000,-68.57873,-23.080616,-488.06488,-0.030147975,0.0040171747,0.007868594,0.0020439059215546056,-0.00014632177824213072,1.7948930680557484
2018628000,-68.57881,-23.080576,-488.0649,-0.030775847,0.0044653537,0.008596807,,,
2018636000,-68.5789,-23.080536,-488.06494,-0.030711222,0.004055234,0.0093197925,,,
2018652000,-68.57911,-23.080456,-488.06497,-0.03178629,0.0047928225,0.009414743,0.0018248677597265377,-0.0002615172445780916,1.7946966062651184
2018660000,-68.579216,-23.08041,-488.065,-0.031742476,0.005232871,0.009244238,0.0018296089989039133,-0.00022786465903491346,1.7946979245384433
2018668000,-68.57934,-23.08036,-488.065,-0.031618584,0.005878042,0.009481228,,,
2018676000,-68.57945,-23.080301,-488.06503,-0.031891666,0.006362559,0.009537602,,,
2018692000,-68.57971,-23.080175,-488.06503,-0.032268208,0.007531454,0.008631831,0.0016871327512267015,-0.00017327990003963305,1.7946973036671878
2018700000,-68.57985,-23.080105,-488.06503,-0.031855203,0.0075710556,0.0083537195,0.0016143575936363396,-0.00011612317783778908,1.7946166456153219
2018708000,-68.57999,-23.080034,-488.06503,-0.031315725,0.0077306493,0.008937896,,,
2018716000,-68.58012,-23.07996,-488.06503,-0.030773733,0.008679674,0.00994388,,,
2018732000,-68.58039,-23.079794,-488.065,-0.031070365,0.009609641,0.0101590585,0.0015931773873877214,1.795508433229838e-05,1.7947180191396692
2018740000,-68.580536,-23.079708,-488.065,-0.030442454,0.009584953,0.009806686,0.0015408550742268242,-6.688514263699512e-05,1.7948015726476405
2018748000,-68.58067,-23.079622,-488.06497,-0.029847806,0.009127302,0.010039071,,,
2018756000,-68.58081,-23.079544,-488.06497,-0.029699475,0.008561564,0.009956576,,,
2018772000,-68.5811,-23.079382,-488.0649,-0.029942546,0.009104181,0.009831865,0.001545053820648451,-0.00016173586552694914,1.7947126137008047
2018780000,-68.581245,-23.079298,-488.06488,-0.030497028,0.009415529,0.009995876,0.0015536569951404918,-0.00023896194989042298,1.7946678620466718
2018788000,-68.581406,-23.079214,-488.06485,-0.031142907,0.009174151,0.010883492,,,
2018796000,-68.58157,-23.079136,-488.06482,-0.031122213,0.0077223843,0.011229326,,,
2018812000,-68.58171,-23.07922,-488.06473,-0.029860146,0.007863969,0.010952223,0.0013049575108513875,-0.0006782825159323486,1.7947453921483265
2018820000,-68.58167,-23.07937,-488.0647,-0.029104134,0.007516303,0.010994722,0.0012597951438939354,-0.0007860520499912632,1.7946900252566358
2018828000,-68.58165,-23.079521,-488.06464,-0.028786385,0.0070901583,0.011616914,,,
2018836000,-68.58163,-23.079666,-488.0646,-0.029067725,0.0072374837,0.011200808,,,
2018852000,-68.581604,-23.079937,-488.06448,-0.029288184,0.007649049,0.011208671,0.0009899015194406433,-0.000708034437634223,1.7944913256771557
2018860000,-68.58161,-23.080061,-488.06445,-0.02951168,0.008229495,0.0110681,0.0009022103059741737,-0.0005943235359787397,1.7944978169095323
2018868000,-68.58162,-23.080173,-488.0644,-0.02968507,0.008809718,0.010788367,,,
2018876000,-68.581635,-23.08028,-488.06436,-0.029195653,0.008726233,0.0096072545,,,
2018892000,-68.58169,-23.08048,-488.0643,-0.029994795,0.009233659,0.009238792,0.0011449940396939808,-0.0005624438932547026,1.7945312162109044
2018900000,-68.581726,-23.080572,-488.06424,-0.029891828,0.008962805,0.009546709,0.0011969178064881317,-0.0005265763272806915,1.7945957373810384
2018908000,-68.581764,-23.08066,-488.0642,-0.029783698,0.009142343,0.009979044,,,
2018916000,-68.58181,-23.080742,-488.06415,-0.029646955,0.009406623,0.010497406,,,
2018932000,-68.58191,-23.080889,-488.06403,-0.029307688,0.009905037,0.011179273,0.0010468894246531794,-0.0006460434973743402,1.7947072612027273
2018940000,-68.58197,-23.080954,-488.06396,-0.029919425,0.010197056,0.010673354,0.0011106071805639995,-0.0006389120097026695,1.794749077677432
2018948000,-68.58205,-23.081013,-488.0639,-0.03093172,0.010380639,0.010335376,,,
2018956000,-68.58213,-23.081064,-488.06384,-0.030952724,0.010975268,0.01036476,,,
2018972000,-68.582306,-23.081171,-488.06372,-0.030424016,0.009301543,0.011000969,0.0012026956387869475,-0.0006666310276051826,1.794720824856953
2018980000,-68.5824,-23.081228,-488.06366,-0.030542301,0.009470545,0.01106355,0.0012249785241397228,-0.0007212709795215034,1.7946947701197833
2018988000,-68.5825,-23.08128,-488.0636,-0.030369626,0.009438075,0.010474297,,,
2018996000,-68.5826,-23.08133,-488.06354,-0.030499958,0.009652721,0.010029054,,,
2019012000,-68.582825,-23.08141,-488.06342,-0.030642329,0.010080645,0.01023455,0.001189747117966241,-0.0006645272276507997,1.79454185791109
2019020000,-68.58294,-23.081444,-488.06332,-0.031061556,0.010190379,0.011034258,0.001205682970877442,-0.0006961862653348862,1.794621443405084
2019028000,-68.58307,-23.081476,-488.06326,-0.0314691,0.009997842,0.010823339,,,
2019036000,-68.5832,-23.081507,-488.06317,-0.031996377,0.009781112,0.011158348,,,
2019052000,-68.58348,-23.081556,-488.06302,-0.032116365,0.009900579,0.012099925,0.00122924670012814,-0.0006070890603969662,1.794825469030964
2019060000,-68.583626,-23.081577,-488.06293,-0.03231978,0.010011755,0.012290632,0.0012090609205024768,-0.0005528171595501056,1.7949306045974704
2019068000,-68.58378,-23.081593,-488.06284,-0.031945217,0.010394332,0.012384793,,,
2019076000,-68.58393,-23.081606,-488.06274,-0.03181004,0.010344691,0.011827807,,,
2019092000,-68.58425,-23.081627,-488.06256,-0.03315351,0.009672824,0.013023662,0.001383494770234232,-0.0006753806305404892,1.7946918878701104
2019100000,-68.58442,-23.081635,-488.06247,-0.034120187,0.010441791,0.013550545,0.0013666579832493403,-0.000747013208082948,1.7946969181382348
2019108000,-68.5846,-23.081633,-488.06238,-0.034774084,0.010923534,0.013075951,,,
2019116000,-68.584785,-23.081633,-488.0623,-0.034865763,0.009684924,0.012425596,,,
2019132000,-68.58517,-23.081635,-488.06213,-0.03440417,0.009917723,0.011828794,0.0014039589059074774,-0.0007496159061617561,1.7946069867197552
2019140000,-68.58536,-23.08163,-488.06204,-0.033873465,0.009925521,0.011800381,0.0013999391711568708,-0.0008131421950796408,1.7946785963807255
2019148000,-68.58555,-23.081625,-488.06195,-0.03443787,0.01013068,0.012037102,,,
2019156000,-68.58575,-23.081615,-488.06186,-0.03467037,0.00994027,0.01236404,,,
2019172000,-68.58617,-23.081594,-488.0617,-0.034975138,0.009652602,0.010814955,0.001365050835761977,-0.0007777080374564551,1.794692754443082
2019180000,-68.58637,-23.081583,-488.0616,-0.035049994,0.009757788,0.011495528,0.0013931504493798219,-0.0007774488386640481,1.7946509379619646
2019188000,-68.586586,-23.08157,-488.06155,-0.034998458,0.009602789,0.01140006,,,
2019196000,-68.58681,-23.081556,-488.06146,-0.035169087,0.009460136,0.011491673,,,
2019212000,-68.586815,-23.081562,-488.06143,-0.03551646,0.010125955,0.011621722,0.0013841113878324451,-0.0007643546722046419,1.794639094212811
2019220000,-68.58662,-23.08158,-488.0615,-0.03501399,0.009888079,0.010749663,0.0014220235236007863,-0.0007268365064786261,1.7947011715981676
2019228000,-68.586426,-23.081596,-488.06155,-0.034521326,0.00992236,0.010457929,,,
2019236000,-68.58624,-23.08161,-488.0616,-0.034983378,0.009793122,0.010031253,,,
2019252000,-68.58593,-23.081629,-488.06177,-0.03477043,0.010074302,0.0095092105,0.0015325518023183134,-0.0006670667702516654,1.7944853522905184
2019260000,-68.58579,-23.08163,-488.06183,-0.035521448,0.010443136,0.009248473,0.0015300488753368221,-0.0006456894783068261,1.7945166432992006
2019268000,-68.58567,-23.081633,-488.06192,-0.035332754,0.010144513,0.008958081,,,
2019276000,-68.58555,-23.08163,-488.06198,-0.03468579,0.010316654,0.009558564,,,
2019292000,-68.58534,-23.081617,-488.06207,-0.03462995,0.010851138,0.009724514,0.001271816963371609,-0.0005628278310468573,1.7947887858252574
2019300000,-68.58525,-23.0816,-488.06213,-0.034284934,0.011806367,0.009403778,0.001215058706857317,-0.0006746728252225218,1.7947505518892342
2019308000,-68.58517,-23.08158,-488.06216,-0.034007587,0.01154348,0.009887507,,,
2019316000,-68.5851,-23.08156,-488.06223,-0.034526076,0.01092197,0.010430174,,,
2019332000,-68.58499,-23.081518,-488.0623,-0.035154898,0.011645312,0.010220293,0.0012285662097637471,-0.0007530959103594237,1.7949598799841897
2019340000,-68.58495,-23.08149,-488.06232,-0.035101958,0.0120229935,0.009988894,0.0012314800104111458,-0.0006584006371687066,1.7949241530864495
2019348000,-68.58493,-23.081453,-488.06232,-0.034781,0.012373746,0.009867854,,,
2019356000,-68.5849,-23.081417,-488.06235,-0.034387212,0.01204967,0.009421469,,,
2019372000,-68.58487,-23.081343,-488.06238,-0.03415557,0.011892479,0.0097809695,0.0012825578958559087,-0.0007869011836112828,1.794809541044279
2019380000,-68.58487,-23.081305,-488.0624,-0.03463597,0.012292916,0.009409416,0.0013484704293588758,-0.0007881031721818584,1.7947022971079034
2019388000,-68.584885,-23.081263,-488.0624,-0.034800384,0.012471263,0.009401717,,,
2019396000,-68.5849,-23.081217,-488.06244,-0.035059385,0.012903256,0.008930275,,,
2019412000,-68.58497,-23.081106,-488.06247,-0.035967454,0.014156542,0.0087988,0.0014229924791747846,-0.000621311639362682,1.7946379422483014
2019420000,-68.585014,-23.081041,-488.06247,-0.035721313,0.01469458,0.0076863905,0.0013763150111687208,-0.0006516138552809452,1.794603948527211
2019428000,-68.58507,-23.080969,-488.0625,-0.036076423,0.015876047,0.007839638,,,
2019436000,-68.58513,-23.080887,-488.0625,-0.03629391,0.016149383,0.007901852,,,
2019452000,-68.585266,-23.080723,-488.06256,-0.034815915,0.016231691,0.0072259726,0.0013383039653009352,-0.0008503091382066725,1.794721601669547
2019460000,-68.585335,-23.080633,-488.0626,-0.03490945,0.01732734,0.0069844183,0.001254737166720908,-0.0009064005648371318,1.79468945732101
2019468000,-68.58541,-23.080536,-488.06262,-0.035304926,0.017949166,0.007045157,,,
2019476000,-68.585495,-23.080439,-488.06265,-0.035277415,0.017124435,0.0073732366,,,
2019492000,-68.58568,-23.080248,-488.06268,-0.03618274,0.016957048,0.0073622684,0.0011406687468666318,-0.0006475543939447121,1.7945443650307797
2019500000,-68.585785,-23.08015,-488.0627,-0.036209803,0.017225727,0.0073283003,0.00116185108634972,-0.0005824569127170936,1.7945495115233177
2019508000,-68.5859,-23.08005,-488.0627,-0.036700394,0.017571948,0.0073623937,,,
2019516000,-68.58602,-23.079947,-488.0627,-0.036321234,0.017078951,0.007400426,,,
2019532000,-68.586266,-23.079733,-488.06274,-0.035874255,0.017851308,0.00778901,0.0010385514597859476,-0.0003714691350917468,1.7945868288167628
2019540000,-68.58639,-23.079622,-488.06274,-0.035615824,0.017660517,0.007876052,0.0010388171813404126,-0.0004194617336221535,1.794575695714362
2019548000,-68.58652,-23.079512,-488.06274,-0.03509694,0.017626833,0.0075274142,,,
2019556000,-68.58665,-23.079403,-488.06274,-0.03545674,0.017105533,0.00736683,,,
2019572000,-68.58693,-23.079187,-488.06274,-0.035528716,0.017399753,0.007956001,0.0010075883741795522,-0.00043804895485973004,1.7944607321088621
2019580000,-68.587074,-23.079071,-488.06274,-0.03534698,0.018159822,0.008375538,0.0009528449039805879,-0.0005031546091620833,1.7943536309412547
2019588000,-68.58722,-23.078945,-488.06274,-0.035105173,0.019514194,0.008010332,,,
2019596000,-68.587364,-23.078814,-488.06274,-0.035093717,0.019566484,0.007693097,,,
2019612000,-68.58686,-23.078592,-488.06302,-0.035183605,0.019574303,0.008726294,0.0010168962456397913,-0.0006073509367116949,1.7941419384284165
2019620000,-68.58663,-23.07848,-488.06314,-0.034393325,0.01951713,0.009210113,0.0009061218599212625,-0.0006246377421680268,1.7941545589105585
2019628000,-68.58641,-23.078367,-488.06323,-0.034273274,0.019472064,0.009140234,,,
2019636000,-68.586205,-23.078253,-488.06335,-0.034460012,0.019575475,0.009828339,,,
2019652000,-68.58584,-23.078018,-488.06354,-0.03513034,0.019753005,0.010264389,0.0007117428489158044,-0.0005895689005716667,1.794145016264098
2019660000,-68.58567,-23.077896,-488.06363,-0.034799803,0.019967072,0.010049964,0.0007801686223192297,-0.0005270598583869987,1.7941555285031465
2019668000,-68.58552,-23.077774,-488.0637,-0.035304893,0.019865243,0.010301586,,,
2019676000,-68.58537,-23.077652,-488.06378,-0.03529058,0.019782513,0.010295058,,,
2019692000,-68.58512,-23.077394,-488.0639,-0.034797255,0.021043634,0.009618928,0.0010703316732747555,-0.0005006720521114242,1.7940025766488648
2019700000,-68.58501,-23.077261,-488.06396,-0.03570368,0.020522447,0.009050844,0.0009813228760053897,-0.0004434774309476581,1.7939282538864125
2019708000,-68.584915,-23.07713,-488.06406,-0.03540123,0.020508626,0.008851091,,,
2019716000,-68.58482,-23.076996,-488.06412,-0.035219163,0.02034505,0.008566005,,,
2019732000,-68.58468,-23.076733,-488.06424,-0.036172763,0.020327868,0.007511129,0.0009374676645694674,-0.0006275415483171469,1.7940957521988126
2019740000,-68.58463,-23.076597,-488.0643,-0.036474343,0.02081255,0.007169749,0.0008964846571920724,-0.0005662326305068765,1.7941108931109366
2019748000,-68.584595,-23.076456,-488.06436,-0.03675847,0.021363104,0.007226489,,,
2019756000,-68.584564,-23.07631,-488.06445,-0.03645707,0.021958945,0.0069961017,,,
2019772000,-68.58453,-23.07601,-488.06458,-0.03751204,0.021821449,0.0065672877,0.0008820628979621638,-0.0005595791445643676,1.7940081749265675
2019780000,-68.58453,-23.075861,-488.06464,-0.037424892,0.02138113,0.007286895,0.0009116198632682909,-0.0006166440243475278,1.7940596634627077
2019788000,-68.58455,-23.075712,-488.06467,-0.037714418,0.021762742,0.0075003076,,,
2019796000,-68.584564,-23.075558,-488.06473,-0.037760384,0.02207044,0.007378855,,,
2019812000,-68.58463,-23.075249,-488.06482,-0.03765451,0.02228389,0.0063999323,0.0010118338666481098,-0.0005220860130775944,1.7938464966930632
2019820000,-68.58467,-23.075092,-488.06488,-0.037181497,0.021921068,0.0066529624,0.0009482006907671435,-0.0005248284673972599,1.7937210210197334
2019828000,-68.58472,-23.07494,-488.0649,-0.036742967,0.021652585,0.005925019,,,
2019836000,-68.58476,-23.074785,-488.06497,-0.03699815,0.022165159,0.005236847,,,
2019852000,-68.58489,-23.074465,-488.06506,-0.037187804,0.022466945,0.0041153063,0.0009243902165783231,-0.0004705340425886736,1.7936727025452663
2019860000,-68.58496,-23.074305,-488.0651,-0.03742967,0.022088703,0.004137099,0.000923955172658849,-0.0004256603844015693,1.7937065667952314
2019868000,-68.585045,-23.074144,-488.06516,-0.03785087,0.022070168,0.0036520273,,,
2019876000,-68.585144,-23.073984,-488.06522,-0.0384179,0.022805922,0.003622526,,,
2019892000,-68.585365,-23.073643,-488.06528,-0.03973542,0.023929628,0.0038330387,0.0008996407430918385,-0.00013884843837380393,1.7937975550389553
2019900000,-68.585495,-23.073467,-488.06534,-0.040769007,0.024620049,0.0042982707,0.000835712987005906,-9.517659796801442e-05,1.7938115070335872
2019908000,-68.58564,-23.07328,-488.06537,-0.040993914,0.025497852,0.004624326,,,
2019916000,-68.585785,-23.073092,-488.0654,-0.041953847,0.025673063,0.0040702675,,,
2019932000,-68.58611,-23.072704,-488.06546,-0.04127074,0.026109483,0.003531241,0.0007917133166753822,0.00010162332927604615,1.79381383456339
2019940000,-68.58627,-23.07251,-488.0655,-0.04104712,0.025579175,0.0030830035,0.0007963425704087931,0.00013456892379196068,1.7937341460156222
2019948000,-68.58644,-23.072323,-488.06552,-0.041162446,0.02517067,0.0039420906,,,
2019956000,-68.586624,-23.072136,-488.06555,-0.04203292,0.02479448,0.004016689,,,
2019972000,-68.587006,-23.071772,-488.06558,-0.04282196,0.02409028,0.0035822599,0.0007996006161617439,0.00017216819190726357,1.793618342440974
2019980000,-68.587204,-23.071592,-488.0656,-0.042688277,0.023345998,0.003575978,0.0008141669626155039,0.00011433725037378506,1.7936658734398148
2019988000,-68.58741,-23.071417,-488.06564,-0.042543,0.023528881,0.0029376466,,,
2019996000,-68.587616,-23.071241,-488.06567,-0.04310594,0.023014445,0.003200499,,,
2020012000,-68.58763,-23.071262,-488.06598,-0.044233393,0.023009013,0.0032584802,0.0006599228396802325,5.765818062639138e-05,1.7936464657523976
2020020000,-68.58744,-23.071447,-488.06628,-0.044099472,0.023812834,0.0031811714,0.0006583235845101291,-9.612384019567578e-06,1.793611800851701
2020028000,-68.587265,-23.071615,-488.06656,-0.04398903,0.024153285,0.0025222253,,,
2020036000,-68.587105,-23.071775,-488.06683,-0.044424895,0.02392834,0.0022156676,,,
2020052000,-68.58682,-23.072075,-488.06738,-0.043191653,0.02412449,0.0023503883,0.0005756965067641559,6.502791079618912e-05,1.793788284467143
2020060000,-68.58669,-23.072206,-488.06763,-0.04342541,0.02487398,0.0028308427,0.0004582004847182065,7.115962222636085e-05,1.7937913622687005
2020068000,-68.58658,-23.07232,-488.06787,-0.043188732,0.025991602,0.003988375,,,
2020076000,-68.58647,-23.07242,-488.06808,-0.042086937,0.02687167,0.0041757487,,,
2020092000,-68.58628,-23.072578,-488.0685,-0.0421383,0.027733577,0.0035469576,0.0003337136661225703,0.00012754241504826525,1.7938086881099997
2020100000,-68.586205,-23.072645,-488.06873,-0.04149985,0.02804446,0.0037644298,0.00034741062645501973,9.20658568638853e-05,1.7938397466136902
2020108000,-68.58613,-23.072699,-488.06894,-0.040830277,0.028920554,0.004385788,,,
2020116000,-68.58606,-23.07274,-488.06912,-0.040774714,0.02933962,0.0052008103,,,
2020132000,-68.58596,-23.072794,-488.06946,-0.041589003,0.030563174,0.005098124,0.0004727675034145328,0.00019609849676442836,1.7940555261829032
2020140000,-68.58593,-23.072802,-488.06964,-0.041402902,0.031000283,0.005108957,0.0004748792480262769,0.00020102452389315716,1.794160778021074
2020148000,-68.5859,-23.072807,-488.0698,-0.041082703,0.030348381,0.004604527,,,
2020156000,-68.585884,-23.07281,-488.06995,-0.040996768,0.029975744,0.005135975,,,
2020172000,-68.585884,-23.072798,-488.07025,-0.04120571,0.031147508,0.0059016724,0.00047383162665599876,-7.212714996854759e-05,1.7942748354087488
2020180000,-68.58589,-23.07278,-488.07037,-0.04156049,0.031038817,0.006519077,0.0003865887448776856,-5.234932180091115e-05,1.7942066022966119
2020188000,-68.585915,-23.072756,-488.0705,-0.041673377,0.030800287,0.006812164,,,
2020196000,-68.58595,-23.072733,-488.07062,-0.042397544,0.029787522,0.0065702247,,,
2020212000,-68.58605,-23.072681,-488.07086,-0.04263041,0.029825056,0.0056109005,0.0002674207594432666,-7.253220980594635e-05,1.794146540693617
2020220000,-68.58611,-23.072647,-488.07098,-0.042025577,0.029702002,0.0050419755,0.00021677788414893882,-9.709860023729342e-06,1.7941748330883722
2020228000,-68.58618,-23.072609,-488.07108,-0.041762605,0.029889893,0.0044168658,,,
2020236000,-68.58626,-23.072565,-488.0712,-0.04192551,0.030275982,0.004453771,,,
2020252000,-68.586426,-23.07245,-488.0714,-0.04220246,0.03143205,0.0047653825,2.026010770073488e-05,0.00022018174236664568,1.7941592642188091
2020260000,-68.586525,-23.07238,-488.07153,-0.042054597,0.03182739,0.0049731545,2.7507792579055676e-05,0.0002717682252098516,1.7941778449067207
2020268000,-68.58663,-23.072302,-488.07162,-0.04173735,0.031898607,0.004913901,,,
2020276000,-68.58674,-23.07222,-488.07172,-0.04146229,0.032137584,0.004917879,,,
2020292000,-68.586975,-23.072048,-488.07187,-0.042380724,0.03094178,0.0046082386,-0.0001495297876075695,0.00056216589342223,1.7940645378367563
2020300000,-68.587105,-23.071966,-488.07196,-0.042079855,0.03104103,0.004035716,-0.00012281088080883627,0.0005801373952454624,1.7939889231099553
2020308000,-68.587234,-23.071877,-488.07205,-0.04256569,0.031313796,0.0039617834,,,
2020316000,-68.58738,-23.071781,-488.0721,-0.0429348,0.031348795,0.0041521904,,,
2020332000,-68.587685,-23.071583,-488.07227,-0.043567408,0.03133098,0.0048070964,-0.00023999626280389193,0.0007126099683899613,1.7937950872678543
2020340000,-68.58785,-23.071478,-488.07236,-0.04370734,0.03130838,0.00484557,-7.437249891657678e-05,0.0006469372179867708,1.7938631645503074
2020348000,-68.58803,-23.071367,-488.07242,-0.043953747,0.031342678,0.0053971936,,,
2020356000,-68.5882,-23.071255,-488.07248,-0.044240497,0.031369127,0.0056766444,,,
2020372000,-68.58858,-23.071018,-488.07257,-0.043894306,0.030710889,0.00616679,-0.00010059313535459544,0.000692082391421171,1.7940212999810692
2020380000,-68.588776,-23.070902,-488.07263,-0.043820582,0.02981688,0.006272098,-0.00010945147676875846,0.0007473193804648145,1.7939940299941375
2020388000,-68.588974,-23.070787,-488.07266,-0.04426568,0.02931447,0.007091149,,,
2020396000,-68.58917,-23.070675,-488.0727,-0.04380594,0.029071975,0.007590159,,,
2020412000,-68.58903,-23.070717,-488.07297,-0.04378764,0.028431445,0.007087914,2.602937086936656e-05,0.0009108964682144345,1.7938628157830458
2020420000,-68.58869,-23.07087,-488.0732,-0.044039935,0.02804916,0.0068831434,3.784160418948761e-05,0.0009512953963705667,1.7938414161601377
2020428000,-68.58837,-23.071014,-488.07343,-0.0437521,0.027545946,0.0066713393,,,
2020436000,-68.588066,-23.071152,-488.07367,-0.043297544,0.027732821,0.0067772786,,,
2020452000,-68.58749,-23.071396,-488.07407,-0.04204621,0.028112246,0.0070103332,-0.0002701656221745619,0.0007957566088770218,1.7939199026173567
2020460000,-68.58722,-23.0715,-488.07428,-0.0414613,0.028067531,0.0074437787,-0.00026245972710757634,0.0008421763609117708,1.7938603588097757
2020468000,-68.58696,-23.071602,-488.07446,-0.04068821,0.027470248,0.0073769363,,,
2020476000,-68.58671,-23.071695,-488.07465,-0.040638078,0.028316012,0.00645835,,,
2020492000,-68.58624,-23.071838,-488.075,-0.039176118,0.029219316,0.0066630435,-0.0001523819088430964,0.0007737722088642296,1.7937735054870623
2020500000,-68.58603,-23.071896,-488.07516,-0.038900014,0.029466478,0.0066315676,-0.00011894768809300438,0.0008199244957826005,1.7937391762063815
2020508000,-68.58582,-23.071941,-488.07532,-0.038432855,0.029949846,0.0067979884,,,
2020516000,-68.585625,-23.07198,-488.07547,-0.038518604,0.029693104,0.006655315,,,
2020532000,-68.58528,-23.07204,-488.07578,-0.03893007,0.029696,0.0058518867,-8.516072959754662e-05,0.0009646874718929439,1.7935735667632073
2020540000,-68.58513,-23.07206,-488.07593,-0.038668618,0.02956124,0.005220335,-7.185593634606256e-05,0.000953113455275749,1.7935545078478683
2020548000,-68.584984,-23.072073,-488.07608,-0.03812107,0.029873738,0.0045229727,,,
2020556000,-68.58485,-23.072073,-488.07623,-0.037984714,0.030617893,0.00345314,,,
2020572000,-68.5846,-23.07205,-488.07654,-0.036960736,0.030602459,0.0010560933,-0.0004572988952596123,0.0008308749321375052,1.793560481302793
2020580000,-68.58449,-23.072035,-488.0767,-0.03636274,0.030259475,-0.0012486257,-0.0005748124456291656,0.0007711334219771177,1.7935815957067995
2020588000,-68.58439,-23.072016,-488.07687,-0.036070604,0.029703975,-0.003652642,,,
2020596000,-68.58429,-23.071997,-488.0771,-0.03559702,0.029329553,-0.0055716652,,,
2020612000,-68.584114,-23.071938,-488.0775,-0.034704104,0.029682605,-0.009918884,-0.0018852597059707155,0.0008719516858817641,1.7936519764544214
2020620000,-68.58404,-23.071903,-488.07776,-0.034569375,0.02921957,-0.0116050085,-0.002376209860729073,0.0008731957004843937,1.7935519741309898
2020628000,-68.58396,-23.071865,-488.078,-0.0336527,0.028867684,-0.013421968,,,
2020636000,-68.58389,-23.071825,-488.07825,-0.033246864,0.028582804,-0.014937733,,,
2020652000,-68.58378,-23.07175,-488.0788,-0.033159412,0.027322,-0.020220336,-0.0051320782008237205,0.0008910986377176738,1.7936572128151749
2020660000,-68.58373,-23.071709,-488.0791,-0.032845765,0.027743304,-0.02335193,-0.006134814750992658,0.0009013906876233623,1.793621356650578
2020668000,-68.58368,-23.07166,-488.0794,-0.031156106,0.02829201,-0.027258614,,,
2020676000,-68.58363,-23.071602,-488.07977,-0.030880995,0.028145233,-0.030112093,,,
2020692000,-68.58355,-23.071472,-488.08054,-0.028850606,0.02865042,-0.0372632,-0.01082828559965642,0.0011791040127749853,1.7937795208391387
2020700000,-68.5835,-23.0714,-488.08096,-0.027500357,0.028584015,-0.041094795,-0.012008458801685093,0.0013905539933453072,1.793696587800792
2020708000,-68.58346,-23.071323,-488.08142,-0.02638156,0.028253451,-0.044421103,,,
2020716000,-68.583405,-23.071245,-488.08188,-0.02488765,0.027960472,-0.047568724,,,
2020732000,-68.5833,-23.071083,-488.0829,-0.022235285,0.027480755,-0.052765075,-0.017108054497495702,0.002900980290963605,1.7936219802941764
2020740000,-68.58323,-23.071001,-488.0834,-0.020178583,0.026993228,-0.056488786,-0.018358987933161916,0.003508033906792365,1.793612187877166
2020748000,-68.58316,-23.070913,-488.08395,-0.018125588,0.027656656,-0.05980831,,,
2020756000,-68.58308,-23.07082,-488.08453,-0.016384618,0.027490634,-0.06333953,,,
2020772000,-68.58289,-23.070618,-488.0858,-0.012873292,0.028505823,-0.07279991,-0.023964210551190773,0.006266216776849582,1.793519117968729
2020780000,-68.58279,-23.070505,-488.0865,-0.011237471,0.028731618,-0.07827331,-0.025305445866640488,0.006979799691794252,1.7934814580090557
2020788000,-68.58267,-23.070387,-488.08722,-0.009639672,0.029145587,-0.08430391,,,
2020796000,-68.58256,-23.07026,-488.08798,-0.007110525,0.0297268,-0.08952782,,,
2020812000,-68.581894,-23.070328,-488.08966,-0.0020065112,0.029337551,-0.09957551,-0.02962684907570291,0.009331257455936003,1.7936016875395386
2020820000,-68.58137,-23.070524,-488.09055,5.9460202e-05,0.029123833,-0.10538011,-0.030507989945358253,0.009892911900041651,1.7935351170869784
2020828000,-68.58083,-23.070715,-488.0915,0.0025352254,0.028277412,-0.11164862,,,
2020836000,-68.58029,-23.0709,-488.0925,0.00502044,0.02742018,-0.11776811,,,
2020852000,-68.57919,-23.07126,-488.09464,0.010649712,0.026000973,-0.12893055,-0.03335242094986818,0.012140234190874502,1.7934877863211247
2020860000,-68.57863,-23.07143,-488.09576,0.013985411,0.025674185,-0.1360277,-0.03390596136395005,0.012706907622443323,1.7934568308486356
2020868000,-68.57804,-23.071596,-488.09692,0.017179502,0.024961146,-0.1429935,,,
2020876000,-68.577446,-23.071756,-488.09818,0.019931922,0.02484597,-0.14924528,,,
2020892000,-68.57623,-23.072056,-488.1008,0.025473842,0.023744214,-0.16201676,-0.035299112114501915,0.014539589218617628,1.7932783716057246
2020900000,-68.5756,-23.0722,-488.1022,0.028472902,0.022987807,-0.16810337,-0.035463406748392136,0.015047975617169945,1.7932631551293519
2020908000,-68.57497,-23.072346,-488.10364,0.031670257,0.022069175,-0.17517278,,,
2020916000,-68.57431,-23.072485,-488.10513,0.0354981,0.021772465,-0.18225557,,,
2020932000,-68.57294,-23.072748,-488.10828,0.041844808,0.020978197,-0.19569705,-0.03573386059601869,0.016259954598816632,1.7931882352625401
2020940000,-68.57224,-23.07288,-488.10992,0.044242453,0.02037544,-0.20299876,-0.03569965629825471,0.0163986060370677,1.793121449366057
2020948000,-68.57153,-23.073004,-488.11163,0.047390025,0.020405538,-0.21044883,,,
2020956000,-68.570816,-23.073124,-488.1134,0.05037163,0.019854223,-0.21773225,,,
2020972000,-68.56932,-23.073368,-488.11713,0.055963136,0.017295348,-0.23155953,-0.03513399888003415,0.016521922400753307,1.7932639273681514
2020980000,-68.56856,-23.07349,-488.11908,0.05912503,0.017195052,-0.23885408,-0.03497022349125182,0.016474094340311926,1.7933560010031668
2020988000,-68.56778,-23.073606,-488.12106,0.06229295,0.01676496,-0.24613562,,,
2020996000,-68.56698,-23.073723,-488.1231,0.06528666,0.016132014,-0.25322026,,,
2021012000,-68.56534,-23.073957,-488.12738,0.071317345,0.013629425,-0.26723686,-0.03387587501300778,0.016606203754416446,1.7932501486527495
2021020000,-68.56449,-23.074076,-488.12958,0.07427901,0.013405137,-0.27454516,-0.03338463587112304,0.016471408041549333,1.7932173049548084
2021028000,-68.56363,-23.074194,-488.13187,0.077285886,0.012087133,-0.28161663,,,
2021036000,-68.56275,-23.074316,-488.1342,0.080289215,0.011234354,-0.28928122,,,
2021052000,-68.560936,-23.074553,-488.139,0.08592869,0.010755786,-0.30317557,-0.03127160995205356,0.01612366561422094,1.7933656902539434
2021060000,-68.56001,-23.074663,-488.1415,0.08831832,0.010772239,-0.31042168,-0.03056493891159757,0.015946482930118216,1.7934586584173389
2021068000,-68.55908,-23.074772,-488.14404,0.09029469,0.010552019,-0.3175779,,,
2021076000,-68.55814,-23.074879,-488.14664,0.09279292,0.009263421,-0.32481718,,,
2021092000,-68.55622,-23.075096,-488.15204,0.09848067,0.008351496,-0.34059006,-0.0279011951675445,0.015025767582368541,1.7935982245379083
2021100000,-68.55524,-23.075205,-488.15482,0.10094861,0.007028164,-0.34894502,-0.027336022313090704,0.014663675102528207,1.7935463721580926
2021108000,-68.55424,-23.075323,-488.15768,0.10383891,0.005679503,-0.3562476,,,
2021116000,-68.55322,-23.075443,-488.16058,0.10519671,0.0047591077,-0.36360252,,,
2021132000,-68.55118,-23.075687,-488.16656,0.10881706,0.0036202956,-0.3791665,-0.024835499216612145,0.013373136521121433,1.7934552358785316
2021140000,-68.55014,-23.075813,-488.16968,0.11098043,0.0027795443,-0.3870198,-0.024133758442918655,0.013072079737910202,1.7934710231424147
2021148000,-68.549095,-23.075943,-488.17282,0.112986304,0.0021840397,-0.39493614,,,
2021156000,-68.54804,-23.076075,-488.17603,0.115153305,0.001093352,-0.40243244,,,
2021172000,-68.5459,-23.07634,-488.18262,0.11808465,0.00025921533,-0.41653857,-0.020905681659593257,0.011990829861751692,1.7937031205398206
2021180000,-68.54482,-23.076473,-488.186,0.11932778,-0.00065252214,-0.4243073,-0.020033336604689457,0.011644151558194217,1.793806331593381
2021188000,-68.54374,-23.076607,-488.18948,0.120440625,-0.0005511516,-0.43221894,,,
2021196000,-68.54265,-23.076736,-488.193,0.1216312,-0.00088836736,-0.4395552,,,
2021212000,-68.54063,-23.077263,-488.2001,0.12557352,-0.0018821883,-0.45428264,-0.016765550016905856,0.010278437588861232,1.7941107630333213
2021220000,-68.53969,-23.077658,-488.20374,0.12590663,-0.0026642184,-0.4619497,-0.016112122038792188,0.009845343214292705,1.794183245941664
