timestamp,x,y,z,vx,vy,vz,roll,pitch,yaw
3884000,-0.0003989103,0.00054141606,-2.5270085e-05,-0.006945825,0.010109502,0.0011126697,,,
3892000,-0.00045448492,0.00062636205,-1.2822406e-05,-0.0068419836,0.010977391,0.0016435491,,,
3900000,-0.00051230815,0.0007131035,5.5466808e-06,-0.0073568663,0.010655972,0.0022369386,,,
3908000,-0.0005764933,0.00079828827,2.9525982e-05,-0.008261899,0.010795595,0.002893825,,,
3916000,-0.00064822036,0.000885702,5.974942e-05,-0.009109304,0.011256291,0.0033441884,,,
3924000,-0.00072797213,0.0009766008,9.393702e-05,-0.010253262,0.011488385,0.0037291355,,,
3940000,-0.0009134857,0.0011584841,0.00017039491,-0.012049034,0.011705025,0.0041115526,,,
3948000,-0.001017653,0.0012508593,0.00021145462,-0.012835915,0.011576849,0.00408801,,,
3956000,-0.0011259449,0.0013430205,0.00025281357,-0.012995311,0.011692992,0.0039756508,,,
3964000,-0.0012367055,0.0014370355,0.00029612405,-0.013402793,0.012060168,0.0043365047,,,
3980000,-0.0014762327,0.0016382886,0.0003828399,-0.014739468,0.013630988,0.0038747198,,,
3988000,-0.0016008122,0.0017501573,0.00042312613,-0.014797737,0.014545128,0.0034972688,,,
3996000,-0.0017273589,0.0018682999,0.0004655207,-0.01516532,0.015292665,0.004130801,,,
4004000,-0.0018595898,0.0019900694,0.00051183207,-0.01592209,0.015489988,0.0044230986,,,
4020000,-0.0021429805,0.0022459917,0.00060401927,-0.017766658,0.0166457,0.0034501052,,,
4028000,-0.002298735,0.0023807539,0.00064292044,-0.018883692,0.017194625,0.0029630596,,,
4036000,-0.002462828,0.0025167002,0.0006783927,-0.019704971,0.017414136,0.0026761782,,,
4044000,-0.002631359,0.0026574507,0.00071359705,-0.019958008,0.018027365,0.002629673,,,
4060000,-0.002979471,0.0029429637,0.000785555,-0.021009754,0.018647468,0.0023324192,,,
4068000,-0.0031606127,0.0030933602,0.0008155698,-0.021513004,0.019330865,0.0017431115,,,
4076000,-0.0033462462,0.003245528,0.00084470253,-0.02202255,0.019135997,0.0018083255,,,
4084000,-0.0035345526,0.003396548,0.0008750196,-0.022133911,0.019127311,0.002152377,,,
4100000,-0.0038419159,0.0036316412,0.000916434,-0.024629831,0.01904393,0.0025197132,,,
4108000,-0.0040142136,0.0037515634,0.0009395944,-0.025778351,0.01972893,0.0024700472,,,
4116000,-0.004196637,0.0038795797,0.0009624241,-0.026627414,0.020731024,0.0026147582,,,
4124000,-0.0043871026,0.004015175,0.0009887244,-0.027508235,0.021340191,0.003091558,,,
4140000,-0.0047930535,0.004303897,0.0010464753,-0.029291427,0.022901818,0.0032297259,,,
4148000,-0.005006811,0.0044597555,0.0010783419,-0.029737087,0.023684982,0.003547282,,,
4156000,-0.0052273357,0.0046196575,0.0011151467,-0.03049819,0.023745386,0.0045519727,,,
4164000,-0.00545258,0.0047827885,0.0011597046,-0.030630358,0.024336843,0.005194292,,,
4180000,-0.005915735,0.005116827,0.0012507061,-0.031889718,0.0242247,0.0048823087,,,
4188000,-0.006156828,0.005281999,0.0012957177,-0.032356616,0.024012681,0.004907047,,,
4196000,-0.0064044413,0.0054480983,0.0013412673,-0.03348077,0.023981292,0.0050088675,,,
4204000,-0.0066621318,0.005614434,0.0013886095,-0.03437927,0.024148475,0.0053054863,,,
4220000,-0.007191118,0.0059549008,0.0014913452,-0.03544776,0.024541473,0.0056321677,,,
4228000,-0.0074691684,0.0061292592,0.0015416571,-0.036757696,0.025148135,0.0053237583,,,
4236000,-0.007754304,0.006309152,0.0015929537,-0.037208654,0.025548447,0.006036334,,,
4244000,-0.0080441125,0.006494502,0.0016519983,-0.03774852,0.026661035,0.00682473,,,
4260000,-0.008638835,0.006882255,0.0017780615,-0.038798846,0.027155425,0.007302139,,,
4268000,-0.008945493,0.007082433,0.0018461784,-0.03972549,0.028042965,0.007960715,,,
4276000,-0.009257772,0.0072871665,0.0019184654,-0.040138505,0.02838519,0.008309883,,,
4284000,-0.009576453,0.0074969353,0.0019901413,-0.041032623,0.02894286,0.0076385285,,,
4300000,-0.0101057,0.007825686,0.0021124515,-0.041591648,0.028866997,0.008350999,,,
4308000,-0.0103116855,0.00794577,0.0021730368,-0.0415351,0.02908631,0.008678567,,,
4316000,-0.010518971,0.008065777,0.0022389,-0.041848682,0.028767964,0.009517712,,,
4324000,-0.010731174,0.008182787,0.0023085594,-0.042711366,0.028428342,0.009550952,,,
4340000,-0.0111660315,0.0084075555,0.0024564005,-0.04347792,0.02741791,0.010204932,,,
4348000,-0.011296568,0.0084554795,0.002477799,-0.043707997,0.026782159,0.010262544,,,
4356000,-0.011421188,0.008496482,0.0025030295,-0.042717244,0.026115963,0.010841766,,,
4364000,-0.011536192,0.008533161,0.002530388,-0.04177104,0.025941698,0.0107674105,,,
4380000,-0.011738201,0.008600181,0.00258404,-0.04069708,0.02554087,0.010507587,,,
4388000,-0.011836091,0.008626089,0.0026058806,-0.04134187,0.024679791,0.0094384905,,,
4396000,-0.011935092,0.00864574,0.002620827,-0.04099289,0.024276083,0.008703336,,,
4404000,-0.0120240105,0.008662811,0.0026311819,-0.039839115,0.024228992,0.008283852,,,
4420000,-0.012185116,0.00868298,0.0026408457,-0.039257377,0.022858579,0.007073718,,,
4428000,-0.012259064,0.008683727,0.0026397726,-0.03905165,0.022421831,0.006846802,,,
4436000,-0.012330196,0.008683262,0.0026394723,-0.03905445,0.022763593,0.007184275,,,
4444000,-0.012400811,0.008687371,0.0026422932,-0.039323695,0.023660524,0.0072951852,,,
4460000,-0.012545799,0.008695109,0.0026412152,-0.039754517,0.022756282,0.0067064534,,,
4468000,-0.012618018,0.008692656,0.0026412297,-0.040121585,0.022803387,0.007028513,,,
4476000,-0.012691512,0.0086922115,0.0026414255,-0.040411856,0.023179859,0.0068327133,,,
4484000,-0.012766432,0.0086920755,0.0026439251,-0.040665057,0.022997042,0.0074599693,,,
4500000,-0.012918012,0.008691059,0.0026469864,-0.041154113,0.023120547,0.0065270006,,,
4508000,-0.013098016,0.008734186,0.0026463096,-0.028347462,0.017747141,0.006493912,,,
4516000,-0.013065762,0.008689229,0.0026445608,-0.02831067,0.018056285,0.0062749377,,,
4524000,-0.013030471,0.008647076,0.0026416972,-0.028697887,0.01864924,0.006081993,,,
4540000,-0.012964738,0.008558233,0.0026450583,-0.029759536,0.018021315,0.007444794,,,
4548000,-0.012935465,0.008511228,0.002653884,-0.030380718,0.017809551,0.0076734396,,,
4556000,-0.012903649,0.008458302,0.0026872726,-0.030576713,0.01786542,0.00819391,,,
4564000,-0.012871235,0.008408811,0.00272161,-0.030995084,0.018377678,0.008004817,,,
4580000,-0.0128126135,0.00830505,0.0027745648,-0.032001015,0.017689677,0.006764871,,,
4588000,-0.0127886105,0.008250913,0.0027949277,-0.032751225,0.017665468,0.0069476133,,,
4596000,-0.0127690425,0.008198323,0.0028141355,-0.033292826,0.01812645,0.0068359803,,,
4604000,-0.012750618,0.008147754,0.002829535,-0.03327631,0.017919496,0.006152571,,,
4620000,-0.012718409,0.008038136,0.0028485276,-0.03377722,0.017053535,0.0053938306,,,
4628000,-0.012704516,0.007979862,0.0028498748,-0.034343958,0.0167859,0.0049859383,,,
4636000,-0.012694779,0.007925782,0.0028453819,-0.03457212,0.017923934,0.004043143,,,
4644000,-0.012686054,0.007881393,0.002833344,-0.03468204,0.018804332,0.0035299566,,,
4660000,-0.012680396,0.007810953,0.0028016174,-0.03553861,0.019630535,0.0036029571,,,
4668000,-0.012684823,0.007781066,0.0027854857,-0.035609405,0.019515136,0.0035655526,,,
4676000,-0.012693783,0.0077533005,0.0027675,-0.03569858,0.019558247,0.0033864744,,,
4684000,-0.0127119925,0.007731261,0.0027452912,-0.036932666,0.020173123,0.0026509005,,,
4700000,-0.012788299,0.0077076927,0.0026972236,-0.0389592,0.021013618,0.00339861,,,
4708000,-0.012842194,0.007707266,0.002673175,-0.038953017,0.021885065,0.0028820788,,,
4716000,-0.012855427,0.0076902155,0.0026431023,-0.03907936,0.021988118,0.0032101688,,,
4724000,-0.012876294,0.007676174,0.0026160786,-0.039288186,0.021816306,0.0034753198,,,
4740000,-0.01293769,0.0076580984,0.0025558756,-0.039368216,0.022301583,0.0032089064,,,
4748000,-0.012978054,0.0076569756,0.0025231645,-0.039476898,0.02236701,0.0025365467,,,
4756000,-0.013025671,0.0076582273,0.0024863617,-0.039875284,0.02198331,0.0024287344,,,
4764000,-0.01304958,0.007645517,0.0024479704,-0.039787203,0.021270998,0.0023381545,,,
4780000,-0.013087032,0.0076172547,0.0023672262,-0.03847409,0.021522732,0.0021262476,0.005864448266745347,0.008191972394762903,-2.908822276113815e-05
4788000,-0.013098394,0.0076097935,0.0023288599,-0.03843858,0.022093318,0.0024766233,0.005662909639573628,0.007862160886375591,-2.398404561332939e-05
4796000,-0.013109281,0.0076046926,0.0022902526,-0.03800592,0.022078604,0.0021682985,0.005555603558988507,0.007565447586587193,-3.774669288278667e-05
4804000,-0.013114462,0.0076004993,0.0022496656,-0.037439864,0.021989297,0.0018333436,,,
4820000,-0.013110855,0.0075840675,0.0021659797,-0.036633156,0.021137541,0.0017094039,,,
4828000,-0.013103049,0.0075743953,0.0021233668,-0.036119282,0.021267695,0.0013965103,0.005244790419695502,0.006377206568561392,-0.0001482319664674687
4836000,-0.013092682,0.007567263,0.0020760389,-0.03623344,0.021464447,0.0005448612,0.005145512155263129,0.006038448682536552,-0.00012541639663052662
4844000,-0.013083518,0.0075581875,0.0020234156,-0.03661693,0.020842059,4.3010805e-05,,,
4860000,-0.013393189,0.0075402358,0.0016784668,-0.03527459,0.020383244,0.00046214758,,,
4868000,-0.013369038,0.007523381,0.0016174316,-0.034749076,0.019890621,0.000467586,0.004804725362446529,0.004851936773018675,-7.607903598044039e-05
4876000,-0.013339316,0.0075034774,0.0015563965,-0.034309268,0.019580718,0.0006545286,0.004619801237861268,0.0045418397211890674,-0.0001783000544059525
4884000,-0.013301152,0.0074818623,0.0015258789,-0.032906525,0.019529136,0.00027641765,,,
4900000,-0.013192096,0.0074353246,0.0014343262,-0.031289097,0.01864526,-2.9067713e-05,,,
4908000,-0.013122671,0.0074069537,0.001373291,-0.029575525,0.01883404,2.2850436e-05,0.003938172085277337,0.0034829183118253127,-0.00037606944326927337
4916000,-0.013036981,0.0073787705,0.0013122559,-0.028123843,0.01852561,-0.00043595379,0.0037020140123027443,0.0032271302905653933,-0.00045395100475923924
4924000,-0.012941165,0.007346231,0.0012817383,-0.027347455,0.018001134,-0.0005183408,,,
4940000,-0.012720427,0.0072775627,0.001159668,-0.025697814,0.017507475,-0.0002993916,,,
4948000,-0.012598049,0.0072369236,0.0011291504,-0.024707207,0.016902955,9.5332885e-05,0.003002185610660868,0.001994414645893957,-0.0003747896382459157
4956000,-0.012465163,0.0071927276,0.0010681152,-0.023594962,0.016549736,-0.0004514078,0.0029527715531752637,0.001676604238723309,-0.0003642217449936148
4964000,-0.012322538,0.007142519,0.0010375977,-0.022630803,0.015484079,-0.0010943522,,,
4980000,-0.012010276,0.007036548,0.00091552734,-0.021084884,0.015715832,-0.00075637846,,,
4988000,-0.011845104,0.006981214,0.00088500977,-0.020592738,0.014914309,-0.0015768552,0.002390053958004526,0.0007402130962166225,-0.00043471327989967195
4996000,-0.011674899,0.0069220127,0.0008239746,-0.020152776,0.0147700375,-0.001465988,0.002320638930825736,0.0005238688557675218,-0.0005088609513404772
5004000,-0.011500257,0.006861877,0.00076293945,-0.019722046,0.014521014,-0.001340003,,,
5020000,-0.011131221,0.0067418725,0.0006713867,-0.018112695,0.014335959,-0.0015251314,,,
5028000,-0.010934664,0.0066763754,0.00064086914,-0.017011466,0.013358619,-0.0013306926,0.0019870996129168457,-0.00023459660803018293,-0.0005002853923382836
5036000,-0.010728843,0.0066020866,0.000579834,-0.01599112,0.012113289,-0.001518689,0.0019330552629002928,-0.00033465686180377506,-0.000546797061929528
5044000,-0.010515666,0.006519423,0.0005493164,-0.01525776,0.011286572,-0.0017528974,,,
5060000,-0.010067734,0.006350623,0.00045776367,-0.013471087,0.0110781025,-0.0019665207,,,
5068000,-0.00983215,0.0062597403,0.00039672852,-0.012373706,0.009652503,-0.002131202,0.0016096949165150059,-0.0012071550030281397,-0.0002488498668588266
5076000,-0.009588124,0.0061603207,0.00036621094,-0.011240506,0.008947164,-0.0016233885,0.0015511860973685197,-0.0013293194774303694,-0.00019096173745245662
5084000,-0.009334402,0.0060555893,0.00030517578,-0.010117329,0.007972511,-0.0014837789,,,
5100000,-0.008795686,0.0058412175,0.00024414062,-0.0066066715,0.008499995,-0.001703805,,,
5108000,-0.008506196,0.0057381243,0.00018310547,-0.005552622,0.008048741,-0.0022457696,0.0012848052031012936,-0.0020247192451715835,0.00017373922357363978
5116000,-0.008210186,0.005629908,0.00015258789,-0.004433755,0.0072223432,-0.0025430105,0.0012306964768078674,-0.0021994185205761476,0.0001732332290438863
5124000,-0.007803169,0.0055161086,9.1552734e-05,-0.016757756,0.0064210887,-0.003088304,,,
5140000,-0.0074031814,0.005266859,3.0517578e-05,-0.014643593,0.0041912105,-0.002339339,,,
5148000,-0.007199953,0.005134124,-3.0517578e-05,-0.014430894,0.0038301405,-0.0028845542,0.0010259351047708551,-0.0025609827189312577,0.0004049059644892455
5156000,-0.006999708,0.0050004097,-6.1035156e-05,-0.014286035,0.0036215805,-0.0033670287,0.0010504730484280458,-0.00270928005581154,0.0005567230747809792
5164000,-0.006800942,0.004863517,-0.00012207031,-0.013483108,0.0028865635,-0.0040536006,,,
5180000,-0.0063952007,0.004583428,-0.00021362305,-0.011830933,0.0020928395,-0.002478116,,,
5188000,-0.006189701,0.004442679,-0.00024414062,-0.011100587,0.0024036334,-0.002021087,0.0008113575354981499,-0.003164476641386158,0.0005868601763920088
5196000,-0.005983565,0.004302789,-0.0002746582,-0.010369245,0.0018254321,-0.0026799077,0.0007314126737719936,-0.0031900092114744913,0.0006557231027195457
5204000,-0.0057739243,0.0041580503,-0.00033569336,-0.0091013,0.0009524976,-0.0029679486,,,
5220000,-0.0053368337,0.0038616569,-0.00039672852,-0.0063748755,0.0004553263,-0.002626318,,,
5228000,-0.0051110894,0.0037109219,-0.00045776367,-0.0055265212,-0.000542684,-0.0026124355,0.0006457342625792617,-0.0031599869456367677,0.0005026257408461514
5236000,-0.0048870603,0.003553203,-0.00048828125,-0.0054542264,-0.0014817346,-0.002011431,0.0005598883309127705,-0.003151944003828075,0.0005307719532620187
5244000,-0.00466567,0.0033925038,-0.0005187988,-0.00471307,-0.0017724595,-0.0015798127,,,
5260000,-0.0042169318,0.0030651104,-0.000579834,-0.0034877835,-0.0030213732,-0.0010945564,,,
5268000,-0.00399427,0.0028985012,-0.00064086914,-0.0026866384,-0.0030762102,-0.0017386078,0.0004972423481235961,-0.0030656172017312876,0.0009108466151373916
5276000,-0.0037736339,0.0027354767,-0.0007019043,-0.002775311,-0.00255886,-0.0017333275,0.0005208131946303689,-0.002920137444636542,0.0009534217718662935
5284000,-0.0035536608,0.0025786078,-0.00076293945,-0.0021367583,-0.00221534,-0.001352064,,,
5300000,-0.003107202,0.0022750353,-0.0008544922,-0.0012156898,-0.0019329606,-0.00069488975,,,
5308000,-0.0028763018,0.0021284448,-0.00088500977,0.00047472547,-0.0018204426,-0.0003669514,0.0005460957804581018,-0.00286870843247953,0.0007694175987794414
5316000,-0.0026365765,0.0019813885,-0.00091552734,0.0015082471,-0.0024489656,-0.00016074283,0.0006638945460861222,-0.0027970514875505707,0.0007399065585329935
5324000,-0.0023949263,0.0018332489,-0.0009765625,0.0014835247,-0.0025454368,-0.00072292954,,,
5340000,-0.0019584692,0.0015646993,-0.0010375977,0.00050718687,-0.0020630509,-0.0015705359,,,
5348000,-0.0017437908,0.0014393063,-0.0010986328,0.0010157491,-0.0018222228,-0.0025225158,0.0011153211746736448,-0.0028879945730774987,0.00043679040578406547
5356000,-0.0015274854,0.0013134965,-0.001159668,0.0017559517,-0.0023963056,-0.0025311192,0.0010986043613210941,-0.002826936350141587,0.00034803888484261585
5364000,-0.0013055356,0.001189065,-0.0011901855,0.0029171342,-0.0020226482,-0.0018955418,,,
5380000,-0.00084826816,0.0009504237,-0.0012817383,0.0043764184,-0.0021269433,-0.0012638486,,,
5388000,-0.0006211085,0.0008364966,-0.0013427734,0.0050072125,-0.0024858608,-0.0021265387,0.0014169036547213984,-0.0026159549165582436,0.00013978828646726583
5396000,-0.0003952578,0.000720951,-0.001373291,0.0050501353,-0.0029510753,-0.002645485,0.001530903102984626,-0.0025687066681095595,8.050368889709304e-07
5404000,-0.00017024737,0.0006055708,-0.0014343262,0.0057461015,-0.003210137,-0.0028893559,,,
5420000,0.00027775907,0.00038525215,-0.001373291,0.006141001,-0.0025727567,-0.003257357,,,
5428000,0.0004991837,0.0002799757,-0.0013427734,0.006605095,-0.00295869,-0.0032810555,0.0015581340283733428,-0.00247440064435938,-8.936903481652246e-05
5436000,0.0007219845,0.00017772414,-0.0013122559,0.007511541,-0.0024568164,-0.003201496,0.0016421476966950468,-0.0024967140380203964,-0.00016599516101865528
5444000,0.00094911724,8.1283055e-05,-0.0012817383,0.008444227,-0.002162634,-0.00392646,,,
5460000,0.0014072299,-8.843475e-05,-0.0012512207,0.009641098,-0.0004950876,-0.0033548404,,,
5468000,0.0016355364,-0.00016211126,-0.0012207031,0.009843967,-0.0004089274,-0.0027407182,0.001671552143358103,-0.002235936932682532,-0.0004921687346276034
5476000,0.0018633917,-0.00023412278,-0.0012207031,0.010471303,-0.00043960765,-0.0022406029,0.0016663152317090953,-0.0021546760482441703,-0.0006501709411201102
5484000,0.0020916623,-0.0003014801,-0.0012512207,0.010863575,-0.000105091916,-0.002549503,,,
5500000,0.0025437945,-0.00043263444,-0.0013427734,0.011471233,-0.00095125084,-0.0025473577,,,
5508000,0.0027708611,-0.0004981891,-0.001373291,0.01257255,-0.0007741508,-0.0029743852,0.0017489844686062212,-0.0019826531826757383,-0.0007254756981215191
5516000,0.0029997253,-0.0005595734,-0.0014038086,0.013043479,-0.00047002776,-0.003043228,0.0017080329722491535,-0.0018962638873969175,-0.0007401779889828667
5524000,0.0032267447,-0.00061422255,-0.0014648438,0.013040376,0.000120165176,-0.0024994018,,,
5540000,0.0036609243,-0.0007088832,-0.0015258789,0.0135162715,-0.00048636066,-0.0024000704,,,
5548000,0.0038639023,-0.0007501419,-0.0015563965,0.013530617,-0.0003628583,-0.0029484231,0.00178829464777805,-0.0016083419272048328,-0.0010581237091572392
5556000,0.0040629273,-0.00078936806,-0.0015869141,0.013470158,-0.00064337254,-0.0032198282,0.0019093430024452233,-0.001582603281696163,-0.0011656459894350693
5564000,0.004260867,-0.0008287026,-0.0016479492,0.014404751,-0.0008185713,-0.004437549,,,
5580000,0.0046668774,-0.0009085106,-0.001739502,0.01564566,-0.001138866,-0.0054658833,,,
5588000,0.004867462,-0.0009452459,-0.0018005371,0.015404252,-0.0012876246,-0.0063928775,0.0019083277776749516,-0.0012994997833992853,-0.0013557231752583066
5596000,0.005061534,-0.0009825488,-0.0018615723,0.01559167,-0.0014404354,-0.0077108205,0.0018609181371710345,-0.0012681262939724157,-0.0014840094289851635
5604000,0.0052549927,-0.0010187306,-0.0019226074,0.015728433,-0.0014170043,-0.0073323217,,,
5620000,0.005627856,-0.0010790568,-0.0020446777,0.015589061,-0.00092494953,-0.006187347,,,
5628000,0.005807504,-0.0011071926,-0.002105713,0.015049261,-0.0014040471,-0.0057630115,0.0018771557313249899,-0.0013402136329515096,-0.001729005335170401
5636000,0.00598347,-0.0011377626,-0.002166748,0.015744554,-0.0016636647,-0.0056862496,0.0019111478870578501,-0.001275393759145224,-0.0017799395728590722
5644000,0.0061632404,-0.0011674004,-0.0022583008,0.01641758,-0.0016835759,-0.006222038,,,
5660000,0.006517981,-0.0012307207,-0.0023498535,0.016587399,-0.0023623572,-0.0068700914,,,
5668000,0.006693337,-0.0012584404,-0.0024108887,0.016845956,-0.0017061317,-0.0073095243,0.0017603594126660398,-0.001115221528538771,-0.0019049396589620187
5676000,0.006865667,-0.0012822455,-0.0024719238,0.016581183,-0.0016646266,-0.007985307,0.0016867507129110057,-0.0011406882112967556,-0.0020120517473954237
5684000,0.007032554,-0.0013034621,-0.002532959,0.016349131,-0.0013746396,-0.008076499,,,
5700000,0.007352515,-0.0013353678,-0.0026245117,0.01610079,-0.001210467,-0.008101284,,,
5708000,0.007511891,-0.0013499043,-0.0026550293,0.016843244,-0.00093194965,-0.007688558,0.0015793029875006478,-0.0012573869719716144,-0.0019920397135254654
5716000,0.007668536,-0.0013616341,-0.0026855469,0.01619171,-0.000963548,-0.006746601,0.0015484684678287641,-0.0013173128562855645,-0.0019969079042056613
5724000,0.007821623,-0.0013702707,-0.0026855469,0.016553594,-0.0004128577,-0.0062238444,,,
5740000,0.008140859,-0.0013678371,-0.0027160645,0.017391881,0.0022234048,-0.0057840445,,,
5748000,0.008265238,-0.001357038,-0.0027160645,0.017524688,0.002643904,-0.004782961,0.0014911864893965474,-0.0014604915003301863,-0.0022616946700891945
5756000,0.008387089,-0.0013451797,-0.002746582,0.017346593,0.0026698117,-0.004946593,0.001473558159877472,-0.0014675248559510613,-0.002319590109807202
5764000,0.008506951,-0.0013319652,-0.002746582,0.017430335,0.0026063381,-0.0047748517,,,
5780000,0.008740469,-0.0013124794,-0.0027160645,0.017067486,0.0017957106,-0.005630221,,,
5788000,0.008851944,-0.0013013044,-0.0027160645,0.016832853,0.0025036251,-0.006425365,0.0012740193173554901,-0.0015201391686080837,-0.0018252085219316878
5796000,0.0089612985,-0.0012855316,-0.002746582,0.016903525,0.0026255953,-0.007603904,0.0013639776109704523,-0.0015910746025005265,-0.0018095947055812112
5804000,0.009067596,-0.0012698491,-0.002746582,0.017011102,0.0023541953,-0.007692523,,,
5820000,0.009276506,-0.0012441601,-0.0027770996,0.017270405,0.002130541,-0.008675194,,,
5828000,0.009383393,-0.0012273956,-0.0028076172,0.017889412,0.0026640953,-0.00835853,0.0013015444615319712,-0.001725132850734381,-0.002088103644200506
5836000,0.0094947815,-0.0012069859,-0.0028076172,0.0185024,0.0028448463,-0.008478425,0.001382477431094915,-0.0017374950122867252,-0.0021669979516645535
5844000,0.009607094,-0.0011870953,-0.00289917,0.018530924,0.0025600984,-0.007939698,,,
5860000,0.009824062,-0.0011482533,-0.0030212402,0.018055644,0.0021222949,-0.007390394,,,
5868000,0.009928378,-0.0011304695,-0.0030822754,0.017859714,0.002368324,-0.0078093316,0.0014029750049837323,-0.0016584480798880342,1.5864553659725238
5876000,0.0100292,-0.0011096168,-0.0031433105,0.01745244,0.0027284932,-0.007490677,0.001280246270162682,-0.0018450395427626644,1.5866089309561573
5884000,0.010124375,-0.0010864697,-0.0032043457,0.016957862,0.0028515435,-0.0070816567,,,
5900000,0.010302145,-0.0010392397,-0.003326416,0.016595658,0.002753465,-0.007597128,,,
5908000,0.010384949,-0.0010224145,-0.0033874512,0.01608459,0.0012387977,-0.0076613575,0.0013237553633816215,-0.0019966724091408936,1.5867266099636848
5916000,0.010463264,-0.0010142011,-0.0033874512,0.015948577,0.0010310129,-0.008121083,0.0012912869905747943,-0.002067464712520007,1.5867132601896472
5924000,0.010537565,-0.0010032696,-0.0034179688,0.015693603,0.0015072195,-0.009010482,,,
5940000,0.010687275,-0.0009622128,-0.0035095215,0.016343059,0.0021320016,-0.010485685,,,
5948000,0.010763358,-0.0009406749,-0.0035705566,0.016902803,0.0020857446,-0.011042738,0.0012943267821287554,-0.0021331135527813,1.5867908775978556
5956000,0.01079993,-0.00092526013,-0.0036315918,0.016873568,0.0022907574,-0.011173027,0.0013529842016175911,-0.002125392871136024,1.5867516531373396
5964000,0.010836786,-0.00090566685,-0.003692627,0.01753836,0.0031469828,-0.011451681,,,
5980000,0.010907966,-0.000846724,-0.0037841797,0.01661107,0.0045235306,-0.011289246,,,
5988000,0.010933952,-0.0008089799,-0.0038757324,0.015884694,0.0051980796,-0.011395152,0.0011375172456902357,-0.002199266248966921,1.5867502256573771
5996000,0.010952418,-0.000768722,-0.0039978027,0.015342178,0.0049688644,-0.012097284,0.0010518995652571603,-0.0022463011819819907,1.586713981997354
6004000,0.010966826,-0.0007267468,-0.0040893555,0.015200345,0.0057616625,-0.012596662,,,
6020000,0.010984945,-0.0006271532,-0.004272461,0.014652463,0.0063410457,-0.013194116,,,
6028000,0.010988337,-0.00057614647,-0.0043945312,0.0143893175,0.0065523507,-0.012941963,0.0009999552171847867,-0.0021296790601555704,1.5863229235831917
6036000,0.010989277,-0.00051967,-0.004486084,0.014244781,0.0074388287,-0.013187162,0.000926507167293487,-0.0020867140275080353,1.5863399694181461
6044000,0.010988753,-0.00045631255,-0.0045776367,0.014448622,0.008095378,-0.012720315,,,
6060000,0.0109884115,-0.00032113527,-0.004760742,0.014790075,0.00824397,-0.011967842,,,
6068000,0.01098562,-0.00025163754,-0.0048217773,0.014157929,0.008742831,-0.011958706,0.0010951411057051838,-0.0019878581219715803,1.5861016390721037
6076000,0.010977659,-0.0001784136,-0.0048828125,0.013836406,0.009132507,-0.011854571,0.001193819216959804,-0.002002088060736877,1.5860904310411226
6084000,0.010969305,-9.836606e-05,-0.0049743652,0.014307153,0.010034521,-0.012421017,,,
6100000,0.010949249,6.022274e-05,-0.0050964355,0.013602048,0.009033592,-0.012111687,,,
6108000,0.010934906,0.00013353801,-0.0051879883,0.013489366,0.008319841,-0.012053769,0.0011720026201730046,-0.0018669063359846964,1.5859193416806052
6116000,0.010916099,0.00020823147,-0.0052490234,0.012937899,0.009267685,-0.012480748,0.001105428479206503,-0.0019143107397582033,1.5858559168596051
6124000,0.010895105,0.00028977558,-0.0053100586,0.012897399,0.00981691,-0.012827836,,,
6140000,0.010847766,0.00045705025,-0.005432129,0.013371001,0.010303054,-0.011618601,,,
6148000,0.01082779,0.00054067577,-0.005493164,0.013630054,0.010330177,-0.01163711,0.0009751876520885763,-0.001880964209270387,1.5854456701674673
6156000,0.010809895,0.000626097,-0.005554199,0.013810909,0.010329714,-0.011952598,0.0009625518030962142,-0.0018239406271623544,1.5853605453911896
6164000,0.010788603,0.00070991984,-0.0056152344,0.012906675,0.010038714,-0.012454483,,,
6180000,0.010737165,0.00087446644,-0.0057373047,0.012907267,0.009871997,-0.013914412,,,
6188000,0.010712309,0.0009574263,-0.0057678223,0.012986981,0.009913968,-0.013813526,0.0007805733279243754,-0.0017400085392998102,1.5851337818318965
6196000,0.010685744,0.0010423167,-0.0058288574,0.012589404,0.010293198,-0.013156469,0.0007005361574124135,-0.0016588308539927231,1.5851404560198048
6204000,0.010657031,0.0011327806,-0.005859375,0.012432108,0.011169314,-0.012824668,,,
6220000,0.010596164,0.0013228196,-0.00592041,0.012438054,0.010840196,-0.013194555,,,
6228000,0.0105676325,0.0014181779,-0.0059814453,0.012565916,0.011532426,-0.014458498,0.0006134342431885143,-0.001261834390039551,1.585000959487808
6236000,0.0105417,0.0015174948,-0.0060424805,0.012994117,0.011782991,-0.015005063,0.0005587862336159636,-0.0012825648324196338,1.5849233467703234
6244000,0.010515328,0.0016203813,-0.0061035156,0.0124316,0.012243789,-0.015182216,,,
6260000,0.010461035,0.0018319878,-0.0061950684,0.012802951,0.012587327,-0.014858,,,
6268000,0.010438079,0.0019418625,-0.0062561035,0.013026668,0.013048226,-0.014959074,0.0004411067143736598,-0.0013497828646458641,1.5848438277245078
6276000,0.010413909,0.0020557065,-0.006286621,0.01256524,0.013583826,-0.014375136,0.00042095555040714866,-0.001296130953979155,1.5848282086495766
6284000,0.010386715,0.0021765353,-0.0063476562,0.012167259,0.0144326445,-0.014571506,,,
6300000,0.010326283,0.0024222746,-0.0064697266,0.011808755,0.014055989,-0.015527629,,,
6308000,0.010295704,0.0025440021,-0.0065307617,0.011571697,0.014191786,-0.015351819,0.0003802300000961566,-0.001298148666034532,1.5851049198925047
6316000,0.010262549,0.0026680531,-0.006591797,0.011097837,0.014528051,-0.015022538,0.00031145171398681143,-0.0013136690535595495,1.5851456947083016
6324000,0.010228525,0.0027944425,-0.0066833496,0.01133484,0.014711689,-0.015268832,,,
6340000,0.010202709,0.0030823473,-0.006866455,0.0126234675,0.015367627,-0.01622126,,,
6348000,0.010199651,0.0032241666,-0.0069885254,0.013481904,0.014622201,-0.016741974,0.00017318071907389642,-0.0011836004413028245,1.585185751774627
6356000,0.0102016665,0.0033633,-0.007080078,0.01350133,0.014756037,-0.016730119,0.0002474281902101769,-0.001354062179371543,1.5851790775977062
6364000,0.010205108,0.0035037026,-0.0072021484,0.0137537895,0.014739569,-0.01645527,,,
6380000,0.010218829,0.0037953483,-0.0074157715,0.013644407,0.016688067,-0.016764572,,,
6388000,0.010221456,0.0039540464,-0.007507324,0.012927124,0.01703835,-0.016450714,0.0004349163481055557,-0.0016139068196412657,1.5851728853483398
6396000,0.010224127,0.004115646,-0.0076293945,0.013510377,0.017608596,-0.015878685,0.00046485118838829445,-0.0016075532123798462,1.5853146398652773
6404000,0.0102312295,0.004281801,-0.0077209473,0.013527695,0.01790474,-0.016365152,,,
6420000,0.010246198,0.0046145525,-0.007965088,0.013632829,0.017943947,-0.017109357,,,
6428000,0.010254263,0.0047883107,-0.008087158,0.013075789,0.019092012,-0.017139649,0.0005442085489023776,-0.001404197416722716,1.5854094169330752
6436000,0.010257248,0.0049672243,-0.0082092285,0.012197142,0.019321457,-0.017501518,0.0005206140377455971,-0.0013915566794823187,1.5855286388696264
6444000,0.010255475,0.005146441,-0.008331299,0.011893984,0.01910001,-0.017821299,,,
6460000,0.010254955,0.005516616,-0.008605957,0.011878787,0.020954737,-0.018601945,,,
6468000,0.010241546,0.005669185,-0.00869751,0.011292482,0.021175917,-0.017623797,0.000437862698916623,-0.0013294363585167623,1.585712837809775
6476000,0.010226309,0.0058206827,-0.00881958,0.011334779,0.020662338,-0.016931696,0.00031801900491886686,-0.0013270000165125152,1.5857854406909024
6484000,0.010210099,0.0059688855,-0.00894165,0.010538789,0.020370176,-0.017478773,,,
6500000,0.010172765,0.0062591266,-0.009155273,0.010887514,0.019842286,-0.017867707,,,
6508000,0.010156799,0.006404081,-0.009277344,0.010414841,0.019978793,-0.017704105,2.0597787091500513e-05,-0.001275131125965623,1.586134050192958
6516000,0.010137826,0.0065487134,-0.009399414,0.010142627,0.019815978,-0.018215582,6.709171438491335e-05,-0.0012326027128226858,1.5861661201429178
6524000,0.010119887,0.006692047,-0.009521484,0.01043402,0.019514227,-0.01876032,,,
6540000,0.010093044,0.0070156343,-0.009765625,0.010682463,0.019821666,-0.019133806,,,
6548000,0.010079173,0.0071776123,-0.009918213,0.010271515,0.019916322,-0.019810852,6.152077896470962e-05,-0.0013294684891739812,1.5863968180110049
6556000,0.010063147,0.0073422333,-0.010070801,0.010052807,0.020368308,-0.02029545,3.30455130054796e-05,-0.001442248385278073,1.5865072231733386
6564000,0.0100474795,0.0075089997,-0.010192871,0.010120633,0.020501668,-0.020468883,,,
6580000,0.010027353,0.00784573,-0.010498047,0.010958196,0.02059866,-0.020527612,,,
6588000,0.01002231,0.008012243,-0.010650635,0.010999647,0.020282332,-0.02021207,8.869911647477809e-05,-0.0012631997100220629,1.5869004236902355
6596000,0.010018092,0.008178199,-0.010803223,0.01101266,0.020395314,-0.020005755,8.013368146463461e-05,-0.001300012127663414,1.5869043561297733
6604000,0.010016392,0.008345593,-0.010955811,0.011536413,0.02068712,-0.020316022,,,
6620000,0.010026528,0.008681969,-0.011260986,0.011952805,0.020844411,-0.01987333,,,
6628000,0.010030668,0.008855247,-0.011413574,0.011480139,0.021657445,-0.019094933,9.103209099293066e-05,-0.0013440774609630097,1.586764268704878
6636000,0.010033646,0.009031747,-0.011566162,0.011407928,0.021731839,-0.018302828,9.714274249115917e-05,-0.0013871122874515344,1.5867403049611926
6644000,0.010034805,0.009210653,-0.01171875,0.010957706,0.022284424,-0.018352427,,,
6660000,0.010041658,0.009579714,-0.011993408,0.011520885,0.02261672,-0.01843735,,,
6668000,0.010047559,0.0097637735,-0.0121154785,0.011527092,0.022721348,-0.0181555,-6.865912832643685e-05,-0.0011948524557753779,1.5868125518617062
6676000,0.010055343,0.009951027,-0.012237549,0.011719136,0.023055937,-0.01744681,-5.2540304462997845e-05,-0.0011110753942831656,1.586699525338338
6684000,0.010063547,0.010135967,-0.012359619,0.011566301,0.02224368,-0.016897134,,,
6700000,0.010088037,0.010492046,-0.01260376,0.01232738,0.021632634,-0.017050287,,,
6708000,0.010105852,0.010669355,-0.01272583,0.0127926655,0.02165271,-0.017528273,2.8812112342720814e-05,-0.001138671547367055,1.5866529089983477
6716000,0.010125587,0.010845432,-0.0128479,0.012619947,0.021302167,-0.017944125,0.00010040438349031315,-0.001165200870583998,1.586470854757203
6724000,0.010142533,0.011021847,-0.012969971,0.012209047,0.02190835,-0.01867454,,,
6740000,0.010187736,0.011391866,-0.013244629,0.011077406,0.021221898,-0.019787764,,,
6748000,0.010202635,0.011570313,-0.013397217,0.010299118,0.020462664,-0.019868057,0.00016693791914613413,-0.0013463843490676582,1.5866932118306905
6756000,0.010213124,0.011744417,-0.013549805,0.009949361,0.020140128,-0.020143893,0.00027441495873344897,-0.0013081858871899995,1.5866572056675643
6764000,0.010223852,0.011912603,-0.013671875,0.010045274,0.018818239,-0.020339485,,,
6780000,0.010246602,0.012233533,-0.014007568,0.009948403,0.018306063,-0.021431012,,,
6788000,0.010255477,0.0123897465,-0.014160156,0.009388449,0.017536037,-0.021026535,0.00044662771376529855,-0.0015687334266207148,1.5868173272636177
6796000,0.01026115,0.012544493,-0.014312744,0.009047906,0.017825276,-0.020945933,0.0005342736396712266,-0.0016035733166427932,1.5870095197707292
6804000,0.010267129,0.012702153,-0.014465332,0.009310984,0.018115778,-0.021133214,,,
6820000,0.01028526,0.013018449,-0.01473999,0.009561334,0.018333007,-0.020875439,,,
6828000,0.010299617,0.01318336,-0.014892578,0.010364114,0.019128656,-0.02095152,0.0005963628165576392,-0.0016274126445245754,1.5871217110615492
6836000,0.010318455,0.013351768,-0.015045166,0.010682751,0.019294573,-0.020946702,0.0005857127192562689,-0.0016871272673770349,1.5872021890909325
6844000,0.0103416415,0.013520685,-0.015197754,0.011048424,0.019158406,-0.020880032,,,
6860000,0.010331544,0.0136975935,-0.015380859,0.010528748,0.017881721,-0.02075577,,,
6868000,0.010300884,0.0137087945,-0.0154418945,0.010547935,0.017617175,-0.020970942,0.000591514622138949,-0.0018418012122531596,1.5872302122600055
6876000,0.010269743,0.013720414,-0.015472412,0.010189635,0.017326575,-0.020946605,0.0005718790057129739,-0.0017457764615955878,1.5872769468344028
6884000,0.010237429,0.013730676,-0.01550293,0.009924271,0.016929746,-0.021028934,,,
6900000,0.010173205,0.013750666,-0.015563965,0.010206856,0.016832916,-0.019898707,,,
6908000,0.010146517,0.013765558,-0.015594482,0.010465273,0.017045006,-0.019567141,0.0006871425207301007,-0.0016302883396191754,1.5873087783114952
6916000,0.01012423,0.013782447,-0.015625,0.010929129,0.016853794,-0.019692298,0.0006606589392275852,-0.00169609382112392,1.5872222204283437
6924000,0.010104931,0.013799805,-0.015655518,0.0110835405,0.017011328,-0.019985229,,,
6940000,0.010056881,0.013816506,-0.01574707,0.009967155,0.018233154,-0.019642502,,,
6948000,0.010027421,0.013831188,-0.015777588,0.009632968,0.017985743,-0.019349972,0.0007465522410059852,-0.0017943841255630678,1.5871330422361922
6956000,0.009996368,0.013844224,-0.015838623,0.009112325,0.017225841,-0.01914526,0.00080975019112452,-0.0017307168363972576,1.587039687395807
6964000,0.009961612,0.013852766,-0.015899658,0.008703546,0.01677632,-0.019271376,,,
6980000,0.009890163,0.013866331,-0.015991211,0.008128826,0.016217407,-0.01870702,,,
6988000,0.009852299,0.01387642,-0.016052246,0.007940819,0.01689489,-0.018484557,0.0006902372492948769,-0.001463966501401695,1.5871006060220187
6996000,0.009813849,0.013890168,-0.016113281,0.007267882,0.01690211,-0.019719202,0.0007150707033434721,-0.0014031771518370915,1.5870556554754032
7004000,0.009770699,0.013904956,-0.016174316,0.006813122,0.016948022,-0.019977866,,,
7020000,0.009692519,0.013932494,-0.016296387,0.0075516854,0.016846193,-0.01923449,,,
7028000,0.009657853,0.013951092,-0.016357422,0.007698596,0.016822187,-0.019663347,0.0007264080991545763,-0.001328950324118783,1.5866976210730164
7036000,0.009624104,0.013968993,-0.016418457,0.007607235,0.01651802,-0.019039802,0.0008282986964404295,-0.0013837177298246675,1.5866390833922372
7044000,0.009591133,0.0139866145,-0.01651001,0.0077201026,0.016410045,-0.0196189,,,
7060000,0.009532968,0.014028735,-0.01663208,0.007954611,0.016581045,-0.019964999,,,
7068000,0.009503941,0.014051712,-0.016723633,0.007514056,0.01663394,-0.020167494,0.0008570405541801167,-0.0012114092876596408,1.5865103184888873
7076000,0.009475449,0.014074604,-0.016815186,0.007695202,0.01614709,-0.020395877,0.0009914691665304327,-0.0011765980548190391,1.5866221502321807
7084000,0.009446402,0.014096595,-0.016906738,0.0072724065,0.016243624,-0.020566242,,,
7100000,0.00938876,0.014152884,-0.017120361,0.0072375946,0.016779568,-0.021056486,,,
7108000,0.009359309,0.014181202,-0.017242432,0.006728376,0.016022684,-0.020924745,0.0013279154063054112,-0.0010368572077553693,1.5866384798662487
7116000,0.0093263965,0.014209999,-0.01739502,0.006235284,0.016393013,-0.021391073,0.0012961435996827356,-0.0009115514210869459,1.586648731525966
7124000,0.009290174,0.01424023,-0.01751709,0.0056745736,0.015939873,-0.021379817,,,
7140000,0.009192624,0.014245714,-0.01776123,0.005091993,0.015548865,-0.022139693,,,
7148000,0.009138499,0.014248298,-0.017913818,0.0041658543,0.015360458,-0.022909757,0.0014521188881779093,-0.000971429435584992,1.5866649466819829
7156000,0.009078701,0.014252155,-0.018066406,0.0035287149,0.015202375,-0.02365681,0.0014392471904685047,-0.0009818895900706144,1.5867542478309433
7164000,0.0090173585,0.01425544,-0.018188477,0.0034119547,0.014773476,-0.024083631,,,
7180000,0.008897304,0.014259113,-0.018463135,0.0029488893,0.013764938,-0.023296041,,,
7188000,0.008835358,0.014256467,-0.018615723,0.002762243,0.013433411,-0.023336245,0.0016499438925530877,-0.0009714057450558224,1.5865851877004962
7196000,0.008772149,0.014255697,-0.018737793,0.0022426848,0.013628879,-0.022739027,0.0016358449786334232,-0.0008521595604175198,1.5866334718141009
7204000,0.008706022,0.014259627,-0.01889038,0.0019240469,0.014194719,-0.022860566,,,
7220000,0.008571559,0.014269162,-0.019165039,0.0010630572,0.012904449,-0.022034023,,,
7228000,0.008498879,0.014269292,-0.01928711,0.0005784344,0.012719956,-0.02132883,0.0015780687298272114,-0.0009044729009404957,1.5865690898600224
7236000,0.008425754,0.014274079,-0.01940918,0.0005509657,0.013310218,-0.020163521,0.0015445739686470244,-0.0008757404821848604,1.5865398796878047
7244000,0.008353702,0.014281996,-0.019500732,0.00044088686,0.01327627,-0.019726796,,,
7260000,0.008173973,0.014196186,-0.019622803,0.000116045,0.013765085,-0.019540332,,,
7268000,0.008074921,0.014102331,-0.019622803,0.0011280873,0.013392458,-0.019485472,0.0019118530315325969,-0.0007391109338557296,1.5864522482441772
7276000,0.007986712,0.014007728,-0.019622803,0.0016761838,0.013195593,-0.019246042,0.0019017541481831546,-0.0006906423917536857,1.5863336205890783
7284000,0.007900848,0.013920682,-0.019622803,0.0014733936,0.0140367625,-0.019136848,,,
7300000,0.0077257147,0.013767296,-0.01965332,0.0005699674,0.014015966,-0.019118855,,,
7308000,0.0076355264,0.013692439,-0.01965332,0.00045926383,0.013909486,-0.018378053,0.0019068671266039142,-0.0004900224935794323,1.5863888208014016
7316000,0.0075466894,0.013620958,-0.019683838,0.00017700702,0.01379337,-0.017108152,0.001934562107088616,-0.0004386367067722704,1.5864082514116224
7324000,0.007454739,0.013548678,-0.019683838,-0.00021240357,0.012901028,-0.01655444,,,
7340000,0.007300613,0.013326407,-0.019714355,0.000463848,0.012033286,-0.01686553,,,
7348000,0.0072239367,0.013219371,-0.019714355,-0.00045924578,0.012036981,-0.017366845,0.0019252622115265774,-0.0003892423799762528,1.586020895483954
7356000,0.0071420968,0.013116462,-0.019744873,-0.0011008421,0.012274151,-0.017334672,0.001930015571382041,-0.00038476947014605276,1.5859701055092092
7364000,0.0070564565,0.01301718,-0.01977539,-0.0016977998,0.011814775,-0.01684056,,,
7380000,0.0068762526,0.012827621,-0.019805908,-0.0033222828,0.012368048,-0.01612094,,,
7388000,0.0067762113,0.012737571,-0.019836426,-0.0041673137,0.011571488,-0.01628882,0.001986604116401754,-0.0001513501052935009,1.5858139240439277
7396000,0.0066704624,0.012647247,-0.019866943,-0.0049509895,0.011290744,-0.017210515,0.0020404695894176675,-0.0001296891718081711,1.5858281101387328
7404000,0.0065636295,0.012555652,-0.019897461,-0.0049544186,0.010427194,-0.018633798,,,
7420000,0.0063456404,0.012371835,-0.020019531,-0.005803634,0.010119435,-0.019425368,,,
7428000,0.006234132,0.012281193,-0.020080566,-0.005983577,0.009333547,-0.019681206,0.0018289675860995332,-0.00014987122323589916,1.5858860527435266
7436000,0.0061245225,0.0121898595,-0.020111084,-0.0057210634,0.009437517,-0.019823432,0.0018063411009585,-0.00024616049152737353,1.58583812617153
7444000,0.0060162344,0.012104175,-0.02017212,-0.0059720473,0.009540944,-0.019842116,,,
7460000,0.0058056302,0.011942162,-0.02029419,-0.0051231943,0.010095066,-0.01987318,,,
7468000,0.0057036625,0.011870968,-0.020324707,-0.006036702,0.0101989815,-0.019407913,0.0017634249413591302,-0.000372949588841971,1.5857818531998693
7476000,0.005593561,0.011800103,-0.020385742,-0.007229251,0.009596045,-0.019274577,0.0017390372930949209,-0.0003787139521170073,1.585706741920555
7484000,0.005478056,0.011730014,-0.020446777,-0.0075739413,0.0098759495,-0.01922554,,,
7500000,0.0052450197,0.011601566,-0.020568848,-0.007999042,0.009611979,-0.019064479,,,
7508000,0.0051278165,0.011541583,-0.020599365,-0.00824999,0.01012183,-0.018855982,0.0016469889916430414,-0.0002113329844447607,1.5855020378870899
7516000,0.005009522,0.0114889955,-0.0206604,-0.008424323,0.010589369,-0.018639617,0.001618290361358549,-0.00020336744050047866,1.5853830535908078
7524000,0.004892374,0.011441909,-0.020690918,-0.00826868,0.010758379,-0.018343987,,,
7540000,0.0047029885,0.011330733,-0.020812988,-0.008787241,0.01131509,-0.01828319,,,
7548000,0.004606479,0.01128123,-0.020874023,-0.008885993,0.0117538115,-0.01881058,0.001776247351017802,-0.0002663555237294078,1.585385437522757
7556000,0.004511474,0.011241636,-0.020935059,-0.008981285,0.012152046,-0.018874865,0.0018050786670019414,-0.00018406938865415273,1.585337034138436
7564000,0.004416702,0.011205759,-0.020996094,-0.009134264,0.0121837985,-0.018614866,,,
7580000,0.0042083147,0.011144602,-0.021087646,-0.0116249155,0.012057857,-0.018906761,,,
7588000,0.0040922826,0.01111782,-0.021148682,-0.012113953,0.011959779,-0.018816339,0.0015011698638257745,-0.00012366048790366267,1.5851095600507144
7596000,0.0039733252,0.0110925855,-0.021209717,-0.0124895945,0.011847865,-0.018502288,0.0013821697637948621,-0.00012020184687413344,1.5849943900929715
7604000,0.0038551295,0.011070479,-0.021270752,-0.0122362785,0.011851805,-0.01830518,,,
7620000,0.0036206893,0.0110271955,-0.021392822,-0.012386689,0.010990154,-0.01837805,,,
7628000,0.0035047247,0.01100353,-0.021484375,-0.012257801,0.009954184,-0.01867256,0.0012772446496458504,-5.2963558143552075e-05,1.584626593749731
7636000,0.0033885657,0.010976251,-0.02154541,-0.012733929,0.009576779,-0.018521987,0.0012894483596771454,-1.3879616744820759e-06,1.5845343164605794
7644000,0.0032678952,0.0109510785,-0.021606445,-0.013304124,0.009550703,-0.019233387,,,
7660000,0.0031072604,0.01091596,-0.02166748,-0.013153231,0.009569684,-0.020078272,,,
7668000,0.0030781133,0.01090873,-0.02166748,-0.012204356,0.00961118,-0.019935088,0.0014021196512061897,0.00015660282288426685,1.5841565082908917
7676000,0.0030499864,0.01090658,-0.021636963,-0.012387849,0.010317494,-0.01948706,0.0014034751865749189,0.00012645055573604557,1.5840524295602798
7684000,0.0030211774,0.010909555,-0.021636963,-0.012081892,0.010187131,-0.019535823,,,
7700000,0.002953395,0.01092848,-0.021636963,-0.0130863115,0.010897519,-0.020750917,,,
7708000,0.0029161791,0.010946449,-0.021636963,-0.013046603,0.011464936,-0.021238998,0.0011634379446722142,0.000344196283069796,1.584269531720002
7716000,0.0028731949,0.0109709175,-0.02166748,-0.013866731,0.01202343,-0.021732286,0.0011695681750521574,0.0004075050059334305,1.5841730808848389
7724000,0.0028272022,0.011001726,-0.02166748,-0.013658145,0.012337178,-0.021654608,,,
7740000,0.002720837,0.01108504,-0.021728516,-0.013073195,0.012069862,-0.02118545,,,
7748000,0.0026716385,0.011128508,-0.021728516,-0.012883483,0.012093005,-0.021335172,0.0009950280944300456,0.00044280385182943085,1.584003311747621
7756000,0.0026207895,0.011173106,-0.021759033,-0.01313181,0.011851542,-0.021247268,0.00101021725484335,0.0003920297995509227,1.5838815884259079
7764000,0.0025661637,0.011219609,-0.02178955,-0.013624024,0.012093181,-0.02095566,,,
7780000,0.0024377187,0.011312807,-0.021850586,-0.014658081,0.011261492,-0.020656042,,,
7788000,0.002372533,0.0113603305,-0.021881104,-0.014274183,0.011664353,-0.021949677,0.001444323084068508,0.0002862643489596221,1.5837262470467504
7796000,0.002306451,0.011412756,-0.021911621,-0.014483459,0.011909988,-0.02291393,0.001564633570240937,0.0002848029873651564,1.5837014489617924
7804000,0.0022376317,0.011468113,-0.021972656,-0.014766978,0.01198928,-0.022812245,,,
7820000,0.0020906038,0.011582448,-0.022033691,-0.015082773,0.011876914,-0.022433363,,,
7828000,0.0020173285,0.01164475,-0.022094727,-0.014832328,0.012730063,-0.022310494,0.0017243257576175163,0.0005366971857523316,1.583729823797543
7836000,0.0019427541,0.011715386,-0.022125244,-0.01519899,0.013214755,-0.022384742,0.0017494570633199576,0.0006402204017722781,1.5837975405824816
7844000,0.0018665139,0.01178852,-0.02218628,-0.015002055,0.013155023,-0.021815185,,,
7860000,0.0017068028,0.011934818,-0.022277832,-0.015833303,0.012699346,-0.02028646,,,
7868000,0.0016223191,0.012011253,-0.02230835,-0.015919069,0.013340793,-0.019635927,0.0017980219436069236,0.0004506976845519814,1.5838581015284712
7876000,0.0015361692,0.012093199,-0.022369385,-0.016012674,0.013750837,-0.019121077,0.0016682237631558184,0.0004362674219157498,1.5837884783424956
7884000,0.001448754,0.012179512,-0.022399902,-0.015913785,0.014033155,-0.018790156,,,
7900000,0.0012777003,0.012364298,-0.022460938,-0.015227077,0.014256652,-0.01824397,,,
7908000,0.0011959973,0.0124551635,-0.022521973,-0.014418894,0.014009408,-0.019757431,0.0015098249022734572,0.00018771382857457594,1.5837643954530818
7916000,0.0011175468,0.012549303,-0.02255249,-0.014457156,0.014309524,-0.01913785,0.0014643120559140635,0.0002137992430933831,1.5837560491865974
7924000,0.0010358004,0.012645803,-0.022583008,-0.014772874,0.01455714,-0.01916086,,,
7940000,0.00090275466,0.0128498245,-0.02267456,-0.015091741,0.014410163,-0.019394187,,,
7948000,0.00083264976,0.012952496,-0.022735596,-0.015060813,0.01457354,-0.019072717,0.0013962590496598007,-4.657678074956168e-05,1.5838997105870338
7956000,0.0007646361,0.013059259,-0.022766113,-0.014176543,0.015018545,-0.019175153,0.001373590985454042,-4.297500710394563e-05,1.5839065057142931
7964000,0.0007000154,0.013172222,-0.022827148,-0.013759986,0.01554582,-0.01853131,,,
7980000,0.0005848179,0.01340419,-0.022918701,-0.01196489,0.014908537,-0.01902437,,,
7988000,0.00052974466,0.013517652,-0.022949219,-0.012574849,0.014781353,-0.01943517,0.0015470585785326313,-0.0003242449076851249,1.5837699993644785
7996000,0.00047415297,0.013632649,-0.023010254,-0.011942171,0.015062522,-0.020299079,0.0015759721159331757,-0.0003418192566812384,1.5837736953147843
8004000,0.00041895948,0.0137516605,-0.023071289,-0.012305883,0.015334055,-0.019888895,,,
8020000,0.00029578272,0.013997715,-0.02319336,-0.012781153,0.015693955,-0.017870491,,,
8028000,0.00023246491,0.014123777,-0.023223877,-0.01258224,0.015632786,-0.01712934,0.0011510192462011312,-0.0004160774817136528,1.5837636818032952
8036000,0.00016685257,0.0142539395,-0.023254395,-0.012965892,0.01617068,-0.016394937,0.001043823815647889,-0.00038766198365555406,1.5837180192109983
8044000,9.801128e-05,0.014387871,-0.023284912,-0.013092439,0.016090626,-0.016375395,,,
8060000,0.00012648634,0.014408731,-0.02319336,-0.014022736,0.014872104,-0.015818138,,,
8068000,0.00022321349,0.014298338,-0.023101807,-0.013775675,0.014672935,-0.016000146,0.0010794431453798178,-0.00021480056040323954,1.5833633426582852
8076000,0.00031819602,0.014196273,-0.022979736,-0.013255993,0.015331874,-0.0157263,0.001120142436813208,-0.00022968693721898872,1.5832837044122805
8084000,0.00041522624,0.014102424,-0.022888184,-0.012310298,0.015115294,-0.01523165,,,
8100000,0.0005984003,0.0139263915,-0.022705078,-0.012350948,0.015429787,-0.0155781135,,,
8108000,0.0006851199,0.013848038,-0.022613525,-0.012379651,0.014981246,-0.01568776,0.001095633732999206,-0.00021637857012727586,1.5831066648928092
8116000,0.00076764467,0.013770271,-0.02255249,-0.01226486,0.014666836,-0.016020965,0.0010907998092792184,-0.0001828020332317613,1.5829699231136423
8124000,0.0008476627,0.013696695,-0.022491455,-0.012207283,0.014638496,-0.016797638,,,
8140000,0.00096268195,0.013575992,-0.022399902,-0.011776292,0.015414601,-0.017358758,,,
8148000,0.0010225172,0.013522216,-0.022369385,-0.011139967,0.014967277,-0.017407164,0.0008768558860461136,-0.00025377073597595613,1.582988758235816
8156000,0.001084112,0.013472097,-0.02230835,-0.010598011,0.015072912,-0.017209046,0.0008077607457121695,-0.00025015761172538116,1.582945244265806
8164000,0.0011445209,0.013424151,-0.02230835,-0.010809584,0.014615278,-0.017440205,,,
8180000,0.0012537348,0.013342851,-0.022247314,-0.010536606,0.015920717,-0.016780619,,,
8188000,0.0013045948,0.013313759,-0.022247314,-0.010781439,0.015605715,-0.016832447,0.0008601778434295574,1.925206743299679e-05,1.5830140330867766
8196000,0.0013527307,0.013283638,-0.022216797,-0.010580765,0.014817599,-0.016441666,0.0008745245840004132,6.94651681091506e-05,1.5829938853076688
8204000,0.0014003738,0.013250539,-0.02218628,-0.010215783,0.014121799,-0.015756393,,,
8220000,0.0014917536,0.013180426,-0.022155762,-0.01037508,0.013019591,-0.01478938,,,
8228000,0.0015318524,0.013147002,-0.022125244,-0.010436766,0.013325923,-0.014465784,0.00070060492739911,5.426036662290698e-05,1.5832844188678716
8236000,0.0015699588,0.013114546,-0.022064209,-0.010212796,0.012483101,-0.013885889,0.0006848091683284928,-3.763815039726148e-05,1.5833176823648478
8244000,0.0016095296,0.013079553,-0.022033691,-0.009638989,0.011776059,-0.014280539,,,
8260000,0.0016817847,0.01301196,-0.021972656,-0.0107067395,0.011503017,-0.014404576,,,
8268000,0.0017083993,0.012980688,-0.021942139,-0.010262084,0.01136109,-0.014053825,0.0006573414972021357,0.00014447796325171486,1.583202992628856
8276000,0.0017384572,0.012950705,-0.021911621,-0.009821908,0.011216603,-0.014643619,0.0006663328392205769,0.00016911493811342374,1.5832817964682588
8284000,0.0017637706,0.012923274,-0.021911621,-0.010604301,0.011207389,-0.014813217,,,
8300000,0.001797691,0.012876765,-0.021911621,-0.0114368275,0.011505874,-0.015016929,,,
8308000,0.0018059454,0.012860366,-0.021911621,-0.011367072,0.0115114795,-0.015109795,0.0006449951198092879,5.0856062465848767e-05,1.5832023973677953
8316000,0.0018129225,0.012844186,-0.021942139,-0.01149655,0.010913183,-0.015252031,0.0007157888673154576,9.350737686857034e-05,1.5831795072501416
8324000,0.0018156549,0.012823128,-0.021972656,-0.0119874505,0.009926858,-0.014696388,,,
8340000,0.0018264698,0.01280022,-0.022003174,-0.0114498325,0.010088176,-0.014917822,,,
8348000,0.0018310979,0.012792002,-0.022033691,-0.01138068,0.009421342,-0.015486816,0.0009070347993432689,0.0003690850073449535,1.5831853502718682
8356000,0.0018334627,0.01278232,-0.022033691,-0.011452591,0.009325971,-0.015530591,0.0009632866299711739,0.00045727547105520357,1.583188091875096
8364000,0.0018341871,0.012775921,-0.022064209,-0.011073084,0.009538526,-0.015020924,,,
8380000,0.0018299572,0.012770073,-0.022155762,-0.011146424,0.009324952,-0.016058816,,,
8388000,0.0018265954,0.0127750505,-0.02218628,-0.011200442,0.01017008,-0.015653502,0.0011869789978477612,0.0003312383547926781,1.5831864238116418
8396000,0.001820007,0.012786857,-0.022216797,-0.0112574,0.010416139,-0.015163074,0.0011354897652352152,0.00038350435564658803,1.5831611482134134
8404000,0.0018107613,0.012803697,-0.022247314,-0.0112899365,0.010876406,-0.015928583,,,
8420000,0.0017873545,0.012850682,-0.022338867,-0.011021262,0.011204361,-0.014921644,,,
8428000,0.0017762668,0.01287896,-0.022399902,-0.010454129,0.011347941,-0.014700461,0.001059976239701928,0.000435415203471373,1.5829692071853185
8436000,0.0017655824,0.012909998,-0.02243042,-0.0102067785,0.011063935,-0.014230871,0.0010933424935159477,0.0003676757415709558,1.5827891876539069
8444000,0.0017566284,0.012937913,-0.022491455,-0.009499969,0.010406233,-0.014548021,,,
8460000,0.0017507183,0.012683131,-0.022369385,-0.009556049,0.009800244,-0.014666835,,,
8468000,0.0017485208,0.012403871,-0.022216797,-0.009544441,0.008985388,-0.013689708,0.0012119341428140171,0.0002998934696211411,1.582548010297234
8476000,0.0017443931,0.012125498,-0.022064209,-0.009459219,0.007844466,-0.013329816,0.0012307189317526846,0.00029374406280538163,1.5825947434140257
8484000,0.0017394659,0.011846049,-0.021911621,-0.009270793,0.0067163263,-0.0134245865,,,
8500000,0.0017347329,0.011299441,-0.021606445,-0.008381051,0.005930534,-0.013254403,,,
8508000,0.0017310526,0.011032235,-0.021453857,-0.00861614,0.0056715948,-0.012964044,0.0010691284423607946,0.0003735559962956091,1.5826383780112199
8516000,0.0017211208,0.010772027,-0.021331787,-0.009223535,0.005660425,-0.01321364,0.001036038757791271,0.0003585707822352348,1.5826098854573691
8524000,0.0017082783,0.010516532,-0.021209717,-0.008855681,0.0051494925,-0.0128837135,,,
8540000,0.0016919533,0.009989388,-0.020965576,-0.008058894,0.0038500677,-0.012110783,,,
8548000,0.0016827683,0.009732782,-0.020843506,-0.008227101,0.0037000861,-0.012390048,0.0009896416814365937,0.00046660904137472975,1.5824920979948034
8556000,0.0016710031,0.009479561,-0.020751953,-0.008304259,0.003001934,-0.013007704,0.000977632548621559,0.0005585465987060618,1.5824343976674962
8564000,0.0016559476,0.009228962,-0.020629883,-0.008550144,0.0026781694,-0.0126853995,,,
8580000,0.0016158124,0.008740068,-0.020446777,-0.008829726,0.0021378067,-0.013338667,,,
8588000,0.0015940159,0.008502439,-0.020355225,-0.008573761,0.0019422241,-0.013694991,0.0010297816545108448,0.0005809776229723466,1.582340573124324
8596000,0.0015725179,0.008268238,-0.02029419,-0.008448735,0.0015055045,-0.0143938735,0.0009868376089374117,0.0007102058749705554,1.582278939136656
8604000,0.0015499755,0.008037325,-0.020202637,-0.008267075,0.0014199188,-0.014085593,,,
8620000,0.0015003037,0.007590018,-0.020080566,-0.009357178,0.0007101834,-0.013748779,,,
8628000,0.0014627795,0.0073680463,-0.020019531,-0.010156955,-5.088681e-05,-0.014266542,0.0010684814949357979,0.000724358954947299,1.5820433655983452
8636000,0.001418673,0.0071438043,-0.019958496,-0.010636314,-0.0011180504,-0.014581297,0.0010884654177867959,0.0007873702210882272,1.5820011648149022
8644000,0.0013693068,0.006917535,-0.019897461,-0.011330132,-0.0018880978,-0.014304979,,,
8660000,0.0012622785,0.0064703827,-0.019836426,-0.010906622,-0.0023721645,-0.015803317,,,
8668000,0.0012104558,0.0062500774,-0.019836426,-0.01075685,-0.0030053887,-0.016328426,0.000980486367785445,0.0009009386467451576,1.581914733456473
8676000,0.0011573206,0.0060285362,-0.019836426,-0.0107499,-0.003925257,-0.016233036,0.0009890597562791734,0.0008718302646549467,1.5819022152626498
8684000,0.0011022824,0.0058053443,-0.019805908,-0.011105354,-0.0047038747,-0.016067876,,,
8700000,0.0009818621,0.0053633424,-0.019805908,-0.011408705,-0.0049138325,-0.017062673,,,
8708000,0.0009153709,0.0051493035,-0.019836426,-0.012357213,-0.005326218,-0.017783435,0.0011552608898075327,0.0008121509764946477,1.5818336648642954
8716000,0.00084356836,0.004935154,-0.019866943,-0.012597386,-0.005657347,-0.018042805,0.0010995290150929383,0.0008508224717539571,1.58188433231917
8724000,0.0007685808,0.004725002,-0.019897461,-0.012836826,-0.0058870595,-0.017265065,,,
8740000,0.0006185926,0.0043094717,-0.019958496,-0.012601159,-0.0063165966,-0.015998542,,,
8748000,0.00054552365,0.0041078576,-0.019989014,-0.0122568635,-0.0059276065,-0.016137391,0.0010609423444138955,0.0011120147500952894,1.582011778456818
8756000,0.0004709548,0.0039114226,-0.020019531,-0.012691118,-0.0063415137,-0.01587876,0.001037207841567306,0.0011527738758785682,1.5820487350428232
8764000,0.00039456214,0.0037156125,-0.020050049,-0.012354708,-0.0065221176,-0.015747324,,,
8780000,0.00025174336,0.0033410676,-0.020111084,-0.011546833,-0.0060636937,-0.014508456,,,
8788000,0.00018325575,0.0031629277,-0.020111084,-0.011032931,-0.0056636315,-0.0144519275,0.0009722094792911953,0.0012496998294010435,1.5817299511357799
8796000,0.00011462595,0.0029921895,-0.020141602,-0.011368796,-0.0051675537,-0.014448984,0.0010035384863742987,0.0013201383750184679,1.5816664098168145
8804000,4.19867e-05,0.0028262234,-0.02017212,-0.011825897,-0.0052514514,-0.014518485,,,
8820000,-0.00010912899,0.0025059374,-0.020233154,-0.011809696,-0.004899987,-0.014859598,,,
8828000,-0.00018334239,0.0023536969,-0.020263672,-0.011370616,-0.004946857,-0.013751408,0.0008583206817282272,0.0012335757128222428,1.5818118528522234
8836000,-0.00025610154,0.002201623,-0.02029419,-0.011068855,-0.005693334,-0.012897287,0.0008086104463354323,0.0013239449265381009,1.581872654483284
8844000,-0.0003234705,0.0020484042,-0.020324707,-0.009779402,-0.0061204773,-0.013550047,,,
8860000,-0.00028093637,0.0018112321,-0.020324707,-0.008981249,-0.007208174,-0.0145061,,,
8868000,-0.00018545586,0.0017271326,-0.02029419,-0.009177389,-0.007655504,-0.014531091,0.0013356069927606355,0.0015787405000769967,1.5819112852117472
8876000,-9.591796e-05,0.0016443498,-0.02029419,-0.009347202,-0.0076577016,-0.013232318,0.0013591092770662207,0.0016136269568431784,1.581879336404476
8884000,-1.3496432e-05,0.0015625362,-0.020263672,-0.009583686,-0.007815749,-0.01349131,,,
8900000,0.00014243578,0.0013992403,-0.020263672,-0.0089896545,-0.0076330896,-0.01406021,,,
8908000,0.00022012778,0.0013235132,-0.02029419,-0.00838487,-0.0074311467,-0.013661112,0.001559907346920287,0.001576225693165902,1.581728882876903
8916000,0.0002973413,0.0012497139,-0.020324707,-0.008563721,-0.0075731077,-0.012730132,0.0016768078813710421,0.0015929498228808901,1.5817101668115425
8924000,0.00036640858,0.0011727803,-0.020355225,-0.009144598,-0.008594573,-0.012291637,,,
8940000,0.00051272433,0.00097546226,-0.02041626,-0.009515864,-0.009298605,-0.012327434,,,
8948000,0.00058229663,0.0008785387,-0.02041626,-0.009110208,-0.009262502,-0.01152761,0.001682726324892884,0.001452397367249422,1.5815241871415642
8956000,0.0006504985,0.0007826451,-0.020446777,-0.008866328,-0.009518528,-0.011116132,0.00160781404251129,0.0015462772330484243,1.5815543492236812
8964000,0.0007175535,0.00068689766,-0.020477295,-0.00863993,-0.009755097,-0.011201905,,,
8980000,0.000845841,0.00050893327,-0.020507812,-0.008029031,-0.00855924,-0.011068544,,,
8988000,0.0009080879,0.00042921133,-0.02053833,-0.00820313,-0.008409929,-0.010822462,0.0017334617545657182,0.0016646979614830576,1.5817954081991301
8996000,0.00096320856,0.00034873228,-0.020568848,-0.008953936,-0.00910364,-0.0104601225,0.001745377840939819,0.00170843234971514,1.581825332552109
9004000,0.001014702,0.00026799648,-0.020568848,-0.008345007,-0.00900925,-0.01066281,,,
9020000,0.0011157,0.000115670744,-0.020629883,-0.008115493,-0.008836462,-0.01106476,,,
9028000,0.0011598323,4.1754356e-05,-0.0206604,-0.008956477,-0.008937764,-0.011291625,0.001786263409903636,0.001794138023176578,1.5817853971751565
9036000,0.001191549,-3.0783234e-05,-0.020690918,-0.010269583,-0.009003944,-0.011443956,0.0017881700289739141,0.0018186666550903548,1.5818752874942235
9044000,0.0012116791,-0.00010278135,-0.020751953,-0.011352489,-0.008950573,-0.011114281,,,
9060000,0.0012328065,-0.00022700975,-0.020843506,-0.011597967,-0.007840201,-0.011161877,,,
9068000,0.0012373093,-0.00028526934,-0.020874023,-0.011917025,-0.008154992,-0.011113151,0.0018063647794553475,0.0018259400636442002,1.5820816515451046
9076000,0.0012345047,-0.00034375407,-0.020935059,-0.012730702,-0.008245116,-0.011222746,0.0018886987868886789,0.0018710331499357197,1.5821296959622533
9084000,0.0012255119,-0.00040139194,-0.020965576,-0.012697527,-0.008408671,-0.0118564945,,,
9100000,0.001206463,-0.00051985844,-0.021087646,-0.012378151,-0.0092653,-0.012273358,,,
9108000,0.0011951525,-0.000577724,-0.021148682,-0.012092293,-0.008579398,-0.0126441,0.002000573807590933,0.0018899291363084114,1.582111336853475
9116000,0.0011824048,-0.0006300976,-0.021240234,-0.012273549,-0.008276436,-0.011898202,0.002054952802712716,0.0018964122007835997,1.582188112967771
9124000,0.0011642075,-0.0006818227,-0.02130127,-0.012833986,-0.008848999,-0.012194358,,,
9140000,0.0011051266,-0.0008303715,-0.02142334,-0.013930518,-0.009194908,-0.011876119,,,
9148000,0.001071441,-0.00090251374,-0.021484375,-0.014013638,-0.009269165,-0.011889099,0.002208767213003178,0.0017919268269993383,1.5822702524752597
9156000,0.0010355613,-0.0009730141,-0.021575928,-0.013981104,-0.009094355,-0.011927264,0.0022469288218610324,0.001744583551976233,1.582379693243693
9164000,0.0010006832,-0.0010392542,-0.021636963,-0.013510371,-0.009016847,-0.012134347,,,
9180000,0.00093510444,-0.0011724789,-0.02178955,-0.012875125,-0.009651583,-0.01265385,,,
