timestamp,position[0],position[1],position[2],velocity[0],velocity[1],velocity[2],acceleration[0],acceleration[1],acceleration[2],jerk[0],jerk[1],jerk[2],yaw,yawspeed
2384000,nan,nan,nan,nan,nan,nan,0.0,0.0,0.3,nan,nan,nan,-0.0008335328,nan
2400000,nan,nan,nan,nan,nan,nan,0.0,0.0,0.3,nan,nan,nan,-0.0007654609,nan
2584000,nan,nan,nan,nan,nan,nan,0.0,0.0,0.3,nan,nan,nan,-0.000257731,nan
2784000,nan,nan,nan,nan,nan,nan,0.0,0.0,0.3,nan,nan,nan,0.0003019796,nan
2984000,nan,nan,nan,nan,nan,0.7,0.0,0.0,nan,nan,nan,nan,-6.784271e-05,nan
3184000,nan,nan,nan,nan,nan,0.7,0.0,0.0,nan,nan,nan,nan,1.5868621,nan
3384000,-0.0028153036,0.0012249156,0.013768335,0.0010337178,0.00078427384,0.6988481,0.06525338,0.041766882,-0.09599308,0.0,0.0,-4.0,1.589347,-0.0028102954
3584000,-0.0029412967,0.001172649,0.013432829,0.0010341308,0.0009260665,0.6988481,0.065304875,0.053493023,-0.09599416,0.0,0.0,-4.0,1.586418,-0.008109048
3784000,-0.00012149714,0.0042746114,0.013304806,0.0010352856,0.0010357948,0.69884896,0.06552899,0.065595984,-0.09596008,0.0,0.0,-4.0,1.5852647,-0.006081263
3984000,0.0045200824,0.009828687,0.012235805,0.0010357562,0.0010358584,0.6988491,0.065601826,0.0656153,-0.09595502,0.0,0.0,-4.0,1.5857706,0.005884219
4184000,0.010156149,0.012280186,0.011595446,0.0010365762,0.0010340003,0.698849,0.06570375,0.065365076,-0.095957935,0.0,0.0,-4.0,1.5855402,-0.0016573982
4384000,0.017849226,0.014433557,0.011532905,0.001037106,0.0010344766,0.6988492,0.06579268,0.0654459,-0.095949315,0.0,0.0,-4.0,1.5858493,0.00065343943
4584000,0.023415007,0.014023988,0.011169946,0.0010358882,0.0010325823,0.6988488,0.065591335,0.06515908,-0.095967926,0.0,0.0,-4.0,1.5856419,-0.005421551
4784000,0.029711299,0.013051094,0.011229178,0.0010366942,0.0010327075,0.698849,0.06572008,0.06519723,-0.0959576,0.0,0.0,-4.0,1.5850942,0.0054576895
4984000,0.03029144,0.0089376625,0.011810432,0.0010324033,0.001030357,0.6988488,0.065140486,0.06487608,-0.095965736,0.0,0.0,-4.0,1.5844983,-0.00837758
5184000,0.030031716,0.0035989557,0.011536946,0.0010338174,0.0010310109,0.69884866,0.06531024,0.064946294,-0.09597244,0.0,0.0,-4.0,1.5839679,0.0
5384000,0.02645498,0.0016218366,0.013063526,0.0010312324,0.0010333769,0.69884855,0.06496644,0.06524432,-0.09597646,0.0,0.0,-4.0,1.5842003,0.0010854423
5584000,0.02460201,0.0016971839,0.014165498,0.0010340147,0.0010340568,0.69884807,0.065286756,0.06529224,-0.09599557,0.0,0.0,-4.0,1.5857086,-0.004703249
5784000,0.024177065,0.0029128161,0.013707028,0.0010336733,0.0010344908,0.6988482,0.06525087,0.06535745,-0.09599153,0.0,0.0,-4.0,1.5858116,0.0
5984000,0.025475292,0.004554464,0.012117592,0.0010351148,0.00103439,0.69884855,0.06546998,0.06537509,-0.09597709,0.0,0.0,-4.0,1.5851508,-0.006556935
6184000,0.024801103,0.0048388517,0.009648417,0.0010331422,0.0010337072,0.6988482,0.06517911,0.06525254,-0.095992826,0.0,0.0,-4.0,1.5847746,-0.00837758
6384000,0.025133776,0.0048328633,0.006809207,0.0010345711,0.0010339099,0.6988483,0.06537831,0.065292,-0.09598667,0.0,0.0,-4.0,1.5852222,-0.00031535933
6584000,0.023028247,0.0053779893,0.0029945173,0.0010325887,0.0010339068,0.6988483,0.06512022,0.065291524,-0.09598672,0.0,0.0,-4.0,1.5851386,0.0
6784000,0.02274162,0.006406673,-0.00045439112,0.0010342961,0.0010344796,0.69884837,0.06534743,0.065371394,-0.0959843,0.0,0.0,-4.0,1.5845171,0.0
6984000,0.020018809,0.0068573854,-0.0051847086,0.0010322046,0.0010336253,0.69884837,0.06507671,0.065261126,-0.095983766,0.0,0.0,-4.0,1.585199,-0.0058433134
7184000,0.01882475,0.0071371896,-0.009790315,0.0010338842,0.0010338385,0.698848,0.06526387,0.06525791,-0.09599835,0.0,0.0,-4.0,1.5853662,0.0023469373
7384000,0.0153965745,0.0055328845,-0.00900064,0.0010314793,0.0010325396,0.69884855,0.06499779,0.065135,-0.0959767,0.0,0.0,-4.0,1.5854403,-0.00837758
7584000,0.013434827,0.0041385656,-0.00786887,0.0010334651,0.001033054,0.6988482,0.065223455,0.06517005,-0.09599169,0.0,0.0,-4.0,1.5852562,0.0011468052
7784000,0.008231009,0.001399142,-0.006623059,0.0010299338,0.0010316807,0.6988489,0.06483209,0.0650574,-0.09596074,0.0,0.0,-4.0,1.5848756,0.0005047708
7984000,0.0036545806,-0.0008891003,-0.0064363778,0.001031928,0.0010329729,0.6988484,0.06504631,0.06518173,-0.0959812,0.0,0.0,-4.0,1.5841388,-0.00837758
8184000,-1.5701366e-05,3.942619e-05,-0.0038430751,0.0010317474,0.0010345593,0.69884855,0.06503129,0.065396905,-0.09597725,0.0,0.0,-4.0,1.583007,0.0
8384000,-0.002505076,0.0025349436,-0.0019806959,0.0010332149,0.0010351219,0.6988484,0.06521177,0.06546068,-0.09598186,0.0,0.0,-4.0,1.5832144,0.0
8584000,-0.0015418191,0.0037850547,0.0033915974,0.001034674,0.0010342442,0.69884825,0.06538737,0.06533122,-0.09598873,0.0,0.0,-4.0,1.582392,0.0
8784000,-0.00011613609,0.004370052,0.0064437883,0.0010343075,0.0010342929,0.6988482,0.0653342,0.06533229,-0.09599121,0.0,0.0,-4.0,1.5822581,-0.0054877345
8984000,-0.0009010374,0.001966258,0.009737753,0.0010329997,0.0010318194,0.6988485,0.065187454,0.06503451,-0.09598014,0.0,0.0,-4.0,1.5816141,-0.0045496533
9184000,-0.0020461867,-0.0013214574,0.010013462,0.0010334004,0.0010324009,0.6988483,0.06522679,0.06509709,-0.09598615,0.0,0.0,-4.0,1.5814935,0.004144145
9384000,-0.0025108084,-0.0028312756,0.008275542,0.0010338203,0.0010335536,0.6988481,0.0652622,0.06522751,-0.09599521,0.0,0.0,-4.0,1.5816405,0.0
9584000,-0.0031531584,-0.0032863677,0.005132799,0.001033963,0.0010339905,0.698848,0.06527388,0.06527746,-0.09599846,0.0,0.0,-4.0,1.5821013,0.0055894004
9784000,-0.006697522,-0.0028623878,0.0073259696,0.001031186,0.0010337306,0.6988486,0.06496346,0.06529343,-0.09597502,0.0,0.0,-4.0,1.5818173,-0.0031762484
9984000,-0.010204331,-0.0022435558,0.009219575,0.0010323056,0.0010340046,0.69884837,0.06508994,0.06531072,-0.09598369,0.0,0.0,-4.0,1.5818435,0.0005979766
10184000,-0.011500909,-0.0021594435,0.007512692,0.0010336252,0.0010338204,0.69884807,0.065235734,0.065261126,-0.095995724,0.0,0.0,-4.0,1.5816617,0.0031834487
10384000,-0.0132244695,-0.0026935372,0.0047949594,0.0010327362,0.0010331834,0.6988483,0.065140486,0.06519854,-0.09598617,0.0,0.0,-4.0,1.5825183,-0.0027730414
10584000,-0.013167738,-0.005876401,0.003328615,0.0010334869,0.0010316321,0.69884855,0.06525624,0.06501567,-0.09597758,0.0,0.0,-4.0,1.5824906,-0.00837758
10784000,-0.014314474,-0.00949219,0.0023824978,0.00103264,0.0010318973,0.69884855,0.06514704,0.06505084,-0.095977165,0.0,0.0,-4.0,1.5820831,0.0
10984000,-0.01547774,-0.011590461,0.0024145085,0.0010327792,0.0010329713,0.6988483,0.06514704,0.06517196,-0.09598572,0.0,0.0,-4.0,1.581957,0.0
11184000,-0.0182761,-0.013539524,0.0017101069,0.001031579,0.0010317117,0.69884866,0.06502175,0.06503892,-0.09597142,0.0,0.0,-4.0,1.5816413,-0.0010766431
11384000,-0.019515965,-0.012125964,0.001132311,0.0010328449,0.0010348188,0.69884837,0.06516111,0.06541836,-0.09598309,0.0,0.0,-4.0,1.581569,0.0
11584000,-0.023136275,-0.0107047185,-2.9582938e-05,0.0010308715,0.0010339294,0.6988487,0.064932704,0.06532931,-0.09597035,0.0,0.0,-4.0,1.5813909,0.0
11784000,-0.021978848,-0.00802906,0.0010713539,0.0010347568,0.0010349144,0.69884837,0.0654093,0.065429926,-0.09598353,0.0,0.0,-4.0,1.5816559,-0.0062926854
11984000,-0.021682402,-0.00691724,0.0012567076,0.0010338379,0.0010338554,0.69884807,0.06526196,0.065264225,-0.0959964,0.0,0.0,-4.0,1.5817268,0.00837758
12184000,-0.016832123,-0.009029761,0.0014952676,0.001036156,0.001031557,0.69884884,0.06563413,0.065033555,-0.095964454,0.0,0.0,-4.0,1.5813142,0.0021669432
12384000,-0.013149916,-0.012330318,0.0011020352,0.0010346675,0.0010324795,0.69884837,0.06539559,0.0651108,-0.095984474,0.0,0.0,-4.0,1.5816214,0.0
12584000,-0.0074570677,-0.0127132675,0.0019843858,0.0010363397,0.0010331469,0.6988487,0.06564796,0.065229654,-0.09596925,0.0,0.0,-4.0,1.5816023,-0.007936515
12784000,-0.003622649,-0.014195872,0.0013763456,0.0010344826,0.0010323706,0.6988484,0.065375686,0.06510091,-0.09598248,0.0,0.0,-4.0,1.5811231,-0.0072113094
12984000,0.0012180179,-0.012940137,-0.00067119964,0.0010359961,0.0010347397,0.6988488,0.065609574,0.06544447,-0.09596606,0.0,0.0,-4.0,1.5811875,0.00837758
13184000,0.005875838,-0.011279206,-0.0035686828,0.001035444,0.0010340244,0.69884855,0.065516114,0.06533027,-0.09597572,0.0,0.0,-4.0,1.5814734,0.0
13384000,0.0103685735,-0.008719595,-0.0064981435,0.0010351564,0.0010347096,0.69884855,0.06547558,0.06541705,-0.09597702,0.0,0.0,-4.0,1.5817726,0.0
13584000,0.01291857,-0.006862791,-0.010249275,0.0010344987,0.0010341918,0.6988482,0.06535852,0.065318465,-0.09599151,0.0,0.0,-4.0,1.581427,-0.0041175317
13784000,0.011920327,-0.0040560267,-0.01418838,0.001032561,0.0010349717,0.6988485,0.06513476,0.065449,-0.095978126,0.0,0.0,-4.0,1.5811985,0.0025315906
13984000,0.010138814,-0.0021313103,-0.01848875,0.0010334579,0.0010342738,0.6988481,0.06521964,0.065325856,-0.09599306,0.0,0.0,-4.0,1.5811596,0.0
14184000,0.0107406005,-0.00075038226,-0.019709732,0.001034159,0.0010345435,0.6988482,0.06531429,0.06536448,-0.095991455,0.0,0.0,-4.0,1.5815485,0.0008178188
14384000,0.011520905,0.00043940675,-0.020289175,0.001033998,0.0010342658,0.6988481,0.06528854,0.06532347,-0.0959937,0.0,0.0,-4.0,1.5814327,0.0
14584000,0.007027425,0.0015650903,-0.021423383,0.0010301156,0.0010339958,0.69884884,0.06484711,0.06534994,-0.095964745,0.0,0.0,-4.0,1.5816511,-0.0052760383
14784000,0.0021947175,0.0025320635,-0.024288537,0.0010322292,0.0010338183,0.69884837,0.06507778,0.06528413,-0.095984764,0.0,0.0,-4.0,1.5813497,-0.0030166775
14984000,0.003947508,0.002798207,-0.023129951,0.0010352854,0.0010338032,0.6988485,0.06548917,0.06529534,-0.09597857,0.0,0.0,-4.0,1.5818235,0.0
15184000,0.0077314205,0.0035630334,-0.02175681,0.0010354859,0.0010339951,0.69884855,0.06551731,0.06532216,-0.09597772,0.0,0.0,-4.0,1.5815444,-0.005391363
15384000,0.008967815,0.0032340258,-0.019342693,0.0010342335,0.0010337356,0.69884807,0.065313935,0.065249085,-0.09599619,0.0,0.0,-4.0,1.5806005,-0.0039970614
15584000,0.010005778,0.0036614272,-0.018092517,0.00103463,0.0010343837,0.69884825,0.06537843,0.06534624,-0.09599022,0.0,0.0,-4.0,1.5813434,0.0057434747
15784000,0.0110441735,0.0017742104,-0.017818825,0.0010342649,0.0010324526,0.69884837,0.065342546,0.06510687,-0.09598468,0.0,0.0,-4.0,1.5815642,-0.0032980593
15984000,0.012381918,-0.00033937977,-0.018643117,0.0010345756,0.0010324719,0.6988484,0.06538701,0.06511319,-0.09598287,0.0,0.0,-4.0,1.5816128,0.007967093
16184000,0.015846174,-0.0020741995,-0.018949864,0.001035705,0.0010328463,0.6988486,0.06555438,0.06518078,-0.09597388,0.0,0.0,-4.0,1.5813385,0.0036075877
16384000,0.019855686,-0.0028592073,-0.01965101,0.0010354575,0.0010338165,0.6988485,0.06551254,0.06529784,-0.095978215,0.0,0.0,-4.0,1.5815681,0.0036837289
16584000,0.020247798,-0.0030397235,-0.019922843,0.0010336877,0.001033321,0.6988481,0.0652467,0.06519902,-0.09599439,0.0,0.0,-4.0,1.5820335,0.0014563422
16784000,0.020692542,-0.0039923796,-0.020320334,0.0010344936,0.0010336569,0.69884825,0.06536102,0.06525195,-0.095990025,0.0,0.0,-4.0,1.5822506,0.0037250589
16984000,0.019181598,-0.0045413827,-0.019924263,0.0010323669,0.0010335123,0.6988483,0.065092444,0.0652411,-0.09598627,0.0,0.0,-4.0,1.5821946,0.0
17184000,0.017300457,-0.0049588266,-0.020594558,0.0010331887,0.0010339622,0.6988482,0.065185785,0.0652864,-0.09599252,0.0,0.0,-4.0,1.5816447,0.008068614
17384000,0.015398616,-0.004813724,-0.01998468,0.001032878,0.0010337229,0.69884825,0.065151215,0.06526101,-0.0959898,0.0,0.0,-4.0,1.5819579,0.0
17584000,0.014378755,-0.005353405,-0.018946359,0.0010339379,0.0010334358,0.6988481,0.0652802,0.06521487,-0.09599394,0.0,0.0,-4.0,1.5822173,-0.0032837947
17784000,0.013209056,-0.006696515,-0.017238539,0.0010329499,0.0010328891,0.6988483,0.06516588,0.06515801,-0.095987275,0.0,0.0,-4.0,1.5827504,0.0060870172
17984000,0.012077855,-0.008702912,-0.01546904,0.0010330565,0.0010325843,0.69884837,0.06518602,0.06512475,-0.0959843,0.0,0.0,-4.0,1.5830852,0.0061787846
18184000,0.01042135,-0.008839877,-0.012232854,0.0010330044,0.0010340009,0.6988482,0.065163255,0.065292835,-0.095991865,0.0,0.0,-4.0,1.5827976,0.006958339
18384000,0.008580968,-0.009328049,-0.009914093,0.0010327101,0.0010333428,0.69884825,0.06513202,0.06521416,-0.09598858,0.0,0.0,-4.0,1.5826907,0.0018545033
18584000,0.0038185676,-0.006075125,-0.009948761,0.0010305578,0.0010353252,0.69884884,0.064903855,0.06552398,-0.09596482,0.0,0.0,-4.0,1.5820917,0.0
18784000,-0.0005595801,-0.0038681214,-0.010220623,0.0010318435,0.0010341443,0.6988484,0.06503618,0.065335035,-0.09598083,0.0,0.0,-4.0,1.5827503,0.0
18984000,-0.0035167248,-0.0037602698,-0.011073441,0.0010328924,0.0010337722,0.69884825,0.06515181,0.06526613,-0.09599041,0.0,0.0,-4.0,1.5828316,0.0
19184000,-0.004289288,-0.004508058,-0.0118666375,0.0010338177,0.0010331033,0.6988482,0.065268874,0.06517601,-0.0959919,0.0,0.0,-4.0,1.5826865,-0.0051042875
19384000,-0.004448054,-0.006275698,-0.010128205,0.0010337048,0.00103244,0.6988483,0.065267205,0.065102935,-0.09598578,0.0,0.0,-4.0,1.5828681,0.0
19584000,-0.00388224,-0.009173382,-0.007749262,0.0010339008,0.0010317275,0.69884855,0.06531012,0.06502795,-0.095977604,0.0,0.0,-4.0,1.5834017,0.00091684214
19784000,-0.0003947144,-0.010781543,-0.0046680355,0.0010355497,0.0010324832,0.69884866,0.06553888,0.06513846,-0.0959716,0.0,0.0,-4.0,1.5832908,-0.00837758
19984000,0.0033644035,-0.014796729,-0.0024414796,0.0010349089,0.0010306585,0.69884884,0.06546986,0.064917326,-0.09596457,0.0,0.0,-4.0,1.5828631,0.0079620015
20184000,0.0057103457,-0.01552549,0.00037029572,0.0010345934,0.0010337096,0.69884825,0.06537759,0.06526232,-0.09598837,0.0,0.0,-4.0,1.5818907,-0.00837758
20384000,0.00822956,-0.017230034,0.0020773145,0.0010346877,0.0010322016,0.69884855,0.06541395,0.0650903,-0.09597713,0.0,0.0,-4.0,1.581858,-0.0017974086
20584000,0.008516596,-0.016416885,0.0037596752,0.0010338265,0.0010342093,0.698848,0.06525409,0.06530392,-0.09599941,0.0,0.0,-4.0,1.58261,0.003593692
20784000,0.009298082,-0.01818928,0.004548926,0.0010339988,0.0010316242,0.6988486,0.06532776,0.06501937,-0.09597533,0.0,0.0,-4.0,1.5836003,0.0060293665
20984000,0.012129772,-0.017208004,0.0043048784,0.0010354663,0.0010341948,0.69884855,0.06551874,0.0653522,-0.09597587,0.0,0.0,-4.0,1.5844378,0.00837758
21184000,0.016564919,-0.01873495,0.0033560942,0.001035935,0.0010311797,0.69884896,0.06561422,0.06499374,-0.09596019,0.0,0.0,-4.0,1.5845009,-0.005925009
21384000,0.018449707,-0.018121276,0.0034527087,0.0010344905,0.001034403,0.69884825,0.06536245,0.06535101,-0.09598917,0.0,0.0,-4.0,1.5845587,0.0039970614
21584000,0.02130662,-0.019943262,0.0028986263,0.0010354177,0.0010308895,0.6988489,0.06554246,0.06495273,-0.09596188,0.0,0.0,-4.0,1.5846031,0.0
21784000,0.021492286,-0.019137317,0.0027213264,0.0010335292,0.0010345804,0.6988481,0.06522453,0.0653615,-0.09599511,0.0,0.0,-4.0,1.5843441,0.007055711
21984000,0.022967987,-0.02066843,0.0033274957,0.001034877,0.0010315196,0.69884866,0.0654515,0.0650146,-0.095971175,0.0,0.0,-4.0,1.5852448,-0.0010678365
22184000,0.020356674,-0.019265767,0.0054961145,0.0010317592,0.0010344764,0.6988484,0.065023065,0.06537616,-0.09598188,0.0,0.0,-4.0,1.5853146,-0.0022768672
22384000,0.019433025,-0.020366985,0.0074180784,0.0010341735,0.0010320358,0.6988485,0.06534445,0.065066576,-0.0959782,0.0,0.0,-4.0,1.5849855,0.0057493667
22584000,0.01817338,-0.018405007,0.006687427,0.0010332819,0.0010349429,0.69884825,0.065206766,0.06542337,-0.09598833,0.0,0.0,-4.0,1.584862,-0.0026227557
22784000,0.019756928,-0.01879611,0.0055554127,0.0010352149,0.0010320335,0.69884866,0.06549418,0.06507945,-0.09597194,0.0,0.0,-4.0,1.5851521,0.008334662
22984000,0.018777044,-0.017200554,0.005070724,0.0010332792,0.00103463,0.6988482,0.06519759,0.06537354,-0.095992506,0.0,0.0,-4.0,1.585185,0.00837758
23184000,0.020755587,-0.017704418,0.004792146,0.0010354966,0.0010320877,0.6988487,0.06553519,0.06509042,-0.09597007,0.0,0.0,-4.0,1.5851833,0.0
23384000,0.019554477,-0.014609163,0.0050986535,0.0010326908,0.0010356694,0.69884855,0.065152526,0.065541506,-0.09597769,0.0,0.0,-4.0,1.5855973,0.008083788
23584000,0.021397548,-0.012724487,0.005280392,0.0010359192,0.0010336163,0.6988487,0.065591216,0.0652895,-0.09596987,0.0,0.0,-4.0,1.5864755,0.0
23784000,0.019594824,-0.005041571,0.005307899,0.0010317606,0.0010374911,0.69884914,0.065084815,0.06583655,-0.09595263,0.0,0.0,-4.0,1.5865082,0.0073071104
23984000,0.020489838,0.0008496691,0.004944022,0.0010349767,0.0010356391,0.6988488,0.0654757,0.065562725,-0.09596599,0.0,0.0,-4.0,1.587105,0.0
24184000,0.018500399,0.0048446115,0.005313275,0.00103244,0.0010349853,0.69884837,0.06510794,0.06543946,-0.09598341,0.0,0.0,-4.0,1.5876126,3.4030527e-06
24384000,0.019453926,0.0060326,0.0056479885,0.0010352435,0.001033494,0.69884855,0.06548536,0.065256715,-0.09597779,0.0,0.0,-4.0,1.5879111,0.004766719
24584000,0.016463052,0.0060430598,0.0068385587,0.0010314775,0.0010335529,0.6988485,0.06499064,0.065259695,-0.09598,0.0,0.0,-4.0,1.5887096,-0.00837758
24784000,0.016138729,0.005720212,0.008120671,0.0010348379,0.0010332249,0.6988484,0.06542289,0.06521249,-0.095982134,0.0,0.0,-4.0,1.5888526,0.0
24984000,0.01591902,0.007890918,0.008792283,0.0010340003,0.0010350819,0.69884837,0.06531072,0.0654521,-0.09598342,0.0,0.0,-4.0,1.5889901,0.00021908851
25184000,0.019830916,0.009109185,0.009093053,0.0010365203,0.0010334937,0.69884896,0.06569576,0.06529832,-0.09595821,0.0,0.0,-4.0,1.5897241,0.00496779
25384000,0.020449352,0.0067055277,0.009493456,0.001033633,0.0010317864,0.6988485,0.065271735,0.065032125,-0.09597924,0.0,0.0,-4.0,1.5899364,0.0016822475
25584000,0.024495153,0.0032830024,0.00979468,0.0010363553,0.0010314095,0.698849,0.065677404,0.06503093,-0.09595662,0.0,0.0,-4.0,1.5901985,0.0
25784000,0.023967117,0.0021167593,0.010472691,0.00103334,0.0010334436,0.6988481,0.06520116,0.065214634,-0.09599454,0.0,0.0,-4.0,1.5908448,-0.0020078912
25984000,0.027194222,0.0009480595,0.010466836,0.0010363392,0.0010325406,0.6988489,0.06566572,0.06516826,-0.09596103,0.0,0.0,-4.0,1.5912775,0.005330786
26184000,0.026102668,0.0023665295,0.011753149,0.001032777,0.0010347397,0.6988483,0.065143585,0.06539917,-0.095987216,0.0,0.0,-4.0,1.5923451,0.0082497895
26384000,0.02839107,0.0036400172,0.01168864,0.0010359092,0.0010334075,0.6988488,0.06559539,0.06526768,-0.09596733,0.0,0.0,-4.0,1.5934438,0.0024319615
26584000,0.026740659,0.006763213,0.011293785,0.0010323639,0.0010354694,0.6988485,0.06510937,0.065514445,-0.09597805,0.0,0.0,-4.0,1.5940862,0.00837758
26784000,0.02883951,0.009339645,0.009887823,0.0010359753,0.0010341158,0.6988488,0.06560755,0.06536353,-0.09596573,0.0,0.0,-4.0,1.5939654,0.0040239342
26984000,0.026293835,0.008471522,0.0076021175,0.0010319117,0.0010328358,0.69884837,0.06503928,0.06515896,-0.09598354,0.0,0.0,-4.0,1.5943954,0.0071899393
27184000,0.026912533,0.0076802517,0.005433467,0.0010354001,0.0010333003,0.69884866,0.06551695,0.06524241,-0.09597266,0.0,0.0,-4.0,1.5948868,0.0
27384000,0.025568444,0.0076032975,0.0046134777,0.0010331557,0.0010338849,0.69884807,0.065175295,0.065270066,-0.09599546,0.0,0.0,-4.0,1.5954902,0.00640571
27584000,0.028167328,0.00788444,0.0033872663,0.0010360462,0.00103363,0.69884884,0.06562078,0.06530392,-0.09596393,0.0,0.0,-4.0,1.5955793,0.0
27784000,0.026836485,0.007912377,0.0020192026,0.0010328852,0.001033888,0.6988481,0.065143585,0.06527388,-0.09599386,0.0,0.0,-4.0,1.5961741,0.0032695127
27984000,0.02907739,0.0081014335,0.00030513413,0.0010360099,0.0010334861,0.69884884,0.06561422,0.06528342,-0.09596475,0.0,0.0,-4.0,1.5963134,-0.004478642
28184000,0.0284875,0.00846346,-0.0014287798,0.0010333739,0.0010341391,0.69884807,0.065200925,0.065300465,-0.09599674,0.0,0.0,-4.0,1.5964277,0.0
28384000,0.031478655,0.009170557,-0.0036934495,0.0010363035,0.0010338479,0.69884896,0.06566262,0.06534016,-0.09596028,0.0,0.0,-4.0,1.5968183,0.0026227557
28584000,0.030493109,0.0077376203,-0.0028950293,0.001032972,0.0010327285,0.69884825,0.06516576,0.06513417,-0.0959887,0.0,0.0,-4.0,1.597772,0.00837758
28784000,0.033425383,0.006468223,-0.001984006,0.0010361869,0.001032841,0.6988489,0.06564152,0.06520331,-0.09596292,0.0,0.0,-4.0,1.5984985,0.0
28984000,0.03230648,0.0077329734,-0.0013397078,0.0010325989,0.0010349374,0.6988484,0.06513035,0.06543505,-0.095982544,0.0,0.0,-4.0,1.5992687,0.0
29184000,0.03444172,0.01127513,-0.0010692372,0.0010359248,0.0010352049,0.69884896,0.06561637,0.0655216,-0.095958576,0.0,0.0,-4.0,1.5993901,0.0
29384000,0.031593293,0.012095209,-0.0019196997,0.0010315299,0.001033509,0.6988484,0.06499398,0.065250516,-0.095981635,0.0,0.0,-4.0,1.5997154,0.0
29584000,0.0318281,0.0131419385,-0.004453923,0.0010351526,0.0010341087,0.6988486,0.06548071,0.065344095,-0.0959744,0.0,0.0,-4.0,1.6006659,-0.0042368514
29784000,0.029658843,0.011932343,-0.005183234,0.0010328768,0.0010332689,0.6988482,0.06514597,0.06519687,-0.09599221,0.0,0.0,-4.0,1.6007068,0.0039025466
29984000,0.03172561,0.012423134,-0.0055839177,0.0010355699,0.0010342669,0.6988487,0.06554592,0.06537509,-0.095969565,0.0,0.0,-4.0,1.6006452,0.00036309706
30184000,0.030840842,0.012144062,-0.007593433,0.0010337497,0.0010337725,0.69884807,0.06525099,0.06525397,-0.09599616,0.0,0.0,-4.0,1.6007501,0.0
30384000,0.034069344,0.013902622,-0.009796774,0.0010357429,0.0010348405,0.6988489,0.06558633,0.065467715,-0.095961384,0.0,0.0,-4.0,1.6013442,0.0
30584000,0.0318785,0.014272915,-0.010096164,0.0010329203,0.0010339149,0.6988481,0.065146804,0.06527603,-0.095994495,0.0,0.0,-4.0,1.6021582,0.008103999
30784000,0.034025677,0.015842883,-0.010649934,0.0010356396,0.0010345685,0.6988487,0.06555629,0.06541574,-0.09596901,0.0,0.0,-4.0,1.6032038,0.00837758
30984000,0.03134033,0.014957424,-0.010372145,0.0010320864,0.0010332672,0.6988483,0.065054774,0.06520784,-0.095986925,0.0,0.0,-4.0,1.6040323,-0.0040507484
31184000,0.0325935,0.016350772,-0.011108371,0.0010354947,0.0010349184,0.69884884,0.06554556,0.06546986,-0.09596515,0.0,0.0,-4.0,1.6049248,0.0010942321
31384000,0.03209937,0.015804818,-0.011255838,0.0010337734,0.0010332735,0.6988481,0.06525767,0.0651927,-0.095994465,0.0,0.0,-4.0,1.6058735,-0.00837758
31584000,0.035612993,0.016375594,-0.011231193,0.0010361566,0.0010341264,0.6988489,0.065642,0.06537533,-0.095960855,0.0,0.0,-4.0,1.6056635,0.004905281
31784000,0.035153437,0.015544458,-0.009668732,0.00103315,0.0010336603,0.69884807,0.06517434,0.06524062,-0.09599556,0.0,0.0,-4.0,1.6061648,0.0044721663
31984000,0.03733521,0.017450297,-0.009308059,0.0010355788,0.0010351897,0.69884884,0.06555939,0.06550825,-0.09596386,0.0,0.0,-4.0,1.6068332,0.0
32184000,0.035301913,0.015607783,-0.0104643665,0.0010323513,0.0010320914,0.69884837,0.06509709,0.06506348,-0.095983095,0.0,0.0,-4.0,1.6068255,0.00837758
32384000,0.03664859,0.015134216,-0.011442709,0.0010354051,0.0010339776,0.69884866,0.06551707,0.06533015,-0.09597291,0.0,0.0,-4.0,1.6073635,0.0047730478
32584000,0.03426345,0.0137196025,-0.009609221,0.0010321229,0.0010332109,0.6988483,0.06505966,0.06520069,-0.09598684,0.0,0.0,-4.0,1.6072911,-0.00038211886
32784000,0.03502831,0.015333623,-0.0076292874,0.0010353192,0.0010350522,0.6988488,0.06552148,0.06548643,-0.09596561,0.0,0.0,-4.0,1.6084318,0.003593692
32984000,0.03289358,0.01602228,-0.004635476,0.0010318807,0.0010338702,0.69884837,0.06503582,0.06529403,-0.09598329,0.0,0.0,-4.0,1.6092796,0.0032408952
33184000,0.033134036,0.018568167,-0.002350003,0.0010351017,0.0010354221,0.69884884,0.06549609,0.06553817,-0.09596414,0.0,0.0,-4.0,1.6086814,-0.00837758
33384000,0.0319415,0.018956337,0.0004931396,0.0010331105,0.0010339174,0.6988482,0.06517506,0.06527996,-0.0959928,0.0,0.0,-4.0,1.608622,-0.00837758
33584000,0.03372236,0.021891614,0.0028377955,0.0010350612,0.0010356806,0.6988489,0.06549311,0.06557453,-0.09596305,0.0,0.0,-4.0,1.6099366,0.0022141929
33784000,0.03240079,0.022275398,0.005620589,0.0010331717,0.0010338018,0.69884807,0.065176964,0.06525886,-0.09599565,0.0,0.0,-4.0,1.6105986,0.0068384823
33984000,0.034303896,0.024614332,0.008148189,0.0010352877,0.0010353894,0.69884884,0.06551874,0.06553209,-0.09596497,0.0,0.0,-4.0,1.6116158,0.0033832847
34184000,0.033590134,0.023048375,0.011295873,0.0010333045,0.0010325722,0.69884825,0.06520617,0.06511116,-0.09599,0.0,0.0,-4.0,1.61166,0.0039093215
34384000,0.036134075,0.02400313,0.013488503,0.0010356485,0.0010350826,0.69884884,0.0655694,0.065495014,-0.09596347,0.0,0.0,-4.0,1.6124249,0.0070233224
34584000,0.032998014,0.021836128,0.0148641355,0.0010314711,0.0010319949,0.69884855,0.06499636,0.06506407,-0.095976874,0.0,0.0,-4.0,1.6132699,0.0
34784000,0.032641217,0.021693135,0.016695702,0.0010345473,0.001034705,0.6988485,0.06538987,0.065410495,-0.0959798,0.0,0.0,-4.0,1.6131132,0.00837758
34984000,0.029740151,0.017299388,0.015015694,0.0010317387,0.0010308106,0.69884866,0.06504333,0.064923525,-0.09597098,0.0,0.0,-4.0,1.6135149,0.0068767215
35184000,0.02968873,0.01530548,0.013126201,0.0010345987,0.0010339338,0.6988483,0.06538367,0.06529689,-0.095985845,0.0,0.0,-4.0,1.6145678,0.0
35384000,0.02736311,0.014401594,0.011753326,0.0010325874,0.001033709,0.69884825,0.06511688,0.065262556,-0.09598822,0.0,0.0,-4.0,1.6146699,0.0
35584000,0.027681611,0.016301196,0.011079418,0.0010347241,0.0010351343,0.6988486,0.06542587,0.065479636,-0.09597379,0.0,0.0,-4.0,1.6145414,0.003226561
35784000,0.027979843,0.014423798,0.010746298,0.0010338824,0.0010324598,0.69884825,0.06528449,0.065099716,-0.09598852,0.0,0.0,-4.0,1.6144426,0.0
35984000,0.029606592,0.014674321,0.010286178,0.0010350212,0.0010346861,0.6988486,0.06546211,0.06541824,-0.095975034,0.0,0.0,-4.0,1.614907,-0.0046650204
36184000,0.030050099,0.01213489,0.011874262,0.0010336773,0.0010318029,0.6988484,0.06527221,0.065029025,-0.09598173,0.0,0.0,-4.0,1.6149147,-0.0017810368
36384000,0.03201735,0.011046548,0.013521892,0.00103518,0.0010340773,0.6988485,0.06547248,0.06532824,-0.09597991,0.0,0.0,-4.0,1.6154349,0.0050051548
36584000,0.03122151,0.009453417,0.015903698,0.0010330912,0.0010326077,0.69884825,0.06518245,0.06511974,-0.09598812,0.0,0.0,-4.0,1.6159618,0.008224743
36784000,0.032250553,0.009522778,0.018343825,0.0010349781,0.0010345372,0.6988484,0.06544411,0.065386415,-0.0959808,0.0,0.0,-4.0,1.6160293,-0.0051781605
36984000,0.03357457,0.01008194,0.019137558,0.0010348127,0.0010341441,0.6988484,0.06541908,0.0653317,-0.09598237,0.0,0.0,-4.0,1.616067,0.0
37184000,0.037602194,0.011317366,0.019654281,0.0010357411,0.001034148,0.6988487,0.06556642,0.065357566,-0.0959705,0.0,0.0,-4.0,1.6152742,0.0005141343
37384000,0.039315287,0.011508255,0.019719116,0.0010344194,0.0010338268,0.6988482,0.0653466,0.06526935,-0.095992245,0.0,0.0,-4.0,1.6153966,0.004465688
37584000,0.04240296,0.011853028,0.019105505,0.001035713,0.0010337165,0.6988486,0.06555605,0.06529462,-0.095973596,0.0,0.0,-4.0,1.6149199,-0.001379879
37784000,0.04121892,0.01028367,0.01898539,0.0010326067,0.001032569,0.69884837,0.06512666,0.06512177,-0.09598478,0.0,0.0,-4.0,1.6146618,-0.00837758
37984000,0.041710533,0.008254134,0.018984748,0.0010347189,0.001032638,0.6988484,0.06540954,0.06513846,-0.095981106,0.0,0.0,-4.0,1.6141529,-0.0061501698
38184000,0.039439756,0.006466779,0.018496867,0.0010321664,0.001032735,0.69884837,0.06507254,0.06514621,-0.09598339,0.0,0.0,-4.0,1.6139306,-0.001362805
38384000,0.039033834,0.0049225697,0.017337762,0.0010343129,0.0010329667,0.6988483,0.06534469,0.06516945,-0.09598662,0.0,0.0,-4.0,1.614088,0.00025772583
38584000,0.03786977,0.0025594821,0.017398426,0.0010333036,0.0010323656,0.69884837,0.06521773,0.06509602,-0.09598449,0.0,0.0,-4.0,1.6142148,0.0054757246
38784000,0.039463148,-0.00065802305,0.017670698,0.0010352023,0.0010315971,0.69884866,0.065494895,0.06502533,-0.09597084,0.0,0.0,-4.0,1.6140963,0.0062586092
38984000,0.03758942,2.4452231e-06,0.01736802,0.0010322861,0.0010344905,0.69884837,0.06508434,0.06537104,-0.095985144,0.0,0.0,-4.0,1.613484,-0.004302655
39184000,0.03705447,0.00019554544,0.01672806,0.0010341873,0.0010334412,0.69884825,0.06532037,0.06522322,-0.09599034,0.0,0.0,-4.0,1.6132734,0.0029874244
39384000,0.03449898,0.0018891663,0.01514022,0.001032403,0.0010345196,0.69884837,0.065099716,0.06537509,-0.09598503,0.0,0.0,-4.0,1.6134131,0.0012077761
39584000,0.034494463,0.0015938659,0.012667568,0.0010345785,0.001032602,0.6988484,0.06539166,0.06513429,-0.095980875,0.0,0.0,-4.0,1.6127508,0.0
39784000,0.034156404,0.0010968386,0.0116936285,0.001033878,0.0010337287,0.69884807,0.06526828,0.06524885,-0.09599588,0.0,0.0,-4.0,1.6117297,-0.0033336454
39984000,0.035968356,-0.00095258147,0.010346359,0.0010351728,0.0010317445,0.6988487,0.06549251,0.06504583,-0.09597015,0.0,0.0,-4.0,1.6109278,-0.00013151439
40184000,0.036677428,-0.0012925637,0.008580713,0.0010340057,0.0010339837,0.6988481,0.0652864,0.06528354,-0.09599518,0.0,0.0,-4.0,1.610325,-0.00837758
40384000,0.039156694,-0.0038572615,0.005523227,0.0010349778,0.0010309264,0.6988489,0.06548357,0.06495643,-0.0959624,0.0,0.0,-4.0,1.6096052,0.0
40584000,0.035857756,-0.005376468,0.0024734088,0.0010311224,0.0010330868,0.6988486,0.06495845,0.065212846,-0.0959735,0.0,0.0,-4.0,1.6087569,-0.0082847895
40784000,0.033371244,-0.008143627,-0.0005477086,0.0010331706,0.0010313786,0.6988486,0.06522226,0.06499004,-0.0959742,0.0,0.0,-4.0,1.6081136,0.0
40984000,0.031186463,-0.008527403,-0.0026503196,0.0010330994,0.0010337853,0.6988482,0.065175414,0.06526458,-0.09599195,0.0,0.0,-4.0,1.6079978,0.004289521
41184000,0.030725894,-0.0108592855,-0.005308544,0.0010337112,0.0010315131,0.6988486,0.06529379,0.06500852,-0.09597367,0.0,0.0,-4.0,1.608497,0.0018950901
41384000,0.02734985,-0.0101572005,-0.0070159826,0.0010318193,0.0010339298,0.6988484,0.0650295,0.065303445,-0.095982514,0.0,0.0,-4.0,1.6080285,-0.0061616222
41584000,0.025678193,-0.011641227,-0.007473347,0.0010332628,0.001032562,0.69884837,0.06521177,0.065120816,-0.095984794,0.0,0.0,-4.0,1.6068286,0.0033903585
41784000,0.022948667,-0.0093182735,-0.0071073365,0.0010321474,0.0010347506,0.69884837,0.065069556,0.06540823,-0.09598365,0.0,0.0,-4.0,1.6059147,-0.0016324862
41984000,0.021878958,-0.010278678,-0.0078097093,0.0010337473,0.0010321729,0.6988484,0.06528294,0.0650785,-0.09598097,0.0,0.0,-4.0,1.6052523,0.0
42184000,0.021391923,-0.009208655,-0.006555828,0.0010335697,0.0010344894,0.69884807,0.06522751,0.065347314,-0.09599619,0.0,0.0,-4.0,1.605429,0.0017152845
42384000,0.021737147,-0.010724124,-0.005582869,0.001034043,0.0010315956,0.69884855,0.06533301,0.0650152,-0.09597557,0.0,0.0,-4.0,1.604959,-0.0020239062
42584000,0.02173121,-0.010782154,-0.004511572,0.001033665,0.0010335394,0.6988481,0.06524503,0.0652287,-0.09599378,0.0,0.0,-4.0,1.6045855,-0.006545786
42784000,0.022016676,-0.013823169,-0.0044855378,0.0010337878,0.0010307827,0.6988487,0.065315604,0.06492591,-0.09596812,0.0,0.0,-4.0,1.6042143,-0.00837758
42984000,0.021161333,-0.013833748,-0.0053051463,0.0010333094,0.0010340817,0.6988481,0.06520021,0.0653007,-0.09599311,0.0,0.0,-4.0,1.6036348,-0.00837758
43184000,0.02053262,-0.016013222,-0.00686468,0.0010333126,0.0010314651,0.6988486,0.065238714,0.06499922,-0.09597515,0.0,0.0,-4.0,1.6037493,-0.006529046
43384000,0.019065619,-0.017074682,-0.0076567368,0.0010328011,0.0010327396,0.69884837,0.06515527,0.06514728,-0.09598317,0.0,0.0,-4.0,1.6038402,0.00837758
43584000,0.017527256,-0.021606,-0.009582916,0.001032914,0.0010301117,0.6988489,0.0652132,0.06485081,-0.095962726,0.0,0.0,-4.0,1.603914,0.0
43784000,0.013927388,-0.021144213,-0.010435371,0.0010311794,0.0010338621,0.6988486,0.06496394,0.06531191,-0.09597439,0.0,0.0,-4.0,1.6029046,-0.006184501
43984000,0.009555141,-0.02286593,-0.011596162,0.0010312903,0.0010314647,0.6988488,0.06499171,0.06501424,-0.09596796,0.0,0.0,-4.0,1.6022633,0.0
44184000,0.00741287,-0.021323407,-0.011593341,0.0010324919,0.0010347518,0.69884837,0.06511319,0.065407395,-0.09598411,0.0,0.0,-4.0,1.6024764,0.004823579
44384000,0.0049684104,-0.021396233,-0.012815264,0.0010320127,0.0010327119,0.69884855,0.06506586,0.06515646,-0.09597713,0.0,0.0,-4.0,1.602201,0.003752533
44584000,0.0015641468,-0.02019156,-0.013181292,0.0010317782,0.0010339721,0.6988485,0.06503332,0.06531823,-0.09597817,0.0,0.0,-4.0,1.6021322,-0.0010766431
44784000,-0.003108185,-0.021849323,-0.014130657,0.0010302996,0.0010316812,0.69884896,0.0648824,0.065060735,-0.09595917,0.0,0.0,-4.0,1.6023381,-0.00837758
44984000,-0.005435502,-0.021969862,-0.013424083,0.0010327087,0.0010335447,0.6988483,0.065137506,0.065246105,-0.0959859,0.0,0.0,-4.0,1.602163,-0.00837758
45184000,-0.009482824,-0.024717767,-0.013612283,0.0010302451,0.0010310108,0.698849,0.06488049,0.064979196,-0.09595673,0.0,0.0,-4.0,1.6018779,0.0051842993
45384000,-0.010877996,-0.02380995,-0.013210021,0.0010332887,0.0010347482,0.69884825,0.06520748,0.06539774,-0.09598841,0.0,0.0,-4.0,1.6016507,0.0
45584000,-0.014255364,-0.02443249,-0.013672318,0.0010305187,0.0010320632,0.6988489,0.064903736,0.06510329,-0.09596246,0.0,0.0,-4.0,1.6015337,0.0003249282
45784000,-0.013905577,-0.02258108,-0.01314851,0.001034193,0.0010348684,0.6988482,0.06531942,0.065407634,-0.095991135,0.0,0.0,-4.0,1.6012614,0.008043293
45984000,-0.017255044,-0.022444226,-0.013916102,0.0010304407,0.0010328705,0.69884884,0.06488943,0.065203786,-0.0959645,0.0,0.0,-4.0,1.6013371,0.00837758
46184000,-0.017106937,-0.018357158,-0.014097915,0.0010335717,0.0010361434,0.69884866,0.065279365,0.06561637,-0.0959719,0.0,0.0,-4.0,1.6006063,0.0
46384000,-0.020988245,-0.015707588,-0.014161193,0.00102984,0.0010336181,0.69884896,0.06482351,0.06531274,-0.09595907,0.0,0.0,-4.0,1.6002244,-0.0038209497
46584000,-0.022275614,-0.013719307,-0.012264793,0.0010328987,0.001034711,0.69884837,0.06516671,0.065402865,-0.095983736,0.0,0.0,-4.0,1.600125,-0.0020239062
46784000,-0.027426733,-0.013326947,-0.011477006,0.0010290467,0.0010328034,0.69884914,0.064737916,0.0652231,-0.09595128,0.0,0.0,-4.0,1.5997875,0.0
46984000,-0.028366229,-0.011333706,-0.01037191,0.0010336328,0.001034836,0.69884825,0.06525254,0.06540954,-0.095988266,0.0,0.0,-4.0,1.5995041,0.0
47184000,-0.033049807,-0.010672002,-0.010134287,0.0010290351,0.0010330847,0.69884914,0.06473708,0.06526041,-0.09595096,0.0,0.0,-4.0,1.5985763,-0.006595892
47384000,-0.032819785,-0.010043809,-0.008356267,0.0010345646,0.0010340232,0.69884807,0.0653559,0.065285325,-0.09599677,0.0,0.0,-4.0,1.5980873,-0.0038072967
47584000,-0.03593302,-0.010693516,-0.007843976,0.0010300511,0.0010324451,0.69884896,0.064849734,0.06515908,-0.09595951,0.0,0.0,-4.0,1.5980504,0.0
47784000,-0.033926122,-0.0072044283,-0.008298911,0.0010349101,0.0010356159,0.69884855,0.06544614,0.065538764,-0.0959757,0.0,0.0,-4.0,1.5979666,-0.008103999
47984000,-0.035933707,-0.004404034,-0.010803407,0.0010306371,0.0010340766,0.69884884,0.064915895,0.065362215,-0.09596394,0.0,0.0,-4.0,1.5978122,-0.0009525898
48184000,-0.034282267,-0.0009500781,-0.011137255,0.0010343057,0.0010356581,0.6988486,0.065369606,0.06554687,-0.095974505,0.0,0.0,-4.0,1.5973735,-0.008028081
48384000,-0.037356067,0.0029738212,-0.012361496,0.0010297275,0.0010347508,0.6988491,0.0648191,0.06547129,-0.09595425,0.0,0.0,-4.0,1.5960163,-0.0020159015
48584000,-0.03545356,0.004463615,-0.01314851,0.0010351108,0.0010341408,0.6988482,0.06543934,0.065312624,-0.095991135,0.0,0.0,-4.0,1.595756,0.0018707567
48784000,-0.0380784,0.005632395,-0.01522873,0.0010304543,0.0010339553,0.6988489,0.06489563,0.0653497,-0.095962375,0.0,0.0,-4.0,1.5960326,0.0
48984000,-0.036060147,0.005475715,-0.017146058,0.001034853,0.0010336319,0.6988482,0.06540251,0.065243244,-0.09599259,0.0,0.0,-4.0,1.5956428,0.0
49184000,-0.038488504,0.006194385,-0.019440621,0.001030111,0.0010338689,0.69884896,0.064857006,0.065344095,-0.095959716,0.0,0.0,-4.0,1.5948904,-0.0024088395
49384000,-0.03277981,0.0060203825,-0.019561987,0.0010370039,0.0010326745,0.69884884,0.06574774,0.065179944,-0.09596373,0.0,0.0,-4.0,1.5939721,-0.007972185
49584000,-0.03127187,0.005232319,-0.01968099,0.0010323762,0.0010334,0.6988484,0.06510413,0.065237045,-0.09598129,0.0,0.0,-4.0,1.5937519,0.0
49784000,-0.026283978,-4.4701283e-06,-0.01727369,0.0010356827,0.0010299702,0.6988489,0.06557977,0.06483674,-0.09596075,0.0,0.0,-4.0,1.5936787,-0.0075597647
49984000,-0.026957624,-0.0043929727,-0.01602132,0.001031122,0.0010318856,0.6988488,0.06497133,0.06507003,-0.09596733,0.0,0.0,-4.0,1.5938936,0.0
50184000,-0.023285255,-0.0055444706,-0.013975237,0.0010358819,0.0010332322,0.6988486,0.06557441,0.06522775,-0.095975384,0.0,0.0,-4.0,1.5935831,0.0
50384000,-0.023206463,-0.0055212937,-0.011717042,0.001031543,0.0010337073,0.6988486,0.06501007,0.06529093,-0.09597477,0.0,0.0,-4.0,1.5929786,-0.008038225
50584000,-0.021151919,-0.005803039,-0.007959549,0.001034684,0.0010337438,0.69884807,0.06537163,0.065249085,-0.0959967,0.0,0.0,-4.0,1.5920885,-0.0035449285
50784000,-0.024640564,-0.0060227113,-0.005098296,0.0010294227,0.001033417,0.6988491,0.06477976,0.06529653,-0.09595435,0.0,0.0,-4.0,1.5913248,0.0047540492
50984000,-0.025120348,-0.0045430623,-0.0029256344,0.0010336783,0.001034782,0.69884825,0.06525862,0.06540263,-0.09598819,0.0,0.0,-4.0,1.5904384,-3.3139717e-05
51184000,-0.029663563,-0.0025513298,-0.002199481,0.0010292057,0.0010341106,0.69884914,0.064756155,0.06539154,-0.09595231,0.0,0.0,-4.0,1.589937,0.0
51384000,-0.031072669,-6.867089e-05,-0.0020723918,0.0010328878,0.0010347809,0.6988484,0.065171,0.06541777,-0.09598105,0.0,0.0,-4.0,1.5897675,-0.0062358463
51584000,-0.037270043,0.0019499098,-0.002200926,0.001028289,0.0010335536,0.6988493,0.0646559,0.06533635,-0.09594405,0.0,0.0,-4.0,1.5893595,0.0
51784000,-0.03682019,0.001794926,-0.0020084018,0.0010346479,0.0010338486,0.698848,0.06536424,0.06526005,-0.09599796,0.0,0.0,-4.0,1.5890244,0.0
51984000,-0.041055437,0.0016499932,-0.0015899757,0.0010286462,0.0010328959,0.69884926,0.064694524,0.065243244,-0.09594747,0.0,0.0,-4.0,1.5891618,0.00837758
52184000,-0.03941851,0.0028508203,-0.00020991391,0.0010352498,0.0010344042,0.6988483,0.06546807,0.06535745,-0.095986225,0.0,0.0,-4.0,1.5889354,-0.0068876287
52384000,-0.0419159,0.004194344,0.0003644027,0.0010296569,0.0010338881,0.6988491,0.0648092,0.06535745,-0.09595464,0.0,0.0,-4.0,1.5885695,0.0
52584000,-0.040247466,0.004928542,0.0010426253,0.001034908,0.0010339965,0.6988481,0.06540716,0.065288186,-0.09599377,0.0,0.0,-4.0,1.587919,-0.0066181086
52784000,-0.043159906,0.005741872,0.0007611442,0.001029647,0.001033924,0.6988491,0.06480777,0.06536198,-0.095954716,0.0,0.0,-4.0,1.5875416,0.0052821315
52984000,-0.04151394,0.005934451,0.0003711251,0.0010350121,0.0010338238,0.6988481,0.06542218,0.065267086,-0.095993124,0.0,0.0,-4.0,1.5872948,0.0024780584
53184000,-0.04419468,0.006917804,-0.0005496444,0.001030359,0.0010340302,0.69884884,0.0648818,0.06535792,-0.09596311,0.0,0.0,-4.0,1.5879565,0.0046138726
53384000,-0.041369215,0.007862797,-0.002895948,0.0010351741,0.001034166,0.69884837,0.06546414,0.06533229,-0.09598344,0.0,0.0,-4.0,1.5878522,-0.0042697964
53584000,-0.04251524,0.009963596,-0.005584563,0.0010309846,0.0010344917,0.6988488,0.064956665,0.0654124,-0.09596587,0.0,0.0,-4.0,1.5873939,-0.0034256666
53784000,-0.03960575,0.009158577,-0.006588523,0.0010355135,0.001033162,0.69884837,0.06550801,0.065200925,-0.095983736,0.0,0.0,-4.0,1.5876029,0.0
53984000,-0.040761266,0.010185696,-0.008086828,0.0010310087,0.0010345604,0.6988488,0.06495762,0.0654192,-0.09596689,0.0,0.0,-4.0,1.5879508,0.00012172852
54184000,-0.039334536,0.010066935,-0.00783814,0.0010348181,0.0010338358,0.6988482,0.06539726,0.06526911,-0.09599291,0.0,0.0,-4.0,1.5872461,-0.0037799464
54384000,-0.04117969,0.01187729,-0.008727775,0.0010311732,0.0010347732,0.6988488,0.06497979,0.065448046,-0.09596644,0.0,0.0,-4.0,1.5866449,0.0
54584000,-0.038552515,0.010021977,-0.010495324,0.001035311,0.0010323987,0.6988484,0.06548822,0.06510854,-0.095980585,0.0,0.0,-4.0,1.5860621,-0.0076897843
54784000,-0.03904771,0.010114293,-0.013030291,0.001031458,0.0010343704,0.6988487,0.065011024,0.06538963,-0.09596909,0.0,0.0,-4.0,1.5851796,0.0
54984000,-0.0355469,0.010003653,-0.015012098,0.0010357632,0.0010335463,0.6988485,0.06554973,0.065259695,-0.09597959,0.0,0.0,-4.0,1.5851405,-0.00837758
55184000,-0.035300836,0.012648765,-0.017577294,0.0010323208,0.001035328,0.6988487,0.06512129,0.06551373,-0.09596975,0.0,0.0,-4.0,1.5846101,0.0
55384000,-0.032587837,0.016718842,-0.0194388,0.001034718,0.0010356335,0.6988487,0.065432906,0.06555307,-0.09597013,0.0,0.0,-4.0,1.5845231,-0.0046138726
55584000,-0.033858027,0.023321712,-0.021396182,0.0010311757,0.0010370647,0.69884926,0.06502354,0.065794945,-0.09594576,0.0,0.0,-4.0,1.5844756,0.0
55784000,-0.032538135,0.026954858,-0.021909095,0.0010342151,0.0010350898,0.6988485,0.065347195,0.065461636,-0.09597946,0.0,0.0,-4.0,1.5839001,0.0005328343
55984000,-0.034496497,0.0326033,-0.02279945,0.0010310037,0.0010366784,0.6988492,0.06499481,0.06573701,-0.09594885,0.0,0.0,-4.0,1.5834799,0.00033448543
56184000,-0.033068057,0.03249723,-0.024134753,0.001034756,0.0010332041,0.6988482,0.0653919,0.06518972,-0.09599162,0.0,0.0,-4.0,1.5832092,-0.006063985
56384000,-0.034019016,0.03464385,-0.026244892,0.0010319636,0.0010352896,0.6988488,0.06508231,0.065516114,-0.095966294,0.0,0.0,-4.0,1.583532,0.0034327144
56584000,-0.03309123,0.03051082,-0.027860733,0.0010338766,0.0010307878,0.6988486,0.06531167,0.064911366,-0.09597539,0.0,0.0,-4.0,1.5829476,-0.0038141252
56784000,-0.034577046,0.030277887,-0.029448176,0.0010318967,0.001034982,0.69884866,0.065060854,0.06546271,-0.09597237,0.0,0.0,-4.0,1.5820814,0.0059772828
56984000,-0.03510364,0.027774759,-0.02962904,0.0010330682,0.0010321974,0.69884837,0.065185666,0.065072775,-0.09598519,0.0,0.0,-4.0,1.5808396,-0.0002673585
57184000,-0.038673893,0.029573016,-0.031770255,0.0010305513,0.0010355215,0.698849,0.06492007,0.065567374,-0.09595666,0.0,0.0,-4.0,1.5804098,-0.0047730478
57384000,-0.037820112,0.025914008,-0.032742895,0.0010342523,0.0010313385,0.6988485,0.0653528,0.06497455,-0.09597912,0.0,0.0,-4.0,1.5797678,-0.003970131
57584000,-0.039198674,0.02646048,-0.033997145,0.0010314463,0.001035484,0.6988489,0.06502485,0.0655514,-0.09596179,0.0,0.0,-4.0,1.5797926,0.0015741186
57784000,-0.03793822,0.0250511,-0.033380963,0.0010345657,0.0010330811,0.6988481,0.06535947,0.065166235,-0.095995165,0.0,0.0,-4.0,1.579375,-0.0034608673
57984000,-0.03921552,0.028048517,-0.033601288,0.0010315403,0.0010363618,0.698849,0.0650475,0.06567788,-0.0959568,0.0,0.0,-4.0,1.5791116,-0.001379879
58184000,-0.033702698,0.026407937,-0.03304999,0.0010364782,0.001032803,0.6988487,0.0656687,0.065187335,-0.09596812,0.0,0.0,-4.0,1.578366,-0.0029874244
58384000,-0.030576179,0.029900694,-0.03399805,0.0010335075,0.0010365506,0.698849,0.065303564,0.06570327,-0.0959566,0.0,0.0,-4.0,1.5774573,-0.00837758
58584000,-0.025579039,0.028730316,-0.03332336,0.0010359455,0.0010325193,0.6988486,0.065582514,0.06513488,-0.09597551,0.0,0.0,-4.0,1.576745,0.0030894845
58784000,-0.023321293,0.032224067,-0.03289976,0.0010333245,0.0010367273,0.6988491,0.065283895,0.06573093,-0.09595463,0.0,0.0,-4.0,1.5758944,0.006052455
58984000,-0.021048537,0.03301818,-0.030330837,0.0010348324,0.0010341811,0.6988483,0.06541431,0.065329194,-0.095985815,0.0,0.0,-4.0,1.5751474,-0.0068384823
59184000,-0.021462629,0.038440987,-0.028324224,0.0010316877,0.0010373773,0.6988494,0.0650965,0.065843344,-0.09594261,0.0,0.0,-4.0,1.5747757,-0.0076897843
59384000,-0.02037145,0.039890967,-0.0256617,0.0010344136,0.0010343269,0.6988483,0.06536019,0.06534886,-0.09598552,0.0,0.0,-4.0,1.5746477,0.0
59584000,-0.021722304,0.046215024,-0.02417479,0.0010310252,0.0010376858,0.6988495,0.06502223,0.06589639,-0.095937125,0.0,0.0,-4.0,1.5748003,0.0
59784000,-0.022917282,0.047578316,-0.020016162,0.0010327192,0.0010338662,0.69884837,0.065142274,0.065291405,-0.09598428,0.0,0.0,-4.0,1.5741909,-0.00837758
59984000,-0.027371272,0.052953225,-0.017705834,0.001029413,0.0010370216,0.6988496,0.06482351,0.065817714,-0.095932715,0.0,0.0,-4.0,1.5738136,0.0
60184000,-0.02809735,0.05423479,-0.015437655,0.0010339868,0.001034175,0.69884825,0.06529653,0.06532109,-0.09598926,0.0,0.0,-4.0,1.5733762,0.0071363878
60384000,-0.03090032,0.06052669,-0.014014251,0.0010298411,0.0010377134,0.69884974,0.0648911,0.06592286,-0.09592675,0.0,0.0,-4.0,1.573078,-0.0019516449
60584000,-0.029091667,0.059901267,-0.0134847425,0.0010351876,0.0010327105,0.69884825,0.06545603,0.065133214,-0.09598804,0.0,0.0,-4.0,1.5721124,0.0
60784000,-0.03070767,0.06360145,-0.013950801,0.0010304556,0.0010369711,0.69884944,0.064941406,0.06579387,-0.09594057,0.0,0.0,-4.0,1.5714046,0.0
60984000,-0.026481045,0.06151564,-0.013854,0.0010362389,0.0010317327,0.69884866,0.06563175,0.06504333,-0.09597061,0.0,0.0,-4.0,1.5709887,-0.0040708208
61184000,-0.025090836,0.064656265,-0.014619901,0.0010323379,0.0010366015,0.6988491,0.06515753,0.065716386,-0.09595366,0.0,0.0,-4.0,1.5707834,-0.0071149142
61384000,-0.021595156,0.058459718,-0.01412873,0.00103503,0.0010304078,0.6988487,0.065473676,0.06487334,-0.09597019,0.0,0.0,-4.0,1.5697616,-0.00837758
61584000,-0.02107186,0.05944664,-0.013795202,0.0010321934,0.0010362006,0.698849,0.065129995,0.0656544,-0.09595781,0.0,0.0,-4.0,1.5691322,0.0
61784000,-0.016874174,0.056267325,-0.012937331,0.0010357313,0.0010321052,0.69884855,0.065550804,0.06507778,-0.09597714,0.0,0.0,-4.0,1.568783,0.0
61984000,-0.015932227,0.06002704,-0.012179854,0.0010321194,0.0010370917,0.69884926,0.06514561,0.06579828,-0.09594587,0.0,0.0,-4.0,1.5690111,0.0028474275
62184000,-0.013595156,0.05986731,-0.0100364955,0.0010350596,0.0010333264,0.6988483,0.065442204,0.065216064,-0.09598667,0.0,0.0,-4.0,1.5690907,-0.0063549564
62384000,-0.012793483,0.06514842,-0.008151965,0.001032545,0.0010374712,0.6988493,0.06520617,0.06585407,-0.095943406,0.0,0.0,-4.0,1.568645,0.0
62584000,-0.008087602,0.06258603,-0.0062248465,0.0010360498,0.0010313162,0.6988487,0.06560981,0.06499243,-0.09596922,0.0,0.0,-4.0,1.5685681,0.0
62784000,-0.004807262,0.065303296,-0.0043966724,0.0010339546,0.0010367981,0.69884914,0.0653702,0.0657444,-0.09595274,0.0,0.0,-4.0,1.5682775,0.0
62984000,-0.0032232138,0.062066793,-0.0025905212,0.0010341683,0.0010316812,0.69884837,0.06532955,0.06500673,-0.09598487,0.0,0.0,-4.0,1.568198,0.0
63184000,-0.0028809244,0.06445897,-0.00070348196,0.0010329657,0.0010366077,0.698849,0.0652343,0.06571221,-0.09595596,0.0,0.0,-4.0,1.5673318,0.0
63384000,-0.0005900498,0.05996271,0.0013434162,0.0010347778,0.0010303564,0.6988487,0.06544387,0.06486988,-0.09596867,0.0,0.0,-4.0,1.5669272,-0.0045946394
63584000,0.0012223024,0.060044937,0.0023502228,0.0010340005,0.0010358295,0.6988488,0.065345526,0.065585375,-0.09596711,0.0,0.0,-4.0,1.5663292,0.0
63784000,0.0030086047,0.05474441,0.0039989455,0.0010341613,0.0010303026,0.69884866,0.06535709,0.064857006,-0.09597153,0.0,0.0,-4.0,1.565481,0.0
63984000,0.003934833,0.0544847,0.0054340865,0.0010339261,0.001035321,0.69884855,0.06531644,0.06549895,-0.095976196,0.0,0.0,-4.0,1.5650576,0.0
64184000,0.0058059916,0.050950054,0.0067778416,0.0010345192,0.0010318108,0.6988484,0.065381885,0.06502986,-0.09598182,0.0,0.0,-4.0,1.564187,0.0
64384000,0.007411215,0.05187273,0.0076304353,0.001034097,0.001035637,0.69884866,0.06534994,0.06555176,-0.09597095,0.0,0.0,-4.0,1.5630678,-0.00837758
64584000,0.0072827004,0.049811505,0.008732006,0.0010337053,0.001032243,0.6988483,0.06526303,0.06507325,-0.09598777,0.0,0.0,-4.0,1.5622363,-0.00837758
64784000,0.0075793,0.050983753,0.009614708,0.0010335739,0.0010354203,0.6988486,0.065274,0.06551552,-0.09597456,0.0,0.0,-4.0,1.5613976,-0.0005886997
64984000,0.007364122,0.04506606,0.010344911,0.0010334691,0.0010292645,0.6988489,0.06528735,0.06474388,-0.09596186,0.0,0.0,-4.0,1.5618858,-0.00837758
65184000,0.007897793,0.04178696,0.010625017,0.0010343748,0.0010335704,0.6988481,0.06533909,0.0652343,-0.095993035,0.0,0.0,-4.0,1.5612835,0.0046330756
65384000,0.0061912322,0.035505015,0.010681535,0.0010323029,0.0010300745,0.6988488,0.06512439,0.06483674,-0.09596719,0.0,0.0,-4.0,1.5607648,-0.005583441
65584000,0.005303514,0.032543477,0.011632861,0.0010338717,0.0010335005,0.69884807,0.065264225,0.065215945,-0.09599741,0.0,0.0,-4.0,1.5598902,-0.006893079
65784000,0.002495718,0.026124876,0.013120542,0.0010312767,0.001029198,0.6988491,0.06502044,0.06475282,-0.09595345,0.0,0.0,-4.0,1.5586268,-0.008229757
65984000,-7.324116e-05,0.020552745,0.014254561,0.0010327939,0.0010318386,0.6988484,0.06515825,0.06503451,-0.095981315,0.0,0.0,-4.0,1.5576334,0.0
66184000,0.00011150288,0.019846404,0.015782211,0.0010343259,0.0010342173,0.6988482,0.06533611,0.06532192,-0.09599145,0.0,0.0,-4.0,1.5573543,0.0029654335
66384000,0.0014813442,0.0213638,0.017184786,0.0010345832,0.001034607,0.69884837,0.065384746,0.065387845,-0.0959844,0.0,0.0,-4.0,1.557467,0.0
66584000,0.0006498872,0.019645348,0.018894356,0.0010334246,0.0010325494,0.6988483,0.065226555,0.06511295,-0.09598775,0.0,0.0,-4.0,1.5576254,0.0
66784000,0.0010052398,0.018282149,0.019780247,0.0010342126,0.0010333986,0.6988482,0.065318465,0.06521249,-0.09599279,0.0,0.0,-4.0,1.5570648,0.0075702067
66984000,0.0006974077,0.017174708,0.022619246,0.0010338551,0.0010336763,0.69884807,0.065261364,0.06523812,-0.095997736,0.0,0.0,-4.0,1.5572485,-0.008088844
67184000,0.001228199,0.017084317,0.02518194,0.0010343876,0.0010339706,0.6988481,0.06534028,0.06528592,-0.09599326,0.0,0.0,-4.0,1.5562652,0.005895886
67384000,-0.00013351033,0.016991682,0.026127778,0.0010329987,0.0010338351,0.6988482,0.06516206,0.06527078,-0.09599208,0.0,0.0,-4.0,1.5566,0.0062926854
67584000,-0.0010820548,0.01734007,0.026829937,0.0010335217,0.0010342532,0.6988481,0.06522691,0.06532216,-0.095993534,0.0,0.0,-4.0,1.5562814,-0.006000454
67784000,-0.0022786953,0.01834713,0.02588316,0.0010332286,0.0010343948,0.69884825,0.065197706,0.06534958,-0.09598934,0.0,0.0,-4.0,1.5562317,0.00837758
67984000,-0.0036317366,0.019855024,0.024601303,0.0010329934,0.0010342969,0.69884825,0.06516862,0.065338254,-0.09598866,0.0,0.0,-4.0,1.5556809,-0.00837758
68184000,-0.0054366724,0.018784847,0.025394043,0.0010326813,0.0010327355,0.69884837,0.06513679,0.06514382,-0.095984556,0.0,0.0,-4.0,1.5553002,0.00040109968
68384000,-0.0074474756,0.017311087,0.026493257,0.001032729,0.0010331874,0.6988483,0.065135956,0.06519544,-0.095987886,0.0,0.0,-4.0,1.5542837,0.0
68584000,-0.008199479,0.017486699,0.026616715,0.0010336259,0.0010342229,0.69884807,0.065235615,0.06531334,-0.09599582,0.0,0.0,-4.0,1.5534815,-0.0024242604
68784000,-0.008474846,0.01756978,0.026647681,0.0010338239,0.00103403,0.698848,0.06525588,0.0652827,-0.09599841,0.0,0.0,-4.0,1.5527538,-0.00837758
68984000,-0.008554929,0.016708236,0.025792217,0.001033864,0.0010331459,0.6988482,0.06527293,0.06517959,-0.09599283,0.0,0.0,-4.0,1.5517309,-0.0020478822
69184000,-0.008679484,0.015647788,0.026433341,0.0010336395,0.0010334626,0.6988481,0.06524062,0.065217614,-0.09599429,0.0,0.0,-4.0,1.5520061,0.00837758
69384000,-0.008536927,0.014384885,0.027409121,0.0010339401,0.0010329388,0.69884825,0.06528926,0.06515908,-0.095989816,0.0,0.0,-4.0,1.5514032,-0.00837758
69584000,-0.008134692,0.012494247,0.027927006,0.0010338582,0.0010324719,0.69884837,0.065289736,0.06510961,-0.09598457,0.0,0.0,-4.0,1.5504502,-0.0061787846
69784000,-0.007268586,0.01016621,0.028902931,0.0010342556,0.0010321622,0.6988484,0.06534934,0.065077186,-0.095980935,0.0,0.0,-4.0,1.550719,0.0045432136
69984000,-0.0056511853,0.0064195916,0.030976333,0.0010343378,0.0010310598,0.69884866,0.065382004,0.06495631,-0.09597066,0.0,0.0,-4.0,1.5504113,-0.001345702
70184000,-0.004156614,0.0033404033,0.03311391,0.0010342567,0.0010318912,0.6988485,0.06535494,0.0650475,-0.09597837,0.0,0.0,-4.0,1.5505408,0.00837758
70384000,-0.002351411,-0.0010096321,0.0352483,0.0010343476,0.0010307729,0.6988488,0.065389395,0.06492531,-0.09596781,0.0,0.0,-4.0,1.5509571,0.0
70584000,-0.0009839595,-0.0040646475,0.035829477,0.0010342924,0.0010316846,0.69884855,0.06536567,0.06502676,-0.09597553,0.0,0.0,-4.0,1.5505898,-0.004210434
70784000,0.0010874723,-0.009829277,0.036436256,0.0010342752,0.001029402,0.6988491,0.06540716,0.064775586,-0.095955074,0.0,0.0,-4.0,1.5510232,0.0037867897
70984000,0.0016125621,-0.013760325,0.03515775,0.0010338874,0.0010314898,0.6988486,0.065316916,0.06500566,-0.095973596,0.0,0.0,-4.0,1.5504749,-0.008344619
71184000,0.0035496082,-0.020046096,0.035245,0.0010343164,0.001028801,0.6988492,0.065425634,0.06471121,-0.09594897,0.0,0.0,-4.0,1.5507587,0.0023314056
71384000,0.004233798,-0.02198374,0.035190802,0.001033932,0.0010330512,0.69884825,0.06529188,0.06517732,-0.09598809,0.0,0.0,-4.0,1.551332,0.0031112374
71584000,0.0052157696,-0.026755398,0.03710755,0.0010337541,0.0010293411,0.6988491,0.06534016,0.06476891,-0.09595453,0.0,0.0,-4.0,1.5517032,-0.0042368514
71784000,0.004977248,-0.026895992,0.039281957,0.0010338931,0.0010343771,0.698848,0.06526494,0.065328,-0.095998384,0.0,0.0,-4.0,1.5512317,0.0
71984000,0.0066974685,-0.030033113,0.041166726,0.0010346329,0.0010299928,0.698849,0.065451026,0.06484854,-0.09595648,0.0,0.0,-4.0,1.5507021,-0.0028548397
72184000,0.007157459,-0.031977616,0.041964795,0.0010337036,0.001032623,0.6988484,0.065273166,0.06513274,-0.095982894,0.0,0.0,-4.0,1.549919,-0.00837758
72384000,0.0047946856,-0.029874131,0.039829288,0.001032535,0.001034537,0.6988483,0.06511259,0.06537306,-0.09598704,0.0,0.0,-4.0,1.5493437,-0.0031906457
72584000,0.0037138506,-0.03281811,0.03826796,0.0010329122,0.0010298169,0.69884896,0.06522131,0.064821124,-0.09595879,0.0,0.0,-4.0,1.5490661,0.006634748
72784000,0.0012885919,-0.0324473,0.038730096,0.0010322426,0.0010342263,0.69884837,0.06508148,0.06533933,-0.09598383,0.0,0.0,-4.0,1.5494883,0.0
72984000,-0.0008810895,-0.035976,0.04052566,0.0010321504,0.0010295019,0.6988491,0.06512964,0.064787865,-0.095955335,0.0,0.0,-4.0,1.5495479,-0.0012942103
73184000,-0.0031250042,-0.03466792,0.043247253,0.0010328554,0.001034872,0.6988483,0.065154195,0.06541693,-0.09598701,0.0,0.0,-4.0,1.5487949,-0.0051351166
73384000,-0.0046811807,-0.037040226,0.046203233,0.0010325054,0.0010302836,0.6988489,0.06515992,0.06487274,-0.095962815,0.0,0.0,-4.0,1.5488024,-0.00837758
73584000,-0.0048312806,-0.03546134,0.048039358,0.0010338653,0.0010349376,0.6988482,0.06527519,0.065415144,-0.09599185,0.0,0.0,-4.0,1.548591,0.00076335366
73784000,-0.005406871,-0.03736418,0.04977519,0.0010328814,0.0010311487,0.69884866,0.065191746,0.064967394,-0.095970854,0.0,0.0,-4.0,1.5488529,0.0
73984000,-0.0054386207,-0.036193363,0.050481964,0.0010340149,0.001034485,0.698848,0.06528008,0.06534135,-0.09599871,0.0,0.0,-4.0,1.5485451,-0.0070287245
74184000,-0.0059491196,-0.03931559,0.05148263,0.0010328881,0.0010300745,0.6988489,0.065211415,0.06484759,-0.09596198,0.0,0.0,-4.0,1.5481102,0.00837758
74384000,-0.0060599474,-0.03923708,0.05206878,0.0010338675,0.0010345124,0.698848,0.06526208,0.06534612,-0.09599816,0.0,0.0,-4.0,1.5481398,-0.006478714
74584000,-0.006121033,-0.041907985,0.054505102,0.0010330998,0.0010309247,0.6988487,0.06522393,0.06494224,-0.095969066,0.0,0.0,-4.0,1.5476313,0.0
74784000,-0.0061774035,-0.039987337,0.054234046,0.0010337662,0.0010351501,0.69884825,0.06526697,0.06544769,-0.09598965,0.0,0.0,-4.0,1.546877,-0.0015824779
74984000,-0.006744698,-0.040718812,0.055483498,0.0010330899,0.0010322179,0.6988485,0.06520045,0.06508732,-0.09597954,0.0,0.0,-4.0,1.5465128,0.0
75184000,-0.0057729012,-0.037801564,0.054720774,0.0010343988,0.0010354412,0.6988484,0.065368414,0.06550491,-0.09598076,0.0,0.0,-4.0,1.545538,-0.001379879
75384000,-0.0042262324,-0.037010483,0.054965645,0.001034576,0.0010328303,0.69884837,0.0653826,0.06515527,-0.09598496,0.0,0.0,-4.0,1.5452113,-0.007936515
75584000,-0.002401127,-0.035737816,0.05557645,0.0010346877,0.0010343967,0.6988483,0.06539166,0.06535363,-0.09598756,0.0,0.0,-4.0,1.5455842,0.0043550525
75784000,3.9025854e-05,-0.037191175,0.05737481,0.0010349518,0.001031857,0.6988486,0.06545293,0.065050006,-0.09597508,0.0,0.0,-4.0,1.5451902,-0.007039525
75984000,0.0003173262,-0.034527898,0.059298705,0.0010333385,0.0010353945,0.6988484,0.065226555,0.06549513,-0.09598246,0.0,0.0,-4.0,1.545558,0.006484315
76184000,0.00092379947,-0.03384829,0.062351238,0.0010343697,0.0010330945,0.6988483,0.065351486,0.06518543,-0.09598691,0.0,0.0,-4.0,1.5455325,0.0
76384000,0.0014281757,-0.031652074,0.06482388,0.0010338264,0.0010348094,0.6988482,0.065271854,0.06540012,-0.09599104,0.0,0.0,-4.0,1.5453922,-0.00066264975
76584000,0.001843283,-0.031848967,0.06790555,0.0010341622,0.001032839,0.6988483,0.065323114,0.065150976,-0.09598752,0.0,0.0,-4.0,1.5458943,-0.0024780584
76784000,0.004942084,-0.029599931,0.06976471,0.0010354859,0.0010346414,0.6988486,0.06552589,0.065415144,-0.095973745,0.0,0.0,-4.0,1.5454388,-0.0050981133
76984000,0.009396777,-0.02980699,0.07177796,0.001035789,0.0010321422,0.6988487,0.06557691,0.06510067,-0.09596856,0.0,0.0,-4.0,1.5449569,-0.0072592827
77184000,0.011005791,-0.028186666,0.07242276,0.0010341045,0.0010348149,0.6988482,0.065308094,0.06540084,-0.09599104,0.0,0.0,-4.0,1.5451264,0.0
77384000,0.012585752,-0.028598005,0.074312456,0.0010348153,0.0010323636,0.69884855,0.06543028,0.06511092,-0.09597731,0.0,0.0,-4.0,1.5457379,0.0
77584000,0.012660559,-0.027507573,0.07703164,0.0010338842,0.0010345234,0.6988481,0.06527054,0.06535387,-0.0959952,0.0,0.0,-4.0,1.5456841,0.00837758
77784000,0.013572972,-0.02872818,0.08148407,0.0010347146,0.001032134,0.69884855,0.06541729,0.06508136,-0.09597722,0.0,0.0,-4.0,1.5455475,0.0
77984000,0.009297038,-0.028025346,0.08410698,0.0010303404,0.0010337482,0.6988487,0.064869046,0.06531048,-0.09596809,0.0,0.0,-4.0,1.5464166,0.0025239594
78184000,0.0057524443,-0.029911244,0.08749579,0.0010327082,0.0010317456,0.69884855,0.065158725,0.06503403,-0.09597582,0.0,0.0,-4.0,1.5464699,0.004124191
78384000,0.0034781618,-0.02929877,0.090275615,0.0010328366,0.0010342125,0.6988482,0.06514239,0.065321326,-0.09599144,0.0,0.0,-4.0,1.5467032,-0.0017317627
78584000,0.0029445004,-0.031403806,0.09442346,0.0010333364,0.0010316678,0.69884855,0.06523824,0.06502187,-0.09597683,0.0,0.0,-4.0,1.5465362,-0.00837758
78784000,0.0030528253,-0.0325779,0.09640895,0.001034062,0.0010331258,0.6988483,0.06531024,0.06518841,-0.095987424,0.0,0.0,-4.0,1.5463387,0.0
78984000,0.0047141146,-0.03616038,0.09851069,0.00103446,0.0010304848,0.69884884,0.06541073,0.064894676,-0.09596471,0.0,0.0,-4.0,1.5463122,0.0026981528
79184000,0.00537852,-0.03753767,0.0985759,0.0010341613,0.0010332492,0.69884825,0.06532073,0.065202,-0.09598858,0.0,0.0,-4.0,1.5458968,0.0
79384000,0.0077851936,-0.040845223,0.10003644,0.0010348713,0.0010306416,0.69884884,0.065466166,0.06491637,-0.09596399,0.0,0.0,-4.0,1.5466509,0.00837758
79584000,0.008226196,-0.038043376,0.098848954,0.0010336275,0.0010356624,0.6988485,0.06527066,0.06553686,-0.095979415,0.0,0.0,-4.0,1.5473076,0.0024011217
79784000,0.009750861,-0.03751614,0.098879755,0.0010348266,0.0010325747,0.6988484,0.065423846,0.06513047,-0.095981,0.0,0.0,-4.0,1.5480272,0.007104167
79984000,0.008947209,-0.034795694,0.09775125,0.0010330514,0.0010352242,0.69884837,0.065184474,0.06546795,-0.09598472,0.0,0.0,-4.0,1.5481366,-0.00837758
80184000,0.009111576,-0.03506908,0.098697044,0.0010341924,0.0010324211,0.69884837,0.06533611,0.065105796,-0.09598327,0.0,0.0,-4.0,1.5483665,0.00837758
80384000,0.009528413,-0.032320447,0.09759794,0.0010338408,0.0010353831,0.6988484,0.065295935,0.06549764,-0.0959806,0.0,0.0,-4.0,1.5488353,0.00837758
80584000,0.010842032,-0.031080473,0.09723267,0.0010346451,0.0010333532,0.6988483,0.065389514,0.06522107,-0.09598596,0.0,0.0,-4.0,1.5492122,-0.004836182
80784000,0.010178315,-0.026891254,0.09454538,0.0010327933,0.001035694,0.69884855,0.06516945,0.06554842,-0.09597598,0.0,0.0,-4.0,1.5499068,0.0061501698
80984000,0.010223448,-0.024874533,0.093876846,0.0010344207,0.0010339068,0.6988482,0.0653466,0.0652796,-0.09599232,0.0,0.0,-4.0,1.5502484,-0.0068985284
81184000,0.012053372,-0.021140609,0.09329384,0.0010346959,0.0010355548,0.6988486,0.06542134,0.065533996,-0.09597418,0.0,0.0,-4.0,1.5502218,0.0014732543
81384000,0.015221468,-0.018852059,0.0946065,0.0010354808,0.0010339271,0.69884855,0.06551933,0.06531596,-0.09597647,0.0,0.0,-4.0,1.5502849,0.0015824779
81584000,0.016293203,-0.015811086,0.094851285,0.0010337711,0.0010354482,0.6988485,0.06528771,0.065507054,-0.09598019,0.0,0.0,-4.0,1.5501378,0.0
81784000,0.01834125,-0.013002827,0.096315674,0.0010351918,0.0010347434,0.69884855,0.06547904,0.06542027,-0.09597758,0.0,0.0,-4.0,1.5499033,0.002645429
81984000,0.01949239,-0.008872133,0.09634529,0.0010340464,0.0010358107,0.69884866,0.06534016,0.06557143,-0.095972426,0.0,0.0,-4.0,1.5497296,-0.0025010332
82184000,0.022034649,-0.0047596116,0.098266944,0.0010353348,0.0010352895,0.6988488,0.065520644,0.06551468,-0.09596696,0.0,0.0,-4.0,1.5493298,-0.00837758
