timestamp,timestamp_sample,xyz[0],xyz[1],xyz[2]
1264000,1264000,0.0023397799,0.003150891,7.31711e-05
1268000,1268000,0.0017088833,0.0029158392,7.2129944e-05
1284000,1284000,-0.00046030368,-0.001212839,6.0239316e-05
1304000,1304000,0.0022059677,-0.00014075369,0.00013496606
1324000,1324000,0.00011990129,0.0041123754,-0.0002131023
1344000,1344000,0.0012219849,0.00068041106,-0.0008347594
1364000,1364000,-0.002236043,-0.002211537,-0.0006241196
1384000,1384000,0.0004974756,0.00075214345,-0.00059621007
1404000,1404000,-0.0024335869,0.000352554,-0.0007564699
1424000,1424000,0.0021704263,-0.004307811,-0.0004213095
1444000,1444000,-0.006191342,0.0017287163,4.4418324e-05
1464000,1464000,0.0056222538,-0.0005572928,0.0003238774
1484000,1484000,-0.004649547,6.702937e-05,0.0004978875
1504000,1504000,0.00265439,-0.0011223449,0.00064654846
1524000,1524000,-0.0013211877,0.0018536394,0.0005860561
1544000,1544000,-0.0007416272,0.0059339544,0.0007009425
1564000,1564000,-0.0014614433,0.0027724921,0.00020451026
1584000,1584000,0.0024074083,0.0035231565,0.0004903346
1604000,1604000,-0.00034255034,0.0018018286,2.1067899e-05
1624000,1624000,-0.00021348422,0.0004072616,-0.00016948188
1644000,1644000,0.0035101436,0.0037147363,-0.00032523228
1664000,1664000,-0.0016126042,-0.0027038008,-0.00068185385
1684000,1684000,0.001496657,-0.0006750148,-0.00027771463
1704000,1704000,-0.001605473,-0.0012052103,-0.00022403723
1724000,1724000,-0.0014360112,-0.0026645397,-9.725039e-05
1744000,1744000,0.0031420127,-0.003946238,-0.00012940382
1764000,1764000,-0.0036276386,-0.0038716581,-0.00058759726
1784000,1784000,0.0022218598,0.00038192188,-0.0007294297
1804000,1804000,-0.0019239633,-0.00492316,-0.0007868908
1824000,1824000,-0.0016385491,0.0014751946,-0.0005338391
1844000,1844000,-0.0030764677,-0.0007099596,-0.0002066669
1864000,1864000,0.0042071985,0.00038888064,-0.00029523805
1884000,1884000,0.0017494387,-0.0052510863,-0.0011309109
1904000,1904000,-0.0018943711,0.003731717,-0.00089779426
1924000,1924000,-0.003476324,0.00050341093,-0.0012787936
1944000,1944000,0.002493439,-0.0026885176,-0.00070456805
1964000,1964000,-0.002525581,-0.0003638649,-0.00045564756
1984000,1984000,-0.0020931158,-0.003674947,-2.3250468e-06
2004000,2004000,-0.00026980735,3.4540426e-06,0.00030821614
2024000,2024000,0.00084469194,0.008743538,0.0001962329
2044000,2044000,-0.0004936316,-0.0032297352,4.9470942e-05
2064000,2064000,0.0035793884,0.0035713408,0.00016953264
2084000,2084000,0.0024753138,0.0077213394,0.0005172298
2104000,2104000,0.0027952911,0.0012173811,0.0003864742
2124000,2124000,-0.0071793636,0.0064556957,-3.055879e-05
2144000,2144000,0.003158308,0.0010852967,-0.00029633314
2164000,2164000,-0.0017123556,-0.0025021012,-0.0003108111
2184000,2184000,-0.0005918703,0.0036825764,0.00011639716
2204000,2204000,-0.0015386484,-0.0017025921,0.0003449871
2224000,2224000,-8.009258e-05,0.0006815302,0.00026788254
2244000,2244000,0.002219705,-0.0011393604,0.00017295012
2264000,2264000,0.0020650541,0.0026797082,0.000112473266
2284000,2284000,-0.00012829562,0.0032750848,0.000698359
2304000,2304000,0.0029265657,-0.008394776,0.0012254642
2324000,2324000,-0.005240845,0.0059861615,0.0008571769
2344000,2344000,-0.0023545637,0.0014787507,0.00096576713
2360000,2360000,0.0043446952,0.00013240025,0.00065359677
2384000,2384000,-0.0027500652,-0.0038124216,0.00081990485
2404000,2404000,0.004324065,0.0011215528,0.00038456355
2424000,2424000,0.0058285943,7.846519e-05,0.00045944238
2444000,2444000,-0.003528776,-0.0012240356,0.0004885374
2464000,2464000,0.0036743043,0.0021047234,-5.8561345e-06
2484000,2484000,0.0021854627,0.000500634,0.000165527
2504000,2504000,-0.0006732591,0.002100358,-0.0002759316
2524000,2524000,0.0022317786,0.006818508,-0.00052544125
2544000,2544000,0.0036950517,0.00072756904,-0.00077933195
2564000,2564000,0.0017114324,0.0007502169,-0.00070810784
2584000,2584000,0.001884543,0.00041412015,-0.00022291481
2604000,2604000,-0.00043157017,0.00744729,-0.00027361134
2620000,2620000,0.0039178217,-0.0014857101,-0.00014774494
2644000,2644000,0.0042475974,-0.0010980753,0.00032912305
2664000,2664000,-0.0017217228,0.0051857787,0.00026440105
2684000,2684000,0.0023553837,0.00018870858,2.770994e-06
2704000,2704000,0.0027133676,0.0042621773,-0.00033600058
2724000,2724000,0.0030440355,-0.0001811347,-0.00021149474
2744000,2744000,0.0038720206,0.0057377005,-3.4015597e-05
2764000,2764000,0.0018838804,-0.0025294092,-0.00017991466
2784000,2784000,-0.00095764524,0.0008420294,-0.00016787199
2804000,2804000,0.0050032306,0.0015237255,3.3772456e-05
2824000,2824000,6.944931e-05,-0.004375498,-0.00020867848
2844000,2844000,-0.0018095592,0.001044994,7.980939e-05
2864000,2864000,0.00383316,0.00016917638,-0.00013788207
2884000,2884000,0.00048135797,7.828174e-06,-0.000117516276
2904000,2904000,0.0018035182,-0.000647198,0.00011871802
2924000,2924000,-0.00036194164,0.0023438237,0.00039807858
2944000,2944000,0.0012261247,0.00028064192,0.0003144134
2964000,2964000,0.0003333533,-0.0012023717,0.00015324444
2984000,2984000,0.0059900978,-0.004220911,0.0002691474
3004000,3004000,0.010560263,-4.8366637e-06,0.00044206931
3024000,3024000,-0.0005035468,0.0023755594,0.00064040883
3044000,3044000,-0.00074645405,-0.001749193,0.0008000154
3064000,3064000,0.0025263675,0.008063342,0.033435356
3084000,3084000,0.0033636005,-0.0009413891,0.026053257
3104000,3104000,-0.0037633912,0.00048550137,0.020399591
3124000,3124000,-0.002990705,-0.0010439274,0.01605152
3144000,3144000,0.0016749239,0.0051008086,0.012528597
3164000,3164000,0.0036053576,-0.0014270649,0.009730806
3184000,3184000,0.0019218227,0.0016324769,0.007662079
3204000,3204000,0.0013827425,0.002643844,0.005543307
3224000,3224000,-0.0020038236,0.0018138371,0.0046647447
3244000,3244000,0.0019487786,7.16123e-05,0.0036242572
3264000,3264000,0.0005045799,0.001815842,0.0027465778
3284000,3284000,0.0062831086,-0.005481828,0.002272839
3304000,3304000,0.0034370539,0.00406628,0.002186066
3324000,3324000,0.0028234208,-0.0029816523,0.0018775746
3344000,3344000,-0.0021428,0.0020445858,0.0016896414
3364000,3364000,0.0020641682,0.005055711,0.0012898771
3384000,3384000,-0.0046603493,-0.0019849185,0.0011498905
3404000,3404000,-0.00014532892,0.00047311364,0.0010372617
3424000,3424000,-0.00090933975,0.0016132765,0.00087272446
3444000,3444000,0.0062220385,9.16062e-05,0.0005779985
3464000,3464000,0.0013949441,0.00081156765,0.0010467923
3480000,3480000,0.003276877,-0.002767203,0.0007836488
3504000,3504000,-0.003133281,-0.0018681327,0.00084153673
3524000,3524000,0.002240277,0.0018903427,0.00090445904
3544000,3544000,-1.5505735e-05,0.002473684,0.0009392025
3564000,3564000,0.0053341184,0.006708077,0.001173918
3584000,3584000,0.001762802,-0.0039475122,0.00089032046
3604000,3604000,0.0005567338,0.006627096,0.0011560947
3624000,3624000,-0.0015333508,-0.00097005826,0.0007983853
3644000,3644000,0.0015969212,-0.0012685186,0.0008479849
3664000,3664000,0.00046307538,0.0035613333,0.0007417999
3684000,3684000,0.0024294523,0.0008593167,0.0006652612
3704000,3704000,0.0039993003,-0.0027337943,0.0005439864
3724000,3724000,0.00073442457,0.001071146,0.00039355125
3744000,3744000,0.00030250373,0.0014936263,0.00051740214
3764000,3764000,0.0015225108,-0.0014308495,0.0007554698
3784000,3784000,-0.00057992805,-0.0009383877,0.00097309
3804000,3804000,0.0015100478,0.0005135797,0.00041488544
3824000,3824000,0.0028090402,-0.0069391476,-3.333973e-05
3844000,3844000,-0.0038696371,0.001986113,0.0003518414
3864000,3864000,0.00061525975,-0.00023424713,0.0005713552
3884000,3884000,0.0014233041,0.00026975246,0.0006188174
3904000,3904000,0.0036997981,0.00038656202,0.00014188762
3924000,3924000,-0.006416115,0.00022664007,0.00037190507
3944000,3944000,0.0021281661,-0.0017065557,0.00020606868
3964000,3964000,-0.0003686456,-0.0048992336,0.0005332379
3984000,3984000,0.0034817513,0.0017375916,0.00017420141
4004000,4004000,0.0014619888,-0.00071813876,-2.7280425e-05
4024000,4024000,0.0033164122,0.0005912871,-3.37545e-05
4044000,4044000,-0.00016598013,-0.0003688091,-0.00023808004
4064000,4064000,0.0024552369,0.002234684,0.0001473469
4084000,4084000,0.0026560572,0.002644214,2.5606627e-05
4104000,4104000,0.0019073572,-0.0024235197,0.0003163438
4124000,4124000,0.0020606318,-0.0004276962,0.00052219327
4144000,4144000,0.0019332322,-0.0011017204,0.0004105046
4164000,4164000,-0.0024980982,-0.0021865407,0.00039713318
4184000,4184000,-0.0005918542,0.001958031,0.00040960594
4204000,4204000,0.0058574695,-0.0016882729,0.00021994111
4224000,4224000,0.0056213895,-0.0010685949,3.560399e-05
4244000,4244000,0.003065193,0.0013019262,3.443355e-05
4264000,4264000,0.00547959,0.0046525924,0.00027023873
4284000,4284000,-0.00064362923,-0.002402074,0.0002366668
4304000,4304000,0.0038307025,-0.0026859632,0.0004227118
4324000,4324000,0.00021784462,-0.005655528,0.00023031113
4344000,4344000,0.0013823346,0.00047769307,0.00012069466
4364000,4364000,0.003687705,0.0014423333,6.9878486e-05
4384000,4384000,0.0029755565,-0.0015812491,1.72422e-05
4404000,4404000,0.0056404322,0.0024737087,-0.00023144753
4424000,4424000,-0.0009329098,-0.0029124282,8.261429e-05
4444000,4444000,0.002280628,-0.0021994435,-0.00022881135
4464000,4464000,0.0053750817,0.0024145674,-0.00030234442
4484000,4484000,0.0043508867,-0.0004209649,5.740459e-05
4504000,4504000,0.0019220195,0.00011089901,0.00015304628
4524000,4524000,-2.7087866e-05,0.002657901,0.00033622008
4544000,4544000,0.0006802365,0.0011385084,0.00017330784
4564000,4564000,0.0030348087,0.0014714191,0.00039611536
4584000,4584000,0.0038903768,0.0019168586,0.0004058705
4604000,4604000,0.0009851225,0.0042111673,0.000272512
4624000,4624000,0.0024838224,-0.0031976611,0.00011363542
4644000,4644000,0.004889729,0.000760523,0.0003464981
4664000,4664000,0.0047924663,0.0004171451,0.00046947712
4684000,4684000,0.005739665,0.0038317146,0.0003930256
4704000,4704000,0.0067053186,0.001583723,0.00079041405
4724000,4724000,0.0033055993,0.0058979066,0.00071180833
4744000,4744000,0.0046429764,-0.00060328725,0.00044831124
4764000,4764000,-0.0006628578,0.007049923,0.0003814514
4784000,4784000,0.003104005,0.0010473508,6.0666634e-06
4804000,4804000,0.00023112388,0.003411213,0.00012530347
4824000,4824000,-0.003455997,0.002064686,-0.00022343166
4844000,4844000,0.0051930714,0.0028533759,-6.321863e-05
4864000,4864000,0.0033483943,-0.001408649,-0.00026330198
4884000,4884000,0.0062384787,0.0025659944,-3.5252884e-05
4904000,4904000,0.0025778566,-0.0006133621,-2.1176733e-05
4924000,4924000,0.0008328665,0.00399657,-0.00016405391
4940000,4940000,0.006429723,0.002287817,0.00021058091
4964000,4964000,0.0068844124,-0.0006820593,0.0006380682
4984000,4984000,0.0045050518,-0.0016118523,0.0009345741
5004000,5004000,0.006820818,0.0011643209,0.00069798937
5024000,5024000,-0.0015863769,0.0014406715,0.00054549024
5044000,5044000,0.002137229,0.0066115293,0.000114709495
5064000,5064000,-0.0015566505,0.00040094045,0.00011057246
5084000,5084000,0.0066280942,0.0021845428,-0.00023035311
5104000,5104000,0.0058312435,0.00058203755,-0.0003966599
5124000,5124000,0.0006574281,0.0012702273,-0.00033292608
5144000,5144000,0.005126705,-0.0022432357,9.510249e-05
5164000,5164000,7.949781e-05,0.0015313076,0.00015874684
5184000,5184000,-0.0007090736,0.000537333,0.0001326062
5204000,5204000,0.0008616282,0.0031657838,0.0002982518
5224000,5224000,-0.0007082572,0.0026310156,0.00017572253
5244000,5244000,0.005480139,0.0011723146,0.00017632426
5264000,5264000,0.0028044416,-0.001278602,0.00035711582
5284000,5284000,0.0037211045,4.9390306e-05,0.0005919663
5304000,5304000,0.00063137186,0.0028033587,0.0004599946
5324000,5324000,-0.0021849894,0.0012371889,5.8635662e-05
5344000,5344000,0.0056595644,0.0037228959,-3.1571584e-05
5364000,5364000,-0.00011842488,0.0010581238,0.00026616702
5384000,5384000,0.0007275961,0.0007414172,0.00014499202
5404000,5404000,0.0012929189,-0.0021815018,0.00014972972
5420000,5420000,0.0057063685,0.004201323,-8.210523e-05
5444000,5444000,0.0024442743,-0.0011912249,-0.0007165138
5464000,5464000,0.0028498934,0.00046536583,-0.00095253444
5484000,5484000,0.0021711646,0.0023287744,-0.0012496004
5504000,5504000,0.0016407381,0.0029561576,-0.0010198132
5524000,5524000,-0.0012295062,0.004708753,-0.0015604146
5544000,5544000,0.004710802,2.4904264e-05,-0.0011055969
5564000,5564000,0.0028275875,-0.0006538935,-0.0012177471
5584000,5584000,0.001374946,0.001892149,-0.00046230276
5604000,5604000,0.0053771185,0.0008055402,-0.0005926176
5624000,5624000,0.0024663564,-0.002605517,-0.0010120858
5644000,5644000,0.00063492695,-0.004547265,-0.0011517048
5664000,5664000,0.0003580947,0.005530185,-0.0006373253
5684000,5684000,-0.0032586202,-0.0015292007,-0.00027206793
5704000,5704000,0.0017473637,0.0057641994,-6.801421e-05
5724000,5724000,0.004404663,-0.0013134723,0.00031675375
5744000,5744000,0.00073526,0.0025847598,0.00036587717
5764000,5764000,-0.0026188157,-7.409317e-05,0.00035691907
5784000,5784000,0.005788155,0.0021611326,0.00019042689
5804000,5804000,-0.0028698375,0.0028899107,7.667688e-05
5824000,5824000,0.0006754012,0.001618871,0.00012599585
5844000,5844000,-0.00038252177,0.00081068324,0.00050711073
5864000,5864000,0.0005801609,0.0006641892,0.0001395414
5884000,5884000,0.0023857704,-0.0016767681,7.9425256e-05
5904000,5904000,0.0030761866,0.0045608003,0.000544956
5920000,5920000,-0.004393759,-0.0024709841,0.00034620677
5944000,5944000,0.0017874513,-0.0016465761,0.00033243553
5964000,5964000,0.002171951,0.0002177592,0.00065248983
5984000,5984000,0.0001553471,0.0026072948,0.00076481747
6000000,6000000,0.00010208337,-0.0038494272,0.0007762772
6024000,6024000,0.004600543,0.002118053,0.0006718778
6044000,6044000,0.0036985963,0.0022487955,0.0008054656
6064000,6064000,0.0022017919,0.00081075006,0.0007559136
6084000,6084000,0.0030245902,0.0012078882,0.00032137943
6104000,6104000,0.0018078454,-0.00014671119,0.00071185164
6124000,6124000,0.0022819552,-0.0017227755,0.0008336325
6144000,6144000,0.0039258967,-0.004729006,1.3825353e-05
6164000,6164000,-0.0029006174,0.0030994583,-0.00037320863
6184000,6184000,0.004166253,-0.002619891,0.00042184506
6200000,6200000,-0.0031087624,0.00046568093,0.00039688335
6224000,6224000,-0.00070745335,-0.0014648843,0.0003939686
6244000,6244000,0.0062258635,0.009642643,-0.00046298388
6260000,6260000,-0.0024167777,-0.0017260318,-0.0006774844
6284000,6284000,0.0037129712,0.0018653555,-0.0003058677
6304000,6304000,-0.0021358833,-0.001684567,-0.00078445487
6324000,6324000,-0.0015659548,-0.00059030874,-0.00056744704
6344000,6344000,0.0053816354,-0.0005212202,-0.00061945483
6364000,6364000,0.002992567,0.0017256406,-0.0007795522
6384000,6384000,0.002955926,-0.00072543655,-0.00045956392
6404000,6404000,0.004960061,-0.00023116602,-0.00048744678
6424000,6424000,0.0008844305,0.001311663,-0.0004061205
6440000,6440000,-0.0016121538,0.00023859343,-0.0006141706
6464000,6464000,0.0025691434,-0.004576551,-0.00047422422
6484000,6484000,0.0038032327,0.0016388268,-0.0004946337
6504000,6504000,-0.00039421703,0.0010145961,-0.00033385743
6524000,6524000,6.421504e-05,-0.0017811207,0.00022275609
6540000,6540000,0.0013285702,0.0020265877,0.00021057091
6564000,6564000,0.003803885,-0.0025887634,0.00017736459
6584000,6584000,-0.00068656215,-0.004993093,0.00021246004
6604000,6604000,0.0041985987,0.0037794984,0.00040733215
6624000,6624000,-0.0012666122,-7.340385e-05,0.00038009294
6644000,6644000,0.0020933403,-0.0026470763,0.0006030434
6664000,6664000,0.0037871858,0.001007613,0.00035756396
6684000,6684000,0.0047848653,0.0003562694,1.3043565e-05
6704000,6704000,0.0035544825,-0.003517779,0.00035170087
6724000,6724000,-0.0017515555,0.0066908346,0.0004112565
6744000,6744000,0.0026416122,0.002057536,0.00052913686
6764000,6764000,0.00028467533,-0.0019806186,0.0005650703
6784000,6784000,0.0028912798,-0.005156233,0.00040739562
6804000,6804000,0.003705252,0.00061900495,0.00046564624
6824000,6824000,-0.0015656946,5.0607938e-05,0.00025594715
6844000,6844000,0.00534548,0.0004186973,0.0001814726
6864000,6864000,-0.0007177044,0.0007084791,-0.00019974943
6884000,6884000,-0.0013185279,-0.00070301734,-0.0003389976
6904000,6904000,-0.001476966,0.001772937,-0.00048782965
6924000,6924000,0.0027103,0.004767008,-0.0005224137
6944000,6944000,-0.001022266,0.000735422,-0.0010478857
6964000,6964000,0.0019643712,0.0026823292,-0.0008400998
6984000,6984000,0.00021281338,0.0037713442,-0.00027935568
7004000,7004000,0.002939095,0.0032222045,-8.96952e-05
7024000,7024000,0.0011271676,0.004864691,-0.000219778
7044000,7044000,-0.0017100105,-0.0018881086,0.00015803955
7064000,7064000,0.0027542976,-0.0014996182,0.00016466444
7084000,7084000,-0.00091682,0.0021277042,0.0006972228
7104000,7104000,0.0015320238,0.0022723544,0.00032838833
7124000,7124000,-0.0034663107,-0.0016931845,0.00021695672
7144000,7144000,-0.0011099313,0.0023017593,-3.643925e-05
7164000,7164000,-0.0025697644,-0.0016108055,-0.00045291136
7184000,7184000,0.003350393,0.0011776711,-0.00040824802
7204000,7204000,0.00090137665,0.002175329,-0.00068402925
7224000,7224000,-0.00075851264,-0.0018892942,-0.0005150103
7244000,7244000,0.0021492846,-0.0031736237,-0.00062909746
7264000,7264000,0.002693664,0.00038774923,-0.0008503437
7284000,7284000,0.0024734815,0.005575158,-0.00044311665
7304000,7304000,-0.0004760704,-0.0027249244,-0.00033433575
7324000,7324000,-0.0010110213,-0.0012705582,-7.424773e-05
7344000,7344000,0.0008956444,-0.0027346124,0.00016146826
7364000,7364000,-0.0007787843,0.0010675446,-0.00035442642
7384000,7384000,0.002224826,0.0017547435,0.0001756127
7404000,7404000,-0.0035072821,0.0035904972,0.00038767752
7424000,7424000,0.00016428379,-0.00022011632,0.0004805871
7444000,7444000,-0.00597231,0.00027972995,5.0258357e-05
7464000,7464000,0.002242135,-0.0032689292,6.7953697e-06
7484000,7484000,0.0036044524,-0.0038976986,-0.0002438918
7504000,7504000,-0.0008039625,0.0022045525,-6.1540377e-06
7524000,7524000,0.0028031594,-7.079879e-05,-0.00067566073
7544000,7544000,-0.004171703,0.0031936918,-0.00045204777
7560000,7560000,0.0007061923,-0.0035456317,-0.00029432753
7584000,7584000,0.0009232537,-0.0012493843,-0.0004608068
7604000,7604000,0.0012563982,-0.0010548087,-0.00021381238
7620000,7620000,-0.004993692,-0.0043055634,-7.2983334e-05
7644000,7644000,0.0023901812,-0.0013337852,0.00016127982
7664000,7664000,-0.0028365282,-0.0014693415,-0.0001725902
7684000,7684000,-0.0013756421,-0.0007568223,-0.0003657013
7704000,7704000,0.0012720525,-0.0027860603,0.00025419175
7724000,7724000,-0.0010584465,0.0010912314,0.00019226798
7744000,7744000,0.00061060005,-0.000594261,0.00039865175
7764000,7764000,-0.0038958972,0.0011457758,-7.054914e-07
7780000,7780000,0.0039965776,0.005546063,-0.0002971148
7804000,7804000,-0.0025544334,0.0057662157,-0.0003517251
7824000,7824000,-0.0006882475,-0.0033398515,-0.00015362112
7844000,7844000,0.00042857803,0.00074030296,-0.00028217502
7864000,7864000,0.0011272007,-0.004067692,-0.00011063485
7884000,7884000,0.00036885007,0.0017138202,0.0003363131
7904000,7904000,-0.004312837,0.0025428573,0.00024485003
7924000,7924000,-0.00046521996,-0.0046157134,0.00011245889
7944000,7944000,0.0042908043,0.0017196386,0.00028860214
7960000,7960000,0.0021517465,0.0013679407,0.00041488156
7980000,7980000,-0.00051715865,0.002579846,0.000569174
8004000,8004000,0.00047151954,-0.0013747955,0.0010389558
8024000,8024000,-0.0041698785,0.0034288506,0.0011227923
8044000,8044000,0.0008095654,0.001038501,0.0014201859
8064000,8064000,0.0052766716,-0.0041228523,0.00083805306
8084000,8084000,-0.0018845308,0.00083806866,0.00043704468
8104000,8104000,0.0038524596,-0.00036782026,0.0006700526
8124000,8124000,-0.0028591042,0.0024710386,0.0006551959
8144000,8144000,-0.004218825,0.00032687292,0.00078811566
8164000,8164000,-0.00284628,-0.0009232991,0.0006632564
8184000,8184000,-0.0022805184,-0.0057264026,0.00058533234
8204000,8204000,-0.00018312121,-0.0028601463,9.427043e-05
8220000,8220000,0.0018954637,0.0037667437,2.3291588e-05
8244000,8244000,0.0048406175,-0.00201475,-4.13506e-05
8264000,8264000,0.002168925,0.0020330877,-9.023671e-05
8284000,8284000,0.00012167328,-0.0038825981,6.7764486e-05
8304000,8304000,0.004890932,0.0030553788,-0.0001410039
8324000,8324000,0.00014516793,-0.003390118,-0.00022215309
8344000,8344000,0.0042811446,0.0055462723,2.2605456e-05
8364000,8364000,0.000255513,-0.0016857678,0.0003178654
8384000,8384000,0.005044762,0.0039764615,0.00032078574
8404000,8404000,0.0018613866,-0.001050644,0.0004551593
8424000,8424000,-0.00078668736,-0.0017970935,0.001038927
8440000,8440000,-0.0024712565,0.002099822,0.0011845378
8464000,8464000,0.0004937575,0.004229375,0.0008990966
8484000,8484000,0.0006262716,-0.0011367633,0.0016579616
8504000,8504000,0.0028239947,0.0044623753,0.0013591718
8524000,8524000,0.0004325962,0.00020053503,0.0012097433
8544000,8544000,-0.0030950329,-0.0034426556,0.0010270181
8564000,8564000,-0.0006659961,-0.00041378685,0.00077200506
8584000,8584000,0.0025365502,0.0026762877,0.0005553047
8604000,8604000,0.00024204602,0.0025890912,-0.0001487655
8624000,8624000,0.0006765181,-0.0042669093,0.00012376072
8644000,8644000,-3.101278e-05,-0.0004991039,5.1608433e-05
8664000,8664000,0.0034577916,0.0007893008,4.6992405e-05
8684000,8684000,-0.0027819904,-0.0031311852,0.00027312114
8704000,8704000,-0.00080635387,-0.0015389002,0.0005505113
8724000,8724000,-0.0026162865,-0.0024154824,0.00015291643
8744000,8744000,0.0017400341,-0.0014405241,0.00046027557
8764000,8764000,0.0045183455,-0.0032454683,0.00023105054
8784000,8784000,0.00047086176,-0.00050518184,0.00048944424
8804000,8804000,-0.00070801156,0.002978072,0.000881772
8824000,8824000,0.00036753592,-0.000117776275,0.0011787447
8844000,8844000,-0.00038046134,0.00048120727,0.00095310895
8864000,8864000,0.003124075,0.0022674114,0.0005998468
8884000,8884000,0.0010285418,0.001312803,0.00057947176
8904000,8904000,0.0011660174,-0.000938084,0.00063110836
8924000,8924000,-0.00011728813,-0.0029144825,0.0006789256
8944000,8944000,-0.0036928533,-0.0018857043,0.0008024457
8964000,8964000,0.0015539539,-0.0046072477,0.00067346334
8984000,8984000,-0.00018049777,1.0616495e-05,0.0008392636
9004000,9004000,-0.00012835913,-0.0026233494,0.0009722005
9024000,9024000,0.0028123024,-0.00030987477,0.00072895864
9044000,9044000,-0.002210718,0.0012441548,0.000812986
9064000,9064000,0.0005918289,0.00039112926,0.00090669
9084000,9084000,0.0025088785,-0.0017420426,0.0004960258
9104000,9104000,-0.0029719954,0.0018154128,0.0003339144
9124000,9124000,0.0004705357,-0.0010849477,1.4432415e-05
9144000,9144000,-0.00063558767,-0.000809076,0.00056246144
9164000,9164000,-3.2576383e-05,-0.00255853,0.0008679169
9184000,9184000,0.0029304065,-0.00024180807,0.00057671237
9204000,9204000,0.0016980708,-0.004831172,0.00027716806
9224000,9224000,-0.0008639434,0.00028069172,9.300068e-05
9244000,9244000,0.002466281,-0.00047977932,0.00029933
9264000,9264000,-0.0020897817,-0.0015914659,0.0007132097
9284000,9284000,-0.0042594583,-0.0017862378,0.00072394684
9304000,9304000,0.00095537095,-3.156239e-05,0.00096691697
9324000,9324000,0.0019535723,-0.005739487,0.0010271057
9344000,9344000,-0.0042073047,0.00040270842,0.0004654822
9364000,9364000,-0.00082160294,-0.0020603756,0.00035884915
9384000,9384000,0.00079906924,0.00051309174,0.0003642283
9404000,9404000,2.8998416e-05,-0.00084331294,0.00035482235
9424000,9424000,0.0009121614,0.0006577878,4.0840503e-05
9440000,9440000,-0.0037368746,-0.0035229735,-3.733518e-05
9464000,9464000,-0.00011188758,-0.0010580145,-2.571652e-05
9484000,9484000,-0.0024283517,-0.0013284824,5.150454e-05
9504000,9504000,-0.002762354,-0.0028984929,2.8428782e-05
9524000,9524000,-0.0022053844,0.00017805948,-0.00020607776
9544000,9544000,-0.0021404373,0.0010248666,-3.601637e-05
9564000,9564000,0.0010886111,-0.00017519656,0.00022977768
9584000,9584000,-0.001322005,-0.0032435884,-9.3490606e-05
9604000,9604000,-7.141207e-06,-0.003834885,0.00032585184
9624000,9624000,-0.0005760763,-0.00086501415,-0.00010882055
9644000,9644000,0.00047364883,-0.002765967,-8.790038e-05
9664000,9664000,-0.0011971722,-0.0024974912,0.0002533952
9684000,9684000,0.0016045625,-0.0015878899,0.00024534154
9704000,9704000,-0.0041090087,0.0069527347,0.00030207288
9724000,9724000,0.0033849995,-0.0052423957,0.00058518717
9744000,9744000,-0.004078435,0.0011464657,0.0005265485
9764000,9764000,0.0035873246,-0.0010624145,0.00048260612
9784000,9784000,-0.0036150943,-0.0022210102,0.0005836509
9800000,9800000,0.005422649,-0.0018041614,0.00032463128
9824000,9824000,-0.0022319623,-0.0024139495,0.00047893968
9840000,9840000,-0.00024956118,-0.0018828666,0.00038831067
9864000,9864000,-0.0024631403,0.002351125,1.645803e-05
9884000,9884000,0.00023996073,-0.003375392,-0.00017196387
9904000,9904000,-0.0006102988,-0.003819352,4.7552174e-05
9924000,9924000,-0.0014189912,0.0023535013,7.471906e-05
9944000,9944000,-0.0006161704,-0.005496203,0.00021655856
9964000,9964000,-0.002233345,0.000961369,0.00017002279
9984000,9984000,0.00094017026,-0.0033785333,3.5514582e-05
10004000,10004000,-9.722498e-05,-0.0023759683,-0.00014367656
10024000,10024000,-0.0009292904,0.0042431443,0.00042193098
10044000,10044000,-0.0005153934,0.00035350688,0.0003298673
10064000,10064000,-0.0021842683,0.003018876,0.00042802602
10084000,10084000,-0.0007516353,-0.004057583,0.0005062522
10104000,10104000,-0.00017215929,0.00042979524,0.00041973958
10124000,10124000,-0.0043325108,0.0045766686,0.0010706114
10144000,10144000,-0.002563678,-0.0028529125,0.00017499733
10160000,10160000,-0.0020280613,0.0036176548,0.00010873476
10184000,10184000,-0.0021698112,-0.00448275,-6.721348e-05
10200000,10200000,0.00028373575,0.0032702847,-0.00023393502
10224000,10224000,-0.0022670233,0.0006061372,-0.00035700138
10244000,10244000,0.00036323295,0.00077556854,-9.719867e-05
10264000,10264000,0.004687165,-0.0007826544,-0.00036294037
10284000,10284000,-0.001259572,-0.007321026,-0.00044671918
10304000,10304000,-0.0027965414,-0.001228498,-0.0008506085
10324000,10324000,0.00082685595,-0.00018822029,-0.0010344816
10344000,10344000,0.00044920953,0.0005173521,-0.0009989196
10360000,10360000,0.0010549017,0.0009062566,-0.000667294
10380000,10380000,-0.00253794,-0.00069956254,-0.00031760347
10400000,10400000,0.0027917305,0.00096688356,-0.00016450693
10424000,10424000,0.00060631154,-0.005346141,0.0001809888
10440000,10440000,-0.0063372953,-0.002106937,0.00017473972
10464000,10464000,-0.0029905909,-0.00345321,0.00031223157
10484000,10484000,0.00040120078,-5.8262067e-05,0.0002576636
10504000,10504000,-0.00014718878,0.00095028547,-0.00030497834
10520000,10520000,0.0015221641,-0.007080961,4.1115993e-05
10544000,10544000,-0.0008069387,0.0006243013,-3.3870212e-05
10564000,10564000,0.0014130861,-0.00866675,-0.00038863113
10584000,10584000,-0.0013092416,8.690287e-06,0.00017928767
10604000,10604000,-0.0010450686,-0.0012923593,0.00016910037
10624000,10624000,-0.0014659943,-0.0006024251,-6.795494e-05
10644000,10644000,0.0017498374,-0.0011700374,0.00031946634
10664000,10664000,-0.0016627634,-0.003733281,0.0006165918
10684000,10684000,-0.0035106572,-0.0029601743,0.00055409386
10704000,10704000,0.0017256017,-0.004875602,0.0004355298
10724000,10724000,-0.0001457459,0.00032421917,0.00067212735
10744000,10744000,-0.00013116885,-0.0024898266,0.00012504184
10764000,10764000,0.0016806733,0.00034916063,3.6818845e-05
10784000,10784000,-0.006321816,-0.0010932147,6.4705484e-05
10804000,10804000,0.0005293457,-0.00054736785,0.00016197166
10824000,10824000,-0.0074492902,0.0006021031,0.0005694649
10844000,10844000,0.0040829764,-0.0026595248,-0.00024398095
10864000,10864000,-0.0051313834,-0.0069430387,-0.00011904405
10884000,10884000,-0.0011172197,-9.511673e-05,-6.6964654e-05
10904000,10904000,0.0029285476,-0.0014026962,-0.00012950445
10924000,10924000,0.0009256888,-0.003373937,0.00017413325
10944000,10944000,0.0026696012,0.0016652816,0.00028056477
10964000,10964000,-0.00046255003,0.0014627313,0.00056403613
10984000,10984000,-0.0026115985,-0.0008833149,0.00053093676
11004000,11004000,-0.0021896085,-0.0010217896,0.0006874619
11024000,11024000,0.001633748,-0.002709934,0.00085898297
11044000,11044000,0.003783966,0.0032561028,0.0009046717
11060000,11060000,-0.00013721676,-0.0026595548,0.0006635053
11084000,11084000,-0.002001244,-0.0037634447,0.0004460631
11104000,11104000,0.0003051988,-0.0005045247,0.0004328047
11124000,11124000,-0.0011174472,-0.0012526477,0.0004586577
11144000,11144000,0.00069590536,0.00073315366,0.00031101028
11164000,11164000,-0.0060352087,0.0029978307,0.0005585128
11184000,11184000,0.006492262,-0.004280475,0.00052477786
11204000,11204000,-3.7295104e-05,-0.0017008666,0.00085281814
11224000,11224000,0.0038426197,-0.006284813,0.0009487822
11244000,11244000,-0.002274291,0.00033261153,0.0006841317
11264000,11264000,0.008235516,-0.0013023084,0.0004354087
11284000,11284000,0.0026357777,0.0016688188,0.00023489611
11304000,11304000,-0.0025968875,-0.0026472695,0.0003638779
11324000,11324000,0.0014833598,-0.0016871898,0.00018327897
11344000,11344000,0.0011378344,0.004357664,-0.00017869764
11364000,11364000,-0.0017998483,-0.0027029612,-0.00011298047
11384000,11384000,0.0022655178,-0.0071124667,-7.749595e-05
11404000,11404000,0.004938859,0.003548802,-0.00019724705
11424000,11424000,-0.0014969351,-0.0037336776,0.0001801705
11444000,11444000,-0.0025174546,-0.00025712594,0.00027277367
11464000,11464000,0.00037868955,0.0014869951,0.00035119348
11484000,11484000,-6.3322164e-05,0.0027189353,0.00051902456
11504000,11504000,-0.003918296,-0.0021137784,0.00016140411
11520000,11520000,0.0015770724,0.0025734333,0.0002640006
11544000,11544000,-0.0029071989,-0.0048003914,0.00081379124
11564000,11564000,0.0038681654,0.0020003768,0.00051755685
11584000,11584000,-0.0014020508,-0.0010904017,0.00047103147
11604000,11604000,-0.0024904697,-0.00077783474,0.0008804148
11624000,11624000,0.0020544804,-0.0032006882,0.0009184883
11644000,11644000,-0.00045583985,0.00048000657,0.0005220758
11664000,11664000,0.0014304316,-0.0073070545,8.9110836e-07
11684000,11684000,0.0032811787,0.0020636746,-9.276459e-05
11704000,11704000,-0.0010082896,-0.0022422432,-0.00019822517
11724000,11724000,-0.00022895855,-0.004070415,-0.00019969263
11744000,11744000,-0.0020771534,0.0034692977,-0.00027228374
11764000,11764000,-0.00061110605,0.0011732591,-0.00023242243
11784000,11784000,-0.003624001,-0.0026622815,0.00016841412
11804000,11804000,0.0010149752,0.00034240074,1.1341526e-06
11824000,11824000,0.002669267,0.0020939016,-0.00019815846
11844000,11844000,-0.0006854362,-0.002958903,6.3152394e-05
11864000,11864000,-0.0008097229,0.0010783271,0.00043065904
11884000,11884000,0.0031110672,0.0035186473,0.00061287975
11904000,11904000,0.0008054965,-0.006483826,0.00039593823
11924000,11924000,0.0024560567,0.0014107367,0.00038682114
11944000,11944000,0.003634993,-7.16763e-05,0.0003857307
11964000,11964000,0.0011549809,0.0016412335,0.0002086561
11984000,11984000,0.0005330674,-0.0006237847,-0.00027126563
12004000,12004000,0.0016449253,0.0009308208,-0.000100938894
12024000,12024000,-0.00542962,-0.0020596522,0.0003381354
12044000,12044000,0.00020069466,-0.0027431704,0.0001555687
12064000,12064000,0.0005055283,-0.0037562982,0.00020201014
12084000,12084000,0.002225505,-0.0032680072,0.00047468062
12104000,12104000,-0.0021343024,0.0001431944,0.00073209323
12124000,12124000,0.0017202802,-0.0008265327,0.0008788426
12144000,12144000,-0.0011457102,0.0021897464,0.00076768716
12164000,12164000,0.0004334009,-0.005046189,0.00039908284
12184000,12184000,-0.00441915,0.004615735,0.00018211364
12204000,12204000,0.002997559,-0.0039022015,-0.0003682651
12224000,12224000,0.0027352122,-0.00065021566,-0.00026044232
12244000,12244000,-0.00026591402,0.0050649783,-0.00022713575
12264000,12264000,0.004640417,-0.0044005075,0.00019500814
12284000,12284000,-0.0018837613,0.005724446,-9.708605e-05
12304000,12304000,0.0026069952,-0.003227227,2.8868011e-05
12324000,12324000,0.0021885664,-0.00010754988,-0.0003563202
12344000,12344000,0.0015481211,-0.0025193554,-0.00048808265
12364000,12364000,3.8471888e-05,-0.0035025356,-0.00019917873
12384000,12384000,0.0012443578,-0.0028205502,-0.00010638882
12404000,12404000,-0.0008604723,0.0033062855,-8.893108e-05
12424000,12424000,0.0037785098,-0.0033200132,0.00025520098
12444000,12444000,0.0010164022,-0.0050408505,0.00047300145
12464000,12464000,-0.00094379776,0.0020543619,0.0003565734
12484000,12484000,0.00045823248,0.0010517173,0.00019988314
12504000,12504000,-0.0022522984,-0.0057193385,0.00014085714
12520000,12520000,0.004682719,0.002306094,-1.1165883e-05
12544000,12544000,0.00013718133,-0.0021450378,1.7065977e-05
12564000,12564000,0.0012313408,-0.00031136218,0.000120621306
12580000,12580000,0.005123155,-0.00048125815,0.00045447896
12604000,12604000,0.0026950308,0.0027768582,0.00021945062
12624000,12624000,0.002481884,-0.0015636906,0.00030492735
12644000,12644000,0.0047192005,0.0007655901,0.00031715265
12664000,12664000,-0.0030022392,-0.009563063,0.0005559319
12684000,12684000,0.0044722506,0.0007086332,0.0007409206
12704000,12704000,0.0011768325,0.0015874995,0.0005240285
12724000,12724000,0.0014128184,0.0024685282,0.0003075879
12744000,12744000,-0.0014817717,-0.0020073443,0.00022061782
12764000,12764000,0.0007088147,-0.0032546308,0.00050622236
12784000,12784000,0.0021519647,0.0019134668,0.000751766
12804000,12804000,0.00210985,0.0036727798,0.0006919943
12824000,12824000,0.0005956836,-0.000666314,0.0005650931
12844000,12844000,-0.000591157,-0.0006810912,0.000620984
12864000,12864000,0.0017284423,0.0011895702,0.0010102782
12884000,12884000,0.001211592,-0.007731033,0.0007491785
12904000,12904000,0.0005615199,-0.0004845186,0.0005866274
12924000,12924000,0.00074672955,-0.0018278789,0.00067659514
12944000,12944000,0.0009194937,-0.0034138293,-8.5545675e-05
12964000,12964000,0.000663835,0.0016558962,-0.00011074
12984000,12984000,0.0012766104,-0.0031680502,-0.0004773582
13004000,13004000,0.0013517595,-0.0067862216,-0.0003621466
13024000,13024000,0.00074999046,0.0014015711,-0.00014131678
13044000,13044000,-0.0024109893,-0.0035514836,-2.6425452e-05
13064000,13064000,-0.00033143524,-0.0006851818,0.00012771579
13084000,13084000,0.00075072126,0.0008738851,0.0003754122
13104000,13104000,0.0008906204,0.0007152711,0.00029836202
13124000,13124000,-0.0008517612,-0.000776912,0.0006063319
13144000,13144000,-0.0009284383,-0.0006059219,0.00035293953
13164000,13164000,0.0025028572,0.00069779414,0.0003397427
13184000,13184000,0.0018857544,0.0016202612,0.0002568098
13204000,13204000,0.0036379783,0.00457368,0.0004365614
13224000,13224000,-0.0010354249,-0.007671437,0.00021072704
13244000,13244000,0.00026141264,0.002584545,0.00022592429
13264000,13264000,-0.00015027495,-0.0037560153,-0.00029120414
13284000,13284000,-0.0032455893,0.0023136423,-0.0006347574
13304000,13304000,-9.084452e-05,0.0013791979,-0.00031419605
13320000,13320000,-0.0010822588,-0.005430589,0.0003681526
13344000,13344000,0.0014629079,3.0099181e-05,0.00046575043
13364000,13364000,0.002894857,-0.0024926772,3.3137287e-05
13384000,13384000,0.003905367,-0.00012578344,1.9959292e-05
13404000,13404000,0.0043680947,-0.005928968,-0.00013090331
13424000,13424000,-0.002944243,0.0006005974,-0.00051702274
13444000,13444000,-0.00013729313,-8.748214e-05,-0.00012564941
13464000,13464000,0.00049884594,-0.00081870996,-0.00024600927
13484000,13484000,0.00014644966,-0.0013369783,-8.33326e-05
13504000,13504000,-0.000810935,0.0009760953,0.00041336316
13524000,13524000,0.0048414893,0.0012028995,0.00059680955
13544000,13544000,-3.629987e-05,0.0015396242,0.0010530924
13564000,13564000,0.0032766014,-0.0011119335,0.00054721703
13584000,13584000,0.006686558,-0.002017832,0.0005663306
13604000,13604000,0.0014142074,0.0036053502,0.00043922872
13624000,13624000,0.0040616537,-0.0024342686,0.0006139519
13644000,13644000,-0.0024656805,-0.003047897,0.0003520614
13664000,13664000,0.0022086254,0.006635381,0.0005723854
13684000,13684000,0.0047768885,-0.003151279,0.00022637908
13704000,13704000,0.00018198445,0.000657439,-0.00031380748
13724000,13724000,0.0022613108,0.0007669956,0.00024430885
13744000,13744000,-0.0015790602,-0.0027649275,0.0004870119
13764000,13764000,-0.00070204074,0.00094719377,0.00030701398
13784000,13784000,-0.00045865797,0.00057855365,3.8114224e-05
13804000,13804000,0.0027827108,-0.0014334804,0.00024359785
13824000,13824000,0.0004939544,0.0051360624,1.2611381e-05
13844000,13844000,-0.00023866452,0.0003603538,0.0004556059
13864000,13864000,0.0035261558,0.0021135672,0.00040405605
13884000,13884000,0.00028997322,-0.0060114516,0.0006594804
13904000,13904000,-0.0011008506,0.0024022073,0.0006020598
13924000,13924000,0.004834984,-0.001001145,0.0003541395
13944000,13944000,-0.00026416383,-0.002926788,0.0003376375
13964000,13964000,0.0030965281,-0.0038280492,1.9535873e-05
13984000,13984000,0.0003610833,0.0060269297,0.00014639946
14004000,14004000,-0.0014665339,0.0017998389,0.00020979201
14024000,14024000,0.00022507347,0.0048959325,-0.000110210975
14044000,14044000,-0.0017736497,-0.0016204366,-0.00019722336
14064000,14064000,-0.00041797105,-0.0009838647,-1.8168379e-05
14084000,14084000,0.00017517761,-0.00030284657,-0.00010680883
14104000,14104000,0.00017283682,-0.00014544846,-0.00021081821
14124000,14124000,-0.003633231,-3.1761636e-05,3.5396015e-06
14144000,14144000,0.000428712,-0.0033819375,-0.00018449989
14164000,14164000,0.0024308993,0.0033750548,0.000100985555
14184000,14184000,0.0043229014,-0.00063648826,-3.9004124e-05
14204000,14204000,-0.00029556523,0.0022047707,0.00033985043
14224000,14224000,0.0013894252,0.0010540119,0.00082918565
14244000,14244000,-0.0010646192,0.0017727868,0.00063176494
14264000,14264000,0.0010544594,-0.00049125944,0.00054493087
14284000,14284000,0.004888801,-0.001673162,-5.4413147e-05
14304000,14304000,0.00037312566,0.001356059,0.0002031245
14324000,14324000,-0.0010856069,0.0028999178,0.0006183755
14344000,14344000,0.0050449898,-0.0018327063,0.00045950836
14364000,14364000,5.840999e-05,0.0033117486,7.0988535e-05
14384000,14384000,-0.0018564395,-5.6731486e-05,0.00013608548
14400000,14400000,-0.0011979253,0.00040125454,-7.90106e-05
14424000,14424000,0.004345907,0.0016717594,-0.00030511792
14444000,14444000,0.0040942417,-0.003810313,-0.00028347832
14464000,14464000,-0.00021599914,0.0028034942,-0.00048207038
14484000,14484000,-0.0018728067,-0.0002714686,-0.00052383007
14500000,14500000,0.00176621,0.0021846388,-0.00042352077
14524000,14524000,0.0019798328,0.0019968078,-0.0004166265
14544000,14544000,-0.0013767994,-0.0049274685,-4.0752973e-05
14564000,14564000,-0.00026085624,0.0007821184,0.0002080359
14584000,14584000,-1.4633406e-07,-0.00073551736,0.00049214443
14604000,14604000,0.0053948173,-0.00086841575,0.00019309965
14624000,14624000,0.001558641,0.00021587613,-0.00010968713
14644000,14644000,0.0053451424,0.0022649309,-0.00022449
14664000,14664000,0.0014868629,0.00061389204,0.00030444888
14684000,14684000,0.0059281625,0.0007815845,0.00053295406
14704000,14704000,-0.00034072238,-0.0029648868,0.0005475212
14724000,14724000,0.001357538,0.0015962233,0.0004663724
14744000,14744000,-0.0008809873,-0.0015812253,0.00073473086
14764000,14764000,0.0032282225,-0.0024154966,0.0006928552
14784000,14784000,0.0062016314,0.002956255,0.0007565821
14804000,14804000,0.0063079176,-0.0006740444,0.00037269585
14824000,14824000,-0.0040808786,-0.002387045,0.000552034
14844000,14844000,0.001626974,0.00029328038,0.00015966025
14864000,14864000,0.0036778273,-0.0022673518,0.000102252256
14884000,14884000,0.007522163,-0.0019416496,-0.00036220922
14904000,14904000,-0.006151428,0.0025226362,-0.0003202081
14924000,14924000,0.00013804917,-0.0012521789,-0.0005171113
14944000,14944000,0.008351488,0.00084112503,-0.000511809
14964000,14964000,-0.000736816,-0.00550459,-0.00062830327
14984000,14984000,0.0018682315,-0.000206619,-0.00044307008
15004000,15004000,-0.003726706,0.0031224536,-0.0004628912
15024000,15024000,0.003870209,-0.0025345348,-8.387471e-05
15044000,15044000,-0.0037706255,-0.00077644014,-4.5754045e-05
15064000,15064000,0.002532782,-0.0019438907,-0.00013813695
15084000,15084000,-0.0026089945,0.0042354073,0.00013416095
15104000,15104000,0.0017127766,0.00020695312,0.00012092797
15124000,15124000,0.007178828,0.0028828173,0.00014994899
15144000,15144000,-0.0047836206,-0.002481448,0.0006854381
15164000,15164000,0.0067523415,0.0011719676,0.00030061163
15184000,15184000,-0.00078887085,-0.0015762285,0.0005072037
15204000,15204000,0.0036049627,0.0026769175,0.00079665903
15224000,15224000,0.0039087976,-0.0027273844,0.00073785847
15244000,15244000,-2.964912e-05,0.0029565152,0.0006466441
15264000,15264000,-0.0012313082,-0.0058505354,0.00043429888
15284000,15284000,0.0024520198,-7.01347e-05,0.0005473393
15304000,15304000,0.0020696349,0.0028216888,0.0005983114
15324000,15324000,0.0058527524,-0.002737184,0.0006046858
15340000,15340000,0.0014614818,-0.0004648038,0.00075035525
15364000,15364000,0.0038332338,-0.0039559593,0.0008840362
15380000,15380000,0.00373924,0.0020210897,0.00095639436
15404000,15404000,-0.00074817863,-0.00475401,0.00064376846
15424000,15424000,-0.0024287172,0.0021519414,0.00044830676
15444000,15444000,0.0014547289,-0.0020636388,5.5595156e-05
15460000,15460000,-0.001088663,0.0002740968,0.00013614036
15484000,15484000,-0.0021374198,-0.00061171723,5.3742893e-05
15504000,15504000,-9.828111e-05,-0.00017332585,0.00019853105
15524000,15524000,0.00017063093,0.00055036123,0.00016776356
15544000,15544000,-0.00031895755,0.00027433076,-6.516737e-05
15564000,15564000,0.0019189736,-0.0037160465,-0.0004628909
15584000,15584000,0.0012491946,-0.005206135,-0.00043553754
15600000,15600000,0.004253771,0.003369266,-0.0004975182
15624000,15624000,0.0033658133,-0.003901307,-4.870151e-05
15640000,15640000,2.1935906e-05,0.0012289176,-0.0004093435
15664000,15664000,0.0010352044,-0.0034797045,-0.00030203722
15684000,15684000,0.006225746,0.0016054987,-3.474793e-05
15704000,15704000,-0.0007803914,0.0009237482,-0.00031344296
15724000,15724000,-0.0032341075,-0.0022794937,-0.00032216957
15744000,15744000,-0.004443592,0.00020150741,-8.23748e-05
15764000,15764000,0.0038231914,0.0036940658,0.000118424185
15784000,15784000,0.0036004528,-0.004170874,0.00020793737
15804000,15804000,-0.001860234,-0.0012602776,0.00028260815
15824000,15824000,0.0019176762,6.348446e-05,0.00020348343
15844000,15844000,4.3895998e-05,0.0044923336,-6.773533e-05
15860000,15860000,0.0036087958,0.00036052364,-4.7700596e-06
15880000,15880000,-0.0048331227,-0.0006725949,0.0002606407
15904000,15904000,-0.0007746034,0.001226146,0.00027243872
15924000,15924000,-0.0007169311,0.0012816844,-3.1632386e-05
15944000,15944000,-0.0013802829,-0.00084950856,-9.324772e-05
15964000,15964000,0.0004026773,-0.004740958,-7.816852e-05
15984000,15984000,-0.00017730618,-0.00388698,-0.0005184197
16004000,16004000,0.0012156675,-1.1781056e-05,-0.00039229885
16024000,16024000,0.0037275255,0.000852899,-0.00017081114
16044000,16044000,-0.0007344018,-0.0012106142,-6.9697264e-05
16064000,16064000,-0.0019430639,-0.00036862807,-0.00026962132
16084000,16084000,-0.0012495375,-0.0027353503,0.00034120044
16104000,16104000,0.0011041443,0.0024664828,0.00045706375
16124000,16124000,-0.0016561523,0.0027336448,0.0004519824
16144000,16144000,0.00059752277,-0.0044371504,0.0004912877
16164000,16164000,0.0047144676,-0.0019520284,0.0004946576
16184000,16184000,-0.0011529984,-0.00014594971,0.00016752612
16204000,16204000,-0.0006252637,0.00021492678,0.00044050763
16224000,16224000,0.00019681102,-0.0012526298,0.00040971625
16244000,16244000,-0.0005147528,-0.0024869596,0.00016053554
16264000,16264000,0.005615359,-0.0006961691,-1.0595875e-05
16284000,16284000,-0.0028218585,-0.002975831,-0.0002012818
16304000,16304000,-0.0006687723,-0.001312781,-0.00016905718
16324000,16324000,0.0014087344,-0.0008021701,-0.0005247416
16344000,16344000,0.0026259269,-0.0013974011,-0.00036292148
16364000,16364000,-0.003439072,-0.003694178,-0.00015459557
16384000,16384000,-2.4107663e-05,-0.0026376115,-0.00042451586
16404000,16404000,0.002282371,-0.0007520612,-0.0005558525
16424000,16424000,-0.0036384515,-0.00044070923,-0.0004429765
16444000,16444000,0.0041580144,-0.005118942,-0.00021712865
16464000,16464000,0.003604855,0.0006096339,-0.00012402744
16484000,16484000,0.00020006286,0.0011974585,-0.00021616498
16504000,16504000,-0.0010281919,0.0005803102,-0.00036915264
16524000,16524000,0.0009054296,-0.0040558353,-0.0005138357
16544000,16544000,0.0007187319,-0.005706233,-0.00012984421
16564000,16564000,0.0032254844,0.0018189069,-0.00042619676
16584000,16584000,-0.0032886572,-0.0019133568,-0.00043994948
16604000,16604000,0.00014923704,-0.0037045146,-0.0008221932
16624000,16624000,0.0021799067,-0.0053572278,-0.00059899595
16644000,16644000,0.0014426326,-0.004892027,-0.0006919898
16664000,16664000,-0.0016330455,8.27004e-05,-0.00035501883
16684000,16684000,-0.0017263023,-0.00062424765,-0.00010904498
16704000,16704000,-0.0001687691,-0.0016207576,4.5196008e-05
16724000,16724000,0.0024115688,-0.0030338448,-0.00018359811
16744000,16744000,0.0016011824,-0.0024303482,3.4256387e-05
16764000,16764000,0.0056994157,-0.0044577313,-0.00010995478
16784000,16784000,-0.0006744874,0.0004437064,-0.00029743003
16804000,16804000,0.003607734,-0.00767868,-0.00052497647
16824000,16824000,-0.00041982913,-0.0016442032,-0.0007264141
16844000,16844000,0.0006175777,-0.0046079005,-0.00039992243
16864000,16864000,-0.0015173419,-0.006124243,-0.00018731307
16884000,16884000,0.0024070793,-0.0047589485,0.00045745776
16904000,16904000,0.0014450075,-0.0043487884,0.00030312836
16924000,16924000,0.0019387396,-0.004602601,-2.5255657e-05
16944000,16944000,0.0007483353,-0.00556213,-8.6175256e-05
16964000,16964000,0.00328936,0.0028286483,4.49698e-05
16984000,16984000,0.001090029,-0.0027193176,1.4015484e-05
17004000,17004000,-0.0025744191,-0.0008864662,0.00022173024
17024000,17024000,-0.0049792235,-0.0011761195,0.00048802735
17044000,17044000,0.006778924,-0.005959883,0.0003124003
17064000,17064000,0.002513393,-3.9905077e-05,-0.00013344934
17084000,17084000,0.0035980688,0.00091275154,6.915352e-05
17104000,17104000,0.0023457995,-0.009569132,0.0005097824
17124000,17124000,-0.0024089182,0.001037528,0.00065652747
17144000,17144000,0.0013178405,0.00022500171,0.00073472544
17164000,17164000,-0.0015433729,-0.002687215,0.00073200697
17184000,17184000,0.0072331973,-0.0028310423,0.00020213865
17204000,17204000,0.00036724133,-0.004516271,5.8349236e-05
17224000,17224000,0.0018583641,-0.00014376803,-3.4364457e-05
17244000,17244000,0.0007548647,-0.0019377408,-2.4800735e-05
17264000,17264000,7.890383e-05,-0.004375139,-0.00017842474
17284000,17284000,0.00036118441,0.0010806256,0.00014438882
17304000,17304000,0.002693727,-0.0019881541,0.0001161031
17324000,17324000,0.0010430478,0.0024583053,-0.0002311304
17344000,17344000,0.0010340263,-0.002783126,-1.7376235e-05
17364000,17364000,0.00019300141,0.00043851323,-0.00013690804
17384000,17384000,0.0006123436,-0.0013246508,-8.7326844e-05
17404000,17404000,0.0039945655,-0.00035223778,-9.5128205e-05
17424000,17424000,-0.0015411873,0.0021727057,-0.00041040382
17444000,17444000,-1.3757381e-06,0.0017548224,-0.00010208112
17464000,17464000,0.0031034346,-0.0012053025,-0.00014815314
17484000,17484000,0.0045056096,-0.0027805422,5.6690493e-05
17504000,17504000,-0.0006951,-0.0017264483,-7.3323245e-05
17524000,17524000,0.004698782,0.0019938506,-0.00014635143
17544000,17544000,0.0014898097,0.003151055,-0.00020274497
17564000,17564000,-0.0025127342,-0.005599055,-0.0001366285
17580000,17580000,0.002056962,-0.0048897923,6.7566594e-05
17604000,17604000,-6.7045505e-05,-0.00082586595,3.9924853e-05
17624000,17624000,0.0019619872,-0.002415247,0.00023141853
17640000,17640000,0.0033987593,-0.0014124087,0.00021644862
17664000,17664000,-0.00025210658,-0.005156084,-0.00017528028
17684000,17684000,-0.00089695776,-0.0020747806,-0.00019017143
17704000,17704000,0.0043330104,-0.00091986987,-0.00023578889
17724000,17724000,0.006989142,0.00084610377,-0.0002269946
17744000,17744000,-0.0015472117,-0.0021199186,-0.00026817145
17764000,17764000,0.00017939249,-0.0026267425,-0.00067550194
17784000,17784000,0.0006397371,-0.003086391,-0.0007821686
17804000,17804000,0.00075572263,-0.004547465,-0.0006413761
17824000,17824000,0.0014941238,0.004763685,-0.00091055554
17844000,17844000,0.0029725893,-0.0013750659,-0.0006542922
17864000,17864000,0.0025209687,-0.002273063,-0.00032294804
17884000,17884000,0.001049019,-0.0016313979,-0.00031740186
17904000,17904000,0.00031620008,-0.004680698,-0.00042804723
17924000,17924000,-0.0015035206,0.0033055977,-0.00020812613
17944000,17944000,0.0033014035,0.0006061964,-0.00035859513
17960000,17960000,0.0018133284,-0.0018804461,-0.0004274422
17984000,17984000,0.000660406,0.0021464839,-0.0007073601
18004000,18004000,-0.0015813657,-0.003849268,-0.0005560277
18024000,18024000,0.0041466253,0.0004974899,-0.00040325368
18044000,18044000,0.0010354931,-0.002219473,-0.00027987055
18064000,18064000,-0.0005640712,0.0028728312,0.00014981358
18084000,18084000,0.003140551,0.0026970906,-0.00020284046
18104000,18104000,0.0026191724,-0.004575216,4.2460062e-05
18124000,18124000,-0.0008252269,-0.00079686864,-0.00019335681
18144000,18144000,0.0017475601,-0.003327794,0.00046152226
18164000,18164000,0.0045919204,-0.000838401,0.0002005317
18184000,18184000,-0.00057106337,0.0022497838,-0.00020502266
18204000,18204000,0.0032943632,-0.0026102401,1.5036207e-05
18224000,18224000,0.0051059127,-0.00023288505,-0.00014478303
18240000,18240000,-0.00018640829,-0.0033857804,-0.00011974803
18264000,18264000,0.0021392782,-0.0027745888,-0.00018342352
18284000,18284000,0.0030905195,-0.004157285,-0.00036649487
18304000,18304000,-0.00085321866,0.00039529073,1.4028992e-05
18324000,18324000,-0.00035115503,-0.0055660843,0.00016469393
18340000,18340000,0.002959132,0.0016280024,0.00027402746
18364000,18364000,-0.0012075149,0.0010688088,0.00015235468
18384000,18384000,-0.00027542937,0.002892289,-2.8151895e-05
18404000,18404000,0.0011210205,-0.0007574285,0.00041202593
18424000,18424000,-0.0014486187,-0.0012573126,0.0005515198
18444000,18444000,-0.0040554684,0.0021214732,0.00095184386
18464000,18464000,-0.002326726,-0.002859221,0.0009808878
18484000,18484000,-0.0024662863,-0.0017672502,0.0006649547
18504000,18504000,-0.0012018033,0.00097058783,0.00045088062
18524000,18524000,0.0025228485,-0.003480264,0.0004722855
18544000,18544000,-0.00028505863,-0.0037195934,0.00025541964
18564000,18564000,0.003136717,0.0011091656,0.00038820316
18584000,18584000,-0.0034969205,-0.004618045,0.00039467146
18604000,18604000,0.0031427369,-0.0022186264,0.00040934593
18624000,18624000,-0.0010093048,3.4023542e-05,0.00012621656
18644000,18644000,-0.00050434226,-0.0028133644,-0.0003569278
18664000,18664000,0.0007649824,-0.0024219013,-0.00013343294
18684000,18684000,-0.005131716,-0.0050869267,-0.0005010229
18704000,18704000,-0.001047339,-0.00043612655,-0.0006656578
18724000,18724000,0.0024514685,-0.0021027313,-0.00056494557
18744000,18744000,0.0001773131,-0.0017543322,-0.00046559755
18764000,18764000,0.0015594104,-0.002741474,-0.0005679325
18784000,18784000,-0.001339207,-0.0039241323,-0.0004130724
18804000,18804000,0.0026943972,-0.0029761621,-0.0007041341
18824000,18824000,0.0024392589,0.0008488223,1.4109421e-05
18844000,18844000,-0.0002146666,0.00056357967,-0.00029302321
18864000,18864000,0.0023425017,-2.381031e-05,8.412725e-05
18884000,18884000,0.0030508603,0.000536785,-7.27964e-05
18904000,18904000,0.0014677132,-0.0034031004,3.767317e-05
18924000,18924000,-0.0038335207,-0.0030136697,-0.0002948255
18944000,18944000,0.0015333466,0.00042540563,-0.0001332432
18964000,18964000,-0.0010369592,0.0038383752,-7.496594e-05
18984000,18984000,0.0034039984,0.0016763404,-8.3786836e-05
19004000,19004000,-0.000734223,-0.005347361,0.00019056788
19024000,19024000,0.006266919,0.003179277,-8.989571e-05
19044000,19044000,-0.0048749945,-0.0024754712,-0.00017028196
19064000,19064000,0.0016240063,-0.0015893364,-0.00014921337
19084000,19084000,0.00093096937,-0.001328245,-0.0003078875
19104000,19104000,0.000767343,-0.00205104,-0.0004614711
19124000,19124000,0.00027137244,-0.0019651786,-0.0003278328
19144000,19144000,0.00038170343,0.00028504548,5.8959155e-05
19164000,19164000,-0.0028522592,-0.005266413,0.00010466277
19184000,19184000,0.0022440425,0.00056642445,0.00039616064
19204000,19204000,0.003214437,-0.005693918,0.00047947688
19224000,19224000,-0.002169442,-0.001206045,0.00020600237
19244000,19244000,0.005542439,-0.0010428164,-1.8613817e-05
19264000,19264000,0.005118068,0.003870827,-7.228373e-06
19284000,19284000,-0.0002958792,-0.0012581691,0.00041224237
19304000,19304000,0.004076111,-0.005079042,0.00037349426
19324000,19324000,0.0010982892,-0.0022346543,0.0001153707
19344000,19344000,-0.0001751855,0.0030052073,-0.00032241354
19364000,19364000,0.0049104313,-0.002644021,-0.0004502564
19384000,19384000,-0.0023011302,-0.0039089876,-0.00023480156
19404000,19404000,0.0008291085,-0.0020908439,-0.0003136694
19424000,19424000,0.00045461842,-0.00020521996,-0.00012571353
19444000,19444000,0.0014585301,0.00142776,-0.00029803178
19460000,19460000,-0.0033233834,-0.0037718164,-0.00019125744
19484000,19484000,0.0026300373,-0.002990634,-0.00019863898
19504000,19504000,0.00052709796,-0.00029511843,-0.0001674767
19524000,19524000,-0.0005196216,-0.0021624798,-0.00058458326
19544000,19544000,0.0029479219,-0.004249694,-0.0006744075
19564000,19564000,0.00034559588,-0.00090903265,-0.00065755623
19584000,19584000,0.0056143044,-0.004228654,-0.0006809663
19604000,19604000,0.0005793846,-0.0014059901,-0.00039032102
19624000,19624000,-0.0028571598,-0.004878331,-0.0003344018
19644000,19644000,0.003865741,-0.0017447185,-0.00042853225
19660000,19660000,0.0026275367,0.0039289338,-0.0007389928
19684000,19684000,0.002793299,-0.0042126183,-0.00022227454
19704000,19704000,0.0012658141,0.0051471856,-3.362521e-05
19724000,19724000,0.00032545134,-0.0043731006,0.00019346668
19744000,19744000,0.003087969,-0.0048120636,-4.0125524e-05
19764000,19764000,0.0028655808,-0.0009968762,5.5690092e-05
19784000,19784000,-0.0030023572,-0.0054387106,0.00077311945
19804000,19804000,0.0021543612,-1.4379504e-05,0.00071164087
19824000,19824000,0.0015830299,-0.005258687,0.0008369615
19844000,19844000,0.0032811528,-0.0031979298,0.00059417053
19864000,19864000,0.0024773339,0.0022307558,0.0005192405
19884000,19884000,0.0037071304,-0.0015791911,3.6334284e-05
19904000,19904000,0.00315144,-0.0052041938,0.00022818007
19924000,19924000,0.0004686432,0.0043180557,0.0003172681
19944000,19944000,0.0034971768,-0.0045280424,6.284909e-05
19964000,19964000,0.0016523205,-0.0014612263,0.00018371752
19984000,19984000,0.009557052,0.00016198517,-0.00023256024
20004000,20004000,0.0024679932,-0.0038941149,-1.43441575e-05
20024000,20024000,-0.00040632288,-0.0026493403,0.00068921037
20044000,20044000,0.0025829738,-0.002549428,0.00069832196
20060000,20060000,0.00069310167,0.0013244335,0.00091275375
20084000,20084000,0.004602386,-7.783447e-05,0.00064107083
20100000,20100000,-0.0029079646,-0.006068769,0.0007970159
20124000,20124000,-0.0034260477,-0.00134607,0.0013667677
20144000,20144000,0.0017241123,-0.0020087196,0.001360499
20164000,20164000,-0.0005740083,-0.0047418186,0.001042501
20184000,20184000,-0.002580402,0.0008789763,0.0014271713
20204000,20204000,0.0018843347,-0.002595615,0.0013499826
20224000,20224000,0.004540136,0.0010856313,0.0008099171
20244000,20244000,-0.0007322938,-0.0031679715,0.001062679
20264000,20264000,0.005707024,-0.0013012332,0.00079256867
20284000,20284000,-0.0026157652,0.0001780201,0.00044049564
20304000,20304000,0.0039387224,-0.0024486594,0.00011973454
20324000,20324000,-0.00097347586,-0.00431644,7.3317926e-05
20344000,20344000,0.003693135,0.0011208734,-2.344523e-05
20364000,20364000,-0.0012004101,-0.0017918594,0.00014590123
20384000,20384000,0.0060329875,-0.0007691133,0.00034700692
20404000,20404000,0.0018095551,-0.0044821873,4.8385748e-05
20424000,20424000,0.0016370367,-0.0017979059,0.00030694815
20444000,20444000,0.003110409,-0.0030257138,0.0002559371
20464000,20464000,0.005666357,-0.00050909474,0.00040561325
20484000,20484000,0.00395244,-0.00020209805,-0.00021078756
20504000,20504000,0.00553024,-0.002934618,-0.00046135313
20524000,20524000,-0.0011546874,-0.003061414,-0.00017905253
20544000,20544000,0.0025145002,-0.0026107123,5.338223e-05
20564000,20564000,0.003796292,-0.0014296913,0.00029401778
20584000,20584000,0.003955703,0.00096569327,0.00013855306
20604000,20604000,0.003598688,-0.0046368516,0.00014053848
20624000,20624000,0.0011939178,-0.0026431764,-0.00016335753
20644000,20644000,0.0011369255,0.0014449772,-0.00039463173
20664000,20664000,0.0036129507,-0.0017776844,-0.00041157668
20684000,20684000,0.003970119,-0.007535712,-0.00025451707
20704000,20704000,-0.0011769087,-0.0016640316,-0.00041075278
20724000,20724000,0.0035793693,0.002339336,-0.0005466866
20744000,20744000,0.0041933153,-0.00025985748,-0.0007575483
20764000,20764000,0.0016292706,-0.0049863686,-0.0004284814
20784000,20784000,-0.0015621355,-0.003967394,-0.0005424932
20804000,20804000,0.004008295,-0.0045287106,-0.0010520794
20824000,20824000,0.0062645567,-0.0014088611,-0.0008402596
20844000,20844000,0.0008993115,-0.0007555569,-0.0007096969
20864000,20864000,0.003702114,0.0013859067,-0.00063006557
20884000,20884000,0.006892748,-0.0038609987,-0.00040102834
20904000,20904000,-0.003852264,-0.00454239,-0.00046895814
20924000,20924000,0.0039051878,-0.0037017257,-0.0006549973
20944000,20944000,-0.0029810753,0.00047779502,-0.0005488609
20964000,20964000,0.0035536517,-0.003408561,-0.0002974787
20984000,20984000,0.00077138457,-0.0033736783,-0.000668814
21004000,21004000,0.0019497913,-0.0030381428,-0.00045975836
21024000,21024000,-0.0019408384,0.0005929788,-0.000403036
21044000,21044000,0.0010642766,0.0018738194,-0.0003667741
21064000,21064000,0.006013993,-0.007299333,-0.0002994456
21084000,21084000,-0.006475146,-0.00579021,-8.153536e-05
21104000,21104000,0.0055470187,-0.001486367,-0.0002046206
21124000,21124000,0.0026556225,-0.004714398,-0.00025937584
21144000,21144000,0.0022613055,-0.0027562971,-0.0005099123
21164000,21164000,0.0022223878,0.0006376599,-0.0002525925
21184000,21184000,0.0030448227,-0.0066480357,1.3721292e-06
21204000,21204000,0.003431876,-0.00068822573,-0.00038255757
21224000,21224000,-0.0010111565,-0.001836867,-0.0001484734
21244000,21244000,-0.0024792992,-0.0026402327,-0.00012585355
21264000,21264000,0.004971431,0.0021265259,-0.00016022232
21284000,21284000,0.0009303527,0.00076675287,0.00010951075
21300000,21300000,0.0044993768,0.00035547116,0.00013075271
21324000,21324000,-0.0034186034,-0.003185749,-4.5808672e-05
21344000,21344000,-0.00017372007,-0.0027564096,6.268588e-05
21364000,21364000,-0.00037322164,-0.005601719,-0.0003141688
21384000,21384000,-0.0015184744,-0.00093995966,-0.0005815928
21404000,21404000,0.001840821,-9.2879636e-05,-0.00054784334
21424000,21424000,0.0052763824,-0.0075964495,-0.0007439361
21444000,21444000,0.0035227274,0.0051957257,-0.00040482386
21464000,21464000,0.0074616834,-0.0074640596,-0.00066970376
21484000,21484000,0.0011667635,-0.0019161517,-0.00045564293
21504000,21504000,0.0031342658,-0.0026181932,-1.9106898e-05
21524000,21524000,0.00020210119,-0.00082255277,-0.00011507674
21544000,21544000,-0.0015941397,0.0029425377,-7.745188e-06
21564000,21564000,0.0061054397,-0.0006062436,-0.00028644153
21584000,21584000,-0.0008656868,-0.0002646909,-6.71932e-05
21604000,21604000,0.00399108,-0.0024893899,0.000111623616
21620000,21620000,0.0044823545,0.0014318586,0.00028538442
21644000,21644000,0.0049501504,0.0003548278,4.5033405e-05
21664000,21664000,0.0019902221,-0.0057395804,0.0001577572
21684000,21684000,0.001049795,-0.001382828,0.00014116982
21704000,21704000,0.0015629272,-0.0023713377,0.000105885134
21724000,21724000,0.0074673123,-0.0018092126,-3.557307e-05
21744000,21744000,0.0014221193,0.0014872513,0.00075243803
21764000,21764000,0.002686792,-0.004587764,0.0006267722
21784000,21784000,0.007198928,-2.1913787e-05,0.00019435756
21804000,21804000,0.0015480685,0.00041101407,-0.00033513684
21824000,21824000,0.0007495197,-0.0017641344,-0.00020565835
21844000,21844000,0.006244826,-0.004617567,0.0001031619
21864000,21864000,0.00073130603,-0.0074593145,-0.0005315703
21884000,21884000,0.001058026,-0.00048095966,-0.00083928637
21904000,21904000,0.00060853944,-0.00024129509,-0.00041475662
21924000,21924000,0.0018780645,0.0008236307,-0.00031009884
