timestamp,timestamp_sample,device_id,x,y,z,temperature,error_count,clip_counter[0],clip_counter[1],clip_counter[2],samples
2168000,2168000,1310988,-0.11492168,0.1436521,-9.842564,11.832727,0,0,0,0,1
3168000,3168000,1310988,0.06464344,0.016759412,-9.753978,11.832727,0,0,0,0,1
4168000,4168000,1310988,-0.01436521,-0.05746084,-9.89763,11.832727,0,0,0,0,1
5168000,5168000,1310988,0.0023942017,0.01436521,-9.835381,11.832727,0,0,0,0,1
6168000,6168000,1310988,0.0,-0.04070143,-9.763555,11.832727,0,0,0,0,1
7168000,7168000,1310988,0.02633622,-0.074220255,-9.840169,11.832727,0,0,0,0,1
8168000,8168000,1310988,0.04070143,0.016759412,-9.7803135,11.832727,0,0,0,0,1
9168000,9168000,1310988,0.0,0.076614454,-9.8042555,11.832727,0,0,0,0,1
10168000,10168000,1310988,-0.033518825,0.06703765,-9.880871,11.832727,0,0,0,0,1
11168000,11168000,1310988,0.107739076,-0.04070143,-9.832987,11.832727,0,0,0,0,1
12168000,12168000,1310988,0.045489833,-0.019153614,-9.864111,11.832727,0,0,0,0,1
13168000,13168000,1310988,0.079008654,-0.02873042,-9.847352,11.832727,0,0,0,0,1
14168000,14168000,1310988,0.050278235,-0.035913024,-9.7563715,11.832727,0,0,0,0,1
15168000,15168000,1310988,-0.021547815,-0.033518825,-9.82341,11.832727,0,0,0,0,1
16168000,16168000,1310988,0.14844051,0.031124622,-9.799467,11.832727,0,0,0,0,1
17168000,17168000,1310988,0.16519992,0.023942016,-9.892841,11.832727,0,0,0,0,1
18168000,18168000,1310988,-0.05746084,-0.1436521,-9.928755,11.832727,0,0,0,0,1
19168000,19168000,1310988,0.11492168,0.02633622,-9.844957,11.832727,0,0,0,0,1
20168000,20168000,1310988,0.08140286,-0.10534488,-9.847352,11.832727,0,0,0,0,1
21168000,21168000,1310988,0.007182605,-0.0023942017,-9.818622,11.832727,0,0,0,0,1
22168000,22168000,1310988,0.045489833,-0.035913024,-9.588778,11.832727,0,0,0,0,1
23168000,23168000,1310988,0.033518825,0.08379706,-9.895236,11.832727,0,0,0,0,1
24168000,24168000,1310988,0.05746084,0.11971009,-9.842564,11.832727,0,0,0,0,1
25168000,25168000,1310988,-0.02873042,-0.059855044,-9.818622,11.832727,0,0,0,0,1
26168000,26168000,1310988,0.011971008,-0.15322891,-9.890448,11.832727,0,0,0,0,1
27168000,27168000,1310988,-0.02873042,-0.04309563,-9.8042555,11.832727,0,0,0,0,1
28168000,28168000,1310988,-0.009576807,-0.031124622,-9.773131,11.832727,0,0,0,0,1
29168000,29168000,1310988,0.023942016,-0.08379706,-9.785102,11.832727,0,0,0,0,1
30168000,30168000,1310988,0.1604115,-0.11731588,-9.78989,11.832727,0,0,0,0,1
31168000,31168000,1310988,0.031124622,-0.05746084,-9.847352,11.832727,0,0,0,0,1
32168000,32168000,1310988,-0.07182605,-0.10055647,-9.703699,11.832727,0,0,0,0,1
33168000,33168000,1310988,-0.0023942017,0.02633622,-9.770737,11.832727,0,0,0,0,1
34168000,34168000,1310988,0.0,-0.090979666,-9.801862,11.832727,0,0,0,0,1
35168000,35168000,1310988,0.011971008,0.050278235,-9.816227,11.832727,0,0,0,0,1
36168000,36168000,1310988,-0.016759412,-0.059855044,-9.801862,11.832727,0,0,0,0,1
37168000,37168000,1310988,-0.095768064,-0.059855044,-9.9550905,11.832727,0,0,0,0,1
38168000,38168000,1310988,0.0023942017,-0.06943185,-9.856929,11.832727,0,0,0,0,1
39168000,39168000,1310988,-0.047884032,-0.033518825,-9.883265,11.832727,0,0,0,0,1
40168000,40168000,1310988,0.023942016,0.0047884034,-9.794679,11.832727,0,0,0,0,1
41168000,41168000,1310988,0.01436521,0.05746084,-9.947908,11.832727,0,0,0,0,1
42168000,42168000,1310988,-0.12928689,-0.01436521,-9.76116,11.832727,0,0,0,0,1
43168000,43168000,1310988,0.045489833,-0.076614454,-9.770737,11.832727,0,0,0,0,1
44168000,44168000,1310988,-0.11252748,-0.08379706,-9.813833,11.832727,0,0,0,0,1
45168000,45168000,1310988,-0.076614454,0.10534488,-9.835381,11.832727,0,0,0,0,1
46168000,46168000,1310988,-0.0047884034,0.10295067,-9.758766,11.832727,0,0,0,0,1
47168000,47168000,1310988,0.0047884034,0.059855044,-9.811439,11.832727,0,0,0,0,1
48168000,48168000,1310988,0.11492168,0.062249243,-9.792285,11.832727,0,0,0,0,1
49168000,49168000,1310988,0.1388637,0.009576807,-9.828198,11.832727,0,0,0,0,1
50168000,50168000,1310988,0.10295067,-0.050278235,-9.8042555,11.832727,0,0,0,0,1
51168000,51168000,1310988,-0.035913024,0.033518825,-9.77792,11.832727,0,0,0,0,1
52168000,52168000,1310988,-0.11492168,-0.047884032,-9.880871,11.832727,0,0,0,0,1
53168000,53168000,1310988,-0.038307227,-0.1604115,-9.847352,11.832727,0,0,0,0,1
54168000,54168000,1310988,0.009576807,-0.023942016,-9.847352,11.832727,0,0,0,0,1
55168000,55168000,1310988,0.11492168,-0.02633622,-9.7803135,11.832727,0,0,0,0,1
56168000,56168000,1310988,0.038307227,-0.079008654,-9.765948,11.832727,0,0,0,0,1
57168000,57168000,1310988,-0.04309563,-0.011971008,-9.615114,11.832727,0,0,0,0,1
58168000,58168000,1310988,-0.047884032,0.10295067,-9.768343,11.832727,0,0,0,0,1
59168000,59168000,1310988,0.10295067,-0.107739076,-9.854534,11.832727,0,0,0,0,1
60168000,60168000,1310988,0.0023942017,0.059855044,-9.85214,11.832727,0,0,0,0,1
61168000,61168000,1310988,0.07182605,0.045489833,-9.923966,11.832727,0,0,0,0,1
62168000,62168000,1310988,0.11971009,-0.04309563,-9.773131,11.832727,0,0,0,0,1
63168000,63168000,1310988,-0.050278235,0.011971008,-9.801862,11.832727,0,0,0,0,1
64168000,64168000,1310988,-0.009576807,0.031124622,-9.9790325,11.832727,0,0,0,0,1
65168000,65168000,1310988,0.007182605,0.02873042,-9.847352,11.832727,0,0,0,0,1
66168000,66168000,1310988,0.01436521,0.06464344,-9.749189,11.832727,0,0,0,0,1
67168000,67168000,1310988,0.033518825,-0.05267244,-9.837775,11.832727,0,0,0,0,1
68168000,68168000,1310988,0.009576807,0.045489833,-9.785102,11.832727,0,0,0,0,1
69168000,69168000,1310988,0.050278235,0.06703765,-9.78989,11.832727,0,0,0,0,1
70168000,70168000,1310988,0.0,-0.05267244,-9.890448,11.832727,0,0,0,0,1
71168000,71168000,1310988,0.19153613,0.047884032,-9.840169,11.832727,0,0,0,0,1
72168000,72168000,1310988,0.06943185,0.01436521,-9.82341,11.832727,0,0,0,0,1
73168000,73168000,1310988,-0.009576807,-0.095768064,-9.923966,11.832727,0,0,0,0,1
74168000,74168000,1310988,0.007182605,-0.07182605,-9.811439,11.832727,0,0,0,0,1
75168000,75168000,1310988,0.088585466,0.016759412,-9.859323,11.832727,0,0,0,0,1
76168000,76168000,1310988,-0.062249243,-0.11971009,-9.713276,11.832727,0,0,0,0,1
77168000,77168000,1310988,-0.076614454,0.04070143,-9.801862,11.832727,0,0,0,0,1
78168000,78168000,1310988,-0.1340753,0.10295067,-9.799467,11.832727,0,0,0,0,1
79168000,79168000,1310988,-0.05267244,-0.016759412,-9.763555,11.832727,0,0,0,0,1
80168000,80168000,1310988,-0.019153614,0.05267244,-9.907207,11.832727,0,0,0,0,1
81168000,81168000,1310988,0.031124622,-0.038307227,-9.801862,11.832727,0,0,0,0,1
82168000,82168000,1310988,-0.009576807,-0.22026655,-9.78989,11.832727,0,0,0,0,1
83168000,83168000,1310988,-0.10295067,0.007182605,-9.830592,11.832727,0,0,0,0,1
84168000,84168000,1310988,-0.12928689,0.02873042,-9.828198,11.832727,0,0,0,0,1
85168000,85168000,1310988,0.04070143,-0.06943185,-9.91439,11.832727,0,0,0,0,1
86168000,86168000,1310988,-0.059855044,0.016759412,-9.854534,11.832727,0,0,0,0,1
87168000,87168000,1310988,0.15801731,-0.021547815,-9.77792,11.832727,0,0,0,0,1
88168000,88168000,1310988,-0.10055647,-0.038307227,-9.840169,11.832727,0,0,0,0,1
89168000,89168000,1310988,0.02633622,0.01436521,-9.92636,11.832727,0,0,0,0,1
90168000,90168000,1310988,-0.16280572,-0.01436521,-9.734824,11.832727,0,0,0,0,1
91168000,91168000,1310988,0.08619126,-0.055066638,-9.720459,11.832727,0,0,0,0,1
92168000,92168000,1310988,0.074220255,-0.02873042,-9.825804,11.832727,0,0,0,0,1
93168000,93168000,1310988,0.050278235,-0.019153614,-9.718064,11.832727,0,0,0,0,1
94168000,94168000,1310988,-0.04070143,-0.016759412,-9.801862,11.832727,0,0,0,0,1
95168000,95168000,1310988,0.062249243,0.047884032,-9.904813,11.832727,0,0,0,0,1
96168000,96168000,1310988,0.11731588,-0.076614454,-9.878476,11.832727,0,0,0,0,1
97168000,97168000,1310988,0.035913024,-0.05746084,-9.861717,11.832727,0,0,0,0,1
98168000,98168000,1310988,0.074220255,-0.062249243,-9.698911,11.832727,0,0,0,0,1
99168000,99168000,1310988,-0.019153614,0.076614454,-9.842564,11.832727,0,0,0,0,1
100168000,100168000,1310988,-0.062249243,-0.15083471,-9.768343,11.832727,0,0,0,0,1
101168000,101168000,1310988,0.009576807,0.02873042,-9.864111,11.832727,0,0,0,0,1
102168000,102168000,1310988,0.095768064,-0.074220255,-9.720459,11.832727,0,0,0,0,1
103168000,103168000,1310988,0.10534488,-0.06943185,-9.763555,11.832727,0,0,0,0,1
104168000,104168000,1310988,0.031124622,-0.02633622,-9.85214,11.832727,0,0,0,0,1
105168000,105168000,1310988,-0.17717093,0.1388637,-9.634268,11.832727,0,0,0,0,1
106168000,106168000,1310988,0.04309563,-0.079008654,-9.864111,11.832727,0,0,0,0,1
107168000,107168000,1310988,-0.035913024,0.05746084,-9.813833,11.832727,0,0,0,0,1
108168000,108168000,1310988,-0.074220255,-0.11252748,-9.873688,11.832727,0,0,0,0,1
109168000,109168000,1310988,-0.079008654,0.08619126,-9.816227,11.832727,0,0,0,0,1
110168000,110168000,1310988,-0.045489833,-0.10534488,-9.818622,11.832727,0,0,0,0,1
111168000,111168000,1310988,0.1316811,-0.02633622,-9.727641,11.832727,0,0,0,0,1
112168000,112168000,1310988,0.0,-0.023942016,-9.82341,11.832727,0,0,0,0,1
113168000,113168000,1310988,0.023942016,0.05267244,-9.725247,11.832727,0,0,0,0,1
114168000,114168000,1310988,-0.07182605,-0.05267244,-9.763555,11.832727,0,0,0,0,1
115168000,115168000,1310988,0.23942018,0.06464344,-9.77792,11.832727,0,0,0,0,1
116168000,116168000,1310988,0.04070143,0.031124622,-9.672575,11.832727,0,0,0,0,1
117168000,117168000,1310988,-0.06703765,-0.007182605,-9.835381,11.832727,0,0,0,0,1
118168000,118168000,1310988,-0.05267244,-0.011971008,-9.900024,11.832727,0,0,0,0,1
119168000,119168000,1310988,-0.079008654,-0.088585466,-9.859323,11.832727,0,0,0,0,1
120168000,120168000,1310988,-0.062249243,-0.08619126,-9.6845455,11.832727,0,0,0,0,1
121168000,121168000,1310988,0.047884032,0.01436521,-9.854534,11.832727,0,0,0,0,1
122168000,122168000,1310988,-0.0023942017,-0.09816227,-9.763555,11.832727,0,0,0,0,1
123168000,123168000,1310988,-0.04309563,0.079008654,-9.706094,11.832727,0,0,0,0,1
124168000,124168000,1310988,-0.05267244,0.045489833,-9.773131,11.832727,0,0,0,0,1
125168000,125168000,1310988,-0.023942016,0.035913024,-9.639056,11.832727,0,0,0,0,1
126168000,126168000,1310988,-0.02873042,-0.047884032,-9.639056,11.832727,0,0,0,0,1
127168000,127168000,1310988,0.093373865,-0.1412579,-9.840169,11.832727,0,0,0,0,1
128168000,128168000,1310988,-0.05746084,0.016759412,-9.792285,11.832727,0,0,0,0,1
129168000,129168000,1310988,0.011971008,0.05746084,-9.895236,11.832727,0,0,0,0,1
130168000,130168000,1310988,-0.08379706,0.0023942017,-9.7803135,11.832727,0,0,0,0,1
131168000,131168000,1310988,-0.05746084,-0.045489833,-9.835381,11.832727,0,0,0,0,1
132168000,132168000,1310988,-0.047884032,0.011971008,-9.698911,11.832727,0,0,0,0,1
133168000,133168000,1310988,0.06703765,-0.02873042,-9.854534,11.832727,0,0,0,0,1
134168000,134168000,1310988,0.023942016,-0.06703765,-9.76116,11.832727,0,0,0,0,1
135168000,135168000,1310988,-0.02873042,0.05746084,-9.753978,11.832727,0,0,0,0,1
136168000,136168000,1310988,0.12210429,-0.04309563,-9.782708,11.832727,0,0,0,0,1
137168000,137168000,1310988,0.021547815,-0.031124622,-9.703699,11.832727,0,0,0,0,1
138168000,138168000,1310988,-0.06703765,-0.011971008,-9.751583,11.832727,0,0,0,0,1
139168000,139168000,1310988,-0.009576807,-0.107739076,-9.976639,11.832727,0,0,0,0,1
140168000,140168000,1310988,0.047884032,0.06703765,-9.746795,11.832727,0,0,0,0,1
141168000,141168000,1310988,0.033518825,-0.045489833,-9.758766,11.832727,0,0,0,0,1
142168000,142168000,1310988,0.016759412,-0.047884032,-9.792285,11.832727,0,0,0,0,1
143168000,143168000,1310988,-0.021547815,-0.02873042,-9.895236,11.832727,0,0,0,0,1
144168000,144168000,1310988,0.1364695,-0.047884032,-9.6845455,11.832727,0,0,0,0,1
145168000,145168000,1310988,0.11731588,0.08379706,-9.813833,11.832727,0,0,0,0,1
146168000,146168000,1310988,-0.0047884034,-0.04070143,-9.952697,11.832727,0,0,0,0,1
147168000,147168000,1310988,0.05746084,0.0047884034,-9.842564,11.832727,0,0,0,0,1
148168000,148168000,1310988,0.08140286,0.059855044,-9.895236,11.832727,0,0,0,0,1
149168000,149168000,1310988,0.021547815,-0.08379706,-9.890448,11.832727,0,0,0,0,1
150168000,150168000,1310988,0.01436521,-0.021547815,-9.691729,11.832727,0,0,0,0,1
151168000,151168000,1310988,-0.02633622,-0.045489833,-9.864111,11.832727,0,0,0,0,1
152168000,152168000,1310988,-0.021547815,0.093373865,-9.9790325,11.832727,0,0,0,0,1
153168000,153168000,1310988,-0.038307227,-0.09816227,-9.773131,11.832727,0,0,0,0,1
154168000,154168000,1310988,0.0,-0.062249243,-9.660604,11.832727,0,0,0,0,1
155168000,155168000,1310988,0.055066638,-0.019153614,-9.689334,11.832727,0,0,0,0,1
156168000,156168000,1310988,-0.019153614,0.016759412,-9.768343,11.832727,0,0,0,0,1
157168000,157168000,1310988,-0.04309563,-0.04309563,-9.701305,11.832727,0,0,0,0,1
158168000,158168000,1310988,0.074220255,0.02633622,-9.880871,11.832727,0,0,0,0,1
159168000,159168000,1310988,0.090979666,-0.007182605,-9.888053,11.832727,0,0,0,0,1
160168000,160168000,1310988,-0.01436521,-0.016759412,-9.816227,11.832727,0,0,0,0,1
161168000,161168000,1310988,0.10055647,-0.02633622,-9.911995,11.832727,0,0,0,0,1
162168000,162168000,1310988,-0.08379706,0.0,-9.928755,11.832727,0,0,0,0,1
163168000,163168000,1310988,0.05267244,-0.023942016,-9.785102,11.832727,0,0,0,0,1
164168000,164168000,1310988,0.035913024,-0.0023942017,-9.907207,11.832727,0,0,0,0,1
165168000,165168000,1310988,-0.016759412,-0.079008654,-9.859323,11.832727,0,0,0,0,1
166168000,166168000,1310988,0.1364695,-0.088585466,-9.811439,11.832727,0,0,0,0,1
167168000,167168000,1310988,-0.095768064,0.047884032,-9.653421,11.832727,0,0,0,0,1
168168000,168168000,1310988,0.023942016,0.035913024,-9.773131,11.832727,0,0,0,0,1
169168000,169168000,1310988,0.06943185,-0.110133275,-9.737218,11.832727,0,0,0,0,1
170168000,170168000,1310988,0.12449849,-0.12210429,-9.80665,11.832727,0,0,0,0,1
171168000,171168000,1310988,-0.079008654,-0.01436521,-9.730036,11.832727,0,0,0,0,1
172168000,172168000,1310988,0.11731588,-0.09816227,-9.876082,11.832727,0,0,0,0,1
173168000,173168000,1310988,0.045489833,0.01436521,-9.634268,11.832727,0,0,0,0,1
174168000,174168000,1310988,0.1340753,-0.009576807,-9.80665,11.832727,0,0,0,0,1
175168000,175168000,1310988,0.007182605,0.11971009,-9.821015,11.832727,0,0,0,0,1
176168000,176168000,1310988,0.055066638,0.06943185,-9.816227,11.832727,0,0,0,0,1
177168000,177168000,1310988,0.055066638,0.107739076,-9.787497,11.832727,0,0,0,0,1
178168000,178168000,1310988,0.02633622,0.0047884034,-9.849746,11.832727,0,0,0,0,1
179168000,179168000,1310988,-0.009576807,-0.11971009,-9.725247,11.832727,0,0,0,0,1
180168000,180168000,1310988,-0.011971008,-0.01436521,-9.715671,11.832727,0,0,0,0,1
