timestamp,timestamp_sample,xyz[0],xyz[1],xyz[2],xyz_derivative[0],xyz_derivative[1],xyz_derivative[2]
1264000,1264000,-0.007410735,-0.008540497,0.00059745455,-0.40938982,-0.6232722,0.31188244
1268000,1268000,-0.006861797,-0.009514403,-0.00025708406,-0.2265379,-0.49622625,0.13609108
1276000,1276000,0.0071255527,-0.00024582006,0.0018564063,0.9236311,0.5027764,0.26485333
1284000,1284000,0.002629046,0.0020792163,-0.0029261238,0.021982253,0.30031884,-0.29606292
1296000,1296000,-0.0032083034,0.005771503,0.002790188,-0.40219408,0.45476437,0.47690266
1304000,1304000,-0.0068955836,0.0030352636,-0.0029494113,-0.39054337,-0.104845285,-0.18747339
1316000,1316000,0.010838953,-0.011218511,0.00835741,0.7558979,-0.60615146,0.45956445
1324000,1324000,0.003023386,-0.015220839,0.009571725,-0.19113639,-0.6097498,0.3488012
1336000,1336000,0.0071666185,-0.011081277,0.019016124,0.27679712,0.113834225,0.5291133
1344000,1344000,-4.4069253e-05,-0.008112869,0.010207445,-0.4051248,0.1788398,-0.37649482
1356000,1356000,-0.0066334605,-0.008956852,-0.0025776157,-0.4300837,0.18068251,-0.7950798
1364000,1364000,0.0035792259,0.00077133556,-0.0011693769,0.5663864,0.6986122,-0.20478134
1376000,1376000,0.0019125628,0.009899106,0.0039341897,-0.1603587,0.9119252,0.20481479
1384000,1384000,-5.6143326e-06,0.0016897689,0.0020915205,-0.1655445,-0.33520293,-0.010919913
1396000,1396000,0.005078695,-0.007897672,0.011723919,0.2478056,-0.34065968,0.43779102
1404000,1404000,0.008336615,-0.004479184,0.00036752023,0.39436483,0.10644119,-0.52777785
1416000,1416000,-0.00028129353,-0.0046722833,-0.008484995,-0.60325205,0.06081465,-0.7840047
1424000,1424000,-0.0037617155,0.009365315,-0.0028638877,-0.53538966,0.9676713,0.023156779
1436000,1436000,0.0027521732,-0.0064375764,-0.00853801,0.4023199,-0.6304183,-0.487475
1444000,1444000,0.017436016,-0.0061795535,-0.0128905,1.1919799,-0.26726106,-0.3980443
1456000,1456000,-0.0013128617,-0.0013396085,-0.004650002,-0.71312475,0.23371252,0.207735
1464000,1464000,-0.013541596,0.00028151763,-0.0103638135,-1.1970048,0.1716884,-0.31891093
1476000,1476000,-0.0024533235,-0.002721976,-0.0034224251,0.47187775,0.0430805,0.41179955
1484000,1484000,0.0091683315,-0.0014269183,-0.0044004964,1.0914323,0.049002796,0.08876465
1496000,1496000,0.0039007221,-0.013091415,-0.005226852,-0.21161377,-0.5703439,-0.017790483
1504000,1504000,-0.0038313651,-0.0028165064,-0.00931311,-0.69322836,0.51494026,-0.35591498
1512000,1512000,-0.01563456,0.009534658,0.0039021068,-0.98023844,1.0401856,0.84817827
1524000,1524000,-0.0009496908,-0.0021023813,-0.010918304,0.4878804,-0.5127607,-0.87760377
1536000,1536000,0.00519445,0.007892777,-0.00055173796,0.4408298,0.47706932,0.71436363
1544000,1544000,0.003602045,-0.01356864,-0.0026182083,0.06710681,-1.2995527,0.10109583
1556000,1556000,-0.006338919,-0.00852652,0.007921086,-0.4879881,0.11414097,0.8702023
1564000,1564000,0.001612746,-0.012526882,0.01639647,0.40651044,-0.2978199,0.8522117
1576000,1576000,0.005092008,0.00026625587,-0.016011603,-0.067260146,0.5414903,-1.5007503
1584000,1584000,-0.0039671888,-0.011820865,-0.0038754658,-0.60410994,-0.5833422,0.23234914
1596000,1596000,0.0009268067,-0.002487106,0.0053363107,0.20545924,0.25808626,0.5836383
1604000,1604000,0.0002875349,-0.008021675,0.01811587,0.099806696,-0.19952579,1.1104336
1616000,1616000,0.013080285,0.016187627,0.0012558682,0.44614553,1.3032447,-0.78166246
1624000,1624000,0.0064248345,0.0038263747,-0.0007748691,-0.25008032,-0.32707262,-0.43596503
1636000,1636000,-0.00089606026,-0.007204683,0.002317475,-0.27123088,-0.7514775,0.18394853
1644000,1644000,-0.008625131,-0.012225886,0.013450529,-0.7387912,-0.6269511,0.84717226
1656000,1656000,0.007000532,0.0077757947,0.0056128423,0.877118,1.009733,-0.2752343
1664000,1664000,0.005817752,0.008921004,0.010158634,0.24664715,0.45521668,0.106984295
1676000,1676000,0.0027408742,-0.0020229232,-0.007928679,-0.15481377,-0.492685,-0.97428143
1684000,1684000,-0.002216422,0.0011885477,-0.009247915,-0.38806456,0.16557755,-0.46892485
1696000,1696000,0.00018332916,0.0065784315,-0.00075820007,0.0023155175,-0.09567196,0.24873617
1704000,1704000,0.0044674654,0.007248766,0.004940075,0.31178436,0.03929848,0.5417648
1712000,1712000,0.018759634,-0.007325376,0.00017635232,1.1971505,-1.0340881,-0.18928103
1724000,1724000,0.015760452,0.0049417126,-0.0034555297,-0.30935222,0.64109427,-0.10513432
1736000,1736000,0.003591002,0.0033320668,0.0064236564,-0.6971882,-0.0014245901,0.53255206
1744000,1744000,-0.003834148,0.013483521,-0.0048105083,-0.85563016,0.6412366,-0.5716687
1756000,1756000,-0.0026368964,0.0026555627,0.015467463,0.15507591,-0.04951718,1.4250469
1764000,1764000,0.008401555,0.013659844,0.017417945,0.7891351,0.60756046,0.49943256
1776000,1776000,0.0075908443,-0.004060664,0.01118801,0.22701451,-0.7463442,0.33749026
1784000,1784000,-0.0017201414,-0.0009929325,0.0033535843,-0.6546128,-0.07766067,-0.5147643
1796000,1796000,0.0011353493,-0.0030831448,0.0026442343,0.35694385,-0.2184369,0.1017785
1804000,1804000,0.005301091,0.012119765,0.01356432,0.37626654,1.035065,0.67776287
1816000,1816000,-0.00442894,0.0021235822,-0.0054608798,-0.5070692,-0.5038367,-0.7153363
1824000,1824000,0.0035108812,-0.0012526179,-0.0030836281,0.370639,-0.42910063,-0.25902113
1836000,1836000,0.008944668,0.006814995,-0.0051784106,0.4675354,0.37233275,-0.05140484
1844000,1844000,0.012110713,0.0049133664,-0.0010079744,0.41995355,-0.009015118,0.2905365
1856000,1856000,0.006709286,0.0045658005,0.0033839142,-0.4107496,0.039131146,0.23265937
1864000,1864000,-0.007182488,0.0022493568,0.0052606994,-1.0432751,-0.24209473,0.35789657
1876000,1876000,-0.00081331737,0.002137396,0.023767143,-0.093146354,0.16306417,1.1706855
1884000,1884000,-0.0057072835,0.01564961,0.022537239,-0.29778203,0.96788156,0.36205104
1896000,1896000,0.019483833,0.0013620558,-0.0059146085,1.3574953,-0.69599885,-1.3710296
1904000,1904000,0.012316757,-0.007722569,0.0016139703,0.015619159,-0.8577772,-0.07713111
1916000,1916000,-0.0038895016,0.00073345785,0.0131109115,-0.6868721,0.19165482,0.7270752
1924000,1924000,0.0103753405,-0.0013079214,0.019034222,0.6400076,-0.10240757,0.61410904
1936000,1936000,0.0045440295,-0.002710399,-0.016247464,-0.26773494,-0.08986819,-1.6537331
1944000,1944000,-0.0041991817,0.0057727075,-0.0018388035,-0.62118727,0.6075371,0.26561993
1956000,1956000,0.0084572965,-0.004278589,-0.0032229924,0.6417096,-0.61961186,0.3244313
1964000,1964000,0.01006633,-9.297114e-05,-0.0013984875,0.33854383,0.12593687,0.20271388
1976000,1976000,0.0032659473,-0.004064249,-0.0076278164,0.14656109,-0.11269346,-0.1722778
1984000,1984000,0.008413618,0.008018296,-0.009108158,0.27702436,0.82406753,-0.16529225
1996000,1996000,-0.0018815136,-0.009312439,-0.0087875165,-0.2384361,-0.8979598,-0.21590593
2004000,2004000,0.0027710602,0.0048429254,-0.0047337143,0.12057482,0.67876536,0.30792278
2016000,2016000,0.0011673414,0.0052222996,0.0041463366,0.1071057,-0.055909224,0.4166283
2024000,2024000,-4.159729e-05,-0.014054572,-0.0062736673,-0.14291015,-1.4061143,-0.5840901
2036000,2036000,-0.0028091175,0.0012292964,0.0049061393,0.113090694,0.8115406,0.6788458
2044000,2044000,0.0007997111,0.0131659405,0.005515027,0.2485092,1.1454307,0.2149569
2056000,2056000,0.0004015083,-0.018769138,-0.0046218894,0.01733248,-1.6760333,-0.34844595
2064000,2064000,-0.008582894,-0.010074586,-0.001674662,-0.6644565,-0.02708733,0.005060842
2076000,2076000,-0.0062961457,-0.0026263655,-0.0136659965,0.123247534,0.0748216,-0.62730896
2084000,2084000,-0.009919974,-0.01899464,-0.0013181451,-0.2175171,-1.0360323,0.65632683
2096000,2096000,-0.0024080076,-0.010733533,-0.00022956543,0.44632334,0.32312024,0.14483267
2104000,2104000,-0.009010102,-0.00604004,0.0014180935,-0.37100884,0.44412678,0.25619113
2116000,2116000,-0.007803591,-0.0020926846,0.0045955665,0.4498607,0.3354298,0.11780714
2124000,2124000,0.0149728395,-0.016451646,0.012143321,1.7678702,-0.84928,0.5877108
2136000,2136000,-0.007315436,-0.006230659,0.0057945503,-1.0901338,0.4325996,-0.53576714
2144000,2144000,-0.008989273,-0.00417843,-0.0029122762,-0.506429,0.27272007,-0.761001
2156000,2156000,-0.0053971354,-0.0015814241,-0.0010326033,0.035230223,0.4033646,-0.15899985
2164000,2164000,0.0021087108,0.007975017,0.010259803,0.5603988,0.78235835,0.7419659
2176000,2176000,0.011265507,-0.0055305846,-0.012530218,0.7303533,-0.6570981,-1.3688166
2184000,2184000,0.006457454,-0.009560102,-0.015665222,-0.07779026,-0.4711547,-0.70756894
2196000,2196000,-0.012354942,0.0009168263,0.0015332797,-0.9092252,0.36418867,0.8972299
2204000,2204000,0.0010155253,0.005555746,-0.011313184,0.5179684,0.49823117,-0.61343396
2216000,2216000,0.011660606,-0.0015651421,0.0033594598,0.95323914,-0.29394215,0.98487115
2224000,2224000,0.0046721944,-0.0005760351,0.0079171,-0.18981045,-0.060413335,0.6854218
2236000,2236000,-0.0061010653,-0.010276862,0.0042970763,-0.8076965,-0.6299232,0.0045675226
2244000,2244000,-0.0076956605,0.000107268104,-0.0074434006,-0.33240765,0.4733675,-0.7905748
2256000,2256000,-0.010877544,-0.009149188,0.0035824934,-0.392432,-0.59634066,0.5511317
2264000,2264000,-0.010480568,-0.010166413,0.0016080905,-0.11702022,-0.32057577,0.0074563567
2276000,2276000,-0.009026282,-0.014443568,-0.014247916,0.0607858,-0.33913115,-0.6726402
2284000,2284000,-0.0048122047,-0.015765406,-0.017511187,0.36026585,-0.23312075,-0.5953392
2296000,2296000,0.0023021088,-0.01566031,-0.017078161,0.23392832,0.02856183,-0.0416902
2304000,2304000,-0.00718414,0.014742891,-0.006234347,-0.5476872,2.1351676,0.84125763
2316000,2316000,-0.015057124,-0.015834322,0.0048915353,-0.33228785,-1.4315757,0.56830937
2324000,2324000,0.00841251,-0.021339556,-0.005486277,1.4303098,-0.86513567,-0.49171078
2336000,2336000,0.0046353345,-0.0018345461,-0.007433822,0.11904213,0.74304867,-0.11236794
2344000,2344000,0.008369802,-0.006455751,-0.0023052415,0.44792464,-0.11388404,0.31718737
2356000,2356000,-0.0066278195,0.0005264011,0.0053084777,-1.1788065,0.5196949,0.28710866
2360000,2360000,-0.008599266,-0.0021965923,-0.0030411289,-0.94935036,0.118133254,-0.50719154
2376000,2376000,0.009830192,-0.00023586623,-0.0069838553,1.0183265,0.51162875,0.10592765
2384000,2384000,0.01072875,0.008939145,0.0022798758,0.42750305,0.85624945,0.657606
2392000,2392000,0.011293681,0.008961628,0.004467983,0.31078047,0.34459907,0.43877763
2404000,2404000,-0.005021888,0.0010500831,0.01133652,-1.1866941,-0.44660208,0.6979697
2412000,2412000,-0.0057582287,-0.006141129,0.0001879679,-0.46421486,-0.6535382,-0.65128917
2424000,2424000,-0.01633114,0.0003763272,-0.0069972817,-1.108326,-0.08099305,-0.2942598
2436000,2436000,-0.033865307,0.0014943794,-0.0066391923,-1.1413459,0.13040976,-0.21610615
2444000,2444000,-0.004718202,0.0032366733,0.0030146632,1.5210346,0.1982372,0.64561605
2456000,2456000,0.011001274,0.008640165,0.013858981,1.3346733,0.31026947,0.80559385
2464000,2464000,-0.0076634395,-0.002991447,0.003304536,-0.7523635,-0.6304146,-0.4010471
2476000,2476000,-0.013216782,-0.0058413716,-0.0018263478,-0.59421515,-0.42986006,-0.61931205
2484000,2484000,-0.011316663,-0.0041011423,-0.013572477,-0.0346421,-0.03355242,-0.9988437
2496000,2496000,-0.010325326,0.0010203506,0.016686313,0.020334229,0.33006677,1.4418871
2504000,2504000,-0.0024963128,-0.007125126,0.010374958,0.50000715,-0.41340888,0.2031608
2516000,2516000,-0.0053259274,0.008278391,0.010994466,0.11815359,0.54368484,0.14912103
2524000,2524000,-0.007987788,-0.017550422,-0.0014712971,-0.17914492,-1.4686474,-0.8703224
2536000,2536000,-0.0056664106,-0.004866298,0.014662016,0.30398855,0.2965978,1.02864
2544000,2544000,-0.012716854,-0.006482745,0.01004491,-0.40172023,0.03987374,0.01117915
2552000,2552000,-0.0030463496,-0.008038693,-0.000113985734,0.5450818,-0.12246646,-0.69548666
2564000,2564000,-0.005103561,-0.0058851987,0.0036310754,-0.10801551,0.022107057,-0.008048564
2576000,2576000,-0.0082890205,0.007410427,-0.010132924,-0.3398954,0.75903624,-0.68197346
2584000,2584000,-0.006970659,0.0001917259,-0.007241814,-0.054365963,-0.18623146,-0.111941755
2596000,2596000,-0.0033472977,-0.0010046747,0.006150881,0.35067153,-0.2074277,0.64993495
2604000,2604000,0.00045457762,-0.020716116,-1.1598342e-05,0.3584915,-1.4763769,-0.1156786
2616000,2616000,-0.004673737,-0.013715408,-0.0036593466,-0.18958306,0.1996879,-0.35439807
2620000,2620000,-0.009936523,-0.005636783,-0.0053024585,-0.5662805,0.8084876,-0.37325782
2636000,2636000,-0.0040047034,0.0011010403,-0.009444794,0.38888508,-0.19874881,-0.42733127
2644000,2644000,-0.013554247,0.004268154,-0.012827517,-0.4525642,0.1652177,-0.38222134
2656000,2656000,-0.012804776,0.006410171,-0.0028626919,-0.2022683,0.072738014,0.30380046
2664000,2664000,0.00022531464,-0.010791729,0.007975135,0.88470864,-1.187949,0.9270377
2676000,2676000,-0.010244451,0.006634209,0.0059122792,-0.36587146,0.78674686,0.07628901
2684000,2684000,-0.008408347,0.00050803897,-0.0009805354,-0.022584587,-0.07706001,-0.42684847
2696000,2696000,-0.009974087,0.0060150023,0.005823614,-0.27087533,0.17556176,0.14381526
2704000,2704000,-0.010162467,-0.009081546,0.01372871,-0.020339549,-0.960639,0.6775794
2716000,2716000,-0.009493893,0.0065805535,-0.006147413,-0.20214158,0.71749055,-1.2822317
2724000,2724000,-0.01027064,0.002118478,-0.008856596,-0.09720299,-0.03664132,-0.68987346
2736000,2736000,-0.00040152017,-0.00064948224,0.001186939,0.44598243,-0.47086203,0.43603763
2744000,2744000,-0.009919953,-0.014943647,-0.005528295,-0.37130708,-1.1485758,-0.30691
2756000,2756000,0.0036791246,-0.006459061,0.010959725,0.4654106,0.36341783,0.8826258
2764000,2764000,-0.0011256606,0.003004115,-0.004206415,-0.15606564,0.74685127,-0.6949651
2776000,2776000,-0.0034242799,-5.778449e-06,-0.0035973776,-0.18174578,0.10996764,0.071145
2784000,2784000,0.004544797,-0.0020000497,0.013724014,0.49752384,-0.124916635,1.1514004
2796000,2796000,0.006538817,-0.0061657024,-0.005787519,0.28109327,-0.23799981,-0.7095947
2804000,2804000,-0.007176056,-0.006474639,-0.006894729,-0.93882674,-0.10424138,-0.32721338
2816000,2816000,-0.0038777469,-0.0053071305,0.012270704,0.26525474,0.17279865,1.0832869
2824000,2824000,0.0005583471,0.009842931,0.00076588313,0.33242652,1.0666307,-0.42623106
2836000,2836000,-0.0071391608,-0.009660265,-0.00441012,-0.14866722,-0.8901429,-0.37639347
2844000,2844000,0.004828406,-0.0046782736,-0.008411911,0.75052935,0.003875084,-0.41186708
2856000,2856000,0.002513492,-0.0040017595,0.0070048748,0.026737154,0.09760872,1.0378177
2864000,2864000,-0.0062463586,-0.0022641048,0.009423619,-0.5976815,0.20040514,0.4136181
2876000,2876000,-0.0025532309,-0.00199772,-0.0032713725,0.12963188,-0.147029,-0.43425527
2884000,2884000,0.0001578388,0.00011583284,0.0058217067,0.200188,0.14316007,0.47132346
2896000,2896000,-0.015804965,0.00082065107,-0.0009456433,-0.967312,-0.13076858,-0.6625934
2904000,2904000,-0.007859211,0.0032941778,-0.022458686,0.18406057,0.20041971,-1.6215831
2916000,2916000,-0.009751806,0.0082405405,-0.004284652,-0.045857377,0.04214679,0.536095
2924000,2924000,-0.0011647665,-0.0012602067,-0.0028966996,0.5885235,-0.5921586,0.33787316
2936000,2936000,-0.0027073731,0.007988282,0.0020179546,-0.060540557,0.2734024,0.5022564
2944000,2944000,-0.0023019812,0.0038424642,-0.0008471571,0.113355994,-0.17514877,-0.059847
2956000,2956000,0.01411492,-0.00090398337,0.0037984697,0.5326516,-0.19697082,0.15728295
2964000,2964000,0.0075866007,0.0043433807,0.0007064112,-0.14168419,0.29695725,-0.078133576
2976000,2976000,-0.0057972847,-0.0027961102,-0.005595275,-0.9367149,-0.14776085,-0.6185683
2984000,2984000,-0.014070712,0.012541084,-0.006094501,-0.95746183,0.8845676,-0.22733785
2996000,2996000,-0.0027121538,-0.0058162226,-0.0028951077,0.2600568,-0.6995249,-0.053509485
3004000,3004000,-0.028908355,0.00046349163,-0.011995759,-1.7185394,0.081834294,-0.63559264
3016000,3016000,0.0035443706,-0.0047275643,-0.0040321536,1.7617623,-0.49957368,0.45284423
3024000,3024000,0.0017348119,-0.006912853,-0.006276071,0.4548235,-0.33301377,-0.088067956
3036000,3036000,-0.001445822,-0.0074854544,-0.009029675,0.14826195,-0.18900415,-0.17865552
3044000,3044000,0.0040240837,0.0020937596,0.0020244562,0.41277137,0.6127556,0.8994105
3056000,3056000,0.00272148,-0.0073596765,0.014187258,0.051959563,-0.4176843,0.49885887
3064000,3064000,-0.002221696,-0.025146123,0.005640032,-0.34828663,-1.3620799,-0.44982898
3076000,3076000,-0.009545247,0.0040248362,0.0016331391,-0.55986047,1.4064472,-0.26430115
3084000,3084000,-0.010596918,0.0013611238,0.006711318,-0.2297664,0.4365983,0.30728063
3096000,3096000,0.0046273414,0.0136304675,-0.0060577695,0.75726646,0.82919925,-0.8732374
3104000,3104000,0.0133894,0.005599879,0.0003451137,0.9250772,-0.28981775,0.11818787
3116000,3116000,0.0042849192,0.00017678417,-0.0029608621,-0.24677311,-0.17555931,-0.35268342
3124000,3124000,0.014174782,0.0048004286,-0.004727691,0.5811863,0.2574644,-0.1980254
3136000,3136000,-0.0095184315,0.015902385,-0.0011298413,-1.2275535,0.58680654,0.121579014
3144000,3144000,-0.003546041,-0.0059924894,0.0045411875,-0.09599292,-1.2918295,0.43447578
3156000,3156000,-0.0025139693,0.0025372629,0.0025333993,0.13782062,0.3331598,0.3230198
3164000,3164000,-0.008675081,0.006187568,0.0010745784,-0.4796931,0.2750252,-0.09643888
3176000,3176000,0.0047857175,-0.0022388739,-0.003970114,0.82051456,-0.10832441,-0.15823337
3184000,3184000,-0.0029370748,-0.0044527645,0.0049563507,-0.20030862,-0.19267604,0.56754345
3196000,3196000,-0.0017302375,-0.00010437594,0.016427837,0.14511833,0.10741666,0.80044276
3204000,3204000,-0.0026135044,-0.006122075,0.00039514992,-0.03531654,-0.44391322,-0.78129375
3216000,3216000,-0.0018396454,0.0039783358,-0.010357299,0.4408726,0.65884304,-0.9907628
3224000,3224000,0.0069628106,-0.0041256277,-0.009268255,0.61424035,-0.25060487,-0.26549262
3236000,3236000,-0.007412603,-0.010408917,0.0043963883,-0.31013322,-0.35081068,0.86932397
3244000,3244000,-0.0049677966,-0.0038201134,-0.0013292134,-0.095185935,0.3509968,-0.17539209
3256000,3256000,-0.003913741,-0.00054259435,0.0062645106,0.4963305,0.0725823,0.49009126
3264000,3264000,-0.0018982058,-0.004186931,0.00034099026,0.2559907,-0.20720135,-0.15812662
3276000,3276000,0.0029215736,-0.0017654332,-0.0009545579,0.16005158,0.14426076,-0.33943135
3284000,3284000,-0.014523787,0.014373332,-0.012000477,-1.033936,1.3072202,-0.8649437
3296000,3296000,0.015851794,0.01138459,-0.007765884,1.4269583,-0.28378284,0.006157393
3304000,3304000,-0.0022854677,-0.0029672612,-0.010228523,-0.71840996,-1.060606,-0.18040095
3316000,3316000,0.0030706248,0.0017400153,-0.003789662,0.26588595,0.031591114,0.19279462
3324000,3324000,-0.0038707338,0.0105041675,-0.0032817353,-0.43398172,0.6113912,0.13054782
3336000,3336000,-0.004464427,0.006172374,-0.0087855235,0.16477913,0.01805401,-0.15799206
3344000,3344000,0.0066641914,-0.0001140962,0.003136672,0.706921,-0.5591727,0.7879375
3356000,3356000,0.0014557729,0.003645682,-0.00050538033,0.04418601,0.10460469,-0.20571947
3364000,3364000,-0.001932915,-0.011341356,-0.0027669815,-0.27304676,-0.9923018,-0.17714725
3376000,3376000,-0.0037656098,-0.014059296,-0.0067392057,0.054541767,-0.4668113,-0.3921373
3384000,3384000,0.013762418,-0.00057036086,0.0017140852,1.1870619,0.86842626,0.5149839
3396000,3396000,0.00083664607,0.0052725757,-0.006363018,-0.53175855,0.45002148,-0.62098944
3404000,3404000,0.004663094,0.0013385024,-0.008133618,0.112169534,-0.060242884,-0.38567644
3416000,3416000,0.0015817757,-0.00018173651,0.0024639126,-0.27092463,-0.275665,0.82883435
3424000,3424000,0.0076582776,-0.0020787867,0.0022166562,0.18782605,-0.27373794,0.24192387
3436000,3436000,-0.00426028,-0.003977412,0.00529691,-0.3523582,0.0006292387,0.4287125
3444000,3444000,-0.015916595,-0.00031381214,0.001878486,-0.9924786,0.16090882,-0.1046603
3456000,3456000,-0.012252895,0.015603686,-0.01601141,-0.08379629,1.1155354,-1.2750535
3464000,3464000,-0.008013967,0.004528114,-0.021494757,0.27074653,-0.34763834,-0.9134746
3476000,3476000,-0.0067095067,0.012818581,0.011789589,0.075466946,0.5022208,1.6848571
3480000,3480000,-0.010097645,0.0133632785,0.0072163586,-0.23312013,0.37977415,0.73880446
3496000,3496000,0.0032401162,-0.00989552,-0.0026001674,1.2814045,-1.0470098,-0.36873627
3504000,3504000,0.010180673,0.0050052158,-0.013399325,0.91008717,0.4923315,-0.74379504
3516000,3516000,0.0067487974,0.005985057,-0.0053587016,-0.014758408,0.20388404,0.20406769
3524000,3524000,-8.720951e-05,-0.0010827973,-0.0034431792,-0.3912915,-0.4728353,0.16805899
3536000,3536000,0.01340023,0.014656486,-0.0041823657,0.60304624,1.0819936,-0.05567747
3544000,3544000,0.009138095,-0.0008849959,-0.0072791236,-0.14510816,-0.69463307,-0.17923845
3556000,3556000,-0.015470381,0.0007575168,-0.011309566,-1.4922466,-0.057569124,-0.5313481
3564000,3564000,-0.016685786,-0.016353797,-0.013743555,-0.6006061,-1.3220139,-0.3636403
3576000,3576000,0.0032758818,0.00013779204,0.0056222845,0.92657715,1.0381527,0.93846476
3584000,3584000,-0.0031340325,0.009749414,0.0004960906,-0.078887254,0.9508362,0.086765885
3596000,3596000,-0.0006109002,8.513582e-05,-0.0148974545,0.19723897,-0.07032079,-0.8934457
3604000,3604000,-0.0002483715,-0.017306888,-0.008234514,0.18930124,-1.2069718,0.14452581
3616000,3616000,0.0044530984,-0.00392884,0.007170683,0.034491062,0.29993382,0.67434645
3624000,3624000,0.008830226,0.00014114853,-0.0062500387,0.4081173,0.48358208,-0.6866514
3636000,3636000,0.005366717,0.0050905314,-0.0019063867,-0.28788882,0.19943635,0.5397047
3644000,3644000,0.0019948052,0.006477607,0.00051275245,-0.32797632,0.24503541,0.27258134
3656000,3656000,0.009427102,-0.00037185318,0.0011341083,0.34341112,-0.4861984,0.22463289
3664000,3664000,0.005697171,-0.0072448957,-0.0054337885,-0.16180164,-0.6727977,-0.39499032
3676000,3676000,0.00017945486,0.0008913118,-0.0006926856,-0.29724032,0.2529495,0.35386902
3684000,3684000,-0.0034754307,-0.0013257682,0.0010118685,-0.360263,-0.051716346,0.18898213
3696000,3696000,-0.00016805547,-0.0012462536,-0.00031001517,0.025168523,0.18641484,-0.015862796
3704000,3704000,-0.008858915,0.007695203,-0.00040659693,-0.6074178,0.709654,0.030778764
3716000,3716000,0.009140905,0.0067611746,4.156225e-05,0.8547252,-0.1764754,-0.047546636
3724000,3724000,0.0021705579,0.0022782478,-0.0006338224,-0.07722482,-0.3113745,-0.10640056
3736000,3736000,0.0047465,0.01012344,-0.002297968,0.10287953,0.19482622,-0.060248036
3744000,3744000,0.003596359,0.002109608,-0.008090645,-0.020890731,-0.4668492,-0.3925663
3756000,3756000,-0.005038332,-0.0035951943,-0.0054184794,-0.5952022,-0.45175144,0.058920674
3764000,3764000,-0.0036393078,0.0045454814,-0.012610735,-0.05701512,0.39873484,-0.5293863
3776000,3776000,0.0011018296,-0.0057849563,-0.012606872,-0.09989667,-0.6586911,-0.17955105
3784000,3784000,0.004392076,0.0019352443,0.001482399,0.22839087,0.38124034,0.99965835
3796000,3796000,0.0008553487,0.010868305,0.011959071,0.10781634,0.44939345,0.49118972
3804000,3804000,-0.0018445242,0.0048489617,-0.0024762661,-0.15720046,-0.27560407,-0.6756047
3816000,3816000,-0.0028579377,0.010741779,0.01697202,-0.052674934,0.71577054,0.7604808
3824000,3824000,-0.006586436,0.025167093,-0.0045569986,-0.34277606,1.1675336,-1.2012076
3836000,3836000,-0.0038624331,0.0054915263,-0.0068172603,0.19047844,-0.9000169,-0.27366886
3844000,3844000,0.00973988,0.0010448586,-0.0071658767,1.0840219,-0.63179344,-0.10407203
3856000,3856000,0.0045776786,0.010933169,-0.0069639967,-0.10317361,0.38129753,-0.12677789
3864000,3864000,0.003766681,0.006534489,-0.008654884,-0.14546242,-0.18773475,-0.16274673
3876000,3876000,0.015551838,-0.0013674891,0.00021392247,0.79655015,-0.1650904,0.6753484
3884000,3884000,0.004687069,-8.80716e-05,-0.0038782856,-0.49912202,-0.009662644,-0.043437302
3896000,3896000,0.00030940567,-0.008856084,0.010263842,-0.41213852,-0.5775529,0.8788795
3904000,3904000,-0.0070387158,-0.0031399522,0.009567584,-0.6724487,0.13003764,0.2295456
3916000,3916000,-0.0070431237,-0.00074082264,-0.003575582,-0.09756598,0.2447334,-0.42367774
3924000,3924000,0.016156103,-6.659009e-05,-0.013613186,1.552186,0.04091807,-0.9651922
3936000,3936000,-0.01021958,0.004655141,0.0067043994,-1.185267,0.6948936,1.2140036
3944000,3944000,-0.0060322573,0.007206833,0.006261767,-0.18555641,0.3237877,0.29415238
3956000,3956000,-0.0063643646,-0.008707969,-0.008319819,0.05431676,-0.6238674,-0.31532222
3964000,3964000,-0.00028937642,0.01151917,-0.0065077553,0.38143486,1.1920931,-0.03421298
3976000,3976000,-0.006635815,-0.011244375,0.013262724,-0.22332472,-1.3443489,0.96494067
3984000,3984000,-0.010551958,-0.0063638827,-0.0039153975,-0.36048603,-0.11573492,-0.77375835
3996000,3996000,-0.0017453075,0.0049048746,0.0020375894,0.47396758,0.29180032,0.3074391
4004000,4004000,-0.0039276453,0.0045545376,0.013872738,0.00578773,0.1465834,0.90789473
4016000,4016000,-0.00046499685,-0.005181742,0.0016950308,0.15851595,-0.31071046,-0.4429869
4024000,4024000,-0.007998547,-0.00206846,-0.009331888,-0.38936862,0.05646632,-0.9428928
4036000,4036000,-0.0016126895,0.010334271,0.009203792,0.31256303,0.7506269,0.7833189
4044000,4044000,0.0017160781,0.005513571,0.006133244,0.30252618,-0.021576198,0.10126394
4056000,4056000,-2.0682579e-05,-0.002322656,-0.012661968,0.14618668,-0.6791512,-1.2523725
4064000,4064000,-0.0043658614,-0.0049635973,-0.009313662,-0.24774304,-0.36636508,-0.20127612
4076000,4076000,-0.0090071,0.0021883918,-0.00019354501,-0.43592435,0.06744238,0.2365238
4084000,4084000,-0.0077850935,-0.0057664425,0.006496035,-0.10592139,-0.46470168,0.586515
4096000,4096000,0.000505605,0.0022375886,-0.0052841823,0.47538763,0.38723242,-0.44367307
4104000,4104000,-0.0034521646,0.008418251,-0.014880987,-0.046824038,0.507351,-0.86814517
4116000,4116000,-0.015864728,-0.0013358968,-0.009463267,-0.8414342,-0.32475585,0.06247417
4124000,4124000,-0.0078049693,0.0027944038,0.0041542836,0.16744104,0.11519172,0.98590004
4136000,4136000,-0.009893442,0.003751492,-0.0022913786,0.0963583,0.33623016,-0.26114684
4144000,4144000,-0.006472967,0.0056492724,-0.0016654716,0.19186386,0.18455738,0.0012982818
4156000,4156000,-0.010663753,-0.0028215663,0.0025773607,0.04630238,-0.43023404,0.07178711
4164000,4164000,0.0047194944,0.006802801,-0.012015068,1.1611949,0.48333344,-0.96243936
4176000,4176000,-0.01348173,-0.008218839,0.00065193244,-1.0437248,-1.0277824,0.7231157
4184000,4184000,0.0015097765,-0.006932958,0.0028322209,0.7109477,-0.20028555,0.35362077
4196000,4196000,0.012672093,-0.016485654,0.0001865601,0.5626058,-1.0387971,0.005613765
4204000,4204000,-0.006590985,-0.0019346362,0.005448925,-1.0546372,0.8031938,0.31837666
4216000,4216000,0.009732556,-0.0063501513,0.004524758,0.6520658,-0.61082125,0.21721324
4224000,4224000,-0.006815989,0.0015066785,0.005088397,-0.9654669,0.4211911,0.18089098
4236000,4236000,0.0024683098,-0.0022912517,-0.004834635,0.44794253,-0.4187709,-0.5453111
4244000,4244000,-0.003767042,-0.002834229,0.0009933902,-0.2407842,-0.15736997,0.07780692
4256000,4256000,0.0052356897,0.005509736,-0.0016450647,0.45981124,0.1773299,0.18570122
4264000,4264000,-0.008210386,-0.010434339,-0.007612967,-0.8179763,-0.8961212,-0.34470117
4276000,4276000,0.0062510814,-8.0811355e-05,0.0030134679,0.7572205,0.3619541,0.36483213
4284000,4284000,0.008090156,0.0072383285,-0.0049021696,0.41420925,0.57427025,-0.3566867
4296000,4296000,-0.00044353714,-0.002622415,-0.0013586183,-0.2982007,-0.0023542077,0.1668985
4304000,4304000,-0.0046663303,0.008325356,-0.0098986365,-0.43562508,0.61379254,-0.50656456
4316000,4316000,-0.0050963177,-0.009781359,0.0014945617,-0.103406265,-0.70808864,0.43378237
4324000,4324000,0.002276145,0.013333528,0.008809343,0.4433042,1.3657758,0.71727145
4336000,4336000,0.00010868604,0.0068104276,-0.005456844,0.026426427,-0.16362189,-0.6206876
4344000,4344000,0.0015497998,0.0041888887,0.0073822285,0.09364482,-0.26175642,0.6310515
4356000,4356000,-0.014791387,-0.017003054,-0.0009621586,-0.88062674,-1.0584548,-0.49424562
4364000,4364000,-0.010466935,-0.008647053,-0.0046178,-0.032582104,0.10190291,-0.41697133
4376000,4376000,-0.013252626,-0.008860409,0.007448626,-0.19575518,-0.065800525,0.7537173
4384000,4384000,-0.009260282,0.0012447808,-0.004172517,0.18724385,0.6434415,-0.5699655
4396000,4396000,-0.0020656893,0.0094339885,0.007452279,0.32641545,0.91237015,0.80028886
4404000,4404000,-0.012645547,-0.002706288,0.014616726,-0.50891787,-0.51906884,0.81925964
4416000,4416000,-0.0010144925,-0.00023796393,-0.013309073,0.41429847,0.11649867,-1.4226124
4424000,4424000,0.0072537703,0.009717347,-0.0061649154,0.6886801,0.6573761,-0.063072905
4436000,4436000,-0.008493804,0.0031109955,0.011801419,-0.6438273,-0.071829386,1.1156237
4444000,4444000,-0.0031413655,0.009758183,0.007207039,0.15259361,0.39670712,0.13104254
4456000,4456000,0.0010214319,0.00050097186,-0.00077277375,0.14411929,-0.28777522,-0.5030167
4464000,4464000,-0.008884804,-0.0032189072,0.004357259,-0.58839345,-0.509321,0.1525505
4476000,4476000,-0.0007814126,-0.019211624,-0.010696361,0.25994372,-0.7373399,-0.88141835
4484000,4484000,-0.0066889124,-0.005689715,-0.0068788636,-0.34506696,0.6150081,-0.07484066
4496000,4496000,-0.0073001906,0.0013062777,0.0019755338,0.18237388,0.4050803,0.51282823
4504000,4504000,-0.0034386688,0.00092570734,-0.006896226,0.33669183,0.09876526,-0.41924396
4516000,4516000,0.0031584916,-0.008386475,-0.007153022,0.1681099,-0.37236685,-0.14809136
4524000,4524000,0.007528756,-0.0090541355,0.00016872969,0.42094898,-0.22921851,0.4723735
4536000,4536000,-0.004852082,-0.013809025,-0.00048584864,-0.34359127,-0.20920485,0.10835655
4544000,4544000,0.0028371117,-0.007918809,0.005968493,0.42438564,0.26238748,0.45253825
4556000,4556000,0.010158063,-0.014516545,-0.004636867,0.2195006,-0.44084987,-0.46321404
4564000,4564000,0.0027294322,-0.009055743,-0.014293788,-0.39500105,0.24928717,-0.89199436
4576000,4576000,0.005581562,-0.0053437715,0.0046901153,0.028290786,0.19149558,0.9255892
4584000,4584000,-0.0015670211,-0.006169613,-0.0043750354,-0.48610908,-0.027598228,-0.26516038
4596000,4596000,-0.004703203,-0.010145915,0.001051083,-0.26503837,-0.305773,0.50781393
4604000,4604000,0.0021622153,-0.013781773,0.008702706,0.29839674,-0.37837806,0.66823065
4616000,4616000,-0.0043232325,0.006178242,0.0037530828,-0.2536367,1.2313088,0.01471839
4624000,4624000,-0.002369686,0.011620731,-0.0012093646,0.03015548,0.8167119,-0.3511701
4636000,4636000,-0.0020804973,-0.00043691625,-0.004085441,-0.15222862,-0.23915681,-0.18383752
4644000,4644000,-0.009035991,0.0014418473,-0.009797015,-0.43036392,-0.004377159,-0.519358
4656000,4656000,-0.0004938947,0.0028370107,-0.0061334413,0.34867376,0.17377692,0.15931353
4664000,4664000,-0.0077376934,0.0031223043,0.0032609985,-0.45913404,0.012972373,0.7030027
4676000,4676000,-0.0004160161,-0.009465289,-0.005054877,0.5938385,-0.8732921,-0.044857994
4684000,4684000,-0.011477668,-0.011277334,0.009169209,-0.56419086,-0.3825638,0.9438838
4696000,4696000,0.0075182207,-0.0075399107,-0.013247305,1.088063,-0.25581095,-1.0466907
4704000,4704000,-0.010580707,-0.00666038,-0.017173443,-0.9295285,0.1636476,-0.6433135
4716000,4716000,0.0055400543,0.0069300183,0.00027561013,1.2352207,0.25157878,0.9273124
4724000,4724000,-0.0022015562,-0.011226374,0.002588142,-0.19488323,-1.0575202,0.45527932
4736000,4736000,-0.00053572515,-0.0020126754,-0.0021085613,0.36062473,0.11868313,0.07565096
4744000,4744000,-0.007527962,0.0029137372,0.012908863,-0.36483195,0.40400192,1.0043027
4756000,4756000,-0.0026806516,-0.0045260754,-0.005190974,0.24797794,-0.53308463,-0.7115011
4764000,4764000,0.0062567885,-0.017924871,-2.497487e-05,0.7230673,-1.0941411,0.06122927
4776000,4776000,-0.005450182,0.0077641397,0.011543762,-0.6225575,1.0863767,0.43760446
4784000,4784000,-0.0034133187,0.00024985557,-0.0012933875,-0.05255717,-0.002017189,-0.62270397
4796000,4796000,0.0045405244,0.0015304345,-0.00873021,0.40175512,-0.052636314,-0.70002824
4804000,4804000,0.007475285,-0.0062592896,0.0042756335,0.33861554,-0.47020546,0.6293105
4816000,4816000,0.0060977414,-0.015994959,0.005908771,0.13776211,-0.8493012,0.020410344
4824000,4824000,0.019103928,-0.008815979,0.0050874026,0.9483981,0.13909242,-0.031454597
4836000,4836000,-5.9571175e-06,0.014362605,0.00291052,-0.94196993,1.4962546,-0.11918533
4844000,4844000,-0.005527404,-0.001410093,-0.013352443,-0.73279357,-0.51957226,-1.1393664
4856000,4856000,0.0021992153,-0.010692161,0.016246613,0.35944834,-0.43902728,1.5467103
4864000,4864000,-0.0033428303,0.002723517,0.00019112811,-0.2300919,0.7063319,-0.51599425
4876000,4876000,0.006086153,-0.002234999,-0.0030180856,0.4610342,-0.07072247,-0.30040002
4884000,4884000,-0.009285685,-0.0053690546,-0.004241333,-0.91097605,-0.22319375,-0.14187324
4896000,4896000,-0.00097285805,-0.0045394464,-0.0017575892,0.39910495,-0.030751318,0.041433077
4904000,4904000,-0.0024687413,0.0017763168,0.0024748412,-0.024050653,0.47900504,0.28522068
4916000,4916000,-0.003974068,0.003514536,0.0095800245,0.19509935,0.035014145,0.48476106
4924000,4924000,0.00038345842,-0.0060834577,-0.005114118,0.42969847,-0.6965023,-0.7870185
4936000,4936000,0.002369761,0.008470534,-0.011202911,-0.29587948,0.82563066,-0.6317153
4940000,4940000,-0.007850176,-0.0021479425,-0.011660844,-1.0515752,-0.33855176,-0.4586954
4956000,4956000,0.0071641332,-0.011475086,-0.008074835,0.5583395,-0.46707052,-0.17870231
4964000,4964000,-0.010756358,-0.0007724188,-0.01736854,-1.0681233,0.6070602,-0.7340828
4976000,4976000,-0.019735752,0.007320677,-0.0113057885,-0.5514731,0.48773405,0.08747796
4984000,4984000,-0.01555154,0.00875018,-0.005063216,0.025748983,0.40495366,0.44281724
4996000,4996000,0.0033311583,-0.008099608,0.007905521,1.051875,-1.2278197,0.9298777
5004000,5004000,-0.014518602,-0.0020262222,-0.0075989934,-0.78596467,0.0006498827,-0.76177984
5016000,5016000,-0.0011068345,0.006000183,0.0020063715,0.806127,0.3016818,0.8820648
5024000,5024000,0.008206262,0.00041086916,0.012666407,0.88759327,-0.24313368,1.0252488
5036000,5036000,0.0031106675,-0.009379175,0.005387805,0.24904427,-0.9096553,-0.08953727
5044000,5044000,0.0024750377,-0.019133175,0.00662364,-0.09154379,-0.9752519,0.014504498
5056000,5056000,-0.0018404273,0.011818867,-0.0064908057,0.23845077,1.2094213,-0.6092009
5064000,5064000,0.009280274,0.0025595387,0.00872403,0.80076164,-0.0069663664,0.8004668
5076000,5076000,-0.011219581,-0.0075636134,0.008813786,-0.99511254,-0.96548957,0.22899026
5084000,5084000,-0.016080366,-0.0065313275,0.001315567,-0.6402744,-0.14630066,-0.5131768
5096000,5096000,0.0045686853,0.0031521248,0.009630329,0.812558,0.20390914,0.7272478
5104000,5104000,-0.0098430915,0.0011323078,0.008272334,-0.6874036,-0.016085042,0.15819088
5116000,5116000,0.008285093,-0.005617701,-0.0020593856,0.9143427,-0.48258746,-0.5039434
5124000,5124000,0.005914776,-0.003235017,0.001004766,0.23729116,-0.026217818,-0.028044403
5136000,5136000,0.00520616,-0.0020980092,-0.012281767,-0.012351185,-0.0357817,-0.6590617
5144000,5144000,-0.0055230786,0.0070081623,-0.0046458826,-0.7007672,0.62649417,0.20073245
5156000,5156000,-0.009521233,-0.009066152,3.1298376e-05,-0.6394027,-0.8399352,0.38535136
5164000,5164000,0.0020394903,-0.0050207013,-0.0013148265,0.6165693,-0.024721684,0.097906426
5176000,5176000,0.01144351,-0.0058605704,0.008249034,0.63134664,-0.058489386,0.68537426
5184000,5184000,0.013133316,-0.0026694385,-0.011883977,0.27023458,0.20139581,-1.1757636
5196000,5196000,-0.003377441,-0.0038324802,-0.005545844,-0.6830509,-0.11760603,0.123164356
5204000,5204000,0.0038739878,-0.008869082,0.0037211347,0.19663382,-0.3545252,0.6782146
5216000,5216000,0.0044995737,0.0037638647,0.004542742,0.15905108,0.5194091,0.21877384
5224000,5224000,0.010209219,-0.004708947,-0.005413834,0.3721153,-0.38769662,-0.5818376
5236000,5236000,0.0055203275,-0.0053334436,0.0068179644,-0.20717654,0.14623009,0.47167376
5244000,5244000,-0.006144788,-0.0038964169,-0.011528215,-0.9018322,0.0790415,-1.0746034
5256000,5256000,0.013041797,0.0018016949,-0.0018807189,1.0557032,0.6184832,0.43615258
5264000,5264000,0.0011184111,0.0048726355,-0.0027240736,-0.40010792,0.46131837,0.06748972
5276000,5276000,-0.021067822,0.00076115923,-0.007082498,-1.353559,-0.3145341,-0.19551082
5284000,5284000,-0.012501487,0.0027962308,-0.008701213,0.0122823715,0.10732603,-0.20261782
5296000,5296000,-0.008597121,0.00071644643,-0.001063921,0.2937688,-0.21119516,0.45000404
5304000,5304000,-0.0019911446,-0.0042215306,0.008585859,0.53812444,-0.47386324,0.8811283
5316000,5316000,-0.0038774866,-0.011100739,0.008242099,-0.06826761,-0.4392655,0.19374813
5324000,5324000,0.008531466,-0.0062742,0.002873364,0.945642,0.18555367,-0.26199183
5336000,5336000,-0.008726929,0.002533733,0.00035689067,-0.8893625,0.3448577,-0.5243131
5344000,5344000,-0.012212761,-0.008384192,-0.0009866499,-0.6382854,-0.53534067,-0.19428934
5356000,5356000,0.005489751,0.010237315,-0.009925329,1.0087962,0.93630046,-0.81343424
5364000,5364000,0.0051455083,0.002109524,-0.008797708,0.4155464,-0.1881842,-0.20185769
5376000,5376000,-0.008053895,0.000983729,0.0011807675,-0.64483374,-0.044601228,0.5694936
5384000,5384000,0.0009492548,0.00051181286,0.0062667215,0.33888677,-0.0062833517,0.5075425
5396000,5396000,0.0043038917,0.003664831,0.00091243215,0.06397706,-0.021275846,-0.106436454
5404000,5404000,0.0029070892,0.010384402,-0.0044238744,0.026880026,0.44719872,-0.3514818
5416000,5416000,-0.0045073954,-0.0069516837,0.0070400485,-0.6216384,-0.84148496,0.5224091
5420000,5420000,-0.009527435,-0.008857018,0.010270999,-0.8335082,-0.71933776,0.6178547
5436000,5436000,0.0015187663,-0.00034337165,0.018541956,0.29484096,0.66630596,0.75852245
5444000,5444000,-0.0010257063,0.0039376616,0.008448525,-0.1806576,0.45615482,-0.43380272
5456000,5456000,-0.00076941744,-0.011850039,0.014111337,0.16426566,-0.69215167,0.2750708
5464000,5464000,-0.0038106097,-0.003729503,0.0038167094,-0.17159835,0.31376067,-0.5683414
5476000,5476000,0.00046863512,-0.004734663,0.02269877,0.28026992,-0.2767184,1.1430626
5484000,5484000,-0.0015920026,-0.007407069,0.0015831608,-0.057471633,-0.10796808,-1.0523746
5496000,5496000,-0.0022528206,0.0012962036,0.0024189688,0.03286946,0.1151619,-0.25108764
5504000,5504000,-0.0008990094,-0.0057513597,0.00037299126,0.08728616,-0.40603596,-0.19143815
5516000,5516000,0.0002860322,0.0019033757,0.021260472,0.35742673,0.29941335,1.1663485
5524000,5524000,0.007551262,-0.009998491,0.020616341,0.61748505,-0.77506995,0.46445465
5536000,5536000,-0.0014827095,-0.014760828,-0.011138969,-0.5107108,-0.27606437,-1.7211041
5544000,5544000,-0.007023602,-0.004818582,-0.000246941,-0.64843094,0.580437,0.13195135
5556000,5556000,-0.010710836,0.0024120838,0.0038485616,-0.23652324,0.59309995,-0.24812166
5564000,5564000,-0.007916233,0.0033746297,0.0075210477,0.05911962,0.3984913,0.22157872
5576000,5576000,0.0035107145,0.0023431703,-0.024144942,0.8559917,-0.19079426,-1.978452
5584000,5584000,0.00045673447,-0.00039120673,-0.003951049,0.12729779,-0.2827571,0.6651856
5596000,5596000,-0.0036492702,0.010935085,0.0064262995,-0.15847082,0.72320396,0.55234885
5604000,5604000,-0.010800478,0.0043213554,0.0036499081,-0.63653976,-0.17788664,0.1076311
5616000,5616000,0.0026231282,-0.0045520635,0.010267852,0.7795602,-0.31326234,0.29632837
5624000,5624000,-0.002380298,0.009384511,0.016945537,-0.07651448,0.70351493,0.56870437
5636000,5636000,-0.00043246863,0.012296766,0.0075972704,0.17653984,0.6248575,-0.41228592
5644000,5644000,0.0028431169,0.019659653,0.0051655676,0.2728819,0.79848987,-0.26177618
5656000,5656000,-0.0017578639,-0.0016109492,-0.014735384,-0.23346812,-1.2121913,-1.7949699
5664000,5664000,0.003470717,-0.0100103095,-0.008322891,0.32794693,-1.1006591,-0.15563084
5676000,5676000,-0.0056366203,0.0076218615,-0.006615001,-0.7191674,0.855688,-0.02905193
5684000,5684000,0.012811434,0.008257044,-0.0045707915,1.0516696,0.331721,0.07866555
5696000,5696000,0.023659607,-0.0080477465,0.0025226297,0.74289256,-0.9275066,0.44832614
5704000,5704000,0.010014886,-0.015309832,-0.0125607895,-0.5567757,-0.90642625,-0.92072606
5716000,5716000,0.0024145225,0.0062931264,-0.004040379,-0.7812457,1.2979724,0.7185749
5724000,5724000,-0.004048507,0.0058901436,-0.0028289699,-0.76424706,0.40009034,0.29309076
5736000,5736000,0.018328656,0.012684671,0.0020351298,1.1279919,0.6952598,0.40770268
5744000,5744000,0.008974016,-0.00010346493,-0.008837173,-0.23845989,-0.6250454,-0.5824952
5756000,5756000,0.0033562845,-0.0020599086,0.0056184586,-0.2912207,-0.2805098,0.5049969
5764000,5764000,0.013518235,0.0020186799,-0.010335341,0.6264789,0.15849102,-0.788191
5776000,5776000,-0.0030583462,-7.167121e-05,0.0051091416,-1.0621893,-0.08602268,0.60021406
5784000,5784000,-0.010992031,-0.0040411125,0.0032693765,-0.9702588,-0.28306654,0.15512261
5796000,5796000,0.005778522,0.00077562954,0.004002502,0.6966235,0.18706892,0.03617433
5804000,5804000,0.011133235,-0.0064669154,-0.0030710546,0.803661,-0.39736998,-0.43579563
5816000,5816000,0.006492683,-0.0010034759,0.00042460742,-0.18146016,0.13602948,0.1016303
5824000,5824000,0.006321912,-0.0038244845,-0.0051027825,-0.18921845,-0.09461876,-0.43596306
5836000,5836000,-0.018427886,0.019232562,-0.005500323,-1.316178,1.349788,0.026975477
5844000,5844000,-0.0021534602,0.0065195523,-0.0129879005,0.6212121,-0.38488048,-0.5302739
5856000,5856000,0.007994533,0.0023407447,0.010249212,0.7389344,-0.32023904,1.4678319
5864000,5864000,0.004013667,0.0013292009,0.014995437,-0.035868764,-0.08241548,0.9104451
5876000,5876000,-0.005294066,-0.0005217391,-0.0071817096,-0.3868091,-0.09830988,-1.1455603
5884000,5884000,-0.005752226,0.006644359,0.0029407877,-0.13565615,0.42174745,0.26539677
5892000,5892000,0.0049189734,0.011180912,0.003584815,0.64704317,0.54238,0.05384044
5904000,5904000,-0.0038828596,-0.0057285917,-0.024478417,-0.47250462,-1.0683314,-1.2448757
5912000,5912000,-0.0005801256,0.0070194695,0.009636101,0.091903985,0.5202293,1.8081173
5920000,5920000,0.014557189,0.011444238,-0.0011116411,1.0873024,0.3979646,-0.09654998
5936000,5936000,-0.0037133044,0.012545756,0.0058143316,-1.0158317,0.41422006,0.86356175
5944000,5944000,-0.001256822,0.011161721,-0.0002027654,-0.21413714,0.096101046,-0.10123527
5956000,5956000,0.000116878626,0.0011941174,-0.006845927,-0.15354076,-0.50498444,-0.28584105
5964000,5964000,-0.0042382698,0.0027724006,-0.012340185,-0.18930274,-0.12630177,-0.46815747
5976000,5976000,0.002980627,-0.0051134117,-0.00521588,-0.21883333,-0.5269211,0.2576179
5984000,5984000,0.003694989,-0.0077513964,-0.002497143,0.06697518,-0.3858714,0.33562094
5996000,5996000,-0.008411204,0.0045836587,-0.005508487,-0.60326314,0.73060346,-0.11913903
6000000,6000000,-0.00015292977,0.009561897,-0.0048244596,0.28915638,0.9025276,-0.022081979
6016000,6016000,-0.008105485,0.005383747,-0.0033855196,-0.69163954,-0.0024912914,-0.22858918
6024000,6024000,-0.012681878,-0.0018819409,-0.0012362632,-0.5667782,-0.54399467,0.15531282
6036000,6036000,0.008362811,0.011862768,-0.006473163,1.1581149,0.75690293,-0.4471716
6044000,6044000,-0.006662953,-0.001813951,-0.012444372,-0.558501,-0.60753155,-0.5621886
6056000,6056000,-0.007901796,-0.00025393048,-0.0013065609,-0.30364794,-0.11771888,0.6701804
6064000,6064000,-0.0072366023,-0.0010326904,0.003376924,0.0012221336,-0.17323034,0.56408215
6076000,6076000,0.0066301594,-0.012108517,0.010680773,0.6722164,-0.68457067,0.6452174
6084000,6084000,-0.0033123607,-0.007533486,0.00012040511,-0.47979665,0.04881323,-0.53167075
6096000,6096000,-0.0017452823,-0.00086205057,-0.008664173,0.14596334,0.26420158,-0.32712477
6104000,6104000,-0.003437015,-0.0003996646,-0.01093448,-0.047697254,0.14660129,-0.3200764
6112000,6112000,0.0055360436,-0.0082301935,-0.003382604,0.6258609,-0.45164198,0.36296952
6124000,6124000,-0.00027233962,0.002421527,-0.008472494,-0.378155,0.54392624,-0.18151326
6136000,6136000,-0.00892102,-0.010177993,0.023969956,-0.41228724,-0.7946385,1.8871166
6144000,6144000,-0.011688447,0.009723974,0.013582535,-0.30813587,1.1704656,0.07141074
6152000,6152000,0.003202077,0.007353237,0.014834705,0.9027446,0.1852833,0.20106438
6164000,6164000,0.014098547,-0.0077812965,0.0009990166,0.650999,-0.5625795,-0.7910114
6172000,6172000,0.0064664986,-0.00910135,-0.016727664,-0.23248708,-0.36256656,-1.6431491
6184000,6184000,-0.005731293,0.004807733,-0.011111866,-0.7178862,0.7277744,0.2737831
6196000,6196000,0.002801626,-0.0015178215,0.0016626853,0.4946438,-0.12922026,0.7209466
6200000,6200000,0.009954827,-0.0007404625,-0.0028286006,0.92738634,-0.020985829,0.10418558
6216000,6216000,-0.00047870673,-0.0012951092,-0.00029671378,-0.5776448,-0.22621278,0.930143
6224000,6224000,0.0064685326,0.0041396604,0.014610848,0.27842823,0.3771812,1.3065151
6236000,6236000,-0.0027606855,0.00455561,0.020684473,-0.6035191,-0.36953583,1.0370336
6244000,6244000,-0.014128958,-0.022814171,0.018059202,-0.99443513,-1.9912263,0.13591239
6256000,6256000,0.00020696541,0.00057426444,0.007586684,0.81166023,0.88626266,-0.47770932
6260000,6260000,0.005110066,0.001080366,0.004483779,0.95018625,0.63212204,-0.5773993
6276000,6276000,0.010297937,-0.0038769487,-0.008235688,0.26175958,-0.25911176,-0.78149486
6284000,6284000,-0.002852181,-0.0067891544,-0.0034619572,-0.7184435,-0.1507675,0.018986074
6296000,6296000,-0.0010313682,-0.0050066025,0.015915938,-0.0015474558,-0.21557416,1.1195368
6304000,6304000,0.008575172,0.0034398674,0.013260695,0.6649425,0.52715135,0.20930727
6312000,6312000,0.003701526,0.00055719144,-0.0052135624,-0.1445747,-0.010893802,-1.1220409
6324000,6324000,0.0075792484,0.0028974863,0.0009623687,0.5154838,0.18350556,-0.0033801165
6336000,6336000,-0.0017936173,-0.0017317571,0.0009892395,-0.4185579,-0.13749309,0.010595889
6344000,6344000,-0.0113219535,0.002206566,0.011143439,-0.8523372,0.19649677,0.73974764
6352000,6352000,-0.011962549,4.1627114e-05,0.010730264,-0.35044658,-0.123159334,0.19916207
6364000,6364000,-0.010222832,-0.0049715457,0.0003003733,-0.06329731,-0.18448885,-0.52544993
6376000,6376000,0.0016935671,0.00075767306,-0.0074961702,0.7356229,0.1059308,-0.5171725
6384000,6384000,-0.006074403,0.0034035034,0.002799663,-0.24214354,0.20913108,0.4787936
6396000,6396000,0.0007351953,0.011196693,-0.0025830467,0.28290796,0.64332974,-0.179325
6404000,6404000,-0.010125155,0.0063609635,0.012156993,-0.69754326,-0.13251884,0.992615
6416000,6416000,0.0088951215,0.006870377,-0.0039919224,1.0687964,0.16744171,-0.6860298
6424000,6424000,0.0022901606,0.0007580605,-0.00051228644,0.044272155,-0.38232768,-0.06358036
6432000,6432000,0.007155628,0.003344553,0.005849125,0.34136915,0.054933332,0.46805054
6440000,6440000,0.01099739,0.0022320987,0.011808062,0.41853455,-0.1065711,0.5365152
6456000,6456000,-0.0034075899,0.009919681,-0.0014087271,-0.84682256,0.68567014,-0.36004466
6464000,6464000,-0.0023422858,0.017441105,0.00010626059,-0.33082598,0.69462657,-0.02409728
6472000,6472000,-0.0048985556,-0.0062479246,0.008081886,-0.22192076,-1.296006,0.5202689
6484000,6484000,-0.008185299,-0.0059443824,-0.0013105741,-0.43776253,-0.18508077,-0.31240055
6496000,6496000,-0.0006736206,-0.0021015832,0.0047127134,0.3199827,-0.015617387,0.08950141
6504000,6504000,0.003356186,-0.0032165695,-0.015535802,0.3859809,-0.10633641,-1.4346585
6516000,6516000,-0.01654299,0.0066508125,-0.009645947,-0.9757527,0.59825766,0.19256039
6524000,6524000,-0.002769892,0.0068815644,-0.0031122132,0.57305706,0.30674505,0.5468366
6536000,6536000,-0.011660009,0.0013984062,-0.0026953714,-0.40768844,-0.21419498,-0.0433507
6540000,6540000,-0.0050197747,-0.0027798982,-0.0038657407,0.283996,-0.4919667,-0.12672482
6552000,6552000,-0.007351673,0.0019771294,-0.002856787,-0.49631274,0.06287469,-0.103086054
6564000,6564000,-0.01159759,0.008727904,0.0052334857,-0.19099396,0.4586064,0.5795398
6572000,6572000,-0.0077976715,0.00767018,-0.0007261559,0.12434686,0.09534783,-0.2502193
6584000,6584000,0.0017357535,0.01837695,-0.002193155,0.65736866,0.7348893,0.00013862342
6596000,6596000,-0.0025398755,0.0071024084,-0.006587647,0.00317703,-0.4627676,-0.5688063
6604000,6604000,-0.008280164,-0.0050439844,-0.011331943,-0.46735024,-1.0545969,-0.5052544
6612000,6612000,-0.015965777,-0.0082462095,0.0038314306,-0.6311201,-0.6472445,0.82772696
6624000,6624000,0.0044766413,-0.002215456,-0.0039989967,0.7381499,0.10845647,-0.14867955
6636000,6636000,-0.0053866142,-0.0039628656,-0.01038236,-0.298444,-0.22069883,-0.5155669
6644000,6644000,-0.00344177,0.0049907416,-0.0034536978,0.022698283,0.6122601,0.3450786
6656000,6656000,0.0016568417,-0.00021676073,0.0057084113,0.27811742,-0.28095883,0.20369422
6664000,6664000,-0.006046398,-0.00270753,-0.00675793,-0.4069895,-0.23041765,-0.67525005
6676000,6676000,0.00083813444,-0.0071263453,0.014279351,0.4035856,-0.481562,1.1719148
6684000,6684000,-0.008996566,-0.0039789192,0.00069323374,-0.5887721,0.06528238,-0.57856095
6692000,6692000,-0.01041455,0.001531455,-0.00622962,-0.24978542,0.3948304,-0.65476054
6704000,6704000,-0.0085978415,0.013342255,-0.0062266365,-0.15978672,0.45489228,-0.0070395987
6716000,6716000,0.006981589,-0.011151914,-0.00314248,1.1349814,-1.2502806,-0.115451984
6724000,6724000,0.010444539,-0.021920944,-0.008201803,0.64089805,-1.1484787,-0.3947217
6732000,6732000,0.010495853,-0.0072861686,-0.008832243,0.36287913,0.46177718,-0.17133261
6744000,6744000,0.003055728,-0.010403591,-0.002632127,-0.49343958,-0.1427939,0.108015805
6756000,6756000,0.0012704714,-0.007642301,-0.01112039,-0.3416271,0.22363478,-0.2729601
6764000,6764000,0.0044598025,0.000885949,0.010781832,0.21369886,0.67067474,1.3408766
6776000,6776000,-0.0023577034,-0.0014678423,-0.0027979747,-0.683377,0.098207735,-0.39533472
6784000,6784000,-0.0031682525,0.014167637,-0.000112436246,-0.28853983,1.0604408,-0.011349414
6796000,6796000,0.008988946,0.0057014814,-0.012141943,0.64075875,-0.3246583,-0.71921104
6804000,6804000,-0.0026513168,0.0016140189,0.008392146,-0.6055212,-0.25680926,1.1364357
6816000,6816000,-0.00043695662,-0.00023506171,0.00373055,0.072488576,-0.4004389,0.08801324
6824000,6824000,0.008196793,0.0018764716,-0.0033744534,0.6087266,-0.09304885,-0.49517643
6836000,6836000,-0.0148738,0.0036126885,0.0011294831,-1.1935022,0.36383006,0.2841276
6844000,6844000,-0.015120443,-9.841589e-05,0.006161488,-0.5030133,-0.11103659,0.4928373
6856000,6856000,-0.017771194,-0.0038965498,0.0050116098,-0.24367619,-0.25050405,-0.020710502
6864000,6864000,-0.002730749,-0.0029663686,0.00954476,0.9516689,-0.051660445,0.2751018
6872000,6872000,-0.0014882075,0.0041764104,0.006935837,0.42173696,0.4744779,-0.054905795
6884000,6884000,0.006319753,0.004024199,-0.00028383947,0.6950067,0.06046196,-0.44106042
6896000,6896000,-0.0019020244,-0.011899088,0.004332119,-0.25656182,-1.0944226,0.15692188
6904000,6904000,0.009282177,-0.008331608,0.0069129397,0.580375,-0.120875895,0.13992164
6916000,6916000,-0.0016052071,-0.0014393522,0.0028738326,-0.016106486,-0.0043408913,0.22968966
6924000,6924000,-0.0028467923,-0.014852536,0.010595068,-0.2093161,-0.7715313,0.58441633
6936000,6936000,0.007388648,0.013951188,0.017278446,0.7717466,1.2730141,0.64634895
6944000,6944000,0.009351515,0.0015939532,0.013293032,0.41100106,-0.26344532,-0.038826022
6956000,6956000,-0.0061361273,-0.00066308654,-0.0022480753,-0.75766796,-0.34037387,-0.8766935
6964000,6964000,-0.001697067,-0.0062423064,-0.0024542916,-0.034804136,-0.5202627,-0.42370218
6976000,6976000,-0.008237698,-0.0046750987,-0.009204796,-0.26257122,-0.17087679,-0.550306
6984000,6984000,-2.3651024e-05,-0.012814437,-0.010141626,0.48406243,-0.52633154,-0.23801516
6996000,6996000,0.008806473,0.008874282,-0.0015219322,0.27533627,0.9491283,0.25476432
7004000,7004000,2.6309994e-05,-0.0062526246,-0.00403265,-0.46155542,-0.6775247,-0.0045838025
7016000,7016000,0.0023342888,0.01641214,0.0031480459,0.28229147,1.2087388,0.2145833
7024000,7024000,0.0030269888,-0.00784488,0.0047864313,-0.020517468,-1.1603949,0.28370366
7036000,7036000,-0.014964745,0.012647377,-0.0077432664,-0.6598694,1.0653298,-0.76747334
7044000,7044000,0.0028558131,0.0102993725,-0.016255412,0.9708228,0.16048671,-0.8938331
7056000,7056000,-0.0004305261,-0.010650754,0.0032190806,-0.3100227,-0.9917463,1.0497077
7064000,7064000,-0.0036160215,0.0017831358,0.0055460394,-0.20423281,0.47271425,0.6097247
7076000,7076000,0.009116298,-0.0015172148,-0.016756075,0.752014,-0.41005334,-1.6664166
7084000,7084000,0.00968067,-0.0053502377,-0.025289949,0.32755867,-0.38619816,-1.100267
7096000,7096000,0.0011552661,-0.011202763,0.0035615326,-0.4501189,-0.34055898,1.303887
7104000,7104000,0.0015840466,-0.010679923,0.022266006,-0.10149813,-0.13163894,1.85907
7116000,7116000,0.00051785354,0.0034925903,-0.003618766,-0.12291172,0.6854767,-1.1887975
7124000,7124000,0.013848804,0.0048464206,-0.0063318703,0.9355607,0.41453958,-0.54994565
7136000,7136000,0.0026583523,0.0027152558,0.00610533,-0.47946006,0.08781461,0.4312259
7144000,7144000,0.010298347,-0.0038680297,0.005289685,0.28704244,-0.49332988,0.1340728
7156000,7156000,-0.0010428468,-0.023743846,0.0005038548,-0.6453879,-1.0091461,-0.36883292
7164000,7164000,0.011202953,-0.00438253,0.022247327,0.7111677,0.90068644,1.3388946
7176000,7176000,0.0035292413,0.007380344,-0.0044427114,-0.6203935,0.948536,-1.1552987
7184000,7184000,-0.002379342,-0.0009371269,-0.001780003,-0.6210627,-0.21191055,-0.30287546
7196000,7196000,-0.0049796146,-0.00740879,0.009303484,-0.5340747,-0.42885295,0.44384915
7204000,7204000,-0.0013602478,-0.0077583008,0.009135324,0.15203327,-0.18099163,0.16002616
7216000,7216000,-0.008214735,-0.014062954,-0.0023233725,-0.6477143,-0.28794438,-0.5657685
7224000,7224000,0.0023418684,0.00035647053,-0.0002603206,0.5226742,0.804044,-0.047303453
7236000,7236000,5.5288285e-05,0.00026468374,0.0038427564,-0.27715188,0.3416154,0.17323023
7244000,7244000,-0.002505644,0.0098225335,0.0080888225,-0.21790859,0.7514605,0.3446564
7256000,7256000,0.010351996,-0.0065815435,0.007571982,0.66765904,-0.8801315,0.41074964
7264000,7264000,-0.00078502495,-0.0008224334,0.013534547,-0.5119334,0.09435027,0.44437122
7276000,7276000,0.0067077447,0.0029860667,-0.0075873304,0.44188762,-0.11915568,-1.0696073
7284000,7284000,-0.0017869977,-0.011987611,-0.00880763,-0.3998869,-1.0894965,-0.47426322
7296000,7296000,-0.00071691594,-0.014636811,0.0032472194,-0.07325978,-0.36877468,0.37307376
7304000,7304000,0.003944365,0.0012073204,-0.003285236,0.29080218,1.0680561,-0.20451291
7316000,7316000,0.008778354,-0.0039730496,-0.0031170186,0.46126592,-0.33551168,-0.25788164
7324000,7324000,0.009014267,0.0038199688,-0.009541916,0.18282278,0.44153503,-0.48009938
7336000,7336000,-0.0054246555,0.00014283357,-0.008559607,-0.7153026,-0.16616267,-0.13509165
7344000,7344000,-0.0007908229,0.009297529,0.0028342416,0.035492092,0.6416988,0.7761629
7356000,7356000,-0.003996033,0.0074869622,0.01842736,-0.10033584,0.06272782,0.8280675
7364000,7364000,0.003361132,0.0035002748,-0.0041293586,0.38559777,-0.37812084,-1.2311168
7376000,7376000,0.0029233228,0.00020719739,-0.007830133,0.22432682,-0.242031,-0.27465385
7384000,7384000,-0.0026383125,-0.0029948566,-0.00979352,-0.32208174,-0.28440845,-0.26468688
7396000,7396000,0.0053002737,0.001275842,-0.006030236,0.44766217,0.19706601,0.047482524
7404000,7404000,0.01380909,-0.008994025,-0.0043214997,0.74818313,-0.59296274,0.16261868
7416000,7416000,0.0013356752,0.002697292,-0.0049334755,-0.5836111,0.50097305,-0.072345056
7424000,7424000,0.004154841,0.001883846,-0.0034432604,-0.018882364,0.12965813,0.11252977
7436000,7436000,-0.0042240596,0.0059953113,0.0049976944,-0.4300493,0.30635786,0.537831
7444000,7444000,0.017557763,0.0024095457,0.017554551,1.3469979,-0.08173139,1.1160665
7456000,7456000,0.016735055,-0.0021888455,-0.003554623,0.10395223,-0.5307553,-1.2424965
7464000,7464000,0.0043259016,0.009293335,-0.0037689868,-0.79721016,0.7456623,-0.2782681
7472000,7472000,0.0060746353,-0.0021001596,0.013690168,-0.1404838,-0.7011331,0.83063066
7484000,7484000,-0.0033133728,0.011790618,0.002684361,-0.89314985,0.80303943,-0.016823098
7496000,7496000,0.0047622006,0.0008234912,-0.012547044,0.4668637,-0.20147012,-1.0281403
7504000,7504000,0.0040877713,-0.0038201762,0.003101271,0.21033874,-0.46446165,0.71920854
7516000,7516000,0.008168425,-0.010343012,0.017765945,-0.09256524,-0.43963575,0.9950305
7524000,7524000,-0.002163056,-0.0036962775,0.013855549,-0.7121297,0.3161554,0.07326604
7536000,7536000,-0.0010541623,0.0014178214,-0.008080628,-0.08270845,0.41976306,-1.055938
7544000,7544000,0.011935017,-0.008190523,0.0032513686,0.90681756,-0.5474782,0.28856304
7556000,7556000,0.011909524,0.0009306389,-0.0057483516,0.1212222,0.41527432,-0.38753194
7560000,7560000,0.0056165364,0.008214005,0.0015208207,-0.44559658,0.8854523,0.3500066
7576000,7576000,-0.0030260626,-0.0074992827,0.0044589983,-0.38050944,-0.7589215,-0.17179237
7584000,7584000,-0.0025789195,0.003184189,-0.0034833155,-0.09696555,0.3525797,-0.63216156
7596000,7596000,-0.001709428,-0.0072946963,-0.0014946751,-0.092362866,-0.2725348,0.26297003
7604000,7604000,-0.0038434681,0.0012224198,-0.0018679285,-0.13532646,0.3947306,-0.081159584
7616000,7616000,0.019834794,0.003802545,-0.0008953504,1.2083951,0.47465324,0.10364356
7620000,7620000,0.019263655,0.011490891,-0.003767005,0.75641036,0.95883584,-0.1711765
7636000,7636000,0.010650053,-0.005820559,-0.0079329675,0.29634947,-0.76425594,-0.9010743
7644000,7644000,-0.0004164932,0.0031687815,-0.0141792195,-0.7600586,0.36849904,-0.7511624
7656000,7656000,-0.0007076998,0.0023031638,0.013235006,0.19083488,-0.1876643,1.5592575
7664000,7664000,0.007918561,0.0057040276,0.010870127,0.5718582,0.26360747,0.41421336
7676000,7676000,0.0020744654,0.00044694965,0.004613851,-0.0037430823,-0.29804724,-0.012614435
7684000,7684000,0.0047702766,0.0036315273,0.006354558,0.2340838,0.10865018,0.02172962
7696000,7696000,0.0016411276,-0.005268105,-0.016082946,-0.29719424,-0.42070714,-1.312804
7704000,7704000,-0.0022440772,0.006520285,-0.014156847,-0.309815,0.63755715,-0.32227314
7716000,7716000,-0.0018949447,-0.0022376822,0.004627896,-0.1944769,-0.12350027,0.97985077
7724000,7724000,0.002244634,-0.0027203506,-0.0015285641,0.2418176,-0.19966358,-0.10260731
7736000,7736000,0.010485827,0.005887781,-0.0045506507,0.32772654,0.6657912,0.22655071
7744000,7744000,0.0027793087,0.00337806,-0.0005613507,-0.37538433,0.04867893,0.30205873
7752000,7752000,-0.005769034,0.007431163,0.0075454405,-0.7495022,0.38871577,0.78242373
7764000,7764000,0.0089763645,0.0007478986,0.006697757,0.8226459,-0.42550093,0.053236924
7776000,7776000,0.0032814268,-0.013209515,0.011950274,-0.53659123,-1.1835258,0.32437554
7780000,7780000,-0.005652321,-0.01616354,0.0031019405,-1.1042051,-1.0346618,-0.5240983
7796000,7796000,-0.01690095,-0.00055784686,0.009010199,-0.5926849,-0.15197158,0.4183678
7804000,7804000,-0.0007869261,-0.01600119,-0.0018975788,0.89600253,-1.0997121,-0.60041684
7816000,7816000,-0.00031991123,-0.014335204,0.0018004449,-0.0050177574,0.1125322,0.05434757
7824000,7824000,0.0015678612,0.0023090367,-0.008432632,0.15136091,1.0519816,-0.64897126
7836000,7836000,-0.0049930224,-0.0016624713,0.012028293,-0.3876858,-0.0018132187,0.89508766
7844000,7844000,-0.0024053033,-0.0030813685,-0.0058609247,-0.011041716,-0.0374981,-0.9036597
7856000,7856000,-0.00014565687,-0.005049395,-0.0029514078,0.19102925,-0.23334473,0.22594166
7864000,7864000,-0.004006448,0.008911445,0.0056549795,-0.1491094,0.9678226,0.5904363
7876000,7876000,-0.0012834475,0.001770224,-0.0111978,-0.107127726,-0.5802238,-0.88242567
7884000,7884000,-0.0020663934,-0.0022913408,-0.011972328,0.017481744,-0.4295949,-0.22954811
7896000,7896000,0.0041210935,0.0027868447,0.0015597905,0.35199413,0.23346579,0.3220312
7904000,7904000,0.013930355,-0.005676512,-0.0030646648,0.75995266,-0.54307973,-0.12802462
7916000,7916000,0.0049526272,-0.0045431927,0.0057954695,-0.18672892,0.16563326,0.40365165
7924000,7924000,0.0052230945,0.009941695,-0.004642149,-0.11180727,1.0767857,-0.6061187
7932000,7932000,-0.008923887,0.0043612695,-0.0068153506,-1.0383375,-0.009099657,-0.33115786
7944000,7944000,-0.014153668,-0.0045346045,0.0022266454,-0.6998528,-0.32234466,0.56684566
7952000,7952000,-0.0027301742,0.005186327,-0.0033864733,0.6135607,0.5519742,-0.18013011
7960000,7960000,-0.008141362,-0.0022850404,-0.009829261,-0.24978,-0.3223477,-0.5393552
7972000,7972000,-0.014545003,0.0002866037,-0.002877888,-0.4288977,-0.027765445,0.42918658
7980000,7980000,-0.005374924,-0.006739683,-0.0047859377,0.54779077,-0.49978024,-0.04001621
7996000,7996000,0.007629472,0.0015386706,-0.013653961,0.4546302,-0.2320047,-0.1793541
