timestamp,timestamp_sample,device_id,bias,bias_var,innov,innov_var,innov_test_ratio
3208000,3055323,6620172,-0.7437144,0.0013992662,-0.009429932,13.252001,7.4557806e-07
3280000,3127382,6620172,-0.743713,0.002782279,0.0063486695,12.733408,3.5170478e-07
3352000,3199436,6620172,-0.74372494,0.004150117,-0.036438346,12.716825,1.1601019e-05
3424000,3270150,6620172,-0.74367505,0.005503743,0.11509335,12.701601,0.0001158776
3496000,3343529,6620172,-0.74368113,0.0068440204,-0.011238277,12.687602,1.1060567e-06
3568000,3415570,6620172,-0.7436762,0.00817172,0.0076581836,12.674714,5.141275e-07
3640000,3487607,6620172,-0.7436504,0.009487462,0.03408146,12.546887,1.0286268e-05
3712000,3559641,6620172,-0.7436743,0.010791908,-0.027772963,12.542033,6.833355e-06
3784000,3631672,6620172,-0.74366885,0.0120856,0.0056066513,12.537548,2.785813e-07
3856000,3703701,6620172,-0.74360317,0.013369013,0.061539948,12.533419,3.357393e-05
3928000,3775726,6620172,-0.74356633,0.014642566,0.031506002,12.529634,8.802493e-06
4000000,3847750,6620172,-0.7436532,0.01590663,-0.0682928,12.526185,4.137028e-05
4072000,3919772,6620172,-0.7437104,0.017161427,-0.04153359,12.470853,1.5369518e-05
4144000,3991792,6620172,-0.74375767,0.018407319,-0.031954885,12.469688,9.098638e-06
4216000,4063810,6620172,-0.7438305,0.019644536,-0.046159327,12.468746,1.898688e-05
4288000,4135826,6620172,-0.74389225,0.020873293,-0.036809146,12.468029,1.2074555e-05
4360000,4207841,6620172,-0.7438829,0.02209375,0.005275309,12.467538,2.4801196e-07
4432000,4279855,6620172,-0.7437683,0.023306051,0.06120467,12.466646,3.338697e-05
4504000,4351868,6620172,-0.7439542,0.024510195,-0.09415287,12.435827,7.920451e-05
4576000,4423879,6620172,-0.74392396,0.025706382,0.0145840645,12.436521,1.9002719e-06
4648000,4494556,6620172,-0.7440066,0.026894685,-0.038119495,12.437423,1.2981395e-05
4720000,4566564,6620172,-0.7440296,0.028075151,-0.010174334,12.4385395,9.246984e-07
4784000,4627905,6620172,-0.74421954,0.029110601,-0.080982625,12.439476,5.8578615e-05
4840000,4687913,6620172,-0.74421763,0.030002248,0.00078082085,12.417103,5.455569e-09
4912000,4759921,6620172,-0.74416906,0.031161927,0.019303083,12.418822,3.3337303e-06
4984000,4831928,6620172,-0.74409616,0.032313827,0.027952015,12.420753,6.9893345e-06
5056000,4903934,6620172,-0.74389625,0.033457946,0.0740217,12.422901,4.900637e-05
5128000,4974605,6620172,-0.7437457,0.03459425,0.053924322,12.425275,2.6002846e-05
5192000,5035943,6620172,-0.74428135,0.035586707,-0.18652165,12.427387,0.00031105426
5248000,5095948,6620172,-0.7442354,0.03643633,0.015613139,12.409574,2.1826347e-06
5320000,5167953,6620172,-0.74396074,0.037551694,0.090518355,12.412251,7.3346644e-05
5464000,5311961,6620172,-0.74391466,0.03975852,0.014223993,12.418283,1.8102518e-06
5536000,5383964,6620172,-0.7441473,0.040849894,-0.07050794,12.421649,4.4468692e-05
5608000,5455967,6620172,-0.74420786,0.041933164,-0.017876625,12.425254,2.8577438e-06
5680000,5527970,6620172,-0.7440215,0.043008048,0.053595066,12.410038,2.5717813e-05
5752000,5599973,6620172,-0.7440012,0.044074707,0.00567919,12.413569,2.8869127e-07
5824000,5671975,6620172,-0.74406695,0.045133084,-0.018022716,12.417331,2.906496e-06
5896000,5743977,6620172,-0.7438532,0.046183117,0.057268858,12.421326,2.9337734e-05
5968000,5815979,6620172,-0.74403256,0.047224753,-0.047009826,12.425558,1.9761452e-05
6040000,5887981,6620172,-0.7440028,0.048257634,0.007612884,12.410785,5.1886775e-07
6112000,5959983,6620172,-0.7444608,0.04928199,-0.11491442,12.414777,0.00011818643
6184000,6031984,6620172,-0.7441604,0.050297752,0.07386756,12.418991,4.8817852e-05
6256000,6103986,6620172,-0.74424994,0.051304873,-0.021586657,12.423432,4.1676058e-06
6328000,6175987,6620172,-0.7441629,0.052303303,0.02058661,12.428101,3.7889806e-06
6400000,6247988,6620172,-0.74401724,0.05329299,0.03383577,12.432997,1.0231369e-05
6472000,6319989,6620172,-0.744023,0.054273497,-0.0013135672,12.417465,1.5439353e-08
6544000,6391990,6620172,-0.74438936,0.05524515,-0.08199626,12.421976,6.0138824e-05
6616000,6462657,6620172,-0.74456847,0.056207906,-0.03942412,12.426699,1.3897151e-05
6688000,6535992,6620172,-0.74431795,0.05716173,0.054230332,12.431635,2.6285352e-05
6760000,6607993,6620172,-0.74431366,0.058106583,0.0009097457,12.436782,7.394171e-09
6832000,6679993,6620172,-0.77267456,0.059042264,0.0,12.434787,0.0
8344000,8191999,6620172,-0.109920464,0.059968043,0.0954895,12.465157,8.127763e-05
8416000,8264000,6620172,-0.10944017,0.060884915,0.09789654,12.471048,8.53865e-05
8488000,8334666,6620172,-0.10854127,0.061792083,0.1801494,12.445984,0.00028973032
8560000,8408000,6620172,-0.108072,0.062690236,0.09273317,12.451206,7.673902e-05
8632000,8480000,6620172,-0.10755575,0.06357935,0.10062571,12.456534,9.0318805e-05
8704000,8552000,6620172,-0.106748335,0.06445943,0.15528524,12.461963,0.00021499651
8776000,8624000,6620172,-0.106067844,0.065330446,0.12917876,12.467488,0.00014871705
8848000,8694666,6620172,-0.105497226,0.06619153,0.10670871,12.444816,0.00010166437
8920000,8766666,6620172,-0.10515619,0.06704347,0.06298624,12.44974,3.5406956e-05
8992000,8838666,6620172,-0.10435223,0.06788627,0.1466906,12.45476,0.00019196708
9064000,8912000,6620172,-0.10344632,0.06871994,0.16334271,12.45987,0.00023792687
9136000,8984000,6620172,-0.10299245,0.069544464,0.08089383,12.465067,5.833023e-05
9208000,9056000,6620172,-0.10227539,0.070359856,0.12636891,12.4703455,0.00014228512
9280000,9126666,6620172,-0.10118076,0.0711652,0.19037963,12.448767,0.0003234984
9352000,9200000,6620172,-0.100448124,0.07196135,0.12605259,12.453499,0.00014176521
9424000,9270666,6620172,-0.099748224,0.07274836,0.1191554,12.458314,0.00012662681
9496000,9344000,6620172,-0.09896953,0.073526256,0.13121185,12.463207,0.00015348775
9568000,9416000,6620172,-0.09859046,0.074295044,0.06323344,12.468175,3.563266e-05
9640000,9486666,6620172,-0.09768918,0.07505383,0.14857826,12.448263,0.0001970422
9712000,9560000,6620172,-0.097597204,0.07580354,0.015017062,12.452734,2.012161e-06
9784000,9632000,6620172,-0.0970102,0.076544195,0.094942175,12.45728,8.039937e-05
9856000,9704000,6620172,-0.09639668,0.07727583,0.09832246,12.461897,8.619435e-05
9928000,9776000,6620172,-0.09540218,0.07799847,0.15795064,12.466583,0.00022235804
10000000,9848000,6620172,-0.09429532,0.07871216,0.1742596,12.471332,0.00027054414
10072000,9920000,6620172,-0.0935923,0.079415955,0.109523594,12.452139,0.00010703576
10144000,9992000,6620172,-0.0931362,0.080110855,0.07045998,12.456432,4.42842e-05
10216000,10064000,6620172,-0.092682295,0.080796905,0.06954611,12.460792,4.3127828e-05
10288000,10136000,6620172,-0.092170484,0.081474155,0.07778972,12.465214,5.3938908e-05
10360000,10208000,6620172,-0.09185028,0.08214265,0.048286207,12.469694,2.0775326e-05
10432000,10280000,6620172,-0.09096825,0.08280209,0.13191986,12.467598,0.00015509404
10504000,10352000,6620172,-0.090739995,0.083452135,0.033839345,12.4557705,1.02148215e-05
10576000,10424000,6620172,-0.0904498,0.08409357,0.042705327,12.459891,1.626325e-05
10648000,10496000,6620172,-0.090323046,0.084726445,0.018519871,12.464068,3.0575502e-06
10720000,10566666,6620172,-0.08993879,0.08535083,0.05574663,12.468302,2.7694112e-05
10792000,10640000,6620172,-0.08926457,0.08596677,0.09714094,12.472587,8.4063126e-05
10864000,10712000,6620172,-0.08919621,0.086573295,0.009766281,12.455221,8.508724e-07
10936000,10782666,6620172,-0.08849976,0.08717149,0.09883977,12.45912,8.712315e-05
11008000,10856000,6620172,-0.08771066,0.087761424,0.111265875,12.463072,0.00011037135
11080000,10928000,6620172,-0.08702978,0.088343166,0.09540109,12.467075,8.111471e-05
11152000,11000000,6620172,-0.086591065,0.088916786,0.061089836,12.4711275,3.324985e-05
11224000,11072000,6620172,-0.085987054,0.08948235,0.08360034,12.475225,6.224797e-05
11296000,11144000,6620172,-0.08536261,0.090038836,0.08577343,12.458427,6.56145e-05
11368000,11216000,6620172,-0.08464278,0.09058739,0.09830207,12.462171,8.61567e-05
11440000,11288000,6620172,-0.08427879,0.091128096,0.049425498,12.465963,2.1773776e-05
11512000,11360000,6620172,-0.083327875,0.09166102,0.12840721,12.469801,0.00014691861
11584000,11432000,6620172,-0.08319279,0.09218625,0.018142328,12.473681,2.9318983e-06
11656000,11504000,6620172,-0.08290562,0.09270274,0.03830143,12.457778,1.3084192e-05
11728000,11576000,6620172,-0.082409576,0.093211666,0.06581578,12.4613285,3.8623635e-05
11800000,11648000,6620172,-0.081457,0.093713105,0.12574454,12.464925,0.00014094384
11872000,11720000,6620172,-0.08105244,0.09420714,0.053136684,12.468564,2.5161118e-05
11944000,11792000,6620172,-0.08025766,0.09469384,0.103879586,12.472245,9.613317e-05
12016000,11864000,6620172,-0.0797263,0.0951733,0.069118746,12.4759655,4.2547596e-05
12088000,11936000,6620172,-0.078548655,0.095644444,0.15223607,12.460521,0.00020666001
12160000,12008000,6620172,-0.078517616,0.09610849,0.0039942116,12.463935,1.4222124e-07
12232000,12080000,6620172,-0.078341596,0.096565515,0.022548378,12.467392,4.5311917e-06
12304000,12152000,6620172,-0.077580415,0.097015604,0.09707939,12.470888,8.396807e-05
12376000,12224000,6620172,-0.07771904,0.09745884,-0.017603911,12.474422,2.7602944e-06
12448000,12296000,6620172,-0.07700759,0.097894154,0.08983452,12.459729,7.1967326e-05
12520000,12368000,6620172,-0.076865286,0.098322764,0.017895043,12.462976,2.8549678e-06
12592000,12438666,6620172,-0.07634974,0.09874475,0.0645667,12.466265,3.7156802e-05
12664000,12512000,6620172,-0.07557892,0.0991602,0.09615565,12.46959,8.238629e-05
12736000,12584000,6620172,-0.07482088,0.099569194,0.09419464,12.472953,7.903885e-05
12808000,12656000,6620172,-0.074000016,0.099971816,0.10161532,12.47635,9.195774e-05
12880000,12728000,6620172,-0.07359392,0.10036697,0.0500132,12.462037,2.2301687e-05
12952000,12800000,6620172,-0.07354306,0.10075591,0.006241627,12.465168,3.4726017e-07
13024000,12872000,6620172,-0.07284599,0.1011387,0.08523129,12.468337,6.473618e-05
13096000,12944000,6620172,-0.07166255,0.10151544,0.1441961,12.471542,0.00018524408
13168000,13016000,6620172,-0.07135362,0.101886205,0.037513383,12.47478,1.2534213e-05
13240000,13086666,6620172,-0.07087561,0.10224992,0.0577733,12.461108,2.9761524e-05
13304000,13148000,6620172,-0.07002158,0.102474816,0.10301062,12.463559,9.4597446e-05
13360000,13208000,6620172,-0.06949861,0.10256316,0.06303305,12.46549,3.54148e-05
13432000,13280000,6620172,-0.06875708,0.102916144,0.0890909,12.468536,7.073082e-05
13504000,13352000,6620172,-0.067837976,0.10326346,0.11007788,12.471618,0.00010795303
13576000,13422666,6620172,-0.06737435,0.10360519,0.055356286,12.4747305,2.7293563e-05
13648000,13496000,6620172,-0.06647725,0.10394025,0.10665047,12.461555,0.00010141701
13720000,13564000,6620172,-0.06591898,0.10426987,0.06617207,12.464433,3.9033224e-05
13784000,13628000,6620172,-0.06581401,0.10446118,0.012421668,12.466812,1.3751874e-06
13840000,13688000,6620172,-0.06555948,0.10451647,0.030108444,12.468672,8.078187e-06
13912000,13760000,6620172,-0.06464145,0.10483686,0.108284086,12.471642,0.00010446316
13984000,13832000,6620172,-0.06410565,0.105152026,0.06302402,12.474642,3.537868e-05
14056000,13902666,6620172,-0.063487105,0.1054609,0.07246747,12.461912,4.682297e-05
14128000,13976000,6620172,-0.06360951,0.105764695,-0.014302202,12.464692,1.8233991e-06
14200000,14048000,6620172,-0.06426094,0.10606349,-0.07591686,12.467505,5.136347e-05
14272000,14120000,6620172,-0.0637383,0.106357366,0.060751416,12.470353,3.2884524e-05
14344000,14192000,6620172,-0.06327124,0.10664639,0.054155782,12.47323,2.6125716e-05
14416000,14264000,6620172,-0.06298068,0.106930636,0.033608153,12.476138,1.0059274e-05
14488000,14336000,6620172,-0.06206771,0.10720902,0.10521701,12.463648,9.869252e-05
14560000,14408000,6620172,-0.06133863,0.107482776,0.08382674,12.466349,6.263015e-05
14632000,14480000,6620172,-0.060629122,0.107751966,0.08138868,12.469082,5.9027043e-05
14704000,14552000,6620172,-0.059814624,0.10801667,0.093221895,12.471846,7.742168e-05
14776000,14624000,6620172,-0.059885707,0.108276956,-0.008117504,12.474641,5.869141e-07
14848000,14696000,6620172,-0.05939281,0.10853175,0.056101527,12.462605,2.8060667e-05
14920000,14768000,6620172,-0.058377117,0.10878227,0.11536205,12.465201,0.000118627155
14992000,14840000,6620172,-0.058501802,0.10902857,-0.014132649,12.467828,1.7799747e-06
15064000,14912000,6620172,-0.058711704,0.10927073,-0.02374307,12.470489,5.022822e-06
15136000,14984000,6620172,-0.059128582,0.10950881,-0.047062222,12.473178,1.9729916e-05
15208000,15056000,6620172,-0.059875984,0.10974289,-0.08421248,12.475895,6.31595e-05
15280000,15128000,6620172,-0.060506273,0.109971866,-0.07080029,12.464066,4.468562e-05
15352000,15200000,6620172,-0.06041763,0.11019697,0.009938646,12.466596,8.8036757e-07
15424000,15272000,6620172,-0.06054258,0.11041825,-0.013984226,12.469157,1.7425981e-06
15496000,15344000,6620172,-0.059953403,0.11063579,0.065822124,12.471749,3.859881e-05
15568000,15416000,6620172,-0.059460428,0.110849634,0.054979037,12.47437,2.6923599e-05
15640000,15488000,6620172,-0.05877264,0.11105872,0.07648924,12.462941,5.2160005e-05
15712000,15560000,6620172,-0.058099516,0.111264236,0.07473333,12.465381,4.978295e-05
15784000,15632000,6620172,-0.05773835,0.11146625,0.04003311,12.467853,1.4282508e-05
15856000,15704000,6620172,-0.057599925,0.111664824,0.015318915,12.470355,2.090907e-06
15928000,15776000,6620172,-0.05721618,0.111860014,0.04240217,12.472886,1.6016467e-05
16000000,15848000,6620172,-0.056547374,0.112051874,0.07378723,12.475447,4.8491293e-05
16072000,15920000,6620172,-0.056384042,0.11223932,0.017973155,12.464189,2.879666e-06
16144000,15992000,6620172,-0.05528627,0.11242356,0.120623544,12.466576,0.00012968044
16216000,16064000,6620172,-0.055664357,0.11260465,-0.04148497,12.468995,1.5335841e-05
16288000,16136000,6620172,-0.055182513,0.112782635,0.052795704,12.471442,2.4833502e-05
16360000,16208000,6620172,-0.054110356,0.112957574,0.117316306,12.47392,0.00012259459
16432000,16280000,6620172,-0.053054463,0.11312931,0.115359135,12.473856,0.00011853886
16504000,16352000,6620172,-0.052680045,0.11329718,0.040816914,12.465326,1.4850264e-05
16576000,16422666,6620172,-0.052831627,0.113462165,-0.016503304,12.467668,2.4272476e-06
16640000,16484000,6620172,-0.053069293,0.113491565,-0.025873207,12.469559,5.9649515e-06
16696000,16544000,6620172,-0.053216603,0.11338783,-0.016053021,12.470985,2.2959914e-06
16768000,16616000,6620172,-0.052414175,0.11355164,0.08733526,12.473408,6.794408e-05
16840000,16688000,6620172,-0.05206555,0.113711536,0.03785729,12.462776,1.2777378e-05
16912000,16758666,6620172,-0.051640935,0.113868676,0.04605359,12.465038,1.8905615e-05
16976000,16820000,6620172,-0.050621986,0.113890365,0.11050934,12.466865,0.00010884243
17032000,16880000,6620172,-0.05022938,0.11377907,0.04262638,12.468241,1.6192325e-05
17104000,16952000,6620172,-0.049889177,0.11393543,0.0368932,12.470586,1.2127277e-05
17176000,17024000,6620172,-0.04994728,0.11408912,-0.0062936842,12.472959,3.5285632e-07
17248000,17096000,6620172,-0.049889773,0.11423907,0.006215591,12.46257,3.444409e-07
17320000,17168000,6620172,-0.049400814,0.11438643,0.052788943,12.464789,2.4840394e-05
17392000,17240000,6620172,-0.049010932,0.11453126,0.042046078,12.467039,1.575597e-05
17464000,17312000,6620172,-0.048455417,0.1146736,0.059844673,12.469318,3.1912863e-05
17536000,17382666,6620172,-0.04808342,0.11481349,0.040032566,12.471626,1.4277798e-05
17608000,17454666,6620172,-0.04706104,0.114950985,0.10991204,12.473962,0.00010760777
17672000,17516000,6620172,-0.04672291,0.11495231,0.036318853,12.463222,1.1759571e-05
17728000,17576000,6620172,-0.045559485,0.11482104,0.12512258,12.464506,0.00013955768
17800000,17648000,6620172,-0.04576687,0.114957765,-0.022281092,12.466717,4.4246435e-06
17872000,17720000,6620172,-0.04592306,0.115092136,-0.016763646,12.468958,2.504173e-06
17944000,17792000,6620172,-0.04611523,0.115224205,-0.020605259,12.471227,3.7827222e-06
18016000,17862666,6620172,-0.046430565,0.11535401,-0.03377979,12.473523,1.0164411e-05
18080000,17924000,6620172,-0.045163978,0.115347795,0.1355724,12.462994,0.00016386178
18136000,17984000,6620172,-0.044967815,0.11520913,0.021024574,12.464251,3.940449e-06
18208000,18056000,6620172,-0.04437514,0.11533859,0.06346147,12.466428,3.589514e-05
18280000,18125333,6620172,-0.04431378,0.115465835,0.006563861,12.468635,3.8393466e-07
18352000,18200000,6620172,-0.043150205,0.115590885,0.12436139,12.47087,0.00013779449
18424000,18272000,6620172,-0.0427484,0.1157138,0.042906065,12.473132,1.6399075e-05
18496000,18344000,6620172,-0.042925693,0.115833536,-0.018897109,12.463226,3.1835943e-06
18568000,18416000,6620172,-0.043361098,0.11595121,-0.04636874,12.465349,1.9164772e-05
18640000,18488000,6620172,-0.043126535,0.116066866,0.024958998,12.467504,5.5517803e-06
18712000,18560000,6620172,-0.043337744,0.11618054,-0.02245574,12.469685,4.4932112e-06
18784000,18632000,6620172,-0.04345693,0.11629227,-0.012662012,12.471894,1.4283365e-06
18856000,18704000,6620172,-0.04354585,0.11640103,-0.009430032,12.462203,7.928463e-07
18928000,18776000,6620172,-0.042925287,0.116507925,0.06576265,12.464275,3.8552185e-05
19000000,18848000,6620172,-0.04244788,0.11661299,0.05055468,12.466378,2.2779279e-05
19072000,18920000,6620172,-0.0417122,0.116716266,0.07784827,12.46851,5.400586e-05
19144000,18992000,6620172,-0.04267444,0.11681778,-0.10175094,12.470671,9.224536e-05
19216000,19064000,6620172,-0.042240564,0.116917565,0.04584827,12.472857,1.8725672e-05
19288000,19136000,6620172,-0.04221044,0.117014594,0.0031780638,12.46321,9.004359e-08
19360000,19208000,6620172,-0.04200199,0.11710997,0.021977287,12.465266,4.305307e-06
19432000,19280000,6620172,-0.042775523,0.11720372,-0.081502646,12.46735,5.920069e-05
19504000,19352000,6620172,-0.04295386,0.11729588,-0.018778432,12.469463,3.1421605e-06
19576000,19424000,6620172,-0.04232355,0.11738649,0.06633033,12.471604,3.91976e-05
19648000,19496000,6620172,-0.041835945,0.11747452,0.05123468,12.462153,2.3404129e-05
19720000,19566666,6620172,-0.040549174,0.11756105,0.13512819,12.464163,0.00016277445
19792000,19640000,6620172,-0.040085766,0.11764612,0.048636332,12.466203,2.1083608e-05
19864000,19712000,6620172,-0.04007514,0.11772976,0.0011148192,12.468271,1.1075419e-08
19936000,19782666,6620172,-0.04041857,0.11781199,-0.036005184,12.4703665,1.1550701e-05
20000000,19844000,6620172,-0.040393133,0.11776019,0.0026683249,12.4720335,6.343043e-08
20056000,19904000,6620172,-0.04006999,0.117575824,0.033923406,12.461808,1.0260661e-05
20128000,19976000,6620172,-0.03988296,0.117660396,0.019623213,12.463799,3.4327902e-06
20200000,20048000,6620172,-0.03978434,0.11774354,0.010341946,12.46582,9.533254e-07
20272000,20120000,6620172,-0.03981676,0.11782528,-0.0033980347,12.467869,1.0290131e-07
20344000,20190666,6620172,-0.040159155,0.11790565,-0.035866834,12.469946,1.1462491e-05
20416000,20264000,6620172,-0.039282117,0.117984675,0.09182541,12.47205,7.5118245e-05
20488000,20336000,6620172,-0.03888013,0.11806134,0.0420287,12.462767,1.5748345e-05
20560000,20408000,6620172,-0.03749619,0.11813673,0.14462353,12.464746,0.00018644554
20632000,20480000,6620172,-0.037124358,0.11821085,0.038838964,12.466756,1.3444334e-05
20704000,20552000,6620172,-0.03720752,0.11828374,-0.008682527,12.468793,6.717773e-07
20776000,20624000,6620172,-0.037286706,0.11835542,-0.00826367,12.470858,6.0842507e-07
20848000,20696000,6620172,-0.037144743,0.11842489,0.014795251,12.461741,1.9517468e-06
20920000,20766666,6620172,-0.036599524,0.11849321,0.056798063,12.463681,2.8759292e-05
20992000,20840000,6620172,-0.036740698,0.118560396,-0.0147005245,12.465652,1.92623e-06
21064000,20912000,6620172,-0.036473926,0.118626475,0.02776853,12.467651,6.8719282e-06
21136000,20984000,6620172,-0.036978934,0.118691474,-0.05254585,12.469679,2.4602488e-05
21208000,21056000,6620172,-0.03738656,0.118755415,-0.042397287,12.471732,1.6014259e-05
21280000,21128000,6620172,-0.03805224,0.11881728,-0.06915031,12.462627,4.2632037e-05
21352000,21198666,6620172,-0.03712565,0.11887813,0.09621874,12.4645605,8.2527724e-05
21424000,21272000,6620172,-0.036351424,0.118938,0.080369055,12.466523,5.7569156e-05
21496000,21344000,6620172,-0.03604523,0.118996896,0.031773787,12.4685135,8.996649e-06
21568000,21416000,6620172,-0.035792194,0.11905484,0.026249088,12.470531,6.139047e-06
21640000,21488000,6620172,-0.035676785,0.11911084,0.011957966,12.461582,1.274967e-06
21712000,21560000,6620172,-0.0359711,0.11916593,-0.030485325,12.46348,8.285139e-06
21784000,21632000,6620172,-0.035535302,0.11922014,0.045126375,12.465406,1.8151475e-05
21856000,21704000,6620172,-0.035923142,0.11927348,-0.04014829,12.467362,1.4365378e-05
21928000,21776000,6620172,-0.036665633,0.11932597,-0.07683931,12.469346,5.261151e-05
22000000,21848000,6620172,-0.036167294,0.11937764,0.05155821,12.471356,2.368315e-05
22072000,21920000,6620172,-0.03682904,0.11942748,-0.06838593,12.462412,4.169547e-05
22144000,21992000,6620172,-0.036113672,0.11947653,0.0739079,12.464306,4.869351e-05
22216000,22064000,6620172,-0.03577053,0.11952481,0.035442285,12.466227,1.1196078e-05
22288000,22136000,6620172,-0.036339983,0.119572334,-0.058803443,12.468178,3.081485e-05
22360000,22208000,6620172,-0.035714556,0.11961912,0.06456874,12.470155,3.7147565e-05
22432000,22280000,6620172,-0.03521915,0.11966503,0.051125932,12.4703665,2.328953e-05
22504000,22352000,6620172,-0.034449257,0.119709365,0.07937808,12.463218,5.6173118e-05
22576000,22424000,6620172,-0.035101816,0.119753025,-0.06726583,12.465107,4.033207e-05
22648000,22496000,6620172,-0.03537803,0.119796015,-0.0284663,12.467025,7.221987e-06
22720000,22568000,6620172,-0.034692895,0.11983836,0.07059532,12.46897,4.4409786e-05
22792000,22640000,6620172,-0.0344296,0.119880065,0.027124535,12.4709425,6.555153e-06
22864000,22712000,6620172,-0.03429847,0.11992013,0.01349454,12.462143,1.6236071e-06
22936000,22782666,6620172,-0.03439875,0.119959585,-0.010318231,12.464001,9.490968e-07
23008000,22856000,6620172,-0.0338582,0.119998455,0.055608466,12.465888,2.756234e-05
23080000,22928000,6620172,-0.033144496,0.12003675,0.073408976,12.467802,4.8024838e-05
23152000,23000000,6620172,-0.03363025,0.12007449,-0.04995487,12.469745,2.2235945e-05
23224000,23072000,6620172,-0.033559613,0.120111674,0.0072630607,12.471712,4.6997067e-07
23296000,23144000,6620172,-0.032938484,0.1201473,0.06380253,12.462912,3.629224e-05
23368000,23216000,6620172,-0.032738116,0.12018242,0.020578865,12.464767,3.774993e-06
23440000,23288000,6620172,-0.031944126,0.120217025,0.08153573,12.466652,5.9252074e-05
23512000,23360000,6620172,-0.031710885,0.12025114,0.02394852,12.468564,5.110912e-06
23584000,23432000,6620172,-0.031617813,0.12028478,0.009555124,12.470503,8.134786e-07
23656000,23504000,6620172,-0.030750757,0.12031694,0.088929825,12.461837,7.051318e-05
23728000,23576000,6620172,-0.03053631,0.12034864,0.021992212,12.463663,4.311711e-06
23800000,23648000,6620172,-0.029452821,0.1203799,0.111102715,12.465519,0.000110026296
23872000,23720000,6620172,-0.029438501,0.12041073,0.0014682021,12.467401,1.9211146e-08
23944000,23792000,6620172,-0.028732527,0.120441146,0.072376736,12.469312,4.667808e-05
24016000,23864000,6620172,-0.028216757,0.12047115,0.05287193,12.471249,2.490565e-05
24088000,23936000,6620172,-0.027507082,0.12049974,0.07268087,12.462575,4.709664e-05
24160000,24008000,6620172,-0.02671487,0.120527945,0.08112647,12.464401,5.866934e-05
24232000,24080000,6620172,-0.026529675,0.12055578,0.018963406,12.466257,3.2051923e-06
24304000,24152000,6620172,-0.026893506,0.12058325,-0.03725206,12.46814,1.2366774e-05
24376000,24224000,6620172,-0.026970634,0.120610364,-0.007896533,12.470049,5.556001e-07
24448000,24294666,6620172,-0.026193503,0.12063613,0.079491384,12.461502,5.6341345e-05
24520000,24368000,6620172,-0.026069589,0.120661564,0.012674216,12.463302,1.4320777e-06
24592000,24440000,6620172,-0.025853185,0.12068668,0.022132821,12.465129,4.366508e-06
24664000,24512000,6620172,-0.026142888,0.12071148,-0.029627772,12.466984,7.823374e-06
24736000,24584000,6620172,-0.02628713,0.12073598,-0.014750667,12.468866,1.9388929e-06
24808000,24656000,6620172,-0.026012756,0.12076018,0.028057149,12.470776,7.013763e-06
24880000,24728000,6620172,-0.026202314,0.12078308,-0.019366883,12.462217,3.344118e-06
24952000,24800000,6620172,-0.02661555,0.12080571,-0.042218097,12.464019,1.5889005e-05
25024000,24872000,6620172,-0.02688197,0.12082807,-0.027217457,12.465847,6.60284e-06
25096000,24944000,6620172,-0.027281417,0.12085017,-0.040806018,12.467703,1.4839507e-05
25168000,25014666,6620172,-0.026800754,0.12087202,0.049101487,12.469585,2.148299e-05
25240000,25088000,6620172,-0.025758386,0.12089264,0.106390595,12.46115,0.00010092664
25312000,25160000,6620172,-0.025745813,0.120913014,0.001283288,12.462925,1.4682019e-08
25384000,25232000,6620172,-0.025182283,0.12093317,0.05751461,12.464727,2.9487035e-05
25528000,25376000,6620172,-0.025134346,0.12097282,0.0047955923,12.468414,2.049419e-07
25600000,25448000,6620172,-0.024720015,0.12099233,0.042285226,12.470299,1.5931548e-05
25672000,25520000,6620172,-0.024664342,0.12101065,0.0056770463,12.461848,2.8735576e-07
25744000,25592000,6620172,-0.02396487,0.12102879,0.07132572,12.463625,4.5352943e-05
25816000,25664000,6620172,-0.023277344,0.12104674,0.070107445,12.46543,4.381053e-05
25888000,25736000,6620172,-0.023614407,0.121064514,-0.034370363,12.467263,1.05282115e-05
25960000,25808000,6620172,-0.024129823,0.12108212,-0.05255747,12.469121,2.461447e-05
26032000,25878666,6620172,-0.02463516,0.121099405,-0.051523253,12.4693775,2.36548e-05
26096000,25940000,6620172,-0.024517203,0.12098311,0.012031401,12.462138,1.2906168e-06
26152000,26000000,6620172,-0.024034018,0.12073663,0.049389027,12.463105,2.174664e-05
26224000,26072000,6620172,-0.02309961,0.120760255,0.095506184,12.464909,8.130765e-05
26296000,26144000,6620172,-0.023605146,0.12078359,-0.051668458,12.46674,2.379335e-05
26368000,26216000,6620172,-0.023917934,0.12080665,-0.031967364,12.468597,9.106542e-06
26440000,26288000,6620172,-0.023354068,0.120828465,0.057578824,12.460339,2.956332e-05
26512000,26358666,6620172,-0.022940354,0.12085002,0.04224445,12.4620905,1.5911308e-05
26576000,26420000,6620172,-0.023271242,0.12073873,-0.033822343,12.463464,1.01982605e-05
26632000,26480000,6620172,-0.022864105,0.12049716,0.041703857,12.464447,1.5503756e-05
26704000,26552000,6620172,-0.022420086,0.1205256,0.04547763,12.466277,1.8433862e-05
26776000,26624000,6620172,-0.021529816,0.12055366,0.09117619,12.468133,7.408307e-05
26848000,26696000,6620172,-0.021488512,0.12058038,0.0042263493,12.459942,1.5928403e-07
26920000,26768000,6620172,-0.021131143,0.12060676,0.036564194,12.461694,1.1920443e-05
26992000,26840000,6620172,-0.020693421,0.12063278,0.044782266,12.463472,1.787848e-05
27064000,26912000,6620172,-0.021094628,0.12065847,-0.04104364,12.46528,1.5015756e-05
27136000,26984000,6620172,-0.021632154,0.120683834,-0.054985695,12.467112,2.69458e-05
27208000,27056000,6620172,-0.021660544,0.120708875,-0.0029039793,12.46897,7.51474e-08
27280000,27128000,6620172,-0.021026667,0.12073264,0.06478188,12.460745,3.742145e-05
27352000,27200000,6620172,-0.020592468,0.12075611,0.044372614,12.462501,1.7554252e-05
27424000,27272000,6620172,-0.02053878,0.1207793,0.0054862667,12.464284,2.6831438e-07
27496000,27344000,6620172,-0.01943466,0.1208022,0.11282393,12.466094,0.00011345655
27568000,27416000,6620172,-0.018722396,0.12082483,0.07277939,12.46793,4.7204125e-05
27640000,27488000,6620172,-0.017685015,0.120846234,0.10591112,12.4598,0.000100029836
27712000,27560000,6620172,-0.01768068,0.12086739,0.0004425831,12.461533,1.7465286e-09
27784000,27632000,6620172,-0.017174177,0.12088829,0.05170778,12.463293,2.383617e-05
27856000,27704000,6620172,-0.016773365,0.12090896,0.040916853,12.465079,1.4923369e-05
27928000,27776000,6620172,-0.016798887,0.1209294,-0.0026052967,12.466893,6.049418e-08
28000000,27848000,6620172,-0.01627737,0.12094961,0.053236876,12.468732,2.5255753e-05
28072000,27920000,6620172,-0.016270375,0.12096865,0.00071340427,12.460569,4.5382773e-09
28144000,27992000,6620172,-0.015670123,0.120987475,0.06122277,12.462306,3.341835e-05
28216000,28064000,6620172,-0.016144527,0.1210061,-0.048386276,12.46407,2.0870939e-05
28288000,28136000,6620172,-0.016066127,0.12102454,0.007996334,12.465861,5.699241e-07
28360000,28208000,6620172,-0.015767075,0.12104279,0.030500941,12.467678,8.290836e-06
28432000,28280000,6620172,-0.01670653,0.12106071,-0.09580519,12.46797,8.179746e-05
28504000,28352000,6620172,-0.016876789,0.121077634,-0.017351087,12.461325,2.6843966e-06
28576000,28424000,6620172,-0.016634824,0.1210944,0.024658771,12.463067,5.42095e-06
28648000,28496000,6620172,-0.016078113,0.121111006,0.05673492,12.464836,2.8692724e-05
28720000,28568000,6620172,-0.015256763,0.12112746,0.08370507,12.466631,6.244705e-05
28792000,28640000,6620172,-0.014404855,0.12114376,0.08682048,12.4684515,6.7172165e-05
28864000,28712000,6620172,-0.014729405,0.121158965,-0.03304998,12.46035,9.740239e-06
28936000,28784000,6620172,-0.014681261,0.12117404,0.0049027447,12.46207,2.1431168e-07
29008000,28856000,6620172,-0.015282682,0.12118898,-0.061246473,12.463818,3.3440178e-05
29080000,28928000,6620172,-0.015738541,0.1212038,-0.04642386,12.4655905,1.9209989e-05
29152000,29000000,6620172,-0.015684687,0.12121851,0.005484635,12.467389,2.6808803e-07
29224000,29072000,6620172,-0.014945758,0.1212331,0.075255,12.469214,5.0464863e-05
29296000,29142666,6620172,-0.01490685,0.12124662,0.0039594295,12.4610815,1.3978706e-07
29368000,29216000,6620172,-0.013813064,0.12126004,0.11131188,12.462806,0.00011046501
29440000,29288000,6620172,-0.013574183,0.12127337,0.02431111,12.464558,5.2685396e-06
29512000,29360000,6620172,-0.013532863,0.1212866,0.0042052865,12.466335,1.5761947e-07
29584000,29432000,6620172,-0.012948932,0.12129975,0.0594313,12.468139,3.147649e-05
29656000,29502666,6620172,-0.013410048,0.121311866,-0.04689604,12.4601,1.9611387e-05
29720000,29564000,6620172,-0.012901567,0.12119133,0.051770642,12.461409,2.3897775e-05
29776000,29624000,6620172,-0.012455099,0.1209407,0.045555376,12.462339,1.8502787e-05
29848000,29696000,6620172,-0.012806199,0.12096025,-0.03582371,12.464092,1.1440314e-05
29920000,29768000,6620172,-0.012006215,0.120979585,0.08162334,12.465872,5.938319e-05
29992000,29840000,6620172,-0.012190337,0.12099872,-0.01878602,12.467675,3.1451516e-06
30064000,29912000,6620172,-0.011647194,0.1210167,0.05537271,12.459694,2.734272e-05
30136000,29984000,6620172,-0.011671244,0.1210345,-0.0024519274,12.461399,5.3605074e-08
30208000,30056000,6620172,-0.010643151,0.12105212,0.10481089,12.463132,9.793617e-05
30280000,30128000,6620172,-0.0112526985,0.121069565,-0.062141273,12.46489,3.4421464e-05
30352000,30200000,6620172,-0.011859859,0.121086836,-0.061897937,12.466675,3.4147524e-05
30424000,30272000,6620172,-0.011887216,0.1211038,-0.0027885782,12.46699,6.930451e-08
30496000,30344000,6620172,-0.012042243,0.121119805,-0.015792228,12.460485,2.2238698e-06
30568000,30416000,6620172,-0.012937506,0.12113566,-0.09119873,12.462197,7.4154996e-05
30640000,30488000,6620172,-0.011794642,0.121151365,0.116422616,12.463936,0.00012083062
30712000,30560000,6620172,-0.012752828,0.12116694,-0.097610876,12.4657,8.4925334e-05
30784000,30632000,6620172,-0.01181222,0.121182375,0.09582168,12.467489,8.1828766e-05
30856000,30704000,6620172,-0.011912034,0.12119675,-0.010160436,12.459551,9.2061873e-07
30928000,30776000,6620172,-0.012015661,0.121211,-0.010548904,12.461242,9.922265e-07
31000000,30848000,6620172,-0.011895229,0.12122513,0.012259802,12.462959,1.3399952e-06
31072000,30920000,6620172,-0.011736712,0.12123916,0.016137172,12.464703,2.3212951e-06
31144000,30992000,6620172,-0.011589049,0.12125308,0.015032611,12.466471,2.0141083e-06
31216000,31064000,6620172,-0.011636486,0.1212669,-0.0048294077,12.468265,2.0784483e-07
31288000,31136000,6620172,-0.011470803,0.12127968,0.016854992,12.460289,2.533299e-06
31360000,31208000,6620172,-0.011777716,0.12129237,-0.03122329,12.461987,8.6921555e-06
31432000,31280000,6620172,-0.0116721485,0.121304974,0.010740118,12.46371,1.02832e-06
31504000,31352000,6620172,-0.011530428,0.121317506,0.0144187305,12.465458,1.8531191e-06
31576000,31424000,6620172,-0.0117686335,0.12132996,-0.024236172,12.467233,5.234986e-06
31648000,31496000,6620172,-0.011622264,0.12134141,0.0148814265,12.459344,1.9749289e-06
31720000,31568000,6620172,-0.010420511,0.12135279,0.12218745,12.46102,0.00013312422
31792000,31640000,6620172,-0.010075815,0.12136412,0.035048194,12.462723,1.0951557e-05
31864000,31712000,6620172,-0.0101589,0.12137539,-0.008448355,12.464451,6.3625123e-07
31936000,31784000,6620172,-0.009922748,0.12138661,0.02401388,12.466206,5.1398197e-06
32008000,31856000,6620172,-0.009466262,0.12139778,0.046421774,12.467984,1.9204574e-05
32080000,31928000,6620172,-0.010206472,0.12140796,-0.07522002,12.46006,5.0455e-05
32152000,32000000,6620172,-0.010662488,0.12141811,-0.0463426,12.461742,1.9148709e-05
32224000,32072000,6620172,-0.010561777,0.12142822,0.010235242,12.463451,9.339322e-07
32296000,32142666,6620172,-0.011205213,0.1214383,-0.06539647,12.465186,3.812127e-05
32360000,32204000,6620172,-0.012069842,0.12131578,-0.08797692,12.466536,6.8984125e-05
32416000,32264000,6620172,-0.012136728,0.1210632,-0.006820539,12.467492,4.145871e-07
32488000,32336000,6620172,-0.012021211,0.12107992,0.011770517,12.459624,1.2355024e-06
32560000,32408000,6620172,-0.012231789,0.12109647,-0.021456573,12.461309,4.105013e-06
32632000,32480000,6620172,-0.012622995,0.12111286,-0.039861716,12.463021,1.4165965e-05
32704000,32552000,6620172,-0.013330527,0.121129096,-0.0720938,12.464759,4.6330762e-05
32776000,32624000,6620172,-0.013795404,0.12114518,-0.047368936,12.46652,1.9998595e-05
32848000,32696000,6620172,-0.012922591,0.1211602,0.08886865,12.458732,7.043375e-05
32920000,32768000,6620172,-0.0131250685,0.12117509,-0.020616228,12.460398,3.7900418e-06
32992000,32840000,6620172,-0.013462226,0.12118985,-0.034329765,12.46209,1.0507714e-05
33064000,32912000,6620172,-0.012548665,0.12120448,0.09302155,12.463807,7.713898e-05
33136000,32984000,6620172,-0.012295654,0.121218994,0.025762776,12.46555,5.916043e-06
33208000,33056000,6620172,-0.011906373,0.121233396,0.039639406,12.467317,1.4003571e-05
33280000,33128000,6620172,-0.012320522,0.121246755,-0.042140257,12.459487,1.5836225e-05
33352000,33200000,6620172,-0.012123862,0.12126002,0.020010952,12.46116,3.5705452e-06
33424000,33272000,6620172,-0.012343312,0.12127318,-0.022330483,12.462858,4.4456583e-06
33496000,33344000,6620172,-0.012141041,0.12128625,0.020583058,12.4645815,3.7765876e-06
33568000,33416000,6620172,-0.012076614,0.12129923,0.0065563247,12.466331,3.8312436e-07
33640000,33488000,6620172,-0.011998669,0.12131121,0.007926224,12.458579,5.603013e-07
33712000,33560000,6620172,-0.012380639,0.12132311,-0.038843617,12.460233,1.3454596e-05
33784000,33632000,6620172,-0.011966016,0.12133494,0.042165793,12.461911,1.585234e-05
33856000,33704000,6620172,-0.010906131,0.121346705,0.107791215,12.463617,0.000103581006
33928000,33776000,6620172,-0.0102716945,0.1213584,0.064525515,12.465346,3.711215e-05
34000000,33846666,6620172,-0.01000898,0.12137004,0.02672067,12.4671,6.363363e-06
34072000,33920000,6620172,-0.009006114,0.121380694,0.10192792,12.459311,9.265093e-05
34144000,33992000,6620172,-0.008335327,0.121391304,0.0681797,12.460971,4.1449162e-05
34216000,34064000,6620172,-0.008037456,0.12140186,0.030277465,12.462656,8.173082e-06
34288000,34136000,6620172,-0.008616164,0.12141238,-0.05882656,12.464367,3.0848507e-05
34360000,34208000,6620172,-0.008348284,0.121422864,0.027231887,12.466103,6.6097077e-06
34432000,34280000,6620172,-0.008224727,0.12143317,0.01255971,12.466435,1.4059647e-06
34504000,34352000,6620172,-0.008313492,0.12144265,-0.009017705,12.460034,7.251541e-07
34576000,34424000,6620172,-0.008305256,0.12145211,0.0008366853,12.461701,6.241722e-09
34648000,34496000,6620172,-0.008617891,0.12146154,-0.031764325,12.463394,8.9949845e-06
34720000,34568000,6620172,-0.007997859,0.12147096,0.06300022,12.465112,3.5378987e-05
34792000,34640000,6620172,-0.00756867,0.12148036,0.043611873,12.466852,1.6951579e-05
34864000,34712000,6620172,-0.007481511,0.121488824,0.008850409,12.459103,6.985498e-07
34936000,34782666,6620172,-0.0069306158,0.12149728,0.055943426,12.460752,2.7906884e-05
35008000,34856000,6620172,-0.007495822,0.12150573,-0.05740044,12.462425,2.9375506e-05
35080000,34928000,6620172,-0.008047913,0.12151418,-0.056072295,12.464125,2.8028015e-05
35152000,34998666,6620172,-0.008125817,0.12152263,-0.00791278,12.465848,5.5807664e-07
35216000,35060000,6620172,-0.00792286,0.12139851,0.020638024,12.467187,3.7959917e-06
35272000,35118666,6620172,-0.0074422807,0.12114346,0.048938483,12.458665,2.13593e-05
35344000,35192000,6620172,-0.007752491,0.12115867,-0.0315897,12.460317,8.898554e-06
35416000,35264000,6620172,-0.0077350996,0.12117374,0.0017710458,12.461995,2.7965946e-08
35488000,35334666,6620172,-0.0075806277,0.12118868,0.015730705,12.463698,2.2060074e-06
35552000,35396000,6620172,-0.0073368372,0.12107091,0.024853576,12.465022,5.506076e-06
35608000,35456000,6620172,-0.0075114574,0.12082298,-0.017840166,12.465957,2.836806e-06
35680000,35528000,6620172,-0.008088681,0.12084428,-0.05892531,12.458305,3.096722e-05
35752000,35600000,6620172,-0.007920652,0.12086532,0.017152403,12.459961,2.6235584e-06
35824000,35672000,6620172,-0.0072501996,0.12088612,0.06843701,12.461642,4.1760366e-05
35896000,35744000,6620172,-0.0072838124,0.120906666,-0.0034309528,12.463349,1.0494269e-07
35968000,35814666,6620172,-0.0075494107,0.120926976,-0.027109498,12.46508,6.550966e-06
36040000,35888000,6620172,-0.0073990887,0.12094616,0.015331393,12.457495,2.0964765e-06
36112000,35960000,6620172,-0.0074354587,0.12096512,-0.0037093097,12.459132,1.227032e-07
36184000,36032000,6620172,-0.0070567345,0.12098388,0.038624424,12.460795,1.3302577e-05
36256000,36104000,6620172,-0.0068247537,0.12100242,0.023658298,12.462484,4.990222e-06
36328000,36176000,6620172,-0.005722449,0.12102077,0.112415574,12.464196,0.000112653885
36400000,36248000,6620172,-0.005604093,0.12103893,0.012070105,12.465933,1.2985385e-06
36472000,36320000,6620172,-0.00517775,0.12105599,0.04344589,12.458299,1.6834341e-05
36544000,36392000,6620172,-0.0056312587,0.12107288,-0.04621385,12.459944,1.9045206e-05
36616000,36462666,6620172,-0.005198954,0.1210896,0.04405289,12.461614,1.7303424e-05
36688000,36536000,6620172,-0.0052308906,0.121106155,-0.003254415,12.463309,9.4421296e-08
36760000,36608000,6620172,-0.0052125007,0.12112255,0.001873957,12.465028,3.130282e-08
36832000,36680000,6620172,-0.0043892083,0.121138655,0.08388682,12.465383,6.27248e-05
36904000,36752000,6620172,-0.004076673,0.12115384,0.03182451,12.45909,9.032222e-06
36976000,36822666,6620172,-0.0044556158,0.12116888,-0.0385869,12.460742,1.3276798e-05
37048000,36896000,6620172,-0.0042695054,0.12118379,0.018951464,12.4624195,3.2021426e-06
37120000,36968000,6620172,-0.0041730343,0.12119857,0.009823704,12.46412,8.602931e-07
37192000,37040000,6620172,-0.0045342315,0.12121323,-0.036781557,12.465846,1.2058575e-05
37264000,37112000,6620172,-0.0046729133,0.12122686,-0.014112009,12.458234,1.7761461e-06
37336000,37184000,6620172,-0.0051740054,0.121240385,-0.050991148,12.4598675,2.3186416e-05
37408000,37254666,6620172,-0.0046484345,0.1212538,0.05348333,12.461527,2.5504869e-05
37472000,37316000,6620172,-0.0040378324,0.12113454,0.06220459,12.462816,3.449738e-05
37528000,37376000,6620172,-0.00375885,0.120885156,0.028482413,12.463725,7.2320795e-06
37600000,37448000,6620172,-0.0031600492,0.12090592,0.0611319,12.465454,3.3310807e-05
37672000,37520000,6620172,-0.0030593676,0.12092555,0.010270645,12.457884,9.408246e-07
37744000,37592000,6620172,-0.0030512155,0.12094496,0.00083158445,12.459522,6.1669274e-09
37816000,37664000,6620172,-0.002628486,0.12096415,0.043120794,12.461185,1.6579508e-05
37888000,37736000,6620172,-0.0021671085,0.12098312,0.04706208,12.4628725,1.974611e-05
37960000,37808000,6620172,-0.0022185652,0.121001884,-0.005248663,12.464584,2.45571e-07
38032000,37877333,6620172,-0.0018547986,0.12102032,0.03710016,12.464949,1.22692645e-05
38104000,37950666,6620172,-0.0024153788,0.12103779,-0.05713568,12.4587,2.9113844e-05
38176000,38024000,6620172,-0.0030587947,0.121055074,-0.06557778,12.460345,3.834784e-05
38248000,38096000,6620172,-0.002494309,0.12107218,0.05753267,12.462015,2.9511979e-05
38320000,38168000,6620172,-0.0027252466,0.121089116,-0.023537185,12.463709,4.938775e-06
38392000,38240000,6620172,-0.002265836,0.12110588,0.046823148,12.465427,1.9542114e-05
38464000,38312000,6620172,-0.0019855902,0.12112159,0.028541472,12.457873,7.265514e-06
38536000,38384000,6620172,-0.0029573312,0.12113715,-0.09896656,12.4595,8.734415e-05
38608000,38454666,6620172,-0.0022555864,0.121152565,0.07146929,12.461152,4.554474e-05
38672000,38514000,6620172,-0.0024899826,0.121035255,-0.023897978,12.462437,5.0918643e-06
38728000,38576000,6620172,-0.00207852,0.12078778,0.042040765,12.463342,1.5756661e-05
38800000,38648000,6620172,-0.0021346426,0.12081041,-0.00573398,12.465063,2.9307267e-07
38872000,38720000,6620172,-0.002099384,0.120831884,0.0035994863,12.457547,1.1555959e-07
38944000,38792000,6620172,-0.002111703,0.120853096,-0.0012575495,12.459179,1.4103218e-08
39016000,38864000,6620172,-0.0017585738,0.12087405,0.03604725,12.460835,1.1586561e-05
39088000,38936000,6620172,-0.00118287,0.12089475,0.05876541,12.462517,3.0788982e-05
39160000,39008000,6620172,-0.0011688897,0.12091521,0.0014270106,12.464221,1.8152932e-08
39232000,39078666,6620172,-0.00060125784,0.120935306,0.057931583,12.464593,2.991646e-05
39296000,39140000,6620172,-0.00055382226,0.120821826,0.004843201,12.458002,2.0920598e-07
39352000,39200000,6620172,0.0004540661,0.120578095,0.103123404,12.458873,9.484037e-05
39424000,39270666,6620172,0.00066022243,0.1206044,0.021091344,12.460533,3.9667e-06
39488000,39332000,6620172,0.00026191212,0.12049776,-0.040790837,12.461825,1.4835462e-05
39544000,39392000,6620172,-0.00072764757,0.12026073,-0.10154975,12.462738,9.193942e-05
39616000,39462666,6620172,-0.0012026761,0.12029361,-0.048741348,12.464468,2.11777e-05
39688000,39536000,6620172,-0.0010918174,0.12032513,0.01136503,12.457017,1.1520852e-06
39760000,39608000,6620172,-0.00025886926,0.1203562,0.08538137,12.458656,6.5014836e-05
39832000,39678666,6620172,9.381544e-05,0.120386824,0.036147542,12.460321,1.1651606e-05
39904000,39752000,6620172,0.000111065114,0.12041701,0.0017677569,12.46201,2.786214e-08
39976000,39824000,6620172,-0.0006601861,0.120446764,-0.07902952,12.463721,5.567862e-05
40048000,39896000,6620172,-0.00060425804,0.12047523,0.005726104,12.456322,2.9247326e-07
40120000,39968000,6620172,-0.00037388422,0.1205033,0.023583995,12.457944,4.960733e-06
40192000,40040000,6620172,-0.00043045433,0.12053098,-0.0057906667,12.459591,2.990273e-07
40264000,40112000,6620172,-0.00086126383,0.12055828,-0.044094693,12.461263,1.7336766e-05
40336000,40184000,6620172,-0.0007902294,0.1205852,0.0072699552,12.462956,4.7119414e-07
40408000,40254666,6620172,-0.0005487102,0.120611764,0.02471601,12.464675,5.445444e-06
40472000,40316000,6620172,-0.0002639998,0.120504506,0.029143682,12.456841,7.5759726e-06
40528000,40376000,6620172,-0.0004988451,0.12026686,-0.024089027,12.457707,5.1755665e-06
40600000,40448000,6620172,0.0006760184,0.12029913,0.12049396,12.459359,0.00012947693
40672000,40520000,6620172,0.00044563285,0.12033093,-0.023625238,12.461034,4.976864e-06
40744000,40592000,6620172,-0.00043346186,0.120362274,-0.090136796,12.462732,7.2435e-05
40816000,40664000,6620172,0.00020272034,0.12039317,0.06522228,12.464454,3.7920687e-05
40888000,40736000,6620172,0.0003288485,0.12042276,0.012919839,12.457021,1.4888723e-06
40960000,40806666,6620172,-0.00015377518,0.12045192,-0.049431633,12.458653,2.179196e-05
41024000,40868000,6620172,-0.0011860728,0.12034807,-0.10583378,12.459924,9.9882796e-05
41080000,40928000,6620172,-0.00024205586,0.120113775,0.09698075,12.460822,8.386521e-05
41152000,41000000,6620172,0.0001726865,0.12014933,0.042600453,12.462524,1.618005e-05
41224000,41070666,6620172,-0.0005621514,0.12018423,-0.075459555,12.462929,5.076517e-05
41296000,41142666,6620172,-0.001419773,0.120217875,-0.08799986,12.456861,6.9073714e-05
41368000,41216000,6620172,-0.0020451734,0.12025102,-0.0641625,12.458498,3.6715915e-05
41440000,41288000,6620172,-0.0028103397,0.12028368,-0.07849071,12.460159,5.4937696e-05
41512000,41360000,6620172,-0.0037570861,0.12031586,-0.097104214,12.461844,8.407199e-05
41584000,41430666,6620172,-0.0039659524,0.120347574,-0.021419916,12.463553,4.090262e-06
41728000,41576000,6620172,-0.0050755264,0.120407924,-0.11358685,12.457808,0.00011507262
41800000,41648000,6620172,-0.004065546,0.12043745,0.1034642,12.459452,9.546381e-05
41872000,41720000,6620172,-0.0041804835,0.12046656,-0.011773077,12.46112,1.2358915e-06
41944000,41790666,6620172,-0.004485902,0.12049526,-0.031280942,12.4628105,8.723708e-06
42008000,41852000,6620172,-0.0047933995,0.12039097,-0.03152484,12.464126,8.859342e-06
42064000,41912000,6620172,-0.0052479208,0.12015537,-0.04665924,12.455979,1.9420255e-05
42136000,41984000,6620172,-0.004742475,0.12018965,0.05187878,12.4576025,2.4005047e-05
42208000,42056000,6620172,-0.005761449,0.12022342,-0.10457149,12.4592495,9.751967e-05
42280000,42128000,6620172,-0.004845474,0.120256685,0.09398777,12.46092,7.876804e-05
42352000,42200000,6620172,-0.0048172823,0.12028946,0.002892349,12.462615,7.458469e-08
42424000,42272000,6620172,-0.005566795,0.12032164,-0.07687827,12.463018,5.269161e-05
42496000,42344000,6620172,-0.004681461,0.12035261,0.09074136,12.456951,7.344399e-05
42568000,42416000,6620172,-0.005187579,0.120383136,-0.05186761,12.458582,2.3992825e-05
42640000,42488000,6620172,-0.0057811425,0.12041322,-0.060821943,12.460236,3.2987682e-05
42712000,42558666,6620172,-0.005957641,0.12044288,-0.018083604,12.461912,2.9156995e-06
42776000,42620000,6620172,-0.0052660317,0.12033953,0.070929565,12.463218,4.4852008e-05
42832000,42680000,6620172,-0.0045388313,0.12010558,0.07472404,12.462824,4.978078e-05
42904000,42752000,6620172,-0.005186566,0.120140746,-0.06650609,12.456757,3.945257e-05
42976000,42824000,6620172,-0.0046416796,0.120175384,0.055937298,12.45839,2.790606e-05
43048000,42896000,6620172,-0.0045714835,0.1202095,0.007205156,12.460048,4.6293988e-07
43120000,42968000,6620172,-0.004785049,0.12024312,-0.021917775,12.461728,4.2832376e-06
43192000,43040000,6620172,-0.006009815,0.120276235,-0.1256776,12.463432,0.00014081069
43264000,43112000,6620172,-0.006599201,0.12030801,-0.060426954,12.456099,3.257143e-05
43336000,43184000,6620172,-0.006499995,0.12033933,0.0101697575,12.457713,9.2244477e-07
43408000,43256000,6620172,-0.0063213557,0.12037019,0.018310297,12.459353,2.9898733e-06
43480000,43328000,6620172,-0.006339479,0.1204006,-0.0018573552,12.461017,3.0760543e-08
43552000,43400000,6620172,-0.0066439165,0.12043058,-0.031197142,12.462703,8.677105e-06
43624000,43472000,6620172,-0.006253794,0.12046001,0.039969113,12.463104,1.4242305e-05
43696000,43544000,6620172,-0.0064493613,0.12048829,-0.02002184,12.457039,3.5756145e-06
43768000,43616000,6620172,-0.007295916,0.12051617,-0.08665977,12.458661,6.6976296e-05
43840000,43688000,6620172,-0.006809916,0.120543666,0.049745865,12.460307,2.2066972e-05
43912000,43760000,6620172,-0.0074458765,0.12057079,-0.0650895,12.461977,3.7773952e-05
43984000,43832000,6620172,-0.008175277,0.120597534,-0.074646406,12.463671,4.967402e-05
44056000,43904000,6620172,-0.008367805,0.12062306,-0.019687273,12.456326,3.4573125e-06
44128000,43974666,6620172,-0.008613979,0.120648235,-0.025171014,12.45793,5.65084e-06
44200000,44048000,6620172,-0.008085876,0.120673075,0.05399362,12.4595585,2.5997988e-05
44272000,44118666,6620172,-0.008356636,0.12069759,-0.027680725,12.461211,6.8320674e-06
44344000,44192000,6620172,-0.00771485,0.12072178,0.065607615,12.462886,3.837491e-05
44416000,44264000,6620172,-0.007875528,0.12074567,-0.016424555,12.464584,2.4047333e-06
44488000,44334666,6620172,-0.007958272,0.120768376,-0.008451376,12.457185,6.3707773e-07
44560000,44408000,6620172,-0.007771887,0.120790794,0.019036151,12.4587965,3.2317644e-06
44632000,44480000,6620172,-0.008562055,0.12081293,-0.08069857,12.46043,5.807058e-05
44704000,44552000,6620172,-0.0094861705,0.12083479,-0.09437373,12.462089,7.9408856e-05
44776000,44624000,6620172,-0.010267096,0.12085638,-0.07974723,12.46377,5.6694284e-05
44848000,44696000,6620172,-0.010273546,0.12087685,-0.0006581973,12.4564295,3.8643475e-09
44920000,44768000,6620172,-0.010474338,0.12089707,-0.020488173,12.458022,3.743819e-06
44992000,44838666,6620172,-0.010771872,0.120917045,-0.03035818,12.45964,8.218707e-06
45064000,44910666,6620172,-0.010612158,0.12093679,0.016295552,12.461281,2.3677344e-06
45128000,44972000,6620172,-0.009727215,0.12082372,0.09038511,12.462553,7.283568e-05
45184000,45032000,6620172,-0.00918583,0.12058039,0.05541203,12.463448,2.7373319e-05
45256000,45104000,6620172,-0.009858431,0.12060623,-0.068786584,12.45614,4.220671e-05
45328000,45176000,6620172,-0.0100231515,0.12063172,-0.01684445,12.457737,2.5306495e-06
45400000,45248000,6620172,-0.009825744,0.12065686,0.020185504,12.459357,3.633633e-06
45472000,45320000,6620172,-0.010648347,0.12068167,-0.08410736,12.461003,6.307721e-05
45544000,45390666,6620172,-0.011143275,0.120706156,-0.05060043,12.462671,2.2827313e-05
45608000,45452000,6620172,-0.011865754,0.12059773,-0.07393973,12.463965,4.87368e-05
45664000,45512000,6620172,-0.012176403,0.120358095,-0.03183542,12.455886,9.04074e-06
45736000,45584000,6620172,-0.011252844,0.12038841,0.0946349,12.457487,7.987845e-05
45808000,45656000,6620172,-0.011637165,0.12041829,-0.03937582,12.459112,1.3827052e-05
45880000,45728000,6620172,-0.011703201,0.12044774,-0.0067649344,12.460762,4.0807507e-07
45952000,45800000,6620172,-0.011412277,0.120476775,0.029800124,12.462433,7.91755e-06
46024000,45872000,6620172,-0.011592555,0.1205054,-0.018464431,12.4641285,3.039257e-06
46096000,45944000,6620172,-0.011469139,0.120532766,0.0126301525,12.456791,1.4228808e-06
46168000,46016000,6620172,-0.0117256725,0.12055975,-0.026250588,12.4584,6.1457276e-06
46240000,46088000,6620172,-0.011756624,0.120586365,-0.0031669056,12.4600315,8.943522e-08
46312000,46160000,6620172,-0.0116109885,0.12061262,0.014899935,12.461686,1.9794722e-06
46456000,46304000,6620172,-0.011596974,0.12066322,0.0014487933,12.45608,1.8723584e-08
46528000,46376000,6620172,-0.011496353,0.12068759,0.010284718,12.45767,9.434208e-07
46600000,46448000,6620172,-0.011173065,0.12071163,0.033041764,12.459286,9.736229e-06
46672000,46520000,6620172,-0.01127396,0.12073536,-0.01031131,12.460924,9.480581e-07
46744000,46592000,6620172,-0.011380741,0.12075879,-0.01091232,12.462585,1.0616552e-06
46816000,46664000,6620172,-0.011998065,0.12078191,-0.06308215,12.46427,3.547347e-05
46888000,46736000,6620172,-0.012023424,0.120803885,-0.0025893375,12.456931,5.980311e-08
46960000,46805333,6620172,-0.013111401,0.12082558,-0.11108448,12.4585285,0.0001100519
47032000,46880000,6620172,-0.013450772,0.12084701,-0.03464861,12.460151,1.0705471e-05
47104000,46952000,6620172,-0.013423643,0.120868176,0.0027696192,12.461795,6.839385e-08
47176000,47024000,6620172,-0.013405149,0.12088908,0.0018879985,12.463462,3.1777674e-08
47248000,47096000,6620172,-0.013030524,0.120908886,0.03821594,12.456181,1.3027518e-05
47320000,47168000,6620172,-0.012668235,0.12092845,0.036956307,12.457762,1.2181326e-05
47392000,47240000,6620172,-0.012362142,0.120947786,0.031222923,12.459367,8.69378e-06
47464000,47310666,6620172,-0.012202351,0.1209669,0.016298909,12.460995,2.3687642e-06
47528000,47372000,6620172,-0.0119558275,0.12085321,0.025172323,12.4622555,5.6494664e-06
47584000,47432000,6620172,-0.0116245495,0.120609276,0.033897966,12.4631405,1.0244182e-05
47656000,47504000,6620172,-0.011190884,0.120634526,0.044339392,12.455892,1.7537275e-05
47728000,47576000,6620172,-0.010814261,0.12065943,0.038504116,12.457477,1.3223357e-05
47800000,47648000,6620172,-0.010586078,0.12068401,0.023326468,12.459085,4.852542e-06
47872000,47720000,6620172,-0.010827637,0.120708264,-0.024692241,12.460718,5.436701e-06
47944000,47792000,6620172,-0.011901345,0.1207322,-0.10974731,12.462375,0.00010738521
48016000,47864000,6620172,-0.011819538,0.12075583,0.008361306,12.464052,6.232273e-07
48088000,47936000,6620172,-0.011449211,0.12077829,0.037820514,12.456748,1.2758736e-05
48160000,48008000,6620172,-0.011142556,0.12080047,0.031316154,12.45834,8.746497e-06
48232000,48080000,6620172,-0.011681946,0.12082237,-0.05508059,12.459956,2.7054415e-05
48304000,48152000,6620172,-0.011811716,0.120844,-0.013250915,12.461596,1.5655812e-06
48376000,48224000,6620172,-0.012228637,0.12086536,-0.04257061,12.463258,1.6156439e-05
48448000,48296000,6620172,-0.012241287,0.12088561,-0.0012906501,12.456008,1.4859208e-08
48520000,48366666,6620172,-0.012267573,0.120905615,-0.0026818085,12.457584,6.414742e-08
48592000,48440000,6620172,-0.011895464,0.12092538,0.037963375,12.459184,1.2852794e-05
48664000,48512000,6620172,-0.012234448,0.12094492,-0.03458281,12.460807,1.0664287e-05
48736000,48584000,6620172,-0.012305077,0.12096423,-0.007205249,12.462453,4.628624e-07
48808000,48656000,6620172,-0.012066889,0.12098332,0.024298485,12.464121,5.2632527e-06
48880000,48728000,6620172,-0.012567021,0.12100133,-0.050982427,12.4568205,2.3184157e-05
48952000,48800000,6620172,-0.012382364,0.12101915,0.018823124,12.458404,3.1599375e-06
49024000,48872000,6620172,-0.012904569,0.12103677,-0.053230427,12.460011,2.5267309e-05
49096000,48942666,6620172,-0.01292497,0.121054195,-0.0020795623,12.46164,3.8559033e-08
49168000,49016000,6620172,-0.012728412,0.12107144,0.020035565,12.463292,3.5787214e-06
49240000,49088000,6620172,-0.013178099,0.121087655,-0.045804303,12.456051,1.8714993e-05
49312000,49160000,6620172,-0.013815724,0.1211037,-0.064946905,12.457617,3.762179e-05
49384000,49232000,6620172,-0.014362003,0.12111957,-0.055642284,12.459207,2.7610675e-05
49456000,49304000,6620172,-0.014311784,0.1211353,0.0051151766,12.460821,2.3330931e-07
49528000,49376000,6620172,-0.014227004,0.12115087,0.008635514,12.462458,6.6486007e-07
49600000,49448000,6620172,-0.013785622,0.121166304,0.044958204,12.464117,1.8018301e-05
49672000,49520000,6620172,-0.013280503,0.12118073,0.051413797,12.456826,2.3578134e-05
49744000,49590666,6620172,-0.0126997,0.12119502,0.059117906,12.4584,3.116975e-05
49808000,49652000,6620172,-0.013472352,0.1210766,-0.07873096,12.459618,5.5276927e-05
49864000,49712000,6620172,-0.013177247,0.12082804,0.03013495,12.460469,8.097743e-06
49936000,49784000,6620172,-0.013030266,0.12084961,0.0150083015,12.462111,2.0083016e-06
50008000,49856000,6620172,-0.013168356,0.12087091,-0.014099861,12.463777,1.772301e-06
50080000,49926666,6620172,-0.013453553,0.1208911,-0.029098488,12.456517,7.552691e-06
50152000,50000000,6620172,-0.01346347,0.12091105,-0.0010117786,12.4580965,9.130126e-09
50224000,50069333,6620172,-0.014352428,0.12093075,-0.09069303,12.4597,7.334959e-05
50296000,50144000,6620172,-0.014309861,0.12095023,0.004342662,12.461326,1.6815328e-07
50368000,50216000,6620172,-0.014131897,0.12096948,0.018155076,12.462975,2.938542e-06
50440000,50288000,6620172,-0.013396635,0.12098767,0.07495343,12.455792,5.0115163e-05
50512000,50360000,6620172,-0.01336341,0.12100565,0.003386869,12.4573555,1.0231244e-07
50584000,50432000,6620172,-0.013236805,0.121023424,0.012905646,12.458943,1.4853739e-06
50656000,50504000,6620172,-0.014215564,0.12104101,-0.099769786,12.460553,8.876019e-05
50728000,50576000,6620172,-0.013747379,0.121058404,0.047723867,12.462188,2.0306472e-05
50800000,50648000,6620172,-0.013699634,0.12107562,0.004866764,12.463843,2.1114757e-07
50872000,50720000,6620172,-0.012708864,0.121091805,0.100918874,12.456586,9.084547e-05
50944000,50792000,6620172,-0.012516083,0.12110782,0.019636355,12.458157,3.4389468e-06
51016000,50864000,6620172,-0.012417474,0.12112367,0.010044159,12.459752,8.996535e-07
51088000,50936000,6620172,-0.011535157,0.12113937,0.089871086,12.4613695,7.2016446e-05
51160000,51008000,6620172,-0.011911769,0.12115492,-0.038361084,12.463011,1.3119469e-05
51232000,51080000,6620172,-0.011275545,0.1211702,0.064798735,12.463407,3.743293e-05
51304000,51150666,6620172,-0.010768408,0.121184595,0.051619783,12.457367,2.376641e-05
51376000,51221333,6620172,-0.010961832,0.12119886,-0.019688135,12.458945,3.4568884e-06
51440000,51284000,6620172,-0.010184295,0.12108042,0.07922965,12.460166,5.597694e-05
51496000,51344000,6620172,-0.011169086,0.12083184,-0.100563996,12.4610195,9.0175585e-05
51568000,51416000,6620172,-0.01117178,0.12085339,-0.0002750056,12.462666,6.742634e-10
51640000,51488000,6620172,-0.011204058,0.120873824,-0.0032935524,12.455499,9.676661e-08
51712000,51560000,6620172,-0.011235722,0.12089401,-0.0032307561,12.457059,9.3100134e-08
51784000,51632000,6620172,-0.010487294,0.120913945,0.07636023,12.458643,5.2002146e-05
51856000,51704000,6620172,-0.01085831,0.12093365,-0.037852548,12.460251,1.2776766e-05
51928000,51776000,6620172,-0.011085709,0.12095313,-0.023199307,12.461882,4.798703e-06
52000000,51848000,6620172,-0.010802945,0.12097238,0.028846938,12.463533,7.4184945e-06
52072000,51920000,6620172,-0.011452558,0.12099056,-0.06622342,12.456314,3.9119306e-05
52144000,51992000,6620172,-0.011677001,0.12100853,-0.022879716,12.457883,4.6688992e-06
52216000,52064000,6620172,-0.011345706,0.12102631,0.033771727,12.459475,1.0171015e-05
52288000,52136000,6620172,-0.011253266,0.12104389,0.0094230985,12.461089,7.917516e-07
52360000,52208000,6620172,-0.011809591,0.12106129,-0.05670938,12.462727,2.8671751e-05
52432000,52280000,6620172,-0.0117500145,0.12107838,0.0060722865,12.463128,3.2872668e-07
52504000,52352000,6620172,-0.010715188,0.121094555,0.10540846,12.457115,9.910395e-05
52576000,52424000,6620172,-0.010760394,0.121110566,-0.0046046358,12.458691,1.8909307e-07
52648000,52496000,6620172,-0.011130224,0.12112641,-0.037671003,12.46029,1.2654463e-05
52720000,52568000,6620172,-0.010620685,0.12114211,0.05190171,12.461912,2.401796e-05
52792000,52638666,6620172,-0.0098944465,0.12115766,0.073975176,12.463557,4.8785136e-05
52864000,52712000,6620172,-0.010325811,0.121172205,-0.043908045,12.456342,1.7197099e-05
52936000,52784000,6620172,-0.010338596,0.121186614,-0.0013013864,12.457902,1.5105153e-08
53008000,52856000,6620172,-0.009754337,0.1212009,0.059471898,12.459485,3.15414e-05
53080000,52928000,6620172,-0.010613987,0.12121505,-0.087505184,12.461092,6.827614e-05
53152000,53000000,6620172,-0.011185466,0.12122908,-0.058172636,12.462722,3.017047e-05
53224000,53072000,6620172,-0.01147521,0.121243,-0.029494464,12.464374,7.754755e-06
53296000,53144000,6620172,-0.010618394,0.12125594,0.08715881,12.45711,6.775834e-05
53368000,53216000,6620172,-0.01075371,0.12126878,-0.013765151,12.458678,1.6898472e-06
53440000,53288000,6620172,-0.010526803,0.12128152,0.023082811,12.46027,4.7512453e-06
53512000,53360000,6620172,-0.011605859,0.12129416,-0.10977349,12.4618845,0.00010744067
53584000,53432000,6620172,-0.010921827,0.12130672,0.06958926,12.463521,4.3171895e-05
53656000,53504000,6620172,-0.01139074,0.121318325,-0.04767192,12.456316,2.0271842e-05
53728000,53576000,6620172,-0.01208976,0.12132986,-0.07106776,12.457869,4.5046283e-05
53800000,53648000,6620172,-0.012505434,0.12134132,-0.042262048,12.459444,1.592795e-05
53872000,53720000,6620172,-0.011951125,0.12135271,0.056359194,12.461043,2.8322567e-05
53944000,53792000,6620172,-0.011460515,0.121364035,0.049884476,12.462666,2.2185917e-05
54016000,53864000,6620172,-0.012233179,0.12137529,-0.07856634,12.46431,5.5025288e-05
54088000,53936000,6620172,-0.012023893,0.12138563,0.021266382,12.457058,4.033938e-06
54160000,54008000,6620172,-0.011872534,0.12139591,0.015380827,12.458619,2.1098274e-06
54232000,54080000,6620172,-0.011685433,0.12140614,0.019013647,12.460203,3.2237638e-06
54304000,54150666,6620172,-0.01211007,0.12141632,-0.043154657,12.461809,1.6604727e-05
54368000,54212000,6620172,-0.012119722,0.12129389,-0.0009819707,12.46305,8.596668e-09
54424000,54272000,6620172,-0.011907475,0.1210414,0.021641206,12.463915,4.175091e-06
54496000,54344000,6620172,-0.011587233,0.12105826,0.03262891,12.456699,9.496413e-06
54568000,54416000,6620172,-0.011469314,0.121074945,0.012014479,12.458266,1.287389e-06
54640000,54488000,6620172,-0.011275273,0.121091455,0.019770095,12.459856,3.4854752e-06
