timestamp,timestamp_sample,accel_device_id,gyro_device_id,delta_angle[0],delta_angle[1],delta_angle[2],delta_velocity[0],delta_velocity[1],delta_velocity[2],delta_angle_dt,delta_velocity_dt,delta_angle_clipping,delta_velocity_clipping,accel_calibration_count,gyro_calibration_count
1636000,1636000,1310988,1310988,1.278314e-05,-3.728423e-05,2.1305355e-05,0.0,-0.000105344196,-0.039384622,4000,4000,0,0,0,1
2136000,2136000,1310988,1310988,-2.9827379e-05,-9.587537e-06,1.1717854e-05,0.00023463179,0.00044532225,-0.039614465,4000,4000,0,0,0,1
2636000,2636000,1310988,1310988,-1.0652657e-05,-2.13048e-06,-3.5153735e-05,-0.00021068976,-0.00016759345,-0.039461236,4000,4000,0,0,0,1
3136000,3136000,1310988,1310988,-3.0892617e-05,5.326325e-05,6.391638e-06,4.7884034e-05,0.00013886439,-0.03916914,4000,4000,0,0,0,1
3636000,3636000,1310988,1310988,1.597906e-05,7.4567415e-06,3.089265e-05,-0.00032082302,2.8731109e-05,-0.039260123,4000,4000,0,0,0,1
4136000,4136000,1310988,1310988,-2.2370565e-05,3.7284182e-05,-1.4913869e-05,-0.00025378537,0.00025378607,-0.03930322,4000,4000,0,0,0,1
4636000,4636000,1310988,1310988,-2.34358e-05,1.3848475e-05,-7.456848e-06,-0.000100556485,0.000105345556,-0.03891536,4000,4000,0,0,0,1
5136000,5136000,1310988,1310988,1.4913653e-05,-1.3848414e-05,-3.5153767e-05,3.8307233e-05,-6.703698e-05,-0.039245754,4000,4000,0,0,0,1
5636000,5636000,1310988,1310988,1.0651212e-06,6.285062e-05,2.7696866e-05,-9.57681e-06,0.000134076,-0.03962404,4000,4000,0,0,0,1
6136000,6136000,1310988,1310988,-3.302302e-05,-5.2198044e-05,9.693909e-05,-2.873042e-05,-0.00023463112,-0.039240967,4000,4000,0,0,0,1
6636000,6636000,1310988,1310988,-2.3435892e-05,-2.8762126e-05,-4.474109e-05,0.00021068976,-6.224856e-05,-0.039178725,4000,4000,0,0,0,1
7136000,7136000,1310988,1310988,1.2783165e-05,1.8109517e-05,2.8762137e-05,-0.00044532155,-9.57612e-06,-0.039341528,4000,4000,0,0,0,1
7636000,7636000,1310988,1310988,5.752432e-05,-2.4500974e-05,-5.006745e-05,-0.00019632453,-0.00067037594,-0.03921703,4000,4000,0,0,0,1
8136000,8136000,1310988,1310988,0.00010013486,-5.3263248e-06,-1.7044324e-05,-0.00010534488,0.00033518896,-0.039068587,4000,4000,0,0,0,1
8636000,8636000,1310988,1310988,1.9174735e-05,-6.3916436e-06,1.0652659e-05,-7.6614466e-05,-0.00053151214,-0.039073378,4000,4000,0,0,0,1
9136000,9136000,1310988,1310988,-5.8589525e-05,1.0652644e-05,-7.456854e-05,0.0002825158,-0.0004644745,-0.039025493,4000,4000,0,0,0,1
9636000,9636000,1310988,1310988,-1.9174871e-05,-1.278318e-05,3.8349463e-05,-3.8307226e-05,-0.00032082235,-0.03921224,4000,4000,0,0,0,1
10136000,10136000,1310988,1310988,-1.3848507e-05,2.450101e-05,5.3263244e-05,0.0005650316,-0.00046926292,-0.03925055,4000,4000,0,0,0,1
10636000,10636000,1310988,1310988,-1.0652323e-06,1.0652688e-05,-8.309062e-05,-6.7037654e-05,-0.0003351876,-0.03937026,4000,4000,0,0,0,1
11136000,11136000,1310988,1310988,-3.6218946e-05,-2.5566382e-05,2.1305339e-05,-0.00032082302,-4.309495e-05,-0.03920266,4000,4000,0,0,0,1
11636000,11636000,1310988,1310988,5.9654856e-05,-2.769675e-05,-7.456996e-06,0.00030166947,0.00029688174,-0.039245754,4000,4000,0,0,0,1
12136000,12136000,1310988,1310988,-1.3848433e-05,8.522148e-06,-5.3262897e-06,-0.0002442086,-9.0978996e-05,-0.03878607,4000,4000,0,0,0,1
12636000,12636000,1310988,1310988,-7.456854e-06,4.580637e-05,-8.522157e-06,-0.000100556485,0.0001292876,-0.039327163,4000,4000,0,0,0,1
13136000,13136000,1310988,1310988,6.3916154e-06,-3.195782e-06,1.2783164e-05,0.00015801731,-3.3518143e-05,-0.03991135,4000,4000,0,0,0,1
13636000,13636000,1310988,1310988,-7.9894955e-05,4.3675696e-05,1.5978785e-05,-0.00021068976,-0.00019153547,-0.039092522,4000,4000,0,0,0,1
14136000,14136000,1310988,1310988,-2.130527e-05,3.1958266e-06,2.2370572e-05,0.00022984337,0.00012928761,-0.039240967,4000,4000,0,0,0,1
14636000,14636000,1310988,1310988,3.302324e-05,-1.9174724e-05,9.587326e-06,-7.1826056e-05,-8.140217e-05,-0.039226606,4000,4000,0,0,0,1
15136000,15136000,1310988,1310988,-3.7284266e-05,2.4500625e-05,-9.161287e-05,0.00021547818,-0.00010055581,-0.03904464,4000,4000,0,0,0,1
15636000,15636000,1310988,1310988,9.587388e-06,2.1308012e-06,6.2850595e-05,-0.0001388637,2.3942699e-05,-0.03901591,4000,4000,0,0,0,1
16136000,16136000,1310988,1310988,2.4501098e-05,1.2783159e-05,-4.2610322e-06,-1.9153615e-05,-0.00028251513,-0.039360676,4000,4000,0,0,0,1
16636000,16636000,1310988,1310988,-7.456746e-06,-1.7044218e-05,-1.8109558e-05,-7.6614466e-05,-0.00050757005,-0.039288856,4000,4000,0,0,0,1
17136000,17136000,1310988,1310988,-1.1717899e-05,8.522103e-06,-7.4568857e-06,0.00042137952,-0.00032082235,-0.03910211,4000,4000,0,0,0,1
17636000,17636000,1310988,1310988,-4.900215e-05,-1.1717933e-05,2.4501116e-05,-0.00012449849,-0.0006033383,-0.039207447,4000,4000,0,0,0,1
18136000,18136000,1310988,1310988,-1.8109578e-05,4.3675816e-05,-8.09601e-05,7.182605e-05,-0.0001244978,-0.039193083,4000,4000,0,0,0,1
18636000,18636000,1310988,1310988,-3.1958047e-05,1.5978898e-05,3.8349463e-05,-7.6614466e-05,-0.0004884165,-0.03925534,4000,4000,0,0,0,1
19136000,19136000,1310988,1310988,4.474114e-05,4.900202e-05,-3.302338e-05,-0.00010534488,-0.00011970942,-0.039331954,4000,4000,0,0,0,1
19636000,19636000,1310988,1310988,-4.9002127e-05,-6.3917246e-06,1.4913781e-05,0.000119710094,-6.703698e-05,-0.03875255,4000,4000,0,0,0,1
20136000,20136000,1310988,1310988,-1.4913641e-05,3.1956763e-06,-3.515377e-05,0.00025857383,-0.00011970941,-0.03969108,4000,4000,0,0,0,1
20636000,20636000,1310988,1310988,2.9827468e-05,-2.7696864e-05,3.3023167e-05,-2.3942017e-05,0.0002873049,-0.039260127,4000,4000,0,0,0,1
21136000,21136000,1310988,1310988,5.326389e-06,-6.391691e-06,4.687162e-05,-0.00010534488,0.00019632523,-0.03916914,4000,4000,0,0,0,1
21636000,21636000,1310988,1310988,-3.089268e-05,8.5220345e-06,1.2783209e-05,-0.00023942019,2.3942708e-05,-0.03953785,4000,4000,0,0,0,1
22136000,22136000,1310988,1310988,-6.0720216e-05,-1.065394e-06,-3.3022945e-05,0.0002442086,2.8731112e-05,-0.03962404,4000,4000,0,0,0,1
22636000,22636000,1310988,1310988,-1.4913672e-05,-3.1958318e-06,-1.7044253e-05,-0.0004596867,0.00017717163,-0.03987304,4000,4000,0,0,0,1
23136000,23136000,1310988,1310988,-1.8109522e-05,1.1717834e-05,-2.7696893e-05,-2.8730423e-05,-0.0002011123,-0.03923139,4000,4000,0,0,0,1
23636000,23636000,1310988,1310988,-1.27831745e-05,-3.089278e-05,2.130513e-05,0.00051714765,-2.394133e-05,-0.039346315,4000,4000,0,0,0,1
24136000,24136000,1310988,1310988,-1.91748e-05,-1.3848412e-05,9.587339e-06,6.7037654e-05,-0.00019153545,-0.03907816,4000,4000,0,0,0,1
24636000,24636000,1310988,1310988,8.5222255e-06,-3.9414692e-05,-2.7696986e-05,-4.7884064e-06,1.9154297e-05,-0.039025497,4000,4000,0,0,0,1
25136000,25136000,1310988,1310988,1.3848498e-05,5.326209e-06,-4.687164e-05,-5.267244e-05,-3.8306545e-05,-0.039308004,4000,4000,0,0,0,1
25636000,25636000,1310988,1310988,2.6631604e-05,-1.0652645e-06,-6.3916254e-06,0.00026336222,-0.00039264842,-0.03936547,4000,4000,0,0,0,1
26136000,26136000,1310988,1310988,1.5979045e-05,-1.8109431e-05,-1.0653038e-06,-0.00019632454,-3.8306545e-05,-0.0395187,4000,4000,0,0,0,1
26636000,26636000,1310988,1310988,-3.4088425e-05,-5.4328524e-05,4.260939e-06,-0.000100556485,3.8307924e-05,-0.039432503,4000,4000,0,0,0,1
27136000,27136000,1310988,1310988,3.195789e-06,7.669909e-05,-4.5806304e-05,6.703766e-05,-2.8729737e-05,-0.03892015,4000,4000,0,0,0,1
27636000,27636000,1310988,1310988,6.817677e-05,2.9827374e-05,9.161288e-05,2.873042e-05,-0.00014365141,-0.03945645,4000,4000,0,0,0,1
28136000,28136000,1310988,1310988,2.1304961e-06,4.261037e-06,8.522135e-06,0.00021068976,0.00046926425,-0.039403778,4000,4000,0,0,0,1
28636000,28636000,1310988,1310988,-7.1372466e-05,2.769718e-05,4.367608e-05,0.0003351883,-0.000110132605,-0.039308004,4000,4000,0,0,0,1
29136000,29136000,1310988,1310988,8.6286556e-05,3.302291e-05,-1.597896e-05,-0.0001388637,0.00014844122,-0.039375044,4000,4000,0,0,0,1
29636000,29636000,1310988,1310988,1.0651876e-06,-2.2370603e-05,-3.9414765e-05,-0.00012449849,0.00024420928,-0.03904943,4000,4000,0,0,0,1
30136000,30136000,1310988,1310988,-9.587294e-06,3.5153782e-05,2.237051e-05,0.00010534487,-0.00056981936,-0.039236177,4000,4000,0,0,0,1
30636000,30636000,1310988,1310988,7.456947e-06,-1.0652528e-05,-2.5566373e-05,-0.00030645786,0.00029209335,-0.03903507,4000,4000,0,0,0,1
31136000,31136000,1310988,1310988,9.587394e-06,7.4567815e-06,3.5153746e-05,0.0003782839,9.577496e-06,-0.039274484,4000,4000,0,0,0,1
31636000,31636000,1310988,1310988,4.2610836e-06,-3.195791e-05,3.0892705e-05,0.0001197101,-0.00014843985,-0.03948997,4000,4000,0,0,0,1
32136000,32136000,1310988,1310988,-1.4913692e-05,-5.326393e-06,2.5566342e-05,-0.00010055649,0.00011971079,-0.039494753,4000,4000,0,0,0,1
32636000,32636000,1310988,1310988,-3.728433e-05,1.3848264e-05,-2.130423e-06,0.0003303999,-8.140217e-05,-0.039403778,4000,4000,0,0,0,1
33136000,33136000,1310988,1310988,-4.3675816e-05,2.6631697e-05,-2.5566318e-05,-0.00022984337,-0.00017717025,-0.038848322,4000,4000,0,0,0,1
33636000,33636000,1310988,1310988,-4.5806377e-05,1.9174748e-05,-6.391632e-06,0.0004884172,-0.00022984267,-0.03933674,4000,4000,0,0,0,1
34136000,34136000,1310988,1310988,-7.456918e-06,-3.3023192e-05,2.130512e-06,-7.6614466e-05,7.182674e-05,-0.039308008,4000,4000,0,0,0,1
34636000,34636000,1310988,1310988,-5.7524267e-05,-1.9174577e-05,-4.2610693e-05,-0.00019632454,-0.00043574406,-0.03893451,4000,4000,0,0,0,1
35136000,35136000,1310988,1310988,-3.6218982e-05,2.1305018e-06,-8.522189e-06,-0.0003303999,0.00025378607,-0.039432503,4000,4000,0,0,0,1
35636000,35636000,1310988,1310988,-2.6631631e-05,-1.5978947e-05,-3.089267e-05,-0.00012928691,-5.7460154e-05,-0.03935589,4000,4000,0,0,0,1
36136000,36136000,1310988,1310988,5.1132687e-05,-2.450115e-05,-7.456718e-06,-0.00011492168,6.224993e-05,-0.03903028,4000,4000,0,0,0,1
36636000,36636000,1310988,1310988,5.1132647e-05,-9.5875985e-06,4.154533e-05,0.00049799395,0.000110133966,-0.039039854,4000,4000,0,0,0,1
37136000,37136000,1310988,1310988,-3.3023258e-05,2.3435981e-05,-4.4740988e-05,-0.0003399767,5.7461537e-05,-0.03984909,4000,4000,0,0,0,1
37636000,37636000,1310988,1310988,-2.3435945e-05,1.0652287e-06,-3.408838e-05,-0.00016759415,-8.140217e-05,-0.039236177,4000,4000,0,0,0,1
38136000,38136000,1310988,1310988,2.1305277e-05,-2.3435832e-05,-1.0652651e-05,0.00014365211,0.00017238322,-0.039480392,4000,4000,0,0,0,1
38636000,38636000,1310988,1310988,3.1956977e-06,9.587218e-06,4.9002207e-05,-5.7460846e-05,-0.0006129151,-0.03898239,4000,4000,0,0,0,1
39136000,39136000,1310988,1310988,3.1957912e-05,3.40885e-05,2.5566333e-05,6.2249244e-05,-1.4364522e-05,-0.0393511,4000,4000,0,0,0,1
39636000,39636000,1310988,1310988,-4.2610645e-05,2.8762079e-05,2.7696848e-05,0.0002394202,9.0980364e-05,-0.039432503,4000,4000,0,0,0,1
40136000,40136000,1310988,1310988,5.3263775e-06,-1.5978969e-05,-9.587354e-06,0.00018674775,2.3942708e-05,-0.03961925,4000,4000,0,0,0,1
40636000,40636000,1310988,1310988,1.065251e-06,1.0959998e-12,-3.1957984e-06,-0.0002442086,-0.0001053442,-0.038968027,4000,4000,0,0,0,1
41136000,41136000,1310988,1310988,1.7044269e-05,-4.338226e-11,1.4913663e-05,-1.9153616e-05,9.577497e-06,-0.039173935,4000,4000,0,0,0,1
41636000,41636000,1310988,1310988,-4.047983e-05,-3.1957974e-05,5.326337e-05,-9.5768075e-05,5.2673124e-05,-0.03910211,4000,4000,0,0,0,1
42136000,42136000,1310988,1310988,4.2610645e-05,-1.0652399e-05,7.7357974e-11,-2.3942019e-05,4.789089e-06,-0.039298434,4000,4000,0,0,0,1
42636000,42636000,1310988,1310988,2.4500967e-05,-2.663165e-05,1.9174864e-05,-5.746084e-05,-0.0003303992,-0.038891412,4000,4000,0,0,0,1
43136000,43136000,1310988,1310988,3.7284324e-05,-2.0239926e-05,-1.4913677e-05,0.0,-0.0003351876,-0.039547425,4000,4000,0,0,0,1
43636000,43636000,1310988,1310988,-6.3916673e-06,-1.9174739e-05,-8.522104e-06,0.00044532155,0.0001628064,-0.03952349,4000,4000,0,0,0,1
44136000,44136000,1310988,1310988,-1.3848327e-05,2.2370656e-05,-4.7936894e-05,-0.00026815064,0.0006320699,-0.03921224,4000,4000,0,0,0,1
44636000,44636000,1310988,1310988,2.1305627e-06,1.8109497e-05,-1.8109498e-05,-2.8730423e-05,0.0002633629,-0.039164353,4000,4000,0,0,0,1
45136000,45136000,1310988,1310988,-6.391676e-06,-1.4913644e-05,-8.522153e-06,0.00024899698,-0.00026814995,-0.039327163,4000,4000,0,0,0,1
45636000,45636000,1310988,1310988,4.9001977e-05,2.2370554e-05,-3.089297e-05,8.140285e-05,-0.0003351876,-0.03931279,4000,4000,0,0,0,1
46136000,46136000,1310988,1310988,-2.3435614e-05,4.9002392e-05,-3.9414626e-05,9.097968e-05,3.8307913e-05,-0.039063804,4000,4000,0,0,0,1
46636000,46636000,1310988,1310988,-1.8109447e-05,-2.0240086e-05,3.5153727e-05,-0.00014844052,0.00011013397,-0.038838744,4000,4000,0,0,0,1
47136000,47136000,1310988,1310988,-2.0240057e-05,2.5566318e-05,5.326361e-06,0.0004788404,-0.0005123585,-0.039092522,4000,4000,0,0,0,1
47636000,47636000,1310988,1310988,5.858963e-05,-4.900203e-05,-2.0240137e-05,0.00012928691,-0.00022505427,-0.039753333,4000,4000,0,0,0,1
48136000,48136000,1310988,1310988,-6.391508e-06,4.2610583e-05,1.810952e-05,-0.00020590138,-0.00030645716,-0.039145205,4000,4000,0,0,0,1
48636000,48636000,1310988,1310988,1.0652664e-05,2.1305245e-06,-3.728425e-05,0.0004836288,-0.0005506657,-0.039331954,4000,4000,0,0,0,1
49136000,49136000,1310988,1310988,4.26098e-06,-2.4501096e-05,-1.0653318e-06,0.0003351883,-0.0002059007,-0.039542634,4000,4000,0,0,0,1
49636000,49636000,1310988,1310988,2.4501058e-05,-2.6631646e-05,1.5978958e-05,-0.00011013329,0.0001628064,-0.039245754,4000,4000,0,0,0,1
50136000,50136000,1310988,1310988,1.810951e-05,-2.450109e-05,-9.58735e-06,0.00016280572,-0.00015322826,-0.03850834,4000,4000,0,0,0,1
50636000,50636000,1310988,1310988,4.2610613e-05,2.1307706e-06,-1.3848306e-05,-4.788403e-06,-0.00012928621,-0.03888663,4000,4000,0,0,0,1
51136000,51136000,1310988,1310988,2.1305746e-06,7.243799e-05,-2.7696882e-05,-0.00049320556,-2.872974e-05,-0.039135627,4000,4000,0,0,0,1
51636000,51636000,1310988,1310988,-1.4913748e-05,2.0239897e-05,-9.480856e-05,0.0001436521,-0.00019153545,-0.03934631,4000,4000,0,0,0,1
52136000,52136000,1310988,1310988,-2.7696875e-05,-3.1959503e-06,-2.3435805e-05,0.00019632454,-0.00011970942,-0.039341528,4000,4000,0,0,0,1
52636000,52636000,1310988,1310988,-4.580637e-05,-2.4501078e-05,3.4088487e-05,1.436521e-05,5.7461526e-05,-0.039173935,4000,4000,0,0,0,1
53136000,53136000,1310988,1310988,9.587337e-06,-6.3913676e-06,7.137275e-05,-8.140286e-05,-0.00056024257,-0.039063804,4000,4000,0,0,0,1
53636000,53636000,1310988,1310988,7.457055e-06,-3.195793e-05,-4.580635e-05,-0.00012928691,0.00011013398,-0.039442085,4000,4000,0,0,0,1
54136000,54136000,1310988,1310988,-4.5806366e-05,3.5153662e-05,1.5979138e-05,-0.00043095637,-0.00017238186,-0.039011125,4000,4000,0,0,0,1
54636000,54636000,1310988,1310988,-6.0719947e-05,3.302341e-05,1.491379e-05,0.00018195936,0.0002585745,-0.039557006,4000,4000,0,0,0,1
55136000,55136000,1310988,1310988,-4.261125e-06,-3.6219015e-05,-1.5978905e-05,4.788404e-05,-0.00013407462,-0.039327163,4000,4000,0,0,0,1
55636000,55636000,1310988,1310988,-3.3023305e-05,-2.2370541e-05,-4.4741042e-05,2.3942017e-05,0.00020590205,-0.039499544,4000,4000,0,0,0,1
56136000,56136000,1310988,1310988,4.2609886e-06,2.2370563e-05,4.2610864e-06,0.0002442086,0.00037349618,-0.038968027,4000,4000,0,0,0,1
56636000,56636000,1310988,1310988,-1.2783034e-05,1.3848498e-05,3.7284284e-05,0.0003734955,-0.00031603395,-0.038905777,4000,4000,0,0,0,1
57136000,57136000,1310988,1310988,3.834966e-05,5.432839e-05,5.3263766e-06,-0.0001197101,-0.00016280502,-0.039580945,4000,4000,0,0,0,1
57636000,57636000,1310988,1310988,-5.0067443e-05,-5.7524223e-05,-4.7936974e-05,-0.00015322893,2.8731107e-05,-0.03915478,4000,4000,0,0,0,1
58136000,58136000,1310988,1310988,7.456914e-06,-1.9174728e-05,1.0652661e-05,0.0003351883,3.3519515e-05,-0.039288856,4000,4000,0,0,0,1
58636000,58636000,1310988,1310988,1.0652473e-06,4.9002065e-05,2.8762322e-05,-0.0001388637,5.2673127e-05,-0.039413355,4000,4000,0,0,0,1
59136000,59136000,1310988,1310988,-6.072017e-05,4.3675667e-05,1.2783349e-05,0.00016280572,-1.915293e-05,-0.039288856,4000,4000,0,0,0,1
59636000,59636000,1310988,1310988,1.0653641e-06,-9.587501e-06,-2.9827364e-05,6.2249244e-05,-0.0002537847,-0.0391883,4000,4000,0,0,0,1
60136000,60136000,1310988,1310988,7.563376e-05,2.6631635e-05,-9.587569e-06,0.00049320556,8.6191954e-05,-0.039264914,4000,4000,0,0,0,1
60636000,60636000,1310988,1310988,-2.1305248e-05,-1.0652772e-05,-3.4088454e-05,-3.351884e-05,0.00018674842,-0.038652,4000,4000,0,0,0,1
61136000,61136000,1310988,1310988,7.45685e-06,-1.3848456e-05,-6.3915545e-06,0.0002442086,0.0003639194,-0.038910575,4000,4000,0,0,0,1
61636000,61636000,1310988,1310988,-3.5153746e-05,7.4568948e-06,7.4567656e-06,9.5768075e-05,-0.00015322826,-0.038575385,4000,4000,0,0,0,1
62136000,62136000,1310988,1310988,2.8369713e-11,5.3262675e-06,-2.9827417e-05,-0.0002442086,2.3942706e-05,-0.039513905,4000,4000,0,0,0,1
62636000,62636000,1310988,1310988,4.3675867e-05,-3.72843e-05,-2.237044e-05,-1.4365205e-05,-2.3941333e-05,-0.0391452,4000,4000,0,0,0,1
63136000,63136000,1310988,1310988,2.7697266e-05,7.1372706e-05,4.367562e-05,-0.00039264906,0.0003639194,-0.039149992,4000,4000,0,0,0,1
63636000,63636000,1310988,1310988,2.2370503e-05,3.302324e-05,-4.261022e-06,-2.3942017e-05,-0.00031124556,-0.038924936,4000,4000,0,0,0,1
64136000,64136000,1310988,1310988,-6.391587e-05,-1.0653623e-06,1.0652686e-05,0.00017717094,0.00035913097,-0.038872264,4000,4000,0,0,0,1
64636000,64636000,1310988,1310988,1.3848548e-05,-3.3023207e-05,-3.621895e-05,1.915362e-05,0.00019153682,-0.039485183,4000,4000,0,0,0,1
65136000,65136000,1310988,1310988,-4.1545292e-05,-5.113264e-05,-3.408858e-05,-0.00011013329,-0.00023941952,-0.039360676,4000,4000,0,0,0,1
65636000,65636000,1310988,1310988,0.00011611372,4.048047e-05,1.278299e-05,0.00063206925,0.000454899,-0.03931279,4000,4000,0,0,0,1
66136000,66136000,1310988,1310988,1.8109502e-05,-6.498114e-05,-6.391532e-06,0.00016759415,0.00010534556,-0.039346315,4000,4000,0,0,0,1
66636000,66636000,1310988,1310988,2.1305128e-05,4.261068e-05,-1.4913659e-05,0.0001244985,-5.2671752e-05,-0.039360676,4000,4000,0,0,0,1
67136000,67136000,1310988,1310988,-2.982745e-05,-2.5566242e-05,-1.9174839e-05,7.6614466e-05,7.661515e-05,-0.039308004,4000,4000,0,0,0,1
67636000,67636000,1310988,1310988,-2.1305286e-05,1.0652652e-05,6.3915854e-06,-0.00029209268,0.000158018,-0.039360676,4000,4000,0,0,0,1
68136000,68136000,1310988,1310988,-2.9827339e-05,9.587251e-06,4.261066e-05,-0.00020111295,0.00021547887,-0.0393511,4000,4000,0,0,0,1
68636000,68636000,1310988,1310988,-6.391592e-06,-1.8109473e-05,-1.8109524e-05,0.00034476508,-0.00039264842,-0.03892972,4000,4000,0,0,0,1
69136000,69136000,1310988,1310988,-1.810938e-05,5.4328513e-05,2.7696908e-05,9.576806e-06,0.00013407599,-0.039312795,4000,4000,0,0,0,1
69636000,69636000,1310988,1310988,-8.522209e-06,7.457006e-06,4.5806333e-05,9.576807e-05,-0.00015801663,-0.039011125,4000,4000,0,0,0,1
70136000,70136000,1310988,1310988,1.5978985e-05,-1.1717968e-05,3.3023174e-05,5.7460842e-05,-5.7460165e-05,-0.03892015,4000,4000,0,0,0,1
70636000,70636000,1310988,1310988,-2.9827463e-05,1.9174711e-05,1.1717852e-05,-4.3095635e-05,0.000158018,-0.03921224,4000,4000,0,0,0,1
71136000,71136000,1310988,1310988,-5.326372e-06,2.2370581e-05,1.3848378e-05,-0.00015322893,7.182675e-05,-0.0391452,4000,4000,0,0,0,1
71636000,71636000,1310988,1310988,-3.1957938e-05,-7.243798e-05,1.5979078e-05,0.00022505499,-8.140217e-05,-0.039327163,4000,4000,0,0,0,1
72136000,72136000,1310988,1310988,5.3263016e-06,-2.3435847e-05,9.587323e-06,0.00025857383,0.0002681513,-0.039710235,4000,4000,0,0,0,1
72636000,72636000,1310988,1310988,3.8349404e-05,5.3263248e-05,3.3023305e-05,0.0003782839,0.000110133966,-0.03896324,4000,4000,0,0,0,1
73136000,73136000,1310988,1310988,-1.27831045e-05,-1.0652714e-06,3.5153756e-05,0.00044532158,-5.2671763e-05,-0.039240967,4000,4000,0,0,0,1
73636000,73636000,1310988,1310988,-3.941486e-05,-4.2610467e-05,1.1718084e-05,0.000272939,0.000119710785,-0.039308008,4000,4000,0,0,0,1
74136000,74136000,1310988,1310988,4.5806337e-05,-4.1545474e-05,4.687154e-05,-0.00040701436,9.0980364e-05,-0.039403778,4000,4000,0,0,0,1
74636000,74636000,1310988,1310988,-2.5566182e-05,-1.0652751e-05,-4.5806442e-05,0.00067995343,6.224993e-05,-0.03930322,4000,4000,0,0,0,1
75136000,75136000,1310988,1310988,-1.917479e-05,4.2609863e-06,-5.4328484e-05,0.00010055649,-4.7877247e-06,-0.03893451,4000,4000,0,0,0,1
75636000,75636000,1310988,1310988,1.278317e-05,3.5153727e-05,-6.3916323e-06,0.0,0.00031603532,-0.03933674,4000,4000,0,0,0,1
76136000,76136000,1310988,1310988,-1.5978985e-05,-1.1717891e-05,-5.326311e-06,0.00049320556,-0.00016280502,-0.038905777,4000,4000,0,0,0,1
76636000,76636000,1310988,1310988,1.5978892e-05,1.8109573e-05,-5.326305e-06,0.00029209268,-0.0003351876,-0.039427713,4000,4000,0,0,0,1
77136000,77136000,1310988,1310988,2.1306148e-06,9.587422e-06,4.6871628e-05,0.00029209268,-0.00049799326,-0.03925534,4000,4000,0,0,0,1
77636000,77636000,1310988,1310988,-2.5566349e-05,-6.3915986e-06,3.7284255e-05,0.00045489834,0.00013407599,-0.039600104,4000,4000,0,0,0,1
78136000,78136000,1310988,1310988,5.752405e-05,4.5806537e-05,3.621917e-05,0.0001388637,-0.0006129151,-0.039245754,4000,4000,0,0,0,1
78636000,78636000,1310988,1310988,1.17178815e-05,-2.1304977e-06,1.7044256e-05,-8.619127e-05,-9.097899e-05,-0.03942293,4000,4000,0,0,0,1
79136000,79136000,1310988,1310988,-1.1717957e-05,-4.5806413e-05,5.113265e-05,3.3518827e-05,-9.576119e-06,-0.039729387,4000,4000,0,0,0,1
79636000,79636000,1310988,1310988,2.1305586e-06,1.5978938e-05,6.39165e-06,-0.00018195936,0.0001292876,-0.039513916,4000,4000,0,0,0,1
80136000,80136000,1310988,1310988,1.8109546e-05,2.7696848e-05,1.32308e-10,0.00019153614,-0.00027772674,-0.038977604,4000,4000,0,0,0,1
80636000,80636000,1310988,1310988,6.3915486e-06,-1.2783111e-05,5.6459037e-05,4.7884034e-05,0.00021547887,-0.039389405,4000,4000,0,0,0,1
81136000,81136000,1310988,1310988,2.7696904e-05,3.515378e-05,2.5566258e-05,8.619127e-05,-1.915293e-05,-0.03930322,4000,4000,0,0,0,1
81636000,81636000,1310988,1310988,-3.6218888e-05,2.5566385e-05,2.9827514e-05,0.0,-0.00030645716,-0.03888663,4000,4000,0,0,0,1
82136000,82136000,1310988,1310988,7.456821e-06,3.9414706e-05,-3.089278e-05,-0.00013407532,-0.00014843985,-0.039059013,4000,4000,0,0,0,1
82636000,82636000,1310988,1310988,2.2370567e-05,-4.7936817e-05,-2.130548e-05,-0.00025378537,-0.00052672374,-0.038613692,4000,4000,0,0,0,1
83136000,83136000,1310988,1310988,2.1305073e-06,-5.2197945e-05,1.597901e-05,0.0002873042,-4.7883346e-05,-0.03950433,4000,4000,0,0,0,1
83636000,83636000,1310988,1310988,-3.5153727e-05,-1.0653334e-06,-2.1305336e-06,-8.140286e-05,-4.7883357e-05,-0.03891536,4000,4000,0,0,0,1
84136000,84136000,1310988,1310988,-2.4501129e-05,1.0653933e-06,-4.580635e-05,0.000545878,-0.0003351876,-0.039777268,4000,4000,0,0,0,1
84636000,84636000,1310988,1310988,-1.0652673e-05,-1.9174831e-05,2.0239942e-05,0.00017238254,0.00018674844,-0.03911647,4000,4000,0,0,0,1
85136000,85136000,1310988,1310988,1.5978934e-05,-8.522046e-06,-2.5566394e-05,0.00018195936,-0.00020111229,-0.0393511,4000,4000,0,0,0,1
85636000,85636000,1310988,1310988,-1.0652516e-05,4.687167e-05,8.5221245e-06,0.0001388637,0.00049799465,-0.039078165,4000,4000,0,0,0,1
86136000,86136000,1310988,1310988,1.1717893e-05,-1.91747e-05,5.4328513e-05,-0.00021547818,-9.5767384e-05,-0.03930322,4000,4000,0,0,0,1
86636000,86636000,1310988,1310988,6.178541e-05,2.8762015e-05,5.32627e-06,-4.7884064e-06,-2.8729739e-05,-0.03918351,4000,4000,0,0,0,1
87136000,87136000,1310988,1310988,3.1957894e-05,-3.5153702e-05,2.7696966e-05,-0.00019632453,-0.0006224918,-0.03908774,4000,4000,0,0,0,1
87636000,87636000,1310988,1310988,8.52216e-06,-1.0651987e-06,-3.621899e-05,0.00020590138,-0.00030645716,-0.03892972,4000,4000,0,0,0,1
88136000,88136000,1310988,1310988,-4.7936843e-05,-4.47411e-05,5.1132767e-05,0.00019153615,-0.00035434117,-0.03931279,4000,4000,0,0,0,1
88636000,88636000,1310988,1310988,2.8762086e-05,2.130538e-05,-1.8109478e-05,-0.000114921684,0.00038307297,-0.039126046,4000,4000,0,0,0,1
89136000,89136000,1310988,1310988,-5.432849e-05,-3.1956406e-06,7.456888e-06,0.00044053316,0.00049320626,-0.039427716,4000,4000,0,0,0,1
89636000,89636000,1310988,1310988,-2.7696788e-05,-2.556644e-05,-5.3263693e-06,9.097967e-05,-0.00026814992,-0.03935589,4000,4000,0,0,0,1
90136000,90136000,1310988,1310988,-2.3435761e-05,-4.3675926e-05,2.343574e-05,0.00017717094,0.00025378607,-0.039217032,4000,4000,0,0,0,1
90636000,90636000,1310988,1310988,-1.4913761e-05,-4.367585e-05,7.4567256e-06,0.00015322893,0.00015322962,-0.039217032,4000,4000,0,0,0,1
91136000,91136000,1310988,1310988,-2.4500994e-05,2.3435834e-05,-2.7696946e-05,-8.619127e-05,-0.00017238186,-0.038991973,4000,4000,0,0,0,1
91636000,91636000,1310988,1310988,-5.00674e-05,-1.7044335e-05,2.7696873e-05,-0.00015322893,0.00022984407,-0.038829163,4000,4000,0,0,0,1
92136000,92136000,1310988,1310988,-5.3263216e-06,4.687158e-05,-2.2370683e-05,-4.3095635e-05,-0.00040222527,-0.039264914,4000,4000,0,0,0,1
92636000,92636000,1310988,1310988,-3.9414852e-05,2.769676e-05,8.522224e-06,0.00036391872,0.00013886439,-0.039226606,4000,4000,0,0,0,1
93136000,93136000,1310988,1310988,2.556641e-05,1.4913581e-05,1.9174779e-05,8.619127e-05,-0.00017717025,-0.039375044,4000,4000,0,0,0,1
93636000,93636000,1310988,1310988,3.8349503e-05,-7.456936e-06,-2.5566354e-05,-0.0005363013,3.351952e-05,-0.039221816,4000,4000,0,0,0,1
94136000,94136000,1310988,1310988,2.0239993e-05,-1.810948e-05,2.0240077e-05,0.00014365211,-0.00039743687,-0.039274484,4000,4000,0,0,0,1
94636000,94636000,1310988,1310988,3.195794e-05,3.7284182e-05,6.285065e-05,-8.619127e-05,-8.619059e-05,-0.039264914,4000,4000,0,0,0,1
95136000,95136000,1310988,1310988,2.5566245e-05,-2.237059e-05,-3.834957e-05,0.00036870711,-0.00030645716,-0.039475597,4000,4000,0,0,0,1
95636000,95636000,1310988,1310988,3.089263e-05,-3.9414797e-05,-1.49137795e-05,-0.00018195936,-0.0002298427,-0.03931758,4000,4000,0,0,0,1
96136000,96136000,1310988,1310988,-2.7696875e-05,-6.5740156e-11,6.391595e-06,-0.00020111297,-0.000339976,-0.039327163,4000,4000,0,0,0,1
96636000,96636000,1310988,1310988,-4.2610936e-06,-3.195795e-05,6.3915004e-06,0.00011013329,-0.00028251516,-0.03953306,4000,4000,0,0,0,1
97136000,97136000,1310988,1310988,2.5566196e-05,1.8109575e-05,3.7284328e-05,0.00013407532,0.00014365278,-0.039260127,4000,4000,0,0,0,1
97636000,97636000,1310988,1310988,-4.5806388e-05,-2.4501025e-05,3.0892705e-05,0.00032082302,0.0001628064,-0.038939297,4000,4000,0,0,0,1
98136000,98136000,1310988,1310988,6.604654e-05,4.9001916e-05,-3.941489e-05,-0.00017717094,-0.0002011123,-0.039121255,4000,4000,0,0,0,1
98636000,98636000,1310988,1310988,3.7284226e-05,2.130539e-05,2.6631573e-05,-0.00038786067,0.0005075715,-0.039585732,4000,4000,0,0,0,1
99136000,99136000,1310988,1310988,1.0655083e-06,6.391608e-06,-4.9002167e-05,0.00036870711,-0.00031603398,-0.039173935,4000,4000,0,0,0,1
99636000,99636000,1310988,1310988,-4.90022e-05,-1.0652561e-05,-6.3915286e-06,-0.00056982,0.00023942087,-0.038632836,4000,4000,0,0,0,1
100136000,100136000,1310988,1310988,-2.6631511e-05,-2.2370645e-05,-1.2783236e-05,-0.0001101333,-0.0003351876,-0.039059013,4000,4000,0,0,0,1
100636000,100636000,1310988,1310988,2.1305079e-05,-1.4913581e-05,4.90023e-05,0.00057939684,7.182675e-05,-0.039173935,4000,4000,0,0,0,1
101136000,101136000,1310988,1310988,4.2611673e-06,4.793686e-05,1.5979067e-05,0.00024899698,0.00017717162,-0.03935589,4000,4000,0,0,0,1
101636000,101636000,1310988,1310988,-8.522074e-06,-1.704391e-05,-5.43286e-05,0.00014844054,-0.00022984268,-0.039135627,4000,4000,0,0,0,1
102136000,102136000,1310988,1310988,3.195698e-06,9.5872865e-06,-4.1545343e-05,-3.3518827e-05,0.00013886439,-0.039485183,4000,4000,0,0,0,1
102636000,102636000,1310988,1310988,2.130517e-05,4.474121e-05,2.0239944e-05,-5.7460842e-05,-0.00023941952,-0.038896203,4000,4000,0,0,0,1
103136000,103136000,1310988,1310988,3.6218957e-05,3.1958014e-05,-1.491363e-05,0.00043095637,-6.703696e-05,-0.039576158,4000,4000,0,0,0,1
103636000,103636000,1310988,1310988,-8.522077e-06,-4.5806384e-05,-4.2610586e-06,0.0005602432,2.3942699e-05,-0.039020706,4000,4000,0,0,0,1
104136000,104136000,1310988,1310988,-3.7284226e-05,2.4501138e-05,-2.2370547e-05,-3.8307233e-05,1.4365901e-05,-0.03947081,4000,4000,0,0,0,1
104636000,104636000,1310988,1310988,2.1306225e-06,2.0240032e-05,3.5153724e-05,3.8307233e-05,0.00025378607,-0.038723823,4000,4000,0,0,0,1
105136000,105136000,1310988,1310988,4.3675907e-05,3.621891e-05,2.1306926e-06,-0.00030166947,-9.097898e-05,-0.039499544,4000,4000,0,0,0,1
105636000,105636000,1310988,1310988,-1.7044436e-05,1.0652689e-05,6.285054e-05,0.00023942019,-0.00013886302,-0.039135627,4000,4000,0,0,0,1
106136000,106136000,1310988,1310988,5.5393768e-05,9.587367e-06,4.7936894e-05,-4.788404e-05,-0.00018195868,-0.03886268,4000,4000,0,0,0,1
106636000,106636000,1310988,1310988,-2.0240177e-05,-1.3848441e-05,2.7696766e-05,6.703766e-05,-9.57674e-05,-0.038843535,4000,4000,0,0,0,1
107136000,107136000,1310988,1310988,2.8762339e-05,7.5633754e-05,2.8762035e-05,0.00058418536,-6.2248575e-05,-0.038685516,4000,4000,0,0,0,1
107636000,107636000,1310988,1310988,-3.0892486e-05,5.9654885e-05,-3.302324e-05,3.830723e-05,0.0001436528,-0.038968027,4000,4000,0,0,0,1
108136000,108136000,1310988,1310988,-2.0240112e-05,-1.5979062e-05,3.9414706e-05,-3.3518827e-05,-0.00060333824,-0.039394196,4000,4000,0,0,0,1
108636000,108636000,1310988,1310988,2.3435814e-05,-3.3023207e-05,1.0652685e-06,-0.00017717092,0.00025857452,-0.039327163,4000,4000,0,0,0,1
109136000,109136000,1310988,1310988,1.5978943e-05,1.4913768e-05,1.38484e-05,-4.3095635e-05,0.00024899768,-0.038944084,4000,4000,0,0,0,1
109636000,109636000,1310988,1310988,-2.4501156e-05,-2.1306287e-06,-2.023993e-05,-3.8307226e-05,4.309632e-05,-0.039279275,4000,4000,0,0,0,1
110136000,110136000,1310988,1310988,1.5978945e-05,-8.522209e-06,1.065261e-05,-7.182605e-05,-0.00039743684,-0.038900986,4000,4000,0,0,0,1
110636000,110636000,1310988,1310988,1.5978829e-05,-7.456763e-06,7.0307506e-05,-2.3942019e-05,3.3519515e-05,-0.039576158,4000,4000,0,0,0,1
111136000,111136000,1310988,1310988,2.23705e-05,-2.343569e-05,-5.7524358e-05,-9.576813e-06,-0.00026336152,-0.039494753,4000,4000,0,0,0,1
111636000,111636000,1310988,1310988,3.5153782e-05,3.941472e-05,-1.2783254e-05,9.5768075e-05,0.00013886439,-0.03952349,4000,4000,0,0,0,1
112136000,112136000,1310988,1310988,2.13054e-05,5.219794e-05,-6.391585e-05,0.00020590136,-2.8729744e-05,-0.039006334,4000,4000,0,0,0,1
112636000,112636000,1310988,1310988,-2.8762208e-05,1.9174651e-05,-6.3916327e-06,-8.140285e-05,0.00030167014,-0.03947081,4000,4000,0,0,0,1
113136000,113136000,1310988,1310988,-4.236544e-11,-2.9827403e-05,-4.2610986e-06,0.00062249246,-0.00029209198,-0.039183512,4000,4000,0,0,0,1
113636000,113636000,1310988,1310988,-1.0652179e-06,1.8109537e-05,1.8109464e-05,-6.2249244e-05,0.00015322962,-0.039499544,4000,4000,0,0,0,1
114136000,114136000,1310988,1310988,7.456626e-06,-7.6698976e-05,-3.9414954e-05,2.3942019e-05,0.0001292876,-0.03941335,4000,4000,0,0,0,1
114636000,114636000,1310988,1310988,-2.6631613e-05,-3.834947e-05,1.81096e-05,-0.00012928693,-0.00015322825,-0.038872268,4000,4000,0,0,0,1
115136000,115136000,1310988,1310988,-2.4500994e-05,-3.9414786e-05,-3.302327e-05,2.3942017e-05,-7.1825365e-05,-0.0393511,4000,4000,0,0,0,1
115636000,115636000,1310988,1310988,-1.4913706e-05,4.261069e-06,-6.3915754e-06,0.00015801731,2.8731103e-05,-0.039059013,4000,4000,0,0,0,1
116136000,116136000,1310988,1310988,2.237056e-05,1.171776e-05,2.6631677e-05,0.00049799395,-0.00016759346,-0.039547425,4000,4000,0,0,0,1
116636000,116636000,1310988,1310988,-3.1958025e-06,-4.2611027e-06,5.2197956e-05,0.00029209268,0.00021547887,-0.03969108,4000,4000,0,0,0,1
117136000,117136000,1310988,1310988,6.2850435e-05,2.1305095e-05,-6.498137e-05,0.00019632453,0.0006847424,-0.03919787,4000,4000,0,0,0,1
117636000,117636000,1310988,1310988,-2.1304904e-06,4.6871482e-05,7.456862e-05,-7.6614466e-05,0.00044532225,-0.039375048,4000,4000,0,0,0,1
118136000,118136000,1310988,1310988,1.0652729e-05,-2.0239975e-05,2.1306e-06,0.00012928691,-0.00046926292,-0.038972817,4000,4000,0,0,0,1
118636000,118636000,1310988,1310988,-3.302323e-05,4.7936894e-05,3.3023203e-05,2.8730423e-05,-0.00022984268,-0.039327163,4000,4000,0,0,0,1
119136000,119136000,1310988,1310988,-2.4501145e-05,1.0652569e-05,-1.704419e-05,-0.0001197101,-4.7877215e-06,-0.039054215,4000,4000,0,0,0,1
119636000,119636000,1310988,1310988,-9.587435e-06,-2.2370587e-05,1.2783081e-05,-8.140285e-05,2.8731107e-05,-0.03911647,4000,4000,0,0,0,1
120136000,120136000,1310988,1310988,1.2783249e-05,1.065257e-05,5.1132698e-05,0.00021547818,0.00033997736,-0.039509118,4000,4000,0,0,0,1
120636000,120636000,1310988,1310988,1.0652721e-05,-3.941476e-05,-1.0653882e-06,-0.0002346318,9.5768744e-05,-0.038800437,4000,4000,0,0,0,1
121136000,121136000,1310988,1310988,-2.663161e-05,4.2610645e-06,7.4568584e-06,-4.7884034e-05,-0.0003734948,-0.039006334,4000,4000,0,0,0,1
121636000,121636000,1310988,1310988,-7.13727e-05,5.4328357e-05,-5.1132873e-05,0.00018195936,0.00022984404,-0.038862683,4000,4000,0,0,0,1
122136000,122136000,1310988,1310988,6.3916873e-06,2.024005e-05,4.2610558e-05,0.00015322893,-0.0003495528,-0.039073378,4000,4000,0,0,0,1
122636000,122636000,1310988,1310988,-6.3915572e-06,-1.8109504e-05,7.456869e-06,0.00026336222,-6.224856e-05,-0.039609674,4000,4000,0,0,0,1
123136000,123136000,1310988,1310988,-3.195633e-06,3.1957952e-05,1.06526395e-05,3.8307233e-05,-0.00017717025,-0.03896324,4000,4000,0,0,0,1
123636000,123636000,1310988,1310988,3.40885e-05,2.7696959e-05,2.0239859e-05,0.0,0.00062728155,-0.03931758,4000,4000,0,0,0,1
124136000,124136000,1310988,1310988,-2.5566504e-05,-2.1305143e-05,3.0892646e-05,-8.619127e-05,8.140354e-05,-0.038891412,4000,4000,0,0,0,1
124636000,124636000,1310988,1310988,-3.5153505e-05,7.456797e-06,-7.030758e-05,0.0009145851,-0.00013886302,-0.03933674,4000,4000,0,0,0,1
125136000,125136000,1310988,1310988,-1.8109558e-05,-9.587466e-06,3.6218946e-05,0.0001244985,0.00035434257,-0.039413355,4000,4000,0,0,0,1
125636000,125636000,1310988,1310988,-1.0652183e-06,2.876219e-05,-8.521961e-06,5.7460842e-05,0.00049320626,-0.038853105,4000,4000,0,0,0,1
126136000,126136000,1310988,1310988,5.219801e-05,-1.8109371e-05,1.704423e-05,0.000272939,0.0004261686,-0.039111685,4000,4000,0,0,0,1
126636000,126636000,1310988,1310988,-1.8109447e-05,-1.1717938e-05,-3.5153753e-05,0.0003351883,-0.00027772674,-0.039346315,4000,4000,0,0,0,1
127136000,127136000,1310988,1310988,-2.7696959e-05,2.0239937e-05,-3.9414776e-05,-0.00034476508,7.661515e-05,-0.03931279,4000,4000,0,0,0,1
127636000,127636000,1310988,1310988,-4.1545354e-05,-4.9002152e-05,5.3261792e-06,-9.097968e-05,-0.00020111229,-0.03930322,4000,4000,0,0,0,1
128136000,128136000,1310988,1310988,5.3262984e-06,5.3263225e-06,-4.2610895e-06,0.00012928691,-0.00015322825,-0.03918351,4000,4000,0,0,0,1
128636000,128636000,1310988,1310988,-3.3665397e-11,2.6631586e-05,-8.522208e-06,-0.00038307227,0.0002777281,-0.03940857,4000,4000,0,0,0,1
129136000,129136000,1310988,1310988,5.7524387e-05,8.521918e-06,2.8761999e-05,4.3095635e-05,9.576875e-05,-0.039427713,4000,4000,0,0,0,1
129636000,129636000,1310988,1310988,-5.858951e-05,-1.0654579e-06,-2.5566433e-05,-0.0001436521,-0.00050278165,-0.039557006,4000,4000,0,0,0,1
130136000,130136000,1310988,1310988,-6.3915572e-06,7.4569275e-06,3.3023196e-05,0.00012449849,0.0002825165,-0.03898239,4000,4000,0,0,0,1
130636000,130636000,1310988,1310988,3.728431e-05,-1.9174782e-05,3.302313e-05,-0.00012449849,0.00034476578,-0.03945645,4000,4000,0,0,0,1
131136000,131136000,1310988,1310988,-6.391639e-06,-1.3848432e-05,5.0067432e-05,-9.576808e-06,-4.3094948e-05,-0.039432503,4000,4000,0,0,0,1
131636000,131636000,1310988,1310988,2.4501076e-05,-2.7696886e-05,-2.1304872e-06,0.00020590136,0.00024899768,-0.039394196,4000,4000,0,0,0,1
132136000,132136000,1310988,1310988,-3.1957338e-06,-3.195824e-06,4.2610583e-05,-0.00017238254,0.00012928758,-0.038838744,4000,4000,0,0,0,1
132636000,132636000,1310988,1310988,1.278321e-05,2.2370576e-05,2.6631582e-05,-0.00022505497,-0.00030645716,-0.03921224,4000,4000,0,0,0,1
133136000,133136000,1310988,1310988,5.6459055e-05,1.0654766e-06,5.858951e-05,-4.7884037e-05,1.9154308e-05,-0.03942293,4000,4000,0,0,0,1
133636000,133636000,1310988,1310988,-3.5153713e-05,6.39166e-06,2.024004e-05,0.00015322893,0.00038307297,-0.03953306,4000,4000,0,0,0,1
134136000,134136000,1310988,1310988,-5.539387e-05,1.8109482e-05,6.817684e-05,-7.182605e-05,-0.00026336152,-0.03922182,4000,4000,0,0,0,1
134636000,134636000,1310988,1310988,-4.7936923e-05,-1.0652265e-06,-2.1305264e-05,-0.00010534488,0.00010055717,-0.039327163,4000,4000,0,0,0,1
135136000,135136000,1310988,1310988,-6.711177e-05,-2.982725e-05,-3.4088407e-05,4.788404e-06,-0.00016759348,-0.03871424,4000,4000,0,0,0,1
135636000,135636000,1310988,1310988,1.3848456e-05,-3.1957334e-06,1.0652375e-06,-0.00065601134,-0.00022984268,-0.03936068,4000,4000,0,0,0,1
136136000,136136000,1310988,1310988,5.326266e-06,1.0652676e-05,9.587378e-06,4.788404e-06,-0.0002298427,-0.03931279,4000,4000,0,0,0,1
136636000,136636000,1310988,1310988,1.8109518e-05,1.7044184e-05,2.3435841e-05,0.00070389535,0.00017238322,-0.039336737,4000,4000,0,0,0,1
137136000,137136000,1310988,1310988,-2.2370576e-05,-4.261058e-05,3.5153716e-05,-5.746084e-05,0.000105345556,-0.038953666,4000,4000,0,0,0,1
137636000,137636000,1310988,1310988,1.1717909e-05,1.0652628e-05,3.941479e-05,0.00043574476,-0.00050757005,-0.0393511,4000,4000,0,0,0,1
138136000,138136000,1310988,1310988,4.793681e-05,1.8109697e-05,2.343586e-05,-4.788403e-06,0.00011013397,-0.039413355,4000,4000,0,0,0,1
138636000,138636000,1310988,1310988,-1.5978974e-05,2.6631575e-05,1.17179925e-05,0.00019632453,-0.0002729383,-0.039039858,4000,4000,0,0,0,1
139136000,139136000,1310988,1310988,-2.3435889e-05,2.9827568e-05,4.7936777e-05,0.00032082302,-1.9152938e-05,-0.038891412,4000,4000,0,0,0,1
139636000,139636000,1310988,1310988,6.391575e-06,4.048002e-05,1.3848532e-05,0.0004836288,-1.9152923e-05,-0.039652772,4000,4000,0,0,0,1
140136000,140136000,1310988,1310988,3.1957645e-06,1.597894e-05,2.0240052e-05,0.00016759415,7.661515e-05,-0.03925055,4000,4000,0,0,0,1
140636000,140636000,1310988,1310988,-3.9414786e-05,-1.5978916e-05,3.08927e-05,0.00020590136,-0.00023941952,-0.039059013,4000,4000,0,0,0,1
141136000,141136000,1310988,1310988,-9.587419e-06,-5.0067556e-05,4.9002036e-05,7.661446e-05,-0.00021068908,-0.039346315,4000,4000,0,0,0,1
141636000,141636000,1310988,1310988,-2.0240008e-05,-2.4501142e-05,-1.3848362e-05,0.00034476508,-0.0002202659,-0.03908774,4000,4000,0,0,0,1
142136000,142136000,1310988,1310988,6.3916054e-06,1.7044202e-05,-1.0652682e-05,-0.00015322893,-0.00019153545,-0.03936547,4000,4000,0,0,0,1
142636000,142636000,1310988,1310988,-1.4913708e-05,1.0652036e-06,2.8762142e-05,0.00012449849,-8.140216e-05,-0.03958094,4000,4000,0,0,0,1
143136000,143136000,1310988,1310988,-5.3263248e-05,3.089262e-05,1.0652695e-05,4.3095635e-05,-0.00027772674,-0.039207447,4000,4000,0,0,0,1
143636000,143636000,1310988,1310988,-1.8629447e-10,5.9654805e-05,-1.0652704e-05,0.00020111297,0.0006224931,-0.038891412,4000,4000,0,0,0,1
144136000,144136000,1310988,1310988,1.0651885e-06,1.9174773e-05,1.5978962e-05,-4.7884034e-05,-0.0003351876,-0.03933674,4000,4000,0,0,0,1
144636000,144636000,1310988,1310988,4.4741064e-05,-1.4913816e-05,3.4088484e-05,-7.6614466e-05,4.7884718e-05,-0.038862683,4000,4000,0,0,0,1
145136000,145136000,1310988,1310988,7.4568757e-06,-1.7044249e-05,8.522065e-06,-1.4365208e-05,-0.00021068908,-0.039571367,4000,4000,0,0,0,1
145636000,145636000,1310988,1310988,-4.0480038e-05,-2.6631627e-05,2.3435829e-05,0.00058897375,-0.00030645716,-0.038848322,4000,4000,0,0,0,1
146136000,146136000,1310988,1310988,-2.1306005e-06,2.769686e-05,-2.024004e-05,8.140285e-05,-6.224855e-05,-0.03943729,4000,4000,0,0,0,1
146636000,146636000,1310988,1310988,-6.3915745e-06,6.3915824e-05,-2.1305437e-05,0.00017717094,0.00022505566,-0.03937026,4000,4000,0,0,0,1
147136000,147136000,1310988,1310988,-1.1717848e-05,-2.4501109e-05,3.1958393e-06,-0.00041659115,0.00015322962,-0.039413355,4000,4000,0,0,0,1
147636000,147636000,1310988,1310988,4.900213e-05,-1.1717949e-05,4.154535e-05,0.0001436521,-5.2671752e-05,-0.03907816,4000,4000,0,0,0,1
148136000,148136000,1310988,1310988,4.2609445e-06,-5.2198007e-05,-4.9002127e-05,3.3518827e-05,-0.00012928621,-0.038996764,4000,4000,0,0,0,1
148636000,148636000,1310988,1310988,3.0892683e-05,-5.326316e-06,-2.3435809e-05,-0.00022026658,0.00030167014,-0.038747758,4000,4000,0,0,0,1
149136000,149136000,1310988,1310988,4.5806304e-05,-1.8109675e-05,2.343582e-05,-0.00015801731,-0.00028730353,-0.03953785,4000,4000,0,0,0,1
149636000,149636000,1310988,1310988,6.711178e-05,3.7284157e-05,4.9002087e-05,-0.0003351883,-0.0002250543,-0.039217032,4000,4000,0,0,0,1
150136000,150136000,1310988,1310988,-9.26744e-12,1.3848438e-05,3.195794e-06,0.00017717094,7.182675e-05,-0.039231393,4000,4000,0,0,0,1
150636000,150636000,1310988,1310988,-1.8109504e-05,-2.9827452e-05,-1.5978881e-05,0.00011013329,1.4365897e-05,-0.03925055,4000,4000,0,0,0,1
151136000,151136000,1310988,1310988,-5.539368e-05,-1.5979163e-05,-1.06527405e-05,2.3942017e-05,-0.0002729383,-0.03929843,4000,4000,0,0,0,1
151636000,151636000,1310988,1310988,7.4569775e-06,4.7936817e-05,-3.834961e-05,-0.00016759415,0.0002585745,-0.03931279,4000,4000,0,0,0,1
152136000,152136000,1310988,1310988,-4.260993e-06,2.6631624e-05,2.982741e-05,-3.3518827e-05,0.00043574543,-0.03928406,4000,4000,0,0,0,1
152636000,152636000,1310988,1310988,8.522107e-06,-6.4981235e-05,-2.8761933e-05,0.0002777274,1.4365896e-05,-0.03925534,4000,4000,0,0,0,1
153136000,153136000,1310988,1310988,-4.367581e-05,-3.1958007e-05,2.7696855e-05,0.0003926491,0.000114922375,-0.039073378,4000,4000,0,0,0,1
153636000,153636000,1310988,1310988,-6.391629e-06,2.9827484e-05,-2.3435712e-05,-0.00030645786,6.8730777e-10,-0.039379835,4000,4000,0,0,0,1
154136000,154136000,1310988,1310988,9.587369e-06,-9.587268e-06,5.006746e-05,-0.00026815064,-0.0002489963,-0.03891536,4000,4000,0,0,0,1
154636000,154636000,1310988,1310988,-2.9827354e-05,1.597907e-05,-2.130502e-06,0.00044053316,-0.00019632385,-0.039126046,4000,4000,0,0,0,1
155136000,155136000,1310988,1310988,-1.5979003e-05,-2.450108e-05,-1.0652608e-05,0.00061770406,0.0002729397,-0.03903507,4000,4000,0,0,0,1
155636000,155636000,1310988,1310988,-6.3915926e-05,5.64589e-05,-4.367591e-05,0.00015322893,-0.0003734948,-0.039293647,4000,4000,0,0,0,1
156136000,156136000,1310988,1310988,-2.1305232e-06,3.089258e-05,-1.810965e-05,-0.00012449849,-0.0002537847,-0.03938941,4000,4000,0,0,0,1
156636000,156636000,1310988,1310988,1.3848444e-05,5.326323e-05,3.1957304e-06,0.0002394202,0.00014365278,-0.03953785,4000,4000,0,0,0,1
157136000,157136000,1310988,1310988,-5.8589514e-05,-7.457033e-06,7.4569516e-06,-0.00019632453,3.351951e-05,-0.039173935,4000,4000,0,0,0,1
157636000,157636000,1310988,1310988,1.065323e-06,2.1303551e-06,-4.154532e-05,-0.00029688107,0.00038307297,-0.039240967,4000,4000,0,0,0,1
158136000,158136000,1310988,1310988,-1.5978978e-05,2.2370557e-05,-3.30232e-05,0.00015801731,0.0001436528,-0.039509118,4000,4000,0,0,0,1
158636000,158636000,1310988,1310988,-1.49136895e-05,4.2610222e-06,-1.9174782e-05,-0.00014365211,-8.619059e-05,-0.039173935,4000,4000,0,0,0,1
159136000,159136000,1310988,1310988,-8.522204e-06,-2.8762117e-05,1.0652573e-06,0.0002777274,0.00019632524,-0.03903507,4000,4000,0,0,0,1
159636000,159636000,1310988,1310988,1.06527505e-05,3.1957894e-05,-2.3435838e-05,-1.4365211e-05,0.00024899768,-0.039485183,4000,4000,0,0,0,1
160136000,160136000,1310988,1310988,-1.9174753e-05,-1.2783207e-05,2.66316e-05,-0.00020111297,0.00034955415,-0.03879565,4000,4000,0,0,0,1
160636000,160636000,1310988,1310988,-3.408858e-05,-4.793683e-05,1.810948e-05,-0.00013407532,-6.703696e-05,-0.039772477,4000,4000,0,0,0,1
161136000,161136000,1310988,1310988,1.1717873e-05,-1.384844e-05,-1.2783206e-05,-3.351883e-05,-7.661378e-05,-0.03925534,4000,4000,0,0,0,1
161636000,161636000,1310988,1310988,2.1305204e-05,4.9002178e-05,1.4913813e-05,0.00020111297,0.00011013397,-0.039178725,4000,4000,0,0,0,1
162136000,162136000,1310988,1310988,1.810985e-05,3.302308e-05,-4.3675795e-05,9.576813e-06,-0.000105344196,-0.03930322,4000,4000,0,0,0,1
162636000,162636000,1310988,1310988,-2.1305199e-05,8.522114e-06,-2.7696953e-05,0.00049320556,3.3519504e-05,-0.03888663,4000,4000,0,0,0,1
163136000,163136000,1310988,1310988,5.219798e-05,1.704425e-05,2.4501036e-05,-0.000114921684,-2.8729737e-05,-0.038987186,4000,4000,0,0,0,1
163636000,163636000,1310988,1310988,-7.4568784e-06,3.1957431e-06,-2.5566349e-05,0.00029688107,3.8307917e-05,-0.039274484,4000,4000,0,0,0,1
164136000,164136000,1310988,1310988,-3.515377e-05,1.3848384e-05,6.3914995e-06,3.351883e-05,-0.0005793962,-0.038968027,4000,4000,0,0,0,1
164636000,164636000,1310988,1310988,1.3848497e-05,-3.7284062e-05,7.882966e-05,0.0005410897,0.00017717162,-0.03952349,4000,4000,0,0,0,1
165136000,165136000,1310988,1310988,3.302304e-05,4.2609595e-06,8.735176e-05,0.0005602432,-0.0006272802,-0.038924936,4000,4000,0,0,0,1
165636000,165636000,1310988,1310988,2.0240024e-05,-1.5978983e-05,-6.3915504e-06,-6.7037654e-05,-2.8729743e-05,-0.038968027,4000,4000,0,0,0,1
166136000,166136000,1310988,1310988,-2.1305354e-05,-1.3848488e-05,2.3435734e-05,0.00031603462,-0.0006320686,-0.039111685,4000,4000,0,0,0,1
166636000,166636000,1310988,1310988,9.587249e-06,2.1304822e-06,3.302324e-05,0.00018674775,0.00030645856,-0.039178725,4000,4000,0,0,0,1
167136000,167136000,1310988,1310988,1.4913616e-05,-2.0240095e-05,-2.1304638e-06,0.00013407532,-0.0003830716,-0.039082948,4000,4000,0,0,0,1
167636000,167636000,1310988,1310988,3.7284295e-05,1.1717641e-05,6.7111694e-05,-0.00017238254,-0.00028251513,-0.038838744,4000,4000,0,0,0,1
168136000,168136000,1310988,1310988,4.9002127e-05,-6.391729e-06,3.515376e-05,0.00024899698,0.00033040054,-0.038996764,4000,4000,0,0,0,1
168636000,168636000,1310988,1310988,-1.9174591e-05,-3.515364e-05,-5.965492e-05,-0.0001628057,-0.00045968607,-0.03923618,4000,4000,0,0,0,1
169136000,169136000,1310988,1310988,2.0240104e-05,-1.4913728e-05,6.4981105e-05,-6.2249244e-05,-8.140217e-05,-0.039063804,4000,4000,0,0,0,1
169636000,169636000,1310988,1310988,-1.491377e-05,3.834949e-05,1.3848449e-05,0.00026815064,-6.703696e-05,-0.039614465,4000,4000,0,0,0,1
170136000,170136000,1310988,1310988,-4.4741122e-05,3.302328e-05,-2.4500965e-05,-0.00025857383,-0.00050278165,-0.039853882,4000,4000,0,0,0,1
170636000,170636000,1310988,1310988,-1.597901e-05,3.834949e-05,-7.4569043e-06,0.00025378537,0.00011492237,-0.039173935,4000,4000,0,0,0,1
171136000,171136000,1310988,1310988,-3.6218997e-05,-2.450112e-05,-1.1717839e-05,0.00015801731,0.0001436528,-0.039111685,4000,4000,0,0,0,1
171636000,171636000,1310988,1310988,-5.0067432e-05,4.261098e-06,1.0653465e-06,6.703766e-05,0.0006129164,-0.03958094,4000,4000,0,0,0,1
172136000,172136000,1310988,1310988,6.7111614e-05,-2.1305394e-05,-2.130829e-06,9.576807e-05,0.00051235984,-0.039025497,4000,4000,0,0,0,1
172636000,172636000,1310988,1310988,-7.456916e-06,-4.0480016e-05,1.704429e-05,0.00035913024,6.837977e-10,-0.039178725,4000,4000,0,0,0,1
173136000,173136000,1310988,1310988,-1.4913945e-05,-5.3263197e-05,5.539372e-05,-0.00015322893,-1.4364526e-05,-0.039341528,4000,4000,0,0,0,1
173636000,173636000,1310988,1310988,9.587414e-06,-1.4913691e-05,5.3262997e-06,-2.8730416e-05,0.00011013398,-0.039499544,4000,4000,0,0,0,1
174136000,174136000,1310988,1310988,-8.5221345e-06,-1.2783213e-05,-2.9827386e-05,0.00044532155,8.1403545e-05,-0.03876213,4000,4000,0,0,0,1
174636000,174636000,1310988,1310988,-2.4500963e-05,4.2610678e-05,-1.2783084e-05,0.00024899698,0.0001292876,-0.039269697,4000,4000,0,0,0,1
175136000,175136000,1310988,1310988,2.7696822e-05,-3.7284302e-05,-2.1304943e-06,-4.788404e-06,-0.00021547751,-0.038958456,4000,4000,0,0,0,1
175636000,175636000,1310988,1310988,-5.752421e-05,-1.9174908e-05,2.0240099e-05,0.0004261679,-0.00032561074,-0.03942293,4000,4000,0,0,0,1
176136000,176136000,1310988,1310988,2.9827366e-05,-2.1305208e-05,-4.3675907e-05,0.00031124623,3.351952e-05,-0.039681505,4000,4000,0,0,0,1
176636000,176636000,1310988,1310988,-1.384846e-05,1.278308e-05,1.1717989e-05,0.000119710094,0.0001292876,-0.039073378,4000,4000,0,0,0,1
177136000,177136000,1310988,1310988,5.32616e-06,-4.0480103e-05,2.2370505e-05,-0.00030166947,0.0002681513,-0.03886747,4000,4000,0,0,0,1
177636000,177636000,1310988,1310988,2.8762084e-05,-2.9827464e-05,-2.024002e-05,0.00017717094,-0.00038786,-0.03946602,4000,4000,0,0,0,1
178136000,178136000,1310988,1310988,-1.0652533e-05,-4.154556e-05,-5.326306e-05,-0.00022505499,0.00030167014,-0.039082948,4000,4000,0,0,0,1
178636000,178636000,1310988,1310988,8.522134e-06,9.587351e-06,-1.3848449e-05,-0.00029209268,-9.57674e-05,-0.039015908,4000,4000,0,0,0,1
179136000,179136000,1310988,1310988,-5.6459023e-05,1.49137e-05,-1.1717908e-05,-4.7884064e-06,-0.0003495528,-0.03911647,4000,4000,0,0,0,1
179636000,179636000,1310988,1310988,3.5153662e-05,7.4569143e-06,2.2370641e-05,9.576807e-05,-0.00011492101,-0.03893451,4000,4000,0,0,0,1
180136000,180136000,1310988,1310988,3.9414797e-05,-1.9174558e-05,-2.5566482e-05,0.00013407531,1.436589e-05,-0.038843535,4000,4000,0,0,0,1
180636000,180636000,1310988,1310988,-5.3263448e-06,-3.408846e-05,-2.130609e-06,-1.436521e-05,4.3096315e-05,-0.03910211,4000,4000,0,0,0,1
