timestamp,yaw_sp_move_rate,q_d[0],q_d[1],q_d[2],q_d[3],thrust_body[0],thrust_body[1],thrust_body[2]
2408000,0.0,0.99999994,-0.0,0.0,-0.00032964154,0.0,0.0,-0.001
2416000,0.0,0.99999994,-0.0,0.0,-0.00037129992,0.0,0.0,-0.001
2456000,0.0,0.99999994,-0.0,0.0,-0.00034420448,0.0,0.0,-0.001
2512000,0.0,1.0,-0.0,0.0,-0.00022512149,0.0,0.0,-0.001
2560000,0.0,1.0,-0.0,0.0,-8.424419e-05,0.0,0.0,-0.001
2608000,0.0,1.0,-0.0,0.0,-6.876943e-05,0.0,0.0,-0.001
2656000,0.0,1.0,-0.0,0.0,-0.00014617483,0.0,0.0,-0.001
2712000,0.0,1.0,0.0,0.0,0.000115433875,0.0,0.0,-0.001
2760000,0.0,1.0,0.0,0.0,0.00013779527,0.0,0.0,-0.001
2808000,0.0,1.0,0.0,0.0,0.00010420237,0.0,0.0,-0.001
2856000,0.0,1.0,0.0,0.0,0.00010316668,0.0,0.0,-0.001
2912000,0.0,1.0,0.0,0.0,3.1529853e-05,0.0,0.0,-0.001
2960000,0.0,1.0,-0.0,0.0,-1.19281e-07,0.0,0.0,-0.001
3008000,0.0,1.0,-0.0,0.0,-0.00012218262,0.0,0.0,-0.001
3064000,0.0,0.70209235,0.0,0.0,0.71208596,0.0,0.0,-0.001
3104000,0.0,0.7020751,0.0,0.0,0.7121029,0.0,0.0,-0.001
3160000,0.0,0.7016912,0.0,0.0,0.7124812,0.0,0.0,-0.001
3208000,0.0,0.7010751,0.0,0.0,0.71308756,0.0,0.0,-0.001
3256000,0.0,0.70069623,0.0,0.0,0.71345973,0.0,0.0,-0.001
3312000,0.0,0.700512,0.0,0.0,0.7136407,0.0,0.0,-0.001
3360000,0.0,0.7004899,0.0,0.0,0.7136623,0.0,0.0,-0.001
3408000,0.0,0.700601,0.0,0.0,0.7135533,0.0,0.0,-0.001
3456000,0.0,0.70083636,0.0,0.0,0.7133221,0.0,0.0,-0.001
3504000,0.0,0.7011618,0.0,0.0,0.7130022,0.0,0.0,-0.001
3560000,0.0,0.7015263,0.0,0.0,0.7126436,0.0,0.0,-0.001
3608000,0.0,0.7017095,0.0,0.0,0.7124632,0.0,0.0,-0.001
3664000,0.0,0.7018268,0.0,0.0,0.7123476,0.0,0.0,-0.001
3712000,0.0,0.70185614,0.0,0.0,0.7123188,0.0,0.0,-0.001
3760000,0.0,0.70193857,0.0,0.0,0.7122376,0.0,0.0,-0.001
3808000,0.0,0.70189923,0.0,0.0,0.71227634,0.0,0.0,-0.001
3864000,0.0,0.70189995,0.0,0.0,0.7122755,0.0,0.0,-0.001
3912000,0.0,0.7018148,0.0,0.0,0.7123595,0.0,0.0,-0.001
3960000,0.0,0.701827,0.0,0.0,0.71234745,0.0,0.0,-0.001
4008000,0.0,0.7017121,0.0,0.0,0.71246064,0.0,0.0,-0.001
4064000,0.0,0.7017432,0.0,0.0,0.71243,0.0,0.0,-0.001
4112000,0.0,0.70183235,0.0,0.0,0.71234214,0.0,0.0,-0.001
4160000,0.0,0.70185065,0.0,0.0,0.71232414,0.0,0.0,-0.001
4208000,0.0,0.70185834,0.0,0.0,0.7123166,0.0,0.0,-0.001
4264000,0.0,0.70185536,0.0,0.0,0.7123195,0.0,0.0,-0.001
4312000,0.0,0.7018609,0.0,0.0,0.712314,0.0,0.0,-0.001
4360000,0.0,0.7017854,0.0,0.0,0.7123884,0.0,0.0,-0.001
4408000,0.0,0.7016866,0.0,0.0,0.7124858,0.0,0.0,-0.001
4464000,0.0,0.70165634,0.0,0.0,0.71251553,0.0,0.0,-0.001
4512000,0.0,0.70176077,0.0,0.0,0.7124128,0.0,0.0,-0.001
4560000,0.0,0.70180506,0.0,0.0,0.712369,0.0,0.0,-0.001
4608000,0.0,0.7018527,0.0,0.0,0.7123221,0.0,0.0,-0.001
4664000,0.0,0.7019476,0.0,0.0,0.7122286,0.0,0.0,-0.001
4712000,0.0,0.7020912,0.0,0.0,0.71208704,0.0,0.0,-0.001
4760000,0.0,0.7020673,0.0,0.0,0.7121106,0.0,0.0,-0.001
4808000,0.0,0.7020109,0.0,0.0,0.7121662,0.0,0.0,-0.001
4864000,0.0,0.701994,0.0,0.0,0.71218294,0.0,0.0,-0.001
4912000,0.0,0.70204085,0.0,0.0,0.7121367,0.0,0.0,-0.001
4960000,0.0,0.70221007,0.0,0.0,0.7119698,0.0,0.0,-0.001
5008000,0.0,0.7023828,0.0,0.0,0.71179944,0.0,0.0,-0.001
5056000,0.0,0.7023801,0.0,0.0,0.71180207,0.0,0.0,-0.001
5112000,0.0,0.7023381,0.0,0.0,0.71184355,0.0,0.0,-0.001
5160000,0.0,0.7024337,0.0,0.0,0.7117492,0.0,0.0,-0.001
5208000,0.0,0.70243365,0.0,0.0,0.71174926,0.0,0.0,-0.001
5256000,0.0,0.70243484,0.0,0.0,0.71174806,0.0,0.0,-0.001
5312000,0.0,0.702416,0.0,0.0,0.71176666,0.0,0.0,-0.001
5360000,0.0,0.70237416,0.0,0.0,0.7118079,0.0,0.0,-0.001
5408000,0.0,0.70233697,0.0,0.0,0.7118447,0.0,0.0,-0.001
5464000,0.0,0.7020936,0.0,0.0,0.7120848,0.0,0.0,-0.001
5504000,0.0,0.70197195,0.0,0.0,0.7122047,0.0,0.0,-0.001
5560000,0.0,0.7017825,0.0,0.0,0.71239126,0.0,0.0,-0.001
5608000,0.0,0.7017624,0.0,0.0,0.7124111,0.0,0.0,-0.001
5664000,0.0,0.7016462,0.0,0.0,0.71252555,0.0,0.0,-0.001
5712000,0.0,0.70175475,0.0,0.0,0.7124186,0.0,0.0,-0.001
5760000,0.0,0.7017775,0.0,0.0,0.7123962,0.0,0.0,-0.001
5808000,0.0,0.7017806,0.0,0.0,0.7123932,0.0,0.0,-0.001
5864000,0.0,0.70183706,0.0,0.0,0.71233755,0.0,0.0,-0.001
5912000,0.0,0.70190114,0.0,0.0,0.7122744,0.0,0.0,-0.001
5960000,0.0,0.7019786,0.0,0.0,0.712198,0.0,0.0,-0.001
6008000,0.0,0.7020629,0.0,0.0,0.71211493,0.0,0.0,-0.001
6064000,0.0,0.70215726,0.0,0.0,0.712022,0.0,0.0,-0.001
6104000,0.0,0.7022121,0.0,0.0,0.7119679,0.0,0.0,-0.001
6160000,0.0,0.7021117,0.0,0.0,0.7120669,0.0,0.0,-0.001
6208000,0.0,0.70228326,0.0,0.0,0.7118977,0.0,0.0,-0.001
6264000,0.0,0.70208347,0.0,0.0,0.71209466,0.0,0.0,-0.001
6312000,0.0,0.70204675,0.0,0.0,0.71213084,0.0,0.0,-0.001
6360000,0.0,0.70196885,0.0,0.0,0.71220773,0.0,0.0,-0.001
6408000,0.0,0.70195484,0.0,0.0,0.7122215,0.0,0.0,-0.001
6464000,0.0,0.7019194,0.0,0.0,0.7122565,0.0,0.0,-0.001
6512000,0.0,0.7019604,0.0,0.0,0.712216,0.0,0.0,-0.001
6560000,0.0,0.7020011,0.0,0.0,0.71217585,0.0,0.0,-0.001
6608000,0.0,0.70206636,0.0,0.0,0.71211153,0.0,0.0,-0.001
6664000,0.0,0.7021277,0.0,0.0,0.7120511,0.0,0.0,-0.001
6704000,0.0,0.70214874,0.0,0.0,0.71203035,0.0,0.0,-0.001
6760000,0.0,0.7022539,0.0,0.0,0.7119267,0.0,0.0,-0.001
6808000,0.0,0.7022501,0.0,0.0,0.71193033,0.0,0.0,-0.001
6864000,0.0,0.7021851,0.0,0.0,0.71199447,0.0,0.0,-0.001
6912000,0.0,0.70212615,0.0,0.0,0.7120526,0.0,0.0,-0.001
6960000,0.0,0.70196223,0.0,0.0,0.7122142,0.0,0.0,-0.001
7008000,0.0,0.70201033,0.0,0.0,0.71216685,0.0,0.0,-0.001
7064000,0.0,0.7020256,0.0,0.0,0.7121517,0.0,0.0,-0.001
7104000,0.0,0.7020543,0.0,0.0,0.7121234,0.0,0.0,-0.001
7160000,0.0,0.7019634,0.0,0.0,0.7122131,0.0,0.0,-0.001
7208000,0.0,0.70187557,0.0,0.0,0.7122996,0.0,0.0,-0.001
7256000,0.0,0.7018378,0.0,0.0,0.71233684,0.0,0.0,-0.001
7312000,0.0,0.7018587,0.0,0.0,0.7123163,0.0,0.0,-0.001
7360000,0.0,0.7018747,0.0,0.0,0.71230054,0.0,0.0,-0.001
7408000,0.0,0.70203733,0.0,0.0,0.7121402,0.0,0.0,-0.001
7464000,0.0,0.70204014,0.0,0.0,0.71213746,0.0,0.0,-0.001
7512000,0.0,0.70201916,0.0,0.0,0.71215814,0.0,0.0,-0.001
7560000,0.0,0.70199853,0.0,0.0,0.71217847,0.0,0.0,-0.001
7608000,0.0,0.70202243,0.0,0.0,0.71215487,0.0,0.0,-0.001
7664000,0.0,0.70203716,0.0,0.0,0.7121404,0.0,0.0,-0.001
7704000,0.0,0.7021073,0.0,0.0,0.71207124,0.0,0.0,-0.001
7760000,0.0,0.7021315,0.0,0.0,0.71204734,0.0,0.0,-0.001
7808000,0.0,0.7021053,0.0,0.0,0.71207315,0.0,0.0,-0.001
7864000,0.0,0.702154,0.0,0.0,0.7120252,0.0,0.0,-0.001
7912000,0.0,0.7022398,0.0,0.0,0.7119405,0.0,0.0,-0.001
7960000,0.0,0.70233804,0.0,0.0,0.7118436,0.0,0.0,-0.001
8008000,0.0,0.7025359,0.0,0.0,0.7116483,0.0,0.0,-0.001
8064000,0.0,0.7026353,0.0,0.0,0.7115502,0.0,0.0,-0.001
8112000,0.0,0.702666,0.0,0.0,0.71151984,0.0,0.0,-0.001
8160000,0.0,0.70276964,0.0,0.0,0.71141756,0.0,0.0,-0.001
8208000,0.0,0.702726,0.0,0.0,0.7114606,0.0,0.0,-0.001
8264000,0.0,0.70268804,0.0,0.0,0.71149814,0.0,0.0,-0.001
8304000,0.0,0.7026698,0.0,0.0,0.7115161,0.0,0.0,-0.001
8360000,0.0,0.70270747,0.0,0.0,0.71147895,0.0,0.0,-0.001
8408000,0.0,0.7027492,0.0,0.0,0.71143776,0.0,0.0,-0.001
8464000,0.0,0.70286614,0.0,0.0,0.71132225,0.0,0.0,-0.001
8512000,0.0,0.7030148,0.0,0.0,0.71117526,0.0,0.0,-0.001
8560000,0.0,0.70301026,0.0,0.0,0.7111798,0.0,0.0,-0.001
8608000,0.0,0.7029178,0.0,0.0,0.7112711,0.0,0.0,-0.001
8664000,0.0,0.7029221,0.0,0.0,0.7112668,0.0,0.0,-0.001
8712000,0.0,0.70298177,0.0,0.0,0.71120787,0.0,0.0,-0.001
8760000,0.0,0.7030092,0.0,0.0,0.71118075,0.0,0.0,-0.001
8808000,0.0,0.7031605,0.0,0.0,0.71103114,0.0,0.0,-0.001
8864000,0.0,0.7031655,0.0,0.0,0.7110263,0.0,0.0,-0.001
8912000,0.0,0.70320076,0.0,0.0,0.7109913,0.0,0.0,-0.001
8960000,0.0,0.7032398,0.0,0.0,0.7109527,0.0,0.0,-0.001
9008000,0.0,0.703326,0.0,0.0,0.71086746,0.0,0.0,-0.001
9064000,0.0,0.7033553,0.0,0.0,0.71083844,0.0,0.0,-0.001
9112000,0.0,0.7032657,0.0,0.0,0.7109271,0.0,0.0,-0.001
9160000,0.0,0.7033458,0.0,0.0,0.7108479,0.0,0.0,-0.001
9208000,0.0,0.70323753,0.0,0.0,0.710955,0.0,0.0,-0.001
9256000,0.0,0.70327884,0.0,0.0,0.71091413,0.0,0.0,-0.001
9312000,0.0,0.7033495,0.0,0.0,0.7108442,0.0,0.0,-0.001
9360000,0.0,0.7032642,0.0,0.0,0.7109287,0.0,0.0,-0.001
9408000,0.0,0.7032293,0.0,0.0,0.71096313,0.0,0.0,-0.001
9464000,0.0,0.70315844,0.0,0.0,0.71103317,0.0,0.0,-0.001
9512000,0.0,0.7031203,0.0,0.0,0.711071,0.0,0.0,-0.001
9560000,0.0,0.70313233,0.0,0.0,0.711059,0.0,0.0,-0.001
9608000,0.0,0.7031279,0.0,0.0,0.7110634,0.0,0.0,-0.001
9656000,0.0,0.703084,0.0,0.0,0.71110684,0.0,0.0,-0.001
9712000,0.0,0.70311326,0.0,0.0,0.71107787,0.0,0.0,-0.001
9760000,0.0,0.7031707,0.0,0.0,0.71102107,0.0,0.0,-0.001
9808000,0.0,0.7031935,0.0,0.0,0.71099854,0.0,0.0,-0.001
9856000,0.0,0.70319134,0.0,0.0,0.7110007,0.0,0.0,-0.001
9912000,0.0,0.7031951,0.0,0.0,0.7109969,0.0,0.0,-0.001
9960000,0.0,0.7032106,0.0,0.0,0.71098167,0.0,0.0,-0.001
10008000,0.0,0.7031633,0.0,0.0,0.71102834,0.0,0.0,-0.001
10064000,0.0,0.7032719,0.0,0.0,0.710921,0.0,0.0,-0.001
10104000,0.0,0.7032884,0.0,0.0,0.71090466,0.0,0.0,-0.001
10160000,0.0,0.7032838,0.0,0.0,0.7109093,0.0,0.0,-0.001
10208000,0.0,0.7031516,0.0,0.0,0.71104,0.0,0.0,-0.001
10264000,0.0,0.70313,0.0,0.0,0.71106136,0.0,0.0,-0.001
10312000,0.0,0.7029584,0.0,0.0,0.71123093,0.0,0.0,-0.001
10360000,0.0,0.7029225,0.0,0.0,0.7112664,0.0,0.0,-0.001
10408000,0.0,0.7029748,0.0,0.0,0.7112148,0.0,0.0,-0.001
10464000,0.0,0.7030314,0.0,0.0,0.7111588,0.0,0.0,-0.001
10512000,0.0,0.702967,0.0,0.0,0.71122247,0.0,0.0,-0.001
10560000,0.0,0.70292443,0.0,0.0,0.71126455,0.0,0.0,-0.001
10608000,0.0,0.7030125,0.0,0.0,0.71117747,0.0,0.0,-0.001
10664000,0.0,0.70311004,0.0,0.0,0.7110811,0.0,0.0,-0.001
10712000,0.0,0.7031282,0.0,0.0,0.7110631,0.0,0.0,-0.001
10760000,0.0,0.7031045,0.0,0.0,0.7110866,0.0,0.0,-0.001
10808000,0.0,0.7031493,0.0,0.0,0.7110422,0.0,0.0,-0.001
10864000,0.0,0.70307666,0.0,0.0,0.71111405,0.0,0.0,-0.001
10904000,0.0,0.7030546,0.0,0.0,0.7111359,0.0,0.0,-0.001
10960000,0.0,0.7031471,0.0,0.0,0.71104443,0.0,0.0,-0.001
11008000,0.0,0.7031919,0.0,0.0,0.71100014,0.0,0.0,-0.001
11064000,0.0,0.7032248,0.0,0.0,0.7109676,0.0,0.0,-0.001
11112000,0.0,0.7031919,0.0,0.0,0.71100014,0.0,0.0,-0.001
11160000,0.0,0.70324,0.0,0.0,0.7109525,0.0,0.0,-0.001
11208000,0.0,0.70334107,0.0,0.0,0.7108526,0.0,0.0,-0.001
11264000,0.0,0.7033458,0.0,0.0,0.7108479,0.0,0.0,-0.001
11312000,0.0,0.70336074,0.0,0.0,0.7108331,0.0,0.0,-0.001
11360000,0.0,0.70328987,0.0,0.0,0.7109032,0.0,0.0,-0.001
11408000,0.0,0.70326376,0.0,0.0,0.7109291,0.0,0.0,-0.001
11464000,0.0,0.70331484,0.0,0.0,0.7108785,0.0,0.0,-0.001
11512000,0.0,0.7032817,0.0,0.0,0.71091133,0.0,0.0,-0.001
11560000,0.0,0.7033452,0.0,0.0,0.71084857,0.0,0.0,-0.001
11608000,0.0,0.7034349,0.0,0.0,0.7107597,0.0,0.0,-0.001
11656000,0.0,0.70334977,0.0,0.0,0.7108439,0.0,0.0,-0.001
11712000,0.0,0.7032721,0.0,0.0,0.7109208,0.0,0.0,-0.001
11760000,0.0,0.70322233,0.0,0.0,0.71097,0.0,0.0,-0.001
11808000,0.0,0.70324,0.0,0.0,0.7109525,0.0,0.0,-0.001
11864000,0.0,0.7032696,0.0,0.0,0.71092325,0.0,0.0,-0.001
11904000,0.0,0.70327514,0.0,0.0,0.7109178,0.0,0.0,-0.001
11960000,0.0,0.70326746,0.0,0.0,0.71092534,0.0,0.0,-0.001
12008000,0.0,0.70323604,0.0,0.0,0.71095645,0.0,0.0,-0.001
12064000,0.0,0.70325524,0.0,0.0,0.71093744,0.0,0.0,-0.001
12112000,0.0,0.7033927,0.0,0.0,0.7108014,0.0,0.0,-0.001
12160000,0.0,0.70340425,0.0,0.0,0.71079004,0.0,0.0,-0.001
12208000,0.0,0.70329124,0.0,0.0,0.7109019,0.0,0.0,-0.001
12264000,0.0,0.70336485,0.0,0.0,0.7108291,0.0,0.0,-0.001
12304000,0.0,0.70333457,0.0,0.0,0.710859,0.0,0.0,-0.001
12360000,0.0,0.7032687,0.0,0.0,0.71092415,0.0,0.0,-0.001
12408000,0.0,0.7032749,0.0,0.0,0.710918,0.0,0.0,-0.001
12464000,0.0,0.70332474,0.0,0.0,0.7108687,0.0,0.0,-0.001
12512000,0.0,0.7032518,0.0,0.0,0.7109409,0.0,0.0,-0.001
12560000,0.0,0.70324033,0.0,0.0,0.71095216,0.0,0.0,-0.001
12608000,0.0,0.7032639,0.0,0.0,0.710929,0.0,0.0,-0.001
12664000,0.0,0.7033494,0.0,0.0,0.7108443,0.0,0.0,-0.001
12712000,0.0,0.70337546,0.0,0.0,0.7108185,0.0,0.0,-0.001
12760000,0.0,0.7034109,0.0,0.0,0.7107834,0.0,0.0,-0.001
12808000,0.0,0.7034866,0.0,0.0,0.7107085,0.0,0.0,-0.001
12864000,0.0,0.7035744,0.0,0.0,0.7106216,0.0,0.0,-0.001
12904000,0.0,0.7035513,0.0,0.0,0.7106445,0.0,0.0,-0.001
12960000,0.0,0.70345914,0.0,0.0,0.71073574,0.0,0.0,-0.001
13008000,0.0,0.7033586,0.0,0.0,0.7108352,0.0,0.0,-0.001
13064000,0.0,0.70332897,0.0,0.0,0.7108646,0.0,0.0,-0.001
13104000,0.0,0.70334107,0.0,0.0,0.7108526,0.0,0.0,-0.001
13160000,0.0,0.7033245,0.0,0.0,0.71086895,0.0,0.0,-0.001
13208000,0.0,0.7033406,0.0,0.0,0.71085304,0.0,0.0,-0.001
13256000,0.0,0.70325834,0.0,0.0,0.71093446,0.0,0.0,-0.001
13312000,0.0,0.70322883,0.0,0.0,0.71096367,0.0,0.0,-0.001
13360000,0.0,0.7032302,0.0,0.0,0.71096224,0.0,0.0,-0.001
13408000,0.0,0.7031833,0.0,0.0,0.71100867,0.0,0.0,-0.001
13456000,0.0,0.7031266,0.0,0.0,0.71106464,0.0,0.0,-0.001
13512000,0.0,0.70325744,0.0,0.0,0.7109353,0.0,0.0,-0.001
13560000,0.0,0.7033072,0.0,0.0,0.7108861,0.0,0.0,-0.001
13608000,0.0,0.70337844,0.0,0.0,0.71081555,0.0,0.0,-0.001
13656000,0.0,0.7034284,0.0,0.0,0.71076614,0.0,0.0,-0.001
13712000,0.0,0.7033762,0.0,0.0,0.7108178,0.0,0.0,-0.001
13760000,0.0,0.7034465,0.0,0.0,0.71074826,0.0,0.0,-0.001
13808000,0.0,0.7034085,0.0,0.0,0.71078587,0.0,0.0,-0.001
13864000,0.0,0.70345616,0.0,0.0,0.7107387,0.0,0.0,-0.001
13912000,0.0,0.7034839,0.0,0.0,0.7107112,0.0,0.0,-0.001
13960000,0.0,0.7034346,0.0,0.0,0.71076,0.0,0.0,-0.001
14008000,0.0,0.7034303,0.0,0.0,0.7107643,0.0,0.0,-0.001
14064000,0.0,0.7033761,0.0,0.0,0.7108179,0.0,0.0,-0.001
14112000,0.0,0.70333487,0.0,0.0,0.71085876,0.0,0.0,-0.001
14160000,0.0,0.70331633,0.0,0.0,0.710877,0.0,0.0,-0.001
14208000,0.0,0.7033399,0.0,0.0,0.71085376,0.0,0.0,-0.001
14256000,0.0,0.70339704,0.0,0.0,0.71079725,0.0,0.0,-0.001
14304000,0.0,0.70333374,0.0,0.0,0.71085984,0.0,0.0,-0.001
14360000,0.0,0.70333666,0.0,0.0,0.71085685,0.0,0.0,-0.001
14408000,0.0,0.7032987,0.0,0.0,0.71089447,0.0,0.0,-0.001
14464000,0.0,0.7031956,0.0,0.0,0.71099645,0.0,0.0,-0.001
14512000,0.0,0.70316577,0.0,0.0,0.711026,0.0,0.0,-0.001
14560000,0.0,0.7032254,0.0,0.0,0.71096706,0.0,0.0,-0.001
14608000,0.0,0.70321536,0.0,0.0,0.710977,0.0,0.0,-0.001
14656000,0.0,0.7031831,0.0,0.0,0.71100885,0.0,0.0,-0.001
14712000,0.0,0.7032623,0.0,0.0,0.71093047,0.0,0.0,-0.001
14760000,0.0,0.7033373,0.0,0.0,0.71085626,0.0,0.0,-0.001
14808000,0.0,0.7033534,0.0,0.0,0.71084034,0.0,0.0,-0.001
14864000,0.0,0.7033417,0.0,0.0,0.7108519,0.0,0.0,-0.001
14912000,0.0,0.7032576,0.0,0.0,0.7109351,0.0,0.0,-0.001
14960000,0.0,0.703195,0.0,0.0,0.71099705,0.0,0.0,-0.001
15008000,0.0,0.70318836,0.0,0.0,0.7110037,0.0,0.0,-0.001
15064000,0.0,0.7031973,0.0,0.0,0.7109948,0.0,0.0,-0.001
15112000,0.0,0.70321774,0.0,0.0,0.7109746,0.0,0.0,-0.001
15160000,0.0,0.70326316,0.0,0.0,0.71092963,0.0,0.0,-0.001
15208000,0.0,0.7033921,0.0,0.0,0.7108021,0.0,0.0,-0.001
15264000,0.0,0.70340824,0.0,0.0,0.7107861,0.0,0.0,-0.001
15312000,0.0,0.70348257,0.0,0.0,0.71071255,0.0,0.0,-0.001
15360000,0.0,0.7036012,0.0,0.0,0.71059513,0.0,0.0,-0.001
15408000,0.0,0.7036074,0.0,0.0,0.71058893,0.0,0.0,-0.001
15456000,0.0,0.70352435,0.0,0.0,0.7106711,0.0,0.0,-0.001
15512000,0.0,0.70353884,0.0,0.0,0.7106568,0.0,0.0,-0.001
15560000,0.0,0.7034019,0.0,0.0,0.71079236,0.0,0.0,-0.001
15608000,0.0,0.7033404,0.0,0.0,0.7108532,0.0,0.0,-0.001
15664000,0.0,0.70327973,0.0,0.0,0.7109133,0.0,0.0,-0.001
15712000,0.0,0.7032194,0.0,0.0,0.71097296,0.0,0.0,-0.001
15760000,0.0,0.7032604,0.0,0.0,0.7109323,0.0,0.0,-0.001
15808000,0.0,0.7033047,0.0,0.0,0.7108885,0.0,0.0,-0.001
15856000,0.0,0.7032704,0.0,0.0,0.71092254,0.0,0.0,-0.001
15912000,0.0,0.7033541,0.0,0.0,0.7108396,0.0,0.0,-0.001
15960000,0.0,0.7033079,0.0,0.0,0.71088535,0.0,0.0,-0.001
16008000,0.0,0.70323783,0.0,0.0,0.7109547,0.0,0.0,-0.001
16056000,0.0,0.70322037,0.0,0.0,0.71097195,0.0,0.0,-0.001
16112000,0.0,0.7033473,0.0,0.0,0.7108464,0.0,0.0,-0.001
16160000,0.0,0.70339966,0.0,0.0,0.71079457,0.0,0.0,-0.001
16208000,0.0,0.7033994,0.0,0.0,0.71079487,0.0,0.0,-0.001
16264000,0.0,0.7033858,0.0,0.0,0.71080834,0.0,0.0,-0.001
16312000,0.0,0.7033194,0.0,0.0,0.7108741,0.0,0.0,-0.001
16360000,0.0,0.70331824,0.0,0.0,0.71087515,0.0,0.0,-0.001
16408000,0.0,0.70325327,0.0,0.0,0.7109394,0.0,0.0,-0.001
16456000,0.0,0.70326275,0.0,0.0,0.71093005,0.0,0.0,-0.001
16512000,0.0,0.7031713,0.0,0.0,0.7110205,0.0,0.0,-0.001
16560000,0.0,0.7031462,0.0,0.0,0.71104527,0.0,0.0,-0.001
16608000,0.0,0.7030433,0.0,0.0,0.711147,0.0,0.0,-0.001
16664000,0.0,0.70304036,0.0,0.0,0.71115,0.0,0.0,-0.001
16712000,0.0,0.7030812,0.0,0.0,0.7111096,0.0,0.0,-0.001
16760000,0.0,0.70307577,0.0,0.0,0.71111494,0.0,0.0,-0.001
16808000,0.0,0.7029807,0.0,0.0,0.71120894,0.0,0.0,-0.001
16864000,0.0,0.7030103,0.0,0.0,0.71117973,0.0,0.0,-0.001
16912000,0.0,0.70306784,0.0,0.0,0.7111229,0.0,0.0,-0.001
16960000,0.0,0.7030554,0.0,0.0,0.7111351,0.0,0.0,-0.001
17008000,0.0,0.70310557,0.0,0.0,0.7110855,0.0,0.0,-0.001
17064000,0.0,0.7030823,0.0,0.0,0.71110857,0.0,0.0,-0.001
17112000,0.0,0.70321745,0.0,0.0,0.7109749,0.0,0.0,-0.001
17160000,0.0,0.70329666,0.0,0.0,0.7108965,0.0,0.0,-0.001
17208000,0.0,0.70322883,0.0,0.0,0.71096367,0.0,0.0,-0.001
17256000,0.0,0.7031916,0.0,0.0,0.71100044,0.0,0.0,-0.001
17312000,0.0,0.7031765,0.0,0.0,0.71101534,0.0,0.0,-0.001
17360000,0.0,0.70315874,0.0,0.0,0.71103287,0.0,0.0,-0.001
17408000,0.0,0.7031089,0.0,0.0,0.7110823,0.0,0.0,-0.001
17464000,0.0,0.70307314,0.0,0.0,0.7111176,0.0,0.0,-0.001
17512000,0.0,0.7030743,0.0,0.0,0.7111164,0.0,0.0,-0.001
17560000,0.0,0.7030282,0.0,0.0,0.711162,0.0,0.0,-0.001
17608000,0.0,0.7030489,0.0,0.0,0.7111416,0.0,0.0,-0.001
17664000,0.0,0.7030049,0.0,0.0,0.7111851,0.0,0.0,-0.001
17712000,0.0,0.7029522,0.0,0.0,0.71123713,0.0,0.0,-0.001
17760000,0.0,0.7029022,0.0,0.0,0.7112865,0.0,0.0,-0.001
17808000,0.0,0.70283276,0.0,0.0,0.71135515,0.0,0.0,-0.001
17864000,0.0,0.70283175,0.0,0.0,0.71135616,0.0,0.0,-0.001
17912000,0.0,0.702784,0.0,0.0,0.7114033,0.0,0.0,-0.001
17960000,0.0,0.7027832,0.0,0.0,0.7114041,0.0,0.0,-0.001
18008000,0.0,0.7027451,0.0,0.0,0.71144176,0.0,0.0,-0.001
18064000,0.0,0.7028349,0.0,0.0,0.711353,0.0,0.0,-0.001
18112000,0.0,0.70281625,0.0,0.0,0.7113714,0.0,0.0,-0.001
18160000,0.0,0.7028862,0.0,0.0,0.71130234,0.0,0.0,-0.001
18208000,0.0,0.70286316,0.0,0.0,0.7113251,0.0,0.0,-0.001
18264000,0.0,0.70283633,0.0,0.0,0.7113517,0.0,0.0,-0.001
18312000,0.0,0.70285404,0.0,0.0,0.7113341,0.0,0.0,-0.001
18360000,0.0,0.7029139,0.0,0.0,0.711275,0.0,0.0,-0.001
18408000,0.0,0.7029708,0.0,0.0,0.7112187,0.0,0.0,-0.001
18456000,0.0,0.7031209,0.0,0.0,0.7110703,0.0,0.0,-0.001
18512000,0.0,0.7030588,0.0,0.0,0.71113175,0.0,0.0,-0.001
18560000,0.0,0.7030955,0.0,0.0,0.7110955,0.0,0.0,-0.001
18608000,0.0,0.70311886,0.0,0.0,0.7110724,0.0,0.0,-0.001
18664000,0.0,0.70301515,0.0,0.0,0.7111749,0.0,0.0,-0.001
18704000,0.0,0.7029203,0.0,0.0,0.7112686,0.0,0.0,-0.001
18760000,0.0,0.7028633,0.0,0.0,0.711325,0.0,0.0,-0.001
18808000,0.0,0.7028084,0.0,0.0,0.71137923,0.0,0.0,-0.001
18864000,0.0,0.70287913,0.0,0.0,0.7113093,0.0,0.0,-0.001
18912000,0.0,0.70285803,0.0,0.0,0.7113301,0.0,0.0,-0.001
18960000,0.0,0.70282805,0.0,0.0,0.71135974,0.0,0.0,-0.001
19008000,0.0,0.7028843,0.0,0.0,0.7113042,0.0,0.0,-0.001
19064000,0.0,0.7028345,0.0,0.0,0.7113535,0.0,0.0,-0.001
19112000,0.0,0.70278674,0.0,0.0,0.71140057,0.0,0.0,-0.001
19160000,0.0,0.70285743,0.0,0.0,0.7113308,0.0,0.0,-0.001
19208000,0.0,0.70294034,0.0,0.0,0.7112488,0.0,0.0,-0.001
19264000,0.0,0.70286655,0.0,0.0,0.7113218,0.0,0.0,-0.001
19304000,0.0,0.702942,0.0,0.0,0.71124715,0.0,0.0,-0.001
19360000,0.0,0.70281965,0.0,0.0,0.7113681,0.0,0.0,-0.001
19408000,0.0,0.70279217,0.0,0.0,0.7113953,0.0,0.0,-0.001
19464000,0.0,0.7028041,0.0,0.0,0.7113834,0.0,0.0,-0.001
19504000,0.0,0.7027785,0.0,0.0,0.7114088,0.0,0.0,-0.001
19560000,0.0,0.7026577,0.0,0.0,0.71152806,0.0,0.0,-0.001
19608000,0.0,0.702629,0.0,0.0,0.7115564,0.0,0.0,-0.001
19656000,0.0,0.7025634,0.0,0.0,0.71162117,0.0,0.0,-0.001
19704000,0.0,0.70263094,0.0,0.0,0.71155447,0.0,0.0,-0.001
19760000,0.0,0.7026398,0.0,0.0,0.71154577,0.0,0.0,-0.001
19808000,0.0,0.70280415,0.0,0.0,0.71138334,0.0,0.0,-0.001
19856000,0.0,0.70284486,0.0,0.0,0.7113432,0.0,0.0,-0.001
19904000,0.0,0.70283127,0.0,0.0,0.71135664,0.0,0.0,-0.001
19960000,0.0,0.7028634,0.0,0.0,0.7113249,0.0,0.0,-0.001
20008000,0.0,0.70285034,0.0,0.0,0.7113378,0.0,0.0,-0.001
20056000,0.0,0.7029923,0.0,0.0,0.7111975,0.0,0.0,-0.001
20104000,0.0,0.70302683,0.0,0.0,0.7111634,0.0,0.0,-0.001
20160000,0.0,0.70313776,0.0,0.0,0.71105367,0.0,0.0,-0.001
20208000,0.0,0.703264,0.0,0.0,0.71092886,0.0,0.0,-0.001
20256000,0.0,0.7032746,0.0,0.0,0.7109183,0.0,0.0,-0.001
20304000,0.0,0.7031843,0.0,0.0,0.7110076,0.0,0.0,-0.001
20360000,0.0,0.70316035,0.0,0.0,0.7110313,0.0,0.0,-0.001
20408000,0.0,0.7031242,0.0,0.0,0.7110671,0.0,0.0,-0.001
20464000,0.0,0.70311517,0.0,0.0,0.711076,0.0,0.0,-0.001
20512000,0.0,0.7029292,0.0,0.0,0.71125984,0.0,0.0,-0.001
20560000,0.0,0.7029476,0.0,0.0,0.7112416,0.0,0.0,-0.001
20608000,0.0,0.70286524,0.0,0.0,0.711323,0.0,0.0,-0.001
20656000,0.0,0.70274806,0.0,0.0,0.71143883,0.0,0.0,-0.001
20712000,0.0,0.7026938,0.0,0.0,0.7114924,0.0,0.0,-0.001
20760000,0.0,0.7025998,0.0,0.0,0.7115852,0.0,0.0,-0.001
20808000,0.0,0.7024539,0.0,0.0,0.7117292,0.0,0.0,-0.001
20856000,0.0,0.7024171,0.0,0.0,0.7117656,0.0,0.0,-0.001
20912000,0.0,0.7023624,0.0,0.0,0.7118196,0.0,0.0,-0.001
20960000,0.0,0.7023031,0.0,0.0,0.71187806,0.0,0.0,-0.001
21008000,0.0,0.7022241,0.0,0.0,0.711956,0.0,0.0,-0.001
21056000,0.0,0.70222515,0.0,0.0,0.71195495,0.0,0.0,-0.001
21112000,0.0,0.70223826,0.0,0.0,0.7119421,0.0,0.0,-0.001
21160000,0.0,0.7022106,0.0,0.0,0.7119694,0.0,0.0,-0.001
21208000,0.0,0.7022274,0.0,0.0,0.71195275,0.0,0.0,-0.001
21264000,0.0,0.70224714,0.0,0.0,0.71193326,0.0,0.0,-0.001
21312000,0.0,0.7022951,0.0,0.0,0.71188587,0.0,0.0,-0.001
21360000,0.0,0.70225525,0.0,0.0,0.71192527,0.0,0.0,-0.001
21408000,0.0,0.702198,0.0,0.0,0.71198165,0.0,0.0,-0.001
21456000,0.0,0.7021843,0.0,0.0,0.7119952,0.0,0.0,-0.001
21504000,0.0,0.7022256,0.0,0.0,0.7119545,0.0,0.0,-0.001
21560000,0.0,0.70219076,0.0,0.0,0.7119889,0.0,0.0,-0.001
21608000,0.0,0.70225644,0.0,0.0,0.7119241,0.0,0.0,-0.001
21656000,0.0,0.70226556,0.0,0.0,0.7119151,0.0,0.0,-0.001
21712000,0.0,0.702234,0.0,0.0,0.71194625,0.0,0.0,-0.001
21760000,0.0,0.7023361,0.0,0.0,0.7118455,0.0,0.0,-0.001
21808000,0.0,0.7021783,0.0,0.0,0.71200126,0.0,0.0,-0.001
21864000,0.0,0.70212054,0.0,0.0,0.71205807,0.0,0.0,-0.001
21912000,0.0,0.70207596,0.0,0.0,0.71210206,0.0,0.0,-0.001
21960000,0.0,0.70195794,0.0,0.0,0.7122184,0.0,0.0,-0.001
22008000,0.0,0.70202494,0.0,0.0,0.7121525,0.0,0.0,-0.001
22064000,0.0,0.70201296,0.0,0.0,0.7121643,0.0,0.0,-0.001
22112000,0.0,0.70200306,0.0,0.0,0.712174,0.0,0.0,-0.001
22160000,0.0,0.70192885,0.0,0.0,0.7122471,0.0,0.0,-0.001
22208000,0.0,0.70200115,0.0,0.0,0.71217585,0.0,0.0,-0.001
22264000,0.0,0.70195556,0.0,0.0,0.7122208,0.0,0.0,-0.001
22304000,0.0,0.7019683,0.0,0.0,0.71220815,0.0,0.0,-0.001
22360000,0.0,0.7021064,0.0,0.0,0.7120721,0.0,0.0,-0.001
22408000,0.0,0.70204204,0.0,0.0,0.7121355,0.0,0.0,-0.001
22464000,0.0,0.702082,0.0,0.0,0.71209615,0.0,0.0,-0.001
22512000,0.0,0.7021511,0.0,0.0,0.712028,0.0,0.0,-0.001
22560000,0.0,0.702089,0.0,0.0,0.71208924,0.0,0.0,-0.001
22608000,0.0,0.702162,0.0,0.0,0.71201724,0.0,0.0,-0.001
22664000,0.0,0.70214665,0.0,0.0,0.71203244,0.0,0.0,-0.001
22712000,0.0,0.7021472,0.0,0.0,0.71203184,0.0,0.0,-0.001
22760000,0.0,0.70204884,0.0,0.0,0.7121289,0.0,0.0,-0.001
22808000,0.0,0.70199496,0.0,0.0,0.7121819,0.0,0.0,-0.001
22856000,0.0,0.7020509,0.0,0.0,0.71212673,0.0,0.0,-0.001
22912000,0.0,0.70200706,0.0,0.0,0.71217006,0.0,0.0,-0.001
22960000,0.0,0.70203716,0.0,0.0,0.7121404,0.0,0.0,-0.001
23008000,0.0,0.70195895,0.0,0.0,0.7122175,0.0,0.0,-0.001
23064000,0.0,0.70195365,0.0,0.0,0.71222264,0.0,0.0,-0.001
23112000,0.0,0.7020695,0.0,0.0,0.7121085,0.0,0.0,-0.001
23160000,0.0,0.70201045,0.0,0.0,0.7121667,0.0,0.0,-0.001
23208000,0.0,0.701967,0.0,0.0,0.71220946,0.0,0.0,-0.001
23264000,0.0,0.7018662,0.0,0.0,0.7123089,0.0,0.0,-0.001
23312000,0.0,0.7018099,0.0,0.0,0.71236426,0.0,0.0,-0.001
23360000,0.0,0.70189035,0.0,0.0,0.7122851,0.0,0.0,-0.001
23408000,0.0,0.70174253,0.0,0.0,0.7124307,0.0,0.0,-0.001
23464000,0.0,0.7016921,0.0,0.0,0.71248037,0.0,0.0,-0.001
23512000,0.0,0.70161587,0.0,0.0,0.7125554,0.0,0.0,-0.001
23560000,0.0,0.7015417,0.0,0.0,0.71262836,0.0,0.0,-0.001
23608000,0.0,0.70157534,0.0,0.0,0.7125953,0.0,0.0,-0.001
23664000,0.0,0.7015498,0.0,0.0,0.71262044,0.0,0.0,-0.001
23704000,0.0,0.7015832,0.0,0.0,0.7125876,0.0,0.0,-0.001
23760000,0.0,0.7015656,0.0,0.0,0.71260494,0.0,0.0,-0.001
23808000,0.0,0.70147645,0.0,0.0,0.71269274,0.0,0.0,-0.001
23864000,0.0,0.70135075,0.0,0.0,0.7128164,0.0,0.0,-0.001
23904000,0.0,0.70134854,0.0,0.0,0.71281856,0.0,0.0,-0.001
23960000,0.0,0.7013324,0.0,0.0,0.7128345,0.0,0.0,-0.001
24008000,0.0,0.7013435,0.0,0.0,0.7128235,0.0,0.0,-0.001
24056000,0.0,0.7013102,0.0,0.0,0.7128563,0.0,0.0,-0.001
24104000,0.0,0.7012949,0.0,0.0,0.71287125,0.0,0.0,-0.001
24160000,0.0,0.7011543,0.0,0.0,0.71300954,0.0,0.0,-0.001
24208000,0.0,0.70108294,0.0,0.0,0.7130798,0.0,0.0,-0.001
24256000,0.0,0.70104724,0.0,0.0,0.71311486,0.0,0.0,-0.001
24312000,0.0,0.7010052,0.0,0.0,0.7131561,0.0,0.0,-0.001
24360000,0.0,0.7010625,0.0,0.0,0.71309984,0.0,0.0,-0.001
24408000,0.0,0.7009786,0.0,0.0,0.7131824,0.0,0.0,-0.001
24456000,0.0,0.70088136,0.0,0.0,0.7132779,0.0,0.0,-0.001
24504000,0.0,0.70082957,0.0,0.0,0.7133288,0.0,0.0,-0.001
24560000,0.0,0.70070934,0.0,0.0,0.71344686,0.0,0.0,-0.001
24608000,0.0,0.7007816,0.0,0.0,0.71337587,0.0,0.0,-0.001
24656000,0.0,0.70079565,0.0,0.0,0.7133621,0.0,0.0,-0.001
24704000,0.0,0.7007266,0.0,0.0,0.71342987,0.0,0.0,-0.001
24760000,0.0,0.7007092,0.0,0.0,0.713447,0.0,0.0,-0.001
24808000,0.0,0.7006751,0.0,0.0,0.71348053,0.0,0.0,-0.001
24864000,0.0,0.7006923,0.0,0.0,0.71346366,0.0,0.0,-0.001
24912000,0.0,0.7006282,0.0,0.0,0.7135265,0.0,0.0,-0.001
24960000,0.0,0.700664,0.0,0.0,0.71349144,0.0,0.0,-0.001
25008000,0.0,0.7006312,0.0,0.0,0.7135237,0.0,0.0,-0.001
25056000,0.0,0.7005542,0.0,0.0,0.7135992,0.0,0.0,-0.001
25104000,0.0,0.7004067,0.0,0.0,0.71374404,0.0,0.0,-0.001
25160000,0.0,0.70041615,0.0,0.0,0.71373475,0.0,0.0,-0.001
25208000,0.0,0.70041066,0.0,0.0,0.71374005,0.0,0.0,-0.001
25264000,0.0,0.70042473,0.0,0.0,0.7137263,0.0,0.0,-0.001
25312000,0.0,0.70036876,0.0,0.0,0.7137812,0.0,0.0,-0.001
25360000,0.0,0.70033187,0.0,0.0,0.7138174,0.0,0.0,-0.001
25408000,0.0,0.7002556,0.0,0.0,0.7138922,0.0,0.0,-0.001
25464000,0.0,0.700292,0.0,0.0,0.7138565,0.0,0.0,-0.001
25504000,0.0,0.700214,0.0,0.0,0.713933,0.0,0.0,-0.001
25560000,0.0,0.7002291,0.0,0.0,0.7139182,0.0,0.0,-0.001
25608000,0.0,0.70020634,0.0,0.0,0.7139405,0.0,0.0,-0.001
25664000,0.0,0.7001176,0.0,0.0,0.7140276,0.0,0.0,-0.001
25712000,0.0,0.7000357,0.0,0.0,0.7141079,0.0,0.0,-0.001
25760000,0.0,0.69995767,0.0,0.0,0.7141843,0.0,0.0,-0.001
25808000,0.0,0.6999603,0.0,0.0,0.7141818,0.0,0.0,-0.001
25856000,0.0,0.69986016,0.0,0.0,0.7142799,0.0,0.0,-0.001
25912000,0.0,0.69985527,0.0,0.0,0.71428466,0.0,0.0,-0.001
25960000,0.0,0.6998622,0.0,0.0,0.714278,0.0,0.0,-0.001
26008000,0.0,0.69984597,0.0,0.0,0.7142938,0.0,0.0,-0.001
26056000,0.0,0.6996914,0.0,0.0,0.7144452,0.0,0.0,-0.001
26112000,0.0,0.6996019,0.0,0.0,0.71453285,0.0,0.0,-0.001
26160000,0.0,0.6994832,0.0,0.0,0.714649,0.0,0.0,-0.001
26208000,0.0,0.6993075,0.0,0.0,0.71482104,0.0,0.0,-0.001
26256000,0.0,0.6991942,0.0,0.0,0.71493185,0.0,0.0,-0.001
26312000,0.0,0.69910043,0.0,0.0,0.7150236,0.0,0.0,-0.001
26360000,0.0,0.6990814,0.0,0.0,0.71504205,0.0,0.0,-0.001
26408000,0.0,0.6990945,0.0,0.0,0.7150293,0.0,0.0,-0.001
26456000,0.0,0.6990404,0.0,0.0,0.71508217,0.0,0.0,-0.001
26504000,0.0,0.6990576,0.0,0.0,0.71506536,0.0,0.0,-0.001
26560000,0.0,0.69886076,0.0,0.0,0.7152578,0.0,0.0,-0.001
26608000,0.0,0.6987809,0.0,0.0,0.7153358,0.0,0.0,-0.001
26664000,0.0,0.6987217,0.0,0.0,0.7153936,0.0,0.0,-0.001
26712000,0.0,0.6987475,0.0,0.0,0.71536845,0.0,0.0,-0.001
26760000,0.0,0.6988991,0.0,0.0,0.71522033,0.0,0.0,-0.001
26808000,0.0,0.69885015,0.0,0.0,0.71526814,0.0,0.0,-0.001
26864000,0.0,0.6988877,0.0,0.0,0.7152314,0.0,0.0,-0.001
26912000,0.0,0.6988008,0.0,0.0,0.71531636,0.0,0.0,-0.001
26960000,0.0,0.69874984,0.0,0.0,0.7153661,0.0,0.0,-0.001
27008000,0.0,0.6986398,0.0,0.0,0.7154736,0.0,0.0,-0.001
27064000,0.0,0.69855726,0.0,0.0,0.71555424,0.0,0.0,-0.001
27112000,0.0,0.69851524,0.0,0.0,0.7155952,0.0,0.0,-0.001
27160000,0.0,0.6985205,0.0,0.0,0.71559006,0.0,0.0,-0.001
27208000,0.0,0.69852483,0.0,0.0,0.7155858,0.0,0.0,-0.001
27264000,0.0,0.69846076,0.0,0.0,0.71564835,0.0,0.0,-0.001
27304000,0.0,0.6983825,0.0,0.0,0.7157247,0.0,0.0,-0.001
27360000,0.0,0.69835746,0.0,0.0,0.7157491,0.0,0.0,-0.001
27408000,0.0,0.698294,0.0,0.0,0.7158111,0.0,0.0,-0.001
27464000,0.0,0.6983246,0.0,0.0,0.71578115,0.0,0.0,-0.001
27512000,0.0,0.69839615,0.0,0.0,0.7157114,0.0,0.0,-0.001
27560000,0.0,0.6982866,0.0,0.0,0.7158183,0.0,0.0,-0.001
27608000,0.0,0.69830745,0.0,0.0,0.71579796,0.0,0.0,-0.001
27664000,0.0,0.69816715,0.0,0.0,0.7159348,0.0,0.0,-0.001
27712000,0.0,0.6981293,0.0,0.0,0.7159717,0.0,0.0,-0.001
27760000,0.0,0.698107,0.0,0.0,0.71599346,0.0,0.0,-0.001
27808000,0.0,0.69806236,0.0,0.0,0.716037,0.0,0.0,-0.001
27856000,0.0,0.6980662,0.0,0.0,0.7160333,0.0,0.0,-0.001
27912000,0.0,0.6981105,0.0,0.0,0.71599,0.0,0.0,-0.001
27960000,0.0,0.6979958,0.0,0.0,0.7161019,0.0,0.0,-0.001
28008000,0.0,0.69792694,0.0,0.0,0.71616894,0.0,0.0,-0.001
28056000,0.0,0.6979751,0.0,0.0,0.71612203,0.0,0.0,-0.001
28112000,0.0,0.69794726,0.0,0.0,0.71614915,0.0,0.0,-0.001
28160000,0.0,0.69799197,0.0,0.0,0.71610564,0.0,0.0,-0.001
28208000,0.0,0.69794,0.0,0.0,0.71615624,0.0,0.0,-0.001
28264000,0.0,0.69789696,0.0,0.0,0.71619815,0.0,0.0,-0.001
28312000,0.0,0.697868,0.0,0.0,0.7162264,0.0,0.0,-0.001
28360000,0.0,0.6978745,0.0,0.0,0.7162202,0.0,0.0,-0.001
28408000,0.0,0.69784003,0.0,0.0,0.7162537,0.0,0.0,-0.001
28456000,0.0,0.6977766,0.0,0.0,0.7163154,0.0,0.0,-0.001
28512000,0.0,0.6977255,0.0,0.0,0.7163653,0.0,0.0,-0.001
28560000,0.0,0.6975414,0.0,0.0,0.7165445,0.0,0.0,-0.001
28608000,0.0,0.6974155,0.0,0.0,0.71666706,0.0,0.0,-0.001
28664000,0.0,0.69731146,0.0,0.0,0.71676826,0.0,0.0,-0.001
28712000,0.0,0.6972852,0.0,0.0,0.71679384,0.0,0.0,-0.001
28760000,0.0,0.6972562,0.0,0.0,0.7168221,0.0,0.0,-0.001
28808000,0.0,0.6972427,0.0,0.0,0.7168352,0.0,0.0,-0.001
28856000,0.0,0.69722426,0.0,0.0,0.716853,0.0,0.0,-0.001
28912000,0.0,0.69714063,0.0,0.0,0.71693444,0.0,0.0,-0.001
28960000,0.0,0.6969695,0.0,0.0,0.71710074,0.0,0.0,-0.001
29008000,0.0,0.69690484,0.0,0.0,0.7171636,0.0,0.0,-0.001
29056000,0.0,0.6968367,0.0,0.0,0.71722984,0.0,0.0,-0.001
29112000,0.0,0.6968318,0.0,0.0,0.71723455,0.0,0.0,-0.001
29160000,0.0,0.6969336,0.0,0.0,0.71713567,0.0,0.0,-0.001
29208000,0.0,0.6968784,0.0,0.0,0.7171893,0.0,0.0,-0.001
29264000,0.0,0.69692254,0.0,0.0,0.7171464,0.0,0.0,-0.001
29312000,0.0,0.69686246,0.0,0.0,0.71720487,0.0,0.0,-0.001
29360000,0.0,0.6968174,0.0,0.0,0.71724856,0.0,0.0,-0.001
29408000,0.0,0.6967074,0.0,0.0,0.7173555,0.0,0.0,-0.001
29464000,0.0,0.69658285,0.0,0.0,0.71747637,0.0,0.0,-0.001
29512000,0.0,0.6965061,0.0,0.0,0.7175509,0.0,0.0,-0.001
29560000,0.0,0.69643617,0.0,0.0,0.7176187,0.0,0.0,-0.001
29608000,0.0,0.6964667,0.0,0.0,0.71758914,0.0,0.0,-0.001
29656000,0.0,0.6964945,0.0,0.0,0.71756214,0.0,0.0,-0.001
29712000,0.0,0.69651586,0.0,0.0,0.71754146,0.0,0.0,-0.001
29760000,0.0,0.6964841,0.0,0.0,0.7175723,0.0,0.0,-0.001
29808000,0.0,0.69655174,0.0,0.0,0.7175066,0.0,0.0,-0.001
29856000,0.0,0.6965073,0.0,0.0,0.7175498,0.0,0.0,-0.001
29904000,0.0,0.6964616,0.0,0.0,0.717594,0.0,0.0,-0.001
29960000,0.0,0.6964948,0.0,0.0,0.71756184,0.0,0.0,-0.001
30008000,0.0,0.6964845,0.0,0.0,0.71757185,0.0,0.0,-0.001
30056000,0.0,0.6964941,0.0,0.0,0.7175625,0.0,0.0,-0.001
30112000,0.0,0.69646794,0.0,0.0,0.717588,0.0,0.0,-0.001
30160000,0.0,0.6964358,0.0,0.0,0.7176191,0.0,0.0,-0.001
30208000,0.0,0.6964497,0.0,0.0,0.7176056,0.0,0.0,-0.001
30264000,0.0,0.69638264,0.0,0.0,0.7176707,0.0,0.0,-0.001
30312000,0.0,0.6963233,0.0,0.0,0.71772826,0.0,0.0,-0.001
30360000,0.0,0.69620943,0.0,0.0,0.7178387,0.0,0.0,-0.001
30408000,0.0,0.6961969,0.0,0.0,0.71785086,0.0,0.0,-0.001
30456000,0.0,0.69608605,0.0,0.0,0.7179584,0.0,0.0,-0.001
30512000,0.0,0.69602734,0.0,0.0,0.71801525,0.0,0.0,-0.001
30560000,0.0,0.6959683,0.0,0.0,0.71807253,0.0,0.0,-0.001
30608000,0.0,0.6959132,0.0,0.0,0.7181259,0.0,0.0,-0.001
30664000,0.0,0.6958138,0.0,0.0,0.71822226,0.0,0.0,-0.001
30712000,0.0,0.6956809,0.0,0.0,0.71835095,0.0,0.0,-0.001
30760000,0.0,0.6955928,0.0,0.0,0.71843624,0.0,0.0,-0.001
30808000,0.0,0.695435,0.0,0.0,0.71858907,0.0,0.0,-0.001
30856000,0.0,0.6953723,0.0,0.0,0.7186498,0.0,0.0,-0.001
30912000,0.0,0.69520664,0.0,0.0,0.71881,0.0,0.0,-0.001
30960000,0.0,0.6952277,0.0,0.0,0.7187896,0.0,0.0,-0.001
31008000,0.0,0.6952381,0.0,0.0,0.7187795,0.0,0.0,-0.001
31056000,0.0,0.6951543,0.0,0.0,0.71886057,0.0,0.0,-0.001
31112000,0.0,0.6949882,0.0,0.0,0.7190212,0.0,0.0,-0.001
31160000,0.0,0.69496065,0.0,0.0,0.7190478,0.0,0.0,-0.001
31208000,0.0,0.69492537,0.0,0.0,0.7190819,0.0,0.0,-0.001
31264000,0.0,0.69490886,0.0,0.0,0.71909785,0.0,0.0,-0.001
31312000,0.0,0.6948359,0.0,0.0,0.7191683,0.0,0.0,-0.001
31360000,0.0,0.6945609,0.0,0.0,0.71943396,0.0,0.0,-0.001
31408000,0.0,0.69457084,0.0,0.0,0.7194243,0.0,0.0,-0.001
31464000,0.0,0.69449294,0.0,0.0,0.7194995,0.0,0.0,-0.001
31512000,0.0,0.6945628,0.0,0.0,0.7194321,0.0,0.0,-0.001
31560000,0.0,0.6947056,0.0,0.0,0.71929425,0.0,0.0,-0.001
31608000,0.0,0.6946486,0.0,0.0,0.7193492,0.0,0.0,-0.001
31656000,0.0,0.6945878,0.0,0.0,0.7194079,0.0,0.0,-0.001
31712000,0.0,0.6945286,0.0,0.0,0.7194652,0.0,0.0,-0.001
31760000,0.0,0.6945244,0.0,0.0,0.7194692,0.0,0.0,-0.001
31808000,0.0,0.6944171,0.0,0.0,0.71957266,0.0,0.0,-0.001
31856000,0.0,0.69435394,0.0,0.0,0.71963364,0.0,0.0,-0.001
31912000,0.0,0.6942371,0.0,0.0,0.71974635,0.0,0.0,-0.001
31960000,0.0,0.69426864,0.0,0.0,0.71971595,0.0,0.0,-0.001
32008000,0.0,0.69431055,0.0,0.0,0.71967554,0.0,0.0,-0.001
32056000,0.0,0.6942663,0.0,0.0,0.7197182,0.0,0.0,-0.001
32112000,0.0,0.6942547,0.0,0.0,0.7197295,0.0,0.0,-0.001
32160000,0.0,0.6942907,0.0,0.0,0.7196947,0.0,0.0,-0.001
32208000,0.0,0.69419575,0.0,0.0,0.7197863,0.0,0.0,-0.001
32264000,0.0,0.6941529,0.0,0.0,0.7198276,0.0,0.0,-0.001
32312000,0.0,0.6941179,0.0,0.0,0.7198614,0.0,0.0,-0.001
32360000,0.0,0.6940937,0.0,0.0,0.71988475,0.0,0.0,-0.001
32408000,0.0,0.6941135,0.0,0.0,0.71986556,0.0,0.0,-0.001
32456000,0.0,0.6940843,0.0,0.0,0.7198939,0.0,0.0,-0.001
32512000,0.0,0.69410056,0.0,0.0,0.719878,0.0,0.0,-0.001
32560000,0.0,0.6940672,0.0,0.0,0.71991026,0.0,0.0,-0.001
32608000,0.0,0.69414836,0.0,0.0,0.71983194,0.0,0.0,-0.001
32656000,0.0,0.6940028,0.0,0.0,0.7199723,0.0,0.0,-0.001
32712000,0.0,0.69383097,0.0,0.0,0.72013795,0.0,0.0,-0.001
32760000,0.0,0.6937065,0.0,0.0,0.7202578,0.0,0.0,-0.001
32808000,0.0,0.69367635,0.0,0.0,0.72028685,0.0,0.0,-0.001
32864000,0.0,0.6935636,0.0,0.0,0.7203954,0.0,0.0,-0.001
32912000,0.0,0.69355863,0.0,0.0,0.7204002,0.0,0.0,-0.001
32960000,0.0,0.69340026,0.0,0.0,0.7205526,0.0,0.0,-0.001
33008000,0.0,0.6933563,0.0,0.0,0.72059506,0.0,0.0,-0.001
33064000,0.0,0.6934859,0.0,0.0,0.7204702,0.0,0.0,-0.001
33112000,0.0,0.69344574,0.0,0.0,0.7205089,0.0,0.0,-0.001
33160000,0.0,0.6935501,0.0,0.0,0.72040844,0.0,0.0,-0.001
33208000,0.0,0.6936043,0.0,0.0,0.72035617,0.0,0.0,-0.001
33264000,0.0,0.6937036,0.0,0.0,0.7202607,0.0,0.0,-0.001
33312000,0.0,0.693623,0.0,0.0,0.7203382,0.0,0.0,-0.001
33360000,0.0,0.69357157,0.0,0.0,0.7203877,0.0,0.0,-0.001
33408000,0.0,0.6936107,0.0,0.0,0.7203501,0.0,0.0,-0.001
33464000,0.0,0.6934357,0.0,0.0,0.7205185,0.0,0.0,-0.001
33512000,0.0,0.6932668,0.0,0.0,0.72068113,0.0,0.0,-0.001
33560000,0.0,0.69316053,0.0,0.0,0.72078323,0.0,0.0,-0.001
33608000,0.0,0.6930298,0.0,0.0,0.72090894,0.0,0.0,-0.001
33664000,0.0,0.69294226,0.0,0.0,0.7209931,0.0,0.0,-0.001
33712000,0.0,0.6928793,0.0,0.0,0.72105354,0.0,0.0,-0.001
33760000,0.0,0.6929311,0.0,0.0,0.7210039,0.0,0.0,-0.001
33808000,0.0,0.69277906,0.0,0.0,0.7211499,0.0,0.0,-0.001
33856000,0.0,0.69268274,0.0,0.0,0.7212424,0.0,0.0,-0.001
33912000,0.0,0.69255245,0.0,0.0,0.72136754,0.0,0.0,-0.001
33960000,0.0,0.69255847,0.0,0.0,0.72136176,0.0,0.0,-0.001
34008000,0.0,0.6925261,0.0,0.0,0.72139287,0.0,0.0,-0.001
34064000,0.0,0.69242454,0.0,0.0,0.7214904,0.0,0.0,-0.001
34112000,0.0,0.6924584,0.0,0.0,0.7214578,0.0,0.0,-0.001
34160000,0.0,0.69254386,0.0,0.0,0.72137576,0.0,0.0,-0.001
34208000,0.0,0.69254446,0.0,0.0,0.7213752,0.0,0.0,-0.001
34264000,0.0,0.6925,0.0,0.0,0.72141784,0.0,0.0,-0.001
34312000,0.0,0.69238615,0.0,0.0,0.72152716,0.0,0.0,-0.001
34360000,0.0,0.69227254,0.0,0.0,0.7216362,0.0,0.0,-0.001
34408000,0.0,0.6922008,0.0,0.0,0.721705,0.0,0.0,-0.001
34464000,0.0,0.6921832,0.0,0.0,0.7217218,0.0,0.0,-0.001
34512000,0.0,0.69203776,0.0,0.0,0.7218613,0.0,0.0,-0.001
34560000,0.0,0.6919484,0.0,0.0,0.72194695,0.0,0.0,-0.001
34608000,0.0,0.6919636,0.0,0.0,0.72193235,0.0,0.0,-0.001
34664000,0.0,0.6920514,0.0,0.0,0.72184825,0.0,0.0,-0.001
34712000,0.0,0.69201314,0.0,0.0,0.72188497,0.0,0.0,-0.001
34760000,0.0,0.69202465,0.0,0.0,0.7218739,0.0,0.0,-0.001
34808000,0.0,0.69194293,0.0,0.0,0.7219522,0.0,0.0,-0.001
34864000,0.0,0.6919185,0.0,0.0,0.7219756,0.0,0.0,-0.001
34904000,0.0,0.6919295,0.0,0.0,0.7219651,0.0,0.0,-0.001
34960000,0.0,0.6918791,0.0,0.0,0.72201335,0.0,0.0,-0.001
35008000,0.0,0.69175625,0.0,0.0,0.7221311,0.0,0.0,-0.001
35064000,0.0,0.6917158,0.0,0.0,0.7221699,0.0,0.0,-0.001
35112000,0.0,0.69162416,0.0,0.0,0.72225755,0.0,0.0,-0.001
35160000,0.0,0.6914713,0.0,0.0,0.72240394,0.0,0.0,-0.001
35208000,0.0,0.69147664,0.0,0.0,0.7223988,0.0,0.0,-0.001
35256000,0.0,0.69151884,0.0,0.0,0.72235847,0.0,0.0,-0.001
35312000,0.0,0.6914995,0.0,0.0,0.722377,0.0,0.0,-0.001
35360000,0.0,0.6914136,0.0,0.0,0.7224592,0.0,0.0,-0.001
35408000,0.0,0.69145834,0.0,0.0,0.72241634,0.0,0.0,-0.001
35464000,0.0,0.6914605,0.0,0.0,0.7224143,0.0,0.0,-0.001
35512000,0.0,0.69142073,0.0,0.0,0.72245234,0.0,0.0,-0.001
35560000,0.0,0.69150203,0.0,0.0,0.7223745,0.0,0.0,-0.001
35608000,0.0,0.6914253,0.0,0.0,0.722448,0.0,0.0,-0.001
35656000,0.0,0.6914602,0.0,0.0,0.7224146,0.0,0.0,-0.001
35712000,0.0,0.6915267,0.0,0.0,0.72235096,0.0,0.0,-0.001
35760000,0.0,0.69152504,0.0,0.0,0.7223525,0.0,0.0,-0.001
35808000,0.0,0.69151306,0.0,0.0,0.72236395,0.0,0.0,-0.001
35864000,0.0,0.6914541,0.0,0.0,0.72242045,0.0,0.0,-0.001
35912000,0.0,0.6913724,0.0,0.0,0.7224986,0.0,0.0,-0.001
35960000,0.0,0.6913078,0.0,0.0,0.72256047,0.0,0.0,-0.001
36008000,0.0,0.6914092,0.0,0.0,0.7224634,0.0,0.0,-0.001
36064000,0.0,0.69124603,0.0,0.0,0.72261953,0.0,0.0,-0.001
36112000,0.0,0.6912613,0.0,0.0,0.7226049,0.0,0.0,-0.001
36160000,0.0,0.69131273,0.0,0.0,0.72255576,0.0,0.0,-0.001
36208000,0.0,0.69133264,0.0,0.0,0.7225366,0.0,0.0,-0.001
36264000,0.0,0.69128144,0.0,0.0,0.7225856,0.0,0.0,-0.001
36312000,0.0,0.6913279,0.0,0.0,0.72254115,0.0,0.0,-0.001
36360000,0.0,0.6911832,0.0,0.0,0.7226796,0.0,0.0,-0.001
36408000,0.0,0.6911,0.0,0.0,0.7227591,0.0,0.0,-0.001
36464000,0.0,0.69111735,0.0,0.0,0.72274256,0.0,0.0,-0.001
36504000,0.0,0.6910444,0.0,0.0,0.72281235,0.0,0.0,-0.001
36560000,0.0,0.69099575,0.0,0.0,0.72285885,0.0,0.0,-0.001
36608000,0.0,0.6908409,0.0,0.0,0.72300684,0.0,0.0,-0.001
36656000,0.0,0.6907828,0.0,0.0,0.72306234,0.0,0.0,-0.001
36712000,0.0,0.69088286,0.0,0.0,0.7229667,0.0,0.0,-0.001
36760000,0.0,0.69090134,0.0,0.0,0.7229491,0.0,0.0,-0.001
36808000,0.0,0.6909728,0.0,0.0,0.7228808,0.0,0.0,-0.001
36856000,0.0,0.6908385,0.0,0.0,0.7230091,0.0,0.0,-0.001
36912000,0.0,0.6908436,0.0,0.0,0.7230043,0.0,0.0,-0.001
36960000,0.0,0.6909258,0.0,0.0,0.72292566,0.0,0.0,-0.001
37008000,0.0,0.69097155,0.0,0.0,0.72288203,0.0,0.0,-0.001
37064000,0.0,0.69102997,0.0,0.0,0.7228262,0.0,0.0,-0.001
37112000,0.0,0.6911108,0.0,0.0,0.7227489,0.0,0.0,-0.001
37160000,0.0,0.6912282,0.0,0.0,0.7226366,0.0,0.0,-0.001
37208000,0.0,0.69125295,0.0,0.0,0.7226129,0.0,0.0,-0.001
37264000,0.0,0.6912652,0.0,0.0,0.7226011,0.0,0.0,-0.001
37312000,0.0,0.691155,0.0,0.0,0.7227065,0.0,0.0,-0.001
37360000,0.0,0.6911961,0.0,0.0,0.72266734,0.0,0.0,-0.001
37408000,0.0,0.6912077,0.0,0.0,0.72265625,0.0,0.0,-0.001
37464000,0.0,0.69122916,0.0,0.0,0.7226356,0.0,0.0,-0.001
37512000,0.0,0.69129866,0.0,0.0,0.72256917,0.0,0.0,-0.001
37560000,0.0,0.69131225,0.0,0.0,0.72255623,0.0,0.0,-0.001
37608000,0.0,0.69143087,0.0,0.0,0.7224426,0.0,0.0,-0.001
37656000,0.0,0.6914561,0.0,0.0,0.7224186,0.0,0.0,-0.001
37704000,0.0,0.69149554,0.0,0.0,0.72238076,0.0,0.0,-0.001
37760000,0.0,0.69139284,0.0,0.0,0.722479,0.0,0.0,-0.001
37808000,0.0,0.69151884,0.0,0.0,0.72235847,0.0,0.0,-0.001
37856000,0.0,0.6915354,0.0,0.0,0.72234255,0.0,0.0,-0.001
37912000,0.0,0.6915365,0.0,0.0,0.7223416,0.0,0.0,-0.001
37960000,0.0,0.691578,0.0,0.0,0.7223018,0.0,0.0,-0.001
38008000,0.0,0.6916424,0.0,0.0,0.7222401,0.0,0.0,-0.001
38064000,0.0,0.6916224,0.0,0.0,0.72225934,0.0,0.0,-0.001
38112000,0.0,0.69164467,0.0,0.0,0.72223794,0.0,0.0,-0.001
38160000,0.0,0.6916697,0.0,0.0,0.722214,0.0,0.0,-0.001
38208000,0.0,0.691709,0.0,0.0,0.72217643,0.0,0.0,-0.001
38256000,0.0,0.69169074,0.0,0.0,0.72219384,0.0,0.0,-0.001
38304000,0.0,0.69173163,0.0,0.0,0.7221547,0.0,0.0,-0.001
38360000,0.0,0.69165564,0.0,0.0,0.7222274,0.0,0.0,-0.001
38408000,0.0,0.6916654,0.0,0.0,0.7222181,0.0,0.0,-0.001
38456000,0.0,0.6916372,0.0,0.0,0.72224504,0.0,0.0,-0.001
38512000,0.0,0.6915943,0.0,0.0,0.72228616,0.0,0.0,-0.001
38560000,0.0,0.6916248,0.0,0.0,0.722257,0.0,0.0,-0.001
38608000,0.0,0.6915477,0.0,0.0,0.72233075,0.0,0.0,-0.001
38656000,0.0,0.6915268,0.0,0.0,0.72235084,0.0,0.0,-0.001
38712000,0.0,0.69157994,0.0,0.0,0.72229993,0.0,0.0,-0.001
38760000,0.0,0.69166857,0.0,0.0,0.72221506,0.0,0.0,-0.001
38808000,0.0,0.69166255,0.0,0.0,0.7222208,0.0,0.0,-0.001
38856000,0.0,0.69173574,0.0,0.0,0.72215074,0.0,0.0,-0.001
38912000,0.0,0.6918241,0.0,0.0,0.72206604,0.0,0.0,-0.001
38960000,0.0,0.6918225,0.0,0.0,0.7220676,0.0,0.0,-0.001
39008000,0.0,0.69186485,0.0,0.0,0.72202706,0.0,0.0,-0.001
39064000,0.0,0.6919204,0.0,0.0,0.7219738,0.0,0.0,-0.001
39112000,0.0,0.692046,0.0,0.0,0.7218534,0.0,0.0,-0.001
39160000,0.0,0.6919593,0.0,0.0,0.7219365,0.0,0.0,-0.001
39208000,0.0,0.69191194,0.0,0.0,0.72198194,0.0,0.0,-0.001
39256000,0.0,0.69189173,0.0,0.0,0.72200125,0.0,0.0,-0.001
39312000,0.0,0.6919226,0.0,0.0,0.7219717,0.0,0.0,-0.001
39360000,0.0,0.6919031,0.0,0.0,0.72199035,0.0,0.0,-0.001
39408000,0.0,0.6919892,0.0,0.0,0.7219079,0.0,0.0,-0.001
39456000,0.0,0.6921608,0.0,0.0,0.72174335,0.0,0.0,-0.001
39512000,0.0,0.6921824,0.0,0.0,0.7217226,0.0,0.0,-0.001
39560000,0.0,0.6921073,0.0,0.0,0.7217946,0.0,0.0,-0.001
39608000,0.0,0.6922155,0.0,0.0,0.72169083,0.0,0.0,-0.001
39664000,0.0,0.692244,0.0,0.0,0.72166353,0.0,0.0,-0.001
39704000,0.0,0.69232565,0.0,0.0,0.7215852,0.0,0.0,-0.001
39760000,0.0,0.69245785,0.0,0.0,0.7214584,0.0,0.0,-0.001
39808000,0.0,0.6924928,0.0,0.0,0.7214249,0.0,0.0,-0.001
39864000,0.0,0.6925853,0.0,0.0,0.721336,0.0,0.0,-0.001
39912000,0.0,0.6926912,0.0,0.0,0.7212344,0.0,0.0,-0.001
39960000,0.0,0.692758,0.0,0.0,0.7211701,0.0,0.0,-0.001
40008000,0.0,0.69279647,0.0,0.0,0.7211333,0.0,0.0,-0.001
40064000,0.0,0.69284874,0.0,0.0,0.721083,0.0,0.0,-0.001
40112000,0.0,0.6929181,0.0,0.0,0.72101635,0.0,0.0,-0.001
40160000,0.0,0.6929579,0.0,0.0,0.7209781,0.0,0.0,-0.001
40208000,0.0,0.6930926,0.0,0.0,0.72084856,0.0,0.0,-0.001
40264000,0.0,0.6930832,0.0,0.0,0.72085756,0.0,0.0,-0.001
40312000,0.0,0.6931882,0.0,0.0,0.72075665,0.0,0.0,-0.001
40360000,0.0,0.6932384,0.0,0.0,0.7207084,0.0,0.0,-0.001
40408000,0.0,0.6933089,0.0,0.0,0.7206406,0.0,0.0,-0.001
40464000,0.0,0.693405,0.0,0.0,0.72054815,0.0,0.0,-0.001
40512000,0.0,0.69343066,0.0,0.0,0.7205235,0.0,0.0,-0.001
40560000,0.0,0.69352293,0.0,0.0,0.7204346,0.0,0.0,-0.001
40608000,0.0,0.6936235,0.0,0.0,0.72033775,0.0,0.0,-0.001
40656000,0.0,0.6937308,0.0,0.0,0.7202344,0.0,0.0,-0.001
40712000,0.0,0.69376683,0.0,0.0,0.7201997,0.0,0.0,-0.001
40760000,0.0,0.6937799,0.0,0.0,0.7201871,0.0,0.0,-0.001
40808000,0.0,0.6937617,0.0,0.0,0.7202046,0.0,0.0,-0.001
40864000,0.0,0.6938397,0.0,0.0,0.7201295,0.0,0.0,-0.001
40912000,0.0,0.69393635,0.0,0.0,0.7200363,0.0,0.0,-0.001
40960000,0.0,0.6938644,0.0,0.0,0.7201057,0.0,0.0,-0.001
41008000,0.0,0.69382423,0.0,0.0,0.72014445,0.0,0.0,-0.001
41064000,0.0,0.6937837,0.0,0.0,0.72018343,0.0,0.0,-0.001
41112000,0.0,0.6937757,0.0,0.0,0.7201912,0.0,0.0,-0.001
41160000,0.0,0.6936781,0.0,0.0,0.7202852,0.0,0.0,-0.001
41208000,0.0,0.6935518,0.0,0.0,0.72040683,0.0,0.0,-0.001
41264000,0.0,0.6936463,0.0,0.0,0.7203159,0.0,0.0,-0.001
41312000,0.0,0.6936959,0.0,0.0,0.720268,0.0,0.0,-0.001
41360000,0.0,0.6937865,0.0,0.0,0.72018075,0.0,0.0,-0.001
41408000,0.0,0.69388956,0.0,0.0,0.72008145,0.0,0.0,-0.001
41464000,0.0,0.69400406,0.0,0.0,0.71997106,0.0,0.0,-0.001
41512000,0.0,0.6941473,0.0,0.0,0.719833,0.0,0.0,-0.001
41560000,0.0,0.6942832,0.0,0.0,0.7197019,0.0,0.0,-0.001
41608000,0.0,0.69433355,0.0,0.0,0.7196533,0.0,0.0,-0.001
41656000,0.0,0.6943672,0.0,0.0,0.7196209,0.0,0.0,-0.001
41712000,0.0,0.6945253,0.0,0.0,0.7194683,0.0,0.0,-0.001
41760000,0.0,0.6945577,0.0,0.0,0.719437,0.0,0.0,-0.001
41808000,0.0,0.69461554,0.0,0.0,0.71938115,0.0,0.0,-0.001
41856000,0.0,0.6946682,0.0,0.0,0.7193303,0.0,0.0,-0.001
41912000,0.0,0.69470584,0.0,0.0,0.71929395,0.0,0.0,-0.001
41960000,0.0,0.69481933,0.0,0.0,0.71918434,0.0,0.0,-0.001
42008000,0.0,0.69474614,0.0,0.0,0.71925503,0.0,0.0,-0.001
42064000,0.0,0.69480956,0.0,0.0,0.7191938,0.0,0.0,-0.001
42112000,0.0,0.6948265,0.0,0.0,0.7191774,0.0,0.0,-0.001
42160000,0.0,0.6947816,0.0,0.0,0.7192209,0.0,0.0,-0.001
42208000,0.0,0.6947238,0.0,0.0,0.7192766,0.0,0.0,-0.001
42264000,0.0,0.69473696,0.0,0.0,0.71926403,0.0,0.0,-0.001
42312000,0.0,0.6948558,0.0,0.0,0.7191491,0.0,0.0,-0.001
42360000,0.0,0.69490016,0.0,0.0,0.71910626,0.0,0.0,-0.001
42408000,0.0,0.69496423,0.0,0.0,0.7190443,0.0,0.0,-0.001
42464000,0.0,0.69497263,0.0,0.0,0.7190362,0.0,0.0,-0.001
42512000,0.0,0.6949225,0.0,0.0,0.7190846,0.0,0.0,-0.001
42560000,0.0,0.6950249,0.0,0.0,0.7189857,0.0,0.0,-0.001
42608000,0.0,0.6950987,0.0,0.0,0.7189144,0.0,0.0,-0.001
42664000,0.0,0.69517,0.0,0.0,0.71884537,0.0,0.0,-0.001
42712000,0.0,0.69506496,0.0,0.0,0.718947,0.0,0.0,-0.001
42760000,0.0,0.69515747,0.0,0.0,0.7188575,0.0,0.0,-0.001
42808000,0.0,0.69529694,0.0,0.0,0.7187227,0.0,0.0,-0.001
42856000,0.0,0.69532853,0.0,0.0,0.71869206,0.0,0.0,-0.001
42912000,0.0,0.6953288,0.0,0.0,0.7186919,0.0,0.0,-0.001
42960000,0.0,0.6953657,0.0,0.0,0.71865606,0.0,0.0,-0.001
43008000,0.0,0.6954867,0.0,0.0,0.718539,0.0,0.0,-0.001
43056000,0.0,0.6954884,0.0,0.0,0.71853733,0.0,0.0,-0.001
43104000,0.0,0.69540626,0.0,0.0,0.71861684,0.0,0.0,-0.001
43160000,0.0,0.6953254,0.0,0.0,0.7186951,0.0,0.0,-0.001
43208000,0.0,0.69539696,0.0,0.0,0.7186259,0.0,0.0,-0.001
43264000,0.0,0.69531655,0.0,0.0,0.7187037,0.0,0.0,-0.001
43312000,0.0,0.69523466,0.0,0.0,0.71878284,0.0,0.0,-0.001
43360000,0.0,0.6953641,0.0,0.0,0.7186576,0.0,0.0,-0.001
43408000,0.0,0.69532317,0.0,0.0,0.71869725,0.0,0.0,-0.001
43464000,0.0,0.6953378,0.0,0.0,0.7186831,0.0,0.0,-0.001
43512000,0.0,0.6952788,0.0,0.0,0.71874017,0.0,0.0,-0.001
43560000,0.0,0.6952994,0.0,0.0,0.7187202,0.0,0.0,-0.001
43608000,0.0,0.695305,0.0,0.0,0.71871483,0.0,0.0,-0.001
43656000,0.0,0.69532114,0.0,0.0,0.7186992,0.0,0.0,-0.001
43712000,0.0,0.69548553,0.0,0.0,0.7185401,0.0,0.0,-0.001
43760000,0.0,0.69562924,0.0,0.0,0.718401,0.0,0.0,-0.001
43808000,0.0,0.69567007,0.0,0.0,0.7183615,0.0,0.0,-0.001
43864000,0.0,0.6958159,0.0,0.0,0.7182202,0.0,0.0,-0.001
43912000,0.0,0.69586354,0.0,0.0,0.71817404,0.0,0.0,-0.001
43960000,0.0,0.6958924,0.0,0.0,0.7181461,0.0,0.0,-0.001
44008000,0.0,0.69589764,0.0,0.0,0.718141,0.0,0.0,-0.001
44056000,0.0,0.69591665,0.0,0.0,0.71812254,0.0,0.0,-0.001
44112000,0.0,0.6958558,0.0,0.0,0.71818155,0.0,0.0,-0.001
44160000,0.0,0.69585085,0.0,0.0,0.7181864,0.0,0.0,-0.001
44208000,0.0,0.6958914,0.0,0.0,0.71814704,0.0,0.0,-0.001
44264000,0.0,0.69577694,0.0,0.0,0.71825796,0.0,0.0,-0.001
44312000,0.0,0.6958035,0.0,0.0,0.7182323,0.0,0.0,-0.001
44360000,0.0,0.69594747,0.0,0.0,0.71809274,0.0,0.0,-0.001
44408000,0.0,0.69596267,0.0,0.0,0.71807796,0.0,0.0,-0.001
44464000,0.0,0.69590104,0.0,0.0,0.7181378,0.0,0.0,-0.001
44512000,0.0,0.6960184,0.0,0.0,0.71802396,0.0,0.0,-0.001
44560000,0.0,0.6959191,0.0,0.0,0.7181202,0.0,0.0,-0.001
44608000,0.0,0.6958954,0.0,0.0,0.7181432,0.0,0.0,-0.001
44656000,0.0,0.6958689,0.0,0.0,0.7181688,0.0,0.0,-0.001
44712000,0.0,0.69575167,0.0,0.0,0.7182825,0.0,0.0,-0.001
44760000,0.0,0.69583154,0.0,0.0,0.71820503,0.0,0.0,-0.001
44808000,0.0,0.6959334,0.0,0.0,0.7181063,0.0,0.0,-0.001
44864000,0.0,0.69593817,0.0,0.0,0.71810174,0.0,0.0,-0.001
44912000,0.0,0.69585186,0.0,0.0,0.71818537,0.0,0.0,-0.001
44960000,0.0,0.6958944,0.0,0.0,0.7181442,0.0,0.0,-0.001
45008000,0.0,0.696083,0.0,0.0,0.7179614,0.0,0.0,-0.001
45056000,0.0,0.69606483,0.0,0.0,0.7179789,0.0,0.0,-0.001
45104000,0.0,0.696053,0.0,0.0,0.71799034,0.0,0.0,-0.001
45160000,0.0,0.69606626,0.0,0.0,0.7179775,0.0,0.0,-0.001
45208000,0.0,0.6960077,0.0,0.0,0.71803427,0.0,0.0,-0.001
45256000,0.0,0.69611055,0.0,0.0,0.7179346,0.0,0.0,-0.001
45312000,0.0,0.69609606,0.0,0.0,0.7179486,0.0,0.0,-0.001
45360000,0.0,0.69611114,0.0,0.0,0.717934,0.0,0.0,-0.001
45408000,0.0,0.6961134,0.0,0.0,0.7179318,0.0,0.0,-0.001
45456000,0.0,0.6961462,0.0,0.0,0.7179001,0.0,0.0,-0.001
45512000,0.0,0.69614375,0.0,0.0,0.7179024,0.0,0.0,-0.001
45560000,0.0,0.6961758,0.0,0.0,0.7178713,0.0,0.0,-0.001
45608000,0.0,0.6961135,0.0,0.0,0.7179318,0.0,0.0,-0.001
45664000,0.0,0.6961098,0.0,0.0,0.7179354,0.0,0.0,-0.001
45712000,0.0,0.6962618,0.0,0.0,0.71778786,0.0,0.0,-0.001
45760000,0.0,0.6962902,0.0,0.0,0.7177604,0.0,0.0,-0.001
45808000,0.0,0.6962376,0.0,0.0,0.7178114,0.0,0.0,-0.001
45856000,0.0,0.6962189,0.0,0.0,0.7178295,0.0,0.0,-0.001
45912000,0.0,0.6962149,0.0,0.0,0.7178334,0.0,0.0,-0.001
45960000,0.0,0.696263,0.0,0.0,0.7177868,0.0,0.0,-0.001
46008000,0.0,0.6961678,0.0,0.0,0.71787906,0.0,0.0,-0.001
46064000,0.0,0.69625676,0.0,0.0,0.7177928,0.0,0.0,-0.001
46112000,0.0,0.6963519,0.0,0.0,0.71770054,0.0,0.0,-0.001
46160000,0.0,0.696483,0.0,0.0,0.71757334,0.0,0.0,-0.001
46208000,0.0,0.69650286,0.0,0.0,0.7175541,0.0,0.0,-0.001
46256000,0.0,0.69653994,0.0,0.0,0.71751803,0.0,0.0,-0.001
46312000,0.0,0.69658035,0.0,0.0,0.7174788,0.0,0.0,-0.001
46360000,0.0,0.6965955,0.0,0.0,0.7174641,0.0,0.0,-0.001
46408000,0.0,0.6966049,0.0,0.0,0.71745497,0.0,0.0,-0.001
46456000,0.0,0.696645,0.0,0.0,0.717416,0.0,0.0,-0.001
46512000,0.0,0.6966868,0.0,0.0,0.7173754,0.0,0.0,-0.001
46560000,0.0,0.6966362,0.0,0.0,0.7174246,0.0,0.0,-0.001
46608000,0.0,0.69672143,0.0,0.0,0.7173419,0.0,0.0,-0.001
46664000,0.0,0.69669026,0.0,0.0,0.71737206,0.0,0.0,-0.001
46712000,0.0,0.6967837,0.0,0.0,0.7172813,0.0,0.0,-0.001
46760000,0.0,0.6967796,0.0,0.0,0.71728534,0.0,0.0,-0.001
46808000,0.0,0.69675773,0.0,0.0,0.7173065,0.0,0.0,-0.001
46864000,0.0,0.6969174,0.0,0.0,0.7171514,0.0,0.0,-0.001
46912000,0.0,0.6969108,0.0,0.0,0.7171578,0.0,0.0,-0.001
46960000,0.0,0.6968913,0.0,0.0,0.7171768,0.0,0.0,-0.001
47008000,0.0,0.6969157,0.0,0.0,0.7171531,0.0,0.0,-0.001
47056000,0.0,0.6970527,0.0,0.0,0.71701986,0.0,0.0,-0.001
47112000,0.0,0.6972161,0.0,0.0,0.71686107,0.0,0.0,-0.001
47160000,0.0,0.697182,0.0,0.0,0.7168942,0.0,0.0,-0.001
47208000,0.0,0.6973374,0.0,0.0,0.71674305,0.0,0.0,-0.001
47264000,0.0,0.697296,0.0,0.0,0.7167833,0.0,0.0,-0.001
47312000,0.0,0.69726956,0.0,0.0,0.71680903,0.0,0.0,-0.001
47360000,0.0,0.69736177,0.0,0.0,0.7167194,0.0,0.0,-0.001
47408000,0.0,0.69740856,0.0,0.0,0.71667385,0.0,0.0,-0.001
47464000,0.0,0.69737715,0.0,0.0,0.71670437,0.0,0.0,-0.001
47512000,0.0,0.697445,0.0,0.0,0.7166384,0.0,0.0,-0.001
47560000,0.0,0.6974028,0.0,0.0,0.71667945,0.0,0.0,-0.001
47608000,0.0,0.6973868,0.0,0.0,0.716695,0.0,0.0,-0.001
47664000,0.0,0.69734824,0.0,0.0,0.71673244,0.0,0.0,-0.001
47712000,0.0,0.6973632,0.0,0.0,0.71671796,0.0,0.0,-0.001
47760000,0.0,0.6973997,0.0,0.0,0.71668243,0.0,0.0,-0.001
47808000,0.0,0.69747573,0.0,0.0,0.71660846,0.0,0.0,-0.001
47864000,0.0,0.6974057,0.0,0.0,0.7166766,0.0,0.0,-0.001
47912000,0.0,0.6974375,0.0,0.0,0.71664554,0.0,0.0,-0.001
47960000,0.0,0.6974692,0.0,0.0,0.7166149,0.0,0.0,-0.001
48008000,0.0,0.6974791,0.0,0.0,0.7166051,0.0,0.0,-0.001
48064000,0.0,0.69758475,0.0,0.0,0.7165023,0.0,0.0,-0.001
48104000,0.0,0.69755983,0.0,0.0,0.71652657,0.0,0.0,-0.001
48160000,0.0,0.6976122,0.0,0.0,0.7164756,0.0,0.0,-0.001
48208000,0.0,0.69773626,0.0,0.0,0.7163547,0.0,0.0,-0.001
48264000,0.0,0.69790536,0.0,0.0,0.71619004,0.0,0.0,-0.001
48304000,0.0,0.69794315,0.0,0.0,0.7161532,0.0,0.0,-0.001
48360000,0.0,0.6981086,0.0,0.0,0.7159919,0.0,0.0,-0.001
48408000,0.0,0.69814956,0.0,0.0,0.7159519,0.0,0.0,-0.001
48464000,0.0,0.69816345,0.0,0.0,0.7159384,0.0,0.0,-0.001
48504000,0.0,0.6981501,0.0,0.0,0.71595144,0.0,0.0,-0.001
48560000,0.0,0.6982525,0.0,0.0,0.71585155,0.0,0.0,-0.001
48608000,0.0,0.69824755,0.0,0.0,0.7158564,0.0,0.0,-0.001
48656000,0.0,0.6983156,0.0,0.0,0.71579,0.0,0.0,-0.001
48704000,0.0,0.6982402,0.0,0.0,0.71586347,0.0,0.0,-0.001
48760000,0.0,0.69814205,0.0,0.0,0.7159593,0.0,0.0,-0.001
48808000,0.0,0.6981701,0.0,0.0,0.7159319,0.0,0.0,-0.001
48864000,0.0,0.69820136,0.0,0.0,0.71590143,0.0,0.0,-0.001
48912000,0.0,0.69831324,0.0,0.0,0.7157923,0.0,0.0,-0.001
48960000,0.0,0.6982599,0.0,0.0,0.71584433,0.0,0.0,-0.001
49008000,0.0,0.69830877,0.0,0.0,0.71579665,0.0,0.0,-0.001
49064000,0.0,0.69837856,0.0,0.0,0.7157286,0.0,0.0,-0.001
49104000,0.0,0.69838727,0.0,0.0,0.7157201,0.0,0.0,-0.001
49160000,0.0,0.6985103,0.0,0.0,0.7156001,0.0,0.0,-0.001
49208000,0.0,0.6985954,0.0,0.0,0.7155169,0.0,0.0,-0.001
49256000,0.0,0.6985847,0.0,0.0,0.7155274,0.0,0.0,-0.001
49312000,0.0,0.6987016,0.0,0.0,0.7154132,0.0,0.0,-0.001
49360000,0.0,0.69882965,0.0,0.0,0.7152882,0.0,0.0,-0.001
49408000,0.0,0.6989502,0.0,0.0,0.7151703,0.0,0.0,-0.001
49464000,0.0,0.6989981,0.0,0.0,0.71512365,0.0,0.0,-0.001
49512000,0.0,0.6989391,0.0,0.0,0.71518123,0.0,0.0,-0.001
49560000,0.0,0.6989517,0.0,0.0,0.7151689,0.0,0.0,-0.001
49608000,0.0,0.6989529,0.0,0.0,0.7151677,0.0,0.0,-0.001
49656000,0.0,0.69891465,0.0,0.0,0.7152051,0.0,0.0,-0.001
49712000,0.0,0.6989352,0.0,0.0,0.715185,0.0,0.0,-0.001
49760000,0.0,0.6989348,0.0,0.0,0.71518546,0.0,0.0,-0.001
49808000,0.0,0.69903266,0.0,0.0,0.7150898,0.0,0.0,-0.001
49864000,0.0,0.6989436,0.0,0.0,0.71517676,0.0,0.0,-0.001
49912000,0.0,0.6988391,0.0,0.0,0.71527886,0.0,0.0,-0.001
49960000,0.0,0.6988809,0.0,0.0,0.71523815,0.0,0.0,-0.001
50008000,0.0,0.6989187,0.0,0.0,0.71520114,0.0,0.0,-0.001
50056000,0.0,0.6989422,0.0,0.0,0.71517825,0.0,0.0,-0.001
50104000,0.0,0.69891423,0.0,0.0,0.7152056,0.0,0.0,-0.001
50160000,0.0,0.69899446,0.0,0.0,0.7151271,0.0,0.0,-0.001
50208000,0.0,0.6990372,0.0,0.0,0.71508527,0.0,0.0,-0.001
50256000,0.0,0.6991014,0.0,0.0,0.7150226,0.0,0.0,-0.001
50312000,0.0,0.6991686,0.0,0.0,0.71495676,0.0,0.0,-0.001
50360000,0.0,0.69918495,0.0,0.0,0.71494085,0.0,0.0,-0.001
50408000,0.0,0.6993166,0.0,0.0,0.71481204,0.0,0.0,-0.001
50464000,0.0,0.69941056,0.0,0.0,0.71472013,0.0,0.0,-0.001
50512000,0.0,0.6994832,0.0,0.0,0.714649,0.0,0.0,-0.001
50560000,0.0,0.69950897,0.0,0.0,0.7146238,0.0,0.0,-0.001
50608000,0.0,0.699591,0.0,0.0,0.7145435,0.0,0.0,-0.001
50656000,0.0,0.69963145,0.0,0.0,0.7145039,0.0,0.0,-0.001
50712000,0.0,0.69972974,0.0,0.0,0.7144077,0.0,0.0,-0.001
50760000,0.0,0.6998443,0.0,0.0,0.71429545,0.0,0.0,-0.001
50808000,0.0,0.69987595,0.0,0.0,0.71426445,0.0,0.0,-0.001
50856000,0.0,0.69989526,0.0,0.0,0.7142455,0.0,0.0,-0.001
50904000,0.0,0.70002425,0.0,0.0,0.7141191,0.0,0.0,-0.001
50960000,0.0,0.70011014,0.0,0.0,0.7140349,0.0,0.0,-0.001
51008000,0.0,0.7001409,0.0,0.0,0.7140047,0.0,0.0,-0.001
51056000,0.0,0.7001147,0.0,0.0,0.7140304,0.0,0.0,-0.001
51104000,0.0,0.70016056,0.0,0.0,0.71398544,0.0,0.0,-0.001
51160000,0.0,0.70031303,0.0,0.0,0.7138359,0.0,0.0,-0.001
51208000,0.0,0.70027286,0.0,0.0,0.7138753,0.0,0.0,-0.001
51256000,0.0,0.70024806,0.0,0.0,0.71389955,0.0,0.0,-0.001
51312000,0.0,0.70029294,0.0,0.0,0.7138556,0.0,0.0,-0.001
51360000,0.0,0.70033306,0.0,0.0,0.7138162,0.0,0.0,-0.001
51408000,0.0,0.7004441,0.0,0.0,0.71370727,0.0,0.0,-0.001
51464000,0.0,0.70044,0.0,0.0,0.7137113,0.0,0.0,-0.001
51504000,0.0,0.7004437,0.0,0.0,0.7137077,0.0,0.0,-0.001
51560000,0.0,0.700516,0.0,0.0,0.71363676,0.0,0.0,-0.001
51608000,0.0,0.7004981,0.0,0.0,0.7136542,0.0,0.0,-0.001
51656000,0.0,0.70054054,0.0,0.0,0.7136127,0.0,0.0,-0.001
51712000,0.0,0.7005918,0.0,0.0,0.7135623,0.0,0.0,-0.001
51760000,0.0,0.7006213,0.0,0.0,0.71353334,0.0,0.0,-0.001
51808000,0.0,0.70059335,0.0,0.0,0.71356076,0.0,0.0,-0.001
51864000,0.0,0.7005885,0.0,0.0,0.7135655,0.0,0.0,-0.001
51912000,0.0,0.7006795,0.0,0.0,0.71347624,0.0,0.0,-0.001
51960000,0.0,0.70061976,0.0,0.0,0.71353483,0.0,0.0,-0.001
52008000,0.0,0.70056707,0.0,0.0,0.7135867,0.0,0.0,-0.001
52064000,0.0,0.7005463,0.0,0.0,0.713607,0.0,0.0,-0.001
52112000,0.0,0.70046985,0.0,0.0,0.71368194,0.0,0.0,-0.001
52160000,0.0,0.70062935,0.0,0.0,0.7135254,0.0,0.0,-0.001
52208000,0.0,0.700695,0.0,0.0,0.713461,0.0,0.0,-0.001
52264000,0.0,0.70085984,0.0,0.0,0.71329904,0.0,0.0,-0.001
52312000,0.0,0.70079243,0.0,0.0,0.71336526,0.0,0.0,-0.001
52360000,0.0,0.7007822,0.0,0.0,0.7133754,0.0,0.0,-0.001
52408000,0.0,0.7007988,0.0,0.0,0.71335906,0.0,0.0,-0.001
52456000,0.0,0.7007728,0.0,0.0,0.7133845,0.0,0.0,-0.001
52512000,0.0,0.7008961,0.0,0.0,0.7132634,0.0,0.0,-0.001
52560000,0.0,0.7009921,0.0,0.0,0.7131691,0.0,0.0,-0.001
52608000,0.0,0.7010599,0.0,0.0,0.7131024,0.0,0.0,-0.001
52656000,0.0,0.7010548,0.0,0.0,0.7131074,0.0,0.0,-0.001
52712000,0.0,0.7010752,0.0,0.0,0.71308744,0.0,0.0,-0.001
52760000,0.0,0.70119506,0.0,0.0,0.7129695,0.0,0.0,-0.001
52808000,0.0,0.7011142,0.0,0.0,0.7130491,0.0,0.0,-0.001
52856000,0.0,0.70117396,0.0,0.0,0.71299034,0.0,0.0,-0.001
52912000,0.0,0.701256,0.0,0.0,0.7129096,0.0,0.0,-0.001
52960000,0.0,0.70127666,0.0,0.0,0.71288925,0.0,0.0,-0.001
53008000,0.0,0.7011037,0.0,0.0,0.71305937,0.0,0.0,-0.001
53056000,0.0,0.7011628,0.0,0.0,0.7130012,0.0,0.0,-0.001
53112000,0.0,0.7011075,0.0,0.0,0.7130556,0.0,0.0,-0.001
53160000,0.0,0.701046,0.0,0.0,0.71311605,0.0,0.0,-0.001
53208000,0.0,0.7010349,0.0,0.0,0.71312696,0.0,0.0,-0.001
53256000,0.0,0.7010588,0.0,0.0,0.7131035,0.0,0.0,-0.001
53304000,0.0,0.70101416,0.0,0.0,0.71314746,0.0,0.0,-0.001
53360000,0.0,0.70101947,0.0,0.0,0.7131422,0.0,0.0,-0.001
53408000,0.0,0.70109046,0.0,0.0,0.7130724,0.0,0.0,-0.001
53464000,0.0,0.7011449,0.0,0.0,0.71301883,0.0,0.0,-0.001
53504000,0.0,0.7011804,0.0,0.0,0.71298397,0.0,0.0,-0.001
53560000,0.0,0.7011848,0.0,0.0,0.7129796,0.0,0.0,-0.001
53608000,0.0,0.70119315,0.0,0.0,0.7129714,0.0,0.0,-0.001
53656000,0.0,0.70117724,0.0,0.0,0.712987,0.0,0.0,-0.001
53712000,0.0,0.7010557,0.0,0.0,0.7131066,0.0,0.0,-0.001
53760000,0.0,0.7011494,0.0,0.0,0.7130145,0.0,0.0,-0.001
53808000,0.0,0.7011511,0.0,0.0,0.7130128,0.0,0.0,-0.001
53864000,0.0,0.7011565,0.0,0.0,0.71300745,0.0,0.0,-0.001
53904000,0.0,0.70108694,0.0,0.0,0.7130759,0.0,0.0,-0.001
53960000,0.0,0.70103425,0.0,0.0,0.7131277,0.0,0.0,-0.001
54008000,0.0,0.7010413,0.0,0.0,0.7131207,0.0,0.0,-0.001
54064000,0.0,0.70106214,0.0,0.0,0.7131002,0.0,0.0,-0.001
54112000,0.0,0.70114756,0.0,0.0,0.7130162,0.0,0.0,-0.001
54160000,0.0,0.7012366,0.0,0.0,0.7129287,0.0,0.0,-0.001
54208000,0.0,0.70132047,0.0,0.0,0.71284616,0.0,0.0,-0.001
54264000,0.0,0.7014331,0.0,0.0,0.71273524,0.0,0.0,-0.001
54312000,0.0,0.7014745,0.0,0.0,0.7126946,0.0,0.0,-0.001
54360000,0.0,0.701491,0.0,0.0,0.71267843,0.0,0.0,-0.001
54408000,0.0,0.7014333,0.0,0.0,0.71273506,0.0,0.0,-0.001
54464000,0.0,0.70148087,0.0,0.0,0.71268827,0.0,0.0,-0.001
54504000,0.0,0.7015097,0.0,0.0,0.71266,0.0,0.0,-0.001
54560000,0.0,0.7016533,0.0,0.0,0.71251863,0.0,0.0,-0.001
54608000,0.0,0.7017333,0.0,0.0,0.7124398,0.0,0.0,-0.001
54664000,0.0,0.70187736,0.0,0.0,0.71229786,0.0,0.0,-0.001
54712000,0.0,0.702012,0.0,0.0,0.7121652,0.0,0.0,-0.001
54760000,0.0,0.70201105,0.0,0.0,0.7121661,0.0,0.0,-0.001
54808000,0.0,0.70202905,0.0,0.0,0.7121483,0.0,0.0,-0.001
54856000,0.0,0.70212257,0.0,0.0,0.7120561,0.0,0.0,-0.001
54912000,0.0,0.70207834,0.0,0.0,0.71209973,0.0,0.0,-0.001
54960000,0.0,0.7019814,0.0,0.0,0.7121953,0.0,0.0,-0.001
55008000,0.0,0.70206654,0.0,0.0,0.7121114,0.0,0.0,-0.001
55056000,0.0,0.70204604,0.0,0.0,0.7121316,0.0,0.0,-0.001
55112000,0.0,0.7020912,0.0,0.0,0.71208704,0.0,0.0,-0.001
55160000,0.0,0.70219,0.0,0.0,0.71198964,0.0,0.0,-0.001
55208000,0.0,0.7022116,0.0,0.0,0.7119683,0.0,0.0,-0.001
55256000,0.0,0.70214224,0.0,0.0,0.7120367,0.0,0.0,-0.001
