timestamp,data_rate,rate_multiplier,tx_rate_avg,tx_error_rate_avg,tx_message_count,tx_buffer_overruns,rx_rate_avg,rx_message_count,rx_message_lost_count,rx_buffer_overruns,rx_parse_errors,rx_packet_drop_count,rx_message_lost_rate,type,mode,flow_control,forwarding,mavlink_v2,ftp,streams,heartbeat_type_antenna_tracker,heartbeat_type_gcs,heartbeat_type_onboard_controller,heartbeat_type_gimbal,heartbeat_type_adsb,heartbeat_type_camera,heartbeat_type_parachute,heartbeat_type_open_drone_id,heartbeat_component_telemetry_radio,heartbeat_component_log,heartbeat_component_osd,heartbeat_component_vio,heartbeat_component_pairing_manager,heartbeat_component_udp_bridge,heartbeat_component_uart_bridge,open_drone_id_system_healthy,parachute_system_healthy
1252000,4000.0,0.16025728,0.0,0.0,0,0,0.0,0,0,0,0,0,0.0,0,2,0,1,1,1,61,0,0,0,0,0,0,0,0,0,0,0,0,0,0,0,0,0
2516000,4000.0,0.1386454,3027.8884,0.0,76,0,0.0,0,0,0,0,0,0.0,0,2,0,1,1,1,61,0,0,0,0,0,0,0,0,0,0,0,0,0,0,0,0,0
3768000,4000.0,0.1386454,3530.8767,0.0,151,0,0.0,0,0,0,0,0,0.0,0,2,0,1,1,1,61,0,0,0,0,0,0,0,0,0,0,0,0,0,0,0,0,0
5028000,4000.0,0.1386454,4025.8965,0.0,239,0,0.0,0,0,0,0,0,0.0,0,2,0,1,1,1,61,0,0,0,0,0,0,0,0,0,0,0,0,0,0,0,0,0
6028000,4000.0,0.1386454,3376.4941,0.0,296,0,0.0,0,0,0,0,0,0.0,0,2,0,1,1,1,61,0,0,0,0,0,0,0,0,0,0,0,0,0,0,0,0,0
6280000,4000.0,0.1386454,3950.1992,0.0,325,0,0.0,0,0,0,0,0,0.0,0,2,0,1,1,1,61,0,0,0,0,0,0,0,0,0,0,0,0,0,0,0,0,0
7532000,4000.0,0.1386454,3668.327,0.0,402,0,0.0,0,0,0,0,0,0.0,0,2,0,1,1,1,61,0,0,0,0,0,0,0,0,0,0,0,0,0,0,0,0,0
8784000,4000.0,0.1386454,3357.5698,0.0,490,0,0.0,0,0,0,0,0,0.0,0,2,0,1,1,1,61,0,0,0,0,0,0,0,0,0,0,0,0,0,0,0,0,0
10036000,4000.0,0.1386454,4376.494,0.0,567,0,0.0,0,0,0,0,0,0.0,0,2,0,1,1,1,61,0,0,0,0,0,0,0,0,0,0,0,0,0,0,0,0,0
11036000,4000.0,0.1386454,3423.307,0.0,624,0,0.0,0,0,0,0,0,0.0,0,2,0,1,1,1,61,0,0,0,0,0,0,0,0,0,0,0,0,0,0,0,0,0
11296000,4000.0,0.1386454,3323.7053,0.0,640,0,0.0,0,0,0,0,0,0.0,0,2,0,1,1,1,61,0,0,0,0,0,0,0,0,0,0,0,0,0,0,0,0,0
12552000,4000.0,0.1386454,3740.04,0.0,716,0,0.0,0,0,0,0,0,0.0,0,2,0,1,1,1,61,0,0,0,0,0,0,0,0,0,0,0,0,0,0,0,0,0
13812000,4000.0,0.1386454,3365.5378,0.0,794,0,0.0,0,0,0,0,0,0.0,0,2,0,1,1,1,61,0,0,0,0,0,0,0,0,0,0,0,0,0,0,0,0,0
15072000,4000.0,0.1386454,3813.745,0.0,875,0,0.0,0,0,0,0,0,0.0,0,2,0,1,1,1,61,0,0,0,0,0,0,0,0,0,0,0,0,0,0,0,0,0
16072000,4000.0,0.1386454,3609.5618,0.0,945,0,0.0,0,0,0,0,0,0.0,0,2,0,1,1,1,61,0,0,0,0,0,0,0,0,0,0,0,0,0,0,0,0,0
16332000,4000.0,0.1386454,3902.3906,0.0,959,0,0.0,0,0,0,0,0,0.0,0,2,0,1,1,1,61,0,0,0,0,0,0,0,0,0,0,0,0,0,0,0,0,0
17592000,4000.0,0.1386454,3758.9644,0.0,1038,0,0.0,0,0,0,0,0,0.0,0,2,0,1,1,1,61,0,0,0,0,0,0,0,0,0,0,0,0,0,0,0,0,0
18848000,4000.0,0.1386454,3381.474,0.0,1115,0,0.0,0,0,0,0,0,0.0,0,2,0,1,1,1,61,0,0,0,0,0,0,0,0,0,0,0,0,0,0,0,0,0
20104000,4000.0,0.1386454,3771.9124,0.0,1197,0,0.0,0,0,0,0,0,0.0,0,2,0,1,1,1,61,0,0,0,0,0,0,0,0,0,0,0,0,0,0,0,0,0
21104000,4000.0,0.1386454,3730.0798,0.0,1253,0,0.0,0,0,0,0,0,0.0,0,2,0,1,1,1,61,0,0,0,0,0,0,0,0,0,0,0,0,0,0,0,0,0
21364000,4000.0,0.1386454,3326.6934,0.0,1265,0,0.0,0,0,0,0,0,0.0,0,2,0,1,1,1,61,0,0,0,0,0,0,0,0,0,0,0,0,0,0,0,0,0
22620000,4000.0,0.1386454,3826.6934,0.0,1346,0,0.0,0,0,0,0,0,0.0,0,2,0,1,1,1,61,0,0,0,0,0,0,0,0,0,0,0,0,0,0,0,0,0
23880000,4000.0,0.1386454,3579.6814,0.0,1430,0,0.0,0,0,0,0,0,0.0,0,2,0,1,1,1,61,0,0,0,0,0,0,0,0,0,0,0,0,0,0,0,0,0
25140000,4000.0,0.1386454,3813.745,0.0,1511,0,0.0,0,0,0,0,0,0.0,0,2,0,1,1,1,61,0,0,0,0,0,0,0,0,0,0,0,0,0,0,0,0,0
26140000,4000.0,0.1386454,3339.6416,0.0,1569,0,0.0,0,0,0,0,0,0.0,0,2,0,1,1,1,61,0,0,0,0,0,0,0,0,0,0,0,0,0,0,0,0,0
26392000,4000.0,0.1386454,3730.0798,0.0,1583,0,0.0,0,0,0,0,0,0.0,0,2,0,1,1,1,61,0,0,0,0,0,0,0,0,0,0,0,0,0,0,0,0,0
27644000,4000.0,0.1386454,3758.9644,0.0,1661,0,0.0,0,0,0,0,0,0.0,0,2,0,1,1,1,61,0,0,0,0,0,0,0,0,0,0,0,0,0,0,0,0,0
28900000,4000.0,0.1386454,3394.4224,0.0,1741,0,0.0,0,0,0,0,0,0.0,0,2,0,1,1,1,61,0,0,0,0,0,0,0,0,0,0,0,0,0,0,0,0,0
30156000,4000.0,0.1386454,3758.9644,0.0,1828,0,0.0,0,0,0,0,0,0.0,0,2,0,1,1,1,61,0,0,0,0,0,0,0,0,0,0,0,0,0,0,0,0,0
31156000,4000.0,0.1386454,3889.4424,0.0,1887,0,0.0,0,0,0,0,0,0.0,0,2,0,1,1,1,61,0,0,0,0,0,0,0,0,0,0,0,0,0,0,0,0,0
31408000,4000.0,0.1386454,3339.6416,0.0,1900,0,0.0,0,0,0,0,0,0.0,0,2,0,1,1,1,61,0,0,0,0,0,0,0,0,0,0,0,0,0,0,0,0,0
32664000,4000.0,0.1386454,4096.614,0.0,1980,0,0.0,0,0,0,0,0,0.0,0,2,0,1,1,1,61,0,0,0,0,0,0,0,0,0,0,0,0,0,0,0,0,0
33920000,4000.0,0.1386454,3392.4304,0.0,2057,0,0.0,0,0,0,0,0,0.0,0,2,0,1,1,1,61,0,0,0,0,0,0,0,0,0,0,0,0,0,0,0,0,0
35176000,4000.0,0.1386454,3394.4224,0.0,2137,0,0.0,0,0,0,0,0,0.0,0,2,0,1,1,1,61,0,0,0,0,0,0,0,0,0,0,0,0,0,0,0,0,0
36176000,4000.0,0.1386454,3758.9644,0.0,2193,0,0.0,0,0,0,0,0,0.0,0,2,0,1,1,1,61,0,0,0,0,0,0,0,0,0,0,0,0,0,0,0,0,0
36428000,4000.0,0.1386454,3407.3706,0.0,2210,0,0.0,0,0,0,0,0,0.0,0,2,0,1,1,1,61,0,0,0,0,0,0,0,0,0,0,0,0,0,0,0,0,0
37680000,4000.0,0.1386454,4251.992,0.0,2296,0,0.0,0,0,0,0,0,0.0,0,2,0,1,1,1,61,0,0,0,0,0,0,0,0,0,0,0,0,0,0,0,0,0
38932000,4000.0,0.1386454,3341.6335,0.0,2374,0,0.0,0,0,0,0,0,0.0,0,2,0,1,1,1,61,0,0,0,0,0,0,0,0,0,0,0,0,0,0,0,0,0
40192000,4000.0,0.1386454,3392.4304,0.0,2449,0,0.0,0,0,0,0,0,0.0,0,2,0,1,1,1,61,0,0,0,0,0,0,0,0,0,0,0,0,0,0,0,0,0
41192000,4000.0,0.1386454,3826.6934,0.0,2509,0,0.0,0,0,0,0,0,0.0,0,2,0,1,1,1,61,0,0,0,0,0,0,0,0,0,0,0,0,0,0,0,0,0
41444000,4000.0,0.1386454,3326.6934,0.0,2522,0,0.0,0,0,0,0,0,0.0,0,2,0,1,1,1,61,0,0,0,0,0,0,0,0,0,0,0,0,0,0,0,0,0
42700000,4000.0,0.1386454,3813.745,0.0,2603,0,0.0,0,0,0,0,0,0.0,0,2,0,1,1,1,61,0,0,0,0,0,0,0,0,0,0,0,0,0,0,0,0,0
43952000,4000.0,0.1386454,3688.247,0.0,2681,0,0.0,0,0,0,0,0,0.0,0,2,0,1,1,1,61,0,0,0,0,0,0,0,0,0,0,0,0,0,0,0,0,0
44952000,4000.0,0.1386454,3381.474,0.0,2750,0,0.0,0,0,0,0,0,0.0,0,2,0,1,1,1,61,0,0,0,0,0,0,0,0,0,0,0,0,0,0,0,0,0
45212000,4000.0,0.1386454,3381.474,0.0,2763,0,0.0,0,0,0,0,0,0.0,0,2,0,1,1,1,61,0,0,0,0,0,0,0,0,0,0,0,0,0,0,0,0,0
46468000,4000.0,0.1386454,3460.1594,0.0,2842,0,0.0,0,0,0,0,0,0.0,0,2,0,1,1,1,61,0,0,0,0,0,0,0,0,0,0,0,0,0,0,0,0,0
47728000,4000.0,0.1386454,3758.9644,0.0,2924,0,0.0,0,0,0,0,0,0.0,0,2,0,1,1,1,61,0,0,0,0,0,0,0,0,0,0,0,0,0,0,0,0,0
48988000,4000.0,0.1386454,3297.8088,0.0,3001,0,0.0,0,0,0,0,0,0.0,0,2,0,1,1,1,61,0,0,0,0,0,0,0,0,0,0,0,0,0,0,0,0,0
49988000,4000.0,0.1386454,3688.247,0.0,3059,0,0.0,0,0,0,0,0,0.0,0,2,0,1,1,1,61,0,0,0,0,0,0,0,0,0,0,0,0,0,0,0,0,0
50244000,4000.0,0.1386454,3688.247,0.0,3071,0,0.0,0,0,0,0,0,0.0,0,2,0,1,1,1,61,0,0,0,0,0,0,0,0,0,0,0,0,0,0,0,0,0
51496000,4000.0,0.1386454,3326.6934,0.0,3150,0,0.0,0,0,0,0,0,0.0,0,2,0,1,1,1,61,0,0,0,0,0,0,0,0,0,0,0,0,0,0,0,0,0
52752000,4000.0,0.1386454,4097.61,0.0,3236,0,0.0,0,0,0,0,0,0.0,0,2,0,1,1,1,61,0,0,0,0,0,0,0,0,0,0,0,0,0,0,0,0,0
54004000,4000.0,0.1386454,3392.4304,0.0,3317,0,0.0,0,0,0,0,0,0.0,0,2,0,1,1,1,61,0,0,0,0,0,0,0,0,0,0,0,0,0,0,0,0,0
55004000,4000.0,0.1386454,3664.3428,0.0,3375,0,0.0,0,0,0,0,0,0.0,0,2,0,1,1,1,61,0,0,0,0,0,0,0,0,0,0,0,0,0,0,0,0,0
55260000,4000.0,0.1386454,3664.3428,0.0,3387,0,0.0,0,0,0,0,0,0.0,0,2,0,1,1,1,61,0,0,0,0,0,0,0,0,0,0,0,0,0,0,0,0,0
56524000,4000.0,0.1386454,3447.2112,0.0,3467,0,0.0,0,0,0,0,0,0.0,0,2,0,1,1,1,61,0,0,0,0,0,0,0,0,0,0,0,0,0,0,0,0,0
57776000,4000.0,0.1386454,3693.2273,0.0,3545,0,0.0,0,0,0,0,0,0.0,0,2,0,1,1,1,61,0,0,0,0,0,0,0,0,0,0,0,0,0,0,0,0,0
59028000,4000.0,0.1386454,3460.1594,0.0,3635,0,0.0,0,0,0,0,0,0.0,0,2,0,1,1,1,61,0,0,0,0,0,0,0,0,0,0,0,0,0,0,0,0,0
60028000,4000.0,0.1386454,3834.6614,0.0,3692,0,0.0,0,0,0,0,0,0.0,0,2,0,1,1,1,61,0,0,0,0,0,0,0,0,0,0,0,0,0,0,0,0,0
60284000,4000.0,0.1386454,3834.6614,0.0,3706,0,0.0,0,0,0,0,0,0.0,0,2,0,1,1,1,61,0,0,0,0,0,0,0,0,0,0,0,0,0,0,0,0,0
61536000,4000.0,0.1386454,3354.5818,0.0,3785,0,0.0,0,0,0,0,0,0.0,0,2,0,1,1,1,61,0,0,0,0,0,0,0,0,0,0,0,0,0,0,0,0,0
62796000,4000.0,0.1386454,3318.725,0.0,3865,0,0.0,0,0,0,0,0,0.0,0,2,0,1,1,1,61,0,0,0,0,0,0,0,0,0,0,0,0,0,0,0,0,0
64052000,4000.0,0.1386454,3773.9045,0.0,3941,0,0.0,0,0,0,0,0,0.0,0,2,0,1,1,1,61,0,0,0,0,0,0,0,0,0,0,0,0,0,0,0,0,0
65052000,4000.0,0.1386454,3339.6416,0.0,4002,0,0.0,0,0,0,0,0,0.0,0,2,0,1,1,1,61,0,0,0,0,0,0,0,0,0,0,0,0,0,0,0,0,0
65304000,4000.0,0.1386454,3339.6416,0.0,4015,0,0.0,0,0,0,0,0,0.0,0,2,0,1,1,1,61,0,0,0,0,0,0,0,0,0,0,0,0,0,0,0,0,0
66560000,4000.0,0.1386454,3947.2112,0.0,4101,0,0.0,0,0,0,0,0,0.0,0,2,0,1,1,1,61,0,0,0,0,0,0,0,0,0,0,0,0,0,0,0,0,0
67820000,4000.0,0.1386454,3394.4224,0.0,4179,0,0.0,0,0,0,0,0,0.0,0,2,0,1,1,1,61,0,0,0,0,0,0,0,0,0,0,0,0,0,0,0,0,0
69076000,4000.0,0.1386454,3758.9644,0.0,4258,0,0.0,0,0,0,0,0,0.0,0,2,0,1,1,1,61,0,0,0,0,0,0,0,0,0,0,0,0,0,0,0,0,0
70076000,4000.0,0.1386454,3447.2112,0.0,4313,0,0.0,0,0,0,0,0,0.0,0,2,0,1,1,1,61,0,0,0,0,0,0,0,0,0,0,0,0,0,0,0,0,0
70336000,4000.0,0.1386454,3447.2112,0.0,4330,0,0.0,0,0,0,0,0,0.0,0,2,0,1,1,1,61,0,0,0,0,0,0,0,0,0,0,0,0,0,0,0,0,0
71596000,4000.0,0.1386454,3664.3428,0.0,4410,0,0.0,0,0,0,0,0,0.0,0,2,0,1,1,1,61,0,0,0,0,0,0,0,0,0,0,0,0,0,0,0,0,0
72852000,4000.0,0.1386454,3447.2112,0.0,4486,0,0.0,0,0,0,0,0,0.0,0,2,0,1,1,1,61,0,0,0,0,0,0,0,0,0,0,0,0,0,0,0,0,0
74112000,4000.0,0.1386454,4131.474,0.0,4577,0,0.0,0,0,0,0,0,0.0,0,2,0,1,1,1,61,0,0,0,0,0,0,0,0,0,0,0,0,0,0,0,0,0
75112000,4000.0,0.1386454,3381.474,0.0,4635,0,0.0,0,0,0,0,0,0.0,0,2,0,1,1,1,61,0,0,0,0,0,0,0,0,0,0,0,0,0,0,0,0,0
75372000,4000.0,0.1386454,3381.474,0.0,4652,0,0.0,0,0,0,0,0,0.0,0,2,0,1,1,1,61,0,0,0,0,0,0,0,0,0,0,0,0,0,0,0,0,0
76632000,4000.0,0.1386454,3460.1594,0.0,4730,0,0.0,0,0,0,0,0,0.0,0,2,0,1,1,1,61,0,0,0,0,0,0,0,0,0,0,0,0,0,0,0,0,0
77888000,4000.0,0.1386454,3609.5618,0.0,4808,0,0.0,0,0,0,0,0,0.0,0,2,0,1,1,1,61,0,0,0,0,0,0,0,0,0,0,0,0,0,0,0,0,0
79148000,4000.0,0.1386454,3813.745,0.0,4886,0,0.0,0,0,0,0,0,0.0,0,2,0,1,1,1,61,0,0,0,0,0,0,0,0,0,0,0,0,0,0,0,0,0
80148000,4000.0,0.1386454,3405.3787,0.0,4944,0,0.0,0,0,0,0,0,0.0,0,2,0,1,1,1,61,0,0,0,0,0,0,0,0,0,0,0,0,0,0,0,0,0
80404000,4000.0,0.1386454,3405.3787,0.0,4958,0,0.0,0,0,0,0,0,0.0,0,2,0,1,1,1,61,0,0,0,0,0,0,0,0,0,0,0,0,0,0,0,0,0
81664000,4000.0,0.1386454,3664.3428,0.0,5043,0,0.0,0,0,0,0,0,0.0,0,2,0,1,1,1,61,0,0,0,0,0,0,0,0,0,0,0,0,0,0,0,0,0
82924000,4000.0,0.1386454,3460.1594,0.0,5124,0,0.0,0,0,0,0,0,0.0,0,2,0,1,1,1,61,0,0,0,0,0,0,0,0,0,0,0,0,0,0,0,0,0
84180000,4000.0,0.1386454,4041.8328,0.0,5202,0,0.0,0,0,0,0,0,0.0,0,2,0,1,1,1,61,0,0,0,0,0,0,0,0,0,0,0,0,0,0,0,0,0
85180000,4000.0,0.1386454,3381.474,0.0,5260,0,0.0,0,0,0,0,0,0.0,0,2,0,1,1,1,61,0,0,0,0,0,0,0,0,0,0,0,0,0,0,0,0,0
85432000,4000.0,0.1386454,3381.474,0.0,5274,0,0.0,0,0,0,0,0,0.0,0,2,0,1,1,1,61,0,0,0,0,0,0,0,0,0,0,0,0,0,0,0,0,0
86684000,4000.0,0.1386454,3773.9045,0.0,5354,0,0.0,0,0,0,0,0,0.0,0,2,0,1,1,1,61,0,0,0,0,0,0,0,0,0,0,0,0,0,0,0,0,0
87944000,4000.0,0.1386454,3252.988,0.0,5442,0,0.0,0,0,0,0,0,0.0,0,2,0,1,1,1,61,0,0,0,0,0,0,0,0,0,0,0,0,0,0,0,0,0
89208000,4000.0,0.1386454,4512.948,0.0,5513,0,0.0,0,0,0,0,0,0.0,0,2,0,1,1,1,61,0,0,0,0,0,0,0,0,0,0,0,0,0,0,0,0,0
90208000,4000.0,0.1386454,3392.4304,0.0,5580,0,0.0,0,0,0,0,0,0.0,0,2,0,1,1,1,61,0,0,0,0,0,0,0,0,0,0,0,0,0,0,0,0,0
90460000,4000.0,0.1386454,3392.4304,0.0,5591,0,0.0,0,0,0,0,0,0.0,0,2,0,1,1,1,61,0,0,0,0,0,0,0,0,0,0,0,0,0,0,0,0,0
91712000,4000.0,0.1386454,3771.9124,0.0,5670,0,0.0,0,0,0,0,0,0.0,0,2,0,1,1,1,61,0,0,0,0,0,0,0,0,0,0,0,0,0,0,0,0,0
92972000,4000.0,0.1386454,3447.2112,0.0,5751,0,0.0,0,0,0,0,0,0.0,0,2,0,1,1,1,61,0,0,0,0,0,0,0,0,0,0,0,0,0,0,0,0,0
93972000,4000.0,0.1386454,3758.9644,0.0,5809,0,0.0,0,0,0,0,0,0.0,0,2,0,1,1,1,61,0,0,0,0,0,0,0,0,0,0,0,0,0,0,0,0,0
94232000,4000.0,0.1386454,3758.9644,0.0,5821,0,0.0,0,0,0,0,0,0.0,0,2,0,1,1,1,61,0,0,0,0,0,0,0,0,0,0,0,0,0,0,0,0,0
95488000,4000.0,0.1386454,3677.291,0.0,5909,0,0.0,0,0,0,0,0,0.0,0,2,0,1,1,1,61,0,0,0,0,0,0,0,0,0,0,0,0,0,0,0,0,0
96740000,4000.0,0.1386454,3813.745,0.0,5986,0,0.0,0,0,0,0,0,0.0,0,2,0,1,1,1,61,0,0,0,0,0,0,0,0,0,0,0,0,0,0,0,0,0
98000000,4000.0,0.1386454,3339.6416,0.0,6068,0,0.0,0,0,0,0,0,0.0,0,2,0,1,1,1,61,0,0,0,0,0,0,0,0,0,0,0,0,0,0,0,0,0
99000000,4000.0,0.1386454,3730.0798,0.0,6124,0,0.0,0,0,0,0,0,0.0,0,2,0,1,1,1,61,0,0,0,0,0,0,0,0,0,0,0,0,0,0,0,0,0
99260000,4000.0,0.1386454,3730.0798,0.0,6137,0,0.0,0,0,0,0,0,0.0,0,2,0,1,1,1,61,0,0,0,0,0,0,0,0,0,0,0,0,0,0,0,0,0
100516000,4000.0,0.1386454,3392.4304,0.0,6218,0,0.0,0,0,0,0,0,0.0,0,2,0,1,1,1,61,0,0,0,0,0,0,0,0,0,0,0,0,0,0,0,0,0
101776000,4000.0,0.1386454,3758.9644,0.0,6295,0,0.0,0,0,0,0,0,0.0,0,2,0,1,1,1,61,0,0,0,0,0,0,0,0,0,0,0,0,0,0,0,0,0
103032000,4000.0,0.1386454,3890.4385,0.0,6385,0,0.0,0,0,0,0,0,0.0,0,2,0,1,1,1,61,0,0,0,0,0,0,0,0,0,0,0,0,0,0,0,0,0
104032000,4000.0,0.1386454,3706.1753,0.0,6443,0,0.0,0,0,0,0,0,0.0,0,2,0,1,1,1,61,0,0,0,0,0,0,0,0,0,0,0,0,0,0,0,0,0
104292000,4000.0,0.1386454,3706.1753,0.0,6459,0,0.0,0,0,0,0,0,0.0,0,2,0,1,1,1,61,0,0,0,0,0,0,0,0,0,0,0,0,0,0,0,0,0
105548000,4000.0,0.1386454,3447.2112,0.0,6536,0,0.0,0,0,0,0,0,0.0,0,2,0,1,1,1,61,0,0,0,0,0,0,0,0,0,0,0,0,0,0,0,0,0
106808000,4000.0,0.1386454,3826.6934,0.0,6616,0,0.0,0,0,0,0,0,0.0,0,2,0,1,1,1,61,0,0,0,0,0,0,0,0,0,0,0,0,0,0,0,0,0
108064000,4000.0,0.1386454,3326.6934,0.0,6692,0,0.0,0,0,0,0,0,0.0,0,2,0,1,1,1,61,0,0,0,0,0,0,0,0,0,0,0,0,0,0,0,0,0
109064000,4000.0,0.1386454,3447.2112,0.0,6751,0,0.0,0,0,0,0,0,0.0,0,2,0,1,1,1,61,0,0,0,0,0,0,0,0,0,0,0,0,0,0,0,0,0
109316000,4000.0,0.1386454,3447.2112,0.0,6767,0,0.0,0,0,0,0,0,0.0,0,2,0,1,1,1,61,0,0,0,0,0,0,0,0,0,0,0,0,0,0,0,0,0
110572000,4000.0,0.1386454,4043.8247,0.0,6852,0,0.0,0,0,0,0,0,0.0,0,2,0,1,1,1,61,0,0,0,0,0,0,0,0,0,0,0,0,0,0,0,0,0
111832000,4000.0,0.1386454,4056.773,0.0,6929,0,0.0,0,0,0,0,0,0.0,0,2,0,1,1,1,61,0,0,0,0,0,0,0,0,0,0,0,0,0,0,0,0,0
113092000,4000.0,0.1386454,3331.6733,0.0,7008,0,0.0,0,0,0,0,0,0.0,0,2,0,1,1,1,61,0,0,0,0,0,0,0,0,0,0,0,0,0,0,0,0,0
114092000,4000.0,0.1386454,3341.6335,0.0,7069,0,0.0,0,0,0,0,0,0.0,0,2,0,1,1,1,61,0,0,0,0,0,0,0,0,0,0,0,0,0,0,0,0,0
114352000,4000.0,0.1386454,3341.6335,0.0,7082,0,0.0,0,0,0,0,0,0.0,0,2,0,1,1,1,61,0,0,0,0,0,0,0,0,0,0,0,0,0,0,0,0,0
115608000,4000.0,0.1386454,3758.9644,0.0,7162,0,0.0,0,0,0,0,0,0.0,0,2,0,1,1,1,61,0,0,0,0,0,0,0,0,0,0,0,0,0,0,0,0,0
116860000,4000.0,0.1386454,4202.1914,0.0,7249,0,0.0,0,0,0,0,0,0.0,0,2,0,1,1,1,61,0,0,0,0,0,0,0,0,0,0,0,0,0,0,0,0,0
118116000,4000.0,0.1386454,3664.3428,0.0,7329,0,0.0,0,0,0,0,0,0.0,0,2,0,1,1,1,61,0,0,0,0,0,0,0,0,0,0,0,0,0,0,0,0,0
119116000,4000.0,0.1386454,3405.3787,0.0,7384,0,0.0,0,0,0,0,0,0.0,0,2,0,1,1,1,61,0,0,0,0,0,0,0,0,0,0,0,0,0,0,0,0,0
119376000,4000.0,0.1386454,3405.3787,0.0,7402,0,0.0,0,0,0,0,0,0.0,0,2,0,1,1,1,61,0,0,0,0,0,0,0,0,0,0,0,0,0,0,0,0,0
120632000,4000.0,0.1386454,3813.745,0.0,7479,0,0.0,0,0,0,0,0,0.0,0,2,0,1,1,1,61,0,0,0,0,0,0,0,0,0,0,0,0,0,0,0,0,0
121904000,4000.0,0.1386454,3826.6934,0.0,7558,0,0.0,0,0,0,0,0,0.0,0,2,0,1,1,1,61,0,0,0,0,0,0,0,0,0,0,0,0,0,0,0,0,0
123160000,4000.0,0.1386454,3675.2988,0.0,7635,0,0.0,0,0,0,0,0,0.0,0,2,0,1,1,1,61,0,0,0,0,0,0,0,0,0,0,0,0,0,0,0,0,0
124160000,4000.0,0.1386454,3381.474,0.0,7701,0,0.0,0,0,0,0,0,0.0,0,2,0,1,1,1,61,0,0,0,0,0,0,0,0,0,0,0,0,0,0,0,0,0
124412000,4000.0,0.1386454,3381.474,0.0,7716,0,0.0,0,0,0,0,0,0.0,0,2,0,1,1,1,61,0,0,0,0,0,0,0,0,0,0,0,0,0,0,0,0,0
125660000,4000.0,0.1386454,3960.1594,0.0,7795,0,0.0,0,0,0,0,0,0.0,0,2,0,1,1,1,61,0,0,0,0,0,0,0,0,0,0,0,0,0,0,0,0,0
126924000,4000.0,0.1386454,3758.9644,0.0,7875,0,0.0,0,0,0,0,0,0.0,0,2,0,1,1,1,61,0,0,0,0,0,0,0,0,0,0,0,0,0,0,0,0,0
128180000,4000.0,0.1386454,3394.4224,0.0,7951,0,0.0,0,0,0,0,0,0.0,0,2,0,1,1,1,61,0,0,0,0,0,0,0,0,0,0,0,0,0,0,0,0,0
129180000,4000.0,0.1386454,3675.2988,0.0,8009,0,0.0,0,0,0,0,0,0.0,0,2,0,1,1,1,61,0,0,0,0,0,0,0,0,0,0,0,0,0,0,0,0,0
129432000,4000.0,0.1386454,3675.2988,0.0,8024,0,0.0,0,0,0,0,0,0.0,0,2,0,1,1,1,61,0,0,0,0,0,0,0,0,0,0,0,0,0,0,0,0,0
130684000,4000.0,0.1386454,3813.745,0.0,8104,0,0.0,0,0,0,0,0,0.0,0,2,0,1,1,1,61,0,0,0,0,0,0,0,0,0,0,0,0,0,0,0,0,0
131944000,4000.0,0.1386454,4256.972,0.0,8192,0,0.0,0,0,0,0,0,0.0,0,2,0,1,1,1,61,0,0,0,0,0,0,0,0,0,0,0,0,0,0,0,0,0
133200000,4000.0,0.1386454,3392.4304,0.0,8263,0,0.0,0,0,0,0,0,0.0,0,2,0,1,1,1,61,0,0,0,0,0,0,0,0,0,0,0,0,0,0,0,0,0
134200000,4000.0,0.1386454,3394.4224,0.0,8331,0,0.0,0,0,0,0,0,0.0,0,2,0,1,1,1,61,0,0,0,0,0,0,0,0,0,0,0,0,0,0,0,0,0
134460000,4000.0,0.1386454,3394.4224,0.0,8343,0,0.0,0,0,0,0,0,0.0,0,2,0,1,1,1,61,0,0,0,0,0,0,0,0,0,0,0,0,0,0,0,0,0
135716000,4000.0,0.1386454,4041.8328,0.0,8423,0,0.0,0,0,0,0,0,0.0,0,2,0,1,1,1,61,0,0,0,0,0,0,0,0,0,0,0,0,0,0,0,0,0
136976000,4000.0,0.1386454,3299.8008,0.0,8503,0,0.0,0,0,0,0,0,0.0,0,2,0,1,1,1,61,0,0,0,0,0,0,0,0,0,0,0,0,0,0,0,0,0
137976000,4000.0,0.1386454,3740.04,0.0,8559,0,0.0,0,0,0,0,0,0.0,0,2,0,1,1,1,61,0,0,0,0,0,0,0,0,0,0,0,0,0,0,0,0,0
138236000,4000.0,0.1386454,3740.04,0.0,8571,0,0.0,0,0,0,0,0,0.0,0,2,0,1,1,1,61,0,0,0,0,0,0,0,0,0,0,0,0,0,0,0,0,0
139496000,4000.0,0.1386454,3624.5022,0.0,8658,0,0.0,0,0,0,0,0,0.0,0,2,0,1,1,1,61,0,0,0,0,0,0,0,0,0,0,0,0,0,0,0,0,0
140752000,4000.0,0.1386454,4109.562,0.0,8736,0,0.0,0,0,0,0,0,0.0,0,2,0,1,1,1,61,0,0,0,0,0,0,0,0,0,0,0,0,0,0,0,0,0
142012000,4000.0,0.1386454,3447.2112,0.0,8817,0,0.0,0,0,0,0,0,0.0,0,2,0,1,1,1,61,0,0,0,0,0,0,0,0,0,0,0,0,0,0,0,0,0
143012000,4000.0,0.1386454,3771.9124,0.0,8877,0,0.0,0,0,0,0,0,0.0,0,2,0,1,1,1,61,0,0,0,0,0,0,0,0,0,0,0,0,0,0,0,0,0
143268000,4000.0,0.1386454,3771.9124,0.0,8888,0,0.0,0,0,0,0,0,0.0,0,2,0,1,1,1,61,0,0,0,0,0,0,0,0,0,0,0,0,0,0,0,0,0
144524000,4000.0,0.1386454,3381.474,0.0,8968,0,0.0,0,0,0,0,0,0.0,0,2,0,1,1,1,61,0,0,0,0,0,0,0,0,0,0,0,0,0,0,0,0,0
145776000,4000.0,0.1386454,3758.9644,0.0,9058,0,0.0,0,0,0,0,0,0.0,0,2,0,1,1,1,61,0,0,0,0,0,0,0,0,0,0,0,0,0,0,0,0,0
147036000,4000.0,0.1386454,3326.6934,0.0,9138,0,0.0,0,0,0,0,0,0.0,0,2,0,1,1,1,61,0,0,0,0,0,0,0,0,0,0,0,0,0,0,0,0,0
148036000,4000.0,0.1386454,3813.745,0.0,9193,0,0.0,0,0,0,0,0,0.0,0,2,0,1,1,1,61,0,0,0,0,0,0,0,0,0,0,0,0,0,0,0,0,0
148292000,4000.0,0.1386454,3813.745,0.0,9207,0,0.0,0,0,0,0,0,0.0,0,2,0,1,1,1,61,0,0,0,0,0,0,0,0,0,0,0,0,0,0,0,0,0
149548000,4000.0,0.1386454,3405.3787,0.0,9285,0,0.0,0,0,0,0,0,0.0,0,2,0,1,1,1,61,0,0,0,0,0,0,0,0,0,0,0,0,0,0,0,0,0
150808000,4000.0,0.1386454,3730.0798,0.0,9365,0,0.0,0,0,0,0,0,0.0,0,2,0,1,1,1,61,0,0,0,0,0,0,0,0,0,0,0,0,0,0,0,0,0
152056000,4000.0,0.1386454,3743.028,0.0,9442,0,0.0,0,0,0,0,0,0.0,0,2,0,1,1,1,61,0,0,0,0,0,0,0,0,0,0,0,0,0,0,0,0,0
153056000,4000.0,0.1386454,4030.8767,0.0,9510,0,0.0,0,0,0,0,0,0.0,0,2,0,1,1,1,61,0,0,0,0,0,0,0,0,0,0,0,0,0,0,0,0,0
153316000,4000.0,0.1386454,4030.8767,0.0,9525,0,0.0,0,0,0,0,0,0.0,0,2,0,1,1,1,61,0,0,0,0,0,0,0,0,0,0,0,0,0,0,0,0,0
154568000,4000.0,0.1386454,3381.474,0.0,9603,0,0.0,0,0,0,0,0,0.0,0,2,0,1,1,1,61,0,0,0,0,0,0,0,0,0,0,0,0,0,0,0,0,0
155820000,4000.0,0.1386454,3771.9124,0.0,9680,0,0.0,0,0,0,0,0,0.0,0,2,0,1,1,1,61,0,0,0,0,0,0,0,0,0,0,0,0,0,0,0,0,0
157080000,4000.0,0.1386454,3326.6934,0.0,9759,0,0.0,0,0,0,0,0,0.0,0,2,0,1,1,1,61,0,0,0,0,0,0,0,0,0,0,0,0,0,0,0,0,0
158080000,4000.0,0.1386454,4109.562,0.0,9818,0,0.0,0,0,0,0,0,0.0,0,2,0,1,1,1,61,0,0,0,0,0,0,0,0,0,0,0,0,0,0,0,0,0
158340000,4000.0,0.1386454,4109.562,0.0,9831,0,0.0,0,0,0,0,0,0.0,0,2,0,1,1,1,61,0,0,0,0,0,0,0,0,0,0,0,0,0,0,0,0,0
159596000,4000.0,0.1386454,3392.4304,0.0,9910,0,0.0,0,0,0,0,0,0.0,0,2,0,1,1,1,61,0,0,0,0,0,0,0,0,0,0,0,0,0,0,0,0,0
160848000,4000.0,0.1386454,3381.474,0.0,9999,0,0.0,0,0,0,0,0,0.0,0,2,0,1,1,1,61,0,0,0,0,0,0,0,0,0,0,0,0,0,0,0,0,0
162100000,4000.0,0.1386454,3407.3706,0.0,10077,0,0.0,0,0,0,0,0,0.0,0,2,0,1,1,1,61,0,0,0,0,0,0,0,0,0,0,0,0,0,0,0,0,0
163100000,4000.0,0.1386454,4022.9084,0.0,10135,0,0.0,0,0,0,0,0,0.0,0,2,0,1,1,1,61,0,0,0,0,0,0,0,0,0,0,0,0,0,0,0,0,0
163360000,4000.0,0.1386454,4022.9084,0.0,10150,0,0.0,0,0,0,0,0,0.0,0,2,0,1,1,1,61,0,0,0,0,0,0,0,0,0,0,0,0,0,0,0,0,0
164616000,4000.0,0.1386454,3299.8008,0.0,10229,0,0.0,0,0,0,0,0,0.0,0,2,0,1,1,1,61,0,0,0,0,0,0,0,0,0,0,0,0,0,0,0,0,0
165876000,4000.0,0.1386454,3447.2112,0.0,10309,0,0.0,0,0,0,0,0,0.0,0,2,0,1,1,1,61,0,0,0,0,0,0,0,0,0,0,0,0,0,0,0,0,0
167132000,4000.0,0.1386454,3394.4224,0.0,10385,0,0.0,0,0,0,0,0,0.0,0,2,0,1,1,1,61,0,0,0,0,0,0,0,0,0,0,0,0,0,0,0,0,0
168132000,4000.0,0.1386454,4030.8767,0.0,10451,0,0.0,0,0,0,0,0,0.0,0,2,0,1,1,1,61,0,0,0,0,0,0,0,0,0,0,0,0,0,0,0,0,0
168384000,4000.0,0.1386454,4030.8767,0.0,10464,0,0.0,0,0,0,0,0,0.0,0,2,0,1,1,1,61,0,0,0,0,0,0,0,0,0,0,0,0,0,0,0,0,0
169640000,4000.0,0.1386454,3730.0798,0.0,10544,0,0.0,0,0,0,0,0,0.0,0,2,0,1,1,1,61,0,0,0,0,0,0,0,0,0,0,0,0,0,0,0,0,0
170900000,4000.0,0.1386454,3339.6416,0.0,10623,0,0.0,0,0,0,0,0,0.0,0,2,0,1,1,1,61,0,0,0,0,0,0,0,0,0,0,0,0,0,0,0,0,0
172160000,4000.0,0.1386454,3392.4304,0.0,10702,0,0.0,0,0,0,0,0,0.0,0,2,0,1,1,1,61,0,0,0,0,0,0,0,0,0,0,0,0,0,0,0,0,0
173160000,4000.0,0.1386454,3826.6934,0.0,10761,0,0.0,0,0,0,0,0,0.0,0,2,0,1,1,1,61,0,0,0,0,0,0,0,0,0,0,0,0,0,0,0,0,0
173420000,4000.0,0.1386454,3826.6934,0.0,10773,0,0.0,0,0,0,0,0,0.0,0,2,0,1,1,1,61,0,0,0,0,0,0,0,0,0,0,0,0,0,0,0,0,0
174676000,4000.0,0.1386454,3326.6934,0.0,10865,0,0.0,0,0,0,0,0,0.0,0,2,0,1,1,1,61,0,0,0,0,0,0,0,0,0,0,0,0,0,0,0,0,0
175936000,4000.0,0.1386454,4089.6416,0.0,10944,0,0.0,0,0,0,0,0,0.0,0,2,0,1,1,1,61,0,0,0,0,0,0,0,0,0,0,0,0,0,0,0,0,0
177196000,4000.0,0.1386454,3381.474,0.0,11013,0,0.0,0,0,0,0,0,0.0,0,2,0,1,1,1,61,0,0,0,0,0,0,0,0,0,0,0,0,0,0,0,0,0
178196000,4000.0,0.1386454,3758.9644,0.0,11080,0,0.0,0,0,0,0,0,0.0,0,2,0,1,1,1,61,0,0,0,0,0,0,0,0,0,0,0,0,0,0,0,0,0
178452000,4000.0,0.1386454,3758.9644,0.0,11091,0,0.0,0,0,0,0,0,0.0,0,2,0,1,1,1,61,0,0,0,0,0,0,0,0,0,0,0,0,0,0,0,0,0
179708000,4000.0,0.1386454,3460.1594,0.0,11170,0,0.0,0,0,0,0,0,0.0,0,2,0,1,1,1,61,0,0,0,0,0,0,0,0,0,0,0,0,0,0,0,0,0
