timestamp,timestamp_sample,baro_device_id,baro_alt_meter,baro_pressure_pa,ambient_temperature,rho,temperature_source,calibration_count
1260000,1236000,6620172,488.0887,95598.195,15.0,1.1555743,0,0
1332000,1308000,6620172,487.85397,95600.85,15.0,1.1556064,0,0
1404000,1380000,6620172,487.6568,95603.09,15.0,1.1556334,0,0
1472000,1450666,6620172,487.4596,95605.37,15.0,1.155661,0,0
1524000,1512000,6620172,487.40326,95606.05,15.0,1.1556692,0,0
1596000,1572000,6620172,487.42203,95605.82,15.0,1.1556665,0,0
1668000,1644000,6620172,487.2765,95607.5,15.0,1.1556867,0,0
1740000,1716000,6620172,487.32346,95606.94,15.0,1.1556801,0,0
1812000,1786666,6620172,487.361,95606.54,15.0,1.1556752,0,0
1884000,1860000,6620172,487.3751,95606.375,15.0,1.1556733,0,0
1956000,1930666,6620172,487.35162,95606.6,15.0,1.1556759,0,0
2028000,2004000,6620172,487.4643,95605.305,15.0,1.1556602,0,0
2100000,2076000,6620172,487.35162,95606.6,15.0,1.1556759,0,0
2172000,2148000,6620172,487.35162,95606.65,15.0,1.1556765,0,0
2244000,2220000,6620172,487.32346,95606.96,15.0,1.1556802,0,0
2316000,2292000,6620172,487.361,95606.51,15.0,1.1556748,0,0
2388000,2364000,6620172,487.31876,95607.0,15.0,1.1556808,0,0
2456000,2434666,6620172,487.2671,95607.586,15.0,1.1556878,0,0
2508000,2496000,6620172,487.2812,95607.39,15.0,1.1556854,0,0
2580000,2556000,6620172,487.40326,95606.04,15.0,1.1556691,0,0
2652000,2628000,6620172,487.39856,95606.07,15.0,1.1556696,0,0
2724000,2700000,6620172,487.3751,95606.35,15.0,1.1556729,0,0
2796000,2772000,6620172,487.44083,95605.625,15.0,1.1556641,0,0
2868000,2844000,6620172,487.34222,95606.75,15.0,1.1556777,0,0
2940000,2916000,6620172,487.3798,95606.28,15.0,1.1556721,0,0
3012000,2988000,6620172,487.31876,95606.99,15.0,1.1556807,0,0
3084000,3060000,6620172,487.3563,95606.59,15.0,1.1556759,0,0
3156000,3132000,6620172,487.3704,95606.4,15.0,1.1556734,0,0
3228000,3204000,6620172,487.32812,95606.88,15.0,1.1556793,0,0
3300000,3274666,6620172,487.47836,95605.19,15.0,1.1556588,0,0
3372000,3348000,6620172,487.3563,95606.555,15.0,1.1556753,0,0
3444000,3420000,6620172,487.3751,95606.375,15.0,1.1556733,0,0
3516000,3492000,6620172,487.39856,95606.086,15.0,1.1556697,0,0
3588000,3564000,6620172,487.33752,95606.77,15.0,1.155678,0,0
3660000,3636000,6620172,487.3704,95606.414,15.0,1.1556736,0,0
3732000,3708000,6620172,487.42673,95605.75,15.0,1.1556656,0,0
3804000,3780000,6620172,487.39856,95606.06,15.0,1.1556695,0,0
3876000,3852000,6620172,487.29996,95607.23,15.0,1.1556835,0,0
3948000,3924000,6620172,487.32346,95606.94,15.0,1.1556801,0,0
4020000,3996000,6620172,487.33282,95606.836,15.0,1.1556787,0,0
4092000,4068000,6620172,487.31876,95607.01,15.0,1.1556809,0,0
4164000,4140000,6620172,487.32812,95606.875,15.0,1.1556792,0,0
4236000,4212000,6620172,487.3704,95606.414,15.0,1.1556736,0,0
4308000,4284000,6620172,487.42673,95605.73,15.0,1.1556654,0,0
4380000,4356000,6620172,487.2718,95607.56,15.0,1.1556876,0,0
4452000,4428000,6620172,487.3798,95606.28,15.0,1.1556721,0,0
4524000,4498666,6620172,487.32812,95606.875,15.0,1.1556792,0,0
4592000,4570666,6620172,487.3563,95606.586,15.0,1.1556758,0,0
4644000,4632000,6620172,487.2859,95607.375,15.0,1.1556853,0,0
4716000,4692000,6620172,487.3657,95606.445,15.0,1.1556741,0,0
4788000,4764000,6620172,487.3845,95606.26,15.0,1.1556717,0,0
4860000,4836000,6620172,487.39386,95606.125,15.0,1.1556702,0,0
4932000,4908000,6620172,487.44083,95605.6,15.0,1.1556638,0,0
5000000,4978666,6620172,487.42203,95605.81,15.0,1.1556664,0,0
5052000,5040000,6620172,487.1826,95608.56,15.0,1.1556996,0,0
5124000,5100000,6620172,487.3798,95606.28,15.0,1.1556721,0,0
5196000,5172000,6620172,487.4549,95605.44,15.0,1.155662,0,0
5268000,5244000,6620172,487.3657,95606.43,15.0,1.1556739,0,0
5340000,5316000,6620172,487.3798,95606.29,15.0,1.1556722,0,0
5412000,5388000,6620172,487.29526,95607.29,15.0,1.1556842,0,0
5484000,5460000,6620172,487.34692,95606.69,15.0,1.155677,0,0
5556000,5532000,6620172,487.42203,95605.84,15.0,1.1556667,0,0
5628000,5604000,6620172,487.3751,95606.375,15.0,1.1556733,0,0
5700000,5676000,6620172,487.35162,95606.625,15.0,1.1556762,0,0
5772000,5748000,6620172,487.42673,95605.78,15.0,1.155666,0,0
5844000,5820000,6620172,487.32346,95606.96,15.0,1.1556802,0,0
5916000,5892000,6620172,487.3798,95606.305,15.0,1.1556724,0,0
5988000,5964000,6620172,487.25772,95607.72,15.0,1.1556895,0,0
6060000,6036000,6620172,487.44553,95605.52,15.0,1.1556629,0,0
6132000,6108000,6620172,487.35162,95606.63,15.0,1.1556762,0,0
6204000,6180000,6620172,487.39386,95606.164,15.0,1.1556705,0,0
6276000,6252000,6620172,487.40796,95605.97,15.0,1.1556683,0,0
6348000,6324000,6620172,487.3751,95606.375,15.0,1.1556733,0,0
6420000,6396000,6620172,487.29526,95607.28,15.0,1.1556841,0,0
6492000,6466666,6620172,487.33752,95606.77,15.0,1.155678,0,0
6564000,6540000,6620172,487.43143,95605.695,15.0,1.1556649,0,0
6636000,6612000,6620172,487.3798,95606.29,15.0,1.1556722,0,0
6708000,6684000,6620172,487.3563,95606.56,15.0,1.1556754,0,1
6780000,6756000,6620172,488.14038,95597.6,15.0,1.155567,0,1
6852000,6828000,6620172,488.13568,95597.66,15.0,1.1555678,0,1
6924000,6900000,6620172,488.0981,95598.055,15.0,1.1555727,0,1
6996000,6972000,6620172,488.07465,95598.34,15.0,1.1555761,0,1
7068000,7044000,6620172,488.13098,95597.72,15.0,1.1555686,0,1
7140000,7116000,6620172,488.07465,95598.336,15.0,1.155576,0,1
7212000,7188000,6620172,488.15445,95597.414,15.0,1.1555649,0,1
7284000,7260000,6620172,488.07465,95598.35,15.0,1.1555762,0,1
7356000,7332000,6620172,488.17795,95597.164,15.0,1.1555618,0,1
7428000,7404000,6620172,488.0981,95598.03,15.0,1.1555723,0,1
7500000,7474666,6620172,488.12628,95597.75,15.0,1.155569,0,1
7572000,7548000,6620172,488.13098,95597.695,15.0,1.1555682,0,1
7644000,7620000,6620172,488.0934,95598.125,15.0,1.1555735,0,1
7716000,7692000,6620172,488.06995,95598.38,15.0,1.1555766,0,1
7788000,7764000,6620172,488.14038,95597.56,15.0,1.1555667,0,1
7860000,7836000,6620172,488.0981,95598.055,15.0,1.1555727,0,1
7932000,7908000,6620172,488.07935,95598.29,15.0,1.1555755,0,1
8004000,7980000,6620172,488.05118,95598.625,15.0,1.1555794,0,1
8076000,8052000,6620172,488.1169,95597.85,15.0,1.1555701,0,1
8148000,8124000,6620172,488.0934,95598.15,15.0,1.1555737,0,1
8220000,8196000,6620172,488.1075,95597.96,15.0,1.1555715,0,1
8292000,8268000,6620172,488.1122,95597.94,15.0,1.1555712,0,1
8364000,8338666,6620172,488.18262,95597.125,15.0,1.1555613,0,1
8436000,8412000,6620172,488.0981,95598.086,15.0,1.1555729,0,1
8508000,8484000,6620172,488.1075,95597.97,15.0,1.1555716,0,1
8580000,8556000,6620172,488.16385,95597.29,15.0,1.1555634,0,1
8652000,8628000,6620172,488.14038,95597.59,15.0,1.155567,0,1
8720000,8698666,6620172,488.1122,95597.91,15.0,1.1555709,0,1
8796000,8770666,6620172,488.06995,95598.37,15.0,1.1555765,0,1
8868000,8842666,6620172,488.15445,95597.414,15.0,1.1555649,0,1
8940000,8916000,6620172,488.17325,95597.19,15.0,1.1555622,0,1
9012000,8988000,6620172,488.0934,95598.15,15.0,1.1555737,0,1
9084000,9060000,6620172,488.14038,95597.57,15.0,1.1555668,0,1
9156000,9130666,6620172,488.20612,95596.82,15.0,1.1555576,0,1
9228000,9204000,6620172,488.14508,95597.5,15.0,1.155566,0,1
9300000,9274666,6620172,488.14038,95597.56,15.0,1.1555667,0,1
9372000,9348000,6620172,488.15445,95597.43,15.0,1.1555651,0,1
9444000,9420000,6620172,488.0887,95598.164,15.0,1.1555738,0,1
9516000,9490666,6620172,488.16385,95597.31,15.0,1.1555636,0,1
9588000,9564000,6620172,488.03238,95598.85,15.0,1.1555823,0,1
9660000,9636000,6620172,488.1122,95597.93,15.0,1.1555711,0,1
9732000,9708000,6620172,488.1169,95597.836,15.0,1.1555699,0,1
9804000,9780000,6620172,488.17795,95597.15,15.0,1.1555616,0,1
9876000,9852000,6620172,488.19672,95596.94,15.0,1.1555591,0,1
9948000,9924000,6620172,488.13568,95597.664,15.0,1.1555679,0,1
10020000,9996000,6620172,488.0981,95598.086,15.0,1.1555729,0,1
10092000,10068000,6620172,488.0981,95598.06,15.0,1.1555728,0,1
10164000,10140000,6620172,488.1075,95597.96,15.0,1.1555715,0,1
10236000,10212000,6620172,488.07935,95598.26,15.0,1.155575,0,1
10308000,10284000,6620172,488.16385,95597.336,15.0,1.155564,0,1
10380000,10356000,6620172,488.06525,95598.44,15.0,1.1555773,0,1
10452000,10428000,6620172,488.07465,95598.35,15.0,1.1555762,0,1
10524000,10500000,6620172,488.05118,95598.62,15.0,1.1555794,0,1
10596000,10570666,6620172,488.0887,95598.16,15.0,1.1555738,0,1
10668000,10644000,6620172,488.13098,95597.72,15.0,1.1555686,0,1
10740000,10716000,6620172,488.04178,95598.72,15.0,1.1555806,0,1
10812000,10786666,6620172,488.13098,95597.72,15.0,1.1555686,0,1
10884000,10860000,6620172,488.14508,95597.53,15.0,1.1555662,0,1
10956000,10932000,6620172,488.13098,95597.68,15.0,1.155568,0,1
11028000,11004000,6620172,488.0981,95598.06,15.0,1.1555728,0,1
11100000,11076000,6620172,488.12158,95597.81,15.0,1.1555697,0,1
11172000,11148000,6620172,488.12158,95597.77,15.0,1.1555692,0,1
11244000,11220000,6620172,488.13568,95597.65,15.0,1.1555678,0,1
11316000,11292000,6620172,488.0887,95598.18,15.0,1.1555741,0,1
11388000,11364000,6620172,488.16855,95597.25,15.0,1.1555629,0,1
11460000,11436000,6620172,488.06055,95598.48,15.0,1.1555777,0,1
11532000,11508000,6620172,488.07465,95598.32,15.0,1.1555758,0,1
11604000,11580000,6620172,488.1028,95598.02,15.0,1.1555722,0,1
11676000,11652000,6620172,488.16385,95597.336,15.0,1.155564,0,1
11748000,11724000,6620172,488.0934,95598.15,15.0,1.1555737,0,1
11820000,11796000,6620172,488.14508,95597.49,15.0,1.1555659,0,1
11892000,11868000,6620172,488.1122,95597.914,15.0,1.1555709,0,1
11964000,11940000,6620172,488.19202,95597.01,15.0,1.1555599,0,1
12036000,12012000,6620172,488.04648,95598.68,15.0,1.1555802,0,1
12108000,12084000,6620172,488.06525,95598.43,15.0,1.1555772,0,1
12180000,12156000,6620172,488.14038,95597.57,15.0,1.1555668,0,1
12252000,12228000,6620172,488.02768,95598.875,15.0,1.1555825,0,1
12324000,12300000,6620172,488.13098,95597.71,15.0,1.1555685,0,1
12396000,12372000,6620172,488.06055,95598.51,15.0,1.1555781,0,1
12468000,12442666,6620172,488.1075,95597.96,15.0,1.1555715,0,1
12540000,12516000,6620172,488.14038,95597.56,15.0,1.1555667,0,1
12612000,12588000,6620172,488.14038,95597.6,15.0,1.155567,0,1
12684000,12660000,6620172,488.14975,95597.47,15.0,1.1555655,0,1
12756000,12732000,6620172,488.0981,95598.07,15.0,1.1555728,0,1
12828000,12804000,6620172,488.05588,95598.57,15.0,1.1555789,0,1
12900000,12876000,6620172,488.13568,95597.66,15.0,1.1555678,0,1
12972000,12948000,6620172,488.19672,95596.96,15.0,1.1555594,0,1
13044000,13020000,6620172,488.0934,95598.125,15.0,1.1555735,0,1
13112000,13090666,6620172,488.1122,95597.91,15.0,1.1555709,0,1
13164000,13152000,6620172,488.15915,95597.34,15.0,1.1555641,0,1
13236000,13212000,6620172,488.12158,95597.81,15.0,1.1555697,0,1
13308000,13284000,6620172,488.14975,95597.48,15.0,1.1555656,0,1
13380000,13356000,6620172,488.17325,95597.23,15.0,1.1555625,0,1
13452000,13426666,6620172,488.12158,95597.78,15.0,1.1555693,0,1
13524000,13500000,6620172,488.17325,95597.23,15.0,1.1555625,0,1
13592000,13568000,6620172,488.13568,95597.63,15.0,1.1555675,0,1
13644000,13632000,6620172,488.08405,95598.22,15.0,1.1555747,0,1
13716000,13692000,6620172,488.1028,95598.0,15.0,1.1555719,0,1
13788000,13764000,6620172,488.18262,95597.09,15.0,1.155561,0,1
13860000,13836000,6620172,488.14038,95597.56,15.0,1.1555667,0,1
13932000,13906666,6620172,488.14508,95597.52,15.0,1.1555661,0,1
14004000,13980000,6620172,488.06055,95598.46,15.0,1.1555775,0,1
14076000,14052000,6620172,487.9995,95599.195,15.0,1.1555864,0,1
14148000,14124000,6620172,488.13568,95597.65,15.0,1.1555678,0,1
14220000,14196000,6620172,488.13098,95597.71,15.0,1.1555685,0,1
14292000,14268000,6620172,488.1122,95597.88,15.0,1.1555705,0,1
14364000,14340000,6620172,488.18262,95597.12,15.0,1.1555613,0,1
14436000,14412000,6620172,488.16385,95597.336,15.0,1.155564,0,1
14508000,14484000,6620172,488.16385,95597.31,15.0,1.1555636,0,1
14580000,14556000,6620172,488.17795,95597.18,15.0,1.155562,0,1
14652000,14628000,6620172,488.07935,95598.25,15.0,1.1555749,0,1
14724000,14700000,6620172,488.13568,95597.66,15.0,1.1555678,0,1
14796000,14772000,6620172,488.19672,95596.914,15.0,1.1555588,0,1
14868000,14844000,6620172,488.06995,95598.4,15.0,1.1555767,0,1
14940000,14916000,6620172,488.06055,95598.46,15.0,1.1555775,0,1
15012000,14988000,6620172,488.03708,95598.74,15.0,1.1555809,0,1
15084000,15060000,6620172,487.9995,95599.195,15.0,1.1555864,0,1
15156000,15132000,6620172,488.0089,95599.086,15.0,1.155585,0,1
15228000,15204000,6620172,488.0887,95598.164,15.0,1.1555738,0,1
15300000,15276000,6620172,488.06525,95598.44,15.0,1.1555773,0,1
15372000,15348000,6620172,488.14508,95597.51,15.0,1.1555661,0,1
15444000,15420000,6620172,488.13568,95597.62,15.0,1.1555673,0,1
15516000,15492000,6620172,488.15445,95597.41,15.0,1.1555648,0,1
15588000,15564000,6620172,488.15445,95597.43,15.0,1.1555651,0,1
15660000,15636000,6620172,488.12158,95597.78,15.0,1.1555693,0,1
15732000,15708000,6620172,488.0981,95598.06,15.0,1.1555728,0,1
15804000,15780000,6620172,488.12628,95597.75,15.0,1.155569,0,1
15876000,15852000,6620172,488.15915,95597.35,15.0,1.1555642,0,1
15948000,15924000,6620172,488.1028,95598.02,15.0,1.1555722,0,1
16020000,15996000,6620172,488.20612,95596.85,15.0,1.1555581,0,1
16092000,16068000,6620172,488.04648,95598.664,15.0,1.1555799,0,1
16164000,16140000,6620172,488.14038,95597.56,15.0,1.1555667,0,1
16236000,16212000,6620172,488.20612,95596.836,15.0,1.1555579,0,1
16308000,16284000,6620172,488.20612,95596.81,15.0,1.1555575,0,1
16380000,16356000,6620172,488.13098,95597.71,15.0,1.1555685,0,1
16448000,16426666,6620172,488.07465,95598.336,15.0,1.155576,0,1
16500000,16488000,6620172,488.06525,95598.44,15.0,1.1555773,0,1
16572000,16548000,6620172,488.07465,95598.32,15.0,1.1555758,0,1
16644000,16620000,6620172,488.17795,95597.16,15.0,1.1555617,0,1
16716000,16692000,6620172,488.12628,95597.75,15.0,1.155569,0,1
16784000,16762666,6620172,488.13568,95597.65,15.0,1.1555678,0,1
16836000,16824000,6620172,488.20142,95596.875,15.0,1.1555583,0,1
16908000,16884000,6620172,488.13568,95597.65,15.0,1.1555678,0,1
16980000,16956000,6620172,488.13098,95597.72,15.0,1.1555686,0,1
17052000,17028000,6620172,488.0887,95598.19,15.0,1.1555742,0,1
17124000,17100000,6620172,488.0981,95598.07,15.0,1.1555728,0,1
17196000,17172000,6620172,488.14508,95597.5,15.0,1.155566,0,1
17268000,17244000,6620172,488.13568,95597.66,15.0,1.1555678,0,1
17340000,17316000,6620172,488.15445,95597.43,15.0,1.1555651,0,1
17412000,17386666,6620172,488.13568,95597.625,15.0,1.1555674,0,1
17480000,17458666,6620172,488.20612,95596.805,15.0,1.1555575,0,1
17532000,17520000,6620172,488.13098,95597.67,15.0,1.155568,0,1
17604000,17580000,6620172,488.22018,95596.69,15.0,1.1555561,0,1
17676000,17652000,6620172,488.07465,95598.34,15.0,1.1555761,0,1
17748000,17724000,6620172,488.07935,95598.27,15.0,1.1555753,0,1
17820000,17796000,6620172,488.07465,95598.31,15.0,1.1555756,0,1
17888000,17866666,6620172,488.06055,95598.46,15.0,1.1555775,0,1
17940000,17928000,6620172,488.22488,95596.59,15.0,1.1555549,0,1
18012000,17988000,6620172,488.1122,95597.914,15.0,1.1555709,0,1
18084000,18060000,6620172,488.15445,95597.4,15.0,1.1555647,0,1
18156000,18129333,6620172,488.0981,95598.06,15.0,1.1555728,0,1
18228000,18204000,6620172,488.21548,95596.74,15.0,1.1555567,0,1
18300000,18276000,6620172,488.13568,95597.63,15.0,1.1555675,0,1
18372000,18348000,6620172,488.07465,95598.305,15.0,1.1555756,0,1
18444000,18420000,6620172,488.04648,95598.66,15.0,1.1555799,0,1
18516000,18492000,6620172,488.1169,95597.84,15.0,1.15557,0,1
18588000,18564000,6620172,488.06995,95598.41,15.0,1.1555768,0,1
18660000,18636000,6620172,488.07935,95598.29,15.0,1.1555755,0,1
18732000,18708000,6620172,488.08405,95598.23,15.0,1.1555747,0,1
18804000,18780000,6620172,488.15915,95597.375,15.0,1.1555643,0,1
18876000,18852000,6620172,488.14508,95597.52,15.0,1.1555661,0,1
18948000,18924000,6620172,488.17325,95597.24,15.0,1.1555628,0,1
19020000,18996000,6620172,487.99484,95599.23,15.0,1.1555868,0,1
19092000,19068000,6620172,488.14038,95597.6,15.0,1.155567,0,1
19164000,19140000,6620172,488.0934,95598.13,15.0,1.1555736,0,1
19236000,19212000,6620172,488.1122,95597.9,15.0,1.1555707,0,1
19308000,19284000,6620172,488.0089,95599.086,15.0,1.155585,0,1
19380000,19356000,6620172,488.06995,95598.38,15.0,1.1555766,0,1
19452000,19428000,6620172,488.15445,95597.445,15.0,1.1555651,0,1
19524000,19500000,6620172,488.13568,95597.62,15.0,1.1555673,0,1
19596000,19570666,6620172,488.22018,95596.695,15.0,1.1555562,0,1
19668000,19644000,6620172,488.13568,95597.62,15.0,1.1555673,0,1
19740000,19716000,6620172,488.0887,95598.164,15.0,1.1555738,0,1
19808000,19786666,6620172,488.05118,95598.586,15.0,1.1555791,0,1
19860000,19848000,6620172,488.0887,95598.17,15.0,1.155574,0,1
19932000,19908000,6620172,488.1169,95597.875,15.0,1.1555704,0,1
20004000,19980000,6620172,488.1028,95597.98,15.0,1.1555717,0,1
20076000,20052000,6620172,488.0934,95598.13,15.0,1.1555736,0,1
20148000,20124000,6620172,488.07935,95598.25,15.0,1.1555749,0,1
20220000,20194666,6620172,488.04648,95598.664,15.0,1.1555799,0,1
20292000,20268000,6620172,488.17325,95597.23,15.0,1.1555625,0,1
20364000,20340000,6620172,488.12158,95597.77,15.0,1.1555692,0,1
20436000,20412000,6620172,488.22488,95596.625,15.0,1.1555554,0,1
20508000,20484000,6620172,488.12158,95597.78,15.0,1.1555693,0,1
20580000,20556000,6620172,488.07465,95598.305,15.0,1.1555756,0,1
20652000,20628000,6620172,488.07465,95598.336,15.0,1.155576,0,1
20724000,20700000,6620172,488.0981,95598.03,15.0,1.1555723,0,1
20796000,20770666,6620172,488.14038,95597.586,15.0,1.1555669,0,1
20868000,20844000,6620172,488.06995,95598.41,15.0,1.1555768,0,1
20940000,20916000,6620172,488.1122,95597.94,15.0,1.1555712,0,1
21012000,20988000,6620172,488.03238,95598.85,15.0,1.1555823,0,1
21084000,21060000,6620172,488.04178,95598.71,15.0,1.1555805,0,1
21156000,21132000,6620172,488.0136,95599.01,15.0,1.1555841,0,1
21228000,21202666,6620172,488.17795,95597.15,15.0,1.1555616,0,1
21300000,21276000,6620172,488.16385,95597.32,15.0,1.1555637,0,1
21372000,21348000,6620172,488.1169,95597.836,15.0,1.1555699,0,1
21444000,21420000,6620172,488.1122,95597.94,15.0,1.1555712,0,1
21516000,21492000,6620172,488.0981,95598.06,15.0,1.1555728,0,1
21588000,21564000,6620172,488.05588,95598.555,15.0,1.1555786,0,1
21660000,21636000,6620172,488.13098,95597.71,15.0,1.1555685,0,1
21732000,21708000,6620172,488.04648,95598.68,15.0,1.1555802,0,1
21804000,21780000,6620172,488.0089,95599.1,15.0,1.1555852,0,1
21876000,21852000,6620172,488.13568,95597.62,15.0,1.1555673,0,1
21948000,21924000,6620172,488.0136,95599.04,15.0,1.1555845,0,1
22020000,21996000,6620172,488.15445,95597.4,15.0,1.1555647,0,1
22092000,22068000,6620172,488.1169,95597.875,15.0,1.1555704,0,1
22164000,22140000,6620172,488.023,95598.914,15.0,1.155583,0,1
22236000,22212000,6620172,488.14508,95597.52,15.0,1.1555661,0,1
22308000,22284000,6620172,488.13568,95597.66,15.0,1.1555678,0,1
22380000,22356000,6620172,488.16385,95597.28,15.0,1.1555632,0,1
22452000,22428000,6620172,488.0183,95599.0,15.0,1.1555841,0,1
22524000,22500000,6620172,488.05588,95598.54,15.0,1.1555785,0,1
22596000,22572000,6620172,488.15445,95597.445,15.0,1.1555651,0,1
22668000,22644000,6620172,488.1122,95597.9,15.0,1.1555707,0,1
22740000,22716000,6620172,488.0981,95598.086,15.0,1.1555729,0,1
22812000,22786666,6620172,488.07465,95598.305,15.0,1.1555756,0,1
22884000,22860000,6620172,488.14038,95597.586,15.0,1.1555669,0,1
22956000,22932000,6620172,488.15915,95597.35,15.0,1.1555642,0,1
23028000,23004000,6620172,488.03708,95598.79,15.0,1.1555815,0,1
23100000,23076000,6620172,488.0934,95598.125,15.0,1.1555735,0,1
23172000,23148000,6620172,488.14975,95597.46,15.0,1.1555654,0,1
23244000,23220000,6620172,488.1075,95597.97,15.0,1.1555716,0,1
23316000,23292000,6620172,488.16855,95597.25,15.0,1.1555629,0,1
23388000,23364000,6620172,488.1122,95597.91,15.0,1.1555709,0,1
23460000,23436000,6620172,488.0981,95598.03,15.0,1.1555723,0,1
23532000,23508000,6620172,488.17795,95597.164,15.0,1.1555618,0,1
23604000,23580000,6620172,488.1122,95597.91,15.0,1.1555709,0,1
23676000,23652000,6620172,488.20142,95596.9,15.0,1.1555586,0,1
23748000,23724000,6620172,488.0934,95598.09,15.0,1.155573,0,1
23820000,23796000,6620172,488.16385,95597.336,15.0,1.155564,0,1
23892000,23868000,6620172,488.14508,95597.54,15.0,1.1555663,0,1
23964000,23940000,6620172,488.16385,95597.29,15.0,1.1555634,0,1
24036000,24012000,6620172,488.17325,95597.23,15.0,1.1555625,0,1
24108000,24084000,6620172,488.1122,95597.94,15.0,1.1555712,0,1
24180000,24156000,6620172,488.05588,95598.54,15.0,1.1555785,0,1
24252000,24228000,6620172,488.08405,95598.24,15.0,1.1555748,0,1
24324000,24298666,6620172,488.16855,95597.26,15.0,1.155563,0,1
24396000,24372000,6620172,488.1028,95597.99,15.0,1.1555718,0,1
24468000,24444000,6620172,488.1122,95597.9,15.0,1.1555707,0,1
24540000,24516000,6620172,488.06055,95598.5,15.0,1.155578,0,1
24612000,24588000,6620172,488.07465,95598.32,15.0,1.1555758,0,1
24684000,24660000,6620172,488.1169,95597.836,15.0,1.1555699,0,1
24756000,24732000,6620172,488.06995,95598.4,15.0,1.1555767,0,1
24828000,24804000,6620172,488.04648,95598.66,15.0,1.1555799,0,1
24900000,24876000,6620172,488.06055,95598.49,15.0,1.1555779,0,1
24972000,24948000,6620172,488.04648,95598.664,15.0,1.1555799,0,1
25044000,25018666,6620172,488.13568,95597.625,15.0,1.1555674,0,1
25116000,25092000,6620172,488.19202,95596.98,15.0,1.1555595,0,1
25188000,25164000,6620172,488.0887,95598.21,15.0,1.1555746,0,1
25260000,25236000,6620172,488.14508,95597.52,15.0,1.1555661,0,1
25332000,25308000,6620172,488.0887,95598.21,15.0,1.1555746,0,1
25404000,25380000,6620172,488.0934,95598.125,15.0,1.1555735,0,1
25476000,25452000,6620172,488.13098,95597.69,15.0,1.1555681,0,1
25548000,25524000,6620172,488.0934,95598.09,15.0,1.155573,0,1
25620000,25596000,6620172,488.15915,95597.375,15.0,1.1555643,0,1
25692000,25668000,6620172,488.15915,95597.34,15.0,1.1555641,0,1
25764000,25740000,6620172,488.05588,95598.57,15.0,1.1555789,0,1
25836000,25812000,6620172,488.03708,95598.77,15.0,1.1555814,0,1
25904000,25882666,6620172,488.03708,95598.74,15.0,1.1555809,0,1
25956000,25944000,6620172,488.0981,95598.06,15.0,1.1555728,0,1
26028000,26004000,6620172,488.13568,95597.625,15.0,1.1555674,0,1
26100000,26076000,6620172,488.18262,95597.09,15.0,1.155561,0,1
26172000,26148000,6620172,488.03708,95598.77,15.0,1.1555814,0,1
26244000,26220000,6620172,488.05588,95598.52,15.0,1.1555783,0,1
26316000,26292000,6620172,488.14508,95597.5,15.0,1.155566,0,1
26384000,26362666,6620172,488.13098,95597.71,15.0,1.1555685,0,1
26436000,26424000,6620172,488.05588,95598.53,15.0,1.1555784,0,1
26508000,26484000,6620172,488.13098,95597.71,15.0,1.1555685,0,1
26580000,26556000,6620172,488.13568,95597.63,15.0,1.1555675,0,1
26652000,26628000,6620172,488.18262,95597.1,15.0,1.1555611,0,1
26724000,26700000,6620172,488.0981,95598.06,15.0,1.1555728,0,1
26796000,26772000,6620172,488.13098,95597.71,15.0,1.1555685,0,1
26868000,26844000,6620172,488.14038,95597.57,15.0,1.1555668,0,1
26940000,26916000,6620172,488.05588,95598.57,15.0,1.1555789,0,1
27012000,26988000,6620172,488.04178,95598.71,15.0,1.1555805,0,1
27084000,27060000,6620172,488.0934,95598.09,15.0,1.155573,0,1
27156000,27132000,6620172,488.15915,95597.375,15.0,1.1555643,0,1
27228000,27204000,6620172,488.14038,95597.6,15.0,1.155567,0,1
27300000,27276000,6620172,488.1028,95598.01,15.0,1.155572,0,1
27372000,27348000,6620172,488.2108,95596.79,15.0,1.1555573,0,1
27444000,27420000,6620172,488.17325,95597.23,15.0,1.1555625,0,1
27516000,27492000,6620172,488.20612,95596.805,15.0,1.1555575,0,1
27588000,27564000,6620172,488.1028,95597.99,15.0,1.1555718,0,1
27660000,27636000,6620172,488.15445,95597.4,15.0,1.1555647,0,1
27732000,27708000,6620172,488.14508,95597.54,15.0,1.1555663,0,1
27804000,27780000,6620172,488.1028,95597.99,15.0,1.1555718,0,1
27876000,27852000,6620172,488.15915,95597.35,15.0,1.1555642,0,1
27948000,27924000,6620172,488.1075,95597.945,15.0,1.1555712,0,1
28020000,27996000,6620172,488.16855,95597.25,15.0,1.1555629,0,1
28092000,28068000,6620172,488.06055,95598.48,15.0,1.1555777,0,1
28164000,28140000,6620172,488.1169,95597.875,15.0,1.1555704,0,1
28236000,28212000,6620172,488.14038,95597.555,15.0,1.1555666,0,1
28308000,28284000,6620172,488.0136,95599.055,15.0,1.1555847,0,1
28380000,28356000,6620172,488.0887,95598.16,15.0,1.1555738,0,1
28452000,28428000,6620172,488.13098,95597.72,15.0,1.1555686,0,1
28524000,28500000,6620172,488.16385,95597.32,15.0,1.1555637,0,1
28596000,28572000,6620172,488.19202,95597.02,15.0,1.1555601,0,1
28668000,28644000,6620172,488.19672,95596.945,15.0,1.1555592,0,1
28740000,28716000,6620172,488.07465,95598.35,15.0,1.1555762,0,1
28812000,28788000,6620172,488.1122,95597.94,15.0,1.1555712,0,1
28884000,28860000,6620172,488.04648,95598.69,15.0,1.1555803,0,1
28956000,28932000,6620172,488.06055,95598.5,15.0,1.155578,0,1
29028000,29004000,6620172,488.1122,95597.94,15.0,1.1555712,0,1
29100000,29076000,6620172,488.18262,95597.125,15.0,1.1555613,0,1
29172000,29146666,6620172,488.1122,95597.914,15.0,1.1555709,0,1
29244000,29220000,6620172,488.22018,95596.65,15.0,1.1555556,0,1
29316000,29292000,6620172,488.13568,95597.65,15.0,1.1555678,0,1
29388000,29364000,6620172,488.1169,95597.836,15.0,1.1555699,0,1
29460000,29436000,6620172,488.17325,95597.23,15.0,1.1555625,0,1
29528000,29506666,6620172,488.06525,95598.445,15.0,1.1555774,0,1
29580000,29568000,6620172,488.16385,95597.32,15.0,1.1555637,0,1
29652000,29628000,6620172,488.15915,95597.35,15.0,1.1555642,0,1
29724000,29700000,6620172,488.07935,95598.26,15.0,1.155575,0,1
29796000,29772000,6620172,488.19672,95596.93,15.0,1.1555591,0,1
29868000,29844000,6620172,488.0981,95598.086,15.0,1.1555729,0,1
29940000,29916000,6620172,488.17325,95597.23,15.0,1.1555625,0,1
30012000,29988000,6620172,488.1169,95597.875,15.0,1.1555704,0,1
30084000,30060000,6620172,488.22488,95596.6,15.0,1.155555,0,1
30156000,30132000,6620172,488.06055,95598.5,15.0,1.155578,0,1
30228000,30204000,6620172,488.06055,95598.47,15.0,1.1555775,0,1
30300000,30276000,6620172,488.1169,95597.84,15.0,1.15557,0,1
30372000,30348000,6620172,488.1028,95598.02,15.0,1.1555722,0,1
30444000,30420000,6620172,488.02768,95598.88,15.0,1.1555825,0,1
30516000,30492000,6620172,488.23428,95596.52,15.0,1.155554,0,1
30588000,30564000,6620172,488.023,95598.93,15.0,1.1555831,0,1
30660000,30636000,6620172,488.21548,95596.73,15.0,1.1555566,0,1
30732000,30708000,6620172,488.1075,95597.945,15.0,1.1555712,0,1
30804000,30780000,6620172,488.1075,95597.945,15.0,1.1555712,0,1
30876000,30852000,6620172,488.13098,95597.68,15.0,1.155568,0,1
30948000,30924000,6620172,488.13568,95597.66,15.0,1.1555678,0,1
31020000,30996000,6620172,488.13568,95597.65,15.0,1.1555678,0,1
31092000,31068000,6620172,488.1169,95597.84,15.0,1.15557,0,1
31164000,31140000,6620172,488.13568,95597.625,15.0,1.1555674,0,1
31236000,31212000,6620172,488.0887,95598.164,15.0,1.1555738,0,1
31308000,31284000,6620172,488.13098,95597.69,15.0,1.1555681,0,1
31380000,31356000,6620172,488.13568,95597.66,15.0,1.1555678,0,1
31452000,31428000,6620172,488.0981,95598.06,15.0,1.1555728,0,1
31524000,31500000,6620172,488.13098,95597.695,15.0,1.1555682,0,1
31596000,31572000,6620172,488.23898,95596.44,15.0,1.155553,0,1
31668000,31644000,6620172,488.15445,95597.44,15.0,1.1555651,0,1
31740000,31716000,6620172,488.1122,95597.9,15.0,1.1555707,0,1
31812000,31788000,6620172,488.14508,95597.52,15.0,1.1555661,0,1
31884000,31860000,6620172,488.16855,95597.25,15.0,1.1555629,0,1
31956000,31932000,6620172,488.05118,95598.6,15.0,1.1555792,0,1
32028000,32004000,6620172,488.07935,95598.25,15.0,1.1555749,0,1
32100000,32076000,6620172,488.13568,95597.63,15.0,1.1555675,0,1
32168000,32146666,6620172,488.06055,95598.48,15.0,1.1555777,0,1
32220000,32208000,6620172,488.03708,95598.78,15.0,1.1555814,0,1
32292000,32268000,6620172,488.1169,95597.875,15.0,1.1555704,0,1
32364000,32340000,6620172,488.13098,95597.71,15.0,1.1555685,0,1
32436000,32412000,6620172,488.0981,95598.04,15.0,1.1555724,0,1
32508000,32484000,6620172,488.07935,95598.25,15.0,1.1555749,0,1
32580000,32556000,6620172,488.04648,95598.664,15.0,1.1555799,0,1
32652000,32628000,6620172,488.06995,95598.41,15.0,1.1555768,0,1
32724000,32700000,6620172,488.20142,95596.875,15.0,1.1555583,0,1
32796000,32772000,6620172,488.0934,95598.12,15.0,1.1555734,0,1
32868000,32844000,6620172,488.07935,95598.29,15.0,1.1555755,0,1
32940000,32916000,6620172,488.20612,95596.81,15.0,1.1555575,0,1
33012000,32988000,6620172,488.14038,95597.56,15.0,1.1555667,0,1
33084000,33060000,6620172,488.15445,95597.445,15.0,1.1555651,0,1
33156000,33132000,6620172,488.06995,95598.37,15.0,1.1555765,0,1
33228000,33204000,6620172,488.13098,95597.69,15.0,1.1555681,0,1
33300000,33276000,6620172,488.0887,95598.18,15.0,1.1555741,0,1
33372000,33348000,6620172,488.13098,95597.71,15.0,1.1555685,0,1
33444000,33420000,6620172,488.1169,95597.836,15.0,1.1555699,0,1
33516000,33492000,6620172,488.1169,95597.82,15.0,1.1555698,0,1
33588000,33564000,6620172,488.06995,95598.414,15.0,1.155577,0,1
33660000,33636000,6620172,488.14975,95597.48,15.0,1.1555656,0,1
33732000,33708000,6620172,488.21548,95596.75,15.0,1.1555568,0,1
33804000,33780000,6620172,488.17325,95597.21,15.0,1.1555624,0,1
33876000,33850666,6620172,488.13568,95597.625,15.0,1.1555674,0,1
33948000,33924000,6620172,488.20612,95596.85,15.0,1.1555581,0,1
34020000,33996000,6620172,488.17325,95597.195,15.0,1.1555623,0,1
34092000,34068000,6620172,488.13568,95597.625,15.0,1.1555674,0,1
34164000,34140000,6620172,488.04648,95598.68,15.0,1.1555802,0,1
34236000,34212000,6620172,488.13098,95597.69,15.0,1.1555681,0,1
34308000,34284000,6620172,488.1169,95597.836,15.0,1.1555699,0,1
34380000,34356000,6620172,488.0934,95598.125,15.0,1.1555735,0,1
34452000,34428000,6620172,488.1028,95597.98,15.0,1.1555717,0,1
34524000,34500000,6620172,488.06995,95598.414,15.0,1.155577,0,1
34596000,34572000,6620172,488.16385,95597.336,15.0,1.155564,0,1
34668000,34644000,6620172,488.14508,95597.49,15.0,1.1555659,0,1
34740000,34716000,6620172,488.1169,95597.875,15.0,1.1555704,0,1
34812000,34786666,6620172,488.16385,95597.305,15.0,1.1555635,0,1
34884000,34860000,6620172,488.05118,95598.625,15.0,1.1555794,0,1
34956000,34932000,6620172,488.05118,95598.6,15.0,1.1555792,0,1
35024000,35002666,6620172,488.0981,95598.055,15.0,1.1555727,0,1
35076000,35064000,6620172,488.12628,95597.75,15.0,1.155569,0,1
35148000,35122666,6620172,488.15445,95597.44,15.0,1.1555651,0,1
35220000,35196000,6620172,488.07465,95598.34,15.0,1.1555761,0,1
35292000,35268000,6620172,488.1075,95597.97,15.0,1.1555716,0,1
35360000,35338666,6620172,488.12158,95597.77,15.0,1.1555692,0,1
35412000,35400000,6620172,488.13098,95597.7,15.0,1.1555684,0,1
35484000,35460000,6620172,488.0887,95598.21,15.0,1.1555746,0,1
35556000,35532000,6620172,488.04648,95598.65,15.0,1.1555798,0,1
35628000,35604000,6620172,488.12158,95597.77,15.0,1.1555692,0,1
35700000,35676000,6620172,488.17325,95597.24,15.0,1.1555628,0,1
35772000,35748000,6620172,488.1028,95598.02,15.0,1.1555722,0,1
35844000,35818666,6620172,488.07935,95598.27,15.0,1.1555753,0,1
35916000,35892000,6620172,488.1169,95597.84,15.0,1.15557,0,1
35988000,35964000,6620172,488.0981,95598.07,15.0,1.1555728,0,1
36060000,36036000,6620172,488.14038,95597.59,15.0,1.155567,0,1
36132000,36108000,6620172,488.12628,95597.75,15.0,1.155569,0,1
36204000,36180000,6620172,488.21548,95596.76,15.0,1.1555569,0,1
36276000,36252000,6620172,488.1169,95597.85,15.0,1.1555701,0,1
36348000,36324000,6620172,488.14508,95597.52,15.0,1.1555661,0,1
36420000,36396000,6620172,488.05588,95598.52,15.0,1.1555783,0,1
36492000,36466666,6620172,488.14508,95597.53,15.0,1.1555662,0,1
36564000,36540000,6620172,488.0981,95598.03,15.0,1.1555723,0,1
36636000,36612000,6620172,488.1028,95597.98,15.0,1.1555717,0,1
36708000,36684000,6620172,488.18732,95597.04,15.0,1.1555604,0,1
36780000,36756000,6620172,488.13568,95597.625,15.0,1.1555674,0,1
36852000,36826666,6620172,488.06525,95598.445,15.0,1.1555774,0,1
36924000,36900000,6620172,488.12158,95597.79,15.0,1.1555694,0,1
36996000,36972000,6620172,488.1122,95597.9,15.0,1.1555707,0,1
37068000,37044000,6620172,488.06525,95598.44,15.0,1.1555773,0,1
37140000,37116000,6620172,488.0887,95598.21,15.0,1.1555746,0,1
37212000,37188000,6620172,488.05118,95598.586,15.0,1.1555791,0,1
37280000,37258666,6620172,488.15445,95597.44,15.0,1.1555651,0,1
37332000,37320000,6620172,488.16385,95597.33,15.0,1.1555638,0,1
37404000,37380000,6620172,488.13098,95597.68,15.0,1.155568,0,1
37476000,37452000,6620172,488.16385,95597.28,15.0,1.1555632,0,1
37548000,37524000,6620172,488.1122,95597.94,15.0,1.1555712,0,1
37620000,37596000,6620172,488.1028,95597.98,15.0,1.1555717,0,1
37692000,37668000,6620172,488.14508,95597.53,15.0,1.1555662,0,1
37764000,37740000,6620172,488.14975,95597.48,15.0,1.1555656,0,1
37836000,37812000,6620172,488.0981,95598.04,15.0,1.1555724,0,1
37904000,37881333,6620172,488.14038,95597.6,15.0,1.155567,0,1
37980000,37954666,6620172,488.04648,95598.69,15.0,1.1555803,0,1
38052000,38028000,6620172,488.03708,95598.78,15.0,1.1555814,0,1
38124000,38100000,6620172,488.15915,95597.35,15.0,1.1555642,0,1
38196000,38172000,6620172,488.07935,95598.29,15.0,1.1555755,0,1
38268000,38244000,6620172,488.14975,95597.46,15.0,1.1555654,0,1
38340000,38316000,6620172,488.13098,95597.695,15.0,1.1555682,0,1
38412000,38388000,6620172,488.0042,95599.125,15.0,1.1555855,0,1
38480000,38458666,6620172,488.17325,95597.23,15.0,1.1555625,0,1
38532000,38518000,6620172,488.07935,95598.266,15.0,1.1555752,0,1
38604000,38580000,6620172,488.14508,95597.5,15.0,1.155566,0,1
38676000,38652000,6620172,488.0981,95598.03,15.0,1.1555723,0,1
38748000,38724000,6620172,488.1075,95597.96,15.0,1.1555715,0,1
38820000,38796000,6620172,488.1028,95598.02,15.0,1.1555722,0,1
38892000,38868000,6620172,488.14038,95597.56,15.0,1.1555667,0,1
38964000,38940000,6620172,488.16385,95597.336,15.0,1.155564,0,1
39036000,39012000,6620172,488.1075,95597.945,15.0,1.1555712,0,1
39104000,39082666,6620172,488.16385,95597.28,15.0,1.1555632,0,1
39156000,39144000,6620172,488.1122,95597.92,15.0,1.155571,0,1
39228000,39204000,6620172,488.2108,95596.77,15.0,1.1555572,0,1
39296000,39274666,6620172,488.13098,95597.68,15.0,1.155568,0,1
39348000,39336000,6620172,488.06995,95598.414,15.0,1.155577,0,1
39420000,39396000,6620172,488.0089,95599.09,15.0,1.1555852,0,1
39492000,39466666,6620172,488.06055,95598.48,15.0,1.1555777,0,1
39564000,39540000,6620172,488.1169,95597.836,15.0,1.1555699,0,1
39636000,39612000,6620172,488.19202,95597.03,15.0,1.1555603,0,1
39708000,39682666,6620172,488.14508,95597.52,15.0,1.1555661,0,1
39780000,39756000,6620172,488.1122,95597.94,15.0,1.1555712,0,1
39852000,39828000,6620172,488.03238,95598.836,15.0,1.1555821,0,1
39924000,39900000,6620172,488.1169,95597.85,15.0,1.1555701,0,1
39996000,39972000,6620172,488.13568,95597.65,15.0,1.1555678,0,1
40068000,40044000,6620172,488.1075,95597.96,15.0,1.1555715,0,1
40140000,40116000,6620172,488.06995,95598.41,15.0,1.1555768,0,1
40212000,40188000,6620172,488.12158,95597.79,15.0,1.1555694,0,1
40280000,40258666,6620172,488.14038,95597.6,15.0,1.155567,0,1
40332000,40320000,6620172,488.14508,95597.53,15.0,1.1555662,0,1
40404000,40380000,6620172,488.0934,95598.13,15.0,1.1555736,0,1
40476000,40452000,6620172,488.23898,95596.445,15.0,1.1555531,0,1
40548000,40524000,6620172,488.0981,95598.06,15.0,1.1555728,0,1
40620000,40596000,6620172,488.03238,95598.805,15.0,1.1555817,0,1
40692000,40668000,6620172,488.18732,95597.04,15.0,1.1555604,0,1
40764000,40740000,6620172,488.13568,95597.66,15.0,1.1555678,0,1
40832000,40810666,6620172,488.07465,95598.305,15.0,1.1555756,0,1
40884000,40872000,6620172,488.0183,95598.95,15.0,1.1555834,0,1
40956000,40932000,6620172,488.22018,95596.66,15.0,1.1555557,0,1
41028000,41004000,6620172,488.16855,95597.26,15.0,1.155563,0,1
41100000,41074666,6620172,488.05118,95598.63,15.0,1.1555796,0,1
41172000,41146666,6620172,488.03708,95598.79,15.0,1.1555815,0,1
41244000,41220000,6620172,488.06055,95598.5,15.0,1.155578,0,1
41316000,41292000,6620172,488.04648,95598.664,15.0,1.1555799,0,1
41388000,41364000,6620172,488.02768,95598.875,15.0,1.1555825,0,1
41460000,41434666,6620172,488.1028,95598.0,15.0,1.1555719,0,1
41532000,41508000,6620172,488.12158,95597.79,15.0,1.1555694,0,1
41604000,41580000,6620172,488.0089,95599.086,15.0,1.155585,0,1
41676000,41652000,6620172,488.22488,95596.586,15.0,1.1555548,0,1
41748000,41724000,6620172,488.1122,95597.94,15.0,1.1555712,0,1
41816000,41794666,6620172,488.0934,95598.1,15.0,1.1555731,0,1
41868000,41856000,6620172,488.0934,95598.09,15.0,1.155573,0,1
41940000,41916000,6620172,488.07465,95598.32,15.0,1.1555758,0,1
42012000,41988000,6620172,488.17325,95597.23,15.0,1.1555625,0,1
42084000,42060000,6620172,488.0183,95598.945,15.0,1.1555834,0,1
42156000,42132000,6620172,488.21548,95596.74,15.0,1.1555567,0,1
42228000,42204000,6620172,488.12628,95597.75,15.0,1.155569,0,1
42300000,42276000,6620172,488.04648,95598.66,15.0,1.1555799,0,1
42372000,42348000,6620172,488.2108,95596.79,15.0,1.1555573,0,1
42444000,42420000,6620172,488.06995,95598.37,15.0,1.1555765,0,1
42516000,42492000,6620172,488.06055,95598.51,15.0,1.1555781,0,1
42584000,42562666,6620172,488.1028,95597.98,15.0,1.1555717,0,1
42636000,42624000,6620172,488.19202,95597.03,15.0,1.1555603,0,1
42708000,42684000,6620172,488.19672,95596.93,15.0,1.1555591,0,1
42780000,42756000,6620172,488.05588,95598.555,15.0,1.1555786,0,1
42852000,42828000,6620172,488.17795,95597.15,15.0,1.1555616,0,1
42924000,42900000,6620172,488.13098,95597.73,15.0,1.1555686,0,1
42996000,42972000,6620172,488.1028,95598.02,15.0,1.1555722,0,1
43068000,43044000,6620172,487.9995,95599.19,15.0,1.1555862,0,1
43140000,43116000,6620172,488.06055,95598.47,15.0,1.1555775,0,1
43212000,43188000,6620172,488.13098,95597.695,15.0,1.1555682,0,1
43284000,43260000,6620172,488.14038,95597.57,15.0,1.1555668,0,1
43356000,43332000,6620172,488.12158,95597.78,15.0,1.1555693,0,1
43428000,43404000,6620172,488.0934,95598.125,15.0,1.1555735,0,1
43500000,43476000,6620172,488.16385,95597.31,15.0,1.1555636,0,1
43572000,43548000,6620172,488.1028,95597.98,15.0,1.1555717,0,1
43644000,43620000,6620172,488.03708,95598.79,15.0,1.1555815,0,1
43716000,43692000,6620172,488.17325,95597.23,15.0,1.1555625,0,1
43788000,43764000,6620172,488.06055,95598.5,15.0,1.155578,0,1
43860000,43836000,6620172,488.05118,95598.625,15.0,1.1555794,0,1
43932000,43908000,6620172,488.1028,95597.98,15.0,1.1555717,0,1
44004000,43978666,6620172,488.0981,95598.04,15.0,1.1555724,0,1
44076000,44052000,6620172,488.17795,95597.18,15.0,1.155562,0,1
44148000,44122666,6620172,488.0981,95598.06,15.0,1.1555728,0,1
44220000,44196000,6620172,488.19202,95597.02,15.0,1.1555601,0,1
44292000,44268000,6620172,488.1122,95597.9,15.0,1.1555707,0,1
44364000,44338666,6620172,488.1169,95597.84,15.0,1.15557,0,1
44436000,44412000,6620172,488.14508,95597.52,15.0,1.1555661,0,1
44508000,44484000,6620172,488.04648,95598.695,15.0,1.1555804,0,1
44580000,44556000,6620172,488.03238,95598.82,15.0,1.1555818,0,1
44652000,44628000,6620172,488.04648,95598.69,15.0,1.1555803,0,1
44724000,44700000,6620172,488.12158,95597.79,15.0,1.1555694,0,1
44796000,44772000,6620172,488.1028,95597.98,15.0,1.1555717,0,1
44868000,44842666,6620172,488.0934,95598.13,15.0,1.1555736,0,1
44936000,44914666,6620172,488.14038,95597.586,15.0,1.1555669,0,1
44988000,44976000,6620172,488.21548,95596.734,15.0,1.1555567,0,1
45060000,45036000,6620172,488.18262,95597.12,15.0,1.1555613,0,1
45132000,45108000,6620172,488.05588,95598.56,15.0,1.1555787,0,1
45204000,45180000,6620172,488.1075,95597.97,15.0,1.1555716,0,1
45276000,45252000,6620172,488.14508,95597.52,15.0,1.1555661,0,1
45348000,45324000,6620172,488.04178,95598.72,15.0,1.1555806,0,1
45416000,45394666,6620172,488.07465,95598.35,15.0,1.1555762,0,1
45468000,45456000,6620172,488.05118,95598.625,15.0,1.1555794,0,1
45540000,45516000,6620172,488.0887,95598.19,15.0,1.1555742,0,1
45612000,45588000,6620172,488.21548,95596.74,15.0,1.1555567,0,1
45684000,45660000,6620172,488.08405,95598.22,15.0,1.1555747,0,1
45756000,45732000,6620172,488.1169,95597.87,15.0,1.1555704,0,1
45828000,45804000,6620172,488.15445,95597.414,15.0,1.1555649,0,1
45900000,45876000,6620172,488.1075,95597.97,15.0,1.1555716,0,1
45972000,45948000,6620172,488.13568,95597.664,15.0,1.1555679,0,1
46044000,46020000,6620172,488.0981,95598.06,15.0,1.1555728,0,1
46116000,46092000,6620172,488.12158,95597.81,15.0,1.1555697,0,1
46188000,46164000,6620172,488.14038,95597.586,15.0,1.1555669,0,1
46260000,46234666,6620172,488.12628,95597.74,15.0,1.1555688,0,1
46332000,46308000,6620172,488.12158,95597.805,15.0,1.1555696,0,1
46404000,46380000,6620172,488.13098,95597.69,15.0,1.1555681,0,1
46476000,46452000,6620172,488.15445,95597.44,15.0,1.1555651,0,1
46548000,46524000,6620172,488.1122,95597.91,15.0,1.1555709,0,1
46620000,46596000,6620172,488.1122,95597.91,15.0,1.1555709,0,1
46692000,46668000,6620172,488.06055,95598.47,15.0,1.1555775,0,1
46764000,46740000,6620172,488.1169,95597.87,15.0,1.1555704,0,1
46836000,46809333,6620172,488.0089,95599.1,15.0,1.1555852,0,1
46908000,46884000,6620172,488.08405,95598.23,15.0,1.1555747,0,1
46980000,46956000,6620172,488.12158,95597.77,15.0,1.1555692,0,1
47052000,47028000,6620172,488.12158,95597.77,15.0,1.1555692,0,1
47124000,47100000,6620172,488.15445,95597.414,15.0,1.1555649,0,1
47196000,47172000,6620172,488.15445,95597.43,15.0,1.1555651,0,1
47268000,47244000,6620172,488.14975,95597.46,15.0,1.1555654,0,1
47336000,47314666,6620172,488.13568,95597.664,15.0,1.1555679,0,1
47388000,47376000,6620172,488.14508,95597.55,15.0,1.1555665,0,1
47460000,47436000,6620172,488.15445,95597.41,15.0,1.1555648,0,1
47532000,47508000,6620172,488.16385,95597.29,15.0,1.1555634,0,1
47604000,47580000,6620172,488.15915,95597.38,15.0,1.1555644,0,1
47676000,47652000,6620172,488.14508,95597.51,15.0,1.1555661,0,1
47748000,47724000,6620172,488.0981,95598.06,15.0,1.1555728,0,1
47820000,47796000,6620172,488.0136,95599.03,15.0,1.1555843,0,1
47892000,47868000,6620172,488.13098,95597.69,15.0,1.1555681,0,1
47964000,47940000,6620172,488.15445,95597.4,15.0,1.1555647,0,1
48036000,48012000,6620172,488.14975,95597.47,15.0,1.1555655,0,1
48108000,48084000,6620172,488.06525,95598.445,15.0,1.1555774,0,1
48180000,48156000,6620172,488.1075,95597.96,15.0,1.1555715,0,1
48252000,48228000,6620172,488.07935,95598.27,15.0,1.1555753,0,1
48324000,48300000,6620172,488.1169,95597.85,15.0,1.1555701,0,1
48396000,48370666,6620172,488.1169,95597.836,15.0,1.1555699,0,1
48468000,48444000,6620172,488.15915,95597.35,15.0,1.1555642,0,1
48540000,48516000,6620172,488.0887,95598.164,15.0,1.1555738,0,1
48612000,48588000,6620172,488.1169,95597.85,15.0,1.1555701,0,1
48684000,48660000,6620172,488.14975,95597.46,15.0,1.1555654,0,1
48756000,48732000,6620172,488.07465,95598.336,15.0,1.155576,0,1
48828000,48804000,6620172,488.14508,95597.52,15.0,1.1555661,0,1
48900000,48876000,6620172,488.07465,95598.35,15.0,1.1555762,0,1
48972000,48946666,6620172,488.12628,95597.76,15.0,1.155569,0,1
49044000,49020000,6620172,488.14975,95597.48,15.0,1.1555656,0,1
49116000,49092000,6620172,488.07935,95598.29,15.0,1.1555755,0,1
49188000,49164000,6620172,488.06055,95598.47,15.0,1.1555775,0,1
49260000,49236000,6620172,488.06995,95598.414,15.0,1.155577,0,1
49332000,49308000,6620172,488.13098,95597.71,15.0,1.1555685,0,1
49404000,49380000,6620172,488.13568,95597.664,15.0,1.1555679,0,1
49476000,49452000,6620172,488.17325,95597.19,15.0,1.1555622,0,1
49548000,49524000,6620172,488.17325,95597.22,15.0,1.1555625,0,1
49616000,49594666,6620172,488.18262,95597.09,15.0,1.155561,0,1
49668000,49656000,6620172,488.04648,95598.66,15.0,1.1555799,0,1
49740000,49716000,6620172,488.15445,95597.4,15.0,1.1555647,0,1
49812000,49788000,6620172,488.14038,95597.56,15.0,1.1555667,0,1
49884000,49860000,6620172,488.1122,95597.93,15.0,1.1555711,0,1
49956000,49930666,6620172,488.0934,95598.125,15.0,1.1555735,0,1
50028000,50004000,6620172,488.12158,95597.79,15.0,1.1555694,0,1
50100000,50073333,6620172,488.03238,95598.82,15.0,1.1555818,0,1
50172000,50148000,6620172,488.12628,95597.76,15.0,1.155569,0,1
50244000,50220000,6620172,488.14038,95597.586,15.0,1.1555669,0,1
50316000,50292000,6620172,488.19202,95596.98,15.0,1.1555595,0,1
50388000,50364000,6620172,488.12158,95597.81,15.0,1.1555697,0,1
50460000,50436000,6620172,488.13098,95597.695,15.0,1.1555682,0,1
50532000,50508000,6620172,488.0183,95598.945,15.0,1.1555834,0,1
50604000,50580000,6620172,488.16385,95597.29,15.0,1.1555634,0,1
50676000,50652000,6620172,488.12158,95597.81,15.0,1.1555697,0,1
50748000,50724000,6620172,488.21548,95596.76,15.0,1.1555569,0,1
50820000,50796000,6620172,488.13568,95597.664,15.0,1.1555679,0,1
50892000,50868000,6620172,488.12628,95597.74,15.0,1.1555688,0,1
50964000,50940000,6620172,488.20612,95596.84,15.0,1.155558,0,1
51036000,51012000,6620172,488.07935,95598.29,15.0,1.1555755,0,1
51108000,51084000,6620172,488.18262,95597.1,15.0,1.1555611,0,1
51180000,51154666,6620172,488.16855,95597.26,15.0,1.155563,0,1
51248000,51225333,6620172,488.0981,95598.03,15.0,1.1555723,0,1
51300000,51288000,6620172,488.19672,95596.95,15.0,1.1555593,0,1
51372000,51348000,6620172,488.0183,95598.945,15.0,1.1555834,0,1
51444000,51420000,6620172,488.1169,95597.84,15.0,1.15557,0,1
51516000,51492000,6620172,488.1122,95597.94,15.0,1.1555712,0,1
51588000,51564000,6620172,488.1122,95597.93,15.0,1.1555711,0,1
51660000,51636000,6620172,488.19202,95596.98,15.0,1.1555595,0,1
51732000,51708000,6620172,488.07935,95598.25,15.0,1.1555749,0,1
51804000,51780000,6620172,488.0934,95598.125,15.0,1.1555735,0,1
51876000,51852000,6620172,488.14508,95597.52,15.0,1.1555661,0,1
51948000,51924000,6620172,488.04648,95598.65,15.0,1.1555798,0,1
52020000,51996000,6620172,488.0887,95598.21,15.0,1.1555746,0,1
52092000,52068000,6620172,488.14508,95597.5,15.0,1.155566,0,1
52164000,52140000,6620172,488.12158,95597.79,15.0,1.1555694,0,1
52236000,52212000,6620172,488.05588,95598.57,15.0,1.1555789,0,1
52308000,52284000,6620172,488.1169,95597.875,15.0,1.1555704,0,1
52380000,52356000,6620172,488.21548,95596.73,15.0,1.1555566,0,1
52452000,52428000,6620172,488.1075,95597.97,15.0,1.1555716,0,1
52524000,52500000,6620172,488.07465,95598.35,15.0,1.1555762,0,1
52596000,52572000,6620172,488.16385,95597.336,15.0,1.155564,0,1
52668000,52642666,6620172,488.18732,95597.04,15.0,1.1555604,0,1
52740000,52716000,6620172,488.06995,95598.4,15.0,1.1555767,0,1
52812000,52788000,6620172,488.1122,95597.94,15.0,1.1555712,0,1
52884000,52860000,6620172,488.17325,95597.21,15.0,1.1555624,0,1
52956000,52932000,6620172,488.02768,95598.9,15.0,1.1555828,0,1
53028000,53004000,6620172,488.05588,95598.57,15.0,1.1555789,0,1
53100000,53076000,6620172,488.08405,95598.23,15.0,1.1555747,0,1
53172000,53148000,6620172,488.20142,95596.87,15.0,1.1555582,0,1
53244000,53220000,6620172,488.1028,95597.99,15.0,1.1555718,0,1
53316000,53292000,6620172,488.14038,95597.57,15.0,1.1555668,0,1
53388000,53364000,6620172,488.0089,95599.086,15.0,1.155585,0,1
53460000,53436000,6620172,488.18732,95597.055,15.0,1.1555605,0,1
53532000,53508000,6620172,488.06995,95598.414,15.0,1.155577,0,1
53604000,53580000,6620172,488.04648,95598.65,15.0,1.1555798,0,1
53676000,53652000,6620172,488.07465,95598.336,15.0,1.155576,0,1
53748000,53724000,6620172,488.17325,95597.23,15.0,1.1555625,0,1
53820000,53796000,6620172,488.16855,95597.27,15.0,1.1555632,0,1
53892000,53868000,6620172,488.04178,95598.71,15.0,1.1555805,0,1
53964000,53940000,6620172,488.13568,95597.62,15.0,1.1555673,0,1
54036000,54012000,6620172,488.13098,95597.69,15.0,1.1555681,0,1
54108000,54084000,6620172,488.13568,95597.66,15.0,1.1555678,0,1
54176000,54154666,6620172,488.07465,95598.305,15.0,1.1555756,0,1
54228000,54216000,6620172,488.1169,95597.84,15.0,1.15557,0,1
54300000,54276000,6620172,488.14038,95597.555,15.0,1.1555666,0,1
54372000,54348000,6620172,488.14975,95597.46,15.0,1.1555654,0,1
54444000,54420000,6620172,488.13098,95597.71,15.0,1.1555685,0,1
54516000,54492000,6620172,488.14038,95597.57,15.0,1.1555668,0,1
54588000,54564000,6620172,488.14038,95597.56,15.0,1.1555667,0,1
54660000,54636000,6620172,488.20612,95596.805,15.0,1.1555575,0,1
54732000,54708000,6620172,488.12158,95597.77,15.0,1.1555692,0,1
54804000,54780000,6620172,488.07465,95598.305,15.0,1.1555756,0,1
54876000,54852000,6620172,488.12158,95597.78,15.0,1.1555693,0,1
54948000,54924000,6620172,488.1075,95597.96,15.0,1.1555715,0,1
55020000,54996000,6620172,488.20142,95596.88,15.0,1.1555585,0,1
55092000,55068000,6620172,488.16855,95597.25,15.0,1.1555629,0,1
55164000,55140000,6620172,488.16855,95597.27,15.0,1.1555632,0,1
55236000,55212000,6620172,488.0934,95598.125,15.0,1.1555735,0,1
55308000,55282666,6620172,488.14038,95597.586,15.0,1.1555669,0,1
55380000,55356000,6620172,488.14975,95597.48,15.0,1.1555656,0,1
55452000,55428000,6620172,488.0887,95598.16,15.0,1.1555738,0,1
55524000,55498666,6620172,488.13568,95597.62,15.0,1.1555673,0,1
55596000,55572000,6620172,488.15445,95597.44,15.0,1.1555651,0,1
55668000,55644000,6620172,488.0887,95598.164,15.0,1.1555738,0,1
55740000,55716000,6620172,488.07935,95598.26,15.0,1.155575,0,1
55812000,55786666,6620172,488.0887,95598.164,15.0,1.1555738,0,1
55884000,55860000,6620172,488.12158,95597.77,15.0,1.1555692,0,1
55956000,55932000,6620172,488.14038,95597.56,15.0,1.1555667,0,1
56028000,56004000,6620172,488.07465,95598.336,15.0,1.155576,0,1
56100000,56076000,6620172,488.05118,95598.625,15.0,1.1555794,0,1
56172000,56148000,6620172,488.21548,95596.71,15.0,1.1555564,0,1
56244000,56220000,6620172,488.06995,95598.4,15.0,1.1555767,0,1
56316000,56292000,6620172,488.0042,95599.164,15.0,1.155586,0,1
56384000,56361333,6620172,488.17325,95597.19,15.0,1.1555622,0,1
56436000,56424000,6620172,488.07935,95598.25,15.0,1.1555749,0,1
56508000,56484000,6620172,488.1169,95597.87,15.0,1.1555704,0,1
56580000,56556000,6620172,488.05118,95598.586,15.0,1.1555791,0,1
56652000,56628000,6620172,488.16855,95597.26,15.0,1.155563,0,1
56724000,56700000,6620172,488.05118,95598.586,15.0,1.1555791,0,1
56796000,56772000,6620172,488.22018,95596.65,15.0,1.1555556,0,1
56868000,56844000,6620172,488.15915,95597.34,15.0,1.1555641,0,1
56940000,56916000,6620172,488.0934,95598.1,15.0,1.1555731,0,1
57012000,56988000,6620172,488.15915,95597.375,15.0,1.1555643,0,1
57084000,57060000,6620172,488.1122,95597.9,15.0,1.1555707,0,1
57156000,57132000,6620172,488.14508,95597.5,15.0,1.155566,0,1
57228000,57204000,6620172,488.1028,95597.98,15.0,1.1555717,0,1
57300000,57276000,6620172,488.03708,95598.77,15.0,1.1555814,0,1
57372000,57348000,6620172,488.1122,95597.914,15.0,1.1555709,0,1
57444000,57420000,6620172,488.0136,95599.04,15.0,1.1555845,0,1
57516000,57492000,6620172,488.1122,95597.914,15.0,1.1555709,0,1
57588000,57564000,6620172,488.0934,95598.15,15.0,1.1555737,0,1
57660000,57636000,6620172,488.13568,95597.66,15.0,1.1555678,0,1
57732000,57708000,6620172,488.0981,95598.086,15.0,1.1555729,0,1
57804000,57780000,6620172,488.06995,95598.4,15.0,1.1555767,0,1
57876000,57852000,6620172,488.07465,95598.35,15.0,1.1555762,0,1
57948000,57924000,6620172,488.17325,95597.21,15.0,1.1555624,0,1
58020000,57996000,6620172,488.17325,95597.22,15.0,1.1555625,0,1
58092000,58068000,6620172,488.07935,95598.27,15.0,1.1555753,0,1
58164000,58140000,6620172,488.05118,95598.6,15.0,1.1555792,0,1
58236000,58212000,6620172,488.15445,95597.41,15.0,1.1555648,0,1
58308000,58284000,6620172,488.13568,95597.63,15.0,1.1555675,0,1
58380000,58356000,6620172,488.12158,95597.78,15.0,1.1555693,0,1
58452000,58428000,6620172,488.14038,95597.555,15.0,1.1555666,0,1
58524000,58500000,6620172,488.05118,95598.6,15.0,1.1555792,0,1
58596000,58572000,6620172,488.15445,95597.4,15.0,1.1555647,0,1
58668000,58644000,6620172,488.14038,95597.59,15.0,1.155567,0,1
58740000,58716000,6620172,488.07465,95598.336,15.0,1.155576,0,1
58812000,58788000,6620172,488.14038,95597.586,15.0,1.1555669,0,1
58884000,58860000,6620172,488.07465,95598.34,15.0,1.1555761,0,1
58956000,58932000,6620172,488.13098,95597.69,15.0,1.1555681,0,1
59028000,59004000,6620172,488.23428,95596.52,15.0,1.155554,0,1
59096000,59074666,6620172,488.06525,95598.44,15.0,1.1555773,0,1
59148000,59136000,6620172,488.14975,95597.484,15.0,1.1555657,0,1
59220000,59196000,6620172,488.13098,95597.72,15.0,1.1555686,0,1
59292000,59268000,6620172,488.14508,95597.51,15.0,1.1555661,0,1
59364000,59340000,6620172,488.0934,95598.09,15.0,1.155573,0,1
59436000,59412000,6620172,487.9995,95599.19,15.0,1.1555862,0,1
59508000,59484000,6620172,488.1169,95597.875,15.0,1.1555704,0,1
59580000,59554666,6620172,488.07465,95598.35,15.0,1.1555762,0,1
59652000,59628000,6620172,488.0887,95598.19,15.0,1.1555742,0,1
59724000,59700000,6620172,488.1122,95597.91,15.0,1.1555709,0,1
59796000,59770666,6620172,488.06055,95598.46,15.0,1.1555775,0,1
59864000,59842666,6620172,488.13098,95597.71,15.0,1.1555685,0,1
59916000,59904000,6620172,488.27652,95596.04,15.0,1.1555482,0,1
59988000,59964000,6620172,488.0934,95598.09,15.0,1.155573,0,1
60060000,60036000,6620172,488.1075,95597.96,15.0,1.1555715,0,1
60132000,60108000,6620172,487.99484,95599.25,15.0,1.155587,0,1
60204000,60180000,6620172,488.23428,95596.52,15.0,1.155554,0,1
60276000,60252000,6620172,488.13098,95597.73,15.0,1.1555686,0,1
60348000,60324000,6620172,488.17795,95597.15,15.0,1.1555616,0,1
60420000,60396000,6620172,488.17325,95597.19,15.0,1.1555622,0,1
60492000,60468000,6620172,488.17795,95597.15,15.0,1.1555616,0,1
60564000,60540000,6620172,488.03238,95598.84,15.0,1.1555822,0,1
60636000,60612000,6620172,488.17795,95597.13,15.0,1.1555614,0,1
60708000,60684000,6620172,488.14038,95597.56,15.0,1.1555667,0,1
60780000,60756000,6620172,488.03708,95598.74,15.0,1.1555809,0,1
60852000,60828000,6620172,488.1169,95597.82,15.0,1.1555698,0,1
60924000,60898666,6620172,488.13568,95597.65,15.0,1.1555678,0,1
60996000,60972000,6620172,488.16385,95597.305,15.0,1.1555635,0,1
61068000,61042666,6620172,488.03238,95598.836,15.0,1.1555821,0,1
61140000,61116000,6620172,488.0183,95598.945,15.0,1.1555834,0,1
61212000,61188000,6620172,488.0887,95598.19,15.0,1.1555742,0,1
61284000,61260000,6620172,488.14508,95597.53,15.0,1.1555662,0,1
61356000,61332000,6620172,488.18732,95597.055,15.0,1.1555605,0,1
61428000,61402666,6620172,488.03708,95598.77,15.0,1.1555814,0,1
61500000,61476000,6620172,488.06055,95598.5,15.0,1.155578,0,1
61572000,61548000,6620172,488.0934,95598.1,15.0,1.1555731,0,1
61644000,61620000,6620172,488.13098,95597.73,15.0,1.1555686,0,1
61716000,61692000,6620172,488.0887,95598.195,15.0,1.1555743,0,1
61788000,61764000,6620172,488.14038,95597.555,15.0,1.1555666,0,1
61860000,61836000,6620172,488.22018,95596.664,15.0,1.1555557,0,1
61932000,61908000,6620172,488.1075,95597.945,15.0,1.1555712,0,1
62004000,61980000,6620172,488.17325,95597.23,15.0,1.1555625,0,1
62076000,62052000,6620172,488.1028,95598.02,15.0,1.1555722,0,1
62148000,62124000,6620172,488.17325,95597.19,15.0,1.1555622,0,1
62220000,62196000,6620172,488.16855,95597.26,15.0,1.155563,0,1
62292000,62268000,6620172,488.06055,95598.46,15.0,1.1555775,0,1
62364000,62340000,6620172,488.06995,95598.375,15.0,1.1555765,0,1
62436000,62412000,6620172,488.1028,95598.02,15.0,1.1555722,0,1
62508000,62484000,6620172,488.16855,95597.25,15.0,1.1555629,0,1
62580000,62556000,6620172,488.18262,95597.12,15.0,1.1555613,0,1
62652000,62628000,6620172,488.25305,95596.28,15.0,1.1555512,0,1
62720000,62698666,6620172,488.19202,95596.99,15.0,1.1555598,0,1
62772000,62760000,6620172,488.04648,95598.69,15.0,1.1555803,0,1
62844000,62820000,6620172,488.07935,95598.27,15.0,1.1555753,0,1
62916000,62890666,6620172,488.1122,95597.9,15.0,1.1555707,0,1
62988000,62964000,6620172,488.12628,95597.75,15.0,1.155569,0,1
63060000,63036000,6620172,488.1122,95597.9,15.0,1.1555707,0,1
63132000,63106666,6620172,488.05588,95598.52,15.0,1.1555783,0,1
63204000,63180000,6620172,488.06995,95598.38,15.0,1.1555766,0,1
63276000,63252000,6620172,488.0934,95598.09,15.0,1.155573,0,1
63348000,63324000,6620172,488.1169,95597.875,15.0,1.1555704,0,1
63420000,63396000,6620172,488.0981,95598.086,15.0,1.1555729,0,1
63492000,63468000,6620172,488.0981,95598.04,15.0,1.1555724,0,1
63564000,63540000,6620172,488.06995,95598.4,15.0,1.1555767,0,1
63636000,63612000,6620172,488.1122,95597.93,15.0,1.1555711,0,1
63708000,63684000,6620172,488.1122,95597.9,15.0,1.1555707,0,1
63780000,63756000,6620172,488.2108,95596.79,15.0,1.1555573,0,1
63852000,63828000,6620172,488.14038,95597.56,15.0,1.1555667,0,1
63924000,63900000,6620172,488.0934,95598.13,15.0,1.1555736,0,1
63996000,63972000,6620172,488.16855,95597.25,15.0,1.1555629,0,1
64068000,64044000,6620172,488.06525,95598.44,15.0,1.1555773,0,1
64140000,64116000,6620172,488.15445,95597.4,15.0,1.1555647,0,1
64212000,64188000,6620172,488.18732,95597.06,15.0,1.1555606,0,1
64284000,64258666,6620172,488.06055,95598.49,15.0,1.1555779,0,1
64356000,64332000,6620172,488.04648,95598.65,15.0,1.1555798,0,1
64424000,64402666,6620172,488.14038,95597.586,15.0,1.1555669,0,1
64500000,64474666,6620172,488.13568,95597.625,15.0,1.1555674,0,1
64572000,64548000,6620172,488.0887,95598.18,15.0,1.1555741,0,1
64644000,64620000,6620172,488.15915,95597.34,15.0,1.1555641,0,1
64716000,64692000,6620172,488.15445,95597.414,15.0,1.1555649,0,1
64788000,64762666,6620172,488.15915,95597.375,15.0,1.1555643,0,1
64860000,64836000,6620172,488.15445,95597.414,15.0,1.1555649,0,1
64932000,64906666,6620172,488.14038,95597.57,15.0,1.1555668,0,1
65004000,64980000,6620172,488.12158,95597.805,15.0,1.1555696,0,1
65076000,65052000,6620172,488.07465,95598.305,15.0,1.1555756,0,1
65148000,65124000,6620172,488.13568,95597.625,15.0,1.1555674,0,1
65220000,65196000,6620172,488.0981,95598.03,15.0,1.1555723,0,1
65292000,65268000,6620172,488.0934,95598.15,15.0,1.1555737,0,1
65364000,65340000,6620172,488.06055,95598.48,15.0,1.1555777,0,1
65436000,65412000,6620172,488.1169,95597.87,15.0,1.1555704,0,1
65508000,65484000,6620172,488.19672,95596.97,15.0,1.1555594,0,1
65580000,65554666,6620172,488.15445,95597.44,15.0,1.1555651,0,1
65652000,65628000,6620172,488.15445,95597.445,15.0,1.1555651,0,1
65724000,65700000,6620172,488.21548,95596.75,15.0,1.1555568,0,1
65796000,65772000,6620172,488.13098,95597.72,15.0,1.1555686,0,1
65868000,65842666,6620172,488.14508,95597.49,15.0,1.1555659,0,1
65940000,65916000,6620172,488.04178,95598.73,15.0,1.1555808,0,1
66012000,65988000,6620172,488.14038,95597.6,15.0,1.155567,0,1
66084000,66060000,6620172,488.18262,95597.07,15.0,1.1555607,0,1
66156000,66132000,6620172,488.0934,95598.1,15.0,1.1555731,0,1
66228000,66204000,6620172,488.0183,95599.0,15.0,1.1555841,0,1
66300000,66276000,6620172,488.1122,95597.93,15.0,1.1555711,0,1
66372000,66348000,6620172,488.0887,95598.19,15.0,1.1555742,0,1
66444000,66420000,6620172,488.1028,95598.01,15.0,1.155572,0,1
66516000,66492000,6620172,488.06995,95598.414,15.0,1.155577,0,1
66588000,66564000,6620172,488.17795,95597.16,15.0,1.1555617,0,1
66660000,66636000,6620172,488.0042,95599.16,15.0,1.155586,0,1
66732000,66708000,6620172,488.05118,95598.625,15.0,1.1555794,0,1
66804000,66780000,6620172,488.14975,95597.46,15.0,1.1555654,0,1
66876000,66852000,6620172,488.14975,95597.48,15.0,1.1555656,0,1
66948000,66924000,6620172,488.14508,95597.49,15.0,1.1555659,0,1
67020000,66996000,6620172,488.1169,95597.836,15.0,1.1555699,0,1
67092000,67068000,6620172,488.20612,95596.81,15.0,1.1555575,0,1
67164000,67140000,6620172,488.14508,95597.5,15.0,1.155566,0,1
67236000,67212000,6620172,488.06995,95598.4,15.0,1.1555767,0,1
67308000,67284000,6620172,488.07935,95598.25,15.0,1.1555749,0,1
67380000,67356000,6620172,488.13098,95597.71,15.0,1.1555685,0,1
67452000,67426666,6620172,488.0934,95598.15,15.0,1.1555737,0,1
67524000,67500000,6620172,488.13098,95597.68,15.0,1.155568,0,1
67596000,67572000,6620172,488.16385,95597.305,15.0,1.1555635,0,1
67668000,67644000,6620172,488.14038,95597.56,15.0,1.1555667,0,1
67740000,67716000,6620172,488.03708,95598.78,15.0,1.1555814,0,1
67812000,67788000,6620172,488.18262,95597.125,15.0,1.1555613,0,1
67884000,67860000,6620172,488.17325,95597.22,15.0,1.1555625,0,1
67956000,67930666,6620172,488.05118,95598.586,15.0,1.1555791,0,1
68028000,68004000,6620172,488.13098,95597.73,15.0,1.1555686,0,1
68100000,68076000,6620172,488.18732,95597.055,15.0,1.1555605,0,1
68172000,68148000,6620172,488.04648,95598.65,15.0,1.1555798,0,1
68244000,68220000,6620172,488.0887,95598.164,15.0,1.1555738,0,1
