timestamp,unallocated_torque[0],unallocated_torque[1],unallocated_torque[2],unallocated_thrust[0],unallocated_thrust[1],unallocated_thrust[2],handled_motor_failure_mask,torque_setpoint_achieved,thrust_setpoint_achieved,actuator_saturation[0],actuator_saturation[1],actuator_saturation[2],actuator_saturation[3],actuator_saturation[4],actuator_saturation[5],actuator_saturation[6],actuator_saturation[7],actuator_saturation[8],actuator_saturation[9],actuator_saturation[10],actuator_saturation[11],actuator_saturation[12],actuator_saturation[13],actuator_saturation[14],actuator_saturation[15]
1264000,0.0023397799,0.003150891,7.31711e-05,0.0,0.0,0.0,0,0,1,-2,-2,-2,-2,2,2,2,2,2,2,2,2,2,2,2,2
1272000,-0.00060741877,0.0016645372,8.0663e-05,0.0,0.0,0.0,0,0,1,-2,-2,-2,-2,2,2,2,2,2,2,2,2,2,2,2,2
1464000,0.0056222538,-0.0005572928,0.00032387744,0.0,0.0,1.959658e-11,0,0,1,-2,-2,-2,-2,2,2,2,2,2,2,2,2,2,2,2,2
1664000,-0.0016126044,-0.0027038008,-0.0006818539,0.0,0.0,3.919316e-11,0,0,1,-2,-2,-2,-2,2,2,2,2,2,2,2,2,2,2,2,2
1864000,0.0042071985,0.00038888055,-0.00029523813,0.0,0.0,7.094059e-11,0,0,1,-2,-2,-2,-2,2,2,2,2,2,2,2,2,2,2,2,2
2064000,0.0035793884,0.0021571273,0.00016953259,0.0,0.0,0.0,0,0,1,0,-2,0,-2,2,2,2,2,2,2,2,2,2,2,2,2
2264000,0.0020650541,0.0012654946,0.000112473266,0.0,0.0,-1.1641532e-10,0,0,1,0,-2,0,-2,2,2,2,2,2,2,2,2,2,2,2,2
2464000,0.0036743043,0.0006905098,-5.856118e-06,0.0,0.0,-1.1641532e-10,0,0,1,0,-2,0,-2,2,2,2,2,2,2,2,2,2,2,2,2
2664000,-0.0017217229,0.0037715654,0.000264401,0.0,0.0,-1.1641532e-10,0,0,1,0,-2,0,-2,2,2,2,2,2,2,2,2,2,2,2,2
2864000,0.002056003,-1.4551915e-11,2.910383e-11,0.0,0.0,-1.1641532e-10,0,0,1,0,0,0,0,2,2,2,2,2,2,2,2,2,2,2,2
3064000,0.0025263675,0.0066491286,0.033435356,0.0,0.0,1.1641532e-10,0,0,1,0,-2,0,-2,2,2,2,2,2,2,2,2,2,2,2,2
3264000,0.00050458,0.00040162844,0.0027465778,0.0,0.0,0.0,0,0,1,0,-2,0,-2,2,2,2,2,2,2,2,2,2,2,2,2
3464000,0.0005347319,-1.1641532e-10,0.0010467923,0.0,0.0,-1.1641532e-10,0,0,1,0,0,0,-2,2,2,2,2,2,2,2,2,2,2,2,2
3664000,0.0004630753,0.0021471197,0.0007417998,0.0,0.0,0.0,0,0,1,0,-2,0,-2,2,2,2,2,2,2,2,2,2,2,2,2
3864000,-1.1641532e-10,2.910383e-11,1.7462298e-10,0.0,0.0,-1.1641532e-10,0,1,1,0,0,0,0,2,2,2,2,2,2,2,2,2,2,2,2
4064000,0.0024552369,0.0008204705,0.0001473469,0.0,0.0,-1.1641532e-10,0,0,1,0,-2,0,-2,2,2,2,2,2,2,2,2,2,2,2,2
4264000,0.00547959,0.0032383788,0.00027023873,0.0,0.0,-1.1641532e-10,0,0,1,0,-2,0,-2,2,2,2,2,2,2,2,2,2,2,2,2
4464000,0.0053750817,0.0010003538,-0.00030234442,0.0,0.0,-1.1641532e-10,0,0,1,0,-2,0,-2,2,2,2,2,2,2,2,2,2,2,2,2
4664000,0.0033692583,-1.1641532e-10,0.00046947712,0.0,0.0,-1.1641532e-10,0,0,1,0,0,0,-2,2,2,2,2,2,2,2,2,2,2,2,2
4864000,0.0033404515,-1.1641532e-10,-0.00026330198,0.0,0.0,-1.1641532e-10,0,0,1,-2,0,0,0,2,2,2,2,2,2,2,2,2,2,2,2
5064000,-0.000110312016,5.820766e-11,-7.275958e-12,0.0,0.0,-1.1641532e-10,0,1,1,0,0,0,0,2,2,2,2,2,2,2,2,2,2,2,2
5264000,0.0026108709,0.0,0.00010651868,0.0,0.0,-1.1641532e-10,0,0,1,0,0,-2,0,2,2,2,2,2,2,2,2,2,2,2,2
5464000,0.0014955151,5.820766e-11,-9.2582486e-05,0.0,0.0,0.0,0,0,1,-2,0,0,0,2,2,2,2,2,2,2,2,2,2,2,2
5664000,0.0003580947,0.0041159713,-0.0006373253,0.0,0.0,0.0,0,0,1,0,-2,0,-2,2,2,2,2,2,2,2,2,2,2,2,2
5864000,-1.1641532e-10,0.0,8.731149e-11,0.0,0.0,-1.1641532e-10,0,1,1,0,0,0,0,2,2,2,2,2,2,2,2,2,2,2,2
6064000,0.0013404123,1.1641532e-10,0.0007559137,0.0,0.0,-1.1641532e-10,0,0,1,0,0,0,-2,2,2,2,2,2,2,2,2,2,2,2,2
6256000,-0.0012531903,-0.0009950055,-0.0006645164,0.0,0.0,-1.1641532e-10,0,0,1,-2,0,-2,0,2,2,2,2,2,2,2,2,2,2,2,2
6464000,0.0025691437,-0.003162337,-0.00047422413,0.0,0.0,0.0,0,0,1,-2,0,-2,0,2,2,2,2,2,2,2,2,2,2,2,2
6664000,0.0032068072,0.0,0.00035756396,0.0,0.0,0.0,0,0,1,0,0,0,-2,2,2,2,2,2,2,2,2,2,2,2,2
6864000,0.0,-1.1641532e-10,-5.6258752e-05,0.0,0.0,-1.1641532e-10,0,1,1,0,-2,0,0,2,2,2,2,2,2,2,2,2,2,2,2
7064000,0.0027542976,-8.540461e-05,0.00016466444,0.0,0.0,-1.1641532e-10,0,0,1,-2,0,-2,0,2,2,2,2,2,2,2,2,2,2,2,2
7264000,0.0012284961,-8.731149e-11,-0.00013381994,0.0,0.0,-1.1641532e-10,0,0,1,-2,0,0,0,2,2,2,2,2,2,2,2,2,2,2,2
7464000,0.002242135,-0.001854716,6.795167e-06,0.0,0.0,-1.1641532e-10,0,0,1,-2,0,-2,0,2,2,2,2,2,2,2,2,2,2,2,2
7664000,-0.0028365282,-5.5127894e-05,-0.0001725902,0.0,0.0,-1.1641532e-10,0,0,1,-2,0,-2,0,2,2,2,2,2,2,2,2,2,2,2,2
7864000,0.0011272008,-0.0026534784,-0.0001106348,0.0,0.0,-1.1641532e-10,0,0,1,-2,0,-2,0,2,2,2,2,2,2,2,2,2,2,2,2
8064000,0.0052766716,-0.0027086386,0.0008380532,0.0,0.0,0.0,0,0,1,-2,0,-2,0,2,2,2,2,2,2,2,2,2,2,2,2
8264000,0.002168925,0.0006188741,-9.023671e-05,0.0,0.0,-1.1641532e-10,0,0,1,0,-2,0,-2,2,2,2,2,2,2,2,2,2,2,2,2
8464000,0.0004937575,0.0028151614,0.0008990966,0.0,0.0,0.0,0,0,1,0,-2,0,-2,2,2,2,2,2,2,2,2,2,2,2,2
8664000,0.0025657956,0.0,4.6992354e-05,0.0,0.0,0.0,0,0,1,0,0,0,-2,2,2,2,2,2,2,2,2,2,2,2,2
8864000,0.0031240748,0.00085319777,0.00059984694,0.0,0.0,0.0,0,0,1,0,-2,0,-2,2,2,2,2,2,2,2,2,2,2,2,2
9064000,-5.820766e-11,-2.910383e-11,0.0004764426,0.0,0.0,-1.1641532e-10,0,1,1,0,0,0,-2,2,2,2,2,2,2,2,2,2,2,2,2
9264000,-0.0020897817,-0.00017725234,0.0007132097,0.0,0.0,-1.1641532e-10,0,0,1,-2,0,-2,0,2,2,2,2,2,2,2,2,2,2,2,2
9464000,1.1641532e-10,1.1641532e-10,2.910383e-11,0.0,0.0,-1.1641532e-10,0,1,1,0,0,0,0,2,2,2,2,2,2,2,2,2,2,2,2
9664000,-0.0011971722,-0.0010832776,0.0002533952,0.0,0.0,-1.1641532e-10,0,0,1,-2,0,-2,0,2,2,2,2,2,2,2,2,2,2,2,2
9864000,-0.0024631403,0.00093691144,1.645803e-05,0.0,0.0,-1.1641532e-10,0,0,1,0,-2,0,-2,2,2,2,2,2,2,2,2,2,2,2,2
10064000,-0.002184268,0.0016046627,0.00042802587,0.0,0.0,-1.1641532e-10,0,0,1,0,-2,0,-2,2,2,2,2,2,2,2,2,2,2,2,2
10264000,0.0037856821,1.1641532e-10,-0.00036294037,0.0,0.0,-1.1641532e-10,0,0,1,-2,0,0,0,2,2,2,2,2,2,2,2,2,2,2,2
10464000,-0.002990591,-0.0020389964,0.00031223148,0.0,0.0,-1.1641532e-10,0,0,1,-2,0,-2,0,2,2,2,2,2,2,2,2,2,2,2,2
10664000,-0.0016627634,-0.0023190673,0.0006165918,0.0,0.0,0.0,0,0,1,-2,0,-2,0,2,2,2,2,2,2,2,2,2,2,2,2
10864000,-0.0051313834,-0.005528825,-0.00011904395,0.0,0.0,0.0,0,0,1,-2,0,-2,0,2,2,2,2,2,2,2,2,2,2,2,2
11056000,0.00088636467,0.0,0.00073896925,0.0,0.0,-1.1641532e-10,0,0,1,0,0,0,-2,2,2,2,2,2,2,2,2,2,2,2,2
11264000,0.008075783,-1.1641532e-10,0.00022861853,0.0,0.0,-1.1641532e-10,0,0,1,0,0,-2,0,2,2,2,2,2,2,2,2,2,2,2,2
11464000,0.00037868955,7.278158e-05,0.00035119348,0.0,0.0,-1.1641532e-10,0,1,1,0,-2,0,-2,2,2,2,2,2,2,2,2,2,2,2,2
11664000,0.0014304311,-0.005892841,8.904489e-07,0.0,0.0,-2.3283064e-10,0,0,1,-2,0,-2,0,2,2,2,2,2,2,2,2,2,2,2,2
11864000,-0.00033028098,0.0,1.1641532e-10,0.0,0.0,-1.1641532e-10,0,1,1,0,0,0,0,2,2,2,2,2,2,2,2,2,2,2,2
12064000,0.0005055285,-0.0023420847,0.00020201024,0.0,0.0,-1.1641532e-10,0,0,1,-2,0,-2,0,2,2,2,2,2,2,2,2,2,2,2,2
12264000,0.0046404167,-0.002986294,0.00019500789,0.0,0.0,-1.1641532e-10,0,0,1,-2,0,-2,0,2,2,2,2,2,2,2,2,2,2,2,2
12464000,-0.00094379776,0.0006401483,0.0003565734,0.0,0.0,-1.1641532e-10,0,0,1,0,-2,0,-2,2,2,2,2,2,2,2,2,2,2,2,2
12664000,-0.0030022392,-0.008148849,0.0005559319,0.0,0.0,1.1641532e-10,0,0,1,-2,0,-2,0,2,2,2,2,2,2,2,2,2,2,2,2
12864000,0.001407788,0.0,0.0010102782,0.0,0.0,-1.1641532e-10,0,0,1,0,0,0,-2,2,2,2,2,2,2,2,2,2,2,2,2
13064000,1.4551915e-10,0.0,8.731149e-11,0.0,0.0,-1.1641532e-10,0,1,1,0,0,0,0,2,2,2,2,2,2,2,2,2,2,2,2
13264000,-0.00015027479,-0.0023418018,-0.00029120405,0.0,0.0,-1.1641532e-10,0,0,1,-2,0,-2,0,2,2,2,2,2,2,2,2,2,2,2,2
13464000,-1.7462298e-10,-5.820766e-11,-1.8695719e-05,0.0,0.0,-1.1641532e-10,0,1,1,-2,0,0,0,2,2,2,2,2,2,2,2,2,2,2,2
13664000,0.002208626,0.0052211676,0.000572385,0.0,0.0,-2.3283064e-10,0,0,1,0,-2,0,-2,2,2,2,2,2,2,2,2,2,2,2,2
13864000,0.0035261558,0.00069935364,0.00040405605,0.0,0.0,-1.1641532e-10,0,0,1,0,-2,0,-2,2,2,2,2,2,2,2,2,2,2,2,2
14064000,2.910383e-11,1.1641532e-10,-3.8198777e-11,0.0,0.0,-1.1641532e-10,0,1,1,0,0,0,0,2,2,2,2,2,2,2,2,2,2,2,2
14264000,-1.1641532e-10,5.820766e-11,1.7462298e-10,0.0,0.0,-1.1641532e-10,0,1,1,0,0,0,0,2,2,2,2,2,2,2,2,2,2,2,2
14464000,-0.00021599914,0.0013892807,-0.00048207038,0.0,0.0,-1.1641532e-10,0,0,1,0,-2,0,-2,2,2,2,2,2,2,2,2,2,2,2,2
14664000,0.00034448982,5.820766e-11,0.00030444894,0.0,0.0,-1.1641532e-10,0,1,1,0,0,0,-2,2,2,2,2,2,2,2,2,2,2,2,2
14864000,0.003677827,-0.00085313816,0.000102252154,0.0,0.0,0.0,0,0,1,-2,0,-2,0,2,2,2,2,2,2,2,2,2,2,2,2
15064000,0.002532782,-0.00052967714,-0.00013813695,0.0,0.0,-1.1641532e-10,0,0,1,-2,0,-2,0,2,2,2,2,2,2,2,2,2,2,2,2
15264000,-0.0012313081,-0.004436322,0.00043429882,0.0,0.0,-1.1641532e-10,0,0,1,-2,0,-2,0,2,2,2,2,2,2,2,2,2,2,2,2
15456000,0.001649031,-1.1641532e-10,4.715296e-05,0.0,0.0,-1.1641532e-10,0,0,1,0,0,0,-2,2,2,2,2,2,2,2,2,2,2,2,2
15664000,0.0010352043,-0.002065491,-0.00030203717,0.0,0.0,0.0,0,0,1,-2,0,-2,0,2,2,2,2,2,2,2,2,2,2,2,2
15856000,0.00070668693,-0.0017755742,-0.00014618755,0.0,0.0,-1.1641532e-10,0,0,1,-2,0,-2,0,2,2,2,2,2,2,2,2,2,2,2,2
16064000,-0.00045060308,2.910383e-11,-1.4551915e-10,0.0,0.0,-1.1641532e-10,0,1,1,0,0,0,0,2,2,2,2,2,2,2,2,2,2,2,2
16264000,0.004590428,5.820766e-11,-1.0595875e-05,0.0,0.0,-1.1641532e-10,0,0,1,-2,0,0,0,2,2,2,2,2,2,2,2,2,2,2,2
16464000,0.0024564038,-5.820766e-11,2.910383e-11,0.0,0.0,-1.1641532e-10,0,0,1,0,0,0,0,2,2,2,2,2,2,2,2,2,2,2,2
16664000,4.656613e-10,-6.548362e-11,-0.00022248086,0.0,0.0,-1.1641532e-10,0,1,1,0,-2,0,0,2,2,2,2,2,2,2,2,2,2,2,2
16864000,-0.0015173412,-0.00471003,-0.00018731231,0.0,0.0,0.0,0,0,1,-2,0,-2,0,2,2,2,2,2,2,2,2,2,2,2,2
17064000,0.00055171526,-6.184564e-11,-0.00013344933,0.0,0.0,-1.1641532e-10,0,1,1,-2,0,0,0,2,2,2,2,2,2,2,2,2,2,2,2
17264000,7.890383e-05,-0.0029609255,-0.00017842474,0.0,0.0,-2.3283064e-10,0,0,1,-2,0,-2,0,2,2,2,2,2,2,2,2,2,2,2,2
17464000,0.0028052363,-1.1641532e-10,-0.00014815314,0.0,0.0,-1.1641532e-10,0,0,1,-2,0,0,0,2,2,2,2,2,2,2,2,2,2,2,2
17664000,-0.00025210626,-0.0037418704,-0.00017528003,0.0,0.0,-1.1641532e-10,0,0,1,-2,0,-2,0,2,2,2,2,2,2,2,2,2,2,2,2
17864000,0.0025209687,-0.0008588494,-0.00032294804,0.0,0.0,-1.1641532e-10,0,0,1,-2,0,-2,0,2,2,2,2,2,2,2,2,2,2,2,2
18064000,-0.00056407123,0.0014586176,0.00014981363,0.0,0.0,0.0,0,0,1,0,-2,0,-2,2,2,2,2,2,2,2,2,2,2,2,2
18264000,0.002139278,-0.0013603751,-0.00018342362,0.0,0.0,0.0,0,0,1,-2,0,-2,0,2,2,2,2,2,2,2,2,2,2,2,2
18464000,-0.002326726,-0.0014450075,0.0009808878,0.0,0.0,0.0,0,0,1,-2,0,-2,0,2,2,2,2,2,2,2,2,2,2,2,2
18664000,0.0007649824,-0.0010076878,-0.00013343294,0.0,0.0,-1.1641532e-10,0,0,1,-2,0,-2,0,2,2,2,2,2,2,2,2,2,2,2,2
18864000,0.00035785022,1.1277734e-10,5.0454237e-05,0.0,0.0,-1.1641532e-10,0,1,1,0,0,0,-2,2,2,2,2,2,2,2,2,2,2,2,2
19064000,0.0016240063,-0.00017512287,-0.00014921337,0.0,0.0,-1.1641532e-10,0,0,1,-2,0,-2,0,2,2,2,2,2,2,2,2,2,2,2,2
19264000,0.005118068,0.0024566134,-7.228373e-06,0.0,0.0,0.0,0,0,1,0,-2,0,-2,2,2,2,2,2,2,2,2,2,2,2,2
19456000,-0.0018854485,-0.0030515778,-0.00023892529,0.0,0.0,1.1641532e-10,0,0,1,-2,0,-2,0,2,2,2,2,2,2,2,2,2,2,2,2
19656000,-1.2369128e-10,-1.1641532e-10,-0.00053645484,0.0,0.0,0.0,0,1,1,0,-2,0,0,2,2,2,2,2,2,2,2,2,2,2,2
19864000,0.0024773339,0.0008165422,0.0005192405,0.0,0.0,-1.1641532e-10,0,0,1,0,-2,0,-2,2,2,2,2,2,2,2,2,2,2,2,2
20056000,0.0007330751,0.0,0.00087264256,0.0,0.0,-1.1641532e-10,0,0,1,0,0,0,-2,2,2,2,2,2,2,2,2,2,2,2,2
20264000,0.0055457572,-1.1641532e-10,0.00058379216,0.0,0.0,-1.1641532e-10,0,0,1,0,0,-2,0,2,2,2,2,2,2,2,2,2,2,2,2
20464000,0.004374397,5.820766e-11,5.820766e-11,0.0,0.0,-1.1641532e-10,0,0,1,0,0,0,0,2,2,2,2,2,2,2,2,2,2,2,2
20664000,0.0036129507,-0.00036347087,-0.00041157668,0.0,0.0,-1.1641532e-10,0,0,1,-2,0,-2,0,2,2,2,2,2,2,2,2,2,2,2,2
20864000,0.0036617094,-1.1641532e-10,-0.00059003383,0.0,0.0,-1.1641532e-10,0,0,1,0,-2,0,0,2,2,2,2,2,2,2,2,2,2,2,2
21064000,0.0060139927,-0.005885119,-0.00029944585,0.0,0.0,1.1641532e-10,0,0,1,-2,0,-2,0,2,2,2,2,2,2,2,2,2,2,2,2
21264000,0.004971431,0.0007123123,-0.00016022232,0.0,0.0,-1.1641532e-10,0,0,1,0,-2,0,-2,2,2,2,2,2,2,2,2,2,2,2,2
21464000,0.007461683,-0.0060498463,-0.000669704,0.0,0.0,-1.1641532e-10,0,0,1,-2,0,-2,0,2,2,2,2,2,2,2,2,2,2,2,2
21664000,0.0019902221,-0.004325367,0.00015775679,0.0,0.0,0.0,0,0,1,-2,0,-2,0,2,2,2,2,2,2,2,2,2,2,2,2
21864000,0.00073130603,-0.006045101,-0.0005315703,0.0,0.0,-2.3283064e-10,0,0,1,-2,0,-2,0,2,2,2,2,2,2,2,2,2,2,2,2
22064000,-0.0006690497,-0.004703476,1.5184349e-05,0.0,0.0,-2.3283064e-10,0,0,1,-2,0,-2,0,2,2,2,2,2,2,2,2,2,2,2,2
22264000,0.0023707075,-1.1641532e-10,8.731149e-11,0.0,0.0,0.0,0,0,1,0,0,0,0,2,2,2,2,2,2,2,2,2,2,2,2
22464000,0.0028057012,-0.0013677652,0.0003446591,0.0,0.0,-1.1641532e-10,0,0,1,-2,0,-2,0,2,2,2,2,2,2,2,2,2,2,2,2
22664000,0.005180025,-8.731149e-11,0.00031671696,0.0,0.0,-2.3283064e-10,0,0,1,0,0,0,-2,2,2,2,2,2,2,2,2,2,2,2,2
22864000,0.0027354092,5.820766e-11,0.0,0.0,0.0,-1.1641532e-10,0,0,1,0,0,0,0,2,2,2,2,2,2,2,2,2,2,2,2
23064000,0.0016758243,0.0,0.00044515115,0.0,0.0,-1.1641532e-10,0,0,1,0,0,0,-2,2,2,2,2,2,2,2,2,2,2,2,2
23264000,0.0022737097,-0.0039021443,-0.00012052715,0.0,0.0,0.0,0,0,1,-2,0,-2,0,2,2,2,2,2,2,2,2,2,2,2,2
23464000,0.0019329601,0.001947561,4.762729e-05,0.0,0.0,-1.1641532e-10,0,0,1,0,-2,0,-2,2,2,2,2,2,2,2,2,2,2,2,2
23664000,0.0027839202,1.7462298e-10,2.910383e-11,0.0,0.0,-1.1641532e-10,0,0,1,0,0,0,0,2,2,2,2,2,2,2,2,2,2,2,2
23864000,0.003256801,-0.0012822619,-0.00030378,0.0,0.0,-1.1641532e-10,0,0,1,-2,0,-2,0,2,2,2,2,2,2,2,2,2,2,2,2
24064000,0.0001986234,0.0008026571,0.00024754705,0.0,0.0,-1.1641532e-10,0,1,1,0,-2,0,-2,2,2,2,2,2,2,2,2,2,2,2,2
24264000,-0.0011670536,-1.1641532e-10,-1.5125577e-06,0.0,0.0,-1.1641532e-10,0,0,1,0,-2,0,0,2,2,2,2,2,2,2,2,2,2,2,2
24464000,-0.0014607707,-0.0006432729,-2.4688132e-05,0.0,0.0,-1.1641532e-10,0,0,1,-2,0,-2,0,2,2,2,2,2,2,2,2,2,2,2,2
24664000,3.4851255e-06,-5.820766e-11,0.00069308776,0.0,0.0,-1.1641532e-10,0,1,1,0,0,0,-2,2,2,2,2,2,2,2,2,2,2,2,2
24864000,0.0067969672,-0.0022131382,0.00028214688,0.0,0.0,0.0,0,0,1,-2,0,-2,0,2,2,2,2,2,2,2,2,2,2,2,2
25064000,0.009504499,0.001948644,-9.706027e-05,0.0,0.0,0.0,0,0,1,0,-2,0,-2,2,2,2,2,2,2,2,2,2,2,2,2
25264000,0.00074966473,-0.00017888355,0.00041727652,0.0,0.0,-1.1641532e-10,0,1,1,-2,0,-2,0,2,2,2,2,2,2,2,2,2,2,2,2
25464000,-0.0007798005,-0.00021009007,1.2727822e-05,0.0,0.0,0.0,0,1,1,-2,0,-2,0,2,2,2,2,2,2,2,2,2,2,2,2
25664000,-0.00029848516,-0.0010505486,-0.00052966416,0.0,0.0,-1.1641532e-10,0,0,1,-2,0,-2,0,2,2,2,2,2,2,2,2,2,2,2,2
25864000,0.004432445,0.00063987705,-0.000518824,0.0,0.0,-1.1641532e-10,0,0,1,0,-2,0,-2,2,2,2,2,2,2,2,2,2,2,2,2
26064000,-0.0015737965,0.0049285823,-0.00077446253,0.0,0.0,-2.3283064e-10,0,0,1,0,-2,0,-2,2,2,2,2,2,2,2,2,2,2,2,2
26264000,0.0053577004,0.0044922973,-0.00090167456,0.0,0.0,1.1641532e-10,0,0,1,0,-2,0,-2,2,2,2,2,2,2,2,2,2,2,2,2
26464000,-0.00036497338,1.3725366e-07,-3.390245e-05,0.0,0.0,-2.3283064e-10,0,1,1,0,-2,0,-2,2,2,2,2,2,2,2,2,2,2,2,2
26664000,0.0030506433,1.1641532e-10,-2.910383e-11,0.0,0.0,-1.1641532e-10,0,0,1,0,0,0,0,2,2,2,2,2,2,2,2,2,2,2,2
26864000,-0.00066740677,0.0005124414,0.0007296092,0.0,0.0,0.0,0,0,1,0,-2,0,-2,2,2,2,2,2,2,2,2,2,2,2,2
27064000,-0.0013254426,0.0023905477,-0.00026650412,0.0,0.0,-1.1641532e-10,0,0,1,0,-2,0,-2,2,2,2,2,2,2,2,2,2,2,2,2
27264000,0.006385051,0.0023323048,5.494932e-05,0.0,0.0,0.0,0,0,1,0,-2,0,-2,2,2,2,2,2,2,2,2,2,2,2,2
27464000,0.001499047,-0.0018600166,0.0003701721,0.0,0.0,0.0,0,0,1,-2,0,-2,0,2,2,2,2,2,2,2,2,2,2,2,2
27664000,0.0004890623,0.0031753196,-0.00052614906,0.0,0.0,-2.3283064e-10,0,0,1,0,-2,0,-2,2,2,2,2,2,2,2,2,2,2,2,2
27856000,0.0012420343,-0.0021124843,0.00034238127,0.0,0.0,0.0,0,0,1,-2,0,-2,0,2,2,2,2,2,2,2,2,2,2,2,2
28064000,-0.00012263807,0.0,0.00031527865,0.0,0.0,0.0,0,1,1,0,0,-2,0,2,2,2,2,2,2,2,2,2,2,2,2
28264000,0.004689216,0.0026724641,0.00023329053,0.0,0.0,-1.1641532e-10,0,0,1,0,-2,0,-2,2,2,2,2,2,2,2,2,2,2,2,2
28456000,-0.0006297851,0.0035287633,0.00016745905,0.0,0.0,-1.1641532e-10,0,0,1,0,-2,0,-2,2,2,2,2,2,2,2,2,2,2,2,2
28664000,-0.00030010752,-0.0001599153,-0.00040246296,0.0,0.0,-1.1641532e-10,0,1,1,-2,0,-2,0,2,2,2,2,2,2,2,2,2,2,2,2
28864000,-0.004195263,-0.0016408486,-8.7845896e-05,0.0,0.0,-1.1641532e-10,0,0,1,-2,0,-2,0,2,2,2,2,2,2,2,2,2,2,2,2
29064000,-0.0034951945,1.607649e-05,-0.00016810467,0.0,0.0,-1.1641532e-10,0,0,1,0,-2,0,-2,2,2,2,2,2,2,2,2,2,2,2,2
29264000,0.0030286605,0.002947474,0.0005085035,0.0,0.0,-1.1641532e-10,0,0,1,0,-2,0,-2,2,2,2,2,2,2,2,2,2,2,2,2
29464000,0.0019905893,5.820766e-11,-0.0002652898,0.0,0.0,-1.1641532e-10,0,0,1,-2,0,0,0,2,2,2,2,2,2,2,2,2,2,2,2
29664000,0.0028078337,-1.1641532e-10,0.00046331543,0.0,0.0,-1.1641532e-10,0,0,1,0,0,0,-2,2,2,2,2,2,2,2,2,2,2,2,2
29864000,-5.0931703e-11,0.0,7.275958e-12,0.0,0.0,-1.1641532e-10,0,1,1,0,0,0,0,2,2,2,2,2,2,2,2,2,2,2,2
30056000,1.5792903e-06,0.0,0.00012297177,0.0,0.0,-1.1641532e-10,0,1,1,0,0,0,-2,2,2,2,2,2,2,2,2,2,2,2,2
30264000,0.001607428,5.820766e-11,8.731149e-11,0.0,0.0,0.0,0,0,1,0,0,0,0,2,2,2,2,2,2,2,2,2,2,2,2
30464000,6.563791e-05,0.0011801191,-0.00021974828,0.0,0.0,-1.1641532e-10,0,0,1,0,-2,0,-2,2,2,2,2,2,2,2,2,2,2,2,2
30664000,0.0018272182,-0.004362168,-0.00014326356,0.0,0.0,1.1641532e-10,0,0,1,-2,0,-2,0,2,2,2,2,2,2,2,2,2,2,2,2
30864000,0.0050567826,0.005179904,-0.00077542034,0.0,0.0,-2.3283064e-10,0,0,1,0,-2,0,-2,2,2,2,2,2,2,2,2,2,2,2,2
31064000,0.0036894975,5.820766e-11,-4.3878426e-05,0.0,0.0,-1.1641532e-10,0,0,1,-2,0,0,0,2,2,2,2,2,2,2,2,2,2,2,2
31264000,0.006716796,-1.1641532e-10,7.0751435e-07,0.0,0.0,-1.1641532e-10,0,0,1,0,0,0,-2,2,2,2,2,2,2,2,2,2,2,2,2
31464000,0.0008553266,0.00032678293,-0.00048819126,0.0,0.0,-1.1641532e-10,0,0,1,0,-2,0,-2,2,2,2,2,2,2,2,2,2,2,2,2
31664000,0.0051179556,-0.00092193834,-0.00020794541,0.0,0.0,-1.1641532e-10,0,0,1,-2,0,-2,0,2,2,2,2,2,2,2,2,2,2,2,2
31864000,0.006036231,0.0010020867,-0.00020905148,0.0,0.0,0.0,0,0,1,0,-2,0,-2,2,2,2,2,2,2,2,2,2,2,2,2
32064000,-0.0022620694,0.0004841534,0.00016977123,0.0,0.0,-1.1641532e-10,0,0,1,0,-2,0,-2,2,2,2,2,2,2,2,2,2,2,2,2
32264000,0.000923446,0.001837952,0.00036581367,0.0,0.0,0.0,0,0,1,0,-2,0,-2,2,2,2,2,2,2,2,2,2,2,2,2
32456000,0.0033250116,-1.1641532e-10,0.00065345294,0.0,0.0,-1.1641532e-10,0,0,1,0,0,0,-2,2,2,2,2,2,2,2,2,2,2,2,2
32664000,-2.910383e-11,-2.910383e-11,8.731149e-11,0.0,0.0,-1.1641532e-10,0,1,1,0,0,0,0,2,2,2,2,2,2,2,2,2,2,2,2
32864000,0.0033272288,0.0032187365,-0.0003569531,0.0,0.0,0.0,0,0,1,0,-2,0,-2,2,2,2,2,2,2,2,2,2,2,2,2
33064000,0.002108939,0.0,0.00070591114,0.0,0.0,-1.1641532e-10,0,0,1,0,0,0,-2,2,2,2,2,2,2,2,2,2,2,2,2
33264000,0.0022822933,0.004714433,0.00092924596,0.0,0.0,-2.3283064e-10,0,0,1,0,-2,0,-2,2,2,2,2,2,2,2,2,2,2,2,2
33464000,0.0040251696,0.00030409475,-0.00041137444,0.0,0.0,-1.1641532e-10,0,0,1,0,-2,0,-2,2,2,2,2,2,2,2,2,2,2,2,2
33664000,0.004375469,0.0,-0.0005022125,0.0,0.0,-1.1641532e-10,0,0,1,-2,0,0,0,2,2,2,2,2,2,2,2,2,2,2,2
33864000,-0.00013271428,0.002822653,-0.00040519043,0.0,0.0,0.0,0,0,1,0,-2,0,-2,2,2,2,2,2,2,2,2,2,2,2,2
34064000,-0.00073970127,0.00039406843,-0.00019859009,0.0,0.0,-1.1641532e-10,0,1,1,0,-2,0,-2,2,2,2,2,2,2,2,2,2,2,2,2
34264000,0.0021601983,0.0031701482,0.0004176645,0.0,0.0,-1.1641532e-10,0,0,1,0,-2,0,-2,2,2,2,2,2,2,2,2,2,2,2,2
34464000,-0.0032263976,0.0018020535,-3.176146e-05,0.0,0.0,-1.1641532e-10,0,0,1,0,-2,0,-2,2,2,2,2,2,2,2,2,2,2,2,2
34664000,1.7462298e-10,5.820766e-11,1.1641532e-10,0.0,0.0,-1.1641532e-10,0,1,1,0,0,0,0,2,2,2,2,2,2,2,2,2,2,2,2
34864000,0.0023629912,-0.00037091144,0.00021163317,0.0,0.0,0.0,0,0,1,-2,0,-2,0,2,2,2,2,2,2,2,2,2,2,2,2
35064000,-0.00030966636,-0.00055302377,9.67002e-05,0.0,0.0,0.0,0,1,1,-2,0,-2,0,2,2,2,2,2,2,2,2,2,2,2,2
35264000,-0.006396129,0.0032133663,0.00029077585,0.0,0.0,-1.1641532e-10,0,0,1,0,-2,0,-2,2,2,2,2,2,2,2,2,2,2,2,2
35464000,-0.00086947787,-0.0014617967,6.504177e-05,0.0,0.0,-1.1641532e-10,0,0,1,-2,0,-2,0,2,2,2,2,2,2,2,2,2,2,2,2
35664000,0.0027653382,-0.0006353031,-0.00020562825,0.0,0.0,-1.1641532e-10,0,0,1,-2,0,-2,0,2,2,2,2,2,2,2,2,2,2,2,2
35864000,0.00024681658,-0.003193735,7.010206e-05,0.0,0.0,-1.1641532e-10,0,0,1,-2,0,-2,0,2,2,2,2,2,2,2,2,2,2,2,2
36064000,0.0036169365,2.910383e-11,-1.1641532e-10,0.0,0.0,-1.1641532e-10,0,0,1,0,0,0,0,2,2,2,2,2,2,2,2,2,2,2,2
36264000,-0.0011566568,-0.005626425,0.00029083487,0.0,0.0,-2.3283064e-10,0,0,1,-2,0,-2,0,2,2,2,2,2,2,2,2,2,2,2,2
36464000,0.0016706289,-0.0014100359,-5.91568e-05,0.0,0.0,-1.1641532e-10,0,0,1,-2,0,-2,0,2,2,2,2,2,2,2,2,2,2,2,2
36664000,0.003057932,-0.0007307953,-0.00055254955,0.0,0.0,-1.1641532e-10,0,0,1,-2,0,-2,0,2,2,2,2,2,2,2,2,2,2,2,2
36856000,-2.3283064e-10,-5.820766e-11,-0.0006791548,0.0,0.0,-1.1641532e-10,0,1,1,-2,0,0,0,2,2,2,2,2,2,2,2,2,2,2,2
37064000,0.0020291107,-0.0026008235,0.00041038927,0.0,0.0,-2.3283064e-10,0,0,1,-2,0,-2,0,2,2,2,2,2,2,2,2,2,2,2,2
37264000,2.910383e-11,-5.820766e-11,2.910383e-11,0.0,0.0,-1.1641532e-10,0,1,1,0,0,0,0,2,2,2,2,2,2,2,2,2,2,2,2
37464000,0.001954028,-0.002096261,5.999218e-05,0.0,0.0,0.0,0,0,1,-2,0,-2,0,2,2,2,2,2,2,2,2,2,2,2,2
37664000,0.004325566,-0.0038571,0.0003040349,0.0,0.0,-1.1641532e-10,0,0,1,-2,0,-2,0,2,2,2,2,2,2,2,2,2,2,2,2
37864000,0.0017885801,-0.000793546,0.00012914244,0.0,0.0,-1.1641532e-10,0,0,1,-2,0,-2,0,2,2,2,2,2,2,2,2,2,2,2,2
38064000,0.0003780193,5.820766e-11,8.731149e-11,0.0,0.0,-1.1641532e-10,0,1,1,0,0,0,0,2,2,2,2,2,2,2,2,2,2,2,2
38264000,0.0016466185,-0.00422965,-0.00010023342,0.0,0.0,-2.3283064e-10,0,0,1,-2,0,-2,0,2,2,2,2,2,2,2,2,2,2,2,2
38464000,0.0042888173,0.0,-0.00038950847,0.0,0.0,-1.1641532e-10,0,0,1,-2,0,0,0,2,2,2,2,2,2,2,2,2,2,2,2
38664000,0.0071753887,-0.002304037,-0.0005396283,0.0,0.0,0.0,0,0,1,-2,0,-2,0,2,2,2,2,2,2,2,2,2,2,2,2
38864000,-0.0022549964,-1.1641532e-10,-2.134014e-05,0.0,0.0,-1.1641532e-10,0,0,1,0,-2,0,0,2,2,2,2,2,2,2,2,2,2,2,2
39064000,-5.0293715e-05,-0.0044343807,-0.00020872543,0.0,0.0,-2.3283064e-10,0,0,1,-2,0,-2,0,2,2,2,2,2,2,2,2,2,2,2,2
39264000,-0.0022776974,-0.0011642582,-0.00045975225,0.0,0.0,-1.1641532e-10,0,0,1,-2,0,-2,0,2,2,2,2,2,2,2,2,2,2,2,2
39464000,0.0027462302,-0.0021036752,0.0004677808,0.0,0.0,0.0,0,0,1,-2,0,-2,0,2,2,2,2,2,2,2,2,2,2,2,2
39664000,-0.0006684007,-0.0003951299,1.4708625e-05,0.0,0.0,-1.1641532e-10,0,1,1,-2,0,-2,0,2,2,2,2,2,2,2,2,2,2,2,2
39864000,0.0037433612,0.00033932913,0.00040664605,0.0,0.0,0.0,0,0,1,0,-2,0,-2,2,2,2,2,2,2,2,2,2,2,2,2
40056000,-0.004424998,-0.0015444797,0.0001608751,0.0,0.0,-1.1641532e-10,0,0,1,-2,0,-2,0,2,2,2,2,2,2,2,2,2,2,2,2
40264000,3.930513e-05,-0.0029362668,-3.3582815e-05,0.0,0.0,-2.3283064e-10,0,0,1,-2,0,-2,0,2,2,2,2,2,2,2,2,2,2,2,2
40464000,-0.00010952534,5.820766e-11,0.00031663137,0.0,0.0,-1.1641532e-10,0,1,1,0,0,-2,0,2,2,2,2,2,2,2,2,2,2,2,2
40664000,0.0014309761,-0.0032236197,0.00037050163,0.0,0.0,0.0,0,0,1,-2,0,-2,0,2,2,2,2,2,2,2,2,2,2,2,2
40864000,0.0027215,-0.0013112642,2.5972171e-05,0.0,0.0,-1.1641532e-10,0,0,1,-2,0,-2,0,2,2,2,2,2,2,2,2,2,2,2,2
41064000,1.7462298e-10,1.4551915e-11,-0.00027837572,0.0,0.0,-1.1641532e-10,0,1,1,0,-2,0,0,2,2,2,2,2,2,2,2,2,2,2,2
41264000,-1.1641532e-10,0.0,-0.00051622064,0.0,0.0,-1.1641532e-10,0,1,1,-2,0,0,0,2,2,2,2,2,2,2,2,2,2,2,2
41464000,1.7462298e-10,-2.1827873e-11,1.4551915e-11,0.0,0.0,-1.1641532e-10,0,1,1,0,0,0,0,2,2,2,2,2,2,2,2,2,2,2,2
41664000,-0.002755893,-0.0049946825,0.00052751065,0.0,0.0,1.1641532e-10,0,0,1,-2,0,-2,0,2,2,2,2,2,2,2,2,2,2,2,2
41864000,-0.0014994838,-0.00020948821,-6.604262e-05,0.0,0.0,-1.1641532e-10,0,0,1,-2,0,-2,0,2,2,2,2,2,2,2,2,2,2,2,2
42056000,0.0011814554,1.1641532e-10,-2.4437257e-05,0.0,0.0,-1.1641532e-10,0,0,1,-2,0,0,0,2,2,2,2,2,2,2,2,2,2,2,2
42264000,-0.0034551187,5.820766e-11,-5.820766e-11,0.0,0.0,-1.1641532e-10,0,0,1,0,0,0,0,2,2,2,2,2,2,2,2,2,2,2,2
42464000,-0.003825343,-0.002727923,-6.420248e-05,0.0,0.0,0.0,0,0,1,-2,0,-2,0,2,2,2,2,2,2,2,2,2,2,2,2
42664000,-0.0029076464,-0.004253675,0.00048629314,0.0,0.0,-1.1641532e-10,0,0,1,-2,0,-2,0,2,2,2,2,2,2,2,2,2,2,2,2
42864000,0.0028440915,5.820766e-11,0.00043884656,0.0,0.0,-1.1641532e-10,0,0,1,0,0,0,-2,2,2,2,2,2,2,2,2,2,2,2,2
43064000,-0.004678387,1.1641532e-10,5.820766e-11,0.0,0.0,-1.1641532e-10,0,0,1,0,0,0,0,2,2,2,2,2,2,2,2,2,2,2,2
43264000,0.0016700616,0.0016258432,-0.0005160934,0.0,0.0,0.0,0,0,1,0,-2,0,-2,2,2,2,2,2,2,2,2,2,2,2,2
43464000,-2.910383e-11,-5.820766e-11,7.2759576e-11,0.0,0.0,0.0,0,1,1,0,0,0,0,2,2,2,2,2,2,2,2,2,2,2,2
43664000,-0.005963897,0.0008508632,-0.00045589803,0.0,0.0,0.0,0,0,1,0,-2,0,-2,2,2,2,2,2,2,2,2,2,2,2,2
43864000,0.0,1.1641532e-10,8.166782e-05,0.0,0.0,-1.1641532e-10,0,1,1,0,0,-2,0,2,2,2,2,2,2,2,2,2,2,2,2
44064000,-0.0066162106,-0.0010179577,-0.0002837387,0.0,0.0,-1.1641532e-10,0,0,1,-2,0,-2,0,2,2,2,2,2,2,2,2,2,2,2,2
44264000,-0.00070555985,0.0,-0.00074464,0.0,0.0,-1.1641532e-10,0,0,1,0,-2,0,0,2,2,2,2,2,2,2,2,2,2,2,2
44464000,-0.0054191384,0.0011923101,-0.00026693376,0.0,0.0,-1.1641532e-10,0,0,1,0,-2,0,-2,2,2,2,2,2,2,2,2,2,2,2,2
44664000,-0.00052653265,-0.00059263245,-0.00068734406,0.0,0.0,-1.1641532e-10,0,0,1,-2,0,-2,0,2,2,2,2,2,2,2,2,2,2,2,2
44864000,0.00021275657,0.0002821962,0.00021388111,0.0,0.0,0.0,0,1,1,0,-2,0,-2,2,2,2,2,2,2,2,2,2,2,2,2
45064000,-0.0016511682,0.0,5.820766e-11,0.0,0.0,-1.1641532e-10,0,0,1,0,0,0,0,2,2,2,2,2,2,2,2,2,2,2,2
45264000,-0.006578615,1.7462298e-10,1.7462298e-10,0.0,0.0,-1.1641532e-10,0,0,1,0,0,0,0,2,2,2,2,2,2,2,2,2,2,2,2
45464000,-0.002515015,0.00030893576,1.1993792e-05,0.0,0.0,-1.1641532e-10,0,0,1,0,-2,0,-2,2,2,2,2,2,2,2,2,2,2,2,2
45664000,-0.0010305272,0.0,-0.00049989234,0.0,0.0,-1.1641532e-10,0,0,1,0,-2,0,0,2,2,2,2,2,2,2,2,2,2,2,2
45864000,0.00048498926,-2.910383e-11,-2.910383e-11,0.0,0.0,-1.1641532e-10,0,1,1,0,0,0,0,2,2,2,2,2,2,2,2,2,2,2,2
46064000,-0.0002130443,-0.0017755225,1.8987557e-05,0.0,0.0,-1.1641532e-10,0,0,1,-2,0,-2,0,2,2,2,2,2,2,2,2,2,2,2,2
46264000,-0.0021776268,5.820766e-11,5.7706275e-06,0.0,0.0,-1.1641532e-10,0,0,1,0,0,-2,0,2,2,2,2,2,2,2,2,2,2,2,2
46464000,-0.0010944512,0.0,-4.3655746e-11,0.0,0.0,-1.1641532e-10,0,0,1,0,0,0,0,2,2,2,2,2,2,2,2,2,2,2,2
46664000,-0.0002973684,0.0022887674,-0.00040726954,0.0,0.0,-1.1641532e-10,0,0,1,0,-2,0,-2,2,2,2,2,2,2,2,2,2,2,2,2
46864000,-0.0016933036,0.0,0.00043120736,0.0,0.0,-1.1641532e-10,0,0,1,0,0,-2,0,2,2,2,2,2,2,2,2,2,2,2,2
47064000,0.00042941837,0.000999284,0.0004023832,0.0,0.0,-1.1641532e-10,0,0,1,0,-2,0,-2,2,2,2,2,2,2,2,2,2,2,2,2
47264000,-0.0041684816,0.0,-3.274181e-11,0.0,0.0,-1.1641532e-10,0,0,1,0,0,0,0,2,2,2,2,2,2,2,2,2,2,2,2
47464000,-0.0010552664,-0.0029175114,-0.00013748967,0.0,0.0,-2.3283064e-10,0,0,1,-2,0,-2,0,2,2,2,2,2,2,2,2,2,2,2,2
47664000,0.0015372682,-0.0006156836,-0.00032520076,0.0,0.0,-1.1641532e-10,0,0,1,-2,0,-2,0,2,2,2,2,2,2,2,2,2,2,2,2
47864000,-0.0044241445,0.0025323688,-0.0004956454,0.0,0.0,0.0,0,0,1,0,-2,0,-2,2,2,2,2,2,2,2,2,2,2,2,2
48064000,-0.0036431353,0.0,1.4551915e-10,0.0,0.0,-1.1641532e-10,0,0,1,0,0,0,0,2,2,2,2,2,2,2,2,2,2,2,2
48264000,0.00220661,-0.0008413035,0.0008315825,0.0,0.0,0.0,0,0,1,-2,0,-2,0,2,2,2,2,2,2,2,2,2,2,2,2
48464000,-8.731149e-11,5.820766e-11,4.3655746e-11,0.0,0.0,-1.1641532e-10,0,1,1,0,0,0,0,2,2,2,2,2,2,2,2,2,2,2,2
48664000,0.0028108386,1.1641532e-10,-4.1836756e-11,0.0,0.0,-1.1641532e-10,0,0,1,0,0,0,0,2,2,2,2,2,2,2,2,2,2,2,2
48864000,-0.0017990025,1.4915713e-10,-0.00011486885,0.0,0.0,-1.1641532e-10,0,0,1,0,-2,0,0,2,2,2,2,2,2,2,2,2,2,2,2
49064000,-0.0034919474,0.000846172,3.6785208e-05,0.0,0.0,-1.1641532e-10,0,0,1,0,-2,0,-2,2,2,2,2,2,2,2,2,2,2,2,2
49264000,-0.000104255625,0.0,8.731149e-11,0.0,0.0,-1.1641532e-10,0,1,1,0,0,0,0,2,2,2,2,2,2,2,2,2,2,2,2
49464000,-0.0015524757,-5.820766e-11,0.0001982158,0.0,0.0,-1.1641532e-10,0,0,1,0,0,-2,0,2,2,2,2,2,2,2,2,2,2,2,2
49664000,-0.005358733,-0.0005938455,-0.00074158906,0.0,0.0,-1.1641532e-10,0,0,1,-2,0,-2,0,2,2,2,2,2,2,2,2,2,2,2,2
49864000,-0.002379423,0.0011379828,-0.00065163156,0.0,0.0,-1.1641532e-10,0,0,1,0,-2,0,-2,2,2,2,2,2,2,2,2,2,2,2,2
50064000,-0.0024415534,0.0,-2.5465852e-11,0.0,0.0,-1.1641532e-10,0,0,1,0,0,0,0,2,2,2,2,2,2,2,2,2,2,2,2
50264000,0.001245392,0.0007878295,0.00023914532,0.0,0.0,-1.1641532e-10,0,0,1,0,-2,0,-2,2,2,2,2,2,2,2,2,2,2,2,2
50464000,-0.00014123332,2.910383e-11,0.00034971168,0.0,0.0,-1.1641532e-10,0,1,1,0,0,-2,0,2,2,2,2,2,2,2,2,2,2,2,2
50664000,0.0004105278,0.002372585,0.0005467627,0.0,0.0,-1.1641532e-10,0,0,1,0,-2,0,-2,2,2,2,2,2,2,2,2,2,2,2,2
50864000,-0.012940415,-0.0021132734,0.00020559703,0.0,0.0,1.1641532e-10,0,0,1,-2,0,-2,0,2,2,2,2,2,2,2,2,2,2,2,2
51064000,5.820766e-11,-1.4551915e-11,-2.910383e-11,0.0,0.0,-1.1641532e-10,0,1,1,0,0,0,0,2,2,2,2,2,2,2,2,2,2,2,2
51264000,-0.0015215098,1.0186341e-10,-5.4005788e-05,0.0,0.0,-1.1641532e-10,0,0,1,0,-2,0,0,2,2,2,2,2,2,2,2,2,2,2,2
51464000,-0.006247094,-0.002080092,0.0001129219,0.0,0.0,-1.1641532e-10,0,0,1,-2,0,-2,0,2,2,2,2,2,2,2,2,2,2,2,2
51664000,-0.0040310477,0.0020949298,0.0001241764,0.0,0.0,0.0,0,0,1,0,-2,0,-2,2,2,2,2,2,2,2,2,2,2,2,2
51864000,-0.0022791487,0.0031157674,-0.00039652633,0.0,0.0,0.0,0,0,1,0,-2,0,-2,2,2,2,2,2,2,2,2,2,2,2,2
52064000,-0.0013888271,-0.0009769702,-0.0004642993,0.0,0.0,-1.1641532e-10,0,0,1,-2,0,-2,0,2,2,2,2,2,2,2,2,2,2,2,2
52264000,-0.002140939,0.003881676,0.000665393,0.0,0.0,-1.1641532e-10,0,0,1,0,-2,0,-2,2,2,2,2,2,2,2,2,2,2,2,2
52464000,0.0010676894,-0.0020931738,-0.0004250683,0.0,0.0,-1.1641532e-10,0,0,1,-2,0,-2,0,2,2,2,2,2,2,2,2,2,2,2,2
52664000,1.7462298e-10,0.0,-1.10958354e-10,0.0,0.0,-1.1641532e-10,0,1,1,0,0,0,0,2,2,2,2,2,2,2,2,2,2,2,2
52864000,-0.005742785,-0.0018240416,0.00011175684,0.0,0.0,-1.1641532e-10,0,0,1,-2,0,-2,0,2,2,2,2,2,2,2,2,2,2,2,2
53064000,0.0009462629,0.0042832387,-0.00022444963,0.0,0.0,0.0,0,0,1,0,-2,0,-2,2,2,2,2,2,2,2,2,2,2,2,2
53264000,-0.0039696414,5.820766e-11,-0.00012479875,0.0,0.0,-1.1641532e-10,0,0,1,0,-2,0,0,2,2,2,2,2,2,2,2,2,2,2,2
53464000,0.00046438613,0.00063628634,7.913704e-05,0.0,0.0,-1.1641532e-10,0,1,1,0,-2,0,-2,2,2,2,2,2,2,2,2,2,2,2,2
53664000,-0.0010464989,0.0041225697,-0.00031857262,0.0,0.0,0.0,0,0,1,0,-2,0,-2,2,2,2,2,2,2,2,2,2,2,2,2
53864000,0.0024206685,-0.0024781395,-0.00031812722,0.0,0.0,-1.1641532e-10,0,0,1,-2,0,-2,0,2,2,2,2,2,2,2,2,2,2,2,2
54064000,-0.005642776,0.00018519838,-0.00039170854,0.0,0.0,0.0,0,0,1,0,-2,0,-2,2,2,2,2,2,2,2,2,2,2,2,2
54264000,-0.00038056492,0.002581915,0.00030558187,0.0,0.0,-2.3283064e-10,0,0,1,0,-2,0,-2,2,2,2,2,2,2,2,2,2,2,2,2
54464000,-0.0009580464,0.0039053995,-0.0004119076,0.0,0.0,-1.1641532e-10,0,0,1,0,-2,0,-2,2,2,2,2,2,2,2,2,2,2,2,2
54664000,0.0043208194,-0.0036827065,0.00065188744,0.0,0.0,0.0,0,0,1,-2,0,-2,0,2,2,2,2,2,2,2,2,2,2,2,2
54864000,-0.0005202679,-5.820766e-11,8.731149e-11,0.0,0.0,-1.1641532e-10,0,1,1,0,0,0,0,2,2,2,2,2,2,2,2,2,2,2,2
55064000,1.1641532e-10,2.1827873e-11,-0.0001458523,0.0,0.0,-1.1641532e-10,0,1,1,0,-2,0,0,2,2,2,2,2,2,2,2,2,2,2,2
55264000,0.00031037861,-2.910383e-11,0.0,0.0,0.0,-1.1641532e-10,0,1,1,0,0,0,0,2,2,2,2,2,2,2,2,2,2,2,2
55464000,-0.0023980527,-0.0023743534,-0.0006235873,0.0,0.0,0.0,0,0,1,-2,0,-2,0,2,2,2,2,2,2,2,2,2,2,2,2
55664000,5.820766e-11,-7.275958e-12,1.1641532e-10,0.0,0.0,-1.1641532e-10,0,1,1,0,0,0,0,2,2,2,2,2,2,2,2,2,2,2,2
55864000,0.0012296368,0.0062006973,-0.00068055437,0.0,0.0,1.1641532e-10,0,0,1,0,-2,0,-2,2,2,2,2,2,2,2,2,2,2,2,2
56064000,0.0006516466,-0.0024565086,2.58808e-05,0.0,0.0,-1.1641532e-10,0,0,1,-2,0,-2,0,2,2,2,2,2,2,2,2,2,2,2,2
56264000,0.002781612,1.1641532e-10,-0.0009546704,0.0,0.0,-1.1641532e-10,0,0,1,0,-2,0,0,2,2,2,2,2,2,2,2,2,2,2,2
56464000,0.0003214109,0.0,-8.29745e-05,0.0,0.0,-1.1641532e-10,0,1,1,0,-2,0,0,2,2,2,2,2,2,2,2,2,2,2,2
56664000,-1.4551915e-11,0.0,-0.00020217829,0.0,0.0,-1.1641532e-10,0,1,1,0,-2,0,0,2,2,2,2,2,2,2,2,2,2,2,2
56864000,0.0011000652,0.004060151,0.0004900021,0.0,0.0,-1.1641532e-10,0,0,1,0,-2,0,-2,2,2,2,2,2,2,2,2,2,2,2,2
57064000,-0.0014706237,0.0023537497,-0.0001408274,0.0,0.0,1.1641532e-10,0,0,1,0,-2,0,-2,2,2,2,2,2,2,2,2,2,2,2,2
57264000,-0.0028945806,-0.0030561578,1.8470719e-05,0.0,0.0,-2.3283064e-10,0,0,1,-2,0,-2,0,2,2,2,2,2,2,2,2,2,2,2,2
57464000,-0.0007431124,0.0020404079,-0.00096791435,0.0,0.0,0.0,0,0,1,0,-2,0,-2,2,2,2,2,2,2,2,2,2,2,2,2
57664000,0.0011963346,-1.137855e-05,-0.00013466804,0.0,0.0,-1.1641532e-10,0,0,1,-2,0,-2,0,2,2,2,2,2,2,2,2,2,2,2,2
57864000,0.0039434778,0.0013077642,-0.0006743882,0.0,0.0,-2.3283064e-10,0,0,1,0,-2,0,-2,2,2,2,2,2,2,2,2,2,2,2,2
58064000,-0.00022401381,5.820766e-11,-0.0004749712,0.0,0.0,-2.3283064e-10,0,1,1,0,-2,0,0,2,2,2,2,2,2,2,2,2,2,2,2
58264000,0.002348598,0.0029235885,0.00014707724,0.0,0.0,-1.1641532e-10,0,0,1,0,-2,0,-2,2,2,2,2,2,2,2,2,2,2,2,2
58464000,-0.0026643681,0.0010216404,0.00040889997,0.0,0.0,0.0,0,0,1,0,-2,0,-2,2,2,2,2,2,2,2,2,2,2,2,2
58664000,0.002479867,0.0,1.546141e-11,0.0,0.0,-1.1641532e-10,0,0,1,0,0,0,0,2,2,2,2,2,2,2,2,2,2,2,2
58864000,-0.0001881271,0.0019766253,0.00015049709,0.0,0.0,-1.1641532e-10,0,0,1,0,-2,0,-2,2,2,2,2,2,2,2,2,2,2,2,2
59064000,-0.0043371543,0.00017271808,0.00013098275,0.0,0.0,-1.1641532e-10,0,0,1,0,-2,0,-2,2,2,2,2,2,2,2,2,2,2,2,2
59264000,-0.005148397,1.1641532e-10,-0.000446924,0.0,0.0,-1.1641532e-10,0,0,1,0,-2,0,0,2,2,2,2,2,2,2,2,2,2,2,2
59464000,0.0012208725,-0.0010736627,-0.0009474016,0.0,0.0,-1.1641532e-10,0,0,1,-2,0,-2,0,2,2,2,2,2,2,2,2,2,2,2,2
59664000,0.0072026406,0.0040791016,-0.0009242069,0.0,0.0,-1.1641532e-10,0,0,1,0,-2,0,-2,2,2,2,2,2,2,2,2,2,2,2,2
59856000,-0.002659827,0.00018308498,0.000367773,0.0,0.0,-1.1641532e-10,0,0,1,0,-2,0,-2,2,2,2,2,2,2,2,2,2,2,2,2
60064000,-0.0011122078,0.0033197126,-0.00021336612,0.0,0.0,-1.1641532e-10,0,0,1,0,-2,0,-2,2,2,2,2,2,2,2,2,2,2,2,2
60264000,0.0012500949,0.0020641806,0.00029030401,0.0,0.0,-1.1641532e-10,0,0,1,0,-2,0,-2,2,2,2,2,2,2,2,2,2,2,2,2
60464000,-0.0017823935,-8.804444e-05,0.00033261167,0.0,0.0,-1.1641532e-10,0,0,1,-2,0,-2,0,2,2,2,2,2,2,2,2,2,2,2,2
60664000,-0.0023490041,0.0016164866,0.0003654577,0.0,0.0,-1.1641532e-10,0,0,1,0,-2,0,-2,2,2,2,2,2,2,2,2,2,2,2,2
60864000,-0.0012705333,0.0013173637,-0.00018944233,0.0,0.0,-1.1641532e-10,0,0,1,0,-2,0,-2,2,2,2,2,2,2,2,2,2,2,2,2
61064000,0.0006908843,0.0031588692,-2.8672375e-05,0.0,0.0,0.0,0,0,1,0,-2,0,-2,2,2,2,2,2,2,2,2,2,2,2,2
61264000,0.0009380572,-0.004341524,0.0006258684,0.0,0.0,-1.1641532e-10,0,0,1,-2,0,-2,0,2,2,2,2,2,2,2,2,2,2,2,2
61464000,0.00076856697,0.0018379956,0.0005382483,0.0,0.0,-1.1641532e-10,0,0,1,0,-2,0,-2,2,2,2,2,2,2,2,2,2,2,2,2
61664000,0.0028606248,0.0010545866,0.00025073893,0.0,0.0,-1.1641532e-10,0,0,1,0,-2,0,-2,2,2,2,2,2,2,2,2,2,2,2,2
61864000,-0.0026259108,5.820766e-11,-0.00094488735,0.0,0.0,-1.1641532e-10,0,0,1,0,-2,0,0,2,2,2,2,2,2,2,2,2,2,2,2
62064000,-0.0046220426,0.0025902116,-0.0008009047,0.0,0.0,0.0,0,0,1,0,-2,0,-2,2,2,2,2,2,2,2,2,2,2,2,2
62264000,0.0011571004,-4.3655746e-11,-4.570211e-11,0.0,0.0,-1.1641532e-10,0,0,1,0,0,0,0,2,2,2,2,2,2,2,2,2,2,2,2
62464000,0.0016216321,0.0011059863,-9.925188e-05,0.0,0.0,0.0,0,0,1,0,-2,0,-2,2,2,2,2,2,2,2,2,2,2,2,2
62664000,0.0022364564,0.0,-0.00025374687,0.0,0.0,-1.1641532e-10,0,0,1,-2,0,0,0,2,2,2,2,2,2,2,2,2,2,2,2
62864000,0.0017385251,-0.00071932934,6.403221e-05,0.0,0.0,-1.1641532e-10,0,0,1,-2,0,-2,0,2,2,2,2,2,2,2,2,2,2,2,2
63064000,0.0027824864,-5.820766e-11,0.0003840678,0.0,0.0,-1.1641532e-10,0,0,1,0,0,0,-2,2,2,2,2,2,2,2,2,2,2,2,2
63264000,-0.0020897698,0.0027471413,-0.000611502,0.0,0.0,-1.1641532e-10,0,0,1,0,-2,0,-2,2,2,2,2,2,2,2,2,2,2,2,2
63464000,0.003502992,0.0013182962,-0.00069893454,0.0,0.0,-1.1641532e-10,0,0,1,0,-2,0,-2,2,2,2,2,2,2,2,2,2,2,2,2
63664000,-0.00064429926,-0.00052922824,-0.00030909962,0.0,0.0,-1.1641532e-10,0,1,1,-2,0,-2,0,2,2,2,2,2,2,2,2,2,2,2,2
63864000,0.008276952,-0.00031169748,-5.075664e-05,0.0,0.0,-1.1641532e-10,0,0,1,-2,0,-2,0,2,2,2,2,2,2,2,2,2,2,2,2
64064000,0.0009910164,-0.0008768402,-0.00042141325,0.0,0.0,-1.1641532e-10,0,0,1,-2,0,-2,0,2,2,2,2,2,2,2,2,2,2,2,2
64264000,0.0023375412,-0.0011036287,2.8076116e-05,0.0,0.0,-1.1641532e-10,0,0,1,-2,0,-2,0,2,2,2,2,2,2,2,2,2,2,2,2
64464000,0.0025884146,-1.1641532e-10,2.4009258e-05,0.0,0.0,-1.1641532e-10,0,0,1,0,0,0,-2,2,2,2,2,2,2,2,2,2,2,2,2
64664000,-0.0017572277,0.0031220473,0.00024778282,0.0,0.0,-1.1641532e-10,0,0,1,0,-2,0,-2,2,2,2,2,2,2,2,2,2,2,2,2
64864000,0.0011807032,0.0004148318,-0.00060491037,0.0,0.0,-1.1641532e-10,0,0,1,0,-2,0,-2,2,2,2,2,2,2,2,2,2,2,2,2
65064000,0.0010924273,8.731149e-11,1.4551915e-11,0.0,0.0,-1.1641532e-10,0,0,1,0,0,0,0,2,2,2,2,2,2,2,2,2,2,2,2
65264000,-4.3655746e-11,0.0,-0.00048093116,0.0,0.0,-1.1641532e-10,0,1,1,-2,0,0,0,2,2,2,2,2,2,2,2,2,2,2,2
65464000,-0.0037758937,-0.0022743172,-0.00016408363,0.0,0.0,-1.1641532e-10,0,0,1,-2,0,-2,0,2,2,2,2,2,2,2,2,2,2,2,2
65664000,0.0053382018,-0.0015988597,7.6261334e-05,0.0,0.0,-1.1641532e-10,0,0,1,-2,0,-2,0,2,2,2,2,2,2,2,2,2,2,2,2
65864000,0.00046986388,0.0,1.1641532e-10,0.0,0.0,-1.1641532e-10,0,1,1,0,0,0,0,2,2,2,2,2,2,2,2,2,2,2,2
66064000,1.1641532e-10,-2.910383e-11,-2.1827873e-11,0.0,0.0,-1.1641532e-10,0,1,1,0,0,0,0,2,2,2,2,2,2,2,2,2,2,2,2
66264000,0.0008007263,-0.001928319,-0.0004741158,0.0,0.0,-1.1641532e-10,0,0,1,-2,0,-2,0,2,2,2,2,2,2,2,2,2,2,2,2
66464000,0.0025636603,-0.0009384799,-0.0004129839,0.0,0.0,0.0,0,0,1,-2,0,-2,0,2,2,2,2,2,2,2,2,2,2,2,2
66664000,-0.00055366824,5.820766e-11,0.00025899394,0.0,0.0,0.0,0,1,1,0,0,-2,0,2,2,2,2,2,2,2,2,2,2,2,2
66864000,0.0003811159,-0.004983441,-0.0012046896,0.0,0.0,-2.3283064e-10,0,0,1,-2,0,-2,0,2,2,2,2,2,2,2,2,2,2,2,2
67064000,0.0049661347,0.0008644619,0.00032310133,0.0,0.0,0.0,0,0,1,0,-2,0,-2,2,2,2,2,2,2,2,2,2,2,2,2
67256000,-0.0009917788,-0.0024442826,-4.2435386e-05,0.0,0.0,-2.3283064e-10,0,0,1,-2,0,-2,0,2,2,2,2,2,2,2,2,2,2,2,2
67464000,-0.0010298477,0.0011553844,-0.0006949124,0.0,0.0,-1.1641532e-10,0,0,1,0,-2,0,-2,2,2,2,2,2,2,2,2,2,2,2,2
67664000,-0.0010843596,0.001980136,2.6830428e-05,0.0,0.0,-1.1641532e-10,0,0,1,0,-2,0,-2,2,2,2,2,2,2,2,2,2,2,2,2
67864000,-0.0011172777,-1.1641532e-10,-8.0035534e-11,0.0,0.0,-1.1641532e-10,0,0,1,0,0,0,0,2,2,2,2,2,2,2,2,2,2,2,2
68064000,-0.0033540027,-0.0037801093,-0.00036789334,0.0,0.0,1.1641532e-10,0,0,1,-2,0,-2,0,2,2,2,2,2,2,2,2,2,2,2,2
68264000,0.003207387,-0.0025923904,0.0001183212,0.0,0.0,1.1641532e-10,0,0,1,-2,0,-2,0,2,2,2,2,2,2,2,2,2,2,2,2
68456000,0.0020721562,-0.0006633762,0.0006592815,0.0,0.0,-1.1641532e-10,0,0,1,-2,0,-2,0,2,2,2,2,2,2,2,2,2,2,2,2
68656000,0.0007419901,-0.0023301058,-0.00027515512,0.0,0.0,-1.1641532e-10,0,0,1,-2,0,-2,0,2,2,2,2,2,2,2,2,2,2,2,2
68864000,0.0034988099,-0.0055523454,0.00020772591,0.0,0.0,1.1641532e-10,0,0,1,-2,0,-2,0,2,2,2,2,2,2,2,2,2,2,2,2
69064000,0.004835398,-0.0020641517,-0.0003831789,0.0,0.0,1.1641532e-10,0,0,1,-2,0,-2,0,2,2,2,2,2,2,2,2,2,2,2,2
69264000,0.0015819028,-0.0020916187,-0.0008359524,0.0,0.0,-2.3283064e-10,0,0,1,-2,0,-2,0,2,2,2,2,2,2,2,2,2,2,2,2
69464000,0.00033967622,-0.008163819,-0.00015980135,0.0,0.0,-2.3283064e-10,0,0,1,-2,0,-2,0,2,2,2,2,2,2,2,2,2,2,2,2
69664000,-0.0047869454,-0.0012424572,-0.00045160958,0.0,0.0,-1.1641532e-10,0,0,1,-2,0,-2,0,2,2,2,2,2,2,2,2,2,2,2,2
69864000,0.00070822303,-0.0011525899,-0.00037819784,0.0,0.0,-1.1641532e-10,0,0,1,-2,0,-2,0,2,2,2,2,2,2,2,2,2,2,2,2
70064000,0.0003744232,-0.0041506635,-0.00015889821,0.0,0.0,-1.1641532e-10,0,0,1,-2,0,-2,0,2,2,2,2,2,2,2,2,2,2,2,2
70264000,0.0051979385,-0.0029087423,-0.00044419584,0.0,0.0,-1.1641532e-10,0,0,1,-2,0,-2,0,2,2,2,2,2,2,2,2,2,2,2,2
70464000,0.0017911744,5.820766e-11,-0.00012090853,0.0,0.0,0.0,0,0,1,-2,0,0,0,2,2,2,2,2,2,2,2,2,2,2,2
70664000,0.0016363368,-0.00534108,-0.00026152312,0.0,0.0,-2.3283064e-10,0,0,1,-2,0,-2,0,2,2,2,2,2,2,2,2,2,2,2,2
70864000,0.0032860264,-0.003034002,-0.0005247879,0.0,0.0,1.1641532e-10,0,0,1,-2,0,-2,0,2,2,2,2,2,2,2,2,2,2,2,2
71064000,0.0019906715,-0.0021088102,0.00027612518,0.0,0.0,0.0,0,0,1,-2,0,-2,0,2,2,2,2,2,2,2,2,2,2,2,2
71264000,0.0003224461,-0.0058056116,0.00011908132,0.0,0.0,-2.3283064e-10,0,0,1,-2,0,-2,0,2,2,2,2,2,2,2,2,2,2,2,2
71464000,0.0040127253,-5.820766e-11,-0.00056524255,0.0,0.0,-1.1641532e-10,0,0,1,-2,0,0,0,2,2,2,2,2,2,2,2,2,2,2,2
71664000,0.002126868,-0.0054965634,-0.000744133,0.0,0.0,3.4924597e-10,0,0,1,-2,0,-2,0,2,2,2,2,2,2,2,2,2,2,2,2
71864000,0.003379277,-0.00069628493,-0.00027275522,0.0,0.0,0.0,0,0,1,-2,0,-2,0,2,2,2,2,2,2,2,2,2,2,2,2
72064000,0.00067937525,-0.0015690173,0.0007455493,0.0,0.0,-1.1641532e-10,0,0,1,-2,0,-2,0,2,2,2,2,2,2,2,2,2,2,2,2
72256000,-5.4360164e-05,-0.0020963603,0.0005540161,0.0,0.0,-1.1641532e-10,0,0,1,-2,0,-2,0,2,2,2,2,2,2,2,2,2,2,2,2
72464000,-0.0019428921,-0.0018591917,0.0004201532,0.0,0.0,0.0,0,0,1,-2,0,-2,0,2,2,2,2,2,2,2,2,2,2,2,2
72656000,0.0051096603,0.0004390088,-0.0009321004,0.0,0.0,-1.1641532e-10,0,0,1,0,-2,0,-2,2,2,2,2,2,2,2,2,2,2,2,2
72864000,-5.690864e-05,-0.0015932696,-0.0005823204,0.0,0.0,-1.1641532e-10,0,0,1,-2,0,-2,0,2,2,2,2,2,2,2,2,2,2,2,2
73064000,-0.00071934494,0.0015353106,-1.81132e-05,0.0,0.0,-1.1641532e-10,0,0,1,0,-2,0,-2,2,2,2,2,2,2,2,2,2,2,2,2
73264000,0.0025490383,0.0,-0.000228218,0.0,0.0,-1.1641532e-10,0,0,1,-2,0,0,0,2,2,2,2,2,2,2,2,2,2,2,2
73464000,-0.0021796564,-1.1641532e-10,-0.00015771817,0.0,0.0,-1.1641532e-10,0,0,1,0,-2,0,0,2,2,2,2,2,2,2,2,2,2,2,2
73664000,-5.820766e-11,5.820766e-11,8.731149e-11,0.0,0.0,-1.1641532e-10,0,1,1,0,0,0,0,2,2,2,2,2,2,2,2,2,2,2,2
73864000,-0.0011682292,-1.1641532e-10,-0.00023939168,0.0,0.0,-1.1641532e-10,0,0,1,0,-2,0,0,2,2,2,2,2,2,2,2,2,2,2,2
74064000,0.0030785769,-0.003813255,0.00018313975,0.0,0.0,-2.3283064e-10,0,0,1,-2,0,-2,0,2,2,2,2,2,2,2,2,2,2,2,2
74264000,0.00078246,8.731149e-11,-3.975863e-05,0.0,0.0,-1.1641532e-10,0,1,1,-2,0,0,0,2,2,2,2,2,2,2,2,2,2,2,2
74464000,0.0020949834,-0.0011215333,3.634999e-05,0.0,0.0,-1.1641532e-10,0,0,1,-2,0,-2,0,2,2,2,2,2,2,2,2,2,2,2,2
74664000,0.0023910943,-0.0025875312,0.0016028663,0.0,0.0,0.0,0,0,1,-2,0,-2,0,2,2,2,2,2,2,2,2,2,2,2,2
74864000,0.00035485934,-0.0021592113,0.00036798223,0.0,0.0,-1.1641532e-10,0,0,1,-2,0,-2,0,2,2,2,2,2,2,2,2,2,2,2,2
75064000,0.0037908736,-0.0064383484,0.0002476596,0.0,0.0,1.1641532e-10,0,0,1,-2,0,-2,0,2,2,2,2,2,2,2,2,2,2,2,2
75264000,0.0028990083,0.0,0.00023236814,0.0,0.0,-1.1641532e-10,0,0,1,0,0,0,-2,2,2,2,2,2,2,2,2,2,2,2,2
75464000,0.0021634512,-1.1641532e-10,-3.8994585e-11,0.0,0.0,-1.1641532e-10,0,0,1,0,0,0,0,2,2,2,2,2,2,2,2,2,2,2,2
75664000,-0.0015211576,-0.0062841997,-0.00015742185,0.0,0.0,1.1641532e-10,0,0,1,-2,0,-2,0,2,2,2,2,2,2,2,2,2,2,2,2
75864000,-1.891749e-10,0.0,-2.910383e-11,0.0,0.0,-1.1641532e-10,0,1,1,0,0,0,0,2,2,2,2,2,2,2,2,2,2,2,2
76056000,-0.00037074802,-7.790665e-05,-0.0001306491,0.0,0.0,0.0,0,1,1,-2,0,-2,0,2,2,2,2,2,2,2,2,2,2,2,2
76264000,0.0018949986,0.0,1.1641532e-10,0.0,0.0,-1.1641532e-10,0,0,1,0,0,0,0,2,2,2,2,2,2,2,2,2,2,2,2
76464000,-0.00352375,2.3283064e-10,0.0002657023,0.0,0.0,-1.1641532e-10,0,0,1,0,0,-2,0,2,2,2,2,2,2,2,2,2,2,2,2
76656000,0.00095531007,-0.0034313183,0.00026077457,0.0,0.0,-2.3283064e-10,0,0,1,-2,0,-2,0,2,2,2,2,2,2,2,2,2,2,2,2
76864000,0.0026479003,0.0,-1.0228865e-05,0.0,0.0,0.0,0,0,1,-2,0,0,0,2,2,2,2,2,2,2,2,2,2,2,2
77064000,0.0033580307,0.00024256122,-0.00035912558,0.0,0.0,-1.1641532e-10,0,0,1,0,-2,0,-2,2,2,2,2,2,2,2,2,2,2,2,2
77256000,-0.0007889654,-0.00011502742,-0.00045521793,0.0,0.0,-1.1641532e-10,0,1,1,-2,0,-2,0,2,2,2,2,2,2,2,2,2,2,2,2
77464000,0.0016588307,-0.00085700396,-0.00011012345,0.0,0.0,-1.1641532e-10,0,0,1,-2,0,-2,0,2,2,2,2,2,2,2,2,2,2,2,2
77664000,0.0016549231,-0.00030809105,-0.000976783,0.0,0.0,-1.1641532e-10,0,0,1,-2,0,-2,0,2,2,2,2,2,2,2,2,2,2,2,2
77864000,-0.004424762,-0.002829012,-0.000462455,0.0,0.0,1.1641532e-10,0,0,1,-2,0,-2,0,2,2,2,2,2,2,2,2,2,2,2,2
78064000,0.0018570571,-8.0035534e-11,0.00033749128,0.0,0.0,-1.1641532e-10,0,0,1,0,0,0,-2,2,2,2,2,2,2,2,2,2,2,2,2
78264000,-0.0008892145,-0.00052833534,0.0007143775,0.0,0.0,-1.1641532e-10,0,0,1,-2,0,-2,0,2,2,2,2,2,2,2,2,2,2,2,2
78464000,-0.0011691151,-0.001796019,0.00050178677,0.0,0.0,-1.1641532e-10,0,0,1,-2,0,-2,0,2,2,2,2,2,2,2,2,2,2,2,2
78664000,-0.0018675368,-0.0025442627,9.2933415e-06,0.0,0.0,-1.1641532e-10,0,0,1,-2,0,-2,0,2,2,2,2,2,2,2,2,2,2,2,2
78864000,0.0011693244,-1.1641532e-10,4.3655746e-11,0.0,0.0,-1.1641532e-10,0,0,1,0,0,0,0,2,2,2,2,2,2,2,2,2,2,2,2
79064000,0.00036241976,-0.003577254,0.00027826143,0.0,0.0,-1.1641532e-10,0,0,1,-2,0,-2,0,2,2,2,2,2,2,2,2,2,2,2,2
79264000,-0.003095024,-0.00039230648,0.00025810354,0.0,0.0,-1.1641532e-10,0,0,1,-2,0,-2,0,2,2,2,2,2,2,2,2,2,2,2,2
79456000,0.00091416994,0.0,-2.910383e-11,0.0,0.0,-1.1641532e-10,0,1,1,0,0,0,0,2,2,2,2,2,2,2,2,2,2,2,2
79664000,0.0012745606,0.0,-4.4208595e-05,0.0,0.0,-1.1641532e-10,0,0,1,-2,0,0,0,2,2,2,2,2,2,2,2,2,2,2,2
79864000,0.0021200022,-5.820766e-11,0.000166661,0.0,0.0,-1.1641532e-10,0,0,1,0,0,0,-2,2,2,2,2,2,2,2,2,2,2,2,2
80056000,0.0018205554,-5.820766e-11,6.026751e-05,0.0,0.0,-1.1641532e-10,0,0,1,0,0,0,-2,2,2,2,2,2,2,2,2,2,2,2,2
80264000,-0.0032110251,1.1641532e-10,-5.820766e-11,0.0,0.0,-1.1641532e-10,0,0,1,0,0,0,0,2,2,2,2,2,2,2,2,2,2,2,2
80464000,0.0023320022,-0.00069395616,-0.00048457267,0.0,0.0,-1.1641532e-10,0,0,1,-2,0,-2,0,2,2,2,2,2,2,2,2,2,2,2,2
80664000,0.007952361,-0.00026877923,-0.00033053433,0.0,0.0,-1.1641532e-10,0,0,1,-2,0,-2,0,2,2,2,2,2,2,2,2,2,2,2,2
80864000,0.0028177039,-0.0023850664,-0.00015950357,0.0,0.0,0.0,0,0,1,-2,0,-2,0,2,2,2,2,2,2,2,2,2,2,2,2
81064000,-0.0025429428,-0.0032982412,0.00010613672,0.0,0.0,-2.3283064e-10,0,0,1,-2,0,-2,0,2,2,2,2,2,2,2,2,2,2,2,2
81264000,0.0010843185,0.00040525373,0.000563526,0.0,0.0,-1.1641532e-10,0,0,1,0,-2,0,-2,2,2,2,2,2,2,2,2,2,2,2,2
81464000,0.00358374,0.00060511054,-0.00035727234,0.0,0.0,-1.1641532e-10,0,0,1,0,-2,0,-2,2,2,2,2,2,2,2,2,2,2,2,2
81664000,-0.0013388766,2.910383e-11,0.00043592177,0.0,0.0,-1.1641532e-10,0,0,1,0,0,-2,0,2,2,2,2,2,2,2,2,2,2,2,2
81864000,-0.0006275662,0.0042144973,-0.0002890279,0.0,0.0,-2.3283064e-10,0,0,1,0,-2,0,-2,2,2,2,2,2,2,2,2,2,2,2,2
82064000,0.0031762698,-2.910383e-11,0.00037569078,0.0,0.0,-1.1641532e-10,0,0,1,0,0,0,-2,2,2,2,2,2,2,2,2,2,2,2,2
82264000,-0.0017735455,0.0016591796,0.00047653972,0.0,0.0,-1.1641532e-10,0,0,1,0,-2,0,-2,2,2,2,2,2,2,2,2,2,2,2,2
82464000,4.3655746e-11,1.1641532e-10,-0.00021873444,0.0,0.0,-1.1641532e-10,0,1,1,0,-2,0,0,2,2,2,2,2,2,2,2,2,2,2,2
82664000,0.003379108,-0.0036853745,-8.562977e-05,0.0,0.0,1.1641532e-10,0,0,1,-2,0,-2,0,2,2,2,2,2,2,2,2,2,2,2,2
82864000,-0.0016712575,1.1641532e-10,3.310143e-05,0.0,0.0,-1.1641532e-10,0,0,1,0,0,-2,0,2,2,2,2,2,2,2,2,2,2,2,2
83064000,0.0009761122,8.731149e-11,-0.00037431924,0.0,0.0,-1.1641532e-10,0,0,1,-2,0,0,0,2,2,2,2,2,2,2,2,2,2,2,2
83264000,0.002656129,7.401884e-05,-0.00025904327,0.0,0.0,-1.1641532e-10,0,0,1,0,-2,0,-2,2,2,2,2,2,2,2,2,2,2,2,2
83464000,2.910383e-10,-5.820766e-11,-2.910383e-11,0.0,0.0,-1.1641532e-10,0,1,1,0,0,0,0,2,2,2,2,2,2,2,2,2,2,2,2
83664000,0.0023261816,0.0014475363,0.00018381879,0.0,0.0,-1.1641532e-10,0,0,1,0,-2,0,-2,2,2,2,2,2,2,2,2,2,2,2,2
83864000,-0.00023600028,5.820766e-11,-8.731149e-11,0.0,0.0,0.0,0,1,1,0,0,0,0,2,2,2,2,2,2,2,2,2,2,2,2
84064000,0.0012370396,-0.0011256726,0.00012581072,0.0,0.0,-1.1641532e-10,0,0,1,-2,0,-2,0,2,2,2,2,2,2,2,2,2,2,2,2
84264000,0.00092034217,5.820766e-11,8.731149e-11,0.0,0.0,-1.1641532e-10,0,1,1,0,0,0,0,2,2,2,2,2,2,2,2,2,2,2,2
84464000,0.0024244937,-0.00043659727,-0.00019885153,0.0,0.0,-1.1641532e-10,0,0,1,-2,0,-2,0,2,2,2,2,2,2,2,2,2,2,2,2
84656000,0.00179841,0.0009843556,-0.0005699329,0.0,0.0,-1.1641532e-10,0,0,1,0,-2,0,-2,2,2,2,2,2,2,2,2,2,2,2,2
84864000,0.0007822592,0.0024380446,0.0005956607,0.0,0.0,-1.1641532e-10,0,0,1,0,-2,0,-2,2,2,2,2,2,2,2,2,2,2,2,2
85064000,0.004924081,0.00017106254,-0.00020146655,0.0,0.0,-1.1641532e-10,0,0,1,0,-2,0,-2,2,2,2,2,2,2,2,2,2,2,2,2
85264000,0.0002715356,-5.820766e-11,-5.820766e-11,0.0,0.0,0.0,0,1,1,0,0,0,0,2,2,2,2,2,2,2,2,2,2,2,2
85464000,0.0026239376,0.0,-0.00024617586,0.0,0.0,-1.1641532e-10,0,0,1,-2,0,0,0,2,2,2,2,2,2,2,2,2,2,2,2
85664000,-0.00093233865,0.00035192003,0.00022714445,0.0,0.0,-1.1641532e-10,0,0,1,0,-2,0,-2,2,2,2,2,2,2,2,2,2,2,2,2
85864000,-1.1641532e-10,5.820766e-11,0.00074025197,0.0,0.0,-1.1641532e-10,0,1,1,0,0,0,-2,2,2,2,2,2,2,2,2,2,2,2,2
86064000,-0.00085583184,0.0019882233,0.00056902383,0.0,0.0,0.0,0,0,1,0,-2,0,-2,2,2,2,2,2,2,2,2,2,2,2,2
86264000,-0.00025101827,-0.0016483509,0.00035197273,0.0,0.0,-1.1641532e-10,0,0,1,-2,0,-2,0,2,2,2,2,2,2,2,2,2,2,2,2
86464000,0.0022131938,0.002235814,-1.2109616e-05,0.0,0.0,-2.3283064e-10,0,0,1,0,-2,0,-2,2,2,2,2,2,2,2,2,2,2,2,2
86664000,0.0038337414,0.00049863325,-0.00031797437,0.0,0.0,-1.1641532e-10,0,0,1,0,-2,0,-2,2,2,2,2,2,2,2,2,2,2,2,2
86864000,0.0040646316,0.0,-0.0005544187,0.0,0.0,-1.1641532e-10,0,0,1,-2,0,0,0,2,2,2,2,2,2,2,2,2,2,2,2
87064000,-2.3283064e-10,-2.910383e-11,5.820766e-11,0.0,0.0,-1.1641532e-10,0,1,1,0,0,0,0,2,2,2,2,2,2,2,2,2,2,2,2
87264000,-0.0032442724,0.0025537622,0.00043099115,0.0,0.0,-1.1641532e-10,0,0,1,0,-2,0,-2,2,2,2,2,2,2,2,2,2,2,2,2
87456000,0.0006140806,-1.1641532e-10,3.6379788e-11,0.0,0.0,-1.1641532e-10,0,1,1,0,0,0,0,2,2,2,2,2,2,2,2,2,2,2,2
87664000,0.0043656453,-0.0021676992,-5.8644848e-05,0.0,0.0,-1.1641532e-10,0,0,1,-2,0,-2,0,2,2,2,2,2,2,2,2,2,2,2,2
87864000,0.0052971356,-5.820766e-11,-0.00021795965,0.0,0.0,-1.1641532e-10,0,0,1,-2,0,0,0,2,2,2,2,2,2,2,2,2,2,2,2
88056000,0.0006361585,0.0,-0.0002818348,0.0,0.0,-1.1641532e-10,0,1,1,-2,0,0,0,2,2,2,2,2,2,2,2,2,2,2,2
88256000,0.0026280654,-0.0015444786,0.00030251543,0.0,0.0,-1.1641532e-10,0,0,1,-2,0,-2,0,2,2,2,2,2,2,2,2,2,2,2,2
88464000,0.0010607999,-0.0027538787,0.00023973426,0.0,0.0,-1.1641532e-10,0,0,1,-2,0,-2,0,2,2,2,2,2,2,2,2,2,2,2,2
88664000,0.004226497,0.0008416411,0.00040325383,0.0,0.0,-1.1641532e-10,0,0,1,0,-2,0,-2,2,2,2,2,2,2,2,2,2,2,2,2
88864000,-0.0020915582,-0.0039267326,0.00024180226,0.0,0.0,1.1641532e-10,0,0,1,-2,0,-2,0,2,2,2,2,2,2,2,2,2,2,2,2
89064000,0.0022362152,-0.0038211632,-0.0002759879,0.0,0.0,-1.1641532e-10,0,0,1,-2,0,-2,0,2,2,2,2,2,2,2,2,2,2,2,2
89264000,0.0010292776,0.0,1.3096724e-10,0.0,0.0,-1.1641532e-10,0,0,1,0,0,0,0,2,2,2,2,2,2,2,2,2,2,2,2
89464000,0.0010066011,0.0,-2.910383e-11,0.0,0.0,-1.1641532e-10,0,0,1,0,0,0,0,2,2,2,2,2,2,2,2,2,2,2,2
89664000,0.0011486637,-1.1641532e-10,2.3283064e-10,0.0,0.0,-1.1641532e-10,0,0,1,0,0,0,0,2,2,2,2,2,2,2,2,2,2,2,2
89864000,0.0021345315,-0.0011286852,-7.068782e-05,0.0,0.0,-1.1641532e-10,0,0,1,-2,0,-2,0,2,2,2,2,2,2,2,2,2,2,2,2
90064000,0.0057149553,0.00081576954,0.00038029594,0.0,0.0,0.0,0,0,1,0,-2,0,-2,2,2,2,2,2,2,2,2,2,2,2,2
90264000,0.0071197115,0.00082647847,-0.00034428027,0.0,0.0,-1.1641532e-10,0,0,1,0,-2,0,-2,2,2,2,2,2,2,2,2,2,2,2,2
90464000,0.0008204457,0.0032955434,-0.0004795989,0.0,0.0,-1.1641532e-10,0,0,1,0,-2,0,-2,2,2,2,2,2,2,2,2,2,2,2,2
90664000,0.0016308299,-0.0006983918,-2.322266e-05,0.0,0.0,-1.1641532e-10,0,0,1,-2,0,-2,0,2,2,2,2,2,2,2,2,2,2,2,2
90864000,0.0057145706,-0.0058947387,-0.00096999016,0.0,0.0,1.1641532e-10,0,0,1,-2,0,-2,0,2,2,2,2,2,2,2,2,2,2,2,2
91064000,0.0022867403,-0.00045008794,5.3721844e-05,0.0,0.0,-1.1641532e-10,0,0,1,-2,0,-2,0,2,2,2,2,2,2,2,2,2,2,2,2
91264000,-0.0003401274,0.00029820565,0.0005664277,0.0,0.0,-1.1641532e-10,0,1,1,0,-2,0,-2,2,2,2,2,2,2,2,2,2,2,2,2
91464000,0.003309832,0.00015485205,-0.00010673924,0.0,0.0,-1.1641532e-10,0,0,1,0,-2,0,-2,2,2,2,2,2,2,2,2,2,2,2,2
91664000,0.006877937,-0.00088993553,-0.00038112488,0.0,0.0,-1.1641532e-10,0,0,1,-2,0,-2,0,2,2,2,2,2,2,2,2,2,2,2,2
91864000,-0.00029737398,4.3655746e-11,-1.1641532e-10,0.0,0.0,0.0,0,1,1,0,0,0,0,2,2,2,2,2,2,2,2,2,2,2,2
92064000,0.0037421216,-5.820766e-11,-2.910383e-11,0.0,0.0,-1.1641532e-10,0,0,1,0,0,0,0,2,2,2,2,2,2,2,2,2,2,2,2
92264000,0.0034529604,0.0,-0.00017058283,0.0,0.0,-1.1641532e-10,0,0,1,-2,0,0,0,2,2,2,2,2,2,2,2,2,2,2,2
92464000,0.005027593,0.0015818966,0.0002510776,0.0,0.0,-1.1641532e-10,0,0,1,0,-2,0,-2,2,2,2,2,2,2,2,2,2,2,2,2
92664000,0.0051235566,-1.1641532e-10,0.00011622341,0.0,0.0,-1.1641532e-10,0,0,1,0,0,0,-2,2,2,2,2,2,2,2,2,2,2,2,2
92864000,0.00041991367,-0.00051953853,0.001069848,0.0,0.0,-1.1641532e-10,0,0,1,-2,0,-2,0,2,2,2,2,2,2,2,2,2,2,2,2
93064000,5.514594e-06,-0.00044916128,0.0004609357,0.0,0.0,-1.1641532e-10,0,1,1,-2,0,-2,0,2,2,2,2,2,2,2,2,2,2,2,2
93264000,0.0027277416,0.0028122077,0.00021061761,0.0,0.0,-2.3283064e-10,0,0,1,0,-2,0,-2,2,2,2,2,2,2,2,2,2,2,2,2
93464000,0.0027044937,-5.820766e-11,1.5825208e-10,0.0,0.0,-1.1641532e-10,0,0,1,0,0,0,0,2,2,2,2,2,2,2,2,2,2,2,2
93664000,0.0016881467,0.0,0.00038665478,0.0,0.0,-1.1641532e-10,0,0,1,0,0,0,-2,2,2,2,2,2,2,2,2,2,2,2,2
93864000,0.0063828155,-0.0010930889,-0.0002904692,0.0,0.0,-1.1641532e-10,0,0,1,-2,0,-2,0,2,2,2,2,2,2,2,2,2,2,2,2
94064000,0.008553124,-2.0372681e-10,3.4437602e-05,0.0,0.0,1.1641532e-10,0,0,1,0,0,0,-2,2,2,2,2,2,2,2,2,2,2,2,2
94264000,0.005410256,-0.0005551459,-0.0001611381,0.0,0.0,1.1641532e-10,0,0,1,-2,0,-2,0,2,2,2,2,2,2,2,2,2,2,2,2
94464000,0.003435094,-0.002116627,-0.00055429176,0.0,0.0,1.1641532e-10,0,0,1,-2,0,-2,0,2,2,2,2,2,2,2,2,2,2,2,2
94664000,0.00080200424,7.2759576e-11,-0.00015251627,0.0,0.0,0.0,0,1,1,-2,0,0,0,2,2,2,2,2,2,2,2,2,2,2,2
94864000,-0.00035676974,-0.0022795368,0.00016238437,0.0,0.0,-1.1641532e-10,0,0,1,-2,0,-2,0,2,2,2,2,2,2,2,2,2,2,2,2
95064000,0.004393584,-0.0017431313,-0.0004181134,0.0,0.0,-1.1641532e-10,0,0,1,-2,0,-2,0,2,2,2,2,2,2,2,2,2,2,2,2
95264000,0.006867326,-0.0006334054,0.000276594,0.0,0.0,0.0,0,0,1,-2,0,-2,0,2,2,2,2,2,2,2,2,2,2,2,2
95464000,0.0010393412,-0.00022162904,-1.1671102e-05,0.0,0.0,0.0,0,0,1,-2,0,-2,0,2,2,2,2,2,2,2,2,2,2,2,2
95664000,0.0034770998,0.00033193058,0.00014121726,0.0,0.0,-1.1641532e-10,0,0,1,0,-2,0,-2,2,2,2,2,2,2,2,2,2,2,2,2
95864000,-0.0029604407,0.0003907592,-7.0811824e-05,0.0,0.0,0.0,0,0,1,0,-2,0,-2,2,2,2,2,2,2,2,2,2,2,2,2
96064000,2.910383e-11,-2.910383e-11,2.910383e-11,0.0,0.0,-1.1641532e-10,0,1,1,0,0,0,0,2,2,2,2,2,2,2,2,2,2,2,2
96264000,4.3655746e-11,0.0,2.5465852e-11,0.0,0.0,0.0,0,1,1,0,0,0,0,2,2,2,2,2,2,2,2,2,2,2,2
96464000,0.0006420064,2.910383e-11,1.1641532e-10,0.0,0.0,-1.1641532e-10,0,1,1,0,0,0,0,2,2,2,2,2,2,2,2,2,2,2,2
96656000,0.00073131133,0.0011175699,0.000556041,0.0,0.0,0.0,0,0,1,0,-2,0,-2,2,2,2,2,2,2,2,2,2,2,2,2
96856000,-0.00239181,-0.0043133292,-0.00057566504,0.0,0.0,3.4924597e-10,0,0,1,-2,0,-2,0,2,2,2,2,2,2,2,2,2,2,2,2
97064000,0.0055357674,-0.003282367,0.0001431134,0.0,0.0,-1.1641532e-10,0,0,1,-2,0,-2,0,2,2,2,2,2,2,2,2,2,2,2,2
97264000,0.0019375421,0.0014732436,0.00023765545,0.0,0.0,-1.1641532e-10,0,0,1,0,-2,0,-2,2,2,2,2,2,2,2,2,2,2,2,2
97464000,0.0010101602,-0.002408861,-0.00044056412,0.0,0.0,-1.1641532e-10,0,0,1,-2,0,-2,0,2,2,2,2,2,2,2,2,2,2,2,2
97664000,-0.0009189679,-0.005109822,-0.00018353912,0.0,0.0,-2.3283064e-10,0,0,1,-2,0,-2,0,2,2,2,2,2,2,2,2,2,2,2,2
97864000,-0.001672419,-0.00041509047,-0.00044014896,0.0,0.0,-1.1641532e-10,0,0,1,-2,0,-2,0,2,2,2,2,2,2,2,2,2,2,2,2
98064000,0.0043946696,-0.0015478033,0.00076512096,0.0,0.0,0.0,0,0,1,-2,0,-2,0,2,2,2,2,2,2,2,2,2,2,2,2
98264000,0.0019209285,0.0009551698,-0.00026346536,0.0,0.0,-1.1641532e-10,0,0,1,0,-2,0,-2,2,2,2,2,2,2,2,2,2,2,2,2
98464000,-0.0031737844,-5.4569682e-11,-0.00020012574,0.0,0.0,-1.1641532e-10,0,0,1,0,-2,0,0,2,2,2,2,2,2,2,2,2,2,2,2
98664000,-2.3283064e-10,3.637979e-12,6.502887e-11,0.0,0.0,-1.1641532e-10,0,1,1,0,0,0,0,2,2,2,2,2,2,2,2,2,2,2,2
98864000,-0.0019377196,-0.0010708913,0.00012705405,0.0,0.0,-1.1641532e-10,0,0,1,-2,0,-2,0,2,2,2,2,2,2,2,2,2,2,2,2
99064000,0.0060827457,-0.0031236166,0.0006326231,0.0,0.0,-1.1641532e-10,0,0,1,-2,0,-2,0,2,2,2,2,2,2,2,2,2,2,2,2
99264000,0.0035723546,-0.002633705,0.0011220241,0.0,0.0,-1.1641532e-10,0,0,1,-2,0,-2,0,2,2,2,2,2,2,2,2,2,2,2,2
99464000,5.820766e-11,0.0,7.695344e-05,0.0,0.0,-1.1641532e-10,0,1,1,0,0,-2,0,2,2,2,2,2,2,2,2,2,2,2,2
99664000,0.001475388,-0.0007958213,-0.00028446477,0.0,0.0,0.0,0,0,1,-2,0,-2,0,2,2,2,2,2,2,2,2,2,2,2,2
99864000,0.0006382386,-0.0022883757,0.00024300255,0.0,0.0,-1.1641532e-10,0,0,1,-2,0,-2,0,2,2,2,2,2,2,2,2,2,2,2,2
100064000,5.820766e-11,5.820766e-11,-2.910383e-11,0.0,0.0,-1.1641532e-10,0,1,1,0,0,0,0,2,2,2,2,2,2,2,2,2,2,2,2
100264000,-0.0023746782,-0.003249329,-0.0002506719,0.0,0.0,1.1641532e-10,0,0,1,-2,0,-2,0,2,2,2,2,2,2,2,2,2,2,2,2
100464000,0.0013776128,-4.9112714e-11,0.0005036126,0.0,0.0,-1.1641532e-10,0,0,1,0,0,0,-2,2,2,2,2,2,2,2,2,2,2,2,2
100664000,6.91216e-11,-5.820766e-11,5.456968e-12,0.0,0.0,-1.1641532e-10,0,1,1,0,0,0,0,2,2,2,2,2,2,2,2,2,2,2,2
100864000,0.0015815712,1.4551915e-11,5.820766e-11,0.0,0.0,-1.1641532e-10,0,0,1,0,0,0,0,2,2,2,2,2,2,2,2,2,2,2,2
101064000,0.002832274,-0.000721046,9.05279e-05,0.0,0.0,-1.1641532e-10,0,0,1,-2,0,-2,0,2,2,2,2,2,2,2,2,2,2,2,2
101264000,0.0039245007,8.731149e-11,-0.0001391744,0.0,0.0,1.1641532e-10,0,0,1,-2,0,0,0,2,2,2,2,2,2,2,2,2,2,2,2
101464000,0.0021664642,-0.0031652972,-2.8293423e-05,0.0,0.0,-1.1641532e-10,0,0,1,-2,0,-2,0,2,2,2,2,2,2,2,2,2,2,2,2
101664000,-0.0024687552,-0.0010979818,3.7107195e-05,0.0,0.0,-1.1641532e-10,0,0,1,-2,0,-2,0,2,2,2,2,2,2,2,2,2,2,2,2
101856000,0.00089980115,5.820766e-11,-0.0009261644,0.0,0.0,-1.1641532e-10,0,0,1,-2,0,0,0,2,2,2,2,2,2,2,2,2,2,2,2
102064000,0.0039190734,-1.1641532e-10,-0.0002939675,0.0,0.0,-1.1641532e-10,0,0,1,-2,0,0,0,2,2,2,2,2,2,2,2,2,2,2,2
102264000,0.0019053204,-0.0016053915,0.000250571,0.0,0.0,0.0,0,0,1,-2,0,-2,0,2,2,2,2,2,2,2,2,2,2,2,2
102464000,0.0011872482,-0.0024000513,-0.00025912895,0.0,0.0,-1.1641532e-10,0,0,1,-2,0,-2,0,2,2,2,2,2,2,2,2,2,2,2,2
102664000,-0.0006266305,-0.00023343787,-0.00030918253,0.0,0.0,-1.1641532e-10,0,1,1,-2,0,-2,0,2,2,2,2,2,2,2,2,2,2,2,2
102864000,-0.0010444571,-0.0012383007,0.00016137953,0.0,0.0,0.0,0,0,1,-2,0,-2,0,2,2,2,2,2,2,2,2,2,2,2,2
103064000,0.00045087712,-0.0010856276,-0.0005876777,0.0,0.0,-1.1641532e-10,0,0,1,-2,0,-2,0,2,2,2,2,2,2,2,2,2,2,2,2
103264000,0.006845244,-0.00060583535,0.00041948247,0.0,0.0,-1.1641532e-10,0,0,1,-2,0,-2,0,2,2,2,2,2,2,2,2,2,2,2,2
103464000,-0.0002247555,-0.00031946413,-0.0001177542,0.0,0.0,-1.1641532e-10,0,1,1,-2,0,-2,0,2,2,2,2,2,2,2,2,2,2,2,2
103664000,0.00078225555,0.0,2.910383e-11,0.0,0.0,-1.1641532e-10,0,1,1,0,0,0,0,2,2,2,2,2,2,2,2,2,2,2,2
103864000,0.0010697638,-0.0010977753,-4.632045e-05,0.0,0.0,-1.1641532e-10,0,0,1,-2,0,-2,0,2,2,2,2,2,2,2,2,2,2,2,2
104064000,0.00012584084,-0.0017868122,6.157275e-05,0.0,0.0,-1.1641532e-10,0,0,1,-2,0,-2,0,2,2,2,2,2,2,2,2,2,2,2,2
104264000,-0.0034867334,0.00012120209,-0.0003744255,0.0,0.0,-1.1641532e-10,0,0,1,0,-2,0,-2,2,2,2,2,2,2,2,2,2,2,2,2
104464000,4.3655746e-11,-5.820766e-11,4.305889e-11,0.0,0.0,-1.1641532e-10,0,1,1,0,0,0,0,2,2,2,2,2,2,2,2,2,2,2,2
104664000,0.0033131784,-0.0027923547,-0.00013332588,0.0,0.0,0.0,0,0,1,-2,0,-2,0,2,2,2,2,2,2,2,2,2,2,2,2
104864000,-0.0011181221,-0.00079044234,0.0003189088,0.0,0.0,-1.1641532e-10,0,0,1,-2,0,-2,0,2,2,2,2,2,2,2,2,2,2,2,2
105064000,-0.00015990692,0.0,-1.1641532e-10,0.0,0.0,-1.1641532e-10,0,1,1,0,0,0,0,2,2,2,2,2,2,2,2,2,2,2,2
105264000,0.0026449808,-1.1641532e-10,8.731149e-11,0.0,0.0,-1.1641532e-10,0,0,1,0,0,0,0,2,2,2,2,2,2,2,2,2,2,2,2
105464000,-3.4924597e-10,0.0,-0.0005992767,0.0,0.0,-1.1641532e-10,0,1,1,-2,0,0,0,2,2,2,2,2,2,2,2,2,2,2,2
105664000,0.0030237033,-0.0019109758,-0.0002049566,0.0,0.0,0.0,0,0,1,-2,0,-2,0,2,2,2,2,2,2,2,2,2,2,2,2
105864000,-0.00061478326,-0.0011568686,-0.00027103836,0.0,0.0,0.0,0,0,1,-2,0,-2,0,2,2,2,2,2,2,2,2,2,2,2,2
106064000,0.0008711149,-1.1641532e-10,0.0005223282,0.0,0.0,0.0,0,0,1,0,0,0,-2,2,2,2,2,2,2,2,2,2,2,2,2
106264000,0.005066028,0.0015502595,-0.00053248444,0.0,0.0,-1.1641532e-10,0,0,1,0,-2,0,-2,2,2,2,2,2,2,2,2,2,2,2,2
106464000,-0.00088571286,-0.00015379651,8.662603e-05,0.0,0.0,0.0,0,1,1,-2,0,-2,0,2,2,2,2,2,2,2,2,2,2,2,2
106664000,5.820766e-11,0.0,-1.1641532e-10,0.0,0.0,-1.1641532e-10,0,1,1,0,0,0,0,2,2,2,2,2,2,2,2,2,2,2,2
106864000,-0.00011014356,5.820766e-11,0.00091766246,0.0,0.0,0.0,0,1,1,0,0,-2,0,2,2,2,2,2,2,2,2,2,2,2,2
107064000,-0.0026256228,-0.0011098667,0.0006181405,0.0,0.0,-1.1641532e-10,0,0,1,-2,0,-2,0,2,2,2,2,2,2,2,2,2,2,2,2
107264000,-0.004028635,-0.0013387267,2.8557144e-05,0.0,0.0,1.1641532e-10,0,0,1,-2,0,-2,0,2,2,2,2,2,2,2,2,2,2,2,2
107464000,-0.0023265202,-0.0048654415,-0.0007421608,0.0,0.0,0.0,0,0,1,-2,0,-2,0,2,2,2,2,2,2,2,2,2,2,2,2
107664000,-0.003918275,2.6193447e-10,-6.2755134e-11,0.0,0.0,0.0,0,0,1,0,0,0,0,2,2,2,2,2,2,2,2,2,2,2,2
107864000,0.00020309247,0.0,7.2759576e-11,0.0,0.0,-1.1641532e-10,0,1,1,0,0,0,0,2,2,2,2,2,2,2,2,2,2,2,2
108056000,-0.001106237,-0.0041731494,0.00023679859,0.0,0.0,1.1641532e-10,0,0,1,-2,0,-2,0,2,2,2,2,2,2,2,2,2,2,2,2
108264000,-0.0014301647,-0.0023282305,0.00044753772,0.0,0.0,-2.3283064e-10,0,0,1,-2,0,-2,0,2,2,2,2,2,2,2,2,2,2,2,2
108464000,-0.00075346,0.0013690735,0.0001225913,0.0,0.0,-1.1641532e-10,0,0,1,0,-2,0,-2,2,2,2,2,2,2,2,2,2,2,2,2
108664000,0.00056259276,-2.171786e-05,-0.00017997672,0.0,0.0,-1.1641532e-10,0,1,1,-2,0,-2,0,2,2,2,2,2,2,2,2,2,2,2,2
108864000,-0.0022927993,1.1641532e-10,0.00017975127,0.0,0.0,0.0,0,0,1,0,0,-2,0,2,2,2,2,2,2,2,2,2,2,2,2
109064000,-0.0074032466,-1.1641532e-10,0.00056255504,0.0,0.0,-1.1641532e-10,0,0,1,0,0,-2,0,2,2,2,2,2,2,2,2,2,2,2,2
109264000,-0.0074634273,1.1641532e-10,0.00040646843,0.0,0.0,-1.1641532e-10,0,0,1,0,0,-2,0,2,2,2,2,2,2,2,2,2,2,2,2
