timestamp,timestamp_sample,xyz[0],xyz[1],xyz[2],xyz_derivative[0],xyz_derivative[1],xyz_derivative[2]
1264000,0,7.481551e-26,-9.321344e-19,-1.2478579e-26,0.0,0.0,0.0
1268000,0,8.523592e-26,-9.218553e-19,-1.2508055e-26,0.0,0.0,0.0
1276000,0,1.0474998e-25,-9.016361e-19,-1.2568966e-26,0.0,0.0,0.0
1284000,0,1.2259106e-25,-8.818602e-19,-1.2632245e-26,0.0,0.0,0.0
1296000,0,1.4645284e-25,-8.5300705e-19,-1.2731006e-26,0.0,0.0,0.0
1304000,0,1.6057473e-25,-8.34298e-19,-1.27990425e-26,0.0,0.0,0.0
1316000,0,1.7931216e-25,-8.07001e-19,-1.29038184e-26,0.0,0.0,0.0
1324000,0,1.902994e-25,-7.8930107e-19,-1.2975178e-26,0.0,0.0,0.0
1336000,0,2.047233e-25,-7.6347633e-19,-1.3084008e-26,0.0,0.0,0.0
1344000,0,2.1307547e-25,-7.46731e-19,-1.3157503e-26,0.0,0.0,0.0
1356000,0,-7.37407e-23,-6.8726956e-17,-4.668466e-24,0.0,0.0,0.0
1364000,0,1.3656825e-23,1.0397396e-18,-1.1434557e-25,0.0,0.0,0.0
1376000,0,5.7935783e-24,7.4759255e-19,-2.8312605e-25,0.0,0.0,0.0
1384000,0,5.479098e-24,7.2770827e-19,-2.81923e-25,0.0,0.0,0.0
1396000,0,5.0172516e-24,7.0062286e-19,-2.8082386e-25,0.0,0.0,0.0
1404000,0,4.721165e-24,6.8401255e-19,-2.807087e-25,0.0,0.0,0.0
1416000,0,4.300751e-24,6.605602e-19,-2.8100416e-25,0.0,0.0,0.0
1424000,0,4.037661e-24,6.456641e-19,-2.81364e-25,0.0,0.0,0.0
1436000,0,3.6692157e-24,6.241871e-19,-2.8200355e-25,0.0,0.0,0.0
1444000,0,-2.1336838e-23,-7.2560014e-19,-1.1620128e-24,0.0,0.0,0.0
1456000,0,4.180017e-25,-6.965263e-20,-1.4512893e-25,0.0,0.0,0.0
1464000,0,3.7104235e-25,-7.178728e-20,-1.4874962e-25,0.0,0.0,0.0
1476000,0,2.0100435e-23,1.7392075e-17,2.0572802e-25,0.0,0.0,0.0
1484000,0,-7.2277915e-05,-0.0014247398,-3.3419172e-07,0.0,0.0,0.0
1496000,0,5.584508e-05,5.7561338e-05,2.0874163e-08,0.0,0.0,0.0
1504000,0,5.4626766e-05,5.1259685e-05,2.0819476e-08,0.0,0.0,0.0
1516000,0,5.4681328e-05,5.0893595e-05,2.0840371e-08,0.0,0.0,0.0
1524000,0,5.4715394e-05,5.078901e-05,2.0821576e-08,0.0,0.0,0.0
1536000,0,5.4744905e-05,5.069909e-05,2.0796833e-08,0.0,0.0,0.0
1544000,0,5.4756034e-05,5.066513e-05,2.0781142e-08,0.0,0.0,0.0
1556000,0,5.4765667e-05,5.063564e-05,2.0758208e-08,0.0,0.0,0.0
1564000,0,5.4769305e-05,5.0624487e-05,2.074315e-08,0.0,0.0,0.0
1576000,0,5.477246e-05,5.06148e-05,2.0720746e-08,0.0,0.0,0.0
1584000,0,5.4773656e-05,5.0611132e-05,2.0705885e-08,0.0,0.0,0.0
1596000,0,5.4774697e-05,5.060794e-05,2.0683649e-08,0.0,0.0,0.0
1604000,0,5.4775097e-05,5.060673e-05,2.0668848e-08,0.0,0.0,0.0
1616000,0,5.4775453e-05,5.0605675e-05,2.0646668e-08,0.0,0.0,0.0
1624000,0,5.477559e-05,5.060527e-05,2.0631887e-08,0.0,0.0,0.0
1636000,0,5.4775723e-05,5.060492e-05,2.0609724e-08,0.0,0.0,0.0
1644000,0,5.4775777e-05,5.060478e-05,2.059495e-08,0.0,0.0,0.0
1656000,0,5.477584e-05,5.0604653e-05,2.0572791e-08,0.0,0.0,0.0
1664000,0,5.4775865e-05,5.06046e-05,2.055802e-08,0.0,0.0,0.0
1676000,0,5.47759e-05,5.0604554e-05,2.0535863e-08,0.0,0.0,0.0
1684000,0,5.477592e-05,5.060453e-05,2.052109e-08,0.0,0.0,0.0
1696000,0,5.477595e-05,5.0604507e-05,2.0498934e-08,0.0,0.0,0.0
1704000,0,5.4775963e-05,5.0604493e-05,2.0484164e-08,0.0,0.0,0.0
1716000,0,5.477599e-05,5.0604474e-05,2.0462007e-08,0.0,0.0,0.0
1724000,0,5.4776006e-05,5.0604463e-05,2.0447235e-08,0.0,0.0,0.0
1736000,0,5.477603e-05,5.0604453e-05,2.042508e-08,0.0,0.0,0.0
1744000,0,5.4776043e-05,5.060444e-05,2.0410308e-08,0.0,0.0,0.0
1756000,0,5.477607e-05,5.0604427e-05,2.0388153e-08,0.0,0.0,0.0
1764000,0,5.4776083e-05,5.060442e-05,2.0373381e-08,0.0,0.0,0.0
1776000,0,5.477611e-05,5.0604405e-05,2.0351225e-08,0.0,0.0,0.0
1784000,0,5.4776123e-05,5.0604398e-05,2.0336454e-08,0.0,0.0,0.0
1796000,0,5.4776145e-05,5.0604383e-05,2.0314298e-08,0.0,0.0,0.0
1804000,0,5.477616e-05,5.0604376e-05,2.0299527e-08,0.0,0.0,0.0
1816000,0,5.4776185e-05,5.0604365e-05,2.0277371e-08,0.0,0.0,0.0
1824000,0,5.47762e-05,5.0604354e-05,2.02626e-08,0.0,0.0,0.0
1836000,0,5.4776225e-05,5.0604343e-05,2.0240444e-08,0.0,0.0,0.0
1844000,0,5.4776236e-05,5.0604333e-05,2.0225674e-08,0.0,0.0,0.0
1856000,0,5.477626e-05,5.060432e-05,2.0203517e-08,0.0,0.0,0.0
1864000,0,5.4776276e-05,5.060431e-05,2.0188747e-08,0.0,0.0,0.0
1876000,0,5.47763e-05,5.06043e-05,2.016659e-08,0.0,0.0,0.0
1884000,0,5.4776316e-05,5.060429e-05,2.015182e-08,0.0,0.0,0.0
1896000,0,5.4776337e-05,5.0604278e-05,2.0129663e-08,0.0,0.0,0.0
1904000,0,5.4776352e-05,5.0604267e-05,2.0114891e-08,0.0,0.0,0.0
1916000,0,5.4776378e-05,5.0604256e-05,2.0092736e-08,0.0,0.0,0.0
1924000,0,5.4776392e-05,5.0604245e-05,2.0077964e-08,0.0,0.0,0.0
1936000,0,5.4776418e-05,5.0604234e-05,2.005581e-08,0.0,0.0,0.0
1940000,0,5.4776425e-05,5.060423e-05,2.0048423e-08,0.0,0.0,0.0
1956000,0,5.4776454e-05,5.0604212e-05,2.0018883e-08,0.0,0.0,0.0
1964000,0,5.477647e-05,5.0604205e-05,2.000411e-08,0.0,0.0,0.0
1976000,0,5.4776494e-05,5.060419e-05,1.9981956e-08,0.0,0.0,0.0
1984000,0,5.477651e-05,5.0604183e-05,1.9967183e-08,0.0,0.0,0.0
1996000,0,5.477653e-05,5.060417e-05,1.9945029e-08,0.0,0.0,0.0
2004000,0,5.4776545e-05,5.060416e-05,1.9930257e-08,0.0,0.0,0.0
2016000,0,5.477657e-05,5.0604147e-05,1.9908102e-08,0.0,0.0,0.0
2024000,0,5.4776585e-05,5.060414e-05,1.989333e-08,0.0,0.0,0.0
2036000,0,5.477661e-05,5.0604125e-05,1.9871175e-08,0.0,0.0,0.0
2044000,0,5.4776625e-05,5.0604118e-05,1.9856403e-08,0.0,0.0,0.0
2056000,0,5.4776647e-05,5.0604103e-05,1.9834248e-08,0.0,0.0,0.0
2064000,0,5.477666e-05,5.0604096e-05,1.9819476e-08,0.0,0.0,0.0
2072000,0,5.477668e-05,5.060409e-05,1.9804705e-08,0.0,0.0,0.0
2084000,0,5.47767e-05,5.0604074e-05,1.9782549e-08,0.0,0.0,0.0
2096000,0,5.4776727e-05,5.0604063e-05,1.9760394e-08,0.0,0.0,0.0
2104000,0,5.4776738e-05,5.0604052e-05,1.9745622e-08,0.0,0.0,0.0
2116000,0,5.4776763e-05,5.060404e-05,1.9723467e-08,0.0,0.0,0.0
2124000,0,5.4776778e-05,5.060403e-05,1.9708695e-08,0.0,0.0,0.0
2136000,0,5.4776803e-05,5.060402e-05,1.968654e-08,0.0,0.0,0.0
2144000,0,5.4776818e-05,5.060401e-05,1.9671768e-08,0.0,0.0,0.0
2156000,0,5.477684e-05,5.0603998e-05,1.9649613e-08,0.0,0.0,0.0
2164000,0,5.4776854e-05,5.0603987e-05,1.9634841e-08,0.0,0.0,0.0
2176000,0,5.477688e-05,5.0603976e-05,1.9612687e-08,0.0,0.0,0.0
2184000,0,5.4776894e-05,5.0603965e-05,1.9597914e-08,0.0,0.0,0.0
2196000,0,5.477692e-05,5.0603954e-05,1.957576e-08,0.0,0.0,0.0
2204000,0,5.4776934e-05,5.0603947e-05,1.9560987e-08,0.0,0.0,0.0
2216000,0,5.4776956e-05,5.0603932e-05,1.9538833e-08,0.0,0.0,0.0
2224000,0,5.477697e-05,5.0603925e-05,1.952406e-08,0.0,0.0,0.0
2236000,0,5.4776996e-05,5.060391e-05,1.9501906e-08,0.0,0.0,0.0
2244000,0,5.477701e-05,5.0603903e-05,1.9487135e-08,0.0,0.0,0.0
2256000,0,5.4777032e-05,5.060389e-05,1.9464979e-08,0.0,0.0,0.0
2264000,0,5.4777047e-05,5.060388e-05,1.9450209e-08,0.0,0.0,0.0
2276000,0,5.4777072e-05,5.0603867e-05,1.9428052e-08,0.0,0.0,0.0
2284000,0,5.4777087e-05,5.060386e-05,1.9413282e-08,0.0,0.0,0.0
2296000,0,5.4777112e-05,5.0603845e-05,1.9391125e-08,0.0,0.0,0.0
2304000,0,5.4777127e-05,5.0603838e-05,1.9376355e-08,0.0,0.0,0.0
2316000,0,5.477715e-05,5.0603823e-05,1.9354198e-08,0.0,0.0,0.0
2324000,0,5.4777163e-05,5.0603816e-05,1.9339428e-08,0.0,0.0,0.0
2336000,0,5.477719e-05,5.0603805e-05,1.9317271e-08,0.0,0.0,0.0
2344000,0,5.4777203e-05,5.0603794e-05,1.9302501e-08,0.0,0.0,0.0
2356000,0,5.4777225e-05,5.0603783e-05,1.9280346e-08,0.0,0.0,0.0
2364000,0,5.477724e-05,5.0603772e-05,1.9265574e-08,0.0,0.0,0.0
2376000,0,5.4777265e-05,5.060376e-05,1.924342e-08,0.0,0.0,0.0
2384000,0,5.477728e-05,5.060375e-05,1.9228647e-08,0.0,0.0,0.0
2396000,0,5.4777305e-05,5.060374e-05,1.9206492e-08,0.0,0.0,0.0
2404000,0,5.477732e-05,5.060373e-05,1.919172e-08,0.0,0.0,0.0
2416000,0,5.477734e-05,5.0603718e-05,1.9169565e-08,0.0,0.0,0.0
2424000,0,5.4777356e-05,5.0603707e-05,1.9154795e-08,0.0,0.0,0.0
2436000,0,5.477738e-05,5.0603696e-05,1.9132639e-08,0.0,0.0,0.0
2444000,0,5.4777396e-05,5.0603685e-05,1.9117868e-08,0.0,0.0,0.0
2456000,0,5.4777418e-05,5.0603674e-05,1.9095712e-08,0.0,0.0,0.0
2464000,0,5.4777433e-05,5.0603663e-05,1.9080941e-08,0.0,0.0,0.0
2476000,0,5.4777458e-05,5.0603652e-05,1.9058785e-08,0.0,0.0,0.0
2484000,0,5.4777473e-05,5.0603645e-05,1.9044014e-08,0.0,0.0,0.0
2496000,0,5.4777498e-05,5.060363e-05,1.902186e-08,0.0,0.0,0.0
2504000,0,5.4777513e-05,5.0603623e-05,1.9007087e-08,0.0,0.0,0.0
2516000,0,5.4777534e-05,5.060361e-05,1.8984933e-08,0.0,0.0,0.0
2524000,0,5.477755e-05,5.06036e-05,1.8970162e-08,0.0,0.0,0.0
2536000,0,5.4777574e-05,5.0603587e-05,1.8948006e-08,0.0,0.0,0.0
2544000,0,5.477759e-05,5.060358e-05,1.8933235e-08,0.0,0.0,0.0
2556000,0,5.477761e-05,5.0603565e-05,1.8911079e-08,0.0,0.0,0.0
2564000,0,5.4777625e-05,5.0603558e-05,1.8896309e-08,0.0,0.0,0.0
2576000,0,5.477765e-05,5.0603543e-05,1.8874152e-08,0.0,0.0,0.0
2584000,0,5.4777665e-05,5.0603536e-05,1.8859382e-08,0.0,0.0,0.0
2596000,0,5.477769e-05,5.060352e-05,1.8837227e-08,0.0,0.0,0.0
2604000,0,5.4777705e-05,5.0603514e-05,1.8822455e-08,0.0,0.0,0.0
2616000,0,5.4777727e-05,5.0603503e-05,1.88003e-08,0.0,0.0,0.0
2624000,0,5.477774e-05,5.0603492e-05,1.878553e-08,0.0,0.0,0.0
2636000,0,5.4777767e-05,5.060348e-05,1.8763373e-08,0.0,0.0,0.0
2644000,0,5.477778e-05,5.060347e-05,1.8748603e-08,0.0,0.0,0.0
2656000,0,5.4777804e-05,5.060346e-05,1.8726446e-08,0.0,0.0,0.0
2664000,0,5.4777818e-05,5.060345e-05,1.8711676e-08,0.0,0.0,0.0
2676000,0,5.4777844e-05,5.0603438e-05,1.8689521e-08,0.0,0.0,0.0
2684000,0,5.4777858e-05,5.0603427e-05,1.8674749e-08,0.0,0.0,0.0
2696000,0,5.4777884e-05,5.0603416e-05,1.8652594e-08,0.0,0.0,0.0
2704000,0,5.47779e-05,5.0603405e-05,1.8637824e-08,0.0,0.0,0.0
2716000,0,5.477792e-05,5.0603394e-05,1.8615667e-08,0.0,0.0,0.0
2724000,0,5.4777935e-05,5.0603383e-05,1.8600897e-08,0.0,0.0,0.0
2736000,0,5.477796e-05,5.0603372e-05,1.857874e-08,0.0,0.0,0.0
2744000,0,5.4777975e-05,5.060336e-05,1.856397e-08,0.0,0.0,0.0
2756000,0,5.4777996e-05,5.060335e-05,1.8541815e-08,0.0,0.0,0.0
2764000,0,5.477801e-05,5.0603343e-05,1.8527045e-08,0.0,0.0,0.0
2776000,0,5.4778036e-05,5.060333e-05,1.8504888e-08,0.0,0.0,0.0
2784000,0,5.477805e-05,5.060332e-05,1.8490118e-08,0.0,0.0,0.0
2796000,0,5.4778076e-05,5.0603307e-05,1.8467961e-08,0.0,0.0,0.0
2804000,0,5.477809e-05,5.06033e-05,1.8453191e-08,0.0,0.0,0.0
2816000,0,5.4778113e-05,5.0603285e-05,1.8431036e-08,0.0,0.0,0.0
2824000,0,5.4778127e-05,5.0603277e-05,1.8416266e-08,0.0,0.0,0.0
2836000,0,5.4778153e-05,5.0603263e-05,1.839411e-08,0.0,0.0,0.0
2844000,0,5.4778167e-05,5.0603256e-05,1.8379339e-08,0.0,0.0,0.0
2856000,0,5.477819e-05,5.060324e-05,1.8357182e-08,0.0,0.0,0.0
2864000,0,5.4778204e-05,5.0603234e-05,1.8342412e-08,0.0,0.0,0.0
2876000,0,5.477823e-05,5.060322e-05,1.8320257e-08,0.0,0.0,0.0
2884000,0,5.4778244e-05,5.0603212e-05,1.8305487e-08,0.0,0.0,0.0
2896000,0,5.4778266e-05,5.0603197e-05,1.828333e-08,0.0,0.0,0.0
2904000,0,5.477828e-05,5.060319e-05,1.826856e-08,0.0,0.0,0.0
2916000,0,5.4778306e-05,5.060318e-05,1.8246403e-08,0.0,0.0,0.0
2924000,0,5.477832e-05,5.060317e-05,1.8231633e-08,0.0,0.0,0.0
2936000,0,5.4778346e-05,5.0603157e-05,1.8209478e-08,0.0,0.0,0.0
2944000,0,5.477836e-05,5.0603147e-05,1.8194708e-08,0.0,0.0,0.0
2956000,0,5.4778382e-05,5.0603136e-05,1.8172551e-08,0.0,0.0,0.0
2964000,0,5.4778397e-05,5.0603125e-05,1.8157781e-08,0.0,0.0,0.0
2976000,0,5.4778422e-05,5.0603114e-05,1.8135626e-08,0.0,0.0,0.0
2984000,0,5.4778437e-05,5.0603103e-05,1.8120854e-08,0.0,0.0,0.0
2996000,0,5.477846e-05,5.0603092e-05,1.80987e-08,0.0,0.0,0.0
3004000,0,5.4778473e-05,5.060308e-05,1.8083929e-08,0.0,0.0,0.0
3016000,0,5.47785e-05,5.060307e-05,1.8061773e-08,0.0,0.0,0.0
3024000,0,5.4778513e-05,5.060306e-05,1.8047002e-08,0.0,0.0,0.0
3036000,0,5.477854e-05,5.060305e-05,1.8024847e-08,0.0,0.0,0.0
3044000,0,5.4778553e-05,5.0603037e-05,1.8010077e-08,0.0,0.0,0.0
3056000,0,5.4778575e-05,5.0603026e-05,1.798792e-08,0.0,0.0,0.0
3064000,0,5.477859e-05,5.0603016e-05,1.797315e-08,0.0,0.0,0.0
3076000,0,5.4778615e-05,5.0603005e-05,1.7950995e-08,0.0,0.0,0.0
3084000,0,5.477863e-05,5.0602997e-05,1.7936225e-08,0.0,0.0,0.0
3096000,0,5.477865e-05,5.0602983e-05,1.7914068e-08,0.0,0.0,0.0
3104000,0,5.4778666e-05,5.0602976e-05,1.7899298e-08,0.0,0.0,0.0
3116000,0,5.477869e-05,5.060296e-05,1.7877143e-08,0.0,0.0,0.0
3124000,0,5.4778706e-05,5.0602954e-05,1.7862371e-08,0.0,0.0,0.0
3136000,0,5.4778728e-05,5.060294e-05,1.7840216e-08,0.0,0.0,0.0
3144000,0,5.4778742e-05,5.0602932e-05,1.7825446e-08,0.0,0.0,0.0
3156000,0,5.4778768e-05,5.0602917e-05,1.7803291e-08,0.0,0.0,0.0
3164000,0,5.4778782e-05,5.060291e-05,1.7788519e-08,0.0,0.0,0.0
3176000,0,5.4778808e-05,5.0602895e-05,1.7766364e-08,0.0,0.0,0.0
3184000,0,5.4778822e-05,5.060289e-05,1.7751594e-08,0.0,0.0,0.0
3196000,0,5.4778844e-05,5.0602874e-05,1.772944e-08,0.0,0.0,0.0
3204000,0,5.477886e-05,5.0602866e-05,1.7714667e-08,0.0,0.0,0.0
3216000,0,5.4778884e-05,5.0602852e-05,1.7692512e-08,0.0,0.0,0.0
3224000,0,5.47789e-05,5.0602845e-05,1.7677742e-08,0.0,0.0,0.0
3236000,0,5.477892e-05,5.0602834e-05,1.7655587e-08,0.0,0.0,0.0
3244000,0,5.4778935e-05,5.0602823e-05,1.7640815e-08,0.0,0.0,0.0
3256000,0,5.477896e-05,5.0602812e-05,1.761866e-08,0.0,0.0,0.0
3264000,0,5.4778975e-05,5.06028e-05,1.760389e-08,0.0,0.0,0.0
3276000,0,5.4778997e-05,5.060279e-05,1.7581735e-08,0.0,0.0,0.0
3284000,0,5.477901e-05,5.060278e-05,1.7566963e-08,0.0,0.0,0.0
3296000,0,5.4779037e-05,5.0602768e-05,1.7544808e-08,0.0,0.0,0.0
3304000,0,5.477905e-05,5.0602757e-05,1.7530038e-08,0.0,0.0,0.0
3316000,0,5.4779077e-05,5.0602746e-05,1.7507883e-08,0.0,0.0,0.0
3324000,0,5.477909e-05,5.0602735e-05,1.7493113e-08,0.0,0.0,0.0
3336000,0,5.4779113e-05,5.0602725e-05,1.7470956e-08,0.0,0.0,0.0
3344000,0,5.4779128e-05,5.0602714e-05,1.7456186e-08,0.0,0.0,0.0
3356000,0,5.4779153e-05,5.0602703e-05,1.7434031e-08,0.0,0.0,0.0
3364000,0,5.4779168e-05,5.060269e-05,1.741926e-08,0.0,0.0,0.0
3376000,0,5.477919e-05,5.060268e-05,1.7397104e-08,0.0,0.0,0.0
3384000,0,5.4779204e-05,5.060267e-05,1.7382334e-08,0.0,0.0,0.0
3396000,0,5.477923e-05,5.060266e-05,1.7360179e-08,0.0,0.0,0.0
3404000,0,5.4779244e-05,5.060265e-05,1.7345409e-08,0.0,0.0,0.0
3416000,0,5.4779266e-05,5.0602637e-05,1.7323254e-08,0.0,0.0,0.0
3424000,0,5.477928e-05,5.060263e-05,1.7308482e-08,0.0,0.0,0.0
3436000,0,5.4779306e-05,5.0602615e-05,1.7286327e-08,0.0,0.0,0.0
3444000,0,5.477932e-05,5.0602608e-05,1.7271557e-08,0.0,0.0,0.0
3456000,0,5.4779346e-05,5.0602594e-05,1.7249402e-08,0.0,0.0,0.0
3464000,0,5.477936e-05,5.0602586e-05,1.7234631e-08,0.0,0.0,0.0
3476000,0,5.4779382e-05,5.060257e-05,1.7212475e-08,0.0,0.0,0.0
3484000,0,5.4779397e-05,5.0602564e-05,1.7197705e-08,0.0,0.0,0.0
3496000,0,5.4779422e-05,5.060255e-05,1.717555e-08,0.0,0.0,0.0
3504000,0,5.4779437e-05,5.0602543e-05,1.716078e-08,0.0,0.0,0.0
3516000,0,5.477946e-05,5.0602528e-05,1.7138625e-08,0.0,0.0,0.0
3524000,0,5.4779473e-05,5.060252e-05,1.7123853e-08,0.0,0.0,0.0
3536000,0,5.47795e-05,5.0602506e-05,1.7101698e-08,0.0,0.0,0.0
3544000,0,5.4779513e-05,5.06025e-05,1.7086927e-08,0.0,0.0,0.0
3556000,0,5.4779535e-05,5.0602484e-05,1.7064773e-08,0.0,0.0,0.0
3564000,0,5.477955e-05,5.0602477e-05,1.7050002e-08,0.0,0.0,0.0
3576000,0,5.4779575e-05,5.0602463e-05,1.7027848e-08,0.0,0.0,0.0
3584000,0,5.477959e-05,5.0602455e-05,1.7013075e-08,0.0,0.0,0.0
3596000,0,5.4779615e-05,5.0602444e-05,1.699092e-08,0.0,0.0,0.0
3604000,0,5.4779626e-05,5.0602433e-05,1.697615e-08,0.0,0.0,0.0
3616000,0,5.477965e-05,5.0602423e-05,1.6953996e-08,0.0,0.0,0.0
3624000,0,5.4779666e-05,5.060241e-05,1.6939225e-08,0.0,0.0,0.0
3636000,0,5.477969e-05,5.06024e-05,1.691707e-08,0.0,0.0,0.0
3644000,0,5.4779706e-05,5.060239e-05,1.6902298e-08,0.0,0.0,0.0
3656000,0,5.4779728e-05,5.060238e-05,1.6880144e-08,0.0,0.0,0.0
3664000,0,5.4779743e-05,5.0602368e-05,1.6865373e-08,0.0,0.0,0.0
3676000,0,5.4779768e-05,5.0602357e-05,1.6843218e-08,0.0,0.0,0.0
3684000,0,5.4779783e-05,5.0602346e-05,1.6828448e-08,0.0,0.0,0.0
3696000,0,5.4779804e-05,5.0602335e-05,1.6806293e-08,0.0,0.0,0.0
3704000,0,5.477982e-05,5.0602324e-05,1.6791523e-08,0.0,0.0,0.0
3716000,0,5.4779845e-05,5.0602313e-05,1.6769366e-08,0.0,0.0,0.0
3724000,0,5.477986e-05,5.0602303e-05,1.6754596e-08,0.0,0.0,0.0
3736000,0,5.477988e-05,5.060229e-05,1.6732441e-08,0.0,0.0,0.0
3744000,0,5.4779895e-05,5.060228e-05,1.671767e-08,0.0,0.0,0.0
3756000,0,5.477992e-05,5.060227e-05,1.6695516e-08,0.0,0.0,0.0
3764000,0,5.4779935e-05,5.060226e-05,1.6680746e-08,0.0,0.0,0.0
3776000,0,5.477996e-05,5.0602248e-05,1.6658591e-08,0.0,0.0,0.0
3784000,0,5.4779972e-05,5.060224e-05,1.664382e-08,0.0,0.0,0.0
3796000,0,5.4779997e-05,5.0602226e-05,1.6621664e-08,0.0,0.0,0.0
3804000,0,5.4780012e-05,5.060222e-05,1.6606894e-08,0.0,0.0,0.0
3816000,0,5.4780037e-05,5.0602204e-05,1.6584739e-08,0.0,0.0,0.0
3824000,0,5.4780052e-05,5.0602197e-05,1.6569969e-08,0.0,0.0,0.0
3836000,0,5.4780074e-05,5.0602182e-05,1.6547814e-08,0.0,0.0,0.0
3844000,0,5.478009e-05,5.0602175e-05,1.6533043e-08,0.0,0.0,0.0
3856000,0,5.4780114e-05,5.060216e-05,1.6510889e-08,0.0,0.0,0.0
3864000,0,5.478013e-05,5.0602153e-05,1.6496118e-08,0.0,0.0,0.0
3876000,0,5.478015e-05,5.060214e-05,1.6473962e-08,0.0,0.0,0.0
3884000,0,5.4780165e-05,5.060213e-05,1.6459191e-08,0.0,0.0,0.0
3896000,0,5.478019e-05,5.0602117e-05,1.6437037e-08,0.0,0.0,0.0
3904000,0,5.4780205e-05,5.060211e-05,1.6422266e-08,0.0,0.0,0.0
3916000,0,5.4780226e-05,5.0602095e-05,1.6400111e-08,0.0,0.0,0.0
3924000,0,5.478024e-05,5.0602088e-05,1.6385341e-08,0.0,0.0,0.0
3936000,0,5.4780267e-05,5.0602073e-05,1.6363186e-08,0.0,0.0,0.0
3944000,0,5.478028e-05,5.0602066e-05,1.6348416e-08,0.0,0.0,0.0
3956000,0,5.4780307e-05,5.060205e-05,1.6326261e-08,0.0,0.0,0.0
3964000,0,5.4780317e-05,5.0602044e-05,1.631149e-08,0.0,0.0,0.0
3976000,0,5.4780343e-05,5.0602033e-05,1.6289334e-08,0.0,0.0,0.0
3984000,0,5.4780357e-05,5.0602022e-05,1.6274564e-08,0.0,0.0,0.0
3996000,0,5.4780383e-05,5.060201e-05,1.625241e-08,0.0,0.0,0.0
4004000,0,5.4780397e-05,5.0602e-05,1.6237639e-08,0.0,0.0,0.0
4016000,0,5.478042e-05,5.060199e-05,1.6215484e-08,0.0,0.0,0.0
4024000,0,5.4780434e-05,5.060198e-05,1.6200714e-08,0.0,0.0,0.0
4036000,0,5.478046e-05,5.0601968e-05,1.6178559e-08,0.0,0.0,0.0
4044000,0,5.4780474e-05,5.0601957e-05,1.6163789e-08,0.0,0.0,0.0
4056000,0,5.4780496e-05,5.0601946e-05,1.6141634e-08,0.0,0.0,0.0
4064000,0,5.478051e-05,5.0601935e-05,1.6126863e-08,0.0,0.0,0.0
4076000,0,5.4780536e-05,5.0601924e-05,1.6104709e-08,0.0,0.0,0.0
4084000,0,5.478055e-05,5.0601913e-05,1.6089938e-08,0.0,0.0,0.0
4096000,0,5.4780572e-05,5.0601902e-05,1.6067784e-08,0.0,0.0,0.0
4104000,0,5.4780587e-05,5.060189e-05,1.6053013e-08,0.0,0.0,0.0
4116000,0,5.4780612e-05,5.060188e-05,1.6030858e-08,0.0,0.0,0.0
4124000,0,5.4780627e-05,5.060187e-05,1.6016088e-08,0.0,0.0,0.0
4136000,0,5.478065e-05,5.060186e-05,1.5993932e-08,0.0,0.0,0.0
4144000,0,5.4780663e-05,5.0601848e-05,1.5979163e-08,0.0,0.0,0.0
4156000,0,5.478069e-05,5.0601837e-05,1.5957006e-08,0.0,0.0,0.0
4164000,0,5.4780703e-05,5.0601826e-05,1.5942236e-08,0.0,0.0,0.0
4176000,0,5.478073e-05,5.0601815e-05,1.5920081e-08,0.0,0.0,0.0
4184000,0,5.478074e-05,5.0601804e-05,1.590531e-08,0.0,0.0,0.0
4196000,0,5.4780765e-05,5.0601793e-05,1.5883156e-08,0.0,0.0,0.0
4204000,0,5.478078e-05,5.0601782e-05,1.5868386e-08,0.0,0.0,0.0
4216000,0,5.4780805e-05,5.060177e-05,1.5846231e-08,0.0,0.0,0.0
4224000,0,5.478082e-05,5.0601764e-05,1.583146e-08,0.0,0.0,0.0
4236000,0,5.478084e-05,5.060175e-05,1.5809306e-08,0.0,0.0,0.0
4244000,0,5.4780856e-05,5.0601742e-05,1.5794535e-08,0.0,0.0,0.0
4256000,0,5.478088e-05,5.0601728e-05,1.577238e-08,0.0,0.0,0.0
4264000,0,5.4780896e-05,5.060172e-05,1.575761e-08,0.0,0.0,0.0
4276000,0,5.4780918e-05,5.0601706e-05,1.5735456e-08,0.0,0.0,0.0
4284000,0,5.4780932e-05,5.06017e-05,1.5720685e-08,0.0,0.0,0.0
4296000,0,5.4780958e-05,5.0601684e-05,1.569853e-08,0.0,0.0,0.0
4304000,0,5.4780972e-05,5.0601677e-05,1.568376e-08,0.0,0.0,0.0
4316000,0,5.4780994e-05,5.0601662e-05,1.5661605e-08,0.0,0.0,0.0
4324000,0,5.478101e-05,5.0601655e-05,1.5646835e-08,0.0,0.0,0.0
4336000,0,5.4781034e-05,5.060164e-05,1.562468e-08,0.0,0.0,0.0
4344000,0,5.478105e-05,5.0601633e-05,1.560991e-08,0.0,0.0,0.0
4356000,0,5.478107e-05,5.060162e-05,1.5587755e-08,0.0,0.0,0.0
4364000,0,5.4781085e-05,5.060161e-05,1.5572985e-08,0.0,0.0,0.0
4376000,0,5.478111e-05,5.0601597e-05,1.555083e-08,0.0,0.0,0.0
4384000,0,5.4781125e-05,5.060159e-05,1.553606e-08,0.0,0.0,0.0
4396000,0,5.4781147e-05,5.0601575e-05,1.5513905e-08,0.0,0.0,0.0
4404000,0,5.478116e-05,5.0601568e-05,1.5499134e-08,0.0,0.0,0.0
4416000,0,5.4781187e-05,5.0601553e-05,1.547698e-08,0.0,0.0,0.0
4424000,0,5.47812e-05,5.0601546e-05,1.546221e-08,0.0,0.0,0.0
4436000,0,5.4781223e-05,5.060153e-05,1.5440055e-08,0.0,0.0,0.0
4444000,0,5.4781238e-05,5.0601524e-05,1.5425284e-08,0.0,0.0,0.0
4456000,0,5.4781263e-05,5.0601513e-05,1.540313e-08,0.0,0.0,0.0
4464000,0,5.4781278e-05,5.0601502e-05,1.5388359e-08,0.0,0.0,0.0
4476000,0,5.4781303e-05,5.060149e-05,1.5366204e-08,0.0,0.0,0.0
4484000,0,5.4781314e-05,5.060148e-05,1.5351434e-08,0.0,0.0,0.0
4496000,0,5.478134e-05,5.060147e-05,1.532928e-08,0.0,0.0,0.0
4504000,0,5.4781354e-05,5.060146e-05,1.5314509e-08,0.0,0.0,0.0
4516000,0,5.478138e-05,5.0601448e-05,1.5292354e-08,0.0,0.0,0.0
4524000,0,5.4781394e-05,5.0601437e-05,1.5277584e-08,0.0,0.0,0.0
4536000,0,5.4781416e-05,5.0601426e-05,1.5255429e-08,0.0,0.0,0.0
4544000,0,5.478143e-05,5.0601415e-05,1.524066e-08,0.0,0.0,0.0
4556000,0,5.4781456e-05,5.0601404e-05,1.5218506e-08,0.0,0.0,0.0
4564000,0,5.478147e-05,5.0601393e-05,1.5203735e-08,0.0,0.0,0.0
4576000,0,5.4781493e-05,5.0601382e-05,1.518158e-08,0.0,0.0,0.0
4584000,0,5.4781507e-05,5.060137e-05,1.516681e-08,0.0,0.0,0.0
4596000,0,5.4781533e-05,5.060136e-05,1.5144655e-08,0.0,0.0,0.0
4604000,0,5.4781547e-05,5.060135e-05,1.5129885e-08,0.0,0.0,0.0
4616000,0,5.478157e-05,5.060134e-05,1.510773e-08,0.0,0.0,0.0
4624000,0,5.4781583e-05,5.0601328e-05,1.509296e-08,0.0,0.0,0.0
4636000,0,5.478161e-05,5.0601317e-05,1.5070805e-08,0.0,0.0,0.0
4644000,0,5.4781623e-05,5.0601306e-05,1.5056035e-08,0.0,0.0,0.0
4656000,0,5.4781645e-05,5.0601295e-05,1.503388e-08,0.0,0.0,0.0
4664000,0,5.478166e-05,5.0601284e-05,1.501911e-08,0.0,0.0,0.0
4676000,0,5.4781685e-05,5.0601273e-05,1.4996955e-08,0.0,0.0,0.0
4684000,0,5.47817e-05,5.0601262e-05,1.4982184e-08,0.0,0.0,0.0
4696000,0,5.478172e-05,5.060125e-05,1.496003e-08,0.0,0.0,0.0
4704000,0,5.4781736e-05,5.060124e-05,1.4945261e-08,0.0,0.0,0.0
4716000,0,5.478176e-05,5.060123e-05,1.4923106e-08,0.0,0.0,0.0
4724000,0,5.4781776e-05,5.0601222e-05,1.4908336e-08,0.0,0.0,0.0
4736000,0,5.4781798e-05,5.0601207e-05,1.4886181e-08,0.0,0.0,0.0
4744000,0,5.4781813e-05,5.06012e-05,1.4871411e-08,0.0,0.0,0.0
4756000,0,5.4781838e-05,5.0601186e-05,1.4849256e-08,0.0,0.0,0.0
4764000,0,5.4781853e-05,5.060118e-05,1.4834486e-08,0.0,0.0,0.0
4776000,0,5.4781874e-05,5.0601164e-05,1.4812331e-08,0.0,0.0,0.0
4784000,0,5.478189e-05,5.0601157e-05,1.4797561e-08,0.0,0.0,0.0
4796000,0,5.4781915e-05,5.0601142e-05,1.4775407e-08,0.0,0.0,0.0
4804000,0,5.478193e-05,5.0601135e-05,1.4760636e-08,0.0,0.0,0.0
4816000,0,5.478195e-05,5.060112e-05,1.47384815e-08,0.0,0.0,0.0
4824000,0,5.4781965e-05,5.0601113e-05,1.4723711e-08,0.0,0.0,0.0
4836000,0,5.478199e-05,5.06011e-05,1.4701557e-08,0.0,0.0,0.0
4844000,0,5.4782005e-05,5.060109e-05,1.4686787e-08,0.0,0.0,0.0
4856000,0,5.4782027e-05,5.0601077e-05,1.4664632e-08,0.0,0.0,0.0
4864000,0,5.4782042e-05,5.060107e-05,1.4649862e-08,0.0,0.0,0.0
4876000,0,5.4782067e-05,5.0601055e-05,1.4627707e-08,0.0,0.0,0.0
4884000,0,5.4782082e-05,5.0601047e-05,1.46129375e-08,0.0,0.0,0.0
4896000,0,5.4782107e-05,5.0601033e-05,1.4590783e-08,0.0,0.0,0.0
4904000,0,5.478212e-05,5.0601026e-05,1.4576012e-08,0.0,0.0,0.0
4916000,0,5.4782144e-05,5.060101e-05,1.4553858e-08,0.0,0.0,0.0
4924000,0,5.478216e-05,5.0601004e-05,1.4539088e-08,0.0,0.0,0.0
4936000,0,5.4782184e-05,5.060099e-05,1.4516933e-08,0.0,0.0,0.0
4944000,0,5.4782195e-05,5.0600982e-05,1.4502163e-08,0.0,0.0,0.0
4956000,0,5.478222e-05,5.0600967e-05,1.4480009e-08,0.0,0.0,0.0
4964000,0,5.4782235e-05,5.060096e-05,1.4465239e-08,0.0,0.0,0.0
4976000,0,5.478226e-05,5.0600946e-05,1.4443084e-08,0.0,0.0,0.0
4984000,0,5.478227e-05,5.060094e-05,1.4428314e-08,0.0,0.0,0.0
4996000,0,5.4782297e-05,5.0600924e-05,1.440616e-08,0.0,0.0,0.0
5004000,0,5.478231e-05,5.0600916e-05,1.4391389e-08,0.0,0.0,0.0
5016000,0,5.4782337e-05,5.0600906e-05,1.4369235e-08,0.0,0.0,0.0
5024000,0,5.478235e-05,5.0600895e-05,1.4354465e-08,0.0,0.0,0.0
5036000,0,5.4782373e-05,5.0600884e-05,1.43323104e-08,0.0,0.0,0.0
5044000,0,5.4782387e-05,5.0600873e-05,1.431754e-08,0.0,0.0,0.0
5056000,0,5.4782413e-05,5.0600862e-05,1.4295385e-08,0.0,0.0,0.0
5064000,0,5.4782427e-05,5.060085e-05,1.4280616e-08,0.0,0.0,0.0
5076000,0,5.478245e-05,5.060084e-05,1.4258461e-08,0.0,0.0,0.0
5084000,0,5.4782464e-05,5.060083e-05,1.4243692e-08,0.0,0.0,0.0
5096000,0,5.478249e-05,5.060082e-05,1.4221537e-08,0.0,0.0,0.0
5104000,0,5.4782504e-05,5.0600807e-05,1.4206766e-08,0.0,0.0,0.0
5116000,0,5.4782526e-05,5.0600796e-05,1.4184612e-08,0.0,0.0,0.0
5124000,0,5.478254e-05,5.0600785e-05,1.4169842e-08,0.0,0.0,0.0
5136000,0,5.4782566e-05,5.0600775e-05,1.41476875e-08,0.0,0.0,0.0
5144000,0,5.478258e-05,5.0600764e-05,1.4132918e-08,0.0,0.0,0.0
5156000,0,5.4782602e-05,5.0600753e-05,1.4110763e-08,0.0,0.0,0.0
5164000,0,5.4782617e-05,5.060074e-05,1.4095993e-08,0.0,0.0,0.0
5176000,0,5.4782642e-05,5.060073e-05,1.4073839e-08,0.0,0.0,0.0
5184000,0,5.4782657e-05,5.060072e-05,1.4059069e-08,0.0,0.0,0.0
5196000,0,5.478268e-05,5.060071e-05,1.4036914e-08,0.0,0.0,0.0
5204000,0,5.4782693e-05,5.0600698e-05,1.4022144e-08,0.0,0.0,0.0
5216000,0,5.478272e-05,5.0600687e-05,1.399999e-08,0.0,0.0,0.0
5224000,0,5.4782733e-05,5.0600676e-05,1.398522e-08,0.0,0.0,0.0
5236000,0,5.4782755e-05,5.0600665e-05,1.3963065e-08,0.0,0.0,0.0
5244000,0,5.478277e-05,5.0600655e-05,1.3948295e-08,0.0,0.0,0.0
5256000,0,5.4782795e-05,5.0600644e-05,1.3926141e-08,0.0,0.0,0.0
5264000,0,5.478281e-05,5.0600633e-05,1.3911371e-08,0.0,0.0,0.0
5276000,0,5.478283e-05,5.060062e-05,1.3889217e-08,0.0,0.0,0.0
5284000,0,5.4782846e-05,5.060061e-05,1.38744465e-08,0.0,0.0,0.0
5296000,0,5.478287e-05,5.06006e-05,1.3852292e-08,0.0,0.0,0.0
5300000,0,5.478288e-05,5.0600596e-05,1.3844907e-08,0.0,0.0,0.0
5316000,0,5.4782908e-05,5.0600578e-05,1.38153675e-08,0.0,0.0,0.0
5324000,0,5.4782922e-05,5.0600567e-05,1.3800598e-08,0.0,0.0,0.0
5336000,0,5.4782948e-05,5.0600556e-05,1.3778443e-08,0.0,0.0,0.0
5344000,0,5.4782962e-05,5.0600545e-05,1.3763674e-08,0.0,0.0,0.0
5356000,0,5.4782984e-05,5.0600534e-05,1.3741519e-08,0.0,0.0,0.0
5364000,0,5.4783e-05,5.0600524e-05,1.37267495e-08,0.0,0.0,0.0
5376000,0,5.4783024e-05,5.0600513e-05,1.3704595e-08,0.0,0.0,0.0
5384000,0,5.478304e-05,5.06005e-05,1.3689825e-08,0.0,0.0,0.0
5396000,0,5.478306e-05,5.060049e-05,1.36676706e-08,0.0,0.0,0.0
5404000,0,5.4783075e-05,5.0600484e-05,1.36529e-08,0.0,0.0,0.0
5416000,0,5.47831e-05,5.060047e-05,1.3630746e-08,0.0,0.0,0.0
5424000,0,5.4783115e-05,5.060046e-05,1.3615976e-08,0.0,0.0,0.0
5436000,0,5.4783137e-05,5.0600447e-05,1.3593822e-08,0.0,0.0,0.0
5444000,0,5.478315e-05,5.060044e-05,1.3579052e-08,0.0,0.0,0.0
5456000,0,5.4783177e-05,5.0600425e-05,1.3556898e-08,0.0,0.0,0.0
5464000,0,5.478319e-05,5.0600418e-05,1.3542127e-08,0.0,0.0,0.0
5476000,0,5.4783213e-05,5.0600403e-05,1.3519974e-08,0.0,0.0,0.0
5484000,0,5.4783228e-05,5.0600396e-05,1.3505203e-08,0.0,0.0,0.0
5496000,0,5.4783253e-05,5.060038e-05,1.3483049e-08,0.0,0.0,0.0
5504000,0,5.4783268e-05,5.0600374e-05,1.3468279e-08,0.0,0.0,0.0
5516000,0,5.478329e-05,5.060036e-05,1.3446125e-08,0.0,0.0,0.0
5524000,0,5.4783304e-05,5.0600353e-05,1.3431356e-08,0.0,0.0,0.0
5536000,0,5.478333e-05,5.0600338e-05,1.3409201e-08,0.0,0.0,0.0
5544000,0,5.4783344e-05,5.060033e-05,1.3394431e-08,0.0,0.0,0.0
5556000,0,5.4783366e-05,5.0600316e-05,1.3372277e-08,0.0,0.0,0.0
5564000,0,5.478338e-05,5.060031e-05,1.3357507e-08,0.0,0.0,0.0
5576000,0,5.4783406e-05,5.0600294e-05,1.3335352e-08,0.0,0.0,0.0
5584000,0,5.478342e-05,5.0600287e-05,1.3320583e-08,0.0,0.0,0.0
5596000,0,5.4783442e-05,5.0600273e-05,1.3298428e-08,0.0,0.0,0.0
5604000,0,5.4783457e-05,5.0600265e-05,1.3283659e-08,0.0,0.0,0.0
5616000,0,5.4783482e-05,5.060025e-05,1.3261505e-08,0.0,0.0,0.0
5624000,0,5.4783497e-05,5.0600243e-05,1.3246734e-08,0.0,0.0,0.0
5636000,0,5.478352e-05,5.060023e-05,1.32245805e-08,0.0,0.0,0.0
5644000,0,5.4783533e-05,5.060022e-05,1.320981e-08,0.0,0.0,0.0
5656000,0,5.478356e-05,5.0600207e-05,1.3187656e-08,0.0,0.0,0.0
5664000,0,5.4783573e-05,5.06002e-05,1.3172886e-08,0.0,0.0,0.0
5676000,0,5.4783595e-05,5.0600185e-05,1.3150732e-08,0.0,0.0,0.0
5684000,0,5.478361e-05,5.0600178e-05,1.31359625e-08,0.0,0.0,0.0
5696000,0,5.4783635e-05,5.0600163e-05,1.3113808e-08,0.0,0.0,0.0
5704000,0,5.478365e-05,5.0600156e-05,1.3099038e-08,0.0,0.0,0.0
5716000,0,5.478367e-05,5.060014e-05,1.3076884e-08,0.0,0.0,0.0
5724000,0,5.4783686e-05,5.0600134e-05,1.3062114e-08,0.0,0.0,0.0
5736000,0,5.478371e-05,5.060012e-05,1.303996e-08,0.0,0.0,0.0
5744000,0,5.4783723e-05,5.0600112e-05,1.302519e-08,0.0,0.0,0.0
5756000,0,5.4783748e-05,5.0600098e-05,1.3003036e-08,0.0,0.0,0.0
5764000,0,5.4783763e-05,5.060009e-05,1.29882665e-08,0.0,0.0,0.0
5776000,0,5.4783788e-05,5.0600076e-05,1.2966112e-08,0.0,0.0,0.0
5784000,0,5.47838e-05,5.060007e-05,1.2951342e-08,0.0,0.0,0.0
5796000,0,5.4783824e-05,5.0600054e-05,1.2929188e-08,0.0,0.0,0.0
5804000,0,5.478384e-05,5.0600047e-05,1.2914418e-08,0.0,0.0,0.0
5816000,0,5.4783864e-05,5.0600032e-05,1.2892264e-08,0.0,0.0,0.0
5824000,0,5.4783875e-05,5.0600025e-05,1.2877495e-08,0.0,0.0,0.0
5836000,0,5.47839e-05,5.060001e-05,1.285534e-08,0.0,0.0,0.0
5844000,0,5.4783915e-05,5.0600003e-05,1.284057e-08,0.0,0.0,0.0
5856000,0,5.4783937e-05,5.059999e-05,1.28184166e-08,0.0,0.0,0.0
5864000,0,5.478395e-05,5.059998e-05,1.2803646e-08,0.0,0.0,0.0
5876000,0,5.4783977e-05,5.0599967e-05,1.2781492e-08,0.0,0.0,0.0
5884000,0,5.478399e-05,5.059996e-05,1.2766723e-08,0.0,0.0,0.0
5896000,0,5.4784014e-05,5.059995e-05,1.2744568e-08,0.0,0.0,0.0
5904000,0,5.4784028e-05,5.0599938e-05,1.27297985e-08,0.0,0.0,0.0
5916000,0,5.4784054e-05,5.0599927e-05,1.2707645e-08,0.0,0.0,0.0
5924000,0,5.478407e-05,5.0599916e-05,1.2692874e-08,0.0,0.0,0.0
5936000,0,5.478409e-05,5.0599905e-05,1.26707205e-08,0.0,0.0,0.0
5944000,0,5.4784105e-05,5.0599894e-05,1.2655951e-08,0.0,0.0,0.0
5956000,0,5.478413e-05,5.0599883e-05,1.2633797e-08,0.0,0.0,0.0
5964000,0,5.4784145e-05,5.0599872e-05,1.2619027e-08,0.0,0.0,0.0
5976000,0,5.4784166e-05,5.059986e-05,1.2596873e-08,0.0,0.0,0.0
5984000,0,5.478418e-05,5.059985e-05,1.2582103e-08,0.0,0.0,0.0
5996000,0,5.4784206e-05,5.059984e-05,1.25599495e-08,0.0,0.0,0.0
6004000,0,5.478422e-05,5.059983e-05,1.2545179e-08,0.0,0.0,0.0
6016000,0,5.4784243e-05,5.0599818e-05,1.2523025e-08,0.0,0.0,0.0
6024000,0,5.4784257e-05,5.0599807e-05,1.2508256e-08,0.0,0.0,0.0
6036000,0,5.4784283e-05,5.0599796e-05,1.2486102e-08,0.0,0.0,0.0
6044000,0,5.4784297e-05,5.0599785e-05,1.24713315e-08,0.0,0.0,0.0
6056000,0,5.478432e-05,5.0599774e-05,1.2449178e-08,0.0,0.0,0.0
6064000,0,5.4784334e-05,5.0599763e-05,1.2434408e-08,0.0,0.0,0.0
6076000,0,5.478436e-05,5.0599752e-05,1.2412254e-08,0.0,0.0,0.0
6084000,0,5.4784374e-05,5.059974e-05,1.2397484e-08,0.0,0.0,0.0
6096000,0,5.4784396e-05,5.059973e-05,1.237533e-08,0.0,0.0,0.0
6104000,0,5.478441e-05,5.059972e-05,1.2360561e-08,0.0,0.0,0.0
6116000,0,5.4784436e-05,5.059971e-05,1.2338407e-08,0.0,0.0,0.0
6124000,0,5.478445e-05,5.0599698e-05,1.2323637e-08,0.0,0.0,0.0
6136000,0,5.4784472e-05,5.0599687e-05,1.23014825e-08,0.0,0.0,0.0
6144000,0,5.4784487e-05,5.0599676e-05,1.2286713e-08,0.0,0.0,0.0
6156000,0,5.4784512e-05,5.0599665e-05,1.2264559e-08,0.0,0.0,0.0
6164000,0,5.4784527e-05,5.0599654e-05,1.224979e-08,0.0,0.0,0.0
6176000,0,5.478455e-05,5.0599643e-05,1.2227636e-08,0.0,0.0,0.0
6184000,0,5.4784563e-05,5.0599632e-05,1.2212866e-08,0.0,0.0,0.0
6196000,0,5.478459e-05,5.059962e-05,1.21907116e-08,0.0,0.0,0.0
6204000,0,5.47846e-05,5.059961e-05,1.2175942e-08,0.0,0.0,0.0
6216000,0,5.4784625e-05,5.05996e-05,1.2153788e-08,0.0,0.0,0.0
6224000,0,5.478464e-05,5.059959e-05,1.2139019e-08,0.0,0.0,0.0
6236000,0,5.4784665e-05,5.0599578e-05,1.2116865e-08,0.0,0.0,0.0
6244000,0,5.4784676e-05,5.0599567e-05,1.2102095e-08,0.0,0.0,0.0
6256000,0,5.47847e-05,5.0599556e-05,1.20799415e-08,0.0,0.0,0.0
6264000,0,5.4784716e-05,5.0599545e-05,1.2065171e-08,0.0,0.0,0.0
6276000,0,5.4784738e-05,5.0599534e-05,1.2043017e-08,0.0,0.0,0.0
6284000,0,5.4784752e-05,5.0599523e-05,1.2028248e-08,0.0,0.0,0.0
6296000,0,5.4784778e-05,5.0599512e-05,1.2006094e-08,0.0,0.0,0.0
6304000,0,5.4784792e-05,5.05995e-05,1.1991324e-08,0.0,0.0,0.0
6316000,0,5.4784814e-05,5.059949e-05,1.19691705e-08,0.0,0.0,0.0
6324000,0,5.478483e-05,5.059948e-05,1.1954401e-08,0.0,0.0,0.0
6336000,0,5.4784854e-05,5.059947e-05,1.1932247e-08,0.0,0.0,0.0
6344000,0,5.478487e-05,5.0599458e-05,1.1917477e-08,0.0,0.0,0.0
6356000,0,5.478489e-05,5.0599447e-05,1.1895323e-08,0.0,0.0,0.0
6364000,0,5.4784905e-05,5.0599436e-05,1.1880553e-08,0.0,0.0,0.0
6376000,0,5.478493e-05,5.0599425e-05,1.18584e-08,0.0,0.0,0.0
6384000,0,5.4784945e-05,5.0599414e-05,1.184363e-08,0.0,0.0,0.0
6396000,0,5.4784967e-05,5.0599403e-05,1.1821476e-08,0.0,0.0,0.0
6404000,0,5.478498e-05,5.0599392e-05,1.1806707e-08,0.0,0.0,0.0
6416000,0,5.4785007e-05,5.059938e-05,1.1784553e-08,0.0,0.0,0.0
6424000,0,5.478502e-05,5.059937e-05,1.1769783e-08,0.0,0.0,0.0
6436000,0,5.4785043e-05,5.059936e-05,1.17476295e-08,0.0,0.0,0.0
6444000,0,5.4785058e-05,5.059935e-05,1.173286e-08,0.0,0.0,0.0
6456000,0,5.4785083e-05,5.0599338e-05,1.1710706e-08,0.0,0.0,0.0
6464000,0,5.4785098e-05,5.0599327e-05,1.1695937e-08,0.0,0.0,0.0
6476000,0,5.478512e-05,5.0599316e-05,1.1673783e-08,0.0,0.0,0.0
6484000,0,5.4785134e-05,5.0599305e-05,1.1659013e-08,0.0,0.0,0.0
6496000,0,5.478516e-05,5.0599294e-05,1.16368595e-08,0.0,0.0,0.0
6504000,0,5.478517e-05,5.0599283e-05,1.162209e-08,0.0,0.0,0.0
6516000,0,5.4785196e-05,5.0599272e-05,1.1599936e-08,0.0,0.0,0.0
6524000,0,5.478521e-05,5.059926e-05,1.1585167e-08,0.0,0.0,0.0
6536000,0,5.4785232e-05,5.059925e-05,1.1563013e-08,0.0,0.0,0.0
6544000,0,5.4785247e-05,5.059924e-05,1.1548242e-08,0.0,0.0,0.0
6556000,0,5.4785272e-05,5.059923e-05,1.1526089e-08,0.0,0.0,0.0
6564000,0,5.4785287e-05,5.0599218e-05,1.1511319e-08,0.0,0.0,0.0
6576000,0,5.478531e-05,5.0599207e-05,1.1489166e-08,0.0,0.0,0.0
6584000,0,5.4785323e-05,5.0599196e-05,1.14743965e-08,0.0,0.0,0.0
6596000,0,5.478535e-05,5.0599185e-05,1.1452243e-08,0.0,0.0,0.0
6604000,0,5.4785363e-05,5.0599174e-05,1.1437473e-08,0.0,0.0,0.0
6616000,0,5.4785385e-05,5.0599163e-05,1.1415319e-08,0.0,0.0,0.0
6624000,0,5.47854e-05,5.0599152e-05,1.140055e-08,0.0,0.0,0.0
6636000,0,5.4785425e-05,5.059914e-05,1.1378396e-08,0.0,0.0,0.0
6644000,0,5.478544e-05,5.059913e-05,1.13636265e-08,0.0,0.0,0.0
6656000,0,5.478546e-05,5.059912e-05,1.1341473e-08,0.0,0.0,0.0
6664000,0,5.4785476e-05,5.059911e-05,1.1326703e-08,0.0,0.0,0.0
6676000,0,5.47855e-05,5.0599097e-05,1.1304549e-08,0.0,0.0,0.0
6684000,0,5.4785516e-05,5.0599087e-05,1.128978e-08,0.0,0.0,0.0
6696000,0,5.4785538e-05,5.0599076e-05,1.1267626e-08,0.0,0.0,0.0
6704000,0,5.4785552e-05,5.0599065e-05,1.1252856e-08,0.0,0.0,0.0
6716000,0,5.4785578e-05,5.0599054e-05,1.1230703e-08,0.0,0.0,0.0
6724000,0,5.478559e-05,5.0599043e-05,1.1215933e-08,0.0,0.0,0.0
6736000,0,5.4785614e-05,5.0599032e-05,1.1193779e-08,0.0,0.0,0.0
6744000,0,5.478563e-05,5.059902e-05,1.117901e-08,0.0,0.0,0.0
6756000,0,5.4785654e-05,5.059901e-05,1.1156856e-08,0.0,0.0,0.0
6764000,0,5.4785665e-05,5.0599e-05,1.1142087e-08,0.0,0.0,0.0
6776000,0,5.478569e-05,5.059899e-05,1.1119933e-08,0.0,0.0,0.0
6784000,0,5.4785705e-05,5.0598977e-05,1.1105164e-08,0.0,0.0,0.0
6796000,0,5.4785727e-05,5.0598966e-05,1.108301e-08,0.0,0.0,0.0
6804000,0,5.478574e-05,5.0598956e-05,1.10682405e-08,0.0,0.0,0.0
6816000,0,5.4785767e-05,5.0598945e-05,1.1046087e-08,0.0,0.0,0.0
6824000,0,5.478578e-05,5.0598934e-05,1.1031317e-08,0.0,0.0,0.0
6836000,0,5.4785804e-05,5.0598923e-05,1.1009163e-08,0.0,0.0,0.0
6844000,0,5.4785818e-05,5.0598912e-05,1.0994394e-08,0.0,0.0,0.0
6856000,0,5.4785844e-05,5.05989e-05,1.0972241e-08,0.0,0.0,0.0
6864000,0,5.4785858e-05,5.059889e-05,1.0957471e-08,0.0,0.0,0.0
6876000,0,5.478588e-05,5.059888e-05,1.09353175e-08,0.0,0.0,0.0
6884000,0,5.4785894e-05,5.059887e-05,1.0920548e-08,0.0,0.0,0.0
6896000,0,5.478592e-05,5.0598857e-05,1.0898394e-08,0.0,0.0,0.0
6904000,0,5.4785934e-05,5.0598846e-05,1.0883625e-08,0.0,0.0,0.0
6916000,0,5.4785956e-05,5.0598836e-05,1.0861472e-08,0.0,0.0,0.0
6924000,0,5.478597e-05,5.0598825e-05,1.0846702e-08,0.0,0.0,0.0
6936000,0,5.4785996e-05,5.0598814e-05,1.0824548e-08,0.0,0.0,0.0
6944000,0,5.4786007e-05,5.0598803e-05,1.0809779e-08,0.0,0.0,0.0
6956000,0,5.4786033e-05,5.0598792e-05,1.0787625e-08,0.0,0.0,0.0
6964000,0,5.4786047e-05,5.059878e-05,1.07728555e-08,0.0,0.0,0.0
6976000,0,5.478607e-05,5.059877e-05,1.07507026e-08,0.0,0.0,0.0
6984000,0,5.4786084e-05,5.059876e-05,1.0735933e-08,0.0,0.0,0.0
6996000,0,5.478611e-05,5.059875e-05,1.0713779e-08,0.0,0.0,0.0
7004000,0,5.4786124e-05,5.0598737e-05,1.069901e-08,0.0,0.0,0.0
7016000,0,5.4786145e-05,5.0598726e-05,1.0676857e-08,0.0,0.0,0.0
7024000,0,5.478616e-05,5.0598715e-05,1.0662087e-08,0.0,0.0,0.0
7036000,0,5.4786186e-05,5.0598705e-05,1.0639933e-08,0.0,0.0,0.0
7044000,0,5.47862e-05,5.0598694e-05,1.0625164e-08,0.0,0.0,0.0
7056000,0,5.4786222e-05,5.0598683e-05,1.060301e-08,0.0,0.0,0.0
7064000,0,5.4786236e-05,5.059867e-05,1.0588241e-08,0.0,0.0,0.0
7076000,0,5.4786262e-05,5.059866e-05,1.0566088e-08,0.0,0.0,0.0
7084000,0,5.4786276e-05,5.059865e-05,1.0551318e-08,0.0,0.0,0.0
7096000,0,5.47863e-05,5.059864e-05,1.0529164e-08,0.0,0.0,0.0
7104000,0,5.4786313e-05,5.0598628e-05,1.0514396e-08,0.0,0.0,0.0
7116000,0,5.478634e-05,5.0598617e-05,1.0492242e-08,0.0,0.0,0.0
7124000,0,5.478635e-05,5.0598606e-05,1.0477472e-08,0.0,0.0,0.0
7136000,0,5.4786375e-05,5.0598595e-05,1.0455318e-08,0.0,0.0,0.0
7144000,0,5.478639e-05,5.0598584e-05,1.044055e-08,0.0,0.0,0.0
7156000,0,5.478641e-05,5.0598574e-05,1.0418396e-08,0.0,0.0,0.0
7164000,0,5.4786426e-05,5.0598563e-05,1.0403626e-08,0.0,0.0,0.0
7176000,0,5.478645e-05,5.059855e-05,1.03814735e-08,0.0,0.0,0.0
7184000,0,5.4786466e-05,5.059854e-05,1.0366704e-08,0.0,0.0,0.0
7196000,0,5.4786487e-05,5.059853e-05,1.034455e-08,0.0,0.0,0.0
7204000,0,5.4786502e-05,5.059852e-05,1.0329781e-08,0.0,0.0,0.0
7216000,0,5.4786527e-05,5.0598508e-05,1.0307628e-08,0.0,0.0,0.0
7224000,0,5.4786542e-05,5.0598497e-05,1.0292858e-08,0.0,0.0,0.0
7236000,0,5.4786564e-05,5.0598486e-05,1.0270704e-08,0.0,0.0,0.0
7244000,0,5.478658e-05,5.0598475e-05,1.0255936e-08,0.0,0.0,0.0
7256000,0,5.4786604e-05,5.0598464e-05,1.0233782e-08,0.0,0.0,0.0
7264000,0,5.4786615e-05,5.0598454e-05,1.0219012e-08,0.0,0.0,0.0
7276000,0,5.478664e-05,5.0598443e-05,1.0196859e-08,0.0,0.0,0.0
7284000,0,5.4786655e-05,5.059843e-05,1.018209e-08,0.0,0.0,0.0
7296000,0,5.4786677e-05,5.059842e-05,1.0159936e-08,0.0,0.0,0.0
7304000,0,5.478669e-05,5.059841e-05,1.0145167e-08,0.0,0.0,0.0
7316000,0,5.4786717e-05,5.05984e-05,1.01230135e-08,0.0,0.0,0.0
7324000,0,5.478673e-05,5.0598388e-05,1.0108244e-08,0.0,0.0,0.0
7336000,0,5.4786753e-05,5.0598377e-05,1.0086091e-08,0.0,0.0,0.0
7344000,0,5.4786768e-05,5.0598366e-05,1.00713216e-08,0.0,0.0,0.0
7356000,0,5.4786793e-05,5.0598355e-05,1.0049168e-08,0.0,0.0,0.0
7364000,0,5.4786808e-05,5.0598344e-05,1.0034399e-08,0.0,0.0,0.0
7376000,0,5.478683e-05,5.0598333e-05,1.0012245e-08,0.0,0.0,0.0
7384000,0,5.4786844e-05,5.0598323e-05,9.997477e-09,0.0,0.0,0.0
7396000,0,5.478687e-05,5.059831e-05,9.975323e-09,0.0,0.0,0.0
7404000,0,5.478688e-05,5.05983e-05,9.960553e-09,0.0,0.0,0.0
7416000,0,5.4786906e-05,5.059829e-05,9.9384e-09,0.0,0.0,0.0
7424000,0,5.478692e-05,5.059828e-05,9.923631e-09,0.0,0.0,0.0
7436000,0,5.4786942e-05,5.0598268e-05,9.901478e-09,0.0,0.0,0.0
7444000,0,5.4786957e-05,5.0598257e-05,9.886708e-09,0.0,0.0,0.0
7456000,0,5.4786982e-05,5.0598246e-05,9.8645545e-09,0.0,0.0,0.0
7464000,0,5.4786997e-05,5.0598235e-05,9.849786e-09,0.0,0.0,0.0
7476000,0,5.478702e-05,5.0598224e-05,9.827632e-09,0.0,0.0,0.0
7484000,0,5.4787033e-05,5.0598213e-05,9.812863e-09,0.0,0.0,0.0
7496000,0,5.478706e-05,5.0598203e-05,9.79071e-09,0.0,0.0,0.0
7504000,0,5.4787073e-05,5.059819e-05,9.77594e-09,0.0,0.0,0.0
7516000,0,5.4787095e-05,5.059818e-05,9.753787e-09,0.0,0.0,0.0
7524000,0,5.478711e-05,5.059817e-05,9.739018e-09,0.0,0.0,0.0
7536000,0,5.4787135e-05,5.059816e-05,9.716865e-09,0.0,0.0,0.0
7544000,0,5.4787146e-05,5.0598148e-05,9.702095e-09,0.0,0.0,0.0
7556000,0,5.478717e-05,5.0598137e-05,9.679942e-09,0.0,0.0,0.0
7564000,0,5.4787186e-05,5.0598126e-05,9.665173e-09,0.0,0.0,0.0
7576000,0,5.4787208e-05,5.0598115e-05,9.64302e-09,0.0,0.0,0.0
7584000,0,5.4787222e-05,5.0598104e-05,9.62825e-09,0.0,0.0,0.0
7596000,0,5.4787248e-05,5.0598093e-05,9.606097e-09,0.0,0.0,0.0
7604000,0,5.4787262e-05,5.0598082e-05,9.591328e-09,0.0,0.0,0.0
7616000,0,5.4787284e-05,5.059807e-05,9.569175e-09,0.0,0.0,0.0
7624000,0,5.47873e-05,5.059806e-05,9.554405e-09,0.0,0.0,0.0
7636000,0,5.4787324e-05,5.059805e-05,9.532252e-09,0.0,0.0,0.0
7644000,0,5.478734e-05,5.059804e-05,9.517483e-09,0.0,0.0,0.0
7656000,0,5.478736e-05,5.0598028e-05,9.49533e-09,0.0,0.0,0.0
7664000,0,5.4787375e-05,5.0598017e-05,9.48056e-09,0.0,0.0,0.0
7676000,0,5.47874e-05,5.0598006e-05,9.458407e-09,0.0,0.0,0.0
7684000,0,5.478741e-05,5.0597995e-05,9.443638e-09,0.0,0.0,0.0
7696000,0,5.4787437e-05,5.0597984e-05,9.421485e-09,0.0,0.0,0.0
7704000,0,5.478745e-05,5.0597973e-05,9.406715e-09,0.0,0.0,0.0
7716000,0,5.4787473e-05,5.0597962e-05,9.3845625e-09,0.0,0.0,0.0
7724000,0,5.4787488e-05,5.059795e-05,9.369793e-09,0.0,0.0,0.0
7736000,0,5.4787513e-05,5.059794e-05,9.34764e-09,0.0,0.0,0.0
7744000,0,5.4787528e-05,5.059793e-05,9.3328705e-09,0.0,0.0,0.0
7756000,0,5.478755e-05,5.059792e-05,9.3107175e-09,0.0,0.0,0.0
7764000,0,5.4787564e-05,5.0597908e-05,9.295949e-09,0.0,0.0,0.0
7776000,0,5.478759e-05,5.0597897e-05,9.273795e-09,0.0,0.0,0.0
7784000,0,5.4787604e-05,5.0597886e-05,9.259026e-09,0.0,0.0,0.0
7796000,0,5.4787626e-05,5.0597875e-05,9.236873e-09,0.0,0.0,0.0
7804000,0,5.478764e-05,5.0597864e-05,9.222104e-09,0.0,0.0,0.0
7816000,0,5.4787663e-05,5.059785e-05,9.199951e-09,0.0,0.0,0.0
7824000,0,5.4787677e-05,5.0597842e-05,9.1851815e-09,0.0,0.0,0.0
7836000,0,5.4787703e-05,5.0597828e-05,9.163029e-09,0.0,0.0,0.0
7844000,0,5.4787717e-05,5.059782e-05,9.148259e-09,0.0,0.0,0.0
7856000,0,5.478774e-05,5.0597806e-05,9.126106e-09,0.0,0.0,0.0
7864000,0,5.4787753e-05,5.05978e-05,9.111337e-09,0.0,0.0,0.0
7876000,0,5.478778e-05,5.0597784e-05,9.089184e-09,0.0,0.0,0.0
7884000,0,5.4787793e-05,5.0597777e-05,9.074415e-09,0.0,0.0,0.0
7896000,0,5.4787815e-05,5.0597762e-05,9.052261e-09,0.0,0.0,0.0
7900000,0,5.4787826e-05,5.059776e-05,9.044877e-09,0.0,0.0,0.0
7916000,0,5.4787855e-05,5.059774e-05,9.01534e-09,0.0,0.0,0.0
7924000,0,5.4787866e-05,5.0597733e-05,9.00057e-09,0.0,0.0,0.0
7936000,0,5.478789e-05,5.059772e-05,8.978417e-09,0.0,0.0,0.0
7944000,0,5.4787906e-05,5.059771e-05,8.963648e-09,0.0,0.0,0.0
7956000,0,5.4787928e-05,5.0597697e-05,8.941495e-09,0.0,0.0,0.0
7964000,0,5.4787943e-05,5.059769e-05,8.926726e-09,0.0,0.0,0.0
7976000,0,5.4787968e-05,5.0597675e-05,8.904572e-09,0.0,0.0,0.0
7984000,0,5.4787983e-05,5.0597668e-05,8.889804e-09,0.0,0.0,0.0
7996000,0,5.4788004e-05,5.0597653e-05,8.867651e-09,0.0,0.0,0.0
8004000,0,5.478802e-05,5.0597646e-05,8.852881e-09,0.0,0.0,0.0
8016000,0,5.4788045e-05,5.059763e-05,8.830728e-09,0.0,0.0,0.0
8024000,0,5.4788055e-05,5.0597624e-05,8.8159595e-09,0.0,0.0,0.0
8036000,0,5.478808e-05,5.059761e-05,8.793807e-09,0.0,0.0,0.0
8044000,0,5.4788095e-05,5.0597602e-05,8.779037e-09,0.0,0.0,0.0
8056000,0,5.4788117e-05,5.0597588e-05,8.756884e-09,0.0,0.0,0.0
8064000,0,5.4788132e-05,5.059758e-05,8.742115e-09,0.0,0.0,0.0
8076000,0,5.4788157e-05,5.0597566e-05,8.719962e-09,0.0,0.0,0.0
8084000,0,5.4788172e-05,5.059756e-05,8.705193e-09,0.0,0.0,0.0
8096000,0,5.4788194e-05,5.0597544e-05,8.68304e-09,0.0,0.0,0.0
8104000,0,5.478821e-05,5.0597537e-05,8.6682705e-09,0.0,0.0,0.0
8116000,0,5.4788234e-05,5.0597522e-05,8.646118e-09,0.0,0.0,0.0
8124000,0,5.4788245e-05,5.0597515e-05,8.631349e-09,0.0,0.0,0.0
8136000,0,5.478827e-05,5.05975e-05,8.609196e-09,0.0,0.0,0.0
8144000,0,5.4788285e-05,5.0597493e-05,8.5944265e-09,0.0,0.0,0.0
8156000,0,5.4788306e-05,5.059748e-05,8.572274e-09,0.0,0.0,0.0
8164000,0,5.478832e-05,5.059747e-05,8.557505e-09,0.0,0.0,0.0
8176000,0,5.4788346e-05,5.0597457e-05,8.535352e-09,0.0,0.0,0.0
8184000,0,5.478836e-05,5.059745e-05,8.5205825e-09,0.0,0.0,0.0
8196000,0,5.4788383e-05,5.0597435e-05,8.4984295e-09,0.0,0.0,0.0
8204000,0,5.4788397e-05,5.0597428e-05,8.483661e-09,0.0,0.0,0.0
8216000,0,5.4788423e-05,5.0597413e-05,8.461508e-09,0.0,0.0,0.0
8224000,0,5.4788434e-05,5.0597406e-05,8.446738e-09,0.0,0.0,0.0
8236000,0,5.478846e-05,5.059739e-05,8.4245855e-09,0.0,0.0,0.0
8244000,0,5.4788474e-05,5.0597384e-05,8.409817e-09,0.0,0.0,0.0
8256000,0,5.4788496e-05,5.059737e-05,8.387664e-09,0.0,0.0,0.0
8264000,0,5.478851e-05,5.0597362e-05,8.372894e-09,0.0,0.0,0.0
8276000,0,5.4788536e-05,5.0597348e-05,8.350741e-09,0.0,0.0,0.0
8284000,0,5.478855e-05,5.059734e-05,8.335973e-09,0.0,0.0,0.0
8296000,0,5.4788572e-05,5.0597326e-05,8.31382e-09,0.0,0.0,0.0
8304000,0,5.4788587e-05,5.0597315e-05,8.299051e-09,0.0,0.0,0.0
8316000,0,5.4788612e-05,5.0597304e-05,8.276898e-09,0.0,0.0,0.0
8324000,0,5.4788623e-05,5.0597293e-05,8.262129e-09,0.0,0.0,0.0
8332000,0,5.478864e-05,5.0597286e-05,8.24736e-09,0.0,0.0,0.0
8344000,0,5.4788663e-05,5.059727e-05,8.225207e-09,0.0,0.0,0.0
8356000,0,5.4788685e-05,5.059726e-05,8.203054e-09,0.0,0.0,0.0
8364000,0,5.47887e-05,5.059725e-05,8.188286e-09,0.0,0.0,0.0
8376000,0,5.4788725e-05,5.059724e-05,8.166133e-09,0.0,0.0,0.0
8384000,0,5.478874e-05,5.0597228e-05,8.151363e-09,0.0,0.0,0.0
8396000,0,5.478876e-05,5.0597217e-05,8.12921e-09,0.0,0.0,0.0
8404000,0,5.4788776e-05,5.0597206e-05,8.114442e-09,0.0,0.0,0.0
8416000,0,5.47888e-05,5.0597195e-05,8.092289e-09,0.0,0.0,0.0
8424000,0,5.4788812e-05,5.0597184e-05,8.07752e-09,0.0,0.0,0.0
8436000,0,5.4788838e-05,5.0597173e-05,8.055367e-09,0.0,0.0,0.0
8444000,0,5.4788852e-05,5.0597162e-05,8.040598e-09,0.0,0.0,0.0
8456000,0,5.4788874e-05,5.059715e-05,8.0184455e-09,0.0,0.0,0.0
8464000,0,5.478889e-05,5.059714e-05,8.003676e-09,0.0,0.0,0.0
8476000,0,5.4788914e-05,5.059713e-05,7.981523e-09,0.0,0.0,0.0
8484000,0,5.478893e-05,5.059712e-05,7.966754e-09,0.0,0.0,0.0
8496000,0,5.478895e-05,5.0597107e-05,7.944601e-09,0.0,0.0,0.0
8504000,0,5.4788965e-05,5.0597097e-05,7.929833e-09,0.0,0.0,0.0
8516000,0,5.478899e-05,5.0597086e-05,7.90768e-09,0.0,0.0,0.0
8524000,0,5.4789e-05,5.0597075e-05,7.892911e-09,0.0,0.0,0.0
8536000,0,5.4789027e-05,5.0597064e-05,7.870758e-09,0.0,0.0,0.0
8544000,0,5.478904e-05,5.0597053e-05,7.85599e-09,0.0,0.0,0.0
8556000,0,5.4789063e-05,5.0597042e-05,7.833837e-09,0.0,0.0,0.0
8564000,0,5.4789078e-05,5.059703e-05,7.819067e-09,0.0,0.0,0.0
8576000,0,5.4789103e-05,5.059702e-05,7.796915e-09,0.0,0.0,0.0
8584000,0,5.4789118e-05,5.059701e-05,7.782146e-09,0.0,0.0,0.0
8596000,0,5.478914e-05,5.0597e-05,7.759993e-09,0.0,0.0,0.0
8604000,0,5.4789154e-05,5.0596987e-05,7.745224e-09,0.0,0.0,0.0
8616000,0,5.4789176e-05,5.0596977e-05,7.723071e-09,0.0,0.0,0.0
8624000,0,5.478919e-05,5.0596966e-05,7.708302e-09,0.0,0.0,0.0
8636000,0,5.4789216e-05,5.0596955e-05,7.6861495e-09,0.0,0.0,0.0
8644000,0,5.478923e-05,5.0596944e-05,7.671381e-09,0.0,0.0,0.0
8656000,0,5.4789252e-05,5.0596933e-05,7.649228e-09,0.0,0.0,0.0
8664000,0,5.4789267e-05,5.0596922e-05,7.634459e-09,0.0,0.0,0.0
8676000,0,5.4789292e-05,5.059691e-05,7.612306e-09,0.0,0.0,0.0
8684000,0,5.4789307e-05,5.05969e-05,7.597538e-09,0.0,0.0,0.0
8696000,0,5.478933e-05,5.0596886e-05,7.575385e-09,0.0,0.0,0.0
8704000,0,5.4789343e-05,5.059688e-05,7.560616e-09,0.0,0.0,0.0
8716000,0,5.4789365e-05,5.0596864e-05,7.538463e-09,0.0,0.0,0.0
8724000,0,5.478938e-05,5.0596856e-05,7.523695e-09,0.0,0.0,0.0
8736000,0,5.4789405e-05,5.0596842e-05,7.501542e-09,0.0,0.0,0.0
8744000,0,5.478942e-05,5.0596835e-05,7.486773e-09,0.0,0.0,0.0
8756000,0,5.478944e-05,5.059682e-05,7.46462e-09,0.0,0.0,0.0
8764000,0,5.4789456e-05,5.0596813e-05,7.4498514e-09,0.0,0.0,0.0
8776000,0,5.478948e-05,5.05968e-05,7.427699e-09,0.0,0.0,0.0
8784000,0,5.4789492e-05,5.059679e-05,7.41293e-09,0.0,0.0,0.0
8796000,0,5.4789518e-05,5.0596776e-05,7.3907773e-09,0.0,0.0,0.0
8804000,0,5.4789532e-05,5.059677e-05,7.3760087e-09,0.0,0.0,0.0
8816000,0,5.4789554e-05,5.0596755e-05,7.3538557e-09,0.0,0.0,0.0
8824000,0,5.478957e-05,5.0596747e-05,7.339087e-09,0.0,0.0,0.0
8836000,0,5.4789594e-05,5.0596733e-05,7.316934e-09,0.0,0.0,0.0
8844000,0,5.478961e-05,5.0596725e-05,7.3021655e-09,0.0,0.0,0.0
8856000,0,5.478963e-05,5.059671e-05,7.280013e-09,0.0,0.0,0.0
8864000,0,5.4789645e-05,5.0596704e-05,7.265244e-09,0.0,0.0,0.0
8876000,0,5.4789667e-05,5.059669e-05,7.2430915e-09,0.0,0.0,0.0
8884000,0,5.478968e-05,5.0596682e-05,7.228323e-09,0.0,0.0,0.0
8896000,0,5.4789707e-05,5.0596667e-05,7.20617e-09,0.0,0.0,0.0
8904000,0,5.478972e-05,5.059666e-05,7.1914013e-09,0.0,0.0,0.0
8916000,0,5.4789743e-05,5.0596645e-05,7.1692488e-09,0.0,0.0,0.0
8924000,0,5.4789758e-05,5.0596638e-05,7.15448e-09,0.0,0.0,0.0
8936000,0,5.4789783e-05,5.0596624e-05,7.132327e-09,0.0,0.0,0.0
8944000,0,5.4789794e-05,5.0596616e-05,7.1175585e-09,0.0,0.0,0.0
8956000,0,5.478982e-05,5.05966e-05,7.095406e-09,0.0,0.0,0.0
8964000,0,5.4789834e-05,5.0596595e-05,7.080637e-09,0.0,0.0,0.0
8976000,0,5.4789856e-05,5.059658e-05,7.0584845e-09,0.0,0.0,0.0
8984000,0,5.478987e-05,5.059657e-05,7.043716e-09,0.0,0.0,0.0
8996000,0,5.4789896e-05,5.0596558e-05,7.0215633e-09,0.0,0.0,0.0
9004000,0,5.478991e-05,5.0596547e-05,7.0067947e-09,0.0,0.0,0.0
9016000,0,5.4789933e-05,5.0596536e-05,6.9846418e-09,0.0,0.0,0.0
9024000,0,5.4789947e-05,5.0596525e-05,6.969873e-09,0.0,0.0,0.0
9036000,0,5.478997e-05,5.0596514e-05,6.9477206e-09,0.0,0.0,0.0
9044000,0,5.4789984e-05,5.0596504e-05,6.932952e-09,0.0,0.0,0.0
9056000,0,5.479001e-05,5.0596493e-05,6.9107995e-09,0.0,0.0,0.0
9064000,0,5.4790024e-05,5.059648e-05,6.8960304e-09,0.0,0.0,0.0
9076000,0,5.4790045e-05,5.059647e-05,6.873878e-09,0.0,0.0,0.0
9084000,0,5.479006e-05,5.059646e-05,6.8591093e-09,0.0,0.0,0.0
9096000,0,5.4790085e-05,5.059645e-05,6.836957e-09,0.0,0.0,0.0
9104000,0,5.4790096e-05,5.0596438e-05,6.822188e-09,0.0,0.0,0.0
9116000,0,5.479012e-05,5.0596427e-05,6.8000356e-09,0.0,0.0,0.0
9124000,0,5.4790136e-05,5.0596416e-05,6.785267e-09,0.0,0.0,0.0
9136000,0,5.4790158e-05,5.0596405e-05,6.7631145e-09,0.0,0.0,0.0
9144000,0,5.4790173e-05,5.0596394e-05,6.748346e-09,0.0,0.0,0.0
9156000,0,5.47902e-05,5.0596384e-05,6.726193e-09,0.0,0.0,0.0
9164000,0,5.4790213e-05,5.0596373e-05,6.7114243e-09,0.0,0.0,0.0
9176000,0,5.4790235e-05,5.059636e-05,6.689272e-09,0.0,0.0,0.0
9184000,0,5.479025e-05,5.059635e-05,6.674503e-09,0.0,0.0,0.0
9196000,0,5.479027e-05,5.059634e-05,6.6523507e-09,0.0,0.0,0.0
9204000,0,5.4790286e-05,5.059633e-05,6.637582e-09,0.0,0.0,0.0
9216000,0,5.479031e-05,5.0596318e-05,6.6154295e-09,0.0,0.0,0.0
9224000,0,5.4790326e-05,5.0596307e-05,6.600661e-09,0.0,0.0,0.0
9236000,0,5.4790347e-05,5.0596296e-05,6.5785084e-09,0.0,0.0,0.0
9244000,0,5.4790362e-05,5.0596285e-05,6.5637398e-09,0.0,0.0,0.0
9256000,0,5.4790387e-05,5.059627e-05,6.5415873e-09,0.0,0.0,0.0
9264000,0,5.47904e-05,5.0596263e-05,6.5268186e-09,0.0,0.0,0.0
9276000,0,5.4790424e-05,5.059625e-05,6.504666e-09,0.0,0.0,0.0
9284000,0,5.479044e-05,5.059624e-05,6.4898975e-09,0.0,0.0,0.0
9296000,0,5.479046e-05,5.0596227e-05,6.467745e-09,0.0,0.0,0.0
9304000,0,5.4790475e-05,5.059622e-05,6.452977e-09,0.0,0.0,0.0
9316000,0,5.47905e-05,5.0596205e-05,6.4308243e-09,0.0,0.0,0.0
9324000,0,5.479051e-05,5.0596198e-05,6.4160557e-09,0.0,0.0,0.0
9336000,0,5.4790537e-05,5.0596183e-05,6.393903e-09,0.0,0.0,0.0
9344000,0,5.479055e-05,5.0596176e-05,6.3791346e-09,0.0,0.0,0.0
9356000,0,5.4790573e-05,5.059616e-05,6.356982e-09,0.0,0.0,0.0
9364000,0,5.4790587e-05,5.0596154e-05,6.3422134e-09,0.0,0.0,0.0
9376000,0,5.4790613e-05,5.059614e-05,6.320061e-09,0.0,0.0,0.0
9384000,0,5.4790627e-05,5.0596132e-05,6.3052923e-09,0.0,0.0,0.0
9396000,0,5.479065e-05,5.0596118e-05,6.2831402e-09,0.0,0.0,0.0
9404000,0,5.4790664e-05,5.059611e-05,6.2683716e-09,0.0,0.0,0.0
9416000,0,5.4790686e-05,5.0596096e-05,6.246219e-09,0.0,0.0,0.0
9424000,0,5.47907e-05,5.059609e-05,6.2314505e-09,0.0,0.0,0.0
9436000,0,5.4790726e-05,5.0596074e-05,6.209298e-09,0.0,0.0,0.0
9444000,0,5.479074e-05,5.0596067e-05,6.19453e-09,0.0,0.0,0.0
9456000,0,5.4790762e-05,5.0596052e-05,6.1723773e-09,0.0,0.0,0.0
9464000,0,5.4790777e-05,5.0596045e-05,6.1576086e-09,0.0,0.0,0.0
9476000,0,5.4790802e-05,5.059603e-05,6.135456e-09,0.0,0.0,0.0
9484000,0,5.4790813e-05,5.0596023e-05,6.120688e-09,0.0,0.0,0.0
9496000,0,5.479084e-05,5.059601e-05,6.0985355e-09,0.0,0.0,0.0
9504000,0,5.4790853e-05,5.0595998e-05,6.083767e-09,0.0,0.0,0.0
9516000,0,5.4790875e-05,5.0595987e-05,6.0616143e-09,0.0,0.0,0.0
9524000,0,5.479089e-05,5.0595976e-05,6.046846e-09,0.0,0.0,0.0
9536000,0,5.4790915e-05,5.0595965e-05,6.0246936e-09,0.0,0.0,0.0
9544000,0,5.4790926e-05,5.0595954e-05,6.009925e-09,0.0,0.0,0.0
9556000,0,5.479095e-05,5.0595943e-05,5.9877725e-09,0.0,0.0,0.0
9564000,0,5.4790966e-05,5.0595932e-05,5.9730043e-09,0.0,0.0,0.0
9576000,0,5.4790988e-05,5.059592e-05,5.950852e-09,0.0,0.0,0.0
9584000,0,5.4791002e-05,5.059591e-05,5.936083e-09,0.0,0.0,0.0
9596000,0,5.4791028e-05,5.05959e-05,5.913931e-09,0.0,0.0,0.0
9604000,0,5.479104e-05,5.059589e-05,5.8991625e-09,0.0,0.0,0.0
9616000,0,5.4791064e-05,5.0595878e-05,5.8770104e-09,0.0,0.0,0.0
9624000,0,5.479108e-05,5.0595867e-05,5.862242e-09,0.0,0.0,0.0
9636000,0,5.47911e-05,5.0595856e-05,5.8400893e-09,0.0,0.0,0.0
9644000,0,5.4791115e-05,5.0595845e-05,5.825321e-09,0.0,0.0,0.0
9656000,0,5.479114e-05,5.0595834e-05,5.8031686e-09,0.0,0.0,0.0
9664000,0,5.4791155e-05,5.0595823e-05,5.7884004e-09,0.0,0.0,0.0
9676000,0,5.4791177e-05,5.0595812e-05,5.766248e-09,0.0,0.0,0.0
9684000,0,5.479119e-05,5.05958e-05,5.7514793e-09,0.0,0.0,0.0
9696000,0,5.4791213e-05,5.059579e-05,5.7293272e-09,0.0,0.0,0.0
9704000,0,5.4791228e-05,5.059578e-05,5.7145586e-09,0.0,0.0,0.0
9716000,0,5.4791253e-05,5.059577e-05,5.6924065e-09,0.0,0.0,0.0
9724000,0,5.4791268e-05,5.0595758e-05,5.677638e-09,0.0,0.0,0.0
9736000,0,5.479129e-05,5.0595743e-05,5.655486e-09,0.0,0.0,0.0
9744000,0,5.4791304e-05,5.0595736e-05,5.6407172e-09,0.0,0.0,0.0
9756000,0,5.4791326e-05,5.059572e-05,5.618565e-09,0.0,0.0,0.0
9764000,0,5.479134e-05,5.0595714e-05,5.6037965e-09,0.0,0.0,0.0
9776000,0,5.4791366e-05,5.05957e-05,5.5816445e-09,0.0,0.0,0.0
9784000,0,5.479138e-05,5.0595692e-05,5.566876e-09,0.0,0.0,0.0
9796000,0,5.4791402e-05,5.0595678e-05,5.544724e-09,0.0,0.0,0.0
9804000,0,5.4791417e-05,5.059567e-05,5.529955e-09,0.0,0.0,0.0
9816000,0,5.479144e-05,5.0595656e-05,5.507803e-09,0.0,0.0,0.0
9824000,0,5.4791453e-05,5.059565e-05,5.4930345e-09,0.0,0.0,0.0
9836000,0,5.479148e-05,5.0595634e-05,5.4708824e-09,0.0,0.0,0.0
9844000,0,5.4791493e-05,5.0595627e-05,5.4561142e-09,0.0,0.0,0.0
9856000,0,5.4791515e-05,5.0595612e-05,5.4339617e-09,0.0,0.0,0.0
9864000,0,5.479153e-05,5.0595605e-05,5.4191935e-09,0.0,0.0,0.0
9876000,0,5.4791555e-05,5.059559e-05,5.397041e-09,0.0,0.0,0.0
9884000,0,5.4791566e-05,5.0595583e-05,5.382273e-09,0.0,0.0,0.0
9896000,0,5.479159e-05,5.059557e-05,5.360121e-09,0.0,0.0,0.0
9904000,0,5.4791606e-05,5.059556e-05,5.345352e-09,0.0,0.0,0.0
9916000,0,5.4791628e-05,5.0595547e-05,5.3232e-09,0.0,0.0,0.0
9924000,0,5.4791642e-05,5.0595536e-05,5.308432e-09,0.0,0.0,0.0
9936000,0,5.4791668e-05,5.0595525e-05,5.2862794e-09,0.0,0.0,0.0
9944000,0,5.479168e-05,5.0595514e-05,5.2715112e-09,0.0,0.0,0.0
9956000,0,5.4791704e-05,5.0595503e-05,5.249359e-09,0.0,0.0,0.0
9964000,0,5.479172e-05,5.0595492e-05,5.2345905e-09,0.0,0.0,0.0
9976000,0,5.479174e-05,5.059548e-05,5.2124385e-09,0.0,0.0,0.0
9984000,0,5.4791755e-05,5.059547e-05,5.1976703e-09,0.0,0.0,0.0
9996000,0,5.479178e-05,5.059546e-05,5.1755182e-09,0.0,0.0,0.0
10004000,0,5.479179e-05,5.059545e-05,5.1607496e-09,0.0,0.0,0.0
10016000,0,5.4791817e-05,5.0595438e-05,5.1385975e-09,0.0,0.0,0.0
10024000,0,5.479183e-05,5.0595427e-05,5.1238294e-09,0.0,0.0,0.0
10036000,0,5.4791853e-05,5.0595416e-05,5.1016773e-09,0.0,0.0,0.0
10044000,0,5.4791868e-05,5.0595405e-05,5.0869087e-09,0.0,0.0,0.0
10056000,0,5.4791893e-05,5.0595394e-05,5.0647566e-09,0.0,0.0,0.0
10064000,0,5.4791904e-05,5.0595383e-05,5.0499884e-09,0.0,0.0,0.0
10076000,0,5.479193e-05,5.0595372e-05,5.0278364e-09,0.0,0.0,0.0
10084000,0,5.4791944e-05,5.059536e-05,5.013068e-09,0.0,0.0,0.0
10096000,0,5.4791966e-05,5.059535e-05,4.990916e-09,0.0,0.0,0.0
10104000,0,5.479198e-05,5.059534e-05,4.9761475e-09,0.0,0.0,0.0
10116000,0,5.4792006e-05,5.059533e-05,4.9539954e-09,0.0,0.0,0.0
10124000,0,5.4792017e-05,5.0595318e-05,4.9392272e-09,0.0,0.0,0.0
10136000,0,5.4792043e-05,5.0595303e-05,4.917075e-09,0.0,0.0,0.0
10144000,0,5.4792057e-05,5.0595296e-05,4.902307e-09,0.0,0.0,0.0
10156000,0,5.479208e-05,5.059528e-05,4.880155e-09,0.0,0.0,0.0
10164000,0,5.4792094e-05,5.0595274e-05,4.8653868e-09,0.0,0.0,0.0
10176000,0,5.479212e-05,5.059526e-05,4.8432343e-09,0.0,0.0,0.0
10184000,0,5.479213e-05,5.0595252e-05,4.828466e-09,0.0,0.0,0.0
10196000,0,5.4792155e-05,5.0595238e-05,4.806314e-09,0.0,0.0,0.0
10204000,0,5.479217e-05,5.059523e-05,4.791546e-09,0.0,0.0,0.0
10216000,0,5.479219e-05,5.0595216e-05,4.7693938e-09,0.0,0.0,0.0
10224000,0,5.4792206e-05,5.059521e-05,4.7546256e-09,0.0,0.0,0.0
10236000,0,5.4792232e-05,5.0595194e-05,4.7324735e-09,0.0,0.0,0.0
10244000,0,5.4792243e-05,5.0595187e-05,4.7177053e-09,0.0,0.0,0.0
10256000,0,5.479227e-05,5.0595172e-05,4.6955533e-09,0.0,0.0,0.0
10264000,0,5.4792283e-05,5.0595165e-05,4.680785e-09,0.0,0.0,0.0
10276000,0,5.4792305e-05,5.059515e-05,4.658633e-09,0.0,0.0,0.0
10284000,0,5.479232e-05,5.0595143e-05,4.643865e-09,0.0,0.0,0.0
10296000,0,5.4792345e-05,5.059513e-05,4.621713e-09,0.0,0.0,0.0
10304000,0,5.4792356e-05,5.0595118e-05,4.6069446e-09,0.0,0.0,0.0
10316000,0,5.479238e-05,5.0595107e-05,4.5847925e-09,0.0,0.0,0.0
10324000,0,5.4792396e-05,5.0595096e-05,4.5700244e-09,0.0,0.0,0.0
10336000,0,5.4792417e-05,5.0595085e-05,4.5478723e-09,0.0,0.0,0.0
10344000,0,5.4792432e-05,5.0595074e-05,4.533104e-09,0.0,0.0,0.0
10356000,0,5.4792457e-05,5.0595063e-05,4.510952e-09,0.0,0.0,0.0
10364000,0,5.479247e-05,5.0595052e-05,4.496184e-09,0.0,0.0,0.0
10376000,0,5.4792494e-05,5.059504e-05,4.4740323e-09,0.0,0.0,0.0
10384000,0,5.479251e-05,5.059503e-05,4.459264e-09,0.0,0.0,0.0
10396000,0,5.479253e-05,5.059502e-05,4.437112e-09,0.0,0.0,0.0
10404000,0,5.4792545e-05,5.059501e-05,4.422344e-09,0.0,0.0,0.0
10416000,0,5.479257e-05,5.0594997e-05,4.4001918e-09,0.0,0.0,0.0
10424000,0,5.479258e-05,5.0594987e-05,4.3854236e-09,0.0,0.0,0.0
10436000,0,5.4792607e-05,5.0594976e-05,4.3632715e-09,0.0,0.0,0.0
10444000,0,5.479262e-05,5.0594965e-05,4.3485033e-09,0.0,0.0,0.0
10456000,0,5.4792643e-05,5.0594954e-05,4.3263517e-09,0.0,0.0,0.0
10464000,0,5.4792657e-05,5.0594943e-05,4.3115835e-09,0.0,0.0,0.0
10476000,0,5.4792683e-05,5.059493e-05,4.2894315e-09,0.0,0.0,0.0
10484000,0,5.4792694e-05,5.059492e-05,4.2746633e-09,0.0,0.0,0.0
10496000,0,5.479272e-05,5.0594906e-05,4.2525117e-09,0.0,0.0,0.0
10504000,0,5.4792734e-05,5.05949e-05,4.2377435e-09,0.0,0.0,0.0
10516000,0,5.4792756e-05,5.0594885e-05,4.2155914e-09,0.0,0.0,0.0
10520000,0,5.4792767e-05,5.059488e-05,4.2082076e-09,0.0,0.0,0.0
10536000,0,5.4792792e-05,5.0594863e-05,4.1786716e-09,0.0,0.0,0.0
10544000,0,5.4792807e-05,5.0594856e-05,4.1639034e-09,0.0,0.0,0.0
10556000,0,5.4792832e-05,5.059484e-05,4.1417514e-09,0.0,0.0,0.0
10564000,0,5.4792847e-05,5.0594834e-05,4.126983e-09,0.0,0.0,0.0
10576000,0,5.479287e-05,5.059482e-05,4.1048316e-09,0.0,0.0,0.0
10584000,0,5.4792883e-05,5.0594812e-05,4.0900634e-09,0.0,0.0,0.0
10596000,0,5.4792905e-05,5.0594797e-05,4.0679113e-09,0.0,0.0,0.0
10604000,0,5.479292e-05,5.059479e-05,4.053143e-09,0.0,0.0,0.0
10616000,0,5.4792945e-05,5.0594776e-05,4.0309915e-09,0.0,0.0,0.0
10624000,0,5.479296e-05,5.059477e-05,4.0162234e-09,0.0,0.0,0.0
10636000,0,5.479298e-05,5.0594754e-05,3.9940717e-09,0.0,0.0,0.0
10644000,0,5.4792996e-05,5.0594743e-05,3.9793036e-09,0.0,0.0,0.0
10656000,0,5.4793018e-05,5.0594732e-05,3.9571515e-09,0.0,0.0,0.0
10664000,0,5.4793032e-05,5.059472e-05,3.9423838e-09,0.0,0.0,0.0
10676000,0,5.4793058e-05,5.059471e-05,3.9202317e-09,0.0,0.0,0.0
10684000,0,5.4793072e-05,5.05947e-05,3.9054635e-09,0.0,0.0,0.0
10696000,0,5.4793094e-05,5.059469e-05,3.883312e-09,0.0,0.0,0.0
10704000,0,5.479311e-05,5.0594677e-05,3.8685437e-09,0.0,0.0,0.0
10716000,0,5.479313e-05,5.0594666e-05,3.846392e-09,0.0,0.0,0.0
10724000,0,5.4793145e-05,5.0594655e-05,3.831624e-09,0.0,0.0,0.0
10736000,0,5.479317e-05,5.0594645e-05,3.8094723e-09,0.0,0.0,0.0
10744000,0,5.479318e-05,5.0594634e-05,3.794704e-09,0.0,0.0,0.0
