timestamp,timestamp_sample,q[0],q[1],q[2],q[3],delta_q_reset[0],delta_q_reset[1],delta_q_reset[2],delta_q_reset[3],quat_reset_counter
1264000,0,0.70711,6.0000496e-20,-6.000053e-20,0.70711,0.0,0.0,0.0,0.0,0
1268000,0,0.70711,6.1304203e-20,-6.1304236e-20,0.70711,0.0,0.0,0.0,0.0,0
1276000,0,0.70711,6.3868644e-20,-6.3868677e-20,0.70711,0.0,0.0,0.0,0.0,0
1284000,0,0.70711,6.6376843e-20,-6.637687e-20,0.70711,0.0,0.0,0.0,0.0,0
1296000,0,0.70711,7.003636e-20,-7.003639e-20,0.70711,0.0,0.0,0.0,0.0,0
1304000,0,0.70711,7.2409284e-20,-7.240931e-20,0.70711,0.0,0.0,0.0,0.0,0
1316000,0,0.70711,7.587143e-20,-7.5871455e-20,0.70711,0.0,0.0,0.0,0.0,0
1324000,0,0.70711,7.811637e-20,-7.811639e-20,0.70711,0.0,0.0,0.0,0.0,0
1336000,0,0.70711,8.1391793e-20,-8.139181e-20,0.70711,0.0,0.0,0.0,0.0,0
1344000,0,0.70711,8.351565e-20,-8.351567e-20,0.70711,0.0,0.0,0.0,0.0,0
1356000,0,0.70711,1.8278786e-19,-1.827881e-19,0.70711,0.0,0.0,0.0,0.0,0
1364000,0,0.70711,1.9500607e-19,-1.9500616e-19,0.70711,0.0,0.0,0.0,0.0,0
1376000,0,0.70711,1.9172365e-19,-1.9172369e-19,0.70711,0.0,0.0,0.0,0.0,0
1384000,0,0.70711,1.8965159e-19,-1.8965159e-19,0.70711,0.0,0.0,0.0,0.0,0
1396000,0,0.70711,1.8664179e-19,-1.8664175e-19,0.70711,0.0,0.0,0.0,0.0,0
1404000,0,0.70711,1.8469554e-19,-1.8469547e-19,0.70711,0.0,0.0,0.0,0.0,0
1416000,0,0.70711,1.8186032e-19,-1.8186022e-19,0.70711,0.0,0.0,0.0,0.0,0
1424000,0,0.70711,1.8002367e-19,-1.8002354e-19,0.70711,0.0,0.0,0.0,0.0,0
1436000,0,0.70711,1.773454e-19,-1.7734525e-19,0.70711,0.0,0.0,0.0,0.0,0
1444000,0,0.70711,1.3038467e-19,-1.3038445e-19,0.70711,0.0,0.0,0.0,0.0,0
1456000,0,0.70711,1.3078308e-19,-1.3078286e-19,0.70711,0.0,0.0,0.0,0.0,0
1464000,0,0.70711,1.3098992e-19,-1.309897e-19,0.70711,0.0,0.0,0.0,0.0,0
1476000,0,0.70711,1.06591276e-19,-1.0659099e-19,0.70711,0.0,0.0,0.0,0.0,0
1484000,0,0.70711,8.919422e-06,1.6477403e-05,0.70711,0.0,0.0,0.0,0.0,0
1496000,0,0.70711,1.0950613e-05,1.22476695e-05,0.70711,0.0,0.0,0.0,0.0,0
1504000,0,0.70711,1.14080285e-05,1.1948927e-05,0.70711,0.0,0.0,0.0,0.0,0
1516000,0,0.70711,1.1753854e-05,1.2073874e-05,0.70711,0.0,0.0,0.0,0.0,0
1524000,0,0.70711,1.1939493e-05,1.22352385e-05,0.70711,0.0,0.0,0.0,0.0,0
1536000,0,0.70711,1.2207193e-05,1.2495398e-05,0.70711,0.0,0.0,0.0,0.0,0
1544000,0,0.70711,1.2384077e-05,1.26712885e-05,0.70711,0.0,0.0,0.0,0.0,0
1556000,0,0.70711,1.2648922e-05,1.2935695e-05,0.70711,0.0,0.0,0.0,0.0,0
1564000,0,0.70711,1.2825378e-05,1.3112043e-05,0.70711,0.0,0.0,0.0,0.0,0
1576000,0,0.70711,1.3089998e-05,1.3376583e-05,0.70711,0.0,0.0,0.0,0.0,0
1584000,0,0.70711,1.326639e-05,1.3552947e-05,0.70711,0.0,0.0,0.0,0.0,0
1596000,0,0.70711,1.3530959e-05,1.3817493e-05,0.70711,0.0,0.0,0.0,0.0,0
1604000,0,0.70711,1.3707332e-05,1.3993857e-05,0.70711,0.0,0.0,0.0,0.0,0
1616000,0,0.70711,1.3971886e-05,1.4258402e-05,0.70711,0.0,0.0,0.0,0.0,0
1624000,0,0.70711,1.4148253e-05,1.4434766e-05,0.70711,0.0,0.0,0.0,0.0,0
1636000,0,0.70711,1.4412802e-05,1.4699312e-05,0.70711,0.0,0.0,0.0,0.0,0
1644000,0,0.70711,1.4589167e-05,1.4875676e-05,0.70711,0.0,0.0,0.0,0.0,0
1656000,0,0.70711,1.4853714e-05,1.5140222e-05,0.70711,0.0,0.0,0.0,0.0,0
1664000,0,0.70711,1.5030078e-05,1.5316586e-05,0.70711,0.0,0.0,0.0,0.0,0
1676000,0,0.70711,1.5294625e-05,1.5581132e-05,0.70711,0.0,0.0,0.0,0.0,0
1684000,0,0.70711,1.5470989e-05,1.5757496e-05,0.70711,0.0,0.0,0.0,0.0,0
1696000,0,0.70711,1.5735535e-05,1.6022042e-05,0.70711,0.0,0.0,0.0,0.0,0
1704000,0,0.70711,1.5911899e-05,1.6198406e-05,0.70711,0.0,0.0,0.0,0.0,0
1716000,0,0.70711,1.6176446e-05,1.6462953e-05,0.70711,0.0,0.0,0.0,0.0,0
1724000,0,0.70711,1.635281e-05,1.6639317e-05,0.70711,0.0,0.0,0.0,0.0,0
1736000,0,0.70711,1.6617356e-05,1.6903863e-05,0.70711,0.0,0.0,0.0,0.0,0
1744000,0,0.70711,1.679372e-05,1.7080227e-05,0.70711,0.0,0.0,0.0,0.0,0
1756000,0,0.70711,1.7058266e-05,1.7344773e-05,0.70711,0.0,0.0,0.0,0.0,0
1764000,0,0.70711,1.7234632e-05,1.7521137e-05,0.70711,0.0,0.0,0.0,0.0,0
1776000,0,0.70711,1.7499178e-05,1.7785684e-05,0.70711,0.0,0.0,0.0,0.0,0
1784000,0,0.70711,1.7675542e-05,1.7962047e-05,0.70711,0.0,0.0,0.0,0.0,0
1796000,0,0.70711,1.7940089e-05,1.8226594e-05,0.70711,0.0,0.0,0.0,0.0,0
1804000,0,0.70711,1.8116452e-05,1.840296e-05,0.70711,0.0,0.0,0.0,0.0,0
1816000,0,0.70711,1.8380999e-05,1.8667506e-05,0.70711,0.0,0.0,0.0,0.0,0
1824000,0,0.70711,1.8557364e-05,1.884387e-05,0.70711,0.0,0.0,0.0,0.0,0
1836000,0,0.70711,1.8821911e-05,1.9108416e-05,0.70711,0.0,0.0,0.0,0.0,0
1844000,0,0.70711,1.8998275e-05,1.928478e-05,0.70711,0.0,0.0,0.0,0.0,0
1856000,0,0.70711,1.9262821e-05,1.9549327e-05,0.70711,0.0,0.0,0.0,0.0,0
1864000,0,0.70711,1.9439187e-05,1.9725692e-05,0.70711,0.0,0.0,0.0,0.0,0
1876000,0,0.70711,1.9703733e-05,1.9990239e-05,0.70711,0.0,0.0,0.0,0.0,0
1884000,0,0.70711,1.9880097e-05,2.0166603e-05,0.70711,0.0,0.0,0.0,0.0,0
1896000,0,0.70711,2.0144644e-05,2.043115e-05,0.70711,0.0,0.0,0.0,0.0,0
1904000,0,0.70711,2.032101e-05,2.0607515e-05,0.70711,0.0,0.0,0.0,0.0,0
1916000,0,0.70711,2.0585556e-05,2.0872061e-05,0.70711,0.0,0.0,0.0,0.0,0
1924000,0,0.70711,2.0761921e-05,2.1048425e-05,0.70711,0.0,0.0,0.0,0.0,0
1936000,0,0.70711,2.1026468e-05,2.1312972e-05,0.70711,0.0,0.0,0.0,0.0,0
1940000,0,0.70711,2.111465e-05,2.1401154e-05,0.70711,0.0,0.0,0.0,0.0,0
1956000,0,0.70711,2.146738e-05,2.1753884e-05,0.70711,0.0,0.0,0.0,0.0,0
1964000,0,0.70711,2.1643744e-05,2.193025e-05,0.70711,0.0,0.0,0.0,0.0,0
1976000,0,0.70711,2.190829e-05,2.2194796e-05,0.70711,0.0,0.0,0.0,0.0,0
1984000,0,0.70711,2.2084656e-05,2.237116e-05,0.70711,0.0,0.0,0.0,0.0,0
1996000,0,0.70711,2.2349202e-05,2.2635708e-05,0.70711,0.0,0.0,0.0,0.0,0
2004000,0,0.70711,2.2525568e-05,2.2812072e-05,0.70711,0.0,0.0,0.0,0.0,0
2016000,0,0.70711,2.2790115e-05,2.3076618e-05,0.70711,0.0,0.0,0.0,0.0,0
2024000,0,0.70711,2.296648e-05,2.3252984e-05,0.70711,0.0,0.0,0.0,0.0,0
2036000,0,0.70711,2.3231027e-05,2.351753e-05,0.70711,0.0,0.0,0.0,0.0,0
2044000,0,0.70711,2.3407392e-05,2.3693896e-05,0.70711,0.0,0.0,0.0,0.0,0
2056000,0,0.70711,2.3671939e-05,2.3958442e-05,0.70711,0.0,0.0,0.0,0.0,0
2064000,0,0.70711,2.3848304e-05,2.4134808e-05,0.70711,0.0,0.0,0.0,0.0,0
2072000,0,0.70711,2.402467e-05,2.4311174e-05,0.70711,0.0,0.0,0.0,0.0,0
2084000,0,0.70711,2.4289217e-05,2.457572e-05,0.70711,0.0,0.0,0.0,0.0,0
2096000,0,0.70711,2.4553765e-05,2.4840267e-05,0.70711,0.0,0.0,0.0,0.0,0
2104000,0,0.70711,2.4730129e-05,2.5016632e-05,0.70711,0.0,0.0,0.0,0.0,0
2116000,0,0.70711,2.4994677e-05,2.528118e-05,0.70711,0.0,0.0,0.0,0.0,0
2124000,0,0.70711,2.5171043e-05,2.5457544e-05,0.70711,0.0,0.0,0.0,0.0,0
2136000,0,0.70711,2.543559e-05,2.5722093e-05,0.70711,0.0,0.0,0.0,0.0,0
2144000,0,0.70711,2.5611955e-05,2.5898458e-05,0.70711,0.0,0.0,0.0,0.0,0
2156000,0,0.70711,2.5876503e-05,2.6163005e-05,0.70711,0.0,0.0,0.0,0.0,0
2164000,0,0.70711,2.6052867e-05,2.633937e-05,0.70711,0.0,0.0,0.0,0.0,0
2176000,0,0.70711,2.6317415e-05,2.6603917e-05,0.70711,0.0,0.0,0.0,0.0,0
2184000,0,0.70711,2.649378e-05,2.6780282e-05,0.70711,0.0,0.0,0.0,0.0,0
2196000,0,0.70711,2.6758327e-05,2.704483e-05,0.70711,0.0,0.0,0.0,0.0,0
2204000,0,0.70711,2.6934693e-05,2.7221196e-05,0.70711,0.0,0.0,0.0,0.0,0
2216000,0,0.70711,2.7199241e-05,2.7485743e-05,0.70711,0.0,0.0,0.0,0.0,0
2224000,0,0.70711,2.7375607e-05,2.7662109e-05,0.70711,0.0,0.0,0.0,0.0,0
2236000,0,0.70711,2.7640153e-05,2.7926657e-05,0.70711,0.0,0.0,0.0,0.0,0
2244000,0,0.70711,2.7816519e-05,2.810302e-05,0.70711,0.0,0.0,0.0,0.0,0
2256000,0,0.70711,2.8081067e-05,2.8367569e-05,0.70711,0.0,0.0,0.0,0.0,0
2264000,0,0.70711,2.8257433e-05,2.8543935e-05,0.70711,0.0,0.0,0.0,0.0,0
2276000,0,0.70711,2.8521981e-05,2.8808483e-05,0.70711,0.0,0.0,0.0,0.0,0
2284000,0,0.70711,2.8698347e-05,2.8984849e-05,0.70711,0.0,0.0,0.0,0.0,0
2296000,0,0.70711,2.8962895e-05,2.9249395e-05,0.70711,0.0,0.0,0.0,0.0,0
2304000,0,0.70711,2.9139259e-05,2.942576e-05,0.70711,0.0,0.0,0.0,0.0,0
2316000,0,0.70711,2.9403807e-05,2.9690309e-05,0.70711,0.0,0.0,0.0,0.0,0
2324000,0,0.70711,2.9580173e-05,2.9866675e-05,0.70711,0.0,0.0,0.0,0.0,0
2336000,0,0.70711,2.9844721e-05,3.0131223e-05,0.70711,0.0,0.0,0.0,0.0,0
2344000,0,0.70711,3.0021087e-05,3.0307589e-05,0.70711,0.0,0.0,0.0,0.0,0
2356000,0,0.70711,3.0285635e-05,3.0572137e-05,0.70711,0.0,0.0,0.0,0.0,0
2364000,0,0.70711,3.0462e-05,3.0748502e-05,0.70711,0.0,0.0,0.0,0.0,0
2376000,0,0.70711,3.072655e-05,3.101305e-05,0.70711,0.0,0.0,0.0,0.0,0
2384000,0,0.70711,3.0902916e-05,3.1189415e-05,0.70711,0.0,0.0,0.0,0.0,0
2396000,0,0.70711,3.1167463e-05,3.1453965e-05,0.70711,0.0,0.0,0.0,0.0,0
2404000,0,0.70711,3.134383e-05,3.163033e-05,0.70711,0.0,0.0,0.0,0.0,0
2416000,0,0.70711,3.160838e-05,3.1894877e-05,0.70711,0.0,0.0,0.0,0.0,0
2424000,0,0.70711,3.1784744e-05,3.2071242e-05,0.70711,0.0,0.0,0.0,0.0,0
2436000,0,0.70711,3.204929e-05,3.2335793e-05,0.70711,0.0,0.0,0.0,0.0,0
2444000,0,0.70711,3.2225656e-05,3.251216e-05,0.70711,0.0,0.0,0.0,0.0,0
2456000,0,0.70711,3.2490207e-05,3.2776705e-05,0.70711,0.0,0.0,0.0,0.0,0
2464000,0,0.70711,3.2666572e-05,3.295307e-05,0.70711,0.0,0.0,0.0,0.0,0
2476000,0,0.70711,3.293112e-05,3.321762e-05,0.70711,0.0,0.0,0.0,0.0,0
2484000,0,0.70711,3.3107488e-05,3.3393986e-05,0.70711,0.0,0.0,0.0,0.0,0
2496000,0,0.70711,3.3372035e-05,3.3658536e-05,0.70711,0.0,0.0,0.0,0.0,0
2504000,0,0.70711,3.35484e-05,3.3834902e-05,0.70711,0.0,0.0,0.0,0.0,0
2516000,0,0.70711,3.381295e-05,3.409945e-05,0.70711,0.0,0.0,0.0,0.0,0
2524000,0,0.70711,3.3989316e-05,3.4275814e-05,0.70711,0.0,0.0,0.0,0.0,0
2536000,0,0.70711,3.4253866e-05,3.4540364e-05,0.70711,0.0,0.0,0.0,0.0,0
2544000,0,0.70711,3.443023e-05,3.471673e-05,0.70711,0.0,0.0,0.0,0.0,0
2556000,0,0.70711,3.4694778e-05,3.498128e-05,0.70711,0.0,0.0,0.0,0.0,0
2564000,0,0.70711,3.4871144e-05,3.5157645e-05,0.70711,0.0,0.0,0.0,0.0,0
2576000,0,0.70711,3.5135694e-05,3.5422192e-05,0.70711,0.0,0.0,0.0,0.0,0
2584000,0,0.70711,3.531206e-05,3.559856e-05,0.70711,0.0,0.0,0.0,0.0,0
2596000,0,0.70711,3.557661e-05,3.5863108e-05,0.70711,0.0,0.0,0.0,0.0,0
2604000,0,0.70711,3.5752975e-05,3.6039473e-05,0.70711,0.0,0.0,0.0,0.0,0
2616000,0,0.70711,3.6017525e-05,3.6304024e-05,0.70711,0.0,0.0,0.0,0.0,0
2624000,0,0.70711,3.619389e-05,3.648039e-05,0.70711,0.0,0.0,0.0,0.0,0
2636000,0,0.70711,3.645844e-05,3.674494e-05,0.70711,0.0,0.0,0.0,0.0,0
2644000,0,0.70711,3.6634807e-05,3.6921305e-05,0.70711,0.0,0.0,0.0,0.0,0
2656000,0,0.70711,3.6899353e-05,3.7185855e-05,0.70711,0.0,0.0,0.0,0.0,0
2664000,0,0.70711,3.7075723e-05,3.736222e-05,0.70711,0.0,0.0,0.0,0.0,0
2676000,0,0.70711,3.734027e-05,3.762677e-05,0.70711,0.0,0.0,0.0,0.0,0
2684000,0,0.70711,3.751664e-05,3.7803136e-05,0.70711,0.0,0.0,0.0,0.0,0
2696000,0,0.70711,3.7781185e-05,3.8067683e-05,0.70711,0.0,0.0,0.0,0.0,0
2704000,0,0.70711,3.7957554e-05,3.8244052e-05,0.70711,0.0,0.0,0.0,0.0,0
2716000,0,0.70711,3.82221e-05,3.85086e-05,0.70711,0.0,0.0,0.0,0.0,0
2724000,0,0.70711,3.839847e-05,3.8684968e-05,0.70711,0.0,0.0,0.0,0.0,0
2736000,0,0.70711,3.8663016e-05,3.8949514e-05,0.70711,0.0,0.0,0.0,0.0,0
2744000,0,0.70711,3.8839386e-05,3.9125884e-05,0.70711,0.0,0.0,0.0,0.0,0
2756000,0,0.70711,3.9103932e-05,3.939043e-05,0.70711,0.0,0.0,0.0,0.0,0
2764000,0,0.70711,3.92803e-05,3.95668e-05,0.70711,0.0,0.0,0.0,0.0,0
2776000,0,0.70711,3.9544848e-05,3.9831346e-05,0.70711,0.0,0.0,0.0,0.0,0
2784000,0,0.70711,3.9721217e-05,4.0007715e-05,0.70711,0.0,0.0,0.0,0.0,0
2796000,0,0.70711,3.9985767e-05,4.027226e-05,0.70711,0.0,0.0,0.0,0.0,0
2804000,0,0.70711,4.0162133e-05,4.044863e-05,0.70711,0.0,0.0,0.0,0.0,0
2816000,0,0.70711,4.0426683e-05,4.0713177e-05,0.70711,0.0,0.0,0.0,0.0,0
2824000,0,0.70711,4.060305e-05,4.0889547e-05,0.70711,0.0,0.0,0.0,0.0,0
2836000,0,0.70711,4.08676e-05,4.1154097e-05,0.70711,0.0,0.0,0.0,0.0,0
2844000,0,0.70711,4.1043964e-05,4.1330462e-05,0.70711,0.0,0.0,0.0,0.0,0
2856000,0,0.70711,4.1308514e-05,4.1595013e-05,0.70711,0.0,0.0,0.0,0.0,0
2864000,0,0.70711,4.148488e-05,4.1771378e-05,0.70711,0.0,0.0,0.0,0.0,0
2876000,0,0.70711,4.174943e-05,4.203593e-05,0.70711,0.0,0.0,0.0,0.0,0
2884000,0,0.70711,4.1925796e-05,4.2212294e-05,0.70711,0.0,0.0,0.0,0.0,0
2896000,0,0.70711,4.2190346e-05,4.2476844e-05,0.70711,0.0,0.0,0.0,0.0,0
2904000,0,0.70711,4.2366715e-05,4.265321e-05,0.70711,0.0,0.0,0.0,0.0,0
2916000,0,0.70711,4.2631265e-05,4.291776e-05,0.70711,0.0,0.0,0.0,0.0,0
2924000,0,0.70711,4.280763e-05,4.309413e-05,0.70711,0.0,0.0,0.0,0.0,0
2936000,0,0.70711,4.307218e-05,4.335868e-05,0.70711,0.0,0.0,0.0,0.0,0
2944000,0,0.70711,4.3248547e-05,4.3535045e-05,0.70711,0.0,0.0,0.0,0.0,0
2956000,0,0.70711,4.3513097e-05,4.3799595e-05,0.70711,0.0,0.0,0.0,0.0,0
2964000,0,0.70711,4.3689466e-05,4.397596e-05,0.70711,0.0,0.0,0.0,0.0,0
2976000,0,0.70711,4.3954016e-05,4.424051e-05,0.70711,0.0,0.0,0.0,0.0,0
2984000,0,0.70711,4.4130382e-05,4.4416876e-05,0.70711,0.0,0.0,0.0,0.0,0
2996000,0,0.70711,4.4394932e-05,4.4681427e-05,0.70711,0.0,0.0,0.0,0.0,0
3004000,0,0.70711,4.4571298e-05,4.4857796e-05,0.70711,0.0,0.0,0.0,0.0,0
3016000,0,0.70711,4.4835848e-05,4.5122346e-05,0.70711,0.0,0.0,0.0,0.0,0
3024000,0,0.70711,4.5012217e-05,4.529871e-05,0.70711,0.0,0.0,0.0,0.0,0
3036000,0,0.70711,4.5276767e-05,4.556326e-05,0.70711,0.0,0.0,0.0,0.0,0
3044000,0,0.70711,4.5453133e-05,4.573963e-05,0.70711,0.0,0.0,0.0,0.0,0
3056000,0,0.70711,4.5717683e-05,4.600418e-05,0.70711,0.0,0.0,0.0,0.0,0
3064000,0,0.70711,4.5894052e-05,4.6180547e-05,0.70711,0.0,0.0,0.0,0.0,0
3076000,0,0.70711,4.6158602e-05,4.6445097e-05,0.70711,0.0,0.0,0.0,0.0,0
3084000,0,0.70711,4.6334968e-05,4.6621462e-05,0.70711,0.0,0.0,0.0,0.0,0
3096000,0,0.70711,4.6599518e-05,4.6886016e-05,0.70711,0.0,0.0,0.0,0.0,0
3104000,0,0.70711,4.6775887e-05,4.706238e-05,0.70711,0.0,0.0,0.0,0.0,0
3116000,0,0.70711,4.7040437e-05,4.7326932e-05,0.70711,0.0,0.0,0.0,0.0,0
3124000,0,0.70711,4.7216803e-05,4.7503298e-05,0.70711,0.0,0.0,0.0,0.0,0
3136000,0,0.70711,4.7481357e-05,4.776785e-05,0.70711,0.0,0.0,0.0,0.0,0
3144000,0,0.70711,4.7657722e-05,4.7944217e-05,0.70711,0.0,0.0,0.0,0.0,0
3156000,0,0.70711,4.7922273e-05,4.8208767e-05,0.70711,0.0,0.0,0.0,0.0,0
3164000,0,0.70711,4.8098642e-05,4.8385136e-05,0.70711,0.0,0.0,0.0,0.0,0
3176000,0,0.70711,4.8363192e-05,4.8649687e-05,0.70711,0.0,0.0,0.0,0.0,0
3184000,0,0.70711,4.8539558e-05,4.8826052e-05,0.70711,0.0,0.0,0.0,0.0,0
3196000,0,0.70711,4.8804108e-05,4.9090602e-05,0.70711,0.0,0.0,0.0,0.0,0
3204000,0,0.70711,4.8980477e-05,4.926697e-05,0.70711,0.0,0.0,0.0,0.0,0
3216000,0,0.70711,4.9245027e-05,4.953152e-05,0.70711,0.0,0.0,0.0,0.0,0
3224000,0,0.70711,4.9421396e-05,4.970789e-05,0.70711,0.0,0.0,0.0,0.0,0
3236000,0,0.70711,4.9685947e-05,4.997244e-05,0.70711,0.0,0.0,0.0,0.0,0
3244000,0,0.70711,4.9862312e-05,5.0148807e-05,0.70711,0.0,0.0,0.0,0.0,0
3256000,0,0.70711,5.0126866e-05,5.0413357e-05,0.70711,0.0,0.0,0.0,0.0,0
3264000,0,0.70711,5.030323e-05,5.0589726e-05,0.70711,0.0,0.0,0.0,0.0,0
3276000,0,0.70711,5.056778e-05,5.0854276e-05,0.70711,0.0,0.0,0.0,0.0,0
3284000,0,0.70711,5.074415e-05,5.1030645e-05,0.70711,0.0,0.0,0.0,0.0,0
3296000,0,0.70711,5.10087e-05,5.1295196e-05,0.70711,0.0,0.0,0.0,0.0,0
3304000,0,0.70711,5.118507e-05,5.147156e-05,0.70711,0.0,0.0,0.0,0.0,0
3316000,0,0.70711,5.144962e-05,5.1736115e-05,0.70711,0.0,0.0,0.0,0.0,0
3324000,0,0.70711,5.162599e-05,5.191248e-05,0.70711,0.0,0.0,0.0,0.0,0
3336000,0,0.70711,5.189054e-05,5.2177034e-05,0.70711,0.0,0.0,0.0,0.0,0
3344000,0,0.70711,5.2066905e-05,5.23534e-05,0.70711,0.0,0.0,0.0,0.0,0
3356000,0,0.70711,5.233146e-05,5.261795e-05,0.70711,0.0,0.0,0.0,0.0,0
3364000,0,0.70711,5.2507825e-05,5.279432e-05,0.70711,0.0,0.0,0.0,0.0,0
3376000,0,0.70711,5.277238e-05,5.305887e-05,0.70711,0.0,0.0,0.0,0.0,0
3384000,0,0.70711,5.2948744e-05,5.323524e-05,0.70711,0.0,0.0,0.0,0.0,0
3396000,0,0.70711,5.3213298e-05,5.349979e-05,0.70711,0.0,0.0,0.0,0.0,0
3404000,0,0.70711,5.3389664e-05,5.3676158e-05,0.70711,0.0,0.0,0.0,0.0,0
3416000,0,0.70711,5.3654217e-05,5.394071e-05,0.70711,0.0,0.0,0.0,0.0,0
3424000,0,0.70711,5.3830583e-05,5.4117078e-05,0.70711,0.0,0.0,0.0,0.0,0
3436000,0,0.70711,5.4095137e-05,5.4381628e-05,0.70711,0.0,0.0,0.0,0.0,0
3444000,0,0.70711,5.4271502e-05,5.4557997e-05,0.70711,0.0,0.0,0.0,0.0,0
3456000,0,0.70711,5.4536056e-05,5.4822547e-05,0.70711,0.0,0.0,0.0,0.0,0
3464000,0,0.70711,5.4712422e-05,5.4998916e-05,0.70711,0.0,0.0,0.0,0.0,0
3476000,0,0.70711,5.4976976e-05,5.5263466e-05,0.70711,0.0,0.0,0.0,0.0,0
3484000,0,0.70711,5.515334e-05,5.5439836e-05,0.70711,0.0,0.0,0.0,0.0,0
3496000,0,0.70711,5.5417895e-05,5.5704386e-05,0.70711,0.0,0.0,0.0,0.0,0
3504000,0,0.70711,5.559426e-05,5.5880755e-05,0.70711,0.0,0.0,0.0,0.0,0
3516000,0,0.70711,5.5858814e-05,5.6145305e-05,0.70711,0.0,0.0,0.0,0.0,0
3524000,0,0.70711,5.6035184e-05,5.6321674e-05,0.70711,0.0,0.0,0.0,0.0,0
3536000,0,0.70711,5.6299734e-05,5.6586225e-05,0.70711,0.0,0.0,0.0,0.0,0
3544000,0,0.70711,5.6476103e-05,5.6762594e-05,0.70711,0.0,0.0,0.0,0.0,0
3556000,0,0.70711,5.6740653e-05,5.7027148e-05,0.70711,0.0,0.0,0.0,0.0,0
3564000,0,0.70711,5.6917022e-05,5.7203513e-05,0.70711,0.0,0.0,0.0,0.0,0
3576000,0,0.70711,5.7181576e-05,5.7468067e-05,0.70711,0.0,0.0,0.0,0.0,0
3584000,0,0.70711,5.7357942e-05,5.7644433e-05,0.70711,0.0,0.0,0.0,0.0,0
3596000,0,0.70711,5.7622496e-05,5.7908986e-05,0.70711,0.0,0.0,0.0,0.0,0
3604000,0,0.70711,5.779886e-05,5.8085356e-05,0.70711,0.0,0.0,0.0,0.0,0
3616000,0,0.70711,5.8063415e-05,5.8349906e-05,0.70711,0.0,0.0,0.0,0.0,0
3624000,0,0.70711,5.8239784e-05,5.8526275e-05,0.70711,0.0,0.0,0.0,0.0,0
3636000,0,0.70711,5.8504334e-05,5.8790825e-05,0.70711,0.0,0.0,0.0,0.0,0
3644000,0,0.70711,5.8680704e-05,5.8967194e-05,0.70711,0.0,0.0,0.0,0.0,0
3656000,0,0.70711,5.8945257e-05,5.923175e-05,0.70711,0.0,0.0,0.0,0.0,0
3664000,0,0.70711,5.9121623e-05,5.9408114e-05,0.70711005,0.0,0.0,0.0,0.0,0
3676000,0,0.70711,5.9386177e-05,5.9672668e-05,0.70711005,0.0,0.0,0.0,0.0,0
3684000,0,0.70711,5.9562546e-05,5.9849037e-05,0.70711005,0.0,0.0,0.0,0.0,0
3696000,0,0.70711,5.9827096e-05,6.0113587e-05,0.70711005,0.0,0.0,0.0,0.0,0
3704000,0,0.70711,6.0003465e-05,6.0289956e-05,0.70711005,0.0,0.0,0.0,0.0,0
3716000,0,0.70711,6.026802e-05,6.055451e-05,0.70711005,0.0,0.0,0.0,0.0,0
3724000,0,0.70711,6.044439e-05,6.0730876e-05,0.70711005,0.0,0.0,0.0,0.0,0
3736000,0,0.70711,6.070894e-05,6.099543e-05,0.70711005,0.0,0.0,0.0,0.0,0
3744000,0,0.70711,6.0885308e-05,6.11718e-05,0.70711005,0.0,0.0,0.0,0.0,0
3756000,0,0.70711,6.114986e-05,6.143635e-05,0.70711005,0.0,0.0,0.0,0.0,0
3764000,0,0.70711,6.132623e-05,6.161272e-05,0.70711005,0.0,0.0,0.0,0.0,0
3776000,0,0.70711,6.1590785e-05,6.187727e-05,0.70711005,0.0,0.0,0.0,0.0,0
3784000,0,0.70711,6.176715e-05,6.205364e-05,0.70711005,0.0,0.0,0.0,0.0,0
3796000,0,0.70711,6.20317e-05,6.231819e-05,0.70711005,0.0,0.0,0.0,0.0,0
3804000,0,0.70711,6.220807e-05,6.249456e-05,0.70711005,0.0,0.0,0.0,0.0,0
3816000,0,0.70711,6.247262e-05,6.2759114e-05,0.70711005,0.0,0.0,0.0,0.0,0
3824000,0,0.70711,6.264899e-05,6.293548e-05,0.70711005,0.0,0.0,0.0,0.0,0
3836000,0,0.70711,6.291355e-05,6.320004e-05,0.70711005,0.0,0.0,0.0,0.0,0
3844000,0,0.70711,6.3089916e-05,6.337641e-05,0.70711005,0.0,0.0,0.0,0.0,0
3856000,0,0.70711,6.335447e-05,6.364096e-05,0.70711005,0.0,0.0,0.0,0.0,0
3864000,0,0.70711,6.353084e-05,6.381732e-05,0.70711005,0.0,0.0,0.0,0.0,0
3876000,0,0.70711,6.379539e-05,6.4081876e-05,0.70711005,0.0,0.0,0.0,0.0,0
3884000,0,0.70711,6.3971755e-05,6.4258245e-05,0.70711005,0.0,0.0,0.0,0.0,0
3896000,0,0.70711,6.423631e-05,6.45228e-05,0.70711005,0.0,0.0,0.0,0.0,0
3904000,0,0.70711,6.441268e-05,6.469917e-05,0.70711005,0.0,0.0,0.0,0.0,0
3916000,0,0.70711,6.467723e-05,6.496372e-05,0.70711005,0.0,0.0,0.0,0.0,0
3924000,0,0.70711,6.48536e-05,6.514009e-05,0.70711005,0.0,0.0,0.0,0.0,0
3936000,0,0.70711,6.5118154e-05,6.5404645e-05,0.70711005,0.0,0.0,0.0,0.0,0
3944000,0,0.70711,6.5294524e-05,6.5581014e-05,0.70711005,0.0,0.0,0.0,0.0,0
3956000,0,0.70711,6.555908e-05,6.584557e-05,0.70711005,0.0,0.0,0.0,0.0,0
3964000,0,0.70711,6.573545e-05,6.602194e-05,0.70711005,0.0,0.0,0.0,0.0,0
3976000,0,0.70711,6.6e-05,6.628649e-05,0.70711005,0.0,0.0,0.0,0.0,0
3984000,0,0.70711,6.617637e-05,6.646286e-05,0.70711005,0.0,0.0,0.0,0.0,0
3996000,0,0.70711,6.644092e-05,6.672741e-05,0.70711005,0.0,0.0,0.0,0.0,0
4004000,0,0.70711,6.661729e-05,6.6903776e-05,0.70711005,0.0,0.0,0.0,0.0,0
4016000,0,0.70711,6.688185e-05,6.716833e-05,0.70711005,0.0,0.0,0.0,0.0,0
4024000,0,0.70711,6.7058216e-05,6.73447e-05,0.70711005,0.0,0.0,0.0,0.0,0
4036000,0,0.70711,6.732277e-05,6.760925e-05,0.70711005,0.0,0.0,0.0,0.0,0
4044000,0,0.70711,6.749914e-05,6.778562e-05,0.70711005,0.0,0.0,0.0,0.0,0
4056000,0,0.70711,6.776369e-05,6.8050176e-05,0.70711005,0.0,0.0,0.0,0.0,0
4064000,0,0.70711,6.794006e-05,6.8226545e-05,0.70711005,0.0,0.0,0.0,0.0,0
4076000,0,0.70711,6.8204616e-05,6.84911e-05,0.70711005,0.0,0.0,0.0,0.0,0
4084000,0,0.70711,6.838098e-05,6.866747e-05,0.70711005,0.0,0.0,0.0,0.0,0
4096000,0,0.70711,6.864553e-05,6.893202e-05,0.70711005,0.0,0.0,0.0,0.0,0
4104000,0,0.70711,6.88219e-05,6.910839e-05,0.70711005,0.0,0.0,0.0,0.0,0
4116000,0,0.70711,6.9086454e-05,6.9372945e-05,0.70711005,0.0,0.0,0.0,0.0,0
4124000,0,0.70711,6.9262824e-05,6.9549315e-05,0.70711005,0.0,0.0,0.0,0.0,0
4136000,0,0.70711,6.952738e-05,6.981387e-05,0.70711005,0.0,0.0,0.0,0.0,0
4144000,0,0.70711,6.970375e-05,6.999024e-05,0.70711005,0.0,0.0,0.0,0.0,0
4156000,0,0.70711,6.99683e-05,7.025479e-05,0.70711005,0.0,0.0,0.0,0.0,0
4164000,0,0.70711,7.014468e-05,7.043116e-05,0.70711005,0.0,0.0,0.0,0.0,0
4176000,0,0.70711,7.040923e-05,7.0695714e-05,0.70711005,0.0,0.0,0.0,0.0,0
4184000,0,0.70711,7.05856e-05,7.087208e-05,0.70711005,0.0,0.0,0.0,0.0,0
4196000,0,0.70711,7.0850154e-05,7.113664e-05,0.70711005,0.0,0.0,0.0,0.0,0
4204000,0,0.70711,7.102652e-05,7.131301e-05,0.70711005,0.0,0.0,0.0,0.0,0
4216000,0,0.70711,7.129108e-05,7.157756e-05,0.70711005,0.0,0.0,0.0,0.0,0
4224000,0,0.70711,7.1467446e-05,7.175393e-05,0.70711005,0.0,0.0,0.0,0.0,0
4236000,0,0.70711,7.1732e-05,7.201848e-05,0.70711005,0.0,0.0,0.0,0.0,0
4244000,0,0.70711,7.190837e-05,7.219485e-05,0.70711005,0.0,0.0,0.0,0.0,0
4256000,0,0.70711,7.217292e-05,7.245941e-05,0.70711005,0.0,0.0,0.0,0.0,0
4264000,0,0.70711,7.234929e-05,7.2635776e-05,0.70711005,0.0,0.0,0.0,0.0,0
4276000,0,0.70711,7.2613846e-05,7.290033e-05,0.70711005,0.0,0.0,0.0,0.0,0
4284000,0,0.70711,7.2790215e-05,7.30767e-05,0.70711005,0.0,0.0,0.0,0.0,0
4296000,0,0.70711,7.305477e-05,7.334125e-05,0.70711005,0.0,0.0,0.0,0.0,0
4304000,0,0.70711,7.323114e-05,7.351762e-05,0.70711005,0.0,0.0,0.0,0.0,0
4316000,0,0.70711,7.349569e-05,7.378218e-05,0.70711005,0.0,0.0,0.0,0.0,0
4324000,0,0.70711,7.367206e-05,7.395855e-05,0.70711005,0.0,0.0,0.0,0.0,0
4336000,0,0.70711,7.3936615e-05,7.4223106e-05,0.70711005,0.0,0.0,0.0,0.0,0
4344000,0,0.70711,7.4112984e-05,7.4399475e-05,0.70711005,0.0,0.0,0.0,0.0,0
4356000,0,0.70711,7.437754e-05,7.466403e-05,0.70711005,0.0,0.0,0.0,0.0,0
4364000,0,0.70711,7.4553915e-05,7.48404e-05,0.70711005,0.0,0.0,0.0,0.0,0
4376000,0,0.70711,7.481847e-05,7.510495e-05,0.70711005,0.0,0.0,0.0,0.0,0
4384000,0,0.70711,7.499484e-05,7.528132e-05,0.70711005,0.0,0.0,0.0,0.0,0
4396000,0,0.70711,7.525939e-05,7.5545875e-05,0.70711005,0.0,0.0,0.0,0.0,0
4404000,0,0.70711,7.543576e-05,7.5722244e-05,0.70711005,0.0,0.0,0.0,0.0,0
4416000,0,0.70711,7.5700314e-05,7.59868e-05,0.70711005,0.0,0.0,0.0,0.0,0
4424000,0,0.70711,7.5876684e-05,7.616317e-05,0.70711005,0.0,0.0,0.0,0.0,0
4436000,0,0.70711,7.614124e-05,7.642773e-05,0.70711005,0.0,0.0,0.0,0.0,0
4444000,0,0.70711,7.631761e-05,7.66041e-05,0.70711005,0.0,0.0,0.0,0.0,0
4456000,0,0.70711,7.658216e-05,7.686865e-05,0.70711005,0.0,0.0,0.0,0.0,0
4464000,0,0.70711,7.675854e-05,7.704502e-05,0.70711005,0.0,0.0,0.0,0.0,0
4476000,0,0.70711,7.702309e-05,7.7309574e-05,0.70711005,0.0,0.0,0.0,0.0,0
4484000,0,0.70711,7.719946e-05,7.748594e-05,0.70711005,0.0,0.0,0.0,0.0,0
4496000,0,0.70711,7.7464014e-05,7.77505e-05,0.70711005,0.0,0.0,0.0,0.0,0
4504000,0,0.70711,7.764038e-05,7.792687e-05,0.70711005,0.0,0.0,0.0,0.0,0
4516000,0,0.70711,7.790494e-05,7.819142e-05,0.70711005,0.0,0.0,0.0,0.0,0
4524000,0,0.70711,7.8081306e-05,7.83678e-05,0.70711005,0.0,0.0,0.0,0.0,0
4536000,0,0.70711,7.834587e-05,7.863235e-05,0.70711005,0.0,0.0,0.0,0.0,0
4544000,0,0.70711,7.852224e-05,7.880872e-05,0.70711005,0.0,0.0,0.0,0.0,0
4556000,0,0.70711,7.878679e-05,7.9073274e-05,0.70711005,0.0,0.0,0.0,0.0,0
4564000,0,0.70711,7.896316e-05,7.924964e-05,0.70711005,0.0,0.0,0.0,0.0,0
4576000,0,0.70711,7.922771e-05,7.95142e-05,0.70711005,0.0,0.0,0.0,0.0,0
4584000,0,0.70711,7.940408e-05,7.9690566e-05,0.70711005,0.0,0.0,0.0,0.0,0
4596000,0,0.70711,7.9668636e-05,7.995513e-05,0.70711005,0.0,0.0,0.0,0.0,0
4604000,0,0.70711,7.984501e-05,8.0131496e-05,0.70711005,0.0,0.0,0.0,0.0,0
4616000,0,0.70711,8.010957e-05,8.039605e-05,0.70711005,0.0,0.0,0.0,0.0,0
4624000,0,0.70711,8.0285936e-05,8.057242e-05,0.70711005,0.0,0.0,0.0,0.0,0
4636000,0,0.70711,8.055049e-05,8.083697e-05,0.70711005,0.0,0.0,0.0,0.0,0
4644000,0,0.70711,8.072686e-05,8.101334e-05,0.70711005,0.0,0.0,0.0,0.0,0
4656000,0,0.70711,8.099142e-05,8.12779e-05,0.70711005,0.0,0.0,0.0,0.0,0
4664000,0,0.70711,8.116779e-05,8.145427e-05,0.70711005,0.0,0.0,0.0,0.0,0
4676000,0,0.70711,8.143234e-05,8.171883e-05,0.70711005,0.0,0.0,0.0,0.0,0
4684000,0,0.70711,8.160871e-05,8.1895196e-05,0.70711005,0.0,0.0,0.0,0.0,0
4696000,0,0.70711,8.1873266e-05,8.215975e-05,0.70711005,0.0,0.0,0.0,0.0,0
4704000,0,0.70711,8.204964e-05,8.2336126e-05,0.70711005,0.0,0.0,0.0,0.0,0
4716000,0,0.70711,8.2314196e-05,8.260068e-05,0.70711005,0.0,0.0,0.0,0.0,0
4724000,0,0.70711,8.2490566e-05,8.277705e-05,0.70711005,0.0,0.0,0.0,0.0,0
4736000,0,0.70711,8.275512e-05,8.30416e-05,0.70711005,0.0,0.0,0.0,0.0,0
4744000,0,0.70711,8.293149e-05,8.321797e-05,0.70711005,0.0,0.0,0.0,0.0,0
4756000,0,0.70711,8.319605e-05,8.348253e-05,0.70711005,0.0,0.0,0.0,0.0,0
4764000,0,0.70711,8.337242e-05,8.36589e-05,0.70711005,0.0,0.0,0.0,0.0,0
4776000,0,0.70711,8.363697e-05,8.3923456e-05,0.70711005,0.0,0.0,0.0,0.0,0
4784000,0,0.70711,8.381334e-05,8.4099825e-05,0.70711005,0.0,0.0,0.0,0.0,0
4796000,0,0.70711,8.40779e-05,8.436439e-05,0.70711005,0.0,0.0,0.0,0.0,0
4804000,0,0.70711,8.425427e-05,8.4540756e-05,0.70711005,0.0,0.0,0.0,0.0,0
4816000,0,0.70711,8.4518826e-05,8.480531e-05,0.70711005,0.0,0.0,0.0,0.0,0
4824000,0,0.70711,8.4695195e-05,8.498168e-05,0.70711005,0.0,0.0,0.0,0.0,0
4836000,0,0.70711,8.4959756e-05,8.524623e-05,0.70711005,0.0,0.0,0.0,0.0,0
4844000,0,0.70711,8.5136126e-05,8.542261e-05,0.70711005,0.0,0.0,0.0,0.0,0
4856000,0,0.70711,8.540068e-05,8.568716e-05,0.70711005,0.0,0.0,0.0,0.0,0
4864000,0,0.70711,8.557705e-05,8.586353e-05,0.70711005,0.0,0.0,0.0,0.0,0
4876000,0,0.70711,8.584161e-05,8.6128086e-05,0.70711005,0.0,0.0,0.0,0.0,0
4884000,0,0.70711,8.601798e-05,8.630446e-05,0.70711005,0.0,0.0,0.0,0.0,0
4896000,0,0.70711,8.628253e-05,8.6569016e-05,0.70711005,0.0,0.0,0.0,0.0,0
4904000,0,0.70711,8.64589e-05,8.6745385e-05,0.70711005,0.0,0.0,0.0,0.0,0
4916000,0,0.70711,8.672346e-05,8.700995e-05,0.70711005,0.0,0.0,0.0,0.0,0
4924000,0,0.70711,8.689983e-05,8.7186316e-05,0.70711005,0.0,0.0,0.0,0.0,0
4936000,0,0.70711,8.7164386e-05,8.745087e-05,0.70711005,0.0,0.0,0.0,0.0,0
4944000,0,0.70711,8.7340755e-05,8.762724e-05,0.70711005,0.0,0.0,0.0,0.0,0
4956000,0,0.70711,8.760532e-05,8.78918e-05,0.70711005,0.0,0.0,0.0,0.0,0
4964000,0,0.70711,8.7781686e-05,8.806817e-05,0.70711005,0.0,0.0,0.0,0.0,0
4976000,0,0.70711,8.804624e-05,8.833272e-05,0.70711005,0.0,0.0,0.0,0.0,0
4984000,0,0.70711,8.8222616e-05,8.85091e-05,0.70711005,0.0,0.0,0.0,0.0,0
4996000,0,0.70711,8.848717e-05,8.877365e-05,0.70711005,0.0,0.0,0.0,0.0,0
5004000,0,0.70711,8.866354e-05,8.895002e-05,0.70711005,0.0,0.0,0.0,0.0,0
5016000,0,0.70711,8.89281e-05,8.9214576e-05,0.70711005,0.0,0.0,0.0,0.0,0
5024000,0,0.70711,8.910447e-05,8.939095e-05,0.70711005,0.0,0.0,0.0,0.0,0
5036000,0,0.70711,8.936902e-05,8.965551e-05,0.70711005,0.0,0.0,0.0,0.0,0
5044000,0,0.70711,8.95454e-05,8.9831876e-05,0.70711005,0.0,0.0,0.0,0.0,0
5056000,0,0.70711,8.980995e-05,9.009644e-05,0.70711005,0.0,0.0,0.0,0.0,0
5064000,0,0.70711,8.998632e-05,9.0272806e-05,0.70711005,0.0,0.0,0.0,0.0,0
5076000,0,0.70711,9.0250884e-05,9.053736e-05,0.70711005,0.0,0.0,0.0,0.0,0
5084000,0,0.70711,9.042725e-05,9.071374e-05,0.70711005,0.0,0.0,0.0,0.0,0
5096000,0,0.70711,9.069181e-05,9.097829e-05,0.70711005,0.0,0.0,0.0,0.0,0
5104000,0,0.70711,9.086818e-05,9.115466e-05,0.70711005,0.0,0.0,0.0,0.0,0
5116000,0,0.70711,9.113274e-05,9.141922e-05,0.70711005,0.0,0.0,0.0,0.0,0
5124000,0,0.70711,9.1309106e-05,9.159559e-05,0.70711005,0.0,0.0,0.0,0.0,0
5136000,0,0.70711,9.157367e-05,9.186014e-05,0.70711005,0.0,0.0,0.0,0.0,0
5144000,0,0.70711,9.175004e-05,9.203652e-05,0.70711005,0.0,0.0,0.0,0.0,0
5156000,0,0.70711,9.201459e-05,9.2301074e-05,0.70711005,0.0,0.0,0.0,0.0,0
5164000,0,0.70711,9.219097e-05,9.247744e-05,0.70711005,0.0,0.0,0.0,0.0,0
5176000,0,0.70711,9.245552e-05,9.2742004e-05,0.70711005,0.0,0.0,0.0,0.0,0
5184000,0,0.70711,9.26319e-05,9.291837e-05,0.70711005,0.0,0.0,0.0,0.0,0
5196000,0,0.70711,9.289645e-05,9.3182935e-05,0.70711005,0.0,0.0,0.0,0.0,0
5204000,0,0.70711,9.307282e-05,9.3359304e-05,0.70711005,0.0,0.0,0.0,0.0,0
5216000,0,0.70711,9.333738e-05,9.362386e-05,0.70711005,0.0,0.0,0.0,0.0,0
5224000,0,0.70711,9.351375e-05,9.3800234e-05,0.70711005,0.0,0.0,0.0,0.0,0
5236000,0,0.70711,9.377831e-05,9.406479e-05,0.70711005,0.0,0.0,0.0,0.0,0
5244000,0,0.70711,9.395468e-05,9.424116e-05,0.70711005,0.0,0.0,0.0,0.0,0
5256000,0,0.70711,9.4219235e-05,9.450572e-05,0.70711005,0.0,0.0,0.0,0.0,0
5264000,0,0.70711,9.439561e-05,9.468209e-05,0.70711005,0.0,0.0,0.0,0.0,0
5276000,0,0.70711,9.4660165e-05,9.494665e-05,0.70711005,0.0,0.0,0.0,0.0,0
5284000,0,0.70711,9.4836534e-05,9.512302e-05,0.70711005,0.0,0.0,0.0,0.0,0
5296000,0,0.70711,9.5101095e-05,9.538758e-05,0.70711005,0.0,0.0,0.0,0.0,0
5300000,0,0.70711,9.518928e-05,9.547576e-05,0.70711005,0.0,0.0,0.0,0.0,0
5316000,0,0.70711,9.5542026e-05,9.58285e-05,0.70711005,0.0,0.0,0.0,0.0,0
5324000,0,0.70711,9.5718395e-05,9.600488e-05,0.70711005,0.0,0.0,0.0,0.0,0
5336000,0,0.70711,9.5982956e-05,9.626943e-05,0.70711005,0.0,0.0,0.0,0.0,0
5344000,0,0.70711,9.6159325e-05,9.644581e-05,0.70711005,0.0,0.0,0.0,0.0,0
5356000,0,0.70711,9.6423886e-05,9.671036e-05,0.70711005,0.0,0.0,0.0,0.0,0
5364000,0,0.70711,9.6600255e-05,9.688673e-05,0.70711005,0.0,0.0,0.0,0.0,0
5376000,0,0.70711,9.686481e-05,9.715129e-05,0.70711005,0.0,0.0,0.0,0.0,0
5384000,0,0.70711,9.7041186e-05,9.732766e-05,0.70711005,0.0,0.0,0.0,0.0,0
5396000,0,0.70711,9.730574e-05,9.759222e-05,0.70711005,0.0,0.0,0.0,0.0,0
5404000,0,0.70711,9.7482116e-05,9.776859e-05,0.70711005,0.0,0.0,0.0,0.0,0
5416000,0,0.70711,9.774667e-05,9.803315e-05,0.70711005,0.0,0.0,0.0,0.0,0
5424000,0,0.70711,9.7923046e-05,9.820952e-05,0.70711005,0.0,0.0,0.0,0.0,0
5436000,0,0.70711,9.81876e-05,9.8474084e-05,0.70711005,0.0,0.0,0.0,0.0,0
5444000,0,0.70711,9.836398e-05,9.865045e-05,0.70711005,0.0,0.0,0.0,0.0,0
5456000,0,0.70711,9.862853e-05,9.8915014e-05,0.70711005,0.0,0.0,0.0,0.0,0
5464000,0,0.70711,9.88049e-05,9.909138e-05,0.70711005,0.0,0.0,0.0,0.0,0
5476000,0,0.70711,9.906946e-05,9.935594e-05,0.70711005,0.0,0.0,0.0,0.0,0
5484000,0,0.70711,9.924583e-05,9.953231e-05,0.70711005,0.0,0.0,0.0,0.0,0
5496000,0,0.70711,9.951039e-05,9.979687e-05,0.70711005,0.0,0.0,0.0,0.0,0
5504000,0,0.70711,9.968676e-05,9.9973244e-05,0.70711005,0.0,0.0,0.0,0.0,0
5516000,0,0.70711,9.995132e-05,0.0001002378,0.70711005,0.0,0.0,0.0,0.0,0
5524000,0,0.70711,0.00010012769,0.000100414174,0.70711005,0.0,0.0,0.0,0.0,0
5536000,0,0.70711,0.00010039225,0.00010067873,0.70711005,0.0,0.0,0.0,0.0,0
5544000,0,0.70711,0.00010056862,0.000100855104,0.70711005,0.0,0.0,0.0,0.0,0
5556000,0,0.70711,0.00010083318,0.00010111966,0.70711005,0.0,0.0,0.0,0.0,0
5564000,0,0.70711,0.00010100955,0.000101296035,0.70711005,0.0,0.0,0.0,0.0,0
5576000,0,0.70711,0.00010127411,0.00010156059,0.70711005,0.0,0.0,0.0,0.0,0
5584000,0,0.70711,0.00010145048,0.000101736965,0.70711005,0.0,0.0,0.0,0.0,0
5596000,0,0.70711,0.00010171504,0.00010200152,0.70711005,0.0,0.0,0.0,0.0,0
5604000,0,0.70711,0.00010189141,0.000102177895,0.70711005,0.0,0.0,0.0,0.0,0
5616000,0,0.70711,0.00010215597,0.00010244245,0.70711005,0.0,0.0,0.0,0.0,0
5624000,0,0.70711,0.00010233235,0.000102618826,0.70711005,0.0,0.0,0.0,0.0,0
5636000,0,0.70711,0.0001025969,0.00010288338,0.70711005,0.0,0.0,0.0,0.0,0
5644000,0,0.70711,0.00010277328,0.000103059756,0.70711005,0.0,0.0,0.0,0.0,0
5656000,0,0.70711,0.00010303783,0.00010332432,0.70711005,0.0,0.0,0.0,0.0,0
5664000,0,0.70711,0.00010321421,0.000103500686,0.70711005,0.0,0.0,0.0,0.0,0
5676000,0,0.70711,0.000103478764,0.00010376525,0.70711005,0.0,0.0,0.0,0.0,0
5684000,0,0.70711,0.00010365514,0.00010394162,0.70711005,0.0,0.0,0.0,0.0,0
5696000,0,0.70711,0.000103919694,0.00010420618,0.70711005,0.0,0.0,0.0,0.0,0
5704000,0,0.70711,0.00010409607,0.00010438255,0.70711005,0.0,0.0,0.0,0.0,0
5716000,0,0.7071099,0.00010436063,0.00010464711,0.70711005,0.0,0.0,0.0,0.0,0
5724000,0,0.7071099,0.000104537,0.00010482348,0.70711005,0.0,0.0,0.0,0.0,0
5736000,0,0.7071099,0.00010480156,0.00010508804,0.70711005,0.0,0.0,0.0,0.0,0
5744000,0,0.7071099,0.00010497793,0.00010526441,0.70711005,0.0,0.0,0.0,0.0,0
5756000,0,0.7071099,0.00010524249,0.00010552897,0.70711005,0.0,0.0,0.0,0.0,0
5764000,0,0.7071099,0.00010541886,0.000105705345,0.70711005,0.0,0.0,0.0,0.0,0
5776000,0,0.7071099,0.00010568342,0.0001059699,0.70711005,0.0,0.0,0.0,0.0,0
5784000,0,0.7071099,0.0001058598,0.000106146275,0.70711005,0.0,0.0,0.0,0.0,0
5796000,0,0.7071099,0.00010612435,0.00010641083,0.70711005,0.0,0.0,0.0,0.0,0
5804000,0,0.7071099,0.00010630073,0.000106587206,0.70711005,0.0,0.0,0.0,0.0,0
5816000,0,0.7071099,0.00010656528,0.00010685177,0.70711005,0.0,0.0,0.0,0.0,0
5824000,0,0.7071099,0.00010674166,0.000107028136,0.70711005,0.0,0.0,0.0,0.0,0
5836000,0,0.7071099,0.00010700622,0.0001072927,0.70711005,0.0,0.0,0.0,0.0,0
5844000,0,0.7071099,0.00010718259,0.000107469066,0.70711005,0.0,0.0,0.0,0.0,0
5856000,0,0.7071099,0.00010744715,0.00010773363,0.70711005,0.0,0.0,0.0,0.0,0
5864000,0,0.7071099,0.00010762352,0.00010791,0.70711005,0.0,0.0,0.0,0.0,0
5876000,0,0.7071099,0.00010788808,0.00010817456,0.70711005,0.0,0.0,0.0,0.0,0
5884000,0,0.7071099,0.00010806446,0.000108350934,0.70711005,0.0,0.0,0.0,0.0,0
5896000,0,0.7071099,0.00010832901,0.00010861549,0.70711005,0.0,0.0,0.0,0.0,0
5904000,0,0.7071099,0.00010850539,0.000108791864,0.70711005,0.0,0.0,0.0,0.0,0
5916000,0,0.7071099,0.00010876995,0.000109056426,0.70711005,0.0,0.0,0.0,0.0,0
5924000,0,0.7071099,0.00010894632,0.000109232795,0.70711005,0.0,0.0,0.0,0.0,0
5936000,0,0.7071099,0.00010921088,0.000109497356,0.70711005,0.0,0.0,0.0,0.0,0
5944000,0,0.7071099,0.00010938725,0.000109673725,0.70711005,0.0,0.0,0.0,0.0,0
5956000,0,0.7071099,0.00010965181,0.000109938286,0.70711005,0.0,0.0,0.0,0.0,0
5964000,0,0.7071099,0.00010982819,0.00011011466,0.70711005,0.0,0.0,0.0,0.0,0
5976000,0,0.7071099,0.00011009274,0.000110379224,0.70711005,0.0,0.0,0.0,0.0,0
5984000,0,0.7071099,0.00011026912,0.00011055559,0.70711005,0.0,0.0,0.0,0.0,0
5996000,0,0.7071099,0.00011053368,0.000110820154,0.70711005,0.0,0.0,0.0,0.0,0
6004000,0,0.7071099,0.00011071005,0.00011099652,0.70711005,0.0,0.0,0.0,0.0,0
6016000,0,0.7071099,0.00011097461,0.000111261084,0.70711005,0.0,0.0,0.0,0.0,0
6024000,0,0.7071099,0.000111150985,0.00011143746,0.70711005,0.0,0.0,0.0,0.0,0
6036000,0,0.7071099,0.00011141554,0.000111702015,0.70711005,0.0,0.0,0.0,0.0,0
6044000,0,0.7071099,0.000111591915,0.00011187839,0.70711005,0.0,0.0,0.0,0.0,0
6056000,0,0.7071099,0.000111856476,0.00011214295,0.70711005,0.0,0.0,0.0,0.0,0
6064000,0,0.7071099,0.000112032845,0.00011231932,0.70711005,0.0,0.0,0.0,0.0,0
6076000,0,0.7071099,0.000112297406,0.00011258388,0.70711005,0.0,0.0,0.0,0.0,0
6084000,0,0.7071099,0.00011247378,0.00011276026,0.70711005,0.0,0.0,0.0,0.0,0
6096000,0,0.7071099,0.000112738344,0.00011302482,0.70711005,0.0,0.0,0.0,0.0,0
6104000,0,0.7071099,0.00011291471,0.00011320119,0.70711005,0.0,0.0,0.0,0.0,0
6116000,0,0.7071099,0.000113179274,0.00011346575,0.70711005,0.0,0.0,0.0,0.0,0
6124000,0,0.7071099,0.00011335565,0.00011364213,0.70711005,0.0,0.0,0.0,0.0,0
6136000,0,0.7071099,0.000113620205,0.00011390668,0.70711005,0.0,0.0,0.0,0.0,0
6144000,0,0.7071099,0.00011379658,0.00011408306,0.70711005,0.0,0.0,0.0,0.0,0
6156000,0,0.7071099,0.00011406114,0.00011434762,0.70711005,0.0,0.0,0.0,0.0,0
6164000,0,0.7071099,0.00011423751,0.00011452399,0.70711005,0.0,0.0,0.0,0.0,0
6176000,0,0.7071099,0.00011450207,0.00011478855,0.70711005,0.0,0.0,0.0,0.0,0
6184000,0,0.7071099,0.00011467845,0.000114964925,0.70711005,0.0,0.0,0.0,0.0,0
6196000,0,0.7071099,0.00011494301,0.000115229486,0.70711005,0.0,0.0,0.0,0.0,0
6204000,0,0.7071099,0.00011511938,0.000115405855,0.70711005,0.0,0.0,0.0,0.0,0
6216000,0,0.7071099,0.00011538394,0.00011567042,0.70711005,0.0,0.0,0.0,0.0,0
6224000,0,0.7071099,0.00011556032,0.00011584679,0.70711005,0.0,0.0,0.0,0.0,0
6236000,0,0.7071099,0.00011582488,0.000116111354,0.70711005,0.0,0.0,0.0,0.0,0
6244000,0,0.7071099,0.00011600125,0.00011628772,0.70711005,0.0,0.0,0.0,0.0,0
6256000,0,0.7071099,0.00011626581,0.000116552284,0.70711005,0.0,0.0,0.0,0.0,0
6264000,0,0.7071099,0.000116442185,0.00011672866,0.70711005,0.0,0.0,0.0,0.0,0
6276000,0,0.7071099,0.000116706746,0.00011699322,0.70711005,0.0,0.0,0.0,0.0,0
6284000,0,0.7071099,0.000116883115,0.00011716959,0.70711005,0.0,0.0,0.0,0.0,0
6296000,0,0.7071099,0.000117147676,0.00011743415,0.70711005,0.0,0.0,0.0,0.0,0
6304000,0,0.7071099,0.00011732405,0.00011761053,0.70711005,0.0,0.0,0.0,0.0,0
6316000,0,0.7071099,0.000117588614,0.00011787509,0.70711005,0.0,0.0,0.0,0.0,0
6324000,0,0.7071099,0.00011776498,0.00011805146,0.70711005,0.0,0.0,0.0,0.0,0
6336000,0,0.7071099,0.000118029544,0.00011831602,0.70711005,0.0,0.0,0.0,0.0,0
6344000,0,0.7071099,0.00011820592,0.0001184924,0.70711005,0.0,0.0,0.0,0.0,0
6356000,0,0.7071099,0.00011847048,0.00011875696,0.70711005,0.0,0.0,0.0,0.0,0
6364000,0,0.7071099,0.00011864686,0.00011893333,0.70711005,0.0,0.0,0.0,0.0,0
6376000,0,0.7071099,0.00011891142,0.00011919789,0.70711005,0.0,0.0,0.0,0.0,0
6384000,0,0.7071099,0.00011908779,0.000119374265,0.70711005,0.0,0.0,0.0,0.0,0
6396000,0,0.7071099,0.00011935235,0.000119638826,0.70711005,0.0,0.0,0.0,0.0,0
6404000,0,0.7071099,0.000119528726,0.0001198152,0.70711005,0.0,0.0,0.0,0.0,0
6416000,0,0.7071099,0.00011979329,0.000120079756,0.70711005,0.0,0.0,0.0,0.0,0
6424000,0,0.7071099,0.000119969656,0.00012025613,0.70711005,0.0,0.0,0.0,0.0,0
6436000,0,0.7071099,0.00012023422,0.00012052069,0.70711005,0.0,0.0,0.0,0.0,0
6444000,0,0.7071099,0.000120410594,0.00012069707,0.70711005,0.0,0.0,0.0,0.0,0
6456000,0,0.7071099,0.000120675155,0.00012096163,0.70711005,0.0,0.0,0.0,0.0,0
6464000,0,0.7071099,0.00012085153,0.000121138,0.70711005,0.0,0.0,0.0,0.0,0
6476000,0,0.7071099,0.00012111609,0.00012140256,0.70711005,0.0,0.0,0.0,0.0,0
6484000,0,0.7071099,0.00012129246,0.00012157894,0.70711005,0.0,0.0,0.0,0.0,0
6496000,0,0.7071099,0.00012155702,0.0001218435,0.70711005,0.0,0.0,0.0,0.0,0
6504000,0,0.7071099,0.0001217334,0.000122019876,0.70711005,0.0,0.0,0.0,0.0,0
6516000,0,0.7071099,0.00012199796,0.00012228443,0.70711005,0.0,0.0,0.0,0.0,0
6524000,0,0.7071099,0.00012217433,0.00012246081,0.70711005,0.0,0.0,0.0,0.0,0
6536000,0,0.7071099,0.0001224389,0.00012272537,0.70711005,0.0,0.0,0.0,0.0,0
6544000,0,0.7071099,0.00012261527,0.00012290175,0.70711005,0.0,0.0,0.0,0.0,0
6556000,0,0.7071099,0.00012287984,0.0001231663,0.70711005,0.0,0.0,0.0,0.0,0
6564000,0,0.7071099,0.0001230562,0.00012334267,0.70711005,0.0,0.0,0.0,0.0,0
6576000,0,0.7071099,0.00012332077,0.00012360724,0.70711005,0.0,0.0,0.0,0.0,0
6584000,0,0.7071099,0.00012349714,0.00012378361,0.70711005,0.0,0.0,0.0,0.0,0
6596000,0,0.7071099,0.0001237617,0.00012404818,0.70711005,0.0,0.0,0.0,0.0,0
6604000,0,0.7071099,0.00012393808,0.00012422455,0.70711005,0.0,0.0,0.0,0.0,0
6616000,0,0.7071099,0.00012420263,0.00012448912,0.70711005,0.0,0.0,0.0,0.0,0
6624000,0,0.7071099,0.00012437902,0.00012466549,0.70711005,0.0,0.0,0.0,0.0,0
6636000,0,0.7071099,0.00012464357,0.00012493005,0.70711005,0.0,0.0,0.0,0.0,0
6644000,0,0.7071099,0.00012481996,0.00012510642,0.70711005,0.0,0.0,0.0,0.0,0
6656000,0,0.7071099,0.00012508451,0.00012537098,0.70711005,0.0,0.0,0.0,0.0,0
6664000,0,0.7071099,0.00012526088,0.00012554736,0.70711005,0.0,0.0,0.0,0.0,0
6676000,0,0.7071099,0.00012552545,0.00012581192,0.70711005,0.0,0.0,0.0,0.0,0
6684000,0,0.7071099,0.00012570182,0.0001259883,0.70711005,0.0,0.0,0.0,0.0,0
6696000,0,0.7071099,0.00012596638,0.00012625285,0.70711005,0.0,0.0,0.0,0.0,0
6704000,0,0.7071099,0.00012614275,0.00012642924,0.70711005,0.0,0.0,0.0,0.0,0
6716000,0,0.7071099,0.00012640732,0.00012669379,0.70711005,0.0,0.0,0.0,0.0,0
6724000,0,0.7071099,0.00012658369,0.00012687016,0.70711005,0.0,0.0,0.0,0.0,0
6736000,0,0.7071099,0.00012684826,0.00012713473,0.70711005,0.0,0.0,0.0,0.0,0
6744000,0,0.7071099,0.00012702463,0.0001273111,0.70711005,0.0,0.0,0.0,0.0,0
6756000,0,0.7071099,0.0001272892,0.00012757567,0.70711005,0.0,0.0,0.0,0.0,0
6764000,0,0.7071099,0.00012746557,0.00012775204,0.70711005,0.0,0.0,0.0,0.0,0
6776000,0,0.7071099,0.00012773013,0.0001280166,0.70711005,0.0,0.0,0.0,0.0,0
6784000,0,0.7071099,0.0001279065,0.00012819297,0.70711005,0.0,0.0,0.0,0.0,0
6796000,0,0.7071099,0.00012817107,0.00012845754,0.70711005,0.0,0.0,0.0,0.0,0
6804000,0,0.7071099,0.00012834744,0.00012863391,0.70711005,0.0,0.0,0.0,0.0,0
6816000,0,0.7071099,0.00012861201,0.00012889848,0.70711005,0.0,0.0,0.0,0.0,0
6824000,0,0.7071099,0.00012878838,0.00012907485,0.70711005,0.0,0.0,0.0,0.0,0
6836000,0,0.7071099,0.00012905293,0.00012933942,0.70711005,0.0,0.0,0.0,0.0,0
6844000,0,0.7071099,0.00012922932,0.00012951579,0.70711005,0.0,0.0,0.0,0.0,0
6856000,0,0.7071099,0.00012949387,0.00012978035,0.70711005,0.0,0.0,0.0,0.0,0
6864000,0,0.7071099,0.00012967025,0.00012995672,0.70711005,0.0,0.0,0.0,0.0,0
6876000,0,0.7071099,0.00012993481,0.00013022129,0.70711005,0.0,0.0,0.0,0.0,0
6884000,0,0.7071099,0.00013011119,0.00013039766,0.70711005,0.0,0.0,0.0,0.0,0
6896000,0,0.7071099,0.00013037575,0.00013066223,0.70711005,0.0,0.0,0.0,0.0,0
6904000,0,0.7071099,0.00013055213,0.0001308386,0.70711005,0.0,0.0,0.0,0.0,0
6916000,0,0.7071099,0.00013081668,0.00013110317,0.70711005,0.0,0.0,0.0,0.0,0
6924000,0,0.7071099,0.00013099307,0.00013127954,0.70711005,0.0,0.0,0.0,0.0,0
6936000,0,0.7071099,0.00013125762,0.0001315441,0.70711005,0.0,0.0,0.0,0.0,0
6944000,0,0.7071099,0.000131434,0.00013172047,0.70711005,0.0,0.0,0.0,0.0,0
6956000,0,0.7071099,0.00013169856,0.00013198504,0.70711005,0.0,0.0,0.0,0.0,0
6964000,0,0.7071099,0.00013187494,0.00013216141,0.70711005,0.0,0.0,0.0,0.0,0
6976000,0,0.7071099,0.0001321395,0.00013242598,0.70711005,0.0,0.0,0.0,0.0,0
6984000,0,0.7071099,0.00013231588,0.00013260235,0.70711005,0.0,0.0,0.0,0.0,0
6996000,0,0.7071099,0.00013258043,0.00013286692,0.70711005,0.0,0.0,0.0,0.0,0
7004000,0,0.7071099,0.00013275682,0.00013304329,0.70711005,0.0,0.0,0.0,0.0,0
7016000,0,0.7071099,0.00013302137,0.00013330785,0.70711005,0.0,0.0,0.0,0.0,0
7024000,0,0.7071099,0.00013319775,0.00013348422,0.70711005,0.0,0.0,0.0,0.0,0
7036000,0,0.7071099,0.00013346231,0.00013374879,0.70711005,0.0,0.0,0.0,0.0,0
7044000,0,0.7071099,0.00013363869,0.00013392516,0.70711005,0.0,0.0,0.0,0.0,0
7056000,0,0.7071099,0.00013390325,0.00013418973,0.70711005,0.0,0.0,0.0,0.0,0
7064000,0,0.7071099,0.00013407963,0.0001343661,0.70711005,0.0,0.0,0.0,0.0,0
7076000,0,0.7071099,0.00013434418,0.00013463067,0.70711005,0.0,0.0,0.0,0.0,0
7084000,0,0.7071099,0.00013452057,0.00013480704,0.70711005,0.0,0.0,0.0,0.0,0
7096000,0,0.7071099,0.00013478514,0.0001350716,0.70711005,0.0,0.0,0.0,0.0,0
7104000,0,0.7071099,0.0001349615,0.00013524797,0.70711005,0.0,0.0,0.0,0.0,0
7116000,0,0.7071099,0.00013522607,0.00013551254,0.70711005,0.0,0.0,0.0,0.0,0
7124000,0,0.7071099,0.00013540244,0.00013568891,0.70711005,0.0,0.0,0.0,0.0,0
7136000,0,0.7071099,0.00013566701,0.00013595348,0.70711005,0.0,0.0,0.0,0.0,0
7144000,0,0.7071099,0.00013584338,0.00013612985,0.70711005,0.0,0.0,0.0,0.0,0
7156000,0,0.7071099,0.00013610795,0.00013639442,0.70711005,0.0,0.0,0.0,0.0,0
7164000,0,0.7071099,0.00013628432,0.00013657079,0.70711005,0.0,0.0,0.0,0.0,0
7176000,0,0.7071099,0.00013654889,0.00013683536,0.70711005,0.0,0.0,0.0,0.0,0
7184000,0,0.7071099,0.00013672526,0.00013701172,0.70711005,0.0,0.0,0.0,0.0,0
7196000,0,0.7071099,0.00013698982,0.00013727629,0.70711005,0.0,0.0,0.0,0.0,0
7204000,0,0.7071099,0.0001371662,0.00013745266,0.70711005,0.0,0.0,0.0,0.0,0
7216000,0,0.7071099,0.00013743076,0.00013771723,0.70711005,0.0,0.0,0.0,0.0,0
7224000,0,0.7071099,0.00013760713,0.0001378936,0.70711005,0.0,0.0,0.0,0.0,0
7236000,0,0.7071099,0.0001378717,0.00013815817,0.70711005,0.0,0.0,0.0,0.0,0
7244000,0,0.7071099,0.00013804807,0.00013833455,0.70711005,0.0,0.0,0.0,0.0,0
7256000,0,0.7071099,0.00013831264,0.0001385991,0.70711005,0.0,0.0,0.0,0.0,0
7264000,0,0.7071099,0.00013848902,0.00013877549,0.70711005,0.0,0.0,0.0,0.0,0
7276000,0,0.7071099,0.00013875357,0.00013904004,0.70711005,0.0,0.0,0.0,0.0,0
7284000,0,0.7071099,0.00013892996,0.00013921643,0.70711005,0.0,0.0,0.0,0.0,0
7296000,0,0.7071099,0.00013919451,0.00013948098,0.70711005,0.0,0.0,0.0,0.0,0
7304000,0,0.7071099,0.0001393709,0.00013965736,0.70711005,0.0,0.0,0.0,0.0,0
7316000,0,0.7071099,0.00013963545,0.00013992193,0.70711005,0.0,0.0,0.0,0.0,0
7324000,0,0.7071099,0.00013981183,0.0001400983,0.70711005,0.0,0.0,0.0,0.0,0
7336000,0,0.7071099,0.0001400764,0.00014036287,0.70711005,0.0,0.0,0.0,0.0,0
7344000,0,0.7071099,0.00014025277,0.00014053924,0.70711005,0.0,0.0,0.0,0.0,0
7356000,0,0.7071099,0.00014051734,0.00014080381,0.70711005,0.0,0.0,0.0,0.0,0
7364000,0,0.7071099,0.00014069371,0.00014098018,0.70711005,0.0,0.0,0.0,0.0,0
7376000,0,0.7071099,0.00014095828,0.00014124475,0.70711005,0.0,0.0,0.0,0.0,0
7384000,0,0.7071099,0.00014113465,0.00014142111,0.70711005,0.0,0.0,0.0,0.0,0
7396000,0,0.7071099,0.00014139921,0.00014168568,0.70711005,0.0,0.0,0.0,0.0,0
7404000,0,0.7071099,0.0001415756,0.00014186207,0.70711005,0.0,0.0,0.0,0.0,0
7416000,0,0.7071099,0.00014184015,0.00014212662,0.70711005,0.0,0.0,0.0,0.0,0
7424000,0,0.7071099,0.00014201654,0.000142303,0.70711005,0.0,0.0,0.0,0.0,0
7436000,0,0.7071099,0.00014228109,0.00014256756,0.70711005,0.0,0.0,0.0,0.0,0
7444000,0,0.7071099,0.00014245747,0.00014274394,0.70711005,0.0,0.0,0.0,0.0,0
7456000,0,0.7071099,0.00014272204,0.00014300851,0.70711005,0.0,0.0,0.0,0.0,0
7464000,0,0.7071099,0.00014289841,0.00014318488,0.70711005,0.0,0.0,0.0,0.0,0
7476000,0,0.7071099,0.00014316298,0.00014344945,0.70711005,0.0,0.0,0.0,0.0,0
7484000,0,0.7071099,0.00014333935,0.00014362582,0.70711005,0.0,0.0,0.0,0.0,0
7496000,0,0.7071099,0.00014360392,0.00014389039,0.70711005,0.0,0.0,0.0,0.0,0
7504000,0,0.7071099,0.00014378029,0.00014406675,0.70711005,0.0,0.0,0.0,0.0,0
7516000,0,0.7071099,0.00014404485,0.00014433132,0.70711005,0.0,0.0,0.0,0.0,0
7524000,0,0.7071099,0.00014422124,0.0001445077,0.70711005,0.0,0.0,0.0,0.0,0
7536000,0,0.7071099,0.00014448579,0.00014477226,0.70711005,0.0,0.0,0.0,0.0,0
7544000,0,0.7071099,0.00014466218,0.00014494864,0.70711005,0.0,0.0,0.0,0.0,0
7556000,0,0.7071099,0.00014492674,0.00014521321,0.70711005,0.0,0.0,0.0,0.0,0
7564000,0,0.7071099,0.00014510311,0.00014538958,0.70711005,0.0,0.0,0.0,0.0,0
7576000,0,0.7071099,0.00014536768,0.00014565415,0.70711005,0.0,0.0,0.0,0.0,0
7584000,0,0.7071099,0.00014554405,0.00014583052,0.70711005,0.0,0.0,0.0,0.0,0
7596000,0,0.7071099,0.00014580862,0.00014609509,0.70711005,0.0,0.0,0.0,0.0,0
7604000,0,0.7071099,0.00014598499,0.00014627146,0.70711005,0.0,0.0,0.0,0.0,0
7616000,0,0.7071099,0.00014624956,0.00014653603,0.70711005,0.0,0.0,0.0,0.0,0
7624000,0,0.7071099,0.00014642594,0.00014671241,0.70711005,0.0,0.0,0.0,0.0,0
7636000,0,0.7071099,0.0001466905,0.00014697696,0.70711005,0.0,0.0,0.0,0.0,0
7644000,0,0.7071099,0.00014686688,0.00014715335,0.70711005,0.0,0.0,0.0,0.0,0
7656000,0,0.7071099,0.00014713145,0.00014741792,0.70711005,0.0,0.0,0.0,0.0,0
7664000,0,0.7071099,0.00014730782,0.00014759428,0.70711005,0.0,0.0,0.0,0.0,0
7676000,0,0.7071099,0.00014757238,0.00014785885,0.70711005,0.0,0.0,0.0,0.0,0
7684000,0,0.7071099,0.00014774875,0.00014803522,0.70711005,0.0,0.0,0.0,0.0,0
7696000,0,0.7071099,0.00014801332,0.00014829979,0.70711005,0.0,0.0,0.0,0.0,0
7704000,0,0.7071099,0.0001481897,0.00014847617,0.70711005,0.0,0.0,0.0,0.0,0
7716000,0,0.7071099,0.00014845426,0.00014874073,0.70711005,0.0,0.0,0.0,0.0,0
7724000,0,0.7071099,0.00014863064,0.00014891711,0.70711005,0.0,0.0,0.0,0.0,0
7736000,0,0.7071099,0.00014889521,0.00014918168,0.70711005,0.0,0.0,0.0,0.0,0
7744000,0,0.7071099,0.00014907158,0.00014935805,0.70711005,0.0,0.0,0.0,0.0,0
7756000,0,0.7071099,0.00014933615,0.00014962262,0.70711005,0.0,0.0,0.0,0.0,0
7764000,0,0.7071099,0.00014951252,0.00014979899,0.70711005,0.0,0.0,0.0,0.0,0
7776000,0,0.7071099,0.00014977709,0.00015006356,0.70711005,0.0,0.0,0.0,0.0,0
7784000,0,0.7071099,0.00014995347,0.00015023994,0.70711005,0.0,0.0,0.0,0.0,0
7796000,0,0.7071099,0.00015021804,0.0001505045,0.70711005,0.0,0.0,0.0,0.0,0
7804000,0,0.7071099,0.00015039441,0.00015068088,0.70711005,0.0,0.0,0.0,0.0,0
7816000,0,0.7071099,0.00015065898,0.00015094545,0.70711005,0.0,0.0,0.0,0.0,0
7824000,0,0.7071099,0.00015083535,0.00015112181,0.70711005,0.0,0.0,0.0,0.0,0
7836000,0,0.7071099,0.00015109991,0.00015138638,0.70711005,0.0,0.0,0.0,0.0,0
7844000,0,0.7071099,0.0001512763,0.00015156277,0.70711005,0.0,0.0,0.0,0.0,0
7856000,0,0.7071099,0.00015154085,0.00015182732,0.70711005,0.0,0.0,0.0,0.0,0
7864000,0,0.7071099,0.00015171723,0.0001520037,0.70711005,0.0,0.0,0.0,0.0,0
7876000,0,0.7071099,0.0001519818,0.00015226827,0.70711005,0.0,0.0,0.0,0.0,0
7884000,0,0.7071099,0.00015215817,0.00015244464,0.70711005,0.0,0.0,0.0,0.0,0
7896000,0,0.7071099,0.00015242274,0.00015270921,0.70711005,0.0,0.0,0.0,0.0,0
7900000,0,0.7071099,0.00015251093,0.0001527974,0.70711005,0.0,0.0,0.0,0.0,0
7916000,0,0.7071099,0.00015286368,0.00015315015,0.70711005,0.0,0.0,0.0,0.0,0
7924000,0,0.7071099,0.00015304006,0.00015332653,0.70711005,0.0,0.0,0.0,0.0,0
7936000,0,0.7071099,0.00015330463,0.0001535911,0.70711005,0.0,0.0,0.0,0.0,0
7944000,0,0.7071099,0.000153481,0.00015376747,0.70711005,0.0,0.0,0.0,0.0,0
7956000,0,0.7071099,0.00015374557,0.00015403204,0.70711005,0.0,0.0,0.0,0.0,0
7964000,0,0.7071099,0.00015392195,0.00015420842,0.70711005,0.0,0.0,0.0,0.0,0
7976000,0,0.7071099,0.0001541865,0.00015447297,0.70711005,0.0,0.0,0.0,0.0,0
7984000,0,0.7071099,0.00015436289,0.00015464936,0.70711005,0.0,0.0,0.0,0.0,0
7996000,0,0.7071099,0.00015462746,0.00015491393,0.70711005,0.0,0.0,0.0,0.0,0
8004000,0,0.7071099,0.00015480383,0.0001550903,0.70711005,0.0,0.0,0.0,0.0,0
8016000,0,0.7071099,0.0001550684,0.00015535486,0.70711005,0.0,0.0,0.0,0.0,0
8024000,0,0.7071099,0.00015524478,0.00015553125,0.70711005,0.0,0.0,0.0,0.0,0
8036000,0,0.7071099,0.00015550935,0.0001557958,0.70711005,0.0,0.0,0.0,0.0,0
8044000,0,0.7071099,0.00015568572,0.00015597219,0.70711005,0.0,0.0,0.0,0.0,0
8056000,0,0.7071099,0.00015595029,0.00015623675,0.70711005,0.0,0.0,0.0,0.0,0
8064000,0,0.7071099,0.00015612667,0.00015641312,0.70711005,0.0,0.0,0.0,0.0,0
8076000,0,0.7071099,0.00015639122,0.00015667769,0.70711005,0.0,0.0,0.0,0.0,0
8084000,0,0.7071099,0.0001565676,0.00015685408,0.70711005,0.0,0.0,0.0,0.0,0
8096000,0,0.7071099,0.00015683217,0.00015711864,0.70711005,0.0,0.0,0.0,0.0,0
8104000,0,0.7071099,0.00015700854,0.00015729501,0.70711005,0.0,0.0,0.0,0.0,0
8116000,0,0.7071099,0.00015727311,0.00015755958,0.70711005,0.0,0.0,0.0,0.0,0
8124000,0,0.7071099,0.0001574495,0.00015773597,0.70711005,0.0,0.0,0.0,0.0,0
8136000,0,0.7071099,0.00015771406,0.00015800052,0.70711005,0.0,0.0,0.0,0.0,0
8144000,0,0.7071099,0.00015789043,0.0001581769,0.70711005,0.0,0.0,0.0,0.0,0
8156000,0,0.7071099,0.000158155,0.00015844147,0.70711005,0.0,0.0,0.0,0.0,0
8164000,0,0.7071099,0.00015833139,0.00015861784,0.70711005,0.0,0.0,0.0,0.0,0
8176000,0,0.7071099,0.00015859594,0.00015888241,0.70711005,0.0,0.0,0.0,0.0,0
8184000,0,0.7071099,0.00015877232,0.00015905879,0.70711005,0.0,0.0,0.0,0.0,0
8196000,0,0.7071099,0.00015903689,0.00015932336,0.70711005,0.0,0.0,0.0,0.0,0
8204000,0,0.7071099,0.00015921326,0.00015949973,0.70711005,0.0,0.0,0.0,0.0,0
8216000,0,0.7071099,0.00015947783,0.0001597643,0.70711005,0.0,0.0,0.0,0.0,0
8224000,0,0.7071099,0.00015965421,0.00015994068,0.70711005,0.0,0.0,0.0,0.0,0
8236000,0,0.7071099,0.00015991878,0.00016020525,0.70711005,0.0,0.0,0.0,0.0,0
8244000,0,0.7071099,0.00016009515,0.00016038162,0.70711005,0.0,0.0,0.0,0.0,0
8256000,0,0.7071099,0.00016035972,0.00016064619,0.70711005,0.0,0.0,0.0,0.0,0
8264000,0,0.7071099,0.0001605361,0.00016082257,0.70711005,0.0,0.0,0.0,0.0,0
8276000,0,0.7071099,0.00016080067,0.00016108713,0.70711005,0.0,0.0,0.0,0.0,0
8284000,0,0.7071099,0.00016097704,0.00016126351,0.70711005,0.0,0.0,0.0,0.0,0
8296000,0,0.7071099,0.00016124161,0.00016152808,0.70711005,0.0,0.0,0.0,0.0,0
8304000,0,0.7071099,0.000161418,0.00016170445,0.70711005,0.0,0.0,0.0,0.0,0
8316000,0,0.7071099,0.00016168256,0.00016196902,0.70711005,0.0,0.0,0.0,0.0,0
8324000,0,0.7071099,0.00016185893,0.0001621454,0.70711005,0.0,0.0,0.0,0.0,0
8332000,0,0.7071099,0.00016203531,0.00016232178,0.70711005,0.0,0.0,0.0,0.0,0
8344000,0,0.7071099,0.00016229988,0.00016258634,0.70711005,0.0,0.0,0.0,0.0,0
8356000,0,0.7071099,0.00016256445,0.0001628509,0.70711005,0.0,0.0,0.0,0.0,0
8364000,0,0.7071099,0.00016274082,0.00016302729,0.70711005,0.0,0.0,0.0,0.0,0
8376000,0,0.7071099,0.00016300539,0.00016329186,0.70711005,0.0,0.0,0.0,0.0,0
8384000,0,0.7071099,0.00016318177,0.00016346823,0.70711005,0.0,0.0,0.0,0.0,0
8396000,0,0.7071099,0.00016344634,0.0001637328,0.70711005,0.0,0.0,0.0,0.0,0
8404000,0,0.7071099,0.00016362271,0.00016390918,0.70711005,0.0,0.0,0.0,0.0,0
8416000,0,0.7071099,0.00016388728,0.00016417375,0.70711005,0.0,0.0,0.0,0.0,0
8424000,0,0.7071099,0.00016406366,0.00016435012,0.70711005,0.0,0.0,0.0,0.0,0
8436000,0,0.7071099,0.00016432823,0.00016461468,0.70711005,0.0,0.0,0.0,0.0,0
8444000,0,0.7071099,0.0001645046,0.00016479107,0.70711005,0.0,0.0,0.0,0.0,0
8456000,0,0.7071099,0.00016476917,0.00016505564,0.70711005,0.0,0.0,0.0,0.0,0
8464000,0,0.7071099,0.00016494555,0.000165232,0.70711005,0.0,0.0,0.0,0.0,0
8476000,0,0.7071099,0.00016521012,0.00016549657,0.70711005,0.0,0.0,0.0,0.0,0
8484000,0,0.7071099,0.00016538649,0.00016567296,0.70711005,0.0,0.0,0.0,0.0,0
8496000,0,0.7071099,0.00016565106,0.00016593753,0.70711005,0.0,0.0,0.0,0.0,0
8504000,0,0.7071099,0.00016582744,0.00016611391,0.70711005,0.0,0.0,0.0,0.0,0
8516000,0,0.7071099,0.00016609201,0.00016637846,0.70711005,0.0,0.0,0.0,0.0,0
8524000,0,0.7071099,0.00016626838,0.00016655485,0.70711005,0.0,0.0,0.0,0.0,0
8536000,0,0.7071099,0.00016653295,0.00016681942,0.70711005,0.0,0.0,0.0,0.0,0
8544000,0,0.7071099,0.00016670933,0.0001669958,0.70711005,0.0,0.0,0.0,0.0,0
8556000,0,0.7071099,0.0001669739,0.00016726037,0.70711005,0.0,0.0,0.0,0.0,0
8564000,0,0.7071099,0.00016715027,0.00016743674,0.70711005,0.0,0.0,0.0,0.0,0
8576000,0,0.7071099,0.00016741484,0.0001677013,0.70711005,0.0,0.0,0.0,0.0,0
8584000,0,0.7071099,0.00016759122,0.00016787769,0.70711005,0.0,0.0,0.0,0.0,0
8596000,0,0.7071099,0.00016785579,0.00016814226,0.70711005,0.0,0.0,0.0,0.0,0
8604000,0,0.7071099,0.00016803217,0.00016831863,0.70711005,0.0,0.0,0.0,0.0,0
8616000,0,0.7071099,0.00016829673,0.0001685832,0.70711005,0.0,0.0,0.0,0.0,0
8624000,0,0.7071099,0.00016847311,0.00016875958,0.70711005,0.0,0.0,0.0,0.0,0
8636000,0,0.7071099,0.00016873768,0.00016902415,0.70711005,0.0,0.0,0.0,0.0,0
8644000,0,0.7071099,0.00016891406,0.00016920052,0.70711005,0.0,0.0,0.0,0.0,0
8656000,0,0.7071099,0.00016917863,0.00016946509,0.70711005,0.0,0.0,0.0,0.0,0
8664000,0,0.7071099,0.000169355,0.00016964147,0.70711005,0.0,0.0,0.0,0.0,0
8676000,0,0.7071099,0.00016961957,0.00016990604,0.70711005,0.0,0.0,0.0,0.0,0
8684000,0,0.7071099,0.00016979595,0.00017008242,0.70711005,0.0,0.0,0.0,0.0,0
8696000,0,0.7071099,0.00017006052,0.00017034699,0.70711005,0.0,0.0,0.0,0.0,0
8704000,0,0.7071099,0.00017023689,0.00017052336,0.70711005,0.0,0.0,0.0,0.0,0
8716000,0,0.7071099,0.00017050146,0.00017078793,0.70711005,0.0,0.0,0.0,0.0,0
8724000,0,0.7071099,0.00017067784,0.00017096431,0.70711005,0.0,0.0,0.0,0.0,0
8736000,0,0.7071099,0.00017094241,0.00017122888,0.70711005,0.0,0.0,0.0,0.0,0
8744000,0,0.7071099,0.0001711188,0.00017140525,0.70711005,0.0,0.0,0.0,0.0,0
8756000,0,0.7071099,0.00017138336,0.00017166982,0.70711005,0.0,0.0,0.0,0.0,0
8764000,0,0.7071099,0.00017155973,0.0001718462,0.70711005,0.0,0.0,0.0,0.0,0
8776000,0,0.7071099,0.0001718243,0.00017211077,0.70711005,0.0,0.0,0.0,0.0,0
8784000,0,0.7071099,0.00017200068,0.00017228715,0.70711005,0.0,0.0,0.0,0.0,0
8796000,0,0.7071099,0.00017226525,0.00017255172,0.70711005,0.0,0.0,0.0,0.0,0
8804000,0,0.7071099,0.00017244164,0.00017272809,0.70711005,0.0,0.0,0.0,0.0,0
8816000,0,0.7071099,0.0001727062,0.00017299266,0.70711005,0.0,0.0,0.0,0.0,0
8824000,0,0.7071099,0.00017288257,0.00017316904,0.70711005,0.0,0.0,0.0,0.0,0
8836000,0,0.7071099,0.00017314714,0.00017343361,0.70711005,0.0,0.0,0.0,0.0,0
8844000,0,0.7071099,0.00017332353,0.00017361,0.70711005,0.0,0.0,0.0,0.0,0
8856000,0,0.7071099,0.0001735881,0.00017387456,0.70711005,0.0,0.0,0.0,0.0,0
8864000,0,0.7071099,0.00017376448,0.00017405093,0.70711005,0.0,0.0,0.0,0.0,0
8876000,0,0.7071099,0.00017402905,0.0001743155,0.70711005,0.0,0.0,0.0,0.0,0
8884000,0,0.7071099,0.00017420542,0.00017449188,0.70711005,0.0,0.0,0.0,0.0,0
8896000,0,0.7071099,0.00017446998,0.00017475645,0.70711005,0.0,0.0,0.0,0.0,0
8904000,0,0.7071099,0.00017464637,0.00017493284,0.70711005,0.0,0.0,0.0,0.0,0
8916000,0,0.7071099,0.00017491094,0.0001751974,0.70711005,0.0,0.0,0.0,0.0,0
8924000,0,0.7071099,0.00017508732,0.00017537377,0.70711005,0.0,0.0,0.0,0.0,0
8936000,0,0.7071099,0.00017535189,0.00017563834,0.70711005,0.0,0.0,0.0,0.0,0
8944000,0,0.7071099,0.00017552826,0.00017581473,0.70711005,0.0,0.0,0.0,0.0,0
8956000,0,0.7071099,0.00017579283,0.0001760793,0.70711005,0.0,0.0,0.0,0.0,0
8964000,0,0.7071099,0.00017596921,0.00017625568,0.70711005,0.0,0.0,0.0,0.0,0
8976000,0,0.7071099,0.00017623378,0.00017652025,0.70711005,0.0,0.0,0.0,0.0,0
8984000,0,0.7071099,0.00017641016,0.00017669662,0.70711005,0.0,0.0,0.0,0.0,0
8996000,0,0.7071099,0.00017667473,0.00017696118,0.70711005,0.0,0.0,0.0,0.0,0
9004000,0,0.7071099,0.0001768511,0.00017713757,0.70711005,0.0,0.0,0.0,0.0,0
9016000,0,0.7071099,0.00017711567,0.00017740214,0.70711005,0.0,0.0,0.0,0.0,0
9024000,0,0.7071099,0.00017729205,0.00017757852,0.70711005,0.0,0.0,0.0,0.0,0
9036000,0,0.7071099,0.00017755662,0.00017784309,0.70711005,0.0,0.0,0.0,0.0,0
9044000,0,0.7071099,0.000177733,0.00017801947,0.70711005,0.0,0.0,0.0,0.0,0
9056000,0,0.7071099,0.00017799757,0.00017828404,0.70711005,0.0,0.0,0.0,0.0,0
9064000,0,0.7071099,0.00017817396,0.00017846041,0.70711005,0.0,0.0,0.0,0.0,0
9076000,0,0.7071099,0.00017843852,0.00017872498,0.70711005,0.0,0.0,0.0,0.0,0
9084000,0,0.7071099,0.0001786149,0.00017890136,0.70711005,0.0,0.0,0.0,0.0,0
9096000,0,0.7071099,0.00017887946,0.00017916593,0.70711005,0.0,0.0,0.0,0.0,0
9104000,0,0.7071099,0.00017905585,0.00017934231,0.70711005,0.0,0.0,0.0,0.0,0
9116000,0,0.7071099,0.00017932041,0.00017960688,0.70711005,0.0,0.0,0.0,0.0,0
9124000,0,0.7071099,0.0001794968,0.00017978325,0.70711005,0.0,0.0,0.0,0.0,0
9136000,0,0.7071099,0.00017976137,0.00018004783,0.70711005,0.0,0.0,0.0,0.0,0
9144000,0,0.7071099,0.00017993775,0.0001802242,0.70711005,0.0,0.0,0.0,0.0,0
9156000,0,0.7071099,0.00018020232,0.00018048877,0.70711005,0.0,0.0,0.0,0.0,0
9164000,0,0.7071099,0.00018037869,0.00018066516,0.70711005,0.0,0.0,0.0,0.0,0
9176000,0,0.7071099,0.00018064326,0.00018092972,0.70711005,0.0,0.0,0.0,0.0,0
9184000,0,0.7071099,0.00018081964,0.00018110611,0.70711005,0.0,0.0,0.0,0.0,0
9196000,0,0.7071099,0.00018108421,0.00018137068,0.70711005,0.0,0.0,0.0,0.0,0
9204000,0,0.7071099,0.00018126059,0.00018154706,0.70711005,0.0,0.0,0.0,0.0,0
9216000,0,0.7071099,0.00018152516,0.00018181163,0.70711005,0.0,0.0,0.0,0.0,0
9224000,0,0.7071099,0.00018170154,0.000181988,0.70711005,0.0,0.0,0.0,0.0,0
9236000,0,0.7071099,0.00018196611,0.00018225257,0.70711005,0.0,0.0,0.0,0.0,0
9244000,0,0.7071099,0.0001821425,0.00018242895,0.70711005,0.0,0.0,0.0,0.0,0
9256000,0,0.7071099,0.00018240706,0.00018269352,0.70711005,0.0,0.0,0.0,0.0,0
9264000,0,0.7071099,0.00018258343,0.0001828699,0.70711005,0.0,0.0,0.0,0.0,0
9276000,0,0.7071099,0.000182848,0.00018313447,0.70711005,0.0,0.0,0.0,0.0,0
9284000,0,0.7071099,0.00018302439,0.00018331085,0.70711005,0.0,0.0,0.0,0.0,0
