timestamp,timestamp_sample,latitude_deg,longitude_deg,altitude_msl_m,altitude_ellipsoid_m,time_utc_usec,device_id,s_variance_m_s,c_variance_rad,eph,epv,hdop,vdop,noise_per_ms,jamming_indicator,vel_m_s,vel_n_m_s,vel_e_m_s,vel_d_m_s,cog_rad,timestamp_time_relative,heading,heading_offset,heading_accuracy,rtcm_injection_rate,automatic_gain_control,fix_type,jamming_state,spoofing_state,vel_ned_valid,satellites_used,selected_rtcm_instance,rtcm_crc_failed,rtcm_msg_used
1488000,0,47.3977508,8.5456074,488.44800000000004,488.44800000000004,1756152890804563,11468804,0.25,0.5,1.0,1.0,0.0,0.0,0,0,0.0,0.02,-0.01,2.69,5.757492,0,nan,nan,0.0,0.0,0,3,0,0,1,10,0,0,0
1888000,0,47.3977508,8.5456074,488.1,488.1,1756152891204563,0,0.25,0.5,1.0,1.0,0.0,0.0,0,0,0.0,0.0,0.0,-0.02,4.5327945,0,nan,nan,0.0,0.0,0,3,0,0,1,10,0,0,0
2288000,0,47.3977508,8.5456073,488.1,488.1,1756152891608563,0,0.25,0.5,1.0,1.0,0.0,0.0,0,0,0.0,0.0,-0.01,0.0,4.5216246,0,nan,nan,0.0,0.0,0,3,0,0,1,10,0,0,0
2688000,0,47.3977508,8.5456074,488.107,488.107,1756152892004563,0,0.25,0.5,1.0,1.0,0.0,0.0,0,0,0.0,-0.02,-0.01,-0.01,3.7936475,0,nan,nan,0.0,0.0,0,3,0,0,1,10,0,0,0
3088000,0,47.3977508,8.5456074,488.106,488.106,1756152892408563,0,0.25,0.5,1.0,1.0,0.0,0.0,0,0,0.0,0.0,0.0,-0.01,1.3346533,0,nan,nan,0.0,0.0,0,3,0,0,1,10,0,0,0
3488000,0,47.3977508,8.5456074,488.1,488.1,1756152892804563,0,0.25,0.5,1.0,1.0,0.0,0.0,0,0,0.0,0.02,0.03,0.0,0.9393362,0,nan,nan,0.0,0.0,0,3,0,0,1,10,0,0,0
3888000,0,47.3977508,8.5456074,488.101,488.101,1756152893208563,0,0.25,0.5,1.0,1.0,0.0,0.0,0,0,0.0,0.03,0.0,0.0,6.1179028,0,nan,nan,0.0,0.0,0,3,0,0,1,10,0,0,0
4288000,0,47.3977508,8.5456074,488.103,488.103,1756152893604563,0,0.25,0.5,1.0,1.0,0.0,0.0,0,0,0.0,0.02,0.0,0.0,0.3115413,0,nan,nan,0.0,0.0,0,3,0,0,1,10,0,0,0
4688000,0,47.3977508,8.5456074,488.11,488.11,1756152894008563,0,0.25,0.5,1.0,1.0,0.0,0.0,0,0,0.0,0.0,-0.01,0.01,5.0005426,0,nan,nan,0.0,0.0,0,3,0,0,1,10,0,0,0
5088000,0,47.3977508,8.5456073,488.101,488.101,1756152894408563,0,0.25,0.5,1.0,1.0,0.0,0.0,0,0,0.0,0.0,0.01,0.01,1.6543976,0,nan,nan,0.0,0.0,0,3,0,0,1,10,0,0,0
5488000,0,47.3977508,8.5456074,488.10200000000003,488.10200000000003,1756152894804563,0,0.25,0.5,1.0,1.0,0.0,0.0,0,0,0.0,0.02,0.01,-0.04,0.5338962,0,nan,nan,0.0,0.0,0,3,0,0,1,10,0,0,0
5888000,0,47.3977508,8.5456074,488.101,488.101,1756152895204563,0,0.25,0.5,1.0,1.0,0.0,0.0,0,0,0.0,0.01,0.0,-0.03,5.8252106,0,nan,nan,0.0,0.0,0,3,0,0,1,10,0,0,0
6288000,0,47.3977508,8.5456074,488.098,488.098,1756152895604563,0,0.25,0.5,1.0,1.0,0.0,0.0,0,0,0.0,0.0,0.0,-0.03,0.7305948,0,nan,nan,0.0,0.0,0,3,0,0,1,10,0,0,0
6688000,0,47.3977508,8.5456074,488.103,488.103,1756152896008563,0,0.25,0.5,1.0,1.0,0.0,0.0,0,0,0.0,0.0,0.0,-0.04,0.972672,0,nan,nan,0.0,0.0,0,3,0,0,1,10,0,0,0
7088000,0,47.3977508,8.5456074,488.096,488.096,1756152896408563,0,0.25,0.5,1.0,1.0,0.0,0.0,0,0,0.0,0.0,0.0,0.02,2.1193533,0,nan,nan,0.0,0.0,0,3,0,0,1,10,0,0,0
7488000,0,47.3977508,8.5456074,488.10900000000004,488.10900000000004,1756152896804563,0,0.25,0.5,1.0,1.0,0.0,0.0,0,0,0.0,-0.01,-0.01,-0.01,3.7323864,0,nan,nan,0.0,0.0,0,3,0,0,1,10,0,0,0
7892000,0,47.3977508,8.5456074,488.10900000000004,488.10900000000004,1756152897204563,0,0.25,0.5,1.0,1.0,0.0,0.0,0,0,0.0,0.0,0.01,0.02,1.362404,0,nan,nan,0.0,0.0,0,3,0,0,1,10,0,0,0
8288000,0,47.3977508,8.5456074,488.104,488.104,1756152897608563,0,0.25,0.5,1.0,1.0,0.0,0.0,0,0,0.0,0.01,0.0,0.049999997,0.583289,0,nan,nan,0.0,0.0,0,3,0,0,1,10,0,0,0
8684000,0,47.3977508,8.5456074,488.101,488.101,1756152898008563,0,0.25,0.5,1.0,1.0,0.0,0.0,0,0,0.0,-0.01,-0.01,0.03,4.1149626,0,nan,nan,0.0,0.0,0,3,0,0,1,10,0,0,0
9088000,0,47.397750699999996,8.5456074,488.105,488.105,1756152898404563,0,0.25,0.5,1.0,1.0,0.0,0.0,0,0,0.0,0.0,0.0,-0.01,4.082674,0,nan,nan,0.0,0.0,0,3,0,0,1,10,0,0,0
9484000,0,47.3977508,8.5456074,488.103,488.103,1756152898804563,0,0.25,0.5,1.0,1.0,0.0,0.0,0,0,0.0,-0.02,0.0,0.049999997,3.0592132,0,nan,nan,0.0,0.0,0,3,0,0,1,10,0,0,0
9888000,0,47.3977508,8.5456074,488.106,488.106,1756152899208563,0,0.25,0.5,1.0,1.0,0.0,0.0,0,0,0.0,0.0,0.0,-0.01,5.9728656,0,nan,nan,0.0,0.0,0,3,0,0,1,10,0,0,0
10288000,0,47.3977508,8.5456074,488.101,488.101,1756152899604563,0,0.25,0.5,1.0,1.0,0.0,0.0,0,0,0.0,0.0,-0.02,0.0,5.007873,0,nan,nan,0.0,0.0,0,3,0,0,1,10,0,0,0
10688000,0,47.3977508,8.5456074,488.094,488.094,1756152900008563,0,0.25,0.5,1.0,1.0,0.0,0.0,0,0,0.0,-0.01,0.0,0.0,2.924997,0,nan,nan,0.0,0.0,0,3,0,0,1,10,0,0,0
11088000,0,47.3977508,8.5456075,488.092,488.092,1756152900404563,0,0.25,0.5,1.0,1.0,0.0,0.0,0,0,0.0,-0.01,0.01,0.0,2.3263493,0,nan,nan,0.0,0.0,0,3,0,0,1,10,0,0,0
11488000,0,47.3977508,8.5456074,488.096,488.096,1756152900804563,0,0.25,0.5,1.0,1.0,0.0,0.0,0,0,0.0,0.0,0.0,0.02,2.4801128,0,nan,nan,0.0,0.0,0,3,0,0,1,10,0,0,0
11888000,0,47.3977508,8.5456074,488.09700000000004,488.09700000000004,1756152901208563,0,0.25,0.5,1.0,1.0,0.0,0.0,0,0,0.0,0.01,-0.02,0.01,5.4747486,0,nan,nan,0.0,0.0,0,3,0,0,1,10,0,0,0
12288000,0,47.3977508,8.5456074,488.113,488.113,1756152901604563,0,0.25,0.5,1.0,1.0,0.0,0.0,0,0,0.0,0.01,0.0,0.02,0.23998277,0,nan,nan,0.0,0.0,0,3,0,0,1,10,0,0,0
12688000,0,47.397750699999996,8.5456074,488.11,488.11,1756152902008563,0,0.25,0.5,1.0,1.0,0.0,0.0,0,0,0.0,0.02,0.01,0.0,0.5305801,0,nan,nan,0.0,0.0,0,3,0,0,1,10,0,0,0
13088000,0,47.3977508,8.5456074,488.103,488.103,1756152902404563,0,0.25,0.5,1.0,1.0,0.0,0.0,0,0,0.0,0.01,0.0,-0.01,0.36966074,0,nan,nan,0.0,0.0,0,3,0,0,1,10,0,0,0
13488000,0,47.3977508,8.5456074,488.103,488.103,1756152902804563,0,0.25,0.5,1.0,1.0,0.0,0.0,0,0,0.0,-0.01,0.01,-0.03,2.3364723,0,nan,nan,0.0,0.0,0,3,0,0,1,10,0,0,0
13888000,0,47.3977508,8.5456074,488.105,488.105,1756152903208563,0,0.25,0.5,1.0,1.0,0.0,0.0,0,0,0.0,0.01,0.0,0.01,0.14381513,0,nan,nan,0.0,0.0,0,3,0,0,1,10,0,0,0
14288000,0,47.3977508,8.5456074,488.10900000000004,488.10900000000004,1756152903604563,0,0.25,0.5,1.0,1.0,0.0,0.0,0,0,0.0,-0.03,0.0,-0.02,3.249803,0,nan,nan,0.0,0.0,0,3,0,0,1,10,0,0,0
14688000,0,47.3977508,8.5456075,488.11,488.11,1756152904008563,0,0.25,0.5,1.0,1.0,0.0,0.0,0,0,0.0,0.02,0.0,0.03,0.37646753,0,nan,nan,0.0,0.0,0,3,0,0,1,10,0,0,0
15088000,0,47.3977508,8.5456073,488.11,488.11,1756152904404563,0,0.25,0.5,1.0,1.0,0.0,0.0,0,0,0.0,0.0,0.0,-0.01,2.5588272,0,nan,nan,0.0,0.0,0,3,0,0,1,10,0,0,0
15488000,0,47.3977508,8.5456074,488.107,488.107,1756152904804563,0,0.25,0.5,1.0,1.0,0.0,0.0,0,0,0.0,0.01,-0.01,0.0,5.3832936,0,nan,nan,0.0,0.0,0,3,0,0,1,10,0,0,0
15888000,0,47.3977508,8.5456074,488.108,488.108,1756152905208563,0,0.25,0.5,1.0,1.0,0.0,0.0,0,0,0.0,0.02,0.0,-0.02,0.1940806,0,nan,nan,0.0,0.0,0,3,0,0,1,10,0,0,0
16288000,0,47.3977508,8.5456074,488.116,488.116,1756152905608563,0,0.25,0.5,1.0,1.0,0.0,0.0,0,0,0.0,0.0,0.0,0.0,3.814766,0,nan,nan,0.0,0.0,0,3,0,0,1,10,0,0,0
16688000,0,47.3977508,8.5456073,488.099,488.099,1756152906004563,0,0.25,0.5,1.0,1.0,0.0,0.0,0,0,0.0,0.0,0.0,-0.01,0.9063495,0,nan,nan,0.0,0.0,0,3,0,0,1,10,0,0,0
17088000,0,47.3977508,8.5456073,488.106,488.106,1756152906404563,0,0.25,0.5,1.0,1.0,0.0,0.0,0,0,0.0,0.0,0.0,-0.01,3.6246996,0,nan,nan,0.0,0.0,0,3,0,0,1,10,0,0,0
17488000,0,47.3977508,8.5456074,488.098,488.098,1756152906804563,0,0.25,0.5,1.0,1.0,0.0,0.0,0,0,0.0,0.0,-0.01,-0.01,4.272217,0,nan,nan,0.0,0.0,0,3,0,0,1,10,0,0,0
17888000,0,47.3977508,8.5456074,488.101,488.101,1756152907208563,0,0.25,0.5,1.0,1.0,0.0,0.0,0,0,0.0,0.0,0.0,0.01,5.1354566,0,nan,nan,0.0,0.0,0,3,0,0,1,10,0,0,0
18288000,0,47.3977508,8.5456074,488.106,488.106,1756152907608563,0,0.25,0.5,1.0,1.0,0.0,0.0,0,0,0.0,-0.02,0.02,-0.03,2.2739894,0,nan,nan,0.0,0.0,0,3,0,0,1,10,0,0,0
18688000,0,47.3977508,8.5456074,488.105,488.105,1756152908004563,0,0.25,0.5,1.0,1.0,0.0,0.0,0,0,0.0,-0.01,-0.01,-0.049999997,3.827856,0,nan,nan,0.0,0.0,0,3,0,0,1,10,0,0,0
19088000,0,47.3977508,8.5456074,488.10200000000003,488.10200000000003,1756152908404563,0,0.25,0.5,1.0,1.0,0.0,0.0,0,0,0.0,0.0,-0.01,0.02,4.9349184,0,nan,nan,0.0,0.0,0,3,0,0,1,10,0,0,0
19488000,0,47.3977508,8.5456073,488.09700000000004,488.09700000000004,1756152908804563,0,0.25,0.5,1.0,1.0,0.0,0.0,0,0,0.0,0.02,0.0,0.02,5.9142222,0,nan,nan,0.0,0.0,0,3,0,0,1,10,0,0,0
19888000,0,47.3977508,8.5456074,488.1,488.1,1756152909208563,0,0.25,0.5,1.0,1.0,0.0,0.0,0,0,0.0,0.01,0.0,0.01,6.0323815,0,nan,nan,0.0,0.0,0,3,0,0,1,10,0,0,0
20288000,0,47.3977508,8.5456074,488.103,488.103,1756152909608563,0,0.25,0.5,1.0,1.0,0.0,0.0,0,0,0.0,0.0,0.0,0.02,5.8466783,0,nan,nan,0.0,0.0,0,3,0,0,1,10,0,0,0
20688000,0,47.3977508,8.5456074,488.098,488.098,1756152910004563,0,0.25,0.5,1.0,1.0,0.0,0.0,0,0,0.0,0.02,0.0,-0.03,5.968851,0,nan,nan,0.0,0.0,0,3,0,0,1,10,0,0,0
21088000,0,47.3977508,8.5456074,488.113,488.113,1756152910404563,0,0.25,0.5,1.0,1.0,0.0,0.0,0,0,0.0,0.0,0.0,0.0,5.9044485,0,nan,nan,0.0,0.0,0,3,0,0,1,10,0,0,0
21488000,0,47.3977508,8.5456074,488.099,488.099,1756152910804563,0,0.25,0.5,1.0,1.0,0.0,0.0,0,0,0.0,0.0,0.0,-0.02,0.17488198,0,nan,nan,0.0,0.0,0,3,0,0,1,10,0,0,0
21888000,0,47.3977508,8.5456074,488.107,488.107,1756152911208563,0,0.25,0.5,1.0,1.0,0.0,0.0,0,0,0.0,-0.01,0.0,0.02,3.3217106,0,nan,nan,0.0,0.0,0,3,0,0,1,10,0,0,0
22288000,0,47.3977508,8.5456074,488.113,488.113,1756152911608563,0,0.25,0.5,1.0,1.0,0.0,0.0,0,0,0.0,0.0,0.0,-0.03,2.874208,0,nan,nan,0.0,0.0,0,3,0,0,1,10,0,0,0
22688000,0,47.3977508,8.5456075,488.1,488.1,1756152912004563,0,0.25,0.5,1.0,1.0,0.0,0.0,0,0,0.0,0.0,0.0,-0.01,3.552792,0,nan,nan,0.0,0.0,0,3,0,0,1,10,0,0,0
23088000,0,47.3977508,8.5456074,488.09700000000004,488.09700000000004,1756152912404563,0,0.25,0.5,1.0,1.0,0.0,0.0,0,0,0.0,0.0,0.01,-0.02,1.4316936,0,nan,nan,0.0,0.0,0,3,0,0,1,10,0,0,0
23488000,0,47.3977508,8.5456074,488.095,488.095,1756152912804563,0,0.25,0.5,1.0,1.0,0.0,0.0,0,0,0.0,-0.01,0.03,-0.03,1.8629644,0,nan,nan,0.0,0.0,0,3,0,0,1,10,0,0,0
23888000,0,47.3977508,8.5456074,488.107,488.107,1756152913208563,0,0.25,0.5,1.0,1.0,0.0,0.0,0,0,0.0,0.0,0.0,0.01,3.9034288,0,nan,nan,0.0,0.0,0,3,0,0,1,10,0,0,0
24288000,0,47.3977508,8.5456073,488.104,488.104,1756152913608563,0,0.25,0.5,1.0,1.0,0.0,0.0,0,0,0.0,-0.01,0.0,0.02,3.2328732,0,nan,nan,0.0,0.0,0,3,0,0,1,10,0,0,0
24688000,0,47.3977508,8.5456073,488.105,488.105,1756152914004563,0,0.25,0.5,1.0,1.0,0.0,0.0,0,0,0.0,0.01,0.02,-0.01,0.97424275,0,nan,nan,0.0,0.0,0,3,0,0,1,10,0,0,0
25088000,0,47.3977508,8.5456074,488.104,488.104,1756152914404563,0,0.25,0.5,1.0,1.0,0.0,0.0,0,0,0.0,0.0,-0.02,0.01,4.739965,0,nan,nan,0.0,0.0,0,3,0,0,1,10,0,0,0
25488000,0,47.3977508,8.5456074,488.10200000000003,488.10200000000003,1756152914804563,0,0.25,0.5,1.0,1.0,0.0,0.0,0,0,0.0,0.0,0.0,0.01,5.801823,0,nan,nan,0.0,0.0,0,3,0,0,1,10,0,0,0
25888000,0,47.3977508,8.5456074,488.094,488.094,1756152915208563,0,0.25,0.5,1.0,1.0,0.0,0.0,0,0,0.0,0.0,0.01,0.0,2.105565,0,nan,nan,0.0,0.0,0,3,0,0,1,10,0,0,0
26288000,0,47.3977508,8.5456074,488.105,488.105,1756152915608563,0,0.25,0.5,1.0,1.0,0.0,0.0,0,0,0.0,0.0,0.02,-0.01,1.7704619,0,nan,nan,0.0,0.0,0,3,0,0,1,10,0,0,0
26688000,0,47.3977508,8.5456074,488.106,488.106,1756152916004563,0,0.25,0.5,1.0,1.0,0.0,0.0,0,0,0.0,0.0,-0.01,-0.02,4.524766,0,nan,nan,0.0,0.0,0,3,0,0,1,10,0,0,0
27088000,0,47.3977508,8.5456074,488.09700000000004,488.09700000000004,1756152916404563,0,0.25,0.5,1.0,1.0,0.0,0.0,0,0,0.0,0.0,0.0,0.0,5.0431285,0,nan,nan,0.0,0.0,0,3,0,0,1,10,0,0,0
27488000,0,47.3977508,8.5456074,488.104,488.104,1756152916804563,0,0.25,0.5,1.0,1.0,0.0,0.0,0,0,0.0,0.0,0.0,0.0,2.0861921,0,nan,nan,0.0,0.0,0,3,0,0,1,10,0,0,0
27888000,0,47.3977508,8.5456074,488.106,488.106,1756152917208563,0,0.25,0.5,1.0,1.0,0.0,0.0,0,0,0.0,0.0,0.0,-0.02,1.2819443,0,nan,nan,0.0,0.0,0,3,0,0,1,10,0,0,0
28288000,0,47.3977508,8.5456074,488.09700000000004,488.09700000000004,1756152917608563,0,0.25,0.5,1.0,1.0,0.0,0.0,0,0,0.0,0.0,-0.01,0.01,4.654269,0,nan,nan,0.0,0.0,0,3,0,0,1,10,0,0,0
28688000,0,47.3977509,8.5456073,488.092,488.092,1756152918004563,0,0.25,0.5,1.0,1.0,0.0,0.0,0,0,0.0,0.0,0.02,0.01,1.2444197,0,nan,nan,0.0,0.0,0,3,0,0,1,10,0,0,0
29088000,0,47.3977508,8.5456074,488.11,488.11,1756152918404563,0,0.25,0.5,1.0,1.0,0.0,0.0,0,0,0.0,-0.01,0.0,-0.01,2.842792,0,nan,nan,0.0,0.0,0,3,0,0,1,10,0,0,0
29488000,0,47.3977508,8.5456074,488.099,488.099,1756152918804563,0,0.25,0.5,1.0,1.0,0.0,0.0,0,0,0.0,0.0,0.0,0.0,1.651605,0,nan,nan,0.0,0.0,0,3,0,0,1,10,0,0,0
29888000,0,47.3977508,8.5456074,488.107,488.107,1756152919208563,0,0.25,0.5,1.0,1.0,0.0,0.0,0,0,0.0,0.01,0.0,-0.04,0.19006634,0,nan,nan,0.0,0.0,0,3,0,0,1,10,0,0,0
30284000,0,47.3977508,8.5456074,488.113,488.113,1756152919608563,0,0.25,0.5,1.0,1.0,0.0,0.0,0,0,0.0,0.0,0.0,0.02,5.1104984,0,nan,nan,0.0,0.0,0,3,0,0,1,10,0,0,0
30688000,0,47.3977508,8.5456074,488.1,488.1,1756152920004563,0,0.25,0.5,1.0,1.0,0.0,0.0,0,0,0.0,0.0,0.0,0.01,6.048613,0,nan,nan,0.0,0.0,0,3,0,0,1,10,0,0,0
31088000,0,47.3977508,8.5456073,488.10200000000003,488.10200000000003,1756152920404563,0,0.25,0.5,1.0,1.0,0.0,0.0,0,0,0.0,0.01,0.0,0.0,0.4738569,0,nan,nan,0.0,0.0,0,3,0,0,1,10,0,0,0
31488000,0,47.3977508,8.5456074,488.093,488.093,1756152920804563,0,0.25,0.5,1.0,1.0,0.0,0.0,0,0,0.0,0.01,0.0,0.03,5.7709312,0,nan,nan,0.0,0.0,0,3,0,0,1,10,0,0,0
31888000,0,47.3977508,8.5456074,488.10900000000004,488.10900000000004,1756152921208563,0,0.25,0.5,1.0,1.0,0.0,0.0,0,0,0.0,0.0,-0.01,-0.07,4.2615705,0,nan,nan,0.0,0.0,0,3,0,0,1,10,0,0,0
32288000,0,47.3977508,8.5456074,488.103,488.103,1756152921608563,0,0.25,0.5,1.0,1.0,0.0,0.0,0,0,0.0,0.0,0.0,0.02,4.0208893,0,nan,nan,0.0,0.0,0,3,0,0,1,10,0,0,0
32688000,0,47.3977508,8.5456074,488.10200000000003,488.10200000000003,1756152922004563,0,0.25,0.5,1.0,1.0,0.0,0.0,0,0,0.0,0.0,0.01,0.02,1.845162,0,nan,nan,0.0,0.0,0,3,0,0,1,10,0,0,0
33088000,0,47.3977508,8.5456074,488.106,488.106,1756152922408563,0,0.25,0.5,1.0,1.0,0.0,0.0,0,0,0.0,0.0,0.0,0.02,3.6252232,0,nan,nan,0.0,0.0,0,3,0,0,1,10,0,0,0
33488000,0,47.397750699999996,8.5456074,488.103,488.103,1756152922804563,0,0.25,0.5,1.0,1.0,0.0,0.0,0,0,0.0,0.01,0.0,0.0,0.60632735,0,nan,nan,0.0,0.0,0,3,0,0,1,10,0,0,0
33888000,0,47.3977508,8.5456074,488.093,488.093,1756152923204563,0,0.25,0.5,1.0,1.0,0.0,0.0,0,0,0.0,0.01,0.0,0.04,5.8108993,0,nan,nan,0.0,0.0,0,3,0,0,1,10,0,0,0
34288000,0,47.3977508,8.5456075,488.094,488.094,1756152923608563,0,0.25,0.5,1.0,1.0,0.0,0.0,0,0,0.0,-0.01,-0.01,0.0,3.7177258,0,nan,nan,0.0,0.0,0,3,0,0,1,10,0,0,0
34688000,0,47.3977508,8.5456074,488.088,488.088,1756152924004563,0,0.25,0.5,1.0,1.0,0.0,0.0,0,0,0.0,0.0,-0.02,-0.099999994,5.110324,0,nan,nan,0.0,0.0,0,3,0,0,1,10,0,0,0
35088000,0,47.3977508,8.5456074,488.108,488.108,1756152924408563,0,0.25,0.5,1.0,1.0,0.0,0.0,0,0,0.0,0.0,0.01,0.0,1.2868311,0,nan,nan,0.0,0.0,0,3,0,0,1,10,0,0,0
35488000,0,47.3977508,8.5456074,488.104,488.104,1756152924804563,0,0.25,0.5,1.0,1.0,0.0,0.0,0,0,0.0,0.02,-0.01,0.0,5.8163095,0,nan,nan,0.0,0.0,0,3,0,0,1,10,0,0,0
35892000,0,47.3977508,8.5456074,488.096,488.096,1756152925204563,0,0.25,0.5,1.0,1.0,0.0,0.0,0,0,0.0,0.01,-0.01,0.04,5.5555573,0,nan,nan,0.0,0.0,0,3,0,0,1,10,0,0,0
36288000,0,47.3977508,8.5456074,488.098,488.098,1756152925608563,0,0.25,0.5,1.0,1.0,0.0,0.0,0,0,0.0,0.0,0.0,0.03,5.1298714,0,nan,nan,0.0,0.0,0,3,0,0,1,10,0,0,0
36688000,0,47.3977508,8.5456074,488.10200000000003,488.10200000000003,1756152926004563,0,0.25,0.5,1.0,1.0,0.0,0.0,0,0,0.0,0.02,0.01,-0.03,0.5237733,0,nan,nan,0.0,0.0,0,3,0,0,1,10,0,0,0
37088000,0,47.3977508,8.5456074,488.113,488.113,1756152926408563,0,0.25,0.5,1.0,1.0,0.0,0.0,0,0,0.0,0.02,0.01,-0.01,0.750317,0,nan,nan,0.0,0.0,0,3,0,0,1,10,0,0,0
37488000,0,47.3977508,8.5456074,488.104,488.104,1756152926804563,0,0.25,0.5,1.0,1.0,0.0,0.0,0,0,0.0,0.0,0.0,0.02,4.1381755,0,nan,nan,0.0,0.0,0,3,0,0,1,10,0,0,0
37888000,0,47.3977508,8.5456074,488.10200000000003,488.10200000000003,1756152927204563,0,0.25,0.5,1.0,1.0,0.0,0.0,0,0,0.0,0.0,0.0,0.0,3.5814157,0,nan,nan,0.0,0.0,0,3,0,0,1,10,0,0,0
38288000,0,47.3977508,8.5456075,488.101,488.101,1756152927608563,0,0.25,0.5,1.0,1.0,0.0,0.0,0,0,0.0,0.01,-0.01,0.01,5.6862826,0,nan,nan,0.0,0.0,0,3,0,0,1,10,0,0,0
38688000,0,47.3977508,8.5456074,488.1,488.1,1756152928004563,0,0.25,0.5,1.0,1.0,0.0,0.0,0,0,0.0,0.0,0.02,-0.01,1.2850859,0,nan,nan,0.0,0.0,0,3,0,0,1,10,0,0,0
39088000,0,47.3977508,8.5456074,488.11,488.11,1756152928408563,0,0.25,0.5,1.0,1.0,0.0,0.0,0,0,0.0,0.0,0.01,0.0,1.5399039,0,nan,nan,0.0,0.0,0,3,0,0,1,10,0,0,0
39488000,0,47.3977508,8.5456074,488.10200000000003,488.10200000000003,1756152928804563,0,0.25,0.5,1.0,1.0,0.0,0.0,0,0,0.0,0.01,0.0,0.03,0.6661921,0,nan,nan,0.0,0.0,0,3,0,0,1,10,0,0,0
39888000,0,47.3977508,8.5456075,488.115,488.115,1756152929204563,0,0.25,0.5,1.0,1.0,0.0,0.0,0,0,0.0,0.01,0.0,-0.01,5.806885,0,nan,nan,0.0,0.0,0,3,0,0,1,10,0,0,0
40288000,0,47.3977508,8.5456074,488.10900000000004,488.10900000000004,1756152929608563,0,0.25,0.5,1.0,1.0,0.0,0.0,0,0,0.0,-0.01,0.0,-0.01,2.5642376,0,nan,nan,0.0,0.0,0,3,0,0,1,10,0,0,0
40688000,0,47.3977508,8.5456074,488.10900000000004,488.10900000000004,1756152930004563,0,0.25,0.5,1.0,1.0,0.0,0.0,0,0,0.0,0.01,0.0,-0.01,5.8643064,0,nan,nan,0.0,0.0,0,3,0,0,1,10,0,0,0
41084000,0,47.3977508,8.5456074,488.10900000000004,488.10900000000004,1756152930408563,0,0.25,0.5,1.0,1.0,0.0,0.0,0,0,0.0,-0.01,0.0,0.0,3.3400364,0,nan,nan,0.0,0.0,0,3,0,0,1,10,0,0,0
41488000,0,47.3977508,8.5456074,488.10200000000003,488.10200000000003,1756152930804563,0,0.25,0.5,1.0,1.0,0.0,0.0,0,0,0.0,0.0,0.01,0.0,1.1185814,0,nan,nan,0.0,0.0,0,3,0,0,1,10,0,0,0
41888000,0,47.3977508,8.5456075,488.096,488.096,1756152931204563,0,0.25,0.5,1.0,1.0,0.0,0.0,0,0,0.0,0.01,0.0,0.0,0.44383723,0,nan,nan,0.0,0.0,0,3,0,0,1,10,0,0,0
42284000,0,47.3977508,8.5456074,488.1,488.1,1756152931608563,0,0.25,0.5,1.0,1.0,0.0,0.0,0,0,0.0,0.01,0.0,0.0,0.5953318,0,nan,nan,0.0,0.0,0,3,0,0,1,10,0,0,0
42688000,0,47.3977508,8.5456074,488.11,488.11,1756152932004563,0,0.25,0.5,1.0,1.0,0.0,0.0,0,0,0.0,0.0,0.0,0.0,1.1458087,0,nan,nan,0.0,0.0,0,3,0,0,1,10,0,0,0
43088000,0,47.3977508,8.5456074,488.105,488.105,1756152932408563,0,0.25,0.5,1.0,1.0,0.0,0.0,0,0,0.0,0.0,-0.01,0.0,4.2099085,0,nan,nan,0.0,0.0,0,3,0,0,1,10,0,0,0
43484000,0,47.3977508,8.5456074,488.096,488.096,1756152932804563,0,0.25,0.5,1.0,1.0,0.0,0.0,0,0,0.0,-0.01,0.0,0.0,3.401821,0,nan,nan,0.0,0.0,0,3,0,0,1,10,0,0,0
43888000,0,47.3977508,8.5456074,488.10900000000004,488.10900000000004,1756152933204563,0,0.25,0.5,1.0,1.0,0.0,0.0,0,0,0.0,0.0,0.0,0.0,1.311615,0,nan,nan,0.0,0.0,0,3,0,0,1,10,0,0,0
44288000,0,47.3977508,8.5456074,488.10200000000003,488.10200000000003,1756152933608563,0,0.25,0.5,1.0,1.0,0.0,0.0,0,0,0.0,-0.01,-0.01,0.0,4.036772,0,nan,nan,0.0,0.0,0,3,0,0,1,10,0,0,0
44688000,0,47.3977508,8.5456075,488.096,488.096,1756152934004563,0,0.25,0.5,1.0,1.0,0.0,0.0,0,0,0.0,0.01,-0.01,-0.01,5.541071,0,nan,nan,0.0,0.0,0,3,0,0,1,10,0,0,0
45088000,0,47.3977508,8.5456074,488.09700000000004,488.09700000000004,1756152934408563,0,0.25,0.5,1.0,1.0,0.0,0.0,0,0,0.0,0.0,0.0,0.0,0.9993755,0,nan,nan,0.0,0.0,0,3,0,0,1,10,0,0,0
45488000,0,47.3977508,8.5456074,488.1,488.1,1756152934804563,0,0.25,0.5,1.0,1.0,0.0,0.0,0,0,0.0,0.01,0.0,0.0,0.14329153,0,nan,nan,0.0,0.0,0,3,0,0,1,10,0,0,0
45888000,0,47.3977508,8.5456074,488.09700000000004,488.09700000000004,1756152935204563,0,0.25,0.5,1.0,1.0,0.0,0.0,0,0,0.0,0.0,0.01,-0.01,1.4018484,0,nan,nan,0.0,0.0,0,3,0,0,1,10,0,0,0
46288000,0,47.3977508,8.5456074,488.1,488.1,1756152935608563,0,0.25,0.5,1.0,1.0,0.0,0.0,0,0,0.0,-0.01,0.0,0.04,2.7778661,0,nan,nan,0.0,0.0,0,3,0,0,1,10,0,0,0
46688000,0,47.3977508,8.5456074,488.098,488.098,1756152936004563,0,0.25,0.5,1.0,1.0,0.0,0.0,0,0,0.0,-0.01,0.0,0.0,2.8714154,0,nan,nan,0.0,0.0,0,3,0,0,1,10,0,0,0
47088000,0,47.3977508,8.5456074,488.1,488.1,1756152936408563,0,0.25,0.5,1.0,1.0,0.0,0.0,0,0,0.0,0.0,-0.01,0.01,4.871563,0,nan,nan,0.0,0.0,0,3,0,0,1,10,0,0,0
47488000,0,47.3977508,8.5456074,488.104,488.104,1756152936804563,0,0.25,0.5,1.0,1.0,0.0,0.0,0,0,0.0,0.0,0.02,-0.01,1.4325663,0,nan,nan,0.0,0.0,0,3,0,0,1,10,0,0,0
47888000,0,47.3977508,8.5456074,488.09700000000004,488.09700000000004,1756152937204563,0,0.25,0.5,1.0,1.0,0.0,0.0,0,0,0.0,0.0,0.01,0.04,1.3119639,0,nan,nan,0.0,0.0,0,3,0,0,1,10,0,0,0
48288000,0,47.3977508,8.5456074,488.107,488.107,1756152937608563,0,0.25,0.5,1.0,1.0,0.0,0.0,0,0,0.0,0.01,0.0,0.01,5.9718184,0,nan,nan,0.0,0.0,0,3,0,0,1,10,0,0,0
48688000,0,47.3977508,8.5456074,488.108,488.108,1756152938004563,0,0.25,0.5,1.0,1.0,0.0,0.0,0,0,0.0,0.0,0.0,-0.03,2.0842721,0,nan,nan,0.0,0.0,0,3,0,0,1,10,0,0,0
49088000,0,47.3977508,8.5456074,488.11,488.11,1756152938408563,0,0.25,0.5,1.0,1.0,0.0,0.0,0,0,0.0,0.03,0.0,0.03,0.26965335,0,nan,nan,0.0,0.0,0,3,0,0,1,10,0,0,0
49488000,0,47.3977508,8.5456074,488.092,488.092,1756152938804563,0,0.25,0.5,1.0,1.0,0.0,0.0,0,0,0.0,0.01,-0.03,0.04,5.0686107,0,nan,nan,0.0,0.0,0,3,0,0,1,10,0,0,0
49888000,0,47.3977508,8.5456074,488.09700000000004,488.09700000000004,1756152939204563,0,0.25,0.5,1.0,1.0,0.0,0.0,0,0,0.0,0.01,0.0,0.0,0.15201817,0,nan,nan,0.0,0.0,0,3,0,0,1,10,0,0,0
50284000,0,47.3977508,8.5456074,488.104,488.104,1756152939608563,0,0.25,0.5,1.0,1.0,0.0,0.0,0,0,0.0,0.0,0.0,0.04,2.0889845,0,nan,nan,0.0,0.0,0,3,0,0,1,10,0,0,0
50688000,0,47.3977508,8.5456075,488.104,488.104,1756152940004563,0,0.25,0.5,1.0,1.0,0.0,0.0,0,0,0.0,0.0,0.0,0.0,4.6146502,0,nan,nan,0.0,0.0,0,3,0,0,1,10,0,0,0
51088000,0,47.3977508,8.5456074,488.106,488.106,1756152940408563,0,0.25,0.5,1.0,1.0,0.0,0.0,0,0,0.0,-0.01,0.01,-0.01,2.21779,0,nan,nan,0.0,0.0,0,3,0,0,1,10,0,0,0
51492000,0,47.3977508,8.5456074,488.107,488.107,1756152940804563,0,0.25,0.5,1.0,1.0,0.0,0.0,0,0,0.0,0.0,0.0,0.0,5.4976125,0,nan,nan,0.0,0.0,0,3,0,0,1,10,0,0,0
51888000,0,47.3977508,8.5456074,488.104,488.104,1756152941204563,0,0.25,0.5,1.0,1.0,0.0,0.0,0,0,0.0,0.0,0.01,0.03,1.3081242,0,nan,nan,0.0,0.0,0,3,0,0,1,10,0,0,0
52288000,0,47.3977508,8.5456074,488.10900000000004,488.10900000000004,1756152941608563,0,0.25,0.5,1.0,1.0,0.0,0.0,0,0,0.0,0.0,0.0,0.01,0.9690068,0,nan,nan,0.0,0.0,0,3,0,0,1,10,0,0,0
52688000,0,47.3977508,8.5456074,488.11400000000003,488.11400000000003,1756152942004563,0,0.25,0.5,1.0,1.0,0.0,0.0,0,0,0.0,0.0,0.0,0.0,1.7791885,0,nan,nan,0.0,0.0,0,3,0,0,1,10,0,0,0
53088000,0,47.3977508,8.5456075,488.104,488.104,1756152942408563,0,0.25,0.5,1.0,1.0,0.0,0.0,0,0,0.0,0.0,0.0,-0.04,4.3561673,0,nan,nan,0.0,0.0,0,3,0,0,1,10,0,0,0
53488000,0,47.3977508,8.5456074,488.11400000000003,488.11400000000003,1756152942804563,0,0.25,0.5,1.0,1.0,0.0,0.0,0,0,0.0,0.0,-0.01,0.0,4.4827037,0,nan,nan,0.0,0.0,0,3,0,0,1,10,0,0,0
53888000,0,47.3977508,8.5456074,488.111,488.111,1756152943204563,0,0.25,0.5,1.0,1.0,0.0,0.0,0,0,0.0,-0.01,0.0,0.04,3.446676,0,nan,nan,0.0,0.0,0,3,0,0,1,10,0,0,0
54288000,0,47.3977508,8.5456074,488.116,488.116,1756152943608563,0,0.25,0.5,1.0,1.0,0.0,0.0,0,0,0.0,0.0,-0.01,0.01,4.303458,0,nan,nan,0.0,0.0,0,3,0,0,1,10,0,0,0
54688000,0,47.3977508,8.5456074,488.106,488.106,1756152944004563,0,0.25,0.5,1.0,1.0,0.0,0.0,0,0,0.0,0.01,0.0,0.0,5.8321924,0,nan,nan,0.0,0.0,0,3,0,0,1,10,0,0,0
55088000,0,47.3977508,8.5456074,488.10900000000004,488.10900000000004,1756152944408563,0,0.25,0.5,1.0,1.0,0.0,0.0,0,0,0.0,0.0,0.03,-0.01,1.6674876,0,nan,nan,0.0,0.0,0,3,0,0,1,10,0,0,0
55488000,0,47.3977508,8.5456074,488.107,488.107,1756152944804563,0,0.25,0.5,1.0,1.0,0.0,0.0,0,0,0.0,-0.01,0.01,0.01,2.6001914,0,nan,nan,0.0,0.0,0,3,0,0,1,10,0,0,0
55888000,0,47.3977508,8.5456074,488.107,488.107,1756152945204563,0,0.25,0.5,1.0,1.0,0.0,0.0,0,0,0.0,0.0,0.0,-0.04,6.029414,0,nan,nan,0.0,0.0,0,3,0,0,1,10,0,0,0
56288000,0,47.3977508,8.5456074,488.111,488.111,1756152945608563,0,0.25,0.5,1.0,1.0,0.0,0.0,0,0,0.0,-0.01,-0.02,-0.02,4.0924478,0,nan,nan,0.0,0.0,0,3,0,0,1,10,0,0,0
56692000,0,47.3977508,8.5456074,488.11,488.11,1756152946004563,0,0.25,0.5,1.0,1.0,0.0,0.0,0,0,0.0,-0.02,0.0,0.0,2.9646163,0,nan,nan,0.0,0.0,0,3,0,0,1,10,0,0,0
57088000,0,47.3977508,8.5456074,488.111,488.111,1756152946408563,0,0.25,0.5,1.0,1.0,0.0,0.0,0,0,0.0,0.0,-0.02,0.0,4.822694,0,nan,nan,0.0,0.0,0,3,0,0,1,10,0,0,0
57488000,0,47.3977508,8.5456073,488.099,488.099,1756152946804563,0,0.25,0.5,1.0,1.0,0.0,0.0,0,0,0.0,0.0,0.0,0.0,2.2359414,0,nan,nan,0.0,0.0,0,3,0,0,1,10,0,0,0
57884000,0,47.3977508,8.5456073,488.10200000000003,488.10200000000003,1756152947204563,0,0.25,0.5,1.0,1.0,0.0,0.0,0,0,0.0,0.02,0.0,-0.01,6.2454863,0,nan,nan,0.0,0.0,0,3,0,0,1,10,0,0,0
58288000,0,47.3977508,8.5456074,488.1,488.1,1756152947608563,0,0.25,0.5,1.0,1.0,0.0,0.0,0,0,0.0,0.01,-0.01,-0.01,5.414011,0,nan,nan,0.0,0.0,0,3,0,0,1,10,0,0,0
58688000,0,47.3977508,8.5456074,488.098,488.098,1756152948004563,0,0.25,0.5,1.0,1.0,0.0,0.0,0,0,0.0,0.0,0.01,0.03,1.6819737,0,nan,nan,0.0,0.0,0,3,0,0,1,10,0,0,0
59088000,0,47.3977508,8.5456074,488.1,488.1,1756152948408563,0,0.25,0.5,1.0,1.0,0.0,0.0,0,0,0.0,0.0,0.01,0.01,1.1185814,0,nan,nan,0.0,0.0,0,3,0,0,1,10,0,0,0
59488000,0,47.3977508,8.5456074,488.105,488.105,1756152948804563,0,0.25,0.5,1.0,1.0,0.0,0.0,0,0,0.0,-0.01,0.02,0.049999997,2.078338,0,nan,nan,0.0,0.0,0,3,0,0,1,10,0,0,0
59888000,0,47.3977508,8.5456074,488.106,488.106,1756152949204563,0,0.25,0.5,1.0,1.0,0.0,0.0,0,0,0.0,0.0,0.02,0.02,1.6107644,0,nan,nan,0.0,0.0,0,3,0,0,1,10,0,0,0
60288000,0,47.3977508,8.5456074,488.1,488.1,1756152949608563,0,0.25,0.5,1.0,1.0,0.0,0.0,0,0,0.0,0.01,0.0,-0.02,6.2332687,0,nan,nan,0.0,0.0,0,3,0,0,1,10,0,0,0
60688000,0,47.3977508,8.5456074,488.107,488.107,1756152950004563,0,0.25,0.5,1.0,1.0,0.0,0.0,0,0,0.0,0.02,0.0,0.0,6.056816,0,nan,nan,0.0,0.0,0,3,0,0,1,10,0,0,0
61084000,0,47.3977508,8.5456074,488.118,488.118,1756152950408563,0,0.25,0.5,1.0,1.0,0.0,0.0,0,0,0.0,0.0,-0.02,0.01,4.8521895,0,nan,nan,0.0,0.0,0,3,0,0,1,10,0,0,0
61488000,0,47.3977508,8.5456074,488.113,488.113,1756152950804563,0,0.25,0.5,1.0,1.0,0.0,0.0,0,0,0.0,0.02,0.0,-0.01,0.28169614,0,nan,nan,0.0,0.0,0,3,0,0,1,10,0,0,0
61888000,0,47.3977508,8.5456075,488.106,488.106,1756152951204563,0,0.25,0.5,1.0,1.0,0.0,0.0,0,0,0.0,0.0,0.02,0.02,1.8228217,0,nan,nan,0.0,0.0,0,3,0,0,1,10,0,0,0
62288000,0,47.3977508,8.5456074,488.106,488.106,1756152951608563,0,0.25,0.5,1.0,1.0,0.0,0.0,0,0,0.0,0.02,0.0,-0.01,0.04415683,0,nan,nan,0.0,0.0,0,3,0,0,1,10,0,0,0
62688000,0,47.3977508,8.5456074,488.098,488.098,1756152952004563,0,0.25,0.5,1.0,1.0,0.0,0.0,0,0,0.0,-0.01,0.0,0.01,2.942276,0,nan,nan,0.0,0.0,0,3,0,0,1,10,0,0,0
63088000,0,47.3977508,8.5456074,488.10200000000003,488.10200000000003,1756152952408563,0,0.25,0.5,1.0,1.0,0.0,0.0,0,0,0.0,0.01,-0.01,0.0,5.511226,0,nan,nan,0.0,0.0,0,3,0,0,1,10,0,0,0
63488000,0,47.3977508,8.5456074,488.103,488.103,1756152952804563,0,0.25,0.5,1.0,1.0,0.0,0.0,0,0,0.0,0.0,-0.01,-0.02,4.42057,0,nan,nan,0.0,0.0,0,3,0,0,1,10,0,0,0
63888000,0,47.3977508,8.5456074,488.103,488.103,1756152953204563,0,0.25,0.5,1.0,1.0,0.0,0.0,0,0,0.0,0.01,0.01,0.0,0.59515727,0,nan,nan,0.0,0.0,0,3,0,0,1,10,0,0,0
64292000,0,47.3977508,8.5456074,488.103,488.103,1756152953608563,0,0.25,0.5,1.0,1.0,0.0,0.0,0,0,0.0,0.0,0.01,0.0,1.4182545,0,nan,nan,0.0,0.0,0,3,0,0,1,10,0,0,0
64688000,0,47.3977508,8.5456074,488.111,488.111,1756152954004563,0,0.25,0.5,1.0,1.0,0.0,0.0,0,0,0.0,0.0,-0.02,0.0,4.3647194,0,nan,nan,0.0,0.0,0,3,0,0,1,10,0,0,0
65088000,0,47.3977508,8.5456074,488.10900000000004,488.10900000000004,1756152954404563,0,0.25,0.5,1.0,1.0,0.0,0.0,0,0,0.0,-0.02,-0.01,-0.01,3.7491417,0,nan,nan,0.0,0.0,0,3,0,0,1,10,0,0,0
65488000,0,47.397750699999996,8.5456075,488.108,488.108,1756152954808563,0,0.25,0.5,1.0,1.0,0.0,0.0,0,0,0.0,-0.01,-0.02,0.0,4.2139225,0,nan,nan,0.0,0.0,0,3,0,0,1,10,0,0,0
65888000,0,47.3977508,8.5456074,488.105,488.105,1756152955208563,0,0.25,0.5,1.0,1.0,0.0,0.0,0,0,0.0,0.01,0.03,0.0,1.2116076,0,nan,nan,0.0,0.0,0,3,0,0,1,10,0,0,0
66288000,0,47.3977508,8.5456074,488.10200000000003,488.10200000000003,1756152955608563,0,0.25,0.5,1.0,1.0,0.0,0.0,0,0,0.0,-0.01,-0.01,0.0,4.029791,0,nan,nan,0.0,0.0,0,3,0,0,1,10,0,0,0
66688000,0,47.3977508,8.5456074,488.1,488.1,1756152956004563,0,0.25,0.5,1.0,1.0,0.0,0.0,0,0,0.0,0.0,0.01,0.03,1.8467329,0,nan,nan,0.0,0.0,0,3,0,0,1,10,0,0,0
67088000,0,47.3977508,8.5456074,488.099,488.099,1756152956404563,0,0.25,0.5,1.0,1.0,0.0,0.0,0,0,0.0,-0.01,0.0,0.0,3.7795103,0,nan,nan,0.0,0.0,0,3,0,0,1,10,0,0,0
67488000,0,47.3977508,8.5456074,488.106,488.106,1756152956808563,0,0.25,0.5,1.0,1.0,0.0,0.0,0,0,0.0,0.0,0.01,0.0,1.2199851,0,nan,nan,0.0,0.0,0,3,0,0,1,10,0,0,0
67888000,0,47.3977508,8.5456074,488.099,488.099,1756152957208563,0,0.25,0.5,1.0,1.0,0.0,0.0,0,0,0.0,0.0,0.0,0.04,1.6435765,0,nan,nan,0.0,0.0,0,3,0,0,1,10,0,0,0
68288000,0,47.3977508,8.5456075,488.09700000000004,488.09700000000004,1756152957608563,0,0.25,0.5,1.0,1.0,0.0,0.0,0,0,0.0,0.0,0.01,0.0,0.8918632,0,nan,nan,0.0,0.0,0,3,0,0,1,10,0,0,0
68688000,0,47.3977508,8.5456074,488.09700000000004,488.09700000000004,1756152958004563,0,0.25,0.5,1.0,1.0,0.0,0.0,0,0,0.0,0.0,0.0,-0.049999997,6.173055,0,nan,nan,0.0,0.0,0,3,0,0,1,10,0,0,0
69088000,0,47.3977508,8.5456074,488.112,488.112,1756152958404563,0,0.25,0.5,1.0,1.0,0.0,0.0,0,0,0.0,0.0,0.0,0.02,1.4878932,0,nan,nan,0.0,0.0,0,3,0,0,1,10,0,0,0
69488000,0,47.3977508,8.5456074,488.101,488.101,1756152958808563,0,0.25,0.5,1.0,1.0,0.0,0.0,0,0,0.0,0.0,0.0,0.02,5.4236107,0,nan,nan,0.0,0.0,0,3,0,0,1,10,0,0,0
69888000,0,47.3977508,8.5456073,488.101,488.101,1756152959208563,0,0.25,0.5,1.0,1.0,0.0,0.0,0,0,0.0,0.0,0.0,0.0,2.282018,0,nan,nan,0.0,0.0,0,3,0,0,1,10,0,0,0
70288000,0,47.3977508,8.5456074,488.10900000000004,488.10900000000004,1756152959608563,0,0.25,0.5,1.0,1.0,0.0,0.0,0,0,0.0,0.0,-0.01,-0.04,4.28234,0,nan,nan,0.0,0.0,0,3,0,0,1,10,0,0,0
70684000,0,47.3977508,8.5456074,488.104,488.104,1756152960004563,0,0.25,0.5,1.0,1.0,0.0,0.0,0,0,0.0,0.0,-0.01,-0.06,4.329813,0,nan,nan,0.0,0.0,0,3,0,0,1,10,0,0,0
71088000,0,47.3977508,8.5456074,488.106,488.106,1756152960404563,0,0.25,0.5,1.0,1.0,0.0,0.0,0,0,0.0,0.0,0.0,0.0,5.5862756,0,nan,nan,0.0,0.0,0,3,0,0,1,10,0,0,0
71488000,0,47.3977508,8.5456074,488.098,488.098,1756152960808563,0,0.25,0.5,1.0,1.0,0.0,0.0,0,0,0.0,0.0,0.0,0.04,6.0966096,0,nan,nan,0.0,0.0,0,3,0,0,1,10,0,0,0
71888000,0,47.3977508,8.5456074,488.113,488.113,1756152961204563,0,0.25,0.5,1.0,1.0,0.0,0.0,0,0,0.0,0.0,-0.02,0.0,4.374493,0,nan,nan,0.0,0.0,0,3,0,0,1,10,0,0,0
72088000,0,47.397750699999996,8.5456074,488.117,488.117,1756152961404563,0,0.25,0.5,1.0,1.0,0.0,0.0,0,0,0.0,0.0,0.0,-0.04,1.3370967,0,nan,nan,0.0,0.0,0,3,0,0,1,10,0,0,0
72488000,0,47.397750699999996,8.5456074,488.107,488.107,1756152961808563,0,0.25,0.5,1.0,1.0,0.0,0.0,0,0,0.0,0.0,0.0,0.0,3.713886,0,nan,nan,0.0,0.0,0,3,0,0,1,10,0,0,0
72888000,0,47.3977508,8.5456074,488.104,488.104,1756152962208563,0,0.25,0.5,1.0,1.0,0.0,0.0,0,0,0.0,0.0,0.01,0.02,1.633279,0,nan,nan,0.0,0.0,0,3,0,0,1,10,0,0,0
73288000,0,47.3977508,8.5456074,488.103,488.103,1756152962608563,0,0.25,0.5,1.0,1.0,0.0,0.0,0,0,0.0,0.01,0.0,0.02,5.8669243,0,nan,nan,0.0,0.0,0,3,0,0,1,10,0,0,0
73688000,0,47.3977508,8.5456074,488.099,488.099,1756152963004563,0,0.25,0.5,1.0,1.0,0.0,0.0,0,0,0.0,0.0,-0.01,0.0,5.144183,0,nan,nan,0.0,0.0,0,3,0,0,1,10,0,0,0
74088000,0,47.397750699999996,8.5456074,488.106,488.106,1756152963404563,0,0.25,0.5,1.0,1.0,0.0,0.0,0,0,0.0,0.0,-0.01,-0.01,4.647463,0,nan,nan,0.0,0.0,0,3,0,0,1,10,0,0,0
74488000,0,47.3977508,8.5456074,488.106,488.106,1756152963808563,0,0.25,0.5,1.0,1.0,0.0,0.0,0,0,0.0,0.0,-0.01,-0.04,4.697728,0,nan,nan,0.0,0.0,0,3,0,0,1,10,0,0,0
74888000,0,47.3977508,8.5456074,488.103,488.103,1756152964208563,0,0.25,0.5,1.0,1.0,0.0,0.0,0,0,0.0,0.01,0.0,-0.02,0.47333327,0,nan,nan,0.0,0.0,0,3,0,0,1,10,0,0,0
75288000,0,47.3977508,8.5456074,488.101,488.101,1756152964608563,0,0.25,0.5,1.0,1.0,0.0,0.0,0,0,0.0,0.0,-0.01,0.0,4.4685664,0,nan,nan,0.0,0.0,0,3,0,0,1,10,0,0,0
75688000,0,47.3977508,8.5456074,488.104,488.104,1756152965004563,0,0.25,0.5,1.0,1.0,0.0,0.0,0,0,0.0,-0.01,0.0,0.01,2.965838,0,nan,nan,0.0,0.0,0,3,0,0,1,10,0,0,0
76088000,0,47.3977508,8.5456074,488.101,488.101,1756152965404563,0,0.25,0.5,1.0,1.0,0.0,0.0,0,0,0.0,0.0,0.0,0.01,2.308198,0,nan,nan,0.0,0.0,0,3,0,0,1,10,0,0,0
76488000,0,47.3977508,8.5456074,488.103,488.103,1756152965808563,0,0.25,0.5,1.0,1.0,0.0,0.0,0,0,0.0,0.02,0.0,0.01,5.966757,0,nan,nan,0.0,0.0,0,3,0,0,1,10,0,0,0
76888000,0,47.397750699999996,8.5456075,488.101,488.101,1756152966208563,0,0.25,0.5,1.0,1.0,0.0,0.0,0,0,0.0,0.0,0.0,0.0,0.42044982,0,nan,nan,0.0,0.0,0,3,0,0,1,10,0,0,0
77288000,0,47.3977508,8.5456074,488.108,488.108,1756152966608563,0,0.25,0.5,1.0,1.0,0.0,0.0,0,0,0.0,0.0,0.0,0.049999997,0.22724186,0,nan,nan,0.0,0.0,0,3,0,0,1,10,0,0,0
77688000,0,47.3977508,8.5456074,488.09700000000004,488.09700000000004,1756152967004563,0,0.25,0.5,1.0,1.0,0.0,0.0,0,0,0.0,-0.03,0.0,0.0,3.0318112,0,nan,nan,0.0,0.0,0,3,0,0,1,10,0,0,0
78088000,0,47.3977508,8.5456074,488.10200000000003,488.10200000000003,1756152967404563,0,0.25,0.5,1.0,1.0,0.0,0.0,0,0,0.0,0.0,0.0,0.049999997,6.1440825,0,nan,nan,0.0,0.0,0,3,0,0,1,10,0,0,0
78488000,0,47.3977508,8.5456074,488.1,488.1,1756152967808563,0,0.25,0.5,1.0,1.0,0.0,0.0,0,0,0.0,0.01,-0.02,0.0,5.323254,0,nan,nan,0.0,0.0,0,3,0,0,1,10,0,0,0
78888000,0,47.3977508,8.5456074,488.105,488.105,1756152968208563,0,0.25,0.5,1.0,1.0,0.0,0.0,0,0,0.0,0.0,-0.01,0.0,5.006826,0,nan,nan,0.0,0.0,0,3,0,0,1,10,0,0,0
79288000,0,47.3977508,8.5456074,488.10900000000004,488.10900000000004,1756152968608563,0,0.25,0.5,1.0,1.0,0.0,0.0,0,0,0.0,0.0,0.01,-0.02,1.7948965,0,nan,nan,0.0,0.0,0,3,0,0,1,10,0,0,0
79688000,0,47.3977508,8.5456074,488.107,488.107,1756152969004563,0,0.25,0.5,1.0,1.0,0.0,0.0,0,0,0.0,0.0,0.0,0.0,4.940154,0,nan,nan,0.0,0.0,0,3,0,0,1,10,0,0,0
80088000,0,47.3977508,8.5456074,488.096,488.096,1756152969404563,0,0.25,0.5,1.0,1.0,0.0,0.0,0,0,0.0,0.01,0.0,0.0,6.204994,0,nan,nan,0.0,0.0,0,3,0,0,1,10,0,0,0
80488000,0,47.397750699999996,8.5456074,488.09700000000004,488.09700000000004,1756152969808563,0,0.25,0.5,1.0,1.0,0.0,0.0,0,0,0.0,0.0,0.01,-0.01,1.4374532,0,nan,nan,0.0,0.0,0,3,0,0,1,10,0,0,0
80888000,0,47.3977508,8.5456075,488.106,488.106,1756152970208563,0,0.25,0.5,1.0,1.0,0.0,0.0,0,0,0.0,0.02,0.0,0.049999997,6.136403,0,nan,nan,0.0,0.0,0,3,0,0,1,10,0,0,0
81288000,0,47.3977508,8.5456074,488.107,488.107,1756152970608563,0,0.25,0.5,1.0,1.0,0.0,0.0,0,0,0.0,0.0,0.0,0.02,0.9889035,0,nan,nan,0.0,0.0,0,3,0,0,1,10,0,0,0
81688000,0,47.3977508,8.5456074,488.094,488.094,1756152971004563,0,0.25,0.5,1.0,1.0,0.0,0.0,0,0,0.0,0.01,0.01,0.01,0.9258971,0,nan,nan,0.0,0.0,0,3,0,0,1,10,0,0,0
82088000,0,47.3977508,8.5456074,488.10200000000003,488.10200000000003,1756152971404563,0,0.25,0.5,1.0,1.0,0.0,0.0,0,0,0.0,0.0,0.0,0.03,1.7683675,0,nan,nan,0.0,0.0,0,3,0,0,1,10,0,0,0
82488000,0,47.3977508,8.5456074,488.10200000000003,488.10200000000003,1756152971808563,0,0.25,0.5,1.0,1.0,0.0,0.0,0,0,0.0,0.01,-0.02,-0.03,5.18834,0,nan,nan,0.0,0.0,0,3,0,0,1,10,0,0,0
82888000,0,47.3977508,8.5456074,488.101,488.101,1756152972208563,0,0.25,0.5,1.0,1.0,0.0,0.0,0,0,0.0,0.0,0.01,0.01,2.0301669,0,nan,nan,0.0,0.0,0,3,0,0,1,10,0,0,0
83288000,0,47.3977508,8.5456074,488.094,488.094,1756152972608563,0,0.25,0.5,1.0,1.0,0.0,0.0,0,0,0.0,-0.01,0.0,0.0,3.766595,0,nan,nan,0.0,0.0,0,3,0,0,1,10,0,0,0
83688000,0,47.3977508,8.5456074,488.099,488.099,1756152973004563,0,0.25,0.5,1.0,1.0,0.0,0.0,0,0,0.0,0.02,0.0,0.03,5.975135,0,nan,nan,0.0,0.0,0,3,0,0,1,10,0,0,0
84088000,0,47.3977508,8.5456074,488.106,488.106,1756152973404563,0,0.25,0.5,1.0,1.0,0.0,0.0,0,0,0.0,0.02,0.0,-0.02,0.27628562,0,nan,nan,0.0,0.0,0,3,0,0,1,10,0,0,0
84488000,0,47.3977508,8.5456074,488.113,488.113,1756152973808563,0,0.25,0.5,1.0,1.0,0.0,0.0,0,0,0.0,0.02,0.0,0.0,0.36372662,0,nan,nan,0.0,0.0,0,3,0,0,1,10,0,0,0
84888000,0,47.3977508,8.5456074,488.11,488.11,1756152974208563,0,0.25,0.5,1.0,1.0,0.0,0.0,0,0,0.0,0.01,0.0,0.03,0.41102502,0,nan,nan,0.0,0.0,0,3,0,0,1,10,0,0,0
85288000,0,47.3977508,8.5456074,488.10200000000003,488.10200000000003,1756152974608563,0,0.25,0.5,1.0,1.0,0.0,0.0,0,0,0.0,0.0,0.01,-0.02,1.0245082,0,nan,nan,0.0,0.0,0,3,0,0,1,10,0,0,0
85688000,0,47.3977508,8.5456074,488.093,488.093,1756152975004563,0,0.25,0.5,1.0,1.0,0.0,0.0,0,0,0.0,0.01,0.0,0.0,0.3333579,0,nan,nan,0.0,0.0,0,3,0,0,1,10,0,0,0
86088000,0,47.3977508,8.5456074,488.104,488.104,1756152975404563,0,0.25,0.5,1.0,1.0,0.0,0.0,0,0,0.0,0.02,0.0,0.02,0.16301376,0,nan,nan,0.0,0.0,0,3,0,0,1,10,0,0,0
86488000,0,47.3977508,8.5456074,488.106,488.106,1756152975808563,0,0.25,0.5,1.0,1.0,0.0,0.0,0,0,0.0,0.0,-0.01,-0.02,5.159717,0,nan,nan,0.0,0.0,0,3,0,0,1,10,0,0,0
86888000,0,47.3977508,8.5456075,488.099,488.099,1756152976208563,0,0.25,0.5,1.0,1.0,0.0,0.0,0,0,0.0,0.01,0.0,0.0,0.15725417,0,nan,nan,0.0,0.0,0,3,0,0,1,10,0,0,0
87288000,0,47.3977509,8.5456074,488.111,488.111,1756152976608563,0,0.25,0.5,1.0,1.0,0.0,0.0,0,0,0.0,0.0,0.01,-0.02,1.8441148,0,nan,nan,0.0,0.0,0,3,0,0,1,10,0,0,0
87688000,0,47.3977509,8.5456074,488.098,488.098,1756152977004563,0,0.25,0.5,1.0,1.0,0.0,0.0,0,0,0.0,-0.02,0.01,-0.06,2.563365,0,nan,nan,0.0,0.0,0,3,0,0,1,10,0,0,0
88088000,0,47.3977508,8.5456073,488.095,488.095,1756152977404563,0,0.25,0.5,1.0,1.0,0.0,0.0,0,0,0.0,0.0,0.02,-0.03,1.4934782,0,nan,nan,0.0,0.0,0,3,0,0,1,10,0,0,0
88488000,0,47.3977508,8.5456074,488.107,488.107,1756152977808563,0,0.25,0.5,1.0,1.0,0.0,0.0,0,0,0.0,0.0,0.0,-0.04,4.0920987,0,nan,nan,0.0,0.0,0,3,0,0,1,10,0,0,0
88888000,0,47.3977508,8.5456073,488.1,488.1,1756152978208563,0,0.25,0.5,1.0,1.0,0.0,0.0,0,0,0.0,0.0,-0.01,-0.02,5.098107,0,nan,nan,0.0,0.0,0,3,0,0,1,10,0,0,0
89288000,0,47.3977508,8.5456074,488.105,488.105,1756152978608563,0,0.25,0.5,1.0,1.0,0.0,0.0,0,0,0.0,0.0,0.0,0.0,1.2023573,0,nan,nan,0.0,0.0,0,3,0,0,1,10,0,0,0
89688000,0,47.3977508,8.5456074,488.105,488.105,1756152979004563,0,0.25,0.5,1.0,1.0,0.0,0.0,0,0,0.0,0.0,0.0,0.0,5.774596,0,nan,nan,0.0,0.0,0,3,0,0,1,10,0,0,0
90088000,0,47.3977508,8.5456074,488.107,488.107,1756152979404563,0,0.25,0.5,1.0,1.0,0.0,0.0,0,0,0.0,0.0,0.0,0.03,0.7279768,0,nan,nan,0.0,0.0,0,3,0,0,1,10,0,0,0
90488000,0,47.3977508,8.5456074,488.1,488.1,1756152979808563,0,0.25,0.5,1.0,1.0,0.0,0.0,0,0,0.0,0.01,0.01,0.01,0.90250975,0,nan,nan,0.0,0.0,0,3,0,0,1,10,0,0,0
90888000,0,47.3977508,8.5456075,488.091,488.091,1756152980208563,0,0.25,0.5,1.0,1.0,0.0,0.0,0,0,0.0,0.01,0.0,0.02,0.36233035,0,nan,nan,0.0,0.0,0,3,0,0,1,10,0,0,0
91288000,0,47.3977508,8.5456074,488.094,488.094,1756152980608563,0,0.25,0.5,1.0,1.0,0.0,0.0,0,0,0.0,0.0,0.0,0.04,1.0278244,0,nan,nan,0.0,0.0,0,3,0,0,1,10,0,0,0
91688000,0,47.397750699999996,8.5456074,488.106,488.106,1756152981004563,0,0.25,0.5,1.0,1.0,0.0,0.0,0,0,0.0,0.01,0.0,0.0,0.030368729,0,nan,nan,0.0,0.0,0,3,0,0,1,10,0,0,0
92088000,0,47.397750699999996,8.5456074,488.105,488.105,1756152981404563,0,0.25,0.5,1.0,1.0,0.0,0.0,0,0,0.0,0.01,0.0,-0.04,5.7489395,0,nan,nan,0.0,0.0,0,3,0,0,1,10,0,0,0
92488000,0,47.3977508,8.5456074,488.099,488.099,1756152981808563,0,0.25,0.5,1.0,1.0,0.0,0.0,0,0,0.0,0.0,0.01,-0.01,1.6465435,0,nan,nan,0.0,0.0,0,3,0,0,1,10,0,0,0
92888000,0,47.3977508,8.5456074,488.096,488.096,1756152982208563,0,0.25,0.5,1.0,1.0,0.0,0.0,0,0,0.0,0.0,-0.01,0.0,4.723559,0,nan,nan,0.0,0.0,0,3,0,0,1,10,0,0,0
93288000,0,47.3977508,8.5456073,488.111,488.111,1756152982608563,0,0.25,0.5,1.0,1.0,0.0,0.0,0,0,0.0,0.0,0.0,-0.02,4.5471063,0,nan,nan,0.0,0.0,0,3,0,0,1,10,0,0,0
93688000,0,47.3977508,8.5456073,488.107,488.107,1756152983004563,0,0.25,0.5,1.0,1.0,0.0,0.0,0,0,0.0,-0.01,0.0,0.02,3.875329,0,nan,nan,0.0,0.0,0,3,0,0,1,10,0,0,0
94088000,0,47.3977508,8.5456075,488.108,488.108,1756152983404563,0,0.25,0.5,1.0,1.0,0.0,0.0,0,0,0.0,-0.01,0.0,-0.03,3.3224087,0,nan,nan,0.0,0.0,0,3,0,0,1,10,0,0,0
94484000,0,47.3977508,8.5456075,488.106,488.106,1756152983808563,0,0.25,0.5,1.0,1.0,0.0,0.0,0,0,0.0,0.0,0.0,-0.02,4.8612657,0,nan,nan,0.0,0.0,0,3,0,0,1,10,0,0,0
94888000,0,47.3977508,8.5456074,488.09700000000004,488.09700000000004,1756152984208563,0,0.25,0.5,1.0,1.0,0.0,0.0,0,0,0.0,0.0,-0.01,0.0,5.3522267,0,nan,nan,0.0,0.0,0,3,0,0,1,10,0,0,0
95288000,0,47.3977508,8.5456074,488.10900000000004,488.10900000000004,1756152984608563,0,0.25,0.5,1.0,1.0,0.0,0.0,0,0,0.0,0.0,-0.02,-0.02,5.0141563,0,nan,nan,0.0,0.0,0,3,0,0,1,10,0,0,0
95688000,0,47.3977508,8.5456074,488.112,488.112,1756152985004563,0,0.25,0.5,1.0,1.0,0.0,0.0,0,0,0.0,-0.01,0.0,0.0,2.909464,0,nan,nan,0.0,0.0,0,3,0,0,1,10,0,0,0
96088000,0,47.3977508,8.5456074,488.107,488.107,1756152985404563,0,0.25,0.5,1.0,1.0,0.0,0.0,0,0,0.0,-0.01,0.0,-0.02,3.1988394,0,nan,nan,0.0,0.0,0,3,0,0,1,10,0,0,0
96488000,0,47.3977508,8.5456073,488.108,488.108,1756152985808563,0,0.25,0.5,1.0,1.0,0.0,0.0,0,0,0.0,-0.01,0.0,-0.02,3.5004323,0,nan,nan,0.0,0.0,0,3,0,0,1,10,0,0,0
96888000,0,47.397750699999996,8.5456074,488.107,488.107,1756152986208563,0,0.25,0.5,1.0,1.0,0.0,0.0,0,0,0.0,0.0,0.0,-0.01,2.5891957,0,nan,nan,0.0,0.0,0,3,0,0,1,10,0,0,0
97288000,0,47.3977508,8.5456074,488.118,488.118,1756152986608563,0,0.25,0.5,1.0,1.0,0.0,0.0,0,0,0.0,0.0,0.0,-0.02,2.3926718,0,nan,nan,0.0,0.0,0,3,0,0,1,10,0,0,0
97688000,0,47.3977508,8.5456074,488.108,488.108,1756152987004563,0,0.25,0.5,1.0,1.0,0.0,0.0,0,0,0.0,0.0,0.0,-0.03,1.9783306,0,nan,nan,0.0,0.0,0,3,0,0,1,10,0,0,0
98088000,0,47.3977508,8.5456074,488.113,488.113,1756152987404563,0,0.25,0.5,1.0,1.0,0.0,0.0,0,0,0.0,0.02,-0.01,0.03,5.6093135,0,nan,nan,0.0,0.0,0,3,0,0,1,10,0,0,0
98488000,0,47.3977508,8.5456074,488.10200000000003,488.10200000000003,1756152987808563,0,0.25,0.5,1.0,1.0,0.0,0.0,0,0,0.0,0.02,0.01,0.03,0.43336526,0,nan,nan,0.0,0.0,0,3,0,0,1,10,0,0,0
98888000,0,47.3977508,8.5456074,488.10200000000003,488.10200000000003,1756152988208563,0,0.25,0.5,1.0,1.0,0.0,0.0,0,0,0.0,0.0,0.0,0.01,6.136403,0,nan,nan,0.0,0.0,0,3,0,0,1,10,0,0,0
99288000,0,47.3977508,8.5456074,488.10900000000004,488.10900000000004,1756152988608563,0,0.25,0.5,1.0,1.0,0.0,0.0,0,0,0.0,0.0,0.0,0.0,2.6827455,0,nan,nan,0.0,0.0,0,3,0,0,1,10,0,0,0
99688000,0,47.3977508,8.5456074,488.107,488.107,1756152989004563,0,0.25,0.5,1.0,1.0,0.0,0.0,0,0,0.0,0.0,0.0,-0.01,2.9101617,0,nan,nan,0.0,0.0,0,3,0,0,1,10,0,0,0
100088000,0,47.3977508,8.5456074,488.095,488.095,1756152989404563,0,0.25,0.5,1.0,1.0,0.0,0.0,0,0,0.0,0.0,-0.02,0.01,5.084493,0,nan,nan,0.0,0.0,0,3,0,0,1,10,0,0,0
100484000,0,47.3977508,8.5456074,488.096,488.096,1756152989808563,0,0.25,0.5,1.0,1.0,0.0,0.0,0,0,0.0,0.0,-0.03,0.02,4.782551,0,nan,nan,0.0,0.0,0,3,0,0,1,10,0,0,0
100888000,0,47.3977508,8.5456074,488.098,488.098,1756152990208563,0,0.25,0.5,1.0,1.0,0.0,0.0,0,0,0.0,0.03,0.01,0.04,0.4209734,0,nan,nan,0.0,0.0,0,3,0,0,1,10,0,0,0
101288000,0,47.397750699999996,8.5456075,488.108,488.108,1756152990608563,0,0.25,0.5,1.0,1.0,0.0,0.0,0,0,0.0,0.0,0.02,0.02,1.7182766,0,nan,nan,0.0,0.0,0,3,0,0,1,10,0,0,0
101688000,0,47.3977508,8.5456074,488.10200000000003,488.10200000000003,1756152991004563,0,0.25,0.5,1.0,1.0,0.0,0.0,0,0,0.0,0.0,0.0,-0.02,5.586799,0,nan,nan,0.0,0.0,0,3,0,0,1,10,0,0,0
102088000,0,47.397750699999996,8.5456075,488.108,488.108,1756152991404563,0,0.25,0.5,1.0,1.0,0.0,0.0,0,0,0.0,0.0,0.0,0.01,2.855184,0,nan,nan,0.0,0.0,0,3,0,0,1,10,0,0,0
102488000,0,47.3977508,8.5456074,488.1,488.1,1756152991808563,0,0.25,0.5,1.0,1.0,0.0,0.0,0,0,0.0,0.0,0.0,-0.01,2.3394392,0,nan,nan,0.0,0.0,0,3,0,0,1,10,0,0,0
102888000,0,47.3977508,8.5456074,488.099,488.099,1756152992208563,0,0.25,0.5,1.0,1.0,0.0,0.0,0,0,0.0,-0.01,0.01,0.01,2.361605,0,nan,nan,0.0,0.0,0,3,0,0,1,10,0,0,0
103288000,0,47.3977508,8.5456075,488.106,488.106,1756152992608563,0,0.25,0.5,1.0,1.0,0.0,0.0,0,0,0.0,0.0,0.01,0.01,1.7030922,0,nan,nan,0.0,0.0,0,3,0,0,1,10,0,0,0
103692000,0,47.397750699999996,8.5456074,488.10200000000003,488.10200000000003,1756152993004563,0,0.25,0.5,1.0,1.0,0.0,0.0,0,0,0.0,0.0,0.0,-0.03,0.8402015,0,nan,nan,0.0,0.0,0,3,0,0,1,10,0,0,0
104088000,0,47.397750699999996,8.5456074,488.10200000000003,488.10200000000003,1756152993404563,0,0.25,0.5,1.0,1.0,0.0,0.0,0,0,0.0,0.01,0.01,0.01,0.8157669,0,nan,nan,0.0,0.0,0,3,0,0,1,10,0,0,0
104488000,0,47.3977508,8.5456074,488.108,488.108,1756152993808563,0,0.25,0.5,1.0,1.0,0.0,0.0,0,0,0.0,0.0,0.0,0.01,1.2130039,0,nan,nan,0.0,0.0,0,3,0,0,1,10,0,0,0
104888000,0,47.3977508,8.5456074,488.107,488.107,1756152994208563,0,0.25,0.5,1.0,1.0,0.0,0.0,0,0,0.0,-0.01,0.0,0.0,2.5366614,0,nan,nan,0.0,0.0,0,3,0,0,1,10,0,0,0
105288000,0,47.3977508,8.5456074,488.103,488.103,1756152994608563,0,0.25,0.5,1.0,1.0,0.0,0.0,0,0,0.0,0.0,0.0,0.01,6.0117865,0,nan,nan,0.0,0.0,0,3,0,0,1,10,0,0,0
105692000,0,47.3977508,8.5456074,488.105,488.105,1756152995004563,0,0.25,0.5,1.0,1.0,0.0,0.0,0,0,0.0,0.0,0.0,0.0,4.2121778,0,nan,nan,0.0,0.0,0,3,0,0,1,10,0,0,0
106088000,0,47.3977508,8.5456074,488.106,488.106,1756152995404563,0,0.25,0.5,1.0,1.0,0.0,0.0,0,0,0.0,-0.01,0.0,-0.049999997,3.2140236,0,nan,nan,0.0,0.0,0,3,0,0,1,10,0,0,0
106488000,0,47.3977508,8.5456074,488.10900000000004,488.10900000000004,1756152995808563,0,0.25,0.5,1.0,1.0,0.0,0.0,0,0,0.0,0.0,0.02,-0.01,1.5001104,0,nan,nan,0.0,0.0,0,3,0,0,1,10,0,0,0
106888000,0,47.3977508,8.5456074,488.105,488.105,1756152996208563,0,0.25,0.5,1.0,1.0,0.0,0.0,0,0,0.0,0.0,0.0,0.049999997,5.558699,0,nan,nan,0.0,0.0,0,3,0,0,1,10,0,0,0
107288000,0,47.3977508,8.5456074,488.108,488.108,1756152996608563,0,0.25,0.5,1.0,1.0,0.0,0.0,0,0,0.0,-0.01,0.0,-0.03,3.8863246,0,nan,nan,0.0,0.0,0,3,0,0,1,10,0,0,0
107688000,0,47.3977508,8.5456074,488.11,488.11,1756152997004563,0,0.25,0.5,1.0,1.0,0.0,0.0,0,0,0.0,-0.01,0.01,0.0,2.337694,0,nan,nan,0.0,0.0,0,3,0,0,1,10,0,0,0
108088000,0,47.3977508,8.5456074,488.101,488.101,1756152997404563,0,0.25,0.5,1.0,1.0,0.0,0.0,0,0,0.0,0.02,0.0,0.0,6.2318726,0,nan,nan,0.0,0.0,0,3,0,0,1,10,0,0,0
108488000,0,47.3977508,8.5456074,488.1,488.1,1756152997808563,0,0.25,0.5,1.0,1.0,0.0,0.0,0,0,0.0,0.0,-0.01,0.0,4.5183086,0,nan,nan,0.0,0.0,0,3,0,0,1,10,0,0,0
108888000,0,47.397750699999996,8.5456074,488.093,488.093,1756152998208563,0,0.25,0.5,1.0,1.0,0.0,0.0,0,0,0.0,0.0,0.0,0.02,5.6110587,0,nan,nan,0.0,0.0,0,3,0,0,1,10,0,0,0
109288000,0,47.3977508,8.5456075,488.10200000000003,488.10200000000003,1756152998608563,0,0.25,0.5,1.0,1.0,0.0,0.0,0,0,0.0,0.0,0.0,-0.02,5.9507,0,nan,nan,0.0,0.0,0,3,0,0,1,10,0,0,0
109688000,0,47.3977508,8.5456074,488.093,488.093,1756152999004563,0,0.25,0.5,1.0,1.0,0.0,0.0,0,0,0.0,-0.01,0.0,0.01,2.7152085,0,nan,nan,0.0,0.0,0,3,0,0,1,10,0,0,0
110088000,0,47.3977508,8.5456073,488.09700000000004,488.09700000000004,1756152999404563,0,0.25,0.5,1.0,1.0,0.0,0.0,0,0,0.0,0.0,0.0,0.01,4.969301,0,nan,nan,0.0,0.0,0,3,0,0,1,10,0,0,0
110488000,0,47.3977508,8.5456074,488.098,488.098,1756152999808563,0,0.25,0.5,1.0,1.0,0.0,0.0,0,0,0.0,0.01,0.0,-0.03,0.5576327,0,nan,nan,0.0,0.0,0,3,0,0,1,10,0,0,0
110888000,0,47.3977508,8.5456074,488.101,488.101,1756153000208563,0,0.25,0.5,1.0,1.0,0.0,0.0,0,0,0.0,0.0,0.0,-0.01,5.211902,0,nan,nan,0.0,0.0,0,3,0,0,1,10,0,0,0
111288000,0,47.3977508,8.5456074,488.10900000000004,488.10900000000004,1756153000608563,0,0.25,0.5,1.0,1.0,0.0,0.0,0,0,0.0,0.0,0.01,0.0,1.3465215,0,nan,nan,0.0,0.0,0,3,0,0,1,10,0,0,0
111688000,0,47.3977508,8.5456074,488.09700000000004,488.09700000000004,1756153001004563,0,0.25,0.5,1.0,1.0,0.0,0.0,0,0,0.0,0.0,0.0,0.01,3.1712632,0,nan,nan,0.0,0.0,0,3,0,0,1,10,0,0,0
112088000,0,47.3977508,8.5456074,488.09700000000004,488.09700000000004,1756153001404563,0,0.25,0.5,1.0,1.0,0.0,0.0,0,0,0.0,-0.01,0.02,0.0,2.312212,0,nan,nan,0.0,0.0,0,3,0,0,1,10,0,0,0
112488000,0,47.3977508,8.5456074,488.112,488.112,1756153001808563,0,0.25,0.5,1.0,1.0,0.0,0.0,0,0,0.0,-0.01,0.02,0.04,2.0294688,0,nan,nan,0.0,0.0,0,3,0,0,1,10,0,0,0
112888000,0,47.3977508,8.5456074,488.108,488.108,1756153002208563,0,0.25,0.5,1.0,1.0,0.0,0.0,0,0,0.0,0.02,-0.01,0.01,5.69658,0,nan,nan,0.0,0.0,0,3,0,0,1,10,0,0,0
113288000,0,47.3977508,8.5456075,488.099,488.099,1756153002608563,0,0.25,0.5,1.0,1.0,0.0,0.0,0,0,0.0,0.0,0.0,-0.03,0.9831439,0,nan,nan,0.0,0.0,0,3,0,0,1,10,0,0,0
113688000,0,47.3977508,8.5456074,488.099,488.099,1756153003004563,0,0.25,0.5,1.0,1.0,0.0,0.0,0,0,0.0,0.0,-0.01,0.02,5.1544805,0,nan,nan,0.0,0.0,0,3,0,0,1,10,0,0,0
114088000,0,47.3977508,8.5456074,488.106,488.106,1756153003404563,0,0.25,0.5,1.0,1.0,0.0,0.0,0,0,0.0,0.01,0.0,0.0,5.83289,0,nan,nan,0.0,0.0,0,3,0,0,1,10,0,0,0
114488000,0,47.3977508,8.5456074,488.103,488.103,1756153003808563,0,0.25,0.5,1.0,1.0,0.0,0.0,0,0,0.0,0.0,0.0,0.0,5.836381,0,nan,nan,0.0,0.0,0,3,0,0,1,10,0,0,0
114888000,0,47.3977508,8.5456074,488.099,488.099,1756153004208563,0,0.25,0.5,1.0,1.0,0.0,0.0,0,0,0.0,0.0,0.0,-0.02,4.4128904,0,nan,nan,0.0,0.0,0,3,0,0,1,10,0,0,0
115288000,0,47.3977508,8.5456074,488.104,488.104,1756153004608563,0,0.25,0.5,1.0,1.0,0.0,0.0,0,0,0.0,0.0,0.0,0.04,0.9292132,0,nan,nan,0.0,0.0,0,3,0,0,1,10,0,0,0
115688000,0,47.3977508,8.5456074,488.104,488.104,1756153005004563,0,0.25,0.5,1.0,1.0,0.0,0.0,0,0,0.0,0.02,0.0,0.0,6.1608377,0,nan,nan,0.0,0.0,0,3,0,0,1,10,0,0,0
116088000,0,47.3977508,8.5456074,488.1,488.1,1756153005404563,0,0.25,0.5,1.0,1.0,0.0,0.0,0,0,0.0,0.0,-0.01,0.01,5.1890383,0,nan,nan,0.0,0.0,0,3,0,0,1,10,0,0,0
116488000,0,47.3977508,8.5456074,488.11,488.11,1756153005808563,0,0.25,0.5,1.0,1.0,0.0,0.0,0,0,0.0,0.0,-0.01,-0.01,4.2399282,0,nan,nan,0.0,0.0,0,3,0,0,1,10,0,0,0
116888000,0,47.3977508,8.5456074,488.1,488.1,1756153006208563,0,0.25,0.5,1.0,1.0,0.0,0.0,0,0,0.0,-0.01,0.0,0.03,2.8647833,0,nan,nan,0.0,0.0,0,3,0,0,1,10,0,0,0
117284000,0,47.3977508,8.5456074,488.09700000000004,488.09700000000004,1756153006608563,0,0.25,0.5,1.0,1.0,0.0,0.0,0,0,0.0,0.01,0.02,0.02,0.9245008,0,nan,nan,0.0,0.0,0,3,0,0,1,10,0,0,0
117688000,0,47.3977508,8.5456074,488.09700000000004,488.09700000000004,1756153007004563,0,0.25,0.5,1.0,1.0,0.0,0.0,0,0,0.0,0.0,-0.01,-0.03,4.507313,0,nan,nan,0.0,0.0,0,3,0,0,1,10,0,0,0
118088000,0,47.3977508,8.5456074,488.105,488.105,1756153007404563,0,0.25,0.5,1.0,1.0,0.0,0.0,0,0,0.0,-0.01,0.0,-0.03,3.618591,0,nan,nan,0.0,0.0,0,3,0,0,1,10,0,0,0
118488000,0,47.3977508,8.5456074,488.096,488.096,1756153007808563,0,0.25,0.5,1.0,1.0,0.0,0.0,0,0,0.0,0.01,0.03,0.01,1.0585421,0,nan,nan,0.0,0.0,0,3,0,0,1,10,0,0,0
118888000,0,47.3977508,8.5456074,488.101,488.101,1756153008208563,0,0.25,0.5,1.0,1.0,0.0,0.0,0,0,0.0,0.0,0.01,-0.01,1.2370893,0,nan,nan,0.0,0.0,0,3,0,0,1,10,0,0,0
119288000,0,47.3977508,8.5456074,488.101,488.101,1756153008608563,0,0.25,0.5,1.0,1.0,0.0,0.0,0,0,0.0,0.02,0.0,0.03,0.24312435,0,nan,nan,0.0,0.0,0,3,0,0,1,10,0,0,0
119688000,0,47.3977508,8.5456074,488.1,488.1,1756153009004563,0,0.25,0.5,1.0,1.0,0.0,0.0,0,0,0.0,0.0,0.0,0.04,4.9926887,0,nan,nan,0.0,0.0,0,3,0,0,1,10,0,0,0
120088000,0,47.3977508,8.5456075,488.105,488.105,1756153009404563,0,0.25,0.5,1.0,1.0,0.0,0.0,0,0,0.0,0.0,0.01,0.02,1.3318607,0,nan,nan,0.0,0.0,0,3,0,0,1,10,0,0,0
120488000,0,47.3977508,8.5456074,488.10900000000004,488.10900000000004,1756153009808563,0,0.25,0.5,1.0,1.0,0.0,0.0,0,0,0.0,0.0,0.01,0.01,1.0588912,0,nan,nan,0.0,0.0,0,3,0,0,1,10,0,0,0
120888000,0,47.3977509,8.5456074,488.105,488.105,1756153010208563,0,0.25,0.5,1.0,1.0,0.0,0.0,0,0,0.0,0.0,0.0,0.0,3.4293973,0,nan,nan,0.0,0.0,0,3,0,0,1,10,0,0,0
121288000,0,47.3977508,8.5456074,488.101,488.101,1756153010608563,0,0.25,0.5,1.0,1.0,0.0,0.0,0,0,0.0,0.0,0.01,0.02,2.2467623,0,nan,nan,0.0,0.0,0,3,0,0,1,10,0,0,0
121688000,0,47.3977508,8.5456074,488.101,488.101,1756153011004563,0,0.25,0.5,1.0,1.0,0.0,0.0,0,0,0.0,0.0,0.0,-0.03,0.31991884,0,nan,nan,0.0,0.0,0,3,0,0,1,10,0,0,0
122088000,0,47.3977508,8.5456073,488.1,488.1,1756153011404563,0,0.25,0.5,1.0,1.0,0.0,0.0,0,0,0.0,0.01,0.0,-0.04,0.19128808,0,nan,nan,0.0,0.0,0,3,0,0,1,10,0,0,0
122488000,0,47.3977508,8.5456074,488.108,488.108,1756153011808563,0,0.25,0.5,1.0,1.0,0.0,0.0,0,0,0.0,-0.01,-0.02,-0.02,4.084594,0,nan,nan,0.0,0.0,0,3,0,0,1,10,0,0,0
122888000,0,47.3977508,8.5456074,488.104,488.104,1756153012208563,0,0.25,0.5,1.0,1.0,0.0,0.0,0,0,0.0,-0.02,0.0,-0.01,2.8242917,0,nan,nan,0.0,0.0,0,3,0,0,1,10,0,0,0
123288000,0,47.3977508,8.5456074,488.11400000000003,488.11400000000003,1756153012608563,0,0.25,0.5,1.0,1.0,0.0,0.0,0,0,0.0,-0.01,0.0,0.01,2.9119072,0,nan,nan,0.0,0.0,0,3,0,0,1,10,0,0,0
123688000,0,47.3977508,8.5456073,488.112,488.112,1756153013004563,0,0.25,0.5,1.0,1.0,0.0,0.0,0,0,0.0,0.0,0.0,0.0,2.3209388,0,nan,nan,0.0,0.0,0,3,0,0,1,10,0,0,0
124088000,0,47.397750699999996,8.5456074,488.106,488.106,1756153013404563,0,0.25,0.5,1.0,1.0,0.0,0.0,0,0,0.0,-0.01,-0.03,0.02,4.2416735,0,nan,nan,0.0,0.0,0,3,0,0,1,10,0,0,0
124488000,0,47.3977508,8.5456074,488.119,488.119,1756153013808563,0,0.25,0.5,1.0,1.0,0.0,0.0,0,0,0.0,0.01,0.0,-0.01,5.698325,0,nan,nan,0.0,0.0,0,3,0,0,1,10,0,0,0
124888000,0,47.3977508,8.5456074,488.112,488.112,1756153014208563,0,0.25,0.5,1.0,1.0,0.0,0.0,0,0,0.0,-0.01,0.0,-0.02,2.6075218,0,nan,nan,0.0,0.0,0,3,0,0,1,10,0,0,0
125288000,0,47.3977508,8.5456074,488.106,488.106,1756153014608563,0,0.25,0.5,1.0,1.0,0.0,0.0,0,0,0.0,0.01,0.01,-0.01,0.9503317,0,nan,nan,0.0,0.0,0,3,0,0,1,10,0,0,0
125688000,0,47.3977508,8.5456074,488.101,488.101,1756153015004563,0,0.25,0.5,1.0,1.0,0.0,0.0,0,0,0.0,0.0,0.0,-0.02,2.956064,0,nan,nan,0.0,0.0,0,3,0,0,1,10,0,0,0
126088000,0,47.3977508,8.5456074,488.096,488.096,1756153015404563,0,0.25,0.5,1.0,1.0,0.0,0.0,0,0,0.0,-0.01,-0.01,0.0,4.159643,0,nan,nan,0.0,0.0,0,3,0,0,1,10,0,0,0
126488000,0,47.3977508,8.5456074,488.11,488.11,1756153015808563,0,0.25,0.5,1.0,1.0,0.0,0.0,0,0,0.0,-0.01,0.02,0.0,2.1724112,0,nan,nan,0.0,0.0,0,3,0,0,1,10,0,0,0
126888000,0,47.3977508,8.5456074,488.103,488.103,1756153016208563,0,0.25,0.5,1.0,1.0,0.0,0.0,0,0,0.0,0.0,-0.01,0.02,4.885351,0,nan,nan,0.0,0.0,0,3,0,0,1,10,0,0,0
127288000,0,47.3977508,8.5456074,488.103,488.103,1756153016608563,0,0.25,0.5,1.0,1.0,0.0,0.0,0,0,0.0,0.01,0.0,-0.01,5.8641315,0,nan,nan,0.0,0.0,0,3,0,0,1,10,0,0,0
127688000,0,47.3977508,8.5456074,488.11400000000003,488.11400000000003,1756153017004563,0,0.25,0.5,1.0,1.0,0.0,0.0,0,0,0.0,0.0,0.0,0.03,6.2390285,0,nan,nan,0.0,0.0,0,3,0,0,1,10,0,0,0
128088000,0,47.3977508,8.5456074,488.118,488.118,1756153017404563,0,0.25,0.5,1.0,1.0,0.0,0.0,0,0,0.0,0.0,-0.01,0.02,5.2970743,0,nan,nan,0.0,0.0,0,3,0,0,1,10,0,0,0
128492000,0,47.3977508,8.5456074,488.107,488.107,1756153017808563,0,0.25,0.5,1.0,1.0,0.0,0.0,0,0,0.0,-0.01,0.01,-0.02,2.3712044,0,nan,nan,0.0,0.0,0,3,0,0,1,10,0,0,0
128888000,0,47.397750699999996,8.5456074,488.108,488.108,1756153018204563,0,0.25,0.5,1.0,1.0,0.0,0.0,0,0,0.0,0.0,0.0,-0.02,3.7219145,0,nan,nan,0.0,0.0,0,3,0,0,1,10,0,0,0
129288000,0,47.3977508,8.5456075,488.101,488.101,1756153018608563,0,0.25,0.5,1.0,1.0,0.0,0.0,0,0,0.0,0.0,-0.02,-0.01,4.4116683,0,nan,nan,0.0,0.0,0,3,0,0,1,10,0,0,0
129688000,0,47.3977508,8.5456074,488.10200000000003,488.10200000000003,1756153019008563,0,0.25,0.5,1.0,1.0,0.0,0.0,0,0,0.0,0.0,0.0,-0.01,3.6203363,0,nan,nan,0.0,0.0,0,3,0,0,1,10,0,0,0
130088000,0,47.3977508,8.5456074,488.118,488.118,1756153019404563,0,0.25,0.5,1.0,1.0,0.0,0.0,0,0,0.0,0.0,0.0,0.0,5.638111,0,nan,nan,0.0,0.0,0,3,0,0,1,10,0,0,0
130488000,0,47.3977508,8.5456074,488.106,488.106,1756153019808563,0,0.25,0.5,1.0,1.0,0.0,0.0,0,0,0.0,0.0,0.0,-0.02,0.4738569,0,nan,nan,0.0,0.0,0,3,0,0,1,10,0,0,0
130888000,0,47.3977508,8.5456074,488.099,488.099,1756153020204563,0,0.25,0.5,1.0,1.0,0.0,0.0,0,0,0.0,0.0,-0.01,0.01,4.1948986,0,nan,nan,0.0,0.0,0,3,0,0,1,10,0,0,0
131288000,0,47.3977508,8.5456074,488.10200000000003,488.10200000000003,1756153020608563,0,0.25,0.5,1.0,1.0,0.0,0.0,0,0,0.0,0.01,0.0,0.0,0.5920156,0,nan,nan,0.0,0.0,0,3,0,0,1,10,0,0,0
131688000,0,47.3977508,8.5456074,488.108,488.108,1756153021008563,0,0.25,0.5,1.0,1.0,0.0,0.0,0,0,0.0,0.01,0.0,0.0,0.4050909,0,nan,nan,0.0,0.0,0,3,0,0,1,10,0,0,0
132088000,0,47.3977508,8.5456074,488.103,488.103,1756153021404563,0,0.25,0.5,1.0,1.0,0.0,0.0,0,0,0.0,-0.01,0.0,0.01,2.9471629,0,nan,nan,0.0,0.0,0,3,0,0,1,10,0,0,0
132488000,0,47.3977508,8.5456074,488.10900000000004,488.10900000000004,1756153021808563,0,0.25,0.5,1.0,1.0,0.0,0.0,0,0,0.0,0.0,0.0,0.0,3.8852775,0,nan,nan,0.0,0.0,0,3,0,0,1,10,0,0,0
132888000,0,47.3977508,8.5456074,488.107,488.107,1756153022204563,0,0.25,0.5,1.0,1.0,0.0,0.0,0,0,0.0,0.0,0.0,0.01,2.626895,0,nan,nan,0.0,0.0,0,3,0,0,1,10,0,0,0
133288000,0,47.3977508,8.5456074,488.104,488.104,1756153022608563,0,0.25,0.5,1.0,1.0,0.0,0.0,0,0,0.0,0.0,0.02,0.0,1.60675,0,nan,nan,0.0,0.0,0,3,0,0,1,10,0,0,0
133688000,0,47.3977508,8.5456075,488.11,488.11,1756153023008563,0,0.25,0.5,1.0,1.0,0.0,0.0,0,0,0.0,-0.01,0.0,0.03,3.785968,0,nan,nan,0.0,0.0,0,3,0,0,1,10,0,0,0
134088000,0,47.3977508,8.5456074,488.105,488.105,1756153023404563,0,0.25,0.5,1.0,1.0,0.0,0.0,0,0,0.0,0.0,0.0,0.02,4.3615775,0,nan,nan,0.0,0.0,0,3,0,0,1,10,0,0,0
134488000,0,47.3977508,8.5456074,488.103,488.103,1756153023808563,0,0.25,0.5,1.0,1.0,0.0,0.0,0,0,0.0,0.0,0.0,0.07,4.0325828,0,nan,nan,0.0,0.0,0,3,0,0,1,10,0,0,0
134888000,0,47.3977508,8.5456074,488.112,488.112,1756153024204563,0,0.25,0.5,1.0,1.0,0.0,0.0,0,0,0.0,0.01,0.0,0.01,6.010914,0,nan,nan,0.0,0.0,0,3,0,0,1,10,0,0,0
135288000,0,47.3977508,8.5456074,488.104,488.104,1756153024608563,0,0.25,0.5,1.0,1.0,0.0,0.0,0,0,0.0,0.0,0.0,-0.01,4.735078,0,nan,nan,0.0,0.0,0,3,0,0,1,10,0,0,0
135688000,0,47.3977508,8.5456074,488.104,488.104,1756153025008563,0,0.25,0.5,1.0,1.0,0.0,0.0,0,0,0.0,-0.01,0.0,0.03,3.310366,0,nan,nan,0.0,0.0,0,3,0,0,1,10,0,0,0
136088000,0,47.3977508,8.5456074,488.10200000000003,488.10200000000003,1756153025404563,0,0.25,0.5,1.0,1.0,0.0,0.0,0,0,0.0,0.0,0.02,-0.01,1.3580407,0,nan,nan,0.0,0.0,0,3,0,0,1,10,0,0,0
136488000,0,47.3977508,8.5456074,488.107,488.107,1756153025808563,0,0.25,0.5,1.0,1.0,0.0,0.0,0,0,0.0,0.0,0.0,-0.03,5.2412233,0,nan,nan,0.0,0.0,0,3,0,0,1,10,0,0,0
136888000,0,47.3977508,8.5456074,488.11,488.11,1756153026204563,0,0.25,0.5,1.0,1.0,0.0,0.0,0,0,0.0,0.0,-0.01,0.01,4.2924623,0,nan,nan,0.0,0.0,0,3,0,0,1,10,0,0,0
137288000,0,47.3977508,8.5456074,488.101,488.101,1756153026608563,0,0.25,0.5,1.0,1.0,0.0,0.0,0,0,0.0,0.0,0.0,0.01,4.965636,0,nan,nan,0.0,0.0,0,3,0,0,1,10,0,0,0
137688000,0,47.3977508,8.5456074,488.10900000000004,488.10900000000004,1756153027008563,0,0.25,0.5,1.0,1.0,0.0,0.0,0,0,0.0,0.0,-0.02,-0.01,4.4565234,0,nan,nan,0.0,0.0,0,3,0,0,1,10,0,0,0
138088000,0,47.3977508,8.5456074,488.111,488.111,1756153027404563,0,0.25,0.5,1.0,1.0,0.0,0.0,0,0,0.0,0.01,0.0,0.0,0.7311184,0,nan,nan,0.0,0.0,0,3,0,0,1,10,0,0,0
138488000,0,47.3977508,8.5456074,488.10200000000003,488.10200000000003,1756153027808563,0,0.25,0.5,1.0,1.0,0.0,0.0,0,0,0.0,-0.01,0.01,0.0,2.2835886,0,nan,nan,0.0,0.0,0,3,0,0,1,10,0,0,0
138888000,0,47.3977508,8.5456074,488.111,488.111,1756153028204563,0,0.25,0.5,1.0,1.0,0.0,0.0,0,0,0.0,0.0,0.0,0.0,0.17540559,0,nan,nan,0.0,0.0,0,3,0,0,1,10,0,0,0
139288000,0,47.3977508,8.5456074,488.11,488.11,1756153028608563,0,0.25,0.5,1.0,1.0,0.0,0.0,0,0,0.0,-0.01,0.02,-0.02,2.2635176,0,nan,nan,0.0,0.0,0,3,0,0,1,10,0,0,0
139688000,0,47.3977508,8.5456074,488.11,488.11,1756153029008563,0,0.25,0.5,1.0,1.0,0.0,0.0,0,0,0.0,-0.01,0.02,-0.04,2.1954496,0,nan,nan,0.0,0.0,0,3,0,0,1,10,0,0,0
140088000,0,47.3977508,8.5456074,488.11,488.11,1756153029404563,0,0.25,0.5,1.0,1.0,0.0,0.0,0,0,0.0,0.0,0.0,0.03,4.2048473,0,nan,nan,0.0,0.0,0,3,0,0,1,10,0,0,0
140488000,0,47.3977508,8.5456073,488.103,488.103,1756153029808563,0,0.25,0.5,1.0,1.0,0.0,0.0,0,0,0.0,0.0,0.01,0.03,1.128879,0,nan,nan,0.0,0.0,0,3,0,0,1,10,0,0,0
140888000,0,47.3977508,8.5456074,488.115,488.115,1756153030204563,0,0.25,0.5,1.0,1.0,0.0,0.0,0,0,0.0,-0.01,0.01,0.0,2.3218114,0,nan,nan,0.0,0.0,0,3,0,0,1,10,0,0,0
141288000,0,47.3977508,8.5456074,488.106,488.106,1756153030608563,0,0.25,0.5,1.0,1.0,0.0,0.0,0,0,0.0,0.01,0.0,-0.01,5.702165,0,nan,nan,0.0,0.0,0,3,0,0,1,10,0,0,0
141688000,0,47.397750699999996,8.5456075,488.108,488.108,1756153031008563,0,0.25,0.5,1.0,1.0,0.0,0.0,0,0,0.0,-0.01,0.01,-0.02,2.2652626,0,nan,nan,0.0,0.0,0,3,0,0,1,10,0,0,0
142088000,0,47.3977508,8.5456074,488.09700000000004,488.09700000000004,1756153031404563,0,0.25,0.5,1.0,1.0,0.0,0.0,0,0,0.0,0.0,0.0,-0.03,3.7149332,0,nan,nan,0.0,0.0,0,3,0,0,1,10,0,0,0
142488000,0,47.3977508,8.5456074,488.101,488.101,1756153031808563,0,0.25,0.5,1.0,1.0,0.0,0.0,0,0,0.0,0.0,0.0,0.0,3.3450978,0,nan,nan,0.0,0.0,0,3,0,0,1,10,0,0,0
142888000,0,47.3977508,8.5456074,488.104,488.104,1756153032204563,0,0.25,0.5,1.0,1.0,0.0,0.0,0,0,0.0,-0.01,0.0,0.07,3.028495,0,nan,nan,0.0,0.0,0,3,0,0,1,10,0,0,0
143288000,0,47.3977508,8.5456074,488.10900000000004,488.10900000000004,1756153032608563,0,0.25,0.5,1.0,1.0,0.0,0.0,0,0,0.0,0.0,0.0,0.0,3.0770154,0,nan,nan,0.0,0.0,0,3,0,0,1,10,0,0,0
143684000,0,47.3977508,8.5456074,488.113,488.113,1756153033008563,0,0.25,0.5,1.0,1.0,0.0,0.0,0,0,0.0,-0.01,0.01,0.04,2.3378685,0,nan,nan,0.0,0.0,0,3,0,0,1,10,0,0,0
144088000,0,47.3977508,8.5456074,488.115,488.115,1756153033404563,0,0.25,0.5,1.0,1.0,0.0,0.0,0,0,0.0,0.0,0.01,-0.01,1.3273228,0,nan,nan,0.0,0.0,0,3,0,0,1,10,0,0,0
