timestamp,timestamp_sample,xyz[0],xyz[1],xyz[2]
1264000,1264000,-0.00736719,0.034634773,0.019939624
1268000,1268000,-0.016822152,0.09537914,0.0009710742
1316000,1316000,-0.058980633,-0.04484489,0.052922808
1364000,1364000,-0.05611255,-0.021718124,-0.007989478
1416000,1416000,0.019768346,0.06389041,-0.019334046
1464000,1464000,-0.024444992,0.008429937,-0.045517482
1516000,1516000,0.037164785,-0.034152344,-9.950907
1564000,1564000,-0.0619807,-0.007427795,-9.753813
1616000,1616000,-0.03575646,-0.0068820044,-9.817514
1664000,1664000,-0.014033838,-0.013005992,-9.791014
1716000,1716000,0.01819542,-0.0338444,-9.803298
1764000,1764000,0.06471685,0.04306956,-9.806318
1816000,1816000,-0.021135796,0.055573676,-9.722332
1864000,1864000,-0.11313577,-0.001609636,-9.892006
1916000,1916000,-0.007938622,0.04119847,-9.7777
1964000,1964000,-0.009672688,0.035332747,-9.766548
2016000,2016000,0.0026816297,-0.020782638,-9.753979
2064000,2064000,0.041181993,-0.014936773,-9.777302
2116000,2116000,-0.025205938,0.058419824,-9.764974
2164000,2164000,-0.010696163,0.015386092,-9.73865
2216000,2216000,0.010405617,-0.035771087,-9.7967415
2264000,2264000,-0.012687749,0.018053034,-9.858025
2316000,2316000,0.006646514,-0.017520769,-9.876849
2364000,2364000,-0.020225037,-0.041718233,-9.779569
2416000,2416000,0.012496258,0.048212163,-9.803623
2464000,2464000,0.0035759353,-0.054864008,-9.793411
2516000,2516000,0.022813976,0.06681232,-9.861736
2564000,2564000,-0.022946848,-0.054929085,-9.820474
2616000,2616000,-0.013372281,0.073790744,-9.78907
2664000,2664000,-0.051335894,-0.05575856,-9.721376
2716000,2716000,0.020263843,0.09807702,-9.873848
2764000,2764000,-0.008692056,-0.030500416,-9.766641
2816000,2816000,-0.006983354,0.03917898,-9.853183
2864000,2864000,-0.032250673,-0.057548363,-9.819175
2916000,2916000,-0.0047817347,0.019053329,-9.890483
2964000,2964000,-0.09690893,-0.024710052,-9.878921
3016000,3016000,-0.014206249,-0.036251478,-9.762419
3064000,3064000,-0.04419712,0.02952997,-9.881958
3116000,3116000,-0.075855576,0.069618516,-9.803886
3164000,3164000,0.06727082,0.015895726,-9.694111
3216000,3216000,-0.09438821,-0.01797876,-9.785788
3264000,3264000,-0.0031733299,0.05378256,-9.834303
3316000,3316000,-0.046005797,0.04079268,-9.850739
3364000,3364000,0.08698586,0.09799653,-9.789573
3416000,3416000,-0.05517134,0.011079438,-9.839616
3464000,3464000,0.066997506,-0.10988073,-9.777506
3516000,3516000,-0.06998585,0.035186436,-9.729375
3564000,3564000,-0.0033790485,0.025014807,-9.783073
3616000,3616000,0.05756111,-0.053810082,-9.861513
3664000,3664000,0.0030527096,-0.045174826,-9.81274
3716000,3716000,0.045138445,-0.026499212,-9.803074
3764000,3764000,0.09123783,-0.022476643,-9.873763
3816000,3816000,-0.011584131,0.016456984,-9.768963
3864000,3864000,-0.07967274,-0.034258645,-9.800686
3916000,3916000,-0.009947158,0.026191851,-9.772408
3964000,3964000,-0.003184273,-0.0049905395,-9.890109
4016000,4016000,-0.014304276,0.010301497,-9.727023
4064000,4064000,-0.038472366,-0.0052498532,-9.870399
4116000,4116000,0.09357718,-0.08472751,-9.88422
4164000,4164000,0.048156522,0.024970323,-9.774828
4216000,4216000,-0.02130776,0.0077135144,-9.805954
4264000,4264000,0.07578306,0.046271227,-9.734152
4316000,4316000,-0.031425558,-0.05223328,-9.808887
4364000,4364000,0.061045438,0.043480806,-9.794418
4416000,4416000,0.04352746,-0.008920275,-9.817998
4464000,4464000,-0.02693469,-0.044714846,-9.791969
4516000,4516000,-0.0023031542,0.059687465,-9.7831135
4564000,4564000,-0.023763862,-0.05849563,-9.808719
4616000,4616000,-0.0012057773,0.069883,-9.726967
4664000,4664000,0.005964873,-0.05410355,-9.827718
4716000,4716000,-0.087464854,-0.05411412,-9.796702
4764000,4764000,-0.08220956,-0.05531887,-9.907797
4816000,4816000,-0.07177613,0.10064718,-9.793212
4864000,4864000,-0.035372566,0.017268224,-9.842613
4916000,4916000,-0.07700196,-0.02073626,-9.742025
4964000,4964000,-0.08039697,0.020761168,-9.770423
5016000,5016000,-0.0065713534,0.10846337,-9.842973
5064000,5064000,-0.09917814,0.03259192,-9.745799
5116000,5116000,0.036848873,0.007430908,-9.807292
5164000,5164000,-0.044653878,0.05115532,-9.7911005
5216000,5216000,-0.10924755,-0.022785766,-9.845707
5264000,5264000,0.033230297,0.004016145,-9.827517
5316000,5316000,-0.01635367,-0.035042703,-9.7071705
5364000,5364000,-0.06939778,-0.010943291,-9.840292
5416000,5416000,-0.026550341,-0.048655223,-9.829311
5464000,5464000,0.04926108,0.038117137,-9.750355
5516000,5516000,-0.049387157,-0.035489313,-9.815553
5564000,5564000,-0.040657245,0.026362918,-9.803065
5612000,5612000,-0.07484418,-0.0393638,-9.73632
5664000,5664000,-0.04996666,0.055906028,-9.73595
5716000,5716000,-0.061886366,0.098283246,-9.896696
5764000,5764000,-0.033366583,-0.060535748,-9.894101
5816000,5816000,0.051371597,0.049180552,-9.857491
5864000,5864000,-0.006960099,-0.034534816,-9.811314
5916000,5916000,-0.017366022,-0.037641607,-9.828622
5964000,5964000,-0.039357267,-0.025466023,-9.946474
6016000,6016000,0.059010997,-0.015867818,-9.8459835
6064000,6064000,-0.058337387,0.039061986,-9.821045
6116000,6116000,0.028599747,0.1416756,-9.698336
6164000,6164000,-0.028455134,0.06761424,-9.929183
6216000,6216000,-0.015552567,-0.007783833,-9.747962
6264000,6264000,-0.0056558596,0.024375878,-9.820074
6316000,6316000,-0.023982704,-0.061315913,-9.89675
6364000,6364000,-0.0007566195,0.0554747,-9.84729
6416000,6416000,0.0601079,-0.04158937,-9.763067
6464000,6464000,-0.06407365,0.0015018471,-9.796133
6516000,6516000,-0.042122662,-0.06994338,-9.755902
6564000,6564000,0.010881797,0.0114854565,-9.753238
6616000,6616000,0.026205141,0.031081837,-9.820429
6664000,6664000,-0.010756131,0.034629177,-9.874495
6712000,6712000,-0.033469055,-0.089866996,-9.892338
6760000,6760000,0.05335788,0.07024813,-9.765808
6816000,6816000,-0.031166054,0.04365778,-9.843894
6864000,6864000,-0.05301063,0.018994112,-9.855819
6916000,6916000,-0.012388276,0.034661315,-9.863873
6964000,6964000,-0.020151908,0.0009574278,-9.757968
7016000,7016000,0.04956839,0.03537067,-9.792038
7064000,7064000,-0.08426992,-0.036162738,-9.802494
7116000,7116000,-0.100003146,0.10524103,-9.843522
7164000,7164000,-0.041851275,0.06092948,-9.758274
7216000,7216000,-0.054318544,-0.021294229,-9.817425
7264000,7264000,-0.025539378,0.0019074366,-9.748056
7316000,7316000,0.031276993,0.061212942,-9.775439
7364000,7364000,0.06425987,0.040486153,-9.8699465
7416000,7416000,0.00012996886,-0.025503596,-9.85225
7464000,7464000,0.057268694,-0.002853832,-9.856646
7516000,7516000,-0.010903094,0.086284116,-9.910887
7564000,7564000,0.004581415,0.033175614,-9.757483
7616000,7616000,0.030884204,0.004487196,-9.740134
7664000,7664000,0.08980955,0.037747182,-9.825998
7716000,7716000,0.029847898,0.035764907,-9.869562
7760000,7760000,-0.029515633,0.111756995,-9.839533
7816000,7816000,0.025672283,-0.00047012116,-9.821413
7864000,7864000,0.021636195,0.02015334,-9.805767
7916000,7916000,0.020805776,0.02623751,-9.820405
7964000,7964000,-0.0076062577,0.060139373,-9.7859535
8016000,8016000,-0.0019981079,0.0762212,-9.873444
8064000,8064000,0.03976866,0.08918609,-9.857496
8116000,8116000,0.00025573606,-0.04768668,-9.807167
8164000,8164000,0.055440795,-0.004910818,-9.962176
8216000,8216000,0.013924675,-0.00029366137,-9.751391
8264000,8264000,0.06325074,-0.03631007,-9.729139
8316000,8316000,-0.013102006,0.016008735,-9.767728
8364000,8364000,-0.00086784083,-0.008351632,-9.891549
8416000,8416000,-0.0065577943,0.038376525,-9.783228
8464000,8464000,-0.0046214326,0.03320932,-9.810757
8516000,8516000,0.0010569375,-0.07149334,-9.815076
8564000,8564000,-0.04296896,0.016372764,-9.786848
8616000,8616000,-0.06414037,-0.045336217,-9.832319
8664000,8664000,0.019161994,0.057626255,-9.806603
8716000,8716000,-0.0013081515,-0.02307914,-9.873453
8764000,8764000,0.07836943,0.009195657,-9.745569
8816000,8816000,-0.05919338,-0.07128373,-9.835674
8864000,8864000,-0.0018345648,-0.07156467,-9.815961
8916000,8916000,0.006092365,0.0028855237,-9.837737
8964000,8964000,-0.0071433713,-0.028014733,-9.891527
9016000,9016000,-0.06555333,0.06709606,-9.802539
9064000,9064000,-0.023782115,0.03259777,-9.828747
9116000,9116000,0.03012266,-0.044502582,-9.791891
9164000,9164000,0.07859685,-0.0026431629,-9.807561
9216000,9216000,-0.05722246,-0.14143255,-9.867186
9264000,9264000,4.996825e-05,-0.003004379,-9.875185
9316000,9316000,0.014290804,-0.021861501,-9.757927
9364000,9364000,-0.03003018,0.06447852,-9.755635
9416000,9416000,0.046726998,0.13624498,-9.775798
9464000,9464000,-0.036113515,-0.028733969,-9.876843
9516000,9516000,-0.0004153977,0.007567594,-9.790821
9564000,9564000,0.048850812,0.09542321,-9.766432
9616000,9616000,0.03688036,0.047065273,-9.798372
9664000,9664000,0.03595965,0.031804193,-9.80163
9716000,9716000,-0.010664069,0.041415244,-9.829083
9764000,9764000,0.0028396882,0.0629784,-9.830503
9816000,9816000,0.11972867,-0.08216917,-9.67584
9864000,9864000,0.056805868,0.06449732,-9.760656
9916000,9916000,-0.014635096,0.038064465,-9.783785
9964000,9964000,-0.008229507,0.029603248,-9.800728
10016000,10016000,0.07044602,0.09917129,-9.852328
10064000,10064000,0.070811495,0.003306339,-9.833457
10116000,10116000,-0.007196748,0.022894207,-9.79073
10164000,10164000,0.03608009,-0.043007523,-9.76856
10216000,10216000,-0.04417763,0.012973782,-9.751635
10264000,10264000,-0.07375491,0.010893503,-9.795784
10316000,10316000,-0.006779814,-0.044445988,-9.742248
10364000,10364000,0.017291702,-0.010110237,-9.825131
10416000,10416000,0.02699271,-0.04567552,-9.930706
10464000,10464000,0.0009460151,0.034161903,-9.785595
10516000,10516000,-0.0138546,0.07616683,-9.870309
10564000,10564000,-0.013860331,-0.030614924,-9.758972
10616000,10616000,0.05249235,0.014934379,-9.749301
10664000,10664000,0.030979583,0.03330214,-9.800358
10716000,10716000,-0.10283978,0.00982424,-9.817585
10760000,10760000,0.05443663,0.023908626,-9.827827
10816000,10816000,0.018012537,0.005314412,-9.808479
10864000,10864000,-0.0004718341,0.11061794,-9.767083
10916000,10916000,0.01865038,0.041192353,-9.860883
10964000,10964000,-0.015126412,-0.0021629282,-9.808452
11016000,11016000,-0.09640287,0.06633411,-9.834135
11064000,11064000,0.065413505,0.03786662,-9.751588
11116000,11116000,-0.020476565,-0.008243585,-9.813402
11164000,11164000,0.07614991,0.00734502,-9.852896
11216000,11216000,-0.022344338,0.05349031,-9.802344
11264000,11264000,0.061716784,0.022443404,-9.846164
11316000,11316000,-0.081548795,0.030045893,-9.727486
11360000,11360000,0.008200073,0.07460411,-9.775508
11416000,11416000,-0.03376585,0.0665127,-9.831299
11464000,11464000,0.036411997,0.10123846,-9.801006
11516000,11516000,0.107150376,-0.015052744,-9.9225645
11564000,11564000,0.046337135,-0.077636704,-9.791318
11616000,11616000,0.03177835,-0.0647047,-9.844667
11664000,11664000,-0.0036118012,0.043695815,-9.767252
11716000,11716000,0.021827335,0.04119049,-9.742214
11764000,11764000,0.026277335,0.095195934,-9.836439
11816000,11816000,0.00521219,0.030889653,-9.831156
11864000,11864000,-0.021275507,0.048874933,-9.845011
11916000,11916000,-0.11014401,-0.020553686,-9.77201
11964000,11964000,-0.050194584,0.03280004,-9.85383
12016000,12016000,0.1048355,-0.009369879,-9.805867
12064000,12064000,-0.017203677,-0.006504333,-9.773982
12116000,12116000,0.059231825,-0.013858421,-9.883533
12164000,12164000,0.030598087,-0.018253282,-9.834231
12216000,12216000,-0.026875231,-0.05207959,-9.860086
12264000,12264000,0.127114,0.08401595,-9.820146
12316000,12316000,0.015331155,-0.070343815,-9.814316
12364000,12364000,0.068454005,0.034276217,-9.783776
12416000,12416000,-0.03098289,-0.012910433,-9.819517
12464000,12464000,-0.05577457,-0.070506275,-9.854116
12516000,12516000,0.026813103,0.050970297,-9.768567
12564000,12564000,-0.075809486,0.089056775,-9.836247
12616000,12616000,-0.03589938,-0.029611364,-9.851965
12664000,12664000,0.051971603,0.025280308,-9.810707
12716000,12716000,-0.093089595,-0.025635675,-9.780466
12764000,12764000,0.021008942,0.112525806,-9.9097595
12816000,12816000,0.06041886,-0.012401265,-9.799081
12864000,12864000,0.008044911,-0.0012019011,-9.796287
12916000,12916000,0.04838141,0.045425728,-9.76074
12964000,12964000,-0.012212983,-0.025195444,-9.856737
13016000,13016000,-0.009554541,-0.09894119,-9.808396
13064000,13064000,0.051204383,-0.017143268,-9.784684
13116000,13116000,0.027948938,0.0010790601,-9.808789
13164000,13164000,-0.0315037,-0.014506387,-9.852908
13216000,13216000,-0.038399123,-0.0027352264,-9.782074
13264000,13264000,0.0036832576,0.02267307,-9.870948
13316000,13316000,-0.004788055,-0.023737837,-9.730151
13364000,13364000,-0.030075155,0.009107322,-9.760842
13416000,13416000,0.095625125,-0.0032641678,-9.807195
13464000,13464000,0.055821456,0.041458417,-9.875364
13516000,13516000,0.08467254,0.05146939,-9.750275
13564000,13564000,-0.030796016,0.122255616,-9.851098
13616000,13616000,-0.036601823,0.10103225,-9.893909
13664000,13664000,0.062390476,-0.018391646,-9.819643
13716000,13716000,-0.008031332,0.050139416,-9.8003435
13764000,13764000,0.068361074,0.054268546,-9.7878065
13816000,13816000,-0.016249705,-0.041291814,-9.760506
13864000,13864000,-0.0005340539,0.12960751,-9.698095
13916000,13916000,0.03599437,0.0012004268,-9.807667
13964000,13964000,0.019188613,-0.028034229,-9.82909
14016000,14016000,0.050338037,0.10063344,-9.797557
14064000,14064000,-0.0044649723,0.019391917,-9.781442
14116000,14116000,-0.0696358,0.117632985,-9.862136
14164000,14164000,-0.0454905,0.021628803,-9.797794
14216000,14216000,-0.03982593,-0.0084712915,-9.788127
14264000,14264000,-0.008893399,0.008427606,-9.794605
14316000,14316000,-0.037442215,0.004599771,-9.763691
14364000,14364000,0.050166924,0.040203013,-9.822903
14416000,14416000,-0.026977986,-0.006140994,-9.885383
14464000,14464000,0.011929176,0.010450971,-9.771267
14512000,14512000,0.04072225,0.04476966,-9.853643
14564000,14564000,0.06484636,-0.0134697445,-9.869847
14616000,14616000,-0.054522105,0.038899034,-9.852484
14664000,14664000,-0.09799771,0.033589363,-9.76169
14716000,14716000,0.05933607,0.0025872015,-9.722318
14764000,14764000,-0.068634905,-0.104966454,-9.906614
14816000,14816000,-0.04093869,0.0926702,-9.720062
14864000,14864000,0.08204891,-0.027054762,-9.812013
14916000,14916000,0.02703072,0.0011099679,-9.805207
14964000,14964000,0.035208885,-0.023934746,-9.762696
15016000,15016000,-0.057252914,-0.06113285,-9.871986
15064000,15064000,0.009891029,-0.021817144,-9.841398
15116000,15116000,-0.0069927676,0.05371728,-9.744734
15164000,15164000,0.0694588,0.06862325,-9.831103
15216000,15216000,0.034619324,-0.034375705,-9.830769
15264000,15264000,-0.028902583,-0.094553985,-9.77417
15316000,15316000,-0.0330868,0.082001925,-9.849222
15364000,15364000,0.020445831,0.006178896,-9.806086
15416000,15416000,0.03109424,0.064855345,-9.800472
15460000,15460000,0.01404169,-0.005530972,-9.835619
15516000,15516000,0.057308964,-0.06710564,-9.832367
15564000,15564000,-0.100369535,0.0888996,-9.775381
15616000,15616000,-0.022410512,-0.02837019,-9.827429
15664000,15664000,-0.030569274,-0.028211903,-9.86429
15716000,15716000,-0.016952032,-0.0047864816,-9.846504
15764000,15764000,-0.026415603,0.007732977,-9.8091955
15816000,15816000,0.045507703,0.08364244,-9.803693
15864000,15864000,-0.03627409,-0.038620476,-9.763457
15916000,15916000,0.019936878,-0.02596585,-9.743052
15964000,15964000,-0.010821448,0.0044588675,-9.751078
16016000,16016000,-0.057384387,-0.055960372,-9.865264
16064000,16064000,-0.024652362,0.020317808,-9.79718
16116000,16116000,0.07038247,0.039152782,-9.838129
16164000,16164000,0.017166747,0.040660605,-9.811078
16216000,16216000,-0.036335044,-0.0048322394,-9.879396
16264000,16264000,0.023556873,0.021280505,-9.800459
16316000,16316000,0.060726237,-0.018530712,-9.825309
16364000,16364000,0.11699061,0.05102691,-9.925206
16416000,16416000,-0.019320061,-0.039757863,-9.75152
16464000,16464000,-0.08548371,-0.049912807,-9.831375
16516000,16516000,-0.09189798,0.008604294,-9.882574
16564000,16564000,0.026538972,0.041073177,-9.778145
16616000,16616000,-0.052883547,0.0045120483,-9.858345
16664000,16664000,0.03773868,-0.006154991,-9.882617
16716000,16716000,0.03826933,-0.036886763,-9.828463
16764000,16764000,-0.0067943614,0.03418312,-9.767161
16816000,16816000,-0.024805903,0.022453513,-9.705036
16864000,16864000,-0.009679483,-0.03346514,-9.718353
16916000,16916000,-0.0064621232,-0.0027584997,-9.793599
16964000,16964000,0.06768046,0.033282075,-9.834105
17016000,17016000,-0.034116663,0.025092559,-9.675364
17064000,17064000,-0.0005185148,-0.023850322,-9.7435255
17116000,17116000,0.019951746,0.036478378,-9.773615
17164000,17164000,0.03575299,0.025224898,-9.813421
17216000,17216000,-0.053114858,0.018047841,-9.796559
17264000,17264000,-0.016463313,-0.0039662067,-9.788099
17316000,17316000,0.037026502,-0.021096513,-9.743059
17364000,17364000,0.08701583,0.05175109,-9.81412
17416000,17416000,0.055367626,0.022179414,-9.685921
17464000,17464000,0.066923596,0.023481492,-9.793019
17516000,17516000,0.07429348,-0.07274043,-9.847092
17564000,17564000,0.017034952,0.099556,-9.853624
17616000,17616000,0.05007252,0.08432371,-9.759247
17664000,17664000,-0.018471967,-0.013885247,-9.723231
17716000,17716000,0.04948835,0.04413178,-9.808806
17764000,17764000,0.08864524,0.05565372,-9.726698
17816000,17816000,-0.042068895,-0.03585828,-9.77568
17864000,17864000,-0.013195752,-0.031169835,-9.754656
17916000,17916000,0.11521807,0.036390748,-9.779808
17964000,17964000,-0.06394647,0.093294136,-9.7997875
18016000,18016000,0.062253788,-0.0043893135,-9.770065
18064000,18064000,0.06992248,0.014554056,-9.778996
18116000,18116000,-0.044476338,-0.052266985,-9.798307
18164000,18164000,0.061358873,0.014678814,-9.78746
18216000,18216000,-0.053818002,0.044307895,-9.807693
18264000,18264000,0.027347494,0.029974066,-9.748907
18316000,18316000,0.04449124,0.03349856,-9.858589
18364000,18364000,-0.0068530403,-0.00819218,-9.898509
18416000,18416000,0.010195531,0.024304807,-9.860598
18460000,18460000,0.06941214,-0.043779284,-9.881599
18516000,18516000,0.019462597,0.094890855,-9.738917
18560000,18560000,-0.0044059306,0.02703726,-9.827629
18616000,18616000,-0.04239147,-0.004882245,-9.782889
18664000,18664000,0.09357932,-0.0024141518,-9.894519
18716000,18716000,0.12469718,0.068566374,-9.810593
18764000,18764000,0.044142216,-0.026009867,-9.794922
18816000,18816000,-0.012570731,-0.055066593,-9.827647
18864000,18864000,0.015529197,-0.031115059,-9.9153385
18916000,18916000,0.1076261,-0.033166062,-9.735719
18964000,18964000,0.12864272,0.04111801,-9.798159
19016000,19016000,0.041916993,-0.053939518,-9.880308
19064000,19064000,0.048787884,-0.058581542,-9.796482
19116000,19116000,0.039227135,0.0021926071,-9.8685875
19164000,19164000,0.06730999,0.030670773,-9.833021
19216000,19216000,-0.019421969,0.036609363,-9.73521
19264000,19264000,-0.075150356,0.0061090314,-9.855454
19316000,19316000,-0.027013063,-0.013601845,-9.824757
19364000,19364000,0.051651455,0.03533671,-9.830383
19416000,19416000,0.006142224,-0.1162631,-9.803035
19464000,19464000,0.016875854,0.06290489,-9.835397
19516000,19516000,0.014794177,0.0048532137,-9.786677
19564000,19564000,-0.003256939,-0.06343624,-9.813389
19616000,19616000,0.040292345,0.052931964,-9.878327
19660000,19660000,0.07024108,0.044555143,-9.812817
19716000,19716000,-0.09717098,0.032245997,-9.805742
19764000,19764000,-0.11105378,0.027611127,-9.802275
19816000,19816000,-0.018058846,0.0648734,-9.796467
19864000,19864000,0.0081830565,0.032098275,-9.882079
19916000,19916000,0.059015498,0.044889588,-9.795096
19964000,19964000,0.015943233,0.03577201,-9.751528
20016000,20016000,-0.027566556,-0.036175225,-9.824014
20060000,20060000,-0.0079116,0.09628989,-9.804256
20116000,20116000,0.013375101,0.03092214,-9.785032
20164000,20164000,0.07621452,-0.03998767,-9.795241
20216000,20216000,0.025942108,0.03034424,-9.792337
20264000,20264000,0.025818396,-0.07130511,-9.817409
20316000,20316000,0.018533848,0.06894899,-9.861014
20364000,20364000,-0.017121833,-0.048039336,-9.804194
20416000,20416000,-0.032430258,-0.01797749,-9.781939
20464000,20464000,-0.013998336,0.038017277,-9.86778
20516000,20516000,-0.051235184,0.01976328,-9.81004
20564000,20564000,-0.0067074816,0.029485969,-9.769782
20616000,20616000,-0.0026283013,0.026180547,-9.723088
20664000,20664000,0.08230963,-0.06763048,-9.848823
20716000,20716000,-0.035329185,0.018524207,-9.764643
20764000,20764000,-0.013639061,0.004521311,-9.844056
20816000,20816000,0.05078288,-0.06928482,-9.939272
20864000,20864000,-0.0150889885,-0.012541067,-9.803299
20916000,20916000,-0.03321965,-0.04034316,-9.743166
20964000,20964000,0.08239868,-0.039660525,-9.853409
21016000,21016000,0.08645972,0.046622094,-9.85162
21064000,21064000,-0.065921724,0.014151569,-9.847403
21116000,21116000,-0.0048198244,-0.03264919,-9.793354
21164000,21164000,0.01041229,-0.016713094,-9.744728
21216000,21216000,-0.011785632,0.014848242,-9.729275
21264000,21264000,0.040429547,-0.011012857,-9.862211
21316000,21316000,0.025479117,0.027369164,-9.828613
21364000,21364000,-0.0669504,-0.015642667,-9.7639885
21416000,21416000,0.033020943,0.04920403,-9.8333025
21464000,21464000,-0.030296087,0.0028431443,-9.763001
21516000,21516000,-0.008302872,-0.10350734,-9.788497
21564000,21564000,-0.01900005,0.028880097,-9.814042
21616000,21616000,-0.043482535,0.023398058,-9.779049
21664000,21664000,0.004916959,0.012621513,-9.839991
21716000,21716000,0.10095234,0.04777456,-9.784079
21764000,21764000,0.02665925,-0.015087809,-9.875432
21816000,21816000,0.027152533,0.01804506,-9.814407
21864000,21864000,0.0061357287,0.020225458,-9.836269
21916000,21916000,0.0075524217,0.02346621,-9.772234
21964000,21964000,-0.018580016,0.016011402,-9.805642
22016000,22016000,0.0056900117,0.081970274,-9.745541
22064000,22064000,-0.006234536,0.080016226,-9.829941
22116000,22116000,-0.016608482,-0.01783323,-9.745835
22164000,22164000,-0.0864015,0.0012811525,-9.722096
22216000,22216000,-0.056764144,0.004398383,-9.779552
22264000,22264000,0.014015906,-0.017725617,-9.854134
22316000,22316000,0.011799382,0.018856023,-9.791508
22364000,22364000,-0.044456273,0.03261071,-9.828669
22416000,22416000,-0.024207648,-0.020301081,-9.828728
22464000,22464000,0.0008663996,-0.009678766,-9.882412
22516000,22516000,-0.0732765,0.0077009704,-9.770331
22564000,22564000,-0.014103573,0.042868152,-9.8594
22616000,22616000,0.010160475,-0.001573734,-9.809305
22664000,22664000,-0.0751621,-0.006677485,-9.703543
22716000,22716000,-0.017368482,0.071472235,-9.804523
22764000,22764000,0.019562082,0.03243552,-9.817978
22816000,22816000,-0.11098899,0.07158306,-9.786136
22864000,22864000,-0.010983078,-0.04236359,-9.781818
22916000,22916000,0.029794335,-0.051030613,-9.839016
22964000,22964000,0.006283287,-0.059451215,-9.85555
23016000,23016000,0.01529598,0.0027400104,-9.785883
23064000,23064000,-0.04027242,-0.013943978,-9.81568
23116000,23116000,-0.05296324,0.024826001,-9.811369
23164000,23164000,-0.009713635,0.05160439,-9.809197
23216000,23216000,-0.027916782,0.056973748,-9.770695
23264000,23264000,-0.010449812,0.032116033,-9.745323
23316000,23316000,-0.031530842,-0.054291274,-9.7885475
23364000,23364000,0.0008266666,-0.013655041,-9.781717
23416000,23416000,0.06870608,-0.014608279,-9.730998
23464000,23464000,0.025697798,-0.11063633,-9.797957
23512000,23512000,-0.022175286,-0.027027626,-9.723153
23564000,23564000,-0.039500777,0.041380614,-9.799623
23616000,23616000,0.095548004,-0.030622507,-9.801849
23664000,23664000,-0.0543636,-0.01328437,-9.798377
23712000,23712000,-0.013192597,-0.031046137,-9.776857
23764000,23764000,0.0024097003,0.037768327,-9.76678
23816000,23816000,-0.0028696326,0.030900452,-9.800696
23864000,23864000,0.099895395,0.0022829133,-9.911071
23916000,23916000,0.0067981128,0.06192168,-9.865583
23964000,23964000,0.037077658,-0.076850675,-9.814667
24016000,24016000,-0.00318861,0.02309926,-9.746338
24060000,24060000,0.019375507,0.017452663,-9.802266
24112000,24112000,9.085657e-05,0.06350608,-9.846923
24164000,24164000,-0.036690123,0.033822093,-9.811142
24216000,24216000,0.030431606,-0.012678228,-9.809471
24260000,24260000,-0.012846943,0.00092031783,-9.882673
24316000,24316000,0.053228058,0.00093076925,-9.811047
24364000,24364000,-0.005375866,0.043643273,-9.819443
24416000,24416000,-0.004257364,-0.01125091,-9.76369
24464000,24464000,0.057737257,0.11767631,-9.716595
24516000,24516000,-0.017286224,0.046221357,-9.773225
24560000,24560000,0.032166675,0.04537963,-9.816278
24616000,24616000,0.03610082,-0.016379487,-9.882486
24664000,24664000,-0.003965112,-0.026984926,-9.77993
24716000,24716000,0.013844948,0.12641388,-9.865159
24760000,24760000,-0.03719154,0.045367576,-9.882088
24816000,24816000,-0.0527794,0.0077769444,-9.792166
24864000,24864000,0.08027145,0.038453635,-9.86906
24916000,24916000,0.08428239,-0.018866666,-9.827511
24964000,24964000,0.013765484,0.032488756,-9.782845
25016000,25016000,-0.026206164,0.025209153,-9.901003
25064000,25064000,-0.046040025,0.0052388273,-9.827101
25116000,25116000,-0.048984673,-0.0036481053,-9.823681
25164000,25164000,-0.02803822,-0.05329133,-9.8800955
25216000,25216000,-0.015441383,0.027046273,-9.845688
25264000,25264000,-0.03713844,-0.018208869,-9.731745
25312000,25312000,-0.014590017,0.06682211,-9.818011
25364000,25364000,-0.009564299,-0.047695626,-9.851482
25416000,25416000,0.025538117,-0.029370423,-9.750408
25464000,25464000,0.063862465,0.01976354,-9.768024
25512000,25512000,0.009222804,0.002446791,-9.8007145
25564000,25564000,0.01665798,0.03539992,-9.816201
25616000,25616000,-0.03098239,-0.040041637,-9.800065
25664000,25664000,0.039899394,0.007842695,-9.81701
25716000,25716000,-0.028168414,0.022850618,-9.83594
25764000,25764000,-0.02392175,0.010081155,-9.874029
25816000,25816000,-0.0030793073,-0.026231805,-9.812584
25864000,25864000,0.06771734,-0.00942744,-9.875871
25916000,25916000,0.08082524,-0.006842102,-9.80592
25964000,25964000,0.0028451297,0.025699615,-9.869858
26016000,26016000,-0.050591886,0.008185726,-9.791767
26064000,26064000,-0.07411074,0.010141878,-9.824427
26116000,26116000,-0.014004133,0.03232376,-9.821707
26164000,26164000,0.10010254,0.02342538,-9.812376
26216000,26216000,0.015821168,-0.007847695,-9.79434
26264000,26264000,-0.047526542,0.029720288,-9.85312
26316000,26316000,0.07015449,0.008067019,-9.783643
26360000,26360000,-0.024373928,-0.035990953,-9.878509
26416000,26416000,-0.06662152,0.024680799,-9.748745
26464000,26464000,-0.07570014,0.0095875915,-9.769567
26516000,26516000,-0.031736255,0.04031592,-9.796945
26560000,26560000,0.01322213,-0.11505461,-9.805557
26616000,26616000,-0.00647953,0.0268108,-9.83901
26664000,26664000,0.013938249,0.029739073,-9.704118
26716000,26716000,-0.07628649,-0.00019392301,-9.847077
26764000,26764000,0.02359613,0.028598366,-9.849635
26816000,26816000,0.0046114735,-0.009207079,-9.861069
26864000,26864000,-0.009786507,0.097512275,-9.788866
26916000,26916000,-0.086480424,-0.0340288,-9.8149
26964000,26964000,0.03487437,-0.0305629,-9.772792
27016000,27016000,0.081807286,0.06471213,-9.784901
27064000,27064000,0.025048755,-0.014141101,-9.860886
27116000,27116000,0.076328136,-0.054728523,-9.858731
27164000,27164000,0.0044812127,-0.009319846,-9.801437
27216000,27216000,0.06839203,-0.03853871,-9.818766
27264000,27264000,-0.017885748,0.029103164,-9.812723
27316000,27316000,-0.07509549,-0.024103407,-9.718522
27364000,27364000,-0.0364253,0.060981423,-9.7636385
27416000,27416000,-0.015765604,0.021928454,-9.855972
27464000,27464000,0.054665305,0.067809835,-9.8521595
27516000,27516000,0.036625586,0.016707476,-9.758957
27564000,27564000,0.002856115,-0.033484656,-9.832499
27616000,27616000,-0.0022427791,0.011917823,-9.839222
27664000,27664000,0.026206177,0.027278036,-9.80119
27716000,27716000,-0.03342418,-0.0014480506,-9.742704
27764000,27764000,-0.030628389,-0.015263729,-9.770536
27816000,27816000,0.01035596,0.014302489,-9.824759
27860000,27860000,-0.013674738,0.03974582,-9.833226
27916000,27916000,-0.048518397,-0.0066243308,-9.865259
27964000,27964000,-0.061735645,0.021258377,-9.845411
28016000,28016000,0.051233865,-0.08275476,-9.84117
28064000,28064000,0.064553276,-0.00418282,-9.834286
28116000,28116000,-0.008440259,0.030538421,-9.857758
28160000,28160000,-0.054312773,-0.02914051,-9.827534
28216000,28216000,-0.009739152,0.036558025,-9.866186
28264000,28264000,-0.041888166,0.04778821,-9.797503
28316000,28316000,0.095179275,-0.053924777,-9.804907
28364000,28364000,0.00032162014,0.0556932,-9.8294735
28416000,28416000,0.047977734,-0.057028636,-9.738809
28460000,28460000,0.070858635,0.03815036,-9.743549
28516000,28516000,-0.010495272,0.037710648,-9.745386
28564000,28564000,-0.053802967,-0.0025437188,-9.782799
28616000,28616000,-0.04694778,-0.021737877,-9.730696
28664000,28664000,-0.03886009,0.0053146956,-9.78682
28716000,28716000,0.03996629,0.070645094,-9.814965
28764000,28764000,-0.0148946475,0.008647221,-9.855862
28816000,28816000,-0.02200095,0.04829956,-9.840834
28864000,28864000,0.0033877138,0.00084751146,-9.799599
28916000,28916000,0.05138739,-0.08404628,-9.856191
28964000,28964000,0.036812846,0.01652276,-9.83053
29016000,29016000,-0.0013388125,0.05988824,-9.7251005
29064000,29064000,0.021768153,-0.04778027,-9.863128
29116000,29116000,-0.009114308,0.0035677576,-9.7797365
29164000,29164000,-0.023818746,0.020428201,-9.729801
29216000,29216000,0.0409316,0.028108424,-9.844595
29264000,29264000,0.051464543,-0.00104481,-9.838896
29316000,29316000,-0.04639463,-0.009430926,-9.7596855
29364000,29364000,0.037638724,-0.032118026,-9.849266
29416000,29416000,-0.009380143,0.0065921764,-9.804152
29464000,29464000,0.05787102,-0.059493244,-9.829177
29516000,29516000,0.028320465,0.02406966,-9.742433
29564000,29564000,-0.03658046,-0.02226439,-9.792358
29616000,29616000,0.0014401758,-0.096324675,-9.806818
29664000,29664000,-0.07669121,0.03239849,-9.842722
29716000,29716000,0.07382193,-0.018938547,-9.834346
29764000,29764000,0.002593269,-0.02748575,-9.834562
29816000,29816000,0.024600636,-0.044377986,-9.759256
29864000,29864000,0.05928395,0.03705906,-9.803308
29916000,29916000,0.046983704,0.09060228,-9.823734
29964000,29964000,-0.05262914,0.09821997,-9.794375
30016000,30016000,-0.08070992,-0.0043472853,-9.872209
30060000,30060000,0.038615897,-0.023176232,-9.822823
30116000,30116000,-0.008073471,-0.04542883,-9.812156
30164000,30164000,0.034477208,-0.10083586,-9.824553
30216000,30216000,0.008616564,-0.00052584335,-9.70116
30264000,30264000,0.003519881,0.021017248,-9.852081
30316000,30316000,0.004826445,0.076963514,-9.758411
30364000,30364000,0.06873909,-0.013187181,-9.865192
30416000,30416000,-0.05578416,-0.023388194,-9.758015
30464000,30464000,0.021889428,0.012975983,-9.793376
30516000,30516000,-0.029403651,-0.03359005,-9.819219
30564000,30564000,0.042938747,-0.03739635,-9.84846
30616000,30616000,-0.04902439,0.055757664,-9.755421
30664000,30664000,-0.08823112,-0.074155435,-9.868431
30716000,30716000,0.00023164367,0.09659331,-9.706305
30764000,30764000,-0.07562076,0.040691677,-9.842974
30816000,30816000,-0.063271895,0.076425135,-9.822708
30864000,30864000,0.027037054,-0.0029218397,-9.786983
30916000,30916000,0.029814575,-0.034376875,-9.9046955
30964000,30964000,0.06959605,-0.039160684,-9.830339
31016000,31016000,-0.013507336,-0.091182396,-9.849768
31064000,31064000,-0.050698612,-0.0014574039,-9.851844
31116000,31116000,0.019519037,-0.056483127,-9.772164
31164000,31164000,0.05471854,0.05338184,-9.803485
31216000,31216000,0.03451522,-0.014493354,-9.800453
31264000,31264000,-0.050060265,-0.027956968,-9.834188
31316000,31316000,-0.010686012,-0.031393096,-9.724924
31364000,31364000,-0.04071031,0.050224252,-9.805195
31416000,31416000,-0.100057326,0.03279359,-9.788705
31464000,31464000,0.011751836,0.008092971,-9.724412
31516000,31516000,-0.02593652,0.030105904,-9.750973
31564000,31564000,-0.005414649,-0.058207765,-9.866803
31616000,31616000,0.06167868,0.09893296,-9.84956
31664000,31664000,0.012876195,0.06516315,-9.841095
31716000,31716000,0.023903038,0.061648257,-9.742852
31764000,31764000,0.06429116,-0.0023699722,-9.86344
31816000,31816000,-0.027830517,-0.0873658,-9.881878
31864000,31864000,-0.05146673,0.035228774,-9.829747
31916000,31916000,0.07115935,0.045390002,-9.722444
31964000,31964000,-0.022762218,4.5775436e-05,-9.8532295
32016000,32016000,-0.0279061,0.1043246,-9.801146
32064000,32064000,-0.09220214,-0.030878793,-9.815012
32116000,32116000,-0.03427613,0.044956483,-9.734018
32160000,32160000,-0.0030201161,-0.06670845,-9.827527
32216000,32216000,0.020826906,-0.054432906,-9.859976
32264000,32264000,-0.0443853,-0.008599075,-9.839254
32316000,32316000,-0.043762803,0.026232958,-9.777603
32364000,32364000,0.0024788852,0.028548677,-9.846123
32416000,32416000,0.07017593,0.03420916,-9.769339
32460000,32460000,-0.0077488394,0.009567887,-9.842285
32516000,32516000,0.043654874,-0.011507615,-9.7634325
32564000,32564000,-0.065285474,-0.07102438,-9.801806
32616000,32616000,0.050249487,0.01363229,-9.779673
32664000,32664000,0.010818768,-0.031047288,-9.800925
32716000,32716000,-0.014758397,-0.03315774,-9.8249
32764000,32764000,-0.019735646,-0.042277183,-9.84561
32816000,32816000,-0.027581934,0.049498353,-9.792413
32864000,32864000,-0.13165143,0.07725258,-9.846218
32916000,32916000,0.0129491305,0.06743476,-9.787578
32964000,32964000,-0.06154023,0.050364524,-9.766206
33016000,33016000,-0.02220672,-0.011082628,-9.783237
33064000,33064000,0.013053296,-0.024055518,-9.774133
33116000,33116000,0.042692766,-0.045613654,-9.780716
33164000,33164000,0.01439191,-0.030479696,-9.748737
33216000,33216000,0.04219055,-0.06385819,-9.881715
33264000,33264000,-0.08129346,-0.010222961,-9.800043
33316000,33316000,-0.0045285323,-0.040016312,-9.7859955
33364000,33364000,0.106411114,0.017005665,-9.821331
33416000,33416000,0.07739955,0.025135482,-9.73973
33464000,33464000,-0.03535059,-0.0035394747,-9.740672
33516000,33516000,-0.048602175,0.025172722,-9.802972
33564000,33564000,-0.028430747,0.034567907,-9.77066
33616000,33616000,-0.023589836,0.040631406,-9.783864
33664000,33664000,-0.010173611,0.0014730834,-9.780033
33716000,33716000,0.11771688,-0.05322222,-9.744485
33764000,33764000,-0.07952843,-0.065534875,-9.799025
33816000,33816000,-0.052229557,-0.11980912,-9.7681465
33864000,33864000,0.0007635746,-0.035602394,-9.857998
33916000,33916000,-0.0022201154,0.032431804,-9.802565
33964000,33964000,-0.001271396,0.07686247,-9.769451
34016000,34016000,-0.054126613,0.033598665,-9.767503
34064000,34064000,-0.02847124,-0.012237422,-9.896223
34116000,34116000,0.058885895,-0.044084366,-9.834057
34164000,34164000,-0.03155007,-0.03752991,-9.828255
34216000,34216000,-0.070741825,-0.08945143,-9.798557
34264000,34264000,0.01865722,0.02696066,-9.827906
34316000,34316000,0.06136529,-0.03425521,-9.84136
34364000,34364000,-0.017755283,0.03443631,-9.871974
34416000,34416000,-0.042408302,0.0001843744,-9.82072
34464000,34464000,-0.009322869,0.05183863,-9.857188
34516000,34516000,0.057840806,-0.0082408115,-9.7960205
34564000,34564000,0.0033097733,-0.05630064,-9.799959
34616000,34616000,0.007694401,0.0150815435,-9.742128
34664000,34664000,-0.0003020391,0.012736038,-9.83473
34716000,34716000,0.029192287,0.12012738,-9.744062
34764000,34764000,-0.094438724,-0.04339363,-9.830163
34816000,34816000,-0.01479657,-0.018139463,-9.829858
34864000,34864000,-0.010264028,-0.06546365,-9.878166
34916000,34916000,0.00324933,0.031970352,-9.853737
34964000,34964000,0.022272881,-0.026763916,-9.87507
35016000,35016000,0.06923935,0.015762005,-9.791645
35064000,35064000,-0.0065566925,-0.009560134,-9.774981
35116000,35116000,-0.06301217,0.0043165586,-9.715238
35164000,35164000,-0.0043208627,-0.016220015,-9.831579
35216000,35216000,0.024529543,0.024405824,-9.86371
35264000,35264000,-0.035274576,-0.045112256,-9.748285
35316000,35316000,-0.008243749,-0.014888608,-9.938872
35364000,35364000,0.010561022,0.12118713,-9.728657
35416000,35416000,0.0046354076,-0.024537541,-9.798087
35464000,35464000,0.045737658,0.07048227,-9.748447
35516000,35516000,0.02856946,0.04355555,-9.827351
35564000,35564000,-0.0058332346,0.017311977,-9.835877
35616000,35616000,-0.02801557,0.045967598,-9.83634
35664000,35664000,0.09733644,0.028584538,-9.816948
35716000,35716000,0.04221973,0.051844727,-9.884992
35764000,35764000,0.07123374,0.05180902,-9.765801
35816000,35816000,0.04170423,0.041193172,-9.849192
35864000,35864000,-0.011942728,-0.002372408,-9.77622
35916000,35916000,0.031395067,-0.06982556,-9.729982
35964000,35964000,-0.019302875,-0.052679013,-9.722164
36016000,36016000,-0.011084929,-0.07627182,-9.832445
36064000,36064000,-0.050623477,-0.035145786,-9.876198
36116000,36116000,-0.023934687,-0.036205053,-9.765069
36164000,36164000,0.0072022546,-0.024691425,-9.734406
36216000,36216000,0.00649448,-0.029165223,-9.86713
36264000,36264000,0.060459763,0.016168056,-9.733578
36316000,36316000,0.017380869,-0.049387343,-9.8635025
36360000,36360000,0.07065219,0.022597484,-9.799432
36416000,36416000,0.01551596,-0.033520743,-9.821237
36464000,36464000,0.002170857,-0.032611232,-9.74324
36516000,36516000,-0.032520007,0.018714277,-9.802152
36564000,36564000,-0.0096911695,-0.00463362,-9.791433
36616000,36616000,0.025259122,-0.05724398,-9.856798
36664000,36664000,-0.028295534,-0.06579776,-9.797571
36716000,36716000,0.036695153,0.053156257,-9.721563
36764000,36764000,0.025760248,0.07451068,-9.82437
36816000,36816000,-0.0013104854,-0.03621418,-9.792028
36860000,36860000,-0.09274235,-0.056252256,-9.752787
36916000,36916000,0.06486593,-0.04225667,-9.776611
36964000,36964000,-0.011733461,-0.05264595,-9.845096
37016000,37016000,-0.10110361,0.038748596,-9.878471
37064000,37064000,-0.11249039,0.029894225,-9.807024
37116000,37116000,-0.022830479,0.023792762,-9.805802
37164000,37164000,-0.039605286,-0.007505659,-9.76859
37216000,37216000,0.028345294,-0.032451704,-9.825449
37264000,37264000,-0.009899607,-0.045426942,-9.81384
37316000,37316000,0.045513254,0.027917648,-9.817672
37360000,37360000,0.021163391,0.07255177,-9.8144
37416000,37416000,-0.007165524,-0.06764257,-9.797329
37464000,37464000,0.06354824,-0.045759782,-9.805419
37516000,37516000,-0.006558801,-0.013487689,-9.776264
37564000,37564000,-0.03196223,-0.009714736,-9.869619
37616000,37616000,0.03791745,0.058292206,-9.726521
37664000,37664000,0.0044172336,0.023784652,-9.8012705
37716000,37716000,0.05250594,-0.00019069714,-9.755447
37764000,37764000,0.025061097,0.031537842,-9.801889
37816000,37816000,0.05190049,-0.0295836,-9.827778
37864000,37864000,-0.064059876,0.009524911,-9.809069
37916000,37916000,0.13045675,-0.0031005554,-9.839102
37964000,37964000,0.016791238,-0.0630925,-9.76338
38016000,38016000,0.013706048,0.057092354,-9.765847
38064000,38064000,0.07193369,0.023402527,-9.864862
38116000,38116000,-0.019341221,-0.03830548,-9.761643
38164000,38164000,0.052438006,0.0009877826,-9.871467
38216000,38216000,0.11591627,0.019888058,-9.867422
38264000,38264000,-0.03352339,0.028846372,-9.823217
38316000,38316000,0.02709298,-0.020523146,-9.821577
38364000,38364000,0.023638811,-0.052524336,-9.739023
38416000,38416000,0.0013682381,-0.029552558,-9.787729
38464000,38464000,-0.029497268,0.00015566405,-9.769814
38512000,38512000,0.02696407,-0.016369516,-9.78508
38564000,38564000,0.023712069,0.06162749,-9.708853
38616000,38616000,-0.03080609,-0.033021335,-9.728286
38664000,38664000,0.050614912,-0.12908608,-9.815459
38716000,38716000,0.09476228,0.04260936,-9.780842
38764000,38764000,0.0005998106,0.10754332,-9.903578
38816000,38816000,0.04479906,0.0936863,-9.753241
38864000,38864000,0.081562206,0.07082479,-9.792562
38916000,38916000,-0.011667218,-0.030139338,-9.733196
38964000,38964000,0.05007553,-0.0015496067,-9.798178
39016000,39016000,0.018700778,0.081554666,-9.769659
39064000,39064000,0.022959214,-0.032494824,-9.804617
39116000,39116000,0.050906625,0.06865119,-9.830425
39164000,39164000,-0.031281307,0.0046156608,-9.713054
39216000,39216000,0.01732485,-0.08346094,-9.886641
39264000,39264000,-0.026604284,0.04340577,-9.836977
39316000,39316000,0.0059286,0.008755922,-9.844643
39364000,39364000,0.04583149,-0.10020054,-9.847128
39416000,39416000,-0.07359451,-0.039180744,-9.870503
39464000,39464000,0.06594288,-0.033646032,-9.772044
39516000,39516000,-0.02135536,-0.029480377,-9.810682
39564000,39564000,-0.006141077,0.054150015,-9.876077
39616000,39616000,-0.0008918941,-0.06335182,-9.729715
39664000,39664000,-0.03958304,-0.010741457,-9.826455
39716000,39716000,-0.02136308,-0.02809905,-9.8880825
39764000,39764000,0.050608516,0.026271999,-9.780308
39816000,39816000,0.04626744,0.06384671,-9.799333
39864000,39864000,0.049414434,-0.013975278,-9.771888
39916000,39916000,0.010946181,0.022225816,-9.745993
39964000,39964000,0.055694684,-0.0873377,-9.776073
40016000,40016000,0.031881697,-0.03809854,-9.804102
40064000,40064000,0.00990961,0.046672195,-9.820309
40116000,40116000,0.08130708,0.1171952,-9.817731
40164000,40164000,-0.025814299,-0.061806995,-9.841583
40216000,40216000,-0.018834155,-0.04150804,-9.882232
40264000,40264000,-0.047748543,0.043711707,-9.802287
40316000,40316000,-0.018795673,0.03303618,-9.860971
40364000,40364000,-0.14639008,0.055487927,-9.832731
40416000,40416000,0.04246135,0.02298208,-9.797263
40464000,40464000,-0.02440966,-0.012655539,-9.701804
40516000,40516000,0.030556105,-0.013631903,-9.838646
40564000,40564000,0.0015711063,0.070790276,-9.811758
40616000,40616000,-0.020596521,-0.035876952,-9.734667
40664000,40664000,0.0054101627,-0.019891262,-9.814463
40716000,40716000,0.047981024,0.005968677,-9.813639
40760000,40760000,-0.0045823874,0.032128975,-9.841358
40816000,40816000,-0.052122094,-0.023574617,-9.820693
40864000,40864000,-0.041286223,-0.021627774,-9.881943
40916000,40916000,-0.07050963,0.04399729,-9.842997
40964000,40964000,0.069054015,-0.031126115,-9.83147
41016000,41016000,0.07737355,0.036723964,-9.8841095
41064000,41064000,-0.013432395,-0.014946023,-9.805937
41116000,41116000,-0.08251995,-0.028740708,-9.765462
41160000,41160000,0.005331224,-0.08670581,-9.769501
41216000,41216000,0.0220069,0.0073233894,-9.801596
41264000,41264000,0.07510883,-0.027680475,-9.784477
41316000,41316000,0.060561866,0.030943526,-9.717581
41364000,41364000,-0.021523327,-0.07500778,-9.696125
41412000,41412000,0.048103984,-0.048592906,-9.809341
41464000,41464000,0.0438782,-0.039137717,-9.782264
41516000,41516000,0.10856552,0.06931601,-9.798246
41560000,41560000,0.059496135,0.1012524,-9.747969
41616000,41616000,0.012181395,-0.033424016,-9.803834
41664000,41664000,-7.274654e-05,-0.13982823,-9.848232
41716000,41716000,-0.058996834,0.050009564,-9.798639
41764000,41764000,-0.0752262,-0.031750575,-9.793543
41816000,41816000,-0.080760814,0.009916028,-9.769946
41864000,41864000,0.002362955,-0.07472342,-9.809758
41916000,41916000,-0.065990075,-0.07040336,-9.839035
41960000,41960000,-0.009460269,-0.007011872,-9.776542
42016000,42016000,0.099909216,-0.051710337,-9.721358
42064000,42064000,0.028910736,0.006753007,-9.745523
42116000,42116000,-0.06529389,-0.053219136,-9.864858
42160000,42160000,0.034431703,-0.06518113,-9.769198
42216000,42216000,0.07905555,0.021012038,-9.769831
42264000,42264000,0.019297402,0.014912119,-9.808576
42316000,42316000,0.037374247,-0.007808449,-9.823236
42364000,42364000,0.025765792,-0.013976157,-9.832869
42416000,42416000,-0.041137107,0.01782413,-9.903861
42464000,42464000,-0.045773845,0.04080014,-9.816286
42516000,42516000,-0.08219535,-0.03246324,-9.8311825
42564000,42564000,0.07088581,-0.044606894,-9.769772
42616000,42616000,0.009910672,-0.032200247,-9.805071
42664000,42664000,-0.018817754,-0.106283054,-9.890989
42716000,42716000,-0.005216699,-0.035278946,-9.888077
42764000,42764000,0.018602401,-0.13712555,-9.784663
42816000,42816000,0.022707636,0.013822698,-9.842961
42864000,42864000,-0.023513485,-0.08357932,-9.787747
42912000,42912000,0.04872027,0.01982956,-9.813297
42964000,42964000,-0.008080317,0.076291695,-9.786139
43016000,43016000,-0.017217254,0.025650093,-9.830548
43064000,43064000,0.04135881,-0.044941645,-9.770192
43116000,43116000,-0.07350026,-0.009088396,-9.808706
43164000,43164000,0.070252344,0.03605911,-9.890142
43216000,43216000,-0.033943985,-0.016801616,-9.848373
43264000,43264000,0.04473435,0.021240246,-9.747057
43316000,43316000,-0.0936054,0.010834644,-9.861761
43364000,43364000,0.031161066,0.02854915,-9.787785
43416000,43416000,-0.011720071,0.029365376,-9.783612
43464000,43464000,-0.063058555,-0.020847961,-9.80654
43516000,43516000,0.0014920533,-0.04606667,-9.762114
43564000,43564000,0.027611267,-0.031153977,-9.883473
43616000,43616000,0.062302962,0.041992083,-9.7610855
43664000,43664000,-0.07858061,0.11694775,-9.85779
43716000,43716000,-0.084678076,-0.008144845,-9.754289
43764000,43764000,0.055187806,0.05117323,-9.839374
43816000,43816000,0.048406187,-0.02666882,-9.842965
43864000,43864000,0.008507035,0.087008186,-9.751949
43916000,43916000,-0.046472456,-0.098119,-9.84342
43960000,43960000,0.045815922,-0.047247723,-9.813973
44016000,44016000,0.021475613,-0.019096384,-9.787638
44064000,44064000,0.015140413,-0.03514514,-9.754187
44116000,44116000,-0.05172888,0.06354224,-9.875778
44164000,44164000,0.009903209,0.0007618163,-9.799399
44216000,44216000,0.036404498,0.0245292,-9.874757
44264000,44264000,0.03299603,-0.004240832,-9.798641
44316000,44316000,0.013981427,0.11435069,-9.811158
44364000,44364000,0.06035395,0.08000828,-9.806667
44416000,44416000,0.0060626958,0.012010085,-9.858727
44464000,44464000,-0.031120641,-0.056535143,-9.810678
44516000,44516000,0.038087,-0.02766043,-9.838665
44564000,44564000,-0.03301792,0.029876564,-9.949515
44612000,44612000,-0.0026482535,0.0018925229,-9.859693
44664000,44664000,-0.026514381,0.062417686,-9.810508
44712000,44712000,-0.05514858,-0.03674555,-9.765321
44764000,44764000,-0.051062893,0.060787402,-9.767033
44816000,44816000,-0.025716145,0.09077741,-9.821028
44864000,44864000,-0.007569638,-0.0060058683,-9.695063
44916000,44916000,-0.039980967,-1.328878e-05,-9.776554
44964000,44964000,-0.013320997,0.008459151,-9.837532
45016000,45016000,-0.014445054,0.03991914,-9.779436
45064000,45064000,-0.028891457,0.0046088486,-9.833479
45116000,45116000,-0.05062331,-0.0048852796,-9.784115
45164000,45164000,-0.010857344,-0.08729565,-9.805109
45216000,45216000,-0.07433554,-0.0187342,-9.780971
45264000,45264000,0.055929333,-0.0065512527,-9.798788
45316000,45316000,0.10143405,-0.029259339,-9.839234
45364000,45364000,0.057802074,-0.109791175,-9.821976
45416000,45416000,-0.08548051,0.06796536,-9.789709
45464000,45464000,-0.002496475,0.024226755,-9.81618
45516000,45516000,-0.023841118,0.03505854,-9.78771
45564000,45564000,0.035546016,0.09506823,-9.794231
45616000,45616000,0.010817052,-0.0305592,-9.854179
45664000,45664000,-0.10743979,0.055159718,-9.771453
45716000,45716000,0.052936964,-0.050404835,-9.903578
45764000,45764000,0.002302233,-0.015030261,-9.819204
45816000,45816000,-0.014221704,0.046576463,-9.80013
45864000,45864000,-0.0029180911,0.04578187,-9.785339
45916000,45916000,0.08648139,-0.021313986,-9.903217
45964000,45964000,-0.057772577,-0.06887535,-9.7874565
46016000,46016000,0.03699094,-0.036959007,-9.780857
46064000,46064000,0.0810663,0.0923196,-9.838995
46116000,46116000,0.056666672,0.05491634,-9.792223
46164000,46164000,0.0027952404,-0.0370565,-9.731588
46216000,46216000,0.04000655,0.09467165,-9.758992
46264000,46264000,-0.06538142,0.047744177,-9.818372
46316000,46316000,0.01105139,0.07710771,-9.794705
46364000,46364000,-0.06970773,-0.03518558,-9.820445
46416000,46416000,-0.016387548,0.0020835137,-9.882732
46464000,46464000,-0.001502936,0.037766315,-9.791847
46516000,46516000,-0.027691042,-0.0049698735,-9.852693
46564000,46564000,-0.015660234,0.016425077,-9.795034
46612000,46612000,-0.1447921,0.02165391,-9.742559
46664000,46664000,-0.029473383,0.021257445,-9.845956
46716000,46716000,0.07253735,0.019326892,-9.8075485
46764000,46764000,0.06583669,0.056496073,-9.792215
46816000,46816000,0.022115365,-0.082476065,-9.817869
46864000,46864000,0.0064137913,-0.023165753,-9.812279
46916000,46916000,-0.033200532,0.042318698,-9.854189
46964000,46964000,-0.027796958,0.07125535,-9.875536
47016000,47016000,0.030089546,0.08980205,-9.789305
47060000,47060000,0.016298246,0.08347285,-9.858505
47116000,47116000,0.0010440785,0.06734368,-9.796008
47164000,47164000,-0.011817714,0.058793012,-9.704202
47216000,47216000,-0.009404232,-0.00042247516,-9.735826
47264000,47264000,0.02231499,-0.002727286,-9.761145
47316000,47316000,-0.037476875,-0.057114623,-9.845497
47364000,47364000,0.006834217,-0.057409585,-9.769568
47416000,47416000,-0.009140907,0.06350976,-9.788109
47464000,47464000,-0.08555753,0.020304684,-9.819647
47516000,47516000,-0.040327184,-0.013828267,-9.780909
47564000,47564000,-0.003677028,0.019291501,-9.808046
47616000,47616000,0.073615655,-0.04294002,-9.856409
47664000,47664000,0.03881321,-0.007790713,-9.837767
47716000,47716000,0.051584598,0.06345482,-9.911252
47764000,47764000,-0.018487424,0.035378337,-9.834954
47816000,47816000,-0.014145667,0.03987951,-9.842764
47864000,47864000,0.027370999,0.022531297,-9.840119
47916000,47916000,-0.042106498,0.06436537,-9.915989
47964000,47964000,-0.019058544,0.06283561,-9.865238
48016000,48016000,0.055353202,-0.0009610874,-9.813594
48064000,48064000,0.088111944,-0.04791698,-9.852144
48116000,48116000,0.032925062,0.006535126,-9.796588
48164000,48164000,0.045007136,-0.032013852,-9.895052
48216000,48216000,-0.0071193217,0.05424209,-9.788791
48264000,48264000,0.03619166,0.002579263,-9.810884
48316000,48316000,0.0141743515,0.043498814,-9.897327
48360000,48360000,-0.0015416885,0.0098804915,-9.845932
48416000,48416000,0.019743534,0.07370036,-9.752393
48464000,48464000,-0.041801862,0.011468086,-9.773697
48516000,48516000,-0.056258123,-0.018541705,-9.771352
48564000,48564000,0.005933373,0.049227506,-9.867565
48616000,48616000,-0.037498813,-0.0029611746,-9.815364
48664000,48664000,0.050410513,0.063985795,-9.806995
48716000,48716000,-0.008972572,-0.0012841467,-9.801834
48764000,48764000,-0.06766327,-0.031378582,-9.738995
48816000,48816000,-0.044470564,-0.024350686,-9.818656
48864000,48864000,0.020744666,-0.040827412,-9.835585
48916000,48916000,0.032932308,-0.04154636,-9.8320875
48964000,48964000,0.08195776,0.0031695608,-9.844666
49016000,49016000,0.029572263,0.011041848,-9.787468
49064000,49064000,0.020685554,0.035757616,-9.760441
49116000,49116000,-0.030650996,-0.03420595,-9.75798
49164000,49164000,-0.0040069437,-0.008424599,-9.810607
49216000,49216000,-0.05701916,-0.0019343514,-9.9119005
49264000,49264000,0.024041992,0.01327165,-9.774983
49312000,49312000,-0.06868445,0.06556375,-9.798394
49364000,49364000,-0.051565476,0.039011326,-9.781475
49416000,49416000,-0.044861235,-0.028800655,-9.781511
49464000,49464000,0.04696925,0.0017761277,-9.85194
49516000,49516000,-0.022804698,-0.090874635,-9.813929
49564000,49564000,-0.05946223,0.038969446,-9.831173
49612000,49612000,-0.0005684071,0.00260835,-9.769079
49664000,49664000,0.068979196,0.018409658,-9.796919
49716000,49716000,-0.0485418,0.06307155,-9.8990135
49764000,49764000,0.014638865,0.06834203,-9.847044
49816000,49816000,0.046333134,0.0214586,-9.8788395
49864000,49864000,0.049399335,-0.027744094,-9.822052
49916000,49916000,0.019666536,0.016066305,-9.759576
49964000,49964000,0.06306764,0.054701027,-9.815588
50016000,50016000,0.06119597,-0.06163683,-9.686615
50064000,50064000,0.015578731,0.037012648,-9.772224
50112000,50112000,-0.01588693,-0.04187458,-9.727384
50164000,50164000,-0.04764431,-0.102767594,-9.753343
50216000,50216000,0.034115337,0.023391346,-9.824452
50264000,50264000,0.024283942,0.07732124,-9.692259
50316000,50316000,0.020938776,0.011799993,-9.813381
50364000,50364000,0.0028339508,-0.050275926,-9.798111
50416000,50416000,-0.06606388,0.047072228,-9.869248
50464000,50464000,0.04202859,-0.084962085,-9.748554
50516000,50516000,0.022893516,-0.108675234,-9.869917
50564000,50564000,-0.011431081,-0.02595748,-9.879852
50616000,50616000,-0.020898838,0.082288966,-9.819448
50664000,50664000,0.042649053,-0.015991617,-9.843503
50716000,50716000,0.039641842,0.006175884,-9.735287
50764000,50764000,0.0033199086,0.028251475,-9.83087
50816000,50816000,0.04056468,0.010045866,-9.834777
50860000,50860000,0.008333826,0.0392919,-9.738255
50916000,50916000,0.0403218,0.041803688,-9.888566
50964000,50964000,-0.09149111,-0.02561427,-9.852501
51016000,51016000,0.09392632,0.064213134,-9.820459
51064000,51064000,0.008394986,-0.012814037,-9.818502
51116000,51116000,8.9894515e-05,0.027425935,-9.795945
51164000,51164000,-0.021416605,-0.025492867,-9.907189
51216000,51216000,0.058954425,0.11413013,-9.852391
51264000,51264000,-0.040087022,0.07399982,-9.804904
51316000,51316000,-0.024231002,0.0009447059,-9.911203
51364000,51364000,0.019614736,-0.027198996,-9.829283
51416000,51416000,-0.022133458,0.07376088,-9.885669
51464000,51464000,-0.010048395,0.027186843,-9.737322
51516000,51516000,-0.08136592,-0.062477164,-9.827925
51564000,51564000,-0.04094799,0.010474084,-9.871741
51616000,51616000,-0.07314128,-0.015650492,-9.744874
51664000,51664000,-0.016584542,0.0747444,-9.798061
51716000,51716000,0.093921214,-0.028006196,-9.775967
51764000,51764000,0.0030689859,-0.02654879,-9.728376
51816000,51816000,0.051104616,0.0067640655,-9.773093
51864000,51864000,0.0244324,0.05191978,-9.77402
51916000,51916000,-0.021425752,0.0047696116,-9.826021
51964000,51964000,0.0028445427,-0.045751944,-9.729301
52016000,52016000,0.0024043436,0.0077256486,-9.81382
52064000,52064000,0.030615827,-0.108415306,-9.86995
52116000,52116000,-0.06833628,-0.008629451,-9.767582
52164000,52164000,-0.023447067,-0.035090555,-9.814314
52216000,52216000,-0.0063044974,0.06941327,-9.815863
52264000,52264000,-0.0021888777,-0.0014939997,-9.802129
52312000,52312000,0.002958679,0.058632117,-9.887856
52364000,52364000,0.014382775,0.024306316,-9.737972
52416000,52416000,-0.021273976,0.029979242,-9.80678
52464000,52464000,0.0014023781,-0.010584364,-9.7934675
52516000,52516000,-0.07593797,-0.01671191,-9.766977
52560000,52560000,0.03599718,0.06853828,-9.8133
52616000,52616000,-0.008054518,0.04645744,-9.8207445
52660000,52660000,0.10843648,0.0082618985,-9.815944
52716000,52716000,0.059870467,0.09006964,-9.854293
52760000,52760000,0.0069290185,0.050435547,-9.794283
52812000,52812000,-0.044202924,-0.04252884,-9.796229
52860000,52860000,-0.013275886,-0.027689027,-9.791322
52916000,52916000,0.0076537905,-0.0039171474,-9.762156
52964000,52964000,-0.010042157,0.033743083,-9.851382
53016000,53016000,0.02524075,-0.025180971,-9.891641
53064000,53064000,0.030082602,-0.038633727,-9.764503
53116000,53116000,-0.07446626,-0.13546152,-9.873692
53160000,53160000,0.021229062,-0.014887171,-9.859903
53216000,53216000,0.16127843,0.031512376,-9.781968
53264000,53264000,-0.08315397,0.06866841,-9.756426
53312000,53312000,0.049500022,-0.019891528,-9.873988
53364000,53364000,0.09871498,-0.063111216,-9.75413
53412000,53412000,0.012357625,0.02258762,-9.896448
53464000,53464000,-0.014627423,-0.0009870294,-9.727691
53516000,53516000,-0.111030586,-0.049092483,-9.692486
53564000,53564000,-0.06856554,0.06531307,-9.778116
53616000,53616000,-0.014604752,0.0033413968,-9.8493395
53664000,53664000,0.09569822,0.036043424,-9.789909
53716000,53716000,0.10597681,-0.017541008,-9.806955
53764000,53764000,0.06519509,0.012697549,-9.830871
53816000,53816000,-0.026140178,0.052265935,-9.789086
53864000,53864000,-0.03380591,-0.089652486,-9.826718
53916000,53916000,-0.0460321,0.0076659694,-9.786495
53964000,53964000,-0.038577892,-0.045963302,-9.724085
54016000,54016000,-0.012460148,-0.015016478,-9.873362
54064000,54064000,0.034928966,-0.023771528,-9.760035
54116000,54116000,0.07792815,0.024478162,-9.766251
54164000,54164000,0.11252299,-0.0036804015,-9.803316
54216000,54216000,0.000500205,-0.13062923,-9.838132
54264000,54264000,-0.062615104,0.038046084,-9.813525
54316000,54316000,0.04821606,-0.06881318,-9.843751
54364000,54364000,0.0039681643,0.020046454,-9.897144
54416000,54416000,-0.022336274,0.04223633,-9.849159
54464000,54464000,0.0026766676,-0.06086746,-9.860792
54516000,54516000,0.008349306,-0.08767771,-9.738095
54564000,54564000,-0.035191946,-0.0021007657,-9.692983
54616000,54616000,-0.023670824,-0.0032017878,-9.787925
54664000,54664000,0.033366274,0.032884326,-9.8413315
54716000,54716000,0.021109166,0.13630097,-9.749062
54764000,54764000,0.0628126,0.047851916,-9.792833
54816000,54816000,0.040302545,0.01123341,-9.769022
54864000,54864000,0.043578885,0.031153703,-9.713972
54916000,54916000,0.004467685,-0.012677733,-9.875712
54964000,54964000,0.013243103,0.052886147,-9.805532
55016000,55016000,0.021698121,0.0050047785,-9.788224
55064000,55064000,0.005148978,0.03695859,-9.82486
55116000,55116000,-0.011915084,-0.11434148,-9.783958
55164000,55164000,-0.035181776,0.0032430955,-9.800495
55216000,55216000,0.02929759,0.039509416,-9.808972
55264000,55264000,0.096821524,0.0074808337,-9.809067
55316000,55316000,0.03571793,0.059586212,-9.799582
55364000,55364000,-0.04205678,0.10619676,-9.774515
55416000,55416000,-0.0027590096,0.07229194,-9.787704
55464000,55464000,0.062238745,-0.0059222393,-9.840602
55516000,55516000,0.08756164,0.030894248,-9.727555
55564000,55564000,0.014465867,0.031005733,-9.801848
55616000,55616000,-0.032288373,-0.01585115,-9.823416
55664000,55664000,0.069535896,-0.029357443,-9.841776
55716000,55716000,0.09224731,0.008047145,-9.795025
55764000,55764000,-0.0014035479,-0.01347743,-9.781338
55816000,55816000,0.06019461,0.09174126,-9.738209
55864000,55864000,0.039829392,-0.053290702,-9.751662
55916000,55916000,-0.03076588,-0.000110690016,-9.752892
55964000,55964000,0.026470037,-0.030256756,-9.903795
56016000,56016000,-0.061721645,0.063453585,-9.815123
56064000,56064000,0.007184209,0.10228807,-9.827024
56116000,56116000,-0.020205833,-0.039990652,-9.73831
56164000,56164000,0.05381392,-0.008204464,-9.840136
56216000,56216000,0.024659745,0.049794924,-9.8892765
56264000,56264000,0.06910764,-0.080286056,-9.825237
56316000,56316000,-0.008658765,-0.073877394,-9.888647
56364000,56364000,-0.003216195,0.03276533,-9.812454
56416000,56416000,0.021803252,0.1402432,-9.81882
56464000,56464000,-0.021237321,-0.011898928,-9.835034
56516000,56516000,0.027432252,-0.008691043,-9.821615
56564000,56564000,0.032600313,0.018124932,-9.763777
56616000,56616000,-0.014651525,0.0033137156,-9.758744
56664000,56664000,0.025962396,0.034258123,-9.776232
56716000,56716000,-0.0059996806,-0.008071757,-9.764813
56764000,56764000,-0.06794796,-0.030095205,-9.818212
56816000,56816000,-0.035956524,0.02433015,-9.744446
56864000,56864000,0.04012638,-0.05089737,-9.869758
56916000,56916000,-0.054514933,0.037936926,-9.802246
56964000,56964000,0.059668373,0.09678513,-9.894371
57016000,57016000,-0.008511469,0.026514236,-9.861629
57064000,57064000,-0.0016044434,-0.046356652,-9.726582
57116000,57116000,-0.061302014,0.033259638,-9.843155
57164000,57164000,-0.0667777,-0.0131076025,-9.855709
57216000,57216000,0.04479505,-0.022093337,-9.820273
57264000,57264000,0.027987821,0.078318976,-9.795702
57316000,57316000,0.019409137,0.022153504,-9.837983
57364000,57364000,-0.014066144,-0.025338106,-9.793476
57416000,57416000,-0.014110459,-0.086776026,-9.821843
57464000,57464000,0.021336528,0.056150407,-9.838047
57516000,57516000,0.00035366137,-0.03266598,-9.796945
57564000,57564000,0.031481314,0.07098728,-9.834187
57616000,57616000,0.026640415,-0.026264634,-9.842656
57664000,57664000,-0.0071523874,0.08630353,-9.832191
57716000,57716000,0.09970039,0.054872707,-9.813859
57764000,57764000,0.008054911,0.005324092,-9.857849
57816000,57816000,-0.0135963755,0.018497262,-9.812877
57864000,57864000,0.001757548,0.07102009,-9.771795
57916000,57916000,0.0022180746,0.06288222,-9.773222
57964000,57964000,-0.05500282,-0.043492638,-9.786236
58016000,58016000,0.022697907,0.080658555,-9.83992
58064000,58064000,-0.062145114,-0.022712003,-9.747719
58112000,58112000,0.011465145,0.038949948,-9.866975
58164000,58164000,0.04366518,-0.01139195,-9.790091
58216000,58216000,0.0078111407,0.002402503,-9.933428
58264000,58264000,-0.0218665,0.02737602,-9.8270035
58316000,58316000,-0.034426127,-0.026639683,-9.748854
58364000,58364000,0.045973808,0.124722406,-9.780531
58416000,58416000,0.08041407,0.01964685,-9.782397
58464000,58464000,0.009919683,0.056289982,-9.846924
58516000,58516000,0.045918934,0.030918796,-9.734026
58564000,58564000,0.00031440798,0.07684074,-9.74983
58616000,58616000,0.123113714,-0.014463754,-9.736934
58664000,58664000,0.015884534,-0.025715929,-9.801848
