timestamp,roll,pitch,yaw,thrust_body[0],thrust_body[1],thrust_body[2],reset_integral
2456000,0.0017521429,-0.0015868712,-0.0002985706,0.0,0.0,-0.001,0
2460000,0.0017846521,-0.0015682504,-5.7011726e-05,0.0,0.0,-0.001,0
2476000,0.002340373,-0.0014851936,8.019217e-05,0.0,0.0,-0.001,0
2496000,0.0030389521,-0.0014823639,-0.00036098802,0.0,0.0,-0.001,0
2516000,0.0032497945,-0.001738823,-0.0001403307,0.0,0.0,-0.001,0
2536000,0.0037324994,-0.0009632054,-0.00033372693,0.0,0.0,-0.001,0
2552000,0.004117206,-0.00052540866,-3.229019e-05,0.0,0.0,-0.001,0
2576000,0.0044349423,-0.0007162564,0.00015574202,0.0,0.0,-0.001,0
2592000,0.0048215524,-0.000941632,-0.00016150138,0.0,0.0,-0.001,0
2616000,0.004856679,0.000628234,1.6429854e-05,0.0,0.0,-0.001,0
2636000,0.00548677,0.00031175214,8.6821645e-05,0.0,0.0,-0.001,0
2656000,0.0063837008,-9.514852e-05,1.7600978e-05,0.0,0.0,-0.001,0
2676000,0.006723095,0.00018467769,-9.012803e-05,0.0,0.0,-0.001,0
2696000,0.007291258,-9.832107e-06,-0.0001902766,0.0,0.0,-0.001,0
2716000,0.007912962,0.00020380715,8.880421e-05,0.0,0.0,-0.001,0
2736000,0.008248242,0.00011156128,-7.935679e-05,0.0,0.0,-0.001,0
2756000,0.008391139,0.0011215807,-0.000108936394,0.0,0.0,-0.001,0
2776000,0.0082149245,0.0011128141,6.569935e-05,0.0,0.0,-0.001,0
2796000,0.007481118,0.0014730811,6.0046033e-05,0.0,0.0,-0.001,0
2816000,0.007758494,0.0021342994,-0.00025229243,0.0,0.0,-0.001,0
2836000,0.007877028,0.0022481408,7.1462884e-05,0.0,0.0,-0.001,0
2852000,0.007418056,0.0026954873,2.6036796e-05,0.0,0.0,-0.001,0
2876000,0.0074432455,0.0029717432,4.122025e-05,0.0,0.0,-0.001,0
2896000,0.0077441623,0.002954921,2.4971814e-05,0.0,0.0,-0.001,0
2916000,0.008192144,0.0024861267,6.308469e-05,0.0,0.0,-0.001,0
2936000,0.008060961,0.002264507,-3.6402798e-07,0.0,0.0,-0.001,0
2956000,0.007152359,0.0022913883,1.9028084e-07,0.0,0.0,-0.001,0
2976000,0.0065936986,0.0023458905,0.00014174347,0.0,0.0,-0.001,0
2996000,0.00680399,0.0021177349,7.117945e-05,0.0,0.0,-0.001,0
3016000,0.007610596,0.0021538904,0.00011069578,0.0,0.0,-0.001,0
3032000,0.0075025586,0.0025421402,0.00016070215,0.0,0.0,-0.001,0
3056000,0.006894645,0.002894462,-0.00024061542,0.0,0.0,-0.001,0
3076000,0.0070530213,0.0037805391,0.0,0.0,0.0,-0.001,0
3096000,0.007041721,0.0032269869,0.00015312433,0.0,0.0,-0.001,0
3116000,0.006123379,0.0030325695,7.468462e-05,0.0,0.0,-0.001,0
3136000,0.0056848773,0.00216397,-0.00071930885,0.0,0.0,-0.001,0
3156000,0.0057668607,0.002330165,-0.0004940033,0.0,0.0,-0.001,0
3176000,0.0058091856,0.0023818812,-0.00071555376,0.0,0.0,-0.001,0
3196000,0.0059088035,0.0026021544,-0.0005636811,0.0,0.0,-0.001,0
3216000,0.0061296355,0.0028329883,-0.0003375411,0.0,0.0,-0.001,0
3236000,0.0061624693,0.003538604,-0.0003709197,0.0,0.0,-0.001,0
3256000,0.00660261,0.0037125289,-0.000715971,0.0,0.0,-0.001,0
3276000,0.006427403,0.004024295,-5.6743622e-05,0.0,0.0,-0.001,0
3296000,0.0063106255,0.0029125477,-5.3822994e-05,0.0,0.0,-0.001,0
3312000,0.0063486956,0.0030175245,-0.00014269352,0.0,0.0,-0.001,0
3336000,0.0066914735,0.0024496578,7.009506e-05,0.0,0.0,-0.001,0
3356000,0.0064034173,0.0023497497,4.7147274e-05,0.0,0.0,-0.001,0
3376000,0.0066480953,0.0033944733,0.00019317865,0.0,0.0,-0.001,0
3396000,0.0059795827,0.003292343,0.00015187263,0.0,0.0,-0.001,0
3416000,0.0056018853,0.0032075758,6.175041e-05,0.0,0.0,-0.001,0
3432000,0.0054870723,0.0035412502,0.00030082464,0.0,0.0,-0.001,0
3456000,0.006556834,0.0030951058,0.0006842613,0.0,0.0,-0.001,0
3472000,0.006966805,0.002711102,0.0003041625,0.0,0.0,-0.001,0
3496000,0.007690002,0.0025173998,0.0003004074,0.0,0.0,-0.001,0
3516000,0.0069789924,0.0021200713,0.00017648935,0.0,0.0,-0.001,0
3536000,0.0063868593,0.0017462703,0.0003617406,0.0,0.0,-0.001,0
3556000,0.0065277657,0.0017895058,0.00029289722,0.0,0.0,-0.001,0
3576000,0.0070198784,0.002650396,4.130602e-05,0.0,0.0,-0.001,0
3596000,0.007164684,0.0024500613,0.00023907423,0.0,0.0,-0.001,0
3616000,0.006855661,0.0032630381,-1.7523766e-05,0.0,0.0,-0.001,0
3636000,0.0061735897,0.00305897,-2.9623508e-05,0.0,0.0,-0.001,0
3656000,0.0056878906,0.0029210881,1.7940998e-05,0.0,0.0,-0.001,0
3676000,0.0054504443,0.0033171831,-1.5854836e-05,0.0,0.0,-0.001,0
3696000,0.0055510043,0.003692965,1.7523766e-05,0.0,0.0,-0.001,0
3716000,0.00552049,0.0031754333,1.50203705e-05,0.0,0.0,-0.001,0
3732000,0.005310525,0.002839243,2.2530556e-05,0.0,0.0,-0.001,0
3756000,0.0052392045,0.002964075,3.2544136e-05,0.0,0.0,-0.001,0
3776000,0.0051626307,0.003180992,0.00023573637,0.0,0.0,-0.001,0
3796000,0.005044991,0.002860404,-9.262562e-05,0.0,0.0,-0.001,0
3816000,0.0052428455,0.0026492653,-0.00043725967,0.0,0.0,-0.001,0
3836000,0.0056787618,0.0016176014,2.8371811e-05,0.0,0.0,-0.001,0
3856000,0.0050876327,0.0013251081,7.343292e-05,0.0,0.0,-0.001,0
3876000,0.00434734,0.0014639688,-8.803606e-05,0.0,0.0,-0.001,0
3896000,0.0040844018,0.001974986,-0.00031667948,0.0,0.0,-0.001,0
3916000,0.0046394593,0.0023208275,-4.4226646e-05,0.0,0.0,-0.001,0
3936000,0.0043594865,0.0024742878,-0.00021612644,0.0,0.0,-0.001,0
3956000,0.004886011,0.0027558166,-5.4240227e-06,0.0,0.0,-0.001,0
3976000,0.005270527,0.00272654,-0.0003492236,0.0,0.0,-0.001,0
3996000,0.005882708,0.00273929,-7.426739e-05,0.0,0.0,-0.001,0
4016000,0.006139139,0.00295222,-7.301569e-05,0.0,0.0,-0.001,0
4036000,0.0066748005,0.0027173574,-9.596348e-05,0.0,0.0,-0.001,0
4056000,0.006929897,0.0024728996,0.00028663874,0.0,0.0,-0.001,0
4076000,0.0076470366,0.0024612048,4.5478344e-05,0.0,0.0,-0.001,0
4096000,0.008195853,0.0025976123,0.00013935566,0.0,0.0,-0.001,0
4116000,0.0091460515,0.0023226712,0.0001205802,0.0,0.0,-0.001,0
4136000,0.010156862,0.002140907,9.0539455e-05,0.0,0.0,-0.001,0
4156000,0.0111889895,0.001987039,7.5101852e-06,0.0,0.0,-0.001,0
4176000,0.011675447,0.001912694,-1.9609928e-05,0.0,0.0,-0.001,0
4196000,0.011243196,0.0026424038,-4.5895576e-06,0.0,0.0,-0.001,0
4216000,0.011308394,0.0027534952,-0.00014227629,0.0,0.0,-0.001,0
4236000,0.011735607,0.0026361756,1.7523766e-05,0.0,0.0,-0.001,0
4256000,0.011891123,0.002423067,-5.4240227e-06,0.0,0.0,-0.001,0
4276000,0.012182744,0.0028684353,-1.168251e-05,0.0,0.0,-0.001,0
4296000,0.012083433,0.0028950213,-2.169609e-05,0.0,0.0,-0.001,0
4316000,0.0126064345,0.0030439384,-2.3782253e-05,0.0,0.0,-0.001,0
4336000,0.012658307,0.002245402,7.8856945e-05,0.0,0.0,-0.001,0
4356000,0.013263794,0.0028419592,1.9609928e-05,0.0,0.0,-0.001,0
4376000,0.0141784195,0.0035911668,-0.00022238493,0.0,0.0,-0.001,0
4396000,0.014540064,0.0033935495,-0.00015062094,0.0,0.0,-0.001,0
4416000,0.014977448,0.0036250278,0.00022572279,0.0,0.0,-0.001,0
4436000,0.015011036,0.0032161353,-0.00015228987,0.0,0.0,-0.001,0
4456000,0.015042016,0.002780695,3.2544136e-05,0.0,0.0,-0.001,0
4476000,0.015367767,0.0036795167,0.00014060736,0.0,0.0,-0.001,0
4496000,0.016020358,0.0037336308,-8.34465e-07,0.0,0.0,-0.001,0
4516000,0.01588414,0.0039702575,0.00010180473,0.0,0.0,-0.001,0
4536000,0.01584026,0.0048356513,6.0081482e-05,0.0,0.0,-0.001,0
4556000,0.015153169,0.0055649146,6.967783e-05,0.0,0.0,-0.001,0
4576000,0.014661254,0.0060294876,-5.8412552e-05,0.0,0.0,-0.001,0
4596000,0.014792842,0.0065400098,-3.7550926e-05,0.0,0.0,-0.001,0
4616000,0.014772467,0.006863815,-5.0485134e-05,0.0,0.0,-0.001,0
4636000,0.014760418,0.00647512,6.133318e-05,0.0,0.0,-0.001,0
4656000,0.015030347,0.006284806,0.00017857552,0.0,0.0,-0.001,0
4676000,0.015366981,0.0063756225,3.46303e-05,0.0,0.0,-0.001,0
4696000,0.015514363,0.0069058216,0.0003258586,0.0,0.0,-0.001,0
4716000,0.015859246,0.006626781,-3.7133694e-05,0.0,0.0,-0.001,0
4736000,0.016036477,0.007005297,5.13196e-05,0.0,0.0,-0.001,0
4756000,0.016396886,0.0069369436,5.2154064e-05,0.0,0.0,-0.001,0
4776000,0.0161632,0.007170867,-0.00025326014,0.0,0.0,-0.001,0
4796000,0.0159561,0.006950072,0.000112235546,0.0,0.0,-0.001,0
4816000,0.015334282,0.007619412,-0.00012350082,0.0,0.0,-0.001,0
4836000,0.0143923145,0.007322749,2.9623508e-05,0.0,0.0,-0.001,0
4856000,0.014348188,0.007553208,-0.00029331446,0.0,0.0,-0.001,0
4876000,0.014041638,0.0072432533,9.471178e-05,0.0,0.0,-0.001,0
4896000,0.014293783,0.0072968337,0.00013267994,0.0,0.0,-0.001,0
4916000,0.014488636,0.006688701,-4.5478344e-05,0.0,0.0,-0.001,0
4936000,0.01398314,0.006333135,0.00033295155,0.0,0.0,-0.001,0
4956000,0.013748317,0.0067892494,0.0001322627,0.0,0.0,-0.001,0
4976000,0.014787236,0.0062142797,0.00034046173,0.0,0.0,-0.001,0
4996000,0.01507356,0.0057214554,-4.7147274e-05,0.0,0.0,-0.001,0
5016000,0.015584605,0.005214421,3.0457973e-05,0.0,0.0,-0.001,0
5036000,0.015092609,0.0051602325,-2.336502e-05,0.0,0.0,-0.001,0
5056000,0.015089579,0.005090469,0.00021487474,0.0,0.0,-0.001,0
5076000,0.015002381,0.0049130293,-6.5505505e-05,0.0,0.0,-0.001,0
5096000,0.015220454,0.0047357264,-0.00016230345,0.0,0.0,-0.001,0
5116000,0.015139968,0.004686111,5.632639e-05,0.0,0.0,-0.001,0
5136000,0.01456208,0.0047044363,0.000333786,0.0,0.0,-0.001,0
5156000,0.014890027,0.0046130354,-8.761883e-06,0.0,0.0,-0.001,0
5176000,0.01416312,0.004907421,-0.00020194054,0.0,0.0,-0.001,0
5196000,0.013641061,0.005007867,4.2140484e-05,0.0,0.0,-0.001,0
5216000,0.013187607,0.005059602,-0.00014102459,0.0,0.0,-0.001,0
5236000,0.012360167,0.005492301,-5.966425e-05,0.0,0.0,-0.001,0
5256000,0.011889683,0.0056375763,4.172325e-06,0.0,0.0,-0.001,0
5276000,0.012405695,0.005264645,6.0915947e-05,0.0,0.0,-0.001,0
5296000,0.013015617,0.0049985196,-2.7954578e-05,0.0,0.0,-0.001,0
5316000,0.012953938,0.0055425083,-0.00011599064,0.0,0.0,-0.001,0
5336000,0.012663721,0.0055754166,-7.510185e-05,0.0,0.0,-0.001,0
5356000,0.012751107,0.0054657464,0.00012725592,0.0,0.0,-0.001,0
5376000,0.012642131,0.005300521,-4.7147274e-05,0.0,0.0,-0.001,0
5396000,0.012096887,0.004980918,-1.50203705e-05,0.0,0.0,-0.001,0
5412000,0.011763591,0.004679433,-7.7188015e-05,0.0,0.0,-0.001,0
5436000,0.0118006915,0.005262822,-0.00025075674,0.0,0.0,-0.001,0
5456000,0.011743515,0.005547912,-0.0003951192,0.0,0.0,-0.001,0
5476000,0.011759832,0.005712865,-0.00030708313,0.0,0.0,-0.001,0
5496000,0.011803784,0.00576785,-0.00012475252,0.0,0.0,-0.001,0
5516000,0.011830959,0.0058369343,-0.00025367737,0.0,0.0,-0.001,0
5536000,0.011408757,0.006835296,0.00019693375,0.0,0.0,-0.001,0
5556000,0.0120227095,0.0069615375,1.3768673e-05,0.0,0.0,-0.001,0
5576000,0.012195836,0.0066149095,0.00049233437,0.0,0.0,-0.001,0
5596000,0.012246833,0.006219513,-5.632639e-05,0.0,0.0,-0.001,0
5612000,0.01263508,0.0063326713,-0.000118911266,0.0,0.0,-0.001,0
5636000,0.01261443,0.005564863,-7.802248e-05,0.0,0.0,-0.001,0
5656000,0.012436293,0.0047525675,0.00031334162,0.0,0.0,-0.001,0
5672000,0.012147837,0.0050291414,0.00016731024,0.0,0.0,-0.001,0
5692000,0.011029933,0.0046311673,-4.673004e-05,0.0,0.0,-0.001,0
5716000,0.009966667,0.005283115,-3.8802624e-05,0.0,0.0,-0.001,0
5736000,0.009320126,0.0046625305,-5.8412552e-05,0.0,0.0,-0.001,0
5756000,0.008762602,0.0047270562,1.6272068e-05,0.0,0.0,-0.001,0
5776000,0.00808134,0.0046314746,-7.3850155e-05,0.0,0.0,-0.001,0
5792000,0.008216245,0.004746911,-8.7201595e-05,0.0,0.0,-0.001,0
5816000,0.007282128,0.00498487,3.0457973e-05,0.0,0.0,-0.001,0
5836000,0.007629318,0.0044082133,7.635355e-05,0.0,0.0,-0.001,0
5856000,0.007322279,0.004027133,-0.00018650293,0.0,0.0,-0.001,0
5876000,0.0073033553,0.0040191286,0.00010806322,0.0,0.0,-0.001,0
5896000,0.0071655298,0.003261509,0.00024366379,0.0,0.0,-0.001,0
5912000,0.0072092665,0.0031766307,-0.00019693375,0.0,0.0,-0.001,0
5936000,0.006359215,0.0022757945,-0.000121831894,0.0,0.0,-0.001,0
5956000,0.0062406734,0.0017702915,8.34465e-05,0.0,0.0,-0.001,0
5976000,0.0060789296,0.0017932989,0.0001385212,0.0,0.0,-0.001,0
5996000,0.0063107535,0.0019496004,5.7160854e-05,0.0,0.0,-0.001,0
6016000,0.006436417,0.0013914055,8.5532665e-05,0.0,0.0,-0.001,0
6036000,0.0067209546,0.0009986369,0.00011473894,0.0,0.0,-0.001,0
6056000,0.007275871,0.00097257644,7.009506e-05,0.0,0.0,-0.001,0
6076000,0.0072939135,0.0013682998,-0.00011265278,0.0,0.0,-0.001,0
6096000,0.0075744595,0.001571187,0.00019359589,0.0,0.0,-0.001,0
6112000,0.0075609703,0.0017887827,9.2208385e-05,0.0,0.0,-0.001,0
6136000,0.007909194,0.0019600717,-0.0005027652,0.0,0.0,-0.001,0
6156000,0.008029227,0.0014990598,-0.00010931492,0.0,0.0,-0.001,0
6176000,0.0074896305,0.0020463597,0.0005273819,0.0,0.0,-0.001,0
6196000,0.007777471,0.0019443603,-1.7523766e-05,0.0,0.0,-0.001,0
6216000,0.007374089,0.001898946,9.596348e-06,0.0,0.0,-0.001,0
6236000,0.0072475993,0.0013409036,-0.00028955936,0.0,0.0,-0.001,0
6256000,0.00800194,0.002215928,-0.00019359589,0.0,0.0,-0.001,0
6276000,0.007458594,0.0024045135,8.3863735e-05,0.0,0.0,-0.001,0
6296000,0.007714859,0.0027808456,-0.00032877922,0.0,0.0,-0.001,0
6316000,0.007517348,0.0026851466,-7.0929527e-06,0.0,0.0,-0.001,0
6336000,0.007356872,0.0026934224,-1.4603138e-05,0.0,0.0,-0.001,0
6356000,0.00826399,0.0027364546,-4.3809414e-05,0.0,0.0,-0.001,0
6376000,0.008699314,0.0028265936,0.00015687943,0.0,0.0,-0.001,0
6392000,0.008903303,0.002536484,4.3809414e-05,0.0,0.0,-0.001,0
6416000,0.009040082,0.0018862565,9.638071e-05,0.0,0.0,-0.001,0
6436000,0.008620389,0.0016912995,-0.00014561415,0.0,0.0,-0.001,0
6456000,0.008168234,0.0013911908,1.2934208e-05,0.0,0.0,-0.001,0
6476000,0.008285033,0.0011312698,-3.33786e-06,0.0,0.0,-0.001,0
6492000,0.0085917525,0.0013009124,-8.2194805e-05,0.0,0.0,-0.001,0
6516000,0.009043093,0.0012121783,8.261204e-05,0.0,0.0,-0.001,0
6532000,0.009368878,0.00091035897,7.927418e-06,0.0,0.0,-0.001,0
6556000,0.009768166,0.00078343553,6.0498714e-05,0.0,0.0,-0.001,0
6576000,0.010375611,9.974046e-05,0.00015854836,0.0,0.0,-0.001,0
6596000,0.010334754,-0.0009552771,0.00014978647,0.0,0.0,-0.001,0
6616000,0.0109447865,-0.00055608666,1.168251e-05,0.0,0.0,-0.001,0
6636000,0.010924524,-0.00040213857,0.00014728308,0.0,0.0,-0.001,0
6656000,0.010900303,-0.0006660782,-8.261204e-05,0.0,0.0,-0.001,0
6676000,0.011073248,-0.0003914279,-0.00019192696,0.0,0.0,-0.001,0
6696000,0.011639183,-0.0005655349,0.00018066168,0.0,0.0,-0.001,0
6712000,0.011992913,-0.000938457,-2.0444393e-05,0.0,0.0,-0.001,0
6736000,0.010905987,0.0003030221,9.3877316e-05,0.0,0.0,-0.001,0
6752000,0.010567578,0.00096446974,0.00031125546,0.0,0.0,-0.001,0
6772000,0.010201401,0.0012320639,4.8816204e-05,0.0,0.0,-0.001,0
6796000,0.009986393,0.0004958152,0.00012975931,0.0,0.0,-0.001,0
6816000,0.010063682,0.0004438185,-8.136034e-05,0.0,0.0,-0.001,0
6832000,0.010020481,0.00054119714,6.508827e-05,0.0,0.0,-0.001,0
6856000,0.011439694,0.0006707837,-8.7201595e-05,0.0,0.0,-0.001,0
6876000,0.011551054,0.00059959386,-5.5491924e-05,0.0,0.0,-0.001,0
6896000,0.011278643,0.00086361077,-0.00010806322,0.0,0.0,-0.001,0
6912000,0.011185391,0.0010111919,0.000107228756,0.0,0.0,-0.001,0
6936000,0.010934498,0.0012109815,-0.00039929152,0.0,0.0,-0.001,0
6956000,0.0107247755,0.0011546006,1.2516975e-06,0.0,0.0,-0.001,0
6976000,0.011042178,0.0015222095,0.00015228987,0.0,0.0,-0.001,0
6996000,0.010443544,0.0016392074,3.2544136e-05,0.0,0.0,-0.001,0
7016000,0.010337148,0.0012727547,-0.00010097027,0.0,0.0,-0.001,0
7036000,0.010855688,0.001169804,9.846687e-05,0.0,0.0,-0.001,0
7056000,0.010545189,0.0012172046,-8.678436e-05,0.0,0.0,-0.001,0
7076000,0.0102924835,0.001036271,0.00030082464,0.0,0.0,-0.001,0
7096000,0.009768312,0.001679536,-5.5491924e-05,0.0,0.0,-0.001,0
7116000,0.009600274,0.0019050743,7.593632e-05,0.0,0.0,-0.001,0
7136000,0.008859213,0.001632787,-0.0001193285,0.0,0.0,-0.001,0
7156000,0.008361947,0.0027785676,3.7550926e-06,0.0,0.0,-0.001,0
7176000,0.00753329,0.0027103573,9.846687e-05,0.0,0.0,-0.001,0
7196000,0.007584201,0.0029884374,-7.468462e-05,0.0,0.0,-0.001,0
7216000,0.0077471016,0.0038720919,4.172325e-05,0.0,0.0,-0.001,0
7236000,0.0074232537,0.0038806344,-3.3795834e-05,0.0,0.0,-0.001,0
7256000,0.0069808345,0.0036058077,-0.00013309717,0.0,0.0,-0.001,0
7276000,0.006691964,0.0032858057,0.0001180768,0.0,0.0,-0.001,0
7296000,0.006666288,0.0042677983,-3.4213066e-05,0.0,0.0,-0.001,0
7316000,0.0061118025,0.0042414716,9.679794e-05,0.0,0.0,-0.001,0
7336000,0.0058778645,0.0039829877,0.00024282932,0.0,0.0,-0.001,0
7356000,0.006000623,0.003268519,-0.00011265278,0.0,0.0,-0.001,0
7376000,0.0057510743,0.0029641914,0.0002040267,0.0,0.0,-0.001,0
7396000,0.0056185415,0.0029426492,0.000112235546,0.0,0.0,-0.001,0
7416000,0.0049360944,0.003076812,0.00016647577,0.0,0.0,-0.001,0
7432000,0.004883282,0.0027866368,2.2530556e-05,0.0,0.0,-0.001,0
7456000,0.003449273,0.0024285393,0.00010973215,0.0,0.0,-0.001,0
7476000,0.0028738955,0.0021369436,8.302927e-05,0.0,0.0,-0.001,0
7492000,0.0030241339,0.0016962877,0.000184834,0.0,0.0,-0.001,0
7516000,0.0022742068,0.0020571607,-0.00020235777,0.0,0.0,-0.001,0
7536000,0.0023705666,0.0021025601,0.00019776821,0.0,0.0,-0.001,0
7556000,0.0014125538,0.0022855073,5.507469e-05,0.0,0.0,-0.001,0
7576000,0.001559994,0.002024163,-6.7174435e-05,0.0,0.0,-0.001,0
7596000,0.0017231449,0.0021630602,-3.7133694e-05,0.0,0.0,-0.001,0
7612000,0.0013766438,0.0021216853,-3.671646e-05,0.0,0.0,-0.001,0
7636000,0.00041069096,0.0016532985,0.0001706481,0.0,0.0,-0.001,0
7656000,0.0006071341,0.0012195116,-0.00023907423,0.0,0.0,-0.001,0
7676000,0.00029767625,0.0008310077,-7.843971e-05,0.0,0.0,-0.001,0
7696000,-4.1340652e-05,0.0007980296,0.0003504753,0.0,0.0,-0.001,0
7716000,2.868427e-05,0.00062642584,-5.340576e-05,0.0,0.0,-0.001,0
7732000,-0.00046972858,0.0006536249,0.00010639429,0.0,0.0,-0.001,0
7756000,-0.00050538953,-8.921168e-05,-8.302927e-05,0.0,0.0,-0.001,0
7776000,-0.0010925729,0.00011697953,-0.00022488832,0.0,0.0,-0.001,0
7796000,3.123511e-05,3.575573e-05,-4.965067e-05,0.0,0.0,-0.001,0
7816000,5.7176803e-05,0.0011936257,-3.33786e-06,0.0,0.0,-0.001,0
7836000,0.00020900424,0.0010473251,-8.46982e-05,0.0,0.0,-0.001,0
7856000,0.00040968737,0.0012065612,0.000108897686,0.0,0.0,-0.001,0
7876000,0.0006085458,0.0005082071,0.00018942356,0.0,0.0,-0.001,0
7892000,0.0007138242,0.00048434714,9.596348e-06,0.0,0.0,-0.001,0
7916000,-1.4949765e-06,0.0008141404,-3.0875206e-05,0.0,0.0,-0.001,0
7936000,0.00028755644,0.0004140637,0.00016021729,0.0,0.0,-0.001,0
7956000,0.00094310445,0.0003173328,9.679794e-05,0.0,0.0,-0.001,0
7972000,0.001894838,0.00028151914,2.2947788e-05,0.0,0.0,-0.001,0
7996000,0.0018108069,0.0001033459,0.00014352798,0.0,0.0,-0.001,0
8016000,0.00180763,-0.0009576306,0.00021529198,0.0,0.0,-0.001,0
8036000,0.001275305,-0.00067769235,0.00016063452,0.0,0.0,-0.001,0
8056000,0.0014276438,-0.0002034941,-0.00012767315,0.0,0.0,-0.001,0
8076000,0.0021198913,-0.0013767242,-1.5437603e-05,0.0,0.0,-0.001,0
8092000,0.0019274324,-0.0014388084,0.00017482042,0.0,0.0,-0.001,0
8112000,0.0025685565,-0.0016861545,-5.9247017e-05,0.0,0.0,-0.001,0
8136000,0.0019534042,-0.0014761746,0.00013017654,0.0,0.0,-0.001,0
8156000,0.0009209246,-0.0010179238,2.1278858e-05,0.0,0.0,-0.001,0
8176000,0.00025048674,-0.0011251742,0.00012892485,0.0,0.0,-0.001,0
8196000,-0.0002707513,-0.0019753643,-0.000118494034,0.0,0.0,-0.001,0
8212000,-0.0008449321,-0.0024876615,-2.169609e-05,0.0,0.0,-0.001,0
8236000,-0.0006288126,-0.0015851503,-3.671646e-05,0.0,0.0,-0.001,0
8256000,-0.00014486292,-0.0013258875,-9.512901e-05,0.0,0.0,-0.001,0
8276000,0.00046983495,-0.00048309236,9.512901e-05,0.0,0.0,-0.001,0
8296000,0.00042802055,-0.00048031769,-5.7160854e-05,0.0,0.0,-0.001,0
8316000,0.0008336963,0.0004675791,-0.0001552105,0.0,0.0,-0.001,0
8336000,0.00052596244,0.0005246568,-3.33786e-06,0.0,0.0,-0.001,0
8356000,0.00011338899,0.0015482339,2.670288e-05,0.0,0.0,-0.001,0
8376000,0.000568384,0.0016708197,0.00010597706,0.0,0.0,-0.001,0
8396000,0.0018034478,0.0019594422,7.009506e-05,0.0,0.0,-0.001,0
8416000,0.002357049,0.0014430655,0.00037509203,0.0,0.0,-0.001,0
8436000,0.0021754014,0.0012062287,0.00014394522,0.0,0.0,-0.001,0
8456000,0.0021258844,0.0010225823,-0.00024241209,0.0,0.0,-0.001,0
8476000,0.0021247407,0.0012525462,0.00023823977,0.0,0.0,-0.001,0
8496000,0.002146922,0.0012179308,-0.000102221966,0.0,0.0,-0.001,0
8516000,0.0030483552,0.0015066883,-5.6743622e-05,0.0,0.0,-0.001,0
8536000,0.0031911572,0.0012053053,4.506111e-05,0.0,0.0,-0.001,0
8556000,0.0031626574,0.00058746175,3.7133694e-05,0.0,0.0,-0.001,0
8576000,0.0032851503,-7.572735e-05,-8.302927e-05,0.0,0.0,-0.001,0
8596000,0.003609765,0.00045002287,-0.00029832125,0.0,0.0,-0.001,0
8616000,0.0036540977,0.0005871273,4.2557716e-05,0.0,0.0,-0.001,0
8636000,0.0035833863,9.663333e-05,-2.5451183e-05,0.0,0.0,-0.001,0
8656000,0.0034749054,0.00017954677,3.671646e-05,0.0,0.0,-0.001,0
8676000,0.0034258026,0.00047862157,0.00013977289,0.0,0.0,-0.001,0
8696000,0.0024398635,-0.00018215622,0.00015854836,0.0,0.0,-0.001,0
8716000,0.0021706773,-0.0008396744,-0.00012099743,0.0,0.0,-0.001,0
8732000,0.0014716203,-0.0011103912,7.468462e-05,0.0,0.0,-0.001,0
8752000,0.0009513305,-0.00087707344,-0.00011265278,0.0,0.0,-0.001,0
8776000,0.0013672552,-0.0011026111,7.176399e-05,0.0,0.0,-0.001,0
8796000,0.0012163541,-0.0011975543,9.971857e-05,0.0,0.0,-0.001,0
8816000,0.0007611507,-0.00070279284,0.00017273426,0.0,0.0,-0.001,0
8836000,0.00043935212,-0.00065411296,-7.0929527e-06,0.0,0.0,-0.001,0
8856000,0.0005032771,-0.00074346585,-0.00014853477,0.0,0.0,-0.001,0
8876000,0.00077599625,-0.0009286306,3.2126904e-05,0.0,0.0,-0.001,0
8896000,0.00078438676,-0.0008352692,-1.168251e-05,0.0,0.0,-0.001,0
8916000,0.0008441272,-0.0012730916,2.4616718e-05,0.0,0.0,-0.001,0
8936000,0.000720678,-0.0013249743,-3.0040741e-05,0.0,0.0,-0.001,0
8956000,0.0004112458,-0.0017102913,-6.258488e-05,0.0,0.0,-0.001,0
8976000,0.00044425222,-0.0020793837,0.000113904476,0.0,0.0,-0.001,0
8996000,0.00012856873,-0.0022419342,2.5868416e-05,0.0,0.0,-0.001,0
9016000,5.665759e-05,-0.0029036365,-0.00010931492,0.0,0.0,-0.001,0
9036000,0.00037815247,-0.0029012556,3.671646e-05,0.0,0.0,-0.001,0
9056000,-0.00027981738,-0.0025252467,-3.129244e-05,0.0,0.0,-0.001,0
9076000,-0.0003959844,-0.002495843,-0.00018274784,0.0,0.0,-0.001,0
9096000,-6.926304e-05,-0.0032949923,-0.00010347366,0.0,0.0,-0.001,0
9116000,-6.656395e-05,-0.003648647,-0.00018900633,0.0,0.0,-0.001,0
9136000,0.00049486523,-0.0039494303,0.00032877922,0.0,0.0,-0.001,0
9156000,0.00025647192,-0.0041535725,3.46303e-05,0.0,0.0,-0.001,0
9176000,0.0004612779,-0.00407922,-0.0002065301,0.0,0.0,-0.001,0
9196000,0.0007448244,-0.0039950693,-3.838539e-05,0.0,0.0,-0.001,0
9212000,0.0003649965,-0.0046761287,-0.00010097027,0.0,0.0,-0.001,0
9236000,-0.0011305839,-0.005287708,3.5464764e-05,0.0,0.0,-0.001,0
9256000,-0.0014577911,-0.005310988,0.00024074316,0.0,0.0,-0.001,0
9276000,-0.0020147096,-0.005205598,5.340576e-05,0.0,0.0,-0.001,0
9296000,-0.002697505,-0.005095716,0.00016647577,0.0,0.0,-0.001,0
9312000,-0.0026918706,-0.0046590595,0.00022363663,0.0,0.0,-0.001,0
9336000,-0.0024429073,-0.00529802,-0.00019568205,0.0,0.0,-0.001,0
9352000,-0.0028461916,-0.005536207,-6.0081482e-05,0.0,0.0,-0.001,0
9376000,-0.0028335524,-0.0058081667,-8.0525875e-05,0.0,0.0,-0.001,0
9396000,-0.0030147647,-0.006132814,-7.8856945e-05,0.0,0.0,-0.001,0
9416000,-0.002959192,-0.0062711327,-0.00024366379,0.0,0.0,-0.001,0
9436000,-0.0031416165,-0.0062502967,-5.3822994e-05,0.0,0.0,-0.001,0
9456000,-0.0036774955,-0.0064617074,-5.5491924e-05,0.0,0.0,-0.001,0
9472000,-0.003945897,-0.0064469986,0.0001026392,0.0,0.0,-0.001,0
9496000,-0.0045772074,-0.006325005,3.129244e-05,0.0,0.0,-0.001,0
9512000,-0.004920216,-0.0062749353,-0.00015687943,0.0,0.0,-0.001,0
9536000,-0.004592838,-0.005309049,0.00011640787,0.0,0.0,-0.001,0
9556000,-0.0049517932,-0.0045104544,8.59499e-05,0.0,0.0,-0.001,0
9576000,-0.0048694746,-0.0042985133,-0.00028955936,0.0,0.0,-0.001,0
9596000,-0.004605648,-0.0044673826,6.8843365e-05,0.0,0.0,-0.001,0
9616000,-0.0043611885,-0.0047896574,-0.0002603531,0.0,0.0,-0.001,0
9632000,-0.004257004,-0.004490024,-2.002716e-05,0.0,0.0,-0.001,0
9656000,-0.004119521,-0.0044946508,3.33786e-05,0.0,0.0,-0.001,0
9676000,-0.0040058573,-0.004686679,-0.00013101101,0.0,0.0,-0.001,0
9696000,-0.0034542195,-0.00516836,-8.5532665e-05,0.0,0.0,-0.001,0
9712000,-0.0038837153,-0.0041034673,-1.8775463e-05,0.0,0.0,-0.001,0
9736000,-0.0034797261,-0.0044022948,7.5101852e-06,0.0,0.0,-0.001,0
9756000,-0.0037968126,-0.0049458435,-2.7120113e-05,0.0,0.0,-0.001,0
9776000,-0.0033969118,-0.0047218855,0.00013393164,0.0,0.0,-0.001,0
9796000,-0.004413495,-0.004600247,-1.7940998e-05,0.0,0.0,-0.001,0
9816000,-0.0034590298,-0.0043763663,0.00010180473,0.0,0.0,-0.001,0
9836000,-0.0032484888,-0.0042971834,-1.7106533e-05,0.0,0.0,-0.001,0
9852000,-0.0031662155,-0.0045725396,-4.8816204e-05,0.0,0.0,-0.001,0
9876000,-0.004045567,-0.0043268767,-0.0001013875,0.0,0.0,-0.001,0
9896000,-0.0035981836,-0.0049178577,8.5532665e-05,0.0,0.0,-0.001,0
9916000,-0.002832653,-0.005656218,1.41859055e-05,0.0,0.0,-0.001,0
9932000,-0.0029449724,-0.0054276455,8.302927e-05,0.0,0.0,-0.001,0
9956000,-0.0027552801,-0.005915491,1.1265278e-05,0.0,0.0,-0.001,0
9976000,-0.0027650977,-0.0060222857,-7.134676e-05,0.0,0.0,-0.001,0
9996000,-0.0025005618,-0.006540562,-2.4616718e-05,0.0,0.0,-0.001,0
10016000,-0.0022962585,-0.0074578486,0.0004222393,0.0,0.0,-0.001,0
10032000,-0.0018880225,-0.0069195353,-0.00019359589,0.0,0.0,-0.001,0
10056000,-0.0012632306,-0.005882755,-0.00014603138,0.0,0.0,-0.001,0
10072000,-0.001422445,-0.0050362987,-1.2934208e-05,0.0,0.0,-0.001,0
10096000,-0.0013963813,-0.00532725,0.0,0.0,0.0,-0.001,0
10116000,-0.0011757696,-0.005708646,0.00026911497,0.0,0.0,-0.001,0
10136000,-0.0014810929,-0.0053078784,-0.00028538704,0.0,0.0,-0.001,0
10156000,-0.0020781313,-0.0052778698,1.41859055e-05,0.0,0.0,-0.001,0
10172000,-0.002484819,-0.004401341,-8.761883e-05,0.0,0.0,-0.001,0
10196000,-0.0030789701,-0.004381302,-7.593632e-05,0.0,0.0,-0.001,0
10216000,-0.002649208,-0.0047072223,-2.5451183e-05,0.0,0.0,-0.001,0
10236000,-0.0025510886,-0.004346062,0.00010639429,0.0,0.0,-0.001,0
10252000,-0.0024311114,-0.003795656,-8.34465e-06,0.0,0.0,-0.001,0
10276000,-0.0020245358,-0.0028249926,-2.002716e-05,0.0,0.0,-0.001,0
10296000,-0.0019487252,-0.0034212545,-0.00027495623,0.0,0.0,-0.001,0
10316000,-0.0022862572,-0.004288843,-2.8371811e-05,0.0,0.0,-0.001,0
10336000,-0.0021874614,-0.00477061,-0.00017732382,0.0,0.0,-0.001,0
10356000,-0.0023537532,-0.004371945,-1.2934208e-05,0.0,0.0,-0.001,0
10376000,-0.0025807507,-0.004401473,7.3850155e-05,0.0,0.0,-0.001,0
10396000,-0.0031254014,-0.0046682823,-4.506111e-05,0.0,0.0,-0.001,0
10412000,-0.0030152309,-0.004383631,2.0861626e-05,0.0,0.0,-0.001,0
10436000,-0.003183804,-0.005109274,-2.002716e-05,0.0,0.0,-0.001,0
10452000,-0.003632397,-0.004865992,2.3782253e-05,0.0,0.0,-0.001,0
10476000,-0.004181017,-0.004809617,-3.4213066e-05,0.0,0.0,-0.001,0
10492000,-0.004559251,-0.00466058,-0.00019526482,0.0,0.0,-0.001,0
10516000,-0.0049435864,-0.0049009896,8.302927e-05,0.0,0.0,-0.001,0
10536000,-0.004155615,-0.0058059758,-0.00022697449,0.0,0.0,-0.001,0
10556000,-0.0036491845,-0.0058407476,-0.00014853477,0.0,0.0,-0.001,0
10572000,-0.003027725,-0.006967786,0.00018024445,0.0,0.0,-0.001,0
10592000,-0.0026445484,-0.0074626287,0.000100553036,0.0,0.0,-0.001,0
10616000,-0.0024833174,-0.0082484465,-4.7564507e-05,0.0,0.0,-0.001,0
10636000,-0.002580253,-0.008414921,0.00024366379,0.0,0.0,-0.001,0
10656000,-0.0027215388,-0.007851193,5.2571297e-05,0.0,0.0,-0.001,0
10676000,-0.0025678012,-0.0075618504,2.503395e-06,0.0,0.0,-0.001,0
10692000,-0.0026105605,-0.0073876004,-2.7954578e-05,0.0,0.0,-0.001,0
10716000,-0.002488275,-0.007717279,9.679794e-05,0.0,0.0,-0.001,0
10736000,-0.0022298326,-0.007353575,-0.00029790401,0.0,0.0,-0.001,0
10756000,-0.0025923373,-0.007556701,-3.963709e-05,0.0,0.0,-0.001,0
10776000,-0.0024030923,-0.007624316,-8.34465e-07,0.0,0.0,-0.001,0
10796000,-0.0032383956,-0.008326394,-0.00014102459,0.0,0.0,-0.001,0
10812000,-0.0034297006,-0.0081369495,0.00018692017,0.0,0.0,-0.001,0
10832000,-0.0045391484,-0.0074289427,-0.00044727325,0.0,0.0,-0.001,0
10852000,-0.0039580455,-0.006781282,4.130602e-05,0.0,0.0,-0.001,0
10876000,-0.0041709607,-0.0066817505,-4.7564507e-05,0.0,0.0,-0.001,0
10892000,-0.0044737062,-0.006428243,1.0430813e-05,0.0,0.0,-0.001,0
10916000,-0.0038942022,-0.00560649,9.262562e-05,0.0,0.0,-0.001,0
10932000,-0.0039479295,-0.0056334552,-9.179115e-06,0.0,0.0,-0.001,0
10956000,-0.0037905367,-0.0051893056,8.761883e-05,0.0,0.0,-0.001,0
10976000,-0.0034115212,-0.004735728,9.346008e-05,0.0,0.0,-0.001,0
10992000,-0.0033779,-0.0043599447,3.296137e-05,0.0,0.0,-0.001,0
11016000,-0.003263442,-0.004173601,0.00014686584,0.0,0.0,-0.001,0
11036000,-0.0030443047,-0.0041602417,5.7160854e-05,0.0,0.0,-0.001,0
11056000,-0.0021735867,-0.0032340852,-0.00010097027,0.0,0.0,-0.001,0
11076000,-0.0016140535,-0.003326214,-1.2516975e-05,0.0,0.0,-0.001,0
11096000,-0.0016673856,-0.0039678137,4.2557716e-05,0.0,0.0,-0.001,0
11116000,-0.0014862774,-0.0038933884,0.00010681152,0.0,0.0,-0.001,0
11136000,-0.0011947729,-0.0038782912,-0.00014936924,0.0,0.0,-0.001,0
11156000,-0.000826507,-0.0039453525,7.5519085e-05,0.0,0.0,-0.001,0
11176000,-0.001962842,-0.0040728617,-5.8412552e-05,0.0,0.0,-0.001,0
11192000,-0.0013380067,-0.00502898,0.00024074316,0.0,0.0,-0.001,0
11216000,-0.0013129651,-0.0058517656,0.000118911266,0.0,0.0,-0.001,0
11236000,-0.0006768359,-0.0063978164,8.34465e-06,0.0,0.0,-0.001,0
11256000,-0.0009967689,-0.0059154574,-0.000103890896,0.0,0.0,-0.001,0
11276000,0.00014959066,-0.005763788,-2.5868416e-05,0.0,0.0,-0.001,0
11296000,0.00061160536,-0.0056526167,0.00010681152,0.0,0.0,-0.001,0
11316000,0.00048305746,-0.0058455123,-7.593632e-05,0.0,0.0,-0.001,0
11336000,0.000616672,-0.006712746,-8.136034e-05,0.0,0.0,-0.001,0
11356000,0.00028334325,-0.0061763795,-2.9206276e-05,0.0,0.0,-0.001,0
11376000,-0.0004661542,-0.0059839156,-6.7174435e-05,0.0,0.0,-0.001,0
11396000,-0.00021209195,-0.006668413,-4.8816204e-05,0.0,0.0,-0.001,0
11416000,0.0004051875,-0.005787624,3.296137e-05,0.0,0.0,-0.001,0
11436000,0.00089039444,-0.006052007,1.2934208e-05,0.0,0.0,-0.001,0
11456000,0.00095826434,-0.0058592763,9.179115e-05,0.0,0.0,-0.001,0
11476000,0.0007997961,-0.0054266904,8.511543e-05,0.0,0.0,-0.001,0
11496000,0.00047105248,-0.0046350863,-0.00033587217,0.0,0.0,-0.001,0
11512000,-0.00013498333,-0.00441618,-8.8870525e-05,0.0,0.0,-0.001,0
11536000,-2.1090033e-05,-0.0036151488,0.0004914999,0.0,0.0,-0.001,0
11552000,-0.00030264165,-0.0039285733,-0.00027871132,0.0,0.0,-0.001,0
11576000,0.0008221383,-0.003538921,-9.012222e-05,0.0,0.0,-0.001,0
11596000,0.00063877925,-0.004155789,9.804964e-05,0.0,0.0,-0.001,0
11616000,-0.00035095797,-0.0047587417,5.7578087e-05,0.0,0.0,-0.001,0
11636000,-0.0008848815,-0.005179178,1.168251e-05,0.0,0.0,-0.001,0
11656000,-0.001457973,-0.005267702,-0.00031918287,0.0,0.0,-0.001,0
11672000,-0.0014854025,-0.0061787358,-5.966425e-05,0.0,0.0,-0.001,0
11696000,-0.0010489749,-0.006081479,0.00012475252,0.0,0.0,-0.001,0
11712000,-0.0012639437,-0.0058600157,2.9623508e-05,0.0,0.0,-0.001,0
11736000,-0.0016412339,-0.0055499095,-0.00025075674,0.0,0.0,-0.001,0
11756000,-0.0019488126,-0.0050786315,-7.5101852e-06,0.0,0.0,-0.001,0
11776000,-0.0016374292,-0.0044916095,-1.2099743e-05,0.0,0.0,-0.001,0
11792000,-0.0018197622,-0.004500539,-0.00017815828,0.0,0.0,-0.001,0
11816000,-0.0013188017,-0.0044509247,-0.00027495623,0.0,0.0,-0.001,0
11836000,-0.00052137824,-0.0040391623,3.9219856e-05,0.0,0.0,-0.001,0
11856000,-0.00040368433,-0.0039042265,0.00019025803,0.0,0.0,-0.001,0
11876000,-0.000847119,-0.0031983166,2.8371811e-05,0.0,0.0,-0.001,0
11896000,-0.0010714605,-0.0023256475,-0.00012892485,0.0,0.0,-0.001,0
11912000,-0.0011711083,-0.0034410048,1.5437603e-05,0.0,0.0,-0.001,0
11936000,-0.0010079613,-0.0036868204,4.8816204e-05,0.0,0.0,-0.001,0
11956000,-1.9745785e-05,-0.003696888,1.41859055e-05,0.0,0.0,-0.001,0
11976000,0.0007235607,-0.003420101,-0.00025075674,0.0,0.0,-0.001,0
11996000,0.0013642969,-0.0029437316,1.8775463e-05,0.0,0.0,-0.001,0
12016000,0.0015416283,-0.0027527565,6.67572e-05,0.0,0.0,-0.001,0
12036000,0.0011421632,-0.0027168894,1.8775463e-05,0.0,0.0,-0.001,0
12056000,0.0015186942,-0.0027840552,6.5505505e-05,0.0,0.0,-0.001,0
12076000,0.0018415103,-0.0039373585,1.2516975e-05,0.0,0.0,-0.001,0
12096000,0.002490999,-0.0044506947,0.00019025803,0.0,0.0,-0.001,0
12112000,0.002401241,-0.004463932,0.00020861626,0.0,0.0,-0.001,0
12136000,0.0027100295,-0.0047934144,9.971857e-05,0.0,0.0,-0.001,0
12156000,0.0030450155,-0.0051778844,-3.0457973e-05,0.0,0.0,-0.001,0
12176000,0.0031474652,-0.0061102128,1.66893e-06,0.0,0.0,-0.001,0
12196000,0.002698653,-0.006269455,-0.00016188622,0.0,0.0,-0.001,0
12216000,0.0030541026,-0.006803789,0.00012475252,0.0,0.0,-0.001,0
12236000,0.003547594,-0.007094386,1.8775463e-05,0.0,0.0,-0.001,0
12256000,0.0031403648,-0.006732612,0.00024408102,0.0,0.0,-0.001,0
12272000,0.0032159027,-0.0071691303,-7.7188015e-05,0.0,0.0,-0.001,0
12296000,0.003272512,-0.006020872,0.00015813112,0.0,0.0,-0.001,0
12316000,0.003458715,-0.0058971774,-5.4240227e-06,0.0,0.0,-0.001,0
12336000,0.003604544,-0.0053808377,-3.7550926e-05,0.0,0.0,-0.001,0
12356000,0.00420882,-0.005146097,-3.838539e-05,0.0,0.0,-0.001,0
12376000,0.004450297,-0.005380577,7.927418e-06,0.0,0.0,-0.001,0
12396000,0.004528729,-0.0052997125,-5.0485134e-05,0.0,0.0,-0.001,0
12416000,0.0045786593,-0.00410616,0.0001180768,0.0,0.0,-0.001,0
12436000,0.005124118,-0.003783199,6.300211e-05,0.0,0.0,-0.001,0
12456000,0.0050846906,-0.0041054827,-0.00019317865,0.0,0.0,-0.001,0
12476000,0.0047665,-0.0036786727,-7.134676e-05,0.0,0.0,-0.001,0
12496000,0.0050521134,-0.0029935022,-4.673004e-05,0.0,0.0,-0.001,0
12516000,0.0044549145,-0.0038054865,-1.7523766e-05,0.0,0.0,-0.001,0
12532000,0.004667388,-0.0033951614,2.5451183e-05,0.0,0.0,-0.001,0
12556000,0.004421776,-0.0034599397,6.92606e-05,0.0,0.0,-0.001,0
12576000,0.004982316,-0.0037759035,0.00027620792,0.0,0.0,-0.001,0
12596000,0.0056642336,-0.004095175,-9.5546246e-05,0.0,0.0,-0.001,0
12616000,0.00608513,-0.003940434,2.4616718e-05,0.0,0.0,-0.001,0
12636000,0.006555134,-0.004236386,2.1278858e-05,0.0,0.0,-0.001,0
12656000,0.0068187825,-0.0037648096,0.00015646219,0.0,0.0,-0.001,0
12676000,0.0059385384,-0.0053722477,7.969141e-05,0.0,0.0,-0.001,0
12696000,0.006398556,-0.006302443,-0.00011014938,0.0,0.0,-0.001,0
12716000,0.0067322156,-0.006717789,-9.7215176e-05,0.0,0.0,-0.001,0
12736000,0.0070919557,-0.006342713,-9.262562e-05,0.0,0.0,-0.001,0
12756000,0.0066662403,-0.006753116,5.465746e-05,0.0,0.0,-0.001,0
12776000,0.0064345757,-0.007439798,6.92606e-05,0.0,0.0,-0.001,0
12796000,0.0064938874,-0.007629549,-1.1265278e-05,0.0,0.0,-0.001,0
12816000,0.0066600563,-0.0071784295,-0.00022238493,0.0,0.0,-0.001,0
12836000,0.006264491,-0.007300772,3.296137e-05,0.0,0.0,-0.001,0
12856000,0.0056134295,-0.007435119,0.00036507845,0.0,0.0,-0.001,0
12876000,0.0056036455,-0.0072851516,-9.095669e-05,0.0,0.0,-0.001,0
12896000,0.005852219,-0.008482403,4.0888786e-05,0.0,0.0,-0.001,0
12916000,0.0055975853,-0.008605793,0.00012975931,0.0,0.0,-0.001,0
12936000,0.005333565,-0.00840597,-0.0003412962,0.0,0.0,-0.001,0
12956000,0.00517024,-0.008752679,-2.002716e-05,0.0,0.0,-0.001,0
12976000,0.005108441,-0.008301456,-0.00021612644,0.0,0.0,-0.001,0
12996000,0.005135882,-0.008093253,-7.092953e-05,0.0,0.0,-0.001,0
13016000,0.0054255314,-0.008508171,-0.0001898408,0.0,0.0,-0.001,0
13036000,0.005513705,-0.007652064,-4.5478344e-05,0.0,0.0,-0.001,0
13056000,0.004979059,-0.0072632497,0.0001706481,0.0,0.0,-0.001,0
13076000,0.0050268346,-0.007094951,9.846687e-05,0.0,0.0,-0.001,0
13096000,0.00546631,-0.0064988714,-0.00011265278,0.0,0.0,-0.001,0
13112000,0.0054945275,-0.005788084,9.7215176e-05,0.0,0.0,-0.001,0
13136000,0.0052124574,-0.0054598195,-0.00010097027,0.0,0.0,-0.001,0
13156000,0.0053047836,-0.0049644145,-0.000116825104,0.0,0.0,-0.001,0
13176000,0.0056042946,-0.0040906654,-0.00018274784,0.0,0.0,-0.001,0
13192000,0.0057027796,-0.0039066873,9.3877316e-05,0.0,0.0,-0.001,0
13216000,0.0057483064,-0.0032784373,-0.00011140108,0.0,0.0,-0.001,0
13236000,0.0059521506,-0.0033009334,8.761883e-06,0.0,0.0,-0.001,0
13256000,0.0060489755,-0.0025471845,-0.00014978647,0.0,0.0,-0.001,0
13276000,0.0060259686,-0.0026525958,-7.009506e-05,0.0,0.0,-0.001,0
13296000,0.0056721717,-0.0022283972,1.7106533e-05,0.0,0.0,-0.001,0
13316000,0.00571147,-0.002293664,0.000121831894,0.0,0.0,-0.001,0
13336000,0.0058607208,-0.0017892448,0.00010180473,0.0,0.0,-0.001,0
13356000,0.0058556804,-0.00089455256,-0.00023323298,0.0,0.0,-0.001,0
13376000,0.006452145,-0.0003230248,-2.0861626e-05,0.0,0.0,-0.001,0
13396000,0.007090931,-0.00023261458,-4.5478344e-05,0.0,0.0,-0.001,0
13416000,0.008103566,-0.001284607,-0.0003362894,0.0,0.0,-0.001,0
13436000,0.008262596,-0.0014291003,0.00015562773,0.0,0.0,-0.001,0
13452000,0.008666579,-0.0015063111,-0.000103890896,0.0,0.0,-0.001,0
13472000,0.0091702845,-0.0016448735,8.803606e-05,0.0,0.0,-0.001,0
13492000,0.009157744,-0.0015739384,0.00013893843,0.0,0.0,-0.001,0
13516000,0.0084667215,-0.0019049046,-1.1265278e-05,0.0,0.0,-0.001,0
13532000,0.008788966,-0.0020244953,0.00018149614,0.0,0.0,-0.001,0
13552000,0.008536356,-0.0018935162,-0.00028330088,0.0,0.0,-0.001,0
13576000,0.009002306,-0.0020524228,5.4240227e-05,0.0,0.0,-0.001,0
13592000,0.009489223,-0.0018585578,0.00023239851,0.0,0.0,-0.001,0
13616000,0.009064893,-0.0010521263,8.8870525e-05,0.0,0.0,-0.001,0
13636000,0.010035823,-0.0014937478,-4.0471554e-05,0.0,0.0,-0.001,0
13652000,0.009709774,-0.0018950882,0.00010848045,0.0,0.0,-0.001,0
13676000,0.009678163,-0.0013376884,-9.304285e-05,0.0,0.0,-0.001,0
13696000,0.009466485,-0.0011669975,-0.0003529787,0.0,0.0,-0.001,0
13712000,0.009007423,-0.0013934642,0.00029790401,0.0,0.0,-0.001,0
13736000,0.008554951,-0.0015069831,9.012222e-05,0.0,0.0,-0.001,0
13752000,0.00823021,-0.0014156371,-4.172325e-07,0.0,0.0,-0.001,0
13776000,0.008085251,-0.00088712364,-0.00032168627,0.0,0.0,-0.001,0
13796000,0.007392061,-0.00044788443,6.842613e-05,0.0,0.0,-0.001,0
13816000,0.0068336437,-0.0012449012,-0.00011765957,0.0,0.0,-0.001,0
13836000,0.0064406535,-0.0012892846,0.00014352798,0.0,0.0,-0.001,0
13852000,0.0061626043,-0.0011787559,-4.5478344e-05,0.0,0.0,-0.001,0
13876000,0.0064993566,-0.00057944655,6.5505505e-05,0.0,0.0,-0.001,0
13896000,0.0064823115,-0.0012573726,2.1278858e-05,0.0,0.0,-0.001,0
13916000,0.006638865,-0.00087974244,-7.009506e-05,0.0,0.0,-0.001,0
13936000,0.0073280064,-0.00070264563,5.00679e-05,0.0,0.0,-0.001,0
13956000,0.0075218705,-0.0012090858,3.33786e-06,0.0,0.0,-0.001,0
13976000,0.007864175,-0.0017220518,8.5532665e-05,0.0,0.0,-0.001,0
13996000,0.0071670944,-0.0016344015,-1.1265278e-05,0.0,0.0,-0.001,0
14016000,0.00660106,-0.0014957627,-0.0001898408,0.0,0.0,-0.001,0
14036000,0.006543524,-0.0002701464,-0.000102221966,0.0,0.0,-0.001,0
14056000,0.006368354,-0.0007613604,-3.7550926e-06,0.0,0.0,-0.001,0
14076000,0.006175366,-0.0010918528,-4.7564507e-05,0.0,0.0,-0.001,0
14096000,0.006432551,-0.0011737237,-9.846687e-05,0.0,0.0,-0.001,0
14116000,0.006965373,-0.0012310881,3.838539e-05,0.0,0.0,-0.001,0
14136000,0.0069414545,-0.0013623084,-0.00013643503,0.0,0.0,-0.001,0
14156000,0.0072059324,-0.001715753,8.177757e-05,0.0,0.0,-0.001,0
14176000,0.00720488,-0.0009302532,-0.0002707839,0.0,0.0,-0.001,0
14196000,0.0074516223,-0.0010300986,7.927418e-06,0.0,0.0,-0.001,0
14216000,0.007761107,-0.0010456175,0.00015562773,0.0,0.0,-0.001,0
14232000,0.008450712,-0.00095964293,-9.679794e-05,0.0,0.0,-0.001,0
14256000,0.008566439,-0.0006903107,-5.465746e-05,0.0,0.0,-0.001,0
14276000,0.008886797,-0.0016471425,-0.00030249357,0.0,0.0,-0.001,0
14296000,0.009052128,-0.0020596497,-3.5881996e-05,0.0,0.0,-0.001,0
14316000,0.009534584,-0.0015687472,0.00024574995,0.0,0.0,-0.001,0
14336000,0.009711541,-0.0012976523,-0.00012850761,0.0,0.0,-0.001,0
14356000,0.010344393,-0.00182642,-0.0001180768,0.0,0.0,-0.001,0
14376000,0.010790879,-0.001339314,8.302927e-05,0.0,0.0,-0.001,0
14396000,0.010646366,-0.0012973016,-0.00011014938,0.0,0.0,-0.001,0
14416000,0.0102947615,-0.00060877996,-0.00018441677,0.0,0.0,-0.001,0
14436000,0.010666196,-8.8736415e-06,-5.0902367e-05,0.0,0.0,-0.001,0
14456000,0.010742027,-7.612584e-05,-0.00010305643,0.0,0.0,-0.001,0
14476000,0.010154894,-8.217292e-05,-8.428097e-05,0.0,0.0,-0.001,0
14496000,0.009642271,-0.00031301426,-4.0888786e-05,0.0,0.0,-0.001,0
14512000,0.00908151,-0.00030137552,0.00013393164,0.0,0.0,-0.001,0
14536000,0.008619846,0.0004361067,0.00010180473,0.0,0.0,-0.001,0
14556000,0.008058665,0.00031023123,-3.7550926e-05,0.0,0.0,-0.001,0
14576000,0.0076672407,0.00054782047,0.00011640787,0.0,0.0,-0.001,0
14596000,0.007360436,0.00083604944,-5.7578087e-05,0.0,0.0,-0.001,0
14616000,0.007334005,0.0008202484,-0.0002720356,0.0,0.0,-0.001,0
14636000,0.00715031,0.0007273115,-3.796816e-05,0.0,0.0,-0.001,0
14656000,0.007601572,0.0008780502,0.00025492907,0.0,0.0,-0.001,0
14676000,0.007848907,0.000897147,7.593632e-05,0.0,0.0,-0.001,0
14696000,0.0086464565,0.0008085342,0.00012558699,0.0,0.0,-0.001,0
14716000,0.008605771,0.0007137875,1.835823e-05,0.0,0.0,-0.001,0
14736000,0.008379441,0.0011136057,0.00011265278,0.0,0.0,-0.001,0
14756000,0.007827057,0.0013271514,-1.001358e-05,0.0,0.0,-0.001,0
14776000,0.00798952,0.0008346697,0.0002169609,0.0,0.0,-0.001,0
14796000,0.008640408,0.0010850083,-8.2194805e-05,0.0,0.0,-0.001,0
14816000,0.009373858,0.0014199112,6.175041e-05,0.0,0.0,-0.001,0
14832000,0.008611562,0.0011983123,-5.0485134e-05,0.0,0.0,-0.001,0
14852000,0.008381924,0.001552922,3.8802624e-05,0.0,0.0,-0.001,0
14876000,0.008457527,0.0012493508,-0.00017774105,0.0,0.0,-0.001,0
14892000,0.009088513,0.00063177897,-4.0888786e-05,0.0,0.0,-0.001,0
14916000,0.0081399325,0.0011741268,-1.9609928e-05,0.0,0.0,-0.001,0
14936000,0.008180314,0.0011597762,-1.66893e-06,0.0,0.0,-0.001,0
14956000,0.008824326,0.0009356849,-0.0001681447,0.0,0.0,-0.001,0
14976000,0.008696218,0.00047604227,2.0861626e-05,0.0,0.0,-0.001,0
14996000,0.00871861,0.00021803472,-9.095669e-05,0.0,0.0,-0.001,0
15016000,0.00805329,0.00063621206,0.00030750036,0.0,0.0,-0.001,0
15036000,0.008663631,0.00035259174,-2.8371811e-05,0.0,0.0,-0.001,0
15056000,0.008129191,0.00029238313,-0.00017899275,0.0,0.0,-0.001,0
15076000,0.0082859155,0.00029865745,3.838539e-05,0.0,0.0,-0.001,0
15096000,0.0073782466,0.00056343223,-4.2140484e-05,0.0,0.0,-0.001,0
15116000,0.007421431,0.00037338492,-7.0929527e-06,0.0,0.0,-0.001,0
15132000,0.008581473,0.00057789683,7.969141e-05,0.0,0.0,-0.001,0
15156000,0.008562224,-0.00040564593,-3.33786e-05,0.0,0.0,-0.001,0
15176000,0.009270046,-0.001035518,0.00014811754,0.0,0.0,-0.001,0
15192000,0.008704588,-0.0017199437,0.00019401312,0.0,0.0,-0.001,0
15216000,0.009098082,-0.0018822623,-5.00679e-06,0.0,0.0,-0.001,0
15236000,0.009605426,-0.0021963199,-2.9623508e-05,0.0,0.0,-0.001,0
15256000,0.009263596,-0.0017200601,-0.00014311075,0.0,0.0,-0.001,0
15276000,0.008638972,-0.0023677885,8.302927e-05,0.0,0.0,-0.001,0
15292000,0.008467292,-0.0025241692,5.966425e-05,0.0,0.0,-0.001,0
15316000,0.008625732,-0.0017955701,4.2140484e-05,0.0,0.0,-0.001,0
15336000,0.009364899,-0.0019856743,0.00017732382,0.0,0.0,-0.001,0
15356000,0.008647092,-0.0023743575,-1.0848045e-05,0.0,0.0,-0.001,0
15376000,0.009199366,-0.0028873878,0.00013893843,0.0,0.0,-0.001,0
15396000,0.008894013,-0.0021608046,-7.0512295e-05,0.0,0.0,-0.001,0
15416000,0.008742877,-0.002745293,-0.000105559826,0.0,0.0,-0.001,0
15436000,0.008422136,-0.003419779,1.3768673e-05,0.0,0.0,-0.001,0
15456000,0.008567307,-0.0039904355,8.928776e-05,0.0,0.0,-0.001,0
15476000,0.008748186,-0.00421467,-7.8856945e-05,0.0,0.0,-0.001,0
15496000,0.00827405,-0.004242628,-6.967783e-05,0.0,0.0,-0.001,0
15516000,0.008147204,-0.004106981,-4.2140484e-05,0.0,0.0,-0.001,0
15532000,0.00822995,-0.0037821352,-8.59499e-05,0.0,0.0,-0.001,0
15556000,0.007886759,-0.0031710477,-0.00015103817,0.0,0.0,-0.001,0
15576000,0.007929113,-0.0031294187,-4.0471554e-05,0.0,0.0,-0.001,0
15596000,0.007742209,-0.0038735343,-3.3795834e-05,0.0,0.0,-0.001,0
15616000,0.006931023,-0.0036020996,0.0001873374,0.0,0.0,-0.001,0
15636000,0.0072128614,-0.0039551007,-0.00019401312,0.0,0.0,-0.001,0
15656000,0.007432221,-0.004527511,-0.00017356873,0.0,0.0,-0.001,0
15676000,0.0073679895,-0.0045282855,8.094311e-05,0.0,0.0,-0.001,0
15696000,0.008373007,-0.0040842695,-0.00010097027,0.0,0.0,-0.001,0
15716000,0.008321664,-0.0037996087,1.001358e-05,0.0,0.0,-0.001,0
15736000,0.0077133956,-0.0038300082,0.00014102459,0.0,0.0,-0.001,0
15756000,0.006992206,-0.0034897262,-1.835823e-05,0.0,0.0,-0.001,0
15776000,0.0073571973,-0.002141182,-4.965067e-05,0.0,0.0,-0.001,0
15792000,0.007763545,-0.0020654076,0.0002040267,0.0,0.0,-0.001,0
15816000,0.0069930973,-0.0022331676,4.464388e-05,0.0,0.0,-0.001,0
15836000,0.0068652853,-0.0023975063,-5.6743622e-05,0.0,0.0,-0.001,0
15856000,0.0066020684,-0.0022915325,6.425381e-05,0.0,0.0,-0.001,0
15876000,0.0074606985,-0.0016245046,1.2934208e-05,0.0,0.0,-0.001,0
15896000,0.007250329,-0.0018212758,7.593632e-05,0.0,0.0,-0.001,0
15916000,0.007227891,-0.0015911816,2.503395e-06,0.0,0.0,-0.001,0
15936000,0.0072565847,-0.0015994604,3.296137e-05,0.0,0.0,-0.001,0
15956000,0.0067946427,-0.0011902677,6.0915947e-05,0.0,0.0,-0.001,0
15976000,0.0068313247,-0.0018923953,-0.00043225288,0.0,0.0,-0.001,0
15992000,0.0067263423,-0.0025465887,0.00023782253,0.0,0.0,-0.001,0
16016000,0.006581131,-0.00293318,4.8816204e-05,0.0,0.0,-0.001,0
16036000,0.0067532053,-0.0029745155,-1.835823e-05,0.0,0.0,-0.001,0
16056000,0.006008984,-0.003496755,-0.00022655725,0.0,0.0,-0.001,0
16076000,0.005132992,-0.0038639044,0.00018817186,0.0,0.0,-0.001,0
16096000,0.0049219313,-0.004374823,-5.13196e-05,0.0,0.0,-0.001,0
16116000,0.0051149316,-0.0038417762,-1.1265278e-05,0.0,0.0,-0.001,0
16136000,0.004498226,-0.003473773,4.7147274e-05,0.0,0.0,-0.001,0
16156000,0.0043349355,-0.0039140307,3.33786e-05,0.0,0.0,-0.001,0
16172000,0.00476736,-0.0041920217,-9.7215176e-05,0.0,0.0,-0.001,0
16196000,0.0051273834,-0.0044144895,0.0001527071,0.0,0.0,-0.001,0
16216000,0.0045514153,-0.004571316,0.00021362305,0.0,0.0,-0.001,0
16236000,0.0037483003,-0.0044205245,8.3863735e-05,0.0,0.0,-0.001,0
16252000,0.0031514657,-0.004541575,-0.00011599064,0.0,0.0,-0.001,0
16276000,0.0037966224,-0.0044398773,-2.9206276e-05,0.0,0.0,-0.001,0
16296000,0.003651159,-0.005083021,8.678436e-05,0.0,0.0,-0.001,0
16316000,0.003176025,-0.0054145395,-0.00015437603,0.0,0.0,-0.001,0
16336000,0.0031267907,-0.0058554104,0.00013393164,0.0,0.0,-0.001,0
16356000,0.0037312012,-0.0063871145,5.3822994e-05,0.0,0.0,-0.001,0
16376000,0.003413353,-0.007095038,-0.0002824664,0.0,0.0,-0.001,0
16396000,0.003105758,-0.0073086154,-0.00021028519,0.0,0.0,-0.001,0
16416000,0.0032366375,-0.00755113,5.5909157e-05,0.0,0.0,-0.001,0
16436000,0.0025814422,-0.007703459,7.7188015e-05,0.0,0.0,-0.001,0
16456000,0.0029442895,-0.008185484,-8.845329e-05,0.0,0.0,-0.001,0
16476000,0.0031897195,-0.0084800515,-5.507469e-05,0.0,0.0,-0.001,0
16496000,0.0027949323,-0.007824112,-5.507469e-05,0.0,0.0,-0.001,0
16512000,0.002856711,-0.0075815497,-0.0002052784,0.0,0.0,-0.001,0
16536000,0.0031650122,-0.008024746,0.00015228987,0.0,0.0,-0.001,0
16556000,0.0032154208,-0.009012923,-5.966425e-05,0.0,0.0,-0.001,0
16576000,0.003212014,-0.008885826,-2.2530556e-05,0.0,0.0,-0.001,0
16596000,0.0025203507,-0.009062078,-0.00028413534,0.0,0.0,-0.001,0
16616000,0.0024772051,-0.008996172,0.00011014938,0.0,0.0,-0.001,0
16636000,0.0025202655,-0.009140033,4.798174e-05,0.0,0.0,-0.001,0
16656000,0.002088674,-0.009476124,0.00019568205,0.0,0.0,-0.001,0
16676000,0.0016970455,-0.009344416,0.00013643503,0.0,0.0,-0.001,0
16696000,0.0014730173,-0.009217838,3.5881996e-05,0.0,0.0,-0.001,0
16716000,0.0013646311,-0.00939489,-0.00012767315,0.0,0.0,-0.001,0
16736000,0.0015977835,-0.009918371,9.638071e-05,0.0,0.0,-0.001,0
16756000,0.0018678796,-0.01011722,-4.5895576e-05,0.0,0.0,-0.001,0
16776000,0.0027018744,-0.010351678,-8.636713e-05,0.0,0.0,-0.001,0
16796000,0.0029060864,-0.010199647,-6.967783e-05,0.0,0.0,-0.001,0
16816000,0.0033058713,-0.0106370635,-0.00016188622,0.0,0.0,-0.001,0
16836000,0.0032493856,-0.010556986,3.629923e-05,0.0,0.0,-0.001,0
16856000,0.0033907038,-0.010907088,5.8412552e-05,0.0,0.0,-0.001,0
16872000,0.0034266524,-0.011554625,0.0003796816,0.0,0.0,-0.001,0
16896000,0.0035072523,-0.012005339,-9.179115e-06,0.0,0.0,-0.001,0
16916000,0.003301337,-0.012299285,-0.0001180768,0.0,0.0,-0.001,0
16936000,0.0033142641,-0.0129390955,1.50203705e-05,0.0,0.0,-0.001,0
16956000,0.0037133745,-0.013472203,0.0001527071,0.0,0.0,-0.001,0
16976000,0.004679394,-0.013530286,-8.34465e-05,0.0,0.0,-0.001,0
16996000,0.004804852,-0.013257436,5.7578087e-05,0.0,0.0,-0.001,0
17016000,0.0043401816,-0.013199037,0.00024074316,0.0,0.0,-0.001,0
17036000,0.0034549315,-0.012678317,-2.2113323e-05,0.0,0.0,-0.001,0
17056000,0.0046512126,-0.013434494,-0.00024157763,0.0,0.0,-0.001,0
17076000,0.0046363226,-0.013084162,3.8802624e-05,0.0,0.0,-0.001,0
17096000,0.0051419307,-0.012917392,0.00010639429,0.0,0.0,-0.001,0
17116000,0.0055719092,-0.013246789,-2.2530556e-05,0.0,0.0,-0.001,0
17136000,0.005572734,-0.012866642,3.296137e-05,0.0,0.0,-0.001,0
17156000,0.006127713,-0.012535091,6.7174435e-05,0.0,0.0,-0.001,0
17176000,0.0054085143,-0.012549093,-0.00020194054,0.0,0.0,-0.001,0
17196000,0.005938255,-0.012667681,-1.7106533e-05,0.0,0.0,-0.001,0
17216000,0.0054239486,-0.013574857,-3.46303e-05,0.0,0.0,-0.001,0
17236000,0.005306931,-0.013349166,-9.7215176e-05,0.0,0.0,-0.001,0
17256000,0.0047605145,-0.013436295,-0.0001873374,0.0,0.0,-0.001,0
17272000,0.004328495,-0.0135984495,0.0001026392,0.0,0.0,-0.001,0
17292000,0.003989517,-0.013291312,-9.846687e-05,0.0,0.0,-0.001,0
17312000,0.0045868717,-0.013215886,-0.00025117397,0.0,0.0,-0.001,0
17336000,0.0050933026,-0.013300134,6.258488e-05,0.0,0.0,-0.001,0
17352000,0.0053261346,-0.01413195,-3.296137e-05,0.0,0.0,-0.001,0
17376000,0.0050094663,-0.014171945,-0.00017356873,0.0,0.0,-0.001,0
17396000,0.0045477296,-0.013808282,-4.5478344e-05,0.0,0.0,-0.001,0
17416000,0.004937039,-0.013575828,-0.00025576353,0.0,0.0,-0.001,0
17436000,0.004737491,-0.013358185,9.971857e-05,0.0,0.0,-0.001,0
17452000,0.004261311,-0.012620705,1.9192696e-05,0.0,0.0,-0.001,0
17476000,0.0037035123,-0.012478514,4.464388e-05,0.0,0.0,-0.001,0
17496000,0.0038916622,-0.01245544,-0.00012516975,0.0,0.0,-0.001,0
17516000,0.0041572712,-0.012366604,-9.8884106e-05,0.0,0.0,-0.001,0
17536000,0.004897077,-0.011802772,-5.2154064e-05,0.0,0.0,-0.001,0
17552000,0.005423599,-0.010984794,-6.2584877e-06,0.0,0.0,-0.001,0
17576000,0.005410293,-0.011262583,0.00019985437,0.0,0.0,-0.001,0
17596000,0.0056971572,-0.0114998575,-6.175041e-05,0.0,0.0,-0.001,0
17616000,0.0058224536,-0.010724954,-1.5437603e-05,0.0,0.0,-0.001,0
17632000,0.0060082376,-0.010636401,4.3809414e-05,0.0,0.0,-0.001,0
17656000,0.0066834525,-0.010907428,-8.3863735e-05,0.0,0.0,-0.001,0
17676000,0.0069057075,-0.011020925,-5.00679e-06,0.0,0.0,-0.001,0
17696000,0.0069719767,-0.010734372,9.5546246e-05,0.0,0.0,-0.001,0
17716000,0.007097845,-0.011028851,6.80089e-05,0.0,0.0,-0.001,0
17736000,0.00821401,-0.01062021,-5.4240227e-05,0.0,0.0,-0.001,0
17752000,0.007953949,-0.010564744,-0.000166893,0.0,0.0,-0.001,0
17776000,0.00839323,-0.010483905,-0.00013810396,0.0,0.0,-0.001,0
17792000,0.008593908,-0.010726265,-2.7120113e-05,0.0,0.0,-0.001,0
17816000,0.00851525,-0.011523886,-0.00034546852,0.0,0.0,-0.001,0
17832000,0.008708412,-0.011021486,-8.34465e-06,0.0,0.0,-0.001,0
17856000,0.009021426,-0.010923736,3.3795834e-05,0.0,0.0,-0.001,0
17876000,0.00925705,-0.01117123,-0.00010472536,0.0,0.0,-0.001,0
17896000,0.009220408,-0.011129383,-7.593632e-05,0.0,0.0,-0.001,0
17916000,0.009123426,-0.011378597,8.010864e-05,0.0,0.0,-0.001,0
17936000,0.009033613,-0.011153088,-0.00018316507,0.0,0.0,-0.001,0
17956000,0.009037905,-0.011137762,-3.671646e-05,0.0,0.0,-0.001,0
17976000,0.009097139,-0.011541623,-0.00022447109,0.0,0.0,-0.001,0
17992000,0.009150374,-0.011262089,3.0457973e-05,0.0,0.0,-0.001,0
18016000,0.008574134,-0.011548806,1.66893e-06,0.0,0.0,-0.001,0
18036000,0.008518337,-0.0118464185,6.2584877e-06,0.0,0.0,-0.001,0
18056000,0.007923716,-0.011794088,0.00033211708,0.0,0.0,-0.001,0
18072000,0.007862103,-0.011116571,3.33786e-05,0.0,0.0,-0.001,0
18096000,0.0077948966,-0.0105223525,0.00017231703,0.0,0.0,-0.001,0
18116000,0.008027819,-0.009911278,-9.512901e-05,0.0,0.0,-0.001,0
18136000,0.008025428,-0.009924559,0.0003437996,0.0,0.0,-0.001,0
18152000,0.0082287965,-0.010496945,-5.5491924e-05,0.0,0.0,-0.001,0
18176000,0.009095494,-0.011052278,-0.00014644861,0.0,0.0,-0.001,0
18192000,0.009036087,-0.010843428,8.0525875e-05,0.0,0.0,-0.001,0
18212000,0.0094527425,-0.010593674,-4.464388e-05,0.0,0.0,-0.001,0
18236000,0.010484441,-0.01025521,0.00014185905,0.0,0.0,-0.001,0
18256000,0.010023247,-0.0102420235,-0.00010931492,0.0,0.0,-0.001,0
18272000,0.0097731175,-0.010003197,-0.00022530556,0.0,0.0,-0.001,0
18296000,0.009896909,-0.009884638,0.00015771389,0.0,0.0,-0.001,0
18316000,0.008967679,-0.009922385,6.133318e-05,0.0,0.0,-0.001,0
18336000,0.008160364,-0.010369858,-5.4240227e-06,0.0,0.0,-0.001,0
18356000,0.0074808276,-0.010074415,5.465746e-05,0.0,0.0,-0.001,0
18376000,0.007052354,-0.009865818,-2.503395e-05,0.0,0.0,-0.001,0
18396000,0.0060551907,-0.009794528,0.00018191338,0.0,0.0,-0.001,0
18416000,0.005993357,-0.009383119,9.8884106e-05,0.0,0.0,-0.001,0
18432000,0.0060390723,-0.009113028,0.00010806322,0.0,0.0,-0.001,0
18456000,0.0055188034,-0.008260274,4.839897e-05,0.0,0.0,-0.001,0
18476000,0.0053646252,-0.008584548,2.002716e-05,0.0,0.0,-0.001,0
18496000,0.0048669316,-0.009164861,-2.2530556e-05,0.0,0.0,-0.001,0
18516000,0.0044503063,-0.008906937,0.0001026392,0.0,0.0,-0.001,0
18536000,0.0044700857,-0.00880683,2.5868416e-05,0.0,0.0,-0.001,0
18556000,0.0042668255,-0.008897245,6.3836575e-05,0.0,0.0,-0.001,0
18576000,0.004340249,-0.00857838,6.5505505e-05,0.0,0.0,-0.001,0
18596000,0.0039582034,-0.00857144,6.7174435e-05,0.0,0.0,-0.001,0
18616000,0.0045028655,-0.00939451,-0.00020569563,0.0,0.0,-0.001,0
18632000,0.0045382665,-0.009375776,-0.00030750036,0.0,0.0,-0.001,0
18656000,0.0044078724,-0.00990375,0.00021070242,0.0,0.0,-0.001,0
18676000,0.004554422,-0.010048889,-0.00016522408,0.0,0.0,-0.001,0
18696000,0.003890549,-0.010412054,-0.00020569563,0.0,0.0,-0.001,0
18716000,0.0032952349,-0.010373334,-5.966425e-05,0.0,0.0,-0.001,0
18736000,0.003276603,-0.010393107,-2.002716e-05,0.0,0.0,-0.001,0
18752000,0.0030099363,-0.0106135765,-0.0002874732,0.0,0.0,-0.001,0
18776000,0.0034250144,-0.010864614,-4.0471554e-05,0.0,0.0,-0.001,0
18792000,0.0032984875,-0.0114504965,-0.00017148256,0.0,0.0,-0.001,0
18816000,0.0034387587,-0.012248866,0.0004760623,0.0,0.0,-0.001,0
18836000,0.0042441604,-0.011910601,-0.00015729666,0.0,0.0,-0.001,0
18856000,0.0045928815,-0.011703727,0.00019735098,0.0,0.0,-0.001,0
18876000,0.0051579345,-0.011281813,-8.845329e-05,0.0,0.0,-0.001,0
18896000,0.0056899628,-0.010575348,-3.7550926e-06,0.0,0.0,-0.001,0
18916000,0.0063060345,-0.0107486155,-0.00012266636,0.0,0.0,-0.001,0
18936000,0.006031739,-0.010815839,0.00015062094,0.0,0.0,-0.001,0
18956000,0.005838584,-0.010647226,3.33786e-05,0.0,0.0,-0.001,0
18976000,0.005702585,-0.010426028,-0.00010472536,0.0,0.0,-0.001,0
18996000,0.00571179,-0.010404824,7.7188015e-05,0.0,0.0,-0.001,0
19016000,0.005663842,-0.01089609,-0.00013309717,0.0,0.0,-0.001,0
19036000,0.007177862,-0.01096242,3.129244e-05,0.0,0.0,-0.001,0
19056000,0.006695971,-0.010959051,4.0471554e-05,0.0,0.0,-0.001,0
19076000,0.0067494763,-0.0111354785,-6.0498714e-05,0.0,0.0,-0.001,0
19096000,0.00654642,-0.01151255,-0.00012934208,0.0,0.0,-0.001,0
19116000,0.005777313,-0.011262678,-2.3782253e-05,0.0,0.0,-0.001,0
19136000,0.0053931577,-0.011706898,0.0002182126,0.0,0.0,-0.001,0
19156000,0.0051113823,-0.011556256,5.13196e-05,0.0,0.0,-0.001,0
19176000,0.004432855,-0.012012448,0.00029081106,0.0,0.0,-0.001,0
19196000,0.0045591625,-0.011621359,1.5437603e-05,0.0,0.0,-0.001,0
19216000,0.0049138246,-0.011486998,-0.00010764599,0.0,0.0,-0.001,0
19236000,0.0040859333,-0.010735312,8.761883e-06,0.0,0.0,-0.001,0
19256000,0.0038315144,-0.010542143,0.00017231703,0.0,0.0,-0.001,0
19276000,0.00440657,-0.009894006,0.00012975931,0.0,0.0,-0.001,0
19296000,0.0043139607,-0.009957323,5.2154064e-05,0.0,0.0,-0.001,0
19316000,0.0047300747,-0.010226743,-4.172325e-07,0.0,0.0,-0.001,0
19332000,0.0050526587,-0.0102956835,-0.00012975931,0.0,0.0,-0.001,0
19352000,0.0054813595,-0.009731116,-0.00015437603,0.0,0.0,-0.001,0
19376000,0.006177706,-0.009843738,0.00013434887,0.0,0.0,-0.001,0
19396000,0.0062090354,-0.010455241,7.134676e-05,0.0,0.0,-0.001,0
19416000,0.006718196,-0.010854078,1.41859055e-05,0.0,0.0,-0.001,0
19436000,0.0071520726,-0.010903488,-0.00010347366,0.0,0.0,-0.001,0
19456000,0.0071128914,-0.010851429,6.967783e-05,0.0,0.0,-0.001,0
19472000,0.0066478364,-0.0110756345,-6.592274e-05,0.0,0.0,-0.001,0
19496000,0.007280224,-0.011450829,-3.8802624e-05,0.0,0.0,-0.001,0
19516000,0.0074969623,-0.0111409,-6.592274e-05,0.0,0.0,-0.001,0
19536000,0.007662558,-0.011287632,-0.00020235777,0.0,0.0,-0.001,0
19556000,0.007871079,-0.01204819,-8.7201595e-05,0.0,0.0,-0.001,0
19576000,0.00795191,-0.012362225,-0.00020903349,0.0,0.0,-0.001,0
19596000,0.007989258,-0.012572387,3.7133694e-05,0.0,0.0,-0.001,0
19616000,0.008177648,-0.0121880155,0.00011974573,0.0,0.0,-0.001,0
19636000,0.00806079,-0.012501389,-5.3822994e-05,0.0,0.0,-0.001,0
19656000,0.008339435,-0.0123419585,-0.00015103817,0.0,0.0,-0.001,0
19676000,0.008343939,-0.011699458,0.00011265278,0.0,0.0,-0.001,0
19696000,0.008481164,-0.012305323,0.00012350082,0.0,0.0,-0.001,0
19716000,0.008157924,-0.011428795,7.843971e-05,0.0,0.0,-0.001,0
19736000,0.007913705,-0.011427465,-0.00017857552,0.0,0.0,-0.001,0
19756000,0.008739341,-0.012011849,-3.46303e-05,0.0,0.0,-0.001,0
19776000,0.009278795,-0.01205894,0.00026911497,0.0,0.0,-0.001,0
19796000,0.008685944,-0.012429285,-7.301569e-05,0.0,0.0,-0.001,0
19816000,0.008843719,-0.012197848,0.00016272068,0.0,0.0,-0.001,0
19836000,0.008786743,-0.012121747,-9.2208385e-05,0.0,0.0,-0.001,0
19856000,0.008715402,-0.011945144,2.8371811e-05,0.0,0.0,-0.001,0
19876000,0.008688347,-0.011362067,-9.971857e-05,0.0,0.0,-0.001,0
19896000,0.0091468105,-0.011350655,0.00021153688,0.0,0.0,-0.001,0
19916000,0.0095458925,-0.011412051,7.009506e-05,0.0,0.0,-0.001,0
19936000,0.009442395,-0.010838724,-4.297495e-05,0.0,0.0,-0.001,0
19956000,0.009223843,-0.011088072,1.001358e-05,0.0,0.0,-0.001,0
19976000,0.009038749,-0.011436934,-0.00024658442,0.0,0.0,-0.001,0
19996000,0.009893055,-0.011403784,4.297495e-05,0.0,0.0,-0.001,0
20016000,0.010413288,-0.011944746,0.00029790401,0.0,0.0,-0.001,0
20036000,0.010634659,-0.012638671,-5.2154064e-05,0.0,0.0,-0.001,0
20056000,0.011017652,-0.012916565,0.0001681447,0.0,0.0,-0.001,0
20076000,0.011142538,-0.012826787,1.2516975e-06,0.0,0.0,-0.001,0
20096000,0.010944782,-0.013184184,0.00013893843,0.0,0.0,-0.001,0
20116000,0.01111562,-0.013549313,0.00015312433,0.0,0.0,-0.001,0
20132000,0.011053009,-0.013369595,6.0498714e-05,0.0,0.0,-0.001,0
20156000,0.012028477,-0.013210636,-8.34465e-07,0.0,0.0,-0.001,0
20176000,0.012016822,-0.013704987,0.000238657,0.0,0.0,-0.001,0
20196000,0.01159578,-0.0133656515,2.503395e-05,0.0,0.0,-0.001,0
20216000,0.0113510415,-0.012882964,-0.00018566847,0.0,0.0,-0.001,0
20236000,0.01113147,-0.012571106,0.00017148256,0.0,0.0,-0.001,0
20256000,0.010900913,-0.0126238065,-0.00013267994,0.0,0.0,-0.001,0
20276000,0.011255566,-0.012009947,-9.3877316e-05,0.0,0.0,-0.001,0
20296000,0.010723577,-0.011553672,-0.00021529198,0.0,0.0,-0.001,0
20316000,0.011232619,-0.011696765,6.508827e-05,0.0,0.0,-0.001,0
20336000,0.0108301025,-0.012376133,2.8371811e-05,0.0,0.0,-0.001,0
20356000,0.010630895,-0.011999961,2.0861626e-06,0.0,0.0,-0.001,0
20376000,0.010173917,-0.011954448,-4.339218e-05,0.0,0.0,-0.001,0
20392000,0.010707841,-0.011890129,-0.0003592372,0.0,0.0,-0.001,0
20416000,0.011263164,-0.012520625,1.66893e-06,0.0,0.0,-0.001,0
20432000,0.011710019,-0.012595583,-9.638071e-05,0.0,0.0,-0.001,0
20456000,0.011466471,-0.012484699,0.00014811754,0.0,0.0,-0.001,0
20476000,0.011973545,-0.012517843,-0.000346303,0.0,0.0,-0.001,0
20496000,0.012634791,-0.012194557,-0.00044894218,0.0,0.0,-0.001,0
20516000,0.013192613,-0.012458302,0.00012141466,0.0,0.0,-0.001,0
20536000,0.01327292,-0.01222222,-7.760525e-05,0.0,0.0,-0.001,0
20556000,0.0132963,-0.011957569,-3.2126904e-05,0.0,0.0,-0.001,0
20572000,0.013407378,-0.011708258,-0.0001527071,0.0,0.0,-0.001,0
20596000,0.014160756,-0.011298192,-4.2140484e-05,0.0,0.0,-0.001,0
20616000,0.014000579,-0.011966969,-0.00025242567,0.0,0.0,-0.001,0
20636000,0.013859985,-0.012286066,-0.00013768673,0.0,0.0,-0.001,0
20656000,0.014047898,-0.011814303,-9.012222e-05,0.0,0.0,-0.001,0
20676000,0.014575424,-0.011605897,-3.4213066e-05,0.0,0.0,-0.001,0
