timestamp,x,y,z,vx,vy,vz,acceleration[0],acceleration[1],acceleration[2],thrust[0],thrust[1],thrust[2],yaw,yawspeed
2043328000,nan,nan,nan,nan,nan,nan,0.0,0.0,100.0,-0.0,-0.0,-0.001,2.988752,0.0
2043336000,nan,nan,nan,nan,nan,nan,0.0,0.0,100.0,-0.0,-0.0,-0.001,2.9887068,0.0
2043424000,nan,nan,nan,nan,nan,nan,0.0,0.0,100.0,-0.0,-0.0,-0.001,2.9885173,0.0
2043528000,nan,nan,nan,nan,nan,nan,0.0,0.0,100.0,-0.0,-0.0,-0.001,2.9888659,0.0
2043624000,nan,nan,nan,nan,nan,nan,0.0,0.0,100.0,-0.0,-0.0,-0.001,2.988688,0.0
2043728000,nan,nan,nan,nan,nan,nan,0.0,0.0,100.0,-0.0,-0.0,-0.001,2.988965,0.0
2043824000,nan,nan,nan,nan,nan,nan,0.0,0.0,100.0,-0.0,-0.0,-0.001,2.9892344,0.0
2043920000,nan,nan,nan,nan,nan,nan,0.0,0.0,100.0,-0.0,-0.0,-0.001,2.9889767,0.0
2044024000,nan,nan,nan,nan,nan,nan,0.0,0.0,100.0,-0.0,-0.0,-0.001,2.9886377,0.0
2044120000,nan,nan,nan,nan,nan,nan,0.0,0.0,100.0,-0.0,-0.0,-0.001,2.9886827,0.0
2044224000,nan,nan,nan,nan,nan,nan,0.0,0.0,100.0,-0.0,-0.0,-0.001,2.9884834,0.0
2044320000,nan,nan,nan,nan,nan,nan,0.0,0.0,100.0,-0.0,-0.0,-0.001,2.9884295,0.0
2044424000,46.574516,-16.59183,-0.008559412,-0.0006260407,0.0017943033,2.2626715,-0.05687116,0.0876973,9.534415,-8.049931e-05,0.00012413271,-0.013880134,2.9884632,0.0
2044528000,46.574497,-16.59182,-0.005245977,-0.00062748464,0.00024362886,2.0736806,-0.05000433,0.072222315,9.226387,-0.00015073863,0.00021771499,-0.029585183,2.9884632,0.0
2044624000,46.574467,-16.591806,-0.011873613,-0.00085384643,-0.0008808107,1.8992274,-0.044116568,0.07423578,8.908864,-0.00020585427,0.0003463949,-0.04577437,2.9884632,0.0
2044720000,46.574432,-16.59179,-0.0129462965,-0.0015987097,-0.0004335137,1.7247741,-0.054468967,0.081116125,8.552051,-0.00035514848,0.0005288933,-0.06396678,2.9884632,0.0
2044824000,46.574368,-16.591757,-0.014521684,-0.0032450464,0.0015664934,1.5357832,-0.06387268,0.08069009,8.156391,-0.0005478099,0.0006920459,-0.084139794,2.9884632,0.0
2044920000,46.574314,-16.59173,-0.01543865,-0.0051603112,8.2153536e-05,1.3613299,-0.07481702,0.06166912,7.7488184,-0.0008000056,0.0006594175,-0.10492021,2.9884632,0.0
2045024000,46.574215,-16.591682,-0.017105212,-0.0077304356,-0.0011052666,1.172339,-0.070648685,0.059108604,7.26945,-0.00093252206,0.0007801996,-0.12936121,2.9884632,0.0
2045120000,46.57414,-16.591646,-0.01869184,-0.010214412,-0.0009643778,0.9978863,-0.081953436,0.055589817,6.7841463,-0.001287594,0.0008733877,-0.1541048,2.9884632,0.0
2045224000,46.57401,-16.591585,-0.021267092,-0.013208121,0.00029417954,0.8088963,-0.08281148,0.059288166,6.227395,-0.0015421289,0.0011040738,-0.18249121,2.9884632,0.0
2045320000,46.573914,-16.59154,-0.021258874,-0.01365156,-0.000592441,0.6344441,-0.07581547,0.061709028,5.66037,-0.0016348661,0.0013306784,-0.21140146,2.9884632,0.0
2045424000,46.57375,-16.591463,-0.021047,-0.01403224,-0.00071106147,0.44545412,-0.07285129,0.07060812,5.024956,-0.001810381,0.0017546372,-0.24379855,2.9892147,0.0
2045528000,46.573597,-16.591389,-0.02054889,-0.015149002,0.00072400254,0.25646424,-0.08625118,0.0731239,4.336971,-0.002453643,0.002080203,-0.27887604,2.989133,0.0
2045624000,46.57344,-16.591314,-0.022565855,-0.016791381,0.0030599975,0.08697991,-0.090841345,0.07871868,3.6940851,-0.0028890164,0.002503481,-0.3116541,2.9890752,0.0
2045720000,46.5733,-16.59125,-0.022371542,-0.016774416,0.0014158927,0.04643009,-0.08746766,0.057959896,3.5395958,-0.0028510394,0.0018892233,-0.31953084,2.9890418,0.0
2045824000,46.573074,-16.591143,-0.021882085,-0.017191123,-0.00026294292,-0.013797158,-0.09457957,0.058559105,3.2993248,-0.0032009138,0.0019818514,-0.33178127,2.989097,0.0
2045928000,46.572865,-16.591043,-0.022589514,-0.01818448,-0.00048955565,-0.066624396,-0.09487173,0.054680865,3.0751028,-0.0033206341,0.0019139014,-0.34321338,2.988609,0.0
2046024000,46.57266,-16.590944,-0.022843473,-0.019620132,0.0004783178,-0.114514194,-0.082609005,0.05236247,2.869587,-0.002978789,0.0018881327,-0.3536918,2.9887567,0.0
2046128000,46.572422,-16.590832,-0.024608625,-0.020058876,-0.0011979484,-0.16807023,-0.1083718,0.05792059,2.6312585,-0.004043032,0.0021608465,-0.36584318,2.9885993,0.0
2046224000,46.572193,-16.590723,-0.024228208,-0.02107767,-0.0021218313,-0.21513471,-0.098044395,0.056314833,2.4069026,-0.0037736648,0.0021675213,-0.37728214,2.988722,0.0
2046328000,46.571926,-16.5906,-0.027198138,-0.022907866,-0.001542252,-0.26941213,-0.11277036,0.07088384,2.134875,-0.00449752,0.0028269973,-0.39115167,2.9888296,0.0
2046424000,46.57167,-16.590477,-0.026213259,-0.025209324,0.00025898183,-0.31560773,-0.1107154,0.06731197,1.8874897,-0.004559623,0.0027721277,-0.4037648,2.9884992,0.0
2046528000,46.571377,-16.59034,-0.029384026,-0.02512586,-0.00061837025,-0.37058765,-0.10358708,0.06633397,1.5901306,-0.0044257217,0.0028340954,-0.4189259,2.9886498,0.0
2046624000,46.571095,-16.590206,-0.026921079,-0.025426842,-0.0009009368,-0.4159897,-0.1310451,0.07516083,1.3282572,-0.005776002,0.0033128222,-0.43227774,2.9884372,0.0
2046728000,46.570774,-16.590057,-0.030802924,-0.027046597,4.9978727e-05,-0.4717248,-0.13590421,0.0697992,1.0034548,-0.0062206835,0.0031948881,-0.44883806,2.988064,0.0
2046824000,46.57047,-16.589912,-0.027521085,-0.029369557,0.00183298,-0.5162664,-0.13419926,0.07667983,0.7215247,-0.00633825,0.0036215992,-0.4632125,2.9873056,0.0
2046920000,46.5702,-16.589788,-0.027290005,-0.029094681,1.1013937e-05,-0.5564911,-0.14816283,0.06809724,0.45942736,-0.0071990173,0.0033087467,-0.47657573,2.9866695,0.0
2047024000,46.56979,-16.589594,-0.027245961,-0.02950685,-0.0018875038,-0.61645526,-0.13548818,0.050805703,0.1035943,-0.006832991,0.0025622523,-0.49471816,2.9869132,0.0
2047128000,46.56942,-16.58942,-0.032640457,-0.030916164,-0.0023542298,-0.6736334,-0.14609386,0.0656997,-0.26245975,-0.007648455,0.0034395775,-0.5133817,2.9869256,0.0
2047224000,46.569073,-16.58926,-0.027926644,-0.03300707,-0.001614076,-0.71653116,-0.14842425,0.05841994,-0.5677595,-0.008005956,0.0031511527,-0.52894765,2.9871771,0.0
2047328000,46.5687,-16.589087,-0.034068342,-0.03242929,-0.003488795,-0.77441305,-0.15898377,0.049393743,-0.95346093,-0.008894,0.0027632252,-0.54861295,2.9871595,0.0
2047424000,46.56836,-16.588926,-0.028561853,-0.032425888,-0.004768046,-0.81653273,-0.15790157,0.045923233,-1.766067,-0.00949803,0.0027623554,-0.5900444,2.9870894,0.0
2047528000,46.567993,-16.588753,-0.0362855,-0.033740833,-0.004878485,-0.8751543,-0.15911452,0.05782249,-2.1513417,-0.009893416,0.0035952844,-0.6096879,2.9868,0.0
2047624000,46.567657,-16.588596,-0.031155178,-0.035746686,-0.004072496,-0.91642433,-0.16829395,0.048041247,-2.4785419,-0.01075092,0.0030689614,-0.62637043,2.9865613,0.0
2047728000,46.567307,-16.588432,-0.039493132,-0.03557013,-0.006993451,-0.97573227,-0.16550647,0.033230335,-2.9192624,-0.010950222,0.002198582,-0.64884096,2.9866614,0.0
2047824000,46.566986,-16.588284,-0.032931592,-0.035751782,-0.009476026,-1.0161958,-0.16230875,0.03294302,-3.2734141,-0.011037614,0.002240251,-0.66689765,2.986753,0.0
2047928000,46.56665,-16.588125,-0.042141307,-0.036932305,-0.0105867265,-1.0762008,-0.17531116,0.033215787,-3.7304726,-0.01233997,0.0023380248,-0.69020116,2.9869316,0.0
2048024000,46.566353,-16.587986,-0.03520521,-0.038707092,-0.0106446,-1.115815,-0.16364154,0.027794125,-4.062974,-0.01180095,0.002004363,-0.70715404,2.9869115,0.0
2048120000,46.566113,-16.587872,-0.037276078,-0.039165806,-0.012080193,-1.1550981,-0.13321267,0.018185712,-4.312193,-0.009773828,0.0013342877,-0.7198607,2.9869974,0.0
2048224000,46.56577,-16.587711,-0.044420477,-0.038700916,-0.013351731,-1.215312,-0.07480958,0.0042602196,-4.623426,-0.0056083337,0.0003193807,-0.7357291,2.9865859,0.0
2048328000,46.56549,-16.58758,-0.067100175,-0.035718113,-0.014363916,-1.2768149,0.046453767,-0.03914615,-4.8082113,0.0035248739,-0.002970378,-0.74515057,2.9866855,0.0
2048424000,46.565247,-16.587465,-0.07685724,-0.029085966,-0.016080761,-1.3150408,0.17299081,-0.07332771,-4.8518853,0.013182799,-0.0055879527,-0.7473773,2.9861267,0.0
2048528000,46.565002,-16.587353,-0.11595554,-0.017762212,-0.019373724,-1.3776959,0.2782419,-0.120259434,-4.966758,0.021370396,-0.009236538,-0.75323415,2.9864151,0.0
2048624000,46.5648,-16.587257,-0.14082913,-0.0036144666,-0.023264643,-1.4161016,0.34558687,-0.12179484,-4.947986,0.026508972,-0.009342531,-0.7522771,2.9864125,0.0
2048720000,46.564648,-16.587185,-0.17723574,0.012991467,-0.027356224,-1.4488375,0.37806654,-0.14835125,-4.9104247,0.02892712,-0.011350844,-0.750362,2.9865022,0.0
2048824000,46.56446,-16.587093,-0.2434151,0.032237712,-0.031950977,-1.5125982,0.40129054,-0.12825648,-4.772666,0.030416695,-0.009721482,-0.7433382,2.9868586,0.0
2048920000,46.56436,-16.587048,-0.2919435,0.052145623,-0.037325103,-1.5139894,0.41690052,-0.13926195,-4.374233,0.030737378,-0.01026755,-0.7230238,2.9872231,0.0
2049024000,46.564247,-16.58699,-0.36961156,0.07244528,-0.042421024,-1.5239999,0.41020876,-0.12832165,-4.492829,0.030497862,-0.009540351,-0.72907054,2.98688,0.0
2049120000,46.56417,-16.586952,-0.4240827,0.088944964,-0.04592209,-1.5122852,0.41320273,-0.13115628,-4.432773,0.030591056,-0.009710026,-0.72600853,2.986481,0.0
2049224000,46.564056,-16.586895,-0.50947297,0.10397456,-0.048813034,-1.5008872,0.3943765,-0.1272143,-4.3179502,0.028960971,-0.00934196,-0.72015417,2.986475,0.0
2049320000,46.56398,-16.586857,-0.566592,0.12039092,-0.052266847,-1.4712211,0.3933642,-0.13217722,-4.295419,0.02884092,-0.009691052,-0.7190054,2.9871364,0.0
2049424000,46.563866,-16.586807,-0.65398365,0.13578638,-0.055260886,-1.4548917,0.3775708,-0.12445714,-4.33374,0.027757892,-0.009149722,-0.72095925,2.9872715,0.0
2049528000,46.563774,-16.586767,-0.7428837,0.14688134,-0.056959514,-1.4409175,0.35835826,-0.10666316,-4.4280853,0.026520481,-0.00789366,-0.7257695,2.9877913,0.0
2049624000,46.5637,-16.586731,-0.8043037,0.1537981,-0.05731373,-1.4057012,0.3404922,-0.09707584,-4.339365,0.025043292,-0.0071399547,-0.721246,2.987856,0.0
2049728000,46.56362,-16.586693,-0.89305675,0.16238178,-0.05716776,-1.3898425,0.31987804,-0.0920406,-4.417045,0.023655405,-0.0068065245,-0.7252066,2.988102,0.0
2049824000,46.56355,-16.58666,-0.9548905,0.16736698,-0.056098603,-1.3541372,0.28708732,-0.06932943,-4.323766,0.021090712,-0.0050932486,-0.7204507,2.9884915,0.0
2049928000,46.56348,-16.586626,-1.0452883,0.16867833,-0.054003514,-1.3367122,0.25277233,-0.064750776,-4.37593,0.018638924,-0.004774592,-0.7231103,2.9882176,0.0
2050024000,46.563416,-16.586594,-1.1095855,0.16645657,-0.051182427,-1.2998332,0.22238772,-0.053292494,-4.2693043,0.016275266,-0.0039001682,-0.7176739,2.9879801,0.0
2050120000,46.563362,-16.586567,-1.1721867,0.16687077,-0.048116587,-1.2645383,0.21094398,-0.033144504,-4.2222123,0.015384264,-0.002417247,-0.7152729,2.9879723,0.0
2050224000,46.563286,-16.586533,-1.2663649,0.1654127,-0.04426014,-1.242249,0.19582056,-0.027345575,-4.2202773,0.014280809,-0.001994259,-0.71517426,2.9880822,0.0
2050320000,46.56324,-16.586514,-1.3290396,0.1613259,-0.04034028,-1.2058773,0.17972457,-0.029321492,-4.190464,0.013079585,-0.0021338924,-0.7136542,2.9881492,0.0
2050424000,46.563183,-16.586485,-1.4224917,0.15456335,-0.035879266,-1.1820121,0.16045474,-0.0068467776,-4.1979904,0.011684663,-0.0004985973,-0.71403795,2.987892,0.0
2050528000,46.563133,-16.58646,-1.5109192,0.15215729,-0.030601524,-1.1588937,0.15568505,-0.008453671,-4.269992,0.011393922,-0.000618688,-0.717709,2.9882689,0.0
2050624000,46.563087,-16.586437,-1.5740436,0.14898324,-0.025731714,-1.1200608,0.15106784,0.008802004,-4.184071,0.010988449,0.00064024463,-0.71332824,2.9884706,0.0
2050728000,46.563038,-16.586418,-1.6603522,0.14319347,-0.020658175,-1.0958145,0.14256041,0.0018474124,-4.2292233,0.010406835,0.00013486014,-0.71563035,2.9955654,0.0
2050824000,46.562996,-16.5864,-1.7227335,0.13597105,-0.01628198,-1.0565578,0.10539694,0.014502407,-4.136487,0.007639585,0.0010511915,-0.71090215,2.995401,0.0
2050928000,46.562958,-16.586384,-1.8061993,0.12814116,-0.012782428,-1.0307577,0.09386114,0.010213751,-4.185785,0.006821619,0.00074231275,-0.7134156,2.9953868,0.0
2051024000,46.56293,-16.58637,-1.8666943,0.119791,-0.009985225,-0.9912083,0.06404444,0.01095615,-4.0957637,0.004633949,0.0007927347,-0.7088258,2.9957426,0.0
2051128000,46.5629,-16.586355,-1.9469732,0.10938811,-0.0069824043,-0.96409726,0.053536233,0.017884962,-4.1516595,0.0038788891,0.0012958287,-0.7116757,2.9953792,0.0
2051224000,46.562874,-16.586342,-2.004864,0.09925857,-0.00435734,-0.92436415,0.050464477,0.017138043,-4.07986,0.0036452392,0.0012379454,-0.70801497,2.9948487,0.0
2051328000,46.562843,-16.586327,-2.0814893,0.08792568,-0.0012077485,-0.8960731,0.047731765,0.027591549,-4.11637,0.0034543322,0.0019967915,-0.7098765,2.993605,0.0
2051424000,46.562817,-16.586313,-2.1369085,0.077390224,0.0017518175,-0.85617405,0.026424542,0.034515463,-4.050076,0.0018989594,0.0024804012,-0.7064964,2.9927084,0.0
2051520000,46.562794,-16.586306,-2.1873777,0.06664728,0.004531455,-0.8185833,0.0009261356,0.020160928,-4.020289,6.7017565e-05,0.0014588968,-0.7049777,2.99214,0.0
2051624000,46.56277,-16.586294,-2.2676365,0.05510833,0.0069804355,-0.79423183,-0.004316251,0.01593732,-4.0068145,-0.00031783283,0.0011735657,-0.7042907,2.9920537,0.0
2051728000,46.56275,-16.586285,-2.345445,0.044193458,0.01002482,-0.75030565,-0.019851264,0.029264448,-3.5896523,-0.0013821473,0.0020375417,-0.6830213,2.9922252,0.0009615056
2051824000,46.562733,-16.586275,-2.4098246,0.034585405,0.012741775,-0.6685137,-0.03186755,0.04162588,-3.1677175,-0.0021509042,0.0028095436,-0.6615086,2.9922252,0.0
2051928000,46.562714,-16.586266,-2.4673648,0.024714237,0.015486778,-0.5416454,-0.03861233,0.03885125,-3.0590034,-0.0025793063,0.002595266,-0.65596575,2.9922252,0.0
2052024000,46.562695,-16.586256,-2.5082283,0.016081031,0.017602667,-0.44170168,-0.03420912,0.03329091,-3.4820318,-0.002364991,0.002301512,-0.6775342,2.9922252,0.0
2052120000,46.56268,-16.586248,-2.5351422,0.0077420934,0.019155517,-0.3759892,-0.041328494,0.033489574,0.048712134,-0.002936507,0.0023795296,-0.6965229,2.9922252,0.0
2052224000,46.562664,-16.586239,-2.5669608,-0.0005137751,0.02028279,-0.32160282,-0.0352411,0.02151105,-0.2399734,-0.0025710869,0.0015693828,-0.71712935,2.9922252,0.0
2052328000,46.562653,-16.586233,-2.5899286,-0.0077215396,0.020796565,-0.29863256,-0.03649231,0.020240476,-0.3453594,-0.0026975255,0.0014961838,-0.7246518,2.9922252,0.0
2052424000,46.562645,-16.58623,-2.6094508,-0.013443033,0.021040102,-0.28720683,-0.038404584,0.025325948,-0.25112864,-0.0028066477,0.0018508474,-0.7178399,2.9922252,0.0
2052528000,46.562634,-16.586227,-2.6294966,-0.018982783,0.02181852,-0.27307838,-0.031310324,0.017391976,-0.14048302,-0.0022779813,0.0012653525,-0.7099839,2.9922252,0.0
2052624000,46.562626,-16.586227,-2.6470704,-0.023298014,0.022271657,-0.25920498,-0.038668368,0.015929012,-0.096572064,-0.0027822594,0.0011461213,-0.7068933,2.9922252,0.0
2052720000,46.562626,-16.586227,-2.6610692,-0.027155029,0.022358663,-0.2441207,-0.045381654,0.01078926,-0.07644234,-0.0032577699,0.00077451847,-0.70545644,2.9922252,0.0
2052824000,46.562626,-16.586227,-2.6810262,-0.03071803,0.022175673,-0.23122738,-0.031173924,0.020893669,-0.072416365,-0.0022430455,0.0015033542,-0.7051691,2.9922252,0.0
2052920000,46.562626,-16.586227,-2.6936722,-0.033149716,0.02261419,-0.21763285,-0.030292843,0.028024865,-0.07164442,-0.0021740745,0.0020113052,-0.70511395,2.9922252,0.0
2053024000,46.562626,-16.586227,-2.7117095,-0.03497261,0.022878764,-0.20634314,-0.019873172,0.018835533,-0.064938575,-0.0014236228,0.0013492913,-0.7046353,2.9922252,0.0
2053120000,46.562626,-16.586227,-2.7231474,-0.03611419,0.022695767,-0.1944656,-0.005570881,0.012082398,-0.070910186,-0.00039476797,0.00085619197,-0.70506155,2.9922252,0.0
2053224000,46.562626,-16.586227,-2.7394772,-0.03651287,0.022025352,-0.18430923,-0.006928864,0.005939562,-0.06162382,-0.0004522945,0.00038771596,-0.7043987,2.9922252,0.0
2053328000,46.562626,-16.586227,-2.7528665,-0.036918778,0.022909615,-0.1732902,-0.010760129,0.019554326,-0.07074587,-0.0007784641,0.0014146984,-0.7050498,2.9922252,0.0
2053424000,46.562626,-16.586227,-2.7646265,-0.036991287,0.023467723,-0.163897,-0.0077844495,0.00231783,-0.07108809,-0.00057150534,0.00017016647,-0.70507425,2.9922252,0.0
2053520000,46.562626,-16.586227,-2.7740095,-0.036940575,0.023366261,-0.15416828,-0.0080184555,0.007191912,-0.073611826,-0.00057322724,0.0005141389,-0.70525444,2.9922252,0.0
2053624000,46.562626,-16.586227,-2.7874103,-0.036585465,0.02292234,-0.14618269,0.00354038,0.011833831,-0.0751874,0.00026118255,0.00087301095,-0.70536685,2.9922252,0.0
2053720000,46.562626,-16.586227,-2.7959137,-0.037230544,0.023699692,-0.13680905,-0.005309671,0.009533855,-0.06784808,-0.00039271673,0.00070514815,-0.704843,2.9922252,0.0
2053824000,46.562626,-16.586227,-2.808046,-0.037777793,0.024283165,-0.12895279,-0.0005633696,0.016184252,-0.08274651,-4.066346e-05,0.0011681634,-0.70590645,2.9922252,0.0
2053928000,46.562626,-16.586227,-2.817992,-0.037857547,0.024467997,-0.12082582,-0.0024072505,0.018759504,-0.085047096,-0.00017275798,0.0013462886,-0.70607066,2.9922252,0.0
2054024000,46.562626,-16.586227,-2.8267322,-0.037574895,0.024399156,-0.1138676,0.00016247109,0.016688837,-0.06820528,1.1845764e-05,0.0012167827,-0.7048685,2.9922252,0.0
2054128000,46.562626,-16.586227,-2.835742,-0.037756115,0.025375823,-0.105977654,0.016291466,0.011154871,-0.07649431,0.0011718795,0.0008023933,-0.7054602,2.9922252,0.0
2054224000,46.562626,-16.586227,-2.843658,-0.03741186,0.025919426,-0.0995253,0.010485103,0.019263122,-0.07564825,0.00075459457,0.0013863331,-0.70539975,2.9922252,0.0
2054328000,46.562626,-16.586227,-2.8518193,-0.03670159,0.026024535,-0.09298536,-0.0021482012,0.034550674,-0.08364823,-0.00015425566,0.0024809765,-0.7059708,2.9922252,0.0
2054424000,46.562626,-16.586227,-2.8589938,-0.035791986,0.02574006,-0.087753296,0.010337264,0.013905011,-0.070792176,0.0007405567,0.0009961483,-0.70505315,2.9922252,0.0
2054528000,46.562626,-16.586227,-2.8663938,-0.034922257,0.026290912,-0.080927305,0.011723315,0.014716821,-0.086031966,0.0008457925,0.0010617626,-0.70614094,2.9922252,0.0
2054624000,46.562626,-16.586227,-2.8728964,-0.033958297,0.026477557,-0.07524224,0.005705408,0.015141071,-0.060194217,0.00041121966,0.0010912991,-0.70429665,2.9922252,0.0
2054728000,46.562626,-16.586227,-2.879603,-0.032599326,0.026307235,-0.069811314,0.00973016,0.02395936,-0.08878861,0.00070483953,0.0017355833,-0.70633775,2.9922252,0.0
2054824000,46.562626,-16.586227,-2.8855007,-0.031091776,0.025778146,-0.06560155,0.015663695,0.02488605,-0.06858984,0.0011227473,0.0017837902,-0.7048959,2.9922252,0.0
2054928000,46.562626,-16.586227,-2.891583,-0.028420927,0.026531937,-0.06007433,0.0134217255,0.007747437,-0.09587753,0.0009685935,0.0005591023,-0.70684373,2.9922252,0.0
2055024000,46.562626,-16.586227,-2.8969326,-0.025953023,0.026642472,-0.05547904,0.032900825,0.019507153,-0.064824186,0.0023675954,0.0014037655,-0.70462716,2.9922252,0.0
2055128000,46.562626,-16.586227,-2.9024496,-0.023278551,0.026287332,-0.05103397,0.034975905,0.021867245,-0.071941,0.0025113965,0.0015701472,-0.70513517,2.9922252,0.0
2055224000,46.562626,-16.586227,-2.9073012,-0.020977348,0.02542121,-0.047849927,0.029146757,0.005496578,-0.068998426,0.002085057,0.00039320596,-0.7049251,2.9922252,0.0
2055328000,46.562626,-16.586227,-2.9123054,-0.017878873,0.026008299,-0.04457426,0.033786718,0.015435529,-0.09665124,0.0024318756,0.0011110072,-0.70689523,2.9922252,0.0
2055424000,46.562626,-16.586227,-2.916704,-0.015313118,0.026385196,-0.041790187,0.028458424,0.00687371,-0.07165107,0.0020494356,0.00049501087,-0.7051144,2.9922252,0.0
2055520000,46.562626,-16.586227,-2.9202132,-0.013435913,0.026020993,-0.039151326,0.021443827,0.011594827,-0.07155614,0.001544261,0.0008349928,-0.7051077,2.9922252,0.0
2055624000,46.562626,-16.586227,-2.925224,-0.011888495,0.025022596,-0.0371893,0.020476868,-0.001015902,-0.07924389,0.0014600457,-7.243605e-05,-0.7056564,2.9922252,0.0
2055720000,46.562626,-16.586227,-2.9284036,-0.010743329,0.02472,-0.034052413,0.016304327,0.0026716734,-0.07259756,0.0012013597,0.00019685822,-0.705182,2.9922252,0.0
2055824000,46.562626,-16.586227,-2.9329426,-0.009913454,0.024094872,-0.03161442,0.018561805,-0.0069107576,-0.08955172,0.001332762,-0.00049620145,-0.7063922,2.9922252,0.0
2055928000,46.562626,-16.586227,-2.9366634,-0.009156054,0.022755822,-0.029718157,0.02928034,-0.004388133,-0.089380436,0.0021027059,-0.00031512455,-0.70637995,2.9922252,0.0
2056024000,46.562626,-16.586227,-2.939933,-0.008405903,0.021241011,-0.027972352,0.029428422,0.0005502985,-0.07920851,0.002109614,3.944885e-05,-0.7056539,2.9922252,0.0
2056120000,46.562626,-16.586227,-2.9425423,-0.0038433406,0.02180454,-0.02562381,0.05340293,0.0045366436,-0.069133356,0.0038345756,0.00032575187,-0.7049347,2.9922252,0.0
2056224000,46.562626,-16.586227,-2.9462652,0.0012990528,0.022319147,-0.023822784,0.051554073,0.004948709,-0.082506225,0.0037191052,0.0003569993,-0.7058893,2.9922252,0.0
2056320000,46.562626,-16.586227,-2.9486246,0.0049375063,0.02228472,-0.022205353,0.046749696,0.020227937,-0.07567039,0.0033677707,0.0014571869,-0.7053996,2.9922252,0.0
2056424000,46.562626,-16.586227,-2.951989,0.007952633,0.021706704,-0.0208385,0.057817,-0.0015378788,-0.069337,0.004157731,-0.0001105918,-0.70494926,2.9922252,0.0
2056528000,46.562626,-16.586227,-2.9547658,0.013076908,0.021842606,-0.017816067,0.07409292,0.011405235,-0.06712957,0.005334856,0.0008212025,-0.7047917,2.9922252,0.0
2056624000,46.562626,-16.586227,-2.957214,0.017385796,0.021906028,-0.01517272,0.07532169,0.024589239,-0.049781077,0.0054058214,0.0017647643,-0.7035515,2.9922252,0.0
2056728000,46.562626,-16.586227,-2.9597342,0.020698091,0.021431293,-0.012932062,0.06527586,0.012449607,-0.06016708,0.0046869335,0.00089390605,-0.70429474,2.9922252,0.0
2056824000,46.562626,-16.586227,-2.9619455,0.022535436,0.020545235,-0.011698723,0.065399066,0.011128941,-0.07780267,0.00470608,0.00080083235,-0.70555353,2.9922252,0.0
2056920000,46.562626,-16.586227,-2.9637067,0.025561439,0.021840803,-0.009603262,0.06578819,0.012106173,-0.078106865,0.004731588,0.0008706947,-0.7055753,2.9922252,0.0
2057024000,46.562626,-16.586227,-2.9662182,0.028177934,0.02305846,-0.0080292225,0.07002207,0.009086515,-0.06804463,0.0050278604,0.0006524476,-0.70485705,2.9922252,0.0
2057128000,46.56262,-16.586218,-2.9682755,0.028319683,0.024578294,-0.0067008063,-0.024253562,0.118927926,-0.056651317,-0.0017419815,0.008541848,-0.70404375,2.991946,-0.013962634
2057224000,46.561466,-16.585073,-2.970091,7.372722e-05,0.05323013,-0.006008411,-0.45311943,0.5409085,-0.05792573,-0.032535113,0.03883859,-0.70413476,2.9889972,-0.047472954
2057328000,46.555122,-16.57873,-2.9719667,-0.07505513,0.12949692,-0.0054096077,-0.98306876,1.0446306,-0.059123583,-0.070594385,0.07501516,-0.70422024,2.9821723,-0.0837758
2057424000,46.54116,-16.564777,-2.9735796,-0.1868851,0.24029934,-0.0042832624,-1.4652958,1.436651,-0.013737857,-0.10473968,0.10269216,-0.7009806,2.9725215,-0.11728612
2057528000,46.51334,-16.538149,-2.9752312,-0.3560408,0.37762496,-0.0019798167,-2.00037,1.5101445,0.07278475,-0.14172442,0.10699239,-0.6947921,2.9584363,-0.15358898
2057624000,46.472794,-16.502974,-2.9766588,-0.5546531,0.50587004,0.0014007995,-2.4961853,1.5067902,0.12784019,-0.17585528,0.106152765,-0.69087476,2.9420834,-0.18709932
2057728000,46.409878,-16.45404,-2.9780927,-0.81578696,0.6501395,0.0053095045,-3.0313191,1.5385525,0.1990704,-0.21197373,0.10758772,-0.6857585,2.9207373,-0.22340219
2057824000,46.332428,-16.399736,-2.9793065,-1.0905952,0.7786857,0.010277727,-3.5191941,1.538519,0.28369358,-0.24388233,0.10662033,-0.67960733,2.8976824,-0.2569125
2057928000,46.225586,-16.331617,-2.9805086,-1.4154565,0.9093409,0.017158777,-3.8214931,1.5207226,0.37240565,-0.26229674,0.1043782,-0.6731012,2.8690758,-0.29321533
2058024000,46.105736,-16.260757,-2.981517,-1.7124867,1.0217435,0.02403548,-3.893054,1.5110745,0.40157333,-0.2663318,0.1033757,-0.67089266,2.839319,-0.32672563
2058120000,45.991264,-16.196268,-2.9822853,-1.9483583,1.1066333,0.030761082,-3.8481104,1.468217,0.38849872,-0.2635887,0.100570254,-0.67173797,2.8128169,-0.32223234
2058224000,45.79732,-16.091415,-2.9833164,-2.3235724,1.2504095,0.03674908,-4.006976,1.4849782,0.36831728,-0.2750017,0.101915136,-0.67303765,2.7766626,-0.28034446
2058328000,45.607315,-15.992259,-2.9841068,-2.6160579,1.3536729,0.04130982,-4.0154505,1.4436654,0.35166857,-0.27598333,0.099223636,-0.6740142,2.749395,-0.24404162
2058424000,45.413605,-15.893649,-2.984758,-2.8726077,1.4406573,0.044479135,-4.0175176,1.4120896,0.33480564,-0.27653164,0.09719619,-0.6750058,2.7275755,-0.21053128
2058520000,45.23843,-15.806091,-2.9852452,-3.0639653,1.493574,0.04718753,-3.9812076,1.3121318,0.31288707,-0.27459523,0.090501465,-0.6763927,2.7118502,-0.182606
2058624000,44.954117,-15.666463,-2.9858797,-3.4146626,1.6114815,0.04950702,-4.1470737,1.349803,0.3096372,-0.2860393,0.093100995,-0.6764015,2.6924508,-0.14071807
2058728000,44.684303,-15.536143,-2.9863415,-3.6787155,1.6908644,0.05113893,-4.1670437,1.3306985,0.30219,-0.28754747,0.091825046,-0.6767095,2.679704,-0.104415216
2058824000,44.415432,-15.4078245,-2.9866955,-3.903421,1.7619594,0.05193043,-3.874451,1.3336217,0.28727162,-0.26768535,0.092139766,-0.67754036,2.6712885,-0.070904896
2058928000,44.102478,-15.259167,-2.9870007,-4.125858,1.8433237,0.05215216,-3.5485716,1.3432821,0.22367883,-0.2467383,0.09340072,-0.6818731,2.6658022,-0.034602046
2059024000,43.797558,-15.11392,-2.9872077,-4.29654,1.918074,0.05050528,-3.20777,1.3776941,0.14188513,-0.2249081,0.096595,-0.6875791,2.664089,-0.0010917243
2059128000,43.448044,-14.945829,-2.9873512,-4.446548,2.0022707,0.046446912,-2.8320456,1.4156556,0.044478007,-0.2005488,0.100248404,-0.6944493,2.6658633,0.035211124
2059224000,43.110462,-14.780936,-2.9874067,-4.551909,2.0838883,0.041432235,-2.4686012,1.4858292,-0.008139208,-0.17572361,0.1057665,-0.6980711,2.6696208,0.027250318
2059328000,42.727757,-14.589995,-2.9873803,-4.6385655,2.1850383,0.035618406,-2.1152298,1.4607778,-0.050358124,-0.15119523,0.104415424,-0.70097303,2.6705673,-0.00905253
2059424000,42.363045,-14.404137,-2.9872715,-4.6877193,2.2606564,0.030367846,-1.7690732,1.1607121,-0.08366749,-0.1268642,0.08323725,-0.70325726,2.6695378,-0.0051939217
2059528000,41.955124,-14.193285,-2.9870589,-4.710505,2.3136027,0.024343716,-1.4066805,0.81335735,-0.13969207,-0.10144658,0.058657475,-0.7072348,2.6688783,-0.0038320841
2059624000,41.571907,-13.99373,-2.9867723,-4.7008204,2.331503,0.018231472,-1.0616143,0.4662761,-0.18507802,-0.076914296,0.033781853,-0.7104988,2.6683502,-0.0037597234
2059728000,41.14851,-13.773251,-2.9863594,-4.6641436,2.3347116,0.010780564,-1.0024185,0.49539647,-0.22175755,-0.07289566,0.036025126,-0.71314067,2.6672218,-0.013441221
2059824000,40.752598,-13.567534,-2.9859505,-4.639868,2.3505752,0.0041342387,-1.1241295,0.6463254,-0.189865,-0.081486374,0.04685111,-0.71086717,2.6657946,-0.012762672
2059928000,40.31747,-13.341435,-2.9855015,-4.624244,2.3704417,-0.0010930514,-1.2212504,0.75290275,-0.14843813,-0.08816001,0.054350782,-0.70792377,2.664326,-0.011692912
2060024000,39.915714,-13.132668,-2.985087,-4.6150613,2.3886485,-0.0045845993,-1.3074324,0.83670163,-0.11408574,-0.09405832,0.060193356,-0.70550334,2.6630678,-0.011042986
2060120000,39.579758,-12.958097,-2.9847405,-4.5335364,2.3756602,-0.008449523,-1.2117769,0.8392013,-0.11564839,-0.087202765,0.06039121,-0.70571315,2.6618793,-0.01595089
2060224000,39.075443,-12.696037,-2.9842203,-4.5821304,2.4303381,-0.011896342,-1.3588991,0.94942355,-0.107281305,-0.0977186,0.06827316,-0.7051972,2.659765,-0.0151149295
2060328000,38.64004,-12.469794,-2.9837708,-4.573132,2.4493911,-0.014162902,-1.4013243,0.9711938,-0.097998776,-0.10068603,0.069780886,-0.70461243,2.6581216,-0.012684245
2060424000,38.24197,-12.262948,-2.9833596,-4.5667415,2.4633117,-0.01561326,-1.4225376,0.98711944,-0.08409047,-0.10207364,0.07083037,-0.7036726,2.656834,-0.010735769
2060520000,37.911083,-12.091012,-2.983018,-4.4882674,2.4410133,-0.016797569,-1.3042505,0.92391205,-0.0786475,-0.09354104,0.06626312,-0.7033353,2.6557634,-0.013093538
2060624000,37.416046,-11.833778,-2.9825068,-4.535915,2.4818943,-0.01744596,-1.4182215,0.9731027,-0.08492036,-0.101792626,0.0698443,-0.70387083,2.654109,-0.010645652
2060720000,37.086967,-11.66278,-2.9821665,-4.4639173,2.4545152,-0.01783836,-1.319763,0.9037634,-0.08161742,-0.09470234,0.06485142,-0.7036981,2.6532125,-0.008408692
2060824000,36.594326,-11.40679,-2.9816585,-4.520023,2.4898372,-0.017696518,-1.4529958,0.95082843,-0.07765057,-0.104232095,0.06820863,-0.7034887,2.6522045,-0.005225065
2060928000,36.167816,-11.185163,-2.9812183,-4.504715,2.493152,-0.018537888,-1.4272978,0.95511293,-0.083104596,-0.10245585,0.06856095,-0.7039522,2.6510942,-0.011213525
2061024000,35.77558,-10.981347,-2.9808135,-4.491295,2.4944239,-0.019017974,-1.4265312,0.95966566,-0.07439856,-0.10231619,0.06883084,-0.70337087,2.649953,-0.008992409
2061128000,35.350708,-10.760578,-2.9803746,-4.4790616,2.4914892,-0.018706743,-1.2998216,0.8174931,-0.06598297,-0.09315444,0.058587354,-0.70281285,2.6489985,-0.0055123973
2061224000,34.960068,-10.557832,-2.979972,-4.444256,2.470032,-0.018153869,-0.908034,0.625249,-0.072712496,-0.06512335,0.04484228,-0.7033205,2.6484256,-0.0032244641
2061328000,34.5326,-10.335997,-2.979531,-4.3683305,2.4361026,-0.018380366,-0.43684518,0.4770663,-0.12163492,-0.0314905,0.03438989,-0.7069257,2.6476295,-0.0068538915
2061424000,34.145138,-10.13423,-2.979129,-4.261505,2.3925195,-0.019084059,-0.0032435656,0.33712313,-0.1349672,-0.00023415733,0.024337372,-0.7079412,2.6469564,-0.003878643
2061520000,33.82065,-9.964145,-2.978789,-4.0942087,2.3182132,-0.019851021,0.22933197,0.18352067,-0.15006502,0.016581792,0.013269417,-0.70912564,2.6466413,-0.0013204268
2061624000,33.34916,-9.715084,-2.97829,-3.9901295,2.2755034,-0.020723432,0.15954661,0.13125378,-0.15564613,0.0115458295,0.009498376,-0.709656,2.646597,0.0
2061728000,32.95264,-9.504408,-2.9778664,-3.8364942,2.2000935,-0.021973537,0.16752017,0.05041802,-0.13257574,0.012095603,0.0036403758,-0.70806867,2.6464798,0.0
2061824000,32.604034,-9.318637,-2.9774916,-3.6934574,2.1239495,-0.022293027,0.1697532,-0.018251657,-0.11486816,0.012233337,-0.0013153136,-0.70686126,2.6466467,0.0030283413
2061920000,32.312122,-9.162851,-2.9771764,-3.5302224,2.0312781,-0.02217288,0.19637907,-0.083079815,-0.11433877,0.014153361,-0.005987699,-0.7069171,2.6470973,0.0055984454
2062024000,31.890587,-8.937774,-2.9767196,-3.4262054,1.9657955,-0.021541394,0.12561738,-0.0716266,-0.09848504,0.00904251,-0.0051560076,-0.7058531,2.6482055,0.009495028
2062120000,31.62035,-8.793496,-2.9764256,-3.2585049,1.8698559,-0.021296538,0.22966373,-0.13229883,-0.10459821,0.016542794,-0.009529552,-0.7063877,2.6488228,0.0033230756
2062224000,31.230915,-8.585754,-2.9760015,-3.1397805,1.7972966,-0.02094875,0.18552196,-0.1301238,-0.100659,0.013359207,-0.009370052,-0.7061916,2.6496336,0.0071287365
2062320000,30.981739,-8.453044,-2.97573,-2.9838684,1.7033391,-0.020454416,0.26202202,-0.19935739,-0.10649054,0.018883122,-0.014367074,-0.7067079,2.6504397,0.009612098
2062424000,30.623356,-8.262652,-2.9753397,-2.8745415,1.6288619,-0.019715063,0.1996733,-0.20693749,-0.10261622,0.014385261,-0.014908603,-0.7065267,2.652011,0.013229851
2062528000,30.327387,-8.106066,-2.9750175,-2.7295735,1.5393031,-0.018655065,0.25720066,-0.23569852,-0.102953106,0.018533483,-0.016984073,-0.7066496,2.6530497,0.004176191
2062624000,30.065958,-7.9684653,-2.9747343,-2.5991516,1.4567086,-0.01817193,0.2849766,-0.2747996,-0.11628148,0.020565387,-0.019830963,-0.7077251,2.6537726,0.007217764
2062728000,29.79521,-7.826917,-2.9744418,-2.4645336,1.3677083,-0.017477192,0.3106376,-0.29424,-0.106913306,0.02239948,-0.02121708,-0.70713973,2.6548092,0.008713484
2062824000,29.556513,-7.7031975,-2.9741855,-2.3460822,1.2862312,-0.017112551,0.3076769,-0.31678656,-0.118548244,0.022215823,-0.022873586,-0.7080893,2.6558657,0.009763061
2062928000,29.309765,-7.5766854,-2.9739223,-2.2106667,1.1962366,-0.017118523,0.35045195,-0.36014122,-0.12739193,0.025330856,-0.026031204,-0.7088463,2.6563177,0.0
2063024000,29.092625,-7.466845,-2.9736934,-2.0900645,1.1132121,-0.017147511,0.36316586,-0.40153313,-0.13380508,0.0262721,-0.02904766,-0.70942295,2.6564927,0.0017812146
2063128000,28.868576,-7.355169,-2.9734597,-1.9668684,1.0305324,-0.017152531,0.3691457,-0.29512346,-0.12744197,0.026691264,-0.02133905,-0.7090674,2.6567876,6.178534e-05
2063224000,28.671774,-7.257905,-2.9732578,-1.8594842,0.96479815,-0.01672018,0.36898428,-0.22945184,-0.108792245,0.026631193,-0.01656053,-0.7077656,2.6570177,0.0009934239
2063328000,28.469069,-7.1579704,-2.9730535,-1.7386098,0.9019591,-0.015808478,0.406694,-0.1749366,-0.10603741,0.029343292,-0.0126218125,-0.70756894,2.656254,-0.010857816
2063424000,28.291327,-7.0702357,-2.9728787,-1.6317827,0.84764075,-0.015067613,0.4094373,-0.19104081,-0.10532459,0.029539797,-0.0137830805,-0.7075181,2.6550634,-0.010561038
2063528000,28.108568,-6.979879,-2.972704,-1.5234241,0.7949033,-0.014490653,0.40417308,-0.14308071,-0.10954918,0.029172458,-0.010327298,-0.70781964,2.6538734,-0.008433072
2063624000,27.948591,-6.9003716,-2.9725564,-1.4295249,0.74910724,-0.01374645,0.4030835,-0.17119518,-0.08984706,0.029035168,-0.01233164,-0.70641327,2.6529999,-0.006093201
2063728000,27.784365,-6.8184285,-2.9724064,-1.3264676,0.7015072,-0.011284969,0.40632242,-0.1815064,-0.0853428,0.029255815,-0.01306873,-0.70609176,2.6513608,-0.024353713
2063824000,27.640827,-6.7466564,-2.9722695,-1.2364976,0.6582687,-0.009526504,0.40942043,-0.18326485,-0.105246246,0.029539434,-0.013222447,-0.7075125,2.6489131,-0.022904841
2063920000,27.526896,-6.6896806,-2.972158,-1.143711,0.6114977,-0.008686884,0.4330915,-0.16756088,-0.1063871,0.03124835,-0.012089826,-0.7075939,2.6470432,-0.020023433
2064024000,27.365288,-6.608534,-2.9719973,-1.0671213,0.57636476,-0.008043386,0.37577382,-0.16314174,-0.107070595,0.027115336,-0.011772089,-0.7076427,2.644816,-0.013211392
2064120000,27.263487,-6.5571475,-2.9718945,-0.9830361,0.53831947,-0.0071057584,0.3757608,-0.15996838,-0.09004734,0.027068818,-0.011523701,-0.7064276,2.643371,-0.019850709
2064224000,27.119276,-6.4841347,-2.971748,-0.91261256,0.5063249,-0.006123241,0.36433655,-0.15495038,-0.09674968,0.026262838,-0.011169445,-0.706906,2.6428156,0.0
2064328000,27.002144,-6.424804,-2.9716291,-0.8403757,0.46962637,-0.005402892,0.33037144,-0.17937934,-0.08322642,0.023782596,-0.012913059,-0.7059407,2.6428156,0.0
2064424000,26.900175,-6.3730426,-2.9715257,-0.7784968,0.44086778,-0.0048147533,0.32623297,-0.1092141,-0.08640578,0.023491463,-0.007864316,-0.70616764,2.6428156,0.0
2064520000,26.819504,-6.3318453,-2.9714444,-0.7124747,0.4142282,-0.004329566,0.3344431,-0.08908814,-0.08756143,0.024084572,-0.0064155897,-0.70625013,2.6428156,0.0
2064624000,26.70558,-6.2733483,-2.9713304,-0.65074563,0.39250553,-0.0041438285,0.5600314,-0.08847374,-0.09917719,0.04037941,-0.006379137,-0.7070793,2.6416986,-0.027925268
2064720000,26.635517,-6.23655,-2.9712598,-0.5606274,0.36564216,-0.0038829928,0.9489857,-0.1256184,-0.086595245,0.06833658,-0.009045797,-0.70618117,2.6383476,-0.055850536
2064824000,26.544151,-6.184651,-2.971162,-0.40582296,0.3396758,-0.0034082925,1.5597908,-0.12712194,-0.07178358,0.1121529,-0.009140388,-0.7051239,2.6291325,-0.09773844
2064928000,26.483002,-6.1428647,-2.9710853,-0.20534047,0.31948635,-0.0026081044,2.1206102,-0.0045212507,-0.024165053,0.1517425,-0.00032352287,-0.7017249,2.61708,-0.1340413
2065024000,26.445522,-6.1058836,-2.9710207,0.025536478,0.32286352,-0.00050243206,2.6288972,0.21258757,0.04118097,0.18686298,0.015110802,-0.69706047,2.602604,-0.16755164
2065128000,26.429682,-6.065862,-2.9709578,0.32478276,0.3302496,0.0031525802,3.1879914,0.22136188,0.13034678,0.22453333,0.015590733,-0.69069195,2.583291,-0.2038545
2065224000,26.438105,-6.0331025,-2.970912,0.57971734,0.33184358,0.008359524,2.8851175,0.2307984,0.22004944,0.20129876,0.016103134,-0.6842233,2.562113,-0.23736484
2065328000,26.463165,-6.0013947,-2.970871,0.8048505,0.33763355,0.013911893,2.5246766,0.24702421,0.20802684,0.17636104,0.017255854,-0.68504256,2.5355394,-0.2736677
2065424000,26.498352,-5.9726853,-2.9708338,0.97578156,0.34231552,0.016635422,2.1466994,0.2776786,0.11273088,0.15145487,0.019590905,-0.69188315,2.5076585,-0.307178
2065520000,26.535131,-5.948996,-2.9708028,1.0841951,0.34065408,0.017015856,1.8581564,0.32509494,0.032540374,0.13218647,0.023126766,-0.6976296,2.481967,-0.33510324
2065624000,26.602621,-5.912799,-2.9707508,1.262564,0.36830717,0.015978051,2.245366,0.7468692,-0.009430978,0.16042519,0.05336174,-0.7006584,2.439241,-0.37699112
2065728000,26.675291,-5.878592,-2.9706979,1.441479,0.42595115,0.014836498,2.6391773,1.1540358,0.03003186,0.18780139,0.08212011,-0.697832,2.398146,-0.41329396
2065824000,26.755917,-5.842829,-2.970643,1.6259876,0.5031276,0.015490754,2.9737957,1.4133754,0.12978408,0.20943357,0.09953888,-0.6906466,2.356861,-0.44680426
2065920000,26.834642,-5.808955,-2.9705923,1.7765607,0.56658506,0.018447205,3.1694767,1.4034051,0.23287956,0.22080994,0.09777191,-0.68320566,2.3199997,-0.4747295
2066024000,26.975096,-5.7508116,-2.9705079,2.063892,0.6725226,0.023241885,3.3972898,1.4365821,0.2990539,0.23502266,0.09938197,-0.6784189,2.2605188,-0.5166174
2066128000,27.119831,-5.69307,-2.9704258,2.3033214,0.76673293,0.029211648,3.4056637,1.4762268,0.31756288,0.23512317,0.10191703,-0.67704034,2.204903,-0.5529202
2066224000,27.272541,-5.6336923,-2.9703434,2.5219872,0.8523402,0.033741232,3.3808866,1.5030686,0.29522753,0.23395084,0.10400944,-0.6786012,2.150214,-0.58643055
2066328000,27.46039,-5.562164,-2.9702454,2.7576559,0.94228125,0.037043214,3.3871446,1.5368185,0.25592393,0.23534107,0.10677917,-0.68137294,2.0873373,-0.62273335
2066424000,27.654926,-5.489362,-2.970147,2.9750044,1.0237032,0.038935836,3.4013894,1.5685269,0.22838637,0.2369985,0.10929019,-0.6832973,2.0259464,-0.6562437
2066528000,27.889662,-5.4027905,-2.9700308,3.2231283,1.123702,0.040732335,3.4482098,1.6663404,0.23463748,0.24007438,0.11601546,-0.68276733,1.9558092,-0.6925465
2066624000,28.127087,-5.316301,-2.9699166,3.4514,1.2159678,0.042123366,3.5030365,1.7355022,0.2498934,0.24347112,0.120622404,-0.6815903,1.8877163,-0.7260568
2066728000,28.409039,-5.214657,-2.9697833,3.6997287,1.3145783,0.042870335,3.5551786,1.8127,0.24163164,0.24728717,0.12608576,-0.6821202,1.8103186,-0.7623596
2066824000,28.691395,-5.113756,-2.9696522,3.9273582,1.4041395,0.04351685,3.5119243,1.8600339,0.25804967,0.24382739,0.12913924,-0.6808606,1.7355236,-0.79586995
2066920000,28.94319,-5.024177,-2.9695365,4.0538163,1.4727937,0.043889593,3.1294553,1.8921913,0.25210458,0.21737854,0.13143559,-0.68119043,1.670737,-0.8237952
2067024000,29.344648,-4.881006,-2.969353,4.33544,1.6108174,0.043238517,2.9066796,2.0598745,0.19822568,0.20302333,0.1438764,-0.68496644,1.5693685,-0.8656831
2067120000,29.62666,-4.7795424,-2.9692235,4.4058204,1.674674,0.041275803,2.4960344,2.0553017,0.13803937,0.17542222,0.14444736,-0.6892149,1.4990982,-0.8817229
2067224000,30.068546,-4.618097,-2.969019,4.6178265,1.8104432,0.03783912,2.2296875,2.1793387,0.08633258,0.15752943,0.15397224,-0.6928484,1.3958049,-0.83983505
2067320000,30.373747,-4.5042973,-2.9688754,4.6320987,1.8738152,0.034670457,1.8280889,2.1675835,0.0539527,0.12957725,0.15364107,-0.6951073,1.3297352,-0.8119098
2067424000,30.843212,-4.32465,-2.9686499,4.77103,2.0135744,0.030706134,1.556133,2.2057323,0.010201901,0.110792674,0.15704247,-0.6982083,1.2348193,-0.7700219
2067528000,31.259113,-4.1605873,-2.968444,4.8005595,2.0959158,0.026249565,1.2199401,1.8942862,-0.013274245,0.08705896,0.13518253,-0.6998349,1.1566247,-0.7337191
2067624000,31.64654,-4.0045958,-2.9682462,4.79746,2.1394024,0.021716546,0.90285456,1.4748182,-0.05897922,0.064729296,0.10573569,-0.70307815,1.0877961,-0.7002088
2067720000,31.971603,-3.8723936,-2.9680748,4.698611,2.1311395,0.015372232,0.5971917,1.091771,-0.10368813,0.043007784,0.07862577,-0.70624375,1.0328963,-0.67228353
2067824000,32.459583,-3.6740603,-2.9678135,4.715154,2.140775,0.007874704,0.76648605,0.96507853,-0.16059105,0.055519447,0.069904245,-0.71033347,0.9547355,-0.63039565
2067928000,32.88406,-3.5022519,-2.9675863,4.6831264,2.1300938,0.0010205922,0.9025485,1.0074475,-0.15343317,0.0653291,0.07292199,-0.7098347,0.89106214,-0.59409285
2068024000,33.27757,-3.3429785,-2.967376,4.6628466,2.1162813,-0.003987589,1.0107373,0.989864,-0.12948467,0.07298496,0.07147772,-0.7081356,0.8356378,-0.5605825
2068128000,33.730568,-3.1596334,-2.9671338,4.655893,2.1115463,-0.010581167,1.0910878,0.9994283,-0.114109874,0.07866561,0.072057106,-0.7070444,0.7792252,-0.5242797
2068224000,34.15078,-2.9895594,-2.9669085,4.657205,2.1064055,-0.015604942,1.1839895,0.9979382,-0.11118741,0.08534243,0.07193177,-0.70686686,0.73050296,-0.4907694
2068320000,34.49389,-2.850689,-2.9667249,4.5943727,2.0694587,-0.019236,1.1708335,0.932392,-0.08790177,0.08419669,0.067049935,-0.70521414,0.6923585,-0.46284413
2068424000,35.006016,-2.6434095,-2.966451,4.6679177,2.0816178,-0.021403432,1.3754683,0.9430883,-0.06918807,0.098727696,0.06769253,-0.70389694,0.63933057,-0.42095625
2068520000,35.352985,-2.5029786,-2.9662654,4.6082463,2.0443478,-0.022743778,1.2945769,0.87459993,-0.06005564,0.09283821,0.06272033,-0.70326483,0.6067712,-0.393031
2068624000,35.87126,-2.2932107,-2.9659877,4.6826715,2.0574372,-0.02329004,1.4566002,0.89878803,-0.053202346,0.10438861,0.06441248,-0.7028025,0.56212085,-0.35114312
2068728000,36.317436,-2.1126304,-2.9657493,4.695185,2.0415266,-0.023020912,1.4965353,0.8659037,-0.052439906,0.10724765,0.062054086,-0.70278317,0.52748984,-0.3148403
2068824000,36.733017,-1.9444329,-2.965527,4.715102,2.0272124,-0.022493366,1.578195,0.8461223,-0.056164455,0.1131492,0.06066302,-0.7030919,0.49887374,-0.28133
2068920000,37.082195,-1.8031077,-2.965341,4.6647253,1.986553,-0.021483263,1.481694,0.7868944,-0.031741265,0.10596813,0.056277297,-0.7013552,0.47748432,-0.25340474
2069024000,37.609344,-1.5897487,-2.9650586,4.7531652,1.9994407,-0.019766267,1.6436601,0.8012169,-0.026319273,0.11749168,0.05727238,-0.7009961,0.44958898,-0.21151681
2069120000,37.961643,-1.4472029,-2.96487,4.705172,1.9553256,-0.018240798,1.3582158,0.60449255,-0.021271907,0.09703938,0.04318871,-0.7006503,0.4337846,-0.18359153
2069224000,38.48592,-1.2354101,-2.9645896,4.747504,1.9446601,-0.017011063,0.9991342,0.47249904,-0.059769493,0.0716689,0.033892833,-0.7034406,0.41426688,-0.1417036
2069328000,38.93261,-1.05475,-2.96435,4.674713,1.9006189,-0.016439956,0.52171135,0.368098,-0.09849871,0.03757183,0.02650913,-0.70624816,0.40139687,-0.106279604
2069424000,39.334156,-0.89149195,-2.964133,4.5661445,1.8519465,-0.016628845,0.06754506,0.26846382,-0.123903796,0.004876981,0.019383993,-0.7081064,0.3924537,-0.07924282
2069520000,39.66082,-0.75761604,-2.9639554,4.3936644,1.777989,-0.017130516,-0.0997349,0.14233527,-0.13199429,-0.0072076507,0.010286297,-0.70873153,0.38685903,-0.059350297
2069624000,40.135197,-0.5615566,-2.9636943,4.284427,1.7293397,-0.017361926,-0.036200166,0.05136466,-0.11344966,-0.0026136003,0.0037084552,-0.7074387,0.3809957,-0.037856612
2069728000,40.53252,-0.39622033,-2.9634733,4.124632,1.6551887,-0.016837368,-0.06769431,-0.021407306,-0.09471013,-0.0048761712,-0.0015420158,-0.7061326,0.377447,-0.028166037
2069824000,40.88691,-0.24815473,-2.9632747,3.9783986,1.5837709,-0.015906995,-0.07056987,-0.07700625,-0.07820789,-0.005071611,-0.0055341716,-0.7049798,0.37464514,-0.027637469
2069920000,41.17311,-0.12830928,-2.9631138,3.8048303,1.4977841,-0.01500625,-0.14079034,-0.12762836,-0.07971774,-0.010121806,-0.009175554,-0.7051327,0.37222537,-0.029409971
2070024000,41.585194,0.04447789,-2.9628813,3.6862054,1.4325712,-0.01403277,-0.09340441,-0.14835319,-0.079266086,-0.0067161317,-0.010667157,-0.70514786,0.36829636,-0.032581568
2070128000,41.930714,0.18942483,-2.962685,3.5270813,1.3500637,-0.013453365,-0.14537239,-0.19074756,-0.093454316,-0.010469227,-0.013736991,-0.7062293,0.36459723,-0.034746528
2070224000,42.24151,0.3197347,-2.9625084,3.3851597,1.2755573,-0.013133937,-0.1859318,-0.23170516,-0.10113323,-0.013400465,-0.01669944,-0.7068366,0.3609898,-0.036919665
2070320000,42.50002,0.4279972,-2.9623613,3.2269685,1.1947706,-0.013078921,-0.25064075,-0.24748021,-0.09673978,-0.01805902,-0.0178313,-0.7065664,0.35783464,-0.038274802
2070424000,42.871704,0.58329546,-2.96215,3.1153173,1.1315267,-0.012929761,-0.20100522,-0.24482721,-0.10215579,-0.014490905,-0.01765013,-0.70701385,0.35294044,-0.03967589
2070528000,43.178543,0.7109999,-2.9619763,2.971498,1.0549934,-0.012256382,-0.23485625,-0.30240095,-0.123236716,-0.016970132,-0.021850744,-0.7086081,0.34852526,-0.041676328
2070624000,43.44948,0.8232046,-2.9618232,2.841929,0.9850886,-0.012085851,-0.24021924,-0.32151213,-0.12303476,-0.017358692,-0.023233073,-0.7086575,0.34426582,-0.043451138
2070728000,43.729965,0.93861014,-2.9616654,2.7068233,0.9113092,-0.012099833,-0.25454462,-0.34148747,-0.12999623,-0.01840901,-0.024696834,-0.7092329,0.3394833,-0.044654198
2070824000,43.977146,1.0394619,-2.961527,2.5866628,0.8449321,-0.011852533,-0.2482642,-0.34846663,-0.11200822,-0.01792369,-0.025157912,-0.70798534,0.33500072,-0.045148175
2070928000,44.232563,1.1425683,-2.9613853,2.453396,0.7714886,-0.010783855,-0.28987706,-0.37851796,-0.10736479,-0.020917516,-0.027313838,-0.7076637,0.33007833,-0.045780286
2071024000,44.45723,1.2320672,-2.9612613,2.3336823,0.7046415,-0.010306719,-0.30334544,-0.41928723,-0.116757974,-0.021910472,-0.030284883,-0.7083342,0.32551375,-0.045748897
2071128000,44.688953,1.3228749,-2.9611359,2.208901,0.63380814,-0.009986914,-0.3127333,-0.42327377,-0.12732579,-0.022612568,-0.030605339,-0.7090885,0.3206024,-0.04467977
2071224000,44.89239,1.4010237,-2.9610274,2.0981376,0.57050323,-0.009860968,-0.30858845,-0.36464775,-0.116797686,-0.022289826,-0.026339076,-0.708337,0.31624532,-0.042420123
2071328000,45.101845,1.480132,-2.9609177,1.9803563,0.5138803,-0.0080615375,-0.32212186,-0.23402996,-0.1136053,-0.023260167,-0.016899122,-0.70810914,0.31165993,-0.042268783
2071424000,45.28541,1.5492115,-2.9608235,1.8755478,0.47319233,-0.0062714308,-0.3169253,-0.16263217,-0.100315794,-0.022854296,-0.011727823,-0.70716053,0.3075323,-0.039957654
2071520000,45.43144,1.6043553,-2.9607506,1.76266,0.43336117,-0.005070029,-0.34740925,-0.1746828,-0.09342921,-0.02503461,-0.012587794,-0.706669,0.30431294,-0.037007615
2071624000,45.639114,1.6830478,-2.9606507,1.6689618,0.40235808,-0.003933591,-0.3223619,-0.18655017,-0.0832837,-0.023206774,-0.013429714,-0.7059448,0.29991844,-0.032911487
2071728000,45.808464,1.7473425,-2.9605708,1.5677259,0.3674526,-0.0026251343,-0.3078149,-0.20120503,-0.09183211,-0.022177128,-0.014496211,-0.70655495,0.29639113,-0.031567425
2071824000,45.956398,1.8037212,-2.9604983,1.4782054,0.34170246,-0.0018659923,-0.30216205,-0.12842976,-0.096817076,-0.021780396,-0.009257453,-0.7069108,0.29321823,-0.031042833
2071928000,46.107964,1.8619738,-2.9604218,1.3849565,0.31528753,-0.001296338,-0.28959256,-0.13382053,-0.08904718,-0.020857494,-0.009638234,-0.70635617,0.28980795,-0.030972004
2072024000,46.240166,1.913141,-2.9603536,1.302436,0.29127306,-0.00092161825,-0.296291,-0.1435794,-0.0963767,-0.021357521,-0.010349622,-0.7068794,0.28662086,-0.03207721
2072128000,46.375427,1.9657508,-2.960283,1.2162786,0.26735198,-0.00012333336,-0.2988084,-0.13971743,-0.102726914,-0.021552581,-0.0100776,-0.7073327,0.28335387,-0.026236456
2072224000,46.49326,2.0117092,-2.9602213,1.1398569,0.24573368,0.00017892779,-0.30597514,-0.12116894,-0.10276455,-0.022068335,-0.008739261,-0.7073344,0.28197324,0.0021806266
2072320000,46.58652,2.0480976,-2.9601724,1.0595194,0.2218227,0.00022949278,-0.32014453,-0.13949823,-0.1086386,-0.023105774,-0.010067998,-0.70775366,0.2819732,0.0
2072424000,46.718426,2.0994995,-2.9601035,0.9892837,0.2035944,-8.056883e-05,-0.2882646,-0.06374401,-0.10827423,-0.02080426,-0.0046004504,-0.7077286,0.2819732,0.0
2072528000,46.825367,2.1414893,-2.9600482,0.9217136,0.18946001,0.00018138316,-0.26213044,-0.048459455,-0.10340783,-0.018906767,-0.0034952504,-0.70738125,0.2819732,0.0
2072624000,46.918316,2.1782591,-2.9600005,0.8627122,0.1765554,0.00022496752,-0.2500868,-0.051389366,-0.109919146,-0.018049875,-0.0037089984,-0.70784605,0.2819732,0.0
2072728000,47.013092,2.2159374,-2.959952,0.8006524,0.16167468,-9.9828525e-05,-0.23725998,-0.063278124,-0.10671471,-0.017118352,-0.0045655277,-0.7076173,0.2819732,0.0
2072824000,47.0954,2.248727,-2.9599109,0.74534464,0.14673,-0.00036785722,-0.22639257,-0.07794134,-0.08814686,-0.016304653,-0.005613287,-0.7062919,0.2819732,0.0
2072928000,47.17925,2.2820935,-2.95987,0.695003,0.13074398,0.0010392193,-0.20365089,-0.07870121,-0.07121303,-0.01464157,-0.0056582573,-0.70508146,0.2819732,0.0
2073024000,47.252018,2.3109062,-2.9598358,0.65088403,0.115708366,0.0022354217,-0.18977976,-0.017874405,-0.08149718,-0.013660047,-0.0012865714,-0.7058173,0.2819732,0.0
2073128000,47.32609,2.34036,-2.9598005,0.6029205,0.10492882,0.0028140852,-0.19314983,-0.02666723,-0.08978721,-0.013912884,-0.001920882,-0.70640904,0.2819732,0.0
2073224000,47.39031,2.3661726,-2.959769,0.55908316,0.0943529,0.0029845957,-0.18149367,-0.030724213,-0.08687346,-0.013068044,-0.0022122278,-0.706201,0.2819732,0.0
2073328000,47.455643,2.3926458,-2.9597363,0.5210048,0.08264786,0.0036093239,-0.13551813,-0.03581085,-0.08938391,-0.009759967,-0.0025790848,-0.70638025,0.2819732,0.0
2073424000,47.512245,2.415707,-2.9597082,0.48774585,0.07126467,0.0037722206,-0.13818946,-0.05052399,-0.088788286,-0.009955798,-0.0036399784,-0.7063377,0.2819732,0.0
2073528000,47.5698,2.4392,-2.9596794,0.45093292,0.058174565,0.0038122463,-0.13526182,-0.0676512,-0.07835376,-0.0097328,-0.0048678597,-0.7055919,0.2819732,0.0
2073624000,47.619648,2.4595098,-2.9596546,0.41666254,0.045509174,0.0036971187,-0.14556116,-0.06487622,-0.07978775,-0.010475062,-0.004668707,-0.7056953,0.2819732,0.0
2073728000,47.670303,2.480022,-2.9596298,0.38880938,0.030358404,0.0035805036,-0.11472881,-0.071258456,-0.07817032,-0.008252492,-0.005125651,-0.7055798,0.2819732,0.0
2073824000,47.714134,2.497655,-2.9596086,0.36404157,0.01941578,0.0034007647,-0.10459763,-0.02297315,-0.10302242,-0.0075436407,-0.0016568366,-0.7073538,0.2819732,0.0
2073928000,47.75866,2.5158472,-2.9595876,0.33557588,0.010804117,0.0029446413,-0.088706344,-0.036583938,-0.08879568,-0.006388987,-0.002634922,-0.7063382,0.2819732,0.0
2074024000,47.797165,2.531707,-2.9595697,0.3072994,-0.002058491,0.002669112,-0.16603981,-0.2216298,-0.087955296,-0.011957961,-0.015961476,-0.70627826,0.2814259,-0.019547688
2074128000,47.83589,2.5459135,-2.9595542,0.28004682,-0.05334276,0.0016306003,-0.17539312,-0.71878326,-0.100945584,-0.012648326,-0.05183445,-0.7072055,0.27750525,-0.055850536
2074224000,47.868797,2.5526075,-2.9595444,0.25294754,-0.14391944,0.0008645743,-0.18377328,-1.2100903,-0.08317988,-0.013229018,-0.087109,-0.7059374,0.2705351,-0.089360856
2074328000,47.901333,2.5486898,-2.9595385,0.21978682,-0.29068068,0.00088449905,-0.19804825,-1.7274331,-0.05140043,-0.014210822,-0.123950824,-0.70366895,0.25935388,-0.1256637
2074424000,47.926765,2.5336561,-2.959537,0.18658957,-0.4235107,0.0013640517,-0.2288931,-1.4052194,-0.013707556,-0.016361246,-0.100444876,-0.70097846,0.24568172,-0.15917404
2074528000,47.9502,2.509176,-2.9595392,0.15844968,-0.5283572,0.0013203054,-0.20992748,-0.9979098,-0.02540651,-0.015023451,-0.07141538,-0.7018135,0.22723986,-0.1954769
2074624000,47.96963,2.480828,-2.9595456,0.1420691,-0.60958993,0.00055305316,0.092315406,-1.1751502,-0.059005126,0.0066291476,-0.08438726,-0.7042117,0.2068656,-0.22898725
2074728000,47.990414,2.442671,-2.9595585,0.15520418,-0.7227607,-0.00026024325,0.5110948,-1.550663,-0.051467627,0.036673475,-0.111267425,-0.7036738,0.18116315,-0.26529008
2074824000,48.01186,2.398154,-2.9595754,0.19787729,-0.8537427,-0.0003702098,0.91644645,-1.9559017,-0.011313401,0.0654914,-0.13977328,-0.70080566,0.15408681,-0.29880038
2074920000,48.033066,2.3526263,-2.9595938,0.25869653,-0.98275554,0.00096332247,1.2303993,-2.2530348,0.053668134,0.08734549,-0.15994191,-0.69616914,0.12906577,-0.32672563
2075024000,48.07335,2.2673836,-2.9596272,0.39536297,-1.2293276,0.004270549,1.7478454,-2.8047535,0.16226846,0.122693434,-0.19688517,-0.68839747,0.08734541,-0.3686135
2075120000,48.1074,2.1975615,-2.9596539,0.49352378,-1.3982948,0.009533153,1.7264934,-3.0543609,0.26718348,0.11987054,-0.21206449,-0.6808763,0.056739315,-0.39653876
2075224000,48.169735,2.070504,-2.9597003,0.6506664,-1.713325,0.016734386,1.76737,-3.5795405,0.35819995,0.12152957,-0.2461398,-0.6743341,0.006641389,-0.43842664
2075328000,48.234375,1.9370446,-2.9597466,0.79210347,-1.9996059,0.023855029,1.8329227,-3.6313949,0.39302796,0.1255657,-0.24877131,-0.6718117,-0.04084273,-0.47472948
2075424000,48.30227,1.7953188,-2.9597936,0.9185925,-2.2556977,0.029210696,1.873214,-3.6264439,0.36910874,0.12864919,-0.24905807,-0.67350435,-0.08802526,-0.5082398
2075528000,48.38509,1.6209759,-2.9598498,1.0491217,-2.5223577,0.033758845,1.9096996,-3.61756,0.34393615,0.131496,-0.24909396,-0.67525566,-0.14276993,-0.5445426
2075624000,48.47023,1.4405859,-2.9599066,1.165097,-2.759651,0.03684673,1.9592106,-3.597055,0.32308203,0.13519174,-0.24820818,-0.6766901,-0.19665451,-0.57805294
2075728000,48.572037,1.223715,-2.9599733,1.3030664,-3.029039,0.03869887,2.0589647,-3.6303957,0.29419076,0.14249723,-0.25125316,-0.67870075,-0.25865975,-0.61435574
2075824000,48.67409,1.0055355,-2.9600394,1.4271185,-3.2610795,0.03991624,2.1211004,-3.3970983,0.27770895,0.14704019,-0.23549569,-0.67982244,-0.31924635,-0.6478661
2075928000,48.794754,0.7483432,-2.9601169,1.5572863,-3.4753332,0.040628567,2.1997805,-3.0346837,0.24967398,0.15292507,-0.21096617,-0.6817418,-0.38851213,-0.6841689
2076024000,48.915745,0.49329224,-2.9601936,1.6750181,-3.6389737,0.040003408,2.2506468,-2.6721554,0.18499973,0.15751015,-0.18700914,-0.68631226,-0.453812,-0.6649826
2076120000,49.0241,0.26834884,-2.960262,1.764297,-3.7178574,0.038419586,2.2740388,-2.2963777,0.12474975,0.16013606,-0.16170916,-0.6905762,-0.50589365,-0.63705736
2076224000,49.19832,-0.08556997,-2.9603715,1.9288933,-3.9097562,0.03554848,2.080789,-2.0129747,0.076167755,0.14725341,-0.14245433,-0.6939973,-0.57982713,-0.5951695
2076328000,49.35979,-0.4081184,-2.9604738,2.0182035,-3.996962,0.031442665,1.69946,-1.6799756,0.01894363,0.12096719,-0.11958028,-0.6980354,-0.63983697,-0.5588667
2076424000,49.51494,-0.7162108,-2.9605725,2.066262,-4.045906,0.026727002,1.3106251,-1.3458652,-0.05055915,0.09395018,-0.096476324,-0.7029752,-0.6918797,-0.52535635
2076520000,49.64775,-0.9803122,-2.9606557,2.062056,-4.012078,0.021489745,0.9287852,-0.99091625,-0.11602644,0.0670207,-0.07150405,-0.70764583,-0.732791,-0.49743113
2076624000,49.849266,-1.3847791,-2.9607813,2.072937,-4.062286,0.015299819,0.56782156,-0.67957234,-0.15824069,0.041148253,-0.049246486,-0.7106571,-0.78996927,-0.45554325
2076720000,49.983715,-1.6584436,-2.9608657,2.018798,-3.9787397,0.009425296,0.44469,-0.34314936,-0.1731488,0.032274,-0.024904544,-0.7117248,-0.8252956,-0.427618
2076824000,50.184704,-2.071597,-2.9609923,1.993579,-3.9573169,0.003089094,0.40171975,-0.026658297,-0.18009682,0.029175637,-0.001936108,-0.7122424,-0.87409645,-0.38573012
2076920000,50.317852,-2.346485,-2.9610767,1.9289376,-3.819442,-0.0024141409,0.3259822,0.34668046,-0.16380441,0.023636207,0.025136987,-0.71108943,-0.90383774,-0.35780486
2077024000,50.51549,-2.7534447,-2.961203,1.8919816,-3.713415,-0.0071845157,0.2760902,0.71766853,-0.14771456,0.01998776,0.05195616,-0.709968,-0.94426095,-0.315917
2077120000,50.64523,-3.0180871,-2.9612868,1.8179258,-3.5265455,-0.0102081075,0.16528052,1.0751134,-0.11211489,0.01192314,0.0775574,-0.7074387,-0.96841717,-0.28799173
2077224000,50.83585,-3.3999124,-2.96141,1.7642884,-3.3359838,-0.012218264,0.064714074,1.4936175,-0.093785964,0.004660062,0.10755544,-0.7061764,-1.0004628,-0.24610384
2077328000,50.99678,-3.712173,-2.961515,1.6814988,-3.065674,-0.014667352,-0.069386184,1.9804211,-0.1089433,-0.005004796,0.14284694,-0.70735073,-1.0241698,-0.20980097
2077424000,51.14173,-3.9819834,-2.9616096,1.5979247,-2.7822351,-0.016982311,-0.19086492,2.1680982,-0.111558415,-0.013772632,0.15644793,-0.70763856,-1.0427022,-0.17629063
2077520000,51.25997,-4.192792,-2.961687,1.4988729,-2.5119174,-0.019008119,-0.31837964,2.0279212,-0.11910207,-0.022994217,0.1464618,-0.7082618,-1.0556885,-0.14836535
2077624000,51.42894,-4.4808407,-2.961798,1.4028604,-2.240951,-0.021715812,-0.44340426,1.7325954,-0.1881951,-0.03225277,0.12602721,-0.71332526,-1.0709792,-0.10647744
2077720000,51.534748,-4.654324,-2.9618678,1.2885029,-1.9974433,-0.02601636,-0.57805336,1.6142753,-0.23117153,-0.042233434,0.11794134,-0.7164892,-1.0783806,-0.07855217
2077824000,51.68239,-4.889378,-2.9619668,1.1666363,-1.7548704,-0.030656897,-0.7069137,1.3983094,-0.25064003,-0.051749226,0.10236245,-0.7178907,-1.0852939,-0.03666427
2077920000,51.77302,-5.030828,-2.9620278,1.045083,-1.5648516,-0.033845276,-0.79046744,1.2584312,-0.22575384,-0.057722405,0.09189459,-0.71611434,-1.08711,-0.008739002
2078024000,51.896805,-5.222686,-2.9621127,0.9119456,-1.3851427,-0.035903025,-0.85472095,1.0547646,-0.1985607,-0.06224567,0.076813996,-0.71417326,-1.0856453,0.0331489
2078128000,51.99215,-5.371524,-2.962179,0.77184165,-1.2184142,-0.03553994,-0.92481714,0.9230684,-0.17423189,-0.06718631,0.06705927,-0.7124367,-1.08031,0.06945175
2078224000,52.070328,-5.496426,-2.9622345,0.64331996,-1.086622,-0.03434698,-0.9594408,0.80930364,-0.15955688,-0.06959941,0.05870822,-0.7113892,-1.074268,0.047111534
2078320000,52.12833,-5.5924835,-2.9622765,0.5276201,-0.9754264,-0.03241773,-0.85955966,0.7338171,-0.11813385,-0.062094487,0.053010862,-0.7084324,-1.0716159,0.019186266
2078424000,52.205048,-5.7246504,-2.962332,0.42301986,-0.87954855,-0.029836897,-0.6017346,0.573505,-0.09521684,-0.043368567,0.04133399,-0.7067966,-1.0711085,0.0
2078528000,52.264046,-5.8293447,-2.9623733,0.34093988,-0.7964591,-0.0262444,-0.45586205,0.43999588,-0.09628536,-0.03285894,0.031715292,-0.7068728,-1.0711085,0.0
2078624000,52.314053,-5.919062,-2.9624054,0.28453445,-0.7336535,-0.023227537,-0.2541057,0.3703658,-0.08749159,-0.018300187,0.026673008,-0.7062451,-1.0711085,0.0
2078728000,52.364857,-6.0097084,-2.9624352,0.24027935,-0.6780671,-0.020120332,-0.2623395,0.29637307,-0.08082835,-0.018880762,0.021330182,-0.70576954,-1.0711085,0.0
2078824000,52.40905,-6.0879955,-2.9624622,0.20719683,-0.63539624,-0.01757796,-0.20299622,0.25232762,-0.07144159,-0.014595014,0.018141842,-0.7050995,-1.0711085,0.0
2078928000,52.454506,-6.1675243,-2.9624903,0.17724061,-0.59728867,-0.015885834,-0.1977025,0.21470368,-0.086072266,-0.014235539,0.015459707,-0.70614386,-1.0711085,0.0
2079024000,52.4943,-6.236441,-2.962515,0.15223116,-0.56672317,-0.014769116,-0.21827328,0.1712755,-0.09150919,-0.015727475,0.012341094,-0.70653194,-1.0711085,0.0
2079120000,52.52588,-6.2907915,-2.962535,0.12695721,-0.53559405,-0.01367961,-0.22783741,0.15482646,-0.08801143,-0.016409107,0.0111507755,-0.70628226,-1.0711085,0.0
2079224000,52.570545,-6.367384,-2.962563,0.10573104,-0.5114495,-0.012562188,-0.23726241,0.12100324,-0.07957269,-0.017073227,0.008707303,-0.7056799,-1.0711085,0.0
2079328000,52.606632,-6.429263,-2.9625862,0.087530956,-0.490029,-0.011319877,-0.2041977,0.08799523,-0.08448475,-0.014701561,0.0063353665,-0.70603055,-1.0711085,0.0
2079424000,52.637783,-6.4829,-2.9626057,0.072019905,-0.4714794,-0.0104718115,-0.1934386,0.080576256,-0.085204825,-0.013929651,0.005802354,-0.7060819,-1.0711085,0.0
2079520000,52.662155,-6.5251794,-2.9626212,0.055602938,-0.45008123,-0.009591362,-0.18439034,0.0593825,-0.07275881,-0.013258829,0.004269976,-0.7051935,-1.0711085,0.0
2079624000,52.696266,-6.584723,-2.962643,0.04545562,-0.4323258,-0.008561266,-0.09664329,0.038804814,-0.07171562,-0.00694902,0.0027902138,-0.7051191,-1.0711085,0.0
2079728000,52.723927,-6.6327643,-2.9626606,0.0384053,-0.4202491,-0.0069571887,-0.09658303,0.0073035955,-0.06445472,-0.0069425153,0.0005249921,-0.7045992,-1.0711085,0.0
2079824000,52.747913,-6.6743546,-2.9626765,0.03189756,-0.40933952,-0.00547047,-0.08687892,0.0063298643,-0.07336042,-0.0062485896,0.0004552627,-0.70523643,-1.0711085,0.0
