timestamp,timestamp_sample,control[0],control[1],control[2],control[3],control[4],control[5],control[6],control[7],control[8],control[9],control[10],control[11],reversible_flags
2043328000,2043328000,0.0011528004,0.0004255789,0.00045097794,0.0019706425,nan,nan,nan,nan,nan,nan,nan,nan,0
2043332000,2043332000,0.0,0.0019999999,0.0,0.0019999999,nan,nan,nan,nan,nan,nan,nan,nan,0
2043428000,2043428000,0.0,0.0019999996,0.0,0.0019999996,nan,nan,nan,nan,nan,nan,nan,nan,0
2043528000,2043528000,0.0,0.0020000003,0.0,0.0020000003,nan,nan,nan,nan,nan,nan,nan,nan,0
2043628000,2043628000,1.6370905e-11,0.0019999999,0.0,0.0019999999,nan,nan,nan,nan,nan,nan,nan,nan,0
2043728000,2043728000,0.0,0.0019999999,0.0012019177,0.0007980822,nan,nan,nan,nan,nan,nan,nan,nan,0
2043828000,2043828000,0.0,0.0019999999,0.0,0.0019999999,nan,nan,nan,nan,nan,nan,nan,nan,0
2043928000,2043928000,0.0,0.0020000003,0.0,0.0020000003,nan,nan,nan,nan,nan,nan,nan,nan,0
2044028000,2044028000,0.00019305386,0.001806946,0.0,0.0019999996,nan,nan,nan,nan,nan,nan,nan,nan,0
2044128000,2044128000,0.0,0.0019999994,0.0,0.0019999994,nan,nan,nan,nan,nan,nan,nan,nan,0
2044228000,2044228000,2.3283064e-10,0.0019999999,0.0,0.0019999999,nan,nan,nan,nan,nan,nan,nan,nan,0
2044328000,2044328000,0.0,0.0019999996,0.0,0.002,nan,nan,nan,nan,nan,nan,nan,nan,0
2044428000,2044428000,0.0060015954,0.019925052,0.0051533813,0.02048337,nan,nan,nan,nan,nan,nan,nan,nan,0
2044528000,2044528000,0.024031227,0.034716383,0.017743906,0.03649543,nan,nan,nan,nan,nan,nan,nan,nan,0
2044628000,2044628000,0.038920455,0.050732873,0.03591358,0.051731892,nan,nan,nan,nan,nan,nan,nan,nan,0
2044728000,2044728000,0.061726958,0.06650822,0.055235155,0.07240945,nan,nan,nan,nan,nan,nan,nan,nan,0
2044828000,2044828000,0.081251904,0.082953796,0.07181477,0.0936747,nan,nan,nan,nan,nan,nan,nan,nan,0
2044928000,2044928000,0.10551432,0.103690796,0.09805031,0.11244588,nan,nan,nan,nan,nan,nan,nan,nan,0
2045028000,2045028000,0.12399748,0.12951629,0.11557088,0.14078659,nan,nan,nan,nan,nan,nan,nan,nan,0
2045128000,2045128000,0.1473576,0.16227329,0.14657554,0.16024412,nan,nan,nan,nan,nan,nan,nan,nan,0
2045228000,2045228000,0.17799377,0.1817289,0.17626679,0.18509644,nan,nan,nan,nan,nan,nan,nan,nan,0
2045328000,2045328000,0.20640613,0.21636508,0.2013735,0.22150315,nan,nan,nan,nan,nan,nan,nan,nan,0
2045428000,2045428000,0.23686191,0.24442463,0.23045759,0.2537159,nan,nan,nan,nan,nan,nan,nan,nan,0
2045528000,2045528000,0.2692775,0.28301114,0.26377907,0.2886047,nan,nan,nan,nan,nan,nan,nan,nan,0
2045628000,2045628000,0.30218568,0.3174874,0.2939598,0.3261094,nan,nan,nan,nan,nan,nan,nan,nan,0
2045728000,2045728000,0.30687287,0.3324757,0.30580142,0.33304647,nan,nan,nan,nan,nan,nan,nan,nan,0
2045828000,2045828000,0.3190225,0.34137723,0.31260887,0.34788513,nan,nan,nan,nan,nan,nan,nan,nan,0
2045928000,2045928000,0.32772714,0.35433993,0.3256174,0.3544327,nan,nan,nan,nan,nan,nan,nan,nan,0
2046028000,2046028000,0.33996758,0.36412066,0.33683664,0.3676403,nan,nan,nan,nan,nan,nan,nan,nan,0
2046128000,2046128000,0.35050914,0.3760983,0.3431144,0.3829976,nan,nan,nan,nan,nan,nan,nan,nan,0
2046228000,2046228000,0.36650378,0.38454625,0.3531018,0.39867467,nan,nan,nan,nan,nan,nan,nan,nan,0
2046328000,2046328000,0.37356496,0.40227586,0.36344787,0.41328582,nan,nan,nan,nan,nan,nan,nan,nan,0
2046428000,2046428000,0.3875684,0.4179638,0.37752494,0.4266527,nan,nan,nan,nan,nan,nan,nan,nan,0
2046528000,2046528000,0.40053168,0.4300109,0.3899806,0.44156578,nan,nan,nan,nan,nan,nan,nan,nan,0
2046628000,2046628000,0.41283697,0.44931826,0.40432593,0.45701838,nan,nan,nan,nan,nan,nan,nan,nan,0
2046728000,2046728000,0.4318085,0.459438,0.41967148,0.4702609,nan,nan,nan,nan,nan,nan,nan,nan,0
2046828000,2046828000,0.44631192,0.4799642,0.4332743,0.48815328,nan,nan,nan,nan,nan,nan,nan,nan,0
2046928000,2046928000,0.45534724,0.5003682,0.441727,0.50912386,nan,nan,nan,nan,nan,nan,nan,nan,0
2047028000,2047028000,0.47310218,0.5140291,0.46461043,0.5225951,nan,nan,nan,nan,nan,nan,nan,nan,0
2047128000,2047128000,0.48479792,0.5344023,0.4751655,0.54356885,nan,nan,nan,nan,nan,nan,nan,nan,0
2047228000,2047228000,0.50413257,0.5512708,0.49490124,0.5614546,nan,nan,nan,nan,nan,nan,nan,nan,0
2047328000,2047328000,0.5184118,0.5705763,0.5102856,0.57821226,nan,nan,nan,nan,nan,nan,nan,nan,0
2047428000,2047428000,0.56214625,0.61626375,0.55647606,0.6213802,nan,nan,nan,nan,nan,nan,nan,nan,0
2047528000,2047528000,0.57844913,0.6334942,0.56945884,0.6400575,nan,nan,nan,nan,nan,nan,nan,nan,0
2047628000,2047628000,0.5931822,0.65918994,0.5852666,0.66473806,nan,nan,nan,nan,nan,nan,nan,nan,0
2047728000,2047728000,0.61502165,0.67404616,0.601159,0.68653446,nan,nan,nan,nan,nan,nan,nan,nan,0
2047828000,2047828000,0.63633066,0.69598526,0.62573165,0.7066596,nan,nan,nan,nan,nan,nan,nan,nan,0
2047928000,2047928000,0.6544901,0.71632886,0.6449814,0.7259418,nan,nan,nan,nan,nan,nan,nan,nan,0
2048028000,2048028000,0.68001765,0.7334938,0.66848266,0.744477,nan,nan,nan,nan,nan,nan,nan,nan,0
2048128000,2048128000,0.71199995,0.7276733,0.7053028,0.7347368,nan,nan,nan,nan,nan,nan,nan,nan,0
2048228000,2048228000,0.74591005,0.7273894,0.7473824,0.72282773,nan,nan,nan,nan,nan,nan,nan,nan,0
2048328000,2048328000,0.7521092,0.73001564,0.75077003,0.7297039,nan,nan,nan,nan,nan,nan,nan,nan,0
2048428000,2048428000,0.7557581,0.7426484,0.7565647,0.73790175,nan,nan,nan,nan,nan,nan,nan,nan,0
2048528000,2048528000,0.7511109,0.7464357,0.7517586,0.7452257,nan,nan,nan,nan,nan,nan,nan,nan,0
2048628000,2048628000,0.75557154,0.7517795,0.75304633,0.75382596,nan,nan,nan,nan,nan,nan,nan,nan,0
2048728000,2048728000,0.7479028,0.75416267,0.749672,0.75228274,nan,nan,nan,nan,nan,nan,nan,nan,0
2048824000,2048824000,0.7494752,0.7467649,0.7497838,0.747556,nan,nan,nan,nan,nan,nan,nan,nan,0
2048928000,2048928000,0.72393596,0.7229324,0.72499,0.7231402,nan,nan,nan,nan,nan,nan,nan,nan,0
2049028000,2049028000,0.7344924,0.72855765,0.7294312,0.7308991,nan,nan,nan,nan,nan,nan,nan,nan,0
2049128000,2049128000,0.7288056,0.7265447,0.72812265,0.7233972,nan,nan,nan,nan,nan,nan,nan,nan,0
2049228000,2049228000,0.72829574,0.7207904,0.7233921,0.72453946,nan,nan,nan,nan,nan,nan,nan,nan,0
2049328000,2049328000,0.7209388,0.71720546,0.72079116,0.7196599,nan,nan,nan,nan,nan,nan,nan,nan,0
2049428000,2049428000,0.7228613,0.72721803,0.723254,0.7265828,nan,nan,nan,nan,nan,nan,nan,nan,0
2049528000,2049528000,0.7230004,0.7172798,0.71947145,0.7224779,nan,nan,nan,nan,nan,nan,nan,nan,0
2049628000,2049628000,0.7254537,0.7245271,0.721229,0.7288704,nan,nan,nan,nan,nan,nan,nan,nan,0
2049728000,2049728000,0.7242752,0.7153463,0.72554004,0.71555555,nan,nan,nan,nan,nan,nan,nan,nan,0
2049828000,2049828000,0.72386706,0.7233301,0.72350234,0.72521627,nan,nan,nan,nan,nan,nan,nan,nan,0
2049928000,2049928000,0.71658486,0.7196503,0.72314304,0.7121292,nan,nan,nan,nan,nan,nan,nan,nan,0
2050028000,2050028000,0.72202283,0.721208,0.7216819,0.7197015,nan,nan,nan,nan,nan,nan,nan,nan,0
2050128000,2050128000,0.71583784,0.71530867,0.7155117,0.71511126,nan,nan,nan,nan,nan,nan,nan,nan,0
2050228000,2050228000,0.72167516,0.7152858,0.7226008,0.71382153,nan,nan,nan,nan,nan,nan,nan,nan,0
2050324000,2050324000,0.7135952,0.71392643,0.7159807,0.7116064,nan,nan,nan,nan,nan,nan,nan,nan,0
2050428000,2050428000,0.7213492,0.71398693,0.72210765,0.7107141,nan,nan,nan,nan,nan,nan,nan,nan,0
2050528000,2050528000,0.7152629,0.70898557,0.7118003,0.7144533,nan,nan,nan,nan,nan,nan,nan,nan,0
2050628000,2050628000,0.7138613,0.71856976,0.715563,0.71760225,nan,nan,nan,nan,nan,nan,nan,nan,0
2050728000,2050728000,0.7139349,0.7096758,0.7153322,0.7051404,nan,nan,nan,nan,nan,nan,nan,nan,0
2050824000,2050824000,0.71391696,0.71394867,0.7148096,0.71316427,nan,nan,nan,nan,nan,nan,nan,nan,0
2050928000,2050928000,0.7097723,0.70660657,0.71599954,0.7031192,nan,nan,nan,nan,nan,nan,nan,nan,0
2051028000,2051028000,0.71334237,0.7084757,0.7111463,0.7138343,nan,nan,nan,nan,nan,nan,nan,nan,0
2051128000,2051128000,0.7113596,0.7030735,0.7066619,0.7081625,nan,nan,nan,nan,nan,nan,nan,nan,0
2051228000,2051228000,0.7112254,0.7100038,0.7142,0.70814914,nan,nan,nan,nan,nan,nan,nan,nan,0
2051328000,2051328000,0.7066638,0.7048411,0.7076432,0.7039675,nan,nan,nan,nan,nan,nan,nan,nan,0
2051428000,2051428000,0.7079074,0.71054405,0.7073877,0.71092236,nan,nan,nan,nan,nan,nan,nan,nan,0
2051528000,2051528000,0.70966786,0.7007093,0.7109784,0.69856095,nan,nan,nan,nan,nan,nan,nan,nan,0
2051628000,2051628000,0.7067211,0.7058084,0.7091957,0.7042924,nan,nan,nan,nan,nan,nan,nan,nan,0
2051728000,2051728000,0.687308,0.68866074,0.69036263,0.6858487,nan,nan,nan,nan,nan,nan,nan,nan,0
2051828000,2051828000,0.66904426,0.66263264,0.6710912,0.66054386,nan,nan,nan,nan,nan,nan,nan,nan,0
2051928000,2051928000,0.6549838,0.65399444,0.65390587,0.6549011,nan,nan,nan,nan,nan,nan,nan,nan,0
2052024000,2052024000,0.67207533,0.67999315,0.67742556,0.67349005,nan,nan,nan,nan,nan,nan,nan,nan,0
2052128000,2052128000,0.6969892,0.6940577,0.7047505,0.690335,nan,nan,nan,nan,nan,nan,nan,nan,0
2052228000,2052228000,0.71210027,0.7159819,0.7142283,0.7176525,nan,nan,nan,nan,nan,nan,nan,nan,0
2052328000,2052328000,0.7240542,0.7197721,0.72776204,0.71708995,nan,nan,nan,nan,nan,nan,nan,nan,0
2052428000,2052428000,0.7222613,0.71456325,0.7232527,0.71473795,nan,nan,nan,nan,nan,nan,nan,nan,0
2052528000,2052528000,0.71340644,0.70808434,0.71233976,0.7046659,nan,nan,nan,nan,nan,nan,nan,nan,0
2052628000,2052628000,0.70981234,0.706926,0.703797,0.7080818,nan,nan,nan,nan,nan,nan,nan,nan,0
2052728000,2052728000,0.70743054,0.7055987,0.70906305,0.6997649,nan,nan,nan,nan,nan,nan,nan,nan,0
2052828000,2052828000,0.7059119,0.7048866,0.7056862,0.70462126,nan,nan,nan,nan,nan,nan,nan,nan,0
2052928000,2052928000,0.7086729,0.7013356,0.70284545,0.7076264,nan,nan,nan,nan,nan,nan,nan,nan,0
2053028000,2053028000,0.71272683,0.6961248,0.7082319,0.70169234,nan,nan,nan,nan,nan,nan,nan,nan,0
2053128000,2053128000,0.7062812,0.7019439,0.7097491,0.70227444,nan,nan,nan,nan,nan,nan,nan,nan,0
2053228000,2053228000,0.7053221,0.7034716,0.70463586,0.70476246,nan,nan,nan,nan,nan,nan,nan,nan,0
2053328000,2053328000,0.7056925,0.7033219,0.7045764,0.7029521,nan,nan,nan,nan,nan,nan,nan,nan,0
2053428000,2053428000,0.70720214,0.7040673,0.70993334,0.70088714,nan,nan,nan,nan,nan,nan,nan,nan,0
2053528000,2053528000,0.70653665,0.7027326,0.70674384,0.70500606,nan,nan,nan,nan,nan,nan,nan,nan,0
2053628000,2053628000,0.70729923,0.70528525,0.7052165,0.7048792,nan,nan,nan,nan,nan,nan,nan,nan,0
2053728000,2053728000,0.70589554,0.7054894,0.71146935,0.6965193,nan,nan,nan,nan,nan,nan,nan,nan,0
2053824000,2053824000,0.7055615,0.7079979,0.70531964,0.7073443,nan,nan,nan,nan,nan,nan,nan,nan,0
2053928000,2053928000,0.70199513,0.7084037,0.7053288,0.7038832,nan,nan,nan,nan,nan,nan,nan,nan,0
2054028000,2054028000,0.7054566,0.7060073,0.7081279,0.7021638,nan,nan,nan,nan,nan,nan,nan,nan,0
2054128000,2054128000,0.7045637,0.70306146,0.7073655,0.70256835,nan,nan,nan,nan,nan,nan,nan,nan,0
2054228000,2054228000,0.70429224,0.706902,0.7066828,0.70724934,nan,nan,nan,nan,nan,nan,nan,nan,0
2054328000,2054328000,0.7084678,0.6997096,0.7101205,0.700118,nan,nan,nan,nan,nan,nan,nan,nan,0
2054428000,2054428000,0.7061278,0.7054834,0.70714176,0.7058325,nan,nan,nan,nan,nan,nan,nan,nan,0
2054528000,2054528000,0.70761824,0.7007459,0.70852715,0.702736,nan,nan,nan,nan,nan,nan,nan,nan,0
2054628000,2054628000,0.70662284,0.7049274,0.70737845,0.7039001,nan,nan,nan,nan,nan,nan,nan,nan,0
2054728000,2054728000,0.70585436,0.70357054,0.70386064,0.7057693,nan,nan,nan,nan,nan,nan,nan,nan,0
2054828000,2054828000,0.7120379,0.70204794,0.7082211,0.70419157,nan,nan,nan,nan,nan,nan,nan,nan,0
2054928000,2054928000,0.70475,0.70801705,0.7039233,0.7036465,nan,nan,nan,nan,nan,nan,nan,nan,0
2055028000,2055028000,0.7153377,0.69936097,0.7058896,0.7038279,nan,nan,nan,nan,nan,nan,nan,nan,0
2055128000,2055128000,0.7056809,0.70199794,0.7030402,0.70383567,nan,nan,nan,nan,nan,nan,nan,nan,0
2055228000,2055228000,0.7081067,0.70271546,0.7108175,0.70306426,nan,nan,nan,nan,nan,nan,nan,nan,0
2055328000,2055328000,0.7094651,0.7004447,0.71033436,0.7035738,nan,nan,nan,nan,nan,nan,nan,nan,0
2055424000,2055424000,0.700483,0.7104211,0.7048806,0.70804137,nan,nan,nan,nan,nan,nan,nan,nan,0
2055528000,2055528000,0.7034164,0.70587754,0.70812696,0.7030184,nan,nan,nan,nan,nan,nan,nan,nan,0
2055628000,2055628000,0.7093155,0.7021584,0.7061999,0.70797265,nan,nan,nan,nan,nan,nan,nan,nan,0
2055728000,2055728000,0.70562184,0.705042,0.7062016,0.70386666,nan,nan,nan,nan,nan,nan,nan,nan,0
2055828000,2055828000,0.7054852,0.70953983,0.7068348,0.704621,nan,nan,nan,nan,nan,nan,nan,nan,0
2055928000,2055928000,0.71108526,0.70436555,0.70877814,0.6998992,nan,nan,nan,nan,nan,nan,nan,nan,0
2056028000,2056028000,0.7068661,0.7054483,0.7064706,0.70503485,nan,nan,nan,nan,nan,nan,nan,nan,0
2056128000,2056128000,0.7066593,0.70240897,0.7082352,0.7024771,nan,nan,nan,nan,nan,nan,nan,nan,0
2056228000,2056228000,0.70371157,0.707201,0.7051291,0.70697546,nan,nan,nan,nan,nan,nan,nan,nan,0
2056324000,2056324000,0.7033679,0.70777434,0.70657897,0.70498145,nan,nan,nan,nan,nan,nan,nan,nan,0
2056428000,2056428000,0.7055726,0.7035219,0.7059401,0.70429534,nan,nan,nan,nan,nan,nan,nan,nan,0
2056528000,2056528000,0.70488447,0.7047519,0.7104723,0.6979343,nan,nan,nan,nan,nan,nan,nan,nan,0
2056628000,2056628000,0.70989287,0.69735885,0.70263994,0.705168,nan,nan,nan,nan,nan,nan,nan,nan,0
2056728000,2056728000,0.7075256,0.7014204,0.7073631,0.7003455,nan,nan,nan,nan,nan,nan,nan,nan,0
2056828000,2056828000,0.7035842,0.707224,0.7079616,0.7033468,nan,nan,nan,nan,nan,nan,nan,nan,0
2056924000,2056924000,0.7081079,0.7028767,0.70416266,0.70761,nan,nan,nan,nan,nan,nan,nan,nan,0
2057028000,2057028000,0.705982,0.70332634,0.70747364,0.70266026,nan,nan,nan,nan,nan,nan,nan,nan,0
2057128000,2057128000,0.7095333,0.7004173,0.7102499,0.6984784,nan,nan,nan,nan,nan,nan,nan,nan,0
2057228000,2057228000,0.6986568,0.7041685,0.69644153,0.72242063,nan,nan,nan,nan,nan,nan,nan,nan,0
2057328000,2057328000,0.6952374,0.70197487,0.7096246,0.733195,nan,nan,nan,nan,nan,nan,nan,nan,0
2057428000,2057428000,0.69715333,0.69908476,0.7291205,0.73528767,nan,nan,nan,nan,nan,nan,nan,nan,0
2057528000,2057528000,0.69271845,0.697507,0.7390797,0.73058504,nan,nan,nan,nan,nan,nan,nan,nan,0
2057628000,2057628000,0.6967035,0.7023366,0.7496792,0.7277467,nan,nan,nan,nan,nan,nan,nan,nan,0
2057728000,2057728000,0.71162987,0.7007271,0.7438176,0.73206264,nan,nan,nan,nan,nan,nan,nan,nan,0
2057828000,2057828000,0.7141302,0.7188259,0.74093467,0.73555,nan,nan,nan,nan,nan,nan,nan,nan,0
2057928000,2057928000,0.7301583,0.7084842,0.7417923,0.72784054,nan,nan,nan,nan,nan,nan,nan,nan,0
2058028000,2058028000,0.72744596,0.7144324,0.7409529,0.7284303,nan,nan,nan,nan,nan,nan,nan,nan,0
2058128000,2058128000,0.72979224,0.71651655,0.7394663,0.7285349,nan,nan,nan,nan,nan,nan,nan,nan,0
2058228000,2058228000,0.74116987,0.72796905,0.7362172,0.725003,nan,nan,nan,nan,nan,nan,nan,nan,0
2058328000,2058328000,0.74022603,0.7433415,0.72471637,0.71827126,nan,nan,nan,nan,nan,nan,nan,nan,0
2058428000,2058428000,0.74468493,0.7534062,0.7183138,0.7201582,nan,nan,nan,nan,nan,nan,nan,nan,0
2058524000,2058524000,0.73965496,0.76553875,0.7177856,0.7267437,nan,nan,nan,nan,nan,nan,nan,nan,0
2058628000,2058628000,0.74084365,0.76254433,0.7201336,0.7288264,nan,nan,nan,nan,nan,nan,nan,nan,0
2058728000,2058728000,0.7462849,0.7490209,0.72335505,0.72888255,nan,nan,nan,nan,nan,nan,nan,nan,0
2058824000,2058824000,0.74127054,0.73895013,0.7222613,0.7312033,nan,nan,nan,nan,nan,nan,nan,nan,0
2058928000,2058928000,0.73077446,0.7336413,0.72308755,0.7267406,nan,nan,nan,nan,nan,nan,nan,nan,0
2059028000,2059028000,0.7245554,0.7393605,0.71822536,0.7332249,nan,nan,nan,nan,nan,nan,nan,nan,0
2059128000,2059128000,0.72789377,0.7346107,0.717124,0.73066205,nan,nan,nan,nan,nan,nan,nan,nan,0
2059228000,2059228000,0.7261199,0.7356521,0.7118624,0.7325229,nan,nan,nan,nan,nan,nan,nan,nan,0
2059328000,2059328000,0.7156649,0.72820497,0.7181771,0.7331361,nan,nan,nan,nan,nan,nan,nan,nan,0
2059424000,2059424000,0.6993311,0.72168416,0.72365636,0.7313197,nan,nan,nan,nan,nan,nan,nan,nan,0
2059528000,2059528000,0.6968926,0.7171758,0.72347546,0.7284892,nan,nan,nan,nan,nan,nan,nan,nan,0
2059628000,2059628000,0.70010287,0.71990293,0.71792316,0.72450995,nan,nan,nan,nan,nan,nan,nan,nan,0
2059724000,2059724000,0.69585836,0.7342035,0.69598174,0.73681587,nan,nan,nan,nan,nan,nan,nan,nan,0
2059828000,2059828000,0.6943214,0.7386603,0.69280165,0.7409378,nan,nan,nan,nan,nan,nan,nan,nan,0
2059928000,2059928000,0.6993664,0.72777337,0.69892746,0.7323732,nan,nan,nan,nan,nan,nan,nan,nan,0
2060028000,2060028000,0.70318073,0.7230196,0.7011238,0.7273245,nan,nan,nan,nan,nan,nan,nan,nan,0
2060128000,2060128000,0.70877886,0.7182344,0.7110882,0.7164594,nan,nan,nan,nan,nan,nan,nan,nan,0
2060228000,2060228000,0.7019598,0.72485816,0.70514333,0.7254508,nan,nan,nan,nan,nan,nan,nan,nan,0
2060328000,2060328000,0.7034085,0.72250414,0.7109185,0.71810144,nan,nan,nan,nan,nan,nan,nan,nan,0
2060428000,2060428000,0.70664436,0.721955,0.70078343,0.7258647,nan,nan,nan,nan,nan,nan,nan,nan,0
2060528000,2060528000,0.70420235,0.72345245,0.70521736,0.71759075,nan,nan,nan,nan,nan,nan,nan,nan,0
2060628000,2060628000,0.70524955,0.72488606,0.7057269,0.7191704,nan,nan,nan,nan,nan,nan,nan,nan,0
2060728000,2060728000,0.7121829,0.7167815,0.7077349,0.71529,nan,nan,nan,nan,nan,nan,nan,nan,0
2060828000,2060828000,0.7059561,0.72429156,0.69764066,0.7272483,nan,nan,nan,nan,nan,nan,nan,nan,0
2060928000,2060928000,0.707879,0.7185153,0.7024384,0.7233397,nan,nan,nan,nan,nan,nan,nan,nan,0
2061028000,2061028000,0.704297,0.7216967,0.7079135,0.7198092,nan,nan,nan,nan,nan,nan,nan,nan,0
2061128000,2061128000,0.70474625,0.71689236,0.7079818,0.7160815,nan,nan,nan,nan,nan,nan,nan,nan,0
2061228000,2061228000,0.7087569,0.7082985,0.7042767,0.70947987,nan,nan,nan,nan,nan,nan,nan,nan,0
2061328000,2061328000,0.71182984,0.7058518,0.7066767,0.7085796,nan,nan,nan,nan,nan,nan,nan,nan,0
2061428000,2061428000,0.7023197,0.71497077,0.70237184,0.71336794,nan,nan,nan,nan,nan,nan,nan,nan,0
2061528000,2061528000,0.6926981,0.7266697,0.6960924,0.72231376,nan,nan,nan,nan,nan,nan,nan,nan,0
2061628000,2061628000,0.69120073,0.72969687,0.691736,0.7270795,nan,nan,nan,nan,nan,nan,nan,nan,0
2061728000,2061728000,0.69649357,0.7217458,0.6986289,0.7166617,nan,nan,nan,nan,nan,nan,nan,nan,0
2061828000,2061828000,0.69272995,0.72283435,0.69282454,0.7194901,nan,nan,nan,nan,nan,nan,nan,nan,0
2061928000,2061928000,0.69905245,0.71674615,0.6990294,0.71350825,nan,nan,nan,nan,nan,nan,nan,nan,0
2062028000,2062028000,0.70578575,0.7085101,0.6979877,0.71235293,nan,nan,nan,nan,nan,nan,nan,nan,0
2062128000,2062128000,0.70279306,0.7100405,0.6987302,0.7150187,nan,nan,nan,nan,nan,nan,nan,nan,0
2062228000,2062228000,0.69994956,0.7117436,0.6992296,0.71486336,nan,nan,nan,nan,nan,nan,nan,nan,0
2062324000,2062324000,0.70095176,0.7146913,0.6996118,0.7125464,nan,nan,nan,nan,nan,nan,nan,nan,0
2062428000,2062428000,0.70213103,0.7158157,0.6997639,0.71052426,nan,nan,nan,nan,nan,nan,nan,nan,0
2062528000,2062528000,0.70726836,0.7091362,0.701233,0.7106648,nan,nan,nan,nan,nan,nan,nan,nan,0
2062628000,2062628000,0.700347,0.7157492,0.6985012,0.7191485,nan,nan,nan,nan,nan,nan,nan,nan,0
2062728000,2062728000,0.7024435,0.71166015,0.70618176,0.71046865,nan,nan,nan,nan,nan,nan,nan,nan,0
2062828000,2062828000,0.70168924,0.71471447,0.7031742,0.71627235,nan,nan,nan,nan,nan,nan,nan,nan,0
2062924000,2062924000,0.7045115,0.71413225,0.70924985,0.71153575,nan,nan,nan,nan,nan,nan,nan,nan,0
2063024000,2063024000,0.706262,0.71201646,0.7070384,0.71644783,nan,nan,nan,nan,nan,nan,nan,nan,0
2063128000,2063128000,0.70681536,0.7120412,0.7032704,0.7175404,nan,nan,nan,nan,nan,nan,nan,nan,0
2063228000,2063228000,0.7018088,0.715631,0.7018113,0.714934,nan,nan,nan,nan,nan,nan,nan,nan,0
2063328000,2063328000,0.7057119,0.7105698,0.70190567,0.7161725,nan,nan,nan,nan,nan,nan,nan,nan,0
2063428000,2063428000,0.70029646,0.71337724,0.7076192,0.71211094,nan,nan,nan,nan,nan,nan,nan,nan,0
2063528000,2063528000,0.70305043,0.71101755,0.7129632,0.70745075,nan,nan,nan,nan,nan,nan,nan,nan,0
2063628000,2063628000,0.69897765,0.714154,0.7054754,0.71028805,nan,nan,nan,nan,nan,nan,nan,nan,0
2063728000,2063728000,0.7043254,0.70785207,0.7058828,0.7082852,nan,nan,nan,nan,nan,nan,nan,nan,0
2063828000,2063828000,0.7063184,0.7069501,0.70963025,0.70973665,nan,nan,nan,nan,nan,nan,nan,nan,0
2063928000,2063928000,0.70480436,0.71029943,0.70289844,0.7155444,nan,nan,nan,nan,nan,nan,nan,nan,0
2064028000,2064028000,0.7060832,0.7127903,0.7023438,0.7125301,nan,nan,nan,nan,nan,nan,nan,nan,0
2064128000,2064128000,0.71005875,0.70548815,0.7119172,0.7006952,nan,nan,nan,nan,nan,nan,nan,nan,0
2064228000,2064228000,0.7062746,0.7121583,0.70679224,0.704105,nan,nan,nan,nan,nan,nan,nan,nan,0
2064328000,2064328000,0.7085649,0.71025544,0.70436037,0.7031507,nan,nan,nan,nan,nan,nan,nan,nan,0
2064428000,2064428000,0.71080613,0.7056973,0.70596844,0.7037527,nan,nan,nan,nan,nan,nan,nan,nan,0
2064528000,2064528000,0.70318156,0.710908,0.7071269,0.7055426,nan,nan,nan,nan,nan,nan,nan,nan,0
2064628000,2064628000,0.7134684,0.69816583,0.71223176,0.7080337,nan,nan,nan,nan,nan,nan,nan,nan,0
2064728000,2064728000,0.71538746,0.6884856,0.7219629,0.712314,nan,nan,nan,nan,nan,nan,nan,nan,0
2064828000,2064828000,0.70771456,0.69403434,0.7276438,0.7232711,nan,nan,nan,nan,nan,nan,nan,nan,0
2064928000,2064928000,0.7082853,0.69690925,0.730119,0.7294116,nan,nan,nan,nan,nan,nan,nan,nan,0
2065028000,2065028000,0.7043254,0.7082595,0.73044986,0.7384719,nan,nan,nan,nan,nan,nan,nan,nan,0
2065128000,2065128000,0.70665795,0.7153912,0.7351457,0.7356045,nan,nan,nan,nan,nan,nan,nan,nan,0
2065228000,2065228000,0.68327963,0.72392493,0.7224307,0.7270845,nan,nan,nan,nan,nan,nan,nan,nan,0
2065328000,2065328000,0.68060505,0.70822024,0.7146901,0.7263608,nan,nan,nan,nan,nan,nan,nan,nan,0
2065428000,2065428000,0.6851656,0.69848114,0.7217777,0.7278235,nan,nan,nan,nan,nan,nan,nan,nan,0
2065528000,2065528000,0.6961021,0.6887296,0.72793067,0.7289134,nan,nan,nan,nan,nan,nan,nan,nan,0
2065628000,2065628000,0.7186499,0.6839033,0.73849964,0.73601186,nan,nan,nan,nan,nan,nan,nan,nan,0
2065728000,2065728000,0.71941507,0.6962869,0.73920363,0.7423009,nan,nan,nan,nan,nan,nan,nan,nan,0
2065828000,2065828000,0.720016,0.70558494,0.74539864,0.7383098,nan,nan,nan,nan,nan,nan,nan,nan,0
2065928000,2065928000,0.71646714,0.70813936,0.74167335,0.73223346,nan,nan,nan,nan,nan,nan,nan,nan,0
2066028000,2066028000,0.71416956,0.7098446,0.7384362,0.7329399,nan,nan,nan,nan,nan,nan,nan,nan,0
2066128000,2066128000,0.7048726,0.70747775,0.7391255,0.7326439,nan,nan,nan,nan,nan,nan,nan,nan,0
2066228000,2066228000,0.70635694,0.7022114,0.74577224,0.74001235,nan,nan,nan,nan,nan,nan,nan,nan,0
2066328000,2066328000,0.7046228,0.7018052,0.7438207,0.7506345,nan,nan,nan,nan,nan,nan,nan,nan,0
2066424000,2066424000,0.71544826,0.6979079,0.75353795,0.75189453,nan,nan,nan,nan,nan,nan,nan,nan,0
2066528000,2066528000,0.709565,0.701002,0.75291824,0.75445896,nan,nan,nan,nan,nan,nan,nan,nan,0
2066628000,2066628000,0.7207916,0.6966409,0.7537048,0.75655276,nan,nan,nan,nan,nan,nan,nan,nan,0
2066728000,2066728000,0.71269184,0.7080243,0.7503032,0.75811,nan,nan,nan,nan,nan,nan,nan,nan,0
2066828000,2066828000,0.71910477,0.70602393,0.74800706,0.76113296,nan,nan,nan,nan,nan,nan,nan,nan,0
2066928000,2066928000,0.70610267,0.70520926,0.74638534,0.7503578,nan,nan,nan,nan,nan,nan,nan,nan,0
2067028000,2067028000,0.70859724,0.70398664,0.74486566,0.75302213,nan,nan,nan,nan,nan,nan,nan,nan,0
2067128000,2067128000,0.7082873,0.70278823,0.7477889,0.7439757,nan,nan,nan,nan,nan,nan,nan,nan,0
2067228000,2067228000,0.714353,0.7121952,0.73612726,0.74109185,nan,nan,nan,nan,nan,nan,nan,nan,0
2067328000,2067328000,0.72814643,0.719556,0.72062373,0.7259991,nan,nan,nan,nan,nan,nan,nan,nan,0
2067428000,2067428000,0.7369076,0.73016727,0.70784366,0.7218352,nan,nan,nan,nan,nan,nan,nan,nan,0
2067528000,2067528000,0.7401986,0.71997035,0.7008299,0.7101032,nan,nan,nan,nan,nan,nan,nan,nan,0
2067628000,2067628000,0.73218596,0.7136223,0.70420825,0.7061862,nan,nan,nan,nan,nan,nan,nan,nan,0
2067728000,2067728000,0.72036904,0.7080346,0.7010676,0.7181576,nan,nan,nan,nan,nan,nan,nan,nan,0
2067828000,2067828000,0.70519483,0.71626776,0.6962076,0.7422818,nan,nan,nan,nan,nan,nan,nan,nan,0
2067928000,2067928000,0.69691753,0.71952707,0.7021268,0.7439374,nan,nan,nan,nan,nan,nan,nan,nan,0
2068024000,2068024000,0.69479835,0.7233781,0.70274305,0.7388477,nan,nan,nan,nan,nan,nan,nan,nan,0
2068128000,2068128000,0.7027855,0.7195705,0.70651555,0.7257503,nan,nan,nan,nan,nan,nan,nan,nan,0
2068228000,2068228000,0.7101814,0.72405815,0.70128405,0.72506493,nan,nan,nan,nan,nan,nan,nan,nan,0
2068328000,2068328000,0.7077713,0.7308085,0.69985026,0.71509176,nan,nan,nan,nan,nan,nan,nan,nan,0
2068428000,2068428000,0.7115817,0.7267427,0.6938257,0.72082216,nan,nan,nan,nan,nan,nan,nan,nan,0
2068528000,2068528000,0.71172553,0.72187215,0.6992791,0.71565706,nan,nan,nan,nan,nan,nan,nan,nan,0
2068628000,2068628000,0.70155746,0.73082775,0.69521713,0.7228339,nan,nan,nan,nan,nan,nan,nan,nan,0
2068728000,2068728000,0.7065981,0.7248197,0.7019021,0.7146258,nan,nan,nan,nan,nan,nan,nan,nan,0
2068828000,2068828000,0.70655906,0.7277181,0.6994233,0.7216133,nan,nan,nan,nan,nan,nan,nan,nan,0
2068928000,2068928000,0.71210027,0.718399,0.70091194,0.7147664,nan,nan,nan,nan,nan,nan,nan,nan,0
2069028000,2069028000,0.71061534,0.725064,0.6980135,0.7161855,nan,nan,nan,nan,nan,nan,nan,nan,0
2069128000,2069128000,0.71703565,0.712468,0.7000304,0.70508784,nan,nan,nan,nan,nan,nan,nan,nan,0
2069228000,2069228000,0.7104476,0.7176206,0.7012156,0.70160896,nan,nan,nan,nan,nan,nan,nan,nan,0
2069328000,2069328000,0.71296793,0.7164509,0.7063552,0.694706,nan,nan,nan,nan,nan,nan,nan,nan,0
2069428000,2069428000,0.7092604,0.7228513,0.6948783,0.7075871,nan,nan,nan,nan,nan,nan,nan,nan,0
2069524000,2069524000,0.70941293,0.72500384,0.6814392,0.72075313,nan,nan,nan,nan,nan,nan,nan,nan,0
2069628000,2069628000,0.69520855,0.72980464,0.6825294,0.7227141,nan,nan,nan,nan,nan,nan,nan,nan,0
2069724000,2069724000,0.6928332,0.72405434,0.6916582,0.7181435,nan,nan,nan,nan,nan,nan,nan,nan,0
2069828000,2069828000,0.69395316,0.71435547,0.69914114,0.71364045,nan,nan,nan,nan,nan,nan,nan,nan,0
2069928000,2069928000,0.6929417,0.71123093,0.7011166,0.71577066,nan,nan,nan,nan,nan,nan,nan,nan,0
2070028000,2070028000,0.6942054,0.7084331,0.7017621,0.716986,nan,nan,nan,nan,nan,nan,nan,nan,0
2070128000,2070128000,0.689832,0.7148384,0.7072413,0.7152597,nan,nan,nan,nan,nan,nan,nan,nan,0
2070228000,2070228000,0.69298804,0.7155424,0.70599246,0.71419936,nan,nan,nan,nan,nan,nan,nan,nan,0
2070328000,2070328000,0.6972101,0.7144693,0.70206827,0.71434015,nan,nan,nan,nan,nan,nan,nan,nan,0
2070428000,2070428000,0.69698244,0.71834606,0.695709,0.71864414,nan,nan,nan,nan,nan,nan,nan,nan,0
2070528000,2070528000,0.69984496,0.7174643,0.7038049,0.7139619,nan,nan,nan,nan,nan,nan,nan,nan,0
2070628000,2070628000,0.7024049,0.71564144,0.7015568,0.71802115,nan,nan,nan,nan,nan,nan,nan,nan,0
2070728000,2070728000,0.7008812,0.718059,0.70033616,0.72065014,nan,nan,nan,nan,nan,nan,nan,nan,0
2070828000,2070828000,0.7007034,0.7151903,0.7021816,0.7170373,nan,nan,nan,nan,nan,nan,nan,nan,0
2070928000,2070928000,0.71006817,0.7053053,0.7085865,0.7106815,nan,nan,nan,nan,nan,nan,nan,nan,0
2071028000,2071028000,0.70334756,0.7116516,0.70924157,0.71303046,nan,nan,nan,nan,nan,nan,nan,nan,0
2071128000,2071128000,0.70479816,0.7130407,0.7085137,0.7145443,nan,nan,nan,nan,nan,nan,nan,nan,0
2071228000,2071228000,0.70695376,0.71089476,0.70613074,0.7147544,nan,nan,nan,nan,nan,nan,nan,nan,0
2071328000,2071328000,0.7004842,0.7159946,0.71012366,0.7087776,nan,nan,nan,nan,nan,nan,nan,nan,0
2071428000,2071428000,0.70615643,0.70835656,0.702643,0.7136734,nan,nan,nan,nan,nan,nan,nan,nan,0
2071528000,2071528000,0.71331364,0.70242065,0.7048177,0.708345,nan,nan,nan,nan,nan,nan,nan,nan,0
2071628000,2071628000,0.700822,0.7139338,0.6991195,0.7116175,nan,nan,nan,nan,nan,nan,nan,nan,0
2071728000,2071728000,0.7077214,0.70752007,0.70296615,0.71024305,nan,nan,nan,nan,nan,nan,nan,nan,0
2071828000,2071828000,0.70472944,0.7103432,0.7039431,0.71027327,nan,nan,nan,nan,nan,nan,nan,nan,0
2071928000,2071928000,0.70625097,0.7071075,0.707756,0.7067345,nan,nan,nan,nan,nan,nan,nan,nan,0
2072028000,2072028000,0.70533043,0.705574,0.70892656,0.7094575,nan,nan,nan,nan,nan,nan,nan,nan,0
2072128000,2072128000,0.70573616,0.70683944,0.7055488,0.71238214,nan,nan,nan,nan,nan,nan,nan,nan,0
2072228000,2072228000,0.70858014,0.71192956,0.7056604,0.70607215,nan,nan,nan,nan,nan,nan,nan,nan,0
2072324000,2072324000,0.71374625,0.71258235,0.70121384,0.70644337,nan,nan,nan,nan,nan,nan,nan,nan,0
2072428000,2072428000,0.7070012,0.717274,0.7049587,0.7029814,nan,nan,nan,nan,nan,nan,nan,nan,0
2072528000,2072528000,0.7100534,0.7095768,0.7059075,0.7051267,nan,nan,nan,nan,nan,nan,nan,nan,0
2072628000,2072628000,0.7059358,0.7090296,0.704808,0.7120006,nan,nan,nan,nan,nan,nan,nan,nan,0
2072728000,2072728000,0.7052535,0.7075155,0.7066566,0.7125392,nan,nan,nan,nan,nan,nan,nan,nan,0
2072828000,2072828000,0.7042732,0.7056171,0.70843494,0.70759153,nan,nan,nan,nan,nan,nan,nan,nan,0
2072928000,2072928000,0.70397186,0.7054737,0.70770353,0.70495486,nan,nan,nan,nan,nan,nan,nan,nan,0
2073028000,2073028000,0.7055565,0.705138,0.7057681,0.7079149,nan,nan,nan,nan,nan,nan,nan,nan,0
2073128000,2073128000,0.7070698,0.70510876,0.70531523,0.7081602,nan,nan,nan,nan,nan,nan,nan,nan,0
2073228000,2073228000,0.70596874,0.7069462,0.70419264,0.7090104,nan,nan,nan,nan,nan,nan,nan,nan,0
2073328000,2073328000,0.71104103,0.70315665,0.7039091,0.707676,nan,nan,nan,nan,nan,nan,nan,nan,0
2073428000,2073428000,0.7073498,0.70611274,0.7070764,0.7052632,nan,nan,nan,nan,nan,nan,nan,nan,0
2073528000,2073528000,0.7073973,0.70395434,0.70918536,0.70290595,nan,nan,nan,nan,nan,nan,nan,nan,0
2073628000,2073628000,0.7014254,0.7109888,0.7054263,0.70560676,nan,nan,nan,nan,nan,nan,nan,nan,0
2073728000,2073728000,0.7067025,0.7043717,0.70680505,0.7051062,nan,nan,nan,nan,nan,nan,nan,nan,0
2073828000,2073828000,0.70152247,0.7113546,0.70770544,0.70837766,nan,nan,nan,nan,nan,nan,nan,nan,0
2073928000,2073928000,0.70714,0.70617056,0.7091999,0.7030837,nan,nan,nan,nan,nan,nan,nan,nan,0
2074028000,2074028000,0.7208355,0.6915657,0.70372015,0.7101175,nan,nan,nan,nan,nan,nan,nan,nan,0
2074128000,2074128000,0.7093734,0.69876313,0.7100706,0.7162517,nan,nan,nan,nan,nan,nan,nan,nan,0
2074228000,2074228000,0.7029781,0.6978215,0.72047627,0.72168,nan,nan,nan,nan,nan,nan,nan,nan,0
2074328000,2074328000,0.70271736,0.69525033,0.7253188,0.7296748,nan,nan,nan,nan,nan,nan,nan,nan,0
2074428000,2074428000,0.6761426,0.70996445,0.73161685,0.71765286,nan,nan,nan,nan,nan,nan,nan,nan,0
2074528000,2074528000,0.6698498,0.7106514,0.7206793,0.72250134,nan,nan,nan,nan,nan,nan,nan,nan,0
2074628000,2074628000,0.6972821,0.6883454,0.71200913,0.7370149,nan,nan,nan,nan,nan,nan,nan,nan,0
2074728000,2074728000,0.6988582,0.69127494,0.7166298,0.74036545,nan,nan,nan,nan,nan,nan,nan,nan,0
2074828000,2074828000,0.7035048,0.69620115,0.7198002,0.7455747,nan,nan,nan,nan,nan,nan,nan,nan,0
2074928000,2074928000,0.7052823,0.70009923,0.7268992,0.7462245,nan,nan,nan,nan,nan,nan,nan,nan,0
2075028000,2075028000,0.70776415,0.704221,0.73946685,0.7467583,nan,nan,nan,nan,nan,nan,nan,nan,0
2075124000,2075124000,0.71422094,0.6995963,0.74892557,0.73619014,nan,nan,nan,nan,nan,nan,nan,nan,0
2075228000,2075228000,0.7176045,0.70627826,0.7441726,0.7367491,nan,nan,nan,nan,nan,nan,nan,nan,0
2075328000,2075328000,0.7094791,0.7134482,0.73992866,0.7339624,nan,nan,nan,nan,nan,nan,nan,nan,0
2075428000,2075428000,0.7163243,0.7138662,0.74641055,0.7348474,nan,nan,nan,nan,nan,nan,nan,nan,0
2075528000,2075528000,0.71323556,0.7152632,0.7428269,0.74083596,nan,nan,nan,nan,nan,nan,nan,nan,0
2075624000,2075624000,0.7157004,0.71618754,0.7430381,0.749877,nan,nan,nan,nan,nan,nan,nan,nan,0
2075728000,2075728000,0.7187009,0.71336025,0.7458775,0.7559164,nan,nan,nan,nan,nan,nan,nan,nan,0
2075828000,2075828000,0.7130036,0.7158228,0.74888355,0.755401,nan,nan,nan,nan,nan,nan,nan,nan,0
2075928000,2075928000,0.71051615,0.7105711,0.7501922,0.7395846,nan,nan,nan,nan,nan,nan,nan,nan,0
2076028000,2076028000,0.7082329,0.72247547,0.7373797,0.74252045,nan,nan,nan,nan,nan,nan,nan,nan,0
2076128000,2076128000,0.7237974,0.72487754,0.72272426,0.73704046,nan,nan,nan,nan,nan,nan,nan,nan,0
2076228000,2076228000,0.73576283,0.7252416,0.71453303,0.717944,nan,nan,nan,nan,nan,nan,nan,nan,0
2076328000,2076328000,0.73669267,0.7219291,0.7059169,0.7071512,nan,nan,nan,nan,nan,nan,nan,nan,0
2076428000,2076428000,0.7284448,0.7233628,0.6963347,0.7139487,nan,nan,nan,nan,nan,nan,nan,nan,0
2076528000,2076528000,0.7204738,0.71819866,0.70308757,0.71583945,nan,nan,nan,nan,nan,nan,nan,nan,0
2076628000,2076628000,0.70821154,0.7168951,0.70728135,0.7210449,nan,nan,nan,nan,nan,nan,nan,nan,0
2076728000,2076728000,0.69676065,0.72037655,0.7052442,0.72918373,nan,nan,nan,nan,nan,nan,nan,nan,0
2076828000,2076828000,0.69898045,0.72037256,0.7022308,0.73002493,nan,nan,nan,nan,nan,nan,nan,nan,0
2076928000,2076928000,0.701462,0.72351354,0.7024461,0.72028255,nan,nan,nan,nan,nan,nan,nan,nan,0
2077028000,2077028000,0.7069268,0.72589505,0.698079,0.7181902,nan,nan,nan,nan,nan,nan,nan,nan,0
2077128000,2077128000,0.71367645,0.72080785,0.6950209,0.7176036,nan,nan,nan,nan,nan,nan,nan,nan,0
2077228000,2077228000,0.71692425,0.72185236,0.69875467,0.7178478,nan,nan,nan,nan,nan,nan,nan,nan,0
2077328000,2077328000,0.7196294,0.72985035,0.70429,0.7271433,nan,nan,nan,nan,nan,nan,nan,nan,0
2077428000,2077428000,0.7168048,0.74007004,0.7038668,0.7407207,nan,nan,nan,nan,nan,nan,nan,nan,0
2077528000,2077528000,0.71694344,0.7422966,0.69676656,0.73844194,nan,nan,nan,nan,nan,nan,nan,nan,0
2077624000,2077624000,0.7165271,0.7497659,0.6998835,0.7336712,nan,nan,nan,nan,nan,nan,nan,nan,0
2077728000,2077728000,0.7264226,0.7466249,0.7140225,0.7223643,nan,nan,nan,nan,nan,nan,nan,nan,0
2077828000,2077828000,0.7286293,0.74453276,0.7151833,0.7206326,nan,nan,nan,nan,nan,nan,nan,nan,0
2077928000,2077928000,0.7245827,0.7418994,0.7126109,0.7180676,nan,nan,nan,nan,nan,nan,nan,nan,0
2078028000,2078028000,0.72884285,0.73346746,0.707571,0.71621346,nan,nan,nan,nan,nan,nan,nan,nan,0
2078128000,2078128000,0.72786677,0.72885865,0.7148295,0.7047175,nan,nan,nan,nan,nan,nan,nan,nan,0
2078224000,2078224000,0.71875054,0.73156667,0.7134791,0.7062839,nan,nan,nan,nan,nan,nan,nan,nan,0
2078328000,2078328000,0.70278025,0.7167816,0.7170338,0.7158902,nan,nan,nan,nan,nan,nan,nan,nan,0
2078428000,2078428000,0.6952476,0.6975602,0.7229486,0.722911,nan,nan,nan,nan,nan,nan,nan,nan,0
2078528000,2078528000,0.6961513,0.69401264,0.7229664,0.7208469,nan,nan,nan,nan,nan,nan,nan,nan,0
2078628000,2078628000,0.7035412,0.6949834,0.7186133,0.71188134,nan,nan,nan,nan,nan,nan,nan,nan,0
2078728000,2078728000,0.7104758,0.6994988,0.7088517,0.70616376,nan,nan,nan,nan,nan,nan,nan,nan,0
2078828000,2078828000,0.7108841,0.70727897,0.7006957,0.70345503,nan,nan,nan,nan,nan,nan,nan,nan,0
2078928000,2078928000,0.7135682,0.71078914,0.70220673,0.6984815,nan,nan,nan,nan,nan,nan,nan,nan,0
2079028000,2079028000,0.7166854,0.7052585,0.7041174,0.7011379,nan,nan,nan,nan,nan,nan,nan,nan,0
2079128000,2079128000,0.71178335,0.7046095,0.7008286,0.7090217,nan,nan,nan,nan,nan,nan,nan,nan,0
2079228000,2079228000,0.7041184,0.7078743,0.70363855,0.70876825,nan,nan,nan,nan,nan,nan,nan,nan,0
2079328000,2079328000,0.7062387,0.7034628,0.70621336,0.708653,nan,nan,nan,nan,nan,nan,nan,nan,0
2079428000,2079428000,0.70218563,0.70627105,0.70552963,0.7113227,nan,nan,nan,nan,nan,nan,nan,nan,0
2079528000,2079528000,0.7087092,0.6989035,0.7078026,0.70590883,nan,nan,nan,nan,nan,nan,nan,nan,0
2079628000,2079628000,0.7025427,0.70700717,0.704989,0.70629025,nan,nan,nan,nan,nan,nan,nan,nan,0
2079728000,2079728000,0.7078751,0.7021909,0.70830613,0.7010652,nan,nan,nan,nan,nan,nan,nan,nan,0
2079828000,2079828000,0.70980924,0.70098823,0.7072312,0.7023806,nan,nan,nan,nan,nan,nan,nan,nan,0
2079928000,2079928000,0.7029634,0.71047217,0.7038551,0.7045534,nan,nan,nan,nan,nan,nan,nan,nan,0
2080028000,2080028000,0.70772433,0.7035794,0.7045723,0.7053362,nan,nan,nan,nan,nan,nan,nan,nan,0
2080128000,2080128000,0.7074652,0.70363873,0.7036345,0.7061432,nan,nan,nan,nan,nan,nan,nan,nan,0
2080228000,2080228000,0.704143,0.7071712,0.70529914,0.707624,nan,nan,nan,nan,nan,nan,nan,nan,0
2080328000,2080328000,0.71242124,0.70136625,0.71030325,0.7045049,nan,nan,nan,nan,nan,nan,nan,nan,0
2080428000,2080428000,0.70558697,0.70528513,0.7066394,0.7050493,nan,nan,nan,nan,nan,nan,nan,nan,0
2080528000,2080528000,0.7079599,0.7039863,0.70349836,0.70869315,nan,nan,nan,nan,nan,nan,nan,nan,0
2080628000,2080628000,0.7095305,0.70336974,0.7073196,0.70481455,nan,nan,nan,nan,nan,nan,nan,nan,0
2080728000,2080728000,0.71156394,0.7039912,0.7070775,0.7064687,nan,nan,nan,nan,nan,nan,nan,nan,0
2080828000,2080828000,0.70842147,0.70746326,0.70555305,0.70757055,nan,nan,nan,nan,nan,nan,nan,nan,0
2080928000,2080928000,0.7090567,0.70558566,0.7050341,0.70838374,nan,nan,nan,nan,nan,nan,nan,nan,0
2081028000,2081028000,0.7084829,0.70507485,0.71298075,0.7018199,nan,nan,nan,nan,nan,nan,nan,nan,0
2081128000,2081128000,0.70678204,0.70566857,0.7112762,0.70587903,nan,nan,nan,nan,nan,nan,nan,nan,0
2081228000,2081228000,0.7112897,0.70207363,0.7064166,0.70882785,nan,nan,nan,nan,nan,nan,nan,nan,0
2081328000,2081328000,0.7101356,0.7019745,0.70525,0.7093346,nan,nan,nan,nan,nan,nan,nan,nan,0
2081428000,2081428000,0.7085763,0.70269924,0.70932335,0.701105,nan,nan,nan,nan,nan,nan,nan,nan,0
2081528000,2081528000,0.70295656,0.7093221,0.7039053,0.70651776,nan,nan,nan,nan,nan,nan,nan,nan,0
2081628000,2081628000,0.7067814,0.70516336,0.7056402,0.70527005,nan,nan,nan,nan,nan,nan,nan,nan,0
2081728000,2081728000,0.70102596,0.70017445,0.702084,0.70238346,nan,nan,nan,nan,nan,nan,nan,nan,0
2081828000,2081828000,0.67435086,0.66892755,0.6702512,0.67274207,nan,nan,nan,nan,nan,nan,nan,nan,0
2081928000,2081928000,0.6585629,0.6488379,0.65446126,0.65553665,nan,nan,nan,nan,nan,nan,nan,nan,0
2082028000,2082028000,0.63559914,0.6304271,0.6350297,0.63220996,nan,nan,nan,nan,nan,nan,nan,nan,0
2082128000,2082128000,0.6242985,0.62385404,0.6213742,0.62866485,nan,nan,nan,nan,nan,nan,nan,nan,0
2082228000,2082228000,0.6677852,0.65278494,0.6636855,0.6553885,nan,nan,nan,nan,nan,nan,nan,nan,0
2082328000,2082328000,0.7077944,0.6988644,0.702914,0.69899565,nan,nan,nan,nan,nan,nan,nan,nan,0
2082428000,2082428000,0.73042166,0.7255685,0.72369546,0.72994566,nan,nan,nan,nan,nan,nan,nan,nan,0
2082528000,2082528000,0.7432259,0.7461814,0.7412777,0.7473159,nan,nan,nan,nan,nan,nan,nan,nan,0
2082628000,2082628000,0.7334131,0.7381763,0.7362414,0.7371956,nan,nan,nan,nan,nan,nan,nan,nan,0
2082728000,2082728000,0.72731483,0.7170217,0.7286702,0.71953064,nan,nan,nan,nan,nan,nan,nan,nan,0
2082828000,2082828000,0.724832,0.7080389,0.7237335,0.70742047,nan,nan,nan,nan,nan,nan,nan,nan,0
2082928000,2082928000,0.7218994,0.7115696,0.71948147,0.71211964,nan,nan,nan,nan,nan,nan,nan,nan,0
2083028000,2083028000,0.71723,0.7155255,0.7157376,0.7149171,nan,nan,nan,nan,nan,nan,nan,nan,0
2083128000,2083128000,0.715287,0.7199693,0.7194727,0.7146579,nan,nan,nan,nan,nan,nan,nan,nan,0
2083228000,2083228000,0.7189449,0.71446556,0.7182549,0.71420175,nan,nan,nan,nan,nan,nan,nan,nan,0
2083324000,2083324000,0.7202732,0.7105653,0.7215331,0.7105088,nan,nan,nan,nan,nan,nan,nan,nan,0
2083428000,2083428000,0.71679914,0.7167532,0.71945405,0.7152707,nan,nan,nan,nan,nan,nan,nan,nan,0
2083528000,2083528000,0.7170638,0.71905327,0.7221769,0.715353,nan,nan,nan,nan,nan,nan,nan,nan,0
2083628000,2083628000,0.71671087,0.7142574,0.7170543,0.71342,nan,nan,nan,nan,nan,nan,nan,nan,0
2083728000,2083728000,0.7155876,0.7189969,0.71698934,0.7200795,nan,nan,nan,nan,nan,nan,nan,nan,0
2083828000,2083828000,0.7217319,0.7130873,0.7185243,0.7143182,nan,nan,nan,nan,nan,nan,nan,nan,0
2083928000,2083928000,0.71963584,0.71826494,0.71831954,0.7196797,nan,nan,nan,nan,nan,nan,nan,nan,0
2084028000,2084028000,0.7185798,0.7158614,0.7163358,0.7172283,nan,nan,nan,nan,nan,nan,nan,nan,0
2084128000,2084128000,0.71846056,0.7188825,0.7209325,0.71656376,nan,nan,nan,nan,nan,nan,nan,nan,0
2084228000,2084228000,0.72137505,0.712333,0.7198382,0.713723,nan,nan,nan,nan,nan,nan,nan,nan,0
2084328000,2084328000,0.71903485,0.7184325,0.7249633,0.71508944,nan,nan,nan,nan,nan,nan,nan,nan,0
2084428000,2084428000,0.71763766,0.7162078,0.71637493,0.7179847,nan,nan,nan,nan,nan,nan,nan,nan,0
2084528000,2084528000,0.72194296,0.715968,0.72233635,0.71525836,nan,nan,nan,nan,nan,nan,nan,nan,0
2084628000,2084628000,0.72291404,0.7134705,0.7180639,0.7174526,nan,nan,nan,nan,nan,nan,nan,nan,0
2084728000,2084728000,0.7212798,0.7178257,0.72258157,0.71913654,nan,nan,nan,nan,nan,nan,nan,nan,0
2084828000,2084828000,0.722091,0.7122407,0.71728355,0.71868956,nan,nan,nan,nan,nan,nan,nan,nan,0
2084928000,2084928000,0.72205275,0.7164098,0.72074354,0.71784717,nan,nan,nan,nan,nan,nan,nan,nan,0
2085028000,2085028000,0.7152498,0.71948355,0.72055787,0.71438634,nan,nan,nan,nan,nan,nan,nan,nan,0
2085128000,2085128000,0.7202904,0.71888506,0.72110254,0.7164629,nan,nan,nan,nan,nan,nan,nan,nan,0
2085224000,2085224000,0.7193923,0.71680844,0.71529853,0.7181134,nan,nan,nan,nan,nan,nan,nan,nan,0
2085328000,2085328000,0.72286594,0.71933544,0.71833944,0.72074294,nan,nan,nan,nan,nan,nan,nan,nan,0
2085428000,2085428000,0.71925884,0.71725565,0.7203415,0.71746236,nan,nan,nan,nan,nan,nan,nan,nan,0
2085528000,2085528000,0.72311014,0.71480477,0.721733,0.7193566,nan,nan,nan,nan,nan,nan,nan,nan,0
2085628000,2085628000,0.7201837,0.71663845,0.71869296,0.7200502,nan,nan,nan,nan,nan,nan,nan,nan,0
2085728000,2085728000,0.7230387,0.7192526,0.7231624,0.7182722,nan,nan,nan,nan,nan,nan,nan,nan,0
2085828000,2085828000,0.7188825,0.71797997,0.72331434,0.71539897,nan,nan,nan,nan,nan,nan,nan,nan,0
2085928000,2085928000,0.7186345,0.72226715,0.7193934,0.7216661,nan,nan,nan,nan,nan,nan,nan,nan,0
2086028000,2086028000,0.7196164,0.71829724,0.71928084,0.715181,nan,nan,nan,nan,nan,nan,nan,nan,0
2086128000,2086128000,0.7222666,0.71621037,0.7220025,0.71574193,nan,nan,nan,nan,nan,nan,nan,nan,0
2086228000,2086228000,0.51890373,0.46547115,0.46771184,0.51622576,nan,nan,nan,nan,nan,nan,nan,nan,0
2086328000,2086328000,0.47140634,0.4508018,0.45369732,0.47029895,nan,nan,nan,nan,nan,nan,nan,nan,0
2086428000,2086428000,0.43529993,0.41790023,0.4179307,0.43746334,nan,nan,nan,nan,nan,nan,nan,nan,0
2086528000,2086528000,0.40281168,0.38292643,0.37917775,0.40947086,nan,nan,nan,nan,nan,nan,nan,nan,0
2086628000,2086628000,0.3735283,0.34339148,0.3487889,0.36766025,nan,nan,nan,nan,nan,nan,nan,nan,0
2086724000,2086724000,0.12775125,0.11323778,0.11413392,0.124877006,nan,nan,nan,nan,nan,nan,nan,nan,0
2086828000,2086828000,0.13125455,0.10908921,0.1116405,0.1280157,nan,nan,nan,nan,nan,nan,nan,nan,0
2086924000,2086924000,0.12743889,0.11234177,0.11371519,0.1265041,nan,nan,nan,nan,nan,nan,nan,nan,0
2087028000,2087028000,0.12539278,0.11490919,0.11073819,0.1289598,nan,nan,nan,nan,nan,nan,nan,nan,0
2087128000,2087128000,0.12982129,0.110620655,0.11285814,0.1266999,nan,nan,nan,nan,nan,nan,nan,nan,0
2087228000,2087228000,0.13020487,0.10951989,0.113302186,0.126973,nan,nan,nan,nan,nan,nan,nan,nan,0
2087328000,2087328000,0.12632066,0.11247794,0.11294612,0.12825525,nan,nan,nan,nan,nan,nan,nan,nan,0
2087428000,2087428000,0.0006895999,0.0011176041,8.358224e-05,0.0021092144,nan,nan,nan,nan,nan,nan,nan,nan,0
2087528000,2087528000,0.0020000013,0.0,0.0019999994,0.0,nan,nan,nan,nan,nan,nan,nan,nan,0
2087628000,2087628000,0.001999999,0.0,0.0019999999,0.0,nan,nan,nan,nan,nan,nan,nan,nan,0
2087728000,2087728000,0.0021940193,0.0002535181,0.0015524623,0.0,nan,nan,nan,nan,nan,nan,nan,nan,0
2087828000,2087828000,0.0020000003,0.0,0.0019999994,0.0,nan,nan,nan,nan,nan,nan,nan,nan,0
2087928000,2087928000,0.0002555269,0.0016877735,2.4580479e-05,0.0020321188,nan,nan,nan,nan,nan,nan,nan,nan,0
2088028000,2088028000,0.0,0.0020000003,0.0,0.0020000003,nan,nan,nan,nan,nan,nan,nan,nan,0
2088128000,2088128000,0.0,0.0020000003,0.0,0.0020000003,nan,nan,nan,nan,nan,nan,nan,nan,0
2088228000,2088228000,0.0,0.0020000003,0.0,0.0020000003,nan,nan,nan,nan,nan,nan,nan,nan,0
2088328000,2088328000,0.0,0.0020000003,0.0,0.0020000003,nan,nan,nan,nan,nan,nan,nan,nan,0
2088428000,2088428000,0.0019999994,0.0,0.0020000013,0.0,nan,nan,nan,nan,nan,nan,nan,nan,0
2088528000,2088528000,0.0015722523,0.00028852728,6.0356244e-05,0.002078865,nan,nan,nan,nan,nan,nan,nan,nan,0
2088628000,2088628000,0.0,0.0020000003,0.0,0.0020000003,nan,nan,nan,nan,nan,nan,nan,nan,0
2088728000,2088728000,0.0020000008,0.0,0.0001022215,0.0018977785,nan,nan,nan,nan,nan,nan,nan,nan,0
2088828000,2088828000,0.00028091864,0.0016904457,1.241443e-05,0.0020162219,nan,nan,nan,nan,nan,nan,nan,nan,0
2088928000,2088928000,0.0020840187,0.00010978395,0.00018275343,0.0016234446,nan,nan,nan,nan,nan,nan,nan,nan,0
2089028000,2089028000,0.0020000003,0.0,0.0020000003,0.0,nan,nan,nan,nan,nan,nan,nan,nan,0
2089128000,2089128000,0.0020599,7.826895e-05,0.00177632,8.551157e-05,nan,nan,nan,nan,nan,nan,nan,nan,0
2089228000,2089228000,0.0020000003,0.0,0.0012371521,0.0007628482,nan,nan,nan,nan,nan,nan,nan,nan,0
2089328000,2089328000,0.0020000006,0.0,0.0019999999,0.0,nan,nan,nan,nan,nan,nan,nan,nan,0
2089424000,2089424000,0.0019999999,0.0,0.0002404591,0.001759541,nan,nan,nan,nan,nan,nan,nan,nan,0
2089528000,2089528000,0.0019999999,0.0,0.0019999999,0.0,nan,nan,nan,nan,nan,nan,nan,nan,0
2089628000,2089628000,0.0019999996,0.0,0.0020000006,0.0,nan,nan,nan,nan,nan,nan,nan,nan,0
2089728000,2089728000,0.0012088413,0.00044227217,0.0001512514,0.002197635,nan,nan,nan,nan,nan,nan,nan,nan,0
2089828000,2089828000,0.0019999996,0.0,0.0019999999,0.0,nan,nan,nan,nan,nan,nan,nan,nan,0
2089928000,2089928000,0.0026896852,0.0009011887,7.474079e-05,0.00033438462,nan,nan,nan,nan,nan,nan,nan,nan,0
2090028000,2090028000,0.0,0.0019999999,0.0,0.0019999999,nan,nan,nan,nan,nan,nan,nan,nan,0
2090128000,2090128000,6.533963e-05,0.0015904747,0.00024302756,0.0021011578,nan,nan,nan,nan,nan,nan,nan,nan,0
2090228000,2090228000,0.0,0.0019999999,0.0,0.0020000003,nan,nan,nan,nan,nan,nan,nan,nan,0
2090328000,2090328000,0.0,0.0019999999,0.0,0.0020000003,nan,nan,nan,nan,nan,nan,nan,nan,0
