timestamp,timestamp_sample,time_last_fuse,device_id,observation[0],observation[1],observation[2],observation_variance[0],observation_variance[1],observation_variance[2],innovation[0],innovation[1],innovation[2],innovation_filtered[0],innovation_filtered[1],innovation_filtered[2],innovation_variance[0],innovation_variance[1],innovation_variance[2],test_ratio[0],test_ratio[1],test_ratio[2],test_ratio_filtered[0],test_ratio_filtered[1],test_ratio_filtered[2],estimator_instance,innovation_rejected,fused
2043256000,2043102000,2043104000,0,0.02,0.0,-0.049999997,0.09,0.09,0.20250002,-0.028303131,-0.042029344,0.04226198,-0.030459892,-0.043569144,0.0045640115,0.10535754,0.105563894,0.20783395,0.00030413287,0.0006693446,0.0003437504,-0.0003612193,-0.00074010616,4.3014064e-05,0,0,1
2043656000,2043502000,2043504000,0,-0.01,-0.02,0.02,0.09,0.09,0.20250002,0.018656652,-0.026027836,-0.032373305,-0.008630315,-0.035773005,-0.0118525755,0.10535679,0.105570145,0.20782946,0.0001321493,0.00025668176,0.00020170979,-0.00014194436,-0.00052525086,-6.575211e-05,0,0,1
2044056000,2043902000,2043904000,0,-0.02,0.01,0.01,0.09,0.09,0.20250002,0.03297186,-0.056939594,-0.023262177,0.009859541,-0.04518038,-0.01692351,0.10535424,0.105571605,0.20782584,0.00041275733,0.001228405,0.00010415045,0.00010458974,-0.0008377639,-8.281804e-05,0,0,1
2044456000,2044302000,2044304000,0,0.0,0.0,-0.03,0.09,0.09,0.20250002,0.018292967,-0.048152354,0.012538357,0.013607731,-0.046501257,-0.003829346,0.105363846,0.10558082,0.20782246,0.00012703889,0.0008784357,3.0258596e-05,0.00011456714,-0.0008558402,-3.2561755e-05,0,0,1
2044856000,2044698000,2044704000,0,0.02,0.0,0.0,0.09,0.09,0.20250002,0.0054572113,-0.046314925,-0.011138275,0.010005493,-0.046418905,-0.007059632,0.10535549,0.10557602,0.20781901,1.1306921e-05,0.0008127119,2.3878694e-05,6.892982e-05,-0.000836779,-2.8724153e-05,0,0,1
2045256000,2045102000,2045104000,0,0.0,-0.01,0.07,0.09,0.09,0.20250002,0.034826897,-0.029846998,-0.0894066,0.021098245,-0.039012875,-0.04386071,0.10535792,0.105581805,0.20783308,0.00046049227,0.0003374988,0.001538454,0.00024392012,-0.0006136494,-0.00070342637,0,0,1
2045656000,2045502000,2045504000,0,0.0,0.01,0.049999997,0.09,0.09,0.20250002,0.030273715,-0.05377636,-0.06565806,0.02517623,-0.045574427,-0.053548425,0.10536394,0.10558218,0.20782797,0.00034793606,0.0010956004,0.0008297211,0.00029014942,-0.00082784984,-0.00075955736,0,0,1
2046056000,2045902000,2045904000,0,0.01,0.0,0.0,0.09,0.09,0.20250002,0.020578295,-0.03523685,-0.009632096,0.023132704,-0.040979948,-0.034030057,0.10536117,0.10557967,0.2078226,0.00016076746,0.00047040713,1.7857012e-05,0.00023264633,-0.0006689864,-0.00042991273,0,0,1
2046456000,2046298000,2046304000,0,0.0,0.0,0.01,0.09,0.09,0.20250002,0.035138465,-0.038700014,-0.018447679,0.028438821,-0.039972298,-0.027143203,0.10536484,0.105583206,0.20781928,0.00046873768,0.00056739745,6.5502456e-05,0.00033699028,-0.0006240877,-0.0002688564,0,0,1
2046856000,2046702000,2046704000,0,0.0,0.01,0.0,0.09,0.09,0.20250002,0.03770719,-0.049527295,0.0010794476,0.03258088,-0.044242453,-0.014530426,0.10537801,0.10558911,0.20783424,0.00053970737,0.00092924474,2.24257e-07,0.0004275851,-0.0007604632,-0.00014860356,0,0,1
2047256000,2047102000,2047104000,0,0.0,0.0,-0.01,0.09,0.09,0.20250002,0.040147513,-0.033294987,0.011432024,0.03594383,-0.03937691,-0.002991559,0.105393074,0.105599836,0.20783,0.00061173766,0.00041990832,2.5153477e-05,0.00050943065,-0.00060910545,-7.137821e-05,0,0,1
2047656000,2047498000,2047504000,0,0.01,0.02,0.01,0.09,0.09,0.20250002,0.031813033,-0.0479343,-0.014052058,0.034118164,-0.04315897,-0.007879904,0.10542688,0.10562201,0.20784284,0.000383989,0.0008701585,3.800185e-05,0.00045398992,-0.00072448154,-5.662705e-05,0,0,1
2048056000,2047902000,2047904000,0,0.03,0.0,0.0,0.09,0.09,0.20250002,0.008358406,-0.023459146,-0.0042529926,0.02260606,-0.034355067,-0.0062590274,0.10545018,0.10563521,0.20783687,2.6500837e-05,0.00020838944,3.481181e-06,0.0002629439,-0.0004938386,-3.287602e-05,0,0,1
2048456000,2048298000,2048304000,0,-0.01,-0.01,-0.089999996,0.09,0.09,0.20250002,-0.016730793,0.0018241098,-0.04900483,0.005220577,-0.018365163,-0.025151145,0.10557056,0.10572539,0.20783013,0.00010605965,1.258875e-06,0.0004621993,9.985753e-05,-0.00027502322,-0.00022262157,0,0,1
2048856000,2048698000,2048704000,0,-0.21,0.06,-0.35999998,0.09,0.09,0.20250002,0.02005437,-0.016922839,-0.13388145,0.011813374,-0.01772413,-0.073475726,0.105836004,0.10593883,0.20784181,0.00015200037,0.000108131266,0.003449593,0.00012303212,-0.00020084901,-0.0016568312,0,0,1
2049256000,2049102000,2049104000,0,-0.22,0.04,-0.69,0.09,0.09,0.20250002,0.058571026,-0.013567666,-0.02673775,0.032709494,-0.015866596,-0.052588403,0.10597403,0.106076516,0.20783511,0.00129487,6.941463e-05,0.00013759124,0.0006467296,-0.00014211064,-0.0009778789,0,0,1
2049656000,2049502000,2049504000,0,-0.11,0.0,-0.74,0.09,0.09,0.20250002,0.04472015,0.0035287223,-0.024755001,0.038047563,-0.0072464542,-0.040218003,0.105949685,0.10607864,0.20782845,0.00075503456,4.6953396e-06,0.00011794537,0.0006948651,-7.686354e-05,-0.0005956862,0,0,1
2050056000,2049902000,2049904000,0,-0.02,-0.03,-0.83,0.09,0.09,0.20250002,0.054217983,0.004357159,0.04178804,0.045234416,-0.0020892923,-0.0037708692,0.105921276,0.1060743,0.20782267,0.0011101036,7.1590707e-06,0.000336102,0.00087941554,-3.9520153e-05,-0.00018155808,0,0,1
2050456000,2050302000,2050304000,0,0.03,-0.06,-0.79999995,0.09,0.09,0.20250002,0.065635614,0.015764818,0.013637245,0.054301616,0.0058458685,0.0039660707,0.10586856,0.10603456,0.20781898,0.0016276914,9.375414e-05,3.5795467e-05,0.0012119827,1.9712872e-05,-8.495649e-05,0,0,1
2050856000,2050702000,2050704000,0,0.099999994,-0.04,-0.75,0.09,0.09,0.20250002,0.013827264,-0.0046126395,-0.0001975298,0.036313012,0.0011976422,0.0021155814,0.10582973,0.10597604,0.20783354,7.226447e-05,8.030663e-06,7.509475e-09,0.0007054412,7.3824112e-06,-4.7201385e-05,0,0,1
2051256000,2051102000,2051104000,0,0.14,-0.04,-0.74,0.09,0.09,0.20250002,-0.009274989,0.007661529,0.044291735,0.016051676,0.004070481,0.02086054,0.10582898,0.1059578,0.20782933,3.2514887e-05,2.2159398e-05,0.00037757092,0.0003774607,1.3949962e-05,0.00014158632,0,0,1
2051656000,2051502000,2051504000,0,0.13,-0.04,-0.65,0.09,0.09,0.20250002,-0.0075650886,0.014849735,0.031420708,0.0055553354,0.0088612605,0.02555395,0.1058237,0.10586973,0.20782518,2.1632417e-05,8.331546e-05,0.00019001756,0.00020008597,4.4779074e-05,0.00016311131,0,0,1
2052056000,2051902000,2051904000,0,0.11,-0.02,-0.53,0.09,0.09,0.20250002,-0.012097269,0.00070259906,0.120594054,-0.0022902675,0.0052351886,0.067793995,0.10573219,0.10571204,0.20783821,5.5364006e-05,1.8678871e-07,0.0027988937,8.655264e-05,2.4960278e-05,0.0013345701,0,0,1
2052456000,2052302000,2052304000,0,0.07,-0.01,-0.16,0.09,0.09,0.20250002,-0.0046823174,0.009503684,-0.010486335,-0.0033534009,0.007132298,0.033002734,0.10566629,0.105627015,0.20783234,8.299372e-06,3.4203378e-05,2.116383e-05,4.4396187e-05,2.9068324e-05,0.00073202164,0,0,1
2052856000,2052702000,2052704000,0,0.03,0.0,-0.19999999,0.09,0.09,0.20250002,0.005847024,0.0068797977,-0.016119763,0.0007356771,0.0070200753,0.011170512,0.10579847,0.10580382,0.20784406,1.29255895e-05,1.7894106e-05,5.0008024e-05,3.0409254e-05,2.4102004e-05,0.00038445287,0,0,1
2053256000,2053098000,2053104000,0,0.01,-0.01,-0.16,0.09,0.09,0.20250002,-0.0016236426,0.019287094,-0.01570417,-0.00030705798,0.012441659,-0.0007071374,0.105835244,0.10590534,0.20781995,9.963469e-07,0.0001404998,4.746819e-05,1.65291e-05,7.554567e-05,0.00019355919,0,0,1
2053656000,2053502000,2053504000,0,0.01,0.0,-0.14999999,0.09,0.09,0.20250002,-0.01504438,0.015140478,0.008948192,-0.006893206,0.013647769,0.0036078547,0.105882615,0.10593659,0.20783378,8.55035e-05,8.655521e-05,1.5410418e-05,-2.9069537e-05,8.046586e-05,0.000113944036,0,0,1
2054056000,2053902000,2053904000,0,0.0,0.0,-0.13,0.09,0.09,0.20250002,-0.010666844,0.012207872,0.016621009,-0.008570379,0.013007815,0.009391479,0.10590192,0.105933934,0.20782863,4.2976208e-05,5.627362e-05,5.3170334e-05,-3.525028e-05,6.971376e-05,8.69335e-05,0,0,1
2054456000,2054302000,2054304000,0,-0.01,0.0,-0.13,0.09,0.09,0.20250002,-0.007679304,0.012474966,0.040611073,-0.008174346,0.012770994,0.023266856,0.105924815,0.10593556,0.20782414,2.2269272e-05,5.876206e-05,0.00031743362,-2.9480943e-05,6.484634e-05,0.00018937801,0,0,1
2054856000,2054702000,2054704000,0,-0.03,0.0,-0.099999994,0.09,0.09,0.20250002,0.008532116,0.015099968,0.032167397,-0.0007492504,0.0138060935,0.027222652,0.10594496,0.10592324,0.20783705,2.7484839e-05,8.610349e-05,0.00019914475,-4.1628155e-06,7.429397e-05,0.00019371879,0,0,1
2055256000,2055102000,2055104000,0,-0.03,0.0,-0.04,0.09,0.09,0.20250002,0.007274825,0.018727547,-0.014641151,0.0028170059,0.015993405,0.008616516,0.10596345,0.105908304,0.20783195,1.9977862e-05,0.00013246213,4.1257044e-05,6.5663753e-06,0.000100146484,8.928508e-05,0,0,1
2055656000,2055502000,2055504000,0,-0.01,0.01,-0.049999997,0.09,0.09,0.20250002,-0.0015231781,0.012297861,0.011442892,0.00088803505,0.014350941,0.009872683,0.105971746,0.10589404,0.20782663,8.7573204e-07,5.7127818e-05,2.5201733e-05,3.2587718e-06,8.102707e-05,6.080359e-05,0,0,1
2056056000,2055902000,2055904000,0,-0.049999997,0.0,-0.02,0.09,0.09,0.20250002,0.043894425,0.025896678,-0.0075053237,0.020001987,0.01948238,0.0021491246,0.10597473,0.10591147,0.20783891,0.0007272378,0.00025328246,1.0841066e-05,0.00032502727,0.00015758502,2.896152e-05,0,0,1
2056456000,2056302000,2056304000,0,-0.04,0.01,-0.06,0.09,0.09,0.20250002,0.029817052,0.009478763,0.03757627,0.024364239,0.015036328,0.017894525,0.105969205,0.10593532,0.20783232,0.00033559054,3.392521e-05,0.00027175294,0.00032972207,0.0001026251,0.00013686882,0,0,1
2056856000,2056702000,2056704000,0,-0.03,-0.01,-0.07,0.09,0.09,0.20250002,0.025643725,0.02951541,0.051521964,0.024932899,0.021471476,0.032840054,0.105963275,0.10597472,0.20784357,0.0002482372,0.0003288178,0.00051086745,0.00029350657,0.0002031552,0.00030309043,0,0,1
2057256000,2057102000,2057104000,0,-0.01,0.02,0.0,0.09,0.09,0.20250002,0.02163924,-0.0023754481,-0.009147234,0.023469051,0.010872843,0.014179036,0.10595063,0.106049865,0.20783693,0.000176783,2.12834e-06,1.6103375e-05,0.00024162943,0.00011191807,0.0001612265,0,0,1
2057656000,2057502000,2057504000,0,-0.01,0.02,0.03,0.09,0.09,0.20250002,-0.05697789,0.09619573,-0.060828865,-0.012285149,0.048794128,-0.019157812,0.10619791,0.105938315,0.20783128,0.0012228037,0.0034939644,0.0007121451,-0.00040922977,0.00161505,-0.00022693868,0,0,1
2058056000,2057902000,2057904000,0,-0.47,0.44,-0.089999996,0.09,0.09,0.20250002,-0.194698,0.13650298,0.013136908,-0.09335754,0.08777584,-0.004804602,0.114882216,0.11658832,0.20783536,0.013198671,0.0063927723,3.3214437e-05,-0.006093426,0.0037384822,-0.00011131506,0,0,1
2058456000,2058302000,2058304000,0,-1.4599999,0.96999997,-0.049999997,0.09,0.09,0.20250002,-0.25952518,0.12974554,0.014166392,-0.16720983,0.10642904,0.003626952,0.12841484,0.16303235,0.20789042,0.020979917,0.0041301996,3.8613933e-05,-0.012709646,0.003912579,-4.4679946e-05,0,0,1
2058856000,2058702000,2058704000,0,-2.62,1.48,-0.04,0.09,0.09,0.20250002,-0.16723657,0.07895887,0.036011644,-0.16722171,0.09422007,0.01802015,0.12491448,0.17428795,0.20795535,0.008955909,0.0014308512,0.00024944558,-0.011041318,0.0028095888,8.604251e-05,0,0,1
2059256000,2059098000,2059104000,0,-3.6799998,1.78,0.04,0.09,0.09,0.20250002,-0.05414033,0.07860398,0.017518159,-0.11724378,0.087318316,0.017798288,0.11688755,0.15959582,0.2080202,0.0010030753,0.0015485585,5.901079e-05,-0.0066047735,0.0022522584,7.409546e-05,0,0,1
2059656000,2059502000,2059504000,0,-4.37,1.9699999,0.089999996,0.09,0.09,0.20250002,0.10489988,0.090505004,-0.014534056,-0.017967194,0.08874246,0.0033488777,0.11220137,0.13781527,0.20804682,0.0039229416,0.0023774307,4.06137e-05,-0.0018999097,0.0023081983,2.2831635e-05,0,0,1
2060056000,2059902000,2059904000,0,-4.46,2.08,0.08,0.09,0.09,0.20250002,0.17665863,-0.008365631,-0.034292243,0.06853318,0.045583304,-0.013380511,0.109090135,0.12035039,0.20801605,0.011443114,2.326001e-05,0.00022612831,0.004030323,0.0012719946,-8.781723e-05,0,0,1
2060456000,2060302000,2060304000,0,-4.29,2.06,-0.01,0.09,0.09,0.20250002,0.1445756,-0.025780201,0.021842847,0.10232981,0.013866186,0.0022743158,0.10735014,0.11166647,0.20799509,0.007788384,0.00023807281,9.175408e-05,0.0057005724,0.00060085347,-8.007752e-06,0,0,1
2060856000,2060702000,2060704000,0,-4.21,2.07,0.02,0.09,0.09,0.20250002,0.11999607,0.027264595,-0.02034602,0.11018148,0.019821035,-0.007779167,0.106720015,0.108165935,0.20797451,0.0053969473,0.0002748955,7.961755e-05,0.005565628,0.00045598325,-3.9834333e-05,0,0,1
2061256000,2061102000,2061104000,0,-4.15,2.1399999,-0.03,0.09,0.09,0.20250002,0.08213663,0.014756441,0.022315798,0.0977171,0.017570104,0.005596374,0.10633164,0.10657556,0.2079803,0.002537881,8.172701e-05,9.57773e-05,0.0042199623,0.00028964714,2.0437506e-05,0,0,1
2061656000,2061502000,2061504000,0,-4.08,2.18,0.02,0.09,0.09,0.20250002,0.12550092,-0.016672373,-0.011341628,0.11006546,0.0023512244,-0.0019316268,0.10600577,0.105876,0.20796914,0.005943254,0.00010501644,2.4740692e-05,0.00498587,0.00011424109,3.5830635e-07,0,0,1
2062056000,2061902000,2061904000,0,-3.6599998,2.02,0.0,0.09,0.09,0.20250002,0.17765188,-0.0307827,-0.006653048,0.14010388,-0.0123749655,-0.0040300367,0.105826065,0.10666038,0.20794982,0.01192908,0.0003553614,8.514179e-06,0.008071741,-9.447115e-05,-3.5850207e-06,0,0,1
2062456000,2062302000,2062304000,0,-3.1399999,1.74,-0.01,0.09,0.09,0.20250002,0.14656949,-0.0077251196,0.0013107341,0.14297748,-0.010308367,-0.0016563607,0.106153645,0.10916343,0.20794393,0.008094914,2.1867203e-05,3.3047826e-07,0.008082041,-6.220273e-05,-1.8447989e-06,0,0,1
2062856000,2062702000,2062704000,0,-2.6699998,1.4699999,0.0,0.09,0.09,0.20250002,0.10965991,-0.008232951,-0.0070245117,0.12816967,-0.00938596,-0.0040422054,0.106834605,0.11185678,0.20794776,0.0045023975,2.4238667e-05,9.4915695e-06,0.006491088,-4.5329813e-05,-5.243364e-06,0,0,1
2063256000,2063102000,2063104000,0,-2.23,1.18,0.0,0.09,0.09,0.20250002,0.08354616,-0.0006303787,-0.0010123625,0.108337,-0.0054945904,-0.0026956084,0.10758026,0.11394986,0.20795567,0.002595257,1.3949199e-07,1.9713391e-07,0.0047596074,-2.5245225e-05,-3.0005947e-06,0,0,1
2063656000,2063498000,2063504000,0,-1.81,0.9,-0.06,0.09,0.09,0.20250002,0.04562831,0.031357527,0.054684248,0.080622,0.0107927285,0.022664238,0.108061135,0.11501153,0.20798236,0.0007706536,0.00034198118,0.0005751193,0.0029966324,0.00013705571,0.0002525077,0,0,1
2064056000,2063902000,2063904000,0,-1.43,0.7,0.0,0.09,0.09,0.20250002,0.008286595,0.05531615,-0.0013423488,0.048295118,0.030690363,0.011935631,0.10801476,0.115002334,0.2079868,2.5428992e-05,0.0010642832,3.4654127e-07,0.0016687937,0.0005514361,0.00013950648,0,0,1
2064456000,2064302000,2064304000,0,-1.11,0.53,0.0,0.09,0.09,0.20250002,-0.004029155,0.074451804,-0.003858313,0.025039883,0.050139893,0.0049161,0.10779102,0.11431806,0.20798601,6.024282e-06,0.0019395261,2.8629963e-06,0.00092443015,0.001168365,7.623115e-05,0,0,1
2064856000,2064702000,2064704000,0,-0.84,0.37,0.02,0.09,0.09,0.20250002,-0.026046097,0.110052645,-0.023110334,0.0023350026,0.07676779,-0.0075400937,0.10744236,0.11312127,0.20797874,0.000252563,0.0042826906,0.00010271964,0.00040132203,0.0025525098,-3.3025426e-06,0,0,1
2065256000,2065102000,2065104000,0,-0.5,0.26999998,-0.02,0.09,0.09,0.20250002,0.08034423,0.109583825,-0.022803467,0.037005775,0.091352694,-0.014323816,0.10708927,0.11301181,0.2079776,0.0024111455,0.004250393,0.0001000104,0.001294577,0.0033071246,-4.6283818e-05,0,0,1
2065656000,2065502000,2065504000,0,0.38,0.24,0.04,0.09,0.09,0.20250002,0.09760296,0.1079898,-0.0407219,0.06393786,0.09874696,-0.026056299,0.1065975,0.115170985,0.2080049,0.003574695,0.0040502553,0.00031889117,0.0023079629,0.0036374049,-0.00016744265,0,0,1
2066056000,2065902000,2065904000,0,1.18,0.29,-0.08,0.09,0.09,0.20250002,0.0353266,0.11436361,0.03874646,0.051221743,0.10568769,0.0027449299,0.10615785,0.115592524,0.20804514,0.00047023135,0.00452591,0.00028864664,0.0014911932,0.004032296,3.5263714e-05,0,0,1
2066456000,2066302000,2066304000,0,2.0,0.55,-0.03,0.09,0.09,0.20250002,0.099635124,0.14145857,0.010356961,0.072738804,0.12158586,0.006128055,0.10572959,0.11604491,0.20808299,0.0037556784,0.0068975114,2.0619973e-05,0.0024976311,0.005305725,2.8755385e-05,0,0,1
2066856000,2066702000,2066704000,0,2.99,0.81,0.02,0.09,0.09,0.20250002,0.015504837,0.13723266,-0.020695265,0.047301486,0.12854,-0.0057934215,0.10568915,0.116039306,0.2081387,9.098378e-05,0.00649187,8.230935e-05,0.00142801,0.0058329008,-2.0606723e-05,0,0,1
2067256000,2067102000,2067104000,0,3.85,1.13,0.0,0.09,0.09,0.20250002,-0.019228458,0.07925761,0.029644288,0.01773262,0.10663671,0.009956674,0.105838165,0.11497692,0.20821588,0.00013973545,0.0021854015,0.00016882167,0.0007312342,0.00421179,6.358368e-05,0,0,1
2067656000,2067502000,2067504000,0,4.47,1.43,0.08,0.09,0.09,0.20250002,-0.14817381,0.10970378,-0.029548861,-0.056003578,0.107999854,-0.007601342,0.106148235,0.11262186,0.20823443,0.008273516,0.004274452,0.00016772158,-0.0032708773,0.0042396397,-3.9218663e-05,0,0,1
2068056000,2067902000,2067904000,0,4.5299997,1.8,0.13,0.09,0.09,0.20250002,-0.22020102,0.042703748,-0.074068815,-0.12898022,0.07897936,-0.037142444,0.10653506,0.1097645,0.2081755,0.018205645,0.00066455366,0.001054147,-0.009908552,0.0026507126,-0.0004902979,0,0,1
2068456000,2068302000,2068304000,0,4.2799997,1.87,0.0,0.09,0.09,0.20250002,-0.17969751,0.020715714,0.010844693,-0.15152124,0.053084403,-0.015814826,0.106705286,0.10804464,0.20811072,0.012104816,0.00015887535,2.2604767e-05,-0.01088467,0.0015432292,-0.00026234114,0,0,1
2068856000,2068702000,2068704000,0,4.14,1.91,-0.03,0.09,0.09,0.20250002,-0.11987162,0.0026353598,0.022503441,-0.13745473,0.030662604,0.0012155175,0.1068469,0.10752248,0.2080559,0.0053793625,2.583691e-06,9.7359385e-05,-0.008437866,0.0008584978,-0.00010247422,0,0,1
2069256000,2069102000,2069104000,0,4.11,1.88,-0.03,0.09,0.09,0.20250002,-0.08507204,0.034828424,0.016986942,-0.11417353,0.03251408,0.0082250405,0.106943324,0.1074481,0.20802034,0.0027069487,0.00045157396,5.5486147e-05,-0.0058907913,0.00067764276,-3.2269607e-05,0,0,1
2069656000,2069502000,2069504000,0,4.1,1.87,0.0,0.09,0.09,0.20250002,-0.1267457,-0.015470266,0.01408847,-0.11976116,0.011187702,0.01083101,0.106960975,0.10746489,0.20798835,0.0060076015,8.90818e-05,3.8172326e-05,-0.005942707,0.00033687626,-9.62078e-07,0,0,1
2070056000,2069902000,2069904000,0,3.6999998,1.73,-0.01,0.09,0.09,0.20250002,-0.15468526,-0.050774336,0.0070775766,-0.13528298,-0.016350983,0.009162817,0.10693959,0.10760611,0.20795809,0.008949923,0.00095832214,9.635036e-06,-0.0072792475,-0.00023876753,3.7477507e-06,0,0,1
2070456000,2070298000,2070304000,0,3.1799998,1.4699999,-0.02,0.09,0.09,0.20250002,-0.092614174,-0.039865136,0.021394592,-0.11642489,-0.026743397,0.014568824,0.10686428,0.10785821,0.20792766,0.0032105714,0.00058937713,8.805534e-05,-0.005481038,-0.00039372445,4.1008694e-05,0,0,1
2070856000,2070702000,2070704000,0,2.7,1.1999999,0.0,0.09,0.09,0.20250002,-0.054734945,-0.025802374,0.008144504,-0.08885549,-0.026322851,0.0116977785,0.10678984,0.10808575,0.2079128,0.001122172,0.0002463831,1.2761686e-05,-0.003533049,-0.0003278772,2.8385031e-05,0,0,1
2071256000,2071098000,2071104000,0,2.24,0.94,-0.02,0.09,0.09,0.20250002,0.0012674332,-0.0234195,0.025525417,-0.049024377,-0.025039673,0.0178091,0.10672029,0.1082227,0.20790812,6.0209237e-07,0.00020272011,0.00012535286,-0.0019713016,-0.00027256223,7.1241346e-05,0,0,1
2071656000,2071502000,2071504000,0,1.8299999,0.66999996,0.02,0.09,0.09,0.20250002,0.03193438,0.0057162642,-0.019437883,-0.012843698,-0.011294764,0.0011633262,0.10663465,0.10820605,0.20792614,0.00038254156,1.2079057e-05,7.268568e-05,-0.0009193629,-0.0001453553,6.9199814e-06,0,0,1
2072056000,2071898000,2071904000,0,1.49,0.5,-0.01,0.09,0.09,0.20250002,0.031957626,0.026991844,0.013018617,0.0069568865,0.00562655,0.0064029414,0.10652766,0.10807265,0.20792215,0.00038348348,0.00026965552,3.2605356e-05,-0.00034355134,3.8064652e-05,1.8272e-05,0,0,1
2072456000,2072302000,2072304000,0,1.16,0.37,-0.01,0.09,0.09,0.20250002,0.08694887,0.038471818,0.019536423,0.042705514,0.020305187,0.012272328,0.10640086,0.10779591,0.20791598,0.0028421222,0.00054921594,7.3428084e-05,0.0010801347,0.0002664995,4.2921398e-05,0,0,1
2072856000,2072702000,2072704000,0,0.88,0.29,-0.04,0.09,0.09,0.20250002,0.109298825,0.02428782,0.045698166,0.07230254,0.022075245,0.027128257,0.106281966,0.10749935,0.20792685,0.004496053,0.00021949832,0.00040174174,0.0025983206,0.00024561008,0.00020239712,0,0,1
2073256000,2073098000,2073104000,0,0.66999996,0.24,-0.02,0.09,0.09,0.20250002,0.120501876,0.015247598,0.023106832,0.09360492,0.019057669,0.02535093,0.1061604,0.1071431,0.20791566,0.005471231,8.679579e-05,0.000102719656,0.0038680444,0.00017541985,0.00015834325,0,0,1
2073656000,2073502000,2073504000,0,0.5,0.22,0.02,0.09,0.09,0.20250002,0.128811,-0.005231887,-0.0155818425,0.10933861,0.008202602,0.007057965,0.10605447,0.106808916,0.20790304,0.0062580197,1.0251069e-05,4.6712892e-05,0.0049361307,9.244303e-05,6.670312e-05,0,0,1
2074056000,2073902000,2073904000,0,0.39999998,0.17,0.049999997,0.09,0.09,0.20250002,0.10889882,-7.991493e-05,-0.044805862,0.109143145,0.004521483,-0.015992627,0.10596338,0.10649783,0.20788881,0.0044766227,2.398695e-09,0.00038627672,0.0047319047,5.1356168e-05,-0.00013462128,0,0,1
2074456000,2074302000,2074304000,0,0.29,0.13,0.049999997,0.09,0.09,0.20250002,0.119205356,-0.037141673,-0.056407623,0.11361524,-0.013995476,-0.033954848,0.105899274,0.10625697,0.20787744,0.005367333,0.00051930855,0.0006122492,0.005014317,-0.0002022726,-0.00034690037,0,0,1
2074856000,2074702000,2074704000,0,0.19999999,-0.22999999,0.0,0.09,0.09,0.20250002,0.08661884,-0.08953014,-0.0044803172,0.10161684,-0.04756644,-0.020855054,0.10586564,0.10608779,0.20787637,0.0028348474,0.0030222689,3.862535e-06,0.004045664,-0.0014556043,-0.0001944391,0,0,1
2075256000,2075102000,2075104000,0,0.19999999,-0.69,-0.02,0.09,0.09,0.20250002,0.1706875,-0.1506694,-0.048059214,0.1323149,-0.09338997,-0.032945793,0.10594953,0.10597956,0.20789464,0.010999284,0.008568169,0.00044439593,0.007136162,-0.0046167444,-0.00030553102,0,0,1
2075656000,2075502000,2075504000,0,0.59999996,-1.53,-0.01,0.09,0.09,0.20250002,0.18448979,-0.24184537,-0.0406259,0.15550375,-0.15937015,-0.036359176,0.10624737,0.10595504,0.2079196,0.01281405,0.022080755,0.00031751962,0.0096596675,-0.012378527,-0.0003108593,0,0,1
2076056000,2075902000,2075904000,0,1.02,-2.62,-0.01,0.09,0.09,0.20250002,0.15254462,-0.18140006,0.0018239785,0.15418857,-0.16916123,-0.019388884,0.10675888,0.106080756,0.2079797,0.00871866,0.012407899,6.3985044e-07,0.009241442,-0.012391581,-0.00017241522,0,0,1
2076456000,2076302000,2076304000,0,1.4599999,-3.53,0.02,0.09,0.09,0.20250002,0.0963428,-0.011164427,0.023101542,0.12847933,-0.098940425,-0.0005042497,0.10700461,0.10628415,0.20804879,0.0034697326,4.6909885e-05,0.000102606944,0.006676238,-0.0069050603,-5.018314e-05,0,0,1
2076856000,2076702000,2076704000,0,1.8,-3.84,0.089999996,0.09,0.09,0.20250002,0.04119575,0.09018493,-0.023706354,0.089686625,-0.014884703,-0.010816297,0.10666406,0.10646087,0.20804125,0.0006364242,0.0030558913,0.00010805381,0.0039918763,-0.0024779704,-7.590344e-05,0,0,1
2077256000,2077098000,2077104000,0,1.8299999,-3.6499999,0.049999997,0.09,0.09,0.20250002,-0.055409312,0.2049985,-0.027273443,0.025559403,0.08229581,-0.018089768,0.106089994,0.10638213,0.20799655,0.0011575802,0.015801294,0.00014304866,0.0017160005,0.0056008114,-0.00010557922,0,0,1
2077656000,2077502000,2077504000,0,1.67,-2.96,0.02,0.09,0.09,0.20250002,-0.053512096,0.29797578,-0.011029247,-0.009777859,0.17868376,-0.014934402,0.10575856,0.106238864,0.20791698,0.0010830497,0.033430167,2.3402474e-05,0.0004650976,0.018037824,-6.885422e-05,0,0,1
2078056000,2077902000,2077904000,0,1.41,-1.88,-0.04,0.09,0.09,0.20250002,-0.08460057,0.18687057,0.05521092,-0.0430324,0.18232234,0.016241299,0.106020525,0.1060545,0.20787339,0.0027003284,0.013170818,0.00058655813,-0.0009417585,0.01587471,0.00022244017,0,0,1
2078456000,2078302000,2078304000,0,1.0,-1.11,-0.04,0.09,0.09,0.20250002,-0.089826226,0.046558976,0.020403989,-0.06382966,0.121983066,0.018091384,0.10643759,0.10591598,0.20787121,0.0030322934,0.0008186634,8.011168e-05,-0.0018708853,0.009183133,0.00015918305,0,0,1
2078856000,2078702000,2078704000,0,0.55,-0.65999997,0.04,0.09,0.09,0.20250002,-0.010831833,-0.045088887,-0.058819093,-0.040275067,0.04772886,-0.016091052,0.10659452,0.10583101,0.20789517,4.4028006e-05,0.00076839776,0.0006656596,-0.0010589487,0.00476023,-0.00020741372,0,0,1
2079256000,2079102000,2079104000,0,0.31,-0.44,-0.01,0.09,0.09,0.20250002,0.05677405,-0.07802379,-0.0008536335,0.0028578788,-0.008161217,-0.009318866,0.1065387,0.105807036,0.2078927,0.0012101866,0.0023014394,1.4020505e-07,-5.044404e-05,0.0016217099,-0.00011529215,0,0,1
2079656000,2079502000,2079504000,0,0.21,-0.29,-0.03,0.09,0.09,0.20250002,0.03745523,-0.121494025,0.019872224,0.01823448,-0.05853136,0.003654953,0.10638317,0.105786726,0.2078846,0.0005274873,0.005581342,7.598548e-05,0.00020641435,-0.0015796467,-3.0279865e-05,0,0,1
2080056000,2079902000,2079904000,0,0.099999994,-0.22,0.01,0.09,0.09,0.20250002,0.067588374,-0.12614971,-0.014106492,0.040169545,-0.08858396,-0.0042390227,0.106196076,0.105765045,0.20789239,0.0017206618,0.006018529,3.8287715e-05,0.0008794132,-0.0035524836,-3.383891e-05,0,0,1
2080456000,2080302000,2080304000,0,0.08,-0.17999999,0.049999997,0.09,0.09,0.20250002,0.044154547,-0.1269709,-0.0481669,0.041940656,-0.10564482,-0.023762526,0.10600841,0.10574621,0.20788053,0.0007356488,0.0060982266,0.0004464199,0.0008155179,-0.004683925,-0.00021720825,0,0,1
2080856000,2080698000,2080704000,0,0.049999997,-0.16,0.03,0.09,0.09,0.20250002,0.04796502,-0.13254666,-0.031575426,0.04460321,-0.11753447,-0.027215548,0.105845824,0.10573843,0.2078689,0.0008694318,0.0066460674,0.00019185315,0.0008393459,-0.0055511217,-0.0002060022,0,0,1
2081256000,2081102000,2081104000,0,0.03,-0.17,0.0,0.09,0.09,0.20250002,0.06457923,-0.099708185,-0.006866835,0.053530548,-0.10956786,-0.018121654,0.1057287,0.10574484,0.20785913,0.0015778033,0.0037606459,9.074111e-06,0.0011693644,-0.004750953,-0.00011799452,0,0,1
2081656000,2081502000,2081504000,0,0.049999997,-0.17,-0.01,0.09,0.09,0.20250002,0.03715329,-0.08696054,-0.0029373523,0.046251766,-0.09952016,-0.011373075,0.105637185,0.10575256,0.20784926,0.00052268215,0.002860313,1.6604415e-06,0.00088195,-0.0039106687,-6.629048e-05,0,0,1
2082056000,2081898000,2081904000,0,0.06,-0.13,0.06,0.09,0.09,0.20250002,0.035378393,-0.10409227,0.019214604,0.041446123,-0.10154087,0.0021455865,0.10552315,0.105708554,0.2078408,0.00047444782,0.004100028,7.105458e-05,0.0007018486,-0.0039943587,-5.588874e-06,0,0,1
2082456000,2082302000,2082304000,0,0.049999997,-0.11,0.59,0.09,0.09,0.20250002,0.051552087,-0.079404354,0.13740498,0.045962505,-0.091648005,0.06259336,0.10509326,0.105313785,0.20785074,0.0010115274,0.0023947677,0.0036334014,0.0008402449,-0.0032794974,0.0016206854,0,0,1
2082856000,2082702000,2082704000,0,0.049999997,-0.06,0.72999996,0.09,0.09,0.20250002,0.038799286,-0.05167565,-0.07530582,0.042778853,-0.07388251,0.0013048314,0.105209425,0.105464116,0.20784377,0.0005723383,0.0010128082,0.0010913903,0.0007211753,-0.00227208,0.0004153184,0,0,1
2083256000,2083102000,2083104000,0,0.01,-0.03,0.65999997,0.09,0.09,0.20250002,0.05763878,-0.07667825,-0.0049492717,0.049383264,-0.07512506,-0.0014747703,0.10528748,0.105564624,0.20783599,0.0012621554,0.0022278503,4.7143503e-06,0.0009616109,-0.0022524223,0.00022863717,0,0,1
2083656000,2083502000,2083504000,0,0.0,0.0,0.65999997,0.09,0.09,0.20250002,0.0614945,-0.08559814,0.013982773,0.054766037,-0.07977977,0.005395249,0.105360806,0.10565652,0.20784733,0.0014356661,0.0027739098,3.7627222e-05,0.001172302,-0.0024841945,0.00014374385,0,0,1
2084056000,2083902000,2083904000,0,0.0,0.0,0.72999996,0.09,0.09,0.20250002,0.046952993,-0.070482865,-0.044936955,0.051293574,-0.07564781,-0.01697462,0.105455965,0.105753586,0.20784058,0.0008362101,0.0018790226,0.00038863055,0.0010229278,-0.0022152292,-9.2867005e-05,0,0,1
2084456000,2084302000,2084304000,0,-0.03,-0.01,0.72999996,0.09,0.09,0.20250002,0.06620418,-0.051176354,-0.042591155,0.05792051,-0.06477161,-0.028359748,0.10555584,0.10585217,0.20783366,0.0016609196,0.0009896894,0.00034912658,0.0013064798,-0.0016705447,-0.00020676016,0,0,1
2084856000,2084702000,2084704000,0,0.0,0.01,0.71999997,0.09,0.09,0.20250002,0.029930793,-0.06819909,-0.02823329,0.045480635,-0.06629493,-0.028303545,0.105661824,0.10594989,0.2078282,0.00033913946,0.001755968,0.00015341876,0.00087655074,-0.0017085106,-0.00018305286,0,0,1
2085256000,2085102000,2085104000,0,-0.02,-0.01,0.75,0.09,0.09,0.20250002,0.061222535,-0.029347612,-0.06259483,0.052477036,-0.0498739,-0.043544117,0.10576021,0.1060468,0.2078234,0.0014176215,0.00032486874,0.00075412355,0.0011170267,-0.0010935585,-0.00043686206,0,0,1
2085656000,2085502000,2085504000,0,-0.02,-0.01,0.72999996,0.09,0.09,0.20250002,0.05426552,-0.038213134,-0.04164815,0.05327192,-0.044691335,-0.042701464,0.10585056,0.10612365,0.2078201,0.001112794,0.0005503933,0.00033385959,0.0011151455,-0.0008521517,-0.0003910832,0,0,1
2086056000,2085898000,2085904000,0,-0.04,-0.03,0.69,0.09,0.09,0.20250002,0.075956315,-0.014185054,-0.0036982298,0.063297614,-0.03120865,-0.025463428,0.1059404,0.10619967,0.20783477,0.0021783425,7.578772e-05,2.632265e-06,0.0015850406,-0.0005090266,-0.00021940176,0,0,1
2086456000,2086302000,2086304000,0,0.0,-0.01,-0.04,0.09,0.09,0.20250002,0.08670117,0.009484538,-0.00012467057,0.073756725,-0.013022758,-0.014139471,0.106541894,0.10682603,0.20783159,0.0028222112,3.368335e-05,2.9914122e-09,0.0021379355,-0.00026648806,-0.00012135188,0,0,1
2086856000,2086702000,2086704000,0,0.0,-0.01,0.0,0.09,0.09,0.20250002,0.09986206,0.022619424,-0.041872695,0.0853591,0.0028182138,-0.026465349,0.10649674,0.10677375,0.20782703,0.003745629,0.00019167196,0.00033745804,0.002852466,-6.286138e-05,-0.00021739907,0,0,1
2087256000,2087102000,2087104000,0,0.0,0.0,0.04,0.09,0.09,0.20250002,0.10540107,0.026520861,-0.08106059,0.09426664,0.013352725,-0.0507299,0.106456205,0.10671858,0.20784053,0.0041742558,0.00026363024,0.0012645884,0.0034399282,8.224601e-05,-0.0006828166,0,0,1
2087664000,2087506000,2087512000,0,0.0,0.02,0.049999997,0.09,0.09,0.20250002,0.119709164,0.012418576,-0.09520506,0.10563697,0.012935251,-0.07060596,0.10647859,0.10673535,0.20782794,0.0053833486,5.779567e-05,0.0017445206,0.0043084477,7.131909e-05,-0.001157295,0,0,1
2088056000,2087902000,2087904000,0,0.0,0.0,0.04,0.09,0.09,0.20250002,0.13030393,0.03916524,-0.0824054,0.11653888,0.024527969,-0.07582089,0.10633982,0.10658765,0.20781602,0.0063867383,0.00057564495,0.0013070503,0.005226978,0.0002942131,-0.0012234815,0,0,1
2088456000,2088302000,2088304000,0,0.0,-0.01,-0.01,0.09,0.09,0.20250002,0.14087462,0.06433619,-0.027286714,0.12735477,0.04222051,-0.054250143,0.10629643,0.10653501,0.20783176,0.007468044,0.0015540976,0.00014330144,0.006223007,0.0008541618,-0.00074340147,0,0,1
2088856000,2088702000,2088704000,0,0.01,0.0,-0.01,0.09,0.09,0.20250002,0.13475224,0.061197426,-0.022351613,0.13064253,0.050654694,-0.04007302,0.106245704,0.10647719,0.20782813,0.0068362923,0.001406921,9.615534e-05,0.006495578,0.0010998326,-0.0004557365,0,0,1
2089256000,2089098000,2089104000,0,0.0,0.0,-0.01,0.09,0.09,0.20250002,0.14098205,0.06907072,-0.01965185,0.13521223,0.058793917,-0.031047592,0.10620857,0.10642536,0.20782477,0.007485625,0.0017930929,7.4330936e-05,0.0069331434,0.0014062289,-0.00028716886,0,0,1
2089656000,2089502000,2089504000,0,0.0,0.01,0.0,0.09,0.09,0.20250002,0.15273045,0.064400695,-0.02657155,0.14304116,0.0612996,-0.029047236,0.106164604,0.10637858,0.20783854,0.008788839,0.0015595056,0.00013588379,0.0077624586,0.0014747287,-0.00021955917,0,0,1
2090056000,2089902000,2089904000,0,0.0,0.01,0.01,0.09,0.09,0.20250002,0.15070231,0.059777863,-0.03982301,0.14644612,0.060623273,-0.03383647,0.1061295,0.10633468,0.20783347,0.008559803,0.001344206,0.0003052198,0.008116834,0.0014167186,-0.00025763054,0,0,1
