timestamp,timestamp_sample,time_last_fuse,device_id,observation[0],observation[1],observation[2],observation_variance[0],observation_variance[1],observation_variance[2],innovation[0],innovation[1],innovation[2],innovation_filtered[0],innovation_filtered[1],innovation_filtered[2],innovation_variance[0],innovation_variance[1],innovation_variance[2],test_ratio[0],test_ratio[1],test_ratio[2],test_ratio_filtered[0],test_ratio_filtered[1],test_ratio_filtered[2],estimator_instance,innovation_rejected,fused
2043328000,2043176000,2043176000,0,0.0035045708,0.02059786,-0.9997817,1.0,1.0,1.0,0.0033232651,-0.021138195,-0.00019484758,0.0017841512,-0.0011750115,-2.3011693e-05,1.0000167,1.0000178,1.0,0.00017670251,0.0071490454,6.074493e-07,0.00033154007,-0.00022909824,-3.396653e-08,0,0,1
2043336000,2043184000,2043184000,0,0.007428376,0.008204287,-0.99993867,1.0,1.0,1.0,-0.00064661214,-0.008771416,-3.8146973e-05,0.0017458715,-0.0012946399,-2.3250044e-05,1.0000167,1.0000179,1.0,6.689604e-06,0.0012309818,2.3283064e-08,0.00032621363,-0.00024487593,-3.3798287e-08,0,0,1
2043344000,2043192000,2043192000,0,0.0067186365,0.011166402,-0.99991506,1.0,1.0,1.0,9.388523e-05,-0.011726744,-6.15716e-05,0.0017198559,-0.001458925,-2.3853534e-05,1.0000167,1.0000179,1.0,1.4102864e-07,0.002200225,6.065699e-08,0.00032107864,-0.00027566883,-3.422126e-08,0,0,1
2043352000,2043200000,2043200000,0,-0.0005272101,0.0015888745,-0.9999987,1.0,1.0,1.0,0.0073209307,-0.002123978,2.193451e-05,0.0018080618,-0.0014693983,-2.3132463e-05,1.0000168,1.0000179,1.0,0.000857522,7.217923e-05,7.697963e-09,0.00032952658,-0.00027246427,-3.3561115e-08,0,0,1
2043360000,2043208000,2043208000,0,0.009546311,0.0010537268,-0.99995387,1.0,1.0,1.0,-0.0027271463,-0.0016297833,-2.2768974e-05,0.0017366413,-0.001471924,-2.3126739e-05,1.0000168,1.0000179,1.0,0.00011899522,4.2498337e-05,8.294819e-09,0.00032246325,-0.00026884276,-3.316322e-08,0,0,1
2043368000,2043216000,2043216000,0,0.0028214252,-0.0014613693,-0.99999493,1.0,1.0,1.0,0.003960318,0.0008835705,1.8119812e-05,0.0017716598,-0.0014348296,-2.2477187e-05,1.0000168,1.0000179,1.0,0.00025094167,1.2490927e-05,5.2532414e-09,0.00032133693,-0.00026441232,-3.2558237e-08,0,0,1
2043376000,2043224000,2043224000,0,-0.0061090114,-0.0072518038,-0.999955,1.0,1.0,1.0,0.012909764,0.006752916,-2.1755695e-05,0.001947063,-0.0013058886,-2.2465825e-05,1.0000168,1.000018,1.0,0.0026665474,0.00072961685,7.5729645e-09,0.00035826938,-0.00024875833,-3.2164767e-08,0,0,1
2043384000,2043232000,2043232000,0,0.01155214,0.0022909492,-0.9999307,1.0,1.0,1.0,-0.0048292857,-0.002733951,-4.6610832e-05,0.0018403488,-0.0013283778,-2.2846061e-05,1.0000168,1.000018,1.0,0.0003731457,0.000119589655,3.4761115e-08,0.00034675104,-0.00024672417,-3.2205655e-08,0,0,1
2043400000,2043248000,2043248000,0,0.0076466487,-0.0035539651,-0.9999644,1.0,1.0,1.0,-0.0012159939,0.0031996248,-1.4841557e-05,0.0016582847,-0.0013936716,-2.4154511e-05,1.0000169,1.000018,1.0,2.3657858e-05,0.00016379863,3.5243488e-09,0.00032407427,-0.00026194053,-3.4557146e-08,0,0,1
2043408000,2043256000,2043256000,0,-0.0035144563,0.010476892,-0.9999389,1.0,1.0,1.0,0.009792605,-0.010725978,-4.1425228e-05,0.0017863843,-0.0015406371,-2.442649e-05,1.0000169,1.000018,1.0,0.001534296,0.0018407124,2.7456792e-08,0.00034313288,-0.0002868031,-3.444533e-08,0,0,1
2043416000,2043264000,2043264000,0,0.003097988,-0.002335181,-0.99999255,1.0,1.0,1.0,0.003202345,0.0020782298,1.2457371e-05,0.0018086828,-0.001483647,-2.3845641e-05,1.0000169,1.0000181,1.0,0.00016407744,6.910337e-05,2.4829774e-09,0.0003403131,-0.00028119827,-3.386378e-08,0,0,1
2043424000,2043272000,2043272000,0,0.0027995573,0.0066697346,-0.9999738,1.0,1.0,1.0,0.0035867684,-0.0069955154,-5.7816505e-06,0.0018366842,-0.0015704482,-2.356117e-05,1.0000169,1.0000181,1.0,0.00020583504,0.0007829816,5.3483973e-10,0.00033819533,-0.00028910037,-3.3338917e-08,0,0,1
2043440000,2043288000,2043288000,0,0.007852004,0.0084965145,-0.99993306,1.0,1.0,1.0,-0.001376478,-0.00869111,-4.6014786e-05,0.0017992428,-0.0017552078,-2.3614242e-05,1.000017,1.0000182,1.0,3.031455e-05,0.0012085442,3.3877768e-08,0.00032893877,-0.00030880407,-3.2834965e-08,0,0,1
2043448000,2043296000,2043296000,0,0.0044140005,0.0057435213,-0.9999737,1.0,1.0,1.0,0.0020613363,-0.0059355805,-5.364418e-06,0.0018033703,-0.0018210404,-2.3326844e-05,1.000017,1.0000182,1.0,6.798456e-05,0.0005636875,4.604317e-10,0.00032482925,-0.00031281798,-3.232513e-08,0,0,1
2043456000,2043304000,2043304000,0,0.0019550468,0.004088619,-0.9999897,1.0,1.0,1.0,0.0045925416,-0.0042726784,1.1086464e-05,0.0018472943,-0.0018596489,-2.2784901e-05,1.000017,1.0000184,1.0,0.00033745726,0.00029208715,1.966555e-09,0.00032502812,-0.00031249152,-3.1785103e-08,0,0,1
2043464000,2043312000,2043312000,0,-0.0033730692,-0.0049210945,-0.9999822,1.0,1.0,1.0,0.009975877,0.0047720517,4.053116e-06,0.0019753035,-0.0017552127,-2.2362256e-05,1.000017,1.0000184,1.0,0.0015922628,0.00036435295,2.6284397e-10,0.00034498455,-0.00030183257,-3.128041e-08,0,0,1
2043480000,2043328000,2043328000,0,0.00090494845,0.00097603904,-0.9999991,1.0,1.0,1.0,0.0056294766,-0.0010366484,2.0384789e-05,0.0020234787,-0.0017154218,-2.1215888e-05,1.0000172,1.0000184,1.0,0.0005070474,1.7193923e-05,6.6486336e-09,0.0003426554,-0.00029266998,-3.018172e-08,0,0,1
2043488000,2043336000,2043336000,0,-0.010137742,0.00335345,-0.999943,1.0,1.0,1.0,0.016758295,-0.0034446581,-3.5107136e-05,0.002255523,-0.0017426539,-2.1434647e-05,1.0000172,1.0000184,1.0,0.0044933697,0.00018984723,1.9720176e-08,0.00040802098,-0.00029105073,-3.001697e-08,0,0,1
2043496000,2043344000,2043344000,0,0.007922216,0.003855708,-0.99996114,1.0,1.0,1.0,-0.0011936789,-0.003880551,-1.6212463e-05,0.002201205,-0.0017763216,-2.1352409e-05,1.0000172,1.0000185,1.0,2.279752e-05,0.00024093437,4.2055035e-09,0.00040123644,-0.0002902615,-2.961049e-08,0,0,1
2043504000,2043352000,2043352000,0,0.005902346,-0.0066545825,-0.99996054,1.0,1.0,1.0,0.0009112414,0.006618713,-1.6212463e-05,0.0021808904,-0.0016441162,-2.1271466e-05,1.0000172,1.0000185,1.0,1.3285546e-05,0.0007009049,4.2055035e-09,0.00039512696,-0.0002746526,-2.9210412e-08,0,0,1
2043520000,2043368000,2043368000,0,-0.0067931293,-0.0073354263,-0.99995,1.0,1.0,1.0,0.01355632,0.007199831,-2.7120113e-05,0.002508411,-0.0014259225,-2.0955333e-05,1.0000173,1.0000185,1.0,0.0029403304,0.0008293857,1.1768009e-08,0.00046334532,-0.00025006168,-2.8476599e-08,0,0,1
2043528000,2043376000,2043376000,0,0.006691886,0.0016669765,-0.9999763,1.0,1.0,1.0,0.00018087635,-0.0018667759,-5.9604645e-08,0.002471757,-0.001432865,-2.0626267e-05,1.0000173,1.0000185,1.0,5.2345104e-07,5.575661e-05,5.684342e-14,0.0004560568,-0.00024700176,-2.8028149e-08,0,0,1
2043536000,2043384000,2043384000,0,0.004403451,-0.003980604,-0.9999824,1.0,1.0,1.0,0.0025660815,0.0037861392,6.67572e-06,0.0024732423,-0.001350676,-2.0196314e-05,1.0000173,1.0000186,1.0,0.000105354564,0.00022935333,7.1304385e-10,0.00045053393,-0.0002395001,-2.7575531e-08,0,0,1
2043544000,2043392000,2043392000,0,0.0018439109,0.0061507584,-0.99997944,1.0,1.0,1.0,0.0051574223,-0.006374655,3.9339066e-06,0.002515513,-0.0014297937,-1.981631e-05,1.0000173,1.0000186,1.0,0.0004255767,0.00065016747,2.4760993e-10,0.0004501409,-0.0002459673,-2.7137371e-08,0,0,1
2043560000,2043408000,2043408000,0,0.0019606624,-0.008852209,-0.99995893,1.0,1.0,1.0,0.004893357,0.008494529,-1.758337e-05,0.0025769921,-0.001339713,-1.9388997e-05,1.0000174,1.0000186,1.0,0.0003831124,0.001154491,4.9467985e-09,0.00044620814,-0.00022816128,-2.6359826e-08,0,0,1
2043568000,2043416000,2043416000,0,0.011988563,0.0024321848,-0.9999252,1.0,1.0,1.0,-0.005113671,-0.0027992139,-5.1140785e-05,0.0024558792,-0.0013626972,-1.9889025e-05,1.0000174,1.0000186,1.0,0.00041838683,0.00012536724,4.184608e-08,0.00043259247,-0.00022654248,-2.6603704e-08,0,0,1
2043576000,2043424000,2043424000,0,0.0017674295,0.0064027836,-0.9999779,1.0,1.0,1.0,0.005065711,-0.0068535274,1.3113022e-06,0.002496979,-0.001449167,-1.9555162e-05,1.0000174,1.0000187,1.0,0.0004105757,0.00075151934,2.7512215e-11,0.00043224575,-0.00023480984,-2.6184315e-08,0,0,1
2043584000,2043432000,2043432000,0,0.0056747715,0.006765559,-0.999961,1.0,1.0,1.0,0.001178401,-0.0072882264,-1.5318394e-05,0.002476214,-0.0015411207,-1.9488441e-05,1.0000174,1.0000187,1.0,2.2217677e-05,0.000849876,3.754451e-09,0.00042578863,-0.00024449592,-2.5831088e-08,0,0,1
2043600000,2043448000,2043448000,0,-0.0059702517,-0.00551222,-0.999967,1.0,1.0,1.0,0.01272939,0.0049922518,-1.013279e-05,0.0025395867,-0.0014052833,-1.957119e-05,1.0000175,1.0000187,1.0,0.0025925525,0.0003987538,1.6427748e-09,0.00044963055,-0.00023049154,-2.5342105e-08,0,0,1
2043608000,2043456000,2043456000,0,-0.008321073,0.0020255363,-0.9999634,1.0,1.0,1.0,0.014950043,-0.0024235914,-1.4603138e-05,0.002735027,-0.0014213197,-1.9492953e-05,1.0000175,1.0000188,1.0,0.0035759977,9.397896e-05,3.4120262e-09,0.0004988647,-0.00022834174,-2.499675e-08,0,0,1
2043616000,2043464000,2043464000,0,-0.001360572,-0.0002099054,-0.99999905,1.0,1.0,1.0,0.00798513,-0.000106816806,2.104044e-05,0.002817706,-0.0014006188,-1.8854631e-05,1.0000175,1.0000188,1.0,0.0010201789,1.8255385e-07,7.0832016e-09,0.00050707435,-0.00022474868,-2.4491554e-08,0,0,1
2043624000,2043472000,2043472000,0,0.0052796165,-0.0001010102,-0.99998605,1.0,1.0,1.0,0.0014182883,-0.00016854767,8.46386e-06,0.0027956679,-0.0013812161,-1.8424418e-05,1.0000175,1.0000188,1.0,3.2184103e-05,4.5452455e-07,1.1461907e-09,0.0004995958,-0.0002212165,-2.4087809e-08,0,0,1
2043640000,2043488000,2043488000,0,-0.0044950377,-0.00069745234,-0.9999897,1.0,1.0,1.0,0.011291766,0.000435927,1.2755394e-05,0.0029415912,-0.0013800252,-1.7434404e-05,1.0000176,1.0000188,1.0,0.0020400274,3.0404603e-06,2.6032012e-09,0.0005192857,-0.0002167177,-2.32471e-08,0,0,1
2043648000,2043496000,2043496000,0,0.0063028596,-0.002562876,-0.9999768,1.0,1.0,1.0,0.00044786278,0.0022463265,-3.5762787e-07,0.00290232,-0.0013229173,-1.716548e-05,1.0000176,1.000019,1.0,3.2092405e-06,8.07342e-05,2.046363e-12,0.0005111585,-0.00021203342,-2.2881036e-08,0,0,1
2043656000,2043504000,2043504000,0,-0.002393498,0.01061831,-0.99994075,1.0,1.0,1.0,0.009016108,-0.010810208,-3.7312508e-05,0.0029986,-0.0014723234,-1.7482755e-05,1.0000165,1.0000176,1.0,0.0013006218,0.0018697365,2.2275572e-08,0.000523591,-0.00023813898,-2.28715e-08,0,0,1
2043664000,2043512000,2043512000,0,0.0092047965,0.0031765483,-0.9999525,1.0,1.0,1.0,-0.002531258,-0.0033366582,-2.5212765e-05,0.0029115155,-0.001501683,-1.7604487e-05,1.0000165,1.0000176,1.0,0.000102514576,0.00017812947,1.0170936e-08,0.0005137311,-0.00023719395,-2.2671491e-08,0,0,1
2043680000,2043528000,2043528000,0,0.0076069226,-0.011866278,-0.9999007,1.0,1.0,1.0,-0.0008614529,0.011675762,-7.659197e-05,0.0027104807,-0.0011817547,-1.9473599e-05,1.0000166,1.0000176,1.0,1.1873421e-05,0.0021811363,9.3861274e-08,0.00048788064,-0.00018723264,-2.4960126e-08,0,0,1
2043688000,2043536000,2043536000,0,0.010512322,-0.0021298,-0.9999425,1.0,1.0,1.0,-0.0038107475,0.001958934,-3.504753e-05,0.0026077842,-0.0011322951,-1.9718856e-05,1.0000166,1.0000176,1.0,0.00023234489,6.1397666e-05,1.9653271e-08,0.0004765385,-0.0001833172,-2.4876554e-08,0,0,1
2043696000,2043544000,2043544000,0,0.011833113,0.0043787425,-0.99992037,1.0,1.0,1.0,-0.0052233627,-0.004537326,-5.7816505e-05,0.002484459,-0.0011859176,-2.031882e-05,1.0000166,1.0000178,1.0,0.00043652905,0.00032939136,5.3483973e-08,0.00046215949,-0.00018561758,-2.5327065e-08,0,0,1
2043704000,2043552000,2043552000,0,0.0010761244,-0.0101658115,-0.9999478,1.0,1.0,1.0,0.00542783,0.0100650685,-3.1113625e-05,0.0025308114,-0.0010087368,-2.0488817e-05,1.0000166,1.0000178,1.0,0.0004713736,0.0016208609,1.5488922e-08,0.0004623046,-0.0001571691,-2.5172133e-08,0,0,1
2043720000,2043568000,2043568000,0,-0.0058057755,0.002353099,-0.9999804,1.0,1.0,1.0,0.012359412,-0.0026498532,1.9073486e-06,0.0028028444,-0.0009825522,-1.9639312e-05,1.0000167,1.0000178,1.0,0.0024440405,0.00011234556,5.820766e-11,0.0005116225,-0.00015265991,-2.4351476e-08,0,0,1
2043728000,2043576000,2043576000,0,-2.7581616e-05,0.0060166004,-0.9999819,1.0,1.0,1.0,0.006617248,-0.006376979,3.695488e-06,0.0028629138,-0.0010675038,-1.9271834e-05,1.0000167,1.0000178,1.0,0.00070059585,0.0006506422,2.185061e-10,0.0005145985,-0.00016050215,-2.3964546e-08,0,0,1
2043736000,2043584000,2043584000,0,0.0021209056,0.0019390577,-0.9999958,1.0,1.0,1.0,0.00440999,-0.0022873094,1.7166138e-05,0.0028872772,-0.0010867134,-1.8698009e-05,1.0000167,1.0000179,1.0,0.000311163,8.370705e-05,4.7148205e-09,0.0005113948,-0.00015929279,-2.3512902e-08,0,0,1
2043744000,2043592000,2043592000,0,-0.00053430145,0.010310859,-0.9999467,1.0,1.0,1.0,0.007051155,-0.010688781,-3.20673e-05,0.00295285,-0.001237927,-1.890855e-05,1.0000167,1.0000179,1.0,0.0007954873,0.0018279678,1.6452987e-08,0.0005158687,-0.00018557113,-2.3401721e-08,0,0,1
2043760000,2043608000,2043608000,0,0.0051984633,0.0047268025,-0.9999754,1.0,1.0,1.0,0.0013435599,-0.0050853197,-3.2186508e-06,0.003033892,-0.0013456183,-1.8244584e-05,1.0000168,1.0000179,1.0,2.8881967e-05,0.00041376025,1.6575541e-10,0.00052410096,-0.00019082439,-2.2657254e-08,0,0,1
2043768000,2043616000,2043616000,0,0.005706032,0.0016482784,-0.9999824,1.0,1.0,1.0,0.00097004604,-0.002005025,4.7683716e-06,0.0030013905,-0.0013560026,-1.7882176e-05,1.0000168,1.0000179,1.0,1.5055576e-05,6.4320855e-05,3.6379788e-10,0.0005160845,-0.0001888322,-2.2294717e-08,0,0,1
2043776000,2043624000,2043624000,0,0.003934246,0.0031643421,-0.99998724,1.0,1.0,1.0,0.0028209495,-0.0035846059,1.013279e-05,0.0029985488,-0.0013910987,-1.7440994e-05,1.0000168,1.000018,1.0,0.00012732197,0.0002055867,1.6427748e-09,0.00050996226,-0.00018909606,-2.191775e-08,0,0,1
2043784000,2043632000,2043632000,0,-0.001592763,0.0038067973,-0.9999915,1.0,1.0,1.0,0.008299792,-0.004274352,1.40070915e-05,0.003082033,-0.0014365043,-1.6945749e-05,1.0000168,1.000018,1.0,0.0011021663,0.00029231608,3.1391778e-09,0.0005192883,-0.00019072156,-2.1523151e-08,0,0,1
2043800000,2043648000,2043648000,0,0.0012442492,0.00020937972,-0.9999992,1.0,1.0,1.0,0.0054080305,-0.0008528463,2.1576881e-05,0.0030753573,-0.0013783802,-1.6086597e-05,1.0000169,1.000018,1.0,0.0004679408,1.163734e-05,7.448989e-09,0.00051045127,-0.00018421111,-2.0733395e-08,0,0,1
2043808000,2043656000,2043656000,0,0.006077063,0.0015785033,-0.9999803,1.0,1.0,1.0,0.00062081404,-0.0022177473,2.861023e-06,0.003036703,-0.0013915986,-1.578821e-05,1.0000169,1.000018,1.0,6.1664564e-06,7.8693025e-05,1.3096724e-10,0.00050250976,-0.00018254941,-2.0404823e-08,0,0,1
2043816000,2043664000,2043664000,0,0.019212417,0.00478521,-0.99980396,1.0,1.0,1.0,-0.012512598,-0.005467947,-0.00017338991,0.0027918322,-0.001455793,-1.8270126e-05,1.0000169,1.0000181,1.0,0.0025049995,0.00047836645,4.81025e-07,0.0004551474,-0.00018720794,-2.7658682e-08,0,0,1
2043824000,2043672000,2043672000,0,0.00292675,0.01456428,-0.99988973,1.0,1.0,1.0,0.0037867185,-0.015454679,-8.7320805e-05,0.0028074996,-0.0016762479,-1.9357538e-05,1.0000169,1.0000181,1.0,0.00022942391,0.0038214845,1.2199877e-07,0.0004515927,-0.00024444066,-2.9144353e-08,0,0,1
2043840000,2043688000,2043688000,0,0.010201547,-0.0070292116,-0.9999233,1.0,1.0,1.0,-0.0035752738,0.00621055,-5.4359436e-05,0.002725184,-0.0014913382,-1.9392519e-05,1.000017,1.0000181,1.0,0.00020451783,0.0006171238,4.7279173e-08,0.0004381923,-0.00022583909,-2.8929957e-08,0,0,1
2043848000,2043696000,2043696000,0,-0.0064042425,0.004569733,-0.999969,1.0,1.0,1.0,0.013064371,-0.0054280004,-8.46386e-06,0.0028880057,-0.0015533329,-1.9220413e-05,1.000017,1.0000181,1.0,0.0027307982,0.00047140248,1.1461907e-09,0.00047429634,-0.00022970623,-2.8492417e-08,0,0,1
2043856000,2043704000,2043704000,0,0.00087200105,0.0054202885,-0.999985,1.0,1.0,1.0,0.005760189,-0.006340602,7.3313713e-06,0.002933237,-0.001628723,-1.8802275e-05,1.000017,1.0000184,1.0,0.00053086743,0.00064323994,8.599841e-10,0.00047518723,-0.00023621858,-2.8030176e-08,0,0,1
2043864000,2043712000,2043712000,0,0.009540117,0.0070070038,-0.99992996,1.0,1.0,1.0,-0.0028889822,-0.007923205,-4.7445297e-05,0.0028415485,-0.0017278487,-1.9253346e-05,1.000017,1.0000184,1.0,0.00013353722,0.0010044165,3.60169e-08,0.000465601,-0.00024831618,-2.815595e-08,0,0,1
2043880000,2043728000,2043728000,0,0.0044405605,-0.00013818049,-0.99999017,1.0,1.0,1.0,0.0021329075,-0.0006082709,1.2099743e-05,0.0026674967,-0.0016856422,-1.9706551e-05,1.0000172,1.0000184,1.0,7.278746e-05,5.9197864e-06,2.3424604e-09,0.0004376179,-0.00024065503,-2.8840246e-08,0,0,1
2043888000,2043736000,2043736000,0,0.0017978984,-0.00039976495,-0.9999983,1.0,1.0,1.0,0.004763635,-0.00038938437,2.002716e-05,0.0027005067,-0.0016652286,-1.9080824e-05,1.0000172,1.0000184,1.0,0.00036306924,2.4258784e-06,6.4173946e-09,0.00043644392,-0.00023690339,-2.8285008e-08,0,0,1
2043896000,2043744000,2043744000,0,0.0081721535,-0.00023072491,-0.9999666,1.0,1.0,1.0,-0.0016779834,-0.00053322164,-1.1980534e-05,0.0026315541,-0.0016474017,-1.8969009e-05,1.0000172,1.0000185,1.0,4.504928e-05,4.549121e-06,2.296531e-09,0.00042886136,-0.00023324427,-2.787574e-08,0,0,1
2043904000,2043752000,2043752000,0,0.004587891,-0.00027649078,-0.99998945,1.0,1.0,1.0,0.001848551,-0.0005342995,1.0430813e-05,0.0026192234,-0.0016298726,-1.850602e-05,1.0000172,1.0000185,1.0,5.4673314e-05,4.567531e-06,1.7408297e-09,0.00042296865,-0.00022964306,-2.7409339e-08,0,0,1
2043920000,2043768000,2043768000,0,0.001054797,-0.0021327834,-0.9999972,1.0,1.0,1.0,0.005337322,0.0012762795,1.7940998e-05,0.002660388,-0.0015161368,-1.7539885e-05,1.0000173,1.0000185,1.0,0.00045578423,2.6061745e-05,5.1500706e-09,0.00041849603,-0.0002201741,-2.6460295e-08,0,0,1
2043928000,2043776000,2043776000,0,0.004354838,-0.0031551195,-0.9999856,1.0,1.0,1.0,0.002009394,0.0024010346,6.0796738e-06,0.0026501361,-0.001454449,-1.7167924e-05,1.0000173,1.0000185,1.0,6.4601525e-05,9.223777e-05,5.9139893e-10,0.00041292288,-0.00021525423,-2.6034284e-08,0,0,1
2043936000,2043784000,2043784000,0,0.0025961373,0.0060891593,-0.99997807,1.0,1.0,1.0,0.00367949,-0.006823887,-2.026558e-06,0.0026663465,-0.0015390071,-1.6929478e-05,1.0000173,1.0000186,1.0,0.0002166146,0.0007450331,6.571099e-11,0.0004098314,-0.0002235972,-2.562533e-08,0,0,1
2043944000,2043792000,2043792000,0,0.0009696371,7.2901996e-05,-0.9999995,1.0,1.0,1.0,0.0052535827,-0.0007756785,1.9133091e-05,0.0027070905,-0.0015269861,-1.6361564e-05,1.0000173,1.0000186,1.0,0.0004415945,9.626655e-06,5.8572027e-09,0.00041033162,-0.0002202276,-2.5129541e-08,0,0,1
2043960000,2043808000,2043808000,0,-0.0075068194,-0.005912652,-0.9999543,1.0,1.0,1.0,0.013722131,0.005188326,-2.6106834e-05,0.0029695963,-0.0012946435,-1.64268e-05,1.0000174,1.0000186,1.0,0.0030126977,0.0004306916,1.0905069e-08,0.00046266802,-0.00019562908,-2.4544255e-08,0,0,1
2043968000,2043816000,2043816000,0,-0.0021319983,-0.0058080144,-0.9999808,1.0,1.0,1.0,0.008429123,0.0050943354,8.940697e-07,0.0030555732,-0.0011940297,-1.615403e-05,1.0000174,1.0000186,1.0,0.0011367821,0.00041522834,1.2789769e-11,0.000473284,-0.00018600927,-2.415753e-08,0,0,1
2043976000,2043824000,2043824000,0,0.005841228,0.005615374,-0.9999672,1.0,1.0,1.0,0.0005536489,-0.0062900055,-1.2099743e-05,0.003016173,-0.0012742813,-1.6090184e-05,1.0000174,1.0000187,1.0,4.9043483e-06,0.00063301483,2.3424604e-09,0.00046590794,-0.00019304873,-2.3813985e-08,0,0,1
2043984000,2043832000,2043832000,0,0.008148014,0.0029143486,-0.99996257,1.0,1.0,1.0,-0.001695463,-0.0035810252,-1.6391277e-05,0.002941974,-0.001310608,-1.6094926e-05,1.0000174,1.0000187,1.0,4.5992714e-05,0.00020517602,4.2987836e-09,0.0004578465,-0.00019323971,-2.350666e-08,0,0,1
2044000000,2043848000,2043848000,0,0.014668031,0.00015586524,-0.99989235,1.0,1.0,1.0,-0.008154064,-0.00076876685,-8.6307526e-05,0.002781381,-0.0014194389,-1.7197837e-05,1.0000175,1.0000187,1.0,0.0010638016,9.455863e-06,1.19183824e-07,0.00043047185,-0.00020691664,-2.4711843e-08,0,0,1
2044008000,2043856000,2043856000,0,0.0032212713,-0.007127929,-0.9999694,1.0,1.0,1.0,0.0033085153,0.006599771,-9.119511e-06,0.0027896822,-0.0012931521,-1.7070619e-05,1.0000175,1.0000187,1.0,0.0001751373,0.00069689855,1.3306476e-09,0.00042645083,-0.00019268332,-2.4343635e-08,0,0,1
2044016000,2043864000,2043864000,0,0.0018218039,-0.012871804,-0.9999155,1.0,1.0,1.0,0.0047429614,0.012389911,-6.2823296e-05,0.0028204424,-0.0010776708,-1.7791133e-05,1.0000175,1.0000188,1.0,0.0003599246,0.002456112,6.314826e-08,0.00042540318,-0.00015097001,-2.4954732e-08,0,0,1
2044024000,2043872000,2043872000,0,0.008491272,0.0012205966,-0.99996316,1.0,1.0,1.0,-0.0019224193,-0.001702007,-1.513958e-05,0.0027457518,-0.0010875029,-1.7749377e-05,1.0000175,1.0000188,1.0,5.91301e-05,4.6348374e-05,3.66731e-09,0.00041777274,-0.00014932243,-2.4619496e-08,0,0,1
2044040000,2043888000,2043888000,0,0.01320935,0.0031418728,-0.99990773,1.0,1.0,1.0,-0.006581183,-0.0037682499,-7.015467e-05,0.002514109,-0.0010579613,-1.8761477e-05,1.0000176,1.0000188,1.0,0.0006929793,0.00022719103,7.874684e-08,0.00039196663,-0.00014512283,-2.531056e-08,0,0,1
2044048000,2043896000,2043896000,0,0.0098020565,0.010957892,-0.9998919,1.0,1.0,1.0,-0.0031772358,-0.0116443755,-8.59499e-05,0.0024244816,-0.0012246764,-1.9819563e-05,1.0000176,1.000019,1.0,0.00016151438,0.0021694226,1.1819816e-07,0.0003832504,-0.00017700157,-2.6773357e-08,0,0,1
2044056000,2043904000,2043904000,0,0.009568397,0.008231945,-0.99992037,1.0,1.0,1.0,-0.0029937043,-0.008841961,-5.7816505e-05,0.0023391559,-0.0013446336,-2.041794e-05,1.0000165,1.0000176,1.0,0.00014339389,0.0012508621,5.3483973e-08,0.00037495678,-0.00019391275,-2.7193996e-08,0,0,1
2044064000,2043912000,2043912000,0,0.008846971,-0.0032194117,-0.9999557,1.0,1.0,1.0,-0.0022480176,0.0025788036,-2.2351742e-05,0.002266917,-0.0012828473,-2.0448393e-05,1.0000165,1.0000176,1.0,8.0856e-05,0.00010640177,7.993606e-09,0.00036777864,-0.0001891834,-2.6891628e-08,0,0,1
2044080000,2043928000,2043928000,0,0.0037007339,-0.00015768514,-0.9999931,1.0,1.0,1.0,0.003041101,-0.00035773416,1.5974045e-05,0.0023548747,-0.0014075604,-1.9940346e-05,1.0000166,1.0000176,1.0,0.00014797028,2.0475434e-06,4.0827217e-09,0.00037131258,-0.00020945459,-2.6138036e-08,0,0,1
2044088000,2043936000,2043936000,0,0.009630874,0.0062983725,-0.9999338,1.0,1.0,1.0,-0.0028732899,-0.0067322524,-4.3332577e-05,0.0022725414,-0.0014914138,-2.0308727e-05,1.0000166,1.0000176,1.0,0.00013209053,0.0007251588,3.0043395e-08,0.00036338496,-0.00021757591,-2.6199537e-08,0,0,1
2044096000,2043944000,2043944000,0,-0.0038961228,0.0037014736,-0.9999856,1.0,1.0,1.0,0.010717359,-0.0041128993,8.940697e-06,0.0024055308,-0.001532697,-1.9848107e-05,1.0000166,1.0000178,1.0,0.0018377581,0.00027065026,1.2789769e-09,0.00038660344,-0.00021841173,-2.5766804e-08,0,0,1
2044104000,2043952000,2043952000,0,0.009169403,0.0037463068,-0.9999509,1.0,1.0,1.0,-0.0023462484,-0.0041952175,-2.5689602e-05,0.0023306997,-0.0015746264,-1.9940098e-05,1.0000166,1.0000178,1.0,8.807664e-05,0.0002815926,1.055929e-08,0.00037912815,-0.0002194067,-2.5527315e-08,0,0,1
2044120000,2043968000,2043968000,0,0.008311215,-0.0056778877,-0.99994934,1.0,1.0,1.0,-0.0015950105,0.005200783,-2.8014183e-05,0.0022711353,-0.0014835793,-1.9580793e-05,1.0000167,1.0000178,1.0,4.0704257e-05,0.00043276258,1.2556711e-08,0.00036816092,-0.00020739197,-2.4894899e-08,0,0,1
2044128000,2043976000,2043976000,0,-7.7409255e-05,-0.011436648,-0.9999346,1.0,1.0,1.0,0.00671325,0.011064671,-4.3272972e-05,0.00234109,-0.001285969,-1.9953899e-05,1.0000167,1.0000178,1.0,0.0007210716,0.0019587965,2.9960802e-08,0.00037371856,-0.00017327876,-2.4974677e-08,0,0,1
2044136000,2043984000,2043984000,0,-0.0012360456,-0.0010331896,-0.9999986,1.0,1.0,1.0,0.007785333,0.0007794157,2.014637e-05,0.0024268262,-0.0012534433,-1.9322399e-05,1.0000167,1.0000179,1.0,0.00096976635,9.719648e-06,6.4940195e-09,0.00038310513,-0.0001703969,-2.4479107e-08,0,0,1
2044144000,2043992000,2043992000,0,0.0015512818,-0.0028956346,-0.99999464,1.0,1.0,1.0,0.005005187,0.0026788013,1.6152859e-05,0.0024674302,-0.0011915182,-1.8763732e-05,1.0000167,1.0000179,1.0,0.00040082363,0.00011481357,4.1746375e-09,0.00038338415,-0.0001659054,-2.4027866e-08,0,0,1
2044160000,2044008000,2044008000,0,0.0073456927,-0.004334723,-0.99996364,1.0,1.0,1.0,-0.0008323495,0.004089559,-1.5079975e-05,0.0024362595,-0.00093110604,-1.8985837e-05,1.0000168,1.0000179,1.0,1.1084705e-05,0.0002675871,3.6384904e-09,0.00037482762,-0.00013048435,-2.3670845e-08,0,0,1
2044168000,2044016000,2044016000,0,0.008660862,-0.0030391177,-0.99995786,1.0,1.0,1.0,-0.0021573477,0.0027540475,-2.0980835e-05,0.0023639193,-0.00087307213,-1.9017254e-05,1.0000168,1.0000179,1.0,7.446514e-05,0.00012135428,7.043127e-09,0.00036775213,-0.00012651838,-2.340899e-08,0,0,1
2044176000,2044024000,2044024000,0,-0.004503181,0.00405226,-0.99998164,1.0,1.0,1.0,0.010943597,-0.0044445614,2.3841858e-06,0.0024990323,-0.00092931604,-1.8680224e-05,1.0000168,1.000018,1.0,0.0019161649,0.00031606035,9.094947e-11,0.00039213657,-0.0001295033,-2.3038913e-08,0,0,1
2044184000,2044032000,2044032000,0,0.0006367483,-0.0073098033,-0.9999731,1.0,1.0,1.0,0.005795976,0.0068583684,-6.1392784e-06,0.0025509526,-0.00080667535,-1.848273e-05,1.0000168,1.000018,1.0,0.0005374844,0.0007525819,6.0305183e-10,0.0003944255,-0.000115612194,-2.2685592e-08,0,0,1
2044200000,2044048000,2044048000,0,-0.0010037489,0.003706521,-0.99999255,1.0,1.0,1.0,0.0076235924,-0.0042056176,1.4662743e-05,0.0025183978,-0.00086503493,-1.831821e-05,1.0000169,1.000018,1.0,0.00092989084,0.00028299043,3.4399363e-09,0.00039125883,-0.00011676632,-2.2350573e-08,0,0,1
2044208000,2044056000,2044056000,0,0.0049272585,-0.0012105252,-0.9999871,1.0,1.0,1.0,0.0017413255,0.0007136836,9.4771385e-06,0.0025061604,-0.0008401732,-1.7880488e-05,1.0000169,1.000018,1.0,4.851461e-05,8.149363e-06,1.4370585e-09,0.0003858613,-0.00011479914,-2.1975964e-08,0,0,1
2044216000,2044064000,2044064000,0,0.011347066,0.002056025,-0.9999335,1.0,1.0,1.0,-0.0046585277,-0.0023422728,-4.4107437e-05,0.0023933307,-0.00086382835,-1.8293511e-05,1.0000169,1.0000181,1.0,0.0003472242,8.777827e-05,3.1127456e-08,0.00037431665,-0.000114373615,-2.2120082e-08,0,0,1
2044224000,2044072000,2044072000,0,0.0061040856,0.009059773,-0.99994034,1.0,1.0,1.0,0.00059164036,-0.009217211,-3.7252903e-05,0.0023649577,-0.0009953777,-1.8592084e-05,1.0000169,1.0000181,1.0,5.6005183e-06,0.001359287,2.220446e-08,0.00036851008,-0.00013397855,-2.212141e-08,0,0,1
2044240000,2044088000,2044088000,0,0.005267619,0.006817718,-0.99996287,1.0,1.0,1.0,0.0016203988,-0.007070527,-1.3411045e-05,0.002364762,-0.0011879759,-1.8353505e-05,1.000017,1.0000182,1.0,4.201036e-05,0.000799863,2.877698e-09,0.0003600532,-0.00015541883,-2.1493243e-08,0,0,1
2044248000,2044096000,2044096000,0,-0.0047995974,0.005589823,-0.9999729,1.0,1.0,1.0,0.011593614,-0.0059106755,-3.993511e-06,0.002510098,-0.0012623491,-1.8127363e-05,1.000017,1.0000182,1.0,0.0021505535,0.0005589672,2.551701e-10,0.00038825008,-0.00016177393,-2.1158785e-08,0,0,1
2044256000,2044104000,2044104000,0,0.0054970114,0.0015285342,-0.9999837,1.0,1.0,1.0,0.0012381263,-0.0018679325,6.4969063e-06,0.002490067,-0.0012718858,-1.773958e-05,1.000017,1.0000184,1.0,2.452689e-05,5.5825723e-05,6.7535666e-10,0.00038252215,-0.00016010545,-2.081494e-08,0,0,1
2044264000,2044112000,2044112000,0,0.006721311,-0.009545364,-0.9999319,1.0,1.0,1.0,-5.328562e-06,0.009194074,-4.5478344e-05,0.0024507693,-0.0011070676,-1.817641e-05,1.000017,1.0000184,1.0,4.5428944e-10,0.0013524712,3.3092476e-08,0.00037649818,-0.00013628535,-2.1008288e-08,0,0,1
2044280000,2044128000,2044128000,0,0.004984286,0.0029067923,-0.9999833,1.0,1.0,1.0,0.0017751926,-0.003278825,6.2584877e-06,0.0025594505,-0.0010532915,-1.7443353e-05,1.0000172,1.0000184,1.0,5.0420073e-05,0.00017200793,6.266987e-10,0.00039107064,-0.0001295587,-2.0337383e-08,0,0,1
2044288000,2044136000,2044136000,0,0.0076711243,0.0073546353,-0.9999435,1.0,1.0,1.0,-0.00086928345,-0.007870141,-3.325939e-05,0.0025054547,-0.0011606434,-1.7692424e-05,1.0000172,1.0000184,1.0,1.2090252e-05,0.0009910079,1.7698994e-08,0.00038472164,-0.00014312482,-2.0295834e-08,0,0,1
2044296000,2044144000,2044144000,0,-0.0021619922,2.5786545e-05,-0.9999977,1.0,1.0,1.0,0.009101,-0.00061558053,2.1874905e-05,0.0026093216,-0.0011520598,-1.7069317e-05,1.0000172,1.0000185,1.0,0.0013252284,6.0629186e-06,7.656183e-09,0.0003995328,-0.00014096637,-1.9855644e-08,0,0,1
2044304000,2044152000,2044152000,0,0.0035490156,0.004626492,-0.999983,1.0,1.0,1.0,0.0033727256,-0.0053552706,7.2717667e-06,0.0026213438,-0.001218252,-1.6685992e-05,1.0000172,1.0000185,1.0,0.00018200131,0.0004588543,8.4605745e-10,0.0003961071,-0.00014597247,-1.9529633e-08,0,0,1
2044320000,2044168000,2044168000,0,0.006400674,0.0038940066,-0.999972,1.0,1.0,1.0,0.0005503362,-0.0045877006,-3.6358833e-06,0.0024724642,-0.0013001165,-1.6965563e-05,1.0000173,1.0000185,1.0,4.8458355e-06,0.00033674572,2.1151436e-10,0.00037790087,-0.00014906138,-1.949366e-08,0,0,1
2044328000,2044176000,2044176000,0,0.0039074197,0.0037744546,-0.9999853,1.0,1.0,1.0,0.0030167187,-0.0043282416,9.357929e-06,0.0024810352,-0.0013478035,-1.655102e-05,1.0000173,1.0000185,1.0,0.00014560694,0.00029973328,1.4011334e-09,0.0003742427,-0.00015143417,-1.9164608e-08,0,0,1
2044336000,2044184000,2044184000,0,0.0063344217,-0.002843269,-0.9999759,1.0,1.0,1.0,0.000634796,0.0023839644,3.5762787e-07,0.0024519605,-0.0012890355,-1.6284741e-05,1.0000173,1.0000186,1.0,6.447344e-06,9.093089e-05,2.046363e-12,0.00036845065,-0.0001476174,-1.8862771e-08,0,0,1
2044344000,2044192000,2044192000,0,0.0022378825,0.0134137,-0.9999075,1.0,1.0,1.0,0.004646883,-0.013900034,-6.866455e-05,0.0024865263,-0.0014876339,-1.710962e-05,1.0000173,1.0000186,1.0,0.00034549035,0.0030913176,7.543713e-08,0.00036808907,-0.00019397488,-1.9753706e-08,0,0,1
2044360000,2044208000,2044208000,0,0.0076899584,0.0011561646,-0.9999697,1.0,1.0,1.0,-0.0008823252,-0.0016110567,-6.9737434e-06,0.0025418631,-0.0015772404,-1.671621e-05,1.0000174,1.0000186,1.0,1.2455748e-05,4.1527288e-05,7.7812956e-10,0.0003786755,-0.00020122188,-1.9149713e-08,0,0,1
2044368000,2044216000,2044216000,0,0.0016866539,0.003876225,-0.9999911,1.0,1.0,1.0,0.0051590735,-0.0043543056,1.4603138e-05,0.002583079,-0.0016209737,-1.6222992e-05,1.0000174,1.0000186,1.0,0.0004258492,0.000303354,3.4120262e-09,0.0003794184,-0.00020283026,-1.879441e-08,0,0,1
2044376000,2044224000,2044224000,0,0.0005307426,0.009464113,-0.99995506,1.0,1.0,1.0,0.0063807443,-0.009862536,-2.0980835e-05,0.0026428849,-0.0017507621,-1.6297918e-05,1.0000174,1.0000187,1.0,0.000651411,0.0015562846,7.043127e-09,0.00038370176,-0.00022414449,-1.860935e-08,0,0,1
2044384000,2044232000,2044232000,0,0.006905233,0.006045383,-0.99995786,1.0,1.0,1.0,2.1926593e-05,-0.006491265,-1.8000603e-05,0.00260161,-0.0018254156,-1.6324731e-05,1.0000174,1.0000187,1.0,7.6922735e-09,0.00067417166,5.184347e-09,0.00037765934,-0.00023123153,-1.8397934e-08,0,0,1
2044400000,2044248000,2044248000,0,-0.009294733,0.0029216916,-0.9999525,1.0,1.0,1.0,0.01620002,-0.0032886171,-2.360344e-05,0.0027553388,-0.0018237382,-1.6336915e-05,1.0000175,1.0000187,1.0,0.0041989773,0.0001730368,8.913958e-09,0.00043156705,-0.00022674417,-1.7986821e-08,0,0,1
2044408000,2044256000,2044256000,0,0.0020942006,-0.0009112867,-0.9999974,1.0,1.0,1.0,0.004798063,0.00057905854,2.1159649e-05,0.0027875076,-0.0017858989,-1.5746418e-05,1.0000175,1.0000187,1.0,0.0003683361,5.36484e-06,7.163692e-09,0.0004305713,-0.00022308891,-1.759075e-08,0,0,1
2044416000,2044264000,2044264000,0,0.010096511,0.0061478727,-0.99993014,1.0,1.0,1.0,-0.0032140887,-0.006522372,-4.607439e-05,0.0026929942,-0.001860489,-1.6224025e-05,1.0000175,1.0000188,1.0,0.00016528297,0.00068064855,3.396559e-08,0.00042118775,-0.00023029456,-1.7848622e-08,0,0,1
2044424000,2044272000,2044272000,0,0.01043851,0.004024313,-0.9999375,1.0,1.0,1.0,-0.0035350658,-0.004434119,-3.8564205e-05,0.0025949145,-0.0019010187,-1.657584e-05,1.0000175,1.0000188,1.0,0.00019994353,0.00031457664,2.3795167e-08,0.00041140616,-0.00023162185,-1.7942268e-08,0,0,1
2044440000,2044288000,2044288000,0,-0.0038196873,0.0012000818,-0.999992,1.0,1.0,1.0,0.0106363315,-0.001608295,1.5318394e-05,0.0026403714,-0.0019683565,-1.645042e-05,1.0000176,1.0000188,1.0,0.0018100729,4.138503e-05,3.754451e-09,0.00042532396,-0.00023565206,-1.7737111e-08,0,0,1
2044448000,2044296000,2044296000,0,0.005018806,0.005398677,-0.9999728,1.0,1.0,1.0,0.001699592,-0.005819187,-4.4703484e-06,0.002625556,-0.0020289996,-1.6261758e-05,1.0000176,1.0000188,1.0,4.6216992e-05,0.0005417968,3.1974423e-10,0.00041935378,-0.00024047324,-1.7462822e-08,0,0,1
2044456000,2044304000,2044304000,0,-0.00045104814,0.00085379835,-0.9999995,1.0,1.0,1.0,0.006998917,-0.0010996177,2.0980835e-05,0.0026944277,-0.0020143637,-1.5675261e-05,1.0000165,1.0000176,1.0,0.0007837445,1.9346204e-05,7.043127e-09,0.0004250922,-0.00023699092,-1.7076902e-08,0,0,1
2044464000,2044312000,2044312000,0,0.00096914254,-0.0074479785,-0.9999717,1.0,1.0,1.0,0.005622125,0.0071943454,-6.6161156e-06,0.002740533,-0.0018693446,-1.5532598e-05,1.0000165,1.0000176,1.0,0.00050572434,0.00082812307,7.0036776e-10,0.000426362,-0.00022021747,-1.6819003e-08,0,0,1
2044480000,2044328000,2044328000,0,0.009072218,-0.0011666869,-0.99995816,1.0,1.0,1.0,-0.0023600012,0.0010068959,-1.9311905e-05,0.002685164,-0.0017508119,-1.5117619e-05,1.0000166,1.0000176,1.0,8.911221e-05,1.6221144e-05,5.9671947e-09,0.00041632945,-0.00021105832,-1.6331017e-08,0,0,1
2044488000,2044336000,2044336000,0,0.007324287,-0.00035019164,-0.99997306,1.0,1.0,1.0,-0.0005687056,0.00014441993,-4.053116e-06,0.002633922,-0.0017209657,-1.4943375e-05,1.0000166,1.0000176,1.0,5.174731e-06,3.33708e-07,2.6284397e-10,0.0004096916,-0.0002077293,-1.6077975e-08,0,0,1
2044496000,2044344000,2044344000,0,-4.0562532e-05,0.0076946598,-0.9999703,1.0,1.0,1.0,0.006813961,-0.008017266,-6.735325e-06,0.0026997495,-0.00182012,-1.4814114e-05,1.0000166,1.0000176,1.0,0.00074286875,0.0010284068,7.258336e-10,0.0004149385,-0.00022065335,-1.5836209e-08,0,0,1
2044504000,2044352000,2044352000,0,0.0048898743,0.0038867001,-0.9999805,1.0,1.0,1.0,0.0018683109,-0.0042186957,3.33786e-06,0.002686656,-0.0018578928,-1.45282565e-05,1.0000166,1.0000178,1.0,5.5848443e-05,0.00028475322,1.7826096e-10,0.00040928353,-0.0002216628,-1.5584012e-08,0,0,1
2044520000,2044368000,2044368000,0,0.0027636753,0.0018051655,-0.9999945,1.0,1.0,1.0,0.0038958008,-0.0021982042,1.680851e-05,0.002734108,-0.0017137317,-1.4022067e-05,1.0000167,1.0000178,1.0,0.00024283217,7.731225e-05,4.520416e-09,0.00040538402,-0.00020090991,-1.5072462e-08,0,0,1
2044528000,2044376000,2044376000,0,-0.0045718537,0.0015879662,-0.9999884,1.0,1.0,1.0,0.011191618,-0.0019648082,1.0371208e-05,0.002867297,-0.0017176856,-1.3637921e-05,1.0000167,1.0000178,1.0,0.0020040034,6.176644e-05,1.7209913e-09,0.00043055913,-0.00019871867,-1.4807998e-08,0,0,1
2044536000,2044384000,2044384000,0,-0.0010197086,-0.0019577383,-0.9999976,1.0,1.0,1.0,0.0075210165,0.0015921739,1.8775463e-05,0.002940584,-0.0016655618,-1.3127475e-05,1.0000167,1.0000178,1.0,0.00090503594,4.0559564e-05,5.6402882e-09,0.00043803122,-0.00019495051,-1.4485978e-08,0,0,1
2044544000,2044392000,2044392000,0,0.0034571833,0.0016861308,-0.99999267,1.0,1.0,1.0,0.00300547,-0.0020100935,1.3589859e-05,0.0029416059,-0.0016709875,-1.2706729e-05,1.0000167,1.0000179,1.0,0.00014452318,6.464646e-05,2.9549483e-09,0.00043340903,-0.00019289847,-1.42113175e-08,0,0,1
2044560000,2044408000,2044408000,0,-0.0010414132,-0.00151455,-0.9999984,1.0,1.0,1.0,0.007612176,0.0013490737,1.9967556e-05,0.0030280554,-0.0015893206,-1.1728219e-05,1.0000168,1.0000179,1.0,0.00092710793,2.9119477e-05,6.3792527e-09,0.00043799763,-0.00018634267,-1.3593192e-08,0,0,1
2044568000,2044416000,2044416000,0,0.0049153743,0.000520314,-0.9999878,1.0,1.0,1.0,0.0016625603,-0.000738387,9.4771385e-06,0.0030065516,-0.00157592,-1.1394276e-05,1.0000168,1.0000179,1.0,4.4224966e-05,8.723289e-06,1.4370585e-09,0.00043179648,-0.00018354552,-1.33564955e-08,0,0,1
2044576000,2044424000,2044424000,0,0.0019957018,0.00038161303,-0.999998,1.0,1.0,1.0,0.004631995,-0.0005634458,2.002716e-05,0.0030321493,-0.0015599756,-1.089945e-05,1.0000168,1.000018,1.0,0.00034328032,5.079447e-06,6.4173946e-09,0.00043040252,-0.00018073503,-1.3045096e-08,0,0,1
2044584000,2044432000,2044432000,0,0.005751646,-0.0037568142,-0.9999764,1.0,1.0,1.0,0.0008746907,0.0036851084,-1.66893e-06,0.0029981735,-0.0014773759,-1.0754087e-05,1.0000168,1.000018,1.0,1.2241136e-05,0.00021727647,4.456524e-11,0.0004238173,-0.00017446713,-1.28403626e-08,0,0,1
2044600000,2044448000,2044448000,0,0.006522663,0.013096692,-0.99989307,1.0,1.0,1.0,1.1486933e-05,-0.013256338,-8.5651875e-05,0.0029566686,-0.0018047163,-1.2369256e-05,1.0000169,1.000018,1.0,2.1111581e-09,0.0028116377,1.173799e-07,0.0004133652,-0.00024130876,-1.4662177e-08,0,0,1
2044608000,2044456000,2044456000,0,0.004907319,-0.008250662,-0.9999539,1.0,1.0,1.0,0.0015821918,0.008123038,-2.503395e-05,0.0029350233,-0.0016483737,-1.25687e-05,1.0000169,1.000018,1.0,4.005262e-05,0.0010557211,1.0027179e-08,0.00040748625,-0.0002208831,-1.4589185e-08,0,0,1
2044616000,2044464000,2044464000,0,-0.0017635407,-0.003362456,-0.99999285,1.0,1.0,1.0,0.008315598,0.0032050288,1.4305115e-05,0.0030197566,-0.0015719421,-1.21454905e-05,1.0000169,1.0000181,1.0,0.0011063679,0.00016435237,3.274181e-09,0.00041849227,-0.0002148164,-1.4307872e-08,0,0,1
2044624000,2044472000,2044472000,0,0.011171228,-0.005092969,-0.99992466,1.0,1.0,1.0,-0.0045864424,0.0049040206,-5.364418e-05,0.002899974,-0.0014699585,-1.2799013e-05,1.0000169,1.0000182,1.0,0.00033656156,0.00038478366,4.604317e-08,0.00040660167,-0.00020537389,-1.48076404e-08,0,0,1
2044640000,2044488000,2044488000,0,0.005398136,0.0011955176,-0.9999847,1.0,1.0,1.0,0.0010444014,-0.0012825867,5.4836273e-06,0.002818282,-0.0014155449,-1.23940135e-05,1.000017,1.0000182,1.0,1.7452092e-05,2.6319978e-05,4.811227e-10,0.0003941126,-0.00019852187,-1.43441765e-08,0,0,1
2044648000,2044496000,2044496000,0,-0.004983441,-0.006712743,-0.9999651,1.0,1.0,1.0,0.011333009,0.0066318326,-1.4722347e-05,0.0029523722,-0.0012888145,-1.243068e-05,1.000017,1.0000182,1.0,0.0020549586,0.00070368644,3.4679601e-09,0.00042026766,-0.00018431386,-1.41728975e-08,0,0,1
2044656000,2044504000,2044504000,0,0.002273786,-0.0021167684,-0.9999952,1.0,1.0,1.0,0.004059513,0.0020516166,1.5258789e-05,0.0029698075,-0.0012362093,-1.1994625e-05,1.000017,1.0000184,1.0,0.00026366988,6.734485e-05,3.7252903e-09,0.00041780155,-0.00018035073,-1.3891036e-08,0,0,1
2044664000,2044512000,2044512000,0,0.01115487,-0.0013233145,-0.99993694,1.0,1.0,1.0,-0.0048378464,0.0013449073,-4.3153763e-05,0.0028468524,-0.0011955618,-1.248532e-05,1.000017,1.0000184,1.0,0.00037446976,2.8939881e-05,2.9795956e-08,0.00040532483,-0.00017705481,-1.4141507e-08,0,0,1
2044680000,2044528000,2044528000,0,0.0022105519,0.0032609112,-0.9999923,1.0,1.0,1.0,0.004202809,-0.0032117837,1.2874603e-05,0.0027937556,-0.0012177419,-1.21160065e-05,1.0000172,1.0000184,1.0,0.00028261283,0.00016504584,2.6520866e-09,0.0003961606,-0.0001742042,-1.3709446e-08,0,0,1
2044688000,2044536000,2044536000,0,0.002806145,0.0031568357,-0.9999911,1.0,1.0,1.0,0.0036719118,-0.0030601844,1.2040138e-05,0.0028075848,-0.0012467568,-1.1735595e-05,1.0000172,1.0000184,1.0,0.00021572328,0.00014983291,2.3194389e-09,0.0003933191,-0.00017382039,-1.3457023e-08,0,0,1
2044696000,2044544000,2044544000,0,0.011494925,-0.0021412321,-0.9999317,1.0,1.0,1.0,-0.004950044,0.0023272885,-4.684925e-05,0.0026854174,-0.0011904726,-1.2288566e-05,1.0000172,1.0000184,1.0,0.00039204027,8.665876e-05,3.5117637e-08,0.0003809512,-0.00016971835,-1.3798135e-08,0,0,1
2044704000,2044552000,2044552000,0,0.019055068,2.9071707e-05,-0.99981844,1.0,1.0,1.0,-0.01244656,0.000111217385,-0.00015974045,0.0024471185,-0.0011699735,-1.4610643e-05,1.0000172,1.0000185,1.0,0.002478627,1.9790525e-07,4.0827217e-07,0.00033591848,-0.0001670425,-2.0010324e-08,0,0,1
2044720000,2044568000,2044568000,0,0.00545663,-0.004593505,-0.99997455,1.0,1.0,1.0,0.0011683418,0.004737264,-3.516674e-06,0.0023409699,-0.0010064314,-1.4685264e-05,1.0000173,1.0000185,1.0,2.1839984e-05,0.0003590601,1.9787194e-10,0.00032337938,-0.00015333612,-1.9621838e-08,0,0,1
2044728000,2044576000,2044576000,0,-0.0036879182,-0.0004894263,-0.9999931,1.0,1.0,1.0,0.010222049,0.0006643969,1.4424324e-05,0.0024650814,-0.0009801191,-1.4226845e-05,1.0000173,1.0000185,1.0,0.0016718159,7.0626415e-06,3.328978e-09,0.00034461461,-0.00015081016,-1.9260408e-08,0,0,1
2044736000,2044584000,2044584000,0,0.004490466,0.0040222825,-0.9999819,1.0,1.0,1.0,0.0019773305,-0.0038098965,2.8014183e-06,0.0024574003,-0.0010246825,-1.3958684e-05,1.0000173,1.0000186,1.0,6.255629e-05,0.00023224067,1.2556711e-10,0.00034017276,-0.00015209253,-1.8955117e-08,0,0,1
2044744000,2044592000,2044592000,0,0.006330387,0.0052574826,-0.9999662,1.0,1.0,1.0,0.00016373675,-0.005038152,-1.2695789e-05,0.0024212797,-0.0010878867,-1.3938796e-05,1.0000173,1.0000186,1.0,4.2894817e-07,0.00040612003,2.578929e-09,0.00033482246,-0.00015609297,-1.8697223e-08,0,0,1
2044760000,2044608000,2044608000,0,0.021216491,0.0030120728,-0.99977034,1.0,1.0,1.0,-0.014676911,-0.00286961,-0.00020831823,0.0021054344,-0.0010964079,-1.6844813e-05,1.0000174,1.0000186,1.0,0.0034465273,0.00013175214,6.943438e-07,0.0002699993,-0.00015328282,-2.9051357e-08,0,0,1
2044768000,2044616000,2044616000,0,0.002082364,0.010066376,-0.99994713,1.0,1.0,1.0,0.004432421,-0.009923525,-3.159046e-05,0.0021420799,-0.0012354176,-1.7077029e-05,1.0000174,1.0000186,1.0,0.00031433624,0.0015755923,1.5967316e-08,0.00027069752,-0.00017568139,-2.8845308e-08,0,0,1
2044776000,2044624000,2044624000,0,-0.0013635535,0.0041167,-0.99999064,1.0,1.0,1.0,0.007907876,-0.0039384845,1.2040138e-05,0.0022328799,-0.0012779855,-1.6618491e-05,1.0000174,1.0000187,1.0,0.0010005345,0.0002481819,2.3194389e-09,0.00028219103,-0.00017682313,-2.8354524e-08,0,0,1
2044784000,2044632000,2044632000,0,-0.0076932283,0.0065912544,-0.9999487,1.0,1.0,1.0,0.014253244,-0.0063427347,-2.9742718e-05,0.002422177,-0.0013577454,-1.6825172e-05,1.0000174,1.0000187,1.0,0.0032504227,0.0006436725,1.4154068e-08,0.00032893484,-0.0001841751,-2.8130895e-08,0,0,1
2044800000,2044648000,2044648000,0,0.0077003757,0.0040013827,-0.99996233,1.0,1.0,1.0,-0.0012218468,-0.003752604,-1.6629696e-05,0.002269178,-0.0014569743,-1.7294858e-05,1.0000175,1.0000187,1.0,2.3886136e-05,0.00022530835,4.4247486e-09,0.00031479937,-0.00018900399,-2.7877002e-08,0,0,1
2044808000,2044656000,2044656000,0,0.0056115724,0.0033284137,-0.9999787,1.0,1.0,1.0,0.00087093515,-0.0030956406,-2.3841858e-07,0.0022471584,-0.0014827801,-1.7026254e-05,1.0000175,1.0000187,1.0,1.21362355e-05,0.00015332499,9.094947e-13,0.00031003304,-0.0001884421,-2.743801e-08,0,0,1
2044816000,2044664000,2044664000,0,0.0075332993,0.004850803,-0.9999598,1.0,1.0,1.0,-0.0010010139,-0.0046562194,-1.8894672e-05,0.002196006,-0.0015327556,-1.7055678e-05,1.0000175,1.0000188,1.0,1.6032182e-05,0.00034687953,5.7121383e-09,0.00030489816,-0.00019093718,-2.7095869e-08,0,0,1
2044824000,2044672000,2044672000,0,0.00010579276,0.003863219,-0.99999255,1.0,1.0,1.0,0.0063589253,-0.0037464392,1.347065e-05,0.002261564,-0.0015676167,-1.6574948e-05,1.0000176,1.0000188,1.0,0.0006469635,0.00022456868,2.9033345e-09,0.00031028502,-0.00019146681,-2.662344e-08,0,0,1
2044840000,2044688000,2044688000,0,0.0029118045,0.005122538,-0.9999826,1.0,1.0,1.0,0.0033946831,-0.0050139176,2.503395e-06,0.0024532306,-0.0016195622,-1.610351e-05,1.0000178,1.0000188,1.0,0.0001843787,0.00040222233,1.0027179e-10,0.00034852876,-0.00019231635,-2.5797549e-08,0,0,1
2044848000,2044696000,2044696000,0,-0.0027132928,0.015221604,-0.9998804,1.0,1.0,1.0,0.008999229,-0.0150650535,-9.9897385e-05,0.0025563173,-0.0018313022,-1.7423097e-05,1.0000178,1.0000188,1.0,0.001295755,0.0036312249,1.596718e-07,0.00036344572,-0.0002464724,-2.7905806e-08,0,0,1
2044856000,2044704000,2044704000,0,-0.0059869196,-0.0003696929,-0.99998206,1.0,1.0,1.0,0.012192899,0.00068175665,1.3113022e-06,0.0027080744,-0.0017917264,-1.7128068e-05,1.0000165,1.0000175,1.0,0.0023786295,7.4365435e-06,2.7512215e-11,0.0003951809,-0.00024247383,-2.746591e-08,0,0,1
2044864000,2044712000,2044712000,0,0.009632182,0.000562979,-0.99995345,1.0,1.0,1.0,-0.0034297053,-0.00021976235,-2.7239323e-05,0.0026114164,-0.0017669711,-1.72873e-05,1.0000165,1.0000176,1.0,0.00018820295,7.7271426e-07,1.1871691e-08,0.00038599374,-0.00023866752,-2.7220333e-08,0,0,1
2044880000,2044728000,2044728000,0,0.0046837907,0.011601943,-0.9999217,1.0,1.0,1.0,0.00142847,-0.011292501,-5.9604645e-05,0.0025334216,-0.0019088862,-1.7832657e-05,1.0000166,1.0000176,1.0,3.2647884e-05,0.0020402933,5.684342e-08,0.00037407805,-0.00026372453,-2.7287197e-08,0,0,1
2044888000,2044736000,2044736000,0,-0.008001971,0.009760136,-0.9999204,1.0,1.0,1.0,0.014096925,-0.009443697,-6.097555e-05,0.002715524,-0.0020275447,-1.8512073e-05,1.0000166,1.0000176,1.0,0.0031795201,0.0014269094,5.9488286e-08,0.00041825825,-0.0002820424,-2.77943e-08,0,0,1
2044896000,2044744000,2044744000,0,-0.0014875123,0.0056058555,-0.9999832,1.0,1.0,1.0,0.0075829616,-0.0053209346,1.7881393e-06,0.0027921766,-0.002079409,-1.8192384e-05,1.0000166,1.0000176,1.0,0.00092000567,0.0004529895,5.1159077e-11,0.0004261598,-0.00028473447,-2.7355789e-08,0,0,1
2044904000,2044752000,2044752000,0,0.0071080774,0.0011125742,-0.99997413,1.0,1.0,1.0,-0.001024636,-0.0008809395,-7.3313713e-06,0.0027320692,-0.0020605356,-1.8021345e-05,1.0000166,1.0000178,1.0,1.6797783e-05,1.241665e-05,8.599841e-10,0.00041918407,-0.000280446,-2.6938531e-08,0,0,1
2044920000,2044768000,2044768000,0,-0.0031206775,-0.008954774,-0.999955,1.0,1.0,1.0,0.009266412,0.009125832,-2.6106834e-05,0.0029028768,-0.0019309155,-1.7800978e-05,1.0000167,1.0000178,1.0,0.0013738393,0.0013324692,1.0905069e-08,0.0004402679,-0.00025705676,-2.6263663e-08,0,0,1
2044928000,2044776000,2044776000,0,0.0030580813,-0.010075125,-0.9999445,1.0,1.0,1.0,0.003113984,0.010189861,-3.6418438e-05,0.0029062014,-0.0017400371,-1.8094166e-05,1.0000167,1.0000178,1.0,0.00015514775,0.0016613029,2.1220842e-08,0.00043577782,-0.00022684637,-2.618425e-08,0,0,1
2044936000,2044784000,2044784000,0,0.005098964,-0.006449048,-0.9999662,1.0,1.0,1.0,0.0010461742,0.006542282,-1.4901161e-05,0.0028769097,-0.0016096069,-1.8043882e-05,1.0000167,1.0000178,1.0,1.7511395e-05,0.00068481115,3.5527137e-09,0.00042919096,-0.00021248955,-2.5827847e-08,0,0,1
2044944000,2044792000,2044792000,0,0.0039103134,0.003636973,-0.9999857,1.0,1.0,1.0,0.0022121589,-0.0034650287,4.4703484e-06,0.0028664412,-0.0016388261,-1.7689326e-05,1.0000167,1.0000179,1.0,7.829704e-05,0.00019209935,3.1974423e-10,0.00042366507,-0.00021216845,-2.5416073e-08,0,0,1
2044960000,2044808000,2044808000,0,-0.0025171505,0.0043758014,-0.9999872,1.0,1.0,1.0,0.008724227,-0.004139074,6.4969063e-06,0.002844009,-0.0017263301,-1.7807539e-05,1.0000168,1.0000179,1.0,0.0012177736,0.00027410607,6.7535666e-10,0.00042450964,-0.00021543648,-2.5228488e-08,0,0,1
2044968000,2044816000,2044816000,0,0.0015366735,0.0066798343,-0.9999766,1.0,1.0,1.0,0.0046528936,-0.0063712196,-4.23193e-06,0.0028724954,-0.001799478,-1.759375e-05,1.0000168,1.0000179,1.0,0.00034638488,0.0006494674,2.8654767e-10,0.00042327933,-0.00022227161,-2.4835701e-08,0,0,1
2044976000,2044824000,2044824000,0,0.005042898,-0.0068557276,-0.9999637,1.0,1.0,1.0,0.0011591334,0.0070509072,-1.7046928e-05,0.0028455134,-0.0016601018,-1.7585138e-05,1.0000168,1.0000179,1.0,2.1497082e-05,0.0007954305,4.6495643e-09,0.00041695204,-0.0002062448,-2.451781e-08,0,0,1
2044984000,2044832000,2044832000,0,0.0078780195,0.0030132763,-0.99996436,1.0,1.0,1.0,-0.001672036,-0.0028837277,-1.6331673e-05,0.0027743708,-0.0016793715,-1.7565399e-05,1.0000168,1.000018,1.0,4.4730517e-05,0.00013305177,4.2675765e-09,0.00040968144,-0.00020509216,-2.419891e-08,0,0,1
2045000000,2044848000,2044848000,0,-0.0029287867,0.0008247079,-0.99999535,1.0,1.0,1.0,0.0090095205,-0.00083231437,1.3887882e-05,0.0028034912,-0.001619827,-1.699182e-05,1.0000169,1.000018,1.0,0.0012987214,1.1083756e-05,3.0859724e-09,0.00041663056,-0.00019843783,-2.3432998e-08,0,0,1
2045008000,2044856000,2044856000,0,0.0091478,0.0019190974,-0.99995625,1.0,1.0,1.0,-0.0031014606,-0.001988485,-2.5391579e-05,0.0027104998,-0.0016256326,-1.71241e-05,1.0000169,1.000018,1.0,0.00015390232,6.326402e-05,1.0315716e-08,0.0004076458,-0.0001963091,-2.3226427e-08,0,0,1
2045016000,2044864000,2044864000,0,0.0043584183,-0.0022827901,-0.99998796,1.0,1.0,1.0,0.0016844193,0.0021751868,6.198883e-06,0.0026943411,-0.0015657772,-1.675681e-05,1.0000169,1.0000181,1.0,4.539553e-05,7.5701624e-05,6.148184e-10,0.00040194107,-0.00019202547,-2.2850974e-08,0,0,1
2045024000,2044872000,2044872000,0,-0.003623432,-0.011080356,-0.99993205,1.0,1.0,1.0,0.009559443,0.010938015,-5.030632e-05,0.002802453,-0.0013688671,-1.7285149e-05,1.0000169,1.0000181,1.0,0.0014621025,0.001914208,4.0491614e-08,0.00041863654,-0.00015885645,-2.312878e-08,0,0,1
2045040000,2044888000,2044888000,0,0.0063670515,-0.0036899552,-0.99997294,1.0,1.0,1.0,-0.0004201294,0.003513686,-9.357929e-06,0.0028055578,-0.0012232964,-1.6699301e-05,1.000017,1.0000182,1.0,2.824091e-06,0.00019753221,1.4011334e-09,0.00041528145,-0.00014845643,-2.238963e-08,0,0,1
2045048000,2044896000,2044896000,0,0.0050227013,0.0025713255,-0.9999841,1.0,1.0,1.0,0.0009313491,-0.0028384295,1.847744e-06,0.0027760428,-0.0012487315,-1.6407223e-05,1.000017,1.0000182,1.0,1.38783425e-05,0.00012890456,5.4626526e-11,0.00040896013,-0.00014814852,-2.2036177e-08,0,0,1
2045056000,2044904000,2044904000,0,0.0023487264,-0.0034136057,-0.9999915,1.0,1.0,1.0,0.003660394,0.0031187607,9.596348e-06,0.0027899696,-0.001179952,-1.5997717e-05,1.000017,1.0000184,1.0,0.0002143721,0.00015562384,1.4734383e-09,0.00040589576,-0.00014336471,-2.1665947e-08,0,0,1
2045064000,2044912000,2044912000,0,-0.010194611,-0.01713767,-0.99980116,1.0,1.0,1.0,0.016113933,0.016925996,-0.00018125772,0.0029997958,-0.00089481904,-1.8600236e-05,1.000017,1.0000184,1.0,0.0041544707,0.0045837453,5.256698e-07,0.00046492842,-6.892204e-05,-2.9603015e-08,0,0,1
2045080000,2044928000,2044928000,0,0.009658896,0.00025786145,-0.99995327,1.0,1.0,1.0,-0.0038389228,-0.0005153385,-2.9802322e-05,0.0028520573,-0.001001634,-1.8946585e-05,1.0000172,1.0000184,1.0,0.00023579321,4.249102e-06,1.4210855e-08,0.00044673003,-8.339542e-05,-2.911853e-08,0,0,1
2045088000,2044936000,2044936000,0,0.004208024,0.0053980085,-0.99997663,1.0,1.0,1.0,0.0015551602,-0.0057047894,-6.67572e-06,0.0028316337,-0.0010756995,-1.8753342e-05,1.0000172,1.0000184,1.0,3.8695704e-05,0.00052070443,7.1304385e-10,0.00044030428,-9.028218e-05,-2.8671199e-08,0,0,1
2045096000,2044944000,2044944000,0,-0.0041548503,-0.0019891218,-0.99998945,1.0,1.0,1.0,0.009972008,0.0016071738,6.4969063e-06,0.0029440806,-0.0010334495,-1.83557e-05,1.0000172,1.0000185,1.0,0.0015910277,4.132736e-05,6.7535666e-10,0.0004584259,-8.8209585e-05,-2.8209048e-08,0,0,1
2045104000,2044952000,2044952000,0,0.008894646,0.0017138608,-0.9999589,1.0,1.0,1.0,-0.0030203024,-0.002107786,-2.3901463e-05,0.0028501533,-0.0010503682,-1.8443036e-05,1.0000172,1.0000185,1.0,0.00014595312,7.1082875e-05,9.140479e-09,0.00044890813,-8.793987e-05,-2.7908754e-08,0,0,1
2045120000,2044968000,2044968000,0,0.011123321,0.0072801863,-0.9999116,1.0,1.0,1.0,-0.005292286,-0.0077659776,-7.1287155e-05,0.0028823053,-0.0011394074,-1.9133484e-05,1.0000173,1.0000185,1.0,0.00044812495,0.00096494873,8.1309736e-08,0.00047101604,-0.00010038777,-2.833857e-08,0,0,1
2045128000,2044976000,2044976000,0,0.009964469,0.011920096,-0.9998793,1.0,1.0,1.0,-0.0041295006,-0.0123835495,-0.00010359287,0.0027718833,-0.0013164805,-2.0463553e-05,1.0000173,1.0000185,1.0,0.00027283968,0.0024535914,1.7170373e-07,0.00045930178,-0.0001374461,-3.059629e-08,0,0,1
2045136000,2044984000,2044984000,0,0.0038009873,0.0042335,-0.99998385,1.0,1.0,1.0,0.0020709424,-0.0047331345,1.1920929e-06,0.0027608448,-0.001370286,-2.012252e-05,1.0000173,1.0000186,1.0,6.861966e-05,0.00035843434,2.2737368e-11,0.00045314932,-0.00014092623,-3.01141e-08,0,0,1
2045144000,2044992000,2044992000,0,-0.00033392585,-0.0025791035,-0.9999966,1.0,1.0,1.0,0.006230063,0.0020692013,1.4066696e-05,0.002815478,-0.0013161208,-1.9584106e-05,1.0000173,1.0000186,1.0,0.0006210082,6.850423e-05,3.165951e-09,0.00045579276,-0.00013762811,-2.9590007e-08,0,0,1
2045160000,2045008000,2045008000,0,0.012994719,0.00094799005,-0.9999151,1.0,1.0,1.0,-0.0071183513,-0.0012846523,-6.759167e-05,0.0026034575,-0.0012781447,-2.0128038e-05,1.0000174,1.0000186,1.0,0.0008107207,2.6404812e-05,7.3098136e-08,0.00042863566,-0.00013344217,-2.9825163e-08,0,0,1
2045168000,2045016000,2045016000,0,0.011789247,-0.0142870275,-0.9998284,1.0,1.0,1.0,-0.005972827,0.014060576,-0.00015461445,0.0024683978,-0.00103659,-2.2245935e-05,1.0000174,1.0000186,1.0,0.0005707846,0.003163138,3.8249004e-07,0.00041289674,-8.152752e-05,-3.537894e-08,0,0,1
2045176000,2045024000,2045024000,0,-0.001141031,3.1438107e-05,-0.9999993,1.0,1.0,1.0,0.0069209263,-0.0002758438,1.5974045e-05,0.0025385164,-0.0010246097,-2.1644046e-05,1.0000174,1.0000187,1.0,0.00076637417,1.2174141e-06,4.0827217e-09,0.0004184633,-8.026279e-05,-3.4757495e-08,0,0,1
2045184000,2045032000,2045032000,0,0.0042172917,0.00010253357,-0.9999911,1.0,1.0,1.0,0.0016267239,-0.00040238578,8.225441e-06,0.0025241575,-0.0010148109,-2.117366e-05,1.0000174,1.0000187,1.0,4.2338954e-05,2.5905806e-06,1.0825261e-09,0.0004125401,-7.903961e-05,-3.4193086e-08,0,0,1
2045200000,2045048000,2045048000,0,0.010719922,-0.0019916692,-0.9999406,1.0,1.0,1.0,-0.0049286634,0.001698754,-4.261732e-05,0.0022172718,-0.00091979426,-2.2849832e-05,1.0000175,1.0000187,1.0,0.00038866076,4.617138e-05,2.9059777e-08,0.00037018087,-7.4463416e-05,-3.6449634e-08,0,0,1
2045208000,2045056000,2045056000,0,0.00019095397,-0.0032047934,-0.9999949,1.0,1.0,1.0,0.005559541,0.0028336279,1.1444092e-05,0.002269906,-0.00086068525,-2.230977e-05,1.0000175,1.0000187,1.0,0.0004945272,0.00012846875,2.0954758e-09,0.0003721391,-7.1267634e-05,-3.5842625e-08,0,0,1
2045216000,2045064000,2045064000,0,-0.0002524947,0.004217892,-0.99999106,1.0,1.0,1.0,0.0060697882,-0.0046240315,8.046627e-06,0.0023297467,-0.00091995054,-2.1831716e-05,1.0000175,1.0000188,1.0,0.00058946694,0.00034210025,1.0359713e-09,0.0003755616,-7.553271e-05,-3.526186e-08,0,0,1
2045224000,2045072000,2045072000,0,0.008921752,-0.0041177706,-0.9999518,1.0,1.0,1.0,-0.003201751,0.003700544,-3.1769276e-05,0.0022426366,-0.00084718684,-2.1988213e-05,1.0000175,1.0000188,1.0,0.00016401647,0.00021910027,1.614859e-08,0.0003670643,-7.089282e-05,-3.4960863e-08,0,0,1
2045240000,2045088000,2045088000,0,0.0019674588,-0.007669018,-0.9999687,1.0,1.0,1.0,0.0035645182,0.0072638774,-1.591444e-05,0.0023443792,-0.00068466685,-2.135034e-05,1.0000176,1.0000188,1.0,0.00020328906,0.0008442068,4.0523105e-09,0.00037261046,-5.4898897e-05,-3.3890345e-08,0,0,1
2045248000,2045096000,2045096000,0,-0.0030716478,-0.0064240675,-0.9999746,1.0,1.0,1.0,0.008536239,0.005979135,-1.0371208e-05,0.002441889,-0.0005797251,-2.117744e-05,1.0000176,1.0000188,1.0,0.0011658574,0.00057199015,1.7209913e-09,0.00038510255,-4.502663e-05,-3.3383742e-08,0,0,1
2045256000,2045104000,2045104000,0,-0.009225125,0.0038747054,-0.99995,1.0,1.0,1.0,0.014526816,-0.0043083522,-3.5881996e-05,0.0026322028,-0.0006384436,-2.1409009e-05,1.0000165,1.0000175,1.0,0.0033763985,0.00029698518,2.0600282e-08,0.00043220958,-4.8994483e-05,-3.3182427e-08,0,0,1
2045264000,2045112000,2045112000,0,0.0055769174,0.0055807643,-0.9999689,1.0,1.0,1.0,-0.000357592,-0.0060608382,-1.7404556e-05,0.0025851193,-0.00072383566,-2.1345946e-05,1.0000165,1.0000176,1.0,2.045919e-06,0.0005877298,4.8466973e-09,0.0004253709,-5.7478504e-05,-3.2736196e-08,0,0,1
2045280000,2045128000,2045128000,0,0.015647024,-0.0009928583,-0.9998771,1.0,1.0,1.0,-0.010577235,0.00068454014,-0.00010997057,0.0022624866,-0.00058418105,-2.3382661e-05,1.0000166,1.0000176,1.0,0.0017900169,7.497391e-06,1.9349642e-07,0.00037803952,-4.3910026e-05,-3.5735532e-08,0,0,1
2045288000,2045136000,2045136000,0,0.00877435,-0.0003888815,-0.9999614,1.0,1.0,1.0,-0.0037251543,0.00017099053,-2.5868416e-05,0.002168193,-0.0005722886,-2.3421808e-05,1.0000166,1.0000176,1.0,0.00022202471,4.6779596e-07,1.0706799e-08,0.00036858968,-4.3211163e-05,-3.534138e-08,0,0,1
2045296000,2045144000,2045144000,0,0.0019230051,0.0012881769,-0.99999726,1.0,1.0,1.0,0.0031418158,-0.0015871559,1.013279e-05,0.0021835256,-0.0005882707,-2.289339e-05,1.0000166,1.0000176,1.0,0.00015793348,4.030431e-05,1.6427748e-09,0.00036527225,-4.3165386e-05,-3.475895e-08,0,0,1
2045304000,2045152000,2045152000,0,0.0043196413,0.0012227581,-0.99999,1.0,1.0,1.0,0.00083966414,-0.0015564099,3.3974648e-06,0.0021623624,-0.000603517,-2.247936e-05,1.0000166,1.0000178,1.0,1.1280386e-05,3.87579e-05,1.8468427e-10,0.0003596976,-4.3095977e-05,-3.4208657e-08,0,0,1
2045320000,2045168000,2045168000,0,0.0008253338,0.011153181,-0.9999375,1.0,1.0,1.0,0.004394014,-0.011467194,-4.8816204e-05,0.0021314034,-0.0007132215,-2.2857028e-05,1.0000167,1.0000178,1.0,0.00030891257,0.0021039073,3.812835e-08,0.0003522264,-7.208812e-05,-3.3840212e-08,0,0,1
2045328000,2045176000,2045176000,0,0.0077923494,0.0067407726,-0.99994695,1.0,1.0,1.0,-0.002564311,-0.007015255,-3.9339066e-05,0.0020574552,-0.00081246614,-2.3116587e-05,1.0000167,1.0000178,1.0,0.00010520931,0.0007874068,2.4760993e-08,0.00034502268,-8.3352985e-05,-3.3697233e-08,0,0,1
2045336000,2045184000,2045184000,0,0.0073572714,-0.0031430013,-0.999968,1.0,1.0,1.0,-0.0021146745,0.0028141246,-1.8239021e-05,0.0019917525,-0.0007553545,-2.3039775e-05,1.0000167,1.0000178,1.0,7.1548384e-05,0.0001267065,5.3225904e-09,0.0003384625,-8.004496e-05,-3.3250387e-08,0,0,1
2045344000,2045192000,2045192000,0,1.6414757e-05,0.005899349,-0.9999826,1.0,1.0,1.0,0.005232225,-0.0061823544,-3.5762787e-06,0.0020427837,-0.00084081903,-2.2733262e-05,1.0000167,1.0000179,1.0,0.00043801157,0.0006115332,2.0463631e-10,0.0003400302,-8.8414854e-05,-3.2729982e-08,0,0,1
2045360000,2045208000,2045208000,0,0.00031886224,-0.004089314,-0.9999916,1.0,1.0,1.0,0.004881124,0.0038961326,5.1259995e-06,0.0020620313,-0.0007132429,-2.1970807e-05,1.0000168,1.0000179,1.0,0.00038119956,0.00024287326,4.2041393e-10,0.0003354479,-8.018019e-05,-3.170146e-08,0,0,1
2045368000,2045216000,2045216000,0,0.0027218906,0.0020275894,-0.99999434,1.0,1.0,1.0,0.0024053284,-0.0022938843,7.56979e-06,0.0020674376,-0.0007381349,-2.15056e-05,1.0000168,1.0000179,1.0,9.256812e-05,8.418898e-05,9.168275e-10,0.000331623,-8.024332e-05,-3.118779e-08,0,0,1
2045376000,2045224000,2045224000,0,0.0074681654,-0.005958045,-0.99995434,1.0,1.0,1.0,-0.0023966706,0.0056942413,-3.2782555e-05,0.0019971367,-0.0006368376,-2.168319e-05,1.0000168,1.0000179,1.0,9.190294e-05,0.0005187809,1.7195134e-08,0.00032495332,-7.080987e-05,-3.096743e-08,0,0,1
2045384000,2045232000,2045232000,0,0.0071510095,-0.00066434866,-0.99997425,1.0,1.0,1.0,-0.0021703965,0.00033372027,-1.3291836e-05,0.0019315063,-0.0006215532,-2.1551043e-05,1.0000168,1.000018,1.0,7.536867e-05,1.7818754e-06,2.8267664e-09,0.00031864902,-6.966669e-05,-3.0524273e-08,0,0,1
2045400000,2045248000,2045248000,0,0.009316953,0.0073590423,-0.9999295,1.0,1.0,1.0,-0.004331682,-0.0077444715,-5.7935715e-05,0.0017415963,-0.00081467786,-2.2452405e-05,1.0000169,1.000018,1.0,0.0003002104,0.00095961214,5.3704753e-08,0.0003000804,-9.1072245e-05,-3.0869142e-08,0,0,1
2045408000,2045256000,2045256000,0,0.002177529,0.0024588536,-0.9999945,1.0,1.0,1.0,0.0027190056,-0.002810775,6.4969063e-06,0.0017569886,-0.00084611244,-2.199651e-05,1.0000169,1.000018,1.0,0.00011828586,0.00012640504,6.7535666e-10,0.00029721748,-9.1628666e-05,-3.0372377e-08,0,0,1
2045416000,2045264000,2045264000,0,0.006118829,0.00012265936,-0.9999813,1.0,1.0,1.0,-0.0012322078,-0.00047203992,-6.7949295e-06,0.0017099146,-0.00084022153,-2.1757114e-05,1.0000169,1.0000181,1.0,2.4292964e-05,3.5650824e-06,7.3873707e-10,0.00029215432,-9.024184e-05,-2.9905706e-08,0,0,1
2045424000,2045272000,2045272000,0,-0.0042143143,-0.0038006373,-0.9999839,1.0,1.0,1.0,0.009150684,0.0033953097,-3.8146973e-06,0.0018270921,-0.00077352027,-2.1474556e-05,1.0000169,1.0000181,1.0,0.0013397376,0.0001844467,2.3283064e-10,0.0003086517,-8.5916035e-05,-2.9438416e-08,0,0,1
