timestamp,timestamp_sample,xyz[0],xyz[1],xyz[2]
2043328000,2043328000,0.03150907,0.0051433947,-9.771289
2043332000,2043332000,-0.0046894755,0.011495782,-9.8419
2043380000,2043380000,0.045313958,-0.0077360324,-9.855495
2043428000,2043428000,0.034739736,0.07065545,-9.829364
2043480000,2043480000,0.05665659,0.009436942,-9.773162
2043528000,2043528000,0.097737044,-0.083976805,-9.800455
2043580000,2043580000,-0.009261619,0.04733814,-9.849206
2043628000,2043628000,0.02968297,0.033183575,-9.739866
2043680000,2043680000,0.02408019,0.062424354,-9.862592
2043728000,2043728000,0.09379427,-0.00879762,-9.747737
2043780000,2043780000,0.031698037,-0.021401763,-9.883169
2043828000,2043828000,0.05337741,0.034938812,-9.838786
2043880000,2043880000,0.08159932,-0.017102275,-9.750671
2043928000,2043928000,0.0063234493,0.031607073,-9.822655
2043980000,2043980000,0.0072155115,-0.097115345,-9.82866
2044028000,2044028000,-0.020884544,0.014596589,-9.883492
2044080000,2044080000,0.041925948,0.08287707,-9.771065
2044128000,2044128000,0.008489491,-0.0122210095,-9.837303
2044180000,2044180000,0.043095753,0.023707125,-9.729436
2044228000,2044228000,0.017281268,0.0859526,-9.892938
2044280000,2044280000,0.107731834,0.0487786,-9.792894
2044328000,2044328000,0.051940016,-0.016090017,-9.80213
2044380000,2044380000,-0.029273704,0.012137517,-9.814086
2044424000,2044424000,0.023866195,0.0014221985,-9.885509
2044480000,2044480000,0.08323613,-0.038284,-9.776939
2044528000,2044528000,0.04163625,0.01469333,-9.717795
2044580000,2044580000,-0.013178879,-0.0052892147,-9.805393
2044628000,2044628000,-0.028899819,0.05106914,-9.781982
2044680000,2044680000,-0.046322014,0.026051283,-9.755028
2044728000,2044728000,0.06812936,0.067244515,-9.733629
2044780000,2044780000,0.020948451,-0.10060994,-9.864941
2044828000,2044828000,0.045947984,-0.031595156,-9.781497
2044880000,2044880000,-0.029504664,-0.067128025,-9.8759775
2044928000,2044928000,0.07131919,0.032341167,-9.820017
2044980000,2044980000,0.10498044,0.10203325,-9.92915
2045028000,2045028000,0.015177688,-0.026206397,-9.8861065
2045080000,2045080000,0.030121144,-0.027610077,-9.863623
2045128000,2045128000,0.1314313,-0.047014337,-9.796963
2045180000,2045180000,0.063734114,0.060289137,-9.860271
2045228000,2045228000,0.07362377,-0.038743272,-9.819717
2045280000,2045280000,-0.01854185,-0.07692267,-9.729881
2045328000,2045328000,0.04318361,0.020297548,-9.7923
2045380000,2045380000,0.10573601,-0.02087732,-9.9102125
2045428000,2045428000,0.046189595,0.08105863,-9.870583
2045480000,2045480000,0.020730259,-0.060704313,-9.794578
2045528000,2045528000,0.016596638,-0.018564919,-9.784937
2045576000,2045576000,0.038217124,-0.04067815,-9.799641
2045628000,2045628000,0.079954535,0.0017465504,-9.841675
2045680000,2045680000,-0.10850226,0.01593087,-9.744215
2045724000,2045724000,0.06550833,-0.08327199,-9.807548
2045780000,2045780000,0.043655396,0.00041281804,-9.801684
2045828000,2045828000,0.08426932,0.005846186,-9.851107
2045880000,2045880000,0.03206187,0.009138976,-9.826521
2045928000,2045928000,0.0121986,0.036069907,-9.775148
2045980000,2045980000,0.11666328,0.005568282,-9.737359
2046028000,2046028000,0.09385894,-0.07543077,-9.806566
2046080000,2046080000,-0.016905498,-0.0023597358,-9.783756
2046128000,2046128000,-0.016203137,0.0029298188,-9.891822
2046180000,2046180000,0.006441609,0.0122022275,-9.832496
2046228000,2046228000,0.20272353,0.038344253,-9.740679
2046276000,2046276000,0.0059541026,0.050032273,-9.781432
2046328000,2046328000,0.0015091677,0.059699036,-9.801311
2046380000,2046380000,0.08989184,0.045700703,-9.80236
2046428000,2046428000,0.06545677,-0.063552506,-9.815695
2046476000,2046476000,-2.1138228e-05,0.050045297,-9.774396
2046528000,2046528000,0.041389015,-0.00970844,-9.760107
2046580000,2046580000,-0.044876784,0.09409482,-9.767797
2046628000,2046628000,0.01689614,0.051146593,-9.7524605
2046680000,2046680000,-0.037322283,0.05328261,-9.702095
2046728000,2046728000,0.028753642,0.019445824,-9.780231
2046780000,2046780000,0.0897835,0.07936712,-9.793817
2046828000,2046828000,0.02416638,0.062608555,-9.771397
2046880000,2046880000,0.037611403,-0.051140066,-9.807695
2046928000,2046928000,-0.047411695,-0.045207202,-9.872768
2046980000,2046980000,0.035223793,-0.06741199,-9.826256
2047028000,2047028000,0.086284906,0.003633366,-9.820097
2047080000,2047080000,-0.021020152,-0.0029801498,-9.808231
2047128000,2047128000,0.10207717,0.08385146,-9.810025
2047180000,2047180000,0.064352065,-0.054699868,-9.786657
2047228000,2047228000,0.010722737,0.01624088,-9.838957
2047280000,2047280000,0.07537368,-0.02628485,-9.826834
2047328000,2047328000,-0.02368147,0.043010022,-9.767071
2047380000,2047380000,0.055195082,-0.072044566,-9.807271
2047428000,2047428000,-0.033619594,0.07766856,-9.802463
2047480000,2047480000,0.05208981,-0.010116642,-9.869884
2047528000,2047528000,0.104137495,0.11323361,-9.907254
2047580000,2047580000,-0.012535069,0.02613558,-9.8444
2047628000,2047628000,0.105273694,-0.07325024,-9.849468
2047680000,2047680000,0.007714076,-0.057900514,-9.776444
2047728000,2047728000,0.036794085,-0.056474518,-9.76023
2047780000,2047780000,0.061072156,-0.058671646,-9.775974
2047828000,2047828000,0.06938646,0.052027903,-9.819371
2047880000,2047880000,-0.008218597,0.008035868,-9.778436
2047928000,2047928000,0.042018183,0.023432638,-9.819028
2047980000,2047980000,0.15034893,0.07162672,-9.893902
2048028000,2048028000,0.15138327,0.004968942,-9.934995
2048080000,2048080000,0.0030147564,0.061693218,-10.104108
2048128000,2048128000,0.055275463,0.021834064,-10.078027
2048180000,2048180000,0.028141364,0.008979538,-10.166618
2048228000,2048228000,0.010871231,0.07209323,-10.374909
2048280000,2048280000,-0.036668386,0.042112898,-10.502733
2048328000,2048328000,-0.089813516,-0.04501958,-10.605716
2048380000,2048380000,-0.00081278104,0.020976704,-10.636578
2048428000,2048428000,0.0009293854,0.06486055,-10.752636
2048480000,2048480000,-0.059791062,0.014547472,-10.650123
2048528000,2048528000,0.059973173,-0.014405342,-10.762005
2048580000,2048580000,-0.06289447,0.030858286,-10.794525
2048628000,2048628000,-0.0229182,0.012243575,-10.810413
2048680000,2048680000,-0.057772957,0.01722695,-10.7405615
2048728000,2048728000,-0.06708955,-0.01990339,-10.719516
2048780000,2048780000,-0.033620097,0.07081357,-10.702527
2048824000,2048824000,-0.040495556,0.08899376,-10.770128
2048880000,2048880000,-0.09452467,-0.07439439,-10.451153
2048928000,2048928000,-0.03219378,0.043065265,-10.164341
2048980000,2048980000,-0.13743146,0.013805238,-9.944679
2049028000,2049028000,-0.093461245,0.04534326,-10.040358
2049080000,2049080000,-0.073241845,0.03677731,-10.067914
2049128000,2049128000,-0.08637534,0.0065234094,-10.117571
2049180000,2049180000,-0.18234137,-0.03640745,-10.06288
2049228000,2049228000,0.084029265,-0.0021072393,-9.870109
2049280000,2049280000,-0.027395766,-0.053437825,-9.936948
2049328000,2049328000,-0.023962995,0.016563483,-9.875173
2049380000,2049380000,-0.097155355,-0.03141307,-9.88986
2049428000,2049428000,-0.04582797,-0.027932651,-9.91392
2049480000,2049480000,-0.0063922554,0.0011584777,-9.823944
2049528000,2049528000,-0.05785496,0.057352506,-9.868646
2049580000,2049580000,-0.053380594,-0.011497533,-9.906632
2049628000,2049628000,0.016489452,0.025711369,-9.864462
2049680000,2049680000,0.023576234,0.026282018,-9.770617
2049728000,2049728000,-0.13124704,0.026888385,-9.941086
2049780000,2049780000,-0.04651201,-0.0013888609,-9.941469
2049828000,2049828000,0.012855844,0.07247097,-9.810436
2049880000,2049880000,0.0099060405,-0.08919691,-9.959566
2049928000,2049928000,-0.038134705,0.033524558,-9.822009
2049980000,2049980000,0.008529035,0.0059349537,-9.85957
2050028000,2050028000,-0.043427613,-0.09108166,-9.838464
2050080000,2050080000,0.038424745,-0.009118472,-9.844698
2050128000,2050128000,0.028407965,-0.021600045,-9.794581
2050180000,2050180000,0.071495585,-0.055233598,-9.807299
2050228000,2050228000,0.049654666,-0.007918702,-9.711006
2050280000,2050280000,0.055709172,0.049460992,-9.72319
2050324000,2050324000,0.09744848,-0.049628854,-9.672319
2050380000,2050380000,0.039718878,0.012236269,-9.827015
2050428000,2050428000,0.07594753,0.021536168,-9.660028
2050480000,2050480000,0.0923103,0.06672363,-9.638338
2050528000,2050528000,0.072105765,-0.06580914,-9.655256
2050580000,2050580000,0.15126003,-0.002437232,-9.715179
2050628000,2050628000,0.1044918,0.032730334,-9.733902
2050680000,2050680000,0.11698542,-0.005530038,-9.748531
2050728000,2050728000,0.14830135,-0.050594486,-9.722861
2050780000,2050780000,0.028703913,-0.023881262,-9.672384
2050828000,2050828000,0.11611965,0.014851176,-9.716421
2050880000,2050880000,0.08053404,-0.034491688,-9.666557
2050928000,2050928000,0.12416227,0.02654554,-9.683637
2050980000,2050980000,0.056419447,-0.065940335,-9.608271
2051028000,2051028000,0.02013965,0.0005845423,-9.647603
2051080000,2051080000,0.092132464,0.037859853,-9.662611
2051128000,2051128000,0.0039393175,-0.031246234,-9.664724
2051180000,2051180000,0.14356981,0.021568771,-9.555525
2051224000,2051224000,0.060046267,0.04052755,-9.64023
2051280000,2051280000,0.09088361,0.009847957,-9.702657
2051328000,2051328000,0.11049904,0.05348928,-9.668006
2051380000,2051380000,-0.019185174,0.046945684,-9.549669
2051428000,2051428000,0.091301516,0.043506116,-9.599248
2051480000,2051480000,0.031489126,-0.016897101,-9.570429
2051528000,2051528000,0.06269348,-0.02164492,-9.602434
2051580000,2051580000,0.009633087,0.014773169,-9.615914
2051628000,2051628000,0.035396628,0.044543598,-9.53717
2051680000,2051680000,0.040670197,0.07381359,-9.515127
2051728000,2051728000,0.008495447,0.070037596,-9.322029
2051780000,2051780000,0.00845271,0.028590277,-9.138607
2051828000,2051828000,-0.07318116,0.05004255,-8.960406
2051880000,2051880000,0.08524948,0.036802076,-8.644755
2051928000,2051928000,0.018448912,-0.06460258,-8.520309
2051980000,2051980000,0.025506731,-0.05295073,-8.528926
2052028000,2052028000,0.086530074,-0.0031939973,-8.854433
2052080000,2052080000,0.024628934,0.010998221,-9.031356
2052128000,2052128000,0.10169386,0.044471763,-9.309894
2052180000,2052180000,0.07263333,0.046194244,-9.489185
2052228000,2052228000,0.087632656,0.02134407,-9.842927
2052280000,2052280000,0.11968993,-0.039570447,-9.974283
2052328000,2052328000,0.06419482,-0.002188451,-9.971613
2052380000,2052380000,0.07178117,-0.020602126,-10.052804
2052428000,2052428000,0.017004719,0.056217168,-10.149805
2052480000,2052480000,-0.026126474,0.092378005,-10.036629
2052528000,2052528000,0.06049023,-0.043262653,-9.888315
2052580000,2052580000,0.091275275,0.03000588,-9.8083935
2052628000,2052628000,-0.029068975,-0.019089263,-9.801422
2052680000,2052680000,0.017931249,-0.091590114,-9.705431
2052728000,2052728000,0.0071929665,-0.03859518,-9.644586
2052780000,2052780000,0.013366855,0.06534236,-9.73224
2052828000,2052828000,0.062141262,0.019271806,-9.668013
2052880000,2052880000,-0.031567447,0.08913998,-9.733562
2052928000,2052928000,0.07811301,0.036333546,-9.69637
2052980000,2052980000,0.019589292,0.009284195,-9.710213
2053028000,2053028000,0.06123721,-0.022544552,-9.671672
2053080000,2053080000,0.054134544,-0.042311095,-9.6912365
2053128000,2053128000,0.00351399,-0.048876904,-9.831684
2053180000,2053180000,0.084721774,0.013294594,-9.735121
2053228000,2053228000,0.01649968,0.06873567,-9.688114
2053280000,2053280000,-0.078612626,0.09034155,-9.700408
2053328000,2053328000,0.01869133,-0.008981955,-9.661036
2053380000,2053380000,0.0435609,0.011682229,-9.762915
2053428000,2053428000,0.017907875,-0.014736646,-9.754312
2053480000,2053480000,-0.00010275375,0.019254243,-9.696771
2053528000,2053528000,0.08496759,0.025073567,-9.828978
2053580000,2053580000,-0.024612283,0.03275082,-9.744467
2053628000,2053628000,0.056734227,-0.041698635,-9.681441
2053676000,2053676000,-0.04525546,-0.019874072,-9.710849
2053728000,2053728000,-0.034795865,-0.07083134,-9.77031
2053780000,2053780000,0.0230157,0.0023380588,-9.629691
2053828000,2053828000,-0.0017578318,0.0213094,-9.786262
2053880000,2053880000,0.051413324,0.03532022,-9.74697
2053928000,2053928000,0.015959188,0.022507137,-9.68985
2053980000,2053980000,0.040298626,0.0013012025,-9.719229
2054028000,2054028000,-0.014694661,-0.08429189,-9.7142515
2054080000,2054080000,0.058566134,0.061844587,-9.689564
2054128000,2054128000,0.10529101,-0.020488601,-9.764021
2054180000,2054180000,0.06634599,-0.013672105,-9.704914
2054228000,2054228000,-0.013212796,0.015668474,-9.759145
2054280000,2054280000,-0.016352816,0.037764415,-9.817302
2054328000,2054328000,-0.035771564,0.08199163,-9.74139
2054380000,2054380000,0.018202875,0.003044628,-9.800666
2054428000,2054428000,-0.05853702,0.055730987,-9.775983
2054476000,2054476000,0.06512762,0.014471971,-9.776283
2054528000,2054528000,0.027278543,0.020184055,-9.810329
2054580000,2054580000,0.009540694,0.011419799,-9.837147
2054628000,2054628000,0.0012267875,-0.0147360945,-9.7945175
2054680000,2054680000,0.08943105,0.056734405,-9.693896
2054728000,2054728000,-0.0029908959,0.011405294,-9.793245
2054780000,2054780000,0.08600494,-0.032913703,-9.759933
2054828000,2054828000,-0.055792164,0.044911347,-9.786016
2054880000,2054880000,0.04179276,-0.11383115,-9.721333
2054928000,2054928000,-0.017276276,-0.04331524,-9.781856
2054980000,2054980000,-0.03574266,-0.021858785,-9.811515
2055028000,2055028000,0.08497306,0.028619062,-9.773064
2055080000,2055080000,-0.026461884,-0.03956544,-9.799389
2055128000,2055128000,0.08851192,0.069333464,-9.741912
2055180000,2055180000,-0.0046647238,-0.03808348,-9.731905
2055228000,2055228000,0.038686406,0.0036916616,-9.816974
2055280000,2055280000,0.07162697,0.07940282,-9.7510395
2055328000,2055328000,-0.033746265,0.061503448,-9.789127
2055380000,2055380000,-0.031909563,0.013168078,-9.782868
2055424000,2055424000,0.043625686,-0.031086795,-9.7505
2055480000,2055480000,0.02725701,0.033096198,-9.679906
2055528000,2055528000,0.017920835,0.04343558,-9.771902
2055580000,2055580000,0.115018755,-0.05722537,-9.767746
2055628000,2055628000,-0.011874771,-0.040873308,-9.831562
2055680000,2055680000,-0.0076628444,-0.028717104,-9.825844
2055728000,2055728000,-0.0018766802,0.031429622,-9.795736
2055780000,2055780000,-0.049616065,-0.00583046,-9.708891
2055828000,2055828000,0.040409178,-0.08086052,-9.709852
2055880000,2055880000,0.035264734,0.09610406,-9.780852
2055928000,2055928000,0.03567499,-0.037754893,-9.840033
2055980000,2055980000,-0.026200548,0.011169426,-9.769133
2056028000,2056028000,-0.0076186815,-0.024779603,-9.860975
2056080000,2056080000,0.031254075,0.090530045,-9.816187
2056128000,2056128000,0.056869403,0.0010562488,-9.842676
2056180000,2056180000,-0.013693962,0.010082932,-9.707407
2056228000,2056228000,0.007345261,0.012287663,-9.726487
2056280000,2056280000,-0.0046750885,0.020993734,-9.7894335
2056328000,2056328000,-0.06258161,0.051719226,-9.85178
2056380000,2056380000,0.05809184,-0.03224027,-9.884604
2056424000,2056424000,-0.018569447,-0.029254992,-9.791426
2056480000,2056480000,0.09197124,0.0060057403,-9.7229805
2056528000,2056528000,0.06593841,-0.03642463,-9.72207
2056580000,2056580000,0.058857705,0.06392646,-9.799564
2056628000,2056628000,0.084445335,-0.027124247,-9.845941
2056680000,2056680000,-0.056680385,-0.037321292,-9.7394495
2056728000,2056728000,0.0444434,0.13756749,-9.750208
2056780000,2056780000,0.0016642604,0.0004754304,-9.658375
2056828000,2056828000,0.04609254,-0.025262266,-9.780628
2056876000,2056876000,-0.0674127,-0.04512437,-9.838291
2056924000,2056924000,0.087626636,0.031170275,-9.800123
2056980000,2056980000,-0.008939416,0.030159114,-9.801895
2057028000,2057028000,-0.0082528135,-0.0071112765,-9.796013
2057080000,2057080000,-0.009750058,0.055976186,-9.768206
2057128000,2057128000,0.12025824,0.028123764,-9.815072
2057180000,2057180000,0.014981551,-0.05138243,-9.805131
2057228000,2057228000,0.18422136,-0.065488905,-9.787626
2057280000,2057280000,0.06929463,0.034748033,-9.851884
2057328000,2057328000,0.036069795,-0.029410314,-9.875676
2057380000,2057380000,0.10375203,0.040381044,-9.994524
2057428000,2057428000,-0.002430189,-0.016932584,-9.930372
2057480000,2057480000,0.012253876,0.060640153,-10.024302
2057528000,2057528000,-0.0077592665,0.0911905,-10.039706
2057580000,2057580000,-0.069666445,0.012098661,-9.971538
2057628000,2057628000,-0.099058345,0.004073238,-10.044788
2057680000,2057680000,-0.12165287,0.071847394,-10.043061
2057728000,2057728000,-0.13892677,0.18314356,-10.115917
2057780000,2057780000,-0.20976615,0.21573074,-10.125099
2057828000,2057828000,-0.19599906,0.12872687,-10.171204
2057880000,2057880000,-0.18886487,0.16669329,-10.336573
2057928000,2057928000,-0.3186396,0.15090896,-10.298817
2057980000,2057980000,-0.34962863,0.1927017,-10.111645
2058028000,2058028000,-0.38272592,0.17675877,-10.209592
2058080000,2058080000,-0.49795783,0.2338385,-10.09284
2058128000,2058128000,-0.475874,0.23699597,-10.149946
2058180000,2058180000,-0.55037624,0.14984176,-10.078148
2058228000,2058228000,-0.54434717,0.18721476,-10.258632
2058280000,2058280000,-0.6412645,0.1334167,-10.107376
2058328000,2058328000,-0.7335028,0.083793946,-10.263638
2058380000,2058380000,-0.7519391,0.12235868,-10.167109
2058428000,2058428000,-0.7986923,0.0729382,-10.2153015
2058480000,2058480000,-0.8526869,0.052809704,-10.070226
2058528000,2058528000,-0.93202937,0.04066948,-10.124353
2058580000,2058580000,-0.97664905,0.19394974,-10.205538
2058628000,2058628000,-1.0792582,0.07361337,-10.091709
2058676000,2058676000,-1.1127355,0.075539276,-10.137159
2058728000,2058728000,-1.1781952,0.044923794,-10.092441
2058780000,2058780000,-1.218832,0.020779183,-10.03874
2058828000,2058828000,-1.3047534,-0.0038473783,-10.002315
2058880000,2058880000,-1.3039219,0.061144896,-9.813048
2058928000,2058928000,-1.3734368,-0.03571406,-9.8429365
2058976000,2058976000,-1.3557533,0.1581125,-9.814939
2059028000,2059028000,-1.3420801,0.010634292,-9.802464
2059080000,2059080000,-1.4261174,-0.12840298,-9.71723
2059128000,2059128000,-1.487976,-0.05792893,-9.776291
2059180000,2059180000,-1.5354826,0.046566844,-9.787597
2059228000,2059228000,-1.574695,-0.04716368,-9.736201
2059280000,2059280000,-1.7005328,-0.024825037,-9.750299
2059328000,2059328000,-1.6429832,-0.018960092,-9.7434025
2059380000,2059380000,-1.5048065,0.015012669,-9.620945
2059428000,2059428000,-1.7538003,-0.15371194,-9.611138
2059480000,2059480000,-1.6609302,0.0019588761,-9.587906
2059528000,2059528000,-1.7434868,0.034809183,-9.594868
2059580000,2059580000,-1.6604654,0.07916567,-9.630116
2059628000,2059628000,-1.6738968,-0.055573776,-9.732083
2059680000,2059680000,-1.8302093,0.11546171,-9.717617
2059728000,2059728000,-1.6842492,0.037483092,-9.728895
2059780000,2059780000,-1.76307,-0.11772753,-9.885678
2059828000,2059828000,-1.7331055,-0.028154293,-9.85528
2059876000,2059876000,-1.7169458,-0.04406623,-9.814854
2059928000,2059928000,-1.7047426,-0.040386464,-9.873439
2059980000,2059980000,-1.6568456,-0.034075886,-9.812934
2060028000,2060028000,-1.8120289,-0.02889323,-9.810884
2060080000,2060080000,-1.8007972,-0.02091508,-9.688073
2060128000,2060128000,-1.7604622,-0.014060938,-9.734671
2060180000,2060180000,-1.7174752,0.03048468,-9.687203
2060224000,2060224000,-1.7485818,-0.025941446,-9.704393
2060280000,2060280000,-1.7879169,-0.05470277,-9.7142315
2060328000,2060328000,-1.7746882,-0.07068035,-9.699125
2060376000,2060376000,-1.7125285,0.018059969,-9.749244
2060428000,2060428000,-1.713364,-0.048029892,-9.718979
2060480000,2060480000,-1.6306345,0.008570495,-9.690494
2060528000,2060528000,-1.6979599,-0.16231225,-9.671342
2060576000,2060576000,-1.6835294,0.0025426177,-9.652256
2060628000,2060628000,-1.6723713,-0.09846106,-9.639444
2060680000,2060680000,-1.6428994,-0.030636081,-9.693959
2060724000,2060724000,-1.6698035,-0.043890245,-9.637177
2060780000,2060780000,-1.7560071,-0.0468303,-9.704642
2060828000,2060828000,-1.6280296,-0.03546475,-9.733349
2060880000,2060880000,-1.6689578,-0.06140007,-9.705807
2060928000,2060928000,-1.5898037,0.0054605864,-9.651998
2060980000,2060980000,-1.665062,0.011742642,-9.714972
2061028000,2061028000,-1.686926,0.035986453,-9.711791
2061080000,2061080000,-1.664915,-0.051391438,-9.704322
2061128000,2061128000,-1.6955926,0.008578265,-9.648302
2061180000,2061180000,-1.7188094,-0.010619022,-9.623313
2061228000,2061228000,-1.5651348,-0.037250843,-9.608212
2061280000,2061280000,-1.6309183,0.05163223,-9.545544
2061328000,2061328000,-1.619352,0.030500527,-9.565443
2061380000,2061380000,-1.7275143,-0.044847682,-9.657855
2061428000,2061428000,-1.672246,-0.016328048,-9.663295
2061480000,2061480000,-1.5848393,-0.092054896,-9.668722
2061528000,2061528000,-1.6875445,0.03811737,-9.642136
2061580000,2061580000,-1.6652484,0.057305597,-9.732922
2061628000,2061628000,-1.6153424,0.050325334,-9.795625
2061680000,2061680000,-1.5154712,-0.062586114,-9.911215
2061728000,2061728000,-1.4823456,0.012709336,-9.829341
2061780000,2061780000,-1.5164303,0.02422245,-9.838911
2061828000,2061828000,-1.4356242,-0.086782634,-9.817676
2061880000,2061880000,-1.6017402,0.08284612,-9.876886
2061928000,2061928000,-1.4385397,-0.04713815,-9.831854
2061980000,2061980000,-1.3467511,0.013582395,-9.845012
2062028000,2062028000,-1.4184308,0.066986166,-9.877466
2062080000,2062080000,-1.262274,0.05906657,-9.770025
2062128000,2062128000,-1.3533529,0.063104,-9.865198
2062180000,2062180000,-1.3550969,0.0073587126,-9.8489
2062228000,2062228000,-1.2665745,0.024945218,-9.827391
2062280000,2062280000,-1.2513877,0.066542596,-9.827115
2062328000,2062328000,-1.1380334,0.025484119,-9.784934
2062376000,2062376000,-1.2580416,-0.013930981,-9.853334
2062428000,2062428000,-1.1794823,0.072221525,-9.88377
2062480000,2062480000,-1.1306467,-0.02254489,-9.887634
2062528000,2062528000,-1.1936189,0.063141935,-9.74786
2062580000,2062580000,-1.0888885,0.0075059035,-9.8014345
2062628000,2062628000,-1.1046671,-0.055901583,-9.85223
2062680000,2062680000,-1.0614629,0.03727432,-9.827838
2062728000,2062728000,-1.0796659,0.0488718,-9.769993
2062780000,2062780000,-1.0344266,0.0043270383,-9.789172
2062828000,2062828000,-1.0227127,0.019333396,-9.871733
2062876000,2062876000,-0.97823375,0.029720128,-9.751345
2062928000,2062928000,-0.93316627,-0.017367423,-9.8705015
2062980000,2062980000,-0.9718661,0.020415293,-9.788082
2063028000,2063028000,-0.8517919,-0.07009281,-9.822074
2063080000,2063080000,-0.87308365,-0.029288888,-9.837946
2063128000,2063128000,-0.86304885,-0.04123443,-9.850746
2063180000,2063180000,-0.74278206,-0.06593878,-9.900283
2063228000,2063228000,-0.83386594,0.03711254,-9.879176
2063280000,2063280000,-0.72906005,0.024848966,-9.775812
2063328000,2063328000,-0.69793713,0.025738388,-9.89999
2063380000,2063380000,-0.8205374,-0.044271663,-9.864029
2063428000,2063428000,-0.68057543,-0.034588255,-9.850805
2063480000,2063480000,-0.6793542,-0.042435884,-9.8395
2063528000,2063528000,-0.64823467,0.045091994,-9.896116
2063580000,2063580000,-0.6028316,0.024978096,-9.87827
2063628000,2063628000,-0.6280207,-0.0013893871,-9.871045
2063676000,2063676000,-0.64691985,-0.018177466,-9.847132
2063728000,2063728000,-0.5540917,0.008779051,-9.719556
2063780000,2063780000,-0.6762903,0.043791685,-9.817313
2063828000,2063828000,-0.6164862,0.01721859,-9.7685
2063880000,2063880000,-0.438087,-0.061101977,-9.843652
2063928000,2063928000,-0.44071537,-0.051554047,-9.779087
2063980000,2063980000,-0.48453683,-0.12852041,-9.757418
2064028000,2064028000,-0.50840956,-0.015163223,-9.896633
2064080000,2064080000,-0.52730876,-0.007980563,-9.923651
2064128000,2064128000,-0.45683953,-0.070167385,-9.797384
2064180000,2064180000,-0.4386109,0.014693505,-9.839974
2064228000,2064228000,-0.44130823,0.050749585,-9.758152
2064280000,2064280000,-0.3443661,0.0064472537,-9.8373785
2064328000,2064328000,-0.366161,-0.11841282,-9.84697
2064380000,2064380000,-0.3868987,-0.07139755,-9.801877
2064428000,2064428000,-0.40278104,-0.011164609,-9.796921
2064480000,2064480000,-0.33987635,-0.03716805,-9.863647
2064528000,2064528000,-0.32890588,-0.007398884,-9.836468
2064580000,2064580000,-0.328799,-0.013840554,-9.783107
2064628000,2064628000,-0.34990978,0.06260781,-9.803144
2064680000,2064680000,-0.2517312,-0.013829734,-9.925617
2064728000,2064728000,-0.33023864,0.010306945,-9.861324
2064780000,2064780000,-0.23558092,-0.020793602,-9.874614
2064828000,2064828000,-0.22994886,0.0449852,-9.898285
2064880000,2064880000,-0.18247832,0.018497044,-9.975698
2064928000,2064928000,-0.20774202,0.035185143,-10.021012
2064980000,2064980000,-0.14032853,0.058339175,-10.072952
2065028000,2065028000,-0.16056636,-0.033275593,-10.055341
2065080000,2065080000,-0.24119072,0.0885488,-10.157594
2065128000,2065128000,-0.017551009,-0.06834943,-10.157879
2065180000,2065180000,-0.008056013,0.09150457,-10.19104
2065228000,2065228000,-0.08576936,0.11010003,-10.100594
2065280000,2065280000,0.049615026,0.086105645,-9.930998
2065328000,2065328000,0.06224933,0.15840971,-9.853155
2065380000,2065380000,-0.013829239,0.124837205,-9.728979
2065428000,2065428000,0.16363972,0.2727489,-9.791524
2065480000,2065480000,0.11547446,0.14484683,-9.961695
2065528000,2065528000,0.09401748,0.22600743,-9.817453
2065580000,2065580000,0.27266663,0.21513298,-9.97326
2065628000,2065628000,0.17828201,0.2697296,-10.012243
2065680000,2065680000,0.24494094,0.28821188,-10.056606
2065728000,2065728000,0.21388534,0.28571194,-10.160849
2065780000,2065780000,0.22037925,0.24313816,-10.254563
2065828000,2065828000,0.24934909,0.33991462,-10.258414
2065880000,2065880000,0.26842028,0.40925646,-10.202456
2065928000,2065928000,0.30638728,0.42503282,-10.15315
2065980000,2065980000,0.26562017,0.4659962,-10.1505785
2066028000,2066028000,0.40460116,0.662893,-10.108977
2066076000,2066076000,0.30862653,0.6082647,-9.995909
2066128000,2066128000,0.34761685,0.589345,-9.974827
2066180000,2066180000,0.33373624,0.6681994,-10.035557
2066228000,2066228000,0.31781054,0.66833216,-9.933474
2066280000,2066280000,0.3569828,0.74168223,-9.85558
2066328000,2066328000,0.32850543,0.89027417,-9.900032
2066380000,2066380000,0.20597184,0.9096417,-9.867823
2066424000,2066424000,0.3439682,0.8851105,-9.942713
2066480000,2066480000,0.16279094,1.020536,-9.956568
2066528000,2066528000,0.23349248,0.986042,-10.028604
2066580000,2066580000,0.24831317,1.0832384,-10.087787
2066628000,2066628000,0.17569485,1.1558825,-10.03919
2066680000,2066680000,0.057985485,1.1191133,-9.919702
2066728000,2066728000,0.045180865,1.1396178,-10.000051
2066780000,2066780000,0.036294404,1.2114257,-10.048845
2066824000,2066824000,-0.033343125,1.3172133,-9.936068
2066880000,2066880000,-0.044739414,1.3285449,-9.949715
2066928000,2066928000,-0.08481758,1.4239056,-9.823711
2066980000,2066980000,-0.15918075,1.3703806,-9.740588
2067028000,2067028000,-0.38619143,1.461096,-9.7957535
2067080000,2067080000,-0.46255985,1.5090162,-9.74821
2067128000,2067128000,-0.5000687,1.4850183,-9.748187
2067180000,2067180000,-0.5893447,1.4104527,-9.755053
2067228000,2067228000,-0.6970024,1.3896497,-9.752387
2067280000,2067280000,-0.7454123,1.4137888,-9.742751
2067328000,2067328000,-0.7176269,1.3655102,-9.771038
2067380000,2067380000,-0.8623742,1.339733,-9.723194
2067428000,2067428000,-0.96277183,1.3290313,-9.700464
2067480000,2067480000,-0.9914279,1.2821579,-9.778827
2067528000,2067528000,-1.1354623,1.3468965,-9.66767
2067580000,2067580000,-1.1545175,1.2540482,-9.651054
2067628000,2067628000,-1.2723538,1.1403154,-9.684864
2067680000,2067680000,-1.3690006,1.0516862,-9.6951065
2067728000,2067728000,-1.3423871,1.0640938,-9.538357
2067780000,2067780000,-1.3498964,1.0233004,-9.691041
2067828000,2067828000,-1.4543607,1.0152497,-9.734062
2067880000,2067880000,-1.4810948,0.96808237,-9.855889
2067928000,2067928000,-1.4548252,0.8038189,-9.792254
2067980000,2067980000,-1.4972699,0.8450215,-9.832849
2068028000,2068028000,-1.53285,0.6854181,-9.79698
2068080000,2068080000,-1.5031718,0.6735724,-9.78576
2068128000,2068128000,-1.5938525,0.68065286,-9.8000765
2068180000,2068180000,-1.5619348,0.5414336,-9.7715645
2068228000,2068228000,-1.5964618,0.55809414,-9.822154
2068280000,2068280000,-1.700705,0.5817334,-9.796084
2068328000,2068328000,-1.6649225,0.3997832,-9.735639
2068380000,2068380000,-1.529378,0.4433363,-9.741829
2068428000,2068428000,-1.7263585,0.43069112,-9.731993
2068480000,2068480000,-1.6763635,0.28358713,-9.755731
2068528000,2068528000,-1.6129153,0.38742226,-9.637415
2068580000,2068580000,-1.6315299,0.19308907,-9.718243
2068628000,2068628000,-1.5789065,0.21266368,-9.660699
2068680000,2068680000,-1.5409198,0.18198642,-9.697416
2068728000,2068728000,-1.6544662,0.10086993,-9.698412
2068780000,2068780000,-1.6930201,0.23329237,-9.656555
2068828000,2068828000,-1.6381973,0.074149996,-9.648467
2068880000,2068880000,-1.61575,0.06339272,-9.747388
2068928000,2068928000,-1.5648214,0.079009965,-9.715782
2068980000,2068980000,-1.5813742,0.11572245,-9.633093
2069028000,2069028000,-1.5658437,0.049472235,-9.740141
2069080000,2069080000,-1.6342806,0.04625942,-9.66708
2069128000,2069128000,-1.6176767,0.0045155957,-9.713825
2069180000,2069180000,-1.5785122,0.019938692,-9.562488
2069228000,2069228000,-1.5241674,0.05341792,-9.567784
2069280000,2069280000,-1.5667682,-0.035984658,-9.584617
2069328000,2069328000,-1.619228,-0.097318314,-9.620223
2069380000,2069380000,-1.6067673,-0.13608533,-9.580299
2069428000,2069428000,-1.649669,-0.09675545,-9.764236
2069480000,2069480000,-1.5841111,-0.07614095,-9.672817
2069524000,2069524000,-1.6232024,-0.047998995,-9.855551
2069580000,2069580000,-1.4660482,-0.11189416,-9.845247
2069628000,2069628000,-1.4381621,-0.015132199,-9.816716
2069680000,2069680000,-1.4676075,-0.16519664,-9.896235
2069728000,2069728000,-1.4661638,-0.024368947,-9.892319
2069780000,2069780000,-1.5146333,-0.028872762,-9.87064
2069828000,2069828000,-1.4162698,-0.064714015,-9.881449
2069880000,2069880000,-1.4652541,-0.056555275,-9.749258
2069928000,2069928000,-1.3837638,-0.055484157,-9.816063
2069980000,2069980000,-1.4158263,-0.124001086,-9.77774
2070028000,2070028000,-1.299994,-0.080712564,-9.851821
2070080000,2070080000,-1.2322632,-0.08298273,-9.719387
2070128000,2070128000,-1.3594745,-0.12539425,-9.905272
2070180000,2070180000,-1.2292666,-0.020937458,-9.738977
2070228000,2070228000,-1.2250625,-0.034033474,-9.790428
2070280000,2070280000,-1.2441779,-0.05271778,-9.780281
2070328000,2070328000,-1.1325223,-0.08382479,-9.813246
2070380000,2070380000,-1.0550725,-0.08889376,-9.853369
2070428000,2070428000,-1.1963232,-0.107138425,-9.814332
2070480000,2070480000,-1.0870196,0.048115224,-9.840763
2070528000,2070528000,-0.9943485,-0.010372991,-9.657609
2070580000,2070580000,-1.0449673,-0.13610205,-9.881191
2070628000,2070628000,-1.0254748,0.0020753997,-9.875536
2070680000,2070680000,-1.0115576,-0.071178034,-9.795969
2070728000,2070728000,-1.0030911,-0.09425394,-9.841705
2070780000,2070780000,-1.0656846,-0.00058598444,-9.990217
2070828000,2070828000,-1.026452,-0.045040414,-9.863925
2070880000,2070880000,-0.8696129,-0.049965303,-9.891793
2070928000,2070928000,-0.8743044,-0.0759673,-9.844435
2070980000,2070980000,-0.8712812,0.03844419,-9.781398
2071028000,2071028000,-0.7930904,0.07409167,-9.8573
2071080000,2071080000,-0.89113796,-0.046271592,-9.802633
2071128000,2071128000,-0.8038652,0.00811461,-9.808337
2071180000,2071180000,-0.7884399,-0.07688308,-9.872736
2071228000,2071228000,-0.8356305,-0.055951327,-9.920808
2071280000,2071280000,-0.7315445,-0.03825524,-9.832
2071328000,2071328000,-0.73526776,0.07487658,-9.855379
2071380000,2071380000,-0.74808216,0.014613377,-9.857383
2071424000,2071424000,-0.6804827,-0.06601109,-9.847779
2071480000,2071480000,-0.61063147,-0.037893455,-9.858974
2071528000,2071528000,-0.5825533,-0.10939949,-9.819076
2071580000,2071580000,-0.6446166,0.0059399595,-9.803707
2071628000,2071628000,-0.56869054,0.011889359,-9.776018
2071680000,2071680000,-0.63146317,-0.034885205,-9.848634
2071728000,2071728000,-0.6085072,0.058938675,-9.844494
2071780000,2071780000,-0.5496094,-0.04309994,-9.854206
2071828000,2071828000,-0.5731912,-0.037565038,-9.814648
2071880000,2071880000,-0.5247983,0.063700534,-9.880859
2071928000,2071928000,-0.5503483,0.008144283,-9.872134
2071980000,2071980000,-0.50745654,0.04741711,-9.799545
2072028000,2072028000,-0.45775035,-0.038463008,-9.832775
2072080000,2072080000,-0.40099144,-0.09801671,-9.789842
2072128000,2072128000,-0.4825316,0.0025054696,-9.759404
2072180000,2072180000,-0.4592207,0.0010235254,-9.860491
2072228000,2072228000,-0.44665843,-0.09243641,-9.935318
2072280000,2072280000,-0.37176794,-0.03781414,-9.8083315
2072328000,2072328000,-0.40397352,-0.02652762,-9.857193
2072380000,2072380000,-0.44679868,-0.01187682,-9.941093
2072428000,2072428000,-0.4003936,-0.00032355078,-9.816239
2072480000,2072480000,-0.4186738,0.0074696094,-9.84449
2072528000,2072528000,-0.30158994,-0.010967784,-9.8461075
2072580000,2072580000,-0.37851173,-0.08825214,-9.7772875
2072628000,2072628000,-0.26019385,-0.019471886,-9.796851
2072680000,2072680000,-0.39908385,0.0144785885,-9.788395
2072728000,2072728000,-0.2748502,-0.0012886177,-9.835147
2072780000,2072780000,-0.287758,0.08947261,-9.908597
2072828000,2072828000,-0.3028313,0.017129373,-9.818835
2072880000,2072880000,-0.23723027,0.055379298,-9.821984
2072928000,2072928000,-0.25779784,-0.065788284,-9.929042
2072980000,2072980000,-0.24685495,-0.014223183,-9.748517
2073028000,2073028000,-0.21383852,-0.03865546,-9.835368
2073080000,2073080000,-0.229188,-0.06689115,-9.785202
2073128000,2073128000,-0.21119057,-0.0059871785,-9.734575
2073180000,2073180000,-0.24335918,-0.039162345,-9.776706
2073228000,2073228000,-0.2692051,0.038071215,-9.885217
2073280000,2073280000,-0.3022735,-0.00042699254,-9.820299
2073328000,2073328000,-0.33650333,-0.00053497753,-9.782883
2073380000,2073380000,-0.23295923,0.08721398,-9.78229
2073428000,2073428000,-0.1799577,-0.01685868,-9.814746
2073480000,2073480000,-0.1334784,0.03329222,-9.910959
2073528000,2073528000,-0.14468913,0.015617438,-9.921132
2073580000,2073580000,-0.17012593,-0.046582714,-9.8227825
2073628000,2073628000,-0.15295848,-0.10252529,-9.846537
2073680000,2073680000,-0.18366672,-0.034098517,-9.774963
2073728000,2073728000,-0.18595755,-0.10606482,-9.900708
2073780000,2073780000,-0.16428429,0.08105324,-9.721672
2073828000,2073828000,-0.05105772,-0.032543484,-9.757124
2073880000,2073880000,-0.11277136,-0.0024600786,-9.826786
2073928000,2073928000,-0.16720778,-0.038218167,-9.8161
2073980000,2073980000,-0.03736287,-0.08742333,-9.808296
2074028000,2074028000,-0.12031169,-0.016317656,-9.80609
2074080000,2074080000,-0.18245184,0.06466569,-9.805742
2074128000,2074128000,-0.052721605,-0.0428702,-9.847648
2074180000,2074180000,-0.12362194,0.021359582,-9.851517
2074228000,2074228000,-0.07473511,-0.057065353,-9.89495
2074280000,2074280000,-0.101210445,0.045026056,-9.930605
2074328000,2074328000,-0.10605682,-0.049841084,-9.86218
2074380000,2074380000,-0.053723805,-0.02867639,-9.92996
2074428000,2074428000,-0.07114984,0.06897686,-9.883522
2074480000,2074480000,-0.08898944,0.1622265,-9.840599
2074528000,2074528000,0.014996377,0.105527714,-9.8499975
2074580000,2074580000,-0.013028633,0.10470906,-9.758491
2074628000,2074628000,-0.064024575,0.11463995,-9.901759
2074680000,2074680000,0.001153633,0.11871142,-9.843217
2074728000,2074728000,-0.048792247,0.023370605,-9.935658
2074780000,2074780000,0.0047805896,0.17099772,-9.91858
2074824000,2074824000,-0.06733105,0.21645285,-10.0164385
2074880000,2074880000,-0.023493715,0.14087434,-9.955733
2074928000,2074928000,-0.028166454,0.24157816,-10.038608
2074980000,2074980000,-0.03368433,0.13186347,-10.1769705
2075028000,2075028000,-0.063984595,0.22548766,-10.171099
2075080000,2075080000,-0.063024856,0.30636463,-10.206773
2075128000,2075128000,-0.043958858,0.33828655,-10.202181
2075180000,2075180000,-0.09096898,0.37354136,-10.1348
2075228000,2075228000,-0.06514716,0.4145236,-10.163845
2075280000,2075280000,-0.20840023,0.4060854,-10.063282
2075328000,2075328000,-0.16542816,0.45137277,-10.0883
2075380000,2075380000,-0.28185797,0.43650478,-9.992347
2075428000,2075428000,-0.23842064,0.5692887,-10.138617
2075480000,2075480000,-0.29800817,0.5612843,-9.999407
2075528000,2075528000,-0.2618782,0.68493605,-10.093126
2075580000,2075580000,-0.3720021,0.63224053,-10.098921
2075628000,2075628000,-0.5300069,0.7168553,-10.061727
2075680000,2075680000,-0.3343484,0.6966111,-10.127094
2075728000,2075728000,-0.44234934,0.6643295,-10.078693
2075780000,2075780000,-0.5407492,0.7678385,-10.078198
2075828000,2075828000,-0.60493624,0.740837,-10.00805
2075880000,2075880000,-0.62182724,0.8310002,-10.01196
2075928000,2075928000,-0.7648405,0.8251043,-10.00943
2075976000,2075976000,-0.75529975,0.8466617,-9.843756
2076028000,2076028000,-0.7951659,0.7561466,-9.90808
2076080000,2076080000,-0.91693,0.753731,-9.80875
2076128000,2076128000,-0.97128946,0.754863,-9.866871
2076180000,2076180000,-1.0241702,0.6826522,-9.824739
2076228000,2076228000,-1.2107049,0.7730384,-9.770634
2076280000,2076280000,-1.2148492,0.73343766,-9.787675
2076328000,2076328000,-1.2474173,0.75290513,-9.696323
2076380000,2076380000,-1.3027883,0.64042145,-9.645961
2076428000,2076428000,-1.2476566,0.6845044,-9.622188
2076480000,2076480000,-1.3648512,0.72805417,-9.621083
2076528000,2076528000,-1.416151,0.6218406,-9.639824
2076580000,2076580000,-1.3415084,0.52131593,-9.688045
2076628000,2076628000,-1.4437234,0.49382284,-9.715246
2076680000,2076680000,-1.4700699,0.49941695,-9.727562
2076728000,2076728000,-1.4101444,0.44770947,-9.820008
2076780000,2076780000,-1.420383,0.4427,-9.677776
2076824000,2076824000,-1.4898546,0.483644,-9.846907
2076880000,2076880000,-1.3958036,0.3261169,-9.927843
2076928000,2076928000,-1.6100287,0.37729037,-9.793827
2076980000,2076980000,-1.3587381,0.2954481,-9.800848
2077028000,2077028000,-1.4866681,0.282787,-9.953226
2077080000,2077080000,-1.4608291,0.2497732,-9.948667
2077124000,2077124000,-1.3892368,0.14881858,-9.923416
2077180000,2077180000,-1.3767962,0.17633334,-9.900088
2077228000,2077228000,-1.3388103,0.14321756,-9.931525
2077280000,2077280000,-1.2867339,0.108444616,-9.949009
2077328000,2077328000,-1.3461442,0.08759743,-9.904921
2077380000,2077380000,-1.2911903,0.05251803,-10.0385275
2077428000,2077428000,-1.2801703,0.09579596,-10.089685
2077480000,2077480000,-1.1754094,-0.11340031,-10.096842
2077528000,2077528000,-1.0037483,-0.0566132,-10.0792465
2077576000,2077576000,-1.1414114,-0.0459622,-9.984456
2077628000,2077628000,-0.9835869,-0.0899301,-10.00122
2077680000,2077680000,-0.9775128,-0.15263043,-10.152809
2077728000,2077728000,-0.9152984,-0.04394918,-10.139244
2077780000,2077780000,-0.8575995,-0.066261396,-10.135666
2077828000,2077828000,-0.82419896,-0.054426275,-10.180868
2077880000,2077880000,-0.73878527,-0.24149105,-10.223629
2077928000,2077928000,-0.6540631,-0.14425246,-10.086738
2077980000,2077980000,-0.63099325,-0.14088374,-10.068272
2078028000,2078028000,-0.5863526,-0.16298775,-10.1641655
2078080000,2078080000,-0.60386336,-0.121308684,-10.121839
2078128000,2078128000,-0.6225779,-0.08344409,-10.052996
2078180000,2078180000,-0.5229933,-0.04784884,-9.994129
2078228000,2078228000,-0.45693183,-0.12001029,-10.064724
2078280000,2078280000,-0.43523818,-0.0903026,-10.068659
2078328000,2078328000,-0.42059824,-0.121596195,-9.926805
2078380000,2078380000,-0.38533634,-0.076832555,-9.993692
2078428000,2078428000,-0.3379713,-0.07369829,-9.893508
2078480000,2078480000,-0.3480713,-0.009132272,-9.818236
2078528000,2078528000,-0.3299209,-0.06663819,-9.817043
2078580000,2078580000,-0.36481914,-0.010048391,-9.818605
2078628000,2078628000,-0.2708034,-0.0057487907,-9.857805
2078680000,2078680000,-0.2938003,-0.018112063,-9.857857
2078728000,2078728000,-0.29253912,-0.0027794782,-9.776908
2078780000,2078780000,-0.22761247,-0.115719125,-9.776301
2078828000,2078828000,-0.22630745,-0.061776757,-9.855537
2078880000,2078880000,-0.1523442,-0.086130425,-9.83001
2078928000,2078928000,-0.22885446,-0.1290225,-9.740279
2078980000,2078980000,-0.16748467,-0.0390331,-9.824791
2079028000,2079028000,-0.19908318,-0.018164383,-9.80269
2079080000,2079080000,-0.17568853,-0.029212365,-9.782034
2079124000,2079124000,-0.22318515,-0.052057277,-9.760344
2079180000,2079180000,-0.21088186,-0.010089179,-9.84932
2079228000,2079228000,-0.08768654,-0.032817394,-9.856932
2079280000,2079280000,-0.027909525,-0.12744167,-9.806484
2079328000,2079328000,-0.17227773,-0.048276365,-9.733437
2079380000,2079380000,-0.10319317,-0.07316785,-9.812961
2079428000,2079428000,-0.082446255,-0.034121662,-9.830895
2079480000,2079480000,-0.16730633,0.0129892565,-9.8539295
2079528000,2079528000,-0.13608277,0.001558037,-9.78291
2079580000,2079580000,-0.10118236,0.015133898,-9.789565
2079628000,2079628000,-0.12772164,-0.016022198,-9.831457
2079680000,2079680000,-0.04285057,0.00917617,-9.776893
2079728000,2079728000,-0.07911708,0.11000769,-9.915712
2079780000,2079780000,-0.09729484,-0.0139371045,-9.80942
2079828000,2079828000,-0.04966028,0.07086662,-9.710718
2079880000,2079880000,-0.1263288,0.008015826,-9.773403
2079928000,2079928000,-0.046892986,0.0052341595,-9.785305
2079980000,2079980000,-0.12420774,0.00962408,-9.771183
2080028000,2080028000,-0.12774912,0.0010710964,-9.768423
2080080000,2080080000,-0.11382466,-0.00096691446,-9.839497
2080128000,2080128000,-0.10598469,0.04666123,-9.836957
2080176000,2080176000,0.05897455,0.037327588,-9.772507
2080228000,2080228000,-0.014014957,0.030761054,-9.776597
2080280000,2080280000,-0.031203423,0.03555224,-9.720343
2080328000,2080328000,-0.031081881,-0.006150755,-9.736722
2080380000,2080380000,0.0047730515,-0.030892381,-9.906089
2080428000,2080428000,-0.06925207,0.019265141,-9.805992
2080480000,2080480000,-0.024874032,0.0331757,-9.812984
2080528000,2080528000,-0.065847166,0.00042970385,-9.943097
2080580000,2080580000,-0.060239382,0.02924658,-9.773286
2080628000,2080628000,-0.061772127,0.017625978,-9.777902
2080680000,2080680000,-0.07918164,-0.014838725,-9.769595
2080728000,2080728000,-0.1476272,0.06645463,-9.821504
2080780000,2080780000,-0.03899952,0.007799818,-9.829955
2080828000,2080828000,-0.038992982,-0.024412638,-9.824365
2080880000,2080880000,-0.09066789,0.0460371,-9.886626
2080928000,2080928000,-0.028673913,0.065934874,-9.80544
2080980000,2080980000,-0.10465453,0.009726533,-9.734376
2081028000,2081028000,-0.03503563,0.04789276,-9.887645
2081080000,2081080000,-0.064053245,-0.06965734,-9.794266
2081128000,2081128000,-0.10477309,0.03260191,-9.7813635
2081180000,2081180000,0.01911024,-0.027122006,-9.800323
2081228000,2081228000,-0.0076737786,0.07226038,-9.781861
2081280000,2081280000,-0.028770577,-0.05453363,-9.819274
2081328000,2081328000,-0.039308973,0.03572587,-9.796114
2081380000,2081380000,-0.10051332,0.07891364,-9.861374
2081428000,2081428000,-0.019712146,-0.004000763,-9.91357
2081480000,2081480000,-0.048510987,0.115415744,-9.844193
2081528000,2081528000,-0.08519989,0.08853016,-9.738812
2081580000,2081580000,-0.06530322,0.10270223,-9.716455
2081628000,2081628000,-0.016244464,0.027894996,-9.905977
2081680000,2081680000,0.0628991,-0.06964003,-9.785422
2081728000,2081728000,-0.07310183,0.0027304743,-9.752513
2081780000,2081780000,0.0009156838,0.03153716,-9.608931
2081828000,2081828000,-0.017991822,0.03159904,-9.286579
2081880000,2081880000,-0.002551153,0.10954379,-8.84604
2081928000,2081928000,-0.009887981,0.060615763,-8.651553
2081980000,2081980000,0.011476535,0.0047686156,-8.509921
2082028000,2082028000,-0.08719026,-0.013578554,-8.254886
2082080000,2082080000,-0.053873662,-0.009606911,-7.984473
2082128000,2082128000,-0.14251956,0.018113531,-7.807379
2082180000,2082180000,-0.0056927744,0.018380312,-7.627715
2082228000,2082228000,-0.05574582,-0.0071586124,-8.045144
2082280000,2082280000,-0.037808,0.085660085,-8.672677
2082328000,2082328000,-0.010375389,0.056793764,-9.002602
2082380000,2082380000,-0.106778264,0.078194775,-9.478935
2082428000,2082428000,-0.07026143,0.09196971,-9.824169
2082480000,2082480000,0.09414011,-0.02739548,-10.0603285
2082528000,2082528000,-0.04606965,0.087346844,-10.351561
2082580000,2082580000,0.042938378,0.10546467,-10.525953
2082628000,2082628000,0.016140958,0.07580404,-10.458292
2082680000,2082680000,-0.08279366,0.031310245,-10.266175
2082728000,2082728000,-0.09411968,-0.026971955,-10.082327
2082780000,2082780000,-0.055099323,-0.030763924,-9.86131
2082828000,2082828000,-0.003811784,0.014208851,-9.769897
2082880000,2082880000,0.02828346,0.021179568,-9.778312
2082928000,2082928000,-0.0068405727,0.060101017,-9.730619
2082980000,2082980000,-0.006559341,-0.028730258,-9.719034
2083028000,2083028000,0.05781875,-0.034936097,-9.794632
2083080000,2083080000,0.06621714,-0.053697012,-9.72154
2083128000,2083128000,0.034036316,0.008369071,-9.710224
2083180000,2083180000,0.017979026,0.009843115,-9.805239
2083228000,2083228000,-0.07240398,-0.046367217,-9.882755
2083280000,2083280000,0.06981594,0.025917511,-9.818906
2083328000,2083328000,0.08444799,0.044573974,-9.725008
2083380000,2083380000,-0.008481009,-0.00868659,-9.699993
2083428000,2083428000,0.08142324,-0.026004922,-9.695254
2083480000,2083480000,-0.052007146,-0.023466498,-9.746137
2083528000,2083528000,0.02573751,-0.05343066,-9.877577
2083580000,2083580000,0.020503193,0.07597135,-9.842405
2083628000,2083628000,-0.049351115,0.0049157664,-9.687765
2083676000,2083676000,-0.032696083,0.010005193,-9.725686
2083728000,2083728000,0.08901151,-0.04280851,-9.849807
2083780000,2083780000,0.060781334,-0.020250097,-9.791879
2083828000,2083828000,0.057404697,0.023045398,-9.764114
2083880000,2083880000,0.03422389,0.022015749,-9.837856
2083928000,2083928000,-0.029194925,-0.039124988,-9.892243
2083980000,2083980000,0.12342242,-0.06685296,-9.815197
2084028000,2084028000,-0.051238883,-0.028823396,-9.755674
2084080000,2084080000,0.002981401,-0.02422161,-9.925888
2084128000,2084128000,0.07195221,-0.03343422,-9.838356
2084180000,2084180000,0.037196204,-0.035612557,-9.826534
2084228000,2084228000,0.003431194,-0.047385972,-9.809006
2084280000,2084280000,0.018359704,-0.02981895,-9.71495
2084328000,2084328000,-0.0064656935,-0.022217926,-9.789257
2084380000,2084380000,-0.0019105077,-0.06373949,-9.802025
2084428000,2084428000,0.07432729,-0.028531209,-9.787638
2084480000,2084480000,-0.021703731,-0.0042225523,-9.817499
2084528000,2084528000,0.10898456,0.0285471,-9.7395525
2084580000,2084580000,-0.0018066636,-0.069083914,-9.814606
2084628000,2084628000,-0.023911878,0.049948547,-9.796982
2084676000,2084676000,0.00152638,-0.03699757,-9.8276005
2084728000,2084728000,0.03065895,0.018729003,-9.819111
2084780000,2084780000,-0.04730279,-0.0042199483,-9.844714
2084828000,2084828000,0.05020867,0.054356463,-9.74091
2084880000,2084880000,0.0065592695,0.016397817,-9.8144045
2084928000,2084928000,0.0937535,0.09474666,-9.878744
2084980000,2084980000,-0.0025874197,0.07950721,-9.749074
2085028000,2085028000,-0.08312257,0.019028705,-9.711902
2085080000,2085080000,0.036380686,0.04598121,-9.845
2085128000,2085128000,0.08811443,0.017619494,-9.841526
2085180000,2085180000,0.06773108,-0.026817733,-9.76968
2085228000,2085228000,0.0041940995,0.05932068,-9.708496
2085280000,2085280000,0.06766336,-0.015347536,-9.849699
2085328000,2085328000,-0.004608337,0.10065715,-9.799831
2085380000,2085380000,-0.027822383,-0.01951516,-9.792271
2085428000,2085428000,0.07026977,-0.04134674,-9.815748
2085480000,2085480000,0.030871114,0.0138273295,-9.862875
2085528000,2085528000,0.11294814,-0.039289024,-9.758795
2085580000,2085580000,-0.0155227445,0.07766077,-9.826733
2085628000,2085628000,0.06331837,0.02300375,-9.777571
2085680000,2085680000,0.076660305,-0.048535552,-9.913905
2085728000,2085728000,-0.016199188,0.042300325,-9.804382
2085780000,2085780000,-0.014158767,-0.02469026,-9.847003
2085828000,2085828000,-0.0016045296,0.049226977,-9.731109
2085880000,2085880000,0.099073336,-0.014576816,-9.833198
2085928000,2085928000,-0.037132155,0.0074475277,-9.77805
2085980000,2085980000,0.0580075,0.021361668,-9.859947
2086028000,2086028000,0.08309399,0.03085363,-9.832344
2086080000,2086080000,-0.039387923,-0.01378012,-9.83736
2086128000,2086128000,-0.021687884,0.11764887,-9.717097
2086180000,2086180000,0.038238067,-1.4102671,-10.727829
2086224000,2086224000,0.034246013,0.69892675,-7.8484945
2086280000,2086280000,0.0048046615,-0.054850392,-9.739832
2086328000,2086328000,-0.0041030673,-0.012301624,-9.740162
2086376000,2086376000,0.048527136,-0.048015054,-9.813715
2086428000,2086428000,0.09618075,0.034548894,-9.762028
2086480000,2086480000,-0.043797866,0.16720232,-9.852478
2086528000,2086528000,0.0016925908,0.04774873,-9.816728
2086580000,2086580000,0.011875575,0.08672637,-9.777765
2086628000,2086628000,-0.028265778,-0.030171886,-9.774849
2086680000,2086680000,0.0065480117,0.01870792,-9.822383
2086724000,2086724000,-0.0071420753,-0.06741436,-9.817032
2086780000,2086780000,-0.026829274,0.020021457,-9.861288
2086824000,2086824000,0.06030564,0.016169082,-9.857437
2086880000,2086880000,0.045916665,0.0153117925,-9.81358
2086928000,2086928000,0.014300689,0.0232017,-9.854605
2086980000,2086980000,-0.043425,0.06900712,-9.909903
2087028000,2087028000,-0.031140186,-0.06876649,-9.786085
2087080000,2087080000,0.046894804,-0.010942546,-9.761357
2087128000,2087128000,0.04262168,-0.05639433,-9.799435
2087180000,2087180000,0.039588008,-0.039214443,-9.834119
2087228000,2087228000,0.08522306,0.07957289,-9.804335
2087280000,2087280000,0.010964949,0.016119007,-9.833646
2087324000,2087324000,0.027726598,-0.032590374,-9.826688
2087380000,2087380000,-0.006497269,-0.02785766,-9.850705
2087428000,2087428000,0.019398294,-0.0032561726,-9.843387
2087480000,2087480000,0.022727534,0.04835057,-9.880047
2087528000,2087528000,0.1162011,0.02822148,-9.775141
2087580000,2087580000,0.036446642,0.010622573,-9.78638
2087628000,2087628000,0.024992138,0.02081773,-9.87311
2087680000,2087680000,0.054385193,0.075957716,-9.902573
2087728000,2087728000,0.045496926,0.013799819,-9.813652
2087776000,2087776000,0.022293946,-0.024784546,-9.745521
2087828000,2087828000,0.010829471,0.06847087,-9.791922
2087880000,2087880000,0.050451655,0.05065386,-9.830421
2087928000,2087928000,-0.071964554,0.005956786,-9.79954
2087980000,2087980000,0.08317721,0.038651936,-9.905595
2088028000,2088028000,0.055871107,0.017474363,-9.793671
2088080000,2088080000,0.038287815,0.073454596,-9.775966
2088128000,2088128000,0.04684567,0.06250715,-9.829928
2088180000,2088180000,0.17685366,-0.008216702,-9.764425
2088228000,2088228000,-0.042803988,0.057211578,-9.902183
2088280000,2088280000,-0.045590483,0.037269708,-9.767025
2088328000,2088328000,0.023609009,-0.058810633,-9.74467
2088380000,2088380000,0.00048589683,0.06259002,-9.831421
2088428000,2088428000,-0.035830688,-0.057442397,-9.736461
2088480000,2088480000,-0.019678513,0.05843494,-9.857202
2088528000,2088528000,-0.016311804,0.038930174,-9.815592
2088580000,2088580000,0.036160838,0.030806396,-9.870208
2088628000,2088628000,-0.0077523747,-0.029740093,-9.765867
2088680000,2088680000,0.022845231,0.02728618,-9.757397
2088728000,2088728000,-0.041059803,0.06708437,-9.7899885
2088780000,2088780000,0.02006623,-0.0905333,-9.796031
2088828000,2088828000,0.04928471,0.0068703536,-9.826405
2088880000,2088880000,-0.043687254,-0.03719236,-9.795231
2088928000,2088928000,0.016167069,0.0422048,-9.72558
2088980000,2088980000,-0.010687757,-0.023846092,-9.891954
2089028000,2089028000,-0.034168612,0.0030899104,-9.799924
2089080000,2089080000,-0.07250863,0.049934153,-9.850509
2089128000,2089128000,0.01901026,0.090831496,-9.758044
2089180000,2089180000,0.035168547,0.054782227,-9.773555
2089228000,2089228000,0.005396725,0.011992466,-9.773665
2089280000,2089280000,0.041993365,0.09411055,-9.819337
2089328000,2089328000,-0.044516318,0.06385041,-9.863881
2089380000,2089380000,0.057556048,0.07185604,-9.788868
2089428000,2089428000,-0.036550652,0.0333458,-9.816052
2089480000,2089480000,-0.07335432,0.059513517,-9.784451
2089528000,2089528000,0.08109118,0.047040373,-9.839974
2089580000,2089580000,0.05155441,0.028318062,-9.842419
2089628000,2089628000,0.06219866,0.0018495265,-9.78009
2089680000,2089680000,0.015994962,0.03157966,-9.844328
2089728000,2089728000,0.029791502,0.08289825,-9.843183
2089780000,2089780000,-0.046072733,0.021642042,-9.800236
2089828000,2089828000,0.03372856,0.05630298,-9.836327
2089880000,2089880000,-0.005956994,0.017408956,-9.811706
2089928000,2089928000,0.0042500794,0.04529076,-9.792836
2089980000,2089980000,-0.018762995,0.022092335,-9.773755
2090028000,2090028000,-0.03528005,0.005902723,-9.774315
2090080000,2090080000,-0.00193953,-0.02659848,-9.837139
2090128000,2090128000,0.031416826,-0.031053381,-9.79152
2090180000,2090180000,-0.11133184,0.07491884,-9.796483
2090228000,2090228000,0.027989369,-0.011648547,-9.827615
2090280000,2090280000,0.047489733,0.04501289,-9.837357
2090328000,2090328000,-0.031858064,-0.02309592,-9.717493
