timestamp,roll,pitch,yaw,thrust_body[0],thrust_body[1],thrust_body[2],reset_integral
2043328000,-0.0006094028,-0.026012406,-0.000119015574,0.0,0.0,-0.001,0
2043332000,-0.0007294263,-0.02613395,9.481609e-05,0.0,0.0,-0.001,0
2043348000,-0.00042030844,-0.027067391,-0.00011473894,0.0,0.0,-0.001,0
2043368000,-0.0008274233,-0.027008342,0.00010868907,0.0,0.0,-0.001,0
2043388000,-0.0011000286,-0.02795873,0.0001257956,0.0,0.0,-0.001,0
2043404000,-0.0016009258,-0.027611949,6.1646104e-05,0.0,0.0,-0.001,0
2043424000,-0.0019681517,-0.027326398,-0.00025054812,0.0,0.0,-0.001,0
2043448000,-0.0021994503,-0.027040657,0.00016386807,0.0,0.0,-0.001,0
2043468000,-0.0012504715,-0.026663028,7.750094e-05,0.0,0.0,-0.001,0
2043484000,-0.00095725385,-0.027370987,-4.902482e-05,0.0,0.0,-0.001,0
2043508000,-0.0011549057,-0.026897747,-9.815395e-05,0.0,0.0,-0.001,0
2043528000,-0.0011222581,-0.027303357,-0.0002053827,0.0,0.0,-0.001,0
2043544000,-0.000978153,-0.026762223,-0.00022384524,0.0,0.0,-0.001,0
2043568000,-0.0015065607,-0.026548784,3.3691525e-05,0.0,0.0,-0.001,0
2043588000,-0.0017636572,-0.026419304,1.9297004e-05,0.0,0.0,-0.001,0
2043608000,-0.0017269573,-0.026502186,0.00015051663,0.0,0.0,-0.001,0
2043628000,-0.0020254294,-0.02729609,-0.0001295507,0.0,0.0,-0.001,0
2043644000,-0.0027485336,-0.026884206,-4.0575862e-05,0.0,0.0,-0.001,0
2043668000,-0.0034340168,-0.02712371,-4.5895576e-06,0.0,0.0,-0.001,0
2043688000,-0.0035371678,-0.026801625,4.3183565e-05,0.0,0.0,-0.001,0
2043708000,-0.0039668074,-0.02690934,-8.73059e-05,0.0,0.0,-0.001,0
2043728000,-0.0032406687,-0.02654382,5.6117773e-05,0.0,0.0,-0.001,0
2043748000,-0.0033571322,-0.02599903,-3.8594007e-05,0.0,0.0,-0.001,0
2043768000,-0.0036219535,-0.025786802,-0.00010201335,0.0,0.0,-0.001,0
2043788000,-0.003037604,-0.025149126,-4.1410327e-05,0.0,0.0,-0.001,0
2043808000,-0.0030471715,-0.025035722,-0.000116825104,0.0,0.0,-0.001,0
2043824000,-0.0028304816,-0.025736896,-0.00018337369,0.0,0.0,-0.001,0
2043848000,-0.0025749812,-0.026200196,0.00018942356,0.0,0.0,-0.001,0
2043868000,-0.0019936347,-0.026396848,0.0001244396,0.0,0.0,-0.001,0
2043888000,-0.0025883901,-0.026620494,8.626282e-05,0.0,0.0,-0.001,0
2043904000,-0.003227651,-0.026929852,-0.00021059811,0.0,0.0,-0.001,0
2043928000,-0.0028228224,-0.027590325,-0.00020705163,0.0,0.0,-0.001,0
2043948000,-0.0025251983,-0.02798365,0.0001256913,0.0,0.0,-0.001,0
2043968000,-0.002641801,-0.027462682,0.0003477633,0.0,0.0,-0.001,0
2043988000,-0.0015781899,-0.02667394,-4.23491e-05,0.0,0.0,-0.001,0
2044004000,-0.001568611,-0.026672274,8.6054206e-05,0.0,0.0,-0.001,0
2044028000,-0.0025137342,-0.026228532,0.0001205802,0.0,0.0,-0.001,0
2044044000,-0.0026180113,-0.02672769,0.00015354156,0.0,0.0,-0.001,0
2044068000,-0.0014766352,-0.027215,-0.0001052469,0.0,0.0,-0.001,0
2044088000,-0.0016393138,-0.028048469,-5.622208e-05,0.0,0.0,-0.001,0
2044104000,-0.0019426772,-0.027404085,-0.00023427606,0.0,0.0,-0.001,0
2044128000,-0.0019910822,-0.027459074,-9.7841024e-05,0.0,0.0,-0.001,0
2044148000,-0.003091909,-0.028239299,0.00012026727,0.0,0.0,-0.001,0
2044168000,-0.0031732342,-0.028146422,-0.00012287498,0.0,0.0,-0.001,0
2044188000,-0.0022440385,-0.02802874,-0.000103369355,0.0,0.0,-0.001,0
2044204000,-0.00210157,-0.027600164,0.00022561848,0.0,0.0,-0.001,0
2044228000,-0.0018617897,-0.027889282,-0.00015708804,0.0,0.0,-0.001,0
2044248000,-0.0016743545,-0.027848069,-5.9872866e-05,0.0,0.0,-0.001,0
2044268000,-0.0017617131,-0.027780198,3.5777688e-05,0.0,0.0,-0.001,0
2044284000,-0.0016725855,-0.027613888,0.0001630336,0.0,0.0,-0.001,0
2044308000,-0.0017475211,-0.026607485,0.00010024011,0.0,0.0,-0.001,0
2044328000,-0.0013171434,-0.027318092,-9.095669e-05,0.0,0.0,-0.001,0
2044348000,-0.034537476,-0.0517735,-9.8988414e-05,0.0,0.0,-0.003445267,0
2044368000,-0.033398207,-0.05171684,-0.0009596348,0.0,0.0,-0.005399613,0
2044388000,-0.033683494,-0.05417841,-0.0011091083,0.0,0.0,-0.008528945,0
2044408000,-0.033089194,-0.054347,-0.00048273802,0.0,0.0,-0.010825163,0
2044424000,-0.033009123,-0.054954957,-0.0003568381,0.0,0.0,-0.012890851,0
2044444000,-0.03459805,-0.05456184,2.169609e-05,0.0,0.0,-0.015938006,0
2044464000,-0.034034148,-0.053297162,0.00039835274,0.0,0.0,-0.01842745,0
2044488000,-0.029194763,-0.051057134,0.0010882467,0.0,0.0,-0.021938646,0
2044508000,-0.02630071,-0.052382655,0.0017407984,0.0,0.0,-0.025380515,0
2044528000,-0.025656098,-0.049959973,0.0018725395,0.0,0.0,-0.028246738,0
2044548000,-0.02523874,-0.050062343,0.0014893115,0.0,0.0,-0.03206961,0
2044568000,-0.024139794,-0.046746172,0.0013763458,0.0,0.0,-0.034772284,0
2044584000,-0.022616453,-0.049029626,0.0013978332,0.0,0.0,-0.037365906,0
2044608000,-0.024353314,-0.04891149,0.0015387535,0.0,0.0,-0.041561924,0
2044624000,-0.02642517,-0.046843667,0.0016288757,0.0,0.0,-0.044324704,0
2044648000,-0.027555192,-0.049884945,0.0010228455,0.0,0.0,-0.04867644,0
2044668000,-0.028184118,-0.04887774,0.0009313673,0.0,0.0,-0.05289297,0
2044688000,-0.028099699,-0.0518635,0.00039751828,0.0,0.0,-0.05598059,0
2044708000,-0.029755915,-0.054853152,0.0010944009,0.0,0.0,-0.060764145,0
2044724000,-0.02866832,-0.051670827,0.0010794848,0.0,0.0,-0.063969955,0
2044748000,-0.032344088,-0.054810166,0.00016699731,0.0,0.0,-0.068404324,0
2044768000,-0.03244591,-0.05486913,-0.0005169511,0.0,0.0,-0.071368635,0
2044784000,-0.027444255,-0.055944413,-0.00074882805,0.0,0.0,-0.07438093,0
2044808000,-0.027826054,-0.05382379,-0.0007530004,0.0,0.0,-0.07929028,0
2044824000,-0.030160572,-0.05599497,-0.00048565865,0.0,0.0,-0.0824238,0
2044848000,-0.02945909,-0.053750843,-1.9192696e-05,0.0,0.0,-0.08747944,0
2044868000,-0.028145317,-0.053939782,-0.00012996793,0.0,0.0,-0.09268179,0
2044888000,-0.024218941,-0.056340523,-6.5505505e-05,0.0,0.0,-0.09601781,0
2044908000,-0.023267426,-0.05568796,-0.0005387515,0.0,0.0,-0.10131929,0
2044928000,-0.02164576,-0.057383075,-0.00063565373,0.0,0.0,-0.104925334,0
2044948000,-0.022996977,-0.057733998,-0.0014706403,0.0,0.0,-0.11042175,0
2044968000,-0.023396788,-0.058909617,-0.0020408928,0.0,0.0,-0.114434585,0
2044988000,-0.027446754,-0.056259338,-0.0022774637,0.0,0.0,-0.11984354,0
2045008000,-0.024620935,-0.056904286,-0.002208516,0.0,0.0,-0.12375732,0
2045028000,-0.020890068,-0.05548401,-0.0020461082,0.0,0.0,-0.12936692,0
2045048000,-0.020480188,-0.053657025,-0.0013411939,0.0,0.0,-0.13321987,0
2045064000,-0.02009837,-0.05464395,-0.0012300014,0.0,0.0,-0.13731271,0
2045084000,-0.020296317,-0.05635894,-0.0012186319,0.0,0.0,-0.14315167,0
2045108000,-0.019639451,-0.060590573,-0.0006432682,0.0,0.0,-0.1496807,0
2045124000,-0.019168839,-0.05730398,-1.564622e-05,0.0,0.0,-0.15411265,0
2045148000,-0.019756606,-0.05526234,-0.00032231212,0.0,0.0,-0.16028973,0
2045168000,-0.019335732,-0.05564665,-0.0003540218,0.0,0.0,-0.16494085,0
2045188000,-0.022247026,-0.056205116,-0.00048013031,0.0,0.0,-0.17141116,0
2045204000,-0.021740926,-0.05739551,-0.0011471808,0.0,0.0,-0.17586103,0
2045224000,-0.02148523,-0.058445945,-0.0011434257,0.0,0.0,-0.18027149,0
2045248000,-0.022079334,-0.05628981,-0.0011339337,0.0,0.0,-0.18744317,0
2045268000,-0.022554008,-0.05486539,-0.00093856454,0.0,0.0,-0.19441369,0
2045288000,-0.01843266,-0.056766152,-0.00055366755,0.0,0.0,-0.19936582,0
2045308000,-0.02024087,-0.055811413,-0.0008350909,0.0,0.0,-0.20654175,0
2045328000,-0.021375468,-0.05658431,-0.0006227195,0.0,0.0,-0.21141198,0
2045344000,-0.024654752,-0.05535293,-0.0005246699,0.0,0.0,-0.21654482,0
2045368000,-0.025301738,-0.05536418,-0.0010756254,0.0,0.0,-0.22383566,0
2045388000,-0.02221249,-0.051995426,-0.00017596781,0.0,0.0,-0.23093219,0
2045408000,-0.023279566,-0.053148903,-0.00010983646,0.0,0.0,-0.23609036,0
2045428000,-0.024699617,-0.05705053,-0.00012131035,0.0,0.0,-0.24381158,0
2045444000,-0.02510954,-0.05799077,-0.00020830333,0.0,0.0,-0.2490282,0
2045468000,-0.024577864,-0.06111962,6.508827e-05,0.0,0.0,-0.2568717,0
2045488000,-0.022306863,-0.061959438,-1.4707446e-05,0.0,0.0,-0.26224175,0
2045508000,-0.024702793,-0.062177025,-7.583201e-05,0.0,0.0,-0.27049464,0
2045528000,-0.024550745,-0.06426093,-0.00015489757,0.0,0.0,-0.27616814,0
2045548000,-0.028612386,-0.06110447,-4.3079257e-05,0.0,0.0,-0.28449744,0
2045564000,-0.024874303,-0.060813226,-0.00015082955,0.0,0.0,-0.28994262,0
2045584000,-0.023832545,-0.06158639,0.00028507411,0.0,0.0,-0.29556778,0
2045608000,-0.026308576,-0.065283485,4.6938658e-05,0.0,0.0,-0.30421886,0
2045628000,-0.027659142,-0.065080196,-0.00028830767,0.0,0.0,-0.31167752,0
2045648000,-0.028659422,-0.065711245,-0.00048972666,0.0,0.0,-0.3115222,0
2045668000,-0.02641484,-0.06136826,1.8775463e-05,0.0,0.0,-0.31532806,0
2045688000,-0.025986383,-0.067406975,4.3600798e-05,0.0,0.0,-0.3154491,0
2045708000,-0.02241126,-0.063665375,-0.00012527406,0.0,0.0,-0.31952405,0
2045724000,-0.019313935,-0.06274069,-6.571412e-05,0.0,0.0,-0.31954914,0
2045748000,-0.020832377,-0.06426375,-4.3287873e-05,0.0,0.0,-0.32361862,0
2045768000,-0.018715158,-0.06266704,-0.0004542619,0.0,0.0,-0.32370913,0
2045788000,-0.018796574,-0.06331873,-0.00017951429,0.0,0.0,-0.32786095,0
2045808000,-0.018588824,-0.06616535,-5.6639314e-05,0.0,0.0,-0.3279304,0
2045828000,-0.018202912,-0.06565066,-2.4303794e-05,0.0,0.0,-0.33180264,0
2045848000,-0.020484291,-0.058815207,6.2167645e-05,0.0,0.0,-0.33184344,0
2045868000,-0.014464311,-0.0568364,-2.6389956e-05,0.0,0.0,-0.3359712,0
2045888000,-0.015145775,-0.05864384,6.6027045e-05,0.0,0.0,-0.33597523,0
2045904000,-0.016550612,-0.062031336,3.0457973e-05,0.0,0.0,-0.33881688,0
2045928000,-0.016734954,-0.06496436,0.00021289289,0.0,0.0,-0.34052932,0
2045948000,-0.019053081,-0.06469431,-9.857118e-05,0.0,0.0,-0.34476858,0
2045968000,-0.02359851,-0.06250952,-0.0002478361,0.0,0.0,-0.34493214,0
2045988000,-0.020797255,-0.060676295,-1.0326505e-05,0.0,0.0,-0.3494689,0
2046008000,-0.019799316,-0.062289026,-4.078448e-05,0.0,0.0,-0.3493211,0
2046024000,-0.019725788,-0.06097011,-0.00030718744,0.0,0.0,-0.35214132,0
2046044000,-0.018832084,-0.06229152,-8.970499e-05,0.0,0.0,-0.35376745,0
2046068000,-0.020629799,-0.067370765,-0.0001295507,0.0,0.0,-0.35825297,0
2046088000,-0.01928725,-0.068881735,-0.00021268427,0.0,0.0,-0.35855314,0
2046108000,-0.018456079,-0.069136575,-9.638071e-05,0.0,0.0,-0.36314604,0
2046128000,-0.019760814,-0.06947319,-6.6027045e-05,0.0,0.0,-0.3631799,0
2046148000,-0.016785253,-0.069493584,-6.592274e-05,0.0,0.0,-0.36733946,0
2046168000,-0.015144996,-0.06862505,-0.00010347366,0.0,0.0,-0.36778218,0
2046188000,-0.016148033,-0.07063539,-1.3455749e-05,0.0,0.0,-0.3722354,0
2046208000,-0.01870031,-0.07145578,-1.1891127e-05,0.0,0.0,-0.37242877,0
2046228000,-0.019489009,-0.06767308,-0.00020110607,0.0,0.0,-0.37730727,0
2046248000,-0.018751735,-0.06902766,-0.00013445318,0.0,0.0,-0.3779599,0
2046264000,-0.01902535,-0.06905923,0.00013236701,0.0,0.0,-0.38115764,0
2046288000,-0.021357955,-0.07039004,-0.0004989058,0.0,0.0,-0.38307196,0
2046304000,-0.024537377,-0.07143209,3.7446618e-05,0.0,0.0,-0.38610032,0
2046328000,-0.02293242,-0.07291859,-5.2258372e-05,0.0,0.0,-0.38814366,0
2046344000,-0.024393648,-0.07527062,7.405877e-06,0.0,0.0,-0.39149347,0
2046364000,-0.022773439,-0.0743708,-0.0001180768,0.0,0.0,-0.3933711,0
2046388000,-0.024766458,-0.072429955,-3.0040741e-05,0.0,0.0,-0.39819613,0
2046408000,-0.025465805,-0.07378841,-0.00014269352,0.0,0.0,-0.39886165,0
2046428000,-0.023447968,-0.07391989,-4.8190355e-05,0.0,0.0,-0.40380007,0
2046448000,-0.023709005,-0.075944446,-5.3718686e-05,0.0,0.0,-0.4044055,0
2046468000,-0.025711074,-0.07128598,-8.313358e-05,0.0,0.0,-0.40925056,0
2046488000,-0.025797619,-0.07368179,-0.00015166402,0.0,0.0,-0.4099918,0
2046508000,-0.024322372,-0.07035694,-0.00015155971,0.0,0.0,-0.41495952,0
2046528000,-0.024436342,-0.07018603,-0.00017721951,0.0,0.0,-0.41552228,0
2046548000,-0.02016206,-0.07174359,-7.458031e-05,0.0,0.0,-0.42048335,0
2046568000,-0.019906498,-0.0732408,-0.00019286573,0.0,0.0,-0.42121542,0
2046588000,-0.024085563,-0.07780863,-9.3981624e-05,0.0,0.0,-0.42650035,0
2046608000,-0.023405362,-0.07808098,1.6897917e-05,0.0,0.0,-0.4271021,0
2046628000,-0.023792794,-0.080126345,8.803606e-05,0.0,0.0,-0.43232903,0
2046648000,-0.018410966,-0.07667206,0.0002092421,0.0,0.0,-0.4330939,0
2046668000,-0.018070778,-0.07654205,-0.00030311942,0.0,0.0,-0.43829706,0
2046688000,-0.021012224,-0.0799026,-7.2181225e-05,0.0,0.0,-0.43935466,0
2046708000,-0.020477407,-0.08085395,-5.6952238e-05,0.0,0.0,-0.4446886,0
2046728000,-0.02088092,-0.08126893,-0.00013706088,0.0,0.0,-0.44529474,0
2046748000,-0.021769002,-0.08066632,-4.912913e-05,0.0,0.0,-0.45071173,0
2046768000,-0.020592187,-0.08355363,-2.5764108e-05,0.0,0.0,-0.45172474,0
2046788000,-0.02338444,-0.08228519,-0.00014926493,0.0,0.0,-0.4571297,0
2046804000,-0.02336107,-0.08024982,-6.3315034e-05,0.0,0.0,-0.45798558,0
2046824000,-0.02222167,-0.08036315,0.00023333728,0.0,0.0,-0.46192595,0
2046848000,-0.024709772,-0.08083536,0.00010681152,0.0,0.0,-0.4642039,0
2046864000,-0.0253134,-0.079747096,-0.00013507903,0.0,0.0,-0.46841747,0
2046888000,-0.021103675,-0.07952212,0.00022311509,0.0,0.0,-0.47072384,0
2046904000,-0.020183083,-0.08123029,-0.000104516745,0.0,0.0,-0.47477928,0
2046928000,-0.019420797,-0.086172566,-8.3863735e-05,0.0,0.0,-0.4766416,0
2046944000,-0.01644529,-0.0860423,-5.799532e-05,0.0,0.0,-0.48075244,0
2046968000,-0.014753651,-0.08283125,-0.00017304718,0.0,0.0,-0.48317337,0
2046988000,-0.012495158,-0.08285577,-0.00019359589,0.0,0.0,-0.48853,0
2047008000,-0.012169578,-0.08106028,-9.252131e-05,0.0,0.0,-0.4893827,0
2047024000,-0.010878921,-0.08164297,-0.0002501309,0.0,0.0,-0.49358422,0
2047048000,-0.011929577,-0.08023916,-7.6666474e-05,0.0,0.0,-0.4957645,0
2047068000,-0.016001105,-0.0812591,-0.0001603216,0.0,0.0,-0.50162905,0
2047088000,-0.014361288,-0.084533766,-0.00029581785,0.0,0.0,-0.502711,0
2047104000,-0.01589502,-0.08656568,1.5541911e-05,0.0,0.0,-0.5071628,0
2047128000,-0.013520144,-0.087460056,-4.7564507e-05,0.0,0.0,-0.5094837,0
2047144000,-0.016938943,-0.08563213,-0.00063607097,0.0,0.0,-0.51396954,0
2047168000,-0.014109319,-0.087468006,-0.0002873689,0.0,0.0,-0.5160316,0
2047188000,-0.011897209,-0.086632945,0.00011140108,0.0,0.0,-0.52185327,0
2047204000,-0.011704336,-0.086674586,-0.00015573204,0.0,0.0,-0.52329975,0
2047228000,-0.013663809,-0.08551496,-0.0001667887,0.0,0.0,-0.5290176,0
2047248000,-0.013408445,-0.08752027,-0.00035996735,0.0,0.0,-0.5301536,0
2047268000,-0.009809932,-0.088392176,-4.4330955e-05,0.0,0.0,-0.5360049,0
2047288000,-0.008996014,-0.08620263,-5.8934093e-05,0.0,0.0,-0.5371497,0
2047304000,-0.008272483,-0.08826242,0.000108897686,0.0,0.0,-0.54203486,0
2047328000,-0.008900019,-0.08931601,-8.302927e-05,0.0,0.0,-0.54437155,0
2047348000,-0.0091792075,-0.089493684,-8.480251e-05,0.0,0.0,-0.57584167,0
2047368000,-0.010361398,-0.08783555,4.5895576e-06,0.0,0.0,-0.57700044,0
2047384000,-0.006619708,-0.08627262,-0.00013622642,0.0,0.0,-0.58197063,0
2047408000,-0.0065947794,-0.0882346,0.000102326274,0.0,0.0,-0.5842465,0
2047424000,-0.005396211,-0.08668077,-0.000129655,0.0,0.0,-0.5890666,0
2047448000,-0.008186113,-0.09000362,0.00013633072,0.0,0.0,-0.5914304,0
2047468000,-0.006168771,-0.0898952,-0.0001347661,0.0,0.0,-0.59724313,0
2047488000,-0.0054757646,-0.089117914,0.00036852062,0.0,0.0,-0.59838796,0
2047508000,-0.007248879,-0.09231704,-5.8725476e-05,0.0,0.0,-0.6043152,0
2047528000,-0.009462894,-0.08740857,-0.00045280159,0.0,0.0,-0.605365,0
2047548000,-0.007992626,-0.08955726,7.875264e-05,0.0,0.0,-0.6112341,0
2047568000,-0.007097251,-0.08906752,-0.00025701523,0.0,0.0,-0.6126755,0
2047588000,-0.0072029727,-0.09072137,-0.00010357797,0.0,0.0,-0.61871177,0
2047608000,-0.00954312,-0.090161145,0.0001859814,0.0,0.0,-0.62033576,0
2047628000,-0.0068715047,-0.09018767,-0.0001386255,0.0,0.0,-0.6264702,0
2047648000,-0.0072382907,-0.088321194,-7.092953e-05,0.0,0.0,-0.6277472,0
2047668000,-0.008065014,-0.08774209,-0.0001938045,0.0,0.0,-0.6343496,0
2047688000,-0.004107331,-0.0883719,2.0861626e-07,0.0,0.0,-0.63599825,0
2047704000,-0.0023449995,-0.08795787,9.804964e-06,0.0,0.0,-0.6415602,0
2047728000,-0.0037028927,-0.08695439,-0.00026202202,0.0,0.0,-0.6441904,0
2047748000,0.00012845296,-0.08607861,-6.519258e-05,0.0,0.0,-0.6507361,0
2047768000,-0.0001711942,-0.08594799,4.453957e-05,0.0,0.0,-0.65206337,0
2047788000,0.0021526162,-0.08484763,0.0,0.0,0.0,-0.6586244,0
2047808000,0.0023677258,-0.08834267,-0.00013247132,0.0,0.0,-0.6601194,0
2047824000,-0.00048384478,-0.085498944,-0.00011578202,0.0,0.0,-0.66617686,0
2047848000,-0.0005461868,-0.08653596,-0.00023031235,0.0,0.0,-0.6684425,0
2047868000,-0.0029679406,-0.08592267,-8.6680055e-05,0.0,0.0,-0.6749598,0
2047888000,-0.0015071358,-0.0878565,4.3287873e-05,0.0,0.0,-0.6767294,0
2047904000,0.0013453041,-0.09038231,-0.00026515126,0.0,0.0,-0.6827637,0
2047928000,0.001222407,-0.091050126,-0.0004079491,0.0,0.0,-0.6854356,0
2047948000,0.003253258,-0.09085545,-5.351007e-05,0.0,0.0,-0.6918533,0
2047968000,0.0020696386,-0.09219162,3.9219856e-05,0.0,0.0,-0.69362783,0
2047988000,0.0012650169,-0.085690044,-7.4997544e-05,0.0,0.0,-0.69996643,0
2048008000,0.004942895,-0.08479898,-9.700656e-05,0.0,0.0,-0.70131826,0
2048028000,0.0038886839,-0.078600936,3.515184e-05,0.0,0.0,-0.7072553,0
2048048000,0.003928996,-0.0696515,-5.789101e-05,0.0,0.0,-0.70818466,0
2048068000,0.005852689,-0.060763355,6.362796e-06,0.0,0.0,-0.7132162,0
2048088000,0.0038419464,-0.05329156,-6.446242e-05,0.0,0.0,-0.713985,0
2048108000,0.0051836944,-0.037769947,-3.682077e-05,0.0,0.0,-0.71917623,0
2048124000,0.00640741,-0.022278,-6.780028e-05,0.0,0.0,-0.71992826,0
2048148000,0.0061651655,0.000169456,1.731515e-05,0.0,0.0,-0.7254156,0
2048164000,0.007933951,0.016669862,0.00019881129,0.0,0.0,-0.7258585,0
2048188000,0.011598854,0.04702014,-1.3038516e-05,0.0,0.0,-0.7309109,0
2048208000,0.015560556,0.071657166,0.0004464388,0.0,0.0,-0.7313901,0
2048224000,0.016625982,0.093175426,0.00014717877,0.0,0.0,-0.73587745,0
2048248000,0.021938497,0.12617636,8.3342195e-05,0.0,0.0,-0.73526007,0
2048268000,0.025797782,0.15554766,0.00013424456,0.0,0.0,-0.73892695,0
2048284000,0.028907945,0.17461936,0.00022134185,0.0,0.0,-0.7381401,0
2048308000,0.03419069,0.20435105,0.00026661158,0.0,0.0,-0.7418396,0
2048328000,0.03775299,0.22102892,0.0002901852,0.0,0.0,-0.74064976,0
2048348000,0.04543069,0.24116962,0.0003991872,0.0,0.0,-0.74396884,0
2048368000,0.049952336,0.2548925,0.0003426522,0.0,0.0,-0.7427474,0
2048388000,0.05031483,0.26963615,0.0005790144,0.0,0.0,-0.746128,0
2048404000,0.051044926,0.2780408,0.00047564507,0.0,0.0,-0.7446019,0
2048428000,0.052561395,0.28875986,0.00025857985,0.0,0.0,-0.7475144,0
2048448000,0.05263862,0.29291385,0.00023062527,0.0,0.0,-0.7457356,0
2048468000,0.056942336,0.2942394,6.3315034e-05,0.0,0.0,-0.7492106,0
2048488000,0.056153607,0.29161334,0.0001386255,0.0,0.0,-0.7474074,0
2048508000,0.059028424,0.29300582,1.2934208e-05,0.0,0.0,-0.7507969,0
2048528000,0.058412727,0.2940468,-0.00019422174,0.0,0.0,-0.7486328,0
2048548000,0.056377776,0.2931323,-4.673004e-05,0.0,0.0,-0.7517339,0
2048568000,0.055707637,0.28313383,-0.0002092421,0.0,0.0,-0.74930364,0
2048588000,0.05235392,0.27847305,-0.0002464801,0.0,0.0,-0.7522945,0
2048608000,0.04764057,0.27295953,0.00017544627,0.0,0.0,-0.7498408,0
2048628000,0.045163065,0.2680458,-0.00024940073,0.0,0.0,-0.75280195,0
2048648000,0.04413176,0.257975,-0.0002181083,0.0,0.0,-0.7501114,0
2048664000,0.04301905,0.25046712,-0.0007734448,0.0,0.0,-0.7540316,0
2048688000,0.042527005,0.23743783,-0.00018034875,0.0,0.0,-0.7503164,0
2048708000,0.04752453,0.23289381,-0.0006361753,0.0,0.0,-0.7538334,0
2048728000,0.046237838,0.22288041,-0.00053562224,0.0,0.0,-0.7510051,0
2048748000,0.043029144,0.21471071,-0.00051142275,0.0,0.0,-0.7542629,0
2048768000,0.040151883,0.20397732,-0.0005630553,0.0,0.0,-0.75127095,0
2048784000,0.038873788,0.19744605,-0.00038969517,0.0,0.0,-0.7555502,0
2048808000,0.033689886,0.18864542,-0.00065505505,0.0,0.0,-0.7496418,0
2048824000,0.031711955,0.18175787,-0.00021612644,0.0,0.0,-0.748395,0
2048844000,0.028977595,0.17295086,-0.0004964024,0.0,0.0,-0.74013484,0
2048868000,0.031319436,0.16675247,-0.00045707822,0.0,0.0,-0.7337785,0
2048888000,0.03411193,0.16013014,-0.00063440204,0.0,0.0,-0.73116225,0
2048904000,0.031439662,0.15880463,-0.000108897686,0.0,0.0,-0.72933704,0
2048928000,0.02796373,0.15057011,-0.00059622526,0.0,0.0,-0.7237497,0
2048944000,0.026181187,0.14610317,-0.00048451126,0.0,0.0,-0.7274562,0
2048964000,0.019932825,0.1407869,-0.00021184981,0.0,0.0,-0.72485214,0
2048988000,0.023689296,0.12985533,-0.0002949834,0.0,0.0,-0.72833836,0
2049008000,0.023339713,0.12393381,-0.00030374527,0.0,0.0,-0.72685003,0
2049028000,0.021683194,0.11818327,-0.000257954,0.0,0.0,-0.7297705,0
2049048000,0.017579746,0.11481983,-0.00015333295,0.0,0.0,-0.7282923,0
2049068000,0.017544713,0.11149679,-0.00017857552,0.0,0.0,-0.7311502,0
2049088000,0.017467493,0.105740584,-0.00042964518,0.0,0.0,-0.72941816,0
2049108000,0.0197398,0.1031557,-0.00026087463,0.0,0.0,-0.728812,0
2049124000,0.02047475,0.099988356,-0.00012224913,0.0,0.0,-0.7267176,0
2049148000,0.020537153,0.09288878,-0.00025221705,0.0,0.0,-0.72164136,0
2049168000,0.019877777,0.08868035,-0.00017221272,0.0,0.0,-0.71973354,0
2049188000,0.021481873,0.078686565,-0.00028778613,0.0,0.0,-0.72044176,0
2049208000,0.021490756,0.07652317,-0.00060237944,0.0,0.0,-0.71918136,0
2049228000,0.017665364,0.0781609,-0.00035485625,0.0,0.0,-0.7207968,0
2049248000,0.017598467,0.07464551,-0.00022248924,0.0,0.0,-0.7191736,0
2049264000,0.018615121,0.07499074,-0.00037895143,0.0,0.0,-0.7244877,0
2049288000,0.019248804,0.07468141,-0.0005327016,0.0,0.0,-0.71927476,0
2049308000,0.02013088,0.07130835,-0.0003247112,0.0,0.0,-0.72104675,0
2049328000,0.017748099,0.06981405,-0.0002991557,0.0,0.0,-0.7196489,0
2049348000,0.014827918,0.068757154,-0.00024564564,0.0,0.0,-0.7210594,0
2049364000,0.01409238,0.0658746,-0.00021205842,0.0,0.0,-0.7196116,0
2049388000,0.011694171,0.062447406,-0.00027151406,0.0,0.0,-0.72135764,0
2049408000,0.010880554,0.061516143,-0.00019359589,0.0,0.0,-0.7196924,0
2049428000,0.012099484,0.05819784,-0.0001474917,0.0,0.0,-0.7215514,0
2049448000,0.011680454,0.055445082,-0.00010660291,0.0,0.0,-0.72012275,0
2049468000,0.011476854,0.050066568,-0.00025586784,0.0,0.0,-0.7219644,0
2049488000,0.011415215,0.049407892,-0.00019693375,0.0,0.0,-0.7205606,0
2049508000,0.008374233,0.049078546,-4.9233437e-05,0.0,0.0,-0.7220867,0
2049528000,0.009210328,0.046050735,-0.00026859343,0.0,0.0,-0.72055745,0
2049548000,0.005173942,0.042844176,-8.355081e-05,0.0,0.0,-0.72194284,0
2049564000,0.0061269347,0.04265593,-0.00026890635,0.0,0.0,-0.72043663,0
2049584000,0.007871453,0.039897256,9.5650554e-05,0.0,0.0,-0.72537094,0
2049608000,0.0020014402,0.037403256,0.00011651218,0.0,0.0,-0.7204531,0
2049628000,0.0031443145,0.03500797,-8.198619e-05,0.0,0.0,-0.7217159,0
2049648000,0.0033842921,0.032190673,9.794533e-05,0.0,0.0,-0.72006994,0
2049668000,0.0039479975,0.029447518,-0.00015646219,0.0,0.0,-0.72149825,0
2049688000,0.002864439,0.030889817,-0.00033785403,0.0,0.0,-0.7201969,0
2049708000,0.006185146,0.032856822,-5.1945448e-05,0.0,0.0,-0.721913,0
2049728000,0.004860297,0.032095633,-7.854402e-05,0.0,0.0,-0.7201793,0
2049744000,0.002151439,0.029069856,-0.000314489,0.0,0.0,-0.7247744,0
2049768000,0.002689384,0.023332007,-4.3705106e-05,0.0,0.0,-0.71985435,0
2049788000,0.0023866445,0.020456702,-0.00013820827,0.0,0.0,-0.7210157,0
2049808000,0.002507925,0.018016256,-5.9247017e-05,0.0,0.0,-0.719266,0
2049824000,0.00038152747,0.015395835,-0.00011630356,0.0,0.0,-0.723979,0
2049848000,0.0003446471,0.015014894,-1.1265278e-05,0.0,0.0,-0.7191581,0
2049868000,-0.00015169568,0.016033038,5.079806e-05,0.0,0.0,-0.72046614,0
2049884000,0.0033252742,0.014561854,-0.00016094744,0.0,0.0,-0.71840334,0
2049908000,0.0038207732,0.012214422,6.195903e-05,0.0,0.0,-0.7197585,0
2049928000,0.0034998069,0.0109137595,1.09523535e-05,0.0,0.0,-0.7178769,0
2049948000,-0.0016197534,0.0050620586,-0.00012892485,0.0,0.0,-0.71909434,0
2049964000,-0.00047291815,0.0044451356,-2.0861626e-06,0.0,0.0,-0.7173133,0
2049988000,-0.0009144023,0.0036944672,5.507469e-05,0.0,0.0,-0.71843255,0
2050008000,-0.0036211945,0.004896641,-0.00013059378,0.0,0.0,-0.7166256,0
2050028000,0.00042977557,0.0029216856,0.00011244416,0.0,0.0,-0.717869,0
2050048000,0.0002768226,0.0014762431,6.352365e-05,0.0,0.0,-0.7160874,0
2050068000,0.0008227201,0.006212853,1.1473894e-05,0.0,0.0,-0.71741134,0
2050084000,-3.597047e-05,0.007307276,-5.2571297e-05,0.0,0.0,-0.71555537,0
2050108000,-0.0022672024,0.0063906536,-5.841255e-06,0.0,0.0,-0.7170952,0
2050128000,-0.0047216136,0.0047512427,-0.00013539195,0.0,0.0,-0.7154424,0
2050148000,-0.0040644556,0.007011108,0.00013309717,0.0,0.0,-0.71678245,0
2050168000,-0.0034802454,0.0059878826,-6.9886446e-05,0.0,0.0,-0.7149665,0
2050188000,-0.0014978647,0.007912487,9.6067786e-05,0.0,0.0,-0.7162425,0
2050208000,-0.0033426797,0.006996095,-0.00014311075,0.0,0.0,-0.7141508,0
2050224000,-0.0035466459,0.004754834,0.00024491549,0.0,0.0,-0.7183459,0
2050248000,-0.00045829406,0.007666707,0.00012141466,0.0,0.0,-0.7137117,0
2050268000,-0.00075906515,0.009427011,-6.0915947e-05,0.0,0.0,-0.7154301,0
2050288000,-0.002472181,0.009018615,5.4761767e-05,0.0,0.0,-0.713831,0
2050308000,-0.0009288357,0.0055644736,3.1292439e-07,0.0,0.0,-0.71515536,0
2050324000,0.0026632864,0.0051758736,-4.23491e-05,0.0,0.0,-0.71377724,0
2050348000,0.003569515,0.004411638,-9.585917e-05,0.0,0.0,-0.71499443,0
2050368000,0.00068045256,0.004598908,3.963709e-05,0.0,0.0,-0.713165,0
2050388000,-0.001280121,0.001274854,4.579127e-05,0.0,0.0,-0.71400183,0
2050408000,-0.0023514298,0.0020738766,-0.0001539588,0.0,0.0,-0.71255887,0
2050428000,-0.00438548,0.0015992373,0.00026358664,0.0,0.0,-0.71413374,0
2050448000,-0.00081134704,-0.0013675429,-5.7265162e-05,0.0,0.0,-0.71262926,0
2050464000,0.0011185822,-0.00087521225,-0.00018660724,0.0,0.0,-0.716872,0
2050488000,-0.002701876,0.0038952604,0.0002452284,0.0,0.0,-0.7127289,0
2050508000,-0.0036266372,0.0062086843,-2.8371811e-05,0.0,0.0,-0.71414334,0
2050528000,-0.0015970634,0.005106304,-0.00033274293,0.0,0.0,-0.71262556,0
2050548000,-0.00048241182,0.0069120377,-0.00015354156,0.0,0.0,-0.7141633,0
2050568000,-0.0052833273,0.0064986907,5.8829784e-05,0.0,0.0,-0.71264225,0
2050588000,-0.005686319,0.0075545423,-0.00020381808,0.0,0.0,-0.71392745,0
2050608000,-0.00413644,0.0061848387,7.812679e-05,0.0,0.0,-0.71233207,0
2050628000,-0.00657982,0.006232891,9.6067786e-05,0.0,0.0,-0.7134132,0
2050648000,-0.005323625,0.006462395,0.00014050305,0.0,0.0,-0.7116394,0
2050668000,-0.0002745092,0.007078115,0.00016751885,0.0,0.0,-0.712902,0
2050688000,-0.0007566083,0.0069899037,-5.246699e-05,0.0,0.0,-0.7111955,0
2050708000,-0.0044481447,0.0044757463,9.346008e-05,0.0,0.0,-0.7123906,0
2050728000,-0.0015450097,0.006218113,0.021173924,0.0,0.0,-0.7110209,0
2050748000,-0.003035868,0.0030918568,7.009506e-05,0.0,0.0,-0.712051,0
2050768000,-0.0021549137,-0.00012796745,8.511543e-05,0.0,0.0,-0.7103699,0
2050784000,-0.000873907,-0.0013926849,6.707013e-05,0.0,0.0,-0.7143536,0
2050808000,0.0018033376,-0.0067232363,0.00016626716,0.0,0.0,-0.7099677,0
2050828000,-0.0014194269,-0.0066759028,-0.00017617643,0.0,0.0,-0.710944,0
2050848000,-0.0017336626,-0.0065945983,-5.8934093e-05,0.0,0.0,-0.7096559,0
2050868000,-0.00033509405,-0.008364767,-8.240342e-05,0.0,0.0,-0.71070915,0
2050888000,-0.000138517,-0.006528061,-7.82311e-06,0.0,0.0,-0.7092607,0
2050908000,0.0011844444,-0.0080731325,8.136034e-06,0.0,0.0,-0.7103616,0
2050928000,0.0021942942,-0.0043498464,5.0276518e-05,0.0,0.0,-0.70887446,0
2050948000,0.0032644253,-0.0047523268,-2.6389956e-05,0.0,0.0,-0.709695,0
2050968000,0.0034339228,-0.0032413527,-3.7759542e-05,0.0,0.0,-0.7081654,0
2050988000,0.0067488565,-0.0055051744,-0.00022561848,0.0,0.0,-0.709316,0
2051008000,0.0070220116,-0.006055042,-9.794533e-05,0.0,0.0,-0.7079843,0
2051028000,0.005673393,-0.009908805,-7.374585e-05,0.0,0.0,-0.70884144,0
2051048000,0.0032780203,-0.007264495,-0.00013956428,0.0,0.0,-0.70764035,0
2051068000,0.003092758,-0.008330831,-0.00011713803,0.0,0.0,-0.70896083,0
2051088000,0.0021899557,-0.007627733,2.2009015e-05,0.0,0.0,-0.707583,0
2051104000,0.0035797781,-0.0037782136,0.0001436323,0.0,0.0,-0.71135473,0
2051128000,0.0025960645,-0.006785147,0.00019213557,0.0,0.0,-0.70731443,0
2051148000,0.005762623,-0.0030068457,0.00011307001,0.0,0.0,-0.7083615,0
2051168000,0.004393425,-0.0024294648,0.0003516227,0.0,0.0,-0.7070566,0
2051188000,0.0020607794,-0.0008624289,-0.00012548268,0.0,0.0,-0.7082987,0
2051208000,0.0031911442,-0.00058059767,-0.00010743737,0.0,0.0,-0.70706105,0
2051224000,0.0022337846,-0.003618341,0.00023667514,0.0,0.0,-0.71089464,0
2051248000,0.0016886294,-0.0062755346,0.0003619492,0.0,0.0,-0.70668525,0
2051264000,0.00093997456,-0.0067412686,0.00041493773,0.0,0.0,-0.7105273,0
2051288000,0.00052161235,-0.0058070086,-4.902482e-05,0.0,0.0,-0.7062301,0
2051308000,-0.0004211003,-0.0011680312,0.00011828542,0.0,0.0,-0.70699877,0
2051328000,-0.0012812093,-0.0023980364,0.00010274351,0.0,0.0,-0.70577896,0
2051348000,-0.0042726425,-0.005208295,8.866191e-05,0.0,0.0,-0.7065573,0
2051368000,0.0009330008,-0.0054148026,0.00040648878,0.0,0.0,-0.7054691,0
2051388000,-0.0029255683,-0.010465993,8.34465e-06,0.0,0.0,-0.70653373,0
2051408000,-0.0018372303,-0.008858535,0.00028955936,0.0,0.0,-0.7056592,0
2051424000,-0.0042599533,-0.0067628426,2.399087e-05,0.0,0.0,-0.7091904,0
2051448000,-0.003967776,-0.011664374,4.172325e-06,0.0,0.0,-0.7053852,0
2051468000,-0.0015074471,-0.014710577,4.787743e-05,0.0,0.0,-0.7059968,0
2051488000,0.00016830955,-0.015317199,3.9324164e-05,0.0,0.0,-0.705003,0
2051508000,0.0039565302,-0.014223159,2.95192e-05,0.0,0.0,-0.7058014,0
2051528000,0.0046428293,-0.01032302,0.0001552105,0.0,0.0,-0.7049792,0
2051548000,0.0062075253,-0.009296672,5.184114e-05,0.0,0.0,-0.7056471,0
2051568000,0.002952963,-0.008571059,-1.3142824e-05,0.0,0.0,-0.7045471,0
2051588000,0.0022634855,-0.011886461,-6.67572e-06,0.0,0.0,-0.70505166,0
2051608000,0.0038929284,-0.006524152,-0.00016762316,0.0,0.0,-0.7036798,0
2051628000,0.005163128,-0.0067365128,6.175041e-05,0.0,0.0,-0.70429176,0
2051644000,0.004366539,-0.010843017,-7.040799e-05,0.0,0.0,-0.70360786,0
2051668000,0.0017125932,-0.0067261625,9.1686845e-05,0.0,0.0,-0.69667184,0
2051688000,-0.0015456444,-0.0059877653,-0.00018754601,0.0,0.0,-0.69595927,0
2051708000,0.00024860725,-0.0066137514,-8.2820654e-05,0.0,0.0,-0.68820196,0
2051728000,0.0001059277,-0.0056634457,-7.364154e-05,0.0,0.0,-0.6880451,0
2051748000,-0.0010341275,-0.009442897,-0.00037446618,0.0,0.0,-0.6797476,0
2051764000,-0.0026064273,-0.0038403,-0.0008198619,0.0,0.0,-0.6798555,0
2051788000,-0.0042078374,-0.0058598397,-0.00090143085,0.0,0.0,-0.6705504,0
2051808000,-0.006282462,-0.0043605324,-0.0010341108,0.0,0.0,-0.67136097,0
2051828000,-0.006941002,-0.01033801,-0.0011893213,0.0,0.0,-0.6615181,0
2051848000,-0.0036715223,-0.008162819,-0.0013485998,0.0,0.0,-0.6634695,0
2051868000,-0.008182158,-0.0035748314,-0.0013654977,0.0,0.0,-0.6531724,0
2051884000,-0.007555628,-0.0031342376,-0.0014944226,0.0,0.0,-0.65572596,0
2051908000,-0.005532804,-0.007451558,-0.0015642047,0.0,0.0,-0.65132886,0
2051928000,-0.004952075,-0.009513125,-0.0018270612,0.0,0.0,-0.65444636,0
2051948000,-0.0038803024,-0.008798279,-0.0013103187,0.0,0.0,-0.65965587,0
2051968000,-0.0028344896,-0.0065982724,-0.0012335479,0.0,0.0,-0.6632854,0
2051988000,-0.00028675608,-0.00651606,-0.0012336522,0.0,0.0,-0.6689739,0
2052008000,0.0020255493,-0.006954395,-0.001267761,0.0,0.0,-0.67236996,0
2052024000,0.001251149,-0.0053787613,-0.001535207,0.0,0.0,-0.6757461,0
2052048000,0.0026650364,-0.0029001497,-0.0016934425,0.0,0.0,-0.68017364,0
2052068000,0.0020800205,-0.0046573514,-0.0020975322,0.0,0.0,-0.6850248,0
2052088000,0.0016094968,-0.0058729304,-0.0028315485,0.0,0.0,-0.68701303,0
2052108000,0.0009961063,-0.006026026,-0.0032023638,0.0,0.0,-0.6944446,0
2052124000,0.0012529809,-0.005182646,-0.0032652617,0.0,0.0,-0.69653314,0
2052148000,0.0025794907,-0.001488084,-0.0032256246,0.0,0.0,-0.70304555,0
2052168000,0.0061633503,-0.0031774528,-0.0030986816,0.0,0.0,-0.7044059,0
2052184000,0.0054349946,-0.0017966973,-0.0030102283,0.0,0.0,-0.7086089,0
2052208000,0.005905426,0.001189189,-0.0027885735,0.0,0.0,-0.7117808,0
2052224000,0.006572482,-0.00017177872,-0.0030814707,0.0,0.0,-0.7149908,0
2052248000,0.005255163,-0.00038018357,-0.0032692254,0.0,0.0,-0.71649706,0
2052268000,0.0043467805,0.00020910148,-0.0025255084,0.0,0.0,-0.72091645,0
2052288000,0.0054643825,0.002714607,-0.0019439906,0.0,0.0,-0.719622,0
2052308000,0.0048698355,-0.0005424358,-0.0017817914,0.0,0.0,-0.7233654,0
2052328000,0.0045627635,0.00043331645,-0.0018109977,0.0,0.0,-0.72216964,0
2052344000,0.0007219622,0.00038340315,-0.0018743128,0.0,0.0,-0.72373265,0
2052368000,0.0008752877,0.0019144388,-0.0016032159,0.0,0.0,-0.7218088,0
2052388000,0.0029072287,0.0044183517,-0.0014419556,0.0,0.0,-0.72171617,0
2052408000,0.0024103108,0.0025669662,-0.0012145638,0.0,0.0,-0.719398,0
2052428000,-0.000116129406,0.000728108,-0.001092419,0.0,0.0,-0.7178478,0
2052448000,0.00037985295,0.0017121378,-0.0008247644,0.0,0.0,-0.71591604,0
2052468000,0.0023723994,-0.0003976673,-0.00023438036,0.0,0.0,-0.71437323,0
2052488000,-0.001687889,-0.00296285,0.00032272935,0.0,0.0,-0.71244085,0
2052504000,-0.0007425444,0.0005342774,0.0014313161,0.0,0.0,-0.7115623,0
2052528000,0.0007644119,0.0039786473,0.001968503,0.0,0.0,-0.7096242,0
2052548000,0.003715937,0.0019735564,0.0019602627,0.0,0.0,-0.70911145,0
2052564000,0.0014578504,-3.420841e-05,0.0021643937,0.0,0.0,-0.7079957,0
2052588000,-0.00025127688,0.002588614,0.0026532859,0.0,0.0,-0.70768154,0
2052608000,-0.00017379504,0.003585863,0.0032539964,0.0,0.0,-0.7069346,0
2052624000,0.0031338688,0.0022216262,0.0034005493,0.0,0.0,-0.70715433,0
2052648000,0.0021431372,-0.00049833395,0.0038938224,0.0,0.0,-0.70590764,0
2052668000,-0.00046284683,-0.0036469707,0.0040231645,0.0,0.0,-0.7061131,0
2052684000,0.002878082,-0.0041159485,0.0040721893,0.0,0.0,-0.70559084,0
2052708000,0.0025375523,-0.0024002427,0.004154071,0.0,0.0,-0.70613694,0
2052728000,0.003548903,-0.00329612,0.004113704,0.0,0.0,-0.70546436,0
2052744000,0.0032297005,-0.0021967953,0.0038392693,0.0,0.0,-0.7058982,0
2052768000,-0.00080571184,-0.0024670921,0.0036946982,0.0,0.0,-0.70498496,0
2052784000,-0.0037979572,-0.0031557996,0.0032456517,0.0,0.0,-0.705378,0
2052808000,-0.003502111,0.0017318185,0.0034780502,0.0,0.0,-0.7045877,0
2052828000,-0.003368224,0.0010153688,0.0028051585,0.0,0.0,-0.70517427,0
2052844000,-0.0035638302,-0.0009970507,0.0026896894,0.0,0.0,-0.7046782,0
2052864000,-0.0016433666,-0.0009737313,0.00226672,0.0,0.0,-0.70529467,0
2052888000,-0.0036730934,-0.0021960782,0.001976639,0.0,0.0,-0.70445645,0
2052908000,-0.0030566542,-0.0015917197,0.0014608353,0.0,0.0,-0.7053623,0
2052928000,-0.004203555,0.0016633468,0.0015969574,0.0,0.0,-0.70512015,0
2052944000,-0.0034813979,0.0031631822,0.0011606365,0.0,0.0,-0.7055439,0
2052968000,0.0027316185,0.0061378414,0.00061385334,0.0,0.0,-0.70466906,0
2052988000,0.0030506449,0.0043307357,0.00058203936,0.0,0.0,-0.70499927,0
2053004000,0.0010878732,0.004199584,0.00015646219,0.0,0.0,-0.7044144,0
2053028000,-0.00047170604,0.00624967,0.0002642125,0.0,0.0,-0.70463806,0
2053048000,-0.0006054477,0.0042531863,0.00013925135,0.0,0.0,-0.70457655,0
2053068000,0.0044123386,0.0025690943,2.3156404e-05,0.0,0.0,-0.7053304,0
2053088000,0.0060335733,0.0044621676,-0.00043559074,0.0,0.0,-0.70506674,0
2053104000,0.0016572312,0.0072699916,-0.00064097345,0.0,0.0,-0.70587933,0
2053128000,0.0024019545,0.010953362,-0.0013335794,0.0,0.0,-0.7050622,0
2053144000,0.0037485915,0.008253164,-0.0017696917,0.0,0.0,-0.70487887,0
2053168000,0.0037156206,0.009144358,-0.0021549016,0.0,0.0,-0.70405585,0
2053188000,0.0008627372,0.01345853,-0.0018669069,0.0,0.0,-0.7043924,0
2053208000,0.002304686,0.01273561,-0.0017362088,0.0,0.0,-0.70423144,0
2053224000,0.0049693706,0.007179089,-0.0010848045,0.0,0.0,-0.70454806,0
2053248000,0.0010679071,0.003068658,-0.00024940073,0.0,0.0,-0.7042062,0
2053268000,-0.0024224855,0.003348805,-0.00030708313,0.0,0.0,-0.70452285,0
2053288000,-0.005776372,-0.00015459768,0.00016491115,0.0,0.0,-0.7042567,0
2053308000,-0.0034807017,0.00078422576,0.00011703372,0.0,0.0,-0.7044048,0
2053328000,-0.003560199,0.0013050251,0.00024230778,0.0,0.0,-0.7041358,0
2053348000,0.00057435315,0.0040062596,-0.00025378168,0.0,0.0,-0.70475936,0
2053368000,0.0025743833,0.0029579417,-0.00024032593,0.0,0.0,-0.7048103,0
2053388000,0.00017802883,0.003516631,-0.00025211275,0.0,0.0,-0.70498675,0
2053408000,0.0015136814,0.002300814,-1.1473894e-05,0.0,0.0,-0.704516,0
2053428000,0.0043008523,0.0008125466,-0.00013059378,0.0,0.0,-0.7050745,0
2053448000,0.0035768147,-0.0012637842,-0.00048837066,0.0,0.0,-0.7046804,0
2053468000,0.0034427769,-0.0030381822,-0.00028517842,0.0,0.0,-0.7051102,0
2053488000,0.0022028168,-0.0028765218,-0.0005622208,0.0,0.0,-0.7049216,0
2053504000,0.002477531,-0.0016090099,-0.0005851686,0.0,0.0,-0.705763,0
2053524000,0.0026206346,-0.0003732238,-0.0013685226,0.0,0.0,-0.70525485,0
2053548000,0.0018584027,0.00066857506,-0.0014073253,0.0,0.0,-0.7055997,0
2053564000,-0.00095285755,0.0003600762,-0.0014233887,0.0,0.0,-0.7054465,0
2053588000,-0.0033041502,-0.001274894,-0.00083884597,0.0,0.0,-0.7055572,0
2053604000,-0.003931769,-0.00017800624,-0.00051496923,0.0,0.0,-0.7051775,0
2053628000,-0.0027244724,0.0030189757,5.2675605e-05,0.0,0.0,-0.70536745,0
2053644000,-0.002416919,0.0035589617,-2.3469329e-05,0.0,0.0,-0.70543045,0
2053664000,-0.002095269,0.0011343446,-5.6639314e-05,0.0,0.0,-0.70591754,0
2053688000,-0.0028848888,-0.00073959515,0.00018504262,0.0,0.0,-0.7052528,0
2053708000,-0.003761883,-0.0010342614,0.0003645569,0.0,0.0,-0.70543015,0
2053728000,-0.00025182916,-0.0011168746,0.0007722974,0.0,0.0,-0.70484346,0
2053748000,0.00023409142,-0.0017390343,0.00032930076,0.0,0.0,-0.7051535,0
2053764000,-0.00065317936,0.0023200344,0.00080129504,0.0,0.0,-0.7046668,0
2053784000,-0.0002246676,0.0013895174,0.0006148964,0.0,0.0,-0.7058848,0
2053808000,-0.003862361,0.0005019805,0.00045447052,0.0,0.0,-0.70563495,0
2053828000,-0.002474072,-0.00025329698,0.00032179058,0.0,0.0,-0.7059074,0
2053848000,-0.0048398776,-0.00013460079,0.00038906932,0.0,0.0,-0.7055183,0
2053864000,-0.004236387,-0.0028633685,0.00045770407,0.0,0.0,-0.7060548,0
2053888000,-0.0052440907,-0.0028701941,0.0007921159,0.0,0.0,-0.7050656,0
2053908000,-0.003767516,-0.0015892652,0.00068353117,0.0,0.0,-0.70527273,0
2053928000,-0.0023618336,-0.0013692281,0.0006521344,0.0,0.0,-0.70490277,0
2053944000,-0.004588189,-0.0018308321,0.0007417351,0.0,0.0,-0.7058652,0
2053968000,-0.003857159,-0.004462215,0.0009111315,0.0,0.0,-0.70471853,0
2053988000,-0.0038418653,-0.0028172713,0.0012984276,0.0,0.0,-0.7048465,0
2054008000,-0.006035116,-0.0017280987,0.0013214797,0.0,0.0,-0.7045471,0
2054028000,-0.001141788,-0.00054362376,0.00089006126,0.0,0.0,-0.70486957,0
2054048000,0.001310172,-0.0009741757,0.0008022338,0.0,0.0,-0.70477724,0
2054068000,9.190291e-05,-0.0013827132,0.00049087405,0.0,0.0,-0.70499307,0
2054088000,-0.002482533,0.0011749682,-0.0001091063,0.0,0.0,-0.704977,0
2054108000,-0.0011193268,0.0058187842,-0.0005686879,0.0,0.0,-0.704934,0
2054128000,0.0014646193,0.009179887,-0.00074131787,0.0,0.0,-0.7043898,0
2054148000,0.0001291968,0.008261496,-0.0013427585,0.0,0.0,-0.7047894,0
2054168000,-0.00065765623,0.003610876,-0.0013248175,0.0,0.0,-0.7049615,0
2054188000,0.0009880094,0.004206027,-0.0016916692,0.0,0.0,-0.7054341,0
2054208000,0.00049875583,0.005414096,-0.001647234,0.0,0.0,-0.7054801,0
2054228000,-0.00019973144,0.0039040684,-0.0018468797,0.0,0.0,-0.70540154,0
2054248000,5.089119e-05,-0.00055728626,-0.0021652281,0.0,0.0,-0.7051661,0
2054268000,-0.0014640214,0.0003508553,-0.0021309108,0.0,0.0,-0.70533484,0
2054288000,-0.0015878435,-0.0020165718,-0.0016711205,0.0,0.0,-0.70483744,0
2054308000,-0.0024525262,-0.0037469557,-0.0018193424,0.0,0.0,-0.7048902,0
2054328000,-0.0035117017,-0.004179357,-0.0021758676,0.0,0.0,-0.704604,0
2054344000,-0.0045040604,-0.0032234676,-0.001851052,0.0,0.0,-0.70602226,0
2054368000,-0.0004669614,-0.0018796504,-0.0019046664,0.0,0.0,-0.7050739,0
2054388000,0.00042144489,-0.0006469226,-0.0021775365,0.0,0.0,-0.7052293,0
2054404000,0.0043988884,0.0021341362,-0.0024615675,0.0,0.0,-0.70505196,0
2054428000,0.0037166183,0.0019864028,-0.0022015274,0.0,0.0,-0.7050542,0
2054448000,0.0039873742,-0.000564103,-0.0024365336,0.0,0.0,-0.7049226,0
2054468000,0.0039627836,0.0033634107,-0.0024730414,0.0,0.0,-0.7052293,0
2054484000,0.0024158694,0.004200996,-0.002473563,0.0,0.0,-0.7049538,0
2054508000,0.0023114244,0.0028593184,-0.002750501,0.0,0.0,-0.7051817,0
2054528000,0.0021887808,0.0019452223,-0.0029650629,0.0,0.0,-0.7049069,0
2054548000,0.00016712816,0.0005843353,-0.0025766194,0.0,0.0,-0.7046781,0
2054568000,0.0022042072,0.0019030389,-0.001698032,0.0,0.0,-0.70468014,0
2054584000,0.0008997689,0.0016986113,-0.0017905533,0.0,0.0,-0.7057155,0
2054608000,0.0007953453,-0.0010643532,-0.0019097775,0.0,0.0,-0.7043043,0
2054628000,-1.0444783e-06,-0.0001618641,-0.0016886443,0.0,0.0,-0.7042976,0
2054648000,-0.0036432347,-0.00014806166,-0.0013795793,0.0,0.0,-0.70407826,0
2054668000,-0.0034191604,0.002318481,-0.0014612526,0.0,0.0,-0.70435756,0
2054688000,-0.004801644,0.004943772,-0.0014282912,0.0,0.0,-0.704464,0
2054704000,-0.0046323612,0.002802841,-0.00095942616,0.0,0.0,-0.7061588,0
2054728000,-0.003660982,-0.0011575071,-0.0014621913,0.0,0.0,-0.70476377,0
2054748000,-0.0018143123,0.00030914648,-0.0015965402,0.0,0.0,-0.704523,0
2054768000,-0.0016759918,0.0026856698,-0.0012091398,0.0,0.0,-0.7041887,0
2054788000,-8.7973196e-05,0.0056024664,-0.0011159927,0.0,0.0,-0.7043845,0
2054804000,-0.0026354408,0.0029544886,-0.001097843,0.0,0.0,-0.7046045,0
2054828000,-0.0024200808,0.0015761734,-0.0004605204,0.0,0.0,-0.7048991,0
2054848000,-0.0016166475,0.00080038374,-0.00016094744,0.0,0.0,-0.70490694,0
2054864000,-0.0030148793,0.0039420035,-0.00017377734,0.0,0.0,-0.7067834,0
2054888000,0.0038163774,0.0042906194,0.0006226152,0.0,0.0,-0.7049025,0
2054908000,0.005211139,0.0011170297,0.0009678751,0.0,0.0,-0.7053255,0
2054928000,0.0077445833,-0.0014134552,0.001496613,0.0,0.0,-0.70508426,0
2054944000,0.0063289907,0.0019766758,0.0013807267,0.0,0.0,-0.7065313,0
2054968000,0.006260856,0.0036191745,0.0019400269,0.0,0.0,-0.70443386,0
2054988000,0.0054382067,0.00088962214,0.0019058138,0.0,0.0,-0.7043433,0
2055008000,0.0015150988,0.00061962707,0.0020626932,0.0,0.0,-0.70424575,0
2055028000,-0.0024397126,0.007198794,0.0024725199,0.0,0.0,-0.7046325,0
2055048000,-0.0036628637,0.008376321,0.0020783395,0.0,0.0,-0.7041959,0
2055068000,-0.0048082457,0.0070136758,0.0018728524,0.0,0.0,-0.7041962,0
2055088000,-0.002131748,0.00446169,0.0022263527,0.0,0.0,-0.7038817,0
2055108000,-0.0011373023,0.0025575403,0.0016822815,0.0,0.0,-0.70362663,0
2055128000,-0.0020448193,0.0037639504,0.0013370216,0.0,0.0,-0.70363873,0
2055148000,-0.0015191594,0.004686633,0.00018639863,0.0,0.0,-0.7040233,0
2055168000,4.5931898e-05,0.0039813956,-0.00024585426,0.0,0.0,-0.70426035,0
2055184000,0.001092311,0.0017593093,-0.00042276084,0.0,0.0,-0.7059661,0
2055208000,0.0032448159,0.001154705,-0.0011170357,0.0,0.0,-0.70483667,0
2055228000,0.0024316306,0.0024943696,-0.001059562,0.0,0.0,-0.70492834,0
2055244000,0.0028514392,0.0035121674,-0.0008729547,0.0,0.0,-0.7046585,0
2055264000,0.0005191928,0.0019407868,-0.0010219067,0.0,0.0,-0.70607144,0
2055288000,-0.002841481,0.004701278,-0.0015989393,0.0,0.0,-0.70514375,0
2055304000,-0.002021127,0.005697565,-0.0017927438,0.0,0.0,-0.70646185,0
2055328000,-0.0013024844,0.004514996,-0.0023404658,0.0,0.0,-0.70595455,0
2055348000,-0.0014809715,0.0013917005,-0.0018541813,0.0,0.0,-0.70539397,0
2055368000,-0.0031680758,0.0029250653,-0.0025372952,0.0,0.0,-0.70485634,0
2055384000,-0.0029470134,0.0012594359,-0.0025743246,0.0,0.0,-0.7057542,0
2055404000,0.0011877059,-0.0011416636,-0.0026459843,0.0,0.0,-0.7047474,0
2055424000,0.0012281658,-0.0017098859,-0.002472207,0.0,0.0,-0.7059566,0
2055448000,0.0012701359,-0.0047291312,-0.0022271872,0.0,0.0,-0.70508766,0
2055468000,0.0035408717,-0.0029707346,-0.0027496666,0.0,0.0,-0.70528746,0
2055488000,0.002723509,-0.00212958,-0.0029738247,0.0,0.0,-0.7055853,0
2055508000,0.0043909075,-0.0070035476,-0.0026782155,0.0,0.0,-0.7052397,0
2055528000,0.00057792384,-0.0035128547,-0.0026619434,0.0,0.0,-0.7051099,0
2055548000,-0.00026587863,-0.0030301046,-0.0024870187,0.0,0.0,-0.7050017,0
2055564000,0.0011192695,-0.002595285,-0.0028839111,0.0,0.0,-0.70474774,0
2055588000,0.0042058965,0.0024355352,-0.0024537444,0.0,0.0,-0.704873,0
2055608000,0.005499379,-0.0011307988,-0.002548352,0.0,0.0,-0.7050775,0
2055624000,0.0057578688,-0.0018402357,-0.0029033124,0.0,0.0,-0.70641166,0
2055648000,0.0062667886,-0.0011280291,-0.0026710182,0.0,0.0,-0.7056701,0
2055668000,0.003048365,0.00014651753,-0.0022404343,0.0,0.0,-0.705431,0
2055688000,0.0026793345,-0.0014685467,-0.0023766607,0.0,0.0,-0.7051018,0
2055704000,0.0007089833,-0.0037448723,-0.002110988,0.0,0.0,-0.70566195,0
2055728000,0.003082585,-0.0033566947,-0.0015140325,0.0,0.0,-0.7051831,0
2055748000,0.0017836185,-0.0019472428,-0.00088839233,0.0,0.0,-0.7054126,0
2055768000,0.0017612779,-0.0015697912,-0.0006940663,0.0,0.0,-0.70557046,0
2055788000,0.0009106069,-0.0016753427,-0.00042641163,0.0,0.0,-0.70600754,0
2055808000,0.0004470296,-0.0011480749,-1.7210841e-05,0.0,0.0,-0.7058497,0
2055824000,0.0023450423,0.00043728342,0.00034713745,0.0,0.0,-0.7066203,0
2055848000,0.0033159298,0.0006896551,0.0013129264,0.0,0.0,-0.70659983,0
2055868000,0.004850216,0.0035331035,0.0017348528,0.0,0.0,-0.7067703,0
2055884000,0.00043327291,0.0035443688,0.001845628,0.0,0.0,-0.7067261,0
2055908000,-0.0005045334,0.003930607,0.002364561,0.0,0.0,-0.70625716,0
2055928000,8.082524e-05,0.0040394003,0.0032746494,0.0,0.0,-0.7060321,0
2055948000,-0.0014522274,0.0054959105,0.0032002777,0.0,0.0,-0.705862,0
2055968000,-0.0019749936,0.0054746345,0.0028519928,0.0,0.0,-0.7054919,0
2055988000,0.00024184628,0.0021940377,0.002784714,0.0,0.0,-0.70561635,0
2056008000,0.0004075177,0.0018045357,0.0025847554,0.0,0.0,-0.70575964,0
2056024000,-0.0023014685,0.0053287023,0.002251491,0.0,0.0,-0.705955,0
2056048000,0.00011123187,0.003932072,0.0016319007,0.0,0.0,-0.7053478,0
2056068000,0.0009973646,0.005434256,0.00089621544,0.0,0.0,-0.70518404,0
2056088000,-0.0031303032,0.006031747,0.0009153038,0.0,0.0,-0.7049679,0
2056104000,-0.0017204032,0.0061412593,0.0008825511,0.0,0.0,-0.70528203,0
2056128000,-0.0036361688,0.009629552,0.00040210783,0.0,0.0,-0.7049452,0
2056148000,-0.00016416717,0.007934579,-0.00017888844,0.0,0.0,-0.7049461,0
2056168000,-0.0013193964,0.0029174741,-0.00023375452,0.0,0.0,-0.7050361,0
2056188000,-0.0036251715,0.0035388274,-0.0005168468,0.0,0.0,-0.70548826,0
2056208000,-0.004227778,0.0047194986,-0.00058183074,0.0,0.0,-0.70557815,0
2056228000,-0.003682158,0.005754917,-0.00048075616,0.0,0.0,-0.7058992,0
2056244000,-0.006776671,0.0050101783,-0.0008876622,0.0,0.0,-0.70621884,0
2056268000,-0.0034069496,0.0032276064,-0.00092948973,0.0,0.0,-0.70614946,0
2056288000,-0.0022460332,0.0036649806,-0.0009868592,0.0,0.0,-0.70607233,0
2056308000,-0.0054305363,0.0045038806,-0.00083999336,0.0,0.0,-0.7058941,0
2056324000,-0.0073250555,0.0023143273,-0.0009136349,0.0,0.0,-0.7054091,0
2056348000,-0.0048500663,0.005651297,-0.00076155365,0.0,0.0,-0.70537144,0
2056368000,-0.0018591778,0.008098819,-0.0011684597,0.0,0.0,-0.70502865,0
2056388000,0.00016307319,0.00911286,-0.0012984276,0.0,0.0,-0.704749,0
2056408000,0.0034971435,0.007887013,-0.0011086911,0.0,0.0,-0.704836,0
2056424000,0.001518596,0.008002937,-0.0012557656,0.0,0.0,-0.70483255,0
2056448000,0.0021069178,0.006696373,-0.0019121766,0.0,0.0,-0.70493895,0
2056468000,-0.00034426758,0.0033614766,-0.0018726438,0.0,0.0,-0.7047482,0
2056484000,-0.00092705106,0.0068773646,-0.0021001399,0.0,0.0,-0.70485616,0
2056508000,-0.0044420534,0.007340407,-0.0011057705,0.0,0.0,-0.704805,0
2056528000,-0.0038408474,0.009112341,-0.00082330406,0.0,0.0,-0.7045108,0
2056548000,-0.00338026,0.009683296,-0.00068311393,0.0,0.0,-0.70448786,0
2056568000,-0.0028251512,0.008553691,-0.0008171499,0.0,0.0,-0.7040771,0
2056588000,-0.0053355284,0.007996064,-0.0011681467,0.0,0.0,-0.70382065,0
2056608000,-0.0073173596,0.005292332,-0.0014882684,0.0,0.0,-0.70376277,0
2056628000,-0.007765075,0.0068025645,-0.0012167543,0.0,0.0,-0.7035745,0
2056644000,-0.0028924323,0.008939665,-0.0010813624,0.0,0.0,-0.7037018,0
2056664000,-0.0015390655,0.004918402,-0.0010587275,0.0,0.0,-0.70377356,0
2056688000,0.0009800303,-0.00023704208,-0.0010053217,0.0,0.0,-0.70370036,0
2056708000,0.005491425,0.0014796518,-0.0006595403,0.0,0.0,-0.7041849,0
2056728000,0.0037250854,-0.002317803,-0.0004995316,0.0,0.0,-0.70416373,0
2056748000,0.0014534174,0.0036128927,-0.0006825924,0.0,0.0,-0.70433956,0
2056768000,0.0022211093,-0.0007088613,-0.00038322806,0.0,0.0,-0.7044465,0
2056788000,0.003934814,-0.001689313,-0.0002631694,0.0,0.0,-0.7051038,0
2056808000,0.002706542,0.0002262909,-0.00059966743,0.0,0.0,-0.7051537,0
2056824000,-0.0008846782,-0.00088998117,-0.0008125603,0.0,0.0,-0.7055292,0
2056848000,0.006363865,0.0009375643,-0.0009151995,0.0,0.0,-0.7054844,0
2056868000,0.0023427545,-0.0033444185,-0.0010132492,0.0,0.0,-0.70572734,0
2056888000,0.0036861903,-0.0050833467,-0.0008623153,0.0,0.0,-0.7053705,0
2056908000,0.0008704569,-0.0015752409,-0.00047887862,0.0,0.0,-0.7056296,0
2056924000,-0.0017264327,-7.822737e-05,-0.00085772574,0.0,0.0,-0.7055917,0
2056948000,-0.0015543792,0.00032554194,-0.0005336404,0.0,0.0,-0.70561016,0
2056968000,0.0033521103,0.0008480102,-0.00039678812,0.0,0.0,-0.7056861,0
2056988000,0.0009881714,-5.050935e-05,-0.00047564507,0.0,0.0,-0.7054597,0
2057008000,-0.00081973476,0.0009386353,-0.00061677396,0.0,0.0,-0.70516735,0
2057024000,-0.00092065847,0.0028752629,-0.0007943064,0.0,0.0,-0.7048606,0
2057048000,-0.0006731488,-0.002331769,-0.00051538646,0.0,0.0,-0.7046798,0
2057068000,-0.002892192,0.00048417225,-0.00037144125,0.0,0.0,-0.7048096,0
2057088000,-0.004485512,-0.002623599,-5.0902367e-05,0.0,0.0,-0.7048066,0
2057104000,-0.004717487,-0.0038379077,-0.00019922853,0.0,0.0,-0.7048892,0
2057128000,-0.0061444836,0.0016111273,-0.0053231195,0.0,0.0,-0.7046698,0
2057148000,-0.063724436,-0.07276562,-0.021012202,0.0,0.0,-0.7043427,0
2057168000,-0.066167876,-0.074935876,-0.020987049,0.0,0.0,-0.7045914,0
2057188000,-0.12126524,-0.1569371,-0.039315674,0.0,0.0,-0.70520097,0
2057208000,-0.11796269,-0.15680219,-0.039128292,0.0,0.0,-0.7050951,0
2057228000,-0.17533424,-0.23157218,-0.059853822,0.0,0.0,-0.7059552,0
2057248000,-0.16622768,-0.2221011,-0.060030453,0.0,0.0,-0.7061343,0
2057268000,-0.22234374,-0.30584046,-0.08353029,0.0,0.0,-0.70823956,0
2057288000,-0.2108516,-0.28703117,-0.082979776,0.0,0.0,-0.7079445,0
2057308000,-0.26108587,-0.36418876,-0.10882392,0.0,0.0,-0.7106037,0
2057328000,-0.24220522,-0.34119022,-0.10720137,0.0,0.0,-0.710008,0
2057348000,-0.29524824,-0.41602695,-0.13466066,0.0,0.0,-0.7125832,0
2057364000,-0.27497187,-0.39046228,-0.13259096,0.0,0.0,-0.7119352,0
2057388000,-0.3195311,-0.4503664,-0.16138873,0.0,0.0,-0.7143853,0
2057408000,-0.29030785,-0.40988493,-0.15802947,0.0,0.0,-0.713433,0
2057428000,-0.30111992,-0.47254607,-0.18701923,0.0,0.0,-0.7161633,0
2057448000,-0.26891077,-0.4281262,-0.18196324,0.0,0.0,-0.7147308,0
2057464000,-0.25066116,-0.45565853,-0.19827203,0.0,0.0,-0.71557057,0
2057488000,-0.2139698,-0.43244064,-0.20417435,0.0,0.0,-0.7147536,0
2057508000,-0.1932289,-0.48642087,-0.23312701,0.0,0.0,-0.7169169,0
2057528000,-0.16246091,-0.43308088,-0.22508098,0.0,0.0,-0.7149726,0
2057544000,-0.14512424,-0.4522714,-0.2404258,0.0,0.0,-0.71628994,0
2057568000,-0.1103703,-0.42881995,-0.24380085,0.0,0.0,-0.7159414,0
2057588000,-0.08878106,-0.48266986,-0.27273747,0.0,0.0,-0.719212,0
2057608000,-0.06203361,-0.42230466,-0.26171607,0.0,0.0,-0.7172841,0
2057628000,-0.045494754,-0.47752237,-0.2904793,0.0,0.0,-0.72076446,0
2057648000,-0.019252907,-0.41556245,-0.27645743,0.0,0.0,-0.71822023,0
2057668000,-0.009687223,-0.47048053,-0.30355543,0.0,0.0,-0.7220272,0
2057688000,0.0064297356,-0.41168964,-0.28851575,0.0,0.0,-0.7201164,0
2057708000,0.007447362,-0.47078067,-0.31612206,0.0,0.0,-0.7245535,0
2057728000,0.01872151,-0.40817383,-0.29954392,0.0,0.0,-0.72205937,0
2057748000,0.021769062,-0.4678352,-0.32681203,0.0,0.0,-0.7263066,0
2057768000,0.036138296,-0.4045897,-0.30826136,0.0,0.0,-0.7232272,0
2057788000,0.03588749,-0.46751803,-0.33515257,0.0,0.0,-0.72829795,0
2057804000,0.048887335,-0.40905836,-0.31883833,0.0,0.0,-0.7249726,0
2057828000,0.05381606,-0.46226737,-0.3414455,0.0,0.0,-0.72987163,0
2057848000,0.06390204,-0.39295402,-0.32037988,0.0,0.0,-0.7264265,0
2057868000,0.067080855,-0.45498213,-0.3469395,0.0,0.0,-0.73154354,0
2057888000,0.0722068,-0.38246903,-0.32521182,0.0,0.0,-0.72729653,0
2057904000,0.069856904,-0.3928421,-0.33661717,0.0,0.0,-0.7296613,0
2057928000,0.06602952,-0.33667862,-0.32922983,0.0,0.0,-0.7270689,0
2057944000,0.05947222,-0.33590466,-0.34024528,0.0,0.0,-0.728165,0
2057968000,0.058223993,-0.28164348,-0.33287326,0.0,0.0,-0.72599596,0
2057988000,0.042851277,-0.2965736,-0.35917908,0.0,0.0,-0.7290688,0
2058004000,0.04319112,-0.23603131,-0.34212977,0.0,0.0,-0.7258271,0
2058028000,0.02890113,-0.24958248,-0.36577937,0.0,0.0,-0.7291887,0
2058048000,0.030734047,-0.18390906,-0.34418428,0.0,0.0,-0.72562945,0
2058068000,0.022209346,-0.21021037,-0.36828122,0.0,0.0,-0.72976846,0
2058088000,0.021346405,-0.15623148,-0.34575596,0.0,0.0,-0.72718793,0
2058108000,0.020077534,-0.19054186,-0.34657088,0.0,0.0,-0.73152167,0
2058128000,0.021082014,-0.13167694,-0.3246275,0.0,0.0,-0.72857755,0
2058148000,0.021045513,-0.1665705,-0.3234232,0.0,0.0,-0.73264766,0
2058168000,0.027171113,-0.1102781,-0.30115485,0.0,0.0,-0.72908354,0
2058188000,0.029678605,-0.1455907,-0.29907063,0.0,0.0,-0.7332492,0
2058208000,0.03350672,-0.09333302,-0.2775451,0.0,0.0,-0.7303854,0
2058228000,0.036438793,-0.12599622,-0.27370656,0.0,0.0,-0.73416096,0
2058248000,0.035496764,-0.07190915,-0.2529124,0.0,0.0,-0.7308023,0
2058268000,0.039787427,-0.10908768,-0.24836528,0.0,0.0,-0.7343116,0
2058288000,0.04160039,-0.05880731,-0.22810349,0.0,0.0,-0.73125833,0
2058304000,0.041742742,-0.07509792,-0.22076042,0.0,0.0,-0.7333122,0
2058328000,0.04486209,-0.04684801,-0.20328036,0.0,0.0,-0.73163885,0
2058348000,0.051956378,-0.08845928,-0.1969654,0.0,0.0,-0.73543125,0
2058364000,0.050161898,-0.03873859,-0.18270598,0.0,0.0,-0.7320928,0
2058388000,0.051492326,-0.081554815,-0.17246887,0.0,0.0,-0.7359264,0
2058408000,0.04759202,-0.03236526,-0.15602362,0.0,0.0,-0.7325235,0
2058424000,0.048269242,-0.051550962,-0.14871418,0.0,0.0,-0.7341409,0
2058448000,0.04653281,-0.02322565,-0.13464464,0.0,0.0,-0.73217463,0
2058468000,0.05326303,-0.07877259,-0.1255721,0.0,0.0,-0.7369542,0
2058488000,0.058185793,-0.034676354,-0.11002608,0.0,0.0,-0.73407626,0
2058504000,0.0627287,-0.06149694,-0.10071856,0.0,0.0,-0.73666286,0
2058528000,0.070097834,-0.043658294,-0.085411936,0.0,0.0,-0.73559505,0
2058548000,0.07609141,-0.09850593,-0.07523671,0.0,0.0,-0.74027145,0
2058568000,0.07540023,-0.046848685,-0.06298904,0.0,0.0,-0.73653376,0
2058584000,0.07375024,-0.07109648,-0.055316195,0.0,0.0,-0.738358,0
2058608000,0.06832729,-0.04225416,-0.04346466,0.0,0.0,-0.7360133,0
2058628000,0.07653295,-0.092988126,-0.034808993,0.0,0.0,-0.7402738,0
2058648000,0.07229604,-0.039677784,-0.027234048,0.0,0.0,-0.73598796,0
2058668000,0.07955581,-0.08920272,-0.018436506,0.0,0.0,-0.74065554,0
2058688000,0.07038071,-0.03679295,-0.013160534,0.0,0.0,-0.7364317,0
2058704000,0.067988314,-0.061416876,-0.007024601,0.0,0.0,-0.73853195,0
2058728000,0.06467878,-0.034225356,-0.0012046918,0.0,0.0,-0.7368859,0
2058744000,0.064600796,-0.05690207,0.003952585,0.0,0.0,-0.7385099,0
2058768000,0.055391002,-0.02211065,0.0074196383,0.0,0.0,-0.7359375,0
2058784000,0.041667715,-0.024742164,0.011321127,0.0,0.0,-0.73628783,0
2058808000,0.024280593,0.022247376,0.01293391,0.0,0.0,-0.73304355,0
2058828000,0.0037058964,0.008076384,0.018853873,0.0,0.0,-0.7343066,0
2058848000,-0.003996739,0.062417306,0.016924918,0.0,0.0,-0.73033464,0
2058868000,-0.02157111,0.046962425,0.024388283,0.0,0.0,-0.7320838,0
2058888000,-0.025763929,0.093443155,0.02341457,0.0,0.0,-0.72950494,0
2058908000,-0.04160108,0.07227725,0.03202983,0.0,0.0,-0.7314345,0
2058928000,-0.039395787,0.12182277,0.030783996,0.0,0.0,-0.72856104,0
2058948000,-0.055632234,0.09605974,0.040507704,0.0,0.0,-0.73093736,0
2058968000,-0.056725502,0.14173232,0.038168676,0.0,0.0,-0.72813797,0
2058984000,-0.071572,0.1303824,0.044398166,0.0,0.0,-0.72918403,0
2059008000,-0.07330927,0.15907387,0.046835598,0.0,0.0,-0.7277832,0
2059028000,-0.09018479,0.13514285,0.058628134,0.0,0.0,-0.7298488,0
2059048000,-0.08700872,0.17651013,0.05575258,0.0,0.0,-0.72762126,0
2059068000,-0.1040087,0.14804766,0.0680255,0.0,0.0,-0.730109,0
2059088000,-0.09610765,0.19037193,0.06482005,0.0,0.0,-0.72793734,0
2059108000,-0.11505953,0.16177082,0.078613,0.0,0.0,-0.73016316,0
2059128000,-0.10938761,0.20480053,0.07505163,0.0,0.0,-0.7275727,0
2059148000,-0.13007693,0.17101446,0.08943069,0.0,0.0,-0.72923434,0
2059168000,-0.122112796,0.21147291,0.0858057,0.0,0.0,-0.7267376,0
2059188000,-0.14951237,0.17878117,0.088622704,0.0,0.0,-0.7284471,0
2059208000,-0.14630978,0.21734047,0.08487478,0.0,0.0,-0.7258812,0
2059228000,-0.1699811,0.18330857,0.07199087,0.0,0.0,-0.7275772,0
2059248000,-0.16017574,0.22085987,0.06861727,0.0,0.0,-0.7252252,0
2059268000,-0.19227287,0.18239751,0.053572394,0.0,0.0,-0.7270826,0
2059288000,-0.18300967,0.21187302,0.04813638,0.0,0.0,-0.72497165,0
2059308000,-0.1910172,0.18389872,0.03051644,0.0,0.0,-0.72588295,0
2059328000,-0.17926383,0.21754219,0.025567183,0.0,0.0,-0.72379583,0
2059348000,-0.15551823,0.21010238,0.00609505,0.0,0.0,-0.72341657,0
2059368000,-0.13867617,0.2478334,0.0010810373,0.0,0.0,-0.72084254,0
2059388000,-0.11005176,0.2464615,0.0008650357,0.0,0.0,-0.7211307,0
2059408000,-0.09525951,0.2783397,-0.0034023114,0.0,0.0,-0.7195121,0
2059424000,-0.06869045,0.2746155,-0.0047645853,0.0,0.0,-0.7189979,0
2059448000,-0.041064937,0.29861888,-0.00971473,0.0,0.0,-0.7183196,0
2059468000,-0.015111291,0.29328102,-0.013623278,0.0,0.0,-0.7176288,0
2059488000,-0.0051101004,0.32191202,-0.016279902,0.0,0.0,-0.7167108,0
2059508000,0.02688579,0.31507042,-0.019663299,0.0,0.0,-0.7170879,0
2059528000,0.035258424,0.33668262,-0.02092516,0.0,0.0,-0.7165083,0
2059548000,0.061012674,0.33252868,-0.023003872,0.0,0.0,-0.7165167,0
2059568000,0.06459796,0.35501516,-0.023373658,0.0,0.0,-0.7158297,0
2059588000,0.082751,0.34986225,-0.024571218,0.0,0.0,-0.71603733,0
2059608000,0.081543945,0.36654425,-0.024189292,0.0,0.0,-0.71561444,0
2059628000,0.10846714,0.362947,-0.0244938,0.0,0.0,-0.7154478,0
2059648000,0.10663332,0.37872487,-0.02328134,0.0,0.0,-0.71503246,0
2059668000,0.13506763,0.3376909,-0.028907534,0.0,0.0,-0.7157461,0
2059688000,0.11463897,0.35151532,-0.028356565,0.0,0.0,-0.715045,0
2059704000,0.11970308,0.31437564,-0.034076847,0.0,0.0,-0.7153789,0
2059728000,0.08024034,0.28837338,-0.033655487,0.0,0.0,-0.715331,0
2059748000,0.040809322,0.15285386,-0.03506211,0.0,0.0,-0.7186844,0
2059768000,0.027065603,0.16780865,-0.035512056,0.0,0.0,-0.7176992,0
2059788000,0.0007397003,0.0730059,-0.036144614,0.0,0.0,-0.7181322,0
2059808000,-0.011737119,0.09518868,-0.035880588,0.0,0.0,-0.7163478,0
2059828000,-0.022260796,0.014650599,-0.03733971,0.0,0.0,-0.71705455,0
2059848000,-0.027372718,0.046077624,-0.037226792,0.0,0.0,-0.71571517,0
2059868000,-0.038867284,-0.03407998,-0.038357727,0.0,0.0,-0.71614903,0
2059888000,-0.040020708,0.0015581389,-0.037532583,0.0,0.0,-0.7149427,0
2059904000,-0.040826727,-0.040307093,-0.038018994,0.0,0.0,-0.7154606,0
2059928000,-0.043327928,-0.032513652,-0.038366195,0.0,0.0,-0.71461016,0
2059948000,-0.045957047,-0.09658182,-0.03892739,0.0,0.0,-0.71524405,0
2059968000,-0.04636261,-0.054106865,-0.03772864,0.0,0.0,-0.7139414,0
2059988000,-0.04698399,-0.110469915,-0.037623875,0.0,0.0,-0.7151036,0
2060008000,-0.045510836,-0.06428596,-0.0361569,0.0,0.0,-0.71352494,0
2060028000,-0.043935966,-0.12328952,-0.036106717,0.0,0.0,-0.71428645,0
2060044000,-0.043974668,-0.07279117,-0.034425475,0.0,0.0,-0.7127233,0
2060068000,-0.04808104,-0.119512275,-0.037454475,0.0,0.0,-0.7143335,0
2060088000,-0.049040813,-0.06424714,-0.036039654,0.0,0.0,-0.713225,0
