timestamp,timestamp_sample,xyz[0],xyz[1],xyz[2]
2043328000,2043328000,-0.0010773364,-0.00028017093,-0.00023883712
2043332000,2043332000,-0.0035501295,-0.0048465016,-0.00020035906
2043348000,2043348000,0.00083975337,-0.0073868125,-0.00021775201
2043368000,2043368000,-0.0040409886,-0.0005805581,-0.00014018684
2043388000,2043388000,-0.000101342855,-0.005091517,0.00022069136
2043408000,2043408000,-0.00064233225,0.0010868418,0.0003211756
2043428000,2043428000,-0.003998463,-0.0046437727,0.00011835016
2043448000,2043448000,0.0011069218,-0.00033687567,0.00016064086
2043468000,2043468000,7.318263e-05,-0.009302917,0.000112776965
2043488000,2043488000,-0.003194362,-0.0011125433,8.486014e-05
2043508000,2043508000,0.000573086,-0.005726566,-0.000514399
2043528000,2043528000,-0.00311658,-0.0071797413,-0.00052550924
2043548000,2043548000,0.001374966,-0.00035937526,-0.000869936
2043568000,2043568000,-0.005309494,-0.007970274,-0.00026941395
2043588000,2043588000,-0.00034713632,-0.0020141064,-1.1214917e-05
2043608000,2043608000,0.002405603,-0.007715511,1.7605489e-06
2043628000,2043628000,-0.0021051024,-0.0015758134,6.743385e-05
2043644000,2043644000,-0.0025906784,-0.0034730933,-7.902172e-05
2043668000,2043668000,-0.0080949925,-0.0033632496,-8.126377e-05
2043688000,2043688000,0.0068903854,-0.00366164,-0.00023107814
2043708000,2043708000,-0.0015297121,-0.0053849407,-0.00039198488
2043728000,2043728000,0.0028903224,-0.0005643293,-0.0003612879
2043748000,2043748000,-0.00075848924,6.0249586e-06,-0.00050355593
2043768000,2043768000,0.0005745495,-0.0042085988,-0.00051106774
2043788000,2043788000,-0.0010492478,-0.0012650571,-0.00035027644
2043808000,2043808000,0.0038903176,-0.0052924007,-0.00040078553
2043828000,2043828000,0.0006678703,-0.004835146,-0.00057320297
2043848000,2043848000,0.002708744,-0.0037675048,-0.00039749077
2043868000,2043868000,-0.0010526491,-0.0036375253,9.4508134e-05
2043888000,2043888000,-0.0034270165,-0.0058717877,0.00042796708
2043908000,2043908000,-0.0012412006,-0.0054901573,0.0003475586
2043928000,2043928000,0.0019304135,-0.006075712,-0.00015799892
2043948000,2043948000,-0.0043550236,-0.005428654,6.2407795e-05
2043968000,2043968000,-0.0011108539,-0.0024297577,0.0006240427
2043988000,2043988000,0.0021053865,-0.0025052582,0.0004329951
2044008000,2044008000,-0.0028937531,-0.0026252945,0.00027783128
2044028000,2044028000,-0.0047984365,-0.0012777037,0.00050074124
2044048000,2044048000,-0.0017370413,-0.010210283,0.0006381358
2044068000,2044068000,0.0078080976,-0.0016476456,0.0002873607
2044088000,2044088000,-0.004845348,-0.0006114235,0.00031571498
2044108000,2044108000,0.0026355307,-0.005804904,-4.2255582e-05
2044128000,2044128000,-0.0006244407,-0.0075001903,-0.00010599778
2044148000,2044148000,-0.002891777,-0.00605512,6.5397224e-05
2044168000,2044168000,0.0047297226,-0.0058155945,3.231623e-05
2044188000,2044188000,-0.0030904717,-0.0017757873,0.00015063024
2044204000,2044204000,0.001101155,-0.0031467867,0.00029111266
2044228000,2044228000,0.0007459404,-0.0041994033,0.00018428381
2044248000,2044248000,0.006498123,-0.0016429882,-0.0001234856
2044268000,2044268000,-0.0032144212,-0.0050957026,0.00014034862
2044288000,2044288000,-0.002459107,-0.0010765735,2.6473543e-05
2044308000,2044308000,-0.000530031,-0.0037038461,0.00033160349
2044328000,2044328000,-0.0017228327,-0.0048083416,0.00019733547
2044348000,2044348000,-0.004849965,-0.0053587155,0.00014184891
2044368000,2044368000,-0.001092013,-0.006554026,-0.0005412118
2044388000,2044388000,-0.0051688934,-0.0049930774,-0.0005619646
2044408000,2044408000,-0.0047790296,-0.011271458,-1.1735683e-05
2044428000,2044428000,-0.0007292712,-0.010342656,8.210853e-05
2044448000,2044448000,-0.008771601,-0.005817469,0.00046406276
2044468000,2044468000,-0.007956032,-0.0121578835,0.00056425686
2044488000,2044488000,-0.0013857542,-0.008201254,0.0009422605
2044508000,2044508000,-0.0007400318,-0.008557344,0.0013543519
2044528000,2044528000,-0.0043732477,-0.010407437,0.0012769089
2044548000,2044548000,-0.004752575,-0.010482932,0.0007650957
2044564000,2044564000,-0.0038668858,-0.008052439,0.00066721404
2044588000,2044588000,-0.0025985306,-0.009664599,0.00056126347
2044608000,2044608000,-0.0077202097,-0.0056979237,0.0005588021
2044628000,2044628000,-0.0021563247,-0.00976894,0.000568698
2044648000,2044648000,-0.0084036775,-0.0058775544,9.56586e-05
2044668000,2044668000,-0.0053704446,-0.006413545,2.1012875e-06
2044688000,2044688000,0.0020068048,-0.0052329674,-0.00037545443
2044704000,2044704000,-0.0059447503,-0.007887499,0.00023217236
2044728000,2044728000,-0.0062938887,-0.007762463,0.00016727095
2044748000,2044748000,-0.0050306157,-0.007316793,-0.00043965285
2044768000,2044768000,-0.0061603226,-0.009161655,-0.0008850423
2044788000,2044788000,-0.00029224553,-0.007779969,-0.0009996169
2044808000,2044808000,-0.0012174824,-0.01307121,-0.0007545236
2044828000,2044828000,-0.0100868065,-0.008330359,-0.0003636092
2044848000,2044848000,-0.0048348894,-0.0057853553,4.338743e-05
2044868000,2044868000,-0.0049750605,-0.0063411333,-8.62094e-05
2044888000,2044888000,-0.004724848,-0.00910702,1.47719e-05
2044908000,2044908000,-6.45034e-06,-0.005256259,-0.00035892316
2044928000,2044928000,-0.008098497,-0.0044448953,-0.0003656812
2044944000,2044944000,-0.005379578,-0.012667991,-0.00085972867
2044968000,2044968000,-0.0051780907,-0.004380515,-0.0013113843
2044988000,2044988000,-0.004440969,-0.009356166,-0.0012837795
2045008000,2045008000,-0.00030544994,-0.007189047,-0.001005784
2045028000,2045028000,-0.009749437,-0.010866296,-0.000805441
2045048000,2045048000,-0.0051826974,-0.003419628,-0.00016742198
2045068000,2045068000,-0.0021734645,-0.006261829,-0.00017191556
2045088000,2045088000,5.8663776e-05,-0.0020770135,-1.4011683e-05
2045104000,2045104000,-0.005771563,-0.009564716,0.00029196154
2045128000,2045128000,0.0004407568,-0.010106065,0.0007962455
2045148000,2045148000,-0.007981949,-0.012739497,0.0002594692
2045168000,2045168000,5.028001e-05,-0.008218572,0.00012970141
2045188000,2045188000,-0.0046771793,-0.009646789,4.3490087e-05
2045208000,2045208000,-0.005940784,-0.0084418785,-0.0006232079
2045228000,2045228000,-0.002460936,-0.004442322,-0.0004646635
2045248000,2045248000,-0.0029826232,-0.0071312594,-0.00046065883
2045268000,2045268000,-0.0043109227,-0.013329691,-0.00025504414
2045288000,2045288000,-0.0022996792,-0.011355371,7.970944e-05
2045308000,2045308000,-0.00013281615,-0.01111612,-0.00019553938
2045328000,2045328000,-0.005125675,-0.01063793,-2.9861e-05
2045348000,2045348000,-0.008643192,-0.008651989,1.5680169e-05
2045368000,2045368000,-0.0013768831,-0.008264857,-0.0003462545
2045388000,2045388000,-0.003418658,-0.0074930424,-0.0009950132
2045408000,2045408000,-0.0027421864,-0.014937622,-0.0010321492
2045428000,2045428000,-0.0077272435,-0.010896887,-0.000817699
2045444000,2045444000,-0.0076870755,-0.009894472,-0.00088072347
2045468000,2045468000,-0.005401387,-0.012776996,-0.0005085998
2045488000,2045488000,-0.0069295308,-0.0116340695,-0.00026072745
2045508000,2045508000,-0.0044153174,-0.011476616,-0.00036595316
2045528000,2045528000,-0.005591314,-0.013632768,-2.6939257e-05
2045548000,2045548000,-0.00565881,-0.013849274,-0.00038497985
2045568000,2045568000,-0.0072614867,-0.0130638825,-0.0002739669
2045588000,2045588000,-0.0049531157,-0.014151927,0.0003420086
2045608000,2045608000,-0.00077651767,-0.017319523,0.00059575884
2045628000,2045628000,-0.008475843,-0.016776573,-0.000112208465
2045648000,2045648000,-0.007694649,-0.011724125,-0.00054134143
2045668000,2045668000,-0.010531373,-0.01794402,-0.00022155054
2045688000,2045688000,-0.0082836505,-0.01824595,0.00015187476
2045708000,2045708000,-0.0040699462,-0.014210492,0.00031637077
2045728000,2045728000,-0.0008623258,-0.018684551,0.00014181391
2045748000,2045748000,-0.0058053453,-0.015419391,6.1732695e-05
2045768000,2045768000,-0.0051368987,-0.01872692,0.00018655515
2045788000,2045788000,-0.004789449,-0.016583828,-0.00019441091
2045808000,2045808000,-0.0037717845,-0.013959969,-0.00011251372
2045828000,2045828000,-0.0065146713,-0.020375626,-2.6699643e-05
2045848000,2045848000,-0.006455852,-0.014979319,1.3407938e-05
2045868000,2045868000,-0.005193312,-0.018828198,0.00056425494
2045888000,2045888000,-0.0031348756,-0.011051239,0.0005499744
2045908000,2045908000,-0.006327031,-0.018138258,0.000694083
2045928000,2045928000,-0.0012468579,-0.01959678,0.0005712779
2045948000,2045948000,-0.006875183,-0.0179622,0.0006754161
2045964000,2045964000,-0.008436535,-0.02109416,0.00035916292
2045988000,2045988000,-0.0046413057,-0.019318527,0.00025266054
2046008000,2046008000,-0.00555355,-0.02035159,0.0002272518
2046028000,2046028000,-0.003330204,-0.019430127,-0.00011008179
2046048000,2046048000,-0.011677084,-0.017794093,-5.4348733e-05
2046068000,2046068000,-0.004531153,-0.020770978,0.00011671889
2046088000,2046088000,-0.008576998,-0.021280242,2.1881944e-05
2046108000,2046108000,-0.006501731,-0.02025076,0.00036428467
2046128000,2046128000,-0.007246897,-0.023147983,0.00014032464
2046148000,2046148000,-0.005375148,-0.022500893,0.00011996661
2046168000,2046168000,-0.008000573,-0.019655954,0.00021590106
2046184000,2046184000,-0.006050861,-0.023029242,-0.00034152708
2046208000,2046208000,-0.009376042,-0.017675083,8.311284e-05
2046228000,2046228000,-0.013844758,-0.02249143,-0.0002057695
2046248000,2046248000,-0.0075444914,-0.02346851,-0.00023836449
2046264000,2046264000,-0.0043788534,-0.024536284,0.0002255149
2046288000,2046288000,-0.009506153,-0.026298765,-0.0003565193
2046308000,2046308000,-0.009406875,-0.025319288,-0.00020343567
2046328000,2046328000,-0.010602032,-0.027771207,-0.0002528978
2046348000,2046348000,-0.0028414761,-0.029661816,0.000103373735
2046368000,2046368000,-0.006256341,-0.025114201,0.00022727654
2046388000,2046388000,-0.01541343,-0.018389242,0.00011271545
2046408000,2046408000,-0.011804627,-0.02555315,0.00032622073
2046428000,2046428000,-0.0095443735,-0.028115671,0.0003836665
2046448000,2046448000,-0.00593705,-0.026817935,0.0005235222
2046468000,2046468000,-0.010342659,-0.026835708,0.00066471566
2046488000,2046488000,-0.011444974,-0.024623282,-0.00012191434
2046508000,2046508000,-0.010529406,-0.027496506,-0.00014640781
2046528000,2046528000,-0.0110886255,-0.028660607,-0.00028432082
2046548000,2046548000,-0.008337361,-0.026683154,-9.792316e-05
2046568000,2046568000,-0.00478994,-0.031594604,0.0002084764
2046588000,2046588000,-0.015428722,-0.029019684,-0.000118243945
2046608000,2046608000,-0.008566427,-0.030788895,0.00024041907
2046628000,2046628000,-0.008235538,-0.031527676,0.00022969196
2046648000,2046648000,-0.004495903,-0.030445881,0.0009465633
2046668000,2046668000,-0.012393232,-0.031064922,0.000523307
2046688000,2046688000,-0.0085255345,-0.033497803,0.00045204067
2046708000,2046708000,-0.009250154,-0.032883544,0.00033218425
2046728000,2046728000,-0.011675103,-0.027654558,0.00037220016
2046748000,2046748000,-0.007691551,-0.037916433,0.00055761845
2046768000,2046768000,-0.010202074,-0.02940515,0.00074810704
2046788000,2046788000,-0.0073054754,-0.03433902,0.00079231453
2046804000,2046804000,-0.018119086,-0.03058649,0.0008412199
2046828000,2046828000,-0.011037573,-0.03130054,0.0013732807
2046848000,2046848000,-0.009400027,-0.036410715,0.0014590078
2046868000,2046868000,-0.0115964655,-0.033536457,0.0012772914
2046888000,2046888000,-0.010419547,-0.034288112,0.0013948497
2046908000,2046908000,-0.008084714,-0.03403023,0.0014419967
2046928000,2046928000,-0.011618591,-0.039745674,0.0013778303
2046948000,2046948000,-0.01028433,-0.033229608,0.001306359
2046968000,2046968000,-0.0073439423,-0.04170007,0.0009842044
2046988000,2046988000,-0.012487114,-0.03495447,0.0004805858
2047008000,2047008000,-0.0102617135,-0.039443873,0.00045050925
2047028000,2047028000,-0.008603368,-0.034970514,-2.1039234e-05
2047048000,2047048000,-0.010289123,-0.03722939,-4.2298343e-05
2047068000,2047068000,-0.0052600987,-0.039994705,5.9035076e-05
2047088000,2047088000,-0.010028852,-0.038979236,-0.00010903721
2047104000,2047104000,-0.0124849025,-0.039243236,-0.00018987086
2047128000,2047128000,-0.009518314,-0.041722037,0.00013195469
2047148000,2047148000,-0.00992968,-0.03799516,-0.00032030977
2047168000,2047168000,-0.0068290704,-0.04106602,-0.00029720695
2047188000,2047188000,-0.014486438,-0.040524617,0.00014664495
2047204000,2047204000,-0.0041168276,-0.045644537,0.00016887875
2047228000,2047228000,-0.009734175,-0.040196024,-0.00026978372
2047248000,2047248000,-0.00816436,-0.042092707,-0.00047640607
2047268000,2047268000,-0.010630031,-0.04037924,-0.00017478011
2047288000,2047288000,-0.0051643737,-0.043780886,-5.5659933e-05
2047308000,2047308000,-0.007055562,-0.0419965,0.00022332545
2047328000,2047328000,-0.00798736,-0.042458627,0.00013884783
2047348000,2047348000,-0.014406807,-0.042801995,0.0003355178
2047368000,2047368000,-0.009935379,-0.04269488,0.00034852765
2047384000,2047384000,-0.006105286,-0.043675426,0.000288432
2047404000,2047404000,-0.011306733,-0.041026335,0.00020136067
2047428000,2047428000,-0.0054806997,-0.042080536,0.00015684681
2047448000,2047448000,-0.011639455,-0.042692967,0.00031765943
2047468000,2047468000,-0.009777162,-0.043417152,0.00018450858
2047488000,2047488000,-0.011717561,-0.048904955,0.0009195062
2047508000,2047508000,-0.015841676,-0.04518452,0.000698373
2047528000,2047528000,-0.00801208,-0.044421755,0.0006874332
2047548000,2047548000,-0.008605781,-0.049128827,0.00084859063
2047568000,2047568000,-0.0036885128,-0.048373852,0.0006980751
2047588000,2047588000,-0.01317652,-0.04294338,0.00031462565
2047608000,2047608000,-0.011312327,-0.047546092,0.00054317585
2047628000,2047628000,-0.0069533903,-0.05143466,0.000670574
2047648000,2047648000,-0.009835888,-0.04966457,0.00048125267
2047668000,2047668000,-0.0093783215,-0.047468353,0.00010420845
2047688000,2047688000,-0.010115047,-0.05196123,8.553396e-05
2047704000,2047704000,-0.006701185,-0.05059226,0.00030541065
2047728000,2047728000,-0.013390491,-0.051053096,0.0003892617
2047748000,2047748000,-0.0037466106,-0.05409576,0.00041550555
2047768000,2047768000,-0.009985974,-0.049760845,0.00047119902
2047788000,2047788000,-0.009269901,-0.054363023,0.00019859144
2047808000,2047808000,-0.008577689,-0.054510262,0.0002508185
2047828000,2047828000,-0.010730703,-0.04970344,-2.1336593e-05
2047848000,2047848000,-0.0051435623,-0.05205011,-0.00022458922
2047868000,2047868000,-0.0072849034,-0.050144766,-8.193714e-06
2047888000,2047888000,-0.011901972,-0.05316966,0.00016499957
2047908000,2047908000,-0.00686054,-0.05295352,-0.00012194671
2047928000,2047928000,-0.009642926,-0.050487123,-2.9490991e-05
2047948000,2047948000,-0.009853384,-0.053862557,-0.00022215786
2047968000,2047968000,-0.009399482,-0.058203228,6.544497e-05
2047988000,2047988000,-0.011442353,-0.049829185,0.000109962435
2048008000,2048008000,-0.0089211585,-0.050691906,0.000107772474
2048028000,2048028000,-0.0114009585,-0.045774724,0.00015629882
2048048000,2048048000,-0.009603443,-0.039536554,0.00026735294
2048068000,2048068000,-0.007241886,-0.033569455,0.00048495678
2048088000,2048088000,-0.0072311386,-0.02631785,0.00018752117
2048108000,2048108000,-0.0025843908,-0.015028947,-8.2217666e-05
2048128000,2048128000,-0.006919884,-0.015947854,-0.00010374648
2048148000,2048148000,-0.007932188,0.0033309525,-3.3613058e-05
2048168000,2048168000,-0.006550383,0.0028702735,0.0005773935
2048188000,2048188000,-5.256338e-05,0.012941915,0.00048689084
2048208000,2048208000,0.00025452615,0.011936545,0.0007730351
2048228000,2048228000,0.0028378842,0.015229436,0.00087502564
2048248000,2048248000,-0.004827867,0.015256867,0.0005919513
2048268000,2048268000,0.0029118706,0.014073857,0.0005287734
2048288000,2048288000,-0.0010539491,0.020895952,0.0004932612
2048308000,2048308000,0.0011445485,0.017533373,0.000575059
2048328000,2048328000,-0.0006293211,0.01525927,0.0004676233
2048348000,2048348000,0.008984529,0.010194663,0.0008796236
2048368000,2048368000,0.0035846368,0.013007695,0.00077967875
2048388000,2048388000,0.0014172753,0.01394693,0.0009001041
2048408000,2048408000,0.0034381235,0.009354254,0.0014099973
2048428000,2048428000,0.0025381567,0.0112332925,0.0011159689
2048448000,2048448000,-0.0036953103,0.011320119,0.0009050971
2048468000,2048468000,-0.0013196002,0.008868593,0.000251392
2048488000,2048488000,-0.0011634649,0.00873086,0.0002273132
2048508000,2048508000,-0.0041858996,0.0059137074,0.00039771624
2048528000,2048528000,0.0008997248,0.003962647,0.00015926131
2048544000,2048544000,0.0022512763,4.079286e-05,0.00025971487
2048568000,2048568000,-0.006430369,0.0014651961,0.00020825559
2048588000,2048588000,-0.00056782144,0.0029656645,-1.0561016e-05
2048608000,2048608000,-0.0018779987,-0.0003825361,-2.034445e-06
2048628000,2048628000,-0.0023392509,0.0010650217,0.00013561413
2048648000,2048648000,-0.0035468666,0.0037080152,0.00034697622
2048668000,2048668000,0.00032392074,-0.003614017,-0.00026691926
2048688000,2048688000,0.0023196915,-0.0009693096,0.000100129844
2048708000,2048708000,-0.0017116372,0.0011898602,3.4342855e-05
2048728000,2048728000,0.0018342037,-0.0031362376,3.138104e-05
2048748000,2048748000,-0.0017519116,-0.0011760221,-0.0003563497
2048768000,2048768000,0.0020387555,-0.0032609822,-0.0004855489
2048788000,2048788000,0.00038471154,0.00057812594,-0.00014390491
2048808000,2048808000,-0.0028419807,-0.0019010175,-0.00063204573
2048824000,2048824000,-0.00016962318,0.0017458738,-0.00031149466
2048848000,2048848000,-0.0030200654,0.00035758177,-0.0008307912
2048868000,2048868000,-0.0010753995,0.005855595,-0.00071606855
2048888000,2048888000,0.005087891,-0.005858777,-0.0007064349
2048908000,2048908000,0.002575004,0.001513709,-0.00034401938
2048928000,2048928000,0.0005117478,0.001008842,-0.00035741497
2048948000,2048948000,-0.0028393306,-0.0013192517,-0.00057314924
2048968000,2048968000,-0.0032873047,0.00061441015,-8.533451e-05
2048988000,2048988000,-0.0032210287,-0.0010280798,0.00034961494
2049008000,2049008000,0.0016620342,-0.005597035,0.00036786514
2049028000,2049028000,-0.0039183185,0.001579276,0.0007703158
2049048000,2049048000,0.00043437385,-0.001088072,0.0006771933
2049068000,2049068000,-0.0022319197,-0.0006862421,0.0007751846
2049088000,2049088000,-0.00067265553,-0.00020874664,0.00086942234
2049108000,2049108000,-0.0007720628,-0.0013566094,0.0008803006
2049128000,2049128000,0.0009867537,0.002470065,0.0010849021
2049148000,2049148000,-0.001808292,0.0006736987,0.000685669
2049168000,2049168000,-0.0027252696,0.0019934075,0.0007547682
2049188000,2049188000,-0.00045566843,0.0023155028,0.00080969755
2049208000,2049208000,0.0024286632,-0.005660408,0.0004334321
2049228000,2049228000,-0.0044440357,0.0022478963,0.00032700572
2049248000,2049248000,-0.0020551835,0.0010666898,-0.00016829383
2049268000,2049268000,0.0037247145,-0.0012103948,-0.00025507493
2049288000,2049288000,-0.0016834395,0.0038695892,-0.0003969727
2049308000,2049308000,0.0031400416,0.0015920927,-0.00052152964
2049328000,2049328000,-0.0011583804,0.0017198587,-0.00065336697
2049348000,2049348000,-0.0016032726,-0.0066711064,-0.0006579962
2049368000,2049368000,-0.0060154763,0.0048637628,-0.000370841
2049388000,2049388000,0.0023685007,-0.0018529978,-0.00070609536
2049408000,2049408000,-0.0012578738,0.0028401138,-0.00068409427
2049428000,2049428000,0.00050255645,-0.0027172554,6.8658715e-05
2049448000,2049448000,-0.0012560419,-0.0011196883,-0.0002687205
2049468000,2049468000,0.0015516737,-0.0031559845,-0.00045477937
2049488000,2049488000,0.0042358683,0.0022515985,-0.00080375397
2049508000,2049508000,-0.0048046024,0.0026829704,-0.00046011925
2049528000,2049528000,-0.0042921714,0.00095959514,-0.0004727555
2049548000,2049548000,0.0018355658,0.0033348245,-0.00046566885
2049568000,2049568000,0.0011411598,2.3680623e-06,-0.0003578851
2049588000,2049588000,-0.00029763102,0.004014616,-0.0003050854
2049608000,2049608000,-0.0008898833,0.0011738825,-0.00020700628
2049628000,2049628000,-0.0043158885,-0.002374024,-3.3603636e-05
2049648000,2049648000,-0.0019636438,0.0019910706,0.00034602912
2049668000,2049668000,-0.0020203306,0.0053900187,0.00013670466
2049688000,2049688000,-0.004263064,0.00062927784,-0.00018520754
2049708000,2049708000,0.0054305773,-0.0009493774,-0.0004748387
2049728000,2049728000,0.0006316478,0.0066868733,-0.00041750114
2049748000,2049748000,0.001998446,0.0036221263,-0.00085993373
2049768000,2049768000,-0.0021380433,0.001763966,-0.0008648804
2049784000,2049784000,-0.003143184,0.001037895,-0.000680738
2049808000,2049808000,-0.004370562,0.0021325732,-0.00057941827
2049828000,2049828000,-0.0010338747,-0.00041609828,-0.00043092883
2049848000,2049848000,-0.0007327277,0.004719029,-0.00028887662
2049868000,2049868000,-0.0026179187,-0.00049819564,0.00010198044
2049888000,2049888000,0.0012155282,0.0028193637,-0.00013044046
2049908000,2049908000,-0.0017223989,0.0050733713,0.0004194493
2049928000,2049928000,0.007040646,0.0028101755,0.0002727388
2049948000,2049948000,-0.002490516,0.0026143496,0.00074455794
2049968000,2049968000,-0.0063656047,0.0012114077,0.00019562186
2049988000,2049988000,-0.0027117052,0.0012677079,0.00051546906
2050008000,2050008000,-0.0017706377,0.0033586484,0.00049138966
2050028000,2050028000,0.00046421215,0.0009882436,0.0005232557
2050048000,2050048000,-0.00056904496,-0.0031776766,0.00045306832
2050068000,2050068000,-0.0012354148,0.0036251748,0.000390396
2050088000,2050088000,-0.0005763086,0.0016364715,0.0003948622
2050108000,2050108000,0.0027811504,0.0003928037,2.5804078e-05
2050128000,2050128000,-0.00010009896,0.00032867742,0.00014829464
2050148000,2050148000,-0.0026137796,0.0035416968,-0.00016158272
2050168000,2050168000,0.0021843375,-0.00037203543,6.523842e-06
2050188000,2050188000,-7.432845e-05,-0.0010355317,0.00030806585
2050208000,2050208000,-0.00367889,0.00074858195,-6.5978915e-05
2050228000,2050228000,0.0011699643,0.005362952,0.0001525389
2050248000,2050248000,0.0035313326,0.0027891346,0.00018113333
2050268000,2050268000,0.0030630473,0.00776375,2.0607673e-05
2050288000,2050288000,0.00037951302,0.0009856686,-0.00012078263
2050308000,2050308000,-0.0034293176,0.00013057946,8.605676e-06
2050324000,2050324000,0.0023790915,0.0014294246,-1.8548284e-05
2050348000,2050348000,0.00050918653,0.0038072118,0.00020178687
2050368000,2050368000,0.0031741597,0.0014079544,0.000101095204
2050388000,2050388000,0.0014697585,0.0011416096,0.00019801875
2050408000,2050408000,-0.0006404554,0.0022999917,0.00020928582
2050428000,2050428000,0.0018657297,0.0066312044,0.0007121357
2050448000,2050448000,-0.002998909,0.0025963122,0.0005430026
2050468000,2050468000,0.005291738,0.0024752084,0.000390685
2050488000,2050488000,-0.002621257,0.0011565355,0.00050822226
2050504000,2050504000,-0.00362904,0.00065678265,9.362599e-05
2050528000,2050528000,-0.004372214,0.0012814011,-0.0005679302
2050548000,2050548000,-0.0018920639,0.0017899111,-0.000540243
2050568000,2050568000,-0.0014477284,0.004043539,-0.00079712033
2050588000,2050588000,-0.0024287011,0.0073235966,-0.00081776595
2050608000,2050608000,0.0036458317,-0.0001124742,-0.00053827616
2050628000,2050628000,0.0013963082,-0.0023857155,-0.00020794058
2050648000,2050648000,0.0007450399,0.009023333,-0.00015648085
2050668000,2050668000,-0.0011881964,-0.0010574912,0.00021581854
2050688000,2050688000,-0.0036338798,-0.0028268145,0.00054457755
2050708000,2050708000,-0.00047106808,0.0047750217,0.0005495904
2050728000,2050728000,0.0027834442,0.005109194,0.00088884163
2050748000,2050748000,-0.00027418838,0.006330257,0.0012588764
2050768000,2050768000,0.0032763812,-0.00092564,0.001159039
2050788000,2050788000,0.00024699885,-0.00079458504,0.0009944466
2050808000,2050808000,-0.001962061,0.0035565253,0.00030065983
2050824000,2050824000,0.00085352204,0.0005704894,-3.0655116e-05
2050848000,2050848000,-0.00031367084,0.003457097,-0.00022845951
2050868000,2050868000,-0.0013075365,0.0032560378,-0.0005554121
2050888000,2050888000,-0.0021256104,0.0032575268,-0.0008742279
2050908000,2050908000,0.0030870442,0.0037733908,-0.000801026
2050928000,2050928000,0.00508643,0.0056731477,-0.0007760585
2050944000,2050944000,0.0011131365,0.003745459,-0.0005711034
2050968000,2050968000,0.00479278,0.005067542,-0.00079820264
2050988000,2050988000,-0.0011727762,0.00093618385,-0.0008219561
2051008000,2051008000,-0.0011803842,0.0002621701,-0.0008927941
2051028000,2051028000,-0.0036002968,0.00077026925,-0.0008957631
2051048000,2051048000,0.00069166435,0.0035491213,-0.0009428662
2051068000,2051068000,0.0009047834,0.003526569,-0.00045070445
2051088000,2051088000,-0.0040326174,0.0040879953,-0.000497209
2051108000,2051108000,0.00542442,0.0019312149,-0.00045572093
2051128000,2051128000,-0.004912709,0.002399064,-0.00011081927
2051148000,2051148000,-0.0006212012,0.004173957,-0.00026209373
2051168000,2051168000,-0.001000436,0.0046370556,5.6201912e-05
2051188000,2051188000,-0.005104677,-0.0015187773,0.00021817161
2051208000,2051208000,0.0028895042,-0.0022519398,-0.00047246309
2051228000,2051228000,0.0025122522,0.0025712096,-0.0003171882
2051248000,2051248000,-0.0012128379,0.0026076483,0.00027607888
2051268000,2051268000,-0.002676054,0.007544105,0.0006854489
2051288000,2051288000,-0.007695086,0.0018626051,0.00049802574
2051308000,2051308000,0.0026110257,-0.0009451114,1.1287502e-05
2051328000,2051328000,0.00094221986,0.001944006,-2.9957202e-05
2051348000,2051348000,0.0024048812,-0.0005759108,9.163791e-06
2051368000,2051368000,-0.0017649214,0.0053723687,-1.1396012e-05
2051388000,2051388000,-0.00045524092,0.0006430256,-3.229243e-05
2051408000,2051408000,-0.00032112724,0.005244411,0.0002414509
2051428000,2051428000,-0.00046271976,-0.0021818825,4.004939e-05
2051448000,2051448000,0.0015295111,-0.0008252992,-0.00014026085
2051468000,2051468000,0.0011580144,0.0016292341,4.180711e-05
2051488000,2051488000,-0.0003241425,0.0014757086,6.804484e-05
2051508000,2051508000,-0.0005336092,0.009500608,0.00021887421
2051528000,2051528000,0.0016893551,0.0075575276,0.00023728819
2051548000,2051548000,0.0002700708,0.002030561,0.0004738419
2051568000,2051568000,-0.0036043173,0.0033436203,0.0004296631
2051588000,2051588000,-0.00091000966,-0.00068651047,-0.00036517467
2051608000,2051608000,0.0032174466,0.0048820428,-0.00043503812
2051628000,2051628000,0.0020781457,0.0020562815,-0.00027152803
2051648000,2051648000,-0.0007422941,0.008780854,-0.00031662913
2051668000,2051668000,-0.0016469408,0.004710239,-0.00036864317
2051688000,2051688000,-0.004853312,0.0012020932,-8.6245615e-05
2051708000,2051708000,-0.0038272138,0.0025949357,-0.00015608016
2051728000,2051728000,0.002977004,0.0011176582,-6.8700625e-05
2051748000,2051748000,0.0030547208,0.0021639643,-0.00025119202
2051764000,2051764000,-0.0056186756,0.001880837,-0.00038836105
2051784000,2051784000,-0.003853826,0.007560463,-0.0002246211
2051808000,2051808000,-0.00083794247,-0.002170242,-2.728164e-05
2051828000,2051828000,0.0020843085,0.005995866,1.1842436e-05
2051848000,2051848000,0.0052606016,0.0035547682,5.4392134e-05
2051868000,2051868000,-0.0024623603,0.0031781138,0.00018930073
2051884000,2051884000,0.0026231483,0.003955369,0.0001451642
2051908000,2051908000,-0.0016731622,0.003172012,0.00023314469
2051928000,2051928000,-0.0010130425,-2.0841835e-06,4.8523394e-05
2051948000,2051948000,-0.00090050325,0.0027273255,0.00061711
2051968000,2051968000,-0.0024509453,0.003343264,0.00071405136
2051988000,2051988000,0.0036105826,0.0015106703,0.0006036014
2052008000,2052008000,-0.0036920183,0.0030446372,0.00061756244
2052024000,2052024000,0.005904595,-0.001407969,0.00032653238
2052048000,2052048000,0.0011112262,0.0022238435,0.000201816
2052068000,2052068000,0.00086898357,0.008882029,-0.00017689225
2052088000,2052088000,0.0022201727,0.006760564,-0.00082116027
2052108000,2052108000,0.00039984085,0.00552941,-0.001158335
2052128000,2052128000,0.0060664983,0.006133061,-0.0011438933
2052148000,2052148000,0.00409887,-0.0021629678,-0.0010356259
2052168000,2052168000,-0.0006070562,0.001834014,-0.00090557523
2052188000,2052188000,-0.0016420736,0.004285374,-0.00075937726
2052208000,2052208000,0.0019326853,0.00087824895,-0.0007076423
2052228000,2052228000,0.00048576997,-0.0025830194,-0.0010758991
2052248000,2052248000,0.0022250435,0.006032569,-0.0011640125
2052268000,2052268000,0.0028174124,0.004268075,-0.00060802954
2052288000,2052288000,-7.293922e-05,-0.0035392249,-0.00021439134
2052308000,2052308000,1.4927769e-05,0.0012674998,-9.006777e-05
2052328000,2052328000,0.0032935543,0.0052870987,-0.00029049307
2052348000,2052348000,0.0018726485,0.0019057915,-0.0004960349
2052368000,2052368000,0.0023641721,0.0060115648,-0.0003758787
2052388000,2052388000,-0.0012786082,0.0015159398,-0.00036385955
2052408000,2052408000,-0.0038922955,0.00235696,-0.0003076617
2052428000,2052428000,0.0004903581,0.005732108,-0.00033026576
2052448000,2052448000,-0.002382058,0.0055377893,-0.0001994888
2052468000,2052468000,0.0021232374,0.0035515197,0.00016101451
2052488000,2052488000,-0.0051560253,-0.0043043634,0.0004008731
2052508000,2052508000,-0.0015517438,-0.0022306785,0.0012601502
2052528000,2052528000,0.0008859199,0.0045947265,0.0012703561
2052548000,2052548000,-0.0023269216,0.004848762,0.0010150492
2052568000,2052568000,0.004170116,0.004760755,0.0010249818
2052588000,2052588000,-0.00040281456,0.0025903024,0.0011407171
2052608000,2052608000,-0.002427836,0.0027565956,0.0014111652
2052628000,2052628000,-0.0039450135,-0.00049442705,0.0013763962
2052648000,2052648000,-0.004472047,0.0014117123,0.0015759589
2052668000,2052668000,-0.0035678563,-0.0021016835,0.001473498
2052688000,2052688000,0.0037101517,0.0014653557,0.00138925
2052708000,2052708000,-0.00018987796,0.0036375255,0.0012814592
2052728000,2052728000,0.0034860605,0.0039350498,0.0011899627
2052744000,2052744000,-0.0013396795,-0.001634268,0.00094311265
2052768000,2052768000,-0.0020907084,-0.0012368398,0.00079090276
2052788000,2052788000,0.0013931225,0.0019660739,0.00035110765
2052808000,2052808000,0.00096923,0.0028030947,0.0006060558
2052828000,2052828000,-1.2836244e-05,0.00073899666,0.00013907568
2052848000,2052848000,0.004538141,0.0034098618,8.022121e-05
2052868000,2052868000,0.0042723166,0.0027504854,-0.00017640411
2052888000,2052888000,0.0008024988,0.0014445249,-0.000211457
2052908000,2052908000,-0.0038765022,-0.0019381201,-0.00040626235
2052928000,2052928000,-0.006084486,0.0009038117,-0.00013126592
2052948000,2052948000,0.00076899695,0.005828387,-0.00039381525
2052968000,2052968000,0.0030429242,0.0059642736,-0.0005828458
2052988000,2052988000,0.005528656,-0.0002841557,-0.00034165435
2053008000,2053008000,-0.0008452768,0.001816682,-0.0006240142
2053028000,2053028000,-0.005006182,0.008181825,-0.00030381297
2053048000,2053048000,0.0006221764,0.0060310517,-0.00032756905
2053068000,2053068000,0.0020172675,-0.0012220542,-0.000288867
2053088000,2053088000,-0.00495502,0.0070080506,-0.0005905975
2053108000,2053108000,0.0011413299,0.0011813204,-0.0007101986
2053128000,2053128000,0.0018381192,0.00417616,-0.0010758896
2053148000,2053148000,-0.0027549705,0.0005999744,-0.0013912029
2053168000,2053168000,-0.0007859826,0.008259263,-0.0014268341
2053188000,2053188000,0.002685864,0.0036225,-0.0010487785
2053208000,2053208000,-0.0030619802,-0.00063178025,-0.0009048277
2053228000,2053228000,-0.00095724734,0.0006094892,-0.00017126725
2053248000,2053248000,0.0035867402,0.0016288029,0.00029781548
2053264000,2053264000,-0.00042800207,-0.00055147347,7.8884725e-05
2053288000,2053288000,0.0012763239,0.0024189427,0.0005258302
2053308000,2053308000,-0.005113633,0.0051482245,0.00032712048
2053328000,2053328000,-0.00047637118,0.0014124301,0.0004208559
2053348000,2053348000,0.002572922,0.0023028532,-0.000109430075
2053368000,2053368000,0.0010133162,-0.0041815145,-4.3866094e-06
2053388000,2053388000,0.002807735,-0.0021593962,3.4853023e-05
2053408000,2053408000,0.0035438496,0.0039551286,0.0001879565
2053428000,2053428000,0.0029531284,0.004306649,0.00012715872
2053448000,2053448000,-0.0018452965,0.0023049572,-0.00013375563
2053468000,2053468000,-0.00243421,0.0016495445,3.3281198e-05
2053488000,2053488000,0.0005857281,0.0036053993,-0.000118141594
2053508000,2053508000,0.0019491817,0.0019168111,-0.00015541463
2053528000,2053528000,-0.00087628094,0.0019592957,-0.00070259447
2053548000,2053548000,-0.004862786,0.0020376616,-0.000589653
2053564000,2053564000,0.002750388,0.003695048,-0.00045317662
2053588000,2053588000,-0.0012486866,0.0039925645,8.348496e-05
2053608000,2053608000,-0.0030274384,0.00139798,0.0003477983
2053628000,2053628000,-0.0010130727,0.0008313132,0.00070488977
2053648000,2053648000,0.0024767194,0.0059865774,0.0005742828
2053668000,2053668000,-0.0037201082,0.003873699,0.00061819627
2053688000,2053688000,-0.0031934814,-0.0014255601,0.0006392055
2053708000,2053708000,0.000638032,0.0012712448,0.0006730744
2053728000,2053728000,0.007111846,0.0054292553,0.00096197653
2053744000,2053744000,-0.0014548476,0.005009561,0.00065360055
2053768000,2053768000,-0.0060662767,0.0011332585,0.00087934104
2053788000,2053788000,-0.001523171,-0.003385751,0.0005152408
2053804000,2053804000,0.00050943193,0.00538213,0.00048861885
2053824000,2053824000,0.00014776943,-0.0015772386,0.00025363753
2053848000,2053848000,-0.0029669213,0.010701815,0.00034126104
2053868000,2053868000,-0.0041182274,0.00013829325,0.0003676633
2053888000,2053888000,0.0044947146,-0.0020731748,0.0005937132
2053908000,2053908000,-0.003595608,0.0013328049,0.00045281532
2053928000,2053928000,0.0038840596,-0.0017546541,0.00033617218
2053948000,2053948000,0.0025792848,0.0025723209,0.00044522661
2053968000,2053968000,-0.0013397499,-0.0011820605,0.00048528024
2053984000,2053984000,-0.0028536483,0.0013151244,0.0007860002
2054008000,2054008000,-0.0033693737,0.002144817,0.000739184
2054028000,2054028000,0.0032090892,0.0019139377,0.00033200928
2054048000,2054048000,0.0060110167,0.0037639132,0.00014987901
2054068000,2054068000,0.0013768048,0.005069823,-7.80206e-06
2054088000,2054088000,-0.0036662505,-0.0009374311,-0.00046334008
2054108000,2054108000,-0.0023204524,0.00636103,-0.0007011042
2054128000,2054128000,0.0018177158,0.0022271755,-0.00065394235
2054148000,2054148000,0.0026806253,0.00058209186,-0.0009986063
2054164000,2054164000,0.0018732047,0.002983835,-0.0008089089
2054188000,2054188000,-0.0015339841,0.0026644836,-0.00092380506
2054208000,2054208000,0.0009820559,0.0044159666,-0.000856735
2054228000,2054228000,0.0012148122,-0.0011229807,-0.00077546324
2054248000,2054248000,-0.001062749,-0.00054107845,-0.0009602612
2054268000,2054268000,-0.001246797,0.0018251194,-0.0007794166
2054288000,2054288000,3.4502416e-05,0.0027930662,-0.00036629816
2054308000,2054308000,0.001222077,-0.0008212738,-0.00040164724
2054328000,2054328000,0.00076617877,0.006632897,-0.0005837916
2054348000,2054348000,0.00036114317,0.0012238487,-0.0002802755
2054368000,2054368000,-0.0041017625,0.0026614517,-0.0003433617
2054384000,2054384000,0.0061542206,-0.0024631987,-0.00042186317
2054408000,2054408000,-0.00085856544,0.0060107885,-0.00058468373
2054428000,2054428000,0.0004269203,0.0006907284,-0.00038604462
2054448000,2054448000,-0.004081091,0.0012494033,-0.00064731814
2054468000,2054468000,0.0026571238,0.00015909015,-0.0005249051
2054488000,2054488000,0.00049657276,0.0036299543,-0.0005174462
2054508000,2054508000,-0.0011452397,0.00022750138,-0.00066498655
2054528000,2054528000,-0.0003511457,0.0044772364,-0.0008210876
2054548000,2054548000,0.0028121024,0.0019677344,-0.00042852914
2054568000,2054568000,-0.0008207978,0.0007861047,0.00027581764
2054588000,2054588000,0.00106963,0.0015606245,0.00011113612
2054604000,2054604000,0.0017200101,0.005571099,-8.14593e-05
2054628000,2054628000,0.00088149036,0.0018292196,7.6934884e-05
2054648000,2054648000,0.0019132253,0.0020607312,0.00031757573
2054668000,2054668000,0.0021514206,0.0012104986,0.000110240195
2054688000,2054688000,-0.0021651718,0.0013750251,2.0645864e-05
2054708000,2054708000,0.0010353595,0.0028490592,0.00036088077
2054728000,2054728000,-0.002102069,0.00013265945,-5.8080182e-05
2054748000,2054748000,-0.0018843254,0.00083880423,-0.0002528711
2054768000,2054768000,0.002499266,0.0051792744,3.0271483e-05
2054788000,2054788000,0.0030109496,0.004928664,9.689981e-05
2054808000,2054808000,0.0021095555,0.0037557192,5.1905932e-05
2054828000,2054828000,-0.0031202962,0.0049566543,0.0004739427
2054848000,2054848000,0.0015027944,0.0024441658,0.0006408565
2054868000,2054868000,-8.226838e-05,0.0009959211,0.0005476244
2054888000,2054888000,0.0026557408,0.004011956,0.001012926
2054908000,2054908000,0.000755031,0.0025477665,0.0011915271
2054928000,2054928000,0.0014397689,-0.0010571935,0.0014720397
2054948000,2054948000,-0.00021049601,0.0008804483,0.0011361974
2054968000,2054968000,0.0023116078,-0.0050345883,0.001427023
2054988000,2054988000,-0.0006835343,0.005167406,0.0012235238
2055008000,2055008000,-0.001071782,0.0044102203,0.0012817769
2055028000,2055028000,-0.0073565054,0.006377531,0.0014108537
2055048000,2055048000,-0.0038982634,-0.00066299597,0.000995006
2055068000,2055068000,-0.00015382026,-8.8584726e-05,0.0007167135
2055088000,2055088000,0.0012028588,-0.0006688358,0.0009897291
2055108000,2055108000,0.0056969575,0.0013581736,0.00053518364
2055128000,2055128000,-0.0023139808,0.001020907,0.00022743295
2055148000,2055148000,-0.003420567,-0.00042673177,-0.00062044733
2055168000,2055168000,-0.0007324429,0.00010189996,-0.00085440645
2055188000,2055188000,0.0058719623,0.0034360324,-0.0007879314
2055208000,2055208000,0.0006354004,0.006383786,-0.0011739886
2055228000,2055228000,0.0013972366,0.004647269,-0.0008666196
2055248000,2055248000,0.0008760824,0.0022855469,-0.00054314075
2055268000,2055268000,0.00073330814,-0.004047668,-0.0005283382
2055288000,2055288000,8.0589554e-05,0.003429873,-0.0008973519
2055308000,2055308000,-0.0006842984,0.007993186,-0.0009066589
2055328000,2055328000,-0.00087219646,0.005579428,-0.0011324645
2055348000,2055348000,-0.002130479,-0.0023213453,-0.0005520504
2055368000,2055368000,0.0018977755,0.0011786935,-0.001042983
2055388000,2055388000,-0.0021798033,0.00033938172,-0.0008417887
2055404000,2055404000,0.0047327476,0.0038304129,-0.00075871096
2055424000,2055424000,0.003555669,-0.00463112,-0.0005715307
2055448000,2055448000,-0.001343871,0.0030776723,-0.0003639761
2055468000,2055468000,0.002245327,0.0015198038,-0.00067945826
2055488000,2055488000,-0.0013036134,0.0010138114,-0.00082770584
2055508000,2055508000,0.0029700021,-0.00023170479,-0.00052462344
2055528000,2055528000,0.0039443565,0.0009359998,-0.00052442035
2055548000,2055548000,-0.003411949,-0.00023415062,-0.00036955363
2055568000,2055568000,0.0027099322,0.0013222272,-0.0006647522
2055588000,2055588000,0.0011696522,-0.0007613121,-0.0003167855
2055608000,2055608000,-0.0016905216,0.0050490797,-0.0004602594
2055628000,2055628000,-0.0043254234,0.0019036664,-0.0007643775
2055648000,2055648000,-0.0022173598,0.0037768972,-0.0004924966
2055668000,2055668000,-0.0031085543,0.0018061667,-0.00018746466
2055688000,2055688000,0.0016107605,0.0026727747,-0.00040877418
2055708000,2055708000,0.00025629616,0.0039926874,-7.3122195e-05
2055728000,2055728000,0.0008457906,0.0010305634,0.00016868667
2055748000,2055748000,0.00052722654,0.003350866,0.0005806476
2055768000,2055768000,-0.0055997064,0.00087836897,0.0005447298
2055788000,2055788000,-0.004940518,-0.0025073525,0.000577455
2055808000,2055808000,0.005866576,0.009426918,0.0007112626
2055828000,2055828000,0.002923911,-0.00065081194,0.0010109271
2055848000,2055848000,0.0022130026,0.0045723845,0.0013284202
2055868000,2055868000,0.00048140204,0.0006808543,0.0014009399
2055888000,2055888000,-0.0012840028,0.004648423,0.0012550917
2055908000,2055908000,0.0011895986,-0.0014330547,0.001387306
2055928000,2055928000,0.0006352286,0.005514942,0.001918477
2055948000,2055948000,0.0017675034,-0.002667412,0.0015353702
2055968000,2055968000,0.0019631647,0.0016810142,0.001117483
2055988000,2055988000,-0.001257954,0.004702257,0.00085903873
2056008000,2056008000,0.002147905,0.0053385827,0.00066966884
2056028000,2056028000,-4.5158013e-05,0.0010088644,0.0002291199
2056048000,2056048000,-0.00084202917,-0.0019271014,-0.00010908797
2056068000,2056068000,0.0008691475,0.0012007245,-0.0006125997
2056088000,2056088000,0.0022363863,0.0021595147,-0.00043639226
2056108000,2056108000,-1.5505007e-05,0.00012597538,-0.00032931176
2056128000,2056128000,0.00087116373,0.0035385485,-0.00046562855
2056148000,2056148000,0.00057351636,-0.0002509287,-0.0007807442
2056168000,2056168000,0.00030271072,-0.0012444248,-0.0006488682
2056188000,2056188000,-0.0033901671,0.0046183257,-0.00072452857
2056208000,2056208000,-0.0025629126,0.0024754184,-0.0005445975
2056228000,2056228000,0.0009090939,-0.0018864862,-0.00033760708
2056248000,2056248000,-0.0007958821,0.0044838153,-0.00052617845
2056264000,2056264000,0.009625973,0.00423605,-0.00043402798
2056288000,2056288000,0.00057999964,0.003281613,-0.00034742142
2056308000,2056308000,-0.0024578047,0.0016207786,-0.00019847792
2056324000,2056324000,0.0030579562,-0.0009931009,-0.00011844508
2056348000,2056348000,-0.002098354,0.0048281755,5.588898e-05
2056368000,2056368000,0.006587428,0.0065204096,-0.00028839867
2056388000,2056388000,-0.00028439512,0.0011477811,-0.0003082971
2056408000,2056408000,0.0001250658,-0.001042876,-0.00012426075
2056428000,2056428000,-0.00012828875,0.001306543,-0.00032316617
2056448000,2056448000,-0.0016030633,0.0028584395,-0.0006551101
2056468000,2056468000,-0.0025840388,-0.0005158915,-0.00052113726
2056488000,2056488000,0.0024634618,0.0069523067,-0.0006607904
2056508000,2056508000,5.3377928e-05,0.0038780847,0.0001556706
2056528000,2056528000,0.006177984,0.00447971,0.00034831814
2056544000,2056544000,-0.0019224102,0.0019370896,0.00032228566
2056564000,2056564000,-0.004335572,0.004731537,0.00030892278
2056588000,2056588000,0.0029977236,0.0057342276,-0.00015836406
2056608000,2056608000,-0.0020289132,-0.0017773203,-0.00036664505
2056628000,2056628000,-0.0075639063,0.0035376446,-0.00015754472
2056648000,2056648000,0.0021687031,0.0029939031,-1.9851148e-05
2056668000,2056668000,0.0042485623,-0.0014603058,-0.000115193616
2056688000,2056688000,0.0011965035,0.004517985,4.3942906e-05
2056708000,2056708000,-0.00022222172,0.005044421,0.00027724076
2056728000,2056728000,0.00037749112,0.004639608,0.0003504789
2056748000,2056748000,0.0015500856,0.0009937218,8.247811e-05
2056768000,2056768000,-0.00059316395,0.0007584309,0.0003515016
2056788000,2056788000,0.002515408,-0.0038088295,0.0003708715
2056808000,2056808000,-0.0036199803,0.0054069953,2.745934e-05
2056828000,2056828000,0.00419935,0.00034469692,-0.00014167279
2056848000,2056848000,0.0031610955,0.004120323,-0.00014644317
2056868000,2056868000,0.001965437,0.0008237411,-0.00029620843
2056888000,2056888000,-0.0038472773,-0.0009398578,-0.00019473559
2056908000,2056908000,-0.002473807,0.0011969928,0.000113862574
2056924000,2056924000,-0.0043268455,0.00063067325,-0.00022320673
2056948000,2056948000,0.00034311938,0.004121061,7.06648e-05
2056968000,2056968000,0.00010945741,0.0035893507,0.00011911091
2056988000,2056988000,7.334244e-05,0.0009670355,6.190111e-05
2057008000,2057008000,-0.00087613356,-0.0005720615,-6.941082e-05
2057028000,2057028000,0.0011442894,0.00264072,-0.00023383682
2057048000,2057048000,0.0011008017,0.0061901584,-3.499088e-05
2057068000,2057068000,0.0034772484,0.0004083939,0.00011195164
2057088000,2057088000,-0.0027604587,-0.0048596,0.00038424134
2057108000,2057108000,-0.0041300617,0.005168467,0.00027606374
2057128000,2057128000,0.001258126,0.0073848492,0.00034617848
2057144000,2057144000,-0.005882413,-0.0016098954,7.584022e-05
2057168000,2057168000,-0.004576423,-0.011221011,-0.00096485205
2057188000,2057188000,-0.005728568,-0.01252228,-0.0020309626
2057208000,2057208000,-0.012738055,-0.017052775,-0.0031140035
2057228000,2057228000,-0.009253133,-0.011133697,-0.0045422255
2057248000,2057248000,-0.008631321,-0.00983138,-0.006428633
2057268000,2057268000,-0.004539487,-0.010579376,-0.008097159
2057288000,2057288000,-0.0048212856,-0.013627948,-0.00969878
2057308000,2057308000,-0.009989921,-0.014191868,-0.011634918
2057328000,2057328000,-0.005434908,-0.010715453,-0.012917697
2057348000,2057348000,-0.006174784,-0.010195792,-0.014188457
2057364000,2057364000,-0.003155815,-0.008757258,-0.015298934
2057388000,2057388000,-0.00057296315,-0.00020862371,-0.016880635
2057408000,2057408000,0.0023530107,0.00013146922,-0.018379362
2057428000,2057428000,0.0024361347,-0.0028632814,-0.019308293
2057448000,2057448000,0.004591535,-0.0012737317,-0.0202164
2057468000,2057468000,0.009995619,0.004735097,-0.021193855
2057488000,2057488000,0.012859559,-0.0030825252,-0.021819007
2057508000,2057508000,0.01503059,0.0031931505,-0.022105383
2057528000,2057528000,0.012033445,0.0013103079,-0.022500154
2057548000,2057548000,0.014593469,0.006267465,-0.022413298
2057568000,2057568000,0.01805763,0.002487269,-0.02230502
2057588000,2057588000,0.012643719,0.0064034956,-0.022202626
2057608000,2057608000,0.0091159055,0.0024711606,-0.022517925
2057628000,2057628000,0.019170457,0.0057626776,-0.022201756
2057648000,2057648000,0.014215054,0.005775312,-0.021499842
2057668000,2057668000,0.013879737,0.005299792,-0.019999646
2057688000,2057688000,0.006744429,0.006175805,-0.019559823
2057708000,2057708000,0.011702573,0.0030092262,-0.018479005
2057728000,2057728000,0.0046920525,0.008010723,-0.017992144
2057748000,2057748000,0.009411908,0.0025531934,-0.01693652
2057768000,2057768000,0.006682722,0.0009173341,-0.01603215
2057788000,2057788000,0.006731932,0.0043160208,-0.014775106
2057804000,2057804000,0.012525295,0.004945323,-0.013920744
2057828000,2057828000,0.0080076195,0.00024360715,-0.012328896
2057848000,2057848000,0.00048238738,0.005484576,-0.0112460805
2057868000,2057868000,0.00092707505,0.0051382417,-0.010491453
2057888000,2057888000,0.0033196048,0.013385897,-0.009400519
2057908000,2057908000,0.004207492,0.003626565,-0.009279423
2057928000,2057928000,-0.0018179438,0.012595688,-0.0087776445
2057948000,2057948000,0.0017044694,0.0046527204,-0.0082407445
2057968000,2057968000,-0.0009876178,0.015602431,-0.007928448
2057988000,2057988000,0.0020476335,0.009811254,-0.007521494
2058008000,2058008000,-0.0052276915,0.015491976,-0.007947711
2058028000,2058028000,0.0015977104,0.009028402,-0.007790377
2058048000,2058048000,0.00017905922,0.012040046,-0.0076017566
2058068000,2058068000,-0.00086674537,0.0062651983,-0.007880614
2058088000,2058088000,-0.0014719963,0.0029717581,-0.007507552
2058108000,2058108000,0.0043089488,0.004810346,-0.0069201714
2058128000,2058128000,0.0002723839,0.008558491,-0.0061440947
2058148000,2058148000,0.0012399933,0.007297176,-0.004471008
2058168000,2058168000,-0.0021467498,0.007961902,-0.002728998
2058188000,2058188000,0.004516874,-0.00021731388,-0.001302131
2058208000,2058208000,-0.003975711,0.005041035,0.00030992244
2058228000,2058228000,-0.0015338885,0.0086320145,0.0022428501
2058248000,2058248000,0.00096851,0.0070201103,0.0039642323
2058264000,2058264000,0.0013297219,-0.009481328,0.005301183
2058288000,2058288000,-0.0016565386,0.002455647,0.0077731516
2058308000,2058308000,0.0020223558,-0.00013642141,0.009868133
2058328000,2058328000,0.0021021485,0.001177212,0.011493739
2058348000,2058348000,-0.0017430634,0.0024017734,0.012688231
2058368000,2058368000,0.0002467328,0.00259437,0.013811245
2058388000,2058388000,0.0034245434,-0.0097890645,0.014966459
2058408000,2058408000,-0.0059239366,0.0008656176,0.015906122
2058428000,2058428000,-0.0005296102,-0.003735539,0.01688633
2058448000,2058448000,-0.0077042524,0.0022514686,0.017217046
2058468000,2058468000,0.0007014149,-0.0049721403,0.017520236
2058488000,2058488000,-0.0048394036,-0.005418016,0.016988972
2058508000,2058508000,-0.0007576508,-0.00031139096,0.017218743
2058524000,2058524000,0.0044714985,-0.012318481,0.017182387
2058548000,2058548000,0.0014499003,-0.010371299,0.01727392
2058568000,2058568000,-0.0018347452,-0.0046176095,0.017261356
2058588000,2058588000,-0.003330346,-0.0017034085,0.016710857
2058608000,2058608000,-0.0024279598,-0.0010085276,0.016464215
2058628000,2058628000,0.0029128045,-0.010745731,0.015416001
2058648000,2058648000,0.0023134626,-0.0024589559,0.014809075
2058668000,2058668000,-0.008335661,-0.012413648,0.01433621
2058688000,2058688000,-0.0013018281,-0.006473013,0.013453791
2058708000,2058708000,-0.004065617,-0.0069849724,0.013025693
2058728000,2058728000,-0.0042983987,-0.0029215799,0.012198502
2058748000,2058748000,-0.0054552173,-0.012373854,0.011176684
2058768000,2058768000,-0.0043874416,-0.0027190326,0.010122796
2058784000,2058784000,-0.0070179733,-0.004815858,0.009509538
2058804000,2058804000,-0.0064754635,0.001356568,0.008609173
2058828000,2058828000,-0.009357535,-0.0016270144,0.007321156
2058848000,2058848000,-0.0053092595,0.0018061296,0.0063063325
2058868000,2058868000,-0.006833201,0.00031590834,0.0055498085
2058888000,2058888000,-0.0040504974,-0.00066021294,0.004838258
2058908000,2058908000,-0.0076700496,-0.005526158,0.0041855155
2058928000,2058928000,-0.0013754619,-0.0023051477,0.00413176
2058948000,2058948000,-0.002750669,-0.0011447548,0.0037329965
2058964000,2058964000,-0.0033205021,-0.0066040102,0.0033857585
2058988000,2058988000,-0.00093460805,-0.0074126963,0.003355085
2059008000,2059008000,-0.0073057055,0.00015630806,0.0033087917
2059028000,2059028000,-0.00093453657,-0.01053758,0.0035307228
2059048000,2059048000,-0.002844281,0.00027306483,0.0033420234
2059068000,2059068000,-0.0061057503,-0.009703993,0.003264882
2059088000,2059088000,-0.0017429071,-0.005265401,0.0035230848
2059108000,2059108000,0.000176006,-0.0078105456,0.003922874
2059128000,2059128000,-0.0044299373,-0.0071612205,0.004168809
2059148000,2059148000,-0.002792019,-0.011000964,0.0043317606
2059168000,2059168000,-0.0014000366,-0.0019150567,0.004859894
2059188000,2059188000,-0.006410343,-0.012107635,0.0053605614
2059208000,2059208000,-0.0037586102,-0.011134301,0.0055317646
2059228000,2059228000,-0.0067825094,-0.0106747355,0.004924562
2059248000,2059248000,-0.005111899,-0.00902167,0.0047372663
2059268000,2059268000,-0.005798637,-0.015071423,0.0035503805
2059288000,2059288000,-0.0039646076,-0.015881035,0.0015743732
2059308000,2059308000,-0.005268675,-0.014372191,-0.00012836032
2059328000,2059328000,-0.00072137034,-0.009722365,-0.0021082214
2059348000,2059348000,0.0049353447,-0.016221022,-0.003972413
2059368000,2059368000,0.0061552622,-0.0046815006,-0.006330117
2059388000,2059388000,-0.003523369,-0.008544176,-0.0076670945
2059408000,2059408000,0.012336004,-0.00513777,-0.009052364
2059424000,2059424000,0.009691771,-0.010612427,-0.009618966
2059448000,2059448000,0.012319247,-0.009866632,-0.010892643
2059468000,2059468000,0.014081584,-0.0052522086,-0.0111841345
2059488000,2059488000,0.005115362,-0.004632522,-0.011455533
2059508000,2059508000,0.011874948,-0.013083959,-0.011215255
2059528000,2059528000,0.010248358,-0.0089438,-0.010733631
2059548000,2059548000,0.014387244,-0.012689414,-0.010083419
2059568000,2059568000,0.007505537,-0.009312028,-0.009282138
2059588000,2059588000,0.00316204,-0.014334429,-0.008493235
2059608000,2059608000,0.007917967,-0.010106066,-0.007552877
2059628000,2059628000,0.008172919,-0.009329178,-0.0063522398
2059648000,2059648000,0.0034019435,-0.0062293913,-0.0052234377
2059668000,2059668000,0.010965281,-0.013328319,-0.0036136457
2059688000,2059688000,0.0041006245,-0.01385762,-0.0025100438
2059708000,2059708000,-0.000740011,-0.01720114,-0.0013219828
2059724000,2059724000,-0.0010725498,-0.027994106,-0.0007748485
2059748000,2059748000,-0.008377565,-0.038305413,-0.00055863033
2059768000,2059768000,-0.010578337,-0.03670471,-0.00087308587
2059788000,2059788000,-0.013957546,-0.033721313,-0.00022792074
2059808000,2059808000,-0.012837073,-0.029873922,-0.00011348613
2059828000,2059828000,-0.0018655248,-0.03269487,-0.00021463414
2059848000,2059848000,-0.0070907925,-0.028837048,-0.0004185074
2059868000,2059868000,-0.0063875695,-0.026946545,-0.00045111243
2059888000,2059888000,-0.0040901587,-0.024768975,-0.0003506585
2059908000,2059908000,-0.0019259055,-0.0318085,-0.00072680775
2059928000,2059928000,-0.002263715,-0.02186824,-0.001178498
2059948000,2059948000,-0.0036746098,-0.02029941,-0.0011632799
2059968000,2059968000,-0.00026844512,-0.018802453,-0.0010921668
2059988000,2059988000,0.005212486,-0.019312454,-0.00080417155
2060008000,2060008000,0.001796541,-0.018536562,-0.00067660783
2060028000,2060028000,-0.003059689,-0.016277453,-0.00063668564
2060044000,2060044000,-0.0038694106,-0.01781626,-0.00037780657
2060068000,2060068000,-0.00048902456,-0.014479182,-0.00023762065
2060088000,2060088000,0.0031878068,-0.008442437,-0.00018580022
2060108000,2060108000,0.0007834842,-0.019778714,-0.0002778567
2060128000,2060128000,0.00209703,-0.0052420516,-0.00015132691
2060148000,2060148000,0.0017164124,-0.012421836,-0.0006154234
2060168000,2060168000,-0.0030109244,-0.007694717,-0.00083761994
2060188000,2060188000,0.0014368442,-0.016672226,-0.00069328333
2060208000,2060208000,0.002203245,-0.0065020667,-0.0009175105
2060228000,2060228000,0.0015608357,-0.015275579,-0.001069546
2060248000,2060248000,0.0020358881,-0.0074117268,-0.0010028593
2060268000,2060268000,-0.0006209477,-0.013184639,-0.0013880224
2060288000,2060288000,-0.0018130232,-0.004557738,-0.0012949252
2060308000,2060308000,-0.0021252271,-0.01548128,-0.0009619069
2060328000,2060328000,0.006220378,-0.009290856,-0.00088011584
2060348000,2060348000,0.0032609168,-0.011441152,-9.844189e-05
2060368000,2060368000,0.0054726973,-0.010092907,0.00016249064
2060388000,2060388000,-0.00041014946,-0.010698864,0.00010235132
2060408000,2060408000,-0.0018681926,-0.006705928,0.0005102532
2060428000,2060428000,-0.0050617824,-0.01428071,0.00055262534
2060448000,2060448000,0.0036459228,-0.010359008,0.0009715359
2060468000,2060468000,-0.0020337948,-0.015628235,0.0009801548
2060488000,2060488000,0.0021942884,-0.006036759,0.0014444359
2060508000,2060508000,-0.0006063788,-0.010033825,0.0018503462
2060528000,2060528000,0.003145202,-0.011180601,0.0013727578
2060548000,2060548000,-0.0011051259,-0.013517502,0.0018297578
2060568000,2060568000,-0.005034954,-0.015493955,0.0015142406
2060588000,2060588000,-0.00427497,-0.014289194,0.0018389499
2060608000,2060608000,0.0018797314,-0.012315244,0.0019078582
2060628000,2060628000,0.0027739373,-0.011695537,0.0014836654
2060648000,2060648000,0.008184744,-0.0044229766,0.0015907178
2060668000,2060668000,0.00602342,-0.015886234,0.0017576646
2060688000,2060688000,0.0035973312,-0.010965477,0.0017154206
2060708000,2060708000,0.0027259998,-0.014697079,0.0018728899
2060728000,2060728000,-0.001890561,-0.004296983,0.0016822733
2060744000,2060744000,0.005341299,-0.01571758,0.0014438331
2060768000,2060768000,-0.0033948414,-0.008657161,0.0012735811
2060788000,2060788000,0.000691351,-0.016699735,0.0011077155
2060808000,2060808000,0.0034607537,-0.006192391,0.0015834161
2060828000,2060828000,-0.00604813,-0.016950484,0.0015177887
2060848000,2060848000,0.005047663,-0.011200207,0.0016751651
2060868000,2060868000,-0.0016364232,-0.016885394,0.0014512979
2060888000,2060888000,-0.0019058209,-0.0090312585,0.0009118916
2060908000,2060908000,-0.0004276809,-0.0095536085,0.0003325739
2060928000,2060928000,-0.005221622,-0.011150213,0.00017452793
2060948000,2060948000,0.0030773466,-0.010236013,-0.00022464909
2060968000,2060968000,-0.0030495,-0.012935486,0.00018137165
2060984000,2060984000,0.0011056007,-0.013445263,-0.00025263755
2061008000,2061008000,-0.0026891408,-0.013685056,-0.0005112179
2061028000,2061028000,0.002893671,-0.010357477,-0.00048970024
2061048000,2061048000,-0.0007394133,-0.014836302,-0.00023283919
2061068000,2061068000,0.0016062405,-0.014476214,-0.0004579348
2061088000,2061088000,0.0017165598,-0.010261122,-0.00090531714
2061108000,2061108000,0.0017801767,-0.018241527,-0.0006776344
2061128000,2061128000,0.0022046957,-0.007157963,-0.0006867429
2061148000,2061148000,0.004293565,-0.004851155,-0.00026946983
2061168000,2061168000,0.0016268415,0.005497229,-0.0003035958
2061188000,2061188000,-0.0039055482,-0.002705485,1.8567827e-05
2061208000,2061208000,-0.0015537003,0.0016166493,0.0004119968
2061228000,2061228000,-0.0030785617,-0.0016775299,0.00093439146
2061248000,2061248000,0.00036999153,-0.00027834345,0.001405397
2061268000,2061268000,-0.00037058612,-0.00040963618,0.0015491499
2061288000,2061288000,-0.002530939,-0.0032029697,0.0014668474
2061308000,2061308000,-0.0047718305,-0.0024787837,0.0010213801
2061328000,2061328000,-0.0041398834,0.0014407844,0.0006869539
2061348000,2061348000,-0.0040379986,-0.0064386153,0.00039747177
2061368000,2061368000,0.0012028901,-0.0008543215,0.000211376
2061388000,2061388000,-0.007831696,-0.010625012,0.0004317554
2061408000,2061408000,-0.001582342,-0.005952092,0.0003081221
2061428000,2061428000,0.0007311548,-0.008360541,0.00043921033
2061448000,2061448000,0.0033574903,-0.006857494,-1.3901779e-05
2061468000,2061468000,-0.003110502,-0.014107732,-0.0001332014
2061488000,2061488000,0.003183938,-0.012490327,-0.00041520875
2061508000,2061508000,0.0060241614,-0.020777006,-0.00021510961
2061528000,2061528000,0.00384669,-0.02128141,0.00027238467
2061548000,2061548000,0.0022093197,-0.022295326,0.00031444634
2061568000,2061568000,0.007404561,-0.020619279,0.00031005524
2061588000,2061588000,-0.0014787959,-0.022949692,0.0003359543
2061608000,2061608000,0.0057699042,-0.023490435,0.00018174728
2061628000,2061628000,0.0014512544,-0.02610627,0.00058971747
2061648000,2061648000,0.0055042054,-0.02349984,0.00026763516
2061668000,2061668000,0.0063372236,-0.026583174,0.000765729
2061688000,2061688000,0.000752951,-0.017448245,0.0008801626
2061708000,2061708000,-0.0015253613,-0.02860282,0.0007369939
2061728000,2061728000,0.003445568,-0.01530358,0.0008351827
2061748000,2061748000,0.0017604462,-0.014523078,0.0012365858
2061768000,2061768000,0.00444342,-0.011963105,0.00090300234
2061788000,2061788000,-0.0023968467,-0.016017072,0.0007878849
2061808000,2061808000,0.0010500895,-0.014644032,0.00087591313
2061828000,2061828000,0.001517429,-0.020071216,0.0009204426
2061848000,2061848000,-0.00021356087,-0.009662233,0.0010516376
2061868000,2061868000,0.0029718657,-0.015464006,0.0009765294
2061888000,2061888000,0.004787538,-0.01296426,0.00080741255
2061908000,2061908000,0.0022192893,-0.021126641,0.00086436514
2061928000,2061928000,0.0014035746,-0.0113747185,0.000923627
2061948000,2061948000,-0.0001259215,-0.0103714205,0.0007732436
2061968000,2061968000,-0.00199684,-0.017751971,0.0006132262
2061988000,2061988000,-0.0003998872,-0.0149294445,0.00030975984
2062008000,2062008000,-0.000117845135,-0.0115295155,0.00070292404
2062028000,2062028000,-0.006140073,-0.0060421154,0.001120262
2062048000,2062048000,-0.0039427173,-0.0060493974,0.0011482607
2062068000,2062068000,-0.0014165235,-0.012906719,0.00077767763
2062088000,2062088000,0.0041236533,-0.011176623,0.00082605536
2062108000,2062108000,-0.00038011174,-0.011593648,0.000117915944
2062128000,2062128000,-0.0045013228,-0.00832123,-0.0002592458
2062144000,2062144000,-0.0047631697,-0.0079782065,-0.0008064225
2062168000,2062168000,0.0010635061,-0.006024237,-0.0010225137
2062188000,2062188000,-0.0053774314,-0.0025345604,-0.0012925769
2062208000,2062208000,-0.0015047531,-0.009787341,-0.00092338806
2062228000,2062228000,-0.0017767119,-0.009697204,-0.00067972066
2062248000,2062248000,0.003540907,-0.008674901,-0.00043861274
2062268000,2062268000,0.003298044,-0.004203612,8.305504e-05
2062288000,2062288000,0.0004595307,-0.011939122,0.00023574568
2062308000,2062308000,0.0011210656,-0.0065553947,0.00078017556
2062324000,2062324000,0.00017237445,-0.009430713,0.0009870508
2062348000,2062348000,0.00456377,-0.0056949165,0.0011345343
2062368000,2062368000,-0.0015218436,-0.012896869,0.0014119141
2062388000,2062388000,-0.007399074,-0.012493775,0.0020368204
2062408000,2062408000,-0.0012364301,-0.008552756,0.0022333576
2062428000,2062428000,0.00096194725,-0.008642654,0.002169202
2062448000,2062448000,-0.0028660707,-0.0043536914,0.0019400426
2062468000,2062468000,-0.00088841695,-0.014049911,0.0018230907
2062488000,2062488000,0.0044644177,-0.0104405945,0.002044959
2062508000,2062508000,0.00053547934,-0.0061385785,0.0015942737
2062528000,2062528000,-0.0041196356,-0.003994989,0.0012764685
2062548000,2062548000,-0.004998195,-0.0053833285,0.0006806155
2062568000,2062568000,-0.0019267168,-0.0078697875,0.00056349544
