timestamp,data_rate,rate_multiplier,tx_rate_avg,tx_error_rate_avg,tx_message_count,tx_buffer_overruns,rx_rate_avg,rx_message_count,rx_message_lost_count,rx_buffer_overruns,rx_parse_errors,rx_packet_drop_count,rx_message_lost_rate,type,mode,flow_control,forwarding,mavlink_v2,ftp,streams,heartbeat_type_antenna_tracker,heartbeat_type_gcs,heartbeat_type_onboard_controller,heartbeat_type_gimbal,heartbeat_type_adsb,heartbeat_type_camera,heartbeat_type_parachute,heartbeat_type_open_drone_id,heartbeat_component_telemetry_radio,heartbeat_component_log,heartbeat_component_osd,heartbeat_component_vio,heartbeat_component_pairing_manager,heartbeat_component_udp_bridge,heartbeat_component_uart_bridge,open_drone_id_system_healthy,parachute_system_healthy
2043836000,4000000.0,1.0,24883.467,0.0,845751,0,0.0,0,0,0,0,0,0.0,0,2,0,1,1,1,61,0,0,0,0,0,0,0,0,0,0,0,0,0,0,0,0,0
2045088000,4000000.0,1.0,25527.889,0.0,846270,0,0.0,0,0,0,0,0,0.0,0,2,0,1,1,1,61,0,0,0,0,0,0,0,0,0,0,0,0,0,0,0,0,0
2046088000,4000000.0,1.0,25822.709,0.0,846698,0,0.0,0,0,0,0,0,0.0,0,2,0,1,1,1,61,0,0,0,0,0,0,0,0,0,0,0,0,0,0,0,0,0
2046340000,4000000.0,1.0,25822.709,0.0,846809,0,0.0,0,0,0,0,0,0.0,0,2,0,1,1,1,61,0,0,0,0,0,0,0,0,0,0,0,0,0,0,0,0,0
2047600000,4000000.0,1.0,25546.814,0.0,847338,0,0.0,0,0,0,0,0,0.0,0,2,0,1,1,1,61,0,0,0,0,0,0,0,0,0,0,0,0,0,0,0,0,0
2048860000,4000000.0,1.0,26298.805,0.0,847877,0,0.0,0,0,0,0,0,0.0,0,2,0,1,1,1,61,0,0,0,0,0,0,0,0,0,0,0,0,0,0,0,0,0
2050116000,4000000.0,1.0,25808.766,0.0,848414,0,0.0,0,0,0,0,0,0.0,0,2,0,1,1,1,61,0,0,0,0,0,0,0,0,0,0,0,0,0,0,0,0,0
2051116000,4000000.0,1.0,25534.861,0.0,848834,0,0.0,0,0,0,0,0,0.0,0,2,0,1,1,1,61,0,0,0,0,0,0,0,0,0,0,0,0,0,0,0,0,0
2051372000,4000000.0,1.0,25534.861,0.0,848937,0,0.0,0,0,0,0,0,0.0,0,2,0,1,1,1,61,0,0,0,0,0,0,0,0,0,0,0,0,0,0,0,0,0
2052632000,4000000.0,1.0,26258.965,0.0,849476,0,0.0,0,0,0,0,0,0.0,0,2,0,1,1,1,61,0,0,0,0,0,0,0,0,0,0,0,0,0,0,0,0,0
2053892000,4000000.0,1.0,25707.172,0.0,850016,0,0.0,0,0,0,0,0,0.0,0,2,0,1,1,1,61,0,0,0,0,0,0,0,0,0,0,0,0,0,0,0,0,0
2055144000,4000000.0,1.0,25493.03,0.0,850540,0,0.0,0,0,0,0,0,0.0,0,2,0,1,1,1,61,0,0,0,0,0,0,0,0,0,0,0,0,0,0,0,0,0
2056144000,4000000.0,1.0,25807.77,0.0,850966,0,0.0,0,0,0,0,0,0.0,0,2,0,1,1,1,61,0,0,0,0,0,0,0,0,0,0,0,0,0,0,0,0,0
2056396000,4000000.0,1.0,25807.77,0.0,851073,0,0.0,0,0,0,0,0,0.0,0,2,0,1,1,1,61,0,0,0,0,0,0,0,0,0,0,0,0,0,0,0,0,0
2057648000,4000000.0,1.0,25595.62,0.0,851597,0,0.0,0,0,0,0,0,0.0,0,2,0,1,1,1,61,0,0,0,0,0,0,0,0,0,0,0,0,0,0,0,0,0
2058904000,4000000.0,1.0,25991.037,0.0,852136,0,0.0,0,0,0,0,0,0.0,0,2,0,1,1,1,61,0,0,0,0,0,0,0,0,0,0,0,0,0,0,0,0,0
2060156000,4000000.0,1.0,26077.69,0.0,852667,0,0.0,0,0,0,0,0,0.0,0,2,0,1,1,1,61,0,0,0,0,0,0,0,0,0,0,0,0,0,0,0,0,0
2061156000,4000000.0,1.0,25532.87,0.0,853089,0,0.0,0,0,0,0,0,0.0,0,2,0,1,1,1,61,0,0,0,0,0,0,0,0,0,0,0,0,0,0,0,0,0
2061412000,4000000.0,1.0,25532.87,0.0,853201,0,0.0,0,0,0,0,0,0.0,0,2,0,1,1,1,61,0,0,0,0,0,0,0,0,0,0,0,0,0,0,0,0,0
2062672000,4000000.0,1.0,25807.77,0.0,853727,0,0.0,0,0,0,0,0,0.0,0,2,0,1,1,1,61,0,0,0,0,0,0,0,0,0,0,0,0,0,0,0,0,0
2063928000,4000000.0,1.0,25692.232,0.0,854270,0,0.0,0,0,0,0,0,0.0,0,2,0,1,1,1,61,0,0,0,0,0,0,0,0,0,0,0,0,0,0,0,0,0
2065184000,4000000.0,1.0,25548.805,0.0,854793,0,0.0,0,0,0,0,0,0.0,0,2,0,1,1,1,61,0,0,0,0,0,0,0,0,0,0,0,0,0,0,0,0,0
2066184000,4000000.0,1.0,25790.838,0.0,855219,0,0.0,0,0,0,0,0,0.0,0,2,0,1,1,1,61,0,0,0,0,0,0,0,0,0,0,0,0,0,0,0,0,0
2066440000,4000000.0,1.0,25790.838,0.0,855333,0,0.0,0,0,0,0,0,0.0,0,2,0,1,1,1,61,0,0,0,0,0,0,0,0,0,0,0,0,0,0,0,0,0
2067692000,4000000.0,1.0,25530.877,0.0,855859,0,0.0,0,0,0,0,0,0.0,0,2,0,1,1,1,61,0,0,0,0,0,0,0,0,0,0,0,0,0,0,0,0,0
2068948000,4000000.0,1.0,25961.156,0.0,856395,0,0.0,0,0,0,0,0,0.0,0,2,0,1,1,1,61,0,0,0,0,0,0,0,0,0,0,0,0,0,0,0,0,0
2070204000,4000000.0,1.0,25833.666,0.0,856927,0,0.0,0,0,0,0,0,0.0,0,2,0,1,1,1,61,0,0,0,0,0,0,0,0,0,0,0,0,0,0,0,0,0
2071204000,4000000.0,1.0,25545.818,0.0,857350,0,0.0,0,0,0,0,0,0.0,0,2,0,1,1,1,61,0,0,0,0,0,0,0,0,0,0,0,0,0,0,0,0,0
2071464000,4000000.0,1.0,25545.818,0.0,857457,0,0.0,0,0,0,0,0,0.0,0,2,0,1,1,1,61,0,0,0,0,0,0,0,0,0,0,0,0,0,0,0,0,0
2072720000,4000000.0,1.0,25829.682,0.0,857993,0,0.0,0,0,0,0,0,0.0,0,2,0,1,1,1,61,0,0,0,0,0,0,0,0,0,0,0,0,0,0,0,0,0
2073976000,4000000.0,1.0,25933.268,0.0,858529,0,0.0,0,0,0,0,0,0.0,0,2,0,1,1,1,61,0,0,0,0,0,0,0,0,0,0,0,0,0,0,0,0,0
2075228000,4000000.0,1.0,25570.719,0.0,859057,0,0.0,0,0,0,0,0,0.0,0,2,0,1,1,1,61,0,0,0,0,0,0,0,0,0,0,0,0,0,0,0,0,0
2076228000,4000000.0,1.0,25743.03,0.0,859483,0,0.0,0,0,0,0,0,0.0,0,2,0,1,1,1,61,0,0,0,0,0,0,0,0,0,0,0,0,0,0,0,0,0
2076484000,4000000.0,1.0,25743.03,0.0,859585,0,0.0,0,0,0,0,0,0.0,0,2,0,1,1,1,61,0,0,0,0,0,0,0,0,0,0,0,0,0,0,0,0,0
2077740000,4000000.0,1.0,26062.5,0.0,860118,0,0.0,0,0,0,0,0,0.0,0,2,0,1,1,1,61,0,0,0,0,0,0,0,0,0,0,0,0,0,0,0,0,0
2078992000,4000000.0,1.0,25790.838,0.0,860658,0,0.0,0,0,0,0,0,0.0,0,2,0,1,1,1,61,0,0,0,0,0,0,0,0,0,0,0,0,0,0,0,0,0
2080248000,4000000.0,1.0,25794.822,0.0,861187,0,0.0,0,0,0,0,0,0.0,0,2,0,1,1,1,61,0,0,0,0,0,0,0,0,0,0,0,0,0,0,0,0,0
2081248000,4000000.0,1.0,25650.398,0.0,861609,0,0.0,0,0,0,0,0,0.0,0,2,0,1,1,1,61,0,0,0,0,0,0,0,0,0,0,0,0,0,0,0,0,0
2081500000,4000000.0,1.0,25650.398,0.0,861714,0,0.0,0,0,0,0,0,0.0,0,2,0,1,1,1,61,0,0,0,0,0,0,0,0,0,0,0,0,0,0,0,0,0
2082764000,4000000.0,1.0,26063.746,0.0,862252,0,0.0,0,0,0,0,0,0.0,0,2,0,1,1,1,61,0,0,0,0,0,0,0,0,0,0,0,0,0,0,0,0,0
2084016000,4000000.0,1.0,25642.432,0.0,862799,0,0.0,0,0,0,0,0,0.0,0,2,0,1,1,1,61,0,0,0,0,0,0,0,0,0,0,0,0,0,0,0,0,0
2085276000,4000000.0,1.0,25627.49,0.0,863323,0,0.0,0,0,0,0,0,0.0,0,2,0,1,1,1,61,0,0,0,0,0,0,0,0,0,0,0,0,0,0,0,0,0
2086276000,4000000.0,1.0,25753.984,0.0,863750,0,0.0,0,0,0,0,0,0.0,0,2,0,1,1,1,61,0,0,0,0,0,0,0,0,0,0,0,0,0,0,0,0,0
2086528000,4000000.0,1.0,25753.984,0.0,863856,0,0.0,0,0,0,0,0,0.0,0,2,0,1,1,1,61,0,0,0,0,0,0,0,0,0,0,0,0,0,0,0,0,0
2087780000,4000000.0,1.0,25783.865,0.0,864380,0,0.0,0,0,0,0,0,0.0,0,2,0,1,1,1,61,0,0,0,0,0,0,0,0,0,0,0,0,0,0,0,0,0
2089036000,4000000.0,1.0,25757.969,0.0,864925,0,0.0,0,0,0,0,0,0.0,0,2,0,1,1,1,61,0,0,0,0,0,0,0,0,0,0,0,0,0,0,0,0,0
2090036000,4000000.0,1.0,25590.639,0.0,865346,0,0.0,0,0,0,0,0,0.0,0,2,0,1,1,1,61,0,0,0,0,0,0,0,0,0,0,0,0,0,0,0,0,0
