timestamp,unallocated_torque[0],unallocated_torque[1],unallocated_torque[2],unallocated_thrust[0],unallocated_thrust[1],unallocated_thrust[2],handled_motor_failure_mask,torque_setpoint_achieved,thrust_setpoint_achieved,actuator_saturation[0],actuator_saturation[1],actuator_saturation[2],actuator_saturation[3],actuator_saturation[4],actuator_saturation[5],actuator_saturation[6],actuator_saturation[7],actuator_saturation[8],actuator_saturation[9],actuator_saturation[10],actuator_saturation[11],actuator_saturation[12],actuator_saturation[13],actuator_saturation[14],actuator_saturation[15]
2043324000,-2.3283064e-10,5.820766e-11,-2.910383e-11,0.0,0.0,-1.1641532e-10,0,1,1,0,0,0,0,2,2,2,2,2,2,2,2,2,2,2,2
2043332000,-0.0035501295,-0.003432288,-0.00020035906,0.0,0.0,-1.1641532e-10,0,0,1,-2,0,-2,0,2,2,2,2,2,2,2,2,2,2,2,2
2043524000,-0.0024502901,-0.004050378,-0.00044776543,0.0,0.0,1.1641532e-10,0,0,1,-2,0,-2,0,2,2,2,2,2,2,2,2,2,2,2,2
2043724000,0.0030404415,-0.0020037056,-0.00039433886,0.0,0.0,-2.3283064e-10,0,0,1,-2,0,-2,0,2,2,2,2,2,2,2,2,2,2,2,2
2043924000,0.00376988,-0.0060848766,-5.5098426e-05,0.0,0.0,1.1641532e-10,0,0,1,-2,0,-2,0,2,2,2,2,2,2,2,2,2,2,2,2
2044124000,0.001298894,-0.0052958084,-7.944511e-05,0.0,0.0,1.1641532e-10,0,0,1,-2,0,-2,0,2,2,2,2,2,2,2,2,2,2,2,2
2044324000,0.0005542326,-0.0047364035,0.0002653118,0.0,0.0,0.0,0,0,1,-2,0,-2,0,2,2,2,2,2,2,2,2,2,2,2,2
2044524000,9.313226e-10,0.0,-1.2805685e-09,0.0,0.0,-1.8626451e-09,0,1,1,0,0,0,0,2,2,2,2,2,2,2,2,2,2,2,2
2044724000,1.8626451e-09,-9.313226e-10,-2.2992026e-09,0.0,0.0,-3.7252903e-09,0,1,1,0,0,0,0,2,2,2,2,2,2,2,2,2,2,2,2
2044924000,-9.313226e-10,1.3969839e-09,-1.7462298e-09,0.0,0.0,0.0,0,1,1,0,0,0,0,2,2,2,2,2,2,2,2,2,2,2,2
2045124000,-5.2386895e-10,-9.313226e-10,7.625204e-09,0.0,0.0,0.0,0,1,1,0,0,0,0,2,2,2,2,2,2,2,2,2,2,2,2
2045324000,5.5879354e-09,0.0,5.638867e-09,0.0,0.0,-1.4901161e-08,0,1,1,0,0,0,0,2,2,2,2,2,2,2,2,2,2,2,2
2045524000,3.7252903e-08,0.0,-9.416908e-09,0.0,0.0,-2.9802322e-08,0,1,1,0,0,0,0,2,2,2,2,2,2,2,2,2,2,2,2
2045724000,9.313226e-10,3.7252903e-09,1.1204975e-09,0.0,0.0,0.0,0,1,1,0,0,0,0,2,2,2,2,2,2,2,2,2,2,2,2
2045924000,-1.8328592e-08,7.450581e-09,1.6007107e-09,0.0,0.0,0.0,0,1,1,0,0,0,0,2,2,2,2,2,2,2,2,2,2,2,2
2046124000,-2.3283064e-09,-3.7252903e-09,-1.8073479e-08,0.0,0.0,0.0,0,1,1,0,0,0,0,2,2,2,2,2,2,2,2,2,2,2,2
2046324000,-1.8626451e-08,-3.7252903e-09,-3.3411197e-08,0.0,0.0,-2.9802322e-08,0,1,1,0,0,0,0,2,2,2,2,2,2,2,2,2,2,2,2
2046524000,3.7252903e-09,-1.3038516e-08,7.1595423e-09,0.0,0.0,-2.9802322e-08,0,1,1,0,0,0,0,2,2,2,2,2,2,2,2,2,2,2,2
2046724000,4.1909516e-08,-1.6763806e-08,4.452886e-09,0.0,0.0,0.0,0,1,1,0,0,0,0,2,2,2,2,2,2,2,2,2,2,2,2
2046924000,4.656613e-09,-1.1175871e-08,1.1641532e-10,0.0,0.0,-2.9802322e-08,0,1,1,0,0,0,0,2,2,2,2,2,2,2,2,2,2,2,2
2047124000,-6.519258e-09,3.7252903e-09,-2.1638698e-08,0.0,0.0,0.0,0,1,1,0,0,0,0,2,2,2,2,2,2,2,2,2,2,2,2
2047324000,6.146729e-08,-7.450581e-09,-3.2538082e-08,0.0,0.0,-5.9604645e-08,0,1,1,0,0,0,0,2,2,2,2,2,2,2,2,2,2,2,2
2047524000,3.585592e-08,-2.6077032e-08,-3.4924597e-10,0.0,0.0,-5.9604645e-08,0,1,1,0,0,0,0,2,2,2,2,2,2,2,2,2,2,2,2
2047724000,2.9802322e-08,-1.4901161e-08,2.2700988e-09,0.0,0.0,-5.9604645e-08,0,1,1,0,0,0,0,2,2,2,2,2,2,2,2,2,2,2,2
2047924000,-4.8428774e-08,7.450581e-09,3.2159733e-09,0.0,0.0,0.0,0,1,1,0,0,0,0,2,2,2,2,2,2,2,2,2,2,2,2
2048124000,-5.4948032e-08,-2.9802322e-08,7.887138e-09,0.0,0.0,0.0,0,1,1,0,0,0,0,2,2,2,2,2,2,2,2,2,2,2,2
2048324000,-6.9971065e-08,-4.1909516e-08,1.8335413e-08,0.0,0.0,-5.9604645e-08,0,1,1,0,0,0,0,2,2,2,2,2,2,2,2,2,2,2,2
2048524000,4.5256456e-08,1.14087015e-08,1.2674718e-08,0.0,0.0,-5.9604645e-08,0,1,1,0,0,0,0,2,2,2,2,2,2,2,2,2,2,2,2
2048724000,2.3748726e-08,-1.0244548e-08,-1.9957952e-08,0.0,0.0,0.0,0,1,1,0,0,0,0,2,2,2,2,2,2,2,2,2,2,2,2
2048924000,-2.8056093e-08,1.7113052e-08,2.9685907e-09,0.0,0.0,-5.9604645e-08,0,1,1,0,0,0,0,2,2,2,2,2,2,2,2,2,2,2,2
2049124000,-2.3224857e-08,5.9371814e-09,1.1990778e-08,0.0,0.0,-5.9604645e-08,0,1,1,0,0,0,0,2,2,2,2,2,2,2,2,2,2,2,2
2049324000,-2.188608e-08,-2.0372681e-08,1.4028046e-08,0.0,0.0,-5.9604645e-08,0,1,1,0,0,0,0,2,2,2,2,2,2,2,2,2,2,2,2
2049524000,-3.213063e-08,-4.773028e-09,4.48199e-09,0.0,0.0,-5.9604645e-08,0,1,1,0,0,0,0,2,2,2,2,2,2,2,2,2,2,2,2
2049724000,5.7043508e-09,-2.142042e-08,-1.830631e-08,0.0,0.0,0.0,0,1,1,0,0,0,0,2,2,2,2,2,2,2,2,2,2,2,2
2049924000,2.3283064e-09,1.5599653e-08,1.071021e-08,0.0,0.0,0.0,0,1,1,0,0,0,0,2,2,2,2,2,2,2,2,2,2,2,2
2050124000,2.2992026e-08,1.6298145e-08,-3.6365236e-08,0.0,0.0,0.0,0,1,1,0,0,0,0,2,2,2,2,2,2,2,2,2,2,2,2
2050324000,-6.7520887e-09,-3.7252903e-08,-3.796231e-09,0.0,0.0,-5.9604645e-08,0,1,1,0,0,0,0,2,2,2,2,2,2,2,2,2,2,2,2
2050524000,-3.8882717e-08,1.0244548e-08,8.731149e-11,0.0,0.0,-5.9604645e-08,0,1,1,0,0,0,0,2,2,2,2,2,2,2,2,2,2,2,2
2050724000,2.6542693e-08,3.958121e-09,1.8626451e-09,0.0,0.0,0.0,0,1,1,0,0,0,0,2,2,2,2,2,2,2,2,2,2,2,2
2050924000,2.142042e-08,1.816079e-08,-1.094304e-08,0.0,0.0,-5.9604645e-08,0,1,1,0,0,0,0,2,2,2,2,2,2,2,2,2,2,2,2
2051124000,-6.868504e-09,-5.098991e-08,1.9790605e-09,0.0,0.0,0.0,0,1,1,0,0,0,0,2,2,2,2,2,2,2,2,2,2,2,2
2051324000,-1.8859282e-08,-4.5343768e-08,2.5529516e-09,0.0,0.0,0.0,0,1,1,0,0,0,0,2,2,2,2,2,2,2,2,2,2,2,2
2051524000,2.2351742e-08,1.5366822e-08,3.5506673e-09,0.0,0.0,0.0,0,1,1,0,0,0,0,2,2,2,2,2,2,2,2,2,2,2,2
2051724000,5.820766e-10,-2.5029294e-09,3.1883246e-08,0.0,0.0,0.0,0,1,1,0,0,0,0,2,2,2,2,2,2,2,2,2,2,2,2
2051924000,2.561137e-09,1.3853423e-08,2.1173037e-09,0.0,0.0,0.0,0,1,1,0,0,0,0,2,2,2,2,2,2,2,2,2,2,2,2
2052124000,-6.472692e-08,-1.8626451e-09,-2.0489097e-08,0.0,0.0,-5.9604645e-08,0,1,1,0,0,0,0,2,2,2,2,2,2,2,2,2,2,2,2
2052324000,-1.1641532e-09,3.3760443e-08,5.675247e-09,0.0,0.0,-5.9604645e-08,0,1,1,0,0,0,0,2,2,2,2,2,2,2,2,2,2,2,2
2052524000,5.727634e-08,-3.7252903e-08,-2.910383e-09,0.0,0.0,0.0,0,1,1,0,0,0,0,2,2,2,2,2,2,2,2,2,2,2,2
2052724000,-3.3178367e-09,-2.3748726e-08,-6.9849193e-10,0.0,0.0,0.0,0,1,1,0,0,0,0,2,2,2,2,2,2,2,2,2,2,2,2
2052924000,1.7229468e-08,-3.2247044e-08,9.95351e-09,0.0,0.0,-5.9604645e-08,0,1,1,0,0,0,0,2,2,2,2,2,2,2,2,2,2,2,2
2053124000,-2.0954758e-08,2.0489097e-08,-4.9069058e-08,0.0,0.0,-5.9604645e-08,0,1,1,0,0,0,0,2,2,2,2,2,2,2,2,2,2,2,2
2053324000,-3.3993274e-08,-3.3760443e-08,-2.8230716e-09,0.0,0.0,-5.9604645e-08,0,1,1,0,0,0,0,2,2,2,2,2,2,2,2,2,2,2,2
2053524000,1.1466909e-08,6.9849193e-10,-3.3527613e-08,0.0,0.0,-5.9604645e-08,0,1,1,0,0,0,0,2,2,2,2,2,2,2,2,2,2,2,2
2053724000,2.1536835e-08,1.7229468e-08,2.0372681e-08,0.0,0.0,0.0,0,1,1,0,0,0,0,2,2,2,2,2,2,2,2,2,2,2,2
2053924000,-3.5070116e-08,-2.4432666e-08,2.0954758e-09,0.0,0.0,0.0,0,1,1,0,0,0,0,2,2,2,2,2,2,2,2,2,2,2,2
2054124000,5.9604645e-08,-6.9849193e-09,-1.3737008e-08,0.0,0.0,0.0,0,1,1,0,0,0,0,2,2,2,2,2,2,2,2,2,2,2,2
2054324000,-1.1175871e-08,-8.8475645e-09,-1.1990778e-08,0.0,0.0,-5.9604645e-08,0,1,1,0,0,0,0,2,2,2,2,2,2,2,2,2,2,2,2
2054524000,5.6345016e-08,-1.8626451e-08,-2.4971087e-08,0.0,0.0,-5.9604645e-08,0,1,1,0,0,0,0,2,2,2,2,2,2,2,2,2,2,2,2
2054724000,4.4237822e-09,2.7474016e-08,-8.712959e-09,0.0,0.0,-5.9604645e-08,0,1,1,0,0,0,0,2,2,2,2,2,2,2,2,2,2,2,2
2054924000,-3.3760443e-08,-2.3283064e-10,-5.47152e-09,0.0,0.0,0.0,0,1,1,0,0,0,0,2,2,2,2,2,2,2,2,2,2,2,2
2055124000,-5.5879354e-08,9.138603e-09,-2.2046152e-08,0.0,0.0,-5.9604645e-08,0,1,1,0,0,0,0,2,2,2,2,2,2,2,2,2,2,2,2
2055324000,-4.575122e-08,-4.656613e-10,3.5041012e-08,0.0,0.0,-5.9604645e-08,0,1,1,0,0,0,0,2,2,2,2,2,2,2,2,2,2,2,2
2055524000,1.3780664e-08,3.958121e-08,-4.307367e-09,0.0,0.0,-5.9604645e-08,0,1,1,0,0,0,0,2,2,2,2,2,2,2,2,2,2,2,2
2055724000,-3.213063e-08,1.7869752e-08,7.9744495e-09,0.0,0.0,0.0,0,1,1,0,0,0,0,2,2,2,2,2,2,2,2,2,2,2,2
2055924000,-3.3527613e-08,-1.816079e-08,2.7590431e-08,0.0,0.0,0.0,0,1,1,0,0,0,0,2,2,2,2,2,2,2,2,2,2,2,2
2056124000,2.5844201e-08,3.585592e-08,-2.028537e-08,0.0,0.0,0.0,0,1,1,0,0,0,0,2,2,2,2,2,2,2,2,2,2,2,2
2056324000,-4.9592927e-08,1.967419e-08,-9.6915755e-09,0.0,0.0,0.0,0,1,1,0,0,0,0,2,2,2,2,2,2,2,2,2,2,2,2
2056524000,1.5599653e-08,5.1688403e-08,7.479684e-09,0.0,0.0,0.0,0,1,1,0,0,0,0,2,2,2,2,2,2,2,2,2,2,2,2
2056724000,8.218922e-08,-1.44355e-08,1.3766112e-08,0.0,0.0,-5.9604645e-08,0,1,1,0,0,0,0,2,2,2,2,2,2,2,2,2,2,2,2
2056924000,-4.656613e-09,5.820766e-10,2.8390787e-08,0.0,0.0,-5.9604645e-08,0,1,1,0,0,0,0,2,2,2,2,2,2,2,2,2,2,2,2
2057124000,1.6996637e-08,6.519258e-09,-7.392373e-09,0.0,0.0,-5.9604645e-08,0,1,1,0,0,0,0,2,2,2,2,2,2,2,2,2,2,2,2
2057324000,2.2351742e-08,1.3038516e-08,1.1175871e-08,0.0,0.0,0.0,0,1,1,0,0,0,0,2,2,2,2,2,2,2,2,2,2,2,2
2057524000,-1.3038516e-08,6.170012e-08,-1.1175871e-08,0.0,0.0,0.0,0,1,1,0,0,0,0,2,2,2,2,2,2,2,2,2,2,2,2
2057724000,6.9849193e-09,-1.9790605e-08,-1.8626451e-09,0.0,0.0,-5.9604645e-08,0,1,1,0,0,0,0,2,2,2,2,2,2,2,2,2,2,2,2
2057924000,-2.9802322e-08,-2.7939677e-09,6.519258e-09,0.0,0.0,0.0,0,1,1,0,0,0,0,2,2,2,2,2,2,2,2,2,2,2,2
2058124000,6.6589564e-08,2.3283064e-09,4.1909516e-09,0.0,0.0,0.0,0,1,1,0,0,0,0,2,2,2,2,2,2,2,2,2,2,2,2
2058324000,6.030314e-08,-3.131572e-08,2.7939677e-09,0.0,0.0,0.0,0,1,1,0,0,0,0,2,2,2,2,2,2,2,2,2,2,2,2
2058524000,-5.122274e-09,-2.3283064e-08,-1.6763806e-08,0.0,0.0,-5.9604645e-08,0,1,1,0,0,0,0,2,2,2,2,2,2,2,2,2,2,2,2
2058724000,-1.2572855e-08,-1.3038516e-08,-2.4214387e-08,0.0,0.0,0.0,0,1,1,0,0,0,0,2,2,2,2,2,2,2,2,2,2,2,2
2058924000,1.816079e-08,2.2118911e-08,1.6763806e-08,0.0,0.0,-5.9604645e-08,0,1,1,0,0,0,0,2,2,2,2,2,2,2,2,2,2,2,2
2059124000,-1.2433156e-07,-9.313226e-10,4.1909516e-09,0.0,0.0,-5.9604645e-08,0,1,1,0,0,0,0,2,2,2,2,2,2,2,2,2,2,2,2
2059324000,5.029142e-08,2.0023435e-08,-3.1548552e-08,0.0,0.0,0.0,0,1,1,0,0,0,0,2,2,2,2,2,2,2,2,2,2,2,2
2059524000,-1.6763806e-08,-3.5390258e-08,-1.3969839e-08,0.0,0.0,0.0,0,1,1,0,0,0,0,2,2,2,2,2,2,2,2,2,2,2,2
2059724000,-1.4784746e-08,3.7252903e-09,2.0198058e-08,0.0,0.0,0.0,0,1,1,0,0,0,0,2,2,2,2,2,2,2,2,2,2,2,2
2059924000,-3.0267984e-08,1.8626451e-09,2.0954758e-09,0.0,0.0,-5.9604645e-08,0,1,1,0,0,0,0,2,2,2,2,2,2,2,2,2,2,2,2
2060124000,2.3748726e-08,4.5169145e-08,-3.3338438e-08,0.0,0.0,-5.9604645e-08,0,1,1,0,0,0,0,2,2,2,2,2,2,2,2,2,2,2,2
2060324000,-1.6298145e-08,-5.5879354e-09,-2.5727786e-08,0.0,0.0,-5.9604645e-08,0,1,1,0,0,0,0,2,2,2,2,2,2,2,2,2,2,2,2
2060524000,3.2014214e-08,-1.8626451e-09,-1.094304e-08,0.0,0.0,0.0,0,1,1,0,0,0,0,2,2,2,2,2,2,2,2,2,2,2,2
2060724000,2.0256266e-08,3.0733645e-08,-1.2805685e-08,0.0,0.0,-5.9604645e-08,0,1,1,0,0,0,0,2,2,2,2,2,2,2,2,2,2,2,2
2060924000,3.7252903e-08,2.4214387e-08,2.9001967e-08,0.0,0.0,5.9604645e-08,0,1,1,0,0,0,0,2,2,2,2,2,2,2,2,2,2,2,2
2061124000,2.6077032e-08,2.514571e-08,1.9848812e-08,0.0,0.0,0.0,0,1,1,0,0,0,0,2,2,2,2,2,2,2,2,2,2,2,2
2061324000,-4.5634806e-08,3.783498e-08,4.0745363e-09,0.0,0.0,-5.9604645e-08,0,1,1,0,0,0,0,2,2,2,2,2,2,2,2,2,2,2,2
2061524000,1.6530976e-08,0.0,-1.5250407e-08,0.0,0.0,-5.9604645e-08,0,1,1,0,0,0,0,2,2,2,2,2,2,2,2,2,2,2,2
2061724000,-4.703179e-08,1.8626451e-08,8.614734e-09,0.0,0.0,0.0,0,1,1,0,0,0,0,2,2,2,2,2,2,2,2,2,2,2,2
2061924000,6.752089e-08,-9.313226e-09,-4.010508e-08,0.0,0.0,0.0,0,1,1,0,0,0,0,2,2,2,2,2,2,2,2,2,2,2,2
2062124000,2.8871e-08,-2.0489097e-08,-2.1391315e-09,0.0,0.0,-5.9604645e-08,0,1,1,0,0,0,0,2,2,2,2,2,2,2,2,2,2,2,2
2062324000,2.0692823e-08,3.7252903e-08,-1.6298145e-09,0.0,0.0,-5.9604645e-08,0,1,1,0,0,0,0,2,2,2,2,2,2,2,2,2,2,2,2
2062524000,-2.514571e-08,-4.656613e-10,2.4680048e-08,0.0,0.0,0.0,0,1,1,0,0,0,0,2,2,2,2,2,2,2,2,2,2,2,2
2062724000,1.6065314e-08,-9.313226e-09,8.614734e-09,0.0,0.0,0.0,0,1,1,0,0,0,0,2,2,2,2,2,2,2,2,2,2,2,2
2062924000,1.3504177e-08,-2.6542693e-08,2.7823262e-08,0.0,0.0,0.0,0,1,1,0,0,0,0,2,2,2,2,2,2,2,2,2,2,2,2
2063124000,1.2805685e-08,-9.313226e-10,-1.1292286e-08,0.0,0.0,0.0,0,1,1,0,0,0,0,2,2,2,2,2,2,2,2,2,2,2,2
2063324000,-3.8417056e-08,2.0954758e-08,2.6804628e-08,0.0,0.0,0.0,0,1,1,0,0,0,0,2,2,2,2,2,2,2,2,2,2,2,2
2063524000,-4.0512532e-08,2.3748726e-08,-3.4924597e-09,0.0,0.0,-5.9604645e-08,0,1,1,0,0,0,0,2,2,2,2,2,2,2,2,2,2,2,2
2063724000,-3.2188836e-08,1.9557774e-08,-1.1234079e-08,0.0,0.0,0.0,0,1,1,0,0,0,0,2,2,2,2,2,2,2,2,2,2,2,2
2063924000,5.1455572e-08,2.2351742e-08,2.2118911e-09,0.0,0.0,0.0,0,1,1,0,0,0,0,2,2,2,2,2,2,2,2,2,2,2,2
2064124000,4.4237822e-09,9.546056e-09,-1.2223609e-08,0.0,0.0,-5.9604645e-08,0,1,1,0,0,0,0,2,2,2,2,2,2,2,2,2,2,2,2
2064324000,3.3527613e-08,3.1897798e-08,-3.655441e-08,0.0,0.0,0.0,0,1,1,0,0,0,0,2,2,2,2,2,2,2,2,2,2,2,2
2064524000,1.7695129e-08,-2.8579962e-08,2.1449523e-08,0.0,0.0,5.9604645e-08,0,1,1,0,0,0,0,2,2,2,2,2,2,2,2,2,2,2,2
2064724000,1.8626451e-08,-5.5879354e-09,-1.3969839e-08,0.0,0.0,-5.9604645e-08,0,1,1,0,0,0,0,2,2,2,2,2,2,2,2,2,2,2,2
2064924000,-4.377216e-08,-2.8405339e-08,3.3527613e-08,0.0,0.0,-5.9604645e-08,0,1,1,0,0,0,0,2,2,2,2,2,2,2,2,2,2,2,2
2065124000,7.613562e-08,3.8999133e-09,-3.7252903e-09,0.0,0.0,-5.9604645e-08,0,1,1,0,0,0,0,2,2,2,2,2,2,2,2,2,2,2,2
2065324000,1.21071935e-08,-1.3038516e-08,-1.7695129e-08,0.0,0.0,-5.9604645e-08,0,1,1,0,0,0,0,2,2,2,2,2,2,2,2,2,2,2,2
2065524000,-5.0960807e-08,-2.6542693e-08,-7.450581e-09,0.0,0.0,-5.9604645e-08,0,1,1,0,0,0,0,2,2,2,2,2,2,2,2,2,2,2,2
2065724000,4.004687e-08,2.8871e-08,-9.313226e-09,0.0,0.0,-5.9604645e-08,0,1,1,0,0,0,0,2,2,2,2,2,2,2,2,2,2,2,2
2065924000,-3.2654498e-08,-8.8475645e-09,-1.5832484e-08,0.0,0.0,-5.9604645e-08,0,1,1,0,0,0,0,2,2,2,2,2,2,2,2,2,2,2,2
2066124000,-5.6112185e-08,-1.2863893e-08,-3.7252903e-09,0.0,0.0,0.0,0,1,1,0,0,0,0,2,2,2,2,2,2,2,2,2,2,2,2
2066324000,2.3748726e-08,2.3283064e-09,-4.0978193e-08,0.0,0.0,-5.9604645e-08,0,1,1,0,0,0,0,2,2,2,2,2,2,2,2,2,2,2,2
2066524000,-2.0489097e-08,-3.1432137e-08,-1.4901161e-08,0.0,0.0,-5.9604645e-08,0,1,1,0,0,0,0,2,2,2,2,2,2,2,2,2,2,2,2
2066724000,-3.0733645e-08,1.5250407e-08,2.6077032e-08,0.0,0.0,-1.1920929e-07,0,1,1,0,0,0,0,2,2,2,2,2,2,2,2,2,2,2,2
2066924000,-4.2375177e-08,-4.0978193e-08,3.3527613e-08,0.0,0.0,-5.9604645e-08,0,1,1,0,0,0,0,2,2,2,2,2,2,2,2,2,2,2,2
2067124000,-1.3620593e-08,-1.3969839e-09,-2.6077032e-08,0.0,0.0,0.0,0,1,1,0,0,0,0,2,2,2,2,2,2,2,2,2,2,2,2
2067324000,2.7008355e-08,2.561137e-08,-6.4028427e-10,0.0,0.0,-5.9604645e-08,0,1,1,0,0,0,0,2,2,2,2,2,2,2,2,2,2,2,2
2067524000,-2.7939677e-08,-1.3387762e-08,1.8626451e-08,0.0,0.0,-1.1920929e-07,0,1,1,0,0,0,0,2,2,2,2,2,2,2,2,2,2,2,2
2067724000,0.0,-3.1664968e-08,-4.656613e-10,0.0,0.0,0.0,0,1,1,0,0,0,0,2,2,2,2,2,2,2,2,2,2,2,2
2067924000,-2.3748726e-08,-1.8626451e-08,1.8626451e-08,0.0,0.0,0.0,0,1,1,0,0,0,0,2,2,2,2,2,2,2,2,2,2,2,2
2068124000,-3.981404e-08,-5.5879354e-09,1.9324943e-08,0.0,0.0,-5.9604645e-08,0,1,1,0,0,0,0,2,2,2,2,2,2,2,2,2,2,2,2
2068324000,-3.0267984e-08,3.3527613e-08,8.8475645e-09,0.0,0.0,-5.9604645e-08,0,1,1,0,0,0,0,2,2,2,2,2,2,2,2,2,2,2,2
2068524000,-8.731149e-08,3.7252903e-09,-2.7939677e-09,0.0,0.0,-5.9604645e-08,0,1,1,0,0,0,0,2,2,2,2,2,2,2,2,2,2,2,2
2068724000,-4.656613e-09,2.7939677e-08,1.7229468e-08,0.0,0.0,0.0,0,1,1,0,0,0,0,2,2,2,2,2,2,2,2,2,2,2,2
2068924000,2.6542693e-08,3.5390258e-08,1.21071935e-08,0.0,0.0,0.0,0,1,1,0,0,0,0,2,2,2,2,2,2,2,2,2,2,2,2
2069124000,-1.3504177e-08,2.4447218e-09,4.656613e-09,0.0,0.0,0.0,0,1,1,0,0,0,0,2,2,2,2,2,2,2,2,2,2,2,2
2069324000,-4.2142347e-08,1.5366822e-08,-3.1664968e-08,0.0,0.0,0.0,0,1,1,0,0,0,0,2,2,2,2,2,2,2,2,2,2,2,2
2069524000,3.4458935e-08,9.313226e-09,-2.0489097e-08,0.0,0.0,5.9604645e-08,0,1,1,0,0,0,0,2,2,2,2,2,2,2,2,2,2,2,2
2069724000,1.7229468e-08,2.7939677e-08,-1.8626451e-09,0.0,0.0,-5.9604645e-08,0,1,1,0,0,0,0,2,2,2,2,2,2,2,2,2,2,2,2
2069924000,4.6100467e-08,4.656613e-09,-1.1641532e-09,0.0,0.0,-5.9604645e-08,0,1,1,0,0,0,0,2,2,2,2,2,2,2,2,2,2,2,2
2070124000,-1.9557774e-08,-4.1909516e-08,1.3969839e-08,0.0,0.0,-5.9604645e-08,0,1,1,0,0,0,0,2,2,2,2,2,2,2,2,2,2,2,2
2070324000,4.9360096e-08,-1.3038516e-08,-3.958121e-09,0.0,0.0,0.0,0,1,1,0,0,0,0,2,2,2,2,2,2,2,2,2,2,2,2
2070524000,-2.834713e-08,-9.313226e-10,2.708839e-08,0.0,0.0,-5.9604645e-08,0,1,1,0,0,0,0,2,2,2,2,2,2,2,2,2,2,2,2
2070724000,1.9324943e-08,-2.3283064e-08,-1.816079e-08,0.0,0.0,-5.9604645e-08,0,1,1,0,0,0,0,2,2,2,2,2,2,2,2,2,2,2,2
2070924000,-9.062205e-09,1.6996637e-08,1.0826625e-08,0.0,0.0,-5.9604645e-08,0,1,1,0,0,0,0,2,2,2,2,2,2,2,2,2,2,2,2
2071124000,6.519258e-08,9.313226e-10,-1.4551915e-08,0.0,0.0,-5.9604645e-08,0,1,1,0,0,0,0,2,2,2,2,2,2,2,2,2,2,2,2
2071324000,7.450581e-09,2.0954758e-08,1.3737008e-08,0.0,0.0,0.0,0,1,1,0,0,0,0,2,2,2,2,2,2,2,2,2,2,2,2
2071524000,-4.0512532e-08,-3.2028765e-08,-6.693881e-09,0.0,0.0,-1.1920929e-07,0,1,1,0,0,0,0,2,2,2,2,2,2,2,2,2,2,2,2
2071724000,-4.656613e-10,-2.142042e-08,2.4447218e-09,0.0,0.0,0.0,0,1,1,0,0,0,0,2,2,2,2,2,2,2,2,2,2,2,2
2071924000,-2.8521754e-08,9.080395e-09,-2.0314474e-08,0.0,0.0,-5.9604645e-08,0,1,1,0,0,0,0,2,2,2,2,2,2,2,2,2,2,2,2
2072124000,3.3178367e-08,2.6775524e-08,-1.9441359e-08,0.0,0.0,0.0,0,1,1,0,0,0,0,2,2,2,2,2,2,2,2,2,2,2,2
2072324000,-2.2351742e-08,-1.14087015e-08,-1.3969839e-08,0.0,0.0,-1.1920929e-07,0,1,1,0,0,0,0,2,2,2,2,2,2,2,2,2,2,2,2
2072524000,-7.962808e-08,1.1641532e-08,2.4214387e-08,0.0,0.0,-1.1920929e-07,0,1,1,0,0,0,0,2,2,2,2,2,2,2,2,2,2,2,2
2072724000,-8.119969e-08,-5.5879354e-09,-2.0838343e-08,0.0,0.0,0.0,0,1,1,0,0,0,0,2,2,2,2,2,2,2,2,2,2,2,2
2072924000,4.9825758e-08,-2.142042e-08,1.5366822e-08,0.0,0.0,-5.9604645e-08,0,1,1,0,0,0,0,2,2,2,2,2,2,2,2,2,2,2,2
2073124000,2.6193447e-09,2.142042e-08,-1.4610123e-08,0.0,0.0,-5.9604645e-08,0,1,1,0,0,0,0,2,2,2,2,2,2,2,2,2,2,2,2
2073324000,-4.726462e-08,-1.1175871e-08,2.4796464e-08,0.0,0.0,0.0,0,1,1,0,0,0,0,2,2,2,2,2,2,2,2,2,2,2,2
2073524000,6.193295e-08,-7.683411e-09,1.4260877e-08,0.0,0.0,-5.9604645e-08,0,1,1,0,0,0,0,2,2,2,2,2,2,2,2,2,2,2,2
2073724000,4.749745e-08,-8.96398e-09,-1.816079e-08,0.0,0.0,-5.9604645e-08,0,1,1,0,0,0,0,2,2,2,2,2,2,2,2,2,2,2,2
2073924000,5.5413693e-08,-1.9790605e-09,-9.19681e-09,0.0,0.0,0.0,0,1,1,0,0,0,0,2,2,2,2,2,2,2,2,2,2,2,2
2074124000,-2.0489097e-08,2.188608e-08,-1.1175871e-08,0.0,0.0,-5.9604645e-08,0,1,1,0,0,0,0,2,2,2,2,2,2,2,2,2,2,2,2
2074324000,-6.6589564e-08,2.4709152e-08,3.7252903e-09,0.0,0.0,0.0,0,1,1,0,0,0,0,2,2,2,2,2,2,2,2,2,2,2,2
2074524000,-3.9115548e-08,9.313226e-10,-3.7252903e-09,0.0,0.0,0.0,0,1,1,0,0,0,0,2,2,2,2,2,2,2,2,2,2,2,2
2074724000,-4.1909516e-08,2.4214387e-08,1.1175871e-08,0.0,0.0,0.0,0,1,1,0,0,0,0,2,2,2,2,2,2,2,2,2,2,2,2
2074924000,-2.4214387e-08,-4.2375177e-08,0.0,0.0,0.0,0.0,0,1,1,0,0,0,0,2,2,2,2,2,2,2,2,2,2,2,2
2075124000,-4.377216e-08,2.3283064e-08,0.0,0.0,0.0,-5.9604645e-08,0,1,1,0,0,0,0,2,2,2,2,2,2,2,2,2,2,2,2
2075324000,-9.778887e-09,2.3224857e-08,-1.8626451e-09,0.0,0.0,0.0,0,1,1,0,0,0,0,2,2,2,2,2,2,2,2,2,2,2,2
2075524000,2.6077032e-08,1.5133992e-08,-1.6763806e-08,0.0,0.0,-5.9604645e-08,0,1,1,0,0,0,0,2,2,2,2,2,2,2,2,2,2,2,2
2075724000,5.122274e-09,-3.259629e-09,-1.3038516e-08,0.0,0.0,-5.9604645e-08,0,1,1,0,0,0,0,2,2,2,2,2,2,2,2,2,2,2,2
2075924000,2.8871e-08,-2.7182978e-08,-5.5879354e-09,0.0,0.0,-5.9604645e-08,0,1,1,0,0,0,0,2,2,2,2,2,2,2,2,2,2,2,2
2076124000,4.9825758e-08,-1.3969839e-08,2.0954758e-09,0.0,0.0,0.0,0,1,1,0,0,0,0,2,2,2,2,2,2,2,2,2,2,2,2
2076324000,-4.749745e-08,-1.0244548e-08,-1.1175871e-08,0.0,0.0,-5.9604645e-08,0,1,1,0,0,0,0,2,2,2,2,2,2,2,2,2,2,2,2
2076524000,1.9557774e-08,5.122274e-08,4.9825758e-08,0.0,0.0,0.0,0,1,1,0,0,0,0,2,2,2,2,2,2,2,2,2,2,2,2
2076724000,-5.7742e-08,-2.2351742e-08,-1.8626451e-09,0.0,0.0,0.0,0,1,1,0,0,0,0,2,2,2,2,2,2,2,2,2,2,2,2
2076924000,1.618173e-08,3.7252903e-09,1.9790605e-08,0.0,0.0,-5.9604645e-08,0,1,1,0,0,0,0,2,2,2,2,2,2,2,2,2,2,2,2
2077124000,-2.0954758e-08,8.381903e-09,3.7252903e-09,0.0,0.0,0.0,0,1,1,0,0,0,0,2,2,2,2,2,2,2,2,2,2,2,2
2077324000,3.306195e-08,-4.1909516e-08,4.0978193e-08,0.0,0.0,0.0,0,1,1,0,0,0,0,2,2,2,2,2,2,2,2,2,2,2,2
2077524000,-4.0978193e-08,3.9115548e-08,1.5832484e-08,0.0,0.0,-5.9604645e-08,0,1,1,0,0,0,0,2,2,2,2,2,2,2,2,2,2,2,2
2077724000,3.0500814e-08,6.519258e-09,-1.8626451e-09,0.0,0.0,-5.9604645e-08,0,1,1,0,0,0,0,2,2,2,2,2,2,2,2,2,2,2,2
2077924000,-2.5844201e-08,-2.514571e-08,2.9802322e-08,0.0,0.0,0.0,0,1,1,0,0,0,0,2,2,2,2,2,2,2,2,2,2,2,2
2078124000,-5.9138983e-08,-1.071021e-08,2.142042e-08,0.0,0.0,0.0,0,1,1,0,0,0,0,2,2,2,2,2,2,2,2,2,2,2,2
2078324000,4.284084e-08,2.142042e-08,2.3283064e-08,0.0,0.0,0.0,0,1,1,0,0,0,0,2,2,2,2,2,2,2,2,2,2,2,2
2078524000,-4.6100467e-08,6.519258e-09,2.4214387e-08,0.0,0.0,-5.9604645e-08,0,1,1,0,0,0,0,2,2,2,2,2,2,2,2,2,2,2,2
2078724000,-1.8626451e-09,6.0535967e-09,-8.1490725e-09,0.0,0.0,0.0,0,1,1,0,0,0,0,2,2,2,2,2,2,2,2,2,2,2,2
2078924000,-3.556488e-08,-2.1071173e-08,-5.5879354e-09,0.0,0.0,-5.9604645e-08,0,1,1,0,0,0,0,2,2,2,2,2,2,2,2,2,2,2,2
2079124000,-1.3504177e-08,3.6030542e-08,-3.1199306e-08,0.0,0.0,0.0,0,1,1,0,0,0,0,2,2,2,2,2,2,2,2,2,2,2,2
2079324000,2.3981556e-08,6.0535967e-09,1.0128133e-08,0.0,0.0,0.0,0,1,1,0,0,0,0,2,2,2,2,2,2,2,2,2,2,2,2
2079524000,-1.9790605e-09,-2.9802322e-08,2.7939677e-09,0.0,0.0,-5.9604645e-08,0,1,1,0,0,0,0,2,2,2,2,2,2,2,2,2,2,2,2
2079724000,5.448237e-08,-1.5599653e-08,3.3687684e-08,0.0,0.0,-5.9604645e-08,0,1,1,0,0,0,0,2,2,2,2,2,2,2,2,2,2,2,2
2079924000,2.2817403e-08,1.071021e-08,-1.2572855e-08,0.0,0.0,0.0,0,1,1,0,0,0,0,2,2,2,2,2,2,2,2,2,2,2,2
2080124000,3.8882717e-08,5.122274e-09,-1.6298145e-08,0.0,0.0,0.0,0,1,1,0,0,0,0,2,2,2,2,2,2,2,2,2,2,2,2
2080324000,-1.4551915e-09,-1.7695129e-08,-1.1161319e-08,0.0,0.0,-5.9604645e-08,0,1,1,0,0,0,0,2,2,2,2,2,2,2,2,2,2,2,2
2080524000,1.0244548e-08,2.363231e-08,-8.9276e-09,0.0,0.0,0.0,0,1,1,0,0,0,0,2,2,2,2,2,2,2,2,2,2,2,2
2080724000,-2.3283064e-08,1.9092113e-08,-2.1536835e-08,0.0,0.0,0.0,0,1,1,0,0,0,0,2,2,2,2,2,2,2,2,2,2,2,2
2080924000,6.61239e-08,1.2572855e-08,-1.8102583e-08,0.0,0.0,-1.1920929e-07,0,1,1,0,0,0,0,2,2,2,2,2,2,2,2,2,2,2,2
2081124000,-1.3620593e-08,-4.656613e-10,2.3283064e-10,0.0,0.0,0.0,0,1,1,0,0,0,0,2,2,2,2,2,2,2,2,2,2,2,2
2081324000,-5.401671e-08,4.1211024e-08,-1.6007107e-08,0.0,0.0,0.0,0,1,1,0,0,0,0,2,2,2,2,2,2,2,2,2,2,2,2
2081524000,1.6298145e-09,5.826587e-08,-1.8218998e-08,0.0,0.0,-5.9604645e-08,0,1,1,0,0,0,0,2,2,2,2,2,2,2,2,2,2,2,2
2081724000,1.5832484e-08,2.9918738e-08,3.859168e-08,0.0,0.0,0.0,0,1,1,0,0,0,0,2,2,2,2,2,2,2,2,2,2,2,2
2081924000,-6.5978384e-08,8.381903e-09,-3.3760443e-08,0.0,0.0,-5.9604645e-08,0,1,1,0,0,0,0,2,2,2,2,2,2,2,2,2,2,2,2
2082124000,3.0733645e-08,1.4901161e-08,-8.265488e-09,0.0,0.0,-5.9604645e-08,0,1,1,0,0,0,0,2,2,2,2,2,2,2,2,2,2,2,2
2082324000,-7.9278834e-08,-2.7939677e-09,2.2118911e-08,0.0,0.0,0.0,0,1,1,0,0,0,0,2,2,2,2,2,2,2,2,2,2,2,2
2082524000,-9.313226e-09,2.6309863e-08,1.0972144e-08,0.0,0.0,0.0,0,1,1,0,0,0,0,2,2,2,2,2,2,2,2,2,2,2,2
2082724000,4.377216e-08,-1.21071935e-08,-1.7695129e-08,0.0,0.0,0.0,0,1,1,0,0,0,0,2,2,2,2,2,2,2,2,2,2,2,2
2082924000,2.142042e-08,1.4901161e-08,-8.090865e-09,0.0,0.0,-5.9604645e-08,0,1,1,0,0,0,0,2,2,2,2,2,2,2,2,2,2,2,2
2083124000,9.313226e-10,-1.7229468e-08,-3.320747e-08,0.0,0.0,-5.9604645e-08,0,1,1,0,0,0,0,2,2,2,2,2,2,2,2,2,2,2,2
2083324000,7.491326e-08,2.3283064e-09,-1.1437805e-08,0.0,0.0,-5.9604645e-08,0,1,1,0,0,0,0,2,2,2,2,2,2,2,2,2,2,2,2
2083524000,7.241033e-08,2.4912879e-08,2.8434442e-08,0.0,0.0,-5.9604645e-08,0,1,1,0,0,0,0,2,2,2,2,2,2,2,2,2,2,2,2
2083724000,-4.9709342e-08,8.4983185e-09,-2.2933818e-08,0.0,0.0,-5.9604645e-08,0,1,1,0,0,0,0,2,2,2,2,2,2,2,2,2,2,2,2
2083924000,-1.3387762e-08,2.0489097e-08,2.8521754e-09,0.0,0.0,0.0,0,1,1,0,0,0,0,2,2,2,2,2,2,2,2,2,2,2,2
2084124000,5.1688403e-08,2.2046152e-08,1.4551915e-09,0.0,0.0,-5.9604645e-08,0,1,1,0,0,0,0,2,2,2,2,2,2,2,2,2,2,2,2
2084324000,-3.0267984e-09,6.9849193e-09,2.0838343e-08,0.0,0.0,-5.9604645e-08,0,1,1,0,0,0,0,2,2,2,2,2,2,2,2,2,2,2,2
2084524000,-2.7444912e-08,-2.3050234e-08,-1.0506483e-08,0.0,0.0,5.9604645e-08,0,1,1,0,0,0,0,2,2,2,2,2,2,2,2,2,2,2,2
2084724000,-2.2118911e-09,-2.0372681e-08,1.1641532e-09,0.0,0.0,0.0,0,1,1,0,0,0,0,2,2,2,2,2,2,2,2,2,2,2,2
2084924000,1.44355e-08,-6.2573235e-09,3.6452548e-08,0.0,0.0,0.0,0,1,1,0,0,0,0,2,2,2,2,2,2,2,2,2,2,2,2
2085124000,-2.651359e-08,-2.6077032e-08,-1.6385457e-08,0.0,0.0,-5.9604645e-08,0,1,1,0,0,0,0,2,2,2,2,2,2,2,2,2,2,2,2
2085324000,-7.660128e-08,1.5832484e-08,-8.381903e-09,0.0,0.0,-1.1920929e-07,0,1,1,0,0,0,0,2,2,2,2,2,2,2,2,2,2,2,2
2085524000,1.1641532e-09,-1.4901161e-08,7.858034e-09,0.0,0.0,-5.9604645e-08,0,1,1,0,0,0,0,2,2,2,2,2,2,2,2,2,2,2,2
2085724000,-2.3050234e-08,2.0489097e-08,-9.924406e-09,0.0,0.0,-5.9604645e-08,0,1,1,0,0,0,0,2,2,2,2,2,2,2,2,2,2,2,2
2085924000,-6.2864274e-08,1.3969839e-09,-2.2504537e-08,0.0,0.0,-5.9604645e-08,0,1,1,0,0,0,0,2,2,2,2,2,2,2,2,2,2,2,2
2086124000,2.3661414e-08,4.4237822e-09,1.2165401e-08,0.0,0.0,0.0,0,1,1,0,0,0,0,2,2,2,2,2,2,2,2,2,2,2,2
2086324000,5.2154064e-08,8.8475645e-09,-2.4738256e-08,0.0,0.0,0.0,0,1,1,0,0,0,0,2,2,2,2,2,2,2,2,2,2,2,2
2086524000,2.6077032e-08,3.259629e-09,1.1234079e-08,0.0,0.0,0.0,0,1,1,0,0,0,0,2,2,2,2,2,2,2,2,2,2,2,2
2086724000,-9.313226e-10,5.820766e-09,-5.646143e-09,0.0,0.0,-7.450581e-09,0,1,1,0,0,0,0,2,2,2,2,2,2,2,2,2,2,2,2
2086924000,-5.5879354e-09,-3.958121e-09,-6.53381e-09,0.0,0.0,-1.4901161e-08,0,1,1,0,0,0,0,2,2,2,2,2,2,2,2,2,2,2,2
2087124000,1.1175871e-08,-2.7939677e-09,-3.6670826e-09,0.0,0.0,-7.450581e-09,0,1,1,0,0,0,0,2,2,2,2,2,2,2,2,2,2,2,2
2087324000,0.0,5.47152e-09,6.1118044e-09,0.0,0.0,-7.450581e-09,0,1,1,0,0,0,0,2,2,2,2,2,2,2,2,2,2,2,2
2087524000,-0.014890369,0.0018099978,7.7371915e-05,0.0,0.0,1.1641532e-10,0,0,1,0,-2,0,-2,2,2,2,2,2,2,2,2,2,2,2,2
2087724000,-0.0116134435,0.0,0.00045510574,0.0,0.0,-1.1641532e-10,0,0,1,0,0,-2,0,2,2,2,2,2,2,2,2,2,2,2,2
2087924000,-0.011035324,7.2759576e-11,-5.4134296e-05,0.0,0.0,-2.3283064e-10,0,0,1,0,-2,0,0,2,2,2,2,2,2,2,2,2,2,2,2
2088124000,-0.016299969,-0.0043816143,-0.0002066626,0.0,0.0,-2.3283064e-10,0,0,1,-2,0,-2,0,2,2,2,2,2,2,2,2,2,2,2,2
2088324000,-0.02232892,-0.0021032952,0.00033894312,0.0,0.0,3.4924597e-10,0,0,1,-2,0,-2,0,2,2,2,2,2,2,2,2,2,2,2,2
2088524000,-0.017110556,-0.0006621453,1.6159e-05,0.0,0.0,1.1641532e-10,0,0,1,-2,0,-2,0,2,2,2,2,2,2,2,2,2,2,2,2
2088724000,-0.016680498,0.0032688328,-0.00044534312,0.0,0.0,1.1641532e-10,0,0,1,0,-2,0,-2,2,2,2,2,2,2,2,2,2,2,2,2
2088924000,-0.015722765,0.0,0.00017398788,0.0,0.0,1.1641532e-10,0,0,1,0,0,-2,0,2,2,2,2,2,2,2,2,2,2,2,2
2089124000,-0.020502534,0.0029347497,3.611284e-05,0.0,0.0,1.1641532e-10,0,0,1,0,-2,0,-2,2,2,2,2,2,2,2,2,2,2,2,2
2089324000,-0.015985454,2.3584813e-05,-0.00046595876,0.0,0.0,-1.1641532e-10,0,0,1,0,-2,0,-2,2,2,2,2,2,2,2,2,2,2,2,2
2089524000,-0.0033488183,0.0,0.00044456124,0.0,0.0,-1.1641532e-10,0,0,1,0,0,0,-2,2,2,2,2,2,2,2,2,2,2,2,2
2089724000,-0.00666075,-0.0012158882,-0.00017998011,0.0,0.0,-1.1641532e-10,0,0,1,-2,0,-2,0,2,2,2,2,2,2,2,2,2,2,2,2
2089924000,-0.0064286776,0.002233441,0.0007975463,0.0,0.0,-1.1641532e-10,0,0,1,0,-2,0,-2,2,2,2,2,2,2,2,2,2,2,2,2
2090124000,0.00020110943,-0.0030394925,-0.00024446571,0.0,0.0,-1.1641532e-10,0,0,1,-2,0,-2,0,2,2,2,2,2,2,2,2,2,2,2,2
2090324000,-0.0011920524,-0.0010165784,-0.00023119338,0.0,0.0,-1.1641532e-10,0,0,1,-2,0,-2,0,2,2,2,2,2,2,2,2,2,2,2,2
