timestamp,timestamp_sample,time_last_fuse,device_id,observation[0],observation[1],observation[2],observation_variance[0],observation_variance[1],observation_variance[2],innovation[0],innovation[1],innovation[2],innovation_filtered[0],innovation_filtered[1],innovation_filtered[2],innovation_variance[0],innovation_variance[1],innovation_variance[2],test_ratio[0],test_ratio[1],test_ratio[2],test_ratio_filtered[0],test_ratio_filtered[1],test_ratio_filtered[2],estimator_instance,innovation_rejected,fused
2043288000,2043129000,2043136000,0,-0.21202794,-0.04651086,0.42883253,0.0025000002,0.0025000002,0.0025000002,-0.0014389686,0.0019300617,-0.00046879053,-0.0005987496,0.0014761778,0.00021050312,0.0025038416,0.0025110082,0.00250181,9.188683e-05,0.0001649909,9.78116e-06,-4.6921134e-05,0.00017855904,4.5214958e-05,0,0,1
2043352000,2043196000,2043200000,0,-0.21090129,-0.04510051,0.43042815,0.0025000002,0.0025000002,0.0025000002,-0.0025908216,0.00048885867,-0.0020795763,-0.00083414436,0.0013597041,-6.0240272e-05,0.0025038728,0.0025110275,0.0025018186,0.00029786554,1.0645801e-05,0.00019227645,-7.657417e-05,0.00015871745,1.71516e-05,0,0,1
2043424000,2043267555,2043272000,0,-0.21370517,-0.04397619,0.43020806,0.0025000002,0.0025000002,0.0025000002,0.00039917097,-0.00076008216,-0.00178051,-0.00067974126,0.0010942894,-0.00027559558,0.0025039106,0.0025110543,0.0025018274,7.0706046e-06,2.5580375e-05,0.00014078115,-6.610239e-05,0.00013564454,-2.6205616e-06,0,0,1
2043496000,2043340000,2043344000,0,-0.20705661,-0.046352357,0.42822087,0.0025000002,0.0025000002,0.0025000002,-0.0064072288,0.0015113316,0.00012096763,-0.0014045757,0.0011475786,-0.00022577657,0.002503946,0.0025110773,0.0025018381,0.0018216837,0.000101609505,6.190569e-07,-0.0002882776,0.00013133729,-2.2105762e-06,0,0,1
2043568000,2043411555,2043416000,0,-0.21172325,-0.04508757,0.4268922,0.0025000002,0.0025000002,0.0025000002,-0.001780393,0.00032551214,0.0014342368,-0.0014516256,0.0010448003,-1.8064136e-05,0.0025039837,0.0025111039,0.0025018482,0.00014065583,4.720485e-06,9.1243775e-05,-0.00026979632,0.00011548569,9.489306e-06,0,0,1
2043640000,2043482666,2043488000,0,-0.21323913,-0.04632216,0.42880386,0.0025000002,0.0025000002,0.0025000002,-0.00023547211,0.0015438758,-0.00046670437,-0.0013001981,0.0011069591,-7.392101e-05,0.0025040205,0.0025111318,0.002501858,2.4603594e-06,0.00010548494,9.671764e-06,-0.0002365094,0.00011424046,7.1034947e-06,0,0,1
2043704000,2043549500,2043552000,0,-0.21296813,-0.044434115,0.42961556,0.0025000002,0.0025000002,0.0025000002,-0.0004047241,-0.0003111437,-0.0012234151,-0.001194615,0.0009397834,-0.00020948869,0.0025038472,0.0025110138,0.0025018116,7.2688845e-06,4.2769593e-06,6.650482e-05,-0.0002094802,0.00010026636,-1.5754813e-06,0,0,1
2043776000,2043620000,2043624000,0,-0.2138781,-0.04652405,0.42697462,0.0025000002,0.0025000002,0.0025000002,0.0004143503,0.0018519387,0.0013795197,-0.0009957858,0.0010524716,-1.3082725e-05,0.0025038845,0.00251104,0.0025018218,7.6186584e-06,0.00015171719,8.45621e-05,-0.00018265203,0.000106624444,9.069041e-06,0,0,1
2043840000,2043687428,2043688000,0,-0.21127608,-0.046852626,0.42662027,0.0025000002,0.0025000002,0.0025000002,-0.0021412282,0.0023781285,0.0017789006,-0.0011318998,0.0012101607,0.00019976281,0.0025039157,0.0025110596,0.0025018295,0.0002034528,0.00025053174,0.00014041134,-0.0001851238,0.00012372508,2.4676569e-05,0,0,1
2043912000,2043758400,2043760000,0,-0.21228524,-0.04310444,0.4291962,0.0025000002,0.0025000002,0.0025000002,-0.0010459421,-0.0013218783,-0.0007503629,-0.0011212152,0.00089550775,8.158191e-05,0.0025039522,0.0025110834,0.0025018386,4.8545247e-05,7.724212e-05,2.5048705e-05,-0.00016814705,9.87448e-05,1.84957e-05,0,0,1
2043984000,2043826000,2043832000,0,-0.21180171,-0.04637946,0.42789385,0.0025000002,0.0025000002,0.0025000002,-0.0015584738,0.0019261837,0.00053459406,-0.0011732918,0.0010183749,0.00013547081,0.0025039883,0.0025111113,0.0025018484,0.000107776534,0.00016433305,1.2666954e-05,-0.00016095705,0.000106556225,1.7801509e-05,0,0,1
2044056000,2043898000,2043904000,0,-0.21323895,-0.046049565,0.429841,0.0025000002,0.0025000002,0.0025000002,-0.00020997005,0.0015591942,-0.0014621317,-0.0010520346,0.0010864668,-6.5620756e-05,0.0025040263,0.0025111379,0.002501859,1.9562904e-06,0.000107587344,9.4938594e-05,-0.00014094297,0.00010668601,3.6104475e-06,0,0,1
2044128000,2043969333,2043976000,0,-0.2127702,-0.046681833,0.42841786,0.0025000002,0.0025000002,0.0025000002,-0.000644029,0.001988683,-4.211068e-05,-0.0010010935,0.0011991619,-6.270286e-05,0.00250386,0.002511027,0.002501815,1.8405952e-05,0.00017507009,7.927931e-08,-0.00012564377,0.000115224015,3.1497716e-06,0,0,1
2044200000,2044040666,2044048000,0,-0.21342996,-0.0466067,0.4285041,0.0025000002,0.0025000002,0.0025000002,3.22258e-05,0.0019268803,-0.00011909008,-0.00087207987,0.0012900161,-6.971545e-05,0.0025038968,0.002511054,0.0025018246,4.6083816e-08,0.00016428425,6.275385e-07,-0.00010995093,0.00012134937,2.6781606e-06,0,0,1
2044264000,2044108000,2044112000,0,-0.2143182,-0.043968514,0.43067914,0.0025000002,0.0025000002,0.0025000002,0.0008696584,-0.0007338524,-0.002322048,-0.00066536176,0.0010497484,-0.00033698778,0.0025039278,0.0025110734,0.0025018335,3.3560864e-05,2.3865101e-05,0.00023938545,-9.291824e-05,0.0001041146,-2.6051144e-05,0,0,1
2044336000,2044177714,2044184000,0,-0.21242967,-0.045502003,0.4293185,0.0025000002,0.0025000002,0.0025000002,-0.0011242218,0.00082420185,-0.0010092258,-0.00072151097,0.0010222344,-0.00041930244,0.0025039644,0.0025110962,0.0025018435,5.6083278e-05,3.0108993e-05,4.527533e-05,-8.8410874e-05,9.5058786e-05,-2.8403543e-05,0,0,1
2044400000,2044246000,2044248000,0,-0.21240735,-0.04504117,0.4297521,0.0025000002,0.0025000002,0.0025000002,-0.0011218239,0.00033676997,-0.0014330447,-0.0007696131,0.0009399526,-0.0005411757,0.0025039962,0.002511115,0.0025018523,5.584357e-05,5.0392864e-06,9.126857e-05,-8.4497544e-05,8.4241925e-05,-3.5957488e-05,0,0,1
2044472000,2044316000,2044320000,0,-0.21140617,-0.044747353,0.42810443,0.0025000002,0.0025000002,0.0025000002,-0.0020137886,-8.210167e-05,0.00025698543,-0.00092240656,0.00081459276,-0.00044327628,0.002503831,0.00251101,0.0025018076,0.00017996176,2.8913902e-07,2.910729e-06,-9.622122e-05,7.3860916e-05,-3.1184198e-05,0,0,1
2044536000,2044382666,2044384000,0,-0.21678847,-0.050716065,0.43082997,0.0025000002,0.0025000002,0.0025000002,0.0034258645,0.0060708113,-0.0024244785,-0.0004108498,0.0014327107,-0.00067609485,0.0025038612,0.0025110256,0.0025018153,0.00052082,0.0016296306,0.00026057978,-2.3628781e-05,0.000256891,-5.8171674e-05,0,0,1
2044608000,2044449500,2044456000,0,-0.21167615,-0.04744527,0.42970055,0.0025000002,0.0025000002,0.0025000002,-0.0016588129,0.0025561117,-0.001301676,-0.00055799406,0.0015652904,-0.0007499217,0.0025039,0.0025110513,0.002501825,0.00012210551,0.00028934347,7.53148e-05,-3.523993e-05,0.0002607174,-6.019298e-05,0,0,1
2044680000,2044521000,2044528000,0,-0.21413368,-0.046525232,0.42959347,0.0025000002,0.0025000002,0.0025000002,0.0008561395,0.0014596544,-0.0011855066,-0.00038107272,0.0015520058,-0.00080435415,0.0025039378,0.0025110724,0.0025018349,3.252543e-05,9.420464e-05,6.236425e-05,-2.6761849e-05,0.0002398851,-6.0464627e-05,0,0,1
2044752000,2044593500,2044600000,0,-0.21443976,-0.04494275,0.42941666,0.0025000002,0.0025000002,0.0025000002,0.0010969304,-0.00017921254,-0.001046598,-0.00019390203,0.00133268,-0.0008349658,0.0025039741,0.0025111004,0.002501845,5.3393174e-05,1.4322284e-06,4.8598988e-05,-1.6611215e-05,0.00020932527,-5.8961992e-05,0,0,1
2044824000,2044666000,2044672000,0,-0.21221286,-0.04537314,0.42727998,0.0025000002,0.0025000002,0.0025000002,-0.0011039127,0.00034810975,0.0011153817,-0.00030914356,0.001208085,-0.0005880364,0.0025040105,0.0025111283,0.0025018544,5.407429e-05,5.38349e-06,5.520606e-05,-2.1355447e-05,0.00018349859,-4.4504028e-05,0,0,1
2044896000,2044737500,2044744000,0,-0.211897,-0.043904684,0.42901182,0.0025000002,0.0025000002,0.0025000002,-0.0012739757,-0.0011391602,-0.00054609776,-0.0004298531,0.0009145249,-0.000582876,0.002503844,0.0025110205,0.0025018095,7.202322e-05,5.733944e-05,1.3278322e-05,-2.769446e-05,0.0001533675,-4.05974e-05,0,0,1
2044968000,2044810000,2044816000,0,-0.20932096,-0.04527142,0.425616,0.0025000002,0.0025000002,0.0025000002,-0.0039055808,0.00028746203,0.002829522,-0.0008700107,0.00083542726,-0.000150965,0.0025038794,0.002511049,0.0025018197,0.0006768857,3.7194366e-06,0.00035512217,-0.000109906454,0.00013441643,9.515559e-06,0,0,1
2045040000,2044881000,2044888000,0,-0.20981745,-0.045271307,0.42875007,0.0025000002,0.0025000002,0.0025000002,-0.0032950148,0.0004515387,-0.00023269653,-0.0011715436,0.0007879512,-0.00016131572,0.0025039173,0.002511076,0.0025018284,0.0004817839,9.104758e-06,2.436147e-06,-0.00015614691,0.00011883477,8.029445e-06,0,0,1
2045112000,2044953000,2044960000,0,-0.21207097,-0.04733744,0.42856988,0.0025000002,0.0025000002,0.0025000002,-0.0010447607,0.0027531832,-3.1232834e-05,-0.0011555849,0.0010354042,-0.0001449733,0.002503952,0.0025111008,0.0025018374,4.8435653e-05,0.0003355573,4.402333e-08,-0.00014258885,0.00014611453,7.013204e-06,0,0,1
2045184000,2045025500,2045032000,0,-0.2124428,-0.046043005,0.4306059,0.0025000002,0.0025000002,0.0025000002,-0.00064439815,0.0013813265,-0.0020613372,-0.0010908495,0.0010792624,-0.0003876835,0.0025039893,0.0025111274,0.0025018477,1.8426108e-05,8.447659e-05,0.00018874832,-0.00012686518,0.00013830885,-1.7777556e-05,0,0,1
2045256000,2045097000,2045104000,0,-0.21405588,-0.041704766,0.42874205,0.0025000002,0.0025000002,0.0025000002,0.0011688686,-0.0029566102,-9.7095966e-05,-0.0008081376,0.0005742446,-0.00035129843,0.0025040286,0.0025111535,0.0025018563,6.06247e-05,0.00038698042,4.166385e-07,-0.00010340844,7.259025e-05,-1.5605543e-05,0,0,1
2045328000,2045169500,2045176000,0,-0.21251896,-0.045098137,0.42866147,0.0025000002,0.0025000002,0.0025000002,-0.00028371817,0.0003277175,1.463294e-05,-0.00074172637,0.0005430474,-0.000304967,0.0025038621,0.002511045,0.0025018118,3.5720816e-06,4.757408e-06,9.4153085e-09,-9.076541e-05,6.4000065e-05,-1.3628103e-05,0,0,1
2045400000,2045242000,2045248000,0,-0.2118878,-0.04554858,0.4282483,0.0025000002,0.0025000002,0.0025000002,-0.0008266243,0.00089964643,0.00048464537,-0.0007524776,0.00058827363,-0.0002049744,0.0025038982,0.0025110734,0.0025018214,3.032195e-05,3.5855486e-05,1.0430888e-05,-8.3111e-05,6.0435905e-05,-1.05813315e-05,0,0,1
2045472000,2045313500,2045320000,0,-0.21107987,-0.044559386,0.43185854,0.0025000002,0.0025000002,0.0025000002,-0.0018009585,-0.00019648671,-0.0032203197,-0.00088365236,0.0004902398,-0.000582215,0.0025039378,0.0025111025,0.002501833,0.0001439267,1.6879034e-06,0.00046055496,-9.0719615e-05,5.2663636e-05,-6.687724e-05,0,0,1
2045544000,2045386000,2045392000,0,-0.21140477,-0.04413577,0.4257449,0.0025000002,0.0025000002,0.0025000002,-0.0015332007,-0.00054731965,0.0028735697,-0.00096590957,0.00035897188,-0.00014457555,0.0025039762,0.0025111327,0.002501844,0.00010430985,1.3206533e-05,0.00036674002,-9.244065e-05,4.4321998e-05,-1.1965014e-05,0,0,1
2045616000,2045457500,2045464000,0,-0.21067168,-0.04503206,0.42946887,0.0025000002,0.0025000002,0.0025000002,-0.0024854704,0.00038802996,-0.0009573996,-0.0011560209,0.00036281027,-0.00024627603,0.0025040146,0.0025111623,0.0025018556,0.00027411815,6.717948e-06,4.0714032e-05,-0.0001151702,3.961738e-05,-1.5561785e-05,0,0,1
2045688000,2045530000,2045536000,0,-0.21297693,-0.04617153,0.43158066,0.0025000002,0.0025000002,0.0025000002,-0.00016829226,0.0014486797,-0.0030718446,-0.0010309374,0.00050033577,-0.00060410844,0.002503852,0.0025110594,0.0025018123,1.2568318e-06,9.28773e-05,0.00041910418,-0.000100744495,4.6362085e-05,-6.666541e-05,0,0,1
2045760000,2045601500,2045608000,0,-0.21214312,-0.047534306,0.42986715,0.0025000002,0.0025000002,0.0025000002,-0.0008805127,0.00274669,-0.0013029873,-0.0010121178,0.00078144856,-0.000691536,0.0025038933,0.0025110873,0.0025018223,3.4404315e-05,0.00033396352,7.5393684e-05,-9.2444716e-05,8.2343715e-05,-6.77574e-05,0,0,1
2045832000,2045673000,2045680000,0,-0.21141534,-0.042763654,0.43009144,0.0025000002,0.0025000002,0.0025000002,-0.0016308993,-0.0019384436,-0.0015288889,-0.0010895332,0.0004412979,-0.0007962962,0.002503932,0.0025111171,0.002501833,0.000118029144,0.0001660807,0.000103812316,-9.564557e-05,5.1263494e-05,-7.226821e-05,0,0,1
2045904000,2045744500,2045752000,0,-0.21203758,-0.0449567,0.4289282,0.0025000002,0.0025000002,0.0025000002,-0.0010252703,0.00021823496,-0.00037756562,-0.0010814933,0.00041347503,-0.00074390334,0.0025039725,0.0025111458,0.0025018437,4.6644956e-05,2.120386e-06,6.3295897e-06,-8.951513e-05,4.511523e-05,-6.401867e-05,0,0,1
2045968000,2045812000,2045816000,0,-0.21157944,-0.045038722,0.4282572,0.0025000002,0.0025000002,0.0025000002,-0.0015189205,0.00027116016,0.00027260184,-0.0011335221,0.0003966661,-0.00062299846,0.0025040072,0.0025111667,0.0025018533,0.00010237455,3.2772973e-06,3.3000929e-06,-9.104467e-05,4.013891e-05,-5.601159e-05,0,0,1
2046040000,2045883555,2045888000,0,-0.21377815,-0.045497734,0.42993727,0.0025000002,0.0025000002,0.0025000002,0.0006722524,0.000714615,-0.0014134347,-0.0009074508,0.0004364146,-0.00072195777,0.0025040486,0.0025111954,0.0025018638,2.0053003e-05,2.2566841e-05,8.8726636e-05,-7.7135956e-05,3.7939e-05,-6.0107304e-05,0,0,1
2046112000,2045954666,2045960000,0,-0.20959859,-0.044671193,0.43228543,0.0025000002,0.0025000002,0.0025000002,-0.0035175863,-9.333715e-05,-0.003763616,-0.0012324478,0.00037074194,-0.0011006808,0.0025038857,0.0025110918,0.0025018204,0.0005490761,3.665751e-07,0.00062907726,-0.00013589885,3.3169443e-05,-0.00013095171,0,0,1
2046184000,2046026222,2046032000,0,-0.21286231,-0.0441946,0.4293883,0.0025000002,0.0025000002,0.0025000002,-0.0002767,-0.000568565,-0.00087702274,-0.0011127929,0.000253167,-0.0010726728,0.002503925,0.002511121,0.0025018314,3.3974616e-06,1.4295046e-05,3.415585e-05,-0.00011931033,2.7227123e-05,-0.00011883334,0,0,1
2046256000,2046097333,2046104000,0,-0.21150915,-0.047908932,0.4284972,0.0025000002,0.0025000002,0.0025000002,-0.0016505108,0.0031887367,8.761883e-06,-0.001179746,0.00061881985,-0.00093801843,0.0025039653,0.00251115,0.002501842,0.0001208832,0.00045021198,3.416902e-09,-0.00011950618,7.9894424e-05,-0.00010403657,0,0,1
2046320000,2046164500,2046168000,0,-0.21194483,-0.043258764,0.4283201,0.0025000002,0.0025000002,0.0025000002,-0.001207777,-0.0014591403,0.00018924475,-0.0011830656,0.00037283066,-0.0008045117,0.0025040004,0.00251117,0.0025018512,6.472865e-05,9.410266e-05,1.591967e-06,-0.00011301912,5.9288745e-05,-9.1527465e-05,0,0,1
2046384000,2046232000,2046232000,0,-0.216224,-0.04681254,0.42591083,0.0025000002,0.0025000002,0.0025000002,0.003030484,0.002282977,0.0025974214,-0.0006818945,0.00059979025,-0.0003998855,0.0025040351,0.002511192,0.0025018607,0.00040751262,0.00023020635,0.00029960828,-5.1105657e-05,7.9618156e-05,-4.500471e-05,0,0,1
2046456000,2046302666,2046304000,0,-0.21150489,-0.048597377,0.42824906,0.0025000002,0.0025000002,0.0025000002,-0.0017030908,0.004008662,0.00024551153,-0.00080835,0.0010220511,-0.0003199631,0.0025040759,0.0025112214,0.0025018717,0.0001287021,0.0007113974,2.677349e-06,-6.0714483e-05,0.00015785184,-3.9100203e-05,0,0,1
2046528000,2046370000,2046376000,0,-0.21371615,-0.047436208,0.4294687,0.0025000002,0.0025000002,0.0025000002,0.00048817793,0.002646096,-0.001005888,-0.0006544717,0.0012147613,-0.0004013711,0.002503912,0.0025111174,0.0025018284,1.0575349e-05,0.00030973647,4.49358e-05,-5.2253454e-05,0.00017587826,-3.97928e-05,0,0,1
2046600000,2046440800,2046448000,0,-0.21250427,-0.047339182,0.4285038,0.0025000002,0.0025000002,0.0025000002,-0.00068602635,0.0027268492,-2.592802e-06,-0.00065838563,0.0014023717,-0.000351904,0.0025039532,0.0025111458,0.0025018381,2.0883961e-05,0.0003291187,2.9105757e-10,-4.8362494e-05,0.00019488565,-3.485708e-05,0,0,1
2046664000,2046508000,2046512000,0,-0.2118799,-0.043739364,0.42380834,0.0025000002,0.0025000002,0.0025000002,-0.0012416932,-0.0009716563,0.004716724,-0.000727494,0.0011212027,0.00024861572,0.0025039879,0.0025111667,0.0025018475,6.84154e-05,4.170289e-05,0.0009880655,-5.0738297e-05,0.00016685542,8.6335436e-05,0,0,1
2046736000,2046580000,2046584000,0,-0.21206611,-0.046406012,0.42924595,0.0025000002,0.0025000002,0.0025000002,-0.00094603305,0.0015722886,-0.00068178773,-0.00075500243,0.0011780608,0.0001314985,0.0025040288,0.0025111958,0.0025018577,3.9712828e-05,0.00010946711,2.0645655e-05,-4.9350478e-05,0.00015963172,7.286928e-05,0,0,1
2046808000,2046652000,2046656000,0,-0.21243937,-0.045670863,0.4402083,0.0025000002,0.0025000002,0.0025000002,-0.0005522164,0.0007932745,-0.011638343,-0.0007294769,0.0011296715,-0.0013500215,0.0025040712,0.0025112238,0.0025018684,1.3530986e-05,2.7868467e-05,0.0060155643,-4.484173e-05,0.00014304613,-0.0006935069,0,0,1
2046880000,2046723636,2046728000,0,-0.2125406,-0.043690465,0.42919907,0.0025000002,0.0025000002,0.0025000002,-0.00037948944,-0.0010926723,-0.00057795644,-0.0006856174,0.00085120345,-0.0012532653,0.0025039061,0.0025111202,0.0025018244,6.390559e-06,5.2805113e-05,1.4833913e-05,-4.0023126e-05,0.00011850254,-0.0006084573,0,0,1
2046952000,2046796000,2046800000,0,-0.2109599,-0.05203398,0.42424643,0.0025000002,0.0025000002,0.0025000002,-0.0019095687,0.00706356,0.0043803155,-0.0008403616,0.0016367917,-0.0005410131,0.0025039476,0.0025111483,0.0025018349,0.00016180905,0.0022084496,0.0008521323,-5.5420525e-05,0.00038273464,-0.0004237949,0,0,1
2047024000,2046866909,2046872000,0,-0.21391962,-0.045627814,0.42906186,0.0025000002,0.0025000002,0.0025000002,0.0011749861,0.00056134164,-0.00038546324,-0.000590048,0.0015031196,-0.0005217016,0.0025039902,0.0025111753,0.0025018447,6.126188e-05,1.3903432e-05,6.601079e-06,-4.0928142e-05,0.00033692445,-0.0003719779,0,0,1
2047096000,2046940000,2046944000,0,-0.21383253,-0.04379266,0.42933553,0.0025000002,0.0025000002,0.0025000002,0.0010251896,-0.0013943724,-0.00070279837,-0.00038404347,0.0011334906,-0.00054479914,0.0025040319,0.002511203,0.0025018558,4.663651e-05,8.6111875e-05,2.193634e-05,-2.9760304e-05,0.00028297116,-0.00032733422,0,0,1
2047168000,2047011636,2047016000,0,-0.2121813,-0.043656163,0.43054113,0.0025000002,0.0025000002,0.0025000002,-0.0007177381,-0.0016075857,-0.0019617677,-0.00042586125,0.0007900448,-0.0007223662,0.0025040712,0.0025112329,0.0025018672,2.2858243e-05,0.00011427841,0.00017091284,-2.8895354e-05,0.00023318884,-0.00030773188,0,0,1
2047240000,2047084000,2047088000,0,-0.21601316,-0.04532753,0.43425015,0.0025000002,0.0025000002,0.0025000002,0.003076667,7.204339e-05,-0.0056880713,1.6963575e-05,0.00069900876,-0.0013501915,0.0025041113,0.0025112631,0.0025018782,0.00042001507,2.167642e-07,0.0014369269,2.7860415e-05,0.00020373416,-0.00045049607,0,0,1
2047312000,2047155636,2047160000,0,-0.21249822,-0.046447236,0.4289188,0.0025000002,0.0025000002,0.0025000002,-0.0003005343,0.0011965968,-0.00028383732,-2.2824464e-05,0.00076138973,-0.0012165606,0.0025039448,0.002511159,0.0025018335,4.0079367e-06,6.337539e-05,3.578367e-06,2.3866753e-05,0.00018614475,-0.00039448947,0,0,1
2047376000,2047224000,2047224000,0,-0.21775249,-0.042332556,0.42378193,0.0025000002,0.0025000002,0.0025000002,0.004946063,-0.0029226765,0.00484848,0.0005748436,0.00031786662,-0.0004870438,0.00250398,0.0025111798,0.0025018426,0.0010855402,0.0003788078,0.001044024,0.00015156703,0.00011819109,-0.00022146209,0,0,1
2047448000,2047293600,2047296000,0,-0.21253912,-0.045672,0.42701364,0.0025000002,0.0025000002,0.0025000002,-0.0003487182,0.00045524165,0.0015793145,0.00046199263,0.00033468078,-0.00023455624,0.0025040193,0.0025112093,0.0025018535,5.3959643e-06,9.179059e-06,0.000110769455,0.00013238756,0.0001048708,-0.00018086638,0,0,1
2047520000,2047366000,2047368000,0,-0.2071636,-0.04847786,0.4234374,0.0025000002,0.0025000002,0.0025000002,-0.0057761627,0.0032025017,0.0051229,-0.00032704032,0.0006979025,0.00044309002,0.0025040603,0.002511238,0.0025018647,0.0014804426,0.0004548713,0.001165566,-7.1611226e-05,0.0001491406,-1.0562915e-05,0,0,1
2047592000,2047437600,2047440000,0,-0.21227656,-0.0463611,0.42858335,0.0025000002,0.0025000002,0.0025000002,-0.00057547295,0.0009705052,4.3809414e-06,-0.0003581596,0.0007320965,0.00038813826,0.0025041015,0.0025112669,0.0025018754,1.4694519e-05,4.1705807e-05,8.585732e-10,-6.4481705e-05,0.00013568306,-9.239671e-06,0,0,1
2047664000,2047508000,2047512000,0,-0.21195422,-0.04440689,0.42872646,0.0025000002,0.0025000002,0.0025000002,-0.00070550706,-0.0010975637,-5.5253506e-05,-0.00040102997,0.00050633424,0.00033342268,0.0025039362,0.0025111595,0.0025018298,2.2087012e-05,5.3255946e-05,1.3523783e-07,-5.924926e-05,0.0001123638,-8.115982e-06,0,0,1
2047728000,2047575555,2047576000,0,-0.2112598,-0.045708057,0.43008015,0.0025000002,0.0025000002,0.0025000002,-0.001331066,0.00011828169,-0.0013839304,-0.00051173044,0.00046024972,0.00012900968,0.0025039716,0.00251118,0.0025018386,7.8618956e-05,6.2826945e-07,8.505995e-05,-6.15548e-05,9.906413e-05,-1.7274479e-05,0,0,1
2047800000,2047646666,2047648000,0,-0.21248445,-0.046286374,0.4307794,0.0025000002,0.0025000002,0.0025000002,8.2795916e-05,0.00074307993,-0.0019836128,-0.00043770391,0.0004954576,-0.0001340473,0.0025040135,0.0025112086,0.0025018482,3.041856e-07,2.4426881e-05,0.00017475725,-5.3852524e-05,8.977079e-05,-3.6883204e-05,0,0,1
2047872000,2047714000,2047720000,0,-0.21134493,-0.04433061,0.42723128,0.0025000002,0.0025000002,0.0025000002,-0.00092702743,-0.001226224,0.0016286075,-0.00049577927,0.00029119174,7.515251e-05,0.0025040547,0.0025112377,0.0025018582,3.8132814e-05,6.6463086e-05,0.000117794276,-5.198683e-05,7.1228176e-05,-1.8525318e-05,0,0,1
2047944000,2047786000,2047792000,0,-0.2122487,-0.045936342,0.4308033,0.0025000002,0.0025000002,0.0025000002,1.7995713e-05,0.0003626123,-0.0019258559,-0.0004311083,0.00030018104,-0.00017672383,0.0025040957,0.0025112666,0.0025018686,1.43696015e-08,5.8174946e-06,0.00016471941,-4.5441226e-05,6.2994666e-05,-3.692737e-05,0,0,1
2048016000,2047858000,2047864000,0,-0.2110784,-0.046110433,0.4293372,0.0025000002,0.0025000002,0.0025000002,-0.0012003382,0.00054807216,-0.00048142672,-0.0005279344,0.0003314842,-0.00021507194,0.0025041357,0.0025112967,0.0025018798,6.393032e-05,1.3328886e-05,1.0291151e-05,-4.7768524e-05,5.674303e-05,-3.3574557e-05,0,0,1
2048088000,2047929000,2047936000,0,-0.21083188,-0.046011634,0.426305,0.0025000002,0.0025000002,0.0025000002,-0.0014750871,0.00036901236,0.0025280416,-0.0006457065,0.0003362724,0.00012601812,0.0025039657,0.0025111896,0.0025018356,9.655271e-05,6.057079e-06,0.00028384003,-5.383451e-05,5.0440573e-05,5.8938094e-06,0,0,1
2048160000,2048001500,2048008000,0,-0.21104456,-0.0444967,0.4314457,0.0025000002,0.0025000002,0.0025000002,-0.0009730735,-0.0012688823,-0.002483666,-0.00068716344,0.00013308224,-0.00020446237,0.0025040084,0.0025112182,0.0025018444,4.2015836e-05,7.1165334e-05,0.00027395162,-5.2337822e-05,3.50407e-05,-2.9545132e-05,0,0,1
2048232000,2048074000,2048080000,0,-0.21059018,-0.04415215,0.4315054,0.0025000002,0.0025000002,0.0025000002,0.00075989653,-0.0015605651,-0.0014573336,-0.0005039113,-8.1463106e-05,-0.00036312419,0.0025040647,0.002511247,0.0025018423,2.5622461e-05,0.00010782555,9.432383e-05,-4.2465123e-05,1.6948467e-05,-3.774855e-05,0,0,1
2048304000,2048145000,2048152000,0,-0.20540713,-0.04549132,0.43404517,0.0025000002,0.0025000002,0.0025000002,0.0009410225,-0.00039627776,-0.0014260113,-0.0003242435,-0.000120687866,-0.0004952868,0.0025041664,0.002511276,0.0025018228,3.929111e-05,6.9705266e-06,9.031199e-05,-3.2299286e-05,1.3974301e-05,-4.4284458e-05,0,0,1
2048368000,2048212000,2048216000,0,-0.19984582,-0.045911815,0.4308309,0.0025000002,0.0025000002,0.0025000002,0.0023353868,-0.00066566095,0.004950911,-9.966199e-06,-0.00018527155,0.000148258,0.0025043308,0.0025112936,0.0025017962,0.00024198221,1.9698045e-05,0.0010885836,1.1140219e-07,9.995381e-06,8.9581794e-05,0,0,1
2048440000,2048283555,2048288000,0,-0.19028684,-0.04687573,0.43805647,0.0025000002,0.0025000002,0.0025000002,-0.0004815794,-0.0009509735,0.0005964339,-6.9009126e-05,-0.00028109076,0.00020435918,0.0025045457,0.0025113209,0.0025017748,1.0288791e-05,3.998411e-05,1.5795962e-05,-1.1906349e-06,3.7382715e-06,8.034428e-05,0,0,1
2048512000,2048356000,2048360000,0,-0.18619376,-0.044807773,0.44009155,0.0025000002,0.0025000002,0.0025000002,-0.0011457107,-0.003765531,-3.85046e-05,-0.00020526962,-0.0007219599,0.0001736056,0.0025044682,0.0025112014,0.002501724,5.823605e-05,0.0006271148,6.634307e-08,-8.40994e-06,-7.609848e-05,7.0168026e-05,0,0,1
2048584000,2048427111,2048432000,0,-0.1854079,-0.0496694,0.43963552,0.0025000002,0.0025000002,0.0025000002,-0.001844903,0.0005789213,0.00039574504,-0.00040942602,-0.00055982516,0.00020127554,0.0025045131,0.0025112268,0.0025017334,0.0001510015,1.489384e-05,6.9587995e-06,-2.6164507e-05,-6.476871e-05,6.229763e-05,0,0,1
2048648000,2048494000,2048496000,0,-0.1853714,-0.0451974,0.4396441,0.0025000002,0.0025000002,0.0025000002,-0.0042542424,-0.0034298413,-0.0005837679,-0.00086308795,-0.0008981222,0.000108641885,0.0025044752,0.0025112443,0.00250175,0.00080294395,0.00051960745,1.5137133e-05,-0.000117819145,-0.000118436554,5.316086e-05,0,0,1
2048720000,2048564800,2048568000,0,-0.19328673,-0.047074404,0.43677837,0.0025000002,0.0025000002,0.0025000002,-0.0002955395,-0.000980489,0.0006055236,-0.00079269125,-0.00090831384,0.00017026594,0.0025044067,0.0025112703,0.0025017757,3.8751073e-06,4.25179e-05,1.628118e-05,-0.00010368593,-0.00010901988,4.8586437e-05,0,0,1
2048784000,2048632000,2048632000,0,-0.19389378,-0.04557151,0.43659917,0.0025000002,0.0025000002,0.0025000002,-0.0037423691,-0.0016570464,-0.00095018744,-0.0011421595,-0.0009967207,3.752418e-05,0.0025043474,0.002511289,0.0025018023,0.0006213785,0.000121115394,4.0093837e-05,-0.00016502045,-0.000110452915,3.807989e-05,0,0,1
2048856000,2048703272,2048704000,0,-0.20192379,-0.046506558,0.43246734,0.0025000002,0.0025000002,0.0025000002,-0.00047195383,-0.000106882304,0.001046449,-0.0010585445,-0.0008856655,0.00016339596,0.0025042985,0.002511317,0.0025018365,9.882582e-06,5.024959e-07,4.8632024e-05,-0.00014566543,-9.673548e-05,3.9396375e-05,0,0,1
2048928000,2048776000,2048776000,0,-0.20798397,-0.04911802,0.42544824,0.0025000002,0.0025000002,0.0025000002,0.0012848473,0.0030655637,0.00608027,-0.0007609683,-0.00038402877,0.0009147525,0.0025040559,0.0025111795,0.0025018149,7.325149e-05,0.00041557787,0.0016419088,-0.00011786621,-3.167925e-05,0.0002428918,0,0,1
2049000000,2048847272,2048848000,0,-0.2098768,-0.045123763,0.43102646,0.0025000002,0.0025000002,0.0025000002,-0.00029165862,-0.0003250055,-0.0011224747,-0.00070241716,-0.0003766421,0.0006605856,0.002504062,0.00251121,0.0025018433,3.774523e-06,4.6683626e-06,5.5958153e-05,-0.00010363211,-2.8309367e-05,0.00020560721,0,0,1
2049072000,2048920000,2048920000,0,-0.21786705,-0.04635216,0.43137816,0.0025000002,0.0025000002,0.0025000002,0.0048912675,0.0013641715,-0.002815336,7.8981975e-06,-0.00015600224,0.00021918924,0.0025040854,0.0025112403,0.0025018698,0.0010615762,8.19426e-05,0.00035201962,4.433214e-05,-1.4308995e-05,0.00013479684,0,0,1
2049144000,2048991272,2048992000,0,-0.21273133,-0.0427656,0.42777404,0.0025000002,0.0025000002,0.0025000002,-0.0026778951,-0.002057191,-0.0004144907,-0.00032718186,-0.0003929707,0.0001401352,0.0025041185,0.0025112699,0.0025018952,0.00031819238,0.0001869193,7.6287065e-06,-8.964853e-07,-3.5843885e-05,0.0001170278,0,0,1
2049216000,2049064000,2049064000,0,-0.22060531,-0.038744308,0.42077023,0.0025000002,0.0025000002,0.0025000002,0.0034793834,-0.0058523268,0.0057385266,0.00015619572,-0.0010865267,0.0008510585,0.0025041588,0.0025112997,0.0025019173,0.0005371557,0.0015165773,0.0014625057,6.74282e-05,-0.00022387516,0.00028788362,0,0,1
2049288000,2049135636,2049136000,0,-0.21777885,-0.04453127,0.42593122,0.0025000002,0.0025000002,0.0025000002,-0.0007408952,-3.1121075e-05,-0.00013661385,4.3774526e-05,-0.00095420243,0.0007272911,0.0025039806,0.002511167,0.0025018752,2.4357916e-05,4.1470653e-08,8.283531e-07,5.592579e-05,-0.00019582489,0.00025170296,0,0,1
2049360000,2049208000,2049208000,0,-0.2160399,-0.043577507,0.42779005,0.0025000002,0.0025000002,0.0025000002,-0.0035262485,-0.00087565556,-0.0025250316,-0.00040758366,-0.0009439695,0.00031610578,0.0025040228,0.002511197,0.0025018929,0.00055175344,3.3741835e-05,0.00028314316,-2.0903128e-05,-0.00017533272,0.00018408234,0,0,1
2049432000,2049279636,2049280000,0,-0.22166905,-0.044187307,0.42523944,0.0025000002,0.0025000002,0.0025000002,0.0012955,-9.525567e-05,-0.00037622452,-0.00019415747,-0.00083772186,0.00022934438,0.0025040642,0.0025112284,0.0025019087,7.447094e-05,4.089726e-07,6.2861654e-06,-8.951088e-06,-0.00015341172,0.00016022584,0,0,1
2049504000,2049352000,2049352000,0,-0.22061071,-0.041790638,0.4257218,0.0025000002,0.0025000002,0.0025000002,-0.00036431506,-0.002106253,-0.0011312962,-0.0002156705,-0.000998072,5.731634e-05,0.0025041057,0.002511261,0.0025019238,5.8892374e-06,0.00019624004,5.6839384e-05,-8.563978e-06,-0.0001588265,0.00013278227,0,0,1
2049576000,2049423272,2049424000,0,-0.22033566,-0.04323988,0.42593724,0.0025000002,0.0025000002,0.0025000002,-0.0009400985,-0.00038075075,-0.0014748871,-0.00030605026,-0.00092097657,-0.00013383746,0.002504147,0.0025112922,0.0025019376,3.9214294e-05,6.393057e-06,9.6600386e-05,-1.2387916e-05,-0.00013980888,0.00010416444,0,0,1
2049648000,2049496000,2049496000,0,-0.227651,-0.046400063,0.42698506,0.0025000002,0.0025000002,0.0025000002,0.0058020917,0.0028273948,-0.0028182566,0.0004695936,-0.00044548642,-0.00047473377,0.0025041886,0.002511324,0.0025019527,0.001493687,0.00035271404,0.00035275664,0.00017886136,-7.7265744e-05,4.614221e-05,0,0,1
2049720000,2049567272,2049568000,0,-0.22384763,-0.042464435,0.42300478,0.0025000002,0.0025000002,0.0025000002,0.0019695973,-0.0009738244,0.0011638403,0.00065673434,-0.0005115678,-0.0002703033,0.0025040105,0.0025112068,0.002501901,0.0001721378,4.2074702e-05,6.015671e-05,0.00017802253,-7.28753e-05,4.7890662e-05,0,0,1
2049792000,2049640000,2049640000,0,-0.22348933,-0.043820065,0.42751262,0.0025000002,0.0025000002,0.0025000002,0.0014265305,0.0003647916,-0.003442943,0.0007544871,-0.00040040698,-0.0006731844,0.0025040514,0.0025112368,0.0025019136,9.029764e-05,5.8564337e-06,0.0005264415,0.00016688276,-6.287753e-05,-2.5041041e-05,0,0,1
2049864000,2049711272,2049712000,0,-0.22343592,-0.04225524,0.4249708,0.0025000002,0.0025000002,0.0025000002,0.001456368,-0.0012498721,-0.00086051226,0.0008420539,-0.000506509,-0.0006965506,0.0025040896,0.0025112676,0.0025019248,9.411306e-05,6.922741e-05,3.2881984e-05,0.000157804,-6.3669744e-05,-2.601928e-05,0,0,1
2049936000,2049784000,2049784000,0,-0.22998665,-0.044104733,0.42442948,0.0025000002,0.0025000002,0.0025000002,0.008301362,0.00046508014,-0.00017821789,0.001789276,-0.00038384198,-0.000630739,0.0025041269,0.0025112994,0.0025019343,0.0030577355,9.341183e-06,1.411663e-06,0.0005260525,-5.4398435e-05,-2.2894475e-05,0,0,1
2050008000,2049854909,2049856000,0,-0.21982309,-0.044288777,0.42237526,0.0025000002,0.0025000002,0.0025000002,-0.0015680932,0.00060684234,0.0020287335,0.0013722784,-0.00026066432,-0.00030042586,0.0025041657,0.00251133,0.0025019443,0.00010910336,1.6349846e-05,0.00018277597,0.0004471638,-4.561124e-05,2.6505495e-06,0,0,1
2050080000,2049928000,2049928000,0,-0.21499237,-0.041286062,0.4162157,0.0025000002,0.0025000002,0.0025000002,-0.0058985515,-0.0027990565,0.008406669,0.00044496986,-0.00058389676,0.0008100706,0.0025039867,0.002511222,0.00250189,0.0015438894,0.0003456647,0.003138663,0.00019322845,-8.3879524e-05,0.00040261194,0,0,1
2050152000,2049999272,2050000000,0,-0.22087324,-0.044356853,0.42409837,0.0025000002,0.0025000002,0.0025000002,0.0005506244,8.0257654e-05,0.0007942915,0.00045815133,-0.000501084,0.0008080968,0.0025040247,0.0025112506,0.0025018984,1.3453329e-05,2.8231045e-07,2.8015747e-05,0.00017079967,-7.337948e-05,0.00035587724,0,0,1
2050224000,2050072000,2050072000,0,-0.22024614,-0.043648917,0.42599195,0.0025000002,0.0025000002,0.0025000002,0.0005605318,-0.0007745512,-0.0007838905,0.00047115213,-0.00053585914,0.0006059448,0.0025040621,0.0025112804,0.0025019054,1.3941609e-05,2.6570111e-05,2.728585e-05,0.00015088101,-6.743538e-05,0.0003072212,0,0,1
2050296000,2050142909,2050144000,0,-0.22015087,-0.043738406,0.4244554,0.0025000002,0.0025000002,0.0025000002,0.0009968992,-0.0006947629,0.0010276437,0.0005364519,-0.0005556802,0.00065831706,0.0025041006,0.0025113109,0.0025019138,4.4096916e-05,2.1398391e-05,4.6896566e-05,0.00013761803,-6.1717416e-05,0.00027488792,0,0,1
2050368000,2050216000,2050216000,0,-0.21577045,-0.04070196,0.42180902,0.0025000002,0.0025000002,0.0025000002,-0.0028742042,-0.0039161704,0.0039174557,0.00010146294,-0.0009840248,0.001073998,0.00250414,0.0025113407,0.0025019224,0.00036655075,0.00067787006,0.0006815853,7.331725e-05,-0.00014030043,0.00032675738,0,0,1
2050440000,2050287272,2050288000,0,-0.2182071,-0.047218975,0.42480788,0.0025000002,0.0025000002,0.0025000002,0.00020137324,0.0022273473,0.0012049973,0.00011392777,-0.00058339187,0.0010903332,0.00250418,0.00251137,0.0025019299,1.7992664e-06,0.00021946483,6.447721e-05,6.4394655e-05,-9.541605e-05,0.00029403524,0,0,1
2050512000,2050356000,2050360000,0,-0.21598072,-0.046583425,0.43043476,0.0025000002,0.0025000002,0.0025000002,-0.0016116805,0.0012964755,-0.004241705,-9.4603565e-05,-0.0003560872,0.0004459843,0.0025040018,0.0025112687,0.0025018775,0.00011526056,7.449438e-05,0.00079904124,4.26842e-05,-7.48832e-05,0.00016194228,0,0,1
2050584000,2050426000,2050432000,0,-0.21806581,-0.04577965,0.42659917,0.0025000002,0.0025000002,0.0025000002,0.0008753081,0.00045054406,-0.00020319223,2.4508401e-05,-0.00025710056,0.00036626373,0.0025040428,0.0025112974,0.0025018866,3.399677e-05,8.95739e-06,1.8331746e-06,4.1617324e-05,-6.458699e-05,0.00014182951,0,0,1
2050648000,2050496000,2050496000,0,-0.21483201,-0.045277048,0.43019867,0.0025000002,0.0025000002,0.0025000002,-0.0019056557,-0.00029700994,-0.0035972,-0.0002125293,-0.0002618444,-0.000120471,0.0025040782,0.002511318,0.0025018938,0.00016113819,3.8693956e-06,0.00057465234,1.6717524e-05,-5.713044e-05,5.3840515e-05,0,0,1
2050720000,2050563555,2050568000,0,-0.2169164,-0.04438044,0.42511585,0.0025000002,0.0025000002,0.0025000002,0.00038929057,-0.0009853314,0.0016166957,-0.00014089582,-0.0003479597,8.630067e-05,0.0025041169,0.002511351,0.0025019033,6.724355e-06,4.2955096e-05,0.00011607629,1.5528056e-05,-5.5443175e-05,6.124832e-05,0,0,0
2050792000,2050636000,2050640000,0,-0.21608892,-0.04565733,0.4272632,0.0025000002,0.0025000002,0.0025000002,-0.0013433248,0.0007908568,-0.00088471174,-0.0002930676,-0.00017636227,-3.6825862e-05,0.0051796176,0.008906135,0.0051083635,3.8709884e-05,1.2485661e-05,1.709815e-05,8.664047e-06,-4.6846533e-05,5.133329e-05,0,0,1
2050864000,2050707555,2050712000,0,-0.21578555,-0.044492666,0.42735168,0.0025000002,0.0025000002,0.0025000002,-0.0006577264,-0.0011577085,-0.00041121244,-0.00033872054,-0.0002966779,-8.372985e-05,0.003776393,0.0042932727,0.003776507,1.2728315e-05,3.345267e-05,4.9814944e-06,5.985861e-06,-4.516971e-05,4.4283042e-05,0,0,1
2050936000,2050777333,2050784000,0,-0.21638267,-0.04402578,0.42791018,0.0025000002,0.0025000002,0.0025000002,0.0002859601,-0.0014494099,-0.00079002976,-0.00026221888,-0.00043831306,-0.00017024769,0.0033434,0.003543894,0.0033450401,2.7175654e-06,6.620062e-05,2.0740938e-05,5.5856085e-06,-4.7745263e-05,3.6319863e-05,0,0,1
2051000000,2050845500,2050848000,0,-0.21528465,-0.046469405,0.42883363,0.0025000002,0.0025000002,0.0025000002,-0.0005870093,0.0014822371,-0.0013492703,-0.0003011863,-0.00020738298,-0.00031169422,0.0031300252,0.0032366049,0.0031315675,1.223206e-05,7.585066e-05,6.458692e-05,3.4478971e-06,-3.291659e-05,2.4213365e-05,0,0,1
2051072000,2050917000,2050920000,0,-0.21369419,-0.04750495,0.42559746,0.0025000002,0.0025000002,0.0025000002,-0.001598064,0.0022580326,0.002397418,-0.0004634378,0.00010200724,2.7253234e-05,0.0030032194,0.003068846,0.0030042005,9.44841e-05,0.00018583603,0.00021259417,-8.8043125e-06,-5.548587e-06,4.7781567e-05,0,0,1
2051144000,2050989000,2050992000,0,-0.2156358,-0.04761825,0.42554674,0.0025000002,0.0025000002,0.0025000002,0.0012006942,0.0017122962,0.0023127496,-0.00025396666,0.00030418736,0.0003149781,0.0029190092,0.002963283,0.002919589,5.487656e-05,0.00010941205,0.00020361628,-7.885392e-07,8.921982e-06,6.739712e-05,0,0,1
2051208000,2051056000,2051056000,0,-0.21403961,-0.048794746,0.42906925,0.0025000002,0.0025000002,0.0025000002,-0.00021921773,0.002713468,-0.0013592541,-0.00024986052,0.0005889489,0.00011718208,0.0028589112,0.0028908215,0.0028592935,1.8677047e-06,0.000283116,7.175937e-05,-9.160596e-07,4.1322335e-05,5.0953586e-05,0,0,1
2051280000,2051126666,2051128000,0,-0.21477333,-0.046186063,0.42962492,0.0025000002,0.0025000002,0.0025000002,0.0010523163,-0.00035353005,-0.0015007555,-8.861098e-05,0.0004719747,-8.317178e-05,0.0028139807,0.002837891,0.0028141523,4.3724915e-05,4.95314e-06,8.8929504e-05,4.611866e-06,3.559201e-05,3.3631757e-05,0,0,1
2051352000,2051194000,2051200000,0,-0.21473157,-0.04889696,0.42288256,0.0025000002,0.0025000002,0.0025000002,0.0013848367,0.002713982,0.0056891143,8.626508e-05,0.00073780544,0.00060194306,0.002778944,0.0027977093,0.0027790866,7.667872e-05,0.0002920529,0.0012941516,1.3165116e-05,6.603005e-05,0.00018323648,0,0,1
2051424000,2051264400,2051272000,0,-0.21245053,-0.04488502,0.4296322,0.0025000002,0.0025000002,0.0025000002,-0.0007540855,-0.001698792,-0.0015048683,-1.7452803e-05,0.00043720263,0.00034189003,0.0027510494,0.002765985,0.0027510668,2.296679e-05,0.00011578698,9.1490074e-05,8.705638e-06,4.35898e-05,0.00014932913,0,0,1
2051488000,2051332000,2051336000,0,-0.20977362,-0.046971846,0.4282115,0.0025000002,0.0025000002,0.0025000002,-0.003139825,0.00063310936,0.00017437339,-0.00038932095,0.00046094335,0.0003219275,0.0027281197,0.0027404707,0.00272816,0.00040151796,1.642797e-05,1.2369773e-06,-4.015115e-05,4.035488e-05,0.00013169166,0,0,1
2051560000,2051402545,2051408000,0,-0.21284918,-0.04551476,0.42903355,0.0025000002,0.0025000002,0.0025000002,0.00053642766,-0.00090937316,-0.00049728155,-0.0002748568,0.0002914486,0.00022063166,0.0027090972,0.002719378,0.002709086,1.1801989e-05,3.3826032e-05,1.0143952e-05,-3.3727407e-05,3.1182786e-05,0.000114154405,0,0,1
2051624000,2051472000,2051472000,0,-0.21452874,-0.043867737,0.42602202,0.0025000002,0.0025000002,0.0025000002,0.0023039314,-0.0024862327,0.002616942,3.967152e-05,-4.7560432e-05,0.0005128965,0.0026929635,0.002701725,0.0026929558,0.00021901108,0.0002545868,0.0002825512,-2.9015282e-06,-3.671812e-06,0.00013469334,0,0,1
2051696000,2051541600,2051544000,0,-0.21366802,-0.045121513,0.42769757,0.0025000002,0.0025000002,0.0025000002,0.0019954056,-0.0012712888,0.0010868907,0.00027864467,-0.00019725361,0.0005830355,0.0026791524,0.0026867057,0.0026791387,0.00016512866,6.698001e-05,4.8994552e-05,1.7630251e-05,-1.1407505e-05,0.00012422173,0,0,1
2051768000,2051614000,2051616000,0,-0.21258245,-0.04292365,0.4322948,0.0025000002,0.0025000002,0.0025000002,0.0011615548,-0.0030816682,-0.0033597648,0.00039031953,-0.00056217186,8.430274e-05,0.0026671689,0.0026737973,0.0026671658,5.620648e-05,0.000394808,0.00047030768,2.2509565e-05,-5.9901908e-05,4.902268e-05,0,0,1
2051840000,2051685600,2051688000,0,-0.2091794,-0.044958208,0.43095013,0.0025000002,0.0025000002,0.0025000002,-0.0016038555,-0.00073838606,-0.0014415979,0.00014052435,-0.0005841492,-0.00010685314,0.002656699,0.0026625572,0.0026566945,0.000107583495,2.2705268e-05,8.6934095e-05,6.213795e-06,-5.5242566e-05,3.1992407e-05,0,0,1
2051912000,2051758000,2051760000,0,-0.21412374,-0.04639266,0.4349904,0.0025000002,0.0025000002,0.0025000002,0.003530792,0.00079319254,-0.005344391,0.0005693423,-0.00041012123,-0.00076930004,0.0026474767,0.002652675,0.00264746,0.00052320224,2.62559e-05,0.0011986573,7.160507e-05,-4.4934233e-05,-0.00012366631,0,0,1
2051984000,2051828800,2051832000,0,-0.21173058,-0.045437273,0.43153605,0.0025000002,0.0025000002,0.0025000002,0.0012128574,-7.419288e-05,-0.0014449954,0.00064916164,-0.00036851052,-0.00085310166,0.0026392976,0.0026439147,0.0026392522,6.192822e-05,2.3418838e-07,8.789514e-05,7.040479e-05,-3.93898e-05,-0.00011922938,0,0,1
2052056000,2051900000,2051904000,0,-0.20635512,-0.05061205,0.42848897,0.0025000002,0.0025000002,0.0025000002,-0.003950365,0.004737254,0.0017751157,7.583131e-05,0.00026809055,-0.0005254827,0.00263198,0.0026361102,0.0026319157,0.00065879355,0.0009464435,0.00013304119,-2.0489671e-05,8.349418e-05,-8.778389e-05,0,0,1
2052120000,2051968000,2051968000,0,-0.20947331,-0.04452733,0.43031958,0.0025000002,0.0025000002,0.0025000002,-0.0004079289,-0.0017631128,-5.2303076e-05,1.7916362e-05,2.493414e-05,-0.00046885322,0.0026254314,0.002629067,0.002625312,7.042482e-06,0.0001313563,1.1647461e-07,-1.8879797e-05,5.777265e-05,-7.7288496e-05,0,0,1
2052192000,2052037333,2052040000,0,-0.21164459,-0.04765437,0.42871305,0.0025000002,0.0025000002,0.0025000002,0.0018590683,0.0013020374,0.0015781522,0.00024213064,0.00018038844,-0.00021954556,0.0026194628,0.0026227685,0.0026193399,0.00014660067,7.1755996e-05,0.000105675674,1.2723067e-06,5.9475533e-05,-5.500724e-05,0,0,1
2052264000,2052106000,2052112000,0,-0.21021195,-0.045846686,0.42983243,0.0025000002,0.0025000002,0.0025000002,0.00064617913,-0.0003376305,0.00056022406,0.00029091982,0.00011781605,-0.0001253902,0.0026140315,0.00261707,0.0026139086,1.7748127e-05,4.844806e-06,1.3340097e-05,3.2617754e-06,5.1708797e-05,-4.6754245e-05,0,0,1
2052336000,2052178000,2052184000,0,-0.2065635,-0.049603112,0.42968357,0.0025000002,0.0025000002,0.0025000002,-0.0027681976,0.0033657253,0.0008055568,-9.414388e-05,0.00052672793,-8.195988e-06,0.0026090846,0.0026118709,0.0026089537,0.00032633488,0.0004820984,2.7643115e-05,-3.8225913e-05,0.00010588371,-3.7389545e-05,0,0,1
2052408000,2052249500,2052256000,0,-0.20825389,-0.046652474,0.43017858,0.0025000002,0.0025000002,0.0025000002,-0.0009208347,0.00045703724,0.00031650066,-0.00019757063,0.00051803683,3.24312e-05,0.0026045605,0.0026071076,0.0026044094,3.6173158e-05,8.910974e-06,4.274628e-06,-3.7969094e-05,9.3751514e-05,-3.2176966e-05,0,0,1
2052480000,2052321000,2052328000,0,-0.20713764,-0.045661665,0.43053055,0.0025000002,0.0025000002,0.0025000002,-0.0019366771,-0.0005096197,-1.2397766e-05,-0.00041514914,0.0003895214,2.6814545e-05,0.0026004028,0.002602724,0.0026002289,0.00016026228,1.1068419e-05,6.637033e-09,-5.3269116e-05,8.063756e-05,-2.8152157e-05,0,0,1
2052544000,2052388000,2052392000,0,-0.2071239,-0.04602919,0.42776784,0.0025000002,0.0025000002,0.0025000002,-0.0017583783,9.536743e-07,0.0028212667,-0.0005738729,0.0003436492,0.00035701512,0.0025965516,0.002598702,0.002596371,0.00013230772,7.4453214e-11,0.00034061054,-6.260877e-05,7.110897e-05,1.5422978e-05,0,0,1
2052616000,2052459200,2052464000,0,-0.21090177,-0.046739485,0.43191814,0.0025000002,0.0025000002,0.0025000002,0.0021099467,0.0008380376,-0.0014081001,-0.00023933518,0.00040522142,0.00013700567,0.0025929979,0.0025949827,0.0025928004,0.00019076483,3.0040512e-05,8.49565e-05,-3.1025793e-05,6.598979e-05,2.9106914e-06,0,0,1
2052680000,2052526000,2052528000,0,-0.21082488,-0.045502268,0.4295588,0.0025000002,0.0025000002,0.0025000002,0.0017790695,-0.0005797781,0.0008984804,-1.456865e-06,0.00028909228,0.00022675747,0.0025897066,0.002591522,0.002589486,0.00013579782,1.442996e-05,3.464422e-05,-1.136486e-05,5.651195e-05,6.6506345e-06,0,0,1
2052752000,2052597333,2052600000,0,-0.2058968,-0.04757467,0.42985806,0.0025000002,0.0025000002,0.0025000002,-0.003056855,0.0014867559,0.0006407201,-0.0003829344,0.00043869513,0.0002784204,0.0025866332,0.0025883222,0.0025864008,0.00040139534,9.496137e-05,1.7626311e-05,-6.0061582e-05,6.13125e-05,8.0209875e-06,0,0,1
2052816000,2052664000,2052664000,0,-0.20748977,-0.046148147,0.43103847,0.0025000002,0.0025000002,0.0025000002,-0.0015419119,8.264184e-05,-0.0006413162,-0.00051928527,0.00039684068,0.00017020252,0.0025837715,0.0025853296,0.0025835212,0.00010224038,2.9559985e-07,1.7694594e-05,-6.5023814e-05,5.4134012e-05,4.9956116e-06,0,0,1
2052888000,2052734857,2052736000,0,-0.20916837,-0.04347581,0.43288627,0.0025000002,0.0025000002,0.0025000002,0.00021299231,-0.0025044903,-0.0024462044,-0.00042839212,3.6710844e-05,-0.000154562,0.0025810772,0.0025825442,0.002580828,1.9529195e-06,0.00026987528,0.00025763255,-5.67104e-05,1.3916713e-05,-2.7602826e-05,0,0,1
2052960000,2052807200,2052808000,0,-0.21021305,-0.047047067,0.43064484,0.0025000002,0.0025000002,0.0025000002,0.0011222843,0.0014191493,-0.00016218424,-0.00023238975,0.00021142582,-0.00015551699,0.002578548,0.002579951,0.002578305,5.4273536e-05,8.671487e-05,1.1326148e-06,-4.2682255e-05,2.3118253e-05,-2.4257044e-05,0,0,1
2053032000,2052878857,2052880000,0,-0.20884278,-0.047599725,0.43125677,0.0025000002,0.0025000002,0.0025000002,-0.00014840066,0.0019202903,-0.0007048547,-0.00022186174,0.0004256339,-0.0002243774,0.0025761744,0.0025775186,0.002575934,9.4984756e-07,0.00015896389,2.1430542e-05,-3.7451115e-05,4.0146457e-05,-2.3902743e-05,0,0,1
2053104000,2052946000,2052952000,0,-0.20666584,-0.047769394,0.43184832,0.0025000002,0.0025000002,0.0025000002,-0.0023858994,0.0020371266,-0.0013067722,-0.00047805812,0.0006164507,-0.00035253272,0.0025739484,0.0025752268,0.0025737034,0.0002457321,0.00017910378,7.373431e-05,-6.210912e-05,5.6597353e-05,-2.980221e-05,0,0,1
2053176000,2053017000,2053024000,0,-0.20846325,-0.046867184,0.43029645,0.0025000002,0.0025000002,0.0025000002,-0.000564552,0.0009829402,0.00025084615,-0.00048881304,0.0006620291,-0.0002775136,0.0025718547,0.0025730643,0.0025716007,1.3769527e-05,4.1727e-05,2.7175267e-06,-5.6098415e-05,5.4748325e-05,-2.57586e-05,0,0,1
2053240000,2053084000,2053088000,0,-0.20742206,-0.04691708,0.43274236,0.0025000002,0.0025000002,0.0025000002,-0.0016722751,0.00093442574,-0.0022496283,-0.00062865776,0.0006942393,-0.0005105618,0.0025698708,0.0025710254,0.0025696147,0.00012090984,3.7749873e-05,0.0002188514,-6.375691e-05,5.273969e-05,-4.857556e-05,0,0,1
2053312000,2053156000,2053160000,0,-0.21101938,-0.044611603,0.42981216,0.0025000002,0.0025000002,0.0025000002,0.0016810698,-0.001219973,0.0006185174,-0.00033792286,0.00045326984,-0.00036842696,0.0025679804,0.0025691055,0.002567736,0.0001222749,6.4385364e-05,1.655982e-05,-4.034032e-05,3.799668e-05,-4.03767e-05,0,0,1
2053384000,2053228000,2053232000,0,-0.21110336,-0.04643997,0.4282845,0.0025000002,0.0025000002,0.0025000002,0.0014861518,0.00082237273,0.0020341277,-0.00010831907,0.0004997109,-6.598898e-05,0.002566214,0.0025672805,0.0025659583,9.562929e-05,2.9258917e-05,0.00017919554,-2.3225266e-05,3.689682e-05,-1.2738237e-05,0,0,1
2053456000,2053299555,2053304000,0,-0.21204188,-0.043520264,0.43137524,0.0025000002,0.0025000002,0.0025000002,0.0020750894,-0.0021747537,-0.0012674928,0.00016502957,0.00016485923,-0.0002163856,0.00256454,0.0025655513,0.0025642714,0.00018656133,0.00020487064,6.9591086e-05,3.0386636e-06,6.629096e-06,-1.9855848e-05,0,0,1
2053528000,2053372000,2053376000,0,-0.21068245,-0.04565315,0.43020317,0.0025000002,0.0025000002,0.0025000002,0.0005150989,8.229539e-05,-0.00012931228,0.00020933212,0.00015440377,-0.00020535977,0.002562942,0.0025639182,0.0025626693,1.1502705e-05,2.9311934e-07,7.2444544e-07,4.1098187e-06,5.827255e-06,-1.74347e-05,0,0,1
2053600000,2053443555,2053448000,0,-0.21375939,-0.04441046,0.4308863,0.0025000002,0.0025000002,0.0025000002,0.003398065,-0.0013333,-0.0009166002,0.0006085409,-3.1881907e-05,-0.00029437343,0.002561426,0.0025623639,0.0025611448,0.0005008862,7.711757e-05,3.6430345e-05,6.6303015e-05,-4.5569027e-06,-1.9812833e-05,0,0,1
2053672000,2053513333,2053520000,0,-0.20990825,-0.047288217,0.43274188,0.0025000002,0.0025000002,0.0025000002,-0.00059448235,0.0016562641,-0.0027714372,0.00046121236,0.00017486383,-0.00059773616,0.0025599722,0.0025608798,0.0025596926,1.533911e-05,0.00011902972,0.00033342766,5.6304692e-05,1.0578162e-05,-5.8219746e-05,0,0,1
2053736000,2053581500,2053584000,0,-0.20961975,-0.046100803,0.4303248,0.0025000002,0.0025000002,0.0025000002,-0.00092236506,0.00052780285,-0.00030571222,0.00029521482,0.00021721647,-0.00056271185,0.0025585988,0.002559462,0.002558309,3.6945454e-05,1.2096583e-05,4.0617238e-06,4.5116816e-05,1.0760337e-05,-5.1722025e-05,0,0,1
2053808000,2053653000,2053656000,0,-0.20899239,-0.04607604,0.42939624,0.0025000002,0.0025000002,0.0025000002,-0.0015617275,0.00046967715,0.00061136484,6.289396e-05,0.000248815,-0.0004158395,0.0025572937,0.0025581135,0.0025569887,0.000105971085,9.585915e-06,1.6234999e-05,2.6214304e-05,1.0613406e-05,-4.3219967e-05,0,0,1
2053880000,2053725500,2053728000,0,-0.20937753,-0.04416666,0.42901748,0.0025000002,0.0025000002,0.0025000002,-0.0011730653,-0.0015656911,0.00094905496,-9.362488e-05,1.9042127e-05,-0.00024301014,0.0025560488,0.0025568255,0.0025557268,5.9818118e-05,0.000106516556,3.9147035e-05,1.5319369e-05,-4.2196452e-06,-3.2789212e-05,0,0,1
2053952000,2053797000,2053800000,0,-0.20824714,-0.0470709,0.4306136,0.0025000002,0.0025000002,0.0025000002,-0.0023060716,0.001301758,-0.0006889403,-0.00037042267,0.00017954322,-0.0002988287,0.00255485,0.0025556034,0.0025545196,0.00023127976,7.369505e-05,2.0658501e-05,-1.5532492e-05,5.5282135e-06,-3.1271546e-05,0,0,1
2054024000,2053869500,2053872000,0,-0.21176127,-0.045871817,0.43157536,0.0025000002,0.0025000002,0.0025000002,0.0013320737,0.00016443059,-0.0015900731,-0.00015482272,0.00017761717,-0.00046233757,0.002553706,0.002554431,0.0025533652,7.720459e-05,1.1746773e-06,0.00011000961,-3.7884956e-06,4.9768923e-06,-4.124274e-05,0,0,1
2054096000,2053942000,2053944000,0,-0.21071663,-0.045161933,0.4275126,0.0025000002,0.0025000002,0.0025000002,9.7821234e-05,-0.0007520877,0.0024049282,-0.0001228285,5.9879552e-05,-9.923239e-05,0.0025526008,0.0025532995,0.002552256,4.1652478e-07,2.4615665e-05,0.00025179217,-3.2559822e-06,1.2293635e-06,-4.133515e-06,0,0,1
2054168000,2054013000,2054016000,0,-0.21174484,-0.045009494,0.42973563,0.0025000002,0.0025000002,0.0025000002,0.001132438,-0.0009952411,0.00012555718,3.325545e-05,-7.132741e-05,-7.127277e-05,0.0025515514,0.0025522239,0.002551194,5.5844703e-05,4.3128486e-05,6.873415e-07,4.0927907e-06,-4.2862366e-06,-3.534074e-06,0,0,1
2054232000,2054080000,2054080000,0,-0.20788085,-0.04590538,0.4284273,0.0025000002,0.0025000002,0.0025000002,-0.002586613,-0.00016106665,0.0015055835,-0.00027632335,-8.191276e-05,0.000115034294,0.0025505295,0.0025511987,0.0025501733,0.0002914674,1.1276336e-06,9.873777e-05,-3.083231e-05,-3.9129977e-06,8.550958e-06,0,0,1
2054304000,2054151555,2054152000,0,-0.21268788,-0.044427544,0.4301951,0.0025000002,0.0025000002,0.0025000002,0.0023109196,-0.0015948713,-0.0002682805,4.7582784e-05,-0.00027134301,6.706959e-05,0.0025495556,0.0025502162,0.0025491945,0.00023273552,0.000110843015,3.1326817e-06,2.1646847e-06,-1.7299946e-05,7.088242e-06,0,0,1
2054376000,2054222666,2054224000,0,-0.2080091,-0.043223143,0.4301089,0.0025000002,0.0025000002,0.0025000002,-0.002589013,-0.0028208196,-0.00026893616,-0.00028070883,-0.0005887714,2.519579e-05,0.002548622,0.002549269,0.0025482539,0.00029222714,0.00034677965,3.1605389e-06,-3.4491055e-05,-5.83246e-05,5.812131e-06,0,0,1
2054448000,2054289500,2054296000,0,-0.21027318,-0.04762029,0.4308443,0.0025000002,0.0025000002,0.0025000002,-0.0005916012,0.0015652739,-0.001161933,-0.0003173654,-0.0003347908,-0.00011478176,0.0025477244,0.0025483575,0.0025473495,1.5263817e-05,0.00010682904,5.8893835e-05,-3.222402e-05,-3.8851736e-05,-1.8171904e-06,0,0,1
2054520000,2054362000,2054368000,0,-0.21216188,-0.046815142,0.42950705,0.0025000002,0.0025000002,0.0025000002,0.0013338887,0.00079126656,0.00021570921,-0.00010825462,-0.00019219877,-7.290693e-05,0.0025468539,0.0025474683,0.002546476,7.76234e-05,2.7303297e-05,2.0335874e-06,-1.831321e-05,-3.0474026e-05,-1.3295373e-06,0,0,1
2054592000,2054433500,2054440000,0,-0.21200651,-0.045792945,0.42999342,0.0025000002,0.0025000002,0.0025000002,0.0011546994,-0.0004281141,-0.00029358268,4.9752736e-05,-0.00022172101,-0.0001005103,0.002546023,0.002546625,0.0025456364,5.818794e-05,7.998812e-06,3.7609548e-06,-8.7422e-06,-2.7662167e-05,-1.6337303e-06,0,0,1
2054664000,2054505000,2054512000,0,-0.2110534,-0.044442184,0.42902592,0.0025000002,0.0025000002,0.0025000002,0.00013554993,-0.0015033185,0.0006851256,6.0486767e-05,-0.00038206266,-2.216737e-06,0.0025452229,0.0025458126,0.0025448266,8.021032e-07,9.863735e-05,2.0496118e-05,-7.5481184e-06,-3.6541827e-05,1.1349209e-06,0,0,1
2054736000,2054577500,2054584000,0,-0.20922491,-0.047874287,0.43074155,0.0025000002,0.0025000002,0.0025000002,-0.0016382297,0.0019262098,-0.0010172427,-0.00015463452,-8.974003e-05,-0.00013077416,0.002544456,0.0025450254,0.0025440457,0.00011719583,0.00016199567,4.520606e-05,-2.1433636e-05,-1.1399525e-05,-4.733587e-06,0,0,1
2054808000,2054650000,2054656000,0,-0.21028459,-0.043504566,0.42646942,0.0025000002,0.0025000002,0.0025000002,-0.0006408022,-0.0024831705,0.0032271147,-0.00021620159,-0.00039283448,0.00029443612,0.002543715,0.0025442692,0.002543292,1.793647e-05,0.00026927574,0.00045492296,-2.0990763e-05,-4.4056338e-05,5.3476193e-05,0,0,1
2054880000,2054721500,2054728000,0,-0.20920852,-0.047664873,0.42934045,0.0025000002,0.0025000002,0.0025000002,-0.0017661615,0.0017280653,0.00027254224,-0.00041011607,-0.00012748156,0.00029168013,0.0025429828,0.0025435323,0.0025425616,0.00013629341,0.00013045919,3.2428293e-06,-3.5416204e-05,-2.2222812e-05,4.719153e-05,0,0,1
2054952000,2054794000,2054800000,0,-0.20665742,-0.04700537,0.42959982,0.0025000002,0.0025000002,0.0025000002,-0.0042932946,0.0008784421,-1.0728836e-05,-0.0009018723,-6.861228e-08,0.00025331537,0.002542292,0.002542828,0.0025418575,0.0008055888,3.3733693e-05,5.551249e-09,-0.00013294898,-1.5136617e-05,4.1214607e-05,0,0,1
2055024000,2054865500,2054872000,0,-0.20923604,-0.045447025,0.4290838,0.0025000002,0.0025000002,0.0025000002,-0.0017245886,-0.0010101423,0.00043189526,-0.0010048018,-0.00012642637,0.0002756334,0.0025416273,0.0025421449,0.0025411777,0.00013002193,4.4590302e-05,8.1488015e-06,-0.00013258278,-1.8821549e-05,3.7077763e-05,0,0,1
2055096000,2054937000,2054944000,0,-0.20829462,-0.0456312,0.4290726,0.0025000002,0.0025000002,0.0025000002,-0.0026666024,-0.0009858645,0.00040349364,-0.0012127087,-0.00023393202,0.00029158418,0.002540985,0.0025414845,0.002540519,0.00031093665,4.2479256e-05,7.1075688e-06,-0.00015489652,-2.178135e-05,3.332821e-05,0,0,1
2055160000,2055004000,2055008000,0,-0.21081339,-0.046219077,0.4269034,0.0025000002,0.0025000002,0.0025000002,-0.00017056463,-0.00027312338,0.0025454164,-0.0010895629,-0.00023856273,0.0005579096,0.002540357,0.0025408445,0.0025398813,1.2724499e-06,3.2620253e-06,0.00028343961,-0.00013674342,-1.9593e-05,6.288282e-05,0,0,1
2055232000,2055075200,2055080000,0,-0.21117468,-0.04515458,0.43119955,0.0025000002,0.0025000002,0.0025000002,0.00021231361,-0.0010423437,-0.0017503202,-0.0009272842,-0.00033875636,0.00027019478,0.0025397502,0.0025402321,0.0025392647,1.9720692e-06,4.752503e-05,0.00013404852,-0.000119452554,-2.3074725e-05,3.8335358e-05,0,0,1
2055304000,2055146285,2055152000,0,-0.21338934,-0.043557145,0.43020034,0.0025000002,0.0025000002,0.0025000002,0.002069961,-0.0025644116,-0.000893116,-0.0005542063,-0.0006158035,0.00012541283,0.002539137,0.0025396324,0.002538664,0.0001874976,0.0002877361,3.48992e-05,-8.1245365e-05,-5.6018078e-05,2.921959e-05,0,0,1
2055368000,2055214000,2055216000,0,-0.20990604,-0.046505492,0.42937368,0.0025000002,0.0025000002,0.0025000002,-0.0015213555,0.00051127374,-8.121133e-05,-0.00066956435,-0.00048136257,0.00010074846,0.0025385579,0.0025390566,0.0025380834,0.00010130522,1.1441814e-05,2.8985798e-07,-8.3638035e-05,-4.7971705e-05,2.5699808e-05,0,0,1
2055440000,2055286000,2055288000,0,-0.2127786,-0.046721723,0.4275388,0.0025000002,0.0025000002,0.0025000002,0.0012493363,0.00078780577,0.0016999245,-0.00042802445,-0.00032161412,0.0003020673,0.002538005,0.0025384997,0.0025375215,6.833194e-05,2.7161737e-05,0.00012656227,-6.4508946e-05,-3.851435e-05,3.839578e-05,0,0,1
2055512000,2055358000,2055360000,0,-0.21141285,-0.046619892,0.4288891,0.0025000002,0.0025000002,0.0025000002,-8.010666e-05,0.00075816736,0.00036078691,-0.0003842306,-0.00018569751,0.00030945698,0.002537468,0.0025379607,0.0025369758,2.8099217e-07,2.5165375e-05,5.700495e-06,-5.642431e-05,-3.049872e-05,3.4280292e-05,0,0,1
2055584000,2055428500,2055432000,0,-0.21016867,-0.04483846,0.42825657,0.0025000002,0.0025000002,0.0025000002,-0.0015985258,-0.0012735017,0.0008263886,-0.0005342881,-0.00032011594,0.0003733112,0.0025369492,0.002537434,0.0025364456,0.00011191415,7.100981e-05,2.990054e-05,-6.328151e-05,-3.5504912e-05,3.373906e-05,0,0,1
2055648000,2055496000,2055496000,0,-0.21384887,-0.048383616,0.42971438,0.0025000002,0.0025000002,0.0025000002,0.0021448722,0.0023188815,-0.00062072277,-0.00021562146,-6.2371546e-06,0.00025511818,0.0025364407,0.0025369215,0.0025359301,0.00020152809,0.00023549066,1.686333e-05,-3.1784333e-05,-3.2719581e-06,2.7720273e-05,0,0,1
2055720000,2055566666,2055568000,0,-0.21106473,-0.046865094,0.42885482,0.0025000002,0.0025000002,0.0025000002,-0.0006317892,0.00087599456,0.00027817488,-0.00026715582,0.00010301354,0.00025796282,0.0025359376,0.0025364112,0.0025354268,1.7488934e-05,3.3617613e-05,3.3890485e-06,-3.0014124e-05,1.296105e-06,2.4707319e-05,0,0,1
2055792000,2055634000,2055640000,0,-0.20447803,-0.051222883,0.42920774,0.0025000002,0.0025000002,0.0025000002,-0.0070686648,0.0051174536,-1.8775463e-05,-0.0010743923,0.0006981852,0.0002250121,0.002535463,0.0025359308,0.0025349397,0.0021896514,0.00114756,1.6957328e-08,-0.0002863305,0.00013734036,2.177292e-05,0,0,1
2055864000,2055705200,2055712000,0,-0.20944679,-0.046880122,0.42933926,0.0025000002,0.0025000002,0.0025000002,-0.0020054136,0.00089675933,-0.00013151765,-0.001190444,0.00072294835,0.0001805364,0.0025350072,0.0025354598,0.0025344694,0.00017627316,3.5248224e-05,7.614744e-07,-0.00027261185,0.0001246146,1.896401e-05,0,0,1
2055928000,2055774000,2055776000,0,-0.20743912,-0.044196732,0.43140113,0.0025000002,0.0025000002,0.0025000002,-0.0037978173,-0.0017724335,-0.0020952225,-0.0015058225,0.000421138,-9.480589e-05,0.002534559,0.0025349993,0.0025340088,0.00063230004,0.00013766714,0.00019260409,-0.00031611844,9.288994e-05,-6.6265056e-06,0,0,1
2056000000,2055843555,2055848000,0,-0.21038601,-0.04404087,0.42970052,0.0025000002,0.0025000002,0.0025000002,-0.00062714284,-0.0020200238,-0.00029355288,-0.0013985167,0.00012302402,-0.0001190925,0.0025341301,0.002534555,0.002533561,1.7244933e-05,0.00017887594,3.7824173e-06,-0.0002796195,5.970144e-05,-6.279181e-06,0,0,1
2056072000,2055914666,2055920000,0,-0.20949851,-0.0409808,0.42544493,0.0025000002,0.0025000002,0.0025000002,-0.0015161049,-0.004951276,0.003971994,-0.001413158,-0.00050878385,0.00039026522,0.0025336926,0.0025341075,0.002533124,0.00010080036,0.0010748592,0.00069191423,-0.0002573541,-8.15666e-05,8.065529e-05,0,0,1
2056144000,2055987111,2055992000,0,-0.21000426,-0.04662787,0.4301783,0.0025000002,0.0025000002,0.0025000002,-0.0009910453,0.0008488372,-0.00080406666,-0.0013597382,-0.0003369649,0.00023909664,0.002533274,0.0025336947,0.0025327005,4.307867e-05,3.160161e-05,2.8375372e-05,-0.00023023678,-6.724475e-05,6.6857065e-05,0,0,1
2056208000,2056054000,2056056000,0,-0.2068686,-0.03836299,0.431372,0.0025000002,0.0025000002,0.0025000002,-0.0042289994,-0.0073385127,-0.0020344555,-0.0016982913,-0.0011630766,-2.9259565e-05,0.0025328612,0.0025332898,0.0025322866,0.0007845513,0.002361923,0.00018175082,-0.00029564206,-0.000338001,3.7523045e-05,0,0,1
2056280000,2056124400,2056128000,0,-0.21170275,-0.043763258,0.43146896,0.0025000002,0.0025000002,0.0025000002,0.00029446883,-0.0017989576,-0.0022822618,-0.0014523405,-0.0012415596,-0.00030733293,0.0025324647,0.0025329003,0.002531886,3.8044575e-06,0.00014196652,0.00022858797,-0.00025868372,-0.000313806,4.6790483e-06,0,0,1
2056344000,2056192000,2056192000,0,-0.21155977,-0.046458803,0.4283729,0.0025000002,0.0025000002,0.0025000002,-0.00011726015,0.0010005981,0.00071927905,-0.0012933352,-0.00097452255,-0.00018506945,0.002532076,0.0025325143,0.0025314947,6.033671e-07,4.392686e-05,2.2705743e-05,-0.00022794688,-0.00027120076,6.8259906e-06,0,0,1
