timestamp,timestamp_sample,lat,lon,alt,alt_ellipsoid,delta_alt,delta_terrain,eph,epv,terrain_alt,lat_lon_valid,alt_valid,lat_lon_reset_counter,alt_reset_counter,terrain_reset_counter,terrain_alt_valid,dead_reckoning
1592248000,0,47.3977503,8.545605799999999,488.104,0.0,0.0,0.0,0.0,0.0,0.0,0,0,0,0,0,0,0
1592252000,0,47.3977503,8.545605799999999,488.104,0.0,0.0,0.0,0.0,0.0,0.0,0,0,0,0,0,0,0
1592348000,0,47.3977503,8.545605799999999,488.104,0.0,0.0,0.0,0.0,0.0,0.0,0,0,0,0,0,0,0
1592448000,0,47.3977503,8.545605799999999,488.104,0.0,0.0,0.0,0.0,0.0,0.0,0,0,0,0,0,0,0
1592548000,0,47.3977503,8.545605799999999,488.104,0.0,0.0,0.0,0.0,0.0,0.0,0,0,0,0,0,0,0
1592644000,0,47.3977503,8.545605799999999,488.104,0.0,0.0,0.0,0.0,0.0,0.0,0,0,0,0,0,0,0
1592748000,0,47.3977503,8.545605799999999,488.104,0.0,0.0,0.0,0.0,0.0,0.0,0,0,0,0,0,0,0
1592848000,0,47.3977503,8.545605799999999,488.104,0.0,0.0,0.0,0.0,0.0,0.0,0,0,0,0,0,0,0
1592948000,0,47.3977503,8.545605799999999,488.104,0.0,0.0,0.0,0.0,0.0,0.0,0,0,0,0,0,0,0
1593048000,0,47.3977503,8.545605799999999,488.104,0.0,0.0,0.0,0.0,0.0,0.0,0,0,0,0,0,0,0
1593148000,0,47.3977503,8.545605799999999,488.104,0.0,0.0,0.0,0.0,0.0,0.0,0,0,0,0,0,0,0
1593248000,0,47.3977503,8.545605799999999,488.104,0.0,0.0,0.0,0.0,0.0,0.0,0,0,0,0,0,0,0
1593348000,0,47.3977503,8.545605799999999,488.104,0.0,0.0,0.0,0.0,0.0,0.0,0,0,0,0,0,0,0
1593448000,0,47.3977503,8.545605799999999,488.104,0.0,0.0,0.0,0.0,0.0,0.0,0,0,0,0,0,0,0
1593548000,0,47.3977503,8.545605799999999,488.104,0.0,0.0,0.0,0.0,0.0,0.0,0,0,0,0,0,0,0
1593648000,0,47.3977503,8.545605799999999,488.104,0.0,0.0,0.0,0.0,0.0,0.0,0,0,0,0,0,0,0
1593748000,0,47.3977503,8.545605799999999,488.104,0.0,0.0,0.0,0.0,0.0,0.0,0,0,0,0,0,0,0
1593848000,0,47.3977503,8.545605799999999,488.104,0.0,0.0,0.0,0.0,0.0,0.0,0,0,0,0,0,0,0
1593948000,0,47.3977503,8.545605799999999,488.104,0.0,0.0,0.0,0.0,0.0,0.0,0,0,0,0,0,0,0
1594048000,0,47.3977503,8.545605799999999,488.104,0.0,0.0,0.0,0.0,0.0,0.0,0,0,0,0,0,0,0
1594148000,0,47.3977503,8.545605799999999,488.104,0.0,0.0,0.0,0.0,0.0,0.0,0,0,0,0,0,0,0
1594244000,0,47.3977503,8.545605799999999,488.104,0.0,0.0,0.0,0.0,0.0,0.0,0,0,0,0,0,0,0
1594348000,0,47.3977503,8.545605799999999,488.104,0.0,0.0,0.0,0.0,0.0,0.0,0,0,0,0,0,0,0
1594448000,0,47.3977503,8.545605799999999,488.104,0.0,0.0,0.0,0.0,0.0,0.0,0,0,0,0,0,0,0
1594548000,0,47.3977503,8.545605799999999,488.104,0.0,0.0,0.0,0.0,0.0,0.0,0,0,0,0,0,0,0
1594648000,0,47.3977503,8.545605799999999,488.104,0.0,0.0,0.0,0.0,0.0,0.0,0,0,0,0,0,0,0
1594748000,0,47.3977503,8.545605799999999,488.104,0.0,0.0,0.0,0.0,0.0,0.0,0,0,0,0,0,0,0
1594848000,0,47.3977503,8.545605799999999,488.104,0.0,0.0,0.0,0.0,0.0,0.0,0,0,0,0,0,0,0
1594948000,0,47.3977503,8.545605799999999,488.104,0.0,0.0,0.0,0.0,0.0,0.0,0,0,0,0,0,0,0
1595048000,0,47.3977503,8.545605799999999,488.104,0.0,0.0,0.0,0.0,0.0,0.0,0,0,0,0,0,0,0
1595148000,0,47.3977503,8.545605799999999,488.104,0.0,0.0,0.0,0.0,0.0,0.0,0,0,0,0,0,0,0
1595248000,0,47.3977503,8.545605799999999,488.104,0.0,0.0,0.0,0.0,0.0,0.0,0,0,0,0,0,0,0
1595348000,0,47.3977503,8.545605799999999,488.104,0.0,0.0,0.0,0.0,0.0,0.0,0,0,0,0,0,0,0
1595448000,0,47.3977503,8.545605799999999,488.104,0.0,0.0,0.0,0.0,0.0,0.0,0,0,0,0,0,0,0
1595548000,0,47.3977503,8.545605799999999,488.104,0.0,0.0,0.0,0.0,0.0,0.0,0,0,0,0,0,0,0
1595648000,0,47.3977503,8.545605799999999,488.104,0.0,0.0,0.0,0.0,0.0,0.0,0,0,0,0,0,0,0
1595748000,0,47.3977503,8.545605799999999,488.104,0.0,0.0,0.0,0.0,0.0,0.0,0,0,0,0,0,0,0
1595848000,0,47.3977503,8.545605799999999,488.104,0.0,0.0,0.0,0.0,0.0,0.0,0,0,0,0,0,0,0
1595948000,0,47.3977503,8.545605799999999,488.104,0.0,0.0,0.0,0.0,0.0,0.0,0,0,0,0,0,0,0
1596048000,0,47.3977503,8.545605799999999,488.104,0.0,0.0,0.0,0.0,0.0,0.0,0,0,0,0,0,0,0
1596148000,0,47.3977503,8.545605799999999,488.104,0.0,0.0,0.0,0.0,0.0,0.0,0,0,0,0,0,0,0
1596248000,0,47.3977503,8.545605799999999,488.104,0.0,0.0,0.0,0.0,0.0,0.0,0,0,0,0,0,0,0
1596348000,0,47.3977503,8.545605799999999,488.104,0.0,0.0,0.0,0.0,0.0,0.0,0,0,0,0,0,0,0
1596448000,0,47.3977503,8.545605799999999,488.104,0.0,0.0,0.0,0.0,0.0,0.0,0,0,0,0,0,0,0
1596548000,0,47.3977503,8.545605799999999,488.104,0.0,0.0,0.0,0.0,0.0,0.0,0,0,0,0,0,0,0
1596648000,0,47.3977503,8.545605799999999,488.104,0.0,0.0,0.0,0.0,0.0,0.0,0,0,0,0,0,0,0
1596748000,0,47.3977503,8.545605799999999,488.104,0.0,0.0,0.0,0.0,0.0,0.0,0,0,0,0,0,0,0
1596848000,0,47.3977503,8.545605799999999,488.104,0.0,0.0,0.0,0.0,0.0,0.0,0,0,0,0,0,0,0
1596948000,0,47.3977503,8.545605799999999,488.104,0.0,0.0,0.0,0.0,0.0,0.0,0,0,0,0,0,0,0
1597044000,0,47.3977503,8.545605799999999,488.107,0.0,0.0,0.0,0.0,0.0,0.0,0,0,0,0,0,0,0
1597148000,0,47.3977503,8.545605799999999,488.115,0.0,0.0,0.0,0.0,0.0,0.0,0,0,0,0,0,0,0
1597248000,0,47.3977504,8.5456059,488.129,0.0,0.0,0.0,0.0,0.0,0.0,0,0,0,0,0,0,0
1597344000,0,47.3977504,8.545606,488.149,0.0,0.0,0.0,0.0,0.0,0.0,0,0,0,0,0,0,0
1597448000,0,47.3977505,8.5456062,488.18,0.0,0.0,0.0,0.0,0.0,0.0,0,0,0,0,0,0,0
1597548000,0,47.397750599999995,8.5456064,488.218,0.0,0.0,0.0,0.0,0.0,0.0,0,0,0,0,0,0,0
1597648000,0,47.397750699999996,8.5456067,488.268,0.0,0.0,0.0,0.0,0.0,0.0,0,0,0,0,0,0,0
1597748000,0,47.3977508,8.545607,488.327,0.0,0.0,0.0,0.0,0.0,0.0,0,0,0,0,0,0,0
1597848000,0,47.3977509,8.5456073,488.392,0.0,0.0,0.0,0.0,0.0,0.0,0,0,0,0,0,0,0
1597948000,0,47.397751,8.5456076,488.461,0.0,0.0,0.0,0.0,0.0,0.0,0,0,0,0,0,0,0
1598048000,0,47.3977511,8.545607799999999,488.533,0.0,0.0,0.0,0.0,0.0,0.0,0,0,0,0,0,0,0
1598148000,0,47.397751199999995,8.545608099999999,488.607,0.0,0.0,0.0,0.0,0.0,0.0,0,0,0,0,0,0,0
1598248000,0,47.397751299999996,8.5456083,488.683,0.0,0.0,0.0,0.0,0.0,0.0,0,0,0,0,0,0,0
1598348000,0,47.397751299999996,8.545608399999999,488.76,0.0,0.0,0.0,0.0,0.0,0.0,0,0,0,0,0,0,0
1598448000,0,47.3977514,8.5456086,488.837,0.0,0.0,0.0,0.0,0.0,0.0,0,0,0,0,0,0,0
1598548000,0,47.3977514,8.545608699999999,488.915,0.0,0.0,0.0,0.0,0.0,0.0,0,0,0,0,0,0,0
1598644000,0,47.3977514,8.545608699999999,488.988,0.0,0.0,0.0,0.0,0.0,0.0,0,0,0,0,0,0,0
1598748000,0,47.3977514,8.5456088,489.074,0.0,0.0,0.0,0.0,0.0,0.0,0,0,0,0,0,0,0
1598848000,0,47.3977514,8.5456088,489.15,0.0,0.0,0.0,0.0,0.0,0.0,0,0,0,0,0,0,0
1598948000,0,47.3977514,8.5456088,489.234,0.0,0.0,0.0,0.0,0.0,0.0,0,0,0,0,0,0,0
1599048000,0,47.397751299999996,8.5456088,489.314,0.0,0.0,0.0,0.0,0.0,0.0,0,0,0,0,0,0,0
1599148000,0,47.397751299999996,8.545608699999999,489.391,0.0,0.0,0.0,0.0,0.0,0.0,0,0,0,0,0,0,0
1599248000,0,47.397751199999995,8.5456086,489.474,0.0,0.0,0.0,0.0,0.0,0.0,0,0,0,0,0,0,0
1599348000,0,47.397751199999995,8.5456085,489.55,0.0,0.0,0.0,0.0,0.0,0.0,0,0,0,0,0,0,0
1599448000,0,47.3977511,8.545608399999999,489.631,0.0,0.0,0.0,0.0,0.0,0.0,0,0,0,0,0,0,0
1599548000,0,47.3977511,8.5456083,489.706,0.0,0.0,0.0,0.0,0.0,0.0,0,0,0,0,0,0,0
1599648000,0,47.397751,8.5456082,489.783,0.0,0.0,0.0,0.0,0.0,0.0,0,0,0,0,0,0,0
1599748000,0,47.3977509,8.545608099999999,489.861,0.0,0.0,0.0,0.0,0.0,0.0,0,0,0,0,0,0,0
1599848000,0,47.3977509,8.5456079,489.935,0.0,0.0,0.0,0.0,0.0,0.0,0,0,0,0,0,0,0
1599948000,0,47.3977508,8.545607799999999,490.005,0.0,0.0,0.0,0.0,0.0,0.0,0,0,0,0,0,0,0
1600048000,0,47.397750699999996,8.5456077,490.078,0.0,0.0,0.0,0.0,0.0,0.0,0,0,0,0,0,0,0
1600148000,0,47.397750599999995,8.5456075,490.147,0.0,0.0,0.0,0.0,0.0,0.0,0,0,0,0,0,0,0
1600248000,0,47.397750599999995,8.5456074,490.215,0.0,0.0,0.0,0.0,0.0,0.0,0,0,0,0,0,0,0
1600348000,0,47.3977505,8.5456073,490.28,0.0,0.0,0.0,0.0,0.0,0.0,0,0,0,0,0,0,0
1600448000,0,47.3977504,8.5456072,490.341,0.0,0.0,0.0,0.0,0.0,0.0,0,0,0,0,0,0,0
1600548000,0,47.3977504,8.5456071,490.405,0.0,0.0,0.0,0.0,0.0,0.0,0,0,0,0,0,0,0
1600648000,0,47.3977503,8.545607,490.464,0.0,0.0,0.0,0.0,0.0,0.0,0,0,0,0,0,0,0
1600748000,0,47.3977503,8.5456069,490.519,0.0,0.0,0.0,0.0,0.0,0.0,0,0,0,0,0,0,0
1600848000,0,47.3977502,8.5456068,490.562,0.0,0.0,0.0,0.0,0.0,0.0,0,0,0,0,0,0,0
1600948000,0,47.3977502,8.5456067,490.595,0.0,0.0,0.0,0.0,0.0,0.0,0,0,0,0,0,0,0
1601048000,0,47.3977502,8.5456067,490.617,0.0,0.0,0.0,0.0,0.0,0.0,0,0,0,0,0,0,0
1601148000,0,47.397750099999996,8.5456066,490.634,0.0,0.0,0.0,0.0,0.0,0.0,0,0,0,0,0,0,0
1601248000,0,47.397750099999996,8.5456065,490.652,0.0,0.0,0.0,0.0,0.0,0.0,0,0,0,0,0,0,0
1601348000,0,47.397750099999996,8.5456065,490.672,0.0,0.0,0.0,0.0,0.0,0.0,0,0,0,0,0,0,0
1601448000,0,47.397750099999996,8.5456064,490.695,0.0,0.0,0.0,0.0,0.0,0.0,0,0,0,0,0,0,0
1601548000,0,47.397750099999996,8.5456064,490.718,0.0,0.0,0.0,0.0,0.0,0.0,0,0,0,0,0,0,0
1601648000,0,47.397750099999996,8.5456064,490.741,0.0,0.0,0.0,0.0,0.0,0.0,0,0,0,0,0,0,0
1601748000,0,47.397750099999996,8.5456064,490.762,0.0,0.0,0.0,0.0,0.0,0.0,0,0,0,0,0,0,0
1601848000,0,47.397750099999996,8.5456063,490.782,0.0,0.0,0.0,0.0,0.0,0.0,0,0,0,0,0,0,0
1601948000,0,47.397750099999996,8.5456063,490.801,0.0,0.0,0.0,0.0,0.0,0.0,0,0,0,0,0,0,0
1602048000,0,47.397750099999996,8.5456063,490.821,0.0,0.0,0.0,0.0,0.0,0.0,0,0,0,0,0,0,0
1602148000,0,47.397750099999996,8.5456064,490.838,0.0,0.0,0.0,0.0,0.0,0.0,0,0,0,0,0,0,0
1602248000,0,47.3977502,8.5456064,490.855,0.0,0.0,0.0,0.0,0.0,0.0,0,0,0,0,0,0,0
1602348000,0,47.3977502,8.5456064,490.87,0.0,0.0,0.0,0.0,0.0,0.0,0,0,0,0,0,0,0
1602448000,0,47.3977502,8.5456064,490.886,0.0,0.0,0.0,0.0,0.0,0.0,0,0,0,0,0,0,0
1602548000,0,47.3977502,8.5456064,490.901,0.0,0.0,0.0,0.0,0.0,0.0,0,0,0,0,0,0,0
1602648000,0,47.3977503,8.5456064,490.914,0.0,0.0,0.0,0.0,0.0,0.0,0,0,0,0,0,0,0
1602748000,0,47.3977503,8.5456064,490.927,0.0,0.0,0.0,0.0,0.0,0.0,0,0,0,0,0,0,0
1602848000,0,47.3977503,8.5456065,490.94,0.0,0.0,0.0,0.0,0.0,0.0,0,0,0,0,0,0,0
1602948000,0,47.3977504,8.5456065,490.951,0.0,0.0,0.0,0.0,0.0,0.0,0,0,0,0,0,0,0
1603048000,0,47.3977504,8.5456065,490.962,0.0,0.0,0.0,0.0,0.0,0.0,0,0,0,0,0,0,0
1603148000,0,47.3977504,8.5456065,490.971,0.0,0.0,0.0,0.0,0.0,0.0,0,0,0,0,0,0,0
1603248000,0,47.3977505,8.5456065,490.981,0.0,0.0,0.0,0.0,0.0,0.0,0,0,0,0,0,0,0
1603348000,0,47.3977505,8.5456065,490.989,0.0,0.0,0.0,0.0,0.0,0.0,0,0,0,0,0,0,0
1603448000,0,47.3977505,8.5456065,490.998,0.0,0.0,0.0,0.0,0.0,0.0,0,0,0,0,0,0,0
1603548000,0,47.397750599999995,8.5456066,491.006,0.0,0.0,0.0,0.0,0.0,0.0,0,0,0,0,0,0,0
1603648000,0,47.397750599999995,8.5456066,491.014,0.0,0.0,0.0,0.0,0.0,0.0,0,0,0,0,0,0,0
1603748000,0,47.397750599999995,8.5456066,491.02,0.0,0.0,0.0,0.0,0.0,0.0,0,0,0,0,0,0,0
1603848000,0,47.397750699999996,8.5456066,491.027,0.0,0.0,0.0,0.0,0.0,0.0,0,0,0,0,0,0,0
1603948000,0,47.397750699999996,8.5456066,491.033,0.0,0.0,0.0,0.0,0.0,0.0,0,0,0,0,0,0,0
1604048000,0,47.397750699999996,8.5456066,491.038,0.0,0.0,0.0,0.0,0.0,0.0,0,0,0,0,0,0,0
1604148000,0,47.3977508,8.5456066,491.044,0.0,0.0,0.0,0.0,0.0,0.0,0,0,0,0,0,0,0
1604248000,0,47.3977508,8.5456065,491.049,0.0,0.0,0.0,0.0,0.0,0.0,0,0,0,0,0,0,0
1604348000,0,47.3977508,8.5456065,491.054,0.0,0.0,0.0,0.0,0.0,0.0,0,0,0,0,0,0,0
1604448000,0,47.3977508,8.5456065,491.059,0.0,0.0,0.0,0.0,0.0,0.0,0,0,0,0,0,0,0
1604548000,0,47.3977509,8.5456065,491.063,0.0,0.0,0.0,0.0,0.0,0.0,0,0,0,0,0,0,0
1604648000,0,47.3977509,8.5456065,491.068,0.0,0.0,0.0,0.0,0.0,0.0,0,0,0,0,0,0,0
1604748000,0,47.3977509,8.5456065,491.072,0.0,0.0,0.0,0.0,0.0,0.0,0,0,0,0,0,0,0
1604848000,0,47.3977509,8.5456065,491.076,0.0,0.0,0.0,0.0,0.0,0.0,0,0,0,0,0,0,0
1604948000,0,47.3977509,8.5456065,491.079,0.0,0.0,0.0,0.0,0.0,0.0,0,0,0,0,0,0,0
1605048000,0,47.397751,8.5456065,491.083,0.0,0.0,0.0,0.0,0.0,0.0,0,0,0,0,0,0,0
1605148000,0,47.397751,8.5456064,491.087,0.0,0.0,0.0,0.0,0.0,0.0,0,0,0,0,0,0,0
1605248000,0,47.397751,8.5456064,491.09,0.0,0.0,0.0,0.0,0.0,0.0,0,0,0,0,0,0,0
1605348000,0,47.397751,8.5456064,491.093,0.0,0.0,0.0,0.0,0.0,0.0,0,0,0,0,0,0,0
1605448000,0,47.397751,8.5456064,491.096,0.0,0.0,0.0,0.0,0.0,0.0,0,0,0,0,0,0,0
1605548000,0,47.397751,8.5456064,491.099,0.0,0.0,0.0,0.0,0.0,0.0,0,0,0,0,0,0,0
1605648000,0,47.3977511,8.5456064,491.101,0.0,0.0,0.0,0.0,0.0,0.0,0,0,0,0,0,0,0
1605748000,0,47.3977511,8.5456063,491.103,0.0,0.0,0.0,0.0,0.0,0.0,0,0,0,0,0,0,0
1605848000,0,47.3977511,8.5456063,491.105,0.0,0.0,0.0,0.0,0.0,0.0,0,0,0,0,0,0,0
1605948000,0,47.3977511,8.5456063,491.107,0.0,0.0,0.0,0.0,0.0,0.0,0,0,0,0,0,0,0
1606048000,0,47.3977511,8.5456063,491.109,0.0,0.0,0.0,0.0,0.0,0.0,0,0,0,0,0,0,0
1606148000,0,47.3977511,8.5456063,491.11,0.0,0.0,0.0,0.0,0.0,0.0,0,0,0,0,0,0,0
1606248000,0,47.3977511,8.5456063,491.111,0.0,0.0,0.0,0.0,0.0,0.0,0,0,0,0,0,0,0
1606348000,0,47.3977511,8.5456063,491.112,0.0,0.0,0.0,0.0,0.0,0.0,0,0,0,0,0,0,0
1606448000,0,47.3977511,8.5456063,491.113,0.0,0.0,0.0,0.0,0.0,0.0,0,0,0,0,0,0,0
1606548000,0,47.3977511,8.5456062,491.114,0.0,0.0,0.0,0.0,0.0,0.0,0,0,0,0,0,0,0
1606648000,0,47.3977511,8.5456062,491.115,0.0,0.0,0.0,0.0,0.0,0.0,0,0,0,0,0,0,0
1606748000,0,47.3977511,8.5456062,491.117,0.0,0.0,0.0,0.0,0.0,0.0,0,0,0,0,0,0,0
1606848000,0,47.3977511,8.5456062,491.118,0.0,0.0,0.0,0.0,0.0,0.0,0,0,0,0,0,0,0
1606948000,0,47.3977511,8.5456062,491.12,0.0,0.0,0.0,0.0,0.0,0.0,0,0,0,0,0,0,0
1607048000,0,47.3977511,8.5456062,491.122,0.0,0.0,0.0,0.0,0.0,0.0,0,0,0,0,0,0,0
1607148000,0,47.397751,8.5456062,491.124,0.0,0.0,0.0,0.0,0.0,0.0,0,0,0,0,0,0,0
1607248000,0,47.397751,8.5456062,491.126,0.0,0.0,0.0,0.0,0.0,0.0,0,0,0,0,0,0,0
1607348000,0,47.397751,8.5456062,491.127,0.0,0.0,0.0,0.0,0.0,0.0,0,0,0,0,0,0,0
1607448000,0,47.397751,8.545606099999999,491.129,0.0,0.0,0.0,0.0,0.0,0.0,0,0,0,0,0,0,0
1607548000,0,47.397751,8.545606099999999,491.131,0.0,0.0,0.0,0.0,0.0,0.0,0,0,0,0,0,0,0
1607648000,0,47.397751,8.545606099999999,491.132,0.0,0.0,0.0,0.0,0.0,0.0,0,0,0,0,0,0,0
1607748000,0,47.397751,8.545606099999999,491.134,0.0,0.0,0.0,0.0,0.0,0.0,0,0,0,0,0,0,0
1607848000,0,47.397751,8.545606,491.136,0.0,0.0,0.0,0.0,0.0,0.0,0,0,0,0,0,0,0
1607948000,0,47.3977509,8.545606,491.137,0.0,0.0,0.0,0.0,0.0,0.0,0,0,0,0,0,0,0
1608048000,0,47.3977509,8.545606,491.138,0.0,0.0,0.0,0.0,0.0,0.0,0,0,0,0,0,0,0
1608148000,0,47.3977509,8.5456059,491.139,0.0,0.0,0.0,0.0,0.0,0.0,0,0,0,0,0,0,0
1608248000,0,47.3977509,8.5456059,491.14,0.0,0.0,0.0,0.0,0.0,0.0,0,0,0,0,0,0,0
1608348000,0,47.3977509,8.545605799999999,491.141,0.0,0.0,0.0,0.0,0.0,0.0,0,0,0,0,0,0,0
1608448000,0,47.3977508,8.545605799999999,491.142,0.0,0.0,0.0,0.0,0.0,0.0,0,0,0,0,0,0,0
1608548000,0,47.3977508,8.5456057,491.142,0.0,0.0,0.0,0.0,0.0,0.0,0,0,0,0,0,0,0
1608648000,0,47.3977508,8.5456057,491.143,0.0,0.0,0.0,0.0,0.0,0.0,0,0,0,0,0,0,0
1608748000,0,47.397750699999996,8.5456056,491.143,0.0,0.0,0.0,0.0,0.0,0.0,0,0,0,0,0,0,0
1608848000,0,47.397750699999996,8.5456056,491.143,0.0,0.0,0.0,0.0,0.0,0.0,0,0,0,0,0,0,0
1608948000,0,47.397750599999995,8.545605499999999,491.143,0.0,0.0,0.0,0.0,0.0,0.0,0,0,0,0,0,0,0
1609048000,0,47.397750599999995,8.545605499999999,491.143,0.0,0.0,0.0,0.0,0.0,0.0,0,0,0,0,0,0,0
1609148000,0,47.3977505,8.5456054,491.142,0.0,0.0,0.0,0.0,0.0,0.0,0,0,0,0,0,0,0
1609248000,0,47.3977505,8.5456054,491.142,0.0,0.0,0.0,0.0,0.0,0.0,0,0,0,0,0,0,0
1609348000,0,47.3977504,8.5456053,491.141,0.0,0.0,0.0,0.0,0.0,0.0,0,0,0,0,0,0,0
1609448000,0,47.3977504,8.545605199999999,491.14,0.0,0.0,0.0,0.0,0.0,0.0,0,0,0,0,0,0,0
1609548000,0,47.3977503,8.545605199999999,491.14,0.0,0.0,0.0,0.0,0.0,0.0,0,0,0,0,0,0,0
1609648000,0,47.3977503,8.5456051,491.139,0.0,0.0,0.0,0.0,0.0,0.0,0,0,0,0,0,0,0
1609748000,0,47.3977502,8.5456051,491.138,0.0,0.0,0.0,0.0,0.0,0.0,0,0,0,0,0,0,0
1609848000,0,47.3977502,8.5456051,491.137,0.0,0.0,0.0,0.0,0.0,0.0,0,0,0,0,0,0,0
1609948000,0,47.397750099999996,8.545605,491.135,0.0,0.0,0.0,0.0,0.0,0.0,0,0,0,0,0,0,0
1610048000,0,47.397750099999996,8.545605,491.134,0.0,0.0,0.0,0.0,0.0,0.0,0,0,0,0,0,0,0
1610148000,0,47.397749999999995,8.545605,491.133,0.0,0.0,0.0,0.0,0.0,0.0,0,0,0,0,0,0,0
1610248000,0,47.397749999999995,8.545604899999999,491.131,0.0,0.0,0.0,0.0,0.0,0.0,0,0,0,0,0,0,0
1610348000,0,47.3977499,8.545604899999999,491.13,0.0,0.0,0.0,0.0,0.0,0.0,0,0,0,0,0,0,0
1610448000,0,47.3977499,8.545604899999999,491.129,0.0,0.0,0.0,0.0,0.0,0.0,0,0,0,0,0,0,0
1610548000,0,47.3977499,8.545604899999999,491.127,0.0,0.0,0.0,0.0,0.0,0.0,0,0,0,0,0,0,0
1610648000,0,47.3977498,8.545604899999999,491.126,0.0,0.0,0.0,0.0,0.0,0.0,0,0,0,0,0,0,0
1610748000,0,47.3977498,8.5456048,491.124,0.0,0.0,0.0,0.0,0.0,0.0,0,0,0,0,0,0,0
1610848000,0,47.3977498,8.5456048,491.123,0.0,0.0,0.0,0.0,0.0,0.0,0,0,0,0,0,0,0
1610948000,0,47.3977498,8.5456048,491.122,0.0,0.0,0.0,0.0,0.0,0.0,0,0,0,0,0,0,0
1611048000,0,47.3977497,8.5456048,491.121,0.0,0.0,0.0,0.0,0.0,0.0,0,0,0,0,0,0,0
1611148000,0,47.3977497,8.5456048,491.12,0.0,0.0,0.0,0.0,0.0,0.0,0,0,0,0,0,0,0
1611248000,0,47.3977497,8.5456048,491.118,0.0,0.0,0.0,0.0,0.0,0.0,0,0,0,0,0,0,0
1611348000,0,47.3977497,8.5456048,491.117,0.0,0.0,0.0,0.0,0.0,0.0,0,0,0,0,0,0,0
1611448000,0,47.3977497,8.5456048,491.115,0.0,0.0,0.0,0.0,0.0,0.0,0,0,0,0,0,0,0
1611548000,0,47.3977498,8.5456048,491.114,0.0,0.0,0.0,0.0,0.0,0.0,0,0,0,0,0,0,0
1611648000,0,47.3977498,8.5456048,491.112,0.0,0.0,0.0,0.0,0.0,0.0,0,0,0,0,0,0,0
1611748000,0,47.3977498,8.5456048,491.111,0.0,0.0,0.0,0.0,0.0,0.0,0,0,0,0,0,0,0
1611848000,0,47.3977498,8.5456048,491.11,0.0,0.0,0.0,0.0,0.0,0.0,0,0,0,0,0,0,0
1611948000,0,47.3977498,8.5456048,491.109,0.0,0.0,0.0,0.0,0.0,0.0,0,0,0,0,0,0,0
1612048000,0,47.3977498,8.5456048,491.108,0.0,0.0,0.0,0.0,0.0,0.0,0,0,0,0,0,0,0
1612148000,0,47.3977498,8.5456048,491.108,0.0,0.0,0.0,0.0,0.0,0.0,0,0,0,0,0,0,0
1612248000,0,47.3977499,8.5456048,491.107,0.0,0.0,0.0,0.0,0.0,0.0,0,0,0,0,0,0,0
1612348000,0,47.3977499,8.5456048,491.106,0.0,0.0,0.0,0.0,0.0,0.0,0,0,0,0,0,0,0
1612448000,0,47.3977499,8.5456048,491.106,0.0,0.0,0.0,0.0,0.0,0.0,0,0,0,0,0,0,0
1612548000,0,47.3977499,8.5456048,491.106,0.0,0.0,0.0,0.0,0.0,0.0,0,0,0,0,0,0,0
1612648000,0,47.3977499,8.5456048,491.105,0.0,0.0,0.0,0.0,0.0,0.0,0,0,0,0,0,0,0
1612748000,0,47.397749999999995,8.5456048,491.105,0.0,0.0,0.0,0.0,0.0,0.0,0,0,0,0,0,0,0
1612848000,0,47.397749999999995,8.545604899999999,491.106,0.0,0.0,0.0,0.0,0.0,0.0,0,0,0,0,0,0,0
1612948000,0,47.3977499,8.545605,491.108,0.0,0.0,0.0,0.0,0.0,0.0,0,0,0,0,0,0,0
1613048000,0,47.3977498,8.5456053,491.111,0.0,0.0,0.0,0.0,0.0,0.0,0,0,0,0,0,0,0
1613148000,0,47.3977496,8.545605799999999,491.115,0.0,0.0,0.0,0.0,0.0,0.0,0,0,0,0,0,0,0
1613248000,0,47.397749399999995,8.5456065,491.12,0.0,0.0,0.0,0.0,0.0,0.0,0,0,0,0,0,0,0
1613348000,0,47.3977491,8.5456075,491.126,0.0,0.0,0.0,0.0,0.0,0.0,0,0,0,0,0,0,0
1613448000,0,47.3977487,8.5456089,491.133,0.0,0.0,0.0,0.0,0.0,0.0,0,0,0,0,0,0,0
1613548000,0,47.397748299999996,8.5456106,491.138,0.0,0.0,0.0,0.0,0.0,0.0,0,0,0,0,0,0,0
1613648000,0,47.3977478,8.5456126,491.141,0.0,0.0,0.0,0.0,0.0,0.0,0,0,0,0,0,0,0
1613748000,0,47.3977473,8.5456151,491.142,0.0,0.0,0.0,0.0,0.0,0.0,0,0,0,0,0,0,0
1613848000,0,47.3977467,8.5456181,491.143,0.0,0.0,0.0,0.0,0.0,0.0,0,0,0,0,0,0,0
1613948000,0,47.3977461,8.545621299999999,491.143,0.0,0.0,0.0,0.0,0.0,0.0,0,0,0,0,0,0,0
1614048000,0,47.3977454,8.545625,491.142,0.0,0.0,0.0,0.0,0.0,0.0,0,0,0,0,0,0,0
1614148000,0,47.3977447,8.545629,491.141,0.0,0.0,0.0,0.0,0.0,0.0,0,0,0,0,0,0,0
1614248000,0,47.397743999999996,8.5456333,491.14,0.0,0.0,0.0,0.0,0.0,0.0,0,0,0,0,0,0,0
1614348000,0,47.397743299999995,8.5456379,491.138,0.0,0.0,0.0,0.0,0.0,0.0,0,0,0,0,0,0,0
1614448000,0,47.3977426,8.5456427,491.136,0.0,0.0,0.0,0.0,0.0,0.0,0,0,0,0,0,0,0
1614548000,0,47.3977418,8.545648,491.133,0.0,0.0,0.0,0.0,0.0,0.0,0,0,0,0,0,0,0
1614648000,0,47.397740999999996,8.5456536,491.128,0.0,0.0,0.0,0.0,0.0,0.0,0,0,0,0,0,0,0
1614748000,0,47.3977401,8.5456596,491.121,0.0,0.0,0.0,0.0,0.0,0.0,0,0,0,0,0,0,0
1614848000,0,47.3977392,8.545665699999999,491.114,0.0,0.0,0.0,0.0,0.0,0.0,0,0,0,0,0,0,0
1614948000,0,47.3977383,8.5456716,491.106,0.0,0.0,0.0,0.0,0.0,0.0,0,0,0,0,0,0,0
1615048000,0,47.397737299999996,8.5456781,491.098,0.0,0.0,0.0,0.0,0.0,0.0,0,0,0,0,0,0,0
1615148000,0,47.3977364,8.5456845,491.09,0.0,0.0,0.0,0.0,0.0,0.0,0,0,0,0,0,0,0
1615248000,0,47.3977353,8.5456908,491.083,0.0,0.0,0.0,0.0,0.0,0.0,0,0,0,0,0,0,0
1615348000,0,47.397734299999996,8.5456972,491.076,0.0,0.0,0.0,0.0,0.0,0.0,0,0,0,0,0,0,0
1615448000,0,47.3977332,8.5457032,491.07,0.0,0.0,0.0,0.0,0.0,0.0,0,0,0,0,0,0,0
1615548000,0,47.3977322,8.5457095,491.066,0.0,0.0,0.0,0.0,0.0,0.0,0,0,0,0,0,0,0
1615648000,0,47.397731,8.5457159,491.062,0.0,0.0,0.0,0.0,0.0,0.0,0,0,0,0,0,0,0
1615748000,0,47.397729999999996,8.545722099999999,491.059,0.0,0.0,0.0,0.0,0.0,0.0,0,0,0,0,0,0,0
1615848000,0,47.3977289,8.5457282,491.057,0.0,0.0,0.0,0.0,0.0,0.0,0,0,0,0,0,0,0
1615948000,0,47.3977278,8.5457343,491.055,0.0,0.0,0.0,0.0,0.0,0.0,0,0,0,0,0,0,0
1616048000,0,47.3977267,8.5457401,491.053,0.0,0.0,0.0,0.0,0.0,0.0,0,0,0,0,0,0,0
1616148000,0,47.3977256,8.5457462,491.051,0.0,0.0,0.0,0.0,0.0,0.0,0,0,0,0,0,0,0
1616248000,0,47.397724499999995,8.545752199999999,491.05,0.0,0.0,0.0,0.0,0.0,0.0,0,0,0,0,0,0,0
1616348000,0,47.397723299999996,8.5457585,491.049,0.0,0.0,0.0,0.0,0.0,0.0,0,0,0,0,0,0,0
1616448000,0,47.3977222,8.545764499999999,491.048,0.0,0.0,0.0,0.0,0.0,0.0,0,0,0,0,0,0,0
1616548000,0,47.3977211,8.5457702,491.047,0.0,0.0,0.0,0.0,0.0,0.0,0,0,0,0,0,0,0
1616648000,0,47.3977199,8.545776499999999,491.046,0.0,0.0,0.0,0.0,0.0,0.0,0,0,0,0,0,0,0
1616748000,0,47.3977188,8.5457822,491.046,0.0,0.0,0.0,0.0,0.0,0.0,0,0,0,0,0,0,0
1616848000,0,47.3977176,8.5457885,491.045,0.0,0.0,0.0,0.0,0.0,0.0,0,0,0,0,0,0,0
1616948000,0,47.3977165,8.5457945,491.044,0.0,0.0,0.0,0.0,0.0,0.0,0,0,0,0,0,0,0
1617048000,0,47.397715399999996,8.5458002,491.044,0.0,0.0,0.0,0.0,0.0,0.0,0,0,0,0,0,0,0
1617148000,0,47.397714199999996,8.5458065,491.043,0.0,0.0,0.0,0.0,0.0,0.0,0,0,0,0,0,0,0
1617248000,0,47.397712999999996,8.5458125,491.042,0.0,0.0,0.0,0.0,0.0,0.0,0,0,0,0,0,0,0
1617348000,0,47.3977119,8.545818299999999,491.041,0.0,0.0,0.0,0.0,0.0,0.0,0,0,0,0,0,0,0
1617448000,0,47.3977107,8.5458243,491.04,0.0,0.0,0.0,0.0,0.0,0.0,0,0,0,0,0,0,0
1617548000,0,47.3977095,8.5458306,491.039,0.0,0.0,0.0,0.0,0.0,0.0,0,0,0,0,0,0,0
1617648000,0,47.3977084,8.545836399999999,491.038,0.0,0.0,0.0,0.0,0.0,0.0,0,0,0,0,0,0,0
1617748000,0,47.3977072,8.5458427,491.037,0.0,0.0,0.0,0.0,0.0,0.0,0,0,0,0,0,0,0
1617848000,0,47.397706,8.5458488,491.036,0.0,0.0,0.0,0.0,0.0,0.0,0,0,0,0,0,0,0
1617948000,0,47.3977049,8.5458547,491.035,0.0,0.0,0.0,0.0,0.0,0.0,0,0,0,0,0,0,0
1618048000,0,47.3977037,8.545861,491.035,0.0,0.0,0.0,0.0,0.0,0.0,0,0,0,0,0,0,0
1618148000,0,47.397702599999995,8.545867099999999,491.034,0.0,0.0,0.0,0.0,0.0,0.0,0,0,0,0,0,0,0
1618248000,0,47.397701399999995,8.5458733,491.034,0.0,0.0,0.0,0.0,0.0,0.0,0,0,0,0,0,0,0
1618348000,0,47.3977003,8.5458794,491.034,0.0,0.0,0.0,0.0,0.0,0.0,0,0,0,0,0,0,0
1618448000,0,47.3976991,8.5458856,491.034,0.0,0.0,0.0,0.0,0.0,0.0,0,0,0,0,0,0,0
1618548000,0,47.3976981,8.5458915,491.034,0.0,0.0,0.0,0.0,0.0,0.0,0,0,0,0,0,0,0
1618648000,0,47.3976969,8.5458977,491.034,0.0,0.0,0.0,0.0,0.0,0.0,0,0,0,0,0,0,0
1618748000,0,47.3976957,8.545904199999999,491.035,0.0,0.0,0.0,0.0,0.0,0.0,0,0,0,0,0,0,0
1618848000,0,47.3976946,8.5459104,491.035,0.0,0.0,0.0,0.0,0.0,0.0,0,0,0,0,0,0,0
1618948000,0,47.397693499999995,8.5459164,491.035,0.0,0.0,0.0,0.0,0.0,0.0,0,0,0,0,0,0,0
1619048000,0,47.397692299999996,8.5459228,491.035,0.0,0.0,0.0,0.0,0.0,0.0,0,0,0,0,0,0,0
1619148000,0,47.3976912,8.5459288,491.036,0.0,0.0,0.0,0.0,0.0,0.0,0,0,0,0,0,0,0
1619248000,0,47.3976901,8.545935,491.037,0.0,0.0,0.0,0.0,0.0,0.0,0,0,0,0,0,0,0
1619348000,0,47.3976889,8.5459415,491.038,0.0,0.0,0.0,0.0,0.0,0.0,0,0,0,0,0,0,0
1619448000,0,47.3976879,8.5459475,491.039,0.0,0.0,0.0,0.0,0.0,0.0,0,0,0,0,0,0,0
1619548000,0,47.3976867,8.545954,491.04,0.0,0.0,0.0,0.0,0.0,0.0,0,0,0,0,0,0,0
1619648000,0,47.397685599999996,8.54596,491.04,0.0,0.0,0.0,0.0,0.0,0.0,0,0,0,0,0,0,0
1619748000,0,47.3976845,8.545966199999999,491.041,0.0,0.0,0.0,0.0,0.0,0.0,0,0,0,0,0,0,0
1619844000,0,47.3976834,8.5459722,491.042,0.0,0.0,0.0,0.0,0.0,0.0,0,0,0,0,0,0,0
1619948000,0,47.3976822,8.5459787,491.043,0.0,0.0,0.0,0.0,0.0,0.0,0,0,0,0,0,0,0
1620048000,0,47.3976811,8.545985199999999,491.044,0.0,0.0,0.0,0.0,0.0,0.0,0,0,0,0,0,0,0
1620148000,0,47.3976799,8.5459915,491.045,0.0,0.0,0.0,0.0,0.0,0.0,0,0,0,0,0,0,0
1620248000,0,47.397678899999995,8.5459975,491.046,0.0,0.0,0.0,0.0,0.0,0.0,0,0,0,0,0,0,0
1620348000,0,47.397677699999996,8.5460037,491.046,0.0,0.0,0.0,0.0,0.0,0.0,0,0,0,0,0,0,0
1620448000,0,47.3976766,8.546009999999999,491.047,0.0,0.0,0.0,0.0,0.0,0.0,0,0,0,0,0,0,0
1620548000,0,47.3976755,8.5460165,491.048,0.0,0.0,0.0,0.0,0.0,0.0,0,0,0,0,0,0,0
1620648000,0,47.3976744,8.5460225,491.049,0.0,0.0,0.0,0.0,0.0,0.0,0,0,0,0,0,0,0
1620748000,0,47.3976732,8.5460288,491.049,0.0,0.0,0.0,0.0,0.0,0.0,0,0,0,0,0,0,0
1620848000,0,47.3976721,8.5460353,491.05,0.0,0.0,0.0,0.0,0.0,0.0,0,0,0,0,0,0,0
1620948000,0,47.397670999999995,8.546041299999999,491.05,0.0,0.0,0.0,0.0,0.0,0.0,0,0,0,0,0,0,0
1621048000,0,47.3976699,8.5460476,491.051,0.0,0.0,0.0,0.0,0.0,0.0,0,0,0,0,0,0,0
1621148000,0,47.3976687,8.5460539,491.052,0.0,0.0,0.0,0.0,0.0,0.0,0,0,0,0,0,0,0
1621248000,0,47.3976676,8.5460602,491.052,0.0,0.0,0.0,0.0,0.0,0.0,0,0,0,0,0,0,0
1621348000,0,47.3976664,8.5460668,491.053,0.0,0.0,0.0,0.0,0.0,0.0,0,0,0,0,0,0,0
1621448000,0,47.3976654,8.5460728,491.053,0.0,0.0,0.0,0.0,0.0,0.0,0,0,0,0,0,0,0
1621548000,0,47.3976642,8.5460791,491.054,0.0,0.0,0.0,0.0,0.0,0.0,0,0,0,0,0,0,0
1621648000,0,47.397663099999995,8.546085699999999,491.055,0.0,0.0,0.0,0.0,0.0,0.0,0,0,0,0,0,0,0
1621748000,0,47.397662,8.546092,491.056,0.0,0.0,0.0,0.0,0.0,0.0,0,0,0,0,0,0,0
1621848000,0,47.3976608,8.546098299999999,491.057,0.0,0.0,0.0,0.0,0.0,0.0,0,0,0,0,0,0,0
1621948000,0,47.3976597,8.546104699999999,491.058,0.0,0.0,0.0,0.0,0.0,0.0,0,0,0,0,0,0,0
1622048000,0,47.3976586,8.546111,491.06,0.0,0.0,0.0,0.0,0.0,0.0,0,0,0,0,0,0,0
1622148000,0,47.3976574,8.5461174,491.061,0.0,0.0,0.0,0.0,0.0,0.0,0,0,0,0,0,0,0
1622248000,0,47.397656399999995,8.5461235,491.062,0.0,0.0,0.0,0.0,0.0,0.0,0,0,0,0,0,0,0
1622348000,0,47.397655199999996,8.5461301,491.063,0.0,0.0,0.0,0.0,0.0,0.0,0,0,0,0,0,0,0
1622448000,0,47.3976541,8.5461364,491.064,0.0,0.0,0.0,0.0,0.0,0.0,0,0,0,0,0,0,0
1622548000,0,47.397653,8.5461425,491.065,0.0,0.0,0.0,0.0,0.0,0.0,0,0,0,0,0,0,0
1622648000,0,47.3976518,8.5461491,491.066,0.0,0.0,0.0,0.0,0.0,0.0,0,0,0,0,0,0,0
1622748000,0,47.3976507,8.5461552,491.067,0.0,0.0,0.0,0.0,0.0,0.0,0,0,0,0,0,0,0
1622848000,0,47.3976495,8.5461618,491.068,0.0,0.0,0.0,0.0,0.0,0.0,0,0,0,0,0,0,0
1622948000,0,47.3976483,8.5461682,491.069,0.0,0.0,0.0,0.0,0.0,0.0,0,0,0,0,0,0,0
1623048000,0,47.397647199999994,8.546174599999999,491.07,0.0,0.0,0.0,0.0,0.0,0.0,0,0,0,0,0,0,0
1623148000,0,47.397646099999996,8.546180699999999,491.071,0.0,0.0,0.0,0.0,0.0,0.0,0,0,0,0,0,0,0
1623248000,0,47.397644899999996,8.5461873,491.072,0.0,0.0,0.0,0.0,0.0,0.0,0,0,0,0,0,0,0
1623348000,0,47.3976438,8.5461934,491.072,0.0,0.0,0.0,0.0,0.0,0.0,0,0,0,0,0,0,0
1623448000,0,47.3976426,8.546199999999999,491.073,0.0,0.0,0.0,0.0,0.0,0.0,0,0,0,0,0,0,0
1623548000,0,47.3976414,8.546206399999999,491.074,0.0,0.0,0.0,0.0,0.0,0.0,0,0,0,0,0,0,0
1623648000,0,47.3976403,8.5462125,491.074,0.0,0.0,0.0,0.0,0.0,0.0,0,0,0,0,0,0,0
1623748000,0,47.3976391,8.5462189,491.074,0.0,0.0,0.0,0.0,0.0,0.0,0,0,0,0,0,0,0
1623848000,0,47.3976379,8.5462256,491.075,0.0,0.0,0.0,0.0,0.0,0.0,0,0,0,0,0,0,0
1623948000,0,47.3976368,8.5462317,491.075,0.0,0.0,0.0,0.0,0.0,0.0,0,0,0,0,0,0,0
1624048000,0,47.3976356,8.5462381,491.075,0.0,0.0,0.0,0.0,0.0,0.0,0,0,0,0,0,0,0
1624148000,0,47.3976344,8.546244699999999,491.075,0.0,0.0,0.0,0.0,0.0,0.0,0,0,0,0,0,0,0
1624248000,0,47.3976332,8.5462508,491.075,0.0,0.0,0.0,0.0,0.0,0.0,0,0,0,0,0,0,0
1624348000,0,47.397631999999994,8.5462575,491.075,0.0,0.0,0.0,0.0,0.0,0.0,0,0,0,0,0,0,0
1624448000,0,47.397630799999995,8.5462636,491.074,0.0,0.0,0.0,0.0,0.0,0.0,0,0,0,0,0,0,0
1624548000,0,47.397629599999995,8.54627,491.074,0.0,0.0,0.0,0.0,0.0,0.0,0,0,0,0,0,0,0
1624648000,0,47.397628399999995,8.546276599999999,491.074,0.0,0.0,0.0,0.0,0.0,0.0,0,0,0,0,0,0,0
1624748000,0,47.397627199999995,8.546282999999999,491.074,0.0,0.0,0.0,0.0,0.0,0.0,0,0,0,0,0,0,0
1624848000,0,47.3976261,8.5462891,491.074,0.0,0.0,0.0,0.0,0.0,0.0,0,0,0,0,0,0,0
1624948000,0,47.3976249,8.5462955,491.074,0.0,0.0,0.0,0.0,0.0,0.0,0,0,0,0,0,0,0
1625048000,0,47.3976237,8.5463019,491.074,0.0,0.0,0.0,0.0,0.0,0.0,0,0,0,0,0,0,0
1625148000,0,47.3976225,8.5463083,491.075,0.0,0.0,0.0,0.0,0.0,0.0,0,0,0,0,0,0,0
1625248000,0,47.3976213,8.5463149,491.075,0.0,0.0,0.0,0.0,0.0,0.0,0,0,0,0,0,0,0
1625348000,0,47.3976201,8.546321299999999,491.075,0.0,0.0,0.0,0.0,0.0,0.0,0,0,0,0,0,0,0
1625448000,0,47.3976189,8.546327699999999,491.076,0.0,0.0,0.0,0.0,0.0,0.0,0,0,0,0,0,0,0
1625548000,0,47.3976178,8.5463338,491.076,0.0,0.0,0.0,0.0,0.0,0.0,0,0,0,0,0,0,0
1625648000,0,47.3976166,8.5463402,491.075,0.0,0.0,0.0,0.0,0.0,0.0,0,0,0,0,0,0,0
1625748000,0,47.3976154,8.5463466,491.075,0.0,0.0,0.0,0.0,0.0,0.0,0,0,0,0,0,0,0
1625848000,0,47.3976142,8.5463532,491.075,0.0,0.0,0.0,0.0,0.0,0.0,0,0,0,0,0,0,0
1625948000,0,47.397613,8.546359599999999,491.075,0.0,0.0,0.0,0.0,0.0,0.0,0,0,0,0,0,0,0
1626048000,0,47.3976118,8.546365999999999,491.075,0.0,0.0,0.0,0.0,0.0,0.0,0,0,0,0,0,0,0
1626148000,0,47.3976106,8.5463724,491.075,0.0,0.0,0.0,0.0,0.0,0.0,0,0,0,0,0,0,0
1626248000,0,47.3976094,8.5463788,491.076,0.0,0.0,0.0,0.0,0.0,0.0,0,0,0,0,0,0,0
1626348000,0,47.397608299999995,8.546384999999999,491.077,0.0,0.0,0.0,0.0,0.0,0.0,0,0,0,0,0,0,0
1626448000,0,47.397607099999995,8.5463916,491.077,0.0,0.0,0.0,0.0,0.0,0.0,0,0,0,0,0,0,0
1626548000,0,47.397605899999995,8.546398,491.078,0.0,0.0,0.0,0.0,0.0,0.0,0,0,0,0,0,0,0
1626648000,0,47.397604799999996,8.5464042,491.079,0.0,0.0,0.0,0.0,0.0,0.0,0,0,0,0,0,0,0
1626748000,0,47.3976036,8.5464106,491.08,0.0,0.0,0.0,0.0,0.0,0.0,0,0,0,0,0,0,0
1626848000,0,47.3976024,8.546417,491.081,0.0,0.0,0.0,0.0,0.0,0.0,0,0,0,0,0,0,0
1626948000,0,47.3976012,8.5464234,491.082,0.0,0.0,0.0,0.0,0.0,0.0,0,0,0,0,0,0,0
1627048000,0,47.3976,8.546429999999999,491.084,0.0,0.0,0.0,0.0,0.0,0.0,0,0,0,0,0,0,0
1627148000,0,47.3975989,8.5464362,491.085,0.0,0.0,0.0,0.0,0.0,0.0,0,0,0,0,0,0,0
1627248000,0,47.3975977,8.5464428,491.087,0.0,0.0,0.0,0.0,0.0,0.0,0,0,0,0,0,0,0
1627348000,0,47.3975965,8.546448999999999,491.089,0.0,0.0,0.0,0.0,0.0,0.0,0,0,0,0,0,0,0
1627448000,0,47.3975954,8.5464554,491.091,0.0,0.0,0.0,0.0,0.0,0.0,0,0,0,0,0,0,0
1627548000,0,47.3975942,8.546462,491.093,0.0,0.0,0.0,0.0,0.0,0.0,0,0,0,0,0,0,0
1627648000,0,47.397593,8.5464684,491.095,0.0,0.0,0.0,0.0,0.0,0.0,0,0,0,0,0,0,0
1627748000,0,47.3975918,8.5464748,491.097,0.0,0.0,0.0,0.0,0.0,0.0,0,0,0,0,0,0,0
1627848000,0,47.397590699999995,8.546481,491.1,0.0,0.0,0.0,0.0,0.0,0.0,0,0,0,0,0,0,0
1627948000,0,47.397589499999995,8.546487599999999,491.102,0.0,0.0,0.0,0.0,0.0,0.0,0,0,0,0,0,0,0
1628048000,0,47.397588299999995,8.546494,491.105,0.0,0.0,0.0,0.0,0.0,0.0,0,0,0,0,0,0,0
1628148000,0,47.3975872,8.546500199999999,491.107,0.0,0.0,0.0,0.0,0.0,0.0,0,0,0,0,0,0,0
1628248000,0,47.397586,8.5465068,491.109,0.0,0.0,0.0,0.0,0.0,0.0,0,0,0,0,0,0,0
1628348000,0,47.3975848,8.5465132,491.112,0.0,0.0,0.0,0.0,0.0,0.0,0,0,0,0,0,0,0
1628448000,0,47.3975836,8.5465196,491.115,0.0,0.0,0.0,0.0,0.0,0.0,0,0,0,0,0,0,0
1628548000,0,47.3975825,8.5465261,491.118,0.0,0.0,0.0,0.0,0.0,0.0,0,0,0,0,0,0,0
1628648000,0,47.3975813,8.5465325,491.121,0.0,0.0,0.0,0.0,0.0,0.0,0,0,0,0,0,0,0
1628748000,0,47.3975802,8.5465386,491.124,0.0,0.0,0.0,0.0,0.0,0.0,0,0,0,0,0,0,0
1628848000,0,47.3975789,8.5465453,491.127,0.0,0.0,0.0,0.0,0.0,0.0,0,0,0,0,0,0,0
1628948000,0,47.3975778,8.5465517,491.13,0.0,0.0,0.0,0.0,0.0,0.0,0,0,0,0,0,0,0
1629048000,0,47.3975766,8.5465579,491.133,0.0,0.0,0.0,0.0,0.0,0.0,0,0,0,0,0,0,0
1629148000,0,47.3975754,8.546564499999999,491.136,0.0,0.0,0.0,0.0,0.0,0.0,0,0,0,0,0,0,0
1629248000,0,47.397574299999995,8.5465707,491.138,0.0,0.0,0.0,0.0,0.0,0.0,0,0,0,0,0,0,0
1629348000,0,47.397573099999995,8.5465771,491.139,0.0,0.0,0.0,0.0,0.0,0.0,0,0,0,0,0,0,0
1629448000,0,47.397571899999996,8.5465837,491.14,0.0,0.0,0.0,0.0,0.0,0.0,0,0,0,0,0,0,0
1629548000,0,47.397570699999996,8.5465901,491.14,0.0,0.0,0.0,0.0,0.0,0.0,0,0,0,0,0,0,0
1629648000,0,47.3975696,8.546596,491.14,0.0,0.0,0.0,0.0,0.0,0.0,0,0,0,0,0,0,0
1629748000,0,47.3975684,8.5466023,491.141,0.0,0.0,0.0,0.0,0.0,0.0,0,0,0,0,0,0,0
1629848000,0,47.3975674,8.5466079,491.143,0.0,0.0,0.0,0.0,0.0,0.0,0,0,0,0,0,0,0
1629948000,0,47.3975663,8.5466138,491.144,0.0,0.0,0.0,0.0,0.0,0.0,0,0,0,0,0,0,0
1630048000,0,47.3975653,8.5466192,491.144,0.0,0.0,0.0,0.0,0.0,0.0,0,0,0,0,0,0,0
1630148000,0,47.3975643,8.546624099999999,491.144,0.0,0.0,0.0,0.0,0.0,0.0,0,0,0,0,0,0,0
1630248000,0,47.397563399999996,8.5466293,491.144,0.0,0.0,0.0,0.0,0.0,0.0,0,0,0,0,0,0,0
1630348000,0,47.3975625,8.546634,491.144,0.0,0.0,0.0,0.0,0.0,0.0,0,0,0,0,0,0,0
1630448000,0,47.397561599999996,8.546638399999999,491.144,0.0,0.0,0.0,0.0,0.0,0.0,0,0,0,0,0,0,0
1630548000,0,47.3975608,8.546642799999999,491.144,0.0,0.0,0.0,0.0,0.0,0.0,0,0,0,0,0,0,0
1630648000,0,47.3975601,8.546646899999999,491.144,0.0,0.0,0.0,0.0,0.0,0.0,0,0,0,0,0,0,0
1630748000,0,47.3975593,8.546650999999999,491.144,0.0,0.0,0.0,0.0,0.0,0.0,0,0,0,0,0,0,0
1630848000,0,47.397558599999996,8.5466547,491.144,0.0,0.0,0.0,0.0,0.0,0.0,0,0,0,0,0,0,0
1630948000,0,47.397558,8.5466581,491.143,0.0,0.0,0.0,0.0,0.0,0.0,0,0,0,0,0,0,0
1631048000,0,47.3975574,8.5466616,491.143,0.0,0.0,0.0,0.0,0.0,0.0,0,0,0,0,0,0,0
1631148000,0,47.3975568,8.5466647,491.143,0.0,0.0,0.0,0.0,0.0,0.0,0,0,0,0,0,0,0
1631248000,0,47.3975563,8.5466677,491.143,0.0,0.0,0.0,0.0,0.0,0.0,0,0,0,0,0,0,0
1631348000,0,47.3975558,8.5466705,491.142,0.0,0.0,0.0,0.0,0.0,0.0,0,0,0,0,0,0,0
1631448000,0,47.397555399999995,8.546673,491.142,0.0,0.0,0.0,0.0,0.0,0.0,0,0,0,0,0,0,0
1631548000,0,47.397555,8.5466756,491.142,0.0,0.0,0.0,0.0,0.0,0.0,0,0,0,0,0,0,0
1631648000,0,47.3975546,8.546677899999999,491.141,0.0,0.0,0.0,0.0,0.0,0.0,0,0,0,0,0,0,0
1631748000,0,47.3975544,8.546679899999999,491.14,0.0,0.0,0.0,0.0,0.0,0.0,0,0,0,0,0,0,0
1631848000,0,47.3975541,8.546681999999999,491.139,0.0,0.0,0.0,0.0,0.0,0.0,0,0,0,0,0,0,0
1631948000,0,47.3975538,8.5466838,491.139,0.0,0.0,0.0,0.0,0.0,0.0,0,0,0,0,0,0,0
1632048000,0,47.397553599999995,8.5466856,491.139,0.0,0.0,0.0,0.0,0.0,0.0,0,0,0,0,0,0,0
1632148000,0,47.3975533,8.5466872,491.139,0.0,0.0,0.0,0.0,0.0,0.0,0,0,0,0,0,0,0
1632248000,0,47.3975532,8.5466886,491.139,0.0,0.0,0.0,0.0,0.0,0.0,0,0,0,0,0,0,0
1632348000,0,47.397552999999995,8.54669,491.139,0.0,0.0,0.0,0.0,0.0,0.0,0,0,0,0,0,0,0
1632448000,0,47.3975528,8.546691299999999,491.139,0.0,0.0,0.0,0.0,0.0,0.0,0,0,0,0,0,0,0
1632548000,0,47.3975526,8.546692499999999,491.138,0.0,0.0,0.0,0.0,0.0,0.0,0,0,0,0,0,0,0
1632648000,0,47.397552499999996,8.5466936,491.138,0.0,0.0,0.0,0.0,0.0,0.0,0,0,0,0,0,0,0
1632748000,0,47.397552399999995,8.5466946,491.137,0.0,0.0,0.0,0.0,0.0,0.0,0,0,0,0,0,0,0
1632848000,0,47.3975522,8.546695399999999,491.137,0.0,0.0,0.0,0.0,0.0,0.0,0,0,0,0,0,0,0
1632948000,0,47.3975521,8.546696299999999,491.137,0.0,0.0,0.0,0.0,0.0,0.0,0,0,0,0,0,0,0
1633048000,0,47.397552,8.5466971,491.136,0.0,0.0,0.0,0.0,0.0,0.0,0,0,0,0,0,0,0
1633148000,0,47.397551899999996,8.5466978,491.136,0.0,0.0,0.0,0.0,0.0,0.0,0,0,0,0,0,0,0
1633248000,0,47.397551799999995,8.5466984,491.135,0.0,0.0,0.0,0.0,0.0,0.0,0,0,0,0,0,0,0
1633348000,0,47.3975517,8.546699,491.135,0.0,0.0,0.0,0.0,0.0,0.0,0,0,0,0,0,0,0
1633448000,0,47.3975516,8.5466996,491.134,0.0,0.0,0.0,0.0,0.0,0.0,0,0,0,0,0,0,0
1633548000,0,47.3975515,8.546700099999999,491.134,0.0,0.0,0.0,0.0,0.0,0.0,0,0,0,0,0,0,0
1633648000,0,47.3975514,8.5467006,491.134,0.0,0.0,0.0,0.0,0.0,0.0,0,0,0,0,0,0,0
1633748000,0,47.397551299999996,8.546700999999999,491.134,0.0,0.0,0.0,0.0,0.0,0.0,0,0,0,0,0,0,0
1633848000,0,47.397551199999995,8.5467014,491.134,0.0,0.0,0.0,0.0,0.0,0.0,0,0,0,0,0,0,0
1633948000,0,47.3975511,8.5467018,491.134,0.0,0.0,0.0,0.0,0.0,0.0,0,0,0,0,0,0,0
1634048000,0,47.3975511,8.5467021,491.134,0.0,0.0,0.0,0.0,0.0,0.0,0,0,0,0,0,0,0
1634148000,0,47.397551,8.5467024,491.134,0.0,0.0,0.0,0.0,0.0,0.0,0,0,0,0,0,0,0
1634248000,0,47.3975509,8.546702699999999,491.133,0.0,0.0,0.0,0.0,0.0,0.0,0,0,0,0,0,0,0
1634348000,0,47.3975508,8.546702999999999,491.133,0.0,0.0,0.0,0.0,0.0,0.0,0,0,0,0,0,0,0
1634448000,0,47.3975507,8.546703299999999,491.132,0.0,0.0,0.0,0.0,0.0,0.0,0,0,0,0,0,0,0
1634548000,0,47.397550599999995,8.5467035,491.131,0.0,0.0,0.0,0.0,0.0,0.0,0,0,0,0,0,0,0
1634648000,0,47.3975505,8.5467037,491.13,0.0,0.0,0.0,0.0,0.0,0.0,0,0,0,0,0,0,0
1634748000,0,47.3975505,8.546703899999999,491.13,0.0,0.0,0.0,0.0,0.0,0.0,0,0,0,0,0,0,0
1634848000,0,47.3975504,8.5467041,491.13,0.0,0.0,0.0,0.0,0.0,0.0,0,0,0,0,0,0,0
1634948000,0,47.3975503,8.5467043,491.13,0.0,0.0,0.0,0.0,0.0,0.0,0,0,0,0,0,0,0
1635048000,0,47.3975502,8.5467044,491.13,0.0,0.0,0.0,0.0,0.0,0.0,0,0,0,0,0,0,0
1635148000,0,47.3975502,8.546704499999999,491.131,0.0,0.0,0.0,0.0,0.0,0.0,0,0,0,0,0,0,0
1635248000,0,47.3975501,8.5467047,491.132,0.0,0.0,0.0,0.0,0.0,0.0,0,0,0,0,0,0,0
1635348000,0,47.3975501,8.546704799999999,491.132,0.0,0.0,0.0,0.0,0.0,0.0,0,0,0,0,0,0,0
1635448000,0,47.397549999999995,8.5467049,491.133,0.0,0.0,0.0,0.0,0.0,0.0,0,0,0,0,0,0,0
1635548000,0,47.397549999999995,8.546705,491.134,0.0,0.0,0.0,0.0,0.0,0.0,0,0,0,0,0,0,0
1635648000,0,47.3975499,8.5467051,491.135,0.0,0.0,0.0,0.0,0.0,0.0,0,0,0,0,0,0,0
1635748000,0,47.3975499,8.5467052,491.136,0.0,0.0,0.0,0.0,0.0,0.0,0,0,0,0,0,0,0
1635848000,0,47.3975499,8.5467053,491.137,0.0,0.0,0.0,0.0,0.0,0.0,0,0,0,0,0,0,0
1635948000,0,47.3975498,8.5467054,491.138,0.0,0.0,0.0,0.0,0.0,0.0,0,0,0,0,0,0,0
1636048000,0,47.3975498,8.5467055,491.139,0.0,0.0,0.0,0.0,0.0,0.0,0,0,0,0,0,0,0
1636148000,0,47.3975498,8.5467056,491.139,0.0,0.0,0.0,0.0,0.0,0.0,0,0,0,0,0,0,0
1636248000,0,47.3975497,8.5467057,491.14,0.0,0.0,0.0,0.0,0.0,0.0,0,0,0,0,0,0,0
1636348000,0,47.3975497,8.5467057,491.141,0.0,0.0,0.0,0.0,0.0,0.0,0,0,0,0,0,0,0
1636448000,0,47.3975497,8.5467058,491.142,0.0,0.0,0.0,0.0,0.0,0.0,0,0,0,0,0,0,0
1636548000,0,47.3975496,8.5467059,491.143,0.0,0.0,0.0,0.0,0.0,0.0,0,0,0,0,0,0,0
1636648000,0,47.3975496,8.546706,491.144,0.0,0.0,0.0,0.0,0.0,0.0,0,0,0,0,0,0,0
1636748000,0,47.3975496,8.546706,491.145,0.0,0.0,0.0,0.0,0.0,0.0,0,0,0,0,0,0,0
1636848000,0,47.3975496,8.5467061,491.145,0.0,0.0,0.0,0.0,0.0,0.0,0,0,0,0,0,0,0
1636948000,0,47.3975496,8.5467061,491.146,0.0,0.0,0.0,0.0,0.0,0.0,0,0,0,0,0,0,0
1637048000,0,47.3975495,8.5467062,491.147,0.0,0.0,0.0,0.0,0.0,0.0,0,0,0,0,0,0,0
1637148000,0,47.3975495,8.5467063,491.149,0.0,0.0,0.0,0.0,0.0,0.0,0,0,0,0,0,0,0
1637248000,0,47.3975495,8.5467063,491.15,0.0,0.0,0.0,0.0,0.0,0.0,0,0,0,0,0,0,0
1637348000,0,47.3975495,8.5467064,491.151,0.0,0.0,0.0,0.0,0.0,0.0,0,0,0,0,0,0,0
1637448000,0,47.3975495,8.5467064,491.152,0.0,0.0,0.0,0.0,0.0,0.0,0,0,0,0,0,0,0
1637548000,0,47.3975495,8.546706499999999,491.153,0.0,0.0,0.0,0.0,0.0,0.0,0,0,0,0,0,0,0
1637648000,0,47.3975495,8.546706499999999,491.155,0.0,0.0,0.0,0.0,0.0,0.0,0,0,0,0,0,0,0
1637748000,0,47.3975495,8.5467066,491.156,0.0,0.0,0.0,0.0,0.0,0.0,0,0,0,0,0,0,0
1637848000,0,47.3975495,8.5467066,491.157,0.0,0.0,0.0,0.0,0.0,0.0,0,0,0,0,0,0,0
1637948000,0,47.3975495,8.5467067,491.158,0.0,0.0,0.0,0.0,0.0,0.0,0,0,0,0,0,0,0
1638048000,0,47.3975495,8.5467067,491.159,0.0,0.0,0.0,0.0,0.0,0.0,0,0,0,0,0,0,0
1638148000,0,47.3975495,8.5467067,491.16,0.0,0.0,0.0,0.0,0.0,0.0,0,0,0,0,0,0,0
1638248000,0,47.3975495,8.546706799999999,491.161,0.0,0.0,0.0,0.0,0.0,0.0,0,0,0,0,0,0,0
1638348000,0,47.3975495,8.546706799999999,491.162,0.0,0.0,0.0,0.0,0.0,0.0,0,0,0,0,0,0,0
1638448000,0,47.3975495,8.546706799999999,491.164,0.0,0.0,0.0,0.0,0.0,0.0,0,0,0,0,0,0,0
1638548000,0,47.3975495,8.5467069,491.164,0.0,0.0,0.0,0.0,0.0,0.0,0,0,0,0,0,0,0
1638648000,0,47.3975495,8.5467069,491.165,0.0,0.0,0.0,0.0,0.0,0.0,0,0,0,0,0,0,0
1638748000,0,47.3975495,8.5467069,491.166,0.0,0.0,0.0,0.0,0.0,0.0,0,0,0,0,0,0,0
1638848000,0,47.3975495,8.546707,491.166,0.0,0.0,0.0,0.0,0.0,0.0,0,0,0,0,0,0,0
1638948000,0,47.3975496,8.546707,491.161,0.0,0.0,0.0,0.0,0.0,0.0,0,0,0,0,0,0,0
1639048000,0,47.3975496,8.546707,491.143,0.0,0.0,0.0,0.0,0.0,0.0,0,0,0,0,0,0,0
1639148000,0,47.3975496,8.546707099999999,491.109,0.0,0.0,0.0,0.0,0.0,0.0,0,0,0,0,0,0,0
1639248000,0,47.3975496,8.546707099999999,491.054,0.0,0.0,0.0,0.0,0.0,0.0,0,0,0,0,0,0,0
1639348000,0,47.3975496,8.5467072,490.982,0.0,0.0,0.0,0.0,0.0,0.0,0,0,0,0,0,0,0
1639448000,0,47.3975496,8.5467073,490.903,0.0,0.0,0.0,0.0,0.0,0.0,0,0,0,0,0,0,0
1639548000,0,47.3975496,8.546707399999999,490.826,0.0,0.0,0.0,0.0,0.0,0.0,0,0,0,0,0,0,0
1639648000,0,47.3975496,8.5467075,490.748,0.0,0.0,0.0,0.0,0.0,0.0,0,0,0,0,0,0,0
1639748000,0,47.3975496,8.546707699999999,490.68,0.0,0.0,0.0,0.0,0.0,0.0,0,0,0,0,0,0,0
1639848000,0,47.3975496,8.5467078,490.616,0.0,0.0,0.0,0.0,0.0,0.0,0,0,0,0,0,0,0
1639948000,0,47.3975495,8.5467079,490.548,0.0,0.0,0.0,0.0,0.0,0.0,0,0,0,0,0,0,0
1640048000,0,47.3975495,8.546707999999999,490.485,0.0,0.0,0.0,0.0,0.0,0.0,0,0,0,0,0,0,0
1640148000,0,47.3975495,8.5467081,490.418,0.0,0.0,0.0,0.0,0.0,0.0,0,0,0,0,0,0,0
1640248000,0,47.3975495,8.5467082,490.347,0.0,0.0,0.0,0.0,0.0,0.0,0,0,0,0,0,0,0
1640348000,0,47.3975495,8.546708299999999,490.279,0.0,0.0,0.0,0.0,0.0,0.0,0,0,0,0,0,0,0
1640448000,0,47.3975495,8.5467084,490.21,0.0,0.0,0.0,0.0,0.0,0.0,0,0,0,0,0,0,0
1640548000,0,47.3975495,8.5467084,490.14,0.0,0.0,0.0,0.0,0.0,0.0,0,0,0,0,0,0,0
1640648000,0,47.3975495,8.5467085,490.07,0.0,0.0,0.0,0.0,0.0,0.0,0,0,0,0,0,0,0
1640748000,0,47.3975495,8.546708599999999,490.002,0.0,0.0,0.0,0.0,0.0,0.0,0,0,0,0,0,0,0
1640848000,0,47.3975495,8.546708599999999,489.928,0.0,0.0,0.0,0.0,0.0,0.0,0,0,0,0,0,0,0
1640948000,0,47.3975495,8.5467087,489.858,0.0,0.0,0.0,0.0,0.0,0.0,0,0,0,0,0,0,0
1641048000,0,47.3975495,8.5467087,489.787,0.0,0.0,0.0,0.0,0.0,0.0,0,0,0,0,0,0,0
1641148000,0,47.3975495,8.5467088,489.716,0.0,0.0,0.0,0.0,0.0,0.0,0,0,0,0,0,0,0
1641248000,0,47.3975495,8.5467088,489.648,0.0,0.0,0.0,0.0,0.0,0.0,0,0,0,0,0,0,0
1641348000,0,47.3975495,8.5467088,489.578,0.0,0.0,0.0,0.0,0.0,0.0,0,0,0,0,0,0,0
1641448000,0,47.3975495,8.5467089,489.507,0.0,0.0,0.0,0.0,0.0,0.0,0,0,0,0,0,0,0
1641548000,0,47.3975495,8.5467089,489.433,0.0,0.0,0.0,0.0,0.0,0.0,0,0,0,0,0,0,0
1641648000,0,47.3975495,8.5467089,489.362,0.0,0.0,0.0,0.0,0.0,0.0,0,0,0,0,0,0,0
1641748000,0,47.3975495,8.5467089,489.293,0.0,0.0,0.0,0.0,0.0,0.0,0,0,0,0,0,0,0
1641848000,0,47.3975495,8.5467089,489.219,0.0,0.0,0.0,0.0,0.0,0.0,0,0,0,0,0,0,0
1641948000,0,47.3975495,8.5467089,489.15,0.0,0.0,0.0,0.0,0.0,0.0,0,0,0,0,0,0,0
1642048000,0,47.3975495,8.5467088,489.077,0.0,0.0,0.0,0.0,0.0,0.0,0,0,0,0,0,0,0
1642148000,0,47.3975495,8.5467088,489.005,0.0,0.0,0.0,0.0,0.0,0.0,0,0,0,0,0,0,0
1642248000,0,47.3975496,8.5467088,488.929,0.0,0.0,0.0,0.0,0.0,0.0,0,0,0,0,0,0,0
1642348000,0,47.3975496,8.5467088,488.857,0.0,0.0,0.0,0.0,0.0,0.0,0,0,0,0,0,0,0
1642448000,0,47.3975496,8.5467087,488.787,0.0,0.0,0.0,0.0,0.0,0.0,0,0,0,0,0,0,0
1642548000,0,47.3975496,8.5467087,488.715,0.0,0.0,0.0,0.0,0.0,0.0,0,0,0,0,0,0,0
1642648000,0,47.3975496,8.546708599999999,488.643,0.0,0.0,0.0,0.0,0.0,0.0,0,0,0,0,0,0,0
1642748000,0,47.3975496,8.546708599999999,488.568,0.0,0.0,0.0,0.0,0.0,0.0,0,0,0,0,0,0,0
1642848000,0,47.3975496,8.5467085,488.496,0.0,0.0,0.0,0.0,0.0,0.0,0,0,0,0,0,0,0
1642948000,0,47.3975496,8.5467085,488.423,0.0,0.0,0.0,0.0,0.0,0.0,0,0,0,0,0,0,0
1643048000,0,47.3975496,8.5467084,488.351,0.0,0.0,0.0,0.0,0.0,0.0,0,0,0,0,0,0,0
1643148000,0,47.3975496,8.5467084,488.281,0.0,0.0,0.0,0.0,0.0,0.0,0,0,0,0,0,0,0
1643248000,0,47.3975496,8.546708299999999,488.206,0.0,0.0,0.0,0.0,0.0,0.0,0,0,0,0,0,0,0
1643348000,0,47.3975496,8.546708299999999,488.137,0.0,0.0,0.0,0.0,0.0,0.0,0,0,0,0,0,0,0
1643448000,0,47.3975496,8.546708299999999,488.105,0.0,0.0,0.0,0.0,0.0,0.0,0,0,0,0,0,0,0
1643548000,0,47.3975496,8.546708299999999,488.104,0.0,0.0,0.0,0.0,0.0,0.0,0,0,0,0,0,0,0
1643648000,0,47.3975496,8.546708299999999,488.104,0.0,0.0,0.0,0.0,0.0,0.0,0,0,0,0,0,0,0
1643748000,0,47.3975496,8.546708299999999,488.104,0.0,0.0,0.0,0.0,0.0,0.0,0,0,0,0,0,0,0
1643848000,0,47.3975496,8.546708299999999,488.104,0.0,0.0,0.0,0.0,0.0,0.0,0,0,0,0,0,0,0
1643948000,0,47.3975496,8.546708299999999,488.104,0.0,0.0,0.0,0.0,0.0,0.0,0,0,0,0,0,0,0
1644048000,0,47.3975496,8.546708299999999,488.104,0.0,0.0,0.0,0.0,0.0,0.0,0,0,0,0,0,0,0
1644148000,0,47.3975496,8.546708299999999,488.104,0.0,0.0,0.0,0.0,0.0,0.0,0,0,0,0,0,0,0
1644248000,0,47.3975496,8.546708299999999,488.104,0.0,0.0,0.0,0.0,0.0,0.0,0,0,0,0,0,0,0
1644348000,0,47.3975496,8.546708299999999,488.104,0.0,0.0,0.0,0.0,0.0,0.0,0,0,0,0,0,0,0
1644448000,0,47.3975496,8.546708299999999,488.104,0.0,0.0,0.0,0.0,0.0,0.0,0,0,0,0,0,0,0
1644548000,0,47.3975496,8.546708299999999,488.104,0.0,0.0,0.0,0.0,0.0,0.0,0,0,0,0,0,0,0
1644648000,0,47.3975496,8.546708299999999,488.104,0.0,0.0,0.0,0.0,0.0,0.0,0,0,0,0,0,0,0
1644748000,0,47.3975496,8.546708299999999,488.104,0.0,0.0,0.0,0.0,0.0,0.0,0,0,0,0,0,0,0
1644848000,0,47.3975496,8.546708299999999,488.104,0.0,0.0,0.0,0.0,0.0,0.0,0,0,0,0,0,0,0
1644948000,0,47.3975496,8.546708299999999,488.104,0.0,0.0,0.0,0.0,0.0,0.0,0,0,0,0,0,0,0
1645048000,0,47.3975496,8.546708299999999,488.104,0.0,0.0,0.0,0.0,0.0,0.0,0,0,0,0,0,0,0
1645148000,0,47.3975496,8.546708299999999,488.104,0.0,0.0,0.0,0.0,0.0,0.0,0,0,0,0,0,0,0
1645248000,0,47.3975496,8.546708299999999,488.104,0.0,0.0,0.0,0.0,0.0,0.0,0,0,0,0,0,0,0
1645348000,0,47.3975496,8.546708299999999,488.104,0.0,0.0,0.0,0.0,0.0,0.0,0,0,0,0,0,0,0
1645448000,0,47.3975496,8.546708299999999,488.104,0.0,0.0,0.0,0.0,0.0,0.0,0,0,0,0,0,0,0
1645548000,0,47.3975496,8.546708299999999,488.104,0.0,0.0,0.0,0.0,0.0,0.0,0,0,0,0,0,0,0
1645648000,0,47.3975496,8.546708299999999,488.104,0.0,0.0,0.0,0.0,0.0,0.0,0,0,0,0,0,0,0
1645748000,0,47.3975496,8.546708299999999,488.104,0.0,0.0,0.0,0.0,0.0,0.0,0,0,0,0,0,0,0
1645848000,0,47.3975496,8.546708299999999,488.104,0.0,0.0,0.0,0.0,0.0,0.0,0,0,0,0,0,0,0
1645948000,0,47.3975496,8.546708299999999,488.104,0.0,0.0,0.0,0.0,0.0,0.0,0,0,0,0,0,0,0
1646048000,0,47.3975496,8.546708299999999,488.104,0.0,0.0,0.0,0.0,0.0,0.0,0,0,0,0,0,0,0
1646148000,0,47.3975496,8.546708299999999,488.104,0.0,0.0,0.0,0.0,0.0,0.0,0,0,0,0,0,0,0
1646248000,0,47.3975496,8.546708299999999,488.104,0.0,0.0,0.0,0.0,0.0,0.0,0,0,0,0,0,0,0
1646348000,0,47.3975496,8.546708299999999,488.104,0.0,0.0,0.0,0.0,0.0,0.0,0,0,0,0,0,0,0
1646448000,0,47.3975496,8.546708299999999,488.104,0.0,0.0,0.0,0.0,0.0,0.0,0,0,0,0,0,0,0
1646548000,0,47.3975496,8.546708299999999,488.104,0.0,0.0,0.0,0.0,0.0,0.0,0,0,0,0,0,0,0
1646648000,0,47.3975496,8.546708299999999,488.104,0.0,0.0,0.0,0.0,0.0,0.0,0,0,0,0,0,0,0
1646748000,0,47.3975496,8.546708299999999,488.104,0.0,0.0,0.0,0.0,0.0,0.0,0,0,0,0,0,0,0
1646848000,0,47.3975496,8.546708299999999,488.104,0.0,0.0,0.0,0.0,0.0,0.0,0,0,0,0,0,0,0
1646948000,0,47.3975496,8.546708299999999,488.104,0.0,0.0,0.0,0.0,0.0,0.0,0,0,0,0,0,0,0
1647048000,0,47.3975496,8.546708299999999,488.104,0.0,0.0,0.0,0.0,0.0,0.0,0,0,0,0,0,0,0
1647148000,0,47.3975496,8.546708299999999,488.104,0.0,0.0,0.0,0.0,0.0,0.0,0,0,0,0,0,0,0
1647248000,0,47.3975496,8.546708299999999,488.104,0.0,0.0,0.0,0.0,0.0,0.0,0,0,0,0,0,0,0
1647348000,0,47.3975496,8.546708299999999,488.104,0.0,0.0,0.0,0.0,0.0,0.0,0,0,0,0,0,0,0
1647448000,0,47.3975496,8.546708299999999,488.104,0.0,0.0,0.0,0.0,0.0,0.0,0,0,0,0,0,0,0
1647548000,0,47.3975496,8.546708299999999,488.104,0.0,0.0,0.0,0.0,0.0,0.0,0,0,0,0,0,0,0
