timestamp,timestamp_sample,lat,lon,alt,alt_ellipsoid,delta_alt,delta_terrain,eph,epv,terrain_alt,lat_lon_valid,alt_valid,lat_lon_reset_counter,alt_reset_counter,terrain_reset_counter,terrain_alt_valid,dead_reckoning
1592244000,1592240000,47.39775013212903,8.545605753158952,488.15652,488.15652,-0.0,-0.0,0.47354385,0.2874466,488.0567,1,1,5,5,5,0,0
1592252000,1592248000,47.39775013062246,8.545605751990365,488.15652,488.15652,-0.0,-0.0,0.47439918,0.2878373,488.0568,1,1,5,5,5,0,0
1592260000,1592256000,47.39775012908411,8.545605750866413,488.15652,488.15652,-0.0,-0.0,0.4752577,0.28822866,488.0569,1,1,5,5,5,0,0
1592268000,1592264000,47.39775012750226,8.545605749772895,488.15656,488.15656,-0.0,-0.0,0.4761193,0.28862065,488.05698,1,1,5,5,5,0,0
1592276000,1592272000,47.39775012588808,8.545605748670177,488.15656,488.15656,-0.0,-0.0,0.4769841,0.28901327,488.05707,1,1,5,5,5,0,0
1592284000,1592280000,47.3977501242058,8.545605747555248,488.15656,488.15656,-0.0,-0.0,0.4778521,0.28843173,488.05704,1,1,5,5,5,0,0
1592292000,1592288000,47.39775012246277,8.545605746411054,488.1566,488.1566,-0.0,-0.0,0.4787232,0.28882432,488.05713,1,1,5,5,5,0,0
1592300000,1592296000,47.39775012067354,8.545605745248679,488.1566,488.1566,-0.0,-0.0,0.4795975,0.2892175,488.05722,1,1,5,5,5,0,0
1592308000,1592304000,47.39775011882023,8.545605744079056,488.1566,488.1566,-0.0,-0.0,0.480475,0.28961134,488.0573,1,1,5,5,5,0,0
1592316000,1592312000,47.397750116928535,8.545605742988938,488.15662,488.15662,-0.0,-0.0,0.4813391,0.29000583,488.0574,1,1,5,5,5,0,0
1592324000,1592320000,47.39775011496699,8.545605741903024,488.15662,488.15662,-0.0,-0.0,0.48222277,0.29040095,488.0575,1,1,5,5,5,0,0
1592332000,1592328000,47.39775011291758,8.545605740687177,488.15665,488.15665,-0.0,-0.0,0.4831096,0.2907967,488.0576,1,1,5,5,5,0,0
1592340000,1592336000,47.397750110801326,8.545605739379733,488.15665,488.15665,-0.0,-0.0,0.48399964,0.29119307,488.05768,1,1,5,5,5,0,0
1592348000,1592344000,47.397750108652254,8.545605738075528,488.15668,488.15668,-0.0,-0.0,0.4848929,0.2915901,488.05777,1,1,5,5,5,0,0
1592356000,1592352000,47.397750106489575,8.545605736792066,488.1567,488.1567,-0.0,-0.0,0.48578936,0.29098675,488.05743,1,1,5,5,5,0,0
1592364000,1592360000,47.397750104275666,8.545605735540105,488.15674,488.15674,-0.0,-0.0,0.486689,0.29138365,488.05753,1,1,5,5,5,0,0
1592372000,1592368000,47.397750101991804,8.545605734381573,488.15677,488.15677,-0.0,-0.0,0.4875919,0.29178122,488.05762,1,1,5,5,5,0,0
1592380000,1592376000,47.397750099666084,8.545605733290412,488.1568,488.1568,-0.0,-0.0,0.488498,0.2921794,488.0577,1,1,5,5,5,0,0
1592388000,1592384000,47.39775009739903,8.545605732225482,488.15683,488.15683,-0.0,-0.0,0.48938873,0.29257822,488.0578,1,1,5,5,5,0,0
1592396000,1592392000,47.39775009899363,8.545605731302512,488.15665,488.15665,-0.0,-0.0,0.45011616,0.27959737,488.05145,1,1,5,5,5,0,0
1592404000,1592400000,47.397750100395456,8.545605730462524,488.1565,488.1565,-0.0,-0.0,0.45088437,0.27997404,488.0515,1,1,5,5,5,0,0
1592412000,1592408000,47.39775010165399,8.545605729634135,488.15634,488.15634,-0.0,-0.0,0.4516556,0.28035137,488.05157,1,1,5,5,5,0,0
1592420000,1592416000,47.39775010276093,8.54560572877261,488.1562,488.1562,-0.0,-0.0,0.4524298,0.28072935,488.05164,1,1,5,5,5,0,0
1592428000,1592424000,47.397750103739504,8.545605727901819,488.15604,488.15604,-0.0,-0.0,0.453207,0.2802144,488.05154,1,1,5,5,5,0,0
1592436000,1592432000,47.39775010459814,8.545605727034934,488.1559,488.1559,-0.0,-0.0,0.45398718,0.28059247,488.0516,1,1,5,5,5,0,0
1592444000,1592440000,47.39775010537295,8.545605726234397,488.1558,488.1558,-0.0,-0.0,0.45476896,0.2809712,488.05167,1,1,5,5,5,0,0
1592452000,1592448000,47.39775010603503,8.545605725493154,488.15564,488.15564,-0.0,-0.0,0.45555514,0.28135055,488.05173,1,1,5,5,5,0,0
1592460000,1592456000,47.39775010660426,8.545605724762398,488.15555,488.15555,-0.0,-0.0,0.45633343,0.28173056,488.0518,1,1,5,5,5,0,0
1592468000,1592464000,47.3977501070779,8.54560572400339,488.15543,488.15543,-0.0,-0.0,0.45712554,0.28211123,488.05185,1,1,5,5,5,0,0
1592476000,1592472000,47.39775010742738,8.545605723214596,488.1553,488.1553,-0.0,-0.0,0.45792064,0.28249252,488.0519,1,1,5,5,5,0,0
1592484000,1592480000,47.39775010771177,8.545605722458253,488.1552,488.1552,-0.0,-0.0,0.4587188,0.28287446,488.05197,1,1,5,5,5,0,0
1592492000,1592488000,47.397750107904685,8.545605721722865,488.1551,488.1551,-0.0,-0.0,0.45952,0.28325704,488.05203,1,1,5,5,5,0,0
1592500000,1592496000,47.39775010796972,8.545605720976344,488.155,488.155,-0.0,-0.0,0.4603243,0.28272244,488.05212,1,1,5,5,5,0,0
1592508000,1592504000,47.397750107927976,8.54560572019982,488.1549,488.1549,-0.0,-0.0,0.4611316,0.28310508,488.0522,1,1,5,5,5,0,0
1592516000,1592512000,47.397750107828244,8.545605719367634,488.15482,488.15482,-0.0,-0.0,0.46194196,0.28348833,488.05225,1,1,5,5,5,0,0
1592524000,1592520000,47.39775010765507,8.545605718550597,488.15472,488.15472,-0.0,-0.0,0.46275544,0.28387228,488.05234,1,1,5,5,5,0,0
1592532000,1592528000,47.3977501074526,8.54560571778132,488.15463,488.15463,-0.0,-0.0,0.46355948,0.28425685,488.05243,1,1,5,5,5,0,0
1592540000,1592536000,47.39775010714949,8.545605717090837,488.15457,488.15457,-0.0,-0.0,0.46437892,0.28464207,488.05252,1,1,5,5,5,0,0
1592548000,1592544000,47.39775010675219,8.545605716416373,488.15448,488.15448,-0.0,-0.0,0.46520144,0.28502792,488.0526,1,1,5,5,5,0,0
1592556000,1592552000,47.39775010625501,8.545605715732783,488.15442,488.15442,-0.0,-0.0,0.46602705,0.28541443,488.0527,1,1,5,5,5,0,0
1592564000,1592560000,47.39775010568714,8.545605715081816,488.15436,488.15436,-0.0,-0.0,0.46685576,0.28580156,488.0528,1,1,5,5,5,0,0
1592572000,1592568000,47.397750105054975,8.545605714437501,488.1543,488.1543,-0.0,-0.0,0.46768758,0.2852466,488.05264,1,1,5,5,5,0,0
1592580000,1592576000,47.3977501043327,8.545605713795293,488.1542,488.1542,-0.0,-0.0,0.4685225,0.28563374,488.05273,1,1,5,5,5,0,0
1592588000,1592584000,47.39775010353987,8.545605713215062,488.15414,488.15414,-0.0,-0.0,0.4693605,0.28602153,488.05283,1,1,5,5,5,0,0
1592596000,1592592000,47.397750102660325,8.545605712644724,488.15408,488.15408,-0.0,-0.0,0.47020167,0.28640994,488.05292,1,1,5,5,5,0,0
1592604000,1592600000,47.39775010169352,8.545605712163091,488.15402,488.15402,-0.0,-0.0,0.47103179,0.28679898,488.053,1,1,5,5,5,0,0
1592612000,1592608000,47.39775010064769,8.54560571170971,488.15396,488.15396,-0.0,-0.0,0.47187895,0.2871887,488.0531,1,1,5,5,5,0,0
1592620000,1592616000,47.39775009951064,8.545605711270861,488.1539,488.1539,-0.0,-0.0,0.4727293,0.28757903,488.0532,1,1,5,5,5,0,0
1592628000,1592624000,47.39775009828658,8.545605710871142,488.15387,488.15387,-0.0,-0.0,0.47358277,0.28797,488.05328,1,1,5,5,5,0,0
1592636000,1592632000,47.397750096950034,8.545605710459556,488.15384,488.15384,-0.0,-0.0,0.47443938,0.2883616,488.05338,1,1,5,5,5,0,0
1592644000,1592640000,47.39775009548691,8.54560571011806,488.1538,488.1538,-0.0,-0.0,0.475297,0.28778565,488.05267,1,1,5,5,5,0,0
1592652000,1592648000,47.39775009398327,8.545605709816918,488.15375,488.15375,-0.0,-0.0,0.4761599,0.28817722,488.05276,1,1,5,5,5,0,0
1592660000,1592656000,47.39775009246018,8.545605709499458,488.15372,488.15372,-0.0,-0.0,0.47702596,0.28856945,488.05286,1,1,5,5,5,0,0
1592668000,1592664000,47.39775009083249,8.545605709187761,488.15366,488.15366,-0.0,-0.0,0.47787935,0.2889623,488.05292,1,1,5,5,5,0,0
1592676000,1592672000,47.39775008911492,8.545605708846637,488.15363,488.15363,-0.0,-0.0,0.4787515,0.28935578,488.05298,1,1,5,5,5,0,0
1592684000,1592680000,47.39775008732355,8.545605708504509,488.1536,488.1536,-0.0,-0.0,0.47962683,0.28974992,488.05304,1,1,5,5,5,0,0
1592692000,1592688000,47.397750085497705,8.545605708212358,488.15356,488.15356,-0.0,-0.0,0.48050535,0.29014468,488.0531,1,1,5,5,5,0,0
1592700000,1592696000,47.397750083639316,8.545605707987018,488.15353,488.15353,-0.0,-0.0,0.48138705,0.29054007,488.0532,1,1,5,5,5,0,0
1592708000,1592704000,47.397750081703265,8.54560570771959,488.1535,488.1535,-0.0,-0.0,0.48227194,0.29093608,488.05328,1,1,5,5,5,0,0
1592716000,1592712000,47.397750079673365,8.545605707408072,488.15347,488.15347,-0.0,-0.0,0.48316002,0.29033846,488.0536,1,1,5,5,5,0,0
1592724000,1592720000,47.39775007753419,8.54560570717107,488.15347,488.15347,-0.0,-0.0,0.48405132,0.29073438,488.05365,1,1,5,5,5,0,0
1592732000,1592728000,47.397750075297644,8.545605706972971,488.15344,488.15344,-0.0,-0.0,0.4849458,0.29113096,488.0537,1,1,5,5,5,0,0
1592740000,1592736000,47.397750073023204,8.545605706739114,488.15344,488.15344,-0.0,-0.0,0.48582572,0.29152817,488.05377,1,1,5,5,5,0,0
1592748000,1592744000,47.39775007074214,8.545605706431264,488.1534,488.1534,-0.0,-0.0,0.48672637,0.291926,488.05383,1,1,5,5,5,0,0
1592756000,1592752000,47.39775006844415,8.545605706125244,488.1534,488.1534,-0.0,-0.0,0.48763025,0.29232448,488.0539,1,1,5,5,5,0,0
1592764000,1592760000,47.397750066091284,8.545605705823911,488.15338,488.15338,-0.0,-0.0,0.48853737,0.29272357,488.05396,1,1,5,5,5,0,0
1592772000,1592768000,47.39775006366876,8.545605705483966,488.15338,488.15338,-0.0,-0.0,0.48944774,0.2931233,488.05402,1,1,5,5,5,0,0
1592780000,1592776000,47.39775006115741,8.54560570512438,488.15335,488.15335,-0.0,-0.0,0.49036133,0.29352367,488.0541,1,1,5,5,5,0,0
1592788000,1592784000,47.397750058596706,8.545605704665377,488.15335,488.15335,-0.0,-0.0,0.49127814,0.29290366,488.05447,1,1,5,5,5,0,0
1592796000,1592792000,47.397750060605645,8.545605704073042,488.1532,488.1532,-0.0,-0.0,0.4514682,0.27987832,488.04962,1,1,5,5,5,0,0
1592804000,1592800000,47.3977500625247,8.545605703397376,488.15305,488.15305,-0.0,-0.0,0.452232,0.28025568,488.04968,1,1,5,5,5,0,0
1592812000,1592808000,47.39775006429738,8.545605702761911,488.1529,488.1529,-0.0,-0.0,0.45300874,0.2806337,488.04974,1,1,5,5,5,0,0
1592820000,1592816000,47.39775006589824,8.545605702175353,488.15277,488.15277,-0.0,-0.0,0.45378846,0.28101236,488.0498,1,1,5,5,5,0,0
1592828000,1592824000,47.39775006730706,8.545605701574017,488.15265,488.15265,-0.0,-0.0,0.4545712,0.28139165,488.04987,1,1,5,5,5,0,0
1592836000,1592832000,47.39775006858183,8.545605700992995,488.15253,488.15253,-0.0,-0.0,0.45535693,0.2817716,488.04993,1,1,5,5,5,0,0
1592844000,1592840000,47.397750069756704,8.545605700481818,488.15237,488.15237,-0.0,-0.0,0.45614418,0.2821522,488.05,1,1,5,5,5,0,0
1592852000,1592848000,47.39775007084524,8.545605700024964,488.15225,488.15225,-0.0,-0.0,0.45693594,0.28253347,488.05005,1,1,5,5,5,0,0
1592860000,1592856000,47.397750071860244,8.545605699545565,488.15213,488.15213,-0.0,-0.0,0.4577307,0.2820045,488.0504,1,1,5,5,5,0,0
1592868000,1592864000,47.39775007276617,8.545605699041978,488.15204,488.15204,-0.0,-0.0,0.45852852,0.28238583,488.05048,1,1,5,5,5,0,0
1592876000,1592872000,47.39775007354706,8.545605698530668,488.15192,488.15192,-0.0,-0.0,0.45931786,0.28276777,488.05054,1,1,5,5,5,0,0
1592884000,1592880000,47.39775007420132,8.545605698057411,488.15182,488.15182,-0.0,-0.0,0.4601216,0.28315037,488.0506,1,1,5,5,5,0,0
1592892000,1592888000,47.3977500747128,8.545605697631611,488.15173,488.15173,-0.0,-0.0,0.46092835,0.28353363,488.05066,1,1,5,5,5,0,0
1592900000,1592896000,47.397750075135946,8.54560569720206,488.15164,488.15164,-0.0,-0.0,0.46173817,0.28391752,488.05072,1,1,5,5,5,0,0
1592908000,1592904000,47.39775007547722,8.545605696783404,488.15155,488.15155,-0.0,-0.0,0.4625511,0.28430203,488.05078,1,1,5,5,5,0,0
1592916000,1592912000,47.39775007572836,8.545605696355027,488.15146,488.15146,-0.0,-0.0,0.46336702,0.2846872,488.05084,1,1,5,5,5,0,0
1592924000,1592920000,47.397750075909265,8.545605695955434,488.1514,488.1514,-0.0,-0.0,0.46418604,0.285073,488.0509,1,1,5,5,5,0,0
1592932000,1592928000,47.3977500759896,8.545605695554269,488.15134,488.15134,-0.0,-0.0,0.46500814,0.28452393,488.05096,1,1,5,5,5,0,0
1592940000,1592936000,47.39775007595301,8.545605695169439,488.15128,488.15128,-0.0,-0.0,0.46583334,0.28490975,488.05103,1,1,5,5,5,0,0
1592948000,1592944000,47.39775007585497,8.545605694737505,488.1512,488.1512,-0.0,-0.0,0.46664846,0.28529623,488.0511,1,1,5,5,5,0,0
1592956000,1592952000,47.39775007565477,8.545605694227161,488.15115,488.15115,-0.0,-0.0,0.46747965,0.28568333,488.05115,1,1,5,5,5,0,0
1592964000,1592960000,47.39775007538117,8.545605693636979,488.1511,488.1511,-0.0,-0.0,0.46831393,0.2860711,488.0512,1,1,5,5,5,0,0
1592972000,1592968000,47.39775007499174,8.54560569303729,488.15103,488.15103,-0.0,-0.0,0.46915135,0.28645948,488.05127,1,1,5,5,5,0,0
1592980000,1592976000,47.39775007452429,8.545605692464935,488.151,488.151,-0.0,-0.0,0.46999186,0.28684852,488.05133,1,1,5,5,5,0,0
1592988000,1592984000,47.39775007402,8.545605691854087,488.15094,488.15094,-0.0,-0.0,0.4708355,0.2872382,488.0514,1,1,5,5,5,0,0
1592996000,1592992000,47.39775007349303,8.545605691187903,488.15088,488.15088,-0.0,-0.0,0.47168225,0.2876285,488.05145,1,1,5,5,5,0,0
1593004000,1593000000,47.39775007290497,8.545605690495231,488.15082,488.15082,-0.0,-0.0,0.47253212,0.28705862,488.05072,1,1,5,5,5,0,0
1593012000,1593008000,47.39775007223826,8.545605689754382,488.15073,488.15073,-0.0,-0.0,0.4733851,0.28744888,488.05075,1,1,5,5,5,0,0
1593020000,1593016000,47.397750071504326,8.54560568894693,488.15067,488.15067,-0.0,-0.0,0.4742263,0.2878398,488.05078,1,1,5,5,5,0,0
1593028000,1593024000,47.39775007068006,8.545605688072934,488.15057,488.15057,-0.0,-0.0,0.4750854,0.28823134,488.0508,1,1,5,5,5,0,0
1593036000,1593032000,47.39775006980672,8.545605687180867,488.1505,488.1505,-0.0,-0.0,0.47594762,0.28862354,488.05084,1,1,5,5,5,0,0
1593044000,1593040000,47.39775006887527,8.545605686384905,488.15042,488.15042,-0.0,-0.0,0.47681084,0.28901637,488.0509,1,1,5,5,5,0,0
1593052000,1593048000,47.39775006786437,8.545605685553793,488.15036,488.15036,-0.0,-0.0,0.47767934,0.28940982,488.05096,1,1,5,5,5,0,0
1593060000,1593056000,47.397750066734815,8.545605684686485,488.1503,488.1503,-0.0,-0.0,0.478551,0.28882515,488.05106,1,1,5,5,5,0,0
1593068000,1593064000,47.3977500655104,8.545605683777904,488.1502,488.1502,-0.0,-0.0,0.47942585,0.28921854,488.0511,1,1,5,5,5,0,0
1593076000,1593072000,47.39775006419014,8.545605682849981,488.15015,488.15015,-0.0,-0.0,0.48030385,0.28961256,488.05115,1,1,5,5,5,0,0
1593084000,1593080000,47.397750062803944,8.545605681948915,488.15012,488.15012,-0.0,-0.0,0.48116848,0.29000723,488.0512,1,1,5,5,5,0,0
1593092000,1593088000,47.39775006133968,8.545605681079495,488.15005,488.15005,-0.0,-0.0,0.48205265,0.29040253,488.05127,1,1,5,5,5,0,0
1593100000,1593096000,47.397750059755154,8.545605680198628,488.15,488.15,-0.0,-0.0,0.48294002,0.2907985,488.05133,1,1,5,5,5,0,0
1593108000,1593104000,47.397750058061874,8.545605679351723,488.14996,488.14996,-0.0,-0.0,0.48383057,0.29119503,488.0514,1,1,5,5,5,0,0
1593116000,1593112000,47.39775005626233,8.545605678537038,488.1499,488.1499,-0.0,-0.0,0.48472434,0.29159224,488.05145,1,1,5,5,5,0,0
1593124000,1593120000,47.397750054348506,8.545605677777994,488.1499,488.1499,-0.0,-0.0,0.4856213,0.29098904,488.05206,1,1,5,5,5,0,0
1593132000,1593128000,47.397750052311316,8.545605677036376,488.14987,488.14987,-0.0,-0.0,0.48652145,0.29138616,488.05212,1,1,5,5,5,0,0
1593140000,1593136000,47.3977500501922,8.545605676312235,488.14984,488.14984,-0.0,-0.0,0.48742485,0.29178387,488.05215,1,1,5,5,5,0,0
1593148000,1593144000,47.39775004799217,8.545605675596994,488.1498,488.1498,-0.0,-0.0,0.4883314,0.29218224,488.0522,1,1,5,5,5,0,0
1593156000,1593152000,47.39775004572841,8.545605674890993,488.1498,488.1498,-0.0,-0.0,0.48922262,0.29258123,488.05222,1,1,5,5,5,0,0
1593164000,1593160000,47.397750043367516,8.545605674162857,488.14978,488.14978,-0.0,-0.0,0.4901354,0.29298085,488.05225,1,1,5,5,5,0,0
1593172000,1593168000,47.39775004093594,8.545605673375585,488.14975,488.14975,-0.0,-0.0,0.49105144,0.29338112,488.05228,1,1,5,5,5,0,0
1593180000,1593176000,47.397750038460266,8.54560567253705,488.14972,488.14972,-0.0,-0.0,0.49197072,0.293782,488.0523,1,1,5,5,5,0,0
1593188000,1593184000,47.39775003593758,8.545605671613274,488.1497,488.1497,-0.0,-0.0,0.4928932,0.29418352,488.05234,1,1,5,5,5,0,0
1593196000,1593192000,47.39775003788183,8.545605673032162,488.14957,488.14957,-0.0,-0.0,0.45264557,0.28009757,488.04855,1,1,5,5,5,0,0
1593204000,1593200000,47.397750039676076,8.545605674389462,488.1494,488.1494,-0.0,-0.0,0.45342362,0.2804754,488.04858,1,1,5,5,5,0,0
1593212000,1593208000,47.39775004132767,8.54560567569495,488.1493,488.1493,-0.0,-0.0,0.45420468,0.28085387,488.0486,1,1,5,5,5,0,0
1593220000,1593216000,47.39775004286231,8.54560567693573,488.14917,488.14917,-0.0,-0.0,0.45498872,0.28123298,488.04865,1,1,5,5,5,0,0
1593228000,1593224000,47.39775004435215,8.545605678060546,488.14905,488.14905,-0.0,-0.0,0.45576504,0.28161275,488.04868,1,1,5,5,5,0,0
1593236000,1593232000,47.397750045704434,8.545605679089633,488.14893,488.14893,-0.0,-0.0,0.45655495,0.28199315,488.0487,1,1,5,5,5,0,0
1593244000,1593240000,47.39775004688707,8.54560568004665,488.1488,488.1488,-0.0,-0.0,0.45734635,0.28237423,488.04874,1,1,5,5,5,0,0
1593252000,1593248000,47.39775004792418,8.54560568093403,488.14868,488.14868,-0.0,-0.0,0.45814228,0.28275594,488.04877,1,1,5,5,5,0,0
1593260000,1593256000,47.39775004882246,8.545605681779838,488.14856,488.14856,-0.0,-0.0,0.45894125,0.2831383,488.0488,1,1,5,5,5,0,0
1593268000,1593264000,47.397750049619816,8.54560568253992,488.14847,488.14847,-0.0,-0.0,0.4597433,0.2826046,488.04907,1,1,5,5,5,0,0
1593276000,1593272000,47.397750050286625,8.545605683150375,488.14835,488.14835,-0.0,-0.0,0.4605483,0.282987,488.0491,1,1,5,5,5,0,0
1593284000,1593280000,47.3977500508303,8.545605683686626,488.14825,488.14825,-0.0,-0.0,0.4613564,0.28337005,488.04913,1,1,5,5,5,0,0
1593292000,1593288000,47.39775005128467,8.545605684203528,488.14816,488.14816,-0.0,-0.0,0.46216756,0.28375372,488.04916,1,1,5,5,5,0,0
1593300000,1593296000,47.39775005168632,8.545605684665063,488.14807,488.14807,-0.0,-0.0,0.46296945,0.28413805,488.0492,1,1,5,5,5,0,0
1593308000,1593304000,47.39775005196787,8.545605685086556,488.148,488.148,-0.0,-0.0,0.46378654,0.28452304,488.0492,1,1,5,5,5,0,0
1593316000,1593312000,47.39775005209146,8.545605685503023,488.14792,488.14792,-0.0,-0.0,0.46460667,0.28490862,488.0492,1,1,5,5,5,0,0
1593324000,1593320000,47.39775005209547,8.545605685888102,488.14783,488.14783,-0.0,-0.0,0.4654299,0.28436092,488.04926,1,1,5,5,5,0,0
1593332000,1593328000,47.397750051990045,8.545605686201915,488.14777,488.14777,-0.0,-0.0,0.4662562,0.28474653,488.04926,1,1,5,5,5,0,0
1593340000,1593336000,47.39775005178674,8.545605686464953,488.14767,488.14767,-0.0,-0.0,0.4670856,0.28513283,488.04926,1,1,5,5,5,0,0
1593348000,1593344000,47.39775005148433,8.545605686698858,488.1476,488.1476,-0.0,-0.0,0.46791807,0.28551972,488.0493,1,1,5,5,5,0,0
1593356000,1593352000,47.397750051077175,8.54560568691577,488.14755,488.14755,-0.0,-0.0,0.46875367,0.28590727,488.0493,1,1,5,5,5,0,0
1593364000,1593360000,47.39775005060654,8.545605687174781,488.1475,488.1475,-0.0,-0.0,0.46959236,0.28629547,488.0493,1,1,5,5,5,0,0
1593372000,1593368000,47.39775005011222,8.545605687379812,488.14743,488.14743,-0.0,-0.0,0.47042018,0.2866843,488.0493,1,1,5,5,5,0,0
1593380000,1593376000,47.3977500495777,8.545605687512863,488.14737,488.14737,-0.0,-0.0,0.4712649,0.28707376,488.0493,1,1,5,5,5,0,0
1593388000,1593384000,47.39775004897327,8.545605687615865,488.14728,488.14728,-0.0,-0.0,0.47211275,0.2865085,488.04895,1,1,5,5,5,0,0
1593396000,1593392000,47.39775004829954,8.545605687702006,488.14722,488.14722,-0.0,-0.0,0.4729637,0.28689796,488.04895,1,1,5,5,5,0,0
1593404000,1593400000,47.397750047583536,8.545605687768543,488.14716,488.14716,-0.0,-0.0,0.47381777,0.28728804,488.04895,1,1,5,5,5,0,0
1593412000,1593408000,47.397750046782534,8.545605687838925,488.1471,488.1471,-0.0,-0.0,0.474675,0.28767875,488.04895,1,1,5,5,5,0,0
1593420000,1593416000,47.39775004590008,8.545605687911102,488.14703,488.14703,-0.0,-0.0,0.47553533,0.2880701,488.04895,1,1,5,5,5,0,0
1593428000,1593424000,47.397750044958876,8.545605687944677,488.14694,488.14694,-0.0,-0.0,0.47639883,0.28846213,488.04895,1,1,5,5,5,0,0
1593436000,1593432000,47.39775004396012,8.545605687887706,488.14688,488.14688,-0.0,-0.0,0.47726548,0.28885475,488.04895,1,1,5,5,5,0,0
1593444000,1593440000,47.397750042904306,8.545605687804743,488.14682,488.14682,-0.0,-0.0,0.4781173,0.28827482,488.04858,1,1,5,5,5,0,0
1593452000,1593448000,47.397750041770266,8.545605687769568,488.14676,488.14676,-0.0,-0.0,0.47899002,0.2886674,488.04858,1,1,5,5,5,0,0
1593460000,1593456000,47.39775004055829,8.54560568778899,488.14667,488.14667,-0.0,-0.0,0.4798659,0.28906062,488.04858,1,1,5,5,5,0,0
1593468000,1593464000,47.39775003932108,8.545605687832719,488.1466,488.1466,-0.0,-0.0,0.48074496,0.2894545,488.04858,1,1,5,5,5,0,0
1593476000,1593472000,47.39775003802912,8.545605687834506,488.14655,488.14655,-0.0,-0.0,0.4816272,0.28984898,488.04858,1,1,5,5,5,0,0
1593484000,1593480000,47.39775003665469,8.545605687843295,488.14645,488.14645,-0.0,-0.0,0.48251262,0.2902441,488.04858,1,1,5,5,5,0,0
1593492000,1593488000,47.39775003522621,8.545605687847138,488.1464,488.1464,-0.0,-0.0,0.48340124,0.29063985,488.04858,1,1,5,5,5,0,0
1593500000,1593496000,47.39775003373697,8.545605687825137,488.14633,488.14633,-0.0,-0.0,0.48429304,0.29103625,488.04858,1,1,5,5,5,0,0
1593508000,1593504000,47.39775003218944,8.545605687692216,488.14624,488.14624,-0.0,-0.0,0.4851705,0.2904379,488.0483,1,1,5,5,5,0,0
1593516000,1593512000,47.397750030619804,8.545605687456284,488.14615,488.14615,-0.0,-0.0,0.48606852,0.29083422,488.0483,1,1,5,5,5,0,0
1593524000,1593520000,47.397750029026795,8.545605687157348,488.14606,488.14606,-0.0,-0.0,0.48696968,0.29123116,488.0483,1,1,5,5,5,0,0
1593532000,1593528000,47.397750027398324,8.545605686829436,488.146,488.146,-0.0,-0.0,0.48787406,0.29162875,488.0483,1,1,5,5,5,0,0
1593540000,1593536000,47.39775002568838,8.545605686412532,488.1459,488.1459,-0.0,-0.0,0.48878166,0.29202694,488.0483,1,1,5,5,5,0,0
1593548000,1593544000,47.397750023886374,8.545605685941087,488.1458,488.1458,-0.0,-0.0,0.48969248,0.29242578,488.0483,1,1,5,5,5,0,0
1593556000,1593552000,47.397750021997894,8.545605685384322,488.14572,488.14572,-0.0,-0.0,0.49060652,0.29282525,488.0483,1,1,5,5,5,0,0
1593564000,1593560000,47.39775002005803,8.545605684699757,488.14563,488.14563,-0.0,-0.0,0.4915238,0.29322535,488.0483,1,1,5,5,5,0,0
1593572000,1593568000,47.39775001807152,8.545605683950871,488.14554,488.14554,-0.0,-0.0,0.4924443,0.29362607,488.0483,1,1,5,5,5,0,0
1593580000,1593576000,47.397750016021064,8.545605683155143,488.14548,488.14548,-0.0,-0.0,0.49334842,0.29300532,488.04868,1,1,5,5,5,0,0
1593588000,1593584000,47.39775001387801,8.545605682296252,488.1454,488.1454,-0.0,-0.0,0.49427515,0.29340592,488.04868,1,1,5,5,5,0,0
1593596000,1593592000,47.39775001574468,8.545605682859872,488.1452,488.1452,-0.0,-0.0,0.45366654,0.28031307,488.04538,1,1,5,5,5,0,0
1593604000,1593600000,47.397750017461526,8.545605683350209,488.14505,488.14505,-0.0,-0.0,0.4544477,0.2806913,488.04538,1,1,5,5,5,0,0
1593612000,1593608000,47.39775001900777,8.545605683756012,488.14487,488.14487,-0.0,-0.0,0.45523185,0.2810702,488.04538,1,1,5,5,5,0,0
1593620000,1593616000,47.39775002037431,8.545605684087665,488.1447,488.1447,-0.0,-0.0,0.456019,0.28144974,488.04538,1,1,5,5,5,0,0
1593628000,1593624000,47.397750021593936,8.54560568437405,488.14456,488.14456,-0.0,-0.0,0.45680916,0.28182992,488.04538,1,1,5,5,5,0,0
1593636000,1593632000,47.397750022697714,8.545605684583121,488.1444,488.1444,-0.0,-0.0,0.45760232,0.28221074,488.04538,1,1,5,5,5,0,0
1593644000,1593640000,47.39775002361441,8.54560568473396,488.14426,488.14426,-0.0,-0.0,0.458397,0.28259224,488.04538,1,1,5,5,5,0,0
1593652000,1593648000,47.397750024350486,8.54560568477058,488.1441,488.1441,-0.0,-0.0,0.45918477,0.28206292,488.0448,1,1,5,5,5,0,0
1593660000,1593656000,47.39775002493113,8.54560568479111,488.14395,488.14395,-0.0,-0.0,0.45998684,0.28244442,488.04477,1,1,5,5,5,0,0
1593668000,1593664000,47.397750025411455,8.545605684770928,488.1438,488.1438,-0.0,-0.0,0.4607919,0.2828266,488.04474,1,1,5,5,5,0,0
1593676000,1593672000,47.39775002577749,8.545605684685885,488.14365,488.14365,-0.0,-0.0,0.46159998,0.2832094,488.0447,1,1,5,5,5,0,0
1593684000,1593680000,47.39775002604037,8.5456056845764,488.14352,488.14352,-0.0,-0.0,0.46241114,0.28359288,488.04468,1,1,5,5,5,0,0
1593692000,1593688000,47.39775002621083,8.545605684459519,488.14337,488.14337,-0.0,-0.0,0.46322536,0.283977,488.04465,1,1,5,5,5,0,0
1593700000,1593696000,47.3977500263188,8.54560568430512,488.14325,488.14325,-0.0,-0.0,0.4640426,0.28436175,488.04462,1,1,5,5,5,0,0
1593708000,1593704000,47.39775002639579,8.545605684096495,488.1431,488.1431,-0.0,-0.0,0.4648629,0.28474712,488.0446,1,1,5,5,5,0,0
1593716000,1593712000,47.39775002641981,8.5456056838097,488.14297,488.14297,-0.0,-0.0,0.4656863,0.28513315,488.04456,1,1,5,5,5,0,0
1593724000,1593720000,47.39775002639583,8.545605683482437,488.14285,488.14285,-0.0,-0.0,0.46649975,0.28458366,488.04462,1,1,5,5,5,0,0
1593732000,1593728000,47.39775002623891,8.545605683097952,488.14273,488.14273,-0.0,-0.0,0.46732908,0.2849697,488.0446,1,1,5,5,5,0,0
1593740000,1593736000,47.397750025979896,8.54560568270008,488.14264,488.14264,-0.0,-0.0,0.46816155,0.28535637,488.04456,1,1,5,5,5,0,0
1593748000,1593744000,47.39775002562575,8.545605682258463,488.14252,488.14252,-0.0,-0.0,0.46899706,0.2857437,488.04453,1,1,5,5,5,0,0
1593756000,1593752000,47.39775002519379,8.545605681740797,488.14243,488.14243,-0.0,-0.0,0.4698357,0.28613168,488.0445,1,1,5,5,5,0,0
1593764000,1593760000,47.397750024703925,8.545605681135296,488.1423,488.1423,-0.0,-0.0,0.47067744,0.28652027,488.04446,1,1,5,5,5,0,0
1593772000,1593768000,47.39775002413261,8.545605680422023,488.1422,488.1422,-0.0,-0.0,0.4715223,0.28690952,488.04443,1,1,5,5,5,0,0
1593780000,1593776000,47.397750023507285,8.545605679612551,488.14212,488.14212,-0.0,-0.0,0.47237024,0.28729942,488.0444,1,1,5,5,5,0,0
1593788000,1593784000,47.397750022795336,8.545605678780914,488.14203,488.14203,-0.0,-0.0,0.47320682,0.28768992,488.04437,1,1,5,5,5,0,0
1593796000,1593792000,47.39775002201042,8.545605677902861,488.14194,488.14194,-0.0,-0.0,0.4740608,0.28711957,488.04446,1,1,5,5,5,0,0
1593804000,1593800000,47.39775002117175,8.545605677026696,488.14185,488.14185,-0.0,-0.0,0.47491798,0.28751007,488.04443,1,1,5,5,5,0,0
1593812000,1593808000,47.39775002023441,8.545605676189572,488.14175,488.14175,-0.0,-0.0,0.47577822,0.2879012,488.0444,1,1,5,5,5,0,0
1593820000,1593816000,47.39775001920173,8.545605675358905,488.1417,488.1417,-0.0,-0.0,0.47664165,0.28829294,488.04437,1,1,5,5,5,0,0
1593828000,1593824000,47.3977500181034,8.545605674531073,488.1416,488.1416,-0.0,-0.0,0.4775082,0.28868535,488.04434,1,1,5,5,5,0,0
1593836000,1593832000,47.39775001692594,8.545605673673604,488.1415,488.1415,-0.0,-0.0,0.4783779,0.28907838,488.0443,1,1,5,5,5,0,0
1593844000,1593840000,47.39775001575539,8.545605672772496,488.14145,488.14145,-0.0,-0.0,0.47924855,0.28947204,488.04428,1,1,5,5,5,0,0
1593852000,1593848000,47.397750014517406,8.54560567184908,488.14136,488.14136,-0.0,-0.0,0.48012456,0.28986636,488.04425,1,1,5,5,5,0,0
1593860000,1593856000,47.39775001323398,8.545605670944367,488.1413,488.1413,-0.0,-0.0,0.48098737,0.2902613,488.04422,1,1,5,5,5,0,0
1593868000,1593864000,47.39775001183522,8.54560567010345,488.1412,488.1412,-0.0,-0.0,0.48186946,0.28966942,488.04407,1,1,5,5,5,0,0
1593876000,1593872000,47.39775001032814,8.545605669267971,488.14114,488.14114,-0.0,-0.0,0.48275474,0.2900643,488.04404,1,1,5,5,5,0,0
1593884000,1593880000,47.39775000875201,8.545605668421079,488.14108,488.14108,-0.0,-0.0,0.4836432,0.2904598,488.044,1,1,5,5,5,0,0
1593892000,1593888000,47.39775000709969,8.545605667583613,488.141,488.141,-0.0,-0.0,0.48453486,0.2908559,488.04398,1,1,5,5,5,0,0
1593900000,1593896000,47.39775000542578,8.545605666657128,488.14093,488.14093,-0.0,-0.0,0.4854297,0.2912527,488.04395,1,1,5,5,5,0,0
1593908000,1593904000,47.39775000376512,8.545605665694357,488.14084,488.14084,-0.0,-0.0,0.48632777,0.2916501,488.0439,1,1,5,5,5,0,0
1593916000,1593912000,47.39775000210638,8.545605664730708,488.14078,488.14078,-0.0,-0.0,0.487229,0.29204813,488.04388,1,1,5,5,5,0,0
1593924000,1593920000,47.39775000052759,8.54560566366921,488.14072,488.14072,-0.0,-0.0,0.48811528,0.2924468,488.04385,1,1,5,5,5,0,0
1593932000,1593928000,47.39774999886629,8.545605662596042,488.14062,488.14062,-0.0,-0.0,0.48902273,0.29284608,488.04382,1,1,5,5,5,0,0
1593940000,1593936000,47.397749997117565,8.545605661517607,488.14056,488.14056,-0.0,-0.0,0.48993337,0.29223204,488.04346,1,1,5,5,5,0,0
1593948000,1593944000,47.39774999531249,8.545605660429906,488.14047,488.14047,-0.0,-0.0,0.49084723,0.2926312,488.04343,1,1,5,5,5,0,0
1593956000,1593952000,47.39774999348669,8.545605659379667,488.1404,488.1404,-0.0,-0.0,0.4917643,0.293031,488.0434,1,1,5,5,5,0,0
1593964000,1593960000,47.3977499916454,8.54560565833471,488.14032,488.14032,-0.0,-0.0,0.49268463,0.29343143,488.04337,1,1,5,5,5,0,0
1593972000,1593968000,47.397749989762204,8.545605657251745,488.14026,488.14026,-0.0,-0.0,0.49360818,0.29383248,488.04333,1,1,5,5,5,0,0
1593980000,1593976000,47.39774998784378,8.545605656115722,488.1402,488.1402,-0.0,-0.0,0.49453494,0.2942342,488.0433,1,1,5,5,5,0,0
1593988000,1593984000,47.39774998585782,8.545605654919548,488.14017,488.14017,-0.0,-0.0,0.49546498,0.2946365,488.04327,1,1,5,5,5,0,0
1593996000,1593992000,47.39774998865931,8.545605655008169,488.14,488.14,-0.0,-0.0,0.45454454,0.28048617,488.0405,1,1,5,5,5,0,0
1594004000,1594000000,47.39774999131404,8.545605655000362,488.1399,488.1399,-0.0,-0.0,0.4553279,0.28086466,488.04047,1,1,5,5,5,0,0
1594012000,1594008000,47.39774999386432,8.545605654865012,488.13974,488.13974,-0.0,-0.0,0.45611426,0.2812438,488.04044,1,1,5,5,5,0,0
1594020000,1594016000,47.39774999628071,8.54560565463492,488.13962,488.13962,-0.0,-0.0,0.45690358,0.28162363,488.0404,1,1,5,5,5,0,0
1594028000,1594024000,47.397749998557664,8.545605654365762,488.1395,488.1395,-0.0,-0.0,0.45769596,0.2820041,488.04037,1,1,5,5,5,0,0
1594036000,1594032000,47.397750000694465,8.545605654050403,488.13937,488.13937,-0.0,-0.0,0.45849133,0.28238517,488.04034,1,1,5,5,5,0,0
1594044000,1594040000,47.39775000275702,8.545605653724882,488.13928,488.13928,-0.0,-0.0,0.45928815,0.28276694,488.0403,1,1,5,5,5,0,0
1594052000,1594048000,47.3977500046938,8.545605653413984,488.13916,488.13916,-0.0,-0.0,0.46008953,0.28314933,488.04028,1,1,5,5,5,0,0
1594060000,1594056000,47.397750006429334,8.545605652973503,488.13907,488.13907,-0.0,-0.0,0.46089393,0.2826155,488.041,1,1,5,5,5,0,0
1594068000,1594064000,47.39775000800032,8.545605652560118,488.13898,488.13898,-0.0,-0.0,0.46168953,0.28299797,488.04095,1,1,5,5,5,0,0
1594076000,1594072000,47.39775000943221,8.54560565217712,488.1389,488.1389,-0.0,-0.0,0.46249986,0.28338104,488.04092,1,1,5,5,5,0,0
1594084000,1594080000,47.39775001073808,8.545605651755125,488.1388,488.1388,-0.0,-0.0,0.4633132,0.28376475,488.0409,1,1,5,5,5,0,0
1594092000,1594088000,47.39775001192439,8.545605651348293,488.13873,488.13873,-0.0,-0.0,0.4641296,0.2841491,488.04086,1,1,5,5,5,0,0
1594100000,1594096000,47.39775001298395,8.54560565099584,488.13864,488.13864,-0.0,-0.0,0.46494907,0.2845341,488.04083,1,1,5,5,5,0,0
1594108000,1594104000,47.397750013884526,8.54560565062603,488.13858,488.13858,-0.0,-0.0,0.4657716,0.28491974,488.0408,1,1,5,5,5,0,0
1594116000,1594112000,47.397750014639485,8.54560565015331,488.1385,488.1385,-0.0,-0.0,0.4665972,0.2843719,488.04025,1,1,5,5,5,0,0
1594124000,1594120000,47.39775001531138,8.545605649606564,488.1384,488.1384,-0.0,-0.0,0.46742585,0.28475758,488.04022,1,1,5,5,5,0,0
1594132000,1594128000,47.397750015905864,8.54560564901421,488.1383,488.1383,-0.0,-0.0,0.4682576,0.28514385,488.0402,1,1,5,5,5,0,0
1594140000,1594136000,47.39775001643167,8.545605648426207,488.13824,488.13824,-0.0,-0.0,0.46907902,0.2855308,488.0402,1,1,5,5,5,0,0
1594148000,1594144000,47.397750016839844,8.545605647758501,488.13815,488.13815,-0.0,-0.0,0.4699168,0.28591838,488.0402,1,1,5,5,5,0,0
1594156000,1594152000,47.3977500171275,8.545605647052383,488.1381,488.1381,-0.0,-0.0,0.47075763,0.28630662,488.0402,1,1,5,5,5,0,0
1594164000,1594160000,47.39775001730047,8.545605646266699,488.13803,488.13803,-0.0,-0.0,0.4716016,0.28669548,488.0402,1,1,5,5,5,0,0
1594172000,1594168000,47.39775001735503,8.545605645360194,488.13794,488.13794,-0.0,-0.0,0.47244868,0.28708497,488.0402,1,1,5,5,5,0,0
1594180000,1594176000,47.39775001732248,8.545605644418846,488.13788,488.13788,-0.0,-0.0,0.47329885,0.2865196,488.04004,1,1,5,5,5,0,0
1594188000,1594184000,47.397750017202725,8.545605643449607,488.13782,488.13782,-0.0,-0.0,0.47415215,0.28690907,488.04004,1,1,5,5,5,0,0
1594196000,1594192000,47.397750016995175,8.545605642392635,488.13776,488.13776,-0.0,-0.0,0.47500855,0.2872992,488.04004,1,1,5,5,5,0,0
1594204000,1594200000,47.397750016667516,8.54560564126755,488.1377,488.1377,-0.0,-0.0,0.4758681,0.28768995,488.04004,1,1,5,5,5,0,0
1594212000,1594208000,47.39775001641058,8.545605640008262,488.13766,488.13766,-0.0,-0.0,0.47671556,0.28808135,488.04,1,1,5,5,5,0,0
1594220000,1594216000,47.39775001611072,8.545605638654875,488.1376,488.1376,-0.0,-0.0,0.47758114,0.28847337,488.03998,1,1,5,5,5,0,0
1594228000,1594224000,47.39775001573423,8.54560563726778,488.13754,488.13754,-0.0,-0.0,0.4784499,0.28886604,488.03995,1,1,5,5,5,0,0
1594236000,1594232000,47.39775001525795,8.545605635877216,488.1375,488.1375,-0.0,-0.0,0.4793218,0.28925934,488.03992,1,1,5,5,5,0,0
1594244000,1594240000,47.39775001466044,8.545605634372391,488.13748,488.13748,-0.0,-0.0,0.4801946,0.28965327,488.0399,1,1,5,5,5,0,0
1594252000,1594248000,47.39775001395981,8.545605632787574,488.13745,488.13745,-0.0,-0.0,0.48107275,0.28906655,488.0396,1,1,5,5,5,0,0
1594260000,1594256000,47.39775001315307,8.545605631170444,488.1374,488.1374,-0.0,-0.0,0.4819541,0.28946042,488.0396,1,1,5,5,5,0,0
1594268000,1594264000,47.39775001225897,8.545605629558395,488.1374,488.1374,-0.0,-0.0,0.4828386,0.2898549,488.03958,1,1,5,5,5,0,0
1594276000,1594272000,47.39775001127965,8.545605627935878,488.13736,488.13736,-0.0,-0.0,0.48372626,0.29025006,488.03955,1,1,5,5,5,0,0
1594284000,1594280000,47.397750010244465,8.545605626294295,488.13733,488.13733,-0.0,-0.0,0.48459998,0.29064584,488.03955,1,1,5,5,5,0,0
1594292000,1594288000,47.39775000916932,8.545605624641096,488.13733,488.13733,-0.0,-0.0,0.4854938,0.29104224,488.03955,1,1,5,5,5,0,0
1594300000,1594296000,47.397750008068385,8.54560562291333,488.13733,488.13733,-0.0,-0.0,0.48639083,0.2914393,488.03955,1,1,5,5,5,0,0
1594308000,1594304000,47.397750006894185,8.545605621127034,488.1373,488.1373,-0.0,-0.0,0.48729104,0.29183698,488.03955,1,1,5,5,5,0,0
1594316000,1594312000,47.397750005632865,8.545605619395857,488.1373,488.1373,-0.0,-0.0,0.4881944,0.29223526,488.03955,1,1,5,5,5,0,0
1594324000,1594320000,47.39775000427154,8.545605617714871,488.1373,488.1373,-0.0,-0.0,0.48910102,0.2916265,488.03955,1,1,5,5,5,0,0
1594332000,1594328000,47.397750002829504,8.545605616097268,488.13733,488.13733,-0.0,-0.0,0.49001086,0.2920247,488.03955,1,1,5,5,5,0,0
1594340000,1594336000,47.3977500012645,8.545605614536516,488.13733,488.13733,-0.0,-0.0,0.49092388,0.29242352,488.03955,1,1,5,5,5,0,0
1594348000,1594344000,47.39774999955328,8.545605613029913,488.13736,488.13736,-0.0,-0.0,0.4918212,0.29282296,488.03955,1,1,5,5,5,0,0
1594356000,1594352000,47.39774999777579,8.545605611474114,488.13736,488.13736,-0.0,-0.0,0.49274045,0.29322305,488.03955,1,1,5,5,5,0,0
1594364000,1594360000,47.39774999593094,8.545605609867746,488.1374,488.1374,-0.0,-0.0,0.4936629,0.29362375,488.03955,1,1,5,5,5,0,0
1594372000,1594368000,47.39774999401435,8.545605608266586,488.13742,488.13742,-0.0,-0.0,0.4945886,0.2940251,488.03955,1,1,5,5,5,0,0
1594380000,1594376000,47.397749992016315,8.545605606675167,488.13742,488.13742,-0.0,-0.0,0.49551758,0.29442707,488.03955,1,1,5,5,5,0,0
1594388000,1594384000,47.397749989949546,8.54560560511445,488.13745,488.13745,-0.0,-0.0,0.49644977,0.29482967,488.03955,1,1,5,5,5,0,0
1594396000,1594392000,47.39774999408621,8.545605607834117,488.1374,488.1374,-0.0,-0.0,0.45530355,0.2806522,488.03955,1,1,5,5,5,0,0
1594404000,1594400000,47.39774999800866,8.545605610342982,488.13736,488.13736,-0.0,-0.0,0.45608857,0.28103095,488.03955,1,1,5,5,5,0,0
1594412000,1594408000,47.397750001696984,8.54560561267467,488.1373,488.1373,-0.0,-0.0,0.4568766,0.28141037,488.03955,1,1,5,5,5,0,0
1594420000,1594416000,47.39775000517869,8.545605614997044,488.13724,488.13724,-0.0,-0.0,0.45765683,0.2817904,488.03955,1,1,5,5,5,0,0
1594428000,1594424000,47.397750008474475,8.54560561730541,488.1372,488.1372,-0.0,-0.0,0.45845073,0.28217107,488.03955,1,1,5,5,5,0,0
1594436000,1594432000,47.3977500115663,8.545605619573923,488.13718,488.13718,-0.0,-0.0,0.45924762,0.2825524,488.03955,1,1,5,5,5,0,0
1594444000,1594440000,47.39775001449113,8.545605621716618,488.13715,488.13715,-0.0,-0.0,0.46004754,0.28293437,488.03955,1,1,5,5,5,0,0
1594452000,1594448000,47.397750017248754,8.545605623716632,488.13712,488.13712,-0.0,-0.0,0.4608505,0.283317,488.03955,1,1,5,5,5,0,0
1594460000,1594456000,47.39775001983955,8.545605625599308,488.1371,488.1371,-0.0,-0.0,0.46165648,0.28370026,488.03955,1,1,5,5,5,0,0
1594468000,1594464000,47.39775002227994,8.545605627407646,488.13705,488.13705,-0.0,-0.0,0.4624655,0.28316197,488.03955,1,1,5,5,5,0,0
1594476000,1594472000,47.39775002461752,8.545605629131364,488.13702,488.13702,-0.0,-0.0,0.46327758,0.28354526,488.03955,1,1,5,5,5,0,0
1594484000,1594480000,47.39775002684574,8.545605630711966,488.13696,488.13696,-0.0,-0.0,0.46409267,0.2839292,488.03955,1,1,5,5,5,0,0
1594492000,1594488000,47.397750028898535,8.545605632223348,488.13693,488.13693,-0.0,-0.0,0.4648984,0.2843138,488.03955,1,1,5,5,5,0,0
1594500000,1594496000,47.39775003076148,8.54560563371713,488.1369,488.1369,-0.0,-0.0,0.46571946,0.28469902,488.03955,1,1,5,5,5,0,0
1594508000,1594504000,47.39775003245058,8.545605635177404,488.13687,488.13687,-0.0,-0.0,0.46654356,0.2850849,488.03955,1,1,5,5,5,0,0
1594516000,1594512000,47.39775003398526,8.545605636574885,488.13684,488.13684,-0.0,-0.0,0.46737072,0.2854714,488.03955,1,1,5,5,5,0,0
1594524000,1594520000,47.39775003538341,8.545605637943906,488.1368,488.1368,-0.0,-0.0,0.46820095,0.28585857,488.03955,1,1,5,5,5,0,0
1594532000,1594528000,47.397750036633134,8.54560563925171,488.13678,488.13678,-0.0,-0.0,0.46903425,0.28624636,488.03955,1,1,5,5,5,0,0
1594540000,1594536000,47.39775003775881,8.545605640483839,488.13675,488.13675,-0.0,-0.0,0.4698707,0.2856876,488.03955,1,1,5,5,5,0,0
1594548000,1594544000,47.397750038769196,8.545605641606251,488.13675,488.13675,-0.0,-0.0,0.47071016,0.28607538,488.03955,1,1,5,5,5,0,0
1594556000,1594552000,47.39775003968799,8.545605642636765,488.13672,488.13672,-0.0,-0.0,0.47155273,0.2864638,488.03955,1,1,5,5,5,0,0
1594564000,1594560000,47.39775004050902,8.545605643594449,488.13672,488.13672,-0.0,-0.0,0.47238433,0.28685287,488.03955,1,1,5,5,5,0,0
1594572000,1594568000,47.39775004119539,8.54560564444513,488.13672,488.13672,-0.0,-0.0,0.47323292,0.28724256,488.03955,1,1,5,5,5,0,0
1594580000,1594576000,47.39775004177083,8.545605645188752,488.13672,488.13672,-0.0,-0.0,0.47408462,0.2876329,488.03955,1,1,5,5,5,0,0
1594588000,1594584000,47.39775004224593,8.545605645836197,488.1367,488.1367,-0.0,-0.0,0.47493944,0.28802386,488.03955,1,1,5,5,5,0,0
1594596000,1594592000,47.39775004258689,8.54560564638611,488.1367,488.1367,-0.0,-0.0,0.47579736,0.2884155,488.03955,1,1,5,5,5,0,0
1594604000,1594600000,47.39775004278936,8.545605646867001,488.1367,488.1367,-0.0,-0.0,0.47665843,0.28880772,488.03955,1,1,5,5,5,0,0
1594612000,1594608000,47.39775004284671,8.5456056472774,488.13672,488.13672,-0.0,-0.0,0.4775226,0.28822786,488.03955,1,1,5,5,5,0,0
1594620000,1594616000,47.397750042816895,8.545605647557332,488.13672,488.13672,-0.0,-0.0,0.47838995,0.28862005,488.03955,1,1,5,5,5,0,0
1594628000,1594624000,47.39775004270675,8.54560564775072,488.13672,488.13672,-0.0,-0.0,0.4792604,0.28901288,488.03955,1,1,5,5,5,0,0
1594636000,1594632000,47.39775004261731,8.54560564793464,488.13675,488.13675,-0.0,-0.0,0.48011813,0.28940636,488.03955,1,1,5,5,5,0,0
1594644000,1594640000,47.39775004246089,8.545605648048667,488.13675,488.13675,-0.0,-0.0,0.48099467,0.28980044,488.03955,1,1,5,5,5,0,0
1594652000,1594648000,47.39775004223945,8.545605648095897,488.13675,488.13675,-0.0,-0.0,0.48187438,0.29019517,488.03955,1,1,5,5,5,0,0
1594660000,1594656000,47.39775004193841,8.545605648011792,488.13678,488.13678,-0.0,-0.0,0.48275724,0.29059052,488.03955,1,1,5,5,5,0,0
1594668000,1594664000,47.39775004154245,8.545605647780764,488.1368,488.1368,-0.0,-0.0,0.48364326,0.29098654,488.03955,1,1,5,5,5,0,0
1594676000,1594672000,47.39775004105439,8.545605647418872,488.1368,488.1368,-0.0,-0.0,0.48453245,0.29138318,488.03955,1,1,5,5,5,0,0
1594684000,1594680000,47.39775004045563,8.545605646945825,488.13684,488.13684,-0.0,-0.0,0.48542482,0.29078153,488.03955,1,1,5,5,5,0,0
1594692000,1594688000,47.39775003975943,8.54560564636726,488.13684,488.13684,-0.0,-0.0,0.48632038,0.29117808,488.03955,1,1,5,5,5,0,0
1594700000,1594696000,47.397750038976874,8.545605645775948,488.13687,488.13687,-0.0,-0.0,0.4872191,0.29157525,488.03955,1,1,5,5,5,0,0
1594708000,1594704000,47.39775003812439,8.545605645219114,488.1369,488.1369,-0.0,-0.0,0.48810318,0.29197305,488.03955,1,1,5,5,5,0,0
1594716000,1594712000,47.397750037177474,8.545605644639938,488.1369,488.1369,-0.0,-0.0,0.4890081,0.29237148,488.03955,1,1,5,5,5,0,0
1594724000,1594720000,47.39775003612329,8.545605644031435,488.13693,488.13693,-0.0,-0.0,0.4899162,0.29277053,488.03955,1,1,5,5,5,0,0
1594732000,1594728000,47.397750034952516,8.545605643405256,488.13693,488.13693,-0.0,-0.0,0.49082753,0.29317024,488.03955,1,1,5,5,5,0,0
1594740000,1594736000,47.39775003368785,8.545605642755586,488.13696,488.13696,-0.0,-0.0,0.49174207,0.2925532,488.03955,1,1,5,5,5,0,0
1594748000,1594744000,47.397750032318406,8.545605642044956,488.137,488.137,-0.0,-0.0,0.49265984,0.29295275,488.03955,1,1,5,5,5,0,0
1594756000,1594752000,47.39775003084596,8.545605641269484,488.13702,488.13702,-0.0,-0.0,0.49358082,0.29335293,488.03955,1,1,5,5,5,0,0
1594764000,1594760000,47.39775002926701,8.54560564043861,488.13702,488.13702,-0.0,-0.0,0.49450505,0.29375374,488.03955,1,1,5,5,5,0,0
1594772000,1594768000,47.3977500276102,8.545605639580437,488.13705,488.13705,-0.0,-0.0,0.49543247,0.2941552,488.03955,1,1,5,5,5,0,0
1594780000,1594776000,47.39775002581747,8.54560563869908,488.1371,488.1371,-0.0,-0.0,0.4963432,0.29455727,488.03955,1,1,5,5,5,0,0
1594788000,1594784000,47.397750023995485,8.545605637778866,488.1371,488.1371,-0.0,-0.0,0.49727687,0.29495996,488.03955,1,1,5,5,5,0,0
1594796000,1594792000,47.39775002610259,8.545605639056582,488.137,488.137,-0.0,-0.0,0.4559418,0.2816637,488.03955,1,1,5,5,5,0,0
1594804000,1594800000,47.39775002807002,8.545605640196651,488.1369,488.1369,-0.0,-0.0,0.45672783,0.2811412,488.03955,1,1,5,5,5,0,0
1594812000,1594808000,47.3977500298864,8.545605641163275,488.1368,488.1368,-0.0,-0.0,0.45751685,0.28152066,488.03955,1,1,5,5,5,0,0
1594820000,1594816000,47.39775003156034,8.545605641962865,488.13675,488.13675,-0.0,-0.0,0.45830888,0.2819008,488.03955,1,1,5,5,5,0,0
1594828000,1594824000,47.39775003306804,8.545605642686967,488.1367,488.1367,-0.0,-0.0,0.45910394,0.28228155,488.03955,1,1,5,5,5,0,0
1594836000,1594832000,47.39775003442252,8.545605643333719,488.1366,488.1366,-0.0,-0.0,0.45990196,0.28266296,488.03955,1,1,5,5,5,0,0
1594844000,1594840000,47.39775003563728,8.545605643852282,488.13654,488.13654,-0.0,-0.0,0.46070305,0.28304502,488.03955,1,1,5,5,5,0,0
1594852000,1594848000,47.39775003669822,8.545605644261775,488.13647,488.13647,-0.0,-0.0,0.46149555,0.28342772,488.03955,1,1,5,5,5,0,0
1594860000,1594856000,47.39775003765596,8.545605644626209,488.13638,488.13638,-0.0,-0.0,0.4623025,0.2828915,488.03955,1,1,5,5,5,0,0
1594868000,1594864000,47.3977500385169,8.545605644937947,488.13632,488.13632,-0.0,-0.0,0.46311247,0.28327423,488.03955,1,1,5,5,5,0,0
1594876000,1594872000,47.39775003925906,8.545605645197279,488.13626,488.13626,-0.0,-0.0,0.46392545,0.28365764,488.03955,1,1,5,5,5,0,0
1594884000,1594880000,47.397750039887214,8.545605645406038,488.1362,488.1362,-0.0,-0.0,0.4647415,0.28404164,488.03955,1,1,5,5,5,0,0
1594892000,1594888000,47.39775004036271,8.54560564557015,488.13614,488.13614,-0.0,-0.0,0.46556062,0.28442633,488.03955,1,1,5,5,5,0,0
1594900000,1594896000,47.39775004069775,8.54560564567208,488.13608,488.13608,-0.0,-0.0,0.46638274,0.28481162,488.03955,1,1,5,5,5,0,0
1594908000,1594904000,47.39775004090415,8.545605645703475,488.13602,488.13602,-0.0,-0.0,0.46720794,0.28519756,488.03955,1,1,5,5,5,0,0
1594916000,1594912000,47.39775004122729,8.545605645597641,488.136,488.136,-0.0,-0.0,0.46802324,0.28558415,488.03955,1,1,5,5,5,0,0
1594924000,1594920000,47.397750041443544,8.54560564545421,488.13596,488.13596,-0.0,-0.0,0.46885443,0.28503072,488.03955,1,1,5,5,5,0,0
1594932000,1594928000,47.39775004153743,8.545605645249898,488.13593,488.13593,-0.0,-0.0,0.46968865,0.28541732,488.03955,1,1,5,5,5,0,0
1594940000,1594936000,47.397750041515216,8.545605645010586,488.1359,488.1359,-0.0,-0.0,0.47052595,0.28580457,488.03955,1,1,5,5,5,0,0
1594948000,1594944000,47.39775004139327,8.545605644728141,488.13586,488.13586,-0.0,-0.0,0.47136635,0.28619245,488.03955,1,1,5,5,5,0,0
1594956000,1594952000,47.39775004112051,8.545605644388445,488.13586,488.13586,-0.0,-0.0,0.47220984,0.28658095,488.03955,1,1,5,5,5,0,0
1594964000,1594960000,47.39775004068056,8.545605643928713,488.13583,488.13583,-0.0,-0.0,0.47305644,0.2869701,488.03955,1,1,5,5,5,0,0
1594972000,1594968000,47.39775004013685,8.545605643345723,488.13583,488.13583,-0.0,-0.0,0.47390616,0.28735992,488.03955,1,1,5,5,5,0,0
1594980000,1594976000,47.39775003953983,8.545605642656243,488.13583,488.13583,-0.0,-0.0,0.47475898,0.28775036,488.03955,1,1,5,5,5,0,0
1594988000,1594984000,47.397750038870264,8.545605641933733,488.13583,488.13583,-0.0,-0.0,0.4756002,0.28814143,488.03955,1,1,5,5,5,0,0
1594996000,1594992000,47.397750038102366,8.545605641212045,488.13583,488.13583,-0.0,-0.0,0.47645906,0.28756705,488.03955,1,1,5,5,5,0,0
1595004000,1595000000,47.39775003725444,8.545605640479621,488.1358,488.1358,-0.0,-0.0,0.47732103,0.2879581,488.03955,1,1,5,5,5,0,0
1595012000,1595008000,47.39775003633038,8.545605639696396,488.13583,488.13583,-0.0,-0.0,0.47818613,0.28834975,488.03955,1,1,5,5,5,0,0
1595020000,1595016000,47.39775003532589,8.545605638857637,488.13583,488.13583,-0.0,-0.0,0.47905436,0.28874207,488.03955,1,1,5,5,5,0,0
1595028000,1595024000,47.39775003425412,8.545605637953654,488.13583,488.13583,-0.0,-0.0,0.47992572,0.28913498,488.03955,1,1,5,5,5,0,0
1595036000,1595032000,47.39775003312378,8.54560563698975,488.13586,488.13586,-0.0,-0.0,0.4808002,0.28952855,488.03955,1,1,5,5,5,0,0
1595044000,1595040000,47.397750031891896,8.545605635928464,488.13586,488.13586,-0.0,-0.0,0.4816779,0.28992274,488.03955,1,1,5,5,5,0,0
1595052000,1595048000,47.39775003064099,8.54560563483858,488.13586,488.13586,-0.0,-0.0,0.48254237,0.2903176,488.03955,1,1,5,5,5,0,0
1595060000,1595056000,47.39775002932014,8.545605633691435,488.1359,488.1359,-0.0,-0.0,0.48342612,0.29071307,488.03955,1,1,5,5,5,0,0
1595068000,1595064000,47.397750027927394,8.545605632477892,488.1359,488.1359,-0.0,-0.0,0.48431304,0.29011706,488.03955,1,1,5,5,5,0,0
1595076000,1595072000,47.39775002649466,8.545605631245106,488.13593,488.13593,-0.0,-0.0,0.48520315,0.29051244,488.03955,1,1,5,5,5,0,0
1595084000,1595080000,47.3977500250255,8.545605630014656,488.13593,488.13593,-0.0,-0.0,0.48609644,0.2909085,488.03955,1,1,5,5,5,0,0
1595092000,1595088000,47.39775002349299,8.545605628680471,488.13593,488.13593,-0.0,-0.0,0.4869929,0.29130512,488.03955,1,1,5,5,5,0,0
1595100000,1595096000,47.39775002193449,8.54560562712013,488.13596,488.13596,-0.0,-0.0,0.48789257,0.2917024,488.03955,1,1,5,5,5,0,0
1595108000,1595104000,47.39775002031891,8.54560562543043,488.13596,488.13596,-0.0,-0.0,0.4887954,0.2921003,488.03955,1,1,5,5,5,0,0
1595116000,1595112000,47.39775001856938,8.545605623669962,488.136,488.136,-0.0,-0.0,0.48970145,0.29249886,488.03955,1,1,5,5,5,0,0
1595124000,1595120000,47.397750016713736,8.545605621898208,488.13602,488.13602,-0.0,-0.0,0.49059236,0.29289803,488.03955,1,1,5,5,5,0,0
1595132000,1595128000,47.397750014817426,8.54560562012765,488.13602,488.13602,-0.0,-0.0,0.4915046,0.2932978,488.03955,1,1,5,5,5,0,0
1595140000,1595136000,47.39775001286736,8.545605618347933,488.13608,488.13608,-0.0,-0.0,0.49242005,0.29267955,488.03955,1,1,5,5,5,0,0
1595148000,1595144000,47.39775001083837,8.54560561652435,488.1361,488.1361,-0.0,-0.0,0.49333873,0.29307923,488.03955,1,1,5,5,5,0,0
1595156000,1595152000,47.39775000876099,8.545605614635944,488.13617,488.13617,-0.0,-0.0,0.4942606,0.29347953,488.03955,1,1,5,5,5,0,0
1595164000,1595160000,47.3977500066334,8.54560561274392,488.1362,488.1362,-0.0,-0.0,0.49518567,0.29388046,488.03955,1,1,5,5,5,0,0
1595172000,1595168000,47.397750004455276,8.545605610862328,488.13626,488.13626,-0.0,-0.0,0.49611402,0.29428202,488.03955,1,1,5,5,5,0,0
1595180000,1595176000,47.39775000217006,8.545605608967644,488.13632,488.13632,-0.0,-0.0,0.4970456,0.2946842,488.03955,1,1,5,5,5,0,0
1595188000,1595184000,47.39774999979895,8.545605607090467,488.13635,488.13635,-0.0,-0.0,0.49798042,0.295087,488.03955,1,1,5,5,5,0,0
1595196000,1595192000,47.39775000251619,8.54560560865158,488.13632,488.13632,-0.0,-0.0,0.45647818,0.28177443,488.03955,1,1,5,5,5,0,0
1595204000,1595200000,47.397750005070634,8.54560561010416,488.13632,488.13632,-0.0,-0.0,0.45726478,0.2821546,488.03955,1,1,5,5,5,0,0
1595212000,1595208000,47.39775000741935,8.545605611485785,488.1363,488.1363,-0.0,-0.0,0.45805433,0.2816281,488.03955,1,1,5,5,5,0,0
1595220000,1595216000,47.39775000956673,8.545605612789421,488.1363,488.1363,-0.0,-0.0,0.4588469,0.28200832,488.03955,1,1,5,5,5,0,0
1595228000,1595224000,47.397750011538406,8.545605613992,488.1363,488.1363,-0.0,-0.0,0.45964247,0.28238913,488.03955,1,1,5,5,5,0,0
1595236000,1595232000,47.39775001337468,8.545605615095454,488.13626,488.13626,-0.0,-0.0,0.46044102,0.28277063,488.03955,1,1,5,5,5,0,0
1595244000,1595240000,47.397750015045006,8.545605616082675,488.13626,488.13626,-0.0,-0.0,0.4612426,0.28315276,488.03955,1,1,5,5,5,0,0
1595252000,1595248000,47.397750016545004,8.545605616950365,488.13626,488.13626,-0.0,-0.0,0.4620472,0.2835355,488.03955,1,1,5,5,5,0,0
1595260000,1595256000,47.397750017904116,8.54560561770299,488.13626,488.13626,-0.0,-0.0,0.46285483,0.28391895,488.03955,1,1,5,5,5,0,0
1595268000,1595264000,47.397750019113666,8.5456056183745,488.1363,488.1363,-0.0,-0.0,0.46365362,0.284303,488.03955,1,1,5,5,5,0,0
1595276000,1595272000,47.39775002019273,8.545605618909832,488.1363,488.1363,-0.0,-0.0,0.46446714,0.2846877,488.03955,1,1,5,5,5,0,0
1595284000,1595280000,47.397750021135046,8.545605619261938,488.1363,488.1363,-0.0,-0.0,0.4652837,0.2841412,488.03955,1,1,5,5,5,0,0
1595292000,1595288000,47.397750021940276,8.545605619446125,488.13632,488.13632,-0.0,-0.0,0.46610332,0.28452593,488.03955,1,1,5,5,5,0,0
1595300000,1595296000,47.39775002263804,8.545605619480432,488.13632,488.13632,-0.0,-0.0,0.46692598,0.2849113,488.03955,1,1,5,5,5,0,0
1595308000,1595304000,47.39775002324981,8.545605619443704,488.13635,488.13635,-0.0,-0.0,0.4677517,0.28529733,488.03955,1,1,5,5,5,0,0
1595316000,1595312000,47.3977500237779,8.545605619335795,488.13638,488.13638,-0.0,-0.0,0.46858054,0.28568396,488.03955,1,1,5,5,5,0,0
1595324000,1595320000,47.39775002422479,8.545605619142329,488.1364,488.1364,-0.0,-0.0,0.4694124,0.28607124,488.03955,1,1,5,5,5,0,0
1595332000,1595328000,47.39775002457521,8.545605618857019,488.13644,488.13644,-0.0,-0.0,0.47024736,0.28645918,488.03955,1,1,5,5,5,0,0
1595340000,1595336000,47.39775002480855,8.545605618364592,488.13647,488.13647,-0.0,-0.0,0.47107187,0.28684774,488.03955,1,1,5,5,5,0,0
1595348000,1595344000,47.397750024983296,8.545605617777579,488.1365,488.1365,-0.0,-0.0,0.4719128,0.28723693,488.03955,1,1,5,5,5,0,0
1595356000,1595352000,47.39775002507094,8.545605617174008,488.13654,488.13654,-0.0,-0.0,0.47275683,0.28666976,488.03955,1,1,5,5,5,0,0
1595364000,1595360000,47.39775002506012,8.54560561647816,488.13657,488.13657,-0.0,-0.0,0.47360396,0.28705892,488.03955,1,1,5,5,5,0,0
1595372000,1595368000,47.397750024986294,8.54560561567967,488.1366,488.1366,-0.0,-0.0,0.4744542,0.28744873,488.03955,1,1,5,5,5,0,0
1595380000,1595376000,47.397750024868685,8.545605614764023,488.13663,488.13663,-0.0,-0.0,0.47530755,0.28783917,488.03955,1,1,5,5,5,0,0
1595388000,1595384000,47.39775002465487,8.5456056137105,488.13666,488.13666,-0.0,-0.0,0.476164,0.28823027,488.03955,1,1,5,5,5,0,0
1595396000,1595392000,47.39775002431989,8.545605612542673,488.1367,488.1367,-0.0,-0.0,0.4770236,0.288622,488.03955,1,1,5,5,5,0,0
1595404000,1595400000,47.39775002386968,8.545605611270569,488.13672,488.13672,-0.0,-0.0,0.4778863,0.28901434,488.03955,1,1,5,5,5,0,0
1595412000,1595408000,47.39775002328509,8.545605609907517,488.13675,488.13675,-0.0,-0.0,0.47873682,0.28940734,488.03955,1,1,5,5,5,0,0
1595420000,1595416000,47.39775002259717,8.545605608479674,488.13678,488.13678,-0.0,-0.0,0.47960562,0.28980097,488.03955,1,1,5,5,5,0,0
1595428000,1595424000,47.397750021834845,8.545605607041356,488.13678,488.13678,-0.0,-0.0,0.4804775,0.28921244,488.03955,1,1,5,5,5,0,0
1595436000,1595432000,47.39775002100174,8.545605605555137,488.1368,488.1368,-0.0,-0.0,0.48135257,0.289606,488.03955,1,1,5,5,5,0,0
1595444000,1595440000,47.39775002009519,8.545605604017853,488.13684,488.13684,-0.0,-0.0,0.48223078,0.2900002,488.03955,1,1,5,5,5,0,0
1595452000,1595448000,47.39775001913498,8.54560560244886,488.13687,488.13687,-0.0,-0.0,0.48311216,0.29039505,488.03955,1,1,5,5,5,0,0
1595460000,1595456000,47.39775001807282,8.545605600846718,488.1369,488.1369,-0.0,-0.0,0.48399666,0.2907905,488.03955,1,1,5,5,5,0,0
1595468000,1595464000,47.39775001691223,8.545605599165377,488.13693,488.13693,-0.0,-0.0,0.48488438,0.29118657,488.03955,1,1,5,5,5,0,0
1595476000,1595472000,47.39775001566739,8.545605597412257,488.13696,488.13696,-0.0,-0.0,0.48577523,0.2915833,488.03955,1,1,5,5,5,0,0
1595484000,1595480000,47.39775001452419,8.545605595730802,488.137,488.137,-0.0,-0.0,0.48665205,0.29198065,488.03955,1,1,5,5,5,0,0
1595492000,1595488000,47.39775001326227,8.545605593942554,488.13702,488.13702,-0.0,-0.0,0.48754904,0.29237866,488.03955,1,1,5,5,5,0,0
1595500000,1595496000,47.39775001189107,8.54560559202272,488.13705,488.13705,-0.0,-0.0,0.48844925,0.29176813,488.03955,1,1,5,5,5,0,0
1595508000,1595504000,47.39775001045878,8.545605590061722,488.13705,488.13705,-0.0,-0.0,0.4893526,0.292166,488.03955,1,1,5,5,5,0,0
1595516000,1595512000,47.39775000894597,8.545605588025305,488.1371,488.1371,-0.0,-0.0,0.4902592,0.2925645,488.03955,1,1,5,5,5,0,0
1595524000,1595520000,47.39775000739035,8.545605585909017,488.13712,488.13712,-0.0,-0.0,0.49116895,0.29296362,488.03955,1,1,5,5,5,0,0
1595532000,1595528000,47.39775000577984,8.545605583709078,488.13718,488.13718,-0.0,-0.0,0.49208194,0.2933634,488.03955,1,1,5,5,5,0,0
1595540000,1595536000,47.39775000407542,8.545605581429626,488.1372,488.1372,-0.0,-0.0,0.49299812,0.2937638,488.03955,1,1,5,5,5,0,0
1595548000,1595544000,47.39775000232043,8.545605579109216,488.13724,488.13724,-0.0,-0.0,0.49391752,0.2941648,488.03955,1,1,5,5,5,0,0
1595556000,1595552000,47.39775000047886,8.545605576794113,488.13727,488.13727,-0.0,-0.0,0.4948208,0.29353875,488.03955,1,1,5,5,5,0,0
1595564000,1595560000,47.39774999850098,8.545605574415658,488.13733,488.13733,-0.0,-0.0,0.4957464,0.29393962,488.03955,1,1,5,5,5,0,0
1595572000,1595568000,47.397749996409686,8.54560557191399,488.13736,488.13736,-0.0,-0.0,0.49667522,0.29434112,488.03955,1,1,5,5,5,0,0
1595580000,1595576000,47.39774999419909,8.545605569285243,488.13742,488.13742,-0.0,-0.0,0.4976073,0.2947432,488.03955,1,1,5,5,5,0,0
1595588000,1595584000,47.39774999190188,8.545605566564703,488.13745,488.13745,-0.0,-0.0,0.49854258,0.29514596,488.03955,1,1,5,5,5,0,0
1595596000,1595592000,47.39774999446956,8.54560556532813,488.13736,488.13736,-0.0,-0.0,0.45693767,0.28182662,488.03955,1,1,5,5,5,0,0
1595604000,1595600000,47.39774999690132,8.545605563920514,488.1373,488.1373,-0.0,-0.0,0.45772463,0.28220668,488.03955,1,1,5,5,5,0,0
1595612000,1595608000,47.397749999193714,8.545605562448907,488.1372,488.1372,-0.0,-0.0,0.45851457,0.2825874,488.03955,1,1,5,5,5,0,0
1595620000,1595616000,47.39775000128664,8.545605560987457,488.13715,488.13715,-0.0,-0.0,0.45929664,0.28205734,488.03955,1,1,5,5,5,0,0
1595628000,1595624000,47.39775000327965,8.545605559527136,488.1371,488.1371,-0.0,-0.0,0.46009243,0.28243813,488.03955,1,1,5,5,5,0,0
1595636000,1595632000,47.39775000518581,8.545605558036236,488.13702,488.13702,-0.0,-0.0,0.46089125,0.28281954,488.03955,1,1,5,5,5,0,0
1595644000,1595640000,47.39775000696228,8.545605556420789,488.137,488.137,-0.0,-0.0,0.46169302,0.2832016,488.03955,1,1,5,5,5,0,0
1595652000,1595648000,47.39775000861128,8.545605554738364,488.13693,488.13693,-0.0,-0.0,0.46249786,0.2835843,488.03955,1,1,5,5,5,0,0
1595660000,1595656000,47.397750010084536,8.545605552993157,488.13687,488.13687,-0.0,-0.0,0.46330568,0.28396764,488.03955,1,1,5,5,5,0,0
1595668000,1595664000,47.39775001135854,8.545605551111196,488.1368,488.1368,-0.0,-0.0,0.46411654,0.28435162,488.03955,1,1,5,5,5,0,0
1595676000,1595672000,47.397750012457436,8.545605549104698,488.13678,488.13678,-0.0,-0.0,0.46493044,0.28473625,488.03955,1,1,5,5,5,0,0
1595684000,1595680000,47.39775001342214,8.54560554699651,488.13675,488.13675,-0.0,-0.0,0.4657474,0.28512153,488.03955,1,1,5,5,5,0,0
1595692000,1595688000,47.39775001425466,8.545605544893371,488.13672,488.13672,-0.0,-0.0,0.46655494,0.28457135,488.03955,1,1,5,5,5,0,0
1595700000,1595696000,47.39775001496545,8.54560554273211,488.1367,488.1367,-0.0,-0.0,0.4673778,0.28495663,488.03955,1,1,5,5,5,0,0
1595708000,1595704000,47.39775001554121,8.545605540493534,488.13666,488.13666,-0.0,-0.0,0.46820372,0.28534254,488.03955,1,1,5,5,5,0,0
1595716000,1595712000,47.397750016034216,8.545605538197536,488.13663,488.13663,-0.0,-0.0,0.46903273,0.2857291,488.03955,1,1,5,5,5,0,0
1595724000,1595720000,47.397750016432916,8.545605535885123,488.1366,488.1366,-0.0,-0.0,0.4698648,0.28611633,488.03955,1,1,5,5,5,0,0
1595732000,1595728000,47.3977500167451,8.54560553352156,488.13657,488.13657,-0.0,-0.0,0.47069994,0.28650418,488.03955,1,1,5,5,5,0,0
1595740000,1595736000,47.397750016911694,8.545605531056813,488.13657,488.13657,-0.0,-0.0,0.47153813,0.28689265,488.03955,1,1,5,5,5,0,0
1595748000,1595744000,47.39775001695462,8.545605528493772,488.13654,488.13654,-0.0,-0.0,0.47237942,0.28728178,488.03955,1,1,5,5,5,0,0
1595756000,1595752000,47.39775001686961,8.5456055258656,488.1365,488.1365,-0.0,-0.0,0.47322384,0.28767157,488.03955,1,1,5,5,5,0,0
1595764000,1595760000,47.39775001663288,8.545605523129591,488.1365,488.1365,-0.0,-0.0,0.47405723,0.2871006,488.03955,1,1,5,5,5,0,0
1595772000,1595768000,47.39775001632264,8.545605520291367,488.13647,488.13647,-0.0,-0.0,0.4749076,0.28749034,488.03955,1,1,5,5,5,0,0
1595780000,1595776000,47.3977500159419,8.545605517381796,488.13644,488.13644,-0.0,-0.0,0.47576112,0.28788072,488.03955,1,1,5,5,5,0,0
1595788000,1595784000,47.397750015471956,8.545605514328678,488.13644,488.13644,-0.0,-0.0,0.47661775,0.28827173,488.03955,1,1,5,5,5,0,0
1595796000,1595792000,47.397750014931404,8.545605511164839,488.1364,488.1364,-0.0,-0.0,0.4774775,0.28866336,488.03955,1,1,5,5,5,0,0
1595804000,1595800000,47.39775001432942,8.545605507983588,488.1364,488.1364,-0.0,-0.0,0.47834033,0.28905562,488.03955,1,1,5,5,5,0,0
1595812000,1595808000,47.39775001369041,8.54560550477938,488.13638,488.13638,-0.0,-0.0,0.4792063,0.28944853,488.03955,1,1,5,5,5,0,0
1595820000,1595816000,47.397750013016925,8.545605501488062,488.13638,488.13638,-0.0,-0.0,0.4800754,0.28984207,488.03955,1,1,5,5,5,0,0
1595828000,1595824000,47.39775001231955,8.545605498133192,488.13635,488.13635,-0.0,-0.0,0.48093197,0.29023623,488.03955,1,1,5,5,5,0,0
1595836000,1595832000,47.39775001157798,8.545605494681405,488.13635,488.13635,-0.0,-0.0,0.48180717,0.28964385,488.03955,1,1,5,5,5,0,0
1595844000,1595840000,47.39775001074471,8.545605491122014,488.13632,488.13632,-0.0,-0.0,0.4826855,0.29003796,488.03955,1,1,5,5,5,0,0
