timestamp,timestamp_sample,time_last_fuse,observation[0],observation[1],device_id,observation_variance[0],observation_variance[1],innovation[0],innovation[1],innovation_filtered[0],innovation_filtered[1],innovation_variance[0],innovation_variance[1],test_ratio[0],test_ratio[1],test_ratio_filtered[0],test_ratio_filtered[1],estimator_instance,innovation_rejected,fused
1591996000,1591834000,1591840000,47.3977503,8.545605799999999,0,1.0,1.0,-0.006944494,0.0010077464,-0.0009073757,0.0033457363,1.1189144,1.1193776,1.7240282e-06,3.6289915e-08,2.3991902e-08,8.805954e-07,0,0,1
1592396000,1592238000,1592240000,47.3977503,8.545605799999999,0,1.0,1.0,-0.011514885,-0.0033754306,-0.0056478996,0.00034202915,1.1199572,1.1204379,4.7356302e-06,4.0675283e-07,-2.103096e-06,3.0527605e-07,0,0,1
1592796000,1592634000,1592640000,47.3977503,8.5456057,0,1.0,1.0,-0.015789585,0.003961725,-0.010130162,0.0019418055,1.1208857,1.1213734,8.896929e-06,5.598587e-07,-5.1057277e-06,4.1779248e-07,0,0,1
1593196000,1593038000,1593040000,47.3977503,8.545605799999999,0,1.0,1.0,-0.018839447,-0.005283182,-0.014022364,-0.0012870603,1.1216786,1.1221786,1.2656915e-05,9.949223e-07,-8.480373e-06,-2.1355345e-07,0,0,1
1593596000,1593438000,1593440000,47.3977503,8.545605799999999,0,1.0,1.0,-0.023396116,-0.0033812094,-0.018188477,-0.0022177934,1.122359,1.1228691,1.9508132e-05,4.0726306e-07,-1.3381599e-05,-2.9964662e-07,0,0,1
1593996000,1593838000,1593840000,47.3977503,8.545605799999999,0,1.0,1.0,-0.027922234,-0.0054886234,-0.022514591,-0.0036714957,1.1229364,1.1234547,2.777187e-05,1.072584e-06,-1.9777275e-05,-6.431744e-07,0,0,1
1594396000,1594238000,1594240000,47.3977503,8.545605799999999,0,1.0,1.0,-0.028553482,-0.009620557,-0.025198543,-0.006315523,1.1234376,1.1239544,2.9028804e-05,3.2939097e-06,-2.3889066e-05,-1.821279e-06,0,0,1
1594796000,1594634000,1594640000,47.3977503,8.5456057,0,1.0,1.0,-0.024437455,0.0016797999,-0.02486217,-0.0027818761,1.1238472,1.1243697,2.1255175e-05,1.0038433e-07,-2.272498e-05,-9.719724e-07,0,0,1
1595196000,1595034000,1595040000,47.3977503,8.545605799999999,0,1.0,1.0,-0.02982545,-0.009387453,-0.027068073,-0.0057176882,1.1241863,1.124713,3.1651605e-05,3.1341071e-06,-2.6692369e-05,-1.9329214e-06,0,0,1
1595596000,1595438000,1595440000,47.3977503,8.5456057,0,1.0,1.0,-0.030583799,-0.004115109,-0.02863926,-0.0050014914,1.1244798,1.1250015,3.3272943e-05,6.0210124e-07,-2.9633246e-05,-1.3381743e-06,0,0,1
1595996000,1595838000,1595840000,47.3977503,8.5456057,0,1.0,1.0,-0.032986235,-0.014890467,-0.030571248,-0.009396592,1.1247075,1.125231,3.8697766e-05,7.881973e-06,-3.3661923e-05,-4.24653e-06,0,0,1
1596396000,1596234000,1596240000,47.3977503,8.5456057,0,1.0,1.0,-0.03023731,-0.017726157,-0.03042366,-0.013077962,1.1248918,1.1254166,3.251139e-05,1.1168011e-05,-3.315343e-05,-7.305577e-06,0,0,1
1596796000,1596634000,1596640000,47.39775040000001,8.5456057,0,1.0,1.0,-0.04143262,-0.021651914,-0.03531653,-0.016888607,1.1250576,1.1255741,6.1033745e-05,1.6660135e-05,-4.554468e-05,-1.1463158e-05,0,0,1
1597196000,1597038000,1597040000,47.3977503,8.5456057,0,1.0,1.0,-0.028975757,-0.01834766,-0.03248282,-0.017540662,1.1251811,1.1256969,2.9847444e-05,1.19618935e-05,-3.8529543e-05,-1.1686045e-05,0,0,1
1597596000,1597434000,1597440000,47.39775040000001,8.545606,0,1.0,1.0,-0.020368004,-0.019611396,-0.027128505,-0.018455852,1.1253144,1.1258428,1.47463015e-05,1.3664673e-05,-2.80182e-05,-1.25605275e-05,0,0,1
1597996000,1597834000,1597840000,47.3977508,8.5456069,0,1.0,1.0,-0.017209012,-0.0282686,-0.022719841,-0.022817073,1.1254843,1.1260207,1.052525e-05,2.838718e-05,-2.0243555e-05,-1.9594596e-05,0,0,1
1598396000,1598238000,1598240000,47.397751199999995,8.545608,0,1.0,1.0,-0.020433405,-0.03836683,-0.021698028,-0.0297663,1.1255943,1.1261284,1.4837462e-05,5.228582e-05,-1.7827559e-05,-3.4204393e-05,0,0,1
1598796000,1598638000,1598640000,47.3977514,8.545608699999999,0,1.0,1.0,-0.0155397,-0.04579912,-0.018960994,-0.036892,1.1256721,1.1261947,8.580911e-06,7.450077e-05,-1.3717937e-05,-5.2113894e-05,0,0,1
1599196000,1599038000,1599040000,47.3977514,8.5456088,0,1.0,1.0,-0.019258168,-0.03905978,-0.01909307,-0.037855458,1.1257478,1.1262454,1.3177978e-05,5.4185937e-05,-1.3477955e-05,-5.30348e-05,0,0,1
1599596000,1599438000,1599440000,47.397751199999995,8.5456085,0,1.0,1.0,-0.014952845,-0.027145768,-0.01725297,-0.033095594,1.1257902,1.126269,7.9442e-06,2.6171108e-05,-1.1018508e-05,-4.109538e-05,0,0,1
1599996000,1599838000,1599840000,47.3977509,8.545608099999999,0,1.0,1.0,-0.0010950776,-0.03821495,-0.010071684,-0.035370864,1.1258788,1.1263008,4.260476e-08,5.186474e-05,-6.1403284e-06,-4.5881763e-05,0,0,1
1600396000,1600238000,1600240000,47.397750599999995,8.5456076,0,1.0,1.0,0.0031848066,-0.0365967,-0.00417991,-0.03591568,1.1259669,1.126328,3.6033006e-07,4.7564066e-05,-3.2511466e-06,-4.6629455e-05,0,0,1
1600796000,1600638000,1600640000,47.39775040000001,8.5456071,0,1.0,1.0,0.0006774911,-0.027589275,-0.0020210647,-0.032215055,1.1260371,1.1263459,1.630476e-08,2.7031414e-05,-1.7989458e-06,-3.7919213e-05,0,0,1
1601196000,1601038000,1601040000,47.3977502,8.5456067,0,1.0,1.0,-0.00025883617,-0.019415116,-0.001237852,-0.026526192,1.1260462,1.1263093,2.3798727e-09,1.3386971e-05,-1.000472e-06,-2.7015994e-05,0,0,1
1601596000,1601434000,1601440000,47.397750099999996,8.5456065,0,1.0,1.0,-0.001902635,-0.028175876,-0.0015316623,-0.027255293,1.1260911,1.1263188,1.285871e-07,2.8193792e-05,-6.1513003e-07,-2.7536538e-05,0,0,1
1601996000,1601838000,1601840000,47.397750099999996,8.5456064,0,1.0,1.0,-0.012653243,-0.029784596,-0.006501926,-0.028385645,1.1261402,1.1263357,5.6868425e-06,3.1504715e-05,-2.8816917e-06,-2.9309927e-05,0,0,1
1602396000,1602238000,1602240000,47.397750099999996,8.5456064,0,1.0,1.0,-0.008822837,-0.027543731,-0.007533442,-0.028011462,1.1261897,1.1263614,2.7648077e-06,2.6941872e-05,-2.8297432e-06,-2.8257458e-05,0,0,1
1602796000,1602638000,1602640000,47.3977502,8.5456064,0,1.0,1.0,-0.007127735,-0.020021815,-0.007353128,-0.024460508,1.1262406,1.1263827,1.8043961e-06,1.42357685e-05,-2.3740333e-06,-2.2025595e-05,0,0,1
1603196000,1603038000,1603040000,47.39775040000001,8.5456064,0,1.0,1.0,-0.01716309,-0.01476106,-0.011713112,-0.02014964,1.1262896,1.1264031,1.0461667e-05,7.73751e-06,-5.968538e-06,-1.5675334e-05,0,0,1
1603604000,1603442000,1603448000,47.3977505,8.5456065,0,1.0,1.0,-0.016305009,-0.022234704,-0.013765243,-0.02108146,1.126815,1.1268995,9.437336e-06,1.7548398e-05,-7.518753e-06,-1.6512411e-05,0,0,1
1603996000,1603838000,1603840000,47.397750599999995,8.5456066,0,1.0,1.0,-0.017985595,-0.03128644,-0.015630487,-0.025591698,1.1263098,1.1263697,1.1488195e-05,3.4760924e-05,-9.273104e-06,-2.4577603e-05,0,0,1
1604396000,1604238000,1604240000,47.397750699999996,8.5456065,0,1.0,1.0,-0.01760149,-0.02110218,-0.01650649,-0.023596358,1.1263633,1.1263999,1.1002221e-05,1.5813284e-05,-1.0041601e-05,-2.068235e-05,0,0,1
1604796000,1604638000,1604640000,47.3977508,8.5456065,0,1.0,1.0,-0.02966631,-0.020390801,-0.0223553,-0.022171665,1.1264156,1.126432,3.125276e-05,1.4764665e-05,-1.9468784e-05,-1.8052267e-05,0,0,1
1605196000,1605038000,1605040000,47.3977509,8.5456065,0,1.0,1.0,-0.040127844,-0.025690341,-0.030254208,-0.023735521,1.1264625,1.1264652,5.7178782e-05,2.3435916e-05,-3.6228783e-05,-2.0445e-05,0,0,1
1605596000,1605434000,1605440000,47.39775100000001,8.5456065,0,1.0,1.0,-0.043592177,-0.03032718,-0.036149114,-0.026648799,1.1265051,1.126499,6.7475165e-05,3.2658274e-05,-5.0038565e-05,-2.5842832e-05,0,0,1
1605996000,1605838000,1605840000,47.3977511,8.5456064,0,1.0,1.0,-0.047714286,-0.03970999,-0.04131762,-0.03248588,1.1265403,1.1265298,8.083698e-05,5.599082e-05,-6.380246e-05,-3.9316044e-05,0,0,1
1606396000,1606234000,1606240000,47.3977511,8.5456063,0,1.0,1.0,-0.048270375,-0.03309373,-0.04439049,-0.03275453,1.1265678,1.1265588,8.2730185e-05,3.888639e-05,-7.216784e-05,-3.9126153e-05,0,0,1
1606796000,1606638000,1606640000,47.3977511,8.5456062,0,1.0,1.0,-0.044817097,-0.016407458,-0.04458114,-0.02544898,1.1265897,1.126586,7.131513e-05,9.558246e-06,-7.178676e-05,-2.5912177e-05,0,0,1
1607196000,1607038000,1607040000,47.3977511,8.5456062,0,1.0,1.0,-0.051755745,-0.0164584,-0.047769856,-0.021453166,1.1266049,1.126607,9.510547e-05,9.617514e-06,-8.215063e-05,-1.8670104e-05,0,0,1
1607596000,1607438000,1607440000,47.3977511,8.5456062,0,1.0,1.0,-0.05758264,-0.017291442,-0.052131094,-0.019603511,1.1266154,1.1266224,0.00011772466,1.0615587e-05,-9.796131e-05,-1.5090318e-05,0,0,1
1607996000,1607838000,1607840000,47.39775100000001,8.545606099999999,0,1.0,1.0,-0.044227824,-0.013107812,-0.04861853,-0.016716534,1.1266203,1.1266305,6.945021e-05,6.100127e-06,-8.528971e-05,-1.1094677e-05,0,0,1
1608396000,1608238000,1608240000,47.3977509,8.5456059,0,1.0,1.0,-0.028057922,0.0027315877,-0.03948048,-0.008072924,1.1266177,1.1266305,2.7950813e-05,2.6491634e-07,-5.9805752e-05,-6.0459683e-06,0,0,1
1608796000,1608638000,1608640000,47.3977508,8.5456057,0,1.0,1.0,-0.025827445,0.0123016685,-0.033412464,0.0009824513,1.1266114,1.1266286,2.3683659e-05,5.372881e-06,-4.3751486e-05,-9.709238e-07,0,0,1
1609196000,1609038000,1609040000,47.397750699999996,8.545605499999999,0,1.0,1.0,-0.02846959,0.01847393,-0.03121563,0.008756442,1.126602,1.1266202,2.8777424e-05,1.2117167e-05,-3.7096346e-05,4.846006e-06,0,0,1
1609596000,1609438000,1609440000,47.39775040000001,8.5456053,0,1.0,1.0,-0.008515988,0.013146926,-0.0211269,0.010707769,1.1265883,1.1266071,2.5749262e-06,6.1367145e-06,-2.175349e-05,5.4196544e-06,0,0,1
1609996000,1609838000,1609840000,47.3977502,8.5456051,0,1.0,1.0,-0.004437438,0.017758938,-0.013709361,0.013841622,1.126572,1.1265906,6.9914245e-07,1.1197675e-05,-1.2396003e-05,7.987664e-06,0,0,1
1610396000,1610238000,1610240000,47.397749999999995,8.545605,0,1.0,1.0,-0.0027398756,0.007912021,-0.008834034,0.011206243,1.126554,1.1265719,2.6654445e-07,2.222675e-06,-7.005132e-06,5.425446e-06,0,0,1
1610796000,1610634000,1610640000,47.3977499,8.5456048,0,1.0,1.0,-0.0054588104,0.019513346,-0.007342306,0.014877686,1.1265403,1.1265564,1.0580575e-06,1.3519809e-05,-4.3767377e-06,9.002865e-06,0,0,1
1611196000,1611038000,1611040000,47.3977498,8.5456048,0,1.0,1.0,-0.007842834,0.014035628,-0.0075659933,0.014501369,1.126525,1.126545,2.184063e-06,6.994798e-06,-3.3968256e-06,8.105455e-06,0,0,1
1611604000,1611442000,1611448000,47.3977497,8.5456048,0,1.0,1.0,0.007143902,0.017060233,-0.0009921025,0.015644932,1.1269941,1.1270216,1.811379e-06,1.0329937e-05,-1.0692652e-06,9.099582e-06,0,0,1
1612004000,1611842000,1611848000,47.3977498,8.545604899999999,0,1.0,1.0,-0.0005830707,0.010467652,-0.0008103106,0.013343919,1.1269041,1.1269474,1.20674475e-08,3.889152e-06,-5.9939947e-07,6.783835e-06,0,0,1
1612404000,1612242000,1612248000,47.3977499,8.5456048,0,1.0,1.0,-0.0069413846,0.022849202,-0.0035352325,0.01756849,1.1268234,1.1268802,1.7103947e-06,1.8532088e-05,-1.0931751e-06,1.2005281e-05,0,0,1
1612796000,1612638000,1612640000,47.397749999999995,8.5456048,0,1.0,1.0,-0.010991002,0.023112228,-0.0068304166,0.020018624,1.1262766,1.1263471,4.2903184e-06,1.8970177e-05,-2.5061981e-06,1.5083516e-05,0,0,1
1613196000,1613038000,1613040000,47.3977499,8.545605,0,1.0,1.0,-0.0010291741,0.039657723,-0.0042520864,0.028747113,1.1263694,1.1263194,3.7614633e-08,5.585396e-05,-1.4090499e-06,3.3203716e-05,0,0,1
1613604000,1613442000,1613448000,47.3977491,8.5456074,0,1.0,1.0,-0.0075627067,0.07192379,-0.0057316115,0.048042886,1.1280142,1.1268324,2.0281493e-06,0.00018363092,-1.685727e-06,0.00010043003,0,0,1
1613996000,1613838000,1613840000,47.3977473,8.545615,0,1.0,1.0,-0.00048785665,0.05992757,-0.0034140593,0.053295493,1.129831,1.1264127,8.426185e-09,0.000127531,-9.4442004e-07,0.000112407695,0,0,1
1614404000,1614242000,1614248000,47.3977448,8.5456285,0,1.0,1.0,-0.023667233,0.082918994,-0.012465256,0.06653431,1.1322098,1.1269587,1.9789191e-05,0.00024403946,-9.366198e-06,0.00017123428,0,0,1
1614804000,1614642000,1614648000,47.3977418,8.545647899999999,0,1.0,1.0,-0.01050762,0.049330294,-0.011595195,0.05888808,1.1327178,1.1268829,3.8989438e-06,8.6379085e-05,-6.9363073e-06,0.00013352085,0,0,1
1615204000,1615042000,1615048000,47.397738399999994,8.5456711,0,1.0,1.0,-0.02482852,0.031218953,-0.017476674,0.04659069,1.1324419,1.126828,2.1774376e-05,3.459705e-05,-1.3531006e-05,8.955471e-05,0,0,1
1615596000,1615438000,1615440000,47.3977344,8.5456967,0,1.0,1.0,0.0092340475,-0.072020605,-0.005671489,-0.005831264,1.1310543,1.1263212,3.0155097e-06,0.00018420919,-6.218037e-06,-3.143915e-05,0,0,1
1616004000,1615842000,1615848000,47.3977301,8.5457214,0,1.0,1.0,0.011420191,-0.033822156,0.001966828,-0.018340468,1.1308516,1.1268362,4.6131877e-06,4.0607083e-05,-1.3775339e-06,-3.5536323e-05,0,0,1
1616404000,1616242000,1616248000,47.397725699999995,8.5457459,0,1.0,1.0,0.014702399,-0.052789364,0.0076270825,-0.03365109,1.1300836,1.1267974,7.651135e-06,9.8925215e-05,2.6352081e-06,-6.3709165e-05,0,0,1
1616804000,1616646000,1616648000,47.3977212,8.5457698,0,1.0,1.0,0.020681728,-0.055782277,0.013461238,-0.043541577,1.1293206,1.1267556,1.5150131e-05,0.0001104645,8.22816e-06,-8.4604246e-05,0,0,1
1617196000,1617038000,1617040000,47.397716599999995,8.5457939,0,1.0,1.0,0.034764383,-0.101138346,0.022823159,-0.06885316,1.1281047,1.1262312,4.285284e-05,0.00036329895,2.3444389e-05,-0.00020707995,0,0,1
1617604000,1617442000,1617448000,47.397712,8.5458178,0,1.0,1.0,0.022793824,-0.05860321,0.02281005,-0.06427243,1.1279902,1.1267394,1.8424214e-05,0.00012192123,2.120086e-05,-0.0001690223,0,0,1
1618004000,1617842000,1617848000,47.3977073,8.5458423,0,1.0,1.0,0.03603182,-0.08985336,0.028686393,-0.07564174,1.1273961,1.1266844,4.606339e-05,0.0002866331,3.2250875e-05,-0.00022129377,0,0,1
1618404000,1618242000,1618248000,47.397702699999996,8.5458664,0,1.0,1.0,0.03426688,-0.07260093,0.03116661,-0.07429027,1.1269262,1.1266379,4.1678653e-05,0.00018713714,3.6441e-05,-0.00020611304,0,0,1
1618804000,1618642000,1618648000,47.3976981,8.545891300000001,0,1.0,1.0,0.03759951,-0.0957325,0.034025677,-0.08382015,1.1265954,1.1266053,5.0194532e-05,0.00032539212,4.2553682e-05,-0.00025912595,0,0,1
1619204000,1619042000,1619048000,47.3976936,8.545915899999999,0,1.0,1.0,0.034493268,-0.08305387,0.034233496,-0.08347958,1.1263855,1.1265798,4.2251453e-05,0.00024491636,4.2419357e-05,-0.00025281057,0,0,1
1619604000,1619442000,1619448000,47.397689,8.5459411,0,1.0,1.0,0.041200608,-0.102151796,0.03732999,-0.091778345,1.1262981,1.1265662,6.0285645e-05,0.00037050605,5.035993e-05,-0.00030511967,0,0,1
1620004000,1619842000,1619848000,47.3976846,8.5459658,0,1.0,1.0,0.03037575,-0.08150954,0.034239218,-0.08721443,1.1263204,1.126564,3.2768163e-05,0.00023589621,4.2541367e-05,-0.0002743537,0,0,1
1620404000,1620242000,1620248000,47.397680099999995,8.545990999999999,0,1.0,1.0,0.02464498,-0.09758418,0.029975113,-0.09182321,1.1264156,1.1265651,2.1568418e-05,0.00033811355,3.3220054e-05,-0.00030269142,0,0,1
1620804000,1620642000,1620648000,47.3976756,8.5460158,0,1.0,1.0,0.019009659,-0.0888036,0.025101578,-0.09048116,1.126558,1.1265676,1.283084e-05,0.00028000376,2.415818e-05,-0.00029260802,0,0,1
1621204000,1621042000,1621048000,47.397670999999995,8.5460411,0,1.0,1.0,0.030178526,-0.117147826,0.027358,-0.10233302,1.1267365,1.1265756,3.2332082e-05,0.00048726823,2.7791026e-05,-0.00037912367,0,0,1
1621604000,1621442000,1621448000,47.3976666,8.546066,0,1.0,1.0,0.012817248,-0.09455917,0.020895442,-0.098877974,1.1269097,1.1265795,5.8312335e-06,0.00031747203,1.8031118e-05,-0.00035172293,0,0,1
1622004000,1621842000,1621848000,47.3976621,8.5460915,0,1.0,1.0,0.0150863435,-0.12189496,0.01831362,-0.10910775,1.1270785,1.1265804,8.077441e-06,0.0005275569,1.3607261e-05,-0.00042987138,0,0,1
1622396000,1622238000,1622240000,47.397657599999995,8.5461166,0,1.0,1.0,0.026119048,-0.14379792,0.02176334,-0.12443957,1.1267288,1.1261046,2.4218949e-05,0.000734491,1.8297247e-05,-0.0005645024,0,0,1
1622804000,1622642000,1622648000,47.397653,8.5461422,0,1.0,1.0,0.029623026,-0.12534465,0.025275854,-0.12484405,1.1274272,1.1266506,3.113367e-05,0.00055780495,2.4033878e-05,-0.0005615093,0,0,1
1623204000,1623042000,1623048000,47.397648499999995,8.5461675,0,1.0,1.0,0.024004092,-0.11302138,0.024710627,-0.11958953,1.1275158,1.126632,2.0441274e-05,0.00045352278,2.2437165e-05,-0.00051351526,0,0,1
1623604000,1623442000,1623448000,47.3976438,8.5461932,0,1.0,1.0,0.045587,-0.12787277,0.033989016,-0.123270966,1.1275784,1.1266139,7.372169e-05,0.00058055186,4.523029e-05,-0.0005433093,0,0,1
1624004000,1623842000,1623848000,47.3976392,8.546218399999999,0,1.0,1.0,0.042436305,-0.106448196,0.037743367,-0.11579418,1.127607,1.1265905,6.388183e-05,0.00040231898,5.3519863e-05,-0.00048064694,0,0,1
1624404000,1624242000,1624248000,47.3976344,8.5462442,0,1.0,1.0,0.051616516,-0.1220133,0.04390921,-0.118558235,1.1276175,1.1265646,9.450952e-05,0.0005285891,7.173749e-05,-0.0005019546,0,0,1
1624804000,1624642000,1624648000,47.3976298,8.5462694,0,1.0,1.0,0.037492044,-0.09470818,0.041057136,-0.10795821,1.1276025,1.1265448,4.986344e-05,0.0003184832,6.201569e-05,-0.00042041173,0,0,1
1625204000,1625042000,1625048000,47.397625,8.5462952,0,1.0,1.0,0.035687923,-0.1182734,0.03867082,-0.11254274,1.1275588,1.1265253,4.518178e-05,0.00049669895,5.4533954e-05,-0.00045431717,0,0,1
1625604000,1625442000,1625448000,47.3976202,8.5463205,0,1.0,1.0,0.041692726,-0.099081196,0.04001389,-0.10655983,1.1275055,1.1265117,6.166829e-05,0.00034858345,5.770477e-05,-0.0004073244,0,0,1
1625996000,1625838000,1625840000,47.3976154,8.546346400000001,0,1.0,1.0,0.056655556,-0.16315317,0.047368914,-0.13157207,1.1269362,1.1260176,0.00011393199,0.0009455965,8.255519e-05,-0.00064522144,0,0,1
1626404000,1626242000,1626248000,47.3976107,8.546371599999999,0,1.0,1.0,0.047013573,-0.08355435,0.047210112,-0.11011282,1.1274102,1.1265521,7.841959e-05,0.00024788306,8.070698e-05,-0.0004676499,0,0,1
1626804000,1626642000,1626648000,47.397605899999995,8.546397599999999,0,1.0,1.0,0.048755083,-0.11567262,0.047896765,-0.112583846,1.1273069,1.1265312,8.434466e-05,0.0004750922,8.232373e-05,-0.0004709576,0,0,1
1627204000,1627042000,1627048000,47.397601300000005,8.5464229,0,1.0,1.0,0.03933427,-0.08812171,0.044091213,-0.10171179,1.1271964,1.1265087,5.4903827e-05,0.0002757346,7.01371e-05,-0.0003841918,0,0,1
1627604000,1627442000,1627448000,47.3975966,8.5464487,0,1.0,1.0,0.042818073,-0.09465627,0.04352537,-0.098576,1.1270905,1.1264925,6.5066204e-05,0.00031814896,6.788337e-05,-0.00035483943,0,0,1
1628004000,1627842000,1627848000,47.397591999999996,8.5464741,0,1.0,1.0,0.034056056,-0.07612228,0.03931679,-0.08859657,1.1269782,1.1264715,4.1165484e-05,0.00020576111,5.600875e-05,-0.0002885824,0,0,1
1628404000,1628242000,1628248000,47.3975873,8.546499899999999,0,1.0,1.0,0.04461156,-0.09047821,0.04167002,-0.08943285,1.1268697,1.1264516,7.064495e-05,0.0002906936,6.2513725e-05,-0.0002895207,0,0,1
1628804000,1628642000,1628648000,47.3975826,8.546525299999999,0,1.0,1.0,0.054150738,-0.07423599,0.047217008,-0.08267869,1.1267682,1.1264361,0.00010409603,0.00019569622,8.099475e-05,-0.00024782092,0,0,1
1629204000,1629042000,1629048000,47.39757780000001,8.546551100000002,0,1.0,1.0,0.06515996,-0.08201285,0.055191655,-0.08238276,1.1266636,1.1264167,0.0001507396,0.0002388497,0.000111992464,-0.00024383371,0,0,1
1629604000,1629442000,1629448000,47.397573099999995,8.5465765,0,1.0,1.0,0.056116495,-0.065455124,0.055602696,-0.074859366,1.1265731,1.1264002,0.00011181027,0.0001521439,0.00011191149,-0.00020308269,0,0,1
1630004000,1629842000,1629848000,47.3975685,8.546601899999999,0,1.0,1.0,0.065222256,-0.12721124,0.059878055,-0.098126866,1.1265984,1.1263909,0.0001510367,0.0005746744,0.00012930048,-0.00036823459,0,0,1
1630404000,1630242000,1630248000,47.3975644,8.5466237,0,1.0,1.0,0.06212577,-0.11213021,0.06087704,-0.104350574,1.126781,1.126396,0.00013701372,0.0004464925,0.00013272859,-0.00040301587,0,0,1
1630804000,1630642000,1630648000,47.3975608,8.5466426,0,1.0,1.0,0.07431462,-0.12628561,0.0668493,-0.11409948,1.1270514,1.126422,0.00019600392,0.0005663261,0.00016085096,-0.0004755982,0,0,1
1631204000,1631042000,1631048000,47.397558,8.5466578,0,1.0,1.0,0.057002433,-0.108512744,0.062472913,-0.111616485,1.1273613,1.1264488,0.00011528788,0.00041812877,0.0001406007,-0.00045005622,0,0,1
1631604000,1631442000,1631448000,47.39755590000001,8.546670299999999,0,1.0,1.0,0.04498273,-0.1206573,0.0546995,-0.11563463,1.1276586,1.1264805,7.177513e-05,0.00051694404,0.00011001156,-0.00047978415,0,0,1
1632004000,1631842000,1631848000,47.397554299999996,8.5466798,0,1.0,1.0,0.04759788,-0.1061881,0.051543225,-0.11143617,1.1279095,1.1265112,8.034539e-05,0.00040038352,9.6826596e-05,-0.00044449497,0,0,1
1632404000,1632242000,1632248000,47.3975534,8.5466871,0,1.0,1.0,0.0350864,-0.09030736,0.04422908,-0.10204559,1.1280612,1.1265174,4.3652082e-05,0.00028957988,7.319348e-05,-0.0003756438,0,0,1
1632804000,1632642000,1632648000,47.3975526,8.546692300000002,0,1.0,1.0,0.04111993,-0.061923675,0.042847235,-0.08421363,1.1281135,1.1265161,5.9953138e-05,0.00013615577,6.730888e-05,-0.00026920467,0,0,1
1633204000,1633042000,1633048000,47.3975521,8.546696299999999,0,1.0,1.0,0.03357838,-0.0626349,0.038727745,-0.074623086,1.1280566,1.1264963,3.9980532e-05,0.00013930381,5.5162946e-05,-0.00021147095,0,0,1
1633596000,1633438000,1633440000,47.3975517,8.546699,0,1.0,1.0,0.029912714,-0.052796457,0.03483182,-0.0649765,1.1274128,1.1259915,3.1745974e-05,9.902263e-05,4.481348e-05,-0.00016177281,0,0,1
1634004000,1633842000,1633848000,47.397551299999996,8.546700999999999,0,1.0,1.0,0.03202631,-0.033755526,0.03357803,-0.051023763,1.1277654,1.126513,3.637936e-05,4.0458854e-05,4.104425e-05,-0.00010755728,0,0,1
1634404000,1634242000,1634248000,47.3975509,8.5467024,0,1.0,1.0,0.030248992,-0.014807423,0.032098457,-0.03492761,1.1274765,1.1264678,3.2461932e-05,7.785744e-06,3.722989e-05,-6.321437e-05,0,0,1
1634804000,1634642000,1634648000,47.397550599999995,8.5467036,0,1.0,1.0,0.026160998,-0.02113178,0.029459586,-0.028796129,1.1271622,1.126423,2.4287465e-05,1.5857351e-05,3.14777e-05,-4.216681e-05,0,0,1
1635204000,1635042000,1635048000,47.3975503,8.546704199999999,0,1.0,1.0,0.02368857,-0.0006817007,0.02689469,-0.016300827,1.1268607,1.1263891,1.9918994e-05,1.6502852e-08,2.6340496e-05,-2.3433337e-05,0,0,1
1635604000,1635442000,1635448000,47.397549999999995,8.546704799999999,0,1.0,1.0,0.037694268,-0.0056705526,0.0316945,-0.01157626,1.1265737,1.1263546,5.044882e-05,1.1419198e-06,3.705531e-05,-1.352604e-05,0,0,1
1636004000,1635842000,1635848000,47.3975499,8.5467052,0,1.0,1.0,0.036987472,-0.0018947878,0.034046933,-0.0072733834,1.126324,1.1263239,4.8585418e-05,1.2750225e-07,4.2179803e-05,-7.5711337e-06,0,0,1
1636404000,1636242000,1636248000,47.3975497,8.5467056,0,1.0,1.0,0.046821307,-0.005881042,0.039724432,-0.006654565,1.1261339,1.126302,7.786765e-05,1.2283263e-06,5.804107e-05,-4.752108e-06,0,0,1
1636796000,1636638000,1636640000,47.3975497,8.5467059,0,1.0,1.0,0.031479843,-0.0034901954,0.036080617,-0.005256027,1.1255274,1.1258081,3.5218356e-05,4.328078e-07,4.7954247e-05,-2.8431316e-06,0,0,1
1637204000,1637042000,1637048000,47.3975496,8.5467062,0,1.0,1.0,0.036367003,-0.018228568,0.036208604,-0.0110534895,1.1259875,1.1263407,4.698307e-05,1.1800362e-05,4.7520225e-05,-6.8461413e-06,0,0,1
1637604000,1637442000,1637448000,47.3975495,8.5467064,0,1.0,1.0,0.043112658,-0.01699289,0.039277073,-0.013693223,1.125943,1.1263182,6.603181e-05,1.0254945e-05,5.5747598e-05,-8.361165e-06,0,0,1
1638004000,1637842000,1637848000,47.3975495,8.546706499999999,0,1.0,1.0,0.04123359,-0.009185205,0.040146638,-0.011689659,1.1259394,1.1263,6.0401446e-05,2.9962887e-06,5.7815974e-05,-5.9767754e-06,0,0,1
1638404000,1638242000,1638248000,47.3975495,8.546706799999999,0,1.0,1.0,0.041257147,-0.032675114,0.040640198,-0.021016529,1.1259775,1.1262896,6.046843e-05,3.791789e-05,5.8994843e-05,-2.0172825e-05,0,0,1
1638804000,1638642000,1638648000,47.3975496,8.5467069,0,1.0,1.0,0.034937248,-0.02342676,0.038105555,-0.022087744,1.1260272,1.126278,4.335992e-05,1.949121e-05,5.2045987e-05,-1.9869885e-05,0,0,1
1639204000,1639042000,1639048000,47.3975496,8.546707,0,1.0,1.0,0.030425867,-0.027274935,0.034692362,-0.024393162,1.1260694,1.1262506,3.2883705e-05,2.6421192e-05,4.3529417e-05,-2.2781578e-05,0,0,1
1639604000,1639442000,1639448000,47.3975496,8.5467072,0,1.0,1.0,0.037484773,-0.019766742,0.035933435,-0.022336975,1.1260214,1.1261158,4.991408e-05,1.3878647e-05,4.6367044e-05,-1.882472e-05,0,0,1
1640004000,1639842000,1639848000,47.3975496,8.546707699999999,0,1.0,1.0,0.0356412,-0.031840254,0.035803553,-0.026560655,1.1260846,1.1260954,4.512255e-05,3.601122e-05,4.5813937e-05,-2.6463165e-05,0,0,1
1640404000,1640242000,1640248000,47.3975495,8.5467081,0,1.0,1.0,0.04240722,-0.03569534,0.038738515,-0.030620515,1.1261253,1.1260741,6.387822e-05,4.526016e-05,5.384251e-05,-3.4817385e-05,0,0,1
1640804000,1640642000,1640648000,47.3975495,8.5467085,0,1.0,1.0,0.039801307,-0.041262764,0.039210867,-0.035350405,1.126164,1.1260614,5.626691e-05,6.0480386e-05,5.492002e-05,-4.6223166e-05,0,0,1
1641204000,1641042000,1641048000,47.3975495,8.5467087,0,1.0,1.0,0.040774684,-0.035240375,0.0399059,-0.035301503,1.1262113,1.1260641,5.9050195e-05,4.411415e-05,5.6755653e-05,-4.5285826e-05,0,0,1
1641604000,1641442000,1641448000,47.3975495,8.5467088,0,1.0,1.0,0.03730632,-0.034024373,0.03875053,-0.034733888,1.1262387,1.1260693,4.9430426e-05,4.1122083e-05,5.3499996e-05,-4.3435273e-05,0,0,1
1642004000,1641842000,1641848000,47.3975496,8.5467089,0,1.0,1.0,0.030337159,-0.040959213,0.035011254,-0.037500698,1.1262562,1.1260793,3.2686814e-05,5.9592858e-05,4.4249693e-05,-5.061642e-05,0,0,1
1642404000,1642242000,1642248000,47.3975495,8.5467088,0,1.0,1.0,0.046542652,-0.03368609,0.04013632,-0.03580532,1.1262798,1.1260974,7.6933575e-05,4.030744e-05,5.8775862e-05,-4.6034653e-05,0,0,1
1642804000,1642642000,1642648000,47.3975496,8.5467087,0,1.0,1.0,0.031571127,-0.036055196,0.036329567,-0.035916377,1.1262815,1.1261132,3.539918e-05,4.617572e-05,4.8386224e-05,-4.609735e-05,0,0,1
1643204000,1643042000,1643048000,47.3975496,8.5467085,0,1.0,1.0,0.033753637,-0.027694454,0.03518471,-0.032262187,1.126287,1.1261345,4.046244e-05,2.7243026e-05,4.4864544e-05,-3.7717648e-05,0,0,1
1643604000,1643446000,1643448000,47.3975496,8.546708299999999,0,1.0,1.0,0.037457068,-0.02645583,0.036200233,-0.02966731,1.1263098,1.1261775,4.982757e-05,2.4859703e-05,4.7082533e-05,-3.1971398e-05,0,0,1
1644004000,1643842000,1643848000,47.3975496,8.546708299999999,0,1.0,1.0,0.032733563,-0.030669311,0.034668088,-0.030110158,1.1263474,1.1262364,3.8051712e-05,3.3407076e-05,4.3091233e-05,-3.2605916e-05,0,0,1
1644404000,1644242000,1644248000,47.3975496,8.5467082,0,1.0,1.0,0.036624283,-0.010681644,0.035537507,-0.021475263,1.1263777,1.1262879,4.7633686e-05,4.052162e-06,4.51101e-05,-1.9915358e-05,0,0,1
1644804000,1644642000,1644648000,47.3975496,8.5467082,0,1.0,1.0,0.029299192,-0.005812757,0.032764923,-0.014514148,1.126377,1.1263174,3.0485095e-05,1.1999512e-06,3.86101e-05,-1.1597399e-05,0,0,1
1645196000,1645038000,1645040000,47.3975496,8.5467082,0,1.0,1.0,0.02917417,-0.007816379,0.031177938,-0.011553973,1.1258931,1.1258606,3.023847e-05,2.170634e-06,3.491014e-05,-7.4311056e-06,0,0,1
1645604000,1645442000,1645448000,47.3975496,8.5467082,0,1.0,1.0,0.026944904,-0.003847086,0.029286183,-0.008109745,1.1264083,1.1264107,2.5782048e-05,5.255657e-07,3.083077e-05,-4.345002e-06,0,0,1
1646004000,1645842000,1645848000,47.3975496,8.5467082,0,1.0,1.0,0.025861945,-0.0071836594,0.0277643,-0.0076981513,1.1263535,1.1263928,2.3752407e-05,1.8325743e-06,2.7684831e-05,-3.2283674e-06,0,0,1
1646404000,1646242000,1646248000,47.3975496,8.546708299999999,0,1.0,1.0,0.022590786,-0.011358219,0.02546496,-0.009324849,1.1262933,1.1263707,1.8124714e-05,4.58141e-06,2.343589e-05,-3.82972e-06,0,0,1
1646804000,1646642000,1646648000,47.3975496,8.546708299999999,0,1.0,1.0,0.024243232,-0.010635491,0.024921969,-0.009907356,1.1262391,1.1263499,2.0874228e-05,4.0169994e-06,2.2297374e-05,-3.912955e-06,0,0,1
1647204000,1647042000,1647048000,47.3975496,8.546708299999999,0,1.0,1.0,0.02107077,-0.0071653514,0.023210324,-0.008688687,1.1261744,1.1263214,1.57694e-05,1.8233609e-06,1.9396051e-05,-2.9842463e-06,0,0,1
