timestamp,timestamp_sample,gps_hvel[0],gps_hvel[1],gps_vvel,gps_hpos[0],gps_hpos[1],gps_vpos,ev_hvel[0],ev_hvel[1],ev_vvel,ev_hpos[0],ev_hpos[1],ev_vpos,rng_vpos,baro_vpos,aux_hvel[0],aux_hvel[1],flow[0],flow[1],heading,mag_field[0],mag_field[1],mag_field[2],gravity[0],gravity[1],gravity[2],drag[0],drag[1],airspeed,beta,hagl,hagl_rate
1592244000,1592088000,-0.043039676,0.022485426,-0.034806374,-0.006944494,0.0010077464,-0.04800415,0.0,0.0,0.0,0.0,0.0,0.0,0.0,0.010772705,0.0,0.0,0.0,0.0,0.0016674604,0.0016674604,-0.0006905496,-0.0043236017,-0.0005020256,-0.0058677588,-1.847744e-06,0.0,0.0,0.0,0.0,0.0,0.0
1592252000,1592096000,-0.043039676,0.022485426,-0.034806374,-0.006944494,0.0010077464,-0.04800415,0.0,0.0,0.0,0.0,0.0,0.0,0.0,0.010772705,0.0,0.0,0.0,0.0,0.0016674604,0.0016674604,-0.0006905496,-0.0043236017,-0.005075489,-0.011882249,-5.698204e-05,0.0,0.0,0.0,0.0,0.0,0.0
1592260000,1592104000,-0.043039676,0.022485426,-0.034806374,-0.006944494,0.0010077464,-0.04800415,0.0,0.0,0.0,0.0,0.0,0.0,0.0,0.010772705,0.0,0.0,0.0,0.0,0.0016674604,0.0016674604,-0.0006905496,-0.0043236017,0.0016294294,-0.0018055094,4.053116e-06,0.0,0.0,0.0,0.0,0.0,0.0
1592268000,1592112000,-0.043039676,0.022485426,-0.034806374,-0.006944494,0.0010077464,-0.04800415,0.0,0.0,0.0,0.0,0.0,0.0,0.0,0.010772705,0.0,0.0,0.0,0.0,0.0016674604,0.0016674604,-0.0006905496,-0.0043236017,1.9465806e-06,-0.0039536003,3.0994415e-06,0.0,0.0,0.0,0.0,0.0,0.0
1592276000,1592120000,-0.043039676,0.022485426,-0.034806374,-0.006944494,0.0010077464,-0.04800415,0.0,0.0,0.0,0.0,0.0,0.0,0.0,0.010772705,0.0,0.0,0.0,0.0,0.0016674604,0.0016674604,-0.0006905496,-0.0043236017,-0.005619283,-0.0019214773,-1.9073486e-05,0.0,0.0,0.0,0.0,0.0,0.0
1592284000,1592128000,-0.043039676,0.022485426,-0.034806374,-0.006944494,0.0010077464,-0.04800415,0.0,0.0,0.0,0.0,0.0,0.0,0.0,-0.018371582,0.0,0.0,0.0,0.0,0.0016674604,0.0016674604,-0.0006905496,-0.0043236017,0.006743882,0.00012283772,-1.4305115e-05,0.0,0.0,0.0,0.0,0.0,0.0
1592300000,1592144000,-0.043039676,0.022485426,-0.034806374,-0.006944494,0.0010077464,-0.04800415,0.0,0.0,0.0,0.0,0.0,0.0,0.0,-0.018371582,0.0,0.0,0.0,0.0,0.0016674604,0.0016674604,-0.0006905496,-0.0043236017,0.009317502,-0.0074787345,-3.618002e-05,0.0,0.0,0.0,0.0,0.0,0.0
1592308000,1592152000,-0.043039676,0.022485426,-0.034806374,-0.006944494,0.0010077464,-0.04800415,0.0,0.0,0.0,0.0,0.0,0.0,0.0,-0.018371582,0.0,0.0,0.0,0.0,0.0016674604,0.0016674604,-0.0006905496,-0.0043236017,0.0039757853,-0.005689997,-1.847744e-06,0.0,0.0,0.0,0.0,0.0,0.0
1592316000,1592160000,-0.043039676,0.022485426,-0.034806374,-0.006944494,0.0010077464,-0.04800415,0.0,0.0,0.0,0.0,0.0,0.0,0.0,-0.018371582,0.0,0.0,0.0,0.0,0.0007008463,-0.0010379544,0.0007008463,-0.0009967685,0.00080946565,-0.0043084077,4.172325e-06,0.0,0.0,0.0,0.0,0.0,0.0
1592324000,1592168000,-0.043039676,0.022485426,-0.034806374,-0.006944494,0.0010077464,-0.04800415,0.0,0.0,0.0,0.0,0.0,0.0,0.0,-0.018371582,0.0,0.0,0.0,0.0,0.0007008463,-0.0010379544,0.0007008463,-0.0009967685,0.002973075,-0.010780723,-2.6285648e-05,0.0,0.0,0.0,0.0,0.0,0.0
1592340000,1592184000,-0.043039676,0.022485426,-0.034806374,-0.006944494,0.0010077464,-0.04800415,0.0,0.0,0.0,0.0,0.0,0.0,0.0,-0.018371582,0.0,0.0,0.0,0.0,0.0007008463,-0.0010379544,0.0007008463,-0.0009967685,0.0069214604,0.0011200723,-1.6748905e-05,0.0,0.0,0.0,0.0,0.0,0.0
1592348000,1592192000,-0.043039676,0.022485426,-0.034806374,-0.006944494,0.0010077464,-0.04800415,0.0,0.0,0.0,0.0,0.0,0.0,0.0,-0.018371582,0.0,0.0,0.0,0.0,0.0007008463,-0.0010379544,0.0007008463,-0.0009967685,0.007227812,0.0055638906,-4.5776367e-05,0.0,0.0,0.0,0.0,0.0,0.0
1592356000,1592200000,-0.043039676,0.022485426,-0.034806374,-0.006944494,0.0010077464,-0.04800415,0.0,0.0,0.0,0.0,0.0,0.0,0.0,-0.061157227,0.0,0.0,0.0,0.0,0.0007008463,-0.0010379544,0.0007008463,-0.0009967685,0.0075919805,-0.0075311037,-2.4616718e-05,0.0,0.0,0.0,0.0,0.0,0.0
1592364000,1592208000,-0.043039676,0.022485426,-0.034806374,-0.006944494,0.0010077464,-0.04800415,0.0,0.0,0.0,0.0,0.0,0.0,0.0,-0.061157227,0.0,0.0,0.0,0.0,0.0007008463,-0.0010379544,0.0007008463,-0.0009967685,0.007142377,0.004391621,-3.629923e-05,0.0,0.0,0.0,0.0,0.0,0.0
1592380000,1592224000,-0.043039676,0.022485426,-0.034806374,-0.006944494,0.0010077464,-0.04800415,0.0,0.0,0.0,0.0,0.0,0.0,0.0,-0.061157227,0.0,0.0,0.0,0.0,0.0007008463,-0.0010379544,0.0007008463,-0.0009967685,0.0013626466,-0.0025828634,4.6491623e-06,0.0,0.0,0.0,0.0,0.0,0.0
1592388000,1592232000,-0.043039676,0.022485426,-0.034806374,-0.006944494,0.0010077464,-0.04800415,0.0,0.0,0.0,0.0,0.0,0.0,0.0,-0.061157227,0.0,0.0,0.0,0.0,0.0029168725,0.0016555535,0.0027901828,0.0029168725,-0.005895382,-0.0020872522,-2.193451e-05,0.0,0.0,0.0,0.0,0.0,0.0
1592396000,1592240000,-0.04760374,0.0007366432,-0.040459253,-0.011514885,-0.0033754306,-0.046051025,0.0,0.0,0.0,0.0,0.0,0.0,0.0,-0.061157227,0.0,0.0,0.0,0.0,0.0029168725,0.0016555535,0.0027901828,0.0029168725,0.0050341804,0.0062479856,-4.172325e-05,0.0,0.0,0.0,0.0,0.0,0.0
1592404000,1592248000,-0.04760374,0.0007366432,-0.040459253,-0.011514885,-0.0033754306,-0.046051025,0.0,0.0,0.0,0.0,0.0,0.0,0.0,-0.061157227,0.0,0.0,0.0,0.0,0.0029168725,0.0016555535,0.0027901828,0.0029168725,-0.0007601883,0.004618819,-2.4735928e-05,0.0,0.0,0.0,0.0,0.0,0.0
1592420000,1592264000,-0.04760374,0.0007366432,-0.040459253,-0.011514885,-0.0033754306,-0.046051025,0.0,0.0,0.0,0.0,0.0,0.0,0.0,-0.061157227,0.0,0.0,0.0,0.0,0.0029168725,0.0016555535,0.0027901828,0.0029168725,0.0024147707,0.0030889497,-1.2218952e-05,0.0,0.0,0.0,0.0,0.0,0.0
1592428000,1592272000,-0.04760374,0.0007366432,-0.040459253,-0.011514885,-0.0033754306,-0.046051025,0.0,0.0,0.0,0.0,0.0,0.0,0.0,-0.026245117,0.0,0.0,0.0,0.0,0.0029168725,0.0016555535,0.0027901828,0.0029168725,0.005869272,-0.0015185018,-5.7816505e-06,0.0,0.0,0.0,0.0,0.0,0.0
1592436000,1592280000,-0.04760374,0.0007366432,-0.040459253,-0.011514885,-0.0033754306,-0.046051025,0.0,0.0,0.0,0.0,0.0,0.0,0.0,-0.026245117,0.0,0.0,0.0,0.0,0.0029168725,0.0016555535,0.0027901828,0.0029168725,0.006023402,-0.0073782224,-1.6450882e-05,0.0,0.0,0.0,0.0,0.0,0.0
1592444000,1592288000,-0.04760374,0.0007366432,-0.040459253,-0.011514885,-0.0033754306,-0.046051025,0.0,0.0,0.0,0.0,0.0,0.0,0.0,-0.026245117,0.0,0.0,0.0,0.0,0.0029168725,0.0016555535,0.0027901828,0.0029168725,0.0066748764,0.0004497685,-1.3589859e-05,0.0,0.0,0.0,0.0,0.0,0.0
1592460000,1592304000,-0.04760374,0.0007366432,-0.040459253,-0.011514885,-0.0033754306,-0.046051025,0.0,0.0,0.0,0.0,0.0,0.0,0.0,-0.026245117,0.0,0.0,0.0,0.0,0.0017069876,-0.00035895035,0.0017069876,0.00046271086,0.0017147681,-0.0028469902,4.887581e-06,0.0,0.0,0.0,0.0,0.0,0.0
1592468000,1592312000,-0.04760374,0.0007366432,-0.040459253,-0.011514885,-0.0033754306,-0.046051025,0.0,0.0,0.0,0.0,0.0,0.0,0.0,-0.026245117,0.0,0.0,0.0,0.0,0.0017069876,-0.00035895035,0.0017069876,0.00046271086,-0.0072753993,-0.0015302583,-3.4809113e-05,0.0,0.0,0.0,0.0,0.0,0.0
1592476000,1592320000,-0.04760374,0.0007366432,-0.040459253,-0.011514885,-0.0033754306,-0.046051025,0.0,0.0,0.0,0.0,0.0,0.0,0.0,-0.026245117,0.0,0.0,0.0,0.0,0.0017069876,-0.00035895035,0.0017069876,0.00046271086,0.014115489,-0.009338848,-9.447336e-05,0.0,0.0,0.0,0.0,0.0,0.0
1592484000,1592328000,-0.04760374,0.0007366432,-0.040459253,-0.011514885,-0.0033754306,-0.046051025,0.0,0.0,0.0,0.0,0.0,0.0,0.0,-0.026245117,0.0,0.0,0.0,0.0,0.0017069876,-0.00035895035,0.0017069876,0.00046271086,0.020358559,-0.00762686,-0.00017982721,0.0,0.0,0.0,0.0,0.0,0.0
1592500000,1592344000,-0.04760374,0.0007366432,-0.040459253,-0.011514885,-0.0033754306,-0.046051025,0.0,0.0,0.0,0.0,0.0,0.0,0.0,0.0064697266,0.0,0.0,0.0,0.0,0.0017069876,-0.00035895035,0.0017069876,0.00046271086,-0.0008198947,0.0032143225,-1.6093254e-05,0.0,0.0,0.0,0.0,0.0,0.0
1592508000,1592352000,-0.04760374,0.0007366432,-0.040459253,-0.011514885,-0.0033754306,-0.046051025,0.0,0.0,0.0,0.0,0.0,0.0,0.0,0.0064697266,0.0,0.0,0.0,0.0,0.0017069876,-0.00035895035,0.0017069876,0.00046271086,0.0031218368,0.0022621406,-7.8082085e-06,0.0,0.0,0.0,0.0,0.0,0.0
1592516000,1592360000,-0.04760374,0.0007366432,-0.040459253,-0.011514885,-0.0033754306,-0.046051025,0.0,0.0,0.0,0.0,0.0,0.0,0.0,0.0064697266,0.0,0.0,0.0,0.0,0.0017069876,-0.00035895035,0.0017069876,0.00046271086,-0.0074649137,-0.0073542064,-4.8220158e-05,0.0,0.0,0.0,0.0,0.0,0.0
1592524000,1592368000,-0.04760374,0.0007366432,-0.040459253,-0.011514885,-0.0033754306,-0.046051025,0.0,0.0,0.0,0.0,0.0,0.0,0.0,0.0064697266,0.0,0.0,0.0,0.0,0.0017069876,-0.00035895035,0.0017069876,0.00046271086,-0.0062913657,-0.0055072866,-3.1888485e-05,0.0,0.0,0.0,0.0,0.0,0.0
1592540000,1592384000,-0.04760374,0.0007366432,-0.040459253,-0.011514885,-0.0033754306,-0.046051025,0.0,0.0,0.0,0.0,0.0,0.0,0.0,0.0064697266,0.0,0.0,0.0,0.0,0.004219681,0.000980149,0.004219681,0.00028538704,-0.0029914114,-0.0062333597,-1.1563301e-05,0.0,0.0,0.0,0.0,0.0,0.0
1592548000,1592392000,-0.04760374,0.0007366432,-0.040459253,-0.011514885,-0.0033754306,-0.046051025,0.0,0.0,0.0,0.0,0.0,0.0,0.0,0.0064697266,0.0,0.0,0.0,0.0,0.004219681,0.000980149,0.004219681,0.00028538704,-0.010727573,-0.016768366,-0.00017040968,0.0,0.0,0.0,0.0,0.0,0.0
1592556000,1592400000,-0.04760374,0.0007366432,-0.040459253,-0.011514885,-0.0033754306,-0.046051025,0.0,0.0,0.0,0.0,0.0,0.0,0.0,0.0064697266,0.0,0.0,0.0,0.0,0.004219681,0.000980149,0.004219681,0.00028538704,-0.004159916,-0.0086025465,-2.9206276e-05,0.0,0.0,0.0,0.0,0.0,0.0
1592564000,1592408000,-0.04760374,0.0007366432,-0.040459253,-0.011514885,-0.0033754306,-0.046051025,0.0,0.0,0.0,0.0,0.0,0.0,0.0,0.0064697266,0.0,0.0,0.0,0.0,0.004219681,0.000980149,0.004219681,0.00028538704,0.006957373,-0.007073314,-1.6093254e-05,0.0,0.0,0.0,0.0,0.0,0.0
1592580000,1592424000,-0.04760374,0.0007366432,-0.040459253,-0.011514885,-0.0033754306,-0.046051025,0.0,0.0,0.0,0.0,0.0,0.0,0.0,-0.03665161,0.0,0.0,0.0,0.0,0.004219681,0.000980149,0.004219681,0.00028538704,0.0031412253,-0.003280395,4.9471855e-06,0.0,0.0,0.0,0.0,0.0,0.0
1592588000,1592432000,-0.04760374,0.0007366432,-0.040459253,-0.011514885,-0.0033754306,-0.046051025,0.0,0.0,0.0,0.0,0.0,0.0,0.0,-0.03665161,0.0,0.0,0.0,0.0,0.004219681,0.000980149,0.004219681,0.00028538704,0.0007395245,-0.0020873477,4.887581e-06,0.0,0.0,0.0,0.0,0.0,0.0
1592596000,1592440000,-0.04760374,0.0007366432,-0.040459253,-0.011514885,-0.0033754306,-0.046051025,0.0,0.0,0.0,0.0,0.0,0.0,0.0,-0.03665161,0.0,0.0,0.0,0.0,0.004219681,0.000980149,0.004219681,0.00028538704,-0.004416637,0.00063114637,-2.0980835e-05,0.0,0.0,0.0,0.0,0.0,0.0
1592604000,1592448000,-0.04760374,0.0007366432,-0.040459253,-0.011514885,-0.0033754306,-0.046051025,0.0,0.0,0.0,0.0,0.0,0.0,0.0,-0.03665161,0.0,0.0,0.0,0.0,0.0015281141,-0.003933645,0.0015281141,-0.0011177361,-0.0033276475,-0.0048511405,-1.1086464e-05,0.0,0.0,0.0,0.0,0.0,0.0
1592620000,1592464000,-0.04760374,0.0007366432,-0.040459253,-0.011514885,-0.0033754306,-0.046051025,0.0,0.0,0.0,0.0,0.0,0.0,0.0,-0.03665161,0.0,0.0,0.0,0.0,0.0015281141,-0.003933645,0.0015281141,-0.0011177361,0.006108773,0.00011056219,-6.4969063e-06,0.0,0.0,0.0,0.0,0.0,0.0
1592628000,1592472000,-0.04760374,0.0007366432,-0.040459253,-0.011514885,-0.0033754306,-0.046051025,0.0,0.0,0.0,0.0,0.0,0.0,0.0,-0.03665161,0.0,0.0,0.0,0.0,0.0015281141,-0.003933645,0.0015281141,-0.0011177361,0.0037252032,-0.0069579575,-5.1259995e-06,0.0,0.0,0.0,0.0,0.0,0.0
1592636000,1592480000,-0.04760374,0.0007366432,-0.040459253,-0.011514885,-0.0033754306,-0.046051025,0.0,0.0,0.0,0.0,0.0,0.0,0.0,-0.03665161,0.0,0.0,0.0,0.0,0.0015281141,-0.003933645,0.0015281141,-0.0011177361,-0.0058260607,0.009463673,-9.87649e-05,0.0,0.0,0.0,0.0,0.0,0.0
1592644000,1592488000,-0.04760374,0.0007366432,-0.040459253,-0.011514885,-0.0033754306,-0.046051025,0.0,0.0,0.0,0.0,0.0,0.0,0.0,-0.1166687,0.0,0.0,0.0,0.0,0.0015281141,-0.003933645,0.0015281141,-0.0011177361,0.0036994098,-0.010629984,-2.783537e-05,0.0,0.0,0.0,0.0,0.0,0.0
1592660000,1592504000,-0.04760374,0.0007366432,-0.040459253,-0.011514885,-0.0033754306,-0.046051025,0.0,0.0,0.0,0.0,0.0,0.0,0.0,-0.1166687,0.0,0.0,0.0,0.0,0.0015281141,-0.003933645,0.0015281141,-0.0011177361,0.00935393,-0.00058534415,-2.2768974e-05,0.0,0.0,0.0,0.0,0.0,0.0
1592668000,1592512000,-0.04760374,0.0007366432,-0.040459253,-0.011514885,-0.0033754306,-0.046051025,0.0,0.0,0.0,0.0,0.0,0.0,0.0,-0.1166687,0.0,0.0,0.0,0.0,3.3795834e-05,-0.0009170361,-0.0012680143,3.3795834e-05,0.0031889472,0.0028425488,-9.834766e-06,0.0,0.0,0.0,0.0,0.0,0.0
1592676000,1592520000,-0.04760374,0.0007366432,-0.040459253,-0.011514885,-0.0033754306,-0.046051025,0.0,0.0,0.0,0.0,0.0,0.0,0.0,-0.1166687,0.0,0.0,0.0,0.0,3.3795834e-05,-0.0009170361,-0.0012680143,3.3795834e-05,-0.0012090243,1.7629238e-05,-3.3974648e-06,0.0,0.0,0.0,0.0,0.0,0.0
1592684000,1592528000,-0.04760374,0.0007366432,-0.040459253,-0.011514885,-0.0033754306,-0.046051025,0.0,0.0,0.0,0.0,0.0,0.0,0.0,-0.1166687,0.0,0.0,0.0,0.0,3.3795834e-05,-0.0009170361,-0.0012680143,3.3795834e-05,-0.00978975,-0.007670055,-7.5638294e-05,0.0,0.0,0.0,0.0,0.0,0.0
1592700000,1592544000,-0.04760374,0.0007366432,-0.040459253,-0.011514885,-0.0033754306,-0.046051025,0.0,0.0,0.0,0.0,0.0,0.0,0.0,-0.1166687,0.0,0.0,0.0,0.0,3.3795834e-05,-0.0009170361,-0.0012680143,3.3795834e-05,0.0048297355,-0.007601565,-1.0430813e-05,0.0,0.0,0.0,0.0,0.0,0.0
1592708000,1592552000,-0.04760374,0.0007366432,-0.040459253,-0.011514885,-0.0033754306,-0.046051025,0.0,0.0,0.0,0.0,0.0,0.0,0.0,-0.1166687,0.0,0.0,0.0,0.0,3.3795834e-05,-0.0009170361,-0.0012680143,3.3795834e-05,-0.0026857257,-0.0037169391,-5.6028366e-06,0.0,0.0,0.0,0.0,0.0,0.0
1592716000,1592560000,-0.04760374,0.0007366432,-0.040459253,-0.011514885,-0.0033754306,-0.046051025,0.0,0.0,0.0,0.0,0.0,0.0,0.0,0.034820557,0.0,0.0,0.0,0.0,3.3795834e-05,-0.0009170361,-0.0012680143,3.3795834e-05,0.00050665624,0.003386077,-1.3947487e-05,0.0,0.0,0.0,0.0,0.0,0.0
1592724000,1592568000,-0.04760374,0.0007366432,-0.040459253,-0.011514885,-0.0033754306,-0.046051025,0.0,0.0,0.0,0.0,0.0,0.0,0.0,0.034820557,0.0,0.0,0.0,0.0,3.3795834e-05,-0.0009170361,-0.0012680143,3.3795834e-05,0.0013405903,-0.0042136908,4.5895576e-06,0.0,0.0,0.0,0.0,0.0,0.0
1592740000,1592584000,-0.04760374,0.0007366432,-0.040459253,-0.011514885,-0.0033754306,-0.046051025,0.0,0.0,0.0,0.0,0.0,0.0,0.0,0.034820557,0.0,0.0,0.0,0.0,0.0012620538,-0.00038913265,0.0012620538,-0.0007716119,-0.004490888,-0.0009971341,-1.6450882e-05,0.0,0.0,0.0,0.0,0.0,0.0
1592748000,1592592000,-0.04760374,0.0007366432,-0.040459253,-0.011514885,-0.0033754306,-0.046051025,0.0,0.0,0.0,0.0,0.0,0.0,0.0,0.034820557,0.0,0.0,0.0,0.0,0.0012620538,-0.00038913265,0.0012620538,-0.0007716119,0.00220764,-0.007828508,-6.198883e-06,0.0,0.0,0.0,0.0,0.0,0.0
1592756000,1592600000,-0.04760374,0.0007366432,-0.040459253,-0.011514885,-0.0033754306,-0.046051025,0.0,0.0,0.0,0.0,0.0,0.0,0.0,0.034820557,0.0,0.0,0.0,0.0,0.0012620538,-0.00038913265,0.0012620538,-0.0007716119,-0.0044897087,-0.0047384943,-1.6987324e-05,0.0,0.0,0.0,0.0,0.0,0.0
1592764000,1592608000,-0.04760374,0.0007366432,-0.040459253,-0.011514885,-0.0033754306,-0.046051025,0.0,0.0,0.0,0.0,0.0,0.0,0.0,0.034820557,0.0,0.0,0.0,0.0,0.0012620538,-0.00038913265,0.0012620538,-0.0007716119,0.0008688676,-0.004995106,3.3974648e-06,0.0,0.0,0.0,0.0,0.0,0.0
1592780000,1592624000,-0.04760374,0.0007366432,-0.040459253,-0.011514885,-0.0033754306,-0.046051025,0.0,0.0,0.0,0.0,0.0,0.0,0.0,0.034820557,0.0,0.0,0.0,0.0,0.0012620538,-0.00038913265,0.0012620538,-0.0007716119,-0.0011340505,-0.008558441,-1.3530254e-05,0.0,0.0,0.0,0.0,0.0,0.0
1592788000,1592632000,-0.04760374,0.0007366432,-0.040459253,-0.011514885,-0.0033754306,-0.046051025,0.0,0.0,0.0,0.0,0.0,0.0,0.0,0.038330078,0.0,0.0,0.0,0.0,0.0012620538,-0.00038913265,0.0012620538,-0.0007716119,0.0052226754,-0.010061538,-2.3543835e-05,0.0,0.0,0.0,0.0,0.0,0.0
1592796000,1592640000,-0.05399466,-0.0012263892,-0.021092074,-0.015789585,0.003961725,-0.044067383,0.0,0.0,0.0,0.0,0.0,0.0,0.0,0.038330078,0.0,0.0,0.0,0.0,0.0012620538,-0.00038913265,0.0012620538,-0.0007716119,-0.0073489896,-0.008574879,-5.5730343e-05,0.0,0.0,0.0,0.0,0.0,0.0
1592804000,1592648000,-0.05399466,-0.0012263892,-0.021092074,-0.015789585,0.003961725,-0.044067383,0.0,0.0,0.0,0.0,0.0,0.0,0.0,0.038330078,0.0,0.0,0.0,0.0,0.0060047507,0.0043392535,0.0060047507,0.0003912151,0.0030469974,0.012139429,-0.00010371208,0.0,0.0,0.0,0.0,0.0,0.0
1592820000,1592664000,-0.05399466,-0.0012263892,-0.021092074,-0.015789585,0.003961725,-0.044067383,0.0,0.0,0.0,0.0,0.0,0.0,0.0,0.038330078,0.0,0.0,0.0,0.0,0.0060047507,0.0043392535,0.0060047507,0.0003912151,0.0049357405,-0.006561425,-5.90086e-06,0.0,0.0,0.0,0.0,0.0,0.0
1592828000,1592672000,-0.05399466,-0.0012263892,-0.021092074,-0.015789585,0.003961725,-0.044067383,0.0,0.0,0.0,0.0,0.0,0.0,0.0,0.038330078,0.0,0.0,0.0,0.0,0.0060047507,0.0043392535,0.0060047507,0.0003912151,0.0036814047,-0.0074719274,-7.927418e-06,0.0,0.0,0.0,0.0,0.0,0.0
1592836000,1592680000,-0.05399466,-0.0012263892,-0.021092074,-0.015789585,0.003961725,-0.044067383,0.0,0.0,0.0,0.0,0.0,0.0,0.0,0.038330078,0.0,0.0,0.0,0.0,0.0060047507,0.0043392535,0.0060047507,0.0003912151,-0.0017117909,0.00027297763,-5.841255e-06,0.0,0.0,0.0,0.0,0.0,0.0
1592844000,1592688000,-0.05399466,-0.0012263892,-0.021092074,-0.015789585,0.003961725,-0.044067383,0.0,0.0,0.0,0.0,0.0,0.0,0.0,0.038330078,0.0,0.0,0.0,0.0,0.0060047507,0.0043392535,0.0060047507,0.0003912151,-0.009481188,0.0051455367,-9.173155e-05,0.0,0.0,0.0,0.0,0.0,0.0
1592860000,1592704000,-0.05399466,-0.0012263892,-0.021092074,-0.015789585,0.003961725,-0.044067383,0.0,0.0,0.0,0.0,0.0,0.0,0.0,0.04675293,0.0,0.0,0.0,0.0,0.0060047507,0.0043392535,0.0060047507,0.0003912151,0.011723079,-0.0056915116,-4.4047832e-05,0.0,0.0,0.0,0.0,0.0,0.0
1592868000,1592712000,-0.05399466,-0.0012263892,-0.021092074,-0.015789585,0.003961725,-0.044067383,0.0,0.0,0.0,0.0,0.0,0.0,0.0,0.04675293,0.0,0.0,0.0,0.0,0.0060047507,0.0043392535,0.0060047507,0.0003912151,-0.0028726924,-0.011989474,-5.13196e-05,0.0,0.0,0.0,0.0,0.0,0.0
1592876000,1592720000,-0.05399466,-0.0012263892,-0.021092074,-0.015789585,0.003961725,-0.044067383,0.0,0.0,0.0,0.0,0.0,0.0,0.0,0.04675293,0.0,0.0,0.0,0.0,8.213427e-05,8.213427e-05,-0.0007780045,-0.00044438243,-0.009022426,-0.009857694,-8.529425e-05,0.0,0.0,0.0,0.0,0.0,0.0
1592884000,1592728000,-0.05399466,-0.0012263892,-0.021092074,-0.015789585,0.003961725,-0.044067383,0.0,0.0,0.0,0.0,0.0,0.0,0.0,0.04675293,0.0,0.0,0.0,0.0,8.213427e-05,8.213427e-05,-0.0007780045,-0.00044438243,0.0007918803,-0.0073045124,-6.735325e-06,0.0,0.0,0.0,0.0,0.0,0.0
1592900000,1592744000,-0.05399466,-0.0012263892,-0.021092074,-0.015789585,0.003961725,-0.044067383,0.0,0.0,0.0,0.0,0.0,0.0,0.0,0.04675293,0.0,0.0,0.0,0.0,8.213427e-05,8.213427e-05,-0.0007780045,-0.00044438243,0.004329865,0.008832574,-6.1154366e-05,0.0,0.0,0.0,0.0,0.0,0.0
1592908000,1592752000,-0.05399466,-0.0012263892,-0.021092074,-0.015789585,0.003961725,-0.044067383,0.0,0.0,0.0,0.0,0.0,0.0,0.0,0.04675293,0.0,0.0,0.0,0.0,8.213427e-05,8.213427e-05,-0.0007780045,-0.00044438243,-0.0019810037,-0.0002248527,-5.90086e-06,0.0,0.0,0.0,0.0,0.0,0.0
1592916000,1592760000,-0.05399466,-0.0012263892,-0.021092074,-0.015789585,0.003961725,-0.044067383,0.0,0.0,0.0,0.0,0.0,0.0,0.0,0.04675293,0.0,0.0,0.0,0.0,8.213427e-05,8.213427e-05,-0.0007780045,-0.00044438243,0.004866038,-0.003072327,3.2186508e-06,0.0,0.0,0.0,0.0,0.0,0.0
1592924000,1592768000,-0.05399466,-0.0012263892,-0.021092074,-0.015789585,0.003961725,-0.044067383,0.0,0.0,0.0,0.0,0.0,0.0,0.0,0.04675293,0.0,0.0,0.0,0.0,8.213427e-05,8.213427e-05,-0.0007780045,-0.00044438243,0.0027843735,-0.009605166,-1.8179417e-05,0.0,0.0,0.0,0.0,0.0,0.0
1592940000,1592784000,-0.05399466,-0.0012263892,-0.021092074,-0.015789585,0.003961725,-0.044067383,0.0,0.0,0.0,0.0,0.0,0.0,0.0,-0.0015258789,0.0,0.0,0.0,0.0,8.213427e-05,8.213427e-05,-0.0007780045,-0.00044438243,0.015965916,-0.003491503,-8.314848e-05,0.0,0.0,0.0,0.0,0.0,0.0
1592948000,1592792000,-0.05399466,-0.0012263892,-0.021092074,-0.015789585,0.003961725,-0.044067383,0.0,0.0,0.0,0.0,0.0,0.0,0.0,-0.0015258789,0.0,0.0,0.0,0.0,0.0031277407,0.0031277407,0.0009845495,0.0015882254,0.009626922,-0.0044367122,-1.9431114e-05,0.0,0.0,0.0,0.0,0.0,0.0
1592956000,1592800000,-0.05399466,-0.0012263892,-0.021092074,-0.015789585,0.003961725,-0.044067383,0.0,0.0,0.0,0.0,0.0,0.0,0.0,-0.0015258789,0.0,0.0,0.0,0.0,0.0031277407,0.0031277407,0.0009845495,0.0015882254,-0.0023875134,-0.0062861852,-1.2814999e-05,0.0,0.0,0.0,0.0,0.0,0.0
1592964000,1592808000,-0.05399466,-0.0012263892,-0.021092074,-0.015789585,0.003961725,-0.044067383,0.0,0.0,0.0,0.0,0.0,0.0,0.0,-0.0015258789,0.0,0.0,0.0,0.0,0.0031277407,0.0031277407,0.0009845495,0.0015882254,-0.0040527834,-0.0018754337,-1.5377998e-05,0.0,0.0,0.0,0.0,0.0,0.0
1592980000,1592824000,-0.05399466,-0.0012263892,-0.021092074,-0.015789585,0.003961725,-0.044067383,0.0,0.0,0.0,0.0,0.0,0.0,0.0,-0.0015258789,0.0,0.0,0.0,0.0,0.0031277407,0.0031277407,0.0009845495,0.0015882254,0.0066084415,-0.009083022,-2.527237e-05,0.0,0.0,0.0,0.0,0.0,0.0
1592988000,1592832000,-0.05399466,-0.0012263892,-0.021092074,-0.015789585,0.003961725,-0.044067383,0.0,0.0,0.0,0.0,0.0,0.0,0.0,-0.0015258789,0.0,0.0,0.0,0.0,0.0031277407,0.0031277407,0.0009845495,0.0015882254,-0.008741083,0.0023024282,-6.723404e-05,0.0,0.0,0.0,0.0,0.0,0.0
1592996000,1592840000,-0.05399466,-0.0012263892,-0.021092074,-0.015789585,0.003961725,-0.044067383,0.0,0.0,0.0,0.0,0.0,0.0,0.0,-0.0015258789,0.0,0.0,0.0,0.0,0.0031277407,0.0031277407,0.0009845495,0.0015882254,-0.00612079,6.0606282e-05,-3.361702e-05,0.0,0.0,0.0,0.0,0.0,0.0
1593004000,1592848000,-0.05399466,-0.0012263892,-0.021092074,-0.015789585,0.003961725,-0.044067383,0.0,0.0,0.0,0.0,0.0,0.0,0.0,-0.1194458,0.0,0.0,0.0,0.0,0.0031277407,0.0031277407,0.0009845495,0.0015882254,-0.0033223801,0.009731497,-8.422136e-05,0.0,0.0,0.0,0.0,0.0,0.0
1593020000,1592864000,-0.05399466,-0.0012263892,-0.021092074,-0.015789585,0.003961725,-0.044067383,0.0,0.0,0.0,0.0,0.0,0.0,0.0,-0.1194458,0.0,0.0,0.0,0.0,0.00096684694,0.00032052957,-0.00014457107,0.00096684694,0.0011059291,-0.0007914236,3.9339066e-06,0.0,0.0,0.0,0.0,0.0,0.0
1593028000,1592872000,-0.05399466,-0.0012263892,-0.021092074,-0.015789585,0.003961725,-0.044067383,0.0,0.0,0.0,0.0,0.0,0.0,0.0,-0.1194458,0.0,0.0,0.0,0.0,0.00096684694,0.00032052957,-0.00014457107,0.00096684694,0.00067909225,-0.0015786516,4.2915344e-06,0.0,0.0,0.0,0.0,0.0,0.0
1593036000,1592880000,-0.05399466,-0.0012263892,-0.021092074,-0.015789585,0.003961725,-0.044067383,0.0,0.0,0.0,0.0,0.0,0.0,0.0,-0.1194458,0.0,0.0,0.0,0.0,0.00096684694,0.00032052957,-0.00014457107,0.00096684694,-0.008594863,-0.0071892254,-6.532669e-05,0.0,0.0,0.0,0.0,0.0,0.0
1593044000,1592888000,-0.05399466,-0.0012263892,-0.021092074,-0.015789585,0.003961725,-0.044067383,0.0,0.0,0.0,0.0,0.0,0.0,0.0,-0.1194458,0.0,0.0,0.0,0.0,0.00096684694,0.00032052957,-0.00014457107,0.00096684694,0.00046272716,-0.005334211,9.536743e-07,0.0,0.0,0.0,0.0,0.0,0.0
1593060000,1592904000,-0.05399466,-0.0012263892,-0.021092074,-0.015789585,0.003961725,-0.044067383,0.0,0.0,0.0,0.0,0.0,0.0,0.0,0.009002686,0.0,0.0,0.0,0.0,0.00096684694,0.00032052957,-0.00014457107,0.00096684694,0.0013620618,-0.0033002119,5.841255e-06,0.0,0.0,0.0,0.0,0.0,0.0
1593068000,1592912000,-0.05399466,-0.0012263892,-0.021092074,-0.015789585,0.003961725,-0.044067383,0.0,0.0,0.0,0.0,0.0,0.0,0.0,0.009002686,0.0,0.0,0.0,0.0,0.00096684694,0.00032052957,-0.00014457107,0.00096684694,-0.0012318518,0.004222187,-2.4199486e-05,0.0,0.0,0.0,0.0,0.0,0.0
1593076000,1592920000,-0.05399466,-0.0012263892,-0.021092074,-0.015789585,0.003961725,-0.044067383,0.0,0.0,0.0,0.0,0.0,0.0,0.0,0.009002686,0.0,0.0,0.0,0.0,0.00096684694,0.00032052957,-0.00014457107,0.00096684694,-0.0010075029,0.0033612102,-1.7642975e-05,0.0,0.0,0.0,0.0,0.0,0.0
1593084000,1592928000,-0.05399466,-0.0012263892,-0.021092074,-0.015789585,0.003961725,-0.044067383,0.0,0.0,0.0,0.0,0.0,0.0,0.0,0.009002686,0.0,0.0,0.0,0.0,0.0019248277,0.00037497282,0.0019248277,0.0011819601,0.0012201027,-0.010328999,-2.4616718e-05,0.0,0.0,0.0,0.0,0.0,0.0
1593100000,1592944000,-0.05399466,-0.0012263892,-0.021092074,-0.015789585,0.003961725,-0.044067383,0.0,0.0,0.0,0.0,0.0,0.0,0.0,0.009002686,0.0,0.0,0.0,0.0,0.0019248277,0.00037497282,0.0019248277,0.0011819601,0.008388186,-0.0073908567,-2.3424625e-05,0.0,0.0,0.0,0.0,0.0,0.0
1593108000,1592952000,-0.05399466,-0.0012263892,-0.021092074,-0.015789585,0.003961725,-0.044067383,0.0,0.0,0.0,0.0,0.0,0.0,0.0,0.009002686,0.0,0.0,0.0,0.0,0.0019248277,0.00037497282,0.0019248277,0.0011819601,0.010726543,0.0028861598,-4.2796135e-05,0.0,0.0,0.0,0.0,0.0,0.0
1593116000,1592960000,-0.05399466,-0.0012263892,-0.021092074,-0.015789585,0.003961725,-0.044067383,0.0,0.0,0.0,0.0,0.0,0.0,0.0,0.009002686,0.0,0.0,0.0,0.0,0.0019248277,0.00037497282,0.0019248277,0.0011819601,0.007802892,-0.004223438,-9.119511e-06,0.0,0.0,0.0,0.0,0.0,0.0
1593124000,1592968000,-0.05399466,-0.0012263892,-0.021092074,-0.015789585,0.003961725,-0.044067383,0.0,0.0,0.0,0.0,0.0,0.0,0.0,0.07885742,0.0,0.0,0.0,0.0,0.0019248277,0.00037497282,0.0019248277,0.0011819601,-0.0041859047,-0.00526738,-1.9133091e-05,0.0,0.0,0.0,0.0,0.0,0.0
1593140000,1592984000,-0.05399466,-0.0012263892,-0.021092074,-0.015789585,0.003961725,-0.044067383,0.0,0.0,0.0,0.0,0.0,0.0,0.0,0.07885742,0.0,0.0,0.0,0.0,0.0019248277,0.00037497282,0.0019248277,0.0011819601,0.007124056,0.012374996,-0.00011575222,0.0,0.0,0.0,0.0,0.0,0.0
1593148000,1592992000,-0.05399466,-0.0012263892,-0.021092074,-0.015789585,0.003961725,-0.044067383,0.0,0.0,0.0,0.0,0.0,0.0,0.0,0.07885742,0.0,0.0,0.0,0.0,0.0019248277,0.00037497282,0.0019248277,0.0011819601,0.005980231,0.0032451553,-1.5974045e-05,0.0,0.0,0.0,0.0,0.0,0.0
1593156000,1593000000,-0.05399466,-0.0012263892,-0.021092074,-0.015789585,0.003961725,-0.044067383,0.0,0.0,0.0,0.0,0.0,0.0,0.0,0.07885742,0.0,0.0,0.0,0.0,0.0016101897,-0.001910449,0.0016101897,0.00015410781,0.0031863223,0.0005720258,1.5497208e-06,0.0,0.0,0.0,0.0,0.0,0.0
1593164000,1593008000,-0.05399466,-0.0012263892,-0.021092074,-0.015789585,0.003961725,-0.044067383,0.0,0.0,0.0,0.0,0.0,0.0,0.0,0.07885742,0.0,0.0,0.0,0.0,0.0016101897,-0.001910449,0.0016101897,0.00015410781,0.008401758,-0.0010935067,-1.0371208e-05,0.0,0.0,0.0,0.0,0.0,0.0
1593180000,1593024000,-0.05399466,-0.0012263892,-0.021092074,-0.015789585,0.003961725,-0.044067383,0.0,0.0,0.0,0.0,0.0,0.0,0.0,0.07885742,0.0,0.0,0.0,0.0,0.0016101897,-0.001910449,0.0016101897,0.00015410781,0.0065743313,-0.0013717976,-1.3113022e-06,0.0,0.0,0.0,0.0,0.0,0.0
1593188000,1593032000,-0.05399466,-0.0012263892,-0.021092074,-0.015789585,0.003961725,-0.044067383,0.0,0.0,0.0,0.0,0.0,0.0,0.0,0.07885742,0.0,0.0,0.0,0.0,0.0016101897,-0.001910449,0.0016101897,0.00015410781,-0.0013113976,0.004951096,-2.8908253e-05,0.0,0.0,0.0,0.0,0.0,0.0
1593196000,1593040000,-0.0509262,-0.018336467,-0.013422275,-0.018839447,-0.005283182,-0.040771484,0.0,0.0,0.0,0.0,0.0,0.0,0.0,0.05001831,0.0,0.0,0.0,0.0,0.0016101897,-0.001910449,0.0016101897,0.00015410781,0.0008580403,-0.0019301353,4.2915344e-06,0.0,0.0,0.0,0.0,0.0,0.0
1593204000,1593048000,-0.0509262,-0.018336467,-0.013422275,-0.018839447,-0.005283182,-0.040771484,0.0,0.0,0.0,0.0,0.0,0.0,0.0,0.05001831,0.0,0.0,0.0,0.0,0.0016101897,-0.001910449,0.0016101897,0.00015410781,0.005638634,-0.0053907633,-3.993511e-06,0.0,0.0,0.0,0.0,0.0,0.0
1593220000,1593064000,-0.0509262,-0.018336467,-0.013422275,-0.018839447,-0.005283182,-0.040771484,0.0,0.0,0.0,0.0,0.0,0.0,0.0,0.05001831,0.0,0.0,0.0,0.0,0.0016101897,-0.001910449,0.0016101897,0.00015410781,0.0027817446,-0.0002739092,4.053116e-06,0.0,0.0,0.0,0.0,0.0,0.0
1593228000,1593072000,-0.0509262,-0.018336467,-0.013422275,-0.018839447,-0.005283182,-0.040771484,0.0,0.0,0.0,0.0,0.0,0.0,0.0,0.05001831,0.0,0.0,0.0,0.0,0.004713297,-0.00017582253,0.0034026802,0.004713297,0.0026552754,-0.013231143,-5.722046e-05,0.0,0.0,0.0,0.0,0.0,0.0
1593236000,1593080000,-0.0509262,-0.018336467,-0.013422275,-0.018839447,-0.005283182,-0.040771484,0.0,0.0,0.0,0.0,0.0,0.0,0.0,0.05001831,0.0,0.0,0.0,0.0,0.004713297,-0.00017582253,0.0034026802,0.004713297,-0.009912195,-0.0022797054,-7.289648e-05,0.0,0.0,0.0,0.0,0.0,0.0
1593244000,1593088000,-0.0509262,-0.018336467,-0.013422275,-0.018839447,-0.005283182,-0.040771484,0.0,0.0,0.0,0.0,0.0,0.0,0.0,0.05001831,0.0,0.0,0.0,0.0,0.004713297,-0.00017582253,0.0034026802,0.004713297,0.0040621627,-0.0068388972,-6.377697e-06,0.0,0.0,0.0,0.0,0.0,0.0
1593260000,1593104000,-0.0509262,-0.018336467,-0.013422275,-0.018839447,-0.005283182,-0.040771484,0.0,0.0,0.0,0.0,0.0,0.0,0.0,0.05001831,0.0,0.0,0.0,0.0,0.004713297,-0.00017582253,0.0034026802,0.004713297,-0.0025132142,-0.0075179506,-2.2947788e-05,0.0,0.0,0.0,0.0,0.0,0.0
1593268000,1593112000,-0.0509262,-0.018336467,-0.013422275,-0.018839447,-0.005283182,-0.040771484,0.0,0.0,0.0,0.0,0.0,0.0,0.0,0.038024902,0.0,0.0,0.0,0.0,0.004713297,-0.00017582253,0.0034026802,0.004713297,-0.0067449347,-0.009507132,-6.687641e-05,0.0,0.0,0.0,0.0,0.0,0.0
1593276000,1593120000,-0.0509262,-0.018336467,-0.013422275,-0.018839447,-0.005283182,-0.040771484,0.0,0.0,0.0,0.0,0.0,0.0,0.0,0.038024902,0.0,0.0,0.0,0.0,0.004713297,-0.00017582253,0.0034026802,0.004713297,-0.00409423,-0.012229772,-6.967783e-05,0.0,0.0,0.0,0.0,0.0,0.0
1593284000,1593128000,-0.0509262,-0.018336467,-0.013422275,-0.018839447,-0.005283182,-0.040771484,0.0,0.0,0.0,0.0,0.0,0.0,0.0,0.038024902,0.0,0.0,0.0,0.0,0.004713297,-0.00017582253,0.0034026802,0.004713297,-0.00082914415,-0.01092389,-4.1127205e-05,0.0,0.0,0.0,0.0,0.0,0.0
1593300000,1593144000,-0.0509262,-0.018336467,-0.013422275,-0.018839447,-0.005283182,-0.040771484,0.0,0.0,0.0,0.0,0.0,0.0,0.0,0.038024902,0.0,0.0,0.0,0.0,0.0023352504,0.00011300575,0.0023352504,-8.696318e-05,0.0021707092,-0.0072051445,-8.165836e-06,0.0,0.0,0.0,0.0,0.0,0.0
1593308000,1593152000,-0.0509262,-0.018336467,-0.013422275,-0.018839447,-0.005283182,-0.040771484,0.0,0.0,0.0,0.0,0.0,0.0,0.0,0.038024902,0.0,0.0,0.0,0.0,0.0023352504,0.00011300575,0.0023352504,-8.696318e-05,0.0032388968,-0.009472343,-2.2232533e-05,0.0,0.0,0.0,0.0,0.0,0.0
1593316000,1593160000,-0.0509262,-0.018336467,-0.013422275,-0.018839447,-0.005283182,-0.040771484,0.0,0.0,0.0,0.0,0.0,0.0,0.0,0.038024902,0.0,0.0,0.0,0.0,0.0023352504,0.00011300575,0.0023352504,-8.696318e-05,0.0044783885,-0.006687955,-6.0796738e-06,0.0,0.0,0.0,0.0,0.0,0.0
1593324000,1593168000,-0.0509262,-0.018336467,-0.013422275,-0.018839447,-0.005283182,-0.040771484,0.0,0.0,0.0,0.0,0.0,0.0,0.0,0.009124756,0.0,0.0,0.0,0.0,0.0023352504,0.00011300575,0.0023352504,-8.696318e-05,0.0076433504,-0.00031464687,-7.1525574e-06,0.0,0.0,0.0,0.0,0.0,0.0
1593340000,1593184000,-0.0509262,-0.018336467,-0.013422275,-0.018839447,-0.005283182,-0.040771484,0.0,0.0,0.0,0.0,0.0,0.0,0.0,0.009124756,0.0,0.0,0.0,0.0,0.0023352504,0.00011300575,0.0023352504,-8.696318e-05,0.0064646695,0.00014046254,-2.682209e-06,0.0,0.0,0.0,0.0,0.0,0.0
1593348000,1593192000,-0.0509262,-0.018336467,-0.013422275,-0.018839447,-0.005283182,-0.040771484,0.0,0.0,0.0,0.0,0.0,0.0,0.0,0.009124756,0.0,0.0,0.0,0.0,0.0023352504,0.00011300575,0.0023352504,-8.696318e-05,0.0014569031,-0.001454478,5.066395e-06,0.0,0.0,0.0,0.0,0.0,0.0
1593356000,1593200000,-0.0509262,-0.018336467,-0.013422275,-0.018839447,-0.005283182,-0.040771484,0.0,0.0,0.0,0.0,0.0,0.0,0.0,0.009124756,0.0,0.0,0.0,0.0,0.0023352504,0.00011300575,0.0023352504,-8.696318e-05,0.00033000484,-0.0024011435,2.7418137e-06,0.0,0.0,0.0,0.0,0.0,0.0
1593364000,1593208000,-0.0509262,-0.018336467,-0.013422275,-0.018839447,-0.005283182,-0.040771484,0.0,0.0,0.0,0.0,0.0,0.0,0.0,0.009124756,0.0,0.0,0.0,0.0,0.0023352504,0.00011300575,0.0023352504,-8.696318e-05,0.0002315538,0.00045505213,-3.5762787e-07,0.0,0.0,0.0,0.0,0.0,0.0
1593380000,1593224000,-0.0509262,-0.018336467,-0.013422275,-0.018839447,-0.005283182,-0.040771484,0.0,0.0,0.0,0.0,0.0,0.0,0.0,0.009124756,0.0,0.0,0.0,0.0,0.0031832373,0.0031832373,0.0021374524,-0.00051259995,0.010270519,-0.0011201499,-2.1874905e-05,0.0,0.0,0.0,0.0,0.0,0.0
1593388000,1593232000,-0.0509262,-0.018336467,-0.013422275,-0.018839447,-0.005283182,-0.040771484,0.0,0.0,0.0,0.0,0.0,0.0,0.0,-0.052093506,0.0,0.0,0.0,0.0,0.0031832373,0.0031832373,0.0021374524,-0.00051259995,0.0031205153,-0.0030199906,5.1259995e-06,0.0,0.0,0.0,0.0,0.0,0.0
1593396000,1593240000,-0.0509262,-0.018336467,-0.013422275,-0.018839447,-0.005283182,-0.040771484,0.0,0.0,0.0,0.0,0.0,0.0,0.0,-0.052093506,0.0,0.0,0.0,0.0,0.0031832373,0.0031832373,0.0021374524,-0.00051259995,0.0044372957,-0.004274186,1.4901161e-06,0.0,0.0,0.0,0.0,0.0,0.0
1593404000,1593248000,-0.0509262,-0.018336467,-0.013422275,-0.018839447,-0.005283182,-0.040771484,0.0,0.0,0.0,0.0,0.0,0.0,0.0,-0.052093506,0.0,0.0,0.0,0.0,0.0031832373,0.0031832373,0.0021374524,-0.00051259995,0.0018949811,-0.0065828906,-4.7683716e-06,0.0,0.0,0.0,0.0,0.0,0.0
1593420000,1593264000,-0.0509262,-0.018336467,-0.013422275,-0.018839447,-0.005283182,-0.040771484,0.0,0.0,0.0,0.0,0.0,0.0,0.0,-0.052093506,0.0,0.0,0.0,0.0,0.0031832373,0.0031832373,0.0021374524,-0.00051259995,0.009897434,0.0006701993,-2.2828579e-05,0.0,0.0,0.0,0.0,0.0,0.0
1593428000,1593272000,-0.0509262,-0.018336467,-0.013422275,-0.018839447,-0.005283182,-0.040771484,0.0,0.0,0.0,0.0,0.0,0.0,0.0,-0.052093506,0.0,0.0,0.0,0.0,0.0031832373,0.0031832373,0.0021374524,-0.00051259995,0.013661869,-0.0066321865,-6.4730644e-05,0.0,0.0,0.0,0.0,0.0,0.0
1593436000,1593280000,-0.0509262,-0.018336467,-0.013422275,-0.018839447,-0.005283182,-0.040771484,0.0,0.0,0.0,0.0,0.0,0.0,0.0,-0.052093506,0.0,0.0,0.0,0.0,0.0031832373,0.0031832373,0.0021374524,-0.00051259995,-0.0026886924,0.0022903965,-1.7881393e-05,0.0,0.0,0.0,0.0,0.0,0.0
1593444000,1593288000,-0.0509262,-0.018336467,-0.013422275,-0.018839447,-0.005283182,-0.040771484,0.0,0.0,0.0,0.0,0.0,0.0,0.0,-0.05596924,0.0,0.0,0.0,0.0,0.0010392666,1.18128955e-05,0.00025744736,0.0010392666,-0.00032407208,0.0017515197,-5.9604645e-06,0.0,0.0,0.0,0.0,0.0,0.0
1593460000,1593304000,-0.0509262,-0.018336467,-0.013422275,-0.018839447,-0.005283182,-0.040771484,0.0,0.0,0.0,0.0,0.0,0.0,0.0,-0.05596924,0.0,0.0,0.0,0.0,0.0010392666,1.18128955e-05,0.00025744736,0.0010392666,-0.0025209507,-0.010672269,-4.607439e-05,0.0,0.0,0.0,0.0,0.0,0.0
1593468000,1593312000,-0.0509262,-0.018336467,-0.013422275,-0.018839447,-0.005283182,-0.040771484,0.0,0.0,0.0,0.0,0.0,0.0,0.0,-0.05596924,0.0,0.0,0.0,0.0,0.0010392666,1.18128955e-05,0.00025744736,0.0010392666,-0.0033195154,-0.008455062,-3.33786e-05,0.0,0.0,0.0,0.0,0.0,0.0
1593476000,1593320000,-0.0509262,-0.018336467,-0.013422275,-0.018839447,-0.005283182,-0.040771484,0.0,0.0,0.0,0.0,0.0,0.0,0.0,-0.05596924,0.0,0.0,0.0,0.0,0.0010392666,1.18128955e-05,0.00025744736,0.0010392666,0.0045891767,-0.0020536338,3.993511e-06,0.0,0.0,0.0,0.0,0.0,0.0
1593484000,1593328000,-0.0509262,-0.018336467,-0.013422275,-0.018839447,-0.005283182,-0.040771484,0.0,0.0,0.0,0.0,0.0,0.0,0.0,-0.05596924,0.0,0.0,0.0,0.0,0.0010392666,1.18128955e-05,0.00025744736,0.0010392666,0.0022560265,-0.0041405936,3.8146973e-06,0.0,0.0,0.0,0.0,0.0,0.0
1593500000,1593344000,-0.0509262,-0.018336467,-0.013422275,-0.018839447,-0.005283182,-0.040771484,0.0,0.0,0.0,0.0,0.0,0.0,0.0,-0.05596924,0.0,0.0,0.0,0.0,0.0010392666,1.18128955e-05,0.00025744736,0.0010392666,-0.0022317686,-0.007909583,-2.4318695e-05,0.0,0.0,0.0,0.0,0.0,0.0
1593508000,1593352000,-0.0509262,-0.018336467,-0.013422275,-0.018839447,-0.005283182,-0.040771484,0.0,0.0,0.0,0.0,0.0,0.0,0.0,-0.04095459,0.0,0.0,0.0,0.0,0.0023579085,0.0023579085,-0.0009468049,0.0009134412,-0.0039764913,0.0031201416,-3.0457973e-05,0.0,0.0,0.0,0.0,0.0,0.0
1593516000,1593360000,-0.0509262,-0.018336467,-0.013422275,-0.018839447,-0.005283182,-0.040771484,0.0,0.0,0.0,0.0,0.0,0.0,0.0,-0.04095459,0.0,0.0,0.0,0.0,0.0023579085,0.0023579085,-0.0009468049,0.0009134412,-0.009068003,0.0024823872,-7.611513e-05,0.0,0.0,0.0,0.0,0.0,0.0
1593524000,1593368000,-0.0509262,-0.018336467,-0.013422275,-0.018839447,-0.005283182,-0.040771484,0.0,0.0,0.0,0.0,0.0,0.0,0.0,-0.04095459,0.0,0.0,0.0,0.0,0.0023579085,0.0023579085,-0.0009468049,0.0009134412,0.002868226,0.0080287885,-4.261732e-05,0.0,0.0,0.0,0.0,0.0,0.0
1593540000,1593384000,-0.0509262,-0.018336467,-0.013422275,-0.018839447,-0.005283182,-0.040771484,0.0,0.0,0.0,0.0,0.0,0.0,0.0,-0.04095459,0.0,0.0,0.0,0.0,0.0023579085,0.0023579085,-0.0009468049,0.0009134412,-0.0033558328,-0.0015882438,-1.4126301e-05,0.0,0.0,0.0,0.0,0.0,0.0
1593548000,1593392000,-0.0509262,-0.018336467,-0.013422275,-0.018839447,-0.005283182,-0.040771484,0.0,0.0,0.0,0.0,0.0,0.0,0.0,-0.04095459,0.0,0.0,0.0,0.0,0.0023579085,0.0023579085,-0.0009468049,0.0009134412,0.0007178569,0.0049154353,-1.9729137e-05,0.0,0.0,0.0,0.0,0.0,0.0
1593556000,1593400000,-0.0509262,-0.018336467,-0.013422275,-0.018839447,-0.005283182,-0.040771484,0.0,0.0,0.0,0.0,0.0,0.0,0.0,-0.04095459,0.0,0.0,0.0,0.0,0.0023579085,0.0023579085,-0.0009468049,0.0009134412,-0.002218415,0.004486899,-2.861023e-05,0.0,0.0,0.0,0.0,0.0,0.0
1593564000,1593408000,-0.0509262,-0.018336467,-0.013422275,-0.018839447,-0.005283182,-0.040771484,0.0,0.0,0.0,0.0,0.0,0.0,0.0,-0.04095459,0.0,0.0,0.0,0.0,0.0023579085,0.0023579085,-0.0009468049,0.0009134412,-0.004084495,-0.006228381,-2.8550625e-05,0.0,0.0,0.0,0.0,0.0,0.0
1593580000,1593424000,-0.0509262,-0.018336467,-0.013422275,-0.018839447,-0.005283182,-0.040771484,0.0,0.0,0.0,0.0,0.0,0.0,0.0,0.053619385,0.0,0.0,0.0,0.0,0.00074508786,-0.0015848065,0.0005251467,0.00074508786,0.006237603,0.0028943412,-9.596348e-06,0.0,0.0,0.0,0.0,0.0,0.0
1593588000,1593432000,-0.0509262,-0.018336467,-0.013422275,-0.018839447,-0.005283182,-0.040771484,0.0,0.0,0.0,0.0,0.0,0.0,0.0,0.053619385,0.0,0.0,0.0,0.0,0.00074508786,-0.0015848065,0.0005251467,0.00074508786,0.0069366246,0.0003471428,-2.9206276e-06,0.0,0.0,0.0,0.0,0.0,0.0
1593596000,1593440000,-0.04342191,-0.011213236,-0.0004755929,-0.023396116,-0.0033812094,-0.041656494,0.0,0.0,0.0,0.0,0.0,0.0,0.0,0.053619385,0.0,0.0,0.0,0.0,0.00074508786,-0.0015848065,0.0005251467,0.00074508786,-0.005656793,0.0021285298,-3.9339066e-05,0.0,0.0,0.0,0.0,0.0,0.0
1593604000,1593448000,-0.04342191,-0.011213236,-0.0004755929,-0.023396116,-0.0033812094,-0.041656494,0.0,0.0,0.0,0.0,0.0,0.0,0.0,0.053619385,0.0,0.0,0.0,0.0,0.00074508786,-0.0015848065,0.0005251467,0.00074508786,-0.009472141,-0.0058506276,-8.350611e-05,0.0,0.0,0.0,0.0,0.0,0.0
1593620000,1593464000,-0.04342191,-0.011213236,-0.0004755929,-0.023396116,-0.0033812094,-0.041656494,0.0,0.0,0.0,0.0,0.0,0.0,0.0,0.053619385,0.0,0.0,0.0,0.0,0.00074508786,-0.0015848065,0.0005251467,0.00074508786,0.00017321436,0.007843695,-4.0709972e-05,0.0,0.0,0.0,0.0,0.0,0.0
1593628000,1593472000,-0.04342191,-0.011213236,-0.0004755929,-0.023396116,-0.0033812094,-0.041656494,0.0,0.0,0.0,0.0,0.0,0.0,0.0,0.053619385,0.0,0.0,0.0,0.0,0.00074508786,-0.0015848065,0.0005251467,0.00074508786,0.0006631969,-0.005381034,-5.4240227e-06,0.0,0.0,0.0,0.0,0.0,0.0
1593636000,1593480000,-0.04342191,-0.011213236,-0.0004755929,-0.023396116,-0.0033812094,-0.041656494,0.0,0.0,0.0,0.0,0.0,0.0,0.0,0.053619385,0.0,0.0,0.0,0.0,0.00074508786,-0.0015848065,0.0005251467,0.00074508786,-0.004866493,0.0006783225,-2.8550625e-05,0.0,0.0,0.0,0.0,0.0,0.0
1593644000,1593488000,-0.04342191,-0.011213236,-0.0004755929,-0.023396116,-0.0033812094,-0.041656494,0.0,0.0,0.0,0.0,0.0,0.0,0.0,0.053619385,0.0,0.0,0.0,0.0,0.00074508786,-0.0015848065,0.0005251467,0.00074508786,0.0011373747,-0.00043963065,3.5762787e-06,0.0,0.0,0.0,0.0,0.0,0.0
1593660000,1593504000,-0.04342191,-0.011213236,-0.0004755929,-0.023396116,-0.0033812094,-0.041656494,0.0,0.0,0.0,0.0,0.0,0.0,0.0,-0.08480835,0.0,0.0,0.0,0.0,0.0015470814,0.0015470814,-0.0011895299,-0.0005558729,0.012882569,0.004281682,-5.4240227e-05,0.0,0.0,0.0,0.0,0.0,0.0
1593668000,1593512000,-0.04342191,-0.011213236,-0.0004755929,-0.023396116,-0.0033812094,-0.041656494,0.0,0.0,0.0,0.0,0.0,0.0,0.0,-0.08480835,0.0,0.0,0.0,0.0,0.0015470814,0.0015470814,-0.0011895299,-0.0005558729,0.0060589295,0.005618894,-2.0742416e-05,0.0,0.0,0.0,0.0,0.0,0.0
1593676000,1593520000,-0.04342191,-0.011213236,-0.0004755929,-0.023396116,-0.0033812094,-0.041656494,0.0,0.0,0.0,0.0,0.0,0.0,0.0,-0.08480835,0.0,0.0,0.0,0.0,0.0015470814,0.0015470814,-0.0011895299,-0.0005558729,0.0028111616,0.007465915,-3.248453e-05,0.0,0.0,0.0,0.0,0.0,0.0
1593684000,1593528000,-0.04342191,-0.011213236,-0.0004755929,-0.023396116,-0.0033812094,-0.041656494,0.0,0.0,0.0,0.0,0.0,0.0,0.0,-0.08480835,0.0,0.0,0.0,0.0,0.0015470814,0.0015470814,-0.0011895299,-0.0005558729,0.0038176095,-0.0029693716,6.198883e-06,0.0,0.0,0.0,0.0,0.0,0.0
1593700000,1593544000,-0.04342191,-0.011213236,-0.0004755929,-0.023396116,-0.0033812094,-0.041656494,0.0,0.0,0.0,0.0,0.0,0.0,0.0,-0.08480835,0.0,0.0,0.0,0.0,0.0015470814,0.0015470814,-0.0011895299,-0.0005558729,0.0011726145,-0.008409234,-1.8119812e-05,0.0,0.0,0.0,0.0,0.0,0.0
1593708000,1593552000,-0.04342191,-0.011213236,-0.0004755929,-0.023396116,-0.0033812094,-0.041656494,0.0,0.0,0.0,0.0,0.0,0.0,0.0,-0.08480835,0.0,0.0,0.0,0.0,0.0015470814,0.0015470814,-0.0011895299,-0.0005558729,0.01486188,-0.0037195277,-6.0260296e-05,0.0,0.0,0.0,0.0,0.0,0.0
1593716000,1593560000,-0.04342191,-0.011213236,-0.0004755929,-0.023396116,-0.0033812094,-0.041656494,0.0,0.0,0.0,0.0,0.0,0.0,0.0,-0.08480835,0.0,0.0,0.0,0.0,0.0015470814,0.0015470814,-0.0011895299,-0.0005558729,0.01079094,0.0035998113,-3.4749508e-05,0.0,0.0,0.0,0.0,0.0,0.0
1593724000,1593568000,-0.04342191,-0.011213236,-0.0004755929,-0.023396116,-0.0033812094,-0.041656494,0.0,0.0,0.0,0.0,0.0,0.0,0.0,0.0154418945,0.0,0.0,0.0,0.0,0.001287818,-0.0022084704,0.0009837598,0.001287818,0.0026486202,-0.005867881,-1.0728836e-06,0.0,0.0,0.0,0.0,0.0,0.0
1593740000,1593584000,-0.04342191,-0.011213236,-0.0004755929,-0.023396116,-0.0033812094,-0.041656494,0.0,0.0,0.0,0.0,0.0,0.0,0.0,0.0154418945,0.0,0.0,0.0,0.0,0.001287818,-0.0022084704,0.0009837598,0.001287818,0.00027400698,-0.012280925,-5.3167343e-05,0.0,0.0,0.0,0.0,0.0,0.0
1593748000,1593592000,-0.04342191,-0.011213236,-0.0004755929,-0.023396116,-0.0033812094,-0.041656494,0.0,0.0,0.0,0.0,0.0,0.0,0.0,0.0154418945,0.0,0.0,0.0,0.0,0.001287818,-0.0022084704,0.0009837598,0.001287818,0.0051740822,-0.0009450034,5.066395e-06,0.0,0.0,0.0,0.0,0.0,0.0
1593756000,1593600000,-0.04342191,-0.011213236,-0.0004755929,-0.023396116,-0.0033812094,-0.041656494,0.0,0.0,0.0,0.0,0.0,0.0,0.0,0.0154418945,0.0,0.0,0.0,0.0,0.001287818,-0.0022084704,0.0009837598,0.001287818,0.0010639417,-0.0057597226,-4.23193e-06,0.0,0.0,0.0,0.0,0.0,0.0
1593764000,1593608000,-0.04342191,-0.011213236,-0.0004755929,-0.023396116,-0.0033812094,-0.041656494,0.0,0.0,0.0,0.0,0.0,0.0,0.0,0.0154418945,0.0,0.0,0.0,0.0,0.001287818,-0.0022084704,0.0009837598,0.001287818,0.0076834685,-0.009213958,-3.105402e-05,0.0,0.0,0.0,0.0,0.0,0.0
1593780000,1593624000,-0.04342191,-0.011213236,-0.0004755929,-0.023396116,-0.0033812094,-0.041656494,0.0,0.0,0.0,0.0,0.0,0.0,0.0,0.0154418945,0.0,0.0,0.0,0.0,0.001287818,-0.0022084704,0.0009837598,0.001287818,0.0013351853,0.00032559747,3.2782555e-06,0.0,0.0,0.0,0.0,0.0,0.0
1593788000,1593632000,-0.04342191,-0.011213236,-0.0004755929,-0.023396116,-0.0033812094,-0.041656494,0.0,0.0,0.0,0.0,0.0,0.0,0.0,0.0154418945,0.0,0.0,0.0,0.0,0.00066778064,-0.0016614366,0.00066778064,-0.003655821,0.008349557,-0.0012868103,-2.9802322e-06,0.0,0.0,0.0,0.0,0.0,0.0
1593796000,1593640000,-0.04342191,-0.011213236,-0.0004755929,-0.023396116,-0.0033812094,-0.041656494,0.0,0.0,0.0,0.0,0.0,0.0,0.0,0.02017212,0.0,0.0,0.0,0.0,0.00066778064,-0.0016614366,0.00066778064,-0.003655821,0.011137746,-0.005017993,-2.5570393e-05,0.0,0.0,0.0,0.0,0.0,0.0
1593804000,1593648000,-0.04342191,-0.011213236,-0.0004755929,-0.023396116,-0.0033812094,-0.041656494,0.0,0.0,0.0,0.0,0.0,0.0,0.0,0.02017212,0.0,0.0,0.0,0.0,0.00066778064,-0.0016614366,0.00066778064,-0.003655821,-0.0011859443,-0.012051741,-5.38826e-05,0.0,0.0,0.0,0.0,0.0,0.0
1593820000,1593664000,-0.04342191,-0.011213236,-0.0004755929,-0.023396116,-0.0033812094,-0.041656494,0.0,0.0,0.0,0.0,0.0,0.0,0.0,0.02017212,0.0,0.0,0.0,0.0,0.00066778064,-0.0016614366,0.00066778064,-0.003655821,0.0018872812,0.00034136232,4.053116e-06,0.0,0.0,0.0,0.0,0.0,0.0
1593828000,1593672000,-0.04342191,-0.011213236,-0.0004755929,-0.023396116,-0.0033812094,-0.041656494,0.0,0.0,0.0,0.0,0.0,0.0,0.0,0.02017212,0.0,0.0,0.0,0.0,0.00066778064,-0.0016614366,0.00066778064,-0.003655821,0.0029394284,-0.0016525883,7.6293945e-06,0.0,0.0,0.0,0.0,0.0,0.0
1593836000,1593680000,-0.04342191,-0.011213236,-0.0004755929,-0.023396116,-0.0033812094,-0.041656494,0.0,0.0,0.0,0.0,0.0,0.0,0.0,0.02017212,0.0,0.0,0.0,0.0,0.00066778064,-0.0016614366,0.00066778064,-0.003655821,-0.0051979134,-0.00018570444,-3.0577183e-05,0.0,0.0,0.0,0.0,0.0,0.0
1593844000,1593688000,-0.04342191,-0.011213236,-0.0004755929,-0.023396116,-0.0033812094,-0.041656494,0.0,0.0,0.0,0.0,0.0,0.0,0.0,0.02017212,0.0,0.0,0.0,0.0,0.00066778064,-0.0016614366,0.00066778064,-0.003655821,0.0003065616,0.0026893998,-8.404255e-06,0.0,0.0,0.0,0.0,0.0,0.0
1593860000,1593704000,-0.04342191,-0.011213236,-0.0004755929,-0.023396116,-0.0033812094,-0.041656494,0.0,0.0,0.0,0.0,0.0,0.0,0.0,0.02017212,0.0,0.0,0.0,0.0,0.0015250444,-0.0011795973,0.0015250444,0.00031235814,0.0042021335,0.011195567,-8.255243e-05,0.0,0.0,0.0,0.0,0.0,0.0
1593868000,1593712000,-0.04342191,-0.011213236,-0.0004755929,-0.023396116,-0.0033812094,-0.041656494,0.0,0.0,0.0,0.0,0.0,0.0,0.0,-0.017456055,0.0,0.0,0.0,0.0,0.0015250444,-0.0011795973,0.0015250444,0.00031235814,0.006794637,0.0039574327,-1.8835068e-05,0.0,0.0,0.0,0.0,0.0,0.0
1593876000,1593720000,-0.04342191,-0.011213236,-0.0004755929,-0.023396116,-0.0033812094,-0.041656494,0.0,0.0,0.0,0.0,0.0,0.0,0.0,-0.017456055,0.0,0.0,0.0,0.0,0.0015250444,-0.0011795973,0.0015250444,0.00031235814,0.004425657,-0.003683066,4.351139e-06,0.0,0.0,0.0,0.0,0.0,0.0
1593884000,1593728000,-0.04342191,-0.011213236,-0.0004755929,-0.023396116,-0.0033812094,-0.041656494,0.0,0.0,0.0,0.0,0.0,0.0,0.0,-0.017456055,0.0,0.0,0.0,0.0,0.0015250444,-0.0011795973,0.0015250444,0.00031235814,0.00018577767,-0.0058845067,-4.172325e-06,0.0,0.0,0.0,0.0,0.0,0.0
1593900000,1593744000,-0.04342191,-0.011213236,-0.0004755929,-0.023396116,-0.0033812094,-0.041656494,0.0,0.0,0.0,0.0,0.0,0.0,0.0,-0.017456055,0.0,0.0,0.0,0.0,0.0015250444,-0.0011795973,0.0015250444,0.00031235814,0.0034584934,0.0009216408,2.2053719e-06,0.0,0.0,0.0,0.0,0.0,0.0
1593908000,1593752000,-0.04342191,-0.011213236,-0.0004755929,-0.023396116,-0.0033812094,-0.041656494,0.0,0.0,0.0,0.0,0.0,0.0,0.0,-0.017456055,0.0,0.0,0.0,0.0,0.0015250444,-0.0011795973,0.0015250444,0.00031235814,0.007592465,0.001373926,-9.23872e-06,0.0,0.0,0.0,0.0,0.0,0.0
1593916000,1593760000,-0.04342191,-0.011213236,-0.0004755929,-0.023396116,-0.0033812094,-0.041656494,0.0,0.0,0.0,0.0,0.0,0.0,0.0,-0.017456055,0.0,0.0,0.0,0.0,0.0015250444,-0.0011795973,0.0015250444,0.00031235814,0.006898735,0.001632272,-8.165836e-06,0.0,0.0,0.0,0.0,0.0,0.0
1593924000,1593768000,-0.04342191,-0.011213236,-0.0004755929,-0.023396116,-0.0033812094,-0.041656494,0.0,0.0,0.0,0.0,0.0,0.0,0.0,-0.017456055,0.0,0.0,0.0,0.0,0.005890131,0.0032054568,0.005100578,0.005890131,0.012285599,0.0011088669,-4.2915344e-05,0.0,0.0,0.0,0.0,0.0,0.0
1593940000,1593784000,-0.04342191,-0.011213236,-0.0004755929,-0.023396116,-0.0033812094,-0.041656494,0.0,0.0,0.0,0.0,0.0,0.0,0.0,-0.049743652,0.0,0.0,0.0,0.0,0.005890131,0.0032054568,0.005100578,0.005890131,0.002738343,-0.0006537485,5.00679e-06,0.0,0.0,0.0,0.0,0.0,0.0
1593948000,1593792000,-0.04342191,-0.011213236,-0.0004755929,-0.023396116,-0.0033812094,-0.041656494,0.0,0.0,0.0,0.0,0.0,0.0,0.0,-0.049743652,0.0,0.0,0.0,0.0,0.005890131,0.0032054568,0.005100578,0.005890131,0.0007649765,0.0018153363,-3.5762787e-06,0.0,0.0,0.0,0.0,0.0,0.0
1593956000,1593800000,-0.04342191,-0.011213236,-0.0004755929,-0.023396116,-0.0033812094,-0.041656494,0.0,0.0,0.0,0.0,0.0,0.0,0.0,-0.049743652,0.0,0.0,0.0,0.0,0.005890131,0.0032054568,0.005100578,0.005890131,-0.00658077,0.00082940306,-4.184246e-05,0.0,0.0,0.0,0.0,0.0,0.0
1593964000,1593808000,-0.04342191,-0.011213236,-0.0004755929,-0.023396116,-0.0033812094,-0.041656494,0.0,0.0,0.0,0.0,0.0,0.0,0.0,-0.049743652,0.0,0.0,0.0,0.0,0.005890131,0.0032054568,0.005100578,0.005890131,-0.0077119395,-0.009132478,-7.31349e-05,0.0,0.0,0.0,0.0,0.0,0.0
1593980000,1593824000,-0.04342191,-0.011213236,-0.0004755929,-0.023396116,-0.0033812094,-0.041656494,0.0,0.0,0.0,0.0,0.0,0.0,0.0,-0.049743652,0.0,0.0,0.0,0.0,0.005890131,0.0032054568,0.005100578,0.005890131,-0.0033210763,0.00021585659,-1.5377998e-05,0.0,0.0,0.0,0.0,0.0,0.0
1593988000,1593832000,-0.04342191,-0.011213236,-0.0004755929,-0.023396116,-0.0033812094,-0.041656494,0.0,0.0,0.0,0.0,0.0,0.0,0.0,-0.049743652,0.0,0.0,0.0,0.0,0.005890131,0.0032054568,0.005100578,0.005890131,0.002822499,-0.0045267493,4.1127205e-06,0.0,0.0,0.0,0.0,0.0,0.0
1593996000,1593840000,-0.05064045,-0.008706085,0.0031363769,-0.027922234,-0.0054886234,-0.037475586,0.0,0.0,0.0,0.0,0.0,0.0,0.0,-0.001953125,0.0,0.0,0.0,0.0,0.0029762536,-0.0020905556,0.0029762536,0.00035125017,-0.0015050222,-0.0012331493,-3.516674e-06,0.0,0.0,0.0,0.0,0.0,0.0
1594004000,1593848000,-0.05064045,-0.008706085,0.0031363769,-0.027922234,-0.0054886234,-0.037475586,0.0,0.0,0.0,0.0,0.0,0.0,0.0,-0.001953125,0.0,0.0,0.0,0.0,0.0029762536,-0.0020905556,0.0029762536,0.00035125017,0.0013639779,0.0012802952,-2.9802322e-07,0.0,0.0,0.0,0.0,0.0,0.0
1594020000,1593864000,-0.05064045,-0.008706085,0.0031363769,-0.027922234,-0.0054886234,-0.037475586,0.0,0.0,0.0,0.0,0.0,0.0,0.0,-0.001953125,0.0,0.0,0.0,0.0,0.0029762536,-0.0020905556,0.0029762536,0.00035125017,-0.008343242,-0.01108951,-9.87649e-05,0.0,0.0,0.0,0.0,0.0,0.0
1594028000,1593872000,-0.05064045,-0.008706085,0.0031363769,-0.027922234,-0.0054886234,-0.037475586,0.0,0.0,0.0,0.0,0.0,0.0,0.0,-0.001953125,0.0,0.0,0.0,0.0,0.0029762536,-0.0020905556,0.0029762536,0.00035125017,0.00074069924,-0.0035073163,3.33786e-06,0.0,0.0,0.0,0.0,0.0,0.0
1594036000,1593880000,-0.05064045,-0.008706085,0.0031363769,-0.027922234,-0.0054886234,-0.037475586,0.0,0.0,0.0,0.0,0.0,0.0,0.0,-0.001953125,0.0,0.0,0.0,0.0,0.0029762536,-0.0020905556,0.0029762536,0.00035125017,-0.0051112045,-0.0034818836,-2.7298927e-05,0.0,0.0,0.0,0.0,0.0,0.0
1594044000,1593888000,-0.05064045,-0.008706085,0.0031363769,-0.027922234,-0.0054886234,-0.037475586,0.0,0.0,0.0,0.0,0.0,0.0,0.0,-0.001953125,0.0,0.0,0.0,0.0,0.0029762536,-0.0020905556,0.0029762536,0.00035125017,0.0026352934,-8.870079e-05,5.1259995e-06,0.0,0.0,0.0,0.0,0.0,0.0
1594060000,1593904000,-0.05064045,-0.008706085,0.0031363769,-0.027922234,-0.0054886234,-0.037475586,0.0,0.0,0.0,0.0,0.0,0.0,0.0,0.11392212,0.0,0.0,0.0,0.0,0.0029762536,-0.0020905556,0.0029762536,0.00035125017,-0.003087032,0.012787157,-0.0001269579,0.0,0.0,0.0,0.0,0.0,0.0
1594068000,1593912000,-0.05064045,-0.008706085,0.0031363769,-0.027922234,-0.0054886234,-0.037475586,0.0,0.0,0.0,0.0,0.0,0.0,0.0,0.11392212,0.0,0.0,0.0,0.0,0.0016519725,-0.00043144915,0.001173079,0.0016519725,0.00092476164,0.005161238,-2.2768974e-05,0.0,0.0,0.0,0.0,0.0,0.0
1594076000,1593920000,-0.05064045,-0.008706085,0.0031363769,-0.027922234,-0.0054886234,-0.037475586,0.0,0.0,0.0,0.0,0.0,0.0,0.0,0.11392212,0.0,0.0,0.0,0.0,0.0016519725,-0.00043144915,0.001173079,0.0016519725,0.0023564068,-0.0072005317,-3.993511e-06,0.0,0.0,0.0,0.0,0.0,0.0
1594084000,1593928000,-0.05064045,-0.008706085,0.0031363769,-0.027922234,-0.0054886234,-0.037475586,0.0,0.0,0.0,0.0,0.0,0.0,0.0,0.11392212,0.0,0.0,0.0,0.0,0.0016519725,-0.00043144915,0.001173079,0.0016519725,-0.0035765339,-0.0049260044,-1.8179417e-05,0.0,0.0,0.0,0.0,0.0,0.0
1594100000,1593944000,-0.05064045,-0.008706085,0.0031363769,-0.027922234,-0.0054886234,-0.037475586,0.0,0.0,0.0,0.0,0.0,0.0,0.0,0.11392212,0.0,0.0,0.0,0.0,0.0016519725,-0.00043144915,0.001173079,0.0016519725,-0.006967814,0.002792342,-5.6684017e-05,0.0,0.0,0.0,0.0,0.0,0.0
1594108000,1593952000,-0.05064045,-0.008706085,0.0031363769,-0.027922234,-0.0054886234,-0.037475586,0.0,0.0,0.0,0.0,0.0,0.0,0.0,0.11392212,0.0,0.0,0.0,0.0,0.0016519725,-0.00043144915,0.001173079,0.0016519725,-0.0027744705,0.007071292,-5.5372715e-05,0.0,0.0,0.0,0.0,0.0,0.0
1594116000,1593960000,-0.05064045,-0.008706085,0.0031363769,-0.027922234,-0.0054886234,-0.037475586,0.0,0.0,0.0,0.0,0.0,0.0,0.0,-0.080200195,0.0,0.0,0.0,0.0,0.0016519725,-0.00043144915,0.001173079,0.0016519725,-0.0025842362,0.0028914595,-2.270937e-05,0.0,0.0,0.0,0.0,0.0,0.0
1594124000,1593968000,-0.05064045,-0.008706085,0.0031363769,-0.027922234,-0.0054886234,-0.037475586,0.0,0.0,0.0,0.0,0.0,0.0,0.0,-0.080200195,0.0,0.0,0.0,0.0,0.0016519725,-0.00043144915,0.001173079,0.0016519725,0.006079277,0.0016337661,-5.4836273e-06,0.0,0.0,0.0,0.0,0.0,0.0
1594140000,1593984000,-0.05064045,-0.008706085,0.0031363769,-0.027922234,-0.0054886234,-0.037475586,0.0,0.0,0.0,0.0,0.0,0.0,0.0,-0.080200195,0.0,0.0,0.0,0.0,0.002086714,-0.0032920698,0.002086714,0.0011268854,0.0034366113,-0.008499563,-9.834766e-06,0.0,0.0,0.0,0.0,0.0,0.0
1594148000,1593992000,-0.05064045,-0.008706085,0.0031363769,-0.027922234,-0.0054886234,-0.037475586,0.0,0.0,0.0,0.0,0.0,0.0,0.0,-0.080200195,0.0,0.0,0.0,0.0,0.002086714,-0.0032920698,0.002086714,0.0011268854,0.00016651768,-0.0054043955,-7.1525574e-07,0.0,0.0,0.0,0.0,0.0,0.0
1594156000,1594000000,-0.05064045,-0.008706085,0.0031363769,-0.027922234,-0.0054886234,-0.037475586,0.0,0.0,0.0,0.0,0.0,0.0,0.0,-0.080200195,0.0,0.0,0.0,0.0,0.002086714,-0.0032920698,0.002086714,0.0011268854,0.012468851,0.006412089,-7.510185e-05,0.0,0.0,0.0,0.0,0.0,0.0
1594164000,1594008000,-0.05064045,-0.008706085,0.0031363769,-0.027922234,-0.0054886234,-0.037475586,0.0,0.0,0.0,0.0,0.0,0.0,0.0,-0.080200195,0.0,0.0,0.0,0.0,0.002086714,-0.0032920698,0.002086714,0.0011268854,0.007060434,0.0037928673,-1.9609928e-05,0.0,0.0,0.0,0.0,0.0,0.0
1594180000,1594024000,-0.05064045,-0.008706085,0.0031363769,-0.027922234,-0.0054886234,-0.037475586,0.0,0.0,0.0,0.0,0.0,0.0,0.0,-0.022491455,0.0,0.0,0.0,0.0,0.002086714,-0.0032920698,0.002086714,0.0011268854,-0.0013789102,-0.003547404,-3.5762787e-06,0.0,0.0,0.0,0.0,0.0,0.0
1594188000,1594032000,-0.05064045,-0.008706085,0.0031363769,-0.027922234,-0.0054886234,-0.037475586,0.0,0.0,0.0,0.0,0.0,0.0,0.0,-0.022491455,0.0,0.0,0.0,0.0,0.002086714,-0.0032920698,0.002086714,0.0011268854,0.00139472,0.0036990421,-1.1444092e-05,0.0,0.0,0.0,0.0,0.0,0.0
1594196000,1594040000,-0.05064045,-0.008706085,0.0031363769,-0.027922234,-0.0054886234,-0.037475586,0.0,0.0,0.0,0.0,0.0,0.0,0.0,-0.022491455,0.0,0.0,0.0,0.0,0.002086714,-0.0032920698,0.002086714,0.0011268854,-0.0105325645,0.003944995,-0.000105559826,0.0,0.0,0.0,0.0,0.0,0.0
1594204000,1594048000,-0.05064045,-0.008706085,0.0031363769,-0.027922234,-0.0054886234,-0.037475586,0.0,0.0,0.0,0.0,0.0,0.0,0.0,-0.022491455,0.0,0.0,0.0,0.0,0.002086714,-0.0032920698,0.002086714,0.0011268854,0.0039826366,-0.006583627,-2.861023e-06,0.0,0.0,0.0,0.0,0.0,0.0
1594220000,1594064000,-0.05064045,-0.008706085,0.0031363769,-0.027922234,-0.0054886234,-0.037475586,0.0,0.0,0.0,0.0,0.0,0.0,0.0,-0.022491455,0.0,0.0,0.0,0.0,0.0075045675,0.004404052,0.0075045675,-0.0013909638,-0.017353842,-0.0063919723,-0.00021255016,0.0,0.0,0.0,0.0,0.0,0.0
1594228000,1594072000,-0.05064045,-0.008706085,0.0031363769,-0.027922234,-0.0054886234,-0.037475586,0.0,0.0,0.0,0.0,0.0,0.0,0.0,-0.022491455,0.0,0.0,0.0,0.0,0.0075045675,0.004404052,0.0075045675,-0.0013909638,0.001748051,-0.0028162715,6.020069e-06,0.0,0.0,0.0,0.0,0.0,0.0
1594236000,1594080000,-0.05064045,-0.008706085,0.0031363769,-0.027922234,-0.0054886234,-0.037475586,0.0,0.0,0.0,0.0,0.0,0.0,0.0,-0.022491455,0.0,0.0,0.0,0.0,0.0075045675,0.004404052,0.0075045675,-0.0013909638,-0.0021540462,-0.0025743486,-7.2717667e-06,0.0,0.0,0.0,0.0,0.0,0.0
1594244000,1594088000,-0.05064045,-0.008706085,0.0031363769,-0.027922234,-0.0054886234,-0.037475586,0.0,0.0,0.0,0.0,0.0,0.0,0.0,-0.022491455,0.0,0.0,0.0,0.0,0.0075045675,0.004404052,0.0075045675,-0.0013909638,-0.008638907,-0.00088711584,-6.407499e-05,0.0,0.0,0.0,0.0,0.0,0.0
1594260000,1594104000,-0.05064045,-0.008706085,0.0031363769,-0.027922234,-0.0054886234,-0.037475586,0.0,0.0,0.0,0.0,0.0,0.0,0.0,-0.040740967,0.0,0.0,0.0,0.0,0.0075045675,0.004404052,0.0075045675,-0.0013909638,0.008644362,-0.008981323,-3.1113625e-05,0.0,0.0,0.0,0.0,0.0,0.0
1594268000,1594112000,-0.05064045,-0.008706085,0.0031363769,-0.027922234,-0.0054886234,-0.037475586,0.0,0.0,0.0,0.0,0.0,0.0,0.0,-0.040740967,0.0,0.0,0.0,0.0,0.0075045675,0.004404052,0.0075045675,-0.0013909638,0.005607464,-0.0058974614,-2.3245811e-06,0.0,0.0,0.0,0.0,0.0,0.0
1594276000,1594120000,-0.05064045,-0.008706085,0.0031363769,-0.027922234,-0.0054886234,-0.037475586,0.0,0.0,0.0,0.0,0.0,0.0,0.0,-0.040740967,0.0,0.0,0.0,0.0,0.0075045675,0.004404052,0.0075045675,-0.0013909638,0.0063420082,0.008286014,-5.298853e-05,0.0,0.0,0.0,0.0,0.0,0.0
1594284000,1594128000,-0.05064045,-0.008706085,0.0031363769,-0.027922234,-0.0054886234,-0.037475586,0.0,0.0,0.0,0.0,0.0,0.0,0.0,-0.040740967,0.0,0.0,0.0,0.0,0.00041410327,-0.0004121,0.00039106607,0.00041410327,-0.0014056268,-0.0017187224,-3.2186508e-06,0.0,0.0,0.0,0.0,0.0,0.0
1594300000,1594144000,-0.05064045,-0.008706085,0.0031363769,-0.027922234,-0.0054886234,-0.037475586,0.0,0.0,0.0,0.0,0.0,0.0,0.0,-0.040740967,0.0,0.0,0.0,0.0,0.00041410327,-0.0004121,0.00039106607,0.00041410327,0.0045445673,-0.0056296065,5.364418e-07,0.0,0.0,0.0,0.0,0.0,0.0
1594308000,1594152000,-0.05064045,-0.008706085,0.0031363769,-0.027922234,-0.0054886234,-0.037475586,0.0,0.0,0.0,0.0,0.0,0.0,0.0,-0.040740967,0.0,0.0,0.0,0.0,0.00041410327,-0.0004121,0.00039106607,0.00041410327,0.00072571565,-0.0051058074,0.0,0.0,0.0,0.0,0.0,0.0,0.0
1594316000,1594160000,-0.05064045,-0.008706085,0.0031363769,-0.027922234,-0.0054886234,-0.037475586,0.0,0.0,0.0,0.0,0.0,0.0,0.0,-0.040740967,0.0,0.0,0.0,0.0,0.00041410327,-0.0004121,0.00039106607,0.00041410327,0.011973976,-0.0059824064,-4.0113926e-05,0.0,0.0,0.0,0.0,0.0,0.0
1594324000,1594168000,-0.05064045,-0.008706085,0.0031363769,-0.027922234,-0.0054886234,-0.037475586,0.0,0.0,0.0,0.0,0.0,0.0,0.0,0.053894043,0.0,0.0,0.0,0.0,0.00041410327,-0.0004121,0.00039106607,0.00041410327,0.0077445284,-0.002280273,-2.9802322e-06,0.0,0.0,0.0,0.0,0.0,0.0
1594340000,1594184000,-0.05064045,-0.008706085,0.0031363769,-0.027922234,-0.0054886234,-0.037475586,0.0,0.0,0.0,0.0,0.0,0.0,0.0,0.053894043,0.0,0.0,0.0,0.0,0.00041410327,-0.0004121,0.00039106607,0.00041410327,0.0049966085,0.0038799034,-1.3589859e-05,0.0,0.0,0.0,0.0,0.0,0.0
1594348000,1594192000,-0.05064045,-0.008706085,0.0031363769,-0.027922234,-0.0054886234,-0.037475586,0.0,0.0,0.0,0.0,0.0,0.0,0.0,0.053894043,0.0,0.0,0.0,0.0,-0.001740843,-0.0024919994,-0.0025127083,-0.001740843,0.007880377,-0.008569302,-2.2888184e-05,0.0,0.0,0.0,0.0,0.0,0.0
1594356000,1594200000,-0.05064045,-0.008706085,0.0031363769,-0.027922234,-0.0054886234,-0.037475586,0.0,0.0,0.0,0.0,0.0,0.0,0.0,0.053894043,0.0,0.0,0.0,0.0,-0.001740843,-0.0024919994,-0.0025127083,-0.001740843,0.0030372317,-0.0018364077,7.2717667e-06,0.0,0.0,0.0,0.0,0.0,0.0
1594364000,1594208000,-0.05064045,-0.008706085,0.0031363769,-0.027922234,-0.0054886234,-0.037475586,0.0,0.0,0.0,0.0,0.0,0.0,0.0,0.053894043,0.0,0.0,0.0,0.0,-0.001740843,-0.0024919994,-0.0025127083,-0.001740843,0.007925425,0.0102768205,-8.6426735e-05,0.0,0.0,0.0,0.0,0.0,0.0
1594380000,1594224000,-0.05064045,-0.008706085,0.0031363769,-0.027922234,-0.0054886234,-0.037475586,0.0,0.0,0.0,0.0,0.0,0.0,0.0,0.053894043,0.0,0.0,0.0,0.0,-0.001740843,-0.0024919994,-0.0025127083,-0.001740843,-0.0028554199,-0.0023553343,-9.179115e-06,0.0,0.0,0.0,0.0,0.0,0.0
1594388000,1594232000,-0.05064045,-0.008706085,0.0031363769,-0.027922234,-0.0054886234,-0.037475586,0.0,0.0,0.0,0.0,0.0,0.0,0.0,0.053894043,0.0,0.0,0.0,0.0,-0.001740843,-0.0024919994,-0.0025127083,-0.001740843,0.0022781123,-0.007838562,-6.914139e-06,0.0,0.0,0.0,0.0,0.0,0.0
1594396000,1594240000,-0.068754986,-0.03283511,-0.0017250851,-0.028553482,-0.009620557,-0.031219482,0.0,0.0,0.0,0.0,0.0,0.0,0.0,0.057800293,0.0,0.0,0.0,0.0,-0.001740843,-0.0024919994,-0.0025127083,-0.001740843,0.01132247,-0.003700979,-3.1471252e-05,0.0,0.0,0.0,0.0,0.0,0.0
