timestamp,timestamp_sample,baro_device_id,baro_alt_meter,baro_pressure_pa,ambient_temperature,rho,temperature_source,calibration_count
1592224000,1592200000,6620172,488.06995,95598.375,15.0,1.1555765,0,1
1592296000,1592272000,6620172,488.0981,95598.055,15.0,1.1555727,0,1
1592368000,1592344000,6620172,488.13098,95597.73,15.0,1.1555686,0,1
1592440000,1592416000,6620172,488.0887,95598.21,15.0,1.1555746,0,1
1592512000,1592488000,6620172,488.0089,95599.1,15.0,1.1555852,0,1
1592584000,1592558666,6620172,488.15915,95597.37,15.0,1.1555642,0,1
1592656000,1592630666,6620172,488.16385,95597.305,15.0,1.1555635,0,1
1592728000,1592704000,6620172,488.16855,95597.25,15.0,1.1555629,0,1
1592800000,1592774666,6620172,488.12158,95597.81,15.0,1.1555697,0,1
1592868000,1592845333,6620172,488.0042,95599.125,15.0,1.1555855,0,1
1592920000,1592908000,6620172,488.13098,95597.7,15.0,1.1555684,0,1
1592992000,1592966666,6620172,488.20142,95596.88,15.0,1.1555585,0,1
1593064000,1593040000,6620172,488.17325,95597.19,15.0,1.1555622,0,1
1593132000,1593110666,6620172,488.15915,95597.375,15.0,1.1555643,0,1
1593184000,1593172000,6620172,488.13098,95597.69,15.0,1.1555681,0,1
1593252000,1593229333,6620172,488.06995,95598.375,15.0,1.1555765,0,1
1593304000,1593292000,6620172,488.06525,95598.45,15.0,1.1555774,0,1
1593376000,1593350666,6620172,488.07935,95598.26,15.0,1.155575,0,1
1593448000,1593422666,6620172,488.17325,95597.19,15.0,1.1555622,0,1
1593520000,1593496000,6620172,488.03238,95598.84,15.0,1.1555822,0,1
1593592000,1593566666,6620172,488.13098,95597.69,15.0,1.1555681,0,1
1593664000,1593637333,6620172,488.13568,95597.65,15.0,1.1555678,0,1
1593736000,1593712000,6620172,488.0981,95598.04,15.0,1.1555724,0,1
1593804000,1593781333,6620172,488.06525,95598.44,15.0,1.1555773,0,1
1593856000,1593842000,6620172,488.1122,95597.9,15.0,1.1555707,0,1
1593924000,1593902666,6620172,488.22488,95596.6,15.0,1.155555,0,1
1593976000,1593964000,6620172,488.03238,95598.84,15.0,1.1555822,0,1
1594048000,1594024000,6620172,488.0887,95598.21,15.0,1.1555746,0,1
1594120000,1594096000,6620172,488.06995,95598.375,15.0,1.1555765,0,1
1594192000,1594166666,6620172,488.16385,95597.28,15.0,1.1555632,0,1
1594264000,1594238666,6620172,488.16855,95597.25,15.0,1.1555629,0,1
1594336000,1594312000,6620172,488.1122,95597.94,15.0,1.1555712,0,1
1594408000,1594382666,6620172,488.07465,95598.336,15.0,1.155576,0,1
1594480000,1594453333,6620172,488.1169,95597.836,15.0,1.1555699,0,1
1594548000,1594526666,6620172,488.1122,95597.88,15.0,1.1555705,0,1
1594600000,1594586000,6620172,488.1169,95597.84,15.0,1.15557,0,1
1594668000,1594646666,6620172,488.15915,95597.34,15.0,1.1555641,0,1
1594720000,1594708000,6620172,488.0934,95598.15,15.0,1.1555737,0,1
1594792000,1594766666,6620172,488.13568,95597.664,15.0,1.1555679,0,1
1594864000,1594840000,6620172,488.06055,95598.47,15.0,1.1555775,0,1
1594936000,1594912000,6620172,488.1028,95598.0,15.0,1.1555719,0,1
1595008000,1594984000,6620172,488.18262,95597.125,15.0,1.1555613,0,1
1595080000,1595056000,6620172,488.12158,95597.81,15.0,1.1555697,0,1
1595152000,1595128000,6620172,488.1028,95597.98,15.0,1.1555717,0,1
1595224000,1595200000,6620172,488.04648,95598.69,15.0,1.1555803,0,1
1595296000,1595272000,6620172,488.0981,95598.07,15.0,1.1555728,0,1
1595364000,1595342666,6620172,488.05588,95598.53,15.0,1.1555784,0,1
1595416000,1595404000,6620172,488.15445,95597.445,15.0,1.1555651,0,1
1595488000,1595462666,6620172,488.17795,95597.15,15.0,1.1555616,0,1
1595560000,1595536000,6620172,488.13568,95597.66,15.0,1.1555678,0,1
1595632000,1595606666,6620172,488.04178,95598.73,15.0,1.1555808,0,1
1595704000,1595678666,6620172,488.1169,95597.82,15.0,1.1555698,0,1
1595776000,1595750666,6620172,488.0981,95598.055,15.0,1.1555727,0,1
1595848000,1595822666,6620172,488.16385,95597.31,15.0,1.1555636,0,1
1595916000,1595894666,6620172,488.1122,95597.88,15.0,1.1555705,0,1
1595968000,1595956000,6620172,488.13098,95597.7,15.0,1.1555684,0,1
1596040000,1596014666,6620172,488.18262,95597.125,15.0,1.1555613,0,1
1596112000,1596088000,6620172,488.1122,95597.88,15.0,1.1555705,0,1
1596184000,1596158666,6620172,488.1122,95597.914,15.0,1.1555709,0,1
1596256000,1596230666,6620172,488.16855,95597.27,15.0,1.1555632,0,1
1596328000,1596302666,6620172,488.14508,95597.49,15.0,1.1555659,0,1
1596396000,1596374666,6620172,488.12158,95597.805,15.0,1.1555696,0,1
1596448000,1596436000,6620172,488.12158,95597.8,15.0,1.1555696,0,1
1596520000,1596494666,6620172,488.12628,95597.75,15.0,1.155569,0,1
1596592000,1596568000,6620172,488.04178,95598.73,15.0,1.1555808,0,1
1596664000,1596640000,6620172,488.05588,95598.54,15.0,1.1555785,0,1
1596736000,1596712000,6620172,488.1028,95598.0,15.0,1.1555719,0,1
1596808000,1596784000,6620172,488.07465,95598.31,15.0,1.1555756,0,1
1596880000,1596856000,6620172,488.16385,95597.29,15.0,1.1555634,0,1
1596952000,1596925333,6620172,488.1028,95597.99,15.0,1.1555718,0,1
1597020000,1596998666,6620172,488.18262,95597.12,15.0,1.1555613,0,1
1597096000,1597070666,6620172,488.15915,95597.35,15.0,1.1555642,0,1
1597168000,1597142666,6620172,488.13568,95597.66,15.0,1.1555678,0,1
1597236000,1597214666,6620172,488.16385,95597.29,15.0,1.1555634,0,1
1597288000,1597276000,6620172,488.19202,95597.03,15.0,1.1555603,0,1
1597356000,1597334666,6620172,488.15445,95597.44,15.0,1.1555651,0,1
1597408000,1597396000,6620172,488.21548,95596.75,15.0,1.1555568,0,1
1597480000,1597454666,6620172,488.15915,95597.38,15.0,1.1555644,0,1
1597552000,1597528000,6620172,488.16855,95597.25,15.0,1.1555629,0,1
1597624000,1597597333,6620172,488.3282,95595.4,15.0,1.1555405,0,1
1597696000,1597672000,6620172,488.27182,95596.06,15.0,1.1555486,0,1
1597768000,1597742666,6620172,488.30002,95595.75,15.0,1.1555448,0,1
1597840000,1597816000,6620172,488.36572,95595.0,15.0,1.1555357,0,1
1597908000,1597886666,6620172,488.37042,95594.94,15.0,1.1555349,0,1
1597960000,1597946000,6620172,488.46432,95593.86,15.0,1.1555219,0,1
1598028000,1598006666,6620172,488.4925,95593.54,15.0,1.155518,0,1
1598080000,1598068000,6620172,488.42676,95594.305,15.0,1.1555272,0,1
1598152000,1598128000,6620172,488.5817,95592.54,15.0,1.1555059,0,1
1598224000,1598200000,6620172,488.6803,95591.414,15.0,1.1554923,0,1
1598296000,1598272000,6620172,488.72256,95590.9,15.0,1.1554861,0,1
1598368000,1598342666,6620172,488.79297,95590.09,15.0,1.1554763,0,1
1598440000,1598414666,6620172,488.88217,95589.086,15.0,1.1554642,0,1
1598512000,1598488000,6620172,488.80237,95590.01,15.0,1.1554754,0,1
1598580000,1598557333,6620172,488.89157,95588.99,15.0,1.1554631,0,1
1598632000,1598620000,6620172,488.962,95588.17,15.0,1.1554532,0,1
1598704000,1598678666,6620172,489.0371,95587.31,15.0,1.1554427,0,1
1598776000,1598752000,6620172,489.03244,95587.37,15.0,1.1554434,0,1
1598844000,1598822666,6620172,489.17328,95585.74,15.0,1.1554238,0,1
1598896000,1598884000,6620172,489.15918,95585.914,15.0,1.1554258,0,1
1598968000,1598941333,6620172,489.16388,95585.836,15.0,1.1554248,0,1
1599040000,1599014666,6620172,489.27188,95584.62,15.0,1.1554102,0,1
1599108000,1599086666,6620172,489.2249,95585.195,15.0,1.1554171,0,1
1599160000,1599148000,6620172,489.35638,95583.625,15.0,1.1553981,0,1
1599232000,1599208000,6620172,489.42212,95582.875,15.0,1.1553891,0,1
1599300000,1599278666,6620172,489.51132,95581.875,15.0,1.155377,0,1
1599352000,1599340000,6620172,489.49722,95582.08,15.0,1.1553794,0,1
1599424000,1599400000,6620172,489.624,95580.586,15.0,1.1553614,0,1
1599492000,1599470666,6620172,489.66626,95580.12,15.0,1.1553558,0,1
1599544000,1599532000,6620172,489.65216,95580.25,15.0,1.1553574,0,1
1599616000,1599590666,6620172,489.7085,95579.625,15.0,1.1553497,0,1
1599688000,1599664000,6620172,489.86343,95577.85,15.0,1.1553284,0,1
1599756000,1599734666,6620172,489.92447,95577.15,15.0,1.1553199,0,1
1599808000,1599796000,6620172,489.9855,95576.47,15.0,1.1553117,0,1
1599880000,1599856000,6620172,490.009,95576.19,15.0,1.1553082,0,1
1599952000,1599926666,6620172,490.03717,95575.82,15.0,1.1553038,0,1
1600024000,1600000000,6620172,490.11697,95574.94,15.0,1.1552931,0,1
1600096000,1600072000,6620172,490.13107,95574.805,15.0,1.1552916,0,1
1600168000,1600144000,6620172,490.12637,95574.82,15.0,1.1552918,0,1
1600240000,1600216000,6620172,490.2813,95573.04,15.0,1.1552702,0,1
1600312000,1600286666,6620172,490.22028,95573.77,15.0,1.1552792,0,1
1600384000,1600360000,6620172,490.38458,95571.88,15.0,1.1552563,0,1
1600452000,1600430666,6620172,490.3752,95571.99,15.0,1.1552576,0,1
1600504000,1600490000,6620172,490.2813,95573.04,15.0,1.1552702,0,1
1600576000,1600550666,6620172,490.44562,95571.195,15.0,1.1552479,0,1
1600648000,1600624000,6620172,490.46442,95570.98,15.0,1.1552453,0,1
1600720000,1600696000,6620172,490.4691,95570.91,15.0,1.1552444,0,1
1600792000,1600768000,6620172,490.53012,95570.195,15.0,1.1552358,0,1
1600864000,1600840000,6620172,490.5724,95569.72,15.0,1.15523,0,1
1600932000,1600910666,6620172,490.60056,95569.414,15.0,1.1552263,0,1
1600984000,1600972000,6620172,490.62402,95569.1,15.0,1.1552225,0,1
1601056000,1601032000,6620172,490.5865,95569.57,15.0,1.1552283,0,1
1601128000,1601104000,6620172,490.69916,95568.305,15.0,1.155213,0,1
1601200000,1601174666,6620172,490.64282,95568.9,15.0,1.1552202,0,1
1601272000,1601246666,6620172,490.68506,95568.41,15.0,1.1552142,0,1
1601344000,1601318666,6620172,490.6757,95568.555,15.0,1.155216,0,1
1601412000,1601389333,6620172,490.68506,95568.4,15.0,1.1552141,0,1
1601464000,1601452000,6620172,490.70386,95568.21,15.0,1.1552119,0,1
1601536000,1601512000,6620172,490.71323,95568.1,15.0,1.1552105,0,1
1601608000,1601584000,6620172,490.72733,95567.97,15.0,1.155209,0,1
1601680000,1601656000,6620172,490.79306,95567.21,15.0,1.1551998,0,1
1601748000,1601726666,6620172,490.63812,95568.96,15.0,1.1552209,0,1
1601800000,1601788000,6620172,490.72733,95567.97,15.0,1.155209,0,1
1601872000,1601846666,6620172,490.78836,95567.22,15.0,1.1551998,0,1
1601944000,1601920000,6620172,490.77426,95567.375,15.0,1.1552017,0,1
1602016000,1601992000,6620172,490.74142,95567.77,15.0,1.1552066,0,1
1602088000,1602062666,6620172,490.8541,95566.49,15.0,1.1551912,0,1
1602160000,1602134666,6620172,490.88696,95566.125,15.0,1.1551867,0,1
1602232000,1602208000,6620172,490.8588,95566.445,15.0,1.1551905,0,1
1602304000,1602280000,6620172,490.86816,95566.34,15.0,1.1551893,0,1
1602372000,1602350666,6620172,490.89633,95565.99,15.0,1.155185,0,1
1602424000,1602412000,6620172,490.78836,95567.22,15.0,1.1551998,0,1
1602496000,1602472000,6620172,490.84,95566.664,15.0,1.1551931,0,1
1602568000,1602544000,6620172,490.98087,95565.02,15.0,1.1551733,0,1
1602640000,1602616000,6620172,490.9339,95565.56,15.0,1.1551797,0,1
1602712000,1602686666,6620172,490.89166,95566.09,15.0,1.1551863,0,1
1602784000,1602760000,6620172,490.9292,95565.65,15.0,1.1551808,0,1
1602856000,1602830666,6620172,491.0184,95564.586,15.0,1.155168,0,1
1602928000,1602904000,6620172,490.9386,95565.51,15.0,1.1551791,0,1
1603000000,1602976000,6620172,491.00903,95564.73,15.0,1.1551697,0,1
1603072000,1603048000,6620172,490.90573,95565.9,15.0,1.1551839,0,1
1603144000,1603120000,6620172,490.9433,95565.44,15.0,1.1551783,0,1
1603216000,1603192000,6620172,490.91043,95565.836,15.0,1.1551832,0,1
1603288000,1603264000,6620172,490.97147,95565.15,15.0,1.1551749,0,1
1603360000,1603336000,6620172,491.0278,95564.5,15.0,1.155167,0,1
1603432000,1603408000,6620172,491.1264,95563.38,15.0,1.1551535,0,1
1603504000,1603480000,6620172,490.99963,95564.85,15.0,1.1551713,0,1
1603576000,1603552000,6620172,491.00903,95564.73,15.0,1.1551697,0,1
1603648000,1603624000,6620172,490.98087,95565.06,15.0,1.1551738,0,1
1603720000,1603696000,6620172,491.05127,95564.23,15.0,1.1551636,0,1
1603792000,1603768000,6620172,491.05127,95564.23,15.0,1.1551636,0,1
1603864000,1603840000,6620172,491.05127,95564.22,15.0,1.1551636,0,1
1603936000,1603912000,6620172,491.0466,95564.26,15.0,1.1551641,0,1
1604008000,1603984000,6620172,491.0325,95564.48,15.0,1.1551667,0,1
1604080000,1604056000,6620172,491.07007,95564.01,15.0,1.155161,0,1
1604152000,1604128000,6620172,490.99963,95564.82,15.0,1.1551709,0,1
1604224000,1604200000,6620172,491.09824,95563.73,15.0,1.1551577,0,1
1604296000,1604272000,6620172,491.06067,95564.1,15.0,1.1551622,0,1
1604368000,1604344000,6620172,491.10294,95563.62,15.0,1.1551563,0,1
1604440000,1604416000,6620172,491.14987,95563.086,15.0,1.1551499,0,1
1604512000,1604488000,6620172,491.07477,95563.97,15.0,1.1551607,0,1
1604584000,1604560000,6620172,490.99963,95564.85,15.0,1.1551713,0,1
1604656000,1604632000,6620172,491.0419,95564.336,15.0,1.155165,0,1
1604728000,1604704000,6620172,491.1264,95563.4,15.0,1.1551536,0,1
1604800000,1604774666,6620172,491.08884,95563.77,15.0,1.1551582,0,1
1604872000,1604848000,6620172,491.09824,95563.73,15.0,1.1551577,0,1
1604940000,1604918666,6620172,491.09824,95563.71,15.0,1.1551574,0,1
1604992000,1604980000,6620172,491.06537,95564.08,15.0,1.1551619,0,1
1605060000,1605038666,6620172,491.06067,95564.125,15.0,1.1551625,0,1
1605112000,1605100000,6620172,491.0325,95564.45,15.0,1.1551665,0,1
1605184000,1605157333,6620172,491.0419,95564.34,15.0,1.1551651,0,1
1605252000,1605230666,6620172,491.06537,95564.04,15.0,1.1551615,0,1
1605304000,1605292000,6620172,491.09824,95563.72,15.0,1.1551576,0,1
1605376000,1605352000,6620172,491.10764,95563.57,15.0,1.1551558,0,1
1605448000,1605424000,6620172,491.1311,95563.336,15.0,1.1551529,0,1
1605520000,1605494666,6620172,491.06537,95564.07,15.0,1.1551617,0,1
1605592000,1605568000,6620172,491.09354,95563.75,15.0,1.1551579,0,1
1605664000,1605640000,6620172,491.117,95563.49,15.0,1.1551548,0,1
1605732000,1605710666,6620172,491.14047,95563.195,15.0,1.1551512,0,1
1605784000,1605770000,6620172,491.06067,95564.14,15.0,1.1551627,0,1
1605856000,1605832000,6620172,491.17804,95562.78,15.0,1.1551462,0,1
1605928000,1605904000,6620172,491.14047,95563.23,15.0,1.1551516,0,1
1606000000,1605976000,6620172,491.1311,95563.31,15.0,1.1551527,0,1
1606072000,1606046666,6620172,491.10764,95563.6,15.0,1.1551561,0,1
1606144000,1606120000,6620172,491.07944,95563.91,15.0,1.1551598,0,1
1606216000,1606192000,6620172,491.19214,95562.63,15.0,1.1551445,0,1
1606288000,1606262666,6620172,491.2109,95562.43,15.0,1.155142,0,1
1606360000,1606336000,6620172,491.09824,95563.71,15.0,1.1551574,0,1
1606432000,1606408000,6620172,491.07477,95563.945,15.0,1.1551603,0,1
1606504000,1606480000,6620172,491.07944,95563.914,15.0,1.1551598,0,1
1606576000,1606552000,6620172,491.07477,95564.0,15.0,1.1551609,0,1
1606644000,1606622666,6620172,491.1311,95563.336,15.0,1.1551529,0,1
1606696000,1606684000,6620172,491.15927,95563.0,15.0,1.1551489,0,1
1606768000,1606744000,6620172,491.1311,95563.32,15.0,1.1551528,0,1
1606840000,1606816000,6620172,491.10294,95563.625,15.0,1.1551564,0,1
1606912000,1606888000,6620172,491.17804,95562.77,15.0,1.1551461,0,1
1606984000,1606960000,6620172,491.0466,95564.27,15.0,1.1551642,0,1
1607056000,1607032000,6620172,491.117,95563.5,15.0,1.155155,0,1
1607128000,1607104000,6620172,491.09824,95563.72,15.0,1.1551576,0,1
1607196000,1607174666,6620172,491.18274,95562.75,15.0,1.1551458,0,1
1607248000,1607236000,6620172,491.17334,95562.83,15.0,1.1551467,0,1
1607320000,1607294666,6620172,491.16397,95562.945,15.0,1.1551483,0,1
1607392000,1607368000,6620172,491.1311,95563.32,15.0,1.1551528,0,1
1607464000,1607440000,6620172,491.1264,95563.4,15.0,1.1551536,0,1
1607536000,1607510666,6620172,491.1311,95563.336,15.0,1.1551529,0,1
1607608000,1607584000,6620172,491.16397,95562.98,15.0,1.1551485,0,1
1607680000,1607656000,6620172,491.15457,95563.04,15.0,1.1551493,0,1
1607752000,1607726666,6620172,491.117,95563.48,15.0,1.1551546,0,1
1607824000,1607800000,6620172,491.1311,95563.29,15.0,1.1551523,0,1
1607896000,1607872000,6620172,491.14047,95563.22,15.0,1.1551515,0,1
1607968000,1607942666,6620172,491.24377,95562.04,15.0,1.1551372,0,1
1608040000,1608016000,6620172,491.08884,95563.81,15.0,1.1551588,0,1
1608112000,1608086666,6620172,491.15927,95563.01,15.0,1.155149,0,1
1608184000,1608160000,6620172,491.14517,95563.15,15.0,1.1551507,0,1
1608256000,1608232000,6620172,491.16867,95562.9,15.0,1.1551476,0,1
1608328000,1608304000,6620172,491.16867,95562.88,15.0,1.1551476,0,1
1608400000,1608374666,6620172,491.10764,95563.59,15.0,1.155156,0,1
1608472000,1608448000,6620172,491.15457,95563.06,15.0,1.1551496,0,1
1608544000,1608520000,6620172,491.10764,95563.59,15.0,1.155156,0,1
1608616000,1608592000,6620172,491.18274,95562.72,15.0,1.1551455,0,1
1608688000,1608664000,6620172,491.18274,95562.73,15.0,1.1551456,0,1
1608760000,1608736000,6620172,491.16397,95562.96,15.0,1.1551485,0,1
1608832000,1608808000,6620172,491.16397,95562.94,15.0,1.1551481,0,1
1608904000,1608880000,6620172,491.08884,95563.81,15.0,1.1551588,0,1
1608976000,1608950666,6620172,491.1123,95563.53,15.0,1.1551553,0,1
1609048000,1609024000,6620172,491.1311,95563.31,15.0,1.1551527,0,1
1609120000,1609096000,6620172,491.16397,95562.93,15.0,1.155148,0,1
1609192000,1609168000,6620172,491.1217,95563.46,15.0,1.1551545,0,1
1609264000,1609240000,6620172,491.08884,95563.81,15.0,1.1551588,0,1
1609336000,1609312000,6620172,491.06537,95564.04,15.0,1.1551615,0,1
1609408000,1609382666,6620172,491.2156,95562.32,15.0,1.1551406,0,1
1609480000,1609456000,6620172,491.07477,95563.98,15.0,1.1551607,0,1
1609552000,1609528000,6620172,491.117,95563.49,15.0,1.1551548,0,1
1609624000,1609600000,6620172,491.19684,95562.56,15.0,1.1551436,0,1
1609696000,1609672000,6620172,491.06067,95564.13,15.0,1.1551626,0,1
1609764000,1609742666,6620172,491.06537,95564.07,15.0,1.1551617,0,1
1609816000,1609804000,6620172,491.23438,95562.12,15.0,1.1551381,0,1
1609884000,1609862666,6620172,491.16397,95562.97,15.0,1.1551485,0,1
1609936000,1609924000,6620172,491.16397,95562.92,15.0,1.1551479,0,1
1610008000,1609984000,6620172,491.09824,95563.69,15.0,1.1551571,0,1
1610080000,1610054666,6620172,491.17334,95562.84,15.0,1.155147,0,1
1610148000,1610126666,6620172,491.225,95562.27,15.0,1.15514,0,1
1610200000,1610188000,6620172,491.1217,95563.45,15.0,1.1551543,0,1
1610272000,1610248000,6620172,491.10764,95563.555,15.0,1.1551555,0,1
1610344000,1610320000,6620172,491.17334,95562.85,15.0,1.1551471,0,1
1610416000,1610390666,6620172,491.19214,95562.6,15.0,1.1551441,0,1
1610488000,1610464000,6620172,491.18744,95562.65,15.0,1.1551447,0,1
1610560000,1610536000,6620172,491.15927,95563.0,15.0,1.1551489,0,1
1610632000,1610608000,6620172,491.1264,95563.35,15.0,1.1551532,0,1
1610704000,1610678666,6620172,491.16867,95562.88,15.0,1.1551476,0,1
1610776000,1610752000,6620172,491.14987,95563.12,15.0,1.1551503,0,1
1610848000,1610824000,6620172,491.09824,95563.73,15.0,1.1551577,0,1
1610920000,1610896000,6620172,491.14517,95563.16,15.0,1.1551508,0,1
1610992000,1610968000,6620172,491.07944,95563.914,15.0,1.1551598,0,1
1611060000,1611038666,6620172,491.10764,95563.56,15.0,1.1551557,0,1
1611112000,1611100000,6620172,491.19214,95562.586,15.0,1.1551439,0,1
1611184000,1611160000,6620172,491.08414,95563.875,15.0,1.1551595,0,1
1611256000,1611232000,6620172,491.1311,95563.31,15.0,1.1551527,0,1
1611328000,1611304000,6620172,491.05597,95564.19,15.0,1.1551633,0,1
1611400000,1611376000,6620172,491.16397,95562.93,15.0,1.155148,0,1
1611472000,1611448000,6620172,491.10294,95563.664,15.0,1.155157,0,1
1611544000,1611520000,6620172,491.19684,95562.56,15.0,1.1551436,0,1
1611616000,1611592000,6620172,491.05597,95564.18,15.0,1.1551632,0,1
1611688000,1611662666,6620172,491.0184,95564.586,15.0,1.155168,0,1
1611760000,1611736000,6620172,491.117,95563.47,15.0,1.1551545,0,1
1611832000,1611808000,6620172,491.14987,95563.086,15.0,1.1551499,0,1
1611904000,1611880000,6620172,491.1311,95563.28,15.0,1.1551522,0,1
1611976000,1611950666,6620172,491.0419,95564.32,15.0,1.1551648,0,1
1612048000,1612022666,6620172,491.27664,95561.625,15.0,1.1551323,0,1
1612120000,1612096000,6620172,491.18744,95562.664,15.0,1.1551448,0,1
1612192000,1612168000,6620172,491.1358,95563.27,15.0,1.1551522,0,1
1612264000,1612238666,6620172,491.19214,95562.6,15.0,1.1551441,0,1
1612336000,1612312000,6620172,491.06067,95564.15,15.0,1.1551627,0,1
1612408000,1612384000,6620172,491.1217,95563.44,15.0,1.1551541,0,1
1612476000,1612454666,6620172,491.1123,95563.54,15.0,1.1551554,0,1
1612528000,1612516000,6620172,491.2015,95562.516,15.0,1.155143,0,1
1612596000,1612574666,6620172,491.16397,95562.97,15.0,1.1551485,0,1
1612648000,1612636000,6620172,491.08414,95563.86,15.0,1.1551592,0,1
1612720000,1612696000,6620172,491.09354,95563.76,15.0,1.1551579,0,1
1612792000,1612768000,6620172,491.0325,95564.44,15.0,1.1551663,0,1
1612864000,1612840000,6620172,491.14517,95563.164,15.0,1.1551509,0,1
1612936000,1612912000,6620172,491.14517,95563.13,15.0,1.1551504,0,1
1613008000,1612984000,6620172,491.19214,95562.586,15.0,1.1551439,0,1
1613080000,1613056000,6620172,491.2062,95562.46,15.0,1.1551423,0,1
1613152000,1613128000,6620172,491.19684,95562.57,15.0,1.1551437,0,1
1613224000,1613198666,6620172,491.06067,95564.15,15.0,1.1551627,0,1
1613296000,1613272000,6620172,491.2062,95562.445,15.0,1.1551422,0,1
1613368000,1613344000,6620172,491.16397,95562.98,15.0,1.1551485,0,1
1613440000,1613416000,6620172,491.1217,95563.41,15.0,1.1551538,0,1
1613508000,1613486666,6620172,491.18744,95562.664,15.0,1.1551448,0,1
1613560000,1613548000,6620172,491.09354,95563.75,15.0,1.1551579,0,1
1613632000,1613608000,6620172,491.10764,95563.6,15.0,1.1551561,0,1
1613704000,1613678666,6620172,491.2297,95562.164,15.0,1.1551389,0,1
1613776000,1613752000,6620172,491.17334,95562.84,15.0,1.155147,0,1
1613848000,1613824000,6620172,491.1264,95563.4,15.0,1.1551536,0,1
1613916000,1613894666,6620172,491.14517,95563.164,15.0,1.1551509,0,1
1613968000,1613956000,6620172,491.1264,95563.36,15.0,1.1551532,0,1
1614040000,1614016000,6620172,491.17334,95562.805,15.0,1.1551466,0,1
1614112000,1614088000,6620172,491.15927,95563.02,15.0,1.1551492,0,1
1614184000,1614160000,6620172,491.16867,95562.875,15.0,1.1551474,0,1
1614256000,1614232000,6620172,491.1217,95563.414,15.0,1.1551539,0,1
1614328000,1614304000,6620172,491.1264,95563.37,15.0,1.1551533,0,1
1614400000,1614376000,6620172,491.14047,95563.21,15.0,1.1551514,0,1
1614472000,1614448000,6620172,491.17334,95562.836,15.0,1.1551468,0,1
1614544000,1614520000,6620172,491.19214,95562.63,15.0,1.1551445,0,1
1614616000,1614592000,6620172,491.2109,95562.43,15.0,1.155142,0,1
1614684000,1614662666,6620172,491.16867,95562.88,15.0,1.1551476,0,1
1614736000,1614724000,6620172,491.05597,95564.19,15.0,1.1551633,0,1
1614808000,1614784000,6620172,491.117,95563.47,15.0,1.1551545,0,1
1614880000,1614856000,6620172,491.1311,95563.32,15.0,1.1551528,0,1
1614952000,1614928000,6620172,491.06067,95564.15,15.0,1.1551627,0,1
1615024000,1615000000,6620172,491.14047,95563.195,15.0,1.1551512,0,1
1615096000,1615072000,6620172,491.06537,95564.055,15.0,1.1551616,0,1
1615168000,1615144000,6620172,491.00433,95564.79,15.0,1.1551704,0,1
1615240000,1615216000,6620172,491.10764,95563.586,15.0,1.155156,0,1
1615312000,1615288000,6620172,491.06067,95564.15,15.0,1.1551627,0,1
1615384000,1615360000,6620172,491.0184,95564.6,15.0,1.1551683,0,1
1615456000,1615432000,6620172,491.0278,95564.49,15.0,1.1551669,0,1
1615528000,1615504000,6620172,491.09824,95563.68,15.0,1.1551571,0,1
1615600000,1615576000,6620172,491.07477,95563.98,15.0,1.1551607,0,1
1615672000,1615646666,6620172,491.1358,95563.26,15.0,1.155152,0,1
1615744000,1615720000,6620172,491.00433,95564.77,15.0,1.1551703,0,1
1615816000,1615790666,6620172,491.07007,95564.02,15.0,1.1551613,0,1
1615888000,1615864000,6620172,491.0372,95564.375,15.0,1.1551656,0,1
1615960000,1615936000,6620172,490.97617,95565.086,15.0,1.1551741,0,1
1616032000,1616008000,6620172,491.1217,95563.43,15.0,1.1551541,0,1
1616104000,1616080000,6620172,491.08414,95563.87,15.0,1.1551594,0,1
1616176000,1616152000,6620172,491.117,95563.5,15.0,1.155155,0,1
1616248000,1616224000,6620172,491.10294,95563.66,15.0,1.1551569,0,1
1616320000,1616296000,6620172,491.07477,95563.98,15.0,1.1551607,0,1
1616392000,1616366666,6620172,491.0184,95564.586,15.0,1.155168,0,1
1616464000,1616438666,6620172,491.00903,95564.73,15.0,1.1551697,0,1
1616536000,1616512000,6620172,491.0372,95564.38,15.0,1.1551656,0,1
1616608000,1616582666,6620172,491.0325,95564.47,15.0,1.1551666,0,1
1616680000,1616656000,6620172,491.0325,95564.46,15.0,1.1551665,0,1
1616752000,1616728000,6620172,491.09824,95563.69,15.0,1.1551571,0,1
1616824000,1616800000,6620172,490.99963,95564.836,15.0,1.1551712,0,1
1616896000,1616872000,6620172,491.07944,95563.93,15.0,1.1551601,0,1
1616968000,1616944000,6620172,491.1217,95563.44,15.0,1.1551541,0,1
1617040000,1617014666,6620172,490.99963,95564.836,15.0,1.1551712,0,1
1617112000,1617088000,6620172,491.08414,95563.836,15.0,1.1551589,0,1
1617184000,1617158666,6620172,491.08414,95563.85,15.0,1.1551591,0,1
1617256000,1617232000,6620172,491.05597,95564.18,15.0,1.1551632,0,1
1617328000,1617304000,6620172,491.07007,95564.03,15.0,1.1551614,0,1
1617400000,1617376000,6620172,491.08884,95563.78,15.0,1.1551583,0,1
1617472000,1617448000,6620172,491.00433,95564.79,15.0,1.1551704,0,1
1617544000,1617520000,6620172,490.98557,95565.0,15.0,1.1551731,0,1
1617616000,1617592000,6620172,491.0231,95564.54,15.0,1.1551675,0,1
1617688000,1617664000,6620172,491.0466,95564.29,15.0,1.1551645,0,1
1617760000,1617736000,6620172,491.0325,95564.46,15.0,1.1551665,0,1
1617832000,1617808000,6620172,490.95737,95565.305,15.0,1.1551768,0,1
1617904000,1617880000,6620172,491.0325,95564.445,15.0,1.1551664,0,1
1617976000,1617952000,6620172,491.0466,95564.25,15.0,1.155164,0,1
1618048000,1618024000,6620172,491.05127,95564.23,15.0,1.1551636,0,1
1618120000,1618096000,6620172,491.06067,95564.15,15.0,1.1551627,0,1
1618192000,1618168000,6620172,491.0278,95564.49,15.0,1.1551669,0,1
1618264000,1618240000,6620172,491.07944,95563.914,15.0,1.1551598,0,1
1618336000,1618312000,6620172,490.98087,95565.04,15.0,1.1551735,0,1
1618404000,1618382666,6620172,491.10294,95563.664,15.0,1.155157,0,1
1618456000,1618444000,6620172,491.06067,95564.1,15.0,1.1551622,0,1
1618528000,1618504000,6620172,491.07477,95563.96,15.0,1.1551605,0,1
1618600000,1618576000,6620172,491.07477,95564.0,15.0,1.1551609,0,1
1618672000,1618648000,6620172,491.01373,95564.65,15.0,1.1551688,0,1
1618744000,1618720000,6620172,491.0231,95564.56,15.0,1.1551677,0,1
1618816000,1618790666,6620172,491.00433,95564.76,15.0,1.1551702,0,1
1618888000,1618864000,6620172,490.97617,95565.125,15.0,1.1551746,0,1
1618960000,1618936000,6620172,491.1311,95563.29,15.0,1.1551523,0,1
1619032000,1619008000,6620172,491.0231,95564.56,15.0,1.1551677,0,1
1619104000,1619080000,6620172,491.0278,95564.51,15.0,1.1551671,0,1
1619176000,1619150666,6620172,491.0372,95564.375,15.0,1.1551656,0,1
1619248000,1619222666,6620172,491.0466,95564.25,15.0,1.155164,0,1
1619320000,1619296000,6620172,491.05597,95564.195,15.0,1.1551633,0,1
1619392000,1619368000,6620172,490.99963,95564.836,15.0,1.1551712,0,1
1619464000,1619440000,6620172,491.00433,95564.77,15.0,1.1551703,0,1
1619536000,1619512000,6620172,491.0231,95564.52,15.0,1.1551673,0,1
1619608000,1619584000,6620172,491.1264,95563.375,15.0,1.1551534,0,1
1619680000,1619656000,6620172,491.09824,95563.73,15.0,1.1551577,0,1
1619752000,1619728000,6620172,491.09824,95563.69,15.0,1.1551571,0,1
1619824000,1619800000,6620172,491.05597,95564.19,15.0,1.1551633,0,1
1619896000,1619872000,6620172,491.15457,95563.04,15.0,1.1551493,0,1
1619968000,1619944000,6620172,491.14047,95563.24,15.0,1.1551518,0,1
1620040000,1620016000,6620172,491.15927,95563.0,15.0,1.1551489,0,1
1620112000,1620088000,6620172,491.09824,95563.68,15.0,1.1551571,0,1
1620184000,1620160000,6620172,491.117,95563.51,15.0,1.1551551,0,1
1620256000,1620232000,6620172,491.09824,95563.69,15.0,1.1551571,0,1
1620328000,1620302666,6620172,491.10294,95563.62,15.0,1.1551563,0,1
1620400000,1620376000,6620172,490.99963,95564.82,15.0,1.1551709,0,1
1620472000,1620448000,6620172,491.01373,95564.69,15.0,1.1551694,0,1
1620544000,1620520000,6620172,491.0372,95564.4,15.0,1.1551658,0,1
1620616000,1620592000,6620172,491.07007,95564.03,15.0,1.1551614,0,1
1620688000,1620664000,6620172,490.97147,95565.164,15.0,1.1551751,0,1
1620760000,1620736000,6620172,491.117,95563.51,15.0,1.1551551,0,1
1620832000,1620808000,6620172,491.1217,95563.43,15.0,1.1551541,0,1
1620904000,1620880000,6620172,491.08884,95563.79,15.0,1.1551584,0,1
1620976000,1620952000,6620172,491.0372,95564.41,15.0,1.1551658,0,1
1621048000,1621024000,6620172,491.17334,95562.836,15.0,1.1551468,0,1
1621120000,1621096000,6620172,491.10764,95563.6,15.0,1.1551561,0,1
1621192000,1621168000,6620172,491.09354,95563.74,15.0,1.1551579,0,1
1621264000,1621240000,6620172,491.08884,95563.805,15.0,1.1551586,0,1
1621336000,1621312000,6620172,491.07944,95563.9,15.0,1.1551598,0,1
1621408000,1621384000,6620172,491.14517,95563.15,15.0,1.1551507,0,1
1621480000,1621456000,6620172,491.0372,95564.4,15.0,1.1551658,0,1
1621552000,1621528000,6620172,491.16397,95562.98,15.0,1.1551485,0,1
1621624000,1621598666,6620172,491.08884,95563.77,15.0,1.1551582,0,1
1621696000,1621672000,6620172,491.14047,95563.195,15.0,1.1551512,0,1
1621768000,1621744000,6620172,491.10294,95563.63,15.0,1.1551565,0,1
1621840000,1621816000,6620172,491.06537,95564.055,15.0,1.1551616,0,1
1621912000,1621888000,6620172,491.1311,95563.32,15.0,1.1551528,0,1
1621984000,1621960000,6620172,491.09824,95563.695,15.0,1.1551572,0,1
1622056000,1622032000,6620172,491.1311,95563.32,15.0,1.1551528,0,1
1622128000,1622104000,6620172,491.05127,95564.23,15.0,1.1551636,0,1
1622200000,1622176000,6620172,491.07007,95564.02,15.0,1.1551613,0,1
1622272000,1622248000,6620172,491.0372,95564.38,15.0,1.1551656,0,1
1622344000,1622320000,6620172,491.06537,95564.04,15.0,1.1551615,0,1
1622416000,1622392000,6620172,491.07477,95563.97,15.0,1.1551607,0,1
1622488000,1622464000,6620172,491.14047,95563.24,15.0,1.1551518,0,1
1622560000,1622536000,6620172,491.09354,95563.75,15.0,1.1551579,0,1
1622632000,1622608000,6620172,491.08884,95563.805,15.0,1.1551586,0,1
1622704000,1622680000,6620172,491.05597,95564.19,15.0,1.1551633,0,1
1622776000,1622752000,6620172,491.00433,95564.79,15.0,1.1551704,0,1
1622848000,1622824000,6620172,491.08884,95563.82,15.0,1.1551589,0,1
1622920000,1622896000,6620172,491.06537,95564.04,15.0,1.1551615,0,1
1622992000,1622968000,6620172,491.16867,95562.914,15.0,1.1551478,0,1
1623064000,1623040000,6620172,491.09824,95563.68,15.0,1.1551571,0,1
1623136000,1623112000,6620172,491.14047,95563.21,15.0,1.1551514,0,1
1623208000,1623184000,6620172,491.15457,95563.055,15.0,1.1551495,0,1
1623280000,1623256000,6620172,491.2015,95562.52,15.0,1.1551431,0,1
1623352000,1623328000,6620172,491.10294,95563.625,15.0,1.1551564,0,1
1623424000,1623400000,6620172,491.16867,95562.87,15.0,1.1551473,0,1
1623496000,1623472000,6620172,491.09824,95563.72,15.0,1.1551576,0,1
1623568000,1623544000,6620172,491.14987,95563.12,15.0,1.1551503,0,1
1623640000,1623616000,6620172,491.15457,95563.06,15.0,1.1551496,0,1
1623712000,1623688000,6620172,491.1311,95563.305,15.0,1.1551526,0,1
1623784000,1623760000,6620172,491.0231,95564.53,15.0,1.1551675,0,1
1623856000,1623830666,6620172,491.08414,95563.87,15.0,1.1551594,0,1
1623928000,1623904000,6620172,491.08414,95563.87,15.0,1.1551594,0,1
1624000000,1623976000,6620172,490.98557,95564.98,15.0,1.1551728,0,1
1624072000,1624048000,6620172,491.08884,95563.81,15.0,1.1551588,0,1
1624144000,1624118666,6620172,491.0419,95564.34,15.0,1.1551651,0,1
1624216000,1624192000,6620172,491.08884,95563.79,15.0,1.1551584,0,1
1624288000,1624264000,6620172,491.1123,95563.54,15.0,1.1551554,0,1
1624360000,1624336000,6620172,491.10294,95563.664,15.0,1.155157,0,1
1624432000,1624408000,6620172,491.10764,95563.6,15.0,1.1551561,0,1
1624504000,1624480000,6620172,491.0231,95564.57,15.0,1.1551678,0,1
1624576000,1624552000,6620172,491.14047,95563.24,15.0,1.1551518,0,1
1624648000,1624624000,6620172,491.06067,95564.12,15.0,1.1551623,0,1
1624716000,1624694666,6620172,491.117,95563.48,15.0,1.1551546,0,1
1624768000,1624756000,6620172,491.08884,95563.766,15.0,1.155158,0,1
1624840000,1624816000,6620172,491.1123,95563.53,15.0,1.1551553,0,1
1624912000,1624888000,6620172,491.0372,95564.375,15.0,1.1551656,0,1
1624984000,1624958666,6620172,491.10294,95563.65,15.0,1.1551567,0,1
1625056000,1625032000,6620172,491.0466,95564.25,15.0,1.155164,0,1
1625128000,1625104000,6620172,491.07007,95564.01,15.0,1.155161,0,1
1625200000,1625176000,6620172,491.0325,95564.48,15.0,1.1551667,0,1
1625272000,1625246666,6620172,491.0466,95564.27,15.0,1.1551642,0,1
1625344000,1625320000,6620172,491.07477,95564.0,15.0,1.1551609,0,1
1625416000,1625392000,6620172,491.0419,95564.31,15.0,1.1551647,0,1
1625488000,1625464000,6620172,491.1264,95563.4,15.0,1.1551536,0,1
1625556000,1625534666,6620172,491.14987,95563.086,15.0,1.1551499,0,1
1625608000,1625596000,6620172,491.16397,95562.95,15.0,1.1551484,0,1
1625680000,1625656000,6620172,491.08414,95563.87,15.0,1.1551594,0,1
1625752000,1625728000,6620172,491.08414,95563.875,15.0,1.1551595,0,1
1625824000,1625800000,6620172,491.1311,95563.32,15.0,1.1551528,0,1
1625896000,1625872000,6620172,491.10294,95563.664,15.0,1.155157,0,1
1625968000,1625944000,6620172,491.07477,95563.97,15.0,1.1551607,0,1
1626040000,1626016000,6620172,491.06537,95564.055,15.0,1.1551616,0,1
1626112000,1626088000,6620172,491.2203,95562.31,15.0,1.1551406,0,1
1626184000,1626160000,6620172,491.08884,95563.77,15.0,1.1551582,0,1
1626256000,1626232000,6620172,491.0419,95564.34,15.0,1.1551651,0,1
1626328000,1626304000,6620172,491.10764,95563.586,15.0,1.155156,0,1
1626400000,1626376000,6620172,491.1217,95563.44,15.0,1.1551541,0,1
1626472000,1626448000,6620172,491.0419,95564.35,15.0,1.1551652,0,1
1626544000,1626518666,6620172,491.0231,95564.555,15.0,1.1551676,0,1
1626616000,1626592000,6620172,491.06067,95564.1,15.0,1.1551622,0,1
1626688000,1626664000,6620172,491.09824,95563.71,15.0,1.1551574,0,1
1626760000,1626736000,6620172,491.09824,95563.73,15.0,1.1551577,0,1
1626832000,1626808000,6620172,491.08414,95563.88,15.0,1.1551596,0,1
1626904000,1626880000,6620172,491.0466,95564.28,15.0,1.1551644,0,1
1626976000,1626952000,6620172,491.16867,95562.88,15.0,1.1551476,0,1
1627048000,1627024000,6620172,491.14047,95563.22,15.0,1.1551515,0,1
1627120000,1627096000,6620172,491.01373,95564.65,15.0,1.1551688,0,1
1627192000,1627168000,6620172,491.1358,95563.27,15.0,1.1551522,0,1
1627264000,1627240000,6620172,491.0325,95564.46,15.0,1.1551665,0,1
1627336000,1627310666,6620172,491.09824,95563.73,15.0,1.1551577,0,1
1627408000,1627384000,6620172,491.0231,95564.56,15.0,1.1551677,0,1
1627480000,1627456000,6620172,491.1311,95563.31,15.0,1.1551527,0,1
1627552000,1627528000,6620172,491.19684,95562.57,15.0,1.1551437,0,1
1627624000,1627600000,6620172,491.10764,95563.555,15.0,1.1551555,0,1
1627696000,1627672000,6620172,491.08884,95563.77,15.0,1.1551582,0,1
1627768000,1627744000,6620172,491.15457,95563.04,15.0,1.1551493,0,1
1627840000,1627816000,6620172,491.06537,95564.09,15.0,1.1551621,0,1
1627912000,1627888000,6620172,491.2062,95562.46,15.0,1.1551423,0,1
1627984000,1627960000,6620172,491.10294,95563.65,15.0,1.1551567,0,1
1628056000,1628032000,6620172,491.0419,95564.336,15.0,1.155165,0,1
1628128000,1628104000,6620172,491.16397,95562.97,15.0,1.1551485,0,1
1628200000,1628176000,6620172,491.0372,95564.414,15.0,1.1551659,0,1
1628272000,1628248000,6620172,491.17334,95562.82,15.0,1.1551466,0,1
1628344000,1628320000,6620172,491.0325,95564.445,15.0,1.1551664,0,1
1628416000,1628392000,6620172,491.09824,95563.72,15.0,1.1551576,0,1
1628488000,1628464000,6620172,491.06067,95564.125,15.0,1.1551625,0,1
1628560000,1628536000,6620172,491.14517,95563.19,15.0,1.1551511,0,1
1628632000,1628608000,6620172,491.09354,95563.76,15.0,1.1551579,0,1
1628704000,1628680000,6620172,491.2015,95562.5,15.0,1.1551428,0,1
1628776000,1628752000,6620172,491.14987,95563.12,15.0,1.1551503,0,1
1628848000,1628824000,6620172,491.117,95563.48,15.0,1.1551546,0,1
1628920000,1628896000,6620172,491.2297,95562.195,15.0,1.1551391,0,1
1628992000,1628968000,6620172,491.15457,95563.04,15.0,1.1551493,0,1
1629064000,1629040000,6620172,491.10294,95563.62,15.0,1.1551563,0,1
1629136000,1629112000,6620172,491.2203,95562.305,15.0,1.1551405,0,1
1629208000,1629184000,6620172,491.18274,95562.73,15.0,1.1551456,0,1
1629280000,1629256000,6620172,491.09824,95563.695,15.0,1.1551572,0,1
1629352000,1629328000,6620172,491.1217,95563.43,15.0,1.1551541,0,1
1629424000,1629400000,6620172,491.1358,95563.27,15.0,1.1551522,0,1
1629496000,1629472000,6620172,491.18274,95562.75,15.0,1.1551458,0,1
1629568000,1629544000,6620172,491.14047,95563.195,15.0,1.1551512,0,1
1629640000,1629616000,6620172,491.09824,95563.695,15.0,1.1551572,0,1
1629712000,1629686666,6620172,491.18274,95562.71,15.0,1.1551454,0,1
1629784000,1629760000,6620172,491.0466,95564.28,15.0,1.1551644,0,1
1629852000,1629830666,6620172,491.16867,95562.914,15.0,1.1551478,0,1
1629904000,1629892000,6620172,491.19214,95562.625,15.0,1.1551443,0,1
1629976000,1629952000,6620172,491.07477,95563.98,15.0,1.1551607,0,1
1630048000,1630024000,6620172,491.14047,95563.24,15.0,1.1551518,0,1
1630120000,1630096000,6620172,491.2203,95562.31,15.0,1.1551406,0,1
1630192000,1630168000,6620172,491.15457,95563.055,15.0,1.1551495,0,1
1630264000,1630240000,6620172,491.25787,95561.836,15.0,1.1551348,0,1
1630336000,1630310666,6620172,491.2109,95562.4,15.0,1.1551416,0,1
1630408000,1630384000,6620172,491.1217,95563.44,15.0,1.1551541,0,1
1630480000,1630456000,6620172,491.16397,95562.93,15.0,1.155148,0,1
1630552000,1630528000,6620172,491.14517,95563.15,15.0,1.1551507,0,1
1630624000,1630600000,6620172,491.2015,95562.5,15.0,1.1551428,0,1
1630696000,1630672000,6620172,491.17334,95562.81,15.0,1.1551466,0,1
1630764000,1630742666,6620172,491.1123,95563.53,15.0,1.1551553,0,1
1630816000,1630804000,6620172,491.2297,95562.2,15.0,1.1551392,0,1
1630884000,1630862666,6620172,491.16397,95562.96,15.0,1.1551485,0,1
1630936000,1630924000,6620172,491.26724,95561.76,15.0,1.1551338,0,1
1631008000,1630984000,6620172,491.16867,95562.9,15.0,1.1551476,0,1
1631080000,1631056000,6620172,491.28134,95561.59,15.0,1.1551318,0,1
1631148000,1631126666,6620172,491.1123,95563.54,15.0,1.1551554,0,1
1631200000,1631188000,6620172,491.10294,95563.66,15.0,1.1551569,0,1
1631272000,1631248000,6620172,491.1217,95563.445,15.0,1.1551542,0,1
1631344000,1631320000,6620172,491.18274,95562.75,15.0,1.1551458,0,1
1631416000,1631392000,6620172,491.16867,95562.914,15.0,1.1551478,0,1
1631488000,1631464000,6620172,491.1264,95563.375,15.0,1.1551534,0,1
1631560000,1631536000,6620172,491.17334,95562.81,15.0,1.1551466,0,1
1631632000,1631606666,6620172,491.19214,95562.586,15.0,1.1551439,0,1
1631704000,1631680000,6620172,491.08414,95563.88,15.0,1.1551596,0,1
1631776000,1631752000,6620172,491.14517,95563.19,15.0,1.1551511,0,1
1631848000,1631824000,6620172,491.17334,95562.836,15.0,1.1551468,0,1
1631920000,1631896000,6620172,491.14517,95563.164,15.0,1.1551509,0,1
1631992000,1631968000,6620172,491.09824,95563.71,15.0,1.1551574,0,1
1632064000,1632038666,6620172,491.18274,95562.75,15.0,1.1551458,0,1
1632136000,1632112000,6620172,491.2062,95562.48,15.0,1.1551425,0,1
1632208000,1632184000,6620172,491.07007,95564.02,15.0,1.1551613,0,1
1632280000,1632254666,6620172,491.08414,95563.84,15.0,1.155159,0,1
1632352000,1632328000,6620172,491.14517,95563.18,15.0,1.155151,0,1
1632424000,1632400000,6620172,491.14517,95563.19,15.0,1.1551511,0,1
1632496000,1632472000,6620172,491.16867,95562.875,15.0,1.1551474,0,1
1632568000,1632544000,6620172,491.09824,95563.69,15.0,1.1551571,0,1
1632640000,1632616000,6620172,491.15457,95563.06,15.0,1.1551496,0,1
1632712000,1632688000,6620172,491.24377,95562.07,15.0,1.1551377,0,1
1632784000,1632760000,6620172,491.15927,95563.01,15.0,1.155149,0,1
1632852000,1632829333,6620172,491.117,95563.5,15.0,1.155155,0,1
1632904000,1632892000,6620172,491.16867,95562.86,15.0,1.1551472,0,1
1632976000,1632952000,6620172,491.23907,95562.09,15.0,1.155138,0,1
1633048000,1633022666,6620172,491.19684,95562.57,15.0,1.1551437,0,1
1633120000,1633096000,6620172,491.19214,95562.586,15.0,1.1551439,0,1
1633192000,1633168000,6620172,491.2015,95562.555,15.0,1.1551435,0,1
1633264000,1633240000,6620172,491.23438,95562.15,15.0,1.1551386,0,1
1633336000,1633312000,6620172,491.16867,95562.91,15.0,1.1551477,0,1
1633408000,1633384000,6620172,491.14047,95563.22,15.0,1.1551515,0,1
1633480000,1633456000,6620172,491.10764,95563.6,15.0,1.1551561,0,1
1633552000,1633528000,6620172,491.10294,95563.664,15.0,1.155157,0,1
1633624000,1633600000,6620172,491.18274,95562.76,15.0,1.1551459,0,1
1633696000,1633672000,6620172,491.17334,95562.85,15.0,1.1551471,0,1
1633768000,1633742666,6620172,491.2156,95562.35,15.0,1.155141,0,1
1633840000,1633816000,6620172,491.08884,95563.77,15.0,1.1551582,0,1
1633912000,1633888000,6620172,491.3189,95561.18,15.0,1.1551268,0,1
1633984000,1633958666,6620172,491.14987,95563.1,15.0,1.1551502,0,1
1634056000,1634032000,6620172,491.14517,95563.19,15.0,1.1551511,0,1
1634128000,1634102666,6620172,491.23438,95562.12,15.0,1.1551381,0,1
1634200000,1634176000,6620172,491.14047,95563.21,15.0,1.1551514,0,1
1634272000,1634248000,6620172,491.16867,95562.9,15.0,1.1551476,0,1
1634344000,1634320000,6620172,491.16397,95562.94,15.0,1.1551481,0,1
1634416000,1634392000,6620172,491.10294,95563.625,15.0,1.1551564,0,1
1634488000,1634464000,6620172,491.09824,95563.68,15.0,1.1551571,0,1
1634560000,1634536000,6620172,491.05127,95564.24,15.0,1.1551639,0,1
1634632000,1634608000,6620172,491.1358,95563.26,15.0,1.155152,0,1
1634704000,1634680000,6620172,491.18744,95562.65,15.0,1.1551447,0,1
1634772000,1634750666,6620172,491.15457,95563.06,15.0,1.1551496,0,1
1634824000,1634812000,6620172,491.06537,95564.05,15.0,1.1551615,0,1
1634896000,1634872000,6620172,491.18744,95562.695,15.0,1.1551452,0,1
1634968000,1634944000,6620172,491.05127,95564.24,15.0,1.1551639,0,1
1635040000,1635016000,6620172,491.09824,95563.69,15.0,1.1551571,0,1
1635112000,1635086666,6620172,491.15927,95562.99,15.0,1.1551487,0,1
1635184000,1635160000,6620172,491.18744,95562.68,15.0,1.1551449,0,1
1635256000,1635232000,6620172,491.14517,95563.15,15.0,1.1551507,0,1
1635328000,1635304000,6620172,491.1264,95563.35,15.0,1.1551532,0,1
1635400000,1635376000,6620172,491.08414,95563.875,15.0,1.1551595,0,1
1635472000,1635448000,6620172,491.19214,95562.586,15.0,1.1551439,0,1
1635544000,1635520000,6620172,491.1358,95563.26,15.0,1.155152,0,1
1635616000,1635592000,6620172,491.15927,95563.01,15.0,1.155149,0,1
1635688000,1635664000,6620172,491.117,95563.47,15.0,1.1551545,0,1
1635760000,1635736000,6620172,491.19214,95562.62,15.0,1.1551442,0,1
1635832000,1635808000,6620172,491.0325,95564.48,15.0,1.1551667,0,1
1635904000,1635880000,6620172,491.1264,95563.375,15.0,1.1551534,0,1
1635976000,1635952000,6620172,491.1358,95563.25,15.0,1.155152,0,1
1636048000,1636024000,6620172,491.16867,95562.87,15.0,1.1551473,0,1
1636120000,1636096000,6620172,491.24377,95562.06,15.0,1.1551375,0,1
1636192000,1636168000,6620172,491.18744,95562.69,15.0,1.155145,0,1
1636264000,1636240000,6620172,491.16397,95562.97,15.0,1.1551485,0,1
1636336000,1636312000,6620172,491.1217,95563.414,15.0,1.1551539,0,1
1636408000,1636384000,6620172,491.2062,95562.48,15.0,1.1551425,0,1
1636480000,1636456000,6620172,491.1264,95563.4,15.0,1.1551536,0,1
1636552000,1636528000,6620172,491.18274,95562.73,15.0,1.1551456,0,1
1636624000,1636600000,6620172,491.2015,95562.51,15.0,1.1551429,0,1
1636696000,1636670666,6620172,491.08884,95563.805,15.0,1.1551586,0,1
1636768000,1636744000,6620172,491.2297,95562.21,15.0,1.1551393,0,1
1636840000,1636816000,6620172,491.09824,95563.72,15.0,1.1551576,0,1
1636912000,1636888000,6620172,491.18274,95562.72,15.0,1.1551455,0,1
1636984000,1636960000,6620172,491.2015,95562.51,15.0,1.1551429,0,1
1637056000,1637032000,6620172,491.17804,95562.77,15.0,1.1551461,0,1
1637128000,1637104000,6620172,491.1264,95563.35,15.0,1.1551532,0,1
1637200000,1637176000,6620172,491.19214,95562.62,15.0,1.1551442,0,1
1637272000,1637248000,6620172,491.18274,95562.72,15.0,1.1551455,0,1
1637344000,1637320000,6620172,491.225,95562.23,15.0,1.1551396,0,1
1637416000,1637392000,6620172,491.09824,95563.69,15.0,1.1551571,0,1
1637488000,1637464000,6620172,491.1358,95563.27,15.0,1.1551522,0,1
1637560000,1637536000,6620172,491.1123,95563.54,15.0,1.1551554,0,1
1637632000,1637608000,6620172,491.27664,95561.65,15.0,1.1551325,0,1
1637704000,1637680000,6620172,491.15457,95563.055,15.0,1.1551495,0,1
1637776000,1637752000,6620172,491.16867,95562.9,15.0,1.1551476,0,1
1637848000,1637824000,6620172,491.10764,95563.57,15.0,1.1551558,0,1
1637920000,1637896000,6620172,491.09824,95563.73,15.0,1.1551577,0,1
1637988000,1637966666,6620172,491.24847,95561.99,15.0,1.1551367,0,1
1638040000,1638028000,6620172,491.18744,95562.695,15.0,1.1551452,0,1
1638112000,1638088000,6620172,491.10764,95563.56,15.0,1.1551557,0,1
1638184000,1638160000,6620172,491.2015,95562.5,15.0,1.1551428,0,1
1638256000,1638232000,6620172,491.25787,95561.875,15.0,1.1551353,0,1
1638328000,1638304000,6620172,491.16397,95562.97,15.0,1.1551485,0,1
1638396000,1638374666,6620172,491.17334,95562.836,15.0,1.1551468,0,1
1638448000,1638436000,6620172,491.10294,95563.66,15.0,1.1551569,0,1
1638520000,1638496000,6620172,491.14517,95563.13,15.0,1.1551504,0,1
1638592000,1638568000,6620172,491.18744,95562.68,15.0,1.1551449,0,1
1638664000,1638640000,6620172,491.14987,95563.086,15.0,1.1551499,0,1
1638736000,1638712000,6620172,491.3095,95561.28,15.0,1.1551281,0,1
1638808000,1638784000,6620172,491.18744,95562.664,15.0,1.1551448,0,1
1638880000,1638856000,6620172,491.10294,95563.625,15.0,1.1551564,0,1
1638952000,1638928000,6620172,491.18744,95562.68,15.0,1.1551449,0,1
1639024000,1639000000,6620172,491.1217,95563.414,15.0,1.1551539,0,1
1639096000,1639072000,6620172,491.1311,95563.31,15.0,1.1551527,0,1
1639168000,1639144000,6620172,491.18744,95562.69,15.0,1.155145,0,1
1639240000,1639216000,6620172,491.18744,95562.664,15.0,1.1551448,0,1
1639312000,1639288000,6620172,490.97617,95565.125,15.0,1.1551746,0,1
1639384000,1639360000,6620172,490.91043,95565.836,15.0,1.1551832,0,1
1639456000,1639432000,6620172,490.82123,95566.85,15.0,1.1551955,0,1
1639528000,1639504000,6620172,490.92453,95565.69,15.0,1.1551814,0,1
1639600000,1639576000,6620172,490.81653,95566.914,15.0,1.1551962,0,1
1639672000,1639648000,6620172,490.81653,95566.88,15.0,1.1551958,0,1
1639744000,1639720000,6620172,490.7508,95567.68,15.0,1.1552054,0,1
1639816000,1639790666,6620172,490.68506,95568.414,15.0,1.1552143,0,1
1639888000,1639864000,6620172,490.5818,95569.63,15.0,1.1552291,0,1
1639960000,1639936000,6620172,490.55362,95569.914,15.0,1.1552324,0,1
1640032000,1640008000,6620172,490.52075,95570.29,15.0,1.155237,0,1
1640100000,1640078666,6620172,490.53482,95570.125,15.0,1.1552349,0,1
1640152000,1640140000,6620172,490.4832,95570.74,15.0,1.1552424,0,1
1640224000,1640200000,6620172,490.31418,95572.69,15.0,1.155266,0,1
1640296000,1640272000,6620172,490.3658,95572.09,15.0,1.1552588,0,1
1640368000,1640344000,6620172,490.33295,95572.46,15.0,1.1552633,0,1
1640440000,1640416000,6620172,490.20618,95573.9,15.0,1.1552806,0,1
1640512000,1640488000,6620172,490.21558,95573.81,15.0,1.1552795,0,1
1640584000,1640560000,6620172,490.03717,95575.87,15.0,1.1553044,0,1
1640656000,1640632000,6620172,490.0841,95575.305,15.0,1.1552975,0,1
1640728000,1640704000,6620172,489.92917,95577.086,15.0,1.1553192,0,1
1640800000,1640776000,6620172,490.04654,95575.75,15.0,1.155303,0,1
1640872000,1640846666,6620172,489.901,95577.44,15.0,1.1553234,0,1
1640940000,1640918666,6620172,489.91977,95577.21,15.0,1.1553206,0,1
1640992000,1640980000,6620172,489.732,95579.33,15.0,1.1553463,0,1
1641064000,1641040000,6620172,489.76486,95578.93,15.0,1.1553414,0,1
1641136000,1641112000,6620172,489.75076,95579.15,15.0,1.155344,0,1
1641208000,1641184000,6620172,489.79303,95578.63,15.0,1.1553378,0,1
1641280000,1641256000,6620172,489.5442,95581.5,15.0,1.1553725,0,1
1641352000,1641328000,6620172,489.59583,95580.875,15.0,1.1553649,0,1
1641424000,1641400000,6620172,489.6146,95580.71,15.0,1.155363,0,1
1641496000,1641472000,6620172,489.4503,95582.57,15.0,1.1553855,0,1
1641568000,1641544000,6620172,489.47845,95582.27,15.0,1.1553819,0,1
1641640000,1641616000,6620172,489.37515,95583.414,15.0,1.1553956,0,1
1641712000,1641686666,6620172,489.41742,95582.93,15.0,1.1553898,0,1
1641784000,1641760000,6620172,489.3423,95583.77,15.0,1.1554,0,1
1641856000,1641832000,6620172,489.24838,95584.91,15.0,1.1554136,0,1
1641928000,1641904000,6620172,489.18268,95585.625,15.0,1.1554223,0,1
1642000000,1641976000,6620172,489.10754,95586.52,15.0,1.1554332,0,1
1642068000,1642045333,6620172,489.07938,95586.81,15.0,1.1554368,0,1
1642120000,1642108000,6620172,488.9573,95588.24,15.0,1.155454,0,1
1642192000,1642168000,6620172,489.0371,95587.305,15.0,1.1554427,0,1
1642264000,1642240000,6620172,488.9526,95588.305,15.0,1.1554548,0,1
1642336000,1642312000,6620172,488.90097,95588.836,15.0,1.1554612,0,1
1642408000,1642382666,6620172,488.91504,95588.73,15.0,1.1554598,0,1
1642480000,1642456000,6620172,488.80707,95589.945,15.0,1.1554745,0,1
1642552000,1642528000,6620172,488.6944,95591.23,15.0,1.1554902,0,1
1642624000,1642600000,6620172,488.7601,95590.52,15.0,1.1554816,0,1
1642696000,1642672000,6620172,488.64743,95591.74,15.0,1.1554962,0,1
1642768000,1642744000,6620172,488.5019,95593.43,15.0,1.1555167,0,1
1642840000,1642814666,6620172,488.577,95592.57,15.0,1.1555063,0,1
1642912000,1642888000,6620172,488.42676,95594.336,15.0,1.1555276,0,1
1642984000,1642960000,6620172,488.43146,95594.23,15.0,1.1555263,0,1
1643056000,1643032000,6620172,488.38922,95594.71,15.0,1.1555321,0,1
1643128000,1643104000,6620172,488.38452,95594.79,15.0,1.1555331,0,1
1643200000,1643176000,6620172,488.22488,95596.6,15.0,1.155555,0,1
1643272000,1643248000,6620172,488.28122,95595.96,15.0,1.1555473,0,1
1643340000,1643318666,6620172,488.22018,95596.664,15.0,1.1555557,0,1
1643392000,1643380000,6620172,488.02768,95598.89,15.0,1.1555827,0,1
1643464000,1643440000,6620172,488.07465,95598.34,15.0,1.1555761,0,1
1643536000,1643512000,6620172,488.0981,95598.086,15.0,1.1555729,0,1
1643608000,1643584000,6620172,488.14038,95597.59,15.0,1.155567,0,1
1643680000,1643656000,6620172,488.1169,95597.85,15.0,1.1555701,0,1
1643752000,1643728000,6620172,488.1122,95597.88,15.0,1.1555705,0,1
1643824000,1643800000,6620172,488.18262,95597.09,15.0,1.155561,0,1
1643896000,1643870666,6620172,488.1122,95597.914,15.0,1.1555709,0,1
1643968000,1643944000,6620172,488.12158,95597.79,15.0,1.1555694,0,1
1644040000,1644016000,6620172,488.14508,95597.5,15.0,1.155566,0,1
1644112000,1644088000,6620172,488.16385,95597.29,15.0,1.1555634,0,1
1644184000,1644160000,6620172,488.0934,95598.09,15.0,1.155573,0,1
1644256000,1644232000,6620172,488.0981,95598.06,15.0,1.1555728,0,1
1644328000,1644304000,6620172,488.13098,95597.68,15.0,1.155568,0,1
1644400000,1644376000,6620172,488.17795,95597.13,15.0,1.1555614,0,1
1644472000,1644448000,6620172,488.14038,95597.6,15.0,1.155567,0,1
1644544000,1644520000,6620172,488.1169,95597.875,15.0,1.1555704,0,1
1644616000,1644592000,6620172,488.18732,95597.06,15.0,1.1555606,0,1
1644684000,1644662666,6620172,488.0934,95598.1,15.0,1.1555731,0,1
1644736000,1644724000,6620172,487.96198,95599.64,15.0,1.1555917,0,1
1644808000,1644784000,6620172,488.1169,95597.875,15.0,1.1555704,0,1
1644876000,1644854666,6620172,488.1122,95597.93,15.0,1.1555711,0,1
1644928000,1644916000,6620172,488.023,95598.914,15.0,1.155583,0,1
1645000000,1644976000,6620172,488.05588,95598.57,15.0,1.1555789,0,1
1645072000,1645048000,6620172,488.14038,95597.555,15.0,1.1555666,0,1
1645144000,1645120000,6620172,488.0981,95598.04,15.0,1.1555724,0,1
1645216000,1645192000,6620172,488.17795,95597.18,15.0,1.155562,0,1
1645288000,1645262666,6620172,488.12158,95597.805,15.0,1.1555696,0,1
1645360000,1645336000,6620172,488.06995,95598.41,15.0,1.1555768,0,1
1645432000,1645408000,6620172,488.1169,95597.85,15.0,1.1555701,0,1
1645504000,1645480000,6620172,488.08405,95598.23,15.0,1.1555747,0,1
1645576000,1645552000,6620172,488.18262,95597.1,15.0,1.1555611,0,1
1645648000,1645624000,6620172,488.13568,95597.63,15.0,1.1555675,0,1
1645716000,1645694666,6620172,488.1169,95597.82,15.0,1.1555698,0,1
1645768000,1645756000,6620172,488.07935,95598.28,15.0,1.1555754,0,1
1645840000,1645816000,6620172,488.15915,95597.35,15.0,1.1555642,0,1
1645912000,1645888000,6620172,488.14508,95597.5,15.0,1.155566,0,1
1645984000,1645960000,6620172,488.1075,95597.945,15.0,1.1555712,0,1
1646056000,1646032000,6620172,488.1075,95597.945,15.0,1.1555712,0,1
1646128000,1646104000,6620172,488.07465,95598.34,15.0,1.1555761,0,1
1646200000,1646176000,6620172,488.03238,95598.836,15.0,1.1555821,0,1
1646272000,1646246666,6620172,488.05118,95598.6,15.0,1.1555792,0,1
1646344000,1646320000,6620172,488.15915,95597.38,15.0,1.1555644,0,1
1646416000,1646392000,6620172,488.1122,95597.914,15.0,1.1555709,0,1
1646488000,1646464000,6620172,488.04648,95598.68,15.0,1.1555802,0,1
1646560000,1646536000,6620172,488.05118,95598.63,15.0,1.1555796,0,1
1646632000,1646608000,6620172,488.0934,95598.12,15.0,1.1555734,0,1
1646704000,1646680000,6620172,488.1122,95597.9,15.0,1.1555707,0,1
1646772000,1646750666,6620172,488.1122,95597.91,15.0,1.1555709,0,1
1646824000,1646812000,6620172,487.9995,95599.21,15.0,1.1555866,0,1
1646892000,1646870666,6620172,488.0887,95598.195,15.0,1.1555743,0,1
1646944000,1646932000,6620172,488.18732,95597.06,15.0,1.1555606,0,1
1647016000,1646992000,6620172,488.07935,95598.28,15.0,1.1555754,0,1
1647088000,1647064000,6620172,488.1122,95597.9,15.0,1.1555707,0,1
1647160000,1647136000,6620172,488.06055,95598.49,15.0,1.1555779,0,1
1647232000,1647206666,6620172,488.07935,95598.26,15.0,1.155575,0,1
1647304000,1647280000,6620172,488.18262,95597.086,15.0,1.1555609,0,1
1647376000,1647352000,6620172,488.1169,95597.84,15.0,1.15557,0,1
1647448000,1647424000,6620172,488.14038,95597.57,15.0,1.1555668,0,1
1647520000,1647496000,6620172,488.06525,95598.445,15.0,1.1555774,0,1
