timestamp,yaw_sp_move_rate,q_d[0],q_d[1],q_d[2],q_d[3],thrust_body[0],thrust_body[1],thrust_body[2]
1592244000,0.0,0.7082547,0.0,0.0,0.7059571,0.0,0.0,-0.001
1592252000,0.0,0.70824075,0.0,0.0,0.705971,0.0,0.0,-0.001
1592300000,0.0,0.7082461,0.0,0.0,0.70596564,0.0,0.0,-0.001
1592340000,0.0,0.70820117,0.0,0.0,0.70601076,0.0,0.0,-0.001
1592396000,0.0,0.70816237,0.0,0.0,0.7060496,0.0,0.0,-0.001
1592444000,0.0,0.70805216,0.0,0.0,0.7061602,0.0,0.0,-0.001
1592492000,0.0,0.70803946,0.0,0.0,0.7061729,0.0,0.0,-0.001
1592548000,0.0,0.70798224,0.0,0.0,0.7062303,0.0,0.0,-0.001
1592596000,0.0,0.7079829,0.0,0.0,0.7062297,0.0,0.0,-0.001
1592644000,0.0,0.70801115,0.0,0.0,0.70620126,0.0,0.0,-0.001
1592700000,0.0,0.70802563,0.0,0.0,0.7061868,0.0,0.0,-0.001
1592748000,0.0,0.7080658,0.0,0.0,0.7061464,0.0,0.0,-0.001
1592796000,0.0,0.70821655,0.0,0.0,0.70599526,0.0,0.0,-0.001
1592844000,0.0,0.7081382,0.0,0.0,0.7060739,0.0,0.0,-0.001
1592900000,0.0,0.7081617,0.0,0.0,0.7060503,0.0,0.0,-0.001
1592948000,0.0,0.7082026,0.0,0.0,0.7060093,0.0,0.0,-0.001
1592996000,0.0,0.70810395,0.0,0.0,0.7061082,0.0,0.0,-0.001
1593044000,0.0,0.70807844,0.0,0.0,0.70613384,0.0,0.0,-0.001
1593100000,0.0,0.7080477,0.0,0.0,0.7061646,0.0,0.0,-0.001
1593148000,0.0,0.7080286,0.0,0.0,0.7061838,0.0,0.0,-0.001
1593196000,0.0,0.70805013,0.0,0.0,0.70616215,0.0,0.0,-0.001
1593244000,0.0,0.708084,0.0,0.0,0.70612824,0.0,0.0,-0.001
1593300000,0.0,0.708077,-0.002427039,-0.0047099125,0.70611537,0.0,0.0,-0.008903288
1593348000,0.0,0.7080752,-0.0029112785,-0.0048294454,0.70611453,0.0,0.0,-0.015321037
1593396000,0.0,0.70807666,-0.0025305145,-0.0041328836,0.706119,0.0,0.0,-0.022220552
1593444000,0.0,0.7080767,-0.0025182439,-0.0041078534,0.70611906,0.0,0.0,-0.029658293
1593492000,0.0,0.7080755,-0.00284246,-0.0039248755,0.70612013,0.0,0.0,-0.03773354
1593540000,0.0,0.7080777,-0.0022208926,-0.004500067,0.7061167,0.0,0.0,-0.046399605
1593596000,0.0,0.70807743,-0.0023165308,-0.005221803,0.7061118,0.0,0.0,-0.05674217
1593644000,0.0,0.7080779,-0.0021440047,-0.0052497583,0.70611155,0.0,0.0,-0.06565537
1593700000,0.0,0.7080781,-0.0021055185,-0.004419035,0.7061173,0.0,0.0,-0.076733775
1593740000,0.0,0.70807827,-0.002036308,-0.0045832973,0.7061162,0.0,0.0,-0.08503319
1593796000,0.0,0.70807964,-0.0014980274,-0.004723667,0.70611525,0.0,0.0,-0.09722663
1593844000,0.0,0.7080779,-0.0021368526,-0.004586291,0.7061162,0.0,0.0,-0.10814067
1593900000,0.0,0.708078,-0.0021229452,-0.0046250755,0.7061159,0.0,0.0,-0.12158436
1593948000,0.0,0.7080775,-0.0022901294,-0.004524898,0.70611656,0.0,0.0,-0.1333328
1593996000,0.0,0.708078,-0.0021146387,-0.0047964617,0.7061148,0.0,0.0,-0.14510186
1594044000,0.0,0.7080795,-0.0015522725,-0.004143739,0.7061189,0.0,0.0,-0.15771917
1594100000,0.0,0.7080771,-0.0024139984,-0.0041592317,0.7061189,0.0,0.0,-0.17310728
1594140000,0.0,0.7080791,-0.0017363308,-0.004605914,0.706116,0.0,0.0,-0.18437804
1594196000,0.0,0.70807964,-0.0014943276,-0.005109695,0.70611256,0.0,0.0,-0.20044614
1594244000,0.0,0.70808023,-0.001188868,-0.0052321735,0.70611167,0.0,0.0,-0.21451482
1594300000,0.0,0.7076388,-0.0010692416,-0.005090897,0.7065552,0.0,0.0,-0.23143554
1594348000,0.0,0.7076584,-0.0022455757,-0.0050972165,0.70653284,0.0,0.0,-0.24663712
1594396000,0.0,0.70767134,-0.0021774017,-0.005373635,0.70651805,0.0,0.0,-0.2625221
1594444000,0.0,0.7076223,-0.002131725,-0.005001966,0.70657,0.0,0.0,-0.2785659
1594500000,0.0,0.7074672,-0.0019703084,-0.0045600664,0.7067287,0.0,0.0,-0.29841384
1594540000,0.0,0.7074922,-0.0020631833,-0.0045712614,0.7067034,0.0,0.0,-0.31257975
1594596000,0.0,0.7074044,-0.0016990128,-0.0050394214,0.70678914,0.0,0.0,-0.3181113
1594644000,0.0,0.7074042,-0.0014474525,-0.0049244426,0.7067906,0.0,0.0,-0.32177386
1594700000,0.0,0.7074218,-0.0013646996,-0.0052376795,0.706771,0.0,0.0,-0.32832488
1594748000,0.0,0.7075165,-0.0020297274,-0.005491163,0.7066726,0.0,0.0,-0.33410016
1594796000,0.0,0.70756483,-0.0015782423,-0.0053639337,0.70662636,0.0,0.0,-0.3384364
1594844000,0.0,0.70752585,-0.001311992,-0.0057573775,0.7066628,0.0,0.0,-0.3427543
1594900000,0.0,0.7075478,-0.0017869809,-0.005456012,0.7066422,0.0,0.0,-0.35012734
1594948000,0.0,0.707473,-0.0018363263,-0.005351225,0.7067179,0.0,0.0,-0.35573408
1594996000,0.0,0.70748544,-0.001677178,-0.0056088986,0.7067037,0.0,0.0,-0.36044815
1595044000,0.0,0.7074521,-0.0014703269,-0.005827397,0.70673573,0.0,0.0,-0.36494315
1595100000,0.0,0.7075446,-0.0005700434,-0.006106192,0.7066421,0.0,0.0,-0.37294957
1595148000,0.0,0.70753825,-0.0013440236,-0.006364974,0.7066452,0.0,0.0,-0.37933737
1595196000,0.0,0.7076468,-0.0018133343,-0.0061947936,0.7065368,0.0,0.0,-0.3840421
1595244000,0.0,0.70759803,-0.0018535814,-0.0062927566,0.70658475,0.0,0.0,-0.38937515
1595300000,0.0,0.7075631,-0.0009739906,-0.0066124895,0.70661855,0.0,0.0,-0.3977199
1595348000,0.0,0.7075917,-0.0006366555,-0.006116683,0.70659477,0.0,0.0,-0.4045288
1595396000,0.0,0.7075065,-0.00052011287,-0.006663571,0.7066753,0.0,0.0,-0.41052845
1595444000,0.0,0.7075636,-0.0008922397,-0.0065128556,0.70661914,0.0,0.0,-0.41663286
1595500000,0.0,0.70767283,-0.0010128021,-0.007345714,0.7065014,0.0,0.0,-0.4262018
1595548000,0.0,0.70770717,-0.00080462685,-0.0073936256,0.70646673,0.0,0.0,-0.433328
1595596000,0.0,0.7076502,-0.0005192591,-0.0085935285,0.7065105,0.0,0.0,-0.4395444
1595644000,0.0,0.70758617,-0.00012318154,-0.0072823744,0.7065896,0.0,0.0,-0.44603693
1595700000,0.0,0.7076689,-0.00035477654,-0.008024721,0.7064986,0.0,0.0,-0.4559896
1595740000,0.0,0.70763534,-0.00021070648,-0.008209645,0.7065301,0.0,0.0,-0.46223277
1595796000,0.0,0.70774704,0.0004681674,-0.008627609,0.7064132,0.0,0.0,-0.47030738
1595844000,0.0,0.70783126,0.000814494,-0.00865364,0.70632815,0.0,0.0,-0.4774024
1595900000,0.0,0.7078296,0.0007577564,-0.00818642,0.7063354,0.0,0.0,-0.4883344
1595948000,0.0,0.7078952,0.0014111635,-0.009359188,0.70625407,0.0,0.0,-0.4964068
1595996000,0.0,0.70790786,0.0013626182,-0.0086104125,0.7062511,0.0,0.0,-0.50380766
1596044000,0.0,0.70782554,0.0014370044,-0.008505963,0.70633465,0.0,0.0,-0.5113526
1596092000,0.0,0.7077982,0.0018059612,-0.008622284,0.7063598,0.0,0.0,-0.52172816
1596148000,0.0,0.7079429,0.0024014143,-0.008675582,0.7062124,0.0,0.0,-0.5305113
1596196000,0.0,0.70791024,0.0020928762,-0.008962034,0.7062425,0.0,0.0,-0.53796244
1596244000,0.0,0.70800847,0.002425002,-0.00914905,0.7061406,0.0,0.0,-0.5456429
1596300000,0.0,0.707962,0.0026061023,-0.009339944,0.7061841,0.0,0.0,-0.58299494
1596348000,0.0,0.7081302,0.0024291382,-0.009821928,0.70600945,0.0,0.0,-0.59129035
1596396000,0.0,0.70816904,0.0026908251,-0.010237978,0.7059636,0.0,0.0,-0.5993238
1596444000,0.0,0.7081431,0.0030034094,-0.009711035,0.70599586,0.0,0.0,-0.60762477
1596500000,0.0,0.70806515,0.0033035944,-0.009797306,0.7060715,0.0,0.0,-0.62037563
1596548000,0.0,0.7081332,0.0032705476,-0.009855368,0.70600253,0.0,0.0,-0.62879527
1596596000,0.0,0.7081387,0.0032556867,-0.0107093165,0.70598465,0.0,0.0,-0.6370394
1596644000,0.0,0.70815516,0.003685758,-0.010291866,0.70597225,0.0,0.0,-0.64633644
1596700000,0.0,0.7081951,0.0038204477,-0.010784062,0.70592415,0.0,0.0,-0.66015464
1596748000,0.0,0.70813936,0.004182184,-0.011201387,0.70597154,0.0,0.0,-0.6691981
1596796000,0.0,0.7079552,0.0044918163,-0.011694556,0.70614624,0.0,0.0,-0.67881495
1596844000,0.0,0.707974,0.0039590457,-0.010827942,0.7061444,0.0,0.0,-0.6877657
1596900000,0.0,0.70800287,0.0041587404,-0.011085801,0.7061103,0.0,0.0,-0.7018677
1596940000,0.0,0.70794594,0.003966269,-0.011172129,0.7061672,0.0,0.0,-0.7094365
1596996000,0.0,0.7078604,0.0039634937,-0.0099633355,0.706271,0.0,0.0,-0.71627057
1597044000,0.0,0.70782584,0.0036506928,-0.009596002,0.7063124,0.0,0.0,-0.7218067
1597100000,0.0,0.70803726,0.0027423596,-0.009294439,0.70610857,0.0,0.0,-0.7308107
1597148000,0.0,0.70805156,0.0022481747,-0.007053523,0.706122,0.0,0.0,-0.73507285
1597196000,0.0,0.7081011,0.00097128405,-0.004479648,0.7060963,0.0,0.0,-0.738259
1597244000,0.0,0.7080883,0.0008418421,-0.0007163777,0.7061231,0.0,0.0,-0.74045444
1597300000,0.0,0.7080226,0.0005738089,0.0035123683,0.7061809,0.0,0.0,-0.74686307
1597340000,0.0,0.70808464,4.744738e-05,0.0063802605,0.7060987,0.0,0.0,-0.7487437
1597396000,0.0,0.70795375,-0.0016834597,0.010295826,0.70618176,0.0,0.0,-0.74801975
1597444000,0.0,0.708015,-0.0018407088,0.013073851,0.706074,0.0,0.0,-0.7475052
1597500000,0.0,0.70807207,-0.0015145848,0.015760811,0.70596254,0.0,0.0,-0.7523789
1597548000,0.0,0.70823145,-0.0020080367,0.017574482,0.7057587,0.0,0.0,-0.752836
1597596000,0.0,0.7082226,-0.0017099921,0.01966271,0.7057133,0.0,0.0,-0.7514262
1597644000,0.0,0.7081717,-0.0016149702,0.02028975,0.70574677,0.0,0.0,-0.75042653
1597700000,0.0,0.7082254,-0.0018992295,0.021285065,0.70566285,0.0,0.0,-0.75208163
1597748000,0.0,0.70822,-0.0017856791,0.02220875,0.70564014,0.0,0.0,-0.7393077
1597796000,0.0,0.7081515,-0.0019754444,0.022820981,0.7056888,0.0,0.0,-0.72850454
1597844000,0.0,0.70811754,-0.0015359169,0.022675425,0.70572877,0.0,0.0,-0.7234183
1597900000,0.0,0.70808697,-0.002220364,0.022746764,0.70575523,0.0,0.0,-0.7284616
1597940000,0.0,0.708084,-0.0019817213,0.022319997,0.7057726,0.0,0.0,-0.7301985
1597996000,0.0,0.7081789,-0.001568103,0.02206232,0.7056865,0.0,0.0,-0.7293422
1598044000,0.0,0.70824015,-0.00208482,0.022421865,0.7056124,0.0,0.0,-0.7296029
1598092000,0.0,0.7082238,-0.002667545,0.022099942,0.70563704,0.0,0.0,-0.7266486
1598140000,0.0,0.70818835,-0.002123931,0.02166302,0.70568794,0.0,0.0,-0.7238374
1598196000,0.0,0.70815915,-0.0022528765,0.021034874,0.70573586,0.0,0.0,-0.71940994
1598244000,0.0,0.70817775,-0.0030180733,0.02085464,0.70571965,0.0,0.0,-0.71879077
1598292000,0.0,0.708257,-0.003311561,0.019754302,0.7056705,0.0,0.0,-0.724779
1598348000,0.0,0.7081861,-0.0032412924,0.019100377,0.70576,0.0,0.0,-0.7208209
1598396000,0.0,0.70808375,-0.0030214924,0.01876683,0.7058726,0.0,0.0,-0.7200988
1598444000,0.0,0.70795685,-0.0035145779,0.019288292,0.70598364,0.0,0.0,-0.71919394
1598500000,0.0,0.707911,-0.0035427215,0.019128742,0.70603365,0.0,0.0,-0.72425073
1598548000,0.0,0.70791876,-0.003530196,0.018364044,0.7060462,0.0,0.0,-0.7210707
1598596000,0.0,0.70808053,-0.0034547823,0.017399633,0.70590883,0.0,0.0,-0.7202999
1598644000,0.0,0.70811826,-0.0033795144,0.016286002,0.70589787,0.0,0.0,-0.7192362
1598692000,0.0,0.7080539,-0.0036320193,0.015651077,0.70597565,0.0,0.0,-0.7240771
1598748000,0.0,0.7080781,-0.0029942053,0.015047043,0.7059675,0.0,0.0,-0.71974164
1598796000,0.0,0.70808065,-0.002743256,0.014091046,0.70598567,0.0,0.0,-0.71828085
1598844000,0.0,0.70804846,-0.0031601158,0.0140777435,0.7060164,0.0,0.0,-0.7168444
1598900000,0.0,0.7079022,-0.0028031261,0.014158414,0.7061629,0.0,0.0,-0.7216479
1598948000,0.0,0.7078046,-0.003022349,0.013699631,0.7062689,0.0,0.0,-0.7179564
1598996000,0.0,0.7077766,-0.002600382,0.013291777,0.7063065,0.0,0.0,-0.71676886
1599044000,0.0,0.7078486,-0.002898564,0.012777313,0.7062427,0.0,0.0,-0.7157426
1599100000,0.0,0.70777404,-0.002412104,0.012045776,0.7063321,0.0,0.0,-0.72002864
1599148000,0.0,0.70777625,-0.003271843,0.011383084,0.7063374,0.0,0.0,-0.7165567
1599196000,0.0,0.70770776,-0.0027001514,0.010385825,0.7064239,0.0,0.0,-0.71535265
1599244000,0.0,0.70771134,-0.0029775265,0.0098862145,0.70642626,0.0,0.0,-0.7143493
1599300000,0.0,0.7077188,-0.0028718987,0.009573379,0.70642364,0.0,0.0,-0.71873146
1599348000,0.0,0.70778227,-0.002852937,0.008859804,0.70636934,0.0,0.0,-0.7154597
1599396000,0.0,0.7078346,-0.0028628046,0.007965495,0.7063275,0.0,0.0,-0.714016
1599444000,0.0,0.70787,-0.002797171,0.007517915,0.7062972,0.0,0.0,-0.7125626
1599500000,0.0,0.7079123,-0.0017739845,0.006425593,0.7062689,0.0,0.0,-0.71616226
1599548000,0.0,0.70796895,-0.0019889458,0.0059982664,0.70621526,0.0,0.0,-0.71262366
1599596000,0.0,0.7078683,-0.0017483463,0.004529561,0.7063278,0.0,0.0,-0.71190506
1599644000,0.0,0.707816,-0.0005744604,0.004576991,0.70638186,0.0,0.0,-0.7106793
1599700000,0.0,0.7079093,-0.0010061313,0.00430904,0.7062895,0.0,0.0,-0.71446717
1599748000,0.0,0.6904422,-0.00013533686,0.0036104154,0.7233786,0.0,0.0,-0.7110321
1599796000,0.0,0.69031644,-0.00015746657,0.002965922,0.7235015,0.0,0.0,-0.7102472
1599844000,0.0,0.69014525,0.0005109294,0.0024121827,0.7236667,0.0,0.0,-0.7089869
1599892000,0.0,0.6899552,0.0005550387,0.0019808745,0.7238493,0.0,0.0,-0.7132939
1599940000,0.0,0.6897406,0.00035459257,0.0012541916,0.72405535,0.0,0.0,-0.7123591
1599996000,0.0,0.6896417,0.00016819511,0.001269188,0.7241497,0.0,0.0,-0.70837456
1600044000,0.0,0.6896101,0.0005552807,0.0015694842,0.72417897,0.0,0.0,-0.7076742
1600100000,0.0,0.68967307,0.0006846594,0.0013839898,0.7241192,0.0,0.0,-0.7110295
1600148000,0.0,0.68985677,0.00062151067,0.0006694696,0.7239454,0.0,0.0,-0.70837075
1600196000,0.0,0.6899514,0.00078290474,0.00011361801,0.7238553,0.0,0.0,-0.7079116
1600244000,0.0,0.6899324,0.00024087384,-0.000519428,0.7238735,0.0,0.0,-0.70752066
1600300000,0.0,0.6899404,0.0009251964,-0.00083290605,0.72386515,0.0,0.0,-0.7108086
1600348000,0.0,0.68976146,0.000831254,-0.0011937259,0.72403526,0.0,0.0,-0.7078754
1600396000,0.0,0.6895373,0.00038015938,-0.0011599978,0.7242491,0.0,0.0,-0.7068862
1600444000,0.0,0.68933505,0.000552183,-0.0010468062,0.72444177,0.0,0.0,-0.7056264
1600500000,0.0,0.6892171,-0.0005511462,-0.0010473524,0.724554,0.0,0.0,-0.70845014
1600548000,0.0,0.6892243,-0.0005023676,-0.00040602876,0.7245478,0.0,0.0,-0.70565856
1600596000,0.0,0.6892652,-0.0005794044,-0.00037566968,0.7245088,0.0,0.0,-0.6973266
1600644000,0.0,0.68926704,-0.000529645,-0.001029845,0.7245065,0.0,0.0,-0.6880743
1600692000,0.0,0.6892087,-0.0005625063,-0.0015381143,0.72456104,0.0,0.0,-0.6740919
1600748000,0.0,0.68921936,-0.00059455435,-0.00200685,0.7245498,0.0,0.0,-0.6621287
1600796000,0.0,0.68921965,-0.0001006936,-0.0023010161,0.7245488,0.0,0.0,-0.6548385
1600844000,0.0,0.6892196,-0.00026042594,-0.0018571088,0.7245501,0.0,0.0,-0.65405655
1600900000,0.0,0.68921816,-0.0014112882,-0.0016929395,0.72455055,0.0,0.0,-0.6663173
1600948000,0.0,0.6892183,-0.0013246612,-0.0019310362,0.72455007,0.0,0.0,-0.6773295
1600996000,0.0,0.68921936,-0.0005880878,-0.0017890306,0.72455037,0.0,0.0,-0.68592644
1601044000,0.0,0.68921924,-0.00072178844,-0.0020896415,0.7245495,0.0,0.0,-0.6956484
1601100000,0.0,0.68921965,1.3462038e-07,-0.0023670313,0.72454864,0.0,0.0,-0.7084713
1601148000,0.0,0.68921936,-0.0006237493,-0.0027238112,0.72454745,0.0,0.0,-0.7170315
1601196000,0.0,0.6892197,-7.514925e-05,-0.0030630191,0.72454596,0.0,0.0,-0.7206279
1601244000,0.0,0.68921965,0.00032891915,-0.0023943824,0.7245485,0.0,0.0,-0.72145486
1601300000,0.0,0.6892197,0.00023773695,-0.002526021,0.724548,0.0,0.0,-0.7208633
1601348000,0.0,0.6892195,0.00055481464,-0.0022287199,0.72454906,0.0,0.0,-0.7160778
1601396000,0.0,0.68921924,0.0008830486,-0.0025712259,0.7245478,0.0,0.0,-0.71151793
1601444000,0.0,0.6892189,0.0011222746,-0.0023464072,0.72454846,0.0,0.0,-0.7082309
1601500000,0.0,0.6892195,0.0007585375,-0.0033192958,0.72454464,0.0,0.0,-0.70693094
1601540000,0.0,0.68921924,0.0009083205,-0.002864447,0.7245467,0.0,0.0,-0.70581275
1601596000,0.0,0.68921965,0.00043900864,-0.0028966083,0.7245466,0.0,0.0,-0.7052803
1601644000,0.0,0.6892196,0.00054427335,-0.0028526871,0.7245468,0.0,0.0,-0.705501
1601700000,0.0,0.6892196,-4.5159315e-05,-0.001842668,0.72455025,0.0,0.0,-0.7055979
1601748000,0.0,0.68921953,-0.00034629402,-0.0018186115,0.72455025,0.0,0.0,-0.70610267
1601796000,0.0,0.68921965,-2.7935419e-05,-0.0020056255,0.7245498,0.0,0.0,-0.7053709
1601844000,0.0,0.6892189,-0.0009813199,-0.0017663321,0.7245504,0.0,0.0,-0.7047282
1601900000,0.0,0.68921936,-0.00055610423,-0.0012875176,0.7245515,0.0,0.0,-0.70520663
1601940000,0.0,0.6892196,0.00019222086,-0.0015609753,0.72455084,0.0,0.0,-0.70477915
1601996000,0.0,0.6892196,6.06611e-06,-0.0013260093,0.7245514,0.0,0.0,-0.70477206
1602044000,0.0,0.68921953,-0.0002568254,-0.0009578713,0.7245519,0.0,0.0,-0.70411986
1602100000,0.0,0.6892196,0.0,0.0,0.7245525,0.0,0.0,-0.7049724
1602140000,0.0,0.6892196,4.7956226e-05,0.00016583885,0.7245525,0.0,0.0,-0.7052166
1602196000,0.0,0.6892196,0.0,0.0,0.7245525,0.0,0.0,-0.70492566
1602244000,0.0,0.6892195,-0.00035005205,-0.000162712,0.7245525,0.0,0.0,-0.70552313
1602292000,0.0,0.6892193,-0.000659852,-0.00040080136,0.72455245,0.0,0.0,-0.70664
1602348000,0.0,0.6892195,-0.00037295202,9.959149e-05,0.7245526,0.0,0.0,-0.7057642
1602396000,0.0,0.6892191,-0.00082792086,7.1537187e-07,0.7245525,0.0,0.0,-0.70510083
1602444000,0.0,0.6892194,-0.00053299515,0.00055853615,0.7245523,0.0,0.0,-0.7043658
1602500000,0.0,0.68921936,-0.0006102756,0.00061042747,0.7245522,0.0,0.0,-0.70532966
1602540000,0.0,0.68921924,-0.00077566603,0.0010474131,0.72455174,0.0,0.0,-0.70592546
1602596000,0.0,0.68921876,-0.0011029674,0.00073607074,0.7245521,0.0,0.0,-0.705817
1602644000,0.0,0.6892193,-0.0006976679,0.00076559983,0.7245521,0.0,0.0,-0.70426625
1602692000,0.0,0.6892196,-0.00021852745,0.0004695387,0.72455233,0.0,0.0,-0.70558184
1602740000,0.0,0.6892195,-0.00041502126,0.00055190077,0.72455233,0.0,0.0,-0.7055949
1602796000,0.0,0.6892191,-0.00077371654,0.00016495943,0.7245526,0.0,0.0,-0.7041881
1602844000,0.0,0.6892191,-0.00090709206,0.0018055756,0.7245501,0.0,0.0,-0.7033313
1602892000,0.0,0.6892194,-0.0006788102,0.002274171,0.72454876,0.0,0.0,-0.70423055
1602940000,0.0,0.6892194,-0.0006585009,0.0021730573,0.7245491,0.0,0.0,-0.70433074
1602996000,0.0,0.6892193,-0.00074218144,0.0019186186,0.72454983,0.0,0.0,-0.7045273
1603044000,0.0,0.6892194,-0.0006024033,0.0015992931,0.7245508,0.0,0.0,-0.70488113
1603100000,0.0,0.68921906,-0.00091490813,0.0010488537,0.7245516,0.0,0.0,-0.70581037
1603140000,0.0,0.68921924,-0.00073800026,0.00076670956,0.72455204,0.0,0.0,-0.70551485
1603196000,0.0,0.6892195,-0.0005282836,0.0011914902,0.7245515,0.0,0.0,-0.7058193
1603244000,0.0,0.68921965,-8.3945015e-05,0.0020188792,0.72454965,0.0,0.0,-0.70562947
1603292000,0.0,0.68921965,4.060291e-05,0.0018827716,0.7245501,0.0,0.0,-0.70652246
1603340000,0.0,0.6892196,-0.0004291732,0.0023784589,0.7245485,0.0,0.0,-0.706159
1603396000,0.0,0.6892196,0.0002126933,0.0021664097,0.7245493,0.0,0.0,-0.70454925
1603444000,0.0,0.6892196,-0.00035445963,0.0020700486,0.72454953,0.0,0.0,-0.7047358
1603492000,0.0,0.68921965,-0.00012207561,0.0021665334,0.7245493,0.0,0.0,-0.7062526
1603540000,0.0,0.6892195,0.0003866728,0.001444181,0.7245512,0.0,0.0,-0.70563
1603596000,0.0,0.6892196,0.00021207923,0.002082298,0.72454953,0.0,0.0,-0.70454943
1603644000,0.0,0.68921953,0.0003321322,0.0022725977,0.72454894,0.0,0.0,-0.70476186
1603700000,0.0,0.68921936,0.0005943307,0.0022319022,0.7245491,0.0,0.0,-0.70602244
1603748000,0.0,0.6892193,0.00063603016,0.0018222946,0.72455025,0.0,0.0,-0.70447344
1603796000,0.0,0.6892195,0.00046415304,0.00240928,0.7245485,0.0,0.0,-0.7040266
1603844000,0.0,0.68921965,0.0001199476,0.0024506494,0.72454834,0.0,0.0,-0.7045012
1603900000,0.0,0.6892196,0.0001233491,0.0019492261,0.72454995,0.0,0.0,-0.70591265
1603948000,0.0,0.68921936,0.0005396562,0.0013942546,0.72455126,0.0,0.0,-0.70510435
1603996000,0.0,0.6892189,0.0009637488,0.00139004,0.7245512,0.0,0.0,-0.70547116
1604044000,0.0,0.68921936,0.0006072975,0.00212574,0.7245494,0.0,0.0,-0.70557755
1604100000,0.0,0.6892193,0.0006772472,0.0029530413,0.7245465,0.0,0.0,-0.7063707
1604140000,0.0,0.6892185,0.001242846,0.0029050154,0.7245467,0.0,0.0,-0.70666337
1604196000,0.0,0.6892193,0.00068528514,0.002239199,0.72454906,0.0,0.0,-0.70570636
1604244000,0.0,0.6892189,0.0010281133,0.0024507411,0.72454834,0.0,0.0,-0.7060141
1604300000,0.0,0.6892188,0.001009466,0.0019208712,0.72454995,0.0,0.0,-0.7060228
1604348000,0.0,0.6892193,0.0006425412,0.0009478622,0.7245519,0.0,0.0,-0.70502067
1604396000,0.0,0.6892194,0.0004631161,0.0007284104,0.72455215,0.0,0.0,-0.7052264
1604444000,0.0,0.68921924,0.00069959083,0.0018639422,0.72455007,0.0,0.0,-0.7057009
1604500000,0.0,0.6892196,0.0002804919,0.0021792892,0.7245492,0.0,0.0,-0.7064025
1604540000,0.0,0.6892194,0.0004984202,0.0018485843,0.7245502,0.0,0.0,-0.7066727
1604596000,0.0,0.6892191,0.00079059385,0.0018025715,0.7245503,0.0,0.0,-0.7056214
1604644000,0.0,0.68921953,0.0003564151,0.0019203292,0.72455,0.0,0.0,-0.7054339
1604692000,0.0,0.68921953,0.0002559078,0.0007076406,0.7245522,0.0,0.0,-0.70588064
1604748000,0.0,0.68921953,0.0002463721,0.000960613,0.7245519,0.0,0.0,-0.7060108
1604796000,0.0,0.6892195,-0.00042927964,0.0013790873,0.7245512,0.0,0.0,-0.7058766
1604844000,0.0,0.6892196,-9.7626515e-05,0.0014306745,0.7245511,0.0,0.0,-0.7065826
1604892000,0.0,0.6892196,7.344539e-05,0.0012664639,0.72455144,0.0,0.0,-0.7065051
1604948000,0.0,0.6892196,9.196992e-05,0.0008582538,0.72455204,0.0,0.0,-0.7060239
1604996000,0.0,0.6892196,8.3706735e-05,0.0010324131,0.7245518,0.0,0.0,-0.7055596
1605044000,0.0,0.6892196,-0.00023198147,0.0013169374,0.7245513,0.0,0.0,-0.70606226
1605100000,0.0,0.68921953,0.00017973677,0.0003416231,0.72455245,0.0,0.0,-0.70617276
1605140000,0.0,0.68921953,0.00025035092,0.0005149272,0.7245524,0.0,0.0,-0.7060846
1605196000,0.0,0.6892194,0.00045481938,0.0003019314,0.7245525,0.0,0.0,-0.7060287
1605244000,0.0,0.68921953,0.00029024776,0.0011077266,0.7245517,0.0,0.0,-0.7058319
1605292000,0.0,0.6892191,0.00078707543,0.0014971759,0.7245511,0.0,0.0,-0.70569426
1605348000,0.0,0.6892182,0.0013700181,0.0013374366,0.7245513,0.0,0.0,-0.70541424
1605396000,0.0,0.68921936,0.00059472467,0.0014763131,0.724551,0.0,0.0,-0.7051017
1605444000,0.0,0.6892184,0.0012845035,0.0016970572,0.72455055,0.0,0.0,-0.7045752
1605492000,0.0,0.6892188,0.0010352219,0.0012690644,0.7245514,0.0,0.0,-0.70449257
1605540000,0.0,0.6892185,0.001206104,0.0007756767,0.7245522,0.0,0.0,-0.7049107
1605596000,0.0,0.6892183,0.0013339343,0.0009501734,0.724552,0.0,0.0,-0.7063051
1605644000,0.0,0.68921804,0.0014400558,0.0012257729,0.72455156,0.0,0.0,-0.7061637
1605692000,0.0,0.689216,0.0022283923,0.0014275203,0.72455114,0.0,0.0,-0.70599985
1605748000,0.0,0.6892156,0.002356337,0.00087508286,0.7245519,0.0,0.0,-0.70554554
1605796000,0.0,0.6892141,0.00276151,0.0009783311,0.72455186,0.0,0.0,-0.7054223
1605844000,0.0,0.6892153,0.0024441825,0.0008013036,0.72455204,0.0,0.0,-0.705237
1605900000,0.0,0.68921363,0.0028954744,0.00037375218,0.7245523,0.0,0.0,-0.70531833
1605940000,0.0,0.68921506,0.0025312228,-0.00024498109,0.72455233,0.0,0.0,-0.7054526
1605996000,0.0,0.68921536,0.0024568792,-0.0003209707,0.7245524,0.0,0.0,-0.7049914
1606044000,0.0,0.68921524,0.0024630162,0.000501643,0.72455233,0.0,0.0,-0.7054662
1606092000,0.0,0.68921685,0.0019566417,0.000855165,0.724552,0.0,0.0,-0.70564735
1606148000,0.0,0.6892164,0.0021015583,0.0012896227,0.7245514,0.0,0.0,-0.7052742
1606196000,0.0,0.6892175,0.0016915619,0.0009915234,0.7245519,0.0,0.0,-0.705991
1606244000,0.0,0.6892184,0.0012773714,0.00035589255,0.72455245,0.0,0.0,-0.70643306
1606292000,0.0,0.6892188,0.0010576104,-0.00011810359,0.72455245,0.0,0.0,-0.70669115
1606348000,0.0,0.6892176,0.0016508059,0.00058692374,0.7245524,0.0,0.0,-0.70678174
1606396000,0.0,0.6892186,0.001175975,0.0005619746,0.72455245,0.0,0.0,-0.70656854
1606444000,0.0,0.6892184,0.0012739998,0.0008551653,0.7245521,0.0,0.0,-0.7063527
1606500000,0.0,0.6892182,0.001377864,0.0013405144,0.7245513,0.0,0.0,-0.7067019
1606540000,0.0,0.689219,0.000893785,0.0010807875,0.7245517,0.0,0.0,-0.7063581
1606596000,0.0,0.6892188,0.0010390787,0.0013234562,0.7245514,0.0,0.0,-0.706375
1606644000,0.0,0.68921876,0.0010703475,0.0018477315,0.72455025,0.0,0.0,-0.7064329
1606700000,0.0,0.6892192,0.00075726124,0.0017669307,0.72455037,0.0,0.0,-0.7063383
1606740000,0.0,0.6892193,0.0006929122,0.001742569,0.7245504,0.0,0.0,-0.7073485
1606796000,0.0,0.6892195,0.00044213733,0.0016776616,0.72455055,0.0,0.0,-0.7069166
1606844000,0.0,0.68921936,0.00058639835,0.0016052303,0.7245508,0.0,0.0,-0.7074186
1606900000,0.0,0.6892192,0.0007447435,0.0010269773,0.72455186,0.0,0.0,-0.70761335
1606940000,0.0,0.68921906,0.00084412395,0.0014034471,0.7245512,0.0,0.0,-0.7075205
1606996000,0.0,0.68921953,0.00028460004,0.0011091911,0.72455174,0.0,0.0,-0.7064825
1607044000,0.0,0.6892194,0.0004914462,0.0009901393,0.72455186,0.0,0.0,-0.70618844
1607092000,0.0,0.6892196,-0.0002793452,0.0010412766,0.72455174,0.0,0.0,-0.7055702
1607140000,0.0,0.6892196,0.00016126045,0.0009316998,0.724552,0.0,0.0,-0.706173
1607196000,0.0,0.6892189,0.00095600006,0.0007391736,0.7245522,0.0,0.0,-0.7063416
1607244000,0.0,0.6892195,0.00043086396,0.00066347944,0.7245522,0.0,0.0,-0.706126
1607292000,0.0,0.68921953,0.00025692512,0.0006172717,0.7245523,0.0,0.0,-0.70603156
1607348000,0.0,0.6892195,0.0004184254,0.0005214932,0.72455233,0.0,0.0,-0.70639044
1607396000,0.0,0.68921953,0.00026321216,0.0014306237,0.72455126,0.0,0.0,-0.7064623
1607444000,0.0,0.689219,0.00088187883,0.001005201,0.7245519,0.0,0.0,-0.7059684
1607500000,0.0,0.6892196,0.000116167896,0.00087256246,0.724552,0.0,0.0,-0.7058175
1607540000,0.0,0.6892195,0.00037788297,0.00018978519,0.7245525,0.0,0.0,-0.7064383
1607596000,0.0,0.6892196,-2.6165826e-05,0.00034427404,0.7245525,0.0,0.0,-0.70694184
1607644000,0.0,0.6892194,0.0005050605,0.0013965263,0.72455126,0.0,0.0,-0.70606494
1607692000,0.0,0.6892192,0.0007423952,0.0014598147,0.7245511,0.0,0.0,-0.70568943
1607740000,0.0,0.68921906,0.00086204056,0.0009307046,0.7245519,0.0,0.0,-0.7058746
1607796000,0.0,0.68921924,0.000705398,0.0010543903,0.7245518,0.0,0.0,-0.70578855
1607844000,0.0,0.68921953,0.00032039822,0.0008198813,0.7245521,0.0,0.0,-0.7058386
1607900000,0.0,0.6892191,0.00079846295,0.0011400034,0.7245517,0.0,0.0,-0.7056366
1607940000,0.0,0.6892191,0.00077865494,0.0017576077,0.7245504,0.0,0.0,-0.7056425
1607996000,0.0,0.6892196,-4.55674e-06,0.0013033462,0.72455144,0.0,0.0,-0.70565134
1608044000,0.0,0.6892185,0.0012064744,0.002198343,0.72454923,0.0,0.0,-0.70562273
1608092000,0.0,0.689219,0.0009412126,0.0017628471,0.7245503,0.0,0.0,-0.70529205
1608140000,0.0,0.6892193,0.00062950625,0.001981176,0.72454983,0.0,0.0,-0.70571816
1608196000,0.0,0.68921816,0.0013964878,0.0015590903,0.72455084,0.0,0.0,-0.7058604
1608244000,0.0,0.68921834,0.0013023417,0.0016385505,0.7245507,0.0,0.0,-0.7057027
1608300000,0.0,0.6892191,0.00080267404,0.0017889143,0.7245504,0.0,0.0,-0.70536435
1608348000,0.0,0.689219,0.0009074412,0.0009821862,0.7245519,0.0,0.0,-0.70579684
1608396000,0.0,0.6892182,0.0013876389,0.0017123773,0.7245504,0.0,0.0,-0.70555305
1608444000,0.0,0.6892175,0.0016877501,0.0017556084,0.7245504,0.0,0.0,-0.70596886
1608500000,0.0,0.6892188,0.0010576766,0.0018144043,0.72455025,0.0,0.0,-0.7052893
1608548000,0.0,0.68921846,0.0012587794,0.0013353418,0.7245513,0.0,0.0,-0.7058186
1608596000,0.0,0.689219,0.0009085538,0.0008510293,0.724552,0.0,0.0,-0.70560646
1608644000,0.0,0.6892193,0.0006336077,0.00085500244,0.72455204,0.0,0.0,-0.7051475
1608692000,0.0,0.68921864,0.0011339379,0.0017677463,0.72455037,0.0,0.0,-0.7055614
1608748000,0.0,0.68921906,0.00086781615,0.00080473867,0.7245521,0.0,0.0,-0.7056584
1608796000,0.0,0.6892195,0.00043526042,0.0008910806,0.724552,0.0,0.0,-0.70528626
1608844000,0.0,0.68921906,0.0008319075,0.0010033256,0.7245519,0.0,0.0,-0.70514315
1608892000,0.0,0.6892195,0.0003692079,0.00078022026,0.72455215,0.0,0.0,-0.7046389
1608948000,0.0,0.6892193,0.0005901031,0.0003143455,0.7245525,0.0,0.0,-0.7051635
1608996000,0.0,0.68921894,0.000959621,5.4768676e-05,0.7245525,0.0,0.0,-0.7059918
1609044000,0.0,0.68921906,0.0008477112,0.00041887403,0.72455245,0.0,0.0,-0.7058017
1609100000,0.0,0.689219,0.00087761204,-6.824584e-05,0.7245526,0.0,0.0,-0.7062214
1609140000,0.0,0.6892186,0.0011960925,-0.00024388442,0.72455245,0.0,0.0,-0.705655
1609196000,0.0,0.6892194,0.0005201914,-0.00042004263,0.7245524,0.0,0.0,-0.70552343
1609244000,0.0,0.6892192,0.0007680329,-0.0003091585,0.72455245,0.0,0.0,-0.7052143
1609300000,0.0,0.6892193,0.000635375,-0.00027043634,0.72455245,0.0,0.0,-0.7057654
1609340000,0.0,0.689219,0.0009183094,-0.0009720326,0.72455186,0.0,0.0,-0.70623714
1609396000,0.0,0.68921834,0.0013608736,-0.001048071,0.72455174,0.0,0.0,-0.7063784
1609444000,0.0,0.6892178,0.0016492424,-0.0014102361,0.72455096,0.0,0.0,-0.7056672
1609500000,0.0,0.68921864,0.0012397368,-0.0016864147,0.7245505,0.0,0.0,-0.7058049
1609540000,0.0,0.68921816,0.0014608412,-0.0014276798,0.724551,0.0,0.0,-0.705983
1609596000,0.0,0.6892189,0.0011070303,-0.0021828313,0.7245491,0.0,0.0,-0.70559794
1609644000,0.0,0.6892176,0.0017350832,-0.0018186754,0.72455007,0.0,0.0,-0.70540684
1609692000,0.0,0.6892188,0.001146,-0.0018826745,0.7245499,0.0,0.0,-0.70558834
1609740000,0.0,0.68921953,0.0004989832,-0.001973205,0.7245497,0.0,0.0,-0.7052807
1609796000,0.0,0.6892195,0.00047450533,-0.001772712,0.72455037,0.0,0.0,-0.70576596
1609844000,0.0,0.6892196,0.00025297588,-0.002056098,0.72454953,0.0,0.0,-0.70565385
1609892000,0.0,0.6892191,0.0009263592,-0.0020294944,0.72454953,0.0,0.0,-0.705512
1609948000,0.0,0.6892196,0.0004519867,-0.0023106146,0.72454876,0.0,0.0,-0.7058632
1609996000,0.0,0.6892197,0.00028100619,-0.002838498,0.72454685,0.0,0.0,-0.70628333
1610044000,0.0,0.68921965,0.00035891,-0.0027979286,0.724547,0.0,0.0,-0.70648074
1610092000,0.0,0.6892198,0.0001969734,-0.0030818735,0.72454584,0.0,0.0,-0.7066863
1610148000,0.0,0.6892198,0.00020108599,-0.0030622047,0.7245459,0.0,0.0,-0.7060631
1610196000,0.0,0.68921983,-1.1767203e-05,-0.0038369535,0.7245422,0.0,0.0,-0.7060633
1610244000,0.0,0.6892198,0.00022451754,-0.0036755472,0.7245431,0.0,0.0,-0.7059304
1610300000,0.0,0.68921965,0.00054329104,-0.0033877357,0.7245444,0.0,0.0,-0.70613736
1610348000,0.0,0.6892197,0.00047882524,-0.0036997858,0.72454286,0.0,0.0,-0.7057785
1610396000,0.0,0.6892198,7.7598415e-05,-0.0033152732,0.7245449,0.0,0.0,-0.70543593
1610444000,0.0,0.6892197,0.00024232765,-0.0025896726,0.7245478,0.0,0.0,-0.7059433
1610500000,0.0,0.6892196,-0.000318396,-0.0029831072,0.7245464,0.0,0.0,-0.7062446
1610548000,0.0,0.68921965,-0.00021578127,-0.0027265034,0.7245474,0.0,0.0,-0.7063562
1610596000,0.0,0.6892197,0.00013275401,-0.0024922004,0.72454816,0.0,0.0,-0.70679396
1610644000,0.0,0.68921953,-0.0004011699,-0.002896952,0.72454673,0.0,0.0,-0.7061978
1610700000,0.0,0.6892197,7.199344e-05,-0.002353306,0.72454864,0.0,0.0,-0.70664334
1610748000,0.0,0.68921953,-0.0003783807,-0.0025383346,0.72454804,0.0,0.0,-0.70693237
1610796000,0.0,0.6892197,-0.00016052136,-0.003059733,0.7245461,0.0,0.0,-0.70752376
1610844000,0.0,0.6892198,-0.00018905783,-0.0035159662,0.7245438,0.0,0.0,-0.7072599
1610900000,0.0,0.6892197,-9.442665e-05,-0.0027169946,0.72454727,0.0,0.0,-0.7069189
1610948000,0.0,0.6892198,-3.3370987e-05,-0.0032156329,0.7245453,0.0,0.0,-0.7065463
1610996000,0.0,0.6892198,4.2574662e-05,-0.0031023116,0.72454584,0.0,0.0,-0.70618254
1611044000,0.0,0.6892197,0.0004350949,-0.0033325325,0.72454464,0.0,0.0,-0.70588243
1611100000,0.0,0.6892197,-0.00021269258,-0.0030808293,0.7245459,0.0,0.0,-0.7056874
1611140000,0.0,0.6892197,-2.9540304e-05,-0.0029244476,0.72454655,0.0,0.0,-0.70505095
1611196000,0.0,0.6892198,0.00019236168,-0.0029688866,0.72454625,0.0,0.0,-0.705225
1611244000,0.0,0.68921953,-0.0004599183,-0.0026061507,0.72454774,0.0,0.0,-0.7049997
1611292000,0.0,0.6892196,0.00033327355,-0.0024247055,0.72454846,0.0,0.0,-0.70514596
1611340000,0.0,0.6892197,-0.00015436945,-0.0026699677,0.7245475,0.0,0.0,-0.7055925
1611396000,0.0,0.6892196,-0.00033749096,-0.002725085,0.7245473,0.0,0.0,-0.706094
1611444000,0.0,0.68921936,-0.00058681844,-0.0019180612,0.72455007,0.0,0.0,-0.706207
1611500000,0.0,0.6892196,0.00030295257,-0.0019294863,0.72454995,0.0,0.0,-0.70689934
1611548000,0.0,0.68921953,0.00045049147,-0.0017365796,0.72455037,0.0,0.0,-0.7068816
1611596000,0.0,0.68921924,0.0007825625,-0.0014694259,0.72455096,0.0,0.0,-0.7073151
1611644000,0.0,0.6892193,0.0007220686,-0.0013648454,0.7245512,0.0,0.0,-0.70751774
1611692000,0.0,0.6892196,0.00032843946,-0.0018054888,0.72455025,0.0,0.0,-0.70763934
1611748000,0.0,0.6892196,9.824814e-05,-0.0017321613,0.7245505,0.0,0.0,-0.70760334
1611796000,0.0,0.6892196,0.00025009393,-0.00073041057,0.72455215,0.0,0.0,-0.70732456
1611844000,0.0,0.6892196,6.3691746e-06,-0.0009455312,0.724552,0.0,0.0,-0.7070041
1611900000,0.0,0.6892196,0.0001475056,-0.00086781476,0.7245521,0.0,0.0,-0.70659685
1611940000,0.0,0.68921953,0.00030997721,-0.001074994,0.7245517,0.0,0.0,-0.70676714
1611996000,0.0,0.6892196,0.0,0.0,0.7245525,0.0,0.0,-0.7061943
1612044000,0.0,0.6892195,0.00038698709,-0.0009130814,0.724552,0.0,0.0,-0.70602834
1612100000,0.0,0.68921936,0.000616111,-0.0015466169,0.72455084,0.0,0.0,-0.7064235
1612148000,0.0,0.6892195,0.00050839636,-0.0016132441,0.7245507,0.0,0.0,-0.7065739
1612196000,0.0,0.6892195,0.0004379221,-0.0015875249,0.7245508,0.0,0.0,-0.7062248
1612244000,0.0,0.6892196,0.00021863391,-0.001870475,0.7245501,0.0,0.0,-0.7065133
1612300000,0.0,0.6892193,0.00066345977,-0.001282959,0.7245514,0.0,0.0,-0.70631033
1612348000,0.0,0.6892193,0.0006735456,-0.00078690524,0.7245521,0.0,0.0,-0.7064912
1612396000,0.0,0.6892189,0.0010115863,-0.0003304263,0.7245524,0.0,0.0,-0.7064869
1612444000,0.0,0.6892193,0.00069434266,-0.00070807105,0.72455215,0.0,0.0,-0.70648056
1612500000,0.00837758,0.68918276,0.0007892467,-0.0010372185,0.7245864,0.0,0.0,-0.70629513
1612548000,0.027925268,0.6885967,0.017607566,-0.0013619792,0.72492945,0.0,0.0,-0.7063794
1612596000,0.0418879,0.68769246,0.029586993,-0.002119835,0.72539586,0.0,0.0,-0.706877
1612644000,0.055850536,0.6863101,0.042760693,-0.0019945493,0.72604823,0.0,0.0,-0.7075999
1612700000,0.07819075,0.6837401,0.05735326,-0.009899258,0.72740096,0.0,0.0,-0.7088575
1612748000,0.09773844,0.6810637,0.06776292,-0.018702123,0.72884196,0.0,0.0,-0.70982146
1612796000,0.11170107,0.6789402,0.07410437,-0.025563907,0.7299968,0.0,0.0,-0.71120036
1612844000,0.12566371,0.6765857,0.08027846,-0.032737628,0.7312424,0.0,0.0,-0.7120481
1612900000,0.14800394,0.6720581,0.09216881,-0.045180872,0.73334956,0.0,0.0,-0.71479124
1612940000,0.16196658,0.6690995,0.09796566,-0.05212788,0.73484105,0.0,0.0,-0.71612537
1612996000,0.18151428,0.6644962,0.106545255,-0.062191866,0.73703814,0.0,0.0,-0.71751887
1613044000,0.19547692,0.6611782,0.11097488,-0.06896421,0.7387638,0.0,0.0,-0.71651524
1613092000,0.21781714,0.65474814,0.12232526,-0.08121859,0.7414479,0.0,0.0,-0.7198186
1613148000,0.23736484,0.64920884,0.12884867,-0.09172267,0.74398434,0.0,0.0,-0.7220477
1613196000,0.25132748,0.645229,0.13212323,-0.098186515,0.7460444,0.0,0.0,-0.72296786
1613244000,0.2652901,0.6407772,0.13684973,-0.10422171,0.74820757,0.0,0.0,-0.724343
1613300000,0.25575948,0.6335602,0.14421691,-0.11506963,0.7513734,0.0,0.0,-0.7279988
1613340000,0.24179685,0.629996,0.144258,-0.1168057,0.75408953,0.0,0.0,-0.7262755
1613396000,0.22224915,0.6254406,0.14369625,-0.11893167,0.75764817,0.0,0.0,-0.7234692
1613444000,0.20828651,0.62289387,0.1405056,-0.119477026,0.7602544,0.0,0.0,-0.72150946
1613492000,0.18594629,0.6178953,0.14341772,-0.123594604,0.7631259,0.0,0.0,-0.7248269
1613548000,0.16639858,0.61447865,0.14245442,-0.124581456,0.76589954,0.0,0.0,-0.72666746
1613596000,0.15243594,0.61260456,0.13941817,-0.12333039,0.7681587,0.0,0.0,-0.7260337
1613644000,0.1384733,0.6105666,0.13875607,-0.12344815,0.76988035,0.0,0.0,-0.7274216
1613700000,0.11613309,0.6072114,0.14140728,-0.12633245,0.7715817,0.0,0.0,-0.7317095
1613748000,0.0965854,0.6047159,0.14370175,-0.12885681,0.7726994,0.0,0.0,-0.7331816
1613796000,0.08262277,0.60378534,0.14111541,-0.12788258,0.7740644,0.0,0.0,-0.7317998
1613844000,0.06866013,0.6029577,0.13878709,-0.12591033,0.7754526,0.0,0.0,-0.73033804
1613900000,0.046319917,0.6013817,0.14068758,-0.12839107,0.775927,0.0,0.0,-0.73229414
1613940000,0.032357283,0.60074365,0.14096154,-0.12832199,0.77638286,0.0,0.0,-0.7328649
1613996000,0.012809595,0.6002431,0.14094254,-0.1277006,0.77687585,0.0,0.0,-0.7332282
1614044000,-0.0011530388,0.60029054,0.1400258,-0.1272831,0.77707344,0.0,0.0,-0.7330539
1614100000,-0.010597881,0.6001467,0.14319326,-0.13022512,0.77611923,0.0,0.0,-0.73625034
1614140000,0.0,0.6001329,0.14375657,-0.13055858,0.7759696,0.0,0.0,-0.7368609
1614196000,0.0,0.600051,0.14447492,-0.13129412,0.77577555,0.0,0.0,-0.7365235
1614244000,0.0,0.6003764,0.14194879,-0.12905751,0.77636516,0.0,0.0,-0.73374784
1614300000,0.0,0.5998959,0.1454589,-0.13165008,0.7756512,0.0,0.0,-0.73672277
1614348000,0.0,0.60006887,0.14326532,-0.12764065,0.77659523,0.0,0.0,-0.73493046
1614396000,0.0,0.600714,0.13746567,-0.12081955,0.77823424,0.0,0.0,-0.730444
1614444000,0.0,0.6008988,0.1340455,-0.11307515,0.77985024,0.0,0.0,-0.72817165
1614500000,0.0,0.6008104,0.13280874,-0.10745845,0.7809235,0.0,0.0,-0.72826153
1614548000,0.0007616237,0.60085917,0.13080661,-0.10202413,0.7819521,0.0,0.0,-0.728156
1614596000,0.0009553607,0.6014329,0.1251544,-0.095151275,0.7833015,0.0,0.0,-0.7265825
1614644000,0.0011187394,0.60203147,0.1189224,-0.08729813,0.78472584,0.0,0.0,-0.72464657
1614692000,0.0,0.6016628,0.1199797,-0.083128124,0.78530025,0.0,0.0,-0.7257396
1614748000,0.0013745616,0.60202634,0.115255825,-0.07537469,0.78651065,0.0,0.0,-0.7238312
1614796000,0.0014577706,0.6025254,0.109616086,-0.067728326,0.7876296,0.0,0.0,-0.7224942
1614844000,0.0016328467,0.60299194,0.104302876,-0.061040357,0.78854024,0.0,0.0,-0.72164303
1614900000,0.0,0.60303086,0.102019206,-0.054396857,0.78929514,0.0,0.0,-0.7213221
1614940000,0.0,0.6032004,0.09916004,-0.048709232,0.78990126,0.0,0.0,-0.7209109
1614996000,0.00115588,0.6035135,0.09469148,-0.041318916,0.79063123,0.0,0.0,-0.71929425
1615044000,0.00096807326,0.6042706,0.08680531,-0.03566166,0.7912333,0.0,0.0,-0.7169201
1615100000,0.0,0.6055638,0.07390164,-0.035628676,0.79155636,0.0,0.0,-0.7146723
1615148000,3.8560713e-05,0.6065283,0.062692635,-0.036878493,0.7917279,0.0,0.0,-0.7139004
1615196000,0.0,0.6072746,0.052313622,-0.038229655,0.7918456,0.0,0.0,-0.7135996
1615244000,0.0019019153,0.6076196,0.046395697,-0.039976876,0.7918635,0.0,0.0,-0.7140168
1615300000,0.0,0.60683835,0.05710815,-0.03778409,0.7918702,0.0,0.0,-0.71614593
1615348000,0.0012050851,0.60660255,0.06050555,-0.041010488,0.7916379,0.0,0.0,-0.7167017
1615396000,0.00085276016,0.6065893,0.059894893,-0.039498728,0.79177135,0.0,0.0,-0.71524113
1615444000,0.00053464435,0.60659283,0.05926911,-0.038662586,0.79185694,0.0,0.0,-0.7138005
1615492000,0.0,0.60612524,0.06603357,-0.043672245,0.79141927,0.0,0.0,-0.71401983
1615548000,0.0,0.6059395,0.06806837,-0.0442596,0.7913565,0.0,0.0,-0.71268076
1615596000,0.0,0.60594803,0.06742321,-0.042923052,0.7914789,0.0,0.0,-0.71188235
1615644000,0.0009553607,0.6060765,0.06495977,-0.040734205,0.7917021,0.0,0.0,-0.7117359
1615700000,0.0,0.60577375,0.06846965,-0.042415436,0.79154986,0.0,0.0,-0.71281236
1615748000,8.884119e-06,0.6055196,0.07155151,-0.044668414,0.7913477,0.0,0.0,-0.71383584
1615796000,0.0,0.60569096,0.06897904,-0.04305412,0.7915344,0.0,0.0,-0.71364075
1615844000,0.0,0.6058338,0.06662868,-0.041174475,0.7917264,0.0,0.0,-0.7125782
1615892000,0.0,0.6054083,0.07246112,-0.04608882,0.79126865,0.0,0.0,-0.71391976
1615948000,0.0,0.60530627,0.07366922,-0.047125783,0.791174,0.0,0.0,-0.7132123
1615996000,0.0,0.6055358,0.07081325,-0.046258926,0.79131025,0.0,0.0,-0.712763
1616044000,0.0,0.6057978,0.06685699,-0.043213435,0.79162604,0.0,0.0,-0.7110934
1616100000,0.0,0.6055754,0.06981639,-0.04535164,0.79142123,0.0,0.0,-0.71235675
1616148000,0.0,0.60536903,0.0726049,-0.0476039,0.79119575,0.0,0.0,-0.7140596
1616196000,0.0,0.605583,0.069813,-0.04627658,0.79136205,0.0,0.0,-0.7133332
1616244000,0.0,0.6057279,0.067883536,-0.045429274,0.791468,0.0,0.0,-0.7129294
1616292000,0.0,0.6054136,0.0726532,-0.049919557,0.79101455,0.0,0.0,-0.71406
1616348000,0.0,0.60541356,0.07283233,-0.050383236,0.7909687,0.0,0.0,-0.7138372
1616396000,0.0,0.6055572,0.070994854,-0.04926759,0.79109603,0.0,0.0,-0.7129828
1616444000,0.0,0.60569865,0.068678185,-0.046602096,0.79135376,0.0,0.0,-0.711792
1616500000,0.0,0.60555184,0.07090092,-0.048614297,0.7911489,0.0,0.0,-0.713087
1616548000,0.0,0.6054046,0.07338909,-0.051682983,0.7908402,0.0,0.0,-0.71366876
1616596000,0.0,0.6055912,0.07100728,-0.050341085,0.7910014,0.0,0.0,-0.71255165
1616644000,0.0,0.6057708,0.068678536,-0.04910214,0.79114723,0.0,0.0,-0.7124963
1616700000,0.0,0.605584,0.0716036,-0.051399823,0.7908849,0.0,0.0,-0.7133408
1616748000,0.0,0.60545194,0.0738932,-0.05387879,0.7906105,0.0,0.0,-0.7130544
1616796000,0.0,0.6055886,0.07224219,-0.0528934,0.79072493,0.0,0.0,-0.71229744
1616844000,0.0,0.60583025,0.06914429,-0.051369283,0.7909172,0.0,0.0,-0.71159077
1616900000,0.0,0.6056343,0.07181334,-0.052302405,0.7907684,0.0,0.0,-0.71320343
1616940000,0.0,0.6056813,0.07156725,-0.05298373,0.7907092,0.0,0.0,-0.7131943
1616996000,0.0,0.6056575,0.072057545,-0.053177748,0.7906699,0.0,0.0,-0.71283436
1617044000,0.0,0.6058564,0.06946341,-0.0515268,0.7908589,0.0,0.0,-0.71164066
1617100000,0.0,0.60573846,0.07182642,-0.054403815,0.7905455,0.0,0.0,-0.71297693
1617148000,0.0,0.6055714,0.074524656,-0.056690376,0.79026306,0.0,0.0,-0.713675
1617196000,0.0,0.6058077,0.0715281,-0.054772016,0.790494,0.0,0.0,-0.7121302
1617244000,0.0,0.6060465,0.06842889,-0.05311561,0.7906984,0.0,0.0,-0.7121671
1617292000,0.0,0.605674,0.07405476,-0.05715366,0.7901951,0.0,0.0,-0.71420056
1617340000,0.0,0.6058805,0.07131106,-0.05502917,0.7904401,0.0,0.0,-0.71348846
1617396000,0.0,0.60589546,0.07145374,-0.05534384,0.79039377,0.0,0.0,-0.71319485
1617444000,0.0,0.60607433,0.06917241,-0.053998698,0.79055256,0.0,0.0,-0.7127829
1617492000,0.0,0.60577804,0.074075505,-0.05853212,0.7900126,0.0,0.0,-0.71352106
1617540000,0.0,0.605929,0.07209134,-0.056851566,0.79020303,0.0,0.0,-0.71369255
1617596000,0.0,0.60593826,0.07224307,-0.056886412,0.79017955,0.0,0.0,-0.7129558
1617644000,0.0,0.60614514,0.06951965,-0.055202547,0.7903846,0.0,0.0,-0.7131397
1617700000,0.0,0.6060144,0.07185675,-0.05740066,0.79011923,0.0,0.0,-0.71446073
1617748000,0.0,0.6058001,0.074935846,-0.0591962,0.78986496,0.0,0.0,-0.71555674
1617796000,0.0,0.6059773,0.07262542,-0.057482988,0.79007137,0.0,0.0,-0.7149537
1617844000,0.0,0.60620236,0.069708176,-0.055826925,0.7902802,0.0,0.0,-0.71438926
1617900000,0.0,0.60601115,0.07264261,-0.057643805,0.79003215,0.0,0.0,-0.71464664
1617948000,0.0,0.6058964,0.07465444,-0.05961698,0.78978616,0.0,0.0,-0.7146926
1617996000,0.0,0.60604554,0.072723106,-0.05815425,0.7899609,0.0,0.0,-0.71306086
1618044000,0.0,0.60629165,0.06944117,-0.056101084,0.7902158,0.0,0.0,-0.71249807
1618100000,0.0,0.6061004,0.0722596,-0.057477172,0.790011,0.0,0.0,-0.71396565
1618148000,0.0,0.60591584,0.07506788,-0.05958272,0.7897346,0.0,0.0,-0.716173
1618196000,0.0,0.606164,0.071908824,-0.057746656,0.7899746,0.0,0.0,-0.71583337
1618244000,0.0,0.60630095,0.06981753,-0.055464618,0.79022044,0.0,0.0,-0.7146492
1618300000,0.0,0.6061694,0.0722335,-0.05802765,0.78992015,0.0,0.0,-0.7152379
1618348000,0.0,0.60595745,0.07516569,-0.059543174,0.78969646,0.0,0.0,-0.7156961
1618396000,0.0,0.60614514,0.07254956,-0.05723063,0.78996795,0.0,0.0,-0.71335244
1618444000,0.0,0.6063765,0.06943056,-0.055309698,0.7902075,0.0,0.0,-0.7120479
1618492000,0.0,0.6061033,0.07388223,-0.059625167,0.78969944,0.0,0.0,-0.71401596
1618548000,0.0,0.6060547,0.07426636,-0.058664627,0.7897726,0.0,0.0,-0.7140527
1618596000,0.0,0.6062224,0.07200521,-0.057023317,0.7899734,0.0,0.0,-0.7135084
1618644000,0.0,0.60645074,0.06894277,-0.055315018,0.7901928,0.0,0.0,-0.71301216
1618692000,0.0,0.60604686,0.074556895,-0.058552247,0.7897595,0.0,0.0,-0.71459275
1618740000,0.0,0.6061784,0.072703235,-0.056916546,0.78995097,0.0,0.0,-0.71385205
1618796000,0.0,0.606241,0.07198701,-0.056635,0.7899889,0.0,0.0,-0.7137258
1618844000,0.0,0.60636884,0.06991622,-0.054325163,0.79023886,0.0,0.0,-0.7135081
1618900000,0.0,0.6062003,0.072362326,-0.056059577,0.7900268,0.0,0.0,-0.7141341
1618948000,0.0,0.6060409,0.074649535,-0.05788092,0.78980494,0.0,0.0,-0.71537966
1618996000,0.0,0.60625434,0.07172743,-0.055854958,0.79005766,0.0,0.0,-0.7144643
1619044000,0.0,0.6064125,0.069402575,-0.053988434,0.7902737,0.0,0.0,-0.7136154
1619092000,0.0,0.60601383,0.07502486,-0.057985898,0.7897824,0.0,0.0,-0.71558964
1619148000,0.0,0.6060192,0.0748943,-0.057661906,0.78981435,0.0,0.0,-0.71483886
1619196000,0.0,0.606193,0.07242022,-0.055615187,0.79005843,0.0,0.0,-0.71358305
1619244000,0.0,0.60637534,0.069694094,-0.05324062,0.79032725,0.0,0.0,-0.7129738
1619300000,0.0,0.6062784,0.07152182,-0.05582382,0.79006004,0.0,0.0,-0.7140839
1619348000,0.0,0.606122,0.07364455,-0.057086088,0.7898948,0.0,0.0,-0.71510696
1619396000,0.0,0.6063274,0.07060625,-0.054419257,0.79020286,0.0,0.0,-0.71366316
1619444000,0.0,0.6064263,0.06889489,-0.052332636,0.790419,0.0,0.0,-0.71287614
1619500000,0.0,0.60625637,0.07157523,-0.054964222,0.7901324,0.0,0.0,-0.71321964
1619548000,0.0,0.606055,0.07433151,-0.056837097,0.7898998,0.0,0.0,-0.71349007
1619596000,0.0,0.60624367,0.07158498,-0.054491106,0.79017407,0.0,0.0,-0.71288174
1619644000,0.0,0.6064592,0.06848882,-0.052419387,0.7904232,0.0,0.0,-0.7127041
1619700000,0.0,0.606249,0.07165498,-0.055231914,0.79011226,0.0,0.0,-0.7138329
1619740000,0.0,0.6062408,0.07173004,-0.055232402,0.7901116,0.0,0.0,-0.7134579
1619796000,0.0,0.6061963,0.07207622,-0.05471702,0.7901501,0.0,0.0,-0.71402067
1619844000,0.0,0.60632056,0.07003287,-0.05248055,0.7903902,0.0,0.0,-0.7131745
1619892000,0.0,0.60597545,0.07503852,-0.056865465,0.7898919,0.0,0.0,-0.71487045
1619948000,0.0,0.605991,0.07501722,-0.05754228,0.78983307,0.0,0.0,-0.7140808
1619996000,0.0,0.60615987,0.07254779,-0.055373095,0.79008925,0.0,0.0,-0.71256036
1620044000,0.0,0.6063029,0.07039346,-0.05336046,0.7903128,0.0,0.0,-0.7126307
1620100000,0.0,0.60617507,0.07234722,-0.055068754,0.79011726,0.0,0.0,-0.7134701
1620140000,0.0,0.6061316,0.07267363,-0.054402765,0.79016674,0.0,0.0,-0.71385723
1620196000,0.0,0.6062223,0.07193758,-0.05545359,0.7900915,0.0,0.0,-0.7131197
1620244000,0.0,0.6063617,0.06974697,-0.05323913,0.7903333,0.0,0.0,-0.7120384
1620292000,0.0,0.6060078,0.07477403,-0.05702082,0.78988105,0.0,0.0,-0.71477807
1620348000,0.0,0.6060089,0.074917816,-0.0575755,0.78982633,0.0,0.0,-0.7147227
1620396000,0.0,0.6061699,0.07243077,-0.054935787,0.7901228,0.0,0.0,-0.71331793
1620444000,0.0,0.6063688,0.069795825,-0.05348686,0.7903067,0.0,0.0,-0.7125272
1620500000,0.0,0.60624796,0.07184929,-0.055662274,0.7900651,0.0,0.0,-0.71355546
1620540000,0.0,0.6062218,0.072138436,-0.055472642,0.79007214,0.0,0.0,-0.7138951
1620596000,0.0,0.6062123,0.072271615,-0.055394907,0.7900727,0.0,0.0,-0.7136181
1620644000,0.0,0.606424,0.06959322,-0.054402176,0.7902197,0.0,0.0,-0.71250075
1620692000,0.0,0.60598904,0.07564661,-0.05847331,0.78970623,0.0,0.0,-0.7141505
1620740000,0.0,0.60613286,0.073482454,-0.05619722,0.78996533,0.0,0.0,-0.71271855
1620796000,0.0,0.6061446,0.073316455,-0.05599548,0.789986,0.0,0.0,-0.7126994
1620844000,0.0,0.6063278,0.07086622,-0.054614697,0.7901658,0.0,0.0,-0.7130276
1620892000,0.0,0.60590297,0.076542,-0.05826384,0.7897014,0.0,0.0,-0.7151554
1620948000,0.0,0.6060111,0.07549778,-0.058737416,0.7896839,0.0,0.0,-0.71540433
1620996000,0.0,0.60611683,0.07379511,-0.056733426,0.78991014,0.0,0.0,-0.7143373
1621044000,0.0,0.60633075,0.070810445,-0.054657526,0.7901654,0.0,0.0,-0.7130569
1621092000,0.0,0.605925,0.07638789,-0.058672577,0.7896691,0.0,0.0,-0.7141241
1621148000,0.0,0.6059407,0.076163694,-0.05848581,0.78969264,0.0,0.0,-0.7144773
1621196000,0.0,0.6061348,0.07346768,-0.056377176,0.7899525,0.0,0.0,-0.713616
1621244000,0.0,0.60630006,0.0710433,-0.054337267,0.7901903,0.0,0.0,-0.7132429
1621292000,0.0,0.6059951,0.07537902,-0.05786567,0.7897719,0.0,0.0,-0.7144358
1621348000,0.0,0.60601515,0.075316116,-0.058480702,0.7897171,0.0,0.0,-0.7147839
1621396000,0.0,0.60618585,0.07269242,-0.055765186,0.79002845,0.0,0.0,-0.71439105
1621444000,0.0,0.60633343,0.07048446,-0.053845756,0.7902482,0.0,0.0,-0.7126706
1621492000,0.0,0.6059496,0.07601872,-0.058554873,0.78969467,0.0,0.0,-0.715122
1621540000,0.0,0.6061529,0.073246434,-0.056580383,0.7899446,0.0,0.0,-0.7144337
1621596000,0.0,0.6061189,0.07360638,-0.05656601,0.7899382,0.0,0.0,-0.7137149
1621644000,0.0,0.6063171,0.07087411,-0.055050172,0.790143,0.0,0.0,-0.71320754
1621700000,0.0,0.60609233,0.073486425,-0.05577865,0.7900258,0.0,0.0,-0.7151361
1621748000,0.0,0.60589945,0.07610979,-0.058093235,0.78975844,0.0,0.0,-0.71571803
1621796000,0.0,0.60601133,0.07402124,-0.055059917,0.79008836,0.0,0.0,-0.7145896
1621844000,0.0,0.6061731,0.07168319,-0.053354144,0.79029685,0.0,0.0,-0.7143336
1621900000,0.0,0.6059971,0.07407389,-0.0554164,0.7900694,0.0,0.0,-0.71449506
1621948000,0.0,0.60581625,0.076341,-0.05695924,0.7898825,0.0,0.0,-0.71455026
1621996000,0.0,0.6060026,0.073816195,-0.055320516,0.7900959,0.0,0.0,-0.71335185
1622044000,0.0,0.60617447,0.07128556,-0.05357253,0.790317,0.0,0.0,-0.71255183
1622100000,0.0,0.6059649,0.07388727,-0.055307515,0.7901192,0.0,0.0,-0.71261656
1622148000,0.0,0.6057932,0.07604626,-0.056998,0.7899258,0.0,0.0,-0.71423495
1622196000,0.0,0.60597247,0.07334211,-0.054552056,0.7902167,0.0,0.0,-0.7138691
1622244000,0.0,0.6061019,0.0714268,-0.05316981,0.79038703,0.0,0.0,-0.7130136
1622300000,0.0,0.6059063,0.074009866,-0.055135775,0.79016465,0.0,0.0,-0.7138111
1622348000,0.0,0.6057246,0.07626888,-0.05657503,0.7899875,0.0,0.0,-0.7148277
1622396000,0.0,0.6058995,0.07370604,-0.054278284,0.7902576,0.0,0.0,-0.7136456
1622444000,0.0,0.60606986,0.071033664,-0.052179802,0.79051304,0.0,0.0,-0.7125947
1622492000,0.0,0.6056517,0.07661025,-0.056898557,0.7899871,0.0,0.0,-0.7146291
1622548000,0.0,0.6056256,0.0765752,-0.056464564,0.7900415,0.0,0.0,-0.71459234
1622596000,0.0,0.605793,0.074095145,-0.054381777,0.7902958,0.0,0.0,-0.71442175
1622644000,0.0,0.6060016,0.07123285,-0.052820735,0.79050493,0.0,0.0,-0.71402645
1622700000,0.0,0.6057598,0.07427185,-0.05462625,0.79028773,0.0,0.0,-0.7145883
1622748000,0.0,0.605557,0.07701958,-0.05712331,0.79000366,0.0,0.0,-0.7146855
1622796000,0.0,0.6057163,0.074658185,-0.054850955,0.79026914,0.0,0.0,-0.71325517
1622844000,0.0,0.6059263,0.07143488,-0.05207177,0.7905941,0.0,0.0,-0.7128621
1622900000,0.0,0.6057595,0.0738533,-0.055070277,0.7902964,0.0,0.0,-0.7142747
1622948000,0.0,0.6055273,0.076592304,-0.05648095,0.79011416,0.0,0.0,-0.7150005
1622996000,0.0,0.6057292,0.07362614,-0.053849444,0.79042494,0.0,0.0,-0.7133063
1623044000,0.0,0.60593265,0.07078954,-0.052085083,0.7906463,0.0,0.0,-0.7118295
1623100000,0.0,0.6057057,0.07373324,-0.05392809,0.7904276,0.0,0.0,-0.7133679
1623148000,0.0,0.60544884,0.07704242,-0.056207642,0.79015,0.0,0.0,-0.71465147
1623196000,0.0,0.60570544,0.073806725,-0.05454904,0.7903784,0.0,0.0,-0.71361077
1623244000,8.2783634e-05,0.6058046,0.07182744,-0.052042525,0.79065365,0.0,0.0,-0.7125688
1623292000,0.0,0.6053763,0.07709745,-0.055691313,0.7902367,0.0,0.0,-0.71417224
1623340000,0.0,0.6055535,0.07451379,-0.0537682,0.7904819,0.0,0.0,-0.71402156
1623396000,0.0,0.60552716,0.07457989,-0.053767204,0.790496,0.0,0.0,-0.71375257
1623444000,0.0,0.60575646,0.071439825,-0.052029166,0.7907266,0.0,0.0,-0.7128161
1623500000,0.0,0.6054981,0.074534476,-0.05346375,0.790543,0.0,0.0,-0.7129033
1623540000,0.0,0.6054938,0.07457517,-0.053742405,0.79052347,0.0,0.0,-0.7128152
1623596000,0.0,0.6055214,0.07438485,-0.054463025,0.79047114,0.0,0.0,-0.71277696
1623644000,0.0,0.6056764,0.071802564,-0.05159072,0.7907839,0.0,0.0,-0.71256477
1623700000,0.0,0.60548764,0.07428668,-0.05367084,0.79056036,0.0,0.0,-0.71473056
1623740000,0.0,0.6054879,0.074184164,-0.053560168,0.79057735,0.0,0.0,-0.7145913
1623796000,0.0,0.6054559,0.074367434,-0.05319904,0.79060906,0.0,0.0,-0.71431744
1623844000,0.0,0.60568166,0.07134484,-0.05140364,0.79083335,0.0,0.0,-0.71270865
1623900000,0.0,0.6055448,0.07373786,-0.05473448,0.79049504,0.0,0.0,-0.71274805
1623940000,0.0,0.6055522,0.07366095,-0.05467028,0.790501,0.0,0.0,-0.71254164
1623996000,0.0,0.60556,0.0736516,-0.054715585,0.7904928,0.0,0.0,-0.7123043
1624044000,0.0,0.6057549,0.070953295,-0.052824587,0.7907188,0.0,0.0,-0.7120194
1624092000,0.0,0.6053757,0.07629754,-0.057031825,0.7902192,0.0,0.0,-0.7147323
1624148000,0.0,0.60545266,0.07553618,-0.057043802,0.7902325,0.0,0.0,-0.71425986
1624196000,0.0,0.6056343,0.073086224,-0.05507245,0.7904635,0.0,0.0,-0.71324956
1624244000,0.0,0.6058357,0.070378356,-0.053184308,0.7906842,0.0,0.0,-0.7123567
1624300000,0.0,0.60566354,0.07311553,-0.055444114,0.7904124,0.0,0.0,-0.71377945
1624348000,0.0,0.6054829,0.0756596,-0.05691901,0.7902066,0.0,0.0,-0.71405584
1624396000,0.0,0.6057216,0.07266144,-0.055077434,0.79043543,0.0,0.0,-0.7131415
1624444000,0.0,0.60594845,0.06955557,-0.05300029,0.79068303,0.0,0.0,-0.7131583
1624500000,0.0,0.6057314,0.0727906,-0.055386256,0.7903944,0.0,0.0,-0.7142255
1624548000,0.0,0.605594,0.07478189,-0.056728315,0.7902187,0.0,0.0,-0.71537524
1624596000,0.0,0.60582095,0.07194976,-0.055271972,0.7904109,0.0,0.0,-0.7142702
1624644000,0.0,0.6060505,0.06903085,-0.053940278,0.7905871,0.0,0.0,-0.7134349
1624692000,0.0,0.6057123,0.07393298,-0.056921598,0.7901939,0.0,0.0,-0.7149542
1624748000,0.0,0.60568047,0.07452571,-0.0571135,0.7901488,0.0,0.0,-0.71471524
1624796000,0.0,0.6058889,0.071684234,-0.054725684,0.7904209,0.0,0.0,-0.71423894
1624844000,0.0,0.60608315,0.06920801,-0.053042527,0.79060733,0.0,0.0,-0.71359575
1624892000,0.0,0.6056885,0.07524146,-0.05745533,0.7900501,0.0,0.0,-0.7149044
1624948000,0.0,0.6057784,0.074587665,-0.057582527,0.7900338,0.0,0.0,-0.7138629
1624996000,0.0,0.60603964,0.07138285,-0.05580337,0.7902572,0.0,0.0,-0.7132853
1625044000,0.0,0.60615224,0.06981561,-0.054038797,0.7904335,0.0,0.0,-0.7133255
1625100000,0.0,0.6060092,0.07243434,-0.056423377,0.7901409,0.0,0.0,-0.71477306
1625140000,0.0,0.6060128,0.072630376,-0.056571826,0.7901096,0.0,0.0,-0.7145172
1625196000,0.0,0.6060053,0.07292702,-0.056376327,0.7901019,0.0,0.0,-0.7134988
1625244000,0.0,0.60621655,0.07011682,-0.05416487,0.7903489,0.0,0.0,-0.7124279
1625300000,0.0,0.60609955,0.07229105,-0.056097295,0.7901079,0.0,0.0,-0.7127078
1625348000,0.0,0.6058844,0.075441934,-0.05807404,0.7898355,0.0,0.0,-0.7138336
1625396000,0.0,0.6061441,0.07228025,-0.05644508,0.79004997,0.0,0.0,-0.71262825
1625444000,0.0,0.6063162,0.06994203,-0.054551505,0.79026127,0.0,0.0,-0.7118297
1625500000,0.0,0.606134,0.07266826,-0.056014158,0.7900528,0.0,0.0,-0.71279114
1625548000,0.0,0.6059786,0.075149916,-0.05816573,0.7897843,0.0,0.0,-0.7140041
1625596000,0.0,0.60615265,0.07267912,-0.055713296,0.79005873,0.0,0.0,-0.7130557
1625644000,0.0,0.60642767,0.06935986,-0.054374542,0.79023933,0.0,0.0,-0.7126396
1625692000,0.0,0.6061502,0.07412998,-0.058853593,0.78969806,0.0,0.0,-0.715375
1625748000,0.0,0.6061245,0.07480981,-0.05917942,0.7896293,0.0,0.0,-0.7160994
1625796000,0.0,0.60631996,0.07226218,-0.05706959,0.7898718,0.0,0.0,-0.7150232
1625844000,0.0,0.60655963,0.06912151,-0.055013567,0.79011464,0.0,0.0,-0.7141602
1625892000,0.0,0.6061794,0.07480918,-0.058884095,0.7896093,0.0,0.0,-0.7156634
1625940000,0.0,0.6063382,0.07261499,-0.056728583,0.7898499,0.0,0.0,-0.71519184
1625996000,0.0,0.6063818,0.072261274,-0.05654323,0.7898622,0.0,0.0,-0.7141639
1626044000,0.0,0.6065853,0.06941788,-0.054320455,0.7901169,0.0,0.0,-0.713529
1626092000,0.0,0.60627145,0.07431212,-0.05857867,0.7896083,0.0,0.0,-0.7155006
1626140000,0.0,0.60648406,0.07140573,-0.05634029,0.789876,0.0,0.0,-0.7140993
1626196000,0.0,0.60652995,0.070842564,-0.055765525,0.78993225,0.0,0.0,-0.7139915
1626244000,0.0,0.6066322,0.069035225,-0.053226355,0.79018897,0.0,0.0,-0.71336126
1626300000,0.0,0.6064878,0.07144552,-0.055685937,0.7899159,0.0,0.0,-0.71353596
1626348000,0.0,0.60626656,0.074479364,-0.05760468,0.78966796,0.0,0.0,-0.7143262
1626396000,0.0,0.6064594,0.0717303,-0.055359807,0.78993493,0.0,0.0,-0.7141732
1626444000,-0.0014340973,0.6067046,0.06871975,-0.053609688,0.7901349,0.0,0.0,-0.71396005
1626500000,0.0,0.6066035,0.07117099,-0.05610122,0.7898225,0.0,0.0,-0.7146635
1626548000,-0.00046626595,0.6064792,0.07364842,-0.058484986,0.7895178,0.0,0.0,-0.7154925
1626596000,-0.0002563293,0.60666084,0.07145091,-0.056941807,0.789693,0.0,0.0,-0.71431595
1626644000,-5.3340802e-05,0.6068888,0.068401754,-0.054595724,0.7899535,0.0,0.0,-0.71314424
1626692000,0.0,0.606556,0.07368241,-0.058483694,0.7894558,0.0,0.0,-0.7141696
1626740000,0.0,0.6067337,0.071432725,-0.056859095,0.78964466,0.0,0.0,-0.7138072
1626796000,0.0,0.6067728,0.07127942,-0.057046473,0.789615,0.0,0.0,-0.7147434
1626844000,-0.0002563293,0.60692036,0.0691798,-0.054688748,0.78985506,0.0,0.0,-0.71410185
1626892000,0.0,0.60665536,0.07366046,-0.058578562,0.78937453,0.0,0.0,-0.7150998
1626940000,0.0,0.6068012,0.07174946,-0.056877,0.7895627,0.0,0.0,-0.7141647
1626996000,0.0,0.60681516,0.071741045,-0.056654766,0.7895688,0.0,0.0,-0.71454066
1627044000,0.0,0.6070174,0.06903443,-0.0549311,0.7897764,0.0,0.0,-0.7145106
1627092000,0.0,0.6066328,0.07472726,-0.05919633,0.7892454,0.0,0.0,-0.7156789
1627140000,0.0,0.60677505,0.07250549,-0.056622706,0.7895321,0.0,0.0,-0.71466756
1627196000,0.0,0.6068083,0.07217893,-0.056673568,0.7895328,0.0,0.0,-0.7142915
1627244000,0.0,0.60701495,0.069421954,-0.054649472,0.7897638,0.0,0.0,-0.71417546
1627300000,0.0,0.6068492,0.07206883,-0.056321703,0.7895366,0.0,0.0,-0.7150065
1627348000,0.0,0.6066995,0.07449907,-0.058513887,0.7892665,0.0,0.0,-0.7155312
1627396000,0.0,0.6068906,0.07188943,-0.056465592,0.78951085,0.0,0.0,-0.71425706
1627444000,0.0,0.6070502,0.06946073,-0.05407808,0.78977275,0.0,0.0,-0.71285707
1627492000,0.0,0.6067096,0.07459468,-0.058633868,0.78924084,0.0,0.0,-0.71423894
1627540000,0.0,0.6068761,0.07197928,-0.05582764,0.78955925,0.0,0.0,-0.7131315
1627596000,0.0,0.6068696,0.07210659,-0.056188803,0.78952706,0.0,0.0,-0.7134632
1627644000,-0.0007877955,0.60708135,0.06938615,-0.054225963,0.78974515,0.0,0.0,-0.7135846
1627700000,0.0,0.6068985,0.07245561,-0.05622301,0.7894704,0.0,0.0,-0.7152835
1627740000,0.0,0.606958,0.071890384,-0.055911683,0.78949845,0.0,0.0,-0.7146593
1627796000,0.0,0.60696924,0.07195251,-0.055863995,0.78948754,0.0,0.0,-0.71430546
1627844000,0.0,0.6071246,0.0697976,-0.054159813,0.7896801,0.0,0.0,-0.7138183
1627892000,0.0,0.60672617,0.07532728,-0.057857882,0.789216,0.0,0.0,-0.7157388
1627940000,0.0,0.6069107,0.072797,-0.056036953,0.7894428,0.0,0.0,-0.7138568
1627996000,0.0,0.60687417,0.07322388,-0.056372713,0.78940743,0.0,0.0,-0.7138719
1628044000,0.0,0.6071594,0.06964582,-0.054703817,0.78962934,0.0,0.0,-0.71328247
1628100000,0.0,0.6069436,0.07273117,-0.056090478,0.78941983,0.0,0.0,-0.7142213
1628140000,0.0,0.60695237,0.07285874,-0.056635275,0.78936225,0.0,0.0,-0.7147954
1628196000,0.0,0.6069698,0.072678596,-0.05644734,0.789379,0.0,0.0,-0.7151067
1628244000,0.0,0.60712904,0.07034498,-0.054466546,0.78960705,0.0,0.0,-0.71409756
1628300000,0.0,0.6069179,0.073283546,-0.056527566,0.7893573,0.0,0.0,-0.71474266
1628348000,0.0,0.60669196,0.0759776,-0.05766858,0.7891937,0.0,0.0,-0.7159017
1628396000,0.0,0.60686517,0.07339538,-0.055483162,0.78946155,0.0,0.0,-0.7152525
1628444000,0.0,0.60705405,0.07099447,-0.053976785,0.78964025,0.0,0.0,-0.7136519
1628500000,0.0,0.60695434,0.07296282,-0.056244504,0.7893792,0.0,0.0,-0.7144225
1628540000,0.0,0.606918,0.0735761,-0.05664301,0.7893217,0.0,0.0,-0.71492416
1628596000,0.0,0.60691595,0.07346515,-0.055872604,0.7893884,0.0,0.0,-0.7149395
1628644000,0.0,0.60712326,0.07060506,-0.053971823,0.78962225,0.0,0.0,-0.71383005
1628692000,0.0,0.60674745,0.07567267,-0.057622246,0.78918374,0.0,0.0,-0.7155339
1628748000,0.0,0.6067083,0.07575297,-0.056964718,0.7892538,0.0,0.0,-0.71505886
1628796000,0.0,0.6068926,0.07316573,-0.05538783,0.7894684,0.0,0.0,-0.71407634
1628844000,-0.002696033,0.60711914,0.070428304,-0.053353813,0.7896831,0.0,0.0,-0.7132405
1628900000,0.0,0.60706174,0.072435275,-0.055473253,0.78939974,0.0,0.0,-0.71477956
1628948000,-0.00115588,0.6069335,0.07513277,-0.058368605,0.7890373,0.0,0.0,-0.7155079
1628996000,-0.00038317707,0.6070836,0.07305334,-0.055603266,0.7893168,0.0,0.0,-0.7136118
1629044000,0.0,0.6073313,0.06993126,-0.053574,0.7895493,0.0,0.0,-0.7119496
1629100000,0.0,0.60720646,0.07209719,-0.055264793,0.789334,0.0,0.0,-0.7131732
1629140000,0.0,0.60720026,0.07223647,-0.055107784,0.78933704,0.0,0.0,-0.7128833
1629196000,0.0,0.6079211,0.061612815,-0.04795446,0.7901495,0.0,0.0,-0.7098571
1629244000,-0.0060967384,0.6085265,0.05214279,-0.04078093,0.7907677,0.0,0.0,-0.7082855
1629300000,-0.0045270137,0.6090812,0.04370947,-0.03275929,0.79122466,0.0,0.0,-0.7084347
1629348000,-0.0040182257,0.60952926,0.03516599,-0.025028901,0.79158777,0.0,0.0,-0.7088202
1629396000,-0.0035444268,0.60991323,0.024794172,-0.015884515,0.79192096,0.0,0.0,-0.7077361
