timestamp,gyro_rad[0],gyro_rad[1],gyro_rad[2],gyro_integral_dt,accelerometer_timestamp_relative,accelerometer_m_s2[0],accelerometer_m_s2[1],accelerometer_m_s2[2],accelerometer_integral_dt,accelerometer_clipping,gyro_clipping,accel_calibration_count,gyro_calibration_count
1592244000,0.0021305173,0.012250538,0.006391599,4000,0,0.02274492,-0.0861911,-9.841368,4000,0,0,0,1
1592248000,-0.000532634,0.0069242166,0.0031958008,4000,0,0.034715924,-0.06464328,-9.853339,4000,0,0,0,1
1592252000,0.0045273774,-0.0042610536,-0.0010652745,4000,0,0.044292733,-0.041898366,-9.800665,4000,0,0,0,1
1592256000,-0.0010652543,-0.0026631488,-0.0079894895,4000,0,0.034715924,0.0035914732,-9.749191,4000,0,0,0,1
1592260000,-0.011185265,0.0013316066,-0.0111852875,4000,0,0.009576809,-0.038307063,-9.770737,4000,0,0,0,1
1592264000,-0.0053263316,-0.0013315936,-0.0087884255,4000,0,-0.01436521,-0.0814027,-9.825806,4000,0,0,0,1
1592268000,0.0015978833,-0.0034621002,0.007989491,4000,0,-0.049081136,-0.028730253,-9.721657,4000,0,0,0,1
1592272000,0.00026630485,-0.0071905493,0.026365295,4000,0,-0.02274492,1.681706e-07,-9.635467,4000,0,0,0,1
1592276000,-0.0005326776,-6.6895596e-09,0.018908447,4000,0,-0.017956512,0.043095805,-9.805455,4000,0,0,0,1
1592280000,0.0007989048,0.0069242227,-0.0069242204,4000,0,-0.05865795,0.043095805,-9.876081,4000,0,0,0,1
1592284000,0.0077231154,-0.002130541,-0.021038994,4000,0,-0.050278246,-0.029927354,-9.776724,4000,0,0,0,1
1592288000,0.010119977,-0.005859004,-0.008522125,4000,0,-0.038307235,-0.038307063,-9.777922,4000,0,0,0,1
1592292000,0.0042610453,-0.0013316083,0.004527379,4000,0,-0.02633622,-0.008379537,-9.788693,4000,0,0,0,1
1592296000,0.00266316,0.00026631597,0.0029294793,4000,0,-0.029927526,0.022745091,-9.815031,4000,0,0,0,1
1592300000,-0.0005326368,0.0047936877,0.0018642175,4000,0,-0.029927526,0.027533494,-9.824608,4000,0,0,0,1
1592304000,-0.0074568614,0.009853691,-0.0023968343,4000,0,0.038307235,-0.032321557,-9.792284,4000,0,0,0,1
1592308000,-0.0050600274,0.0061252555,-0.007989483,4000,0,0.11013329,-0.04070126,-9.804258,4000,0,0,0,1
1592312000,0.0031957922,0.003994724,-0.0058589675,4000,0,0.07541737,0.010774079,-9.769541,4000,0,0,0,1
1592316000,0.0023968625,0.007456845,0.0021305338,4000,0,-0.07062895,0.050278414,-9.783907,4000,0,0,0,1
1592320000,-0.000532607,0.008255792,0.012516867,4000,0,-0.1628057,0.073023334,-9.879675,4000,0,0,0,1
1592328000,-0.0023968862,0.015180008,0.0050600246,4000,0,-0.16759415,0.034716096,-9.830593,4000,0,0,0,1
1592336000,0.0031958057,0.0015979098,0.009054743,4000,0,-0.01316811,-0.022744745,-9.858126,4000,0,0,0,1
1592344000,0.004793681,0.008788441,0.004793686,4000,0,0.047884032,-0.07302299,-9.858126,4000,0,0,0,1
1592348000,-0.0010652707,0.0042610564,0.00026632615,4000,0,0.0071826056,-0.07900849,-9.812637,4000,0,0,0,1
1592352000,0.0018642022,0.0045273723,-0.007190539,4000,0,-0.019153617,-0.02633605,-9.792285,4000,0,0,0,1
1592356000,0.014381082,0.009321035,-0.0071905516,4000,0,0.062249243,0.037110306,-9.823412,4000,0,0,0,1
1592360000,0.002663157,0.006924245,-0.006657879,4000,0,0.13527241,0.04549001,-9.8677025,4000,0,0,0,1
1592364000,-0.008788445,0.0023968716,-0.007723145,4000,0,0.11013329,0.022745093,-9.902418,4000,0,0,0,1
1592368000,-0.007989487,1.2037336e-08,-0.002929471,4000,0,0.06584056,0.023942191,-9.886856,4000,0,0,0,1
1592372000,-0.009054755,-0.0045273635,0.00079896045,4000,0,0.077811554,-0.02873025,-9.835382,4000,0,0,0,1
1592376000,0.005059999,0.0013315965,0.0047936942,4000,0,0.08259997,-0.119709924,-9.79827,4000,0,0,0,1
1592380000,0.021305284,0.009853708,0.014114762,4000,0,0.040701427,-0.04788387,-9.7803135,4000,0,0,0,1
1592384000,0.016777964,0.0023967992,0.017576827,4000,0,0.06943185,0.10773926,-9.803061,4000,0,0,0,1
1592392000,-0.002663178,0.0069242097,0.0018642275,4000,0,0.12449849,0.13168128,-9.843762,4000,0,0,0,1
1592396000,-0.006657899,-0.00026631844,0.0018642286,4000,0,0.077811554,0.104147956,-9.818621,4000,0,0,0,1
1592400000,-0.011717906,-0.0058589815,-0.009054737,4000,0,0.056263745,0.0011972727,-9.801862,4000,0,0,0,1
1592408000,-0.014913707,-0.0018641751,-0.0034621195,4000,0,-0.07062895,0.07062913,-9.8198185,4000,0,0,0,1
1592412000,-0.0071905283,0.0071905535,0.0018641729,4000,0,-0.020350713,0.046687108,-9.709686,4000,0,0,0,1
1592420000,-0.0066578696,0.0037284403,0.01331582,4000,0,-0.01436521,0.0035914737,-9.791088,4000,0,0,0,1
1592424000,-0.0034621186,0.005592653,0.013049481,4000,0,0.005985504,0.0023943745,-9.876082,4000,0,0,0,1
1592428000,0.0069242315,0.0045274235,0.016777895,4000,0,0.019153617,0.008379879,-9.89045,4000,0,0,0,1
1592432000,0.016245358,-0.0074568135,0.022370514,4000,0,0.020350713,-0.02633605,-9.847352,4000,0,0,0,1
1592436000,0.010386319,-0.0045273947,0.017843181,4000,0,0.051475342,-0.05865778,-9.805455,4000,0,0,0,1
1592440000,0.0018641725,0.005326314,0.005858977,4000,0,0.088585466,-0.01436504,-9.816229,4000,0,0,0,1
1592448000,-0.0053263213,0.009853697,0.004527375,4000,0,0.031124622,0.013168283,-9.848549,4000,0,0,0,1
1592452000,-0.005059997,0.007456856,0.006391591,4000,0,-0.020350713,0.017956685,-9.838972,4000,0,0,0,1
1592456000,-0.013848398,-0.0063915984,0.011185323,4000,0,-0.017956512,-0.0023940308,-9.783907,4000,0,0,0,1
1592460000,-0.014381036,-0.015180027,0.010120051,4000,0,-0.031124622,-0.069431685,-9.76954,4000,0,0,0,1
1592464000,-0.004527324,-0.013049512,-0.0013315415,4000,0,-0.034715924,0.00957698,-9.770737,4000,0,0,0,1
1592468000,0.0026631784,-0.0066579115,-0.0045273528,4000,0,-0.03232173,0.106542155,-9.692927,4000,0,0,0,1
1592472000,0.008522109,0.003195776,0.0058589773,4000,0,0.011971008,-0.028730255,-9.690533,4000,0,0,0,1
1592476000,0.0013315624,0.010386325,0.0021305578,4000,0,0.09935938,-0.15801716,-9.794682,4000,0,0,0,1
1592480000,-0.0045274054,0.0045273756,-0.007989466,4000,0,0.06823474,-0.0861911,-9.838972,4000,0,0,0,1
1592488000,-0.002929461,0.00079894636,-0.011717916,4000,0,-0.009576809,0.087388545,-9.811439,4000,0,0,0,1
1592492000,0.0007989748,0.0069242143,-0.002396852,4000,0,0.0035913025,0.014365382,-9.812637,4000,0,0,0,1
1592496000,-0.0010652476,0.0050600055,0.0055926424,4000,0,-0.005985504,0.0323219,-9.764753,4000,0,0,0,1
1592500000,-0.0050600125,0.00053262187,-0.0029294693,4000,0,-0.031124622,0.035913195,-9.719263,4000,0,0,0,1
1592504000,-0.0031957978,-0.0021305436,-0.010652642,4000,0,-0.096965164,-0.08140269,-9.730038,4000,0,0,0,1
1592508000,-0.0015978921,-0.00026631885,-0.007989486,4000,0,-0.057460837,-0.0945708,-9.786302,4000,0,0,0,1
1592512000,-0.0026631549,0.002396852,-0.00026631763,4000,0,0.049081136,-0.017956343,-9.78989,4000,0,0,0,1
1592520000,0.01198426,-0.0063915686,0.015712634,4000,0,0.04668694,-0.02873025,-9.804258,4000,0,0,0,1
1592524000,0.009054839,-0.019174736,0.005858897,4000,0,0.1221043,0.032321904,-9.853339,4000,0,0,0,1
1592528000,0.0018642967,-0.021038951,-0.0066579557,4000,0,0.12330139,0.059855223,-9.834186,4000,0,0,0,1
1592536000,0.0037284156,0.0029294728,0.003462125,4000,0,0.05985505,-0.031124454,-9.822214,4000,0,0,0,1
1592540000,0.0037284284,0.008255789,0.011984234,4000,0,0.0023942017,0.051475517,-9.818621,4000,0,0,0,1
1592544000,0.0015979595,-0.002130548,0.019707385,4000,0,-0.04668694,0.038307402,-9.846155,4000,0,0,0,1
1592548000,0.00053266395,-0.0063915923,0.014647385,4000,0,0.014365211,0.004788575,-9.824608,4000,0,0,0,1
1592552000,-0.0053263456,0.0037283995,0.0023968345,4000,0,0.088585466,0.008379877,-9.764753,4000,0,0,0,1
1592556000,-0.007989495,0.0077231545,-0.0047936942,4000,0,0.035913024,-0.052672267,-9.745598,4000,0,0,0,1
1592564000,0.0074568437,-0.008788431,0.01012002,4000,0,0.035913028,-0.01077374,-9.694122,4000,0,0,0,1
1592568000,0.011984206,0.0047937273,0.0010653117,4000,0,-0.011971008,0.033518996,-9.708489,4000,0,0,0,1
1592572000,0.013582107,0.012516894,-0.0077231396,4000,0,0.0,0.011971178,-9.702503,4000,0,0,0,1
1592576000,0.00878844,-0.0002663463,0.0015978587,4000,0,0.10654198,-0.021547649,-9.749191,4000,0,0,0,1
1592584000,0.003994761,-0.003994726,-0.001597889,4000,0,0.029927526,-0.013167938,-9.816229,4000,0,0,0,1
1592588000,0.0021305538,0.0023968678,-0.01757686,4000,0,-0.010773908,0.029927697,-9.837775,4000,0,0,0,1
1592592000,-0.0074568447,0.0029295303,-0.012783166,4000,0,0.017956512,0.06105232,-9.856929,4000,0,0,0,1
1592596000,-0.01145155,0.009054813,0.00612526,4000,0,0.06823475,0.049081307,-9.8509445,4000,0,0,0,1
1592600000,0.0007989568,0.01012005,0.009587339,4000,0,0.07182605,-0.01795634,-9.838972,4000,0,0,0,1
1592604000,0.007456831,0.0047937147,-0.0015979205,4000,0,0.029927526,-0.010773736,-9.894039,4000,0,0,0,1
1592608000,0.010386322,0.00852213,-0.0077231624,4000,0,0.005985504,0.04668711,-9.909603,4000,0,0,0,1
1592612000,0.015978971,0.006125247,-0.00506003,4000,0,0.041898537,0.022745091,-9.870098,4000,0,0,0,1
1592616000,0.010386312,-0.0079894895,-0.002130593,4000,0,0.082599975,-0.010773737,-9.89045,4000,0,0,0,1
1592620000,0.0013315782,-0.0074568493,-0.0010652869,4000,0,0.06105215,0.026336394,-9.874886,4000,0,0,0,1
1592624000,0.00532631,0.0010652605,0.0050600204,4000,0,0.01436521,0.07661464,-9.848549,4000,0,0,0,1
1592632000,-0.012516857,-0.0010652842,-0.0069242185,4000,0,-0.027533323,0.073023334,-9.8988285,4000,0,0,0,1
1592640000,-0.01011998,0.010652643,-0.009853733,4000,0,0.12928692,0.008379878,-9.79827,4000,0,0,0,1
1592644000,-0.012250544,0.012783176,-0.011717911,4000,0,0.03232173,-0.13766645,-9.716867,4000,0,0,0,1
1592648000,-0.007723178,0.0055926386,-0.0074568414,4000,0,-0.037110135,-0.15562296,-9.653423,4000,0,0,0,1
1592656000,0.006391586,-0.0026631565,-0.0037284316,4000,0,0.034715924,0.02633639,-9.781511,4000,0,0,0,1
1592660000,-0.007723168,-0.001065254,-0.0005326414,4000,0,-0.015562311,0.043095805,-9.843762,4000,0,0,0,1
1592664000,-0.011984231,-0.0023968187,0.009587382,4000,0,-0.02633622,0.027533494,-9.834186,4000,0,0,0,1
1592668000,-0.009587357,-0.010120004,0.009587413,4000,0,-0.011971008,0.04189871,-9.813835,4000,0,0,0,1
1592672000,-0.005326324,-0.004793691,0.005060003,4000,0,-0.005985504,0.047884203,-9.810242,4000,0,0,0,1
1592680000,0.01171791,0.00026631198,-1.18160655e-08,4000,0,0.05027824,-0.04668677,-9.793484,4000,0,0,0,1
1592684000,0.0015978975,-0.0010652887,0.0061252667,4000,0,0.09457098,-0.06464328,-9.858126,4000,0,0,0,1
1592688000,-0.0023968564,0.005592635,-0.0010652622,4000,0,0.14604634,-0.0945708,-9.791088,4000,0,0,0,1
1592692000,-0.0013315938,0.007989478,-0.008522121,4000,0,0.082599975,-0.04788387,-9.709686,4000,0,0,0,1
1592696000,9.267441e-09,0.0042610583,-0.0010652663,4000,0,0.0,0.035913195,-9.727644,4000,0,0,0,1
1592700000,0.0034621214,0.0045273737,0.0071905307,4000,0,-0.077811554,0.034716096,-9.813835,4000,0,0,0,1
1592704000,0.00026631416,0.0026631588,0.00292948,4000,0,-0.096965164,0.019153787,-9.860521,4000,0,0,0,1
1592708000,-0.00426107,0.0074568484,-0.0053263186,4000,0,-0.0011970999,0.07541753,-9.860521,4000,0,0,0,1
1592712000,-0.0045273704,0.017843172,-0.011185291,4000,0,0.11492168,0.10295086,-9.848549,4000,0,0,0,1
1592716000,-0.0034621356,0.015180011,-0.013848441,4000,0,0.14604634,0.06703783,-9.781511,4000,0,0,0,1
1592720000,-0.002929495,0.0023968518,-0.0055926265,4000,0,0.088585466,0.06823493,-9.706094,4000,0,0,0,1
1592724000,-0.0055926503,-0.009054732,0.007456865,4000,0,0.038307235,0.074220434,-9.725247,4000,0,0,0,1
1592728000,-0.0071905307,-0.0071905456,0.00426105,4000,0,0.004788404,0.011971179,-9.765951,4000,0,0,0,1
1592736000,0.00266315,-0.005858949,0.005592651,4000,0,-0.113724574,-0.07541719,-9.749191,4000,0,0,0,1
1592740000,0.0042610597,-0.0037284207,0.0031957987,4000,0,-0.051475342,-0.12210413,-9.779117,4000,0,0,0,1
1592744000,0.0021305508,-0.0018641878,-0.015978971,4000,0,0.023942016,-0.10654181,-9.758768,4000,0,0,0,1
1592748000,0.0074568405,-0.004261084,-0.018642126,4000,0,0.034715924,-0.04429256,-9.792285,4000,0,0,0,1
1592752000,0.008522127,-3.3625163e-08,-0.0077231573,4000,0,0.06105215,-0.008379536,-9.830592,4000,0,0,0,1
1592756000,0.0029295213,0.01704425,-0.009321015,4000,0,0.017956512,0.0083798785,-9.810242,4000,0,0,0,1
1592760000,-0.0021305638,0.02237058,-0.01837578,4000,0,-0.055066645,-0.005985334,-9.764753,4000,0,0,0,1
1592764000,-0.0053263716,0.009587403,-0.014381038,4000,0,-0.021547817,0.025139293,-9.775528,4000,0,0,0,1
1592768000,-0.0042610336,0.0042610816,0.001331587,4000,0,0.027533323,0.105345055,-9.762358,4000,0,0,0,1
1592776000,-0.007989489,0.00479368,0.0018642176,4000,0,-0.07302316,-0.04429256,-9.810242,4000,0,0,0,1
1592780000,0.0077231578,0.0077231633,-0.0034621423,4000,0,-0.1388637,-0.009576636,-9.868902,4000,0,0,0,1
1592784000,0.0106526315,0.0114516085,-0.010652643,4000,0,-0.11252749,0.021547988,-9.800665,4000,0,0,0,1
1592788000,-0.002929507,0.0077232327,-0.014913666,4000,0,-0.07302317,0.0023943728,-9.777922,4000,0,0,0,1
1592792000,-0.0053263498,0.0013315948,-0.013049478,4000,0,-0.051475346,0.027533494,-9.792285,4000,0,0,0,1
1592800000,0.0021305245,-0.0023968448,0.0023968497,4000,0,0.08499418,0.0071827765,-9.8677025,4000,0,0,0,1
1592804000,0.007456852,-0.0055926377,0.0058589573,4000,0,0.06943185,-0.04429256,-9.865309,4000,0,0,0,1
1592808000,-0.000266312,-0.012783202,0.011185246,4000,0,0.07422027,0.023942187,-9.858126,4000,0,0,0,1
1592816000,-0.009321007,-0.027696894,0.005060014,4000,0,0.038307235,0.10175376,-9.825806,4000,0,0,0,1
1592824000,-0.0021305678,0.0053263414,0.00719051,4000,0,-0.011971012,0.02274509,-9.824608,4000,0,0,0,1
1592828000,0.003728439,0.001331596,0.009321056,4000,0,0.11372458,-0.056263573,-9.71567,4000,0,0,0,1
1592832000,0.0010652499,0.006125262,0.0095873885,4000,0,0.11372458,-0.04309547,-9.677362,4000,0,0,0,1
1592836000,0.0029294307,0.0130495,-0.0026631623,4000,0,0.079008654,-0.008379538,-9.727643,4000,0,0,0,1
1592844000,-0.015978962,0.0013316071,0.005060023,4000,0,0.09696517,-0.11252732,-9.6917305,4000,0,0,0,1
1592852000,0.0021305296,0.0061252685,-0.0007989707,4000,0,-0.05985505,-0.07422009,-9.800665,4000,0,0,0,1
1592860000,0.010652643,0.0066579133,0.0018641903,4000,0,0.02873042,-0.016759243,-9.767147,4000,0,0,0,1
1592864000,0.0045273677,-0.0010652494,-0.0034621237,4000,0,0.011971008,-0.022744747,-9.822214,4000,0,0,0,1
1592868000,0.005060006,-0.0021305238,-0.007190537,4000,0,0.01316811,-0.023941848,-9.861719,4000,0,0,0,1
1592872000,0.0069242003,-0.009587387,-0.006391599,4000,0,0.035913028,-0.0011969294,-9.854535,4000,0,0,0,1
1592876000,0.0077231373,-0.007989512,0.004527381,4000,0,0.100556485,0.023942187,-9.801862,4000,0,0,0,1
1592880000,0.010386303,0.007989486,0.0058590025,4000,0,0.12928692,0.059855223,-9.801862,4000,0,0,0,1
1592884000,0.0050599603,0.015446367,-0.006125231,4000,0,0.051475342,0.056263916,-9.846155,4000,0,0,0,1
1592888000,-0.0031958101,0.007989501,-0.006391558,4000,0,0.0023942022,-0.0095766345,-9.871296,4000,0,0,0,1
1592892000,-0.005592654,-0.0015978895,-0.0042610425,4000,0,0.017956512,-0.0945708,-9.855732,4000,0,0,0,1
1592896000,-0.0042610555,0.00079894805,-0.0034621137,4000,0,0.053869545,-0.10534471,-9.736021,4000,0,0,0,1
1592900000,-0.00026630427,0.010386328,-0.0002663307,4000,0,0.04548984,-0.0035911344,-9.653423,4000,0,0,0,1
1592904000,0.0007989232,0.0058589545,-0.0074568554,4000,0,-0.008379707,0.010774078,-9.775528,4000,0,0,0,1
1592908000,0.003994718,-0.0045273826,-0.006657913,4000,0,0.005985504,-0.07422009,-9.856928,4000,0,0,0,1
1592912000,0.010386307,-0.0111853,-0.0015978962,4000,0,0.082599975,-0.067037486,-9.825806,4000,0,0,0,1
1592916000,0.005858991,-0.015446298,-0.011717943,4000,0,0.07062895,-0.055066474,-9.866505,4000,0,0,0,1
1592920000,-0.0066578775,-0.009853646,-0.012516914,4000,0,0.011971008,-0.070628785,-9.89045,4000,0,0,0,1
1592924000,-0.011984264,-0.0066578477,0.002663137,4000,0,0.02274492,0.037110306,-9.871296,4000,0,0,0,1
1592932000,-0.004527356,-0.013049487,0.0031958278,4000,0,0.06105215,-0.019153446,-9.821015,4000,0,0,0,1
1592940000,-0.0021305233,0.0069242185,-0.0037284289,4000,0,-0.02394202,0.020350887,-9.782707,4000,0,0,0,1
1592944000,0.0029294908,0.009853693,0.00053261867,4000,0,-0.08140286,0.06823493,-9.825806,4000,0,0,0,1
1592948000,0.0098537225,0.006924214,0.007989458,4000,0,-0.06464346,-0.02513895,-9.824609,4000,0,0,0,1
1592956000,-0.0023968199,0.0061252466,0.009853719,4000,0,-0.07062895,-0.02873025,-9.744401,4000,0,0,0,1
1592960000,-0.0037283804,-0.005858957,0.012783188,4000,0,-0.020350713,0.053869717,-9.793484,4000,0,0,0,1
1592964000,0.0050599603,0.0013316281,0.020772666,4000,0,0.051475342,0.05746101,-9.830593,4000,0,0,0,1
1592968000,0.0077231526,0.0039947536,0.024501089,4000,0,0.09217678,-0.01197084,-9.765951,4000,0,0,0,1
1592972000,-0.0029294332,-0.0047937236,0.0037284172,4000,0,0.050278243,-0.058657784,-9.679759,4000,0,0,0,1
1592980000,-0.006657878,0.0029294784,-0.014647398,4000,0,-0.037110135,-0.12210413,-9.799467,4000,0,0,0,1
1592988000,-0.00079891103,0.011451607,0.0063915676,4000,0,-0.047884032,-0.08140269,-9.76116,4000,0,0,0,1
1592992000,-0.0015978706,0.0047936896,0.009587386,4000,0,-0.005985504,-0.038307063,-9.753977,4000,0,0,0,1
1592996000,-0.0058589545,0.00079893076,0.0021305382,4000,0,0.016759416,-0.057460673,-9.758768,4000,0,0,0,1
1593000000,-0.0063915905,0.002929468,-0.0026631656,4000,0,-0.015562313,-0.009576638,-9.799467,4000,0,0,0,1
1593004000,-0.0053263144,0.010120017,-0.00026633232,4000,0,-0.05267244,0.0035914732,-9.781511,4000,0,0,0,1
1593012000,-0.003195786,0.013848441,0.006391585,4000,0,-0.031124622,-0.032321557,-9.7396145,4000,0,0,0,1
1593016000,0.0023968234,0.0026631628,-0.0034621235,4000,0,-0.065840565,0.033519,-9.781511,4000,0,0,0,1
1593020000,0.011984211,-0.006924227,-0.0074568684,4000,0,-0.05267244,0.02513929,-9.787498,4000,0,0,0,1
1593024000,0.008788416,-0.010652649,-0.004261081,4000,0,-0.009576809,-0.05386937,-9.831791,4000,0,0,0,1
1593028000,-0.008522118,-0.0050599887,-0.0018642581,4000,0,0.025139121,-0.0897824,-9.794682,4000,0,0,0,1
1593036000,-0.006125264,-0.009054722,0.009587411,4000,0,0.05267244,-0.0023940313,-9.745598,4000,0,0,0,1
1593040000,-0.006391597,-0.0034621167,0.006657891,4000,0,-0.005985505,-0.010773738,-9.788693,4000,0,0,0,1
1593044000,-0.0034621141,0.0045273565,-0.005060021,4000,0,-0.041898537,-0.008379536,-9.745598,4000,0,0,0,1
1593048000,-0.006924246,-0.0031957978,-0.013582109,4000,0,-0.0047884034,0.063446514,-9.72884,4000,0,0,0,1
1593052000,-0.0117179165,-0.0026631218,-0.005858961,4000,0,-0.0011970999,0.10414796,-9.747993,4000,0,0,0,1
1593056000,-0.0045273644,0.007190564,0.0050599743,4000,0,-0.044292733,0.07781173,-9.803061,4000,0,0,0,1
1593064000,-0.009853688,-0.000532651,0.0031958143,4000,0,0.02274492,-0.02633605,-9.831791,4000,0,0,0,1
1593068000,-0.01411475,-0.0037284612,-0.006125261,4000,0,-0.0023942017,0.089782745,-9.834186,4000,0,0,0,1
1593072000,-0.004261041,0.0005325786,-0.013315815,4000,0,0.014365211,0.124498665,-9.891646,4000,0,0,0,1
1593076000,0.011717924,0.0031957412,-0.0002663225,4000,0,0.12330139,0.020350887,-9.870098,4000,0,0,0,1
1593080000,0.019707408,-0.00079899834,0.012250518,4000,0,0.1364695,-0.022744747,-9.829395,4000,0,0,0,1
1593084000,0.007989492,-0.0023968585,0.006924206,4000,0,0.011971008,0.017956685,-9.788693,4000,0,0,0,1
1593088000,-0.00878843,-0.003728464,0.0066578863,4000,0,-0.027533323,0.06703783,-9.758768,4000,0,0,0,1
1593092000,-0.014913708,-0.0053263186,0.012783172,4000,0,0.038307235,0.124498665,-9.8198185,4000,0,0,0,1
1593096000,-0.015712649,-0.003728455,0.0077231587,4000,0,0.089782566,0.08379723,-9.854535,4000,0,0,0,1
1593100000,-0.0093210675,0.00026630185,0.0018641999,4000,0,0.07062895,0.033519,-9.809044,4000,0,0,0,1
1593104000,-0.0007989536,0.0077231578,-0.0034621335,4000,0,0.041898537,0.06823493,-9.797075,4000,0,0,0,1
1593108000,0.0023968501,0.013582118,-0.0042610676,4000,0,0.07661447,0.07182623,-9.816229,4000,0,0,0,1
1593116000,0.00026632662,0.003994738,0.008522119,4000,0,0.09457098,0.090979844,-9.825806,4000,0,0,0,1
1593120000,-0.0010652904,0.0103863245,0.0026631637,4000,0,0.051475342,0.10295086,-9.770737,4000,0,0,0,1
1593124000,-0.007456838,0.0069242152,0.0055926614,4000,0,0.044292733,0.11492186,-9.731234,4000,0,0,0,1
1593128000,-0.010652634,0.00026630942,0.0053263465,4000,0,0.038307235,0.052672606,-9.70849,4000,0,0,0,1
1593136000,0.006125278,-0.011717913,-0.002396822,4000,0,0.06344634,0.017956685,-9.764753,4000,0,0,0,1
1593144000,0.000532648,1.5052535e-08,-0.007723167,4000,0,-0.004788405,0.044292904,-9.745598,4000,0,0,0,1
1593148000,-0.0018641979,0.0058589606,-0.0058589545,4000,0,-0.019153617,0.063446514,-9.755177,4000,0,0,0,1
1593152000,0.0069242343,0.013049474,-0.00559266,4000,0,0.021547817,0.07661464,-9.782708,4000,0,0,0,1
1593156000,0.010918961,0.010386322,-0.004793714,4000,0,0.014365209,0.051475517,-9.782708,4000,0,0,0,1
1593164000,-0.009054749,0.003195786,0.0018642265,4000,0,-0.05865795,0.0047885766,-9.817424,4000,0,0,0,1
1593168000,-0.0018642197,-0.0018642374,-0.0077231606,4000,0,-0.02274492,-0.044292558,-9.721657,4000,0,0,0,1
1593172000,0.010652639,-0.0039947727,-0.005326314,4000,0,0.0011971008,-0.029927352,-9.765951,4000,0,0,0,1
1593176000,0.011984225,0.0018641774,0.0039947643,4000,0,-0.09337388,-0.011970837,-9.880873,4000,0,0,0,1
1593180000,0.0015978875,0.006924222,-0.0002662894,4000,0,-0.09816227,-0.034715753,-9.879675,4000,0,0,0,1
1593184000,-0.0074568703,0.0047936956,-0.007989463,4000,0,0.039504327,-0.015562142,-9.832989,4000,0,0,0,1
1593188000,-0.008255792,0.0029295026,0.0013315867,4000,0,0.04548984,-0.0035911307,-9.865309,4000,0,0,0,1
1593196000,-0.0021305236,-0.0015979034,0.00346211,4000,0,0.031124622,0.002394372,-9.708489,4000,0,0,0,1
1593200000,-0.016511604,-0.0002663356,-0.00053264084,4000,0,0.031124622,-0.001196931,-9.730038,4000,0,0,0,1
1593204000,-0.020506345,-0.0010652888,-0.0050600017,4000,0,0.023942018,-0.013167939,-9.842566,4000,0,0,0,1
1593208000,-0.0021305305,-0.002396896,-0.007989468,4000,0,0.04070143,-0.039504156,-9.827002,4000,0,0,0,1
1593212000,0.016511602,-0.0007989935,-0.0015978832,4000,0,0.0035913028,-0.071825884,-9.779117,4000,0,0,0,1
1593216000,0.011984228,0.0034621065,-0.00053261005,4000,0,-0.056263745,-0.041898362,-9.775527,4000,0,0,0,1
1593220000,-0.0042610657,0.00026634466,-0.006924214,4000,0,-0.079008654,-0.016759245,-9.756373,4000,0,0,0,1
1593228000,-0.005592652,-0.0053263092,1.02147e-08,4000,0,0.005985504,1.7199409e-07,-9.854535,4000,0,0,0,1
1593232000,0.0029294693,-0.0037284172,0.004793702,4000,0,0.0011971015,0.015562484,-9.810242,4000,0,0,0,1
1593240000,0.00426106,-0.009321065,-0.0039947396,4000,0,-0.0011971011,0.0047885748,-9.752781,4000,0,0,0,1
1593244000,0.013049481,-0.002663181,0.0013316175,4000,0,-0.005985504,0.026336389,-9.797075,4000,0,0,0,1
1593248000,0.011185273,0.01198423,0.0002663784,4000,0,0.035913028,0.05746101,-9.804258,4000,0,0,0,1
1593252000,0.0034620913,0.012250559,-0.004261026,4000,0,0.053869545,-0.0023940308,-9.77433,4000,0,0,0,1
1593256000,0.004261064,0.005592634,-0.0005326431,4000,0,-0.005985504,-0.062249076,-9.725246,4000,0,0,0,1
1593260000,0.012516881,-0.0034621302,0.012783147,4000,0,-0.039504327,-0.055066474,-9.785105,4000,0,0,0,1
1593264000,0.007989515,-0.012250587,0.018908404,4000,0,-0.08619127,-0.0059853327,-9.870098,4000,0,0,0,1
1593268000,-0.0061252327,-0.016245363,0.015446269,4000,0,-0.14245501,0.0395045,-9.866505,4000,0,0,0,1
1593272000,-0.012783132,-0.016511653,0.0077231326,4000,0,-0.05985505,0.043095805,-9.837774,4000,0,0,0,1
1593276000,-0.013848402,-0.011717951,-0.001065291,4000,0,0.055066645,-0.020350542,-9.800665,4000,0,0,0,1
1593280000,-0.0047936705,-0.002396868,-0.0053263307,4000,0,0.062249243,-0.070628785,-9.783907,4000,0,0,0,1
1593284000,0.0055926475,0.0010652413,-0.008522115,4000,0,0.04908113,-0.040701255,-9.783907,4000,0,0,0,1
1593288000,0.0053263204,-0.00053263997,-0.0039947443,4000,0,0.021547817,-0.039504156,-9.776724,4000,0,0,0,1
1593292000,-0.0021305273,0.0023968373,0.0061252755,4000,0,-0.01436521,-0.069431685,-9.805455,4000,0,0,0,1
1593296000,-0.008788445,0.0063915704,0.0010652671,4000,0,0.0011971008,-0.03112445,-9.804258,4000,0,0,0,1
1593300000,-0.008255817,0.007456829,-0.006924223,4000,0,0.04668694,0.053869717,-9.7803135,4000,0,0,0,1
1593308000,0.003728428,-0.008255795,0.0042610685,4000,0,0.06943185,0.086191446,-9.809044,4000,0,0,0,1
1593312000,0.0023968725,-0.0015978821,-0.009054745,4000,0,0.06105215,0.034716096,-9.815032,4000,0,0,0,1
1593320000,0.003728508,0.01438106,0.0039947056,4000,0,-0.040701427,-0.0011969305,-9.759963,4000,0,0,0,1
1593328000,-0.0055925776,0.008788334,0.024501132,4000,0,0.038307235,0.016759587,-9.889252,4000,0,0,0,1
1593336000,0.0074568545,-0.0013315654,-0.0053263227,4000,0,0.005985506,-0.05386937,-9.823412,4000,0,0,0,1
1593344000,-0.006125266,0.00426106,0.0031958006,4000,0,0.034715928,0.074220434,-9.783907,4000,0,0,0,1
1593348000,-0.018109495,0.009054751,0.010120019,4000,0,0.027533324,-0.026336048,-9.888056,4000,0,0,0,1
1593352000,-0.016511623,0.014647382,0.008255763,4000,0,0.1221043,-0.08020559,-9.927559,4000,0,0,0,1
1593356000,-0.0063916286,0.008255763,-0.0037284396,4000,0,0.15203184,-0.043095466,-9.805454,4000,0,0,0,1
1593364000,-0.0023968457,-0.0005326365,-0.0053263213,4000,0,0.035913028,-0.0957679,-9.794681,4000,0,0,0,1
1593368000,0.0071905325,-0.0021305436,-0.0021305261,4000,0,-0.020350715,-0.10295051,-9.733627,4000,0,0,0,1
1593372000,0.005858952,-0.0034621172,0.0013315764,4000,0,-0.040701427,-0.0873882,-9.673774,4000,0,0,0,1
1593376000,0.006657903,-0.00026631317,7.1587056e-09,4000,0,0.0,-0.06105198,-9.736021,4000,0,0,0,1
1593380000,0.011984227,0.006924218,0.0010652811,4000,0,0.07422027,-0.0059853345,-9.777922,4000,0,0,0,1
1593384000,0.009054773,0.010119969,0.011717929,4000,0,0.06344634,-0.007182434,-9.797075,4000,0,0,0,1
1593392000,-0.0074568535,0.008255774,0.009853718,4000,0,0.035913028,-0.084993996,-9.904813,4000,0,0,0,1
1593396000,0.0010652617,0.008522143,0.009054726,4000,0,0.049081136,-0.09816211,-9.849746,4000,0,0,0,1
1593400000,0.0098536825,0.007723197,0.0026631365,4000,0,0.06943185,-0.034715753,-9.779117,4000,0,0,0,1
1593404000,0.00026632613,-0.0039947494,0.0023968313,4000,0,0.077811554,0.05267261,-9.745598,4000,0,0,0,1
1593408000,-0.015180016,-0.010386342,0.0034620885,4000,0,0.07661447,0.023942186,-9.755177,4000,0,0,0,1
1593416000,-0.005060004,0.002929457,-0.0031958157,4000,0,0.041898537,-0.038307063,-9.731234,4000,0,0,0,1
1593420000,0.0015978923,0.002663147,-0.0077231755,4000,0,0.004788405,-0.039504156,-9.737221,4000,0,0,0,1
1593424000,-0.00079896086,-0.0045273723,-0.00079895015,4000,0,-0.05267244,-0.05985488,-9.844959,4000,0,0,0,1
1593432000,-0.009587417,0.0069242213,0.011451562,4000,0,0.0,-0.016759245,-9.831791,4000,0,0,0,1
1593436000,-0.016511621,0.012250516,0.010918961,4000,0,0.06464346,-0.04908096,-9.856928,4000,0,0,0,1
1593440000,-0.022104235,0.0053262734,0.0055926996,4000,0,0.1209072,-0.029927352,-9.76954,4000,0,0,0,1
1593444000,-0.0114516,0.0021305021,-0.00079894374,4000,0,0.1376666,0.035913195,-9.694122,4000,0,0,0,1
1593448000,0.0007989461,-0.0018642234,-0.0026631546,4000,0,0.1209072,0.043095805,-9.730038,4000,0,0,0,1
1593452000,-0.0029294803,-0.0034621072,-0.00053263514,4000,0,0.13168111,-0.016759245,-9.788693,4000,0,0,0,1
1593456000,-0.009587383,-0.00319579,0.0018642049,4000,0,0.12569559,-0.084993996,-9.831791,4000,0,0,0,1
1593460000,-0.010652643,-0.011451591,0.003195819,4000,0,0.07661447,-0.11013311,-9.886856,4000,0,0,0,1
1593464000,-0.012516854,-0.0114516,0.0018642055,4000,0,-0.005985504,-0.07781139,-9.843761,4000,0,0,0,1
1593468000,-0.0050600087,0.0026631597,0.0002662858,4000,0,-0.009576809,0.011971178,-9.725246,4000,0,0,0,1
1593472000,0.00692422,0.014647395,0.0031957629,4000,0,0.06943185,0.06105232,-9.730038,4000,0,0,0,1
1593476000,0.0034621034,0.01304949,0.0015979102,4000,0,0.09457098,0.004788576,-9.78989,4000,0,0,0,1
1593480000,-0.0063916254,0.00585896,-0.007989449,4000,0,0.07541737,-0.05027807,-9.753977,4000,0,0,0,1
1593484000,-0.007190538,0.007456846,-0.011717913,4000,0,0.03711013,-0.023941848,-9.727643,4000,0,0,0,1
1593488000,-0.0071905013,0.015180024,-0.010386348,4000,0,0.016759414,0.0011972714,-9.76595,4000,0,0,0,1
1593496000,0.010386313,0.0055925897,-0.0077232253,4000,0,0.040701427,-0.020350544,-9.696516,4000,0,0,0,1
1593500000,0.009853693,-0.00026633593,-0.0015979162,4000,0,-0.062249243,-0.028730255,-9.655815,4000,0,0,0,1
1593508000,0.0047937045,0.016511597,-0.003994747,4000,0,-0.02274492,-0.0921766,-9.791088,4000,0,0,0,1
1593512000,0.0103863245,0.01757686,-0.0050600353,4000,0,-0.015562313,-0.05147517,-9.865309,4000,0,0,0,1
1593516000,0.002929446,0.009853722,-0.008255783,4000,0,-0.02274492,-0.07900849,-9.843761,4000,0,0,0,1
1593520000,0.004527357,0.0018642074,-0.0069242325,4000,0,0.050278243,-0.10175341,-9.78989,4000,0,0,0,1
1593528000,0.009321032,-0.012250576,0.0042610373,4000,0,-0.038307235,0.044292904,-9.779118,4000,0,0,0,1
1593532000,0.005858916,-0.001065288,0.010120034,4000,0,-0.082599975,0.032321896,-9.707291,4000,0,0,0,1
1593536000,0.011984224,0.00053266535,0.0037284312,4000,0,-0.03232173,0.0383074,-9.689336,4000,0,0,0,1
1593544000,0.0018642056,-0.006125297,0.010386316,4000,0,0.011971008,0.058658123,-9.749191,4000,0,0,0,1
1593548000,0.006125262,-0.0034620953,0.010386338,4000,0,-0.099359386,0.029927695,-9.720461,4000,0,0,0,1
1593552000,0.00905476,-0.0047936696,0.00559264,4000,0,-0.11013329,0.0035914727,-9.720461,4000,0,0,0,1
1593556000,0.016245292,-0.006657878,0.0015979027,4000,0,-0.084994175,-0.035912853,-9.755177,4000,0,0,0,1
1593560000,0.020240024,0.0015979077,5.359936e-08,4000,0,-0.04668694,-0.07541719,-9.777922,4000,0,0,0,1
1593564000,0.004261061,0.001597868,0.0042610667,4000,0,0.03232173,-0.007182434,-9.856928,4000,0,0,0,1
1593568000,-0.0103863245,-0.0018642312,0.0023968483,4000,0,-0.004788405,0.08020593,-9.895235,4000,0,0,0,1
1593576000,-0.0007989501,-0.0045273793,-0.0023968373,4000,0,-0.056263745,0.013168281,-9.768345,4000,0,0,0,1
1593580000,-0.0050600087,-0.0010652603,0.0013315734,4000,0,0.02274492,0.105345055,-9.749191,4000,0,0,0,1
1593584000,-0.011984225,-1.1542867e-08,-0.0037284303,4000,0,0.050278243,0.09337404,-9.759963,4000,0,0,0,1
1593592000,-0.013848422,0.0045273164,-0.021039,4000,0,-0.02274492,-0.016759245,-9.871296,4000,0,0,0,1
1593596000,0.0023968641,0.0026631458,0.00026630054,4000,0,0.035913024,0.034716096,-9.849747,4000,0,0,0,1
1593600000,0.0018642262,0.00079893647,0.014913703,4000,0,0.022744918,0.0407016,-9.821016,4000,0,0,0,1
1593604000,-0.002929464,-0.002396863,0.0053263213,4000,0,-0.044292733,0.06584072,-9.841368,4000,0,0,0,1
1593608000,0.0037284358,-0.0013315831,-0.009321059,4000,0,-0.027533323,0.07781173,-9.876081,4000,0,0,0,1
1593612000,0.020240061,0.00878839,-0.01571263,4000,0,0.037110135,0.081403024,-9.853339,4000,0,0,0,1
1593620000,0.015979052,0.017044142,0.0047937417,4000,0,0.027533323,-0.010773739,-9.775527,4000,0,0,0,1
1593624000,0.00878849,0.0125168,0.013582139,4000,0,0.02873042,-0.038307063,-9.782707,4000,0,0,0,1
1593628000,0.0082558235,0.0050600106,0.011185257,4000,0,-0.01795651,-0.035912856,-9.809044,4000,0,0,0,1
1593632000,0.0074568954,-0.0061252764,0.011984197,4000,0,-0.062249243,0.016759586,-9.844959,4000,0,0,0,1
1593636000,-0.0010652391,-0.01278321,0.012516825,4000,0,-0.067037664,0.027533496,-9.862916,4000,0,0,0,1
1593640000,-0.0069242273,-0.008522142,0.010119988,4000,0,-0.06943185,0.02633639,-9.8281975,4000,0,0,0,1
1593648000,0.0023968378,0.0005326436,0.0061252736,4000,0,0.09696517,0.10175375,-9.865309,4000,0,0,0,1
1593652000,-0.0093210805,0.006657889,-0.0061252643,4000,0,0.06943185,0.0407016,-9.821015,4000,0,0,0,1
1593656000,-0.010120028,0.0050599943,-0.01065264,4000,0,0.034715924,-0.043095466,-9.736021,4000,0,0,0,1
1593660000,0.0058589443,-0.0018642419,-0.0023968488,4000,0,0.040701427,-0.057460673,-9.768345,4000,0,0,0,1
1593664000,0.008255792,-0.0039947676,0.009853694,4000,0,0.0047884043,0.0071827774,-9.844959,4000,0,0,0,1
1593668000,0.0015979046,-0.007989517,0.013848419,4000,0,-0.009576809,0.013168283,-9.861719,4000,0,0,0,1
1593672000,0.0018642426,-0.013315804,0.011984225,4000,0,0.033518832,-0.025138948,-9.89045,4000,0,0,0,1
1593676000,0.0101200165,-0.011984193,0.009853734,4000,0,0.079008654,-0.020350542,-9.861719,4000,0,0,0,1
1593680000,0.01864213,-0.010652611,0.00825584,4000,0,0.10295069,-0.021547647,-9.783907,4000,0,0,0,1
1593684000,0.011717931,-0.014381069,0.0047936426,4000,0,0.05506665,-0.038307063,-9.812637,4000,0,0,0,1
1593692000,0.005059975,-0.0130494945,0.008255812,4000,0,0.047884036,-0.0981621,-9.78989,4000,0,0,0,1
1593696000,0.0042610127,-0.0066579175,0.014647395,4000,0,0.02274492,-0.12808962,-9.709686,4000,0,0,0,1
1593700000,0.002130489,0.0015978862,0.014647395,4000,0,-0.0047884043,-0.15203167,-9.690533,4000,0,0,0,1
1593704000,0.0034621137,0.00026632607,0.009587378,4000,0,-0.0023942024,-0.11372441,-9.7324295,4000,0,0,0,1
1593712000,-0.0058589363,-0.023968462,0.0021305075,4000,0,-0.02633622,-0.08020559,-9.885659,4000,0,0,0,1
1593716000,-0.001597945,-0.013049478,0.007190549,4000,0,-0.0047884043,-0.06823458,-9.853339,4000,0,0,0,1
1593724000,0.003195781,0.006125261,0.014114761,4000,0,0.0023942022,0.09337404,-9.860521,4000,0,0,0,1
1593728000,-0.003728404,0.0021304945,0.01571266,4000,0,0.065840565,-0.026336048,-9.849746,4000,0,0,0,1
1593732000,-0.007190538,0.0013315493,0.0050600097,4000,0,0.07541737,0.0035914744,-9.817425,4000,0,0,0,1
1593736000,0.001065258,0.0039947433,-9.977885e-09,4000,0,0.017956512,0.0407016,-9.794682,4000,0,0,0,1
1593740000,0.010918966,0.003728425,0.0031957803,4000,0,0.009576809,-0.029927352,-9.775527,4000,0,0,0,1
1593748000,0.00133159,0.0037283953,0.010120023,4000,0,-0.037110135,-0.0035911314,-9.809044,4000,0,0,0,1
1593752000,-0.0039947443,0.0055926205,0.013049497,4000,0,-0.038307235,-0.07302299,-9.752781,4000,0,0,0,1
1593756000,-0.0021305028,-0.003728428,0.005326332,4000,0,-0.02873042,-0.0873882,-9.770737,4000,0,0,0,1
1593760000,-0.0037283855,-0.025566354,0.0039947554,4000,0,-0.03351883,0.005985676,-9.8198185,4000,0,0,0,1
1593764000,-0.008255774,-0.0229032,0.00053258997,4000,0,-0.08619127,0.007182778,-9.861719,4000,0,0,0,1
1593772000,0.0074568707,0.0021304989,-0.011717904,4000,0,-0.014365209,-0.07541719,-9.880873,4000,0,0,0,1
1593776000,0.0018641689,-0.008788405,-0.0141147785,4000,0,0.01436521,-0.03351866,-9.823412,4000,0,0,0,1
1593780000,-0.0015979226,-0.013582108,-0.013049504,4000,0,0.01316811,-0.027533151,-9.825806,4000,0,0,0,1
1593784000,-0.0013316128,-0.009587375,-0.0021305303,4000,0,0.0011971008,-0.008379536,-9.77433,4000,0,0,0,1
1593788000,-0.012250555,-0.007190526,0.001864177,4000,0,0.0035913028,-0.017956344,-9.6917305,4000,0,0,0,1
1593792000,-0.012783179,-0.0005326337,0.0015978685,4000,0,0.047884032,-0.064643286,-9.738418,4000,0,0,0,1
1593796000,0.0018642116,0.0007989709,0.0050600027,4000,0,0.089782566,-0.069431685,-9.825806,4000,0,0,0,1
1593800000,0.008255806,-0.0018642026,0.00532632,4000,0,0.10654198,0.0059856763,-9.841368,4000,0,0,0,1
1593804000,0.008788418,0.005858952,0.006657925,4000,0,0.12330139,0.07661464,-9.811439,4000,0,0,0,1
1593812000,0.0010652326,0.003462138,-0.007190527,4000,0,0.03351883,-0.0059853345,-9.7240505,4000,0,0,0,1
1593816000,-0.00506003,0.0005326526,-0.021837918,4000,0,0.056263745,-0.022744749,-9.763554,4000,0,0,0,1
1593824000,0.010386327,-4.5605518e-08,-0.0039947433,4000,0,0.03950433,-0.02035054,-9.880873,4000,0,0,0,1
1593832000,0.005060004,0.0031957962,-0.007723168,4000,0,0.017956512,0.007182777,-9.781511,4000,0,0,0,1
1593836000,0.0106526585,0.004793662,0.0007989452,4000,0,0.05027824,-0.02873025,-9.7719345,4000,0,0,0,1
1593840000,0.0058589405,0.015446361,-0.0066578574,4000,0,0.047884032,0.0047885757,-9.822214,4000,0,0,0,1
1593844000,-0.00878846,0.018642172,-0.013315723,4000,0,0.023942016,-0.025138948,-9.812637,4000,0,0,0,1
1593848000,-0.010386321,0.013049514,-0.0077231405,4000,0,0.020350713,-0.047883864,-9.770737,4000,0,0,0,1
1593852000,-0.0074568647,0.011185264,-0.009587388,4000,0,0.07302317,0.027533494,-9.812637,4000,0,0,0,1
1593856000,1.5887034e-08,0.009321054,-0.0037284486,4000,0,0.1616086,0.07062913,-9.848549,4000,0,0,0,1
1593860000,0.012783186,0.0039947256,0.0015978572,4000,0,0.15442601,0.07781173,-9.879675,4000,0,0,0,1
1593864000,0.00692421,0.0029295052,-0.005592636,4000,0,0.084994175,0.09337404,-9.866505,4000,0,0,0,1
1593868000,-0.00079895364,0.00239687,-0.00985369,4000,0,0.041898537,0.04908131,-9.775528,4000,0,0,0,1
1593876000,0.0069242124,-0.0037284384,-8.528705e-09,4000,0,0.058657948,-0.014365039,-9.804258,4000,0,0,0,1
1593880000,0.005592635,-0.0037284347,0.0037284244,4000,0,0.11611879,0.033519,-9.815032,4000,0,0,0,1
1593884000,0.009853683,0.0047936905,0.006391609,4000,0,0.07661447,0.011971178,-9.683351,4000,0,0,0,1
1593888000,0.0021305252,0.0071905167,0.007190556,4000,0,-0.05386955,-0.05985488,-9.62589,4000,0,0,0,1
1593892000,-0.0058589433,0.005059985,0.009587399,4000,0,-0.08738837,-0.124498315,-9.759964,4000,0,0,0,1
1593896000,0.0053262995,0.010386358,0.0055926098,4000,0,0.0,-0.14245483,-9.841368,4000,0,0,0,1
1593900000,0.016777897,0.015712678,0.003728396,4000,0,0.05267244,-0.15083458,-9.7803135,4000,0,0,0,1
1593904000,0.007723211,0.0069241757,0.009587378,4000,0,0.084994175,-0.15083458,-9.77433,4000,0,0,0,1
1593908000,-0.0034620895,-0.0042610774,0.0029294747,4000,0,0.06105215,-0.116118625,-9.848549,4000,0,0,0,1
1593912000,0.002130549,-0.011451599,-0.005858939,4000,0,-0.0011971012,-0.038307063,-9.89045,4000,0,0,0,1
1593916000,0.0037283793,-0.012516872,0.0058589606,4000,0,0.0011971008,0.055066817,-9.832989,4000,0,0,0,1
1593924000,0.0071904785,0.004527384,0.022636887,4000,0,0.06464346,-0.0059853336,-9.793484,4000,0,0,0,1
1593928000,-0.0021304928,-0.0015979515,0.01597897,4000,0,0.08140285,0.04908131,-9.801862,4000,0,0,0,1
1593932000,0.006125336,-0.013315765,0.012250556,4000,0,0.03711013,0.044292904,-9.792284,4000,0,0,0,1
1593936000,0.019973729,-0.011984159,0.006391652,4000,0,-0.0011971011,-0.004788233,-9.801862,4000,0,0,0,1
1593940000,0.01225054,-0.006125272,0.00399475,4000,0,0.06344635,-0.035912853,-9.816229,4000,0,0,0,1
1593944000,-0.0031957896,-0.009321084,0.0039946977,4000,0,0.14724344,-0.07541719,-9.843762,4000,0,0,0,1
1593952000,0.003994732,0.0053263307,0.0010652608,4000,0,0.040701427,-0.10534471,-9.88207,4000,0,0,0,1
1593956000,0.0013315657,0.0010652761,-0.008255803,4000,0,0.084994175,-0.0873882,-9.888055,4000,0,0,0,1
1593960000,-0.0069242325,-0.0026631353,-0.01518002,4000,0,0.039504327,-0.02633605,-9.847351,4000,0,0,0,1
1593968000,-0.0013316056,-0.007723165,-0.00053261383,4000,0,-0.011971008,-0.059854876,-9.79827,4000,0,0,0,1
1593972000,0.0034621046,-0.0023968448,0.001864223,4000,0,0.014365209,-0.05386937,-9.883265,4000,0,0,0,1
1593976000,0.005592636,0.006125275,-0.00026630447,4000,0,-0.029927524,-0.019153444,-9.923965,4000,0,0,0,1
1593980000,0.0074568396,0.0029294877,-0.0058589643,4000,0,-0.028730419,0.037110306,-9.884462,4000,0,0,0,1
1593984000,0.0002663042,-0.0021305098,-0.007989489,4000,0,0.033518832,0.074220434,-9.878479,4000,0,0,0,1
1593992000,-0.015712636,0.009587403,0.0010652676,4000,0,0.01436521,0.0035914732,-9.76595,4000,0,0,0,1
1594000000,-0.0074568526,-0.0042610704,-0.0018641842,4000,0,-0.101753585,-0.1268925,-9.825806,4000,0,0,0,1
1594008000,-0.0045273947,-0.008788413,0.007989492,4000,0,-0.02633622,-0.027533151,-9.810242,4000,0,0,0,1
1594016000,-0.008255822,0.006924198,0.0037284181,4000,0,0.03232173,-0.039504156,-9.824609,4000,0,0,0,1
1594024000,-0.008522119,-0.003994727,0.002396864,4000,0,0.027533323,0.033519,-9.76954,4000,0,0,0,1
1594028000,-0.0063916,0.0010652845,0.00878842,4000,0,0.008379707,-0.026336048,-9.848549,4000,0,0,0,1
1594032000,-0.008255836,0.012783166,0.007456828,4000,0,0.037110135,-0.0957679,-9.832989,4000,0,0,0,1
1594036000,-0.00452741,0.017044228,0.0015978697,4000,0,0.11492168,-0.067037486,-9.777922,4000,0,0,0,1
1594040000,0.001597863,0.009587374,-0.0050600297,4000,0,0.16639705,-0.058657777,-9.830592,4000,0,0,0,1
1594044000,0.0013315773,0.0010652632,-0.0015979001,4000,0,0.084994175,-0.011970838,-9.792285,4000,0,0,0,1
1594048000,-0.0042610597,-0.003994742,0.003994742,4000,0,-0.08738837,0.092176944,-9.683351,4000,0,0,0,1
1594052000,-0.0050600097,-0.0013315817,0.0039947373,4000,0,-0.14724344,0.164003,-9.71208,4000,0,0,0,1
1594056000,0.007456849,-0.0005326082,0.008522122,4000,0,0.028730419,0.15801747,-9.77433,4000,0,0,0,1
1594060000,0.011185288,-0.004793682,0.00958737,4000,0,0.22744915,0.06584072,-9.797075,4000,0,0,0,1
1594064000,0.00026629612,0.002663135,0.007190546,4000,0,0.18794486,0.01077408,-9.797075,4000,0,0,0,1
1594068000,-0.010918985,0.011185251,0.003728437,4000,0,0.037110135,0.013168281,-9.787498,4000,0,0,0,1
1594072000,-0.0146474,0.009853679,-0.0002662972,4000,0,0.0047884043,-0.0059853327,-9.827002,4000,0,0,0,1
1594076000,-0.0031957803,0.0013316,0.0039947457,4000,0,0.039504327,-0.0023940294,-9.859325,4000,0,0,0,1
1594080000,0.0061252816,-0.004793671,0.010120015,4000,0,0.08020575,0.0059856763,-9.837775,4000,0,0,0,1
1594084000,0.0018642097,-0.0037284398,0.009853692,4000,0,0.113724574,-0.01795634,-9.823412,4000,0,0,0,1
1594092000,-0.0063916026,0.012516858,0.0063915746,4000,0,0.1592144,0.020350887,-9.830592,4000,0,0,0,1
1594096000,0.00026632508,-0.001597894,0.001331583,4000,0,0.12449849,0.086191446,-9.841368,4000,0,0,0,1
1594104000,-0.0029294586,-0.0037284172,-0.009853707,4000,0,-0.088585466,0.04189871,-9.742006,4000,0,0,0,1
1594108000,0.006924199,-0.006391612,-0.0013315658,4000,0,-0.041898537,0.07541753,-9.719263,4000,0,0,0,1
1594112000,0.01784317,-0.00266318,0.0047937213,4000,0,0.008379708,-0.0071824347,-9.807847,4000,0,0,0,1
1594116000,0.01624528,-0.0023968674,0.007989485,4000,0,-0.028730422,-0.124498315,-9.8677025,4000,0,0,0,1
1594120000,0.0066579357,-0.011451567,-0.0015979542,4000,0,-0.020350715,-0.088585295,-9.848549,4000,0,0,0,1
1594128000,0.0013316282,0.0069242385,-0.019707384,4000,0,0.04070143,0.0083798785,-9.836578,4000,0,0,0,1
1594132000,-0.002130604,-0.005326301,-0.017310545,4000,0,-0.023942016,0.0083798785,-9.801862,4000,0,0,0,1
1594136000,0.00079889985,-0.011451605,-0.009853685,4000,0,-0.03232173,0.0143653825,-9.793484,4000,0,0,0,1
1594140000,0.0010652377,-0.006924223,0.0010652667,4000,0,-0.031124622,0.028730594,-9.801862,4000,0,0,0,1
1594144000,0.001597897,-0.005592639,0.00079895,4000,0,0.015562313,0.031124793,-9.822214,4000,0,0,0,1
1594148000,-0.0053263055,-0.006125268,-0.008255813,4000,0,0.053869545,0.0323219,-9.836578,4000,0,0,0,1
1594152000,-0.022636862,-0.00079889456,-0.004793735,4000,0,0.0047884034,0.017956685,-9.818621,4000,0,0,0,1
1594156000,-0.021305284,0.0053263605,0.0005325866,4000,0,-0.06105215,0.015562482,-9.745598,4000,0,0,0,1
1594160000,-0.0010652744,0.0066578696,-0.0047937357,4000,0,-0.099359386,0.053869713,-9.709686,4000,0,0,0,1
1594164000,0.016777907,0.0103862975,-0.0114516355,4000,0,-0.084994175,0.04668711,-9.773131,4000,0,0,0,1
1594168000,0.024501052,0.0039947242,-0.013582186,4000,0,0.0071826056,-0.05027807,-9.88207,4000,0,0,0,1
1594172000,0.016245248,-0.00798954,-0.0021306165,4000,0,0.07062895,-0.03232155,-9.929954,4000,0,0,0,1
1594176000,0.0026631302,-0.010120064,0.009054701,4000,0,0.059855048,0.04189871,-9.886856,4000,0,0,0,1
1594180000,-0.00026633102,-0.0039947494,0.00798948,4000,0,0.019153617,-0.049080964,-9.909603,4000,0,0,0,1
1594184000,0.007456833,0.0087884525,-0.0031957843,4000,0,-0.04429273,-0.08020559,-9.927559,4000,0,0,0,1
1594188000,0.007989454,0.0061252946,-0.012516867,4000,0,-0.056263745,0.033519,-9.797075,4000,0,0,0,1
1594192000,-0.0005326753,-0.006924199,-0.006924237,4000,0,-0.023942018,0.081403024,-9.734823,4000,0,0,0,1
1594200000,0.001065253,-0.014381072,0.0031958027,4000,0,0.017956512,-0.06823458,-9.786301,4000,0,0,0,1
1594204000,0.008788436,-0.012516851,0.0023968825,4000,0,-0.014365211,-0.16041133,-9.823412,4000,0,0,0,1
1594212000,0.004261076,3.4584595e-08,-0.009321055,4000,0,-0.057460845,-0.06703748,-9.804258,4000,0,0,0,1
1594216000,0.006924215,-0.0015979069,-0.007989487,4000,0,-0.0011971015,-0.044292558,-9.823412,4000,0,0,0,1
1594224000,-0.0031958022,-0.008255825,0.011984207,4000,0,0.077811554,-0.011970837,-9.895236,4000,0,0,0,1
1594228000,0.003728449,-0.011185255,0.00772319,4000,0,0.065840565,0.037110303,-9.846155,4000,0,0,0,1
1594232000,0.0029295026,-0.00053261715,-0.0063915774,4000,0,-0.041898534,0.06105232,-9.835382,4000,0,0,0,1
1594236000,-0.006657892,0.0047937133,-0.00932106,4000,0,-0.102950685,0.013168283,-9.858126,4000,0,0,0,1
1594240000,-0.0042610546,0.0002663341,0.0021305352,4000,0,-0.053869545,0.008379879,-9.89045,4000,0,0,0,1
1594244000,-0.0015978971,0.0013315903,0.007723166,4000,0,-0.01316811,0.0395045,-9.842566,4000,0,0,0,1
1594248000,-0.0034621179,0.005060003,0.011185278,4000,0,0.009576809,0.073023334,-9.781511,4000,0,0,0,1
1594252000,-0.0015978997,0.0058589615,0.011185275,4000,0,0.027533323,0.021547988,-9.866505,4000,0,0,0,1
1594256000,-0.0031958148,0.00532631,-0.0005326285,4000,0,0.05746084,-0.023941847,-9.962273,4000,0,0,0,1
1594260000,-0.008255803,0.0005326324,-0.0013315663,4000,0,0.079008654,0.027533496,-9.93953,4000,0,0,0,1
1594264000,-0.009321065,-0.0055926153,0.007190553,4000,0,0.06823475,0.028730594,-9.860521,4000,0,0,0,1
1594272000,-0.0034620948,-0.0069242343,-0.0074568456,4000,0,0.0035913028,-0.020350542,-9.770737,4000,0,0,0,1
1594276000,-0.0055926545,-0.011451587,-0.0058589545,4000,0,0.03351883,-0.022744745,-9.878479,4000,0,0,0,1
1594280000,-0.00026632624,-0.010386333,-0.002663143,4000,0,0.053869545,-0.041898366,-9.917982,4000,0,0,0,1
1594284000,0.0013315405,-0.007989485,0.009587387,4000,0,0.047884032,-0.0909795,-9.830592,4000,0,0,0,1
1594288000,-0.0050600516,-0.0034621358,0.021038959,4000,0,-0.01197101,-0.11492152,-9.78989,4000,0,0,0,1
1594296000,0.0031957831,0.003462114,-0.005326326,4000,0,-0.06105215,-0.02633605,-9.788693,4000,0,0,0,1
1594300000,0.004261066,0.007989483,-0.0053263195,4000,0,0.010773908,0.034716096,-9.763554,4000,0,0,0,1
1594304000,-0.0015978889,0.006125276,-0.0010652514,4000,0,0.10295069,0.02633639,-9.8281975,4000,0,0,0,1
1594308000,-0.013049487,5.1825215e-09,0.0010652911,4000,0,0.1628057,0.0011972733,-9.870098,4000,0,0,0,1
1594312000,-0.005060005,-0.0023968457,0.00026632653,4000,0,0.1412579,0.06224942,-9.829395,4000,0,0,0,1
1594316000,0.016245281,3.664822e-09,0.0013315937,4000,0,0.07302316,0.07062913,-9.846154,4000,0,0,0,1
1594320000,0.019973708,0.0063915984,-0.0002662814,4000,0,0.08978256,-0.01795634,-9.859323,4000,0,0,0,1
1594324000,0.013848442,0.014647378,0.0013316488,4000,0,0.17597383,-0.004788232,-9.803061,4000,0,0,0,1
1594332000,-0.007190581,0.014381082,-0.007190467,4000,0,0.08259997,0.122104466,-9.895236,4000,0,0,0,1
1594340000,-0.009321053,0.0039947685,-0.00026630829,4000,0,0.057460837,1.6998833e-07,-9.7396145,4000,0,0,0,1
1594344000,-0.00852211,-0.00026629813,0.0055926517,4000,0,-0.008379708,0.008379878,-9.744401,4000,0,0,0,1
1594348000,-0.0045273663,-0.0045273746,0.0031958064,4000,0,-0.009576809,-0.01316794,-9.78989,4000,0,0,0,1
1594352000,0.0013315753,0.0021305338,0.0021305282,4000,0,-0.031124622,0.004788576,-9.847351,4000,0,0,0,1
1594360000,-0.008255824,-0.0029295029,-0.009587352,4000,0,0.082599975,-0.0059853327,-9.813835,4000,0,0,0,1
1594364000,0.01464736,-0.011984308,-0.012250494,4000,0,0.06344634,0.021547986,-9.71567,4000,0,0,0,1
1594368000,0.0114515675,-0.0146473935,-0.008522142,4000,0,0.04548984,0.043095805,-9.719263,4000,0,0,0,1
1594372000,0.00026626306,-0.01731055,0.0007988834,4000,0,0.07541737,0.0323219,-9.848549,4000,0,0,0,1
1594376000,0.008788412,-0.011451593,0.0039947913,4000,0,0.083797075,-0.0047882306,-9.931149,4000,0,0,0,1
1594380000,0.008255802,0.005060022,-0.0018641663,4000,0,0.095768064,0.0023943733,-9.829395,4000,0,0,0,1
1594384000,-0.0050600013,0.010652649,-0.0005325942,4000,0,0.09217678,0.049081307,-9.727644,4000,0,0,0,1
1594392000,-0.011717893,-0.009054719,0.013049526,4000,0,-0.09816227,0.034716092,-9.70849,4000,0,0,0,1
1594396000,-0.0066579296,-0.0023968273,0.011984215,4000,0,-0.11372458,0.031124793,-9.715671,4000,0,0,0,1
1594400000,-0.0071905376,-0.0010652746,0.008522114,4000,0,-0.104147784,0.04549001,-9.787498,4000,0,0,0,1
1594404000,-0.0026631411,-0.0077231624,0.0050600236,4000,0,-0.038307235,0.122104466,-9.844959,4000,0,0,0,1
1594408000,0.0050600106,-0.0026631523,1.5344087e-08,4000,0,0.09217678,0.102950856,-9.846155,4000,0,0,0,1
1594416000,-0.0023968304,0.0034620948,0.0069242315,4000,0,0.13407533,-0.033518657,-9.871296,4000,0,0,0,1
1594424000,0.00026633198,-0.007723145,0.009054767,4000,0,0.1221043,0.102950856,-9.832989,4000,0,0,0,1
1594428000,0.008522129,-0.003462084,-0.00079892686,4000,0,0.09097968,0.037110303,-9.830592,4000,0,0,0,1
1594436000,0.012250541,-0.007989466,-0.008255819,4000,0,-0.047884032,0.009576979,-9.806652,4000,0,0,0,1
1594440000,-0.0010652738,-0.006391572,-0.0031958225,4000,0,-0.040701427,0.019153787,-9.807848,4000,0,0,0,1
1594444000,-0.0010652931,-0.0063915825,0.010120012,4000,0,-0.029927524,-0.025138952,-9.751583,4000,0,0,0,1
1594448000,0.0047936705,-0.0010652449,0.010918971,4000,0,0.0011971015,0.010774079,-9.738417,4000,0,0,0,1
1594456000,0.011185287,0.0029294728,0.008522105,4000,0,0.0011970999,-0.005985333,-9.799467,4000,0,0,0,1
1594460000,0.010652654,-0.00026631882,0.008788421,4000,0,0.08738837,-0.014365041,-9.785104,4000,0,0,0,1
1594464000,-0.0047936942,0.0010652229,0.0077231727,4000,0,0.083797075,-0.0825998,-9.755177,4000,0,0,0,1
1594468000,-0.018642139,0.0042610215,0.006657903,4000,0,-0.017956512,-0.12569542,-9.719263,4000,0,0,0,1
1594472000,-0.010120017,0.0039947364,0.002663151,4000,0,-0.062249243,-0.087388195,-9.745598,4000,0,0,0,1
1594476000,0.00585895,0.00825581,0.0013315452,4000,0,-0.044292733,-0.04668677,-9.785105,4000,0,0,0,1
1594480000,0.0122505585,0.012250532,0.0074568414,4000,0,-0.008379707,-0.057460666,-9.773131,4000,0,0,0,1
1594484000,0.016245332,0.01065261,0.018375792,4000,0,0.06105215,-0.01795634,-9.7719345,4000,0,0,0,1
1594488000,0.014913686,0.014381057,0.01970742,4000,0,0.101753585,0.09457116,-9.781511,4000,0,0,0,1
1594492000,-5.2200274e-08,0.013582084,0.007723235,4000,0,0.11013329,0.10295086,-9.78989,4000,0,0,0,1
1594496000,-0.009321084,0.0015978733,-0.0034620676,4000,0,0.1161188,0.06464362,-9.793484,4000,0,0,0,1
1594500000,-0.0026631646,-0.0010652747,-0.0042610536,4000,0,0.05985505,0.04668711,-9.797075,4000,0,0,0,1
1594504000,0.0066579175,0.0101200035,0.0013315744,4000,0,0.007182605,0.028730594,-9.78989,4000,0,0,0,1
1594508000,0.0031958078,0.008522106,0.005326331,4000,0,0.053869545,0.038307402,-9.763554,4000,0,0,0,1
1594512000,-0.011717909,0.0007989265,0.0010652988,4000,0,0.10654198,-0.004788235,-9.745598,4000,0,0,0,1
1594516000,-0.018375816,0.006657877,-0.005060027,4000,0,0.08140286,-0.008379538,-9.786302,4000,0,0,0,1
1594524000,-0.0031958097,0.0013315601,-0.0061252667,4000,0,0.033518832,0.04549001,-9.892841,4000,0,0,0,1
1594528000,0.0029294586,-0.0071905525,-0.010120005,4000,0,0.023942016,-0.0023940313,-9.838972,4000,0,0,0,1
1594532000,0.005858905,-0.015446354,-0.0010652659,4000,0,0.027533323,-0.028730253,-9.829395,4000,0,0,0,1
1594536000,0.0034620792,-0.013315817,0.0050599985,4000,0,-0.0071826056,0.01077408,-9.832989,4000,0,0,0,1
1594544000,-0.0015979024,-0.0013315909,0.007723165,4000,0,-0.023942018,-0.08020559,-9.842566,4000,0,0,0,1
1594548000,-0.001597897,0.00026631137,-0.0013315814,4000,0,0.029927524,-0.058657777,-9.895235,4000,0,0,0,1
1594552000,0.00639159,0.006924212,-0.009587386,4000,0,0.021547817,0.011971182,-9.846155,4000,0,0,0,1
1594556000,0.001864213,0.006657918,-0.0093210535,4000,0,-0.039504327,0.051475517,-9.842566,4000,0,0,0,1
1594560000,-0.0010652497,0.008255806,-0.0047936826,4000,0,-0.021547817,0.04549001,-9.870098,4000,0,0,0,1
1594564000,0.006125301,0.0138484305,0.002929456,4000,0,-0.009576808,0.016759586,-9.861719,4000,0,0,0,1
1594568000,0.006125318,0.012250521,0.012516855,4000,0,-0.028730419,-0.0035911312,-9.832989,4000,0,0,0,1
1594576000,-0.0029294516,-0.0058589685,0.002929477,4000,0,-0.008379707,-0.034715753,-9.817424,4000,0,0,0,1
1594580000,-0.0045273714,-0.0026631663,-0.0002663225,4000,0,0.0,-0.028730249,-9.830592,4000,0,0,0,1
1594584000,-0.0013315886,-0.0034620971,0.008522121,4000,0,-0.02873042,0.020350887,-9.788693,4000,0,0,0,1
1594588000,-0.0029294614,-0.012783176,0.017576868,4000,0,-0.014365211,0.07302333,-9.7719345,4000,0,0,0,1
1594592000,-0.004793708,-0.009853709,0.01784317,4000,0,0.02274492,0.063446514,-9.813835,4000,0,0,0,1
1594596000,0.0039946935,0.0007989933,0.013315818,4000,0,0.016759414,0.023942187,-9.829395,4000,0,0,0,1
1594600000,0.0010652918,-0.0061252667,0.00053262326,4000,0,0.043095633,0.06823493,-9.828198,4000,0,0,0,1
1594604000,-0.017576842,-0.016511602,-0.010120055,4000,0,0.015562313,0.10055666,-9.837775,4000,0,0,0,1
1594608000,-0.017576857,-0.0061252443,-0.0055926996,4000,0,-0.07302316,-0.0023940278,-9.848549,4000,0,0,0,1
1594612000,-0.0077231755,-0.0015978732,0.0015978904,4000,0,-0.079008654,-0.0909795,-9.809044,4000,0,0,0,1
1594616000,-0.010120003,-0.014647407,-0.0053262906,4000,0,-0.020350713,-0.06464328,-9.773131,4000,0,0,0,1
1594620000,-0.013315778,-0.014381085,-0.011185294,4000,0,0.023942018,-0.019153446,-9.777922,4000,0,0,0,1
1594624000,-0.0034621086,-0.0023968415,-0.002130535,4000,0,0.005985505,0.033519,-9.775528,4000,0,0,0,1
1594628000,0.0042610597,0.000798945,-0.0002663137,4000,0,-0.019153617,0.023942187,-9.842566,4000,0,0,0,1
1594632000,-0.0050600055,0.0026631597,0.0015979017,4000,0,-0.008379708,-0.069431685,-9.861719,4000,0,0,0,1
1594636000,-0.009321056,0.0034621214,0.010120015,4000,0,0.027533323,-0.08020559,-9.829395,4000,0,0,0,1
1594640000,0.0015979038,0.0015979342,0.010386323,4000,0,0.043095633,-0.043095466,-9.858126,4000,0,0,0,1
1594644000,0.008522088,0.009321089,0.007723168,4000,0,0.0011971008,-0.06344618,-9.811439,4000,0,0,0,1
1594648000,0.0015978712,0.008522125,-0.0010652456,4000,0,-0.05626375,-0.06464328,-9.755177,4000,0,0,0,1
1594652000,-6.997864e-09,-0.0047936887,-0.0018642158,4000,0,-0.08738837,-0.0023940303,-9.809044,4000,0,0,0,1
1594656000,0.003728406,-0.006924221,0.009853704,4000,0,-0.08140285,0.02633639,-9.818621,4000,0,0,0,1
1594660000,-0.0058589675,-0.0026631926,0.009587364,4000,0,-0.084994175,-0.017956343,-9.7324295,4000,0,0,0,1
1594664000,-0.00506,-0.00079897395,-0.004793693,4000,0,-0.08738837,-0.021547649,-9.716867,4000,0,0,0,1
1594668000,0.00745686,0.0023968036,-0.017576868,4000,0,-0.051475346,0.010774079,-9.764753,4000,0,0,0,1
1594672000,0.004261101,0.008522116,-0.009321045,4000,0,-0.027533323,0.034716096,-9.829395,4000,0,0,0,1
1594680000,0.0042610834,-0.008255795,0.0055926284,4000,0,-0.06703766,0.00837988,-9.854535,4000,0,0,0,1
1594684000,0.0002663355,-0.008788432,-0.0010652763,4000,0,-0.029927524,1.7099121e-07,-9.797075,4000,0,0,0,1
1594688000,-0.005592633,0.006924221,-0.0013315963,4000,0,0.034715924,0.028730594,-9.76954,4000,0,0,0,1
1594696000,-0.00213056,0.00026630276,-0.008255794,4000,0,0.15562311,-0.04788387,-9.792285,4000,0,0,0,1
1594700000,-0.0045273807,-0.0015978933,-0.0127831735,4000,0,0.082599975,0.028730592,-9.853339,4000,0,0,0,1
1594704000,-0.0013315848,-0.0018642185,-0.00745685,4000,0,0.03711013,0.028730592,-9.795877,4000,0,0,0,1
1594708000,0.007989466,-0.0063916054,0.0037284337,4000,0,0.06943185,-0.0035911326,-9.73722,4000,0,0,0,1
1594712000,0.0050600083,-0.007989488,0.0037284154,4000,0,0.05267244,0.027533494,-9.698913,4000,0,0,0,1
1594716000,-0.0026631316,-0.009587372,-0.0066579264,4000,0,0.03351883,0.056263912,-9.680956,4000,0,0,0,1
1594720000,-0.0053263213,-0.003195784,-0.0026631753,4000,0,0.047884032,0.08379723,-9.809044,4000,0,0,0,1
1594724000,-0.00639157,0.014913702,-0.004261091,4000,0,0.077811554,0.056263912,-9.907208,4000,0,0,0,1
1594732000,-0.0026631607,0.012250541,-0.006924223,4000,0,0.044292733,0.019153787,-9.860521,4000,0,0,0,1
1594736000,-0.0018642129,0.0023968485,-0.0013315753,4000,0,0.010773908,0.05267261,-9.896433,4000,0,0,0,1
1594744000,-0.010918966,-0.0010652774,-0.00985369,4000,0,0.017956512,0.0407016,-9.763555,4000,0,0,0,1
1594748000,-0.006391579,0.0015978763,-0.011451601,4000,0,-0.0035913019,0.04668711,-9.747993,4000,0,0,0,1
1594756000,-0.019441072,0.0010653142,0.0037284459,4000,0,0.029927526,0.06943203,-9.733627,4000,0,0,0,1
1594764000,0.0031957892,0.0045273486,-0.00745687,4000,0,0.05267244,-0.02633605,-9.864112,4000,0,0,0,1
1594768000,0.010652646,0.0074568377,-0.011185286,4000,0,0.010773908,-0.014365039,-9.840169,4000,0,0,0,1
1594776000,0.005858961,-0.0023968772,0.0050599836,4000,0,0.06464346,-0.070628785,-9.743204,4000,0,0,0,1
1594780000,1.0213097e-08,-0.00719054,0.0023968308,4000,0,0.021547817,-0.0909795,-9.915586,4000,0,0,0,1
1594788000,-0.0055926326,0.0055926465,0.001331575,4000,0,-0.010773908,-0.052672267,-9.785105,4000,0,0,0,1
1594792000,-0.0013315816,0.011185281,0.0021305112,4000,0,-0.02873042,-0.022744747,-9.770737,4000,0,0,0,1
1594800000,0.0053262925,0.004527374,-0.011717923,4000,0,-0.041898537,-0.0023940294,-9.915586,4000,0,0,0,1
1594804000,0.013315841,0.0077231117,0.002663155,4000,0,-0.10893619,0.019153787,-9.855731,4000,0,0,0,1
1594808000,0.013315841,0.014647318,0.018375844,4000,0,-0.11372458,-0.004788233,-9.795877,4000,0,0,0,1
1594812000,0.0077231536,0.014381052,0.01491373,4000,0,-0.04429273,-0.023941847,-9.813835,4000,0,0,0,1
1594820000,0.0074568656,0.0034621062,0.0077231564,4000,0,0.06943185,0.07661464,-9.812637,4000,0,0,0,1
1594824000,-0.0034621144,0.0037284058,0.004527387,4000,0,0.047884036,0.06224942,-9.836578,4000,0,0,0,1
1594828000,-0.012783169,-0.0031958127,0.0002663357,4000,0,0.016759414,-0.01436504,-9.768345,4000,0,0,0,1
1594832000,-0.0119842235,-0.017576875,-0.0015978352,4000,0,-0.0023942024,-0.021547649,-9.756374,4000,0,0,0,1
1594840000,-0.010918952,0.00026632025,-0.0018642752,4000,0,-0.083797075,0.050278418,-9.736021,4000,0,0,0,1
1594844000,-0.0058589517,0.0050600367,0.007190518,4000,0,-0.014365209,0.070629135,-9.726444,4000,0,0,0,1
1594848000,-0.0031957724,1.6566954e-08,0.012516865,4000,0,0.067037664,-0.0023940285,-9.801862,4000,0,0,0,1
1594856000,0.0061252792,-0.010918948,-0.0061252904,4000,0,0.05985505,-0.0921766,-9.755177,4000,0,0,0,1
1594860000,4.7285096e-11,-0.019441057,-0.010919001,4000,0,0.033518832,-0.015562142,-9.7396145,4000,0,0,0,1
1594868000,0.010386334,-0.0031958288,-0.0058589256,4000,0,0.058657948,-0.020350546,-9.71567,4000,0,0,0,1
1594872000,-0.0021305226,0.0026631702,-0.0013315738,4000,0,0.04548984,-0.065840386,-9.847351,4000,0,0,0,1
1594880000,0.0023968415,0.022636855,-0.0071905795,4000,0,0.058657948,0.09457115,-9.9383335,4000,0,0,0,1
1594884000,0.0063915905,0.012783161,-0.003728464,4000,0,0.058657948,0.06105232,-9.89045,4000,0,0,0,1
1594888000,0.009054776,0.0026631383,0.005592606,4000,0,0.051475346,0.010774079,-9.76954,4000,0,0,0,1
1594896000,-0.01145159,0.0026631353,0.0069242367,4000,0,0.011971009,0.086191446,-9.730038,4000,0,0,0,1
1594900000,-0.0074568214,-0.009587364,0.008788477,4000,0,0.033518832,-0.008379537,-9.805454,4000,0,0,0,1
1594904000,-0.0015978738,-0.015180008,0.006657936,4000,0,0.027533323,-0.05865778,-9.888055,4000,0,0,0,1
1594908000,0.0045273337,-0.0058589396,0.0106526725,4000,0,0.037110135,-0.037109964,-9.913193,4000,0,0,0,1
1594912000,0.010652616,0.0010652824,0.013049514,4000,0,0.07302317,-0.016759243,-9.921572,4000,0,0,0,1
1594916000,0.004793698,-0.0010652695,0.00719053,4000,0,0.06344634,0.009576981,-9.92277,4000,0,0,0,1
1594920000,-0.0045273784,0.0007989294,0.0050600055,4000,0,0.005985505,0.017956687,-9.873688,4000,0,0,0,1
1594924000,-0.007989488,0.0029294675,0.0021305268,4000,0,0.02513912,0.037110306,-9.812637,4000,0,0,0,1
1594928000,-0.0061252783,0.001065244,-0.006125268,4000,0,0.058657948,0.040701605,-9.800665,4000,0,0,0,1
1594932000,-0.0047936807,0.006125266,-0.00692423,4000,0,0.062249243,0.009576979,-9.794682,4000,0,0,0,1
1594936000,-0.009853666,0.010652675,0.0037284293,4000,0,0.06344634,-0.022744747,-9.812637,4000,0,0,0,1
1594940000,-0.018642098,0.0029294852,0.0093211215,4000,0,0.026336217,-0.014365038,-9.868902,4000,0,0,0,1
1594944000,-0.017843176,-0.0013316378,-0.00026629024,4000,0,0.034715924,0.07900883,-9.879675,4000,0,0,0,1
1594948000,-0.002396843,0.0013315524,-0.0047936994,4000,0,0.039504327,0.12689288,-9.841368,4000,0,0,0,1
1594952000,0.0042610606,0.001864204,-0.0029294807,4000,0,-0.02513912,0.120907374,-9.783907,4000,0,0,0,1
1594956000,-0.0063915905,0.0021305461,-0.007456845,4000,0,-0.09337388,0.13886388,-9.776724,4000,0,0,0,1
1594964000,0.009587373,-0.0039947485,0.0087884385,4000,0,-0.02633622,-0.05386937,-9.872493,4000,0,0,0,1
1594968000,0.0063915746,-0.0007989673,0.011717918,4000,0,-0.05865795,-0.083796896,-9.904813,4000,0,0,0,1
