timestamp,x,y,z,vx,vy,vz,acceleration[0],acceleration[1],acceleration[2],thrust[0],thrust[1],thrust[2],yaw,yawspeed
1592244000,nan,nan,nan,nan,nan,nan,0.0,0.0,100.0,-0.0,-0.0,-0.001,1.5675468,0.0
1592252000,nan,nan,nan,nan,nan,nan,0.0,0.0,100.0,-0.0,-0.0,-0.001,1.5675864,0.0
1592340000,nan,nan,nan,nan,nan,nan,0.0,0.0,100.0,-0.0,-0.0,-0.001,1.5676985,0.0
1592444000,nan,nan,nan,nan,nan,nan,0.0,0.0,100.0,-0.0,-0.0,-0.001,1.5681206,0.0
1592548000,nan,nan,nan,nan,nan,nan,0.0,0.0,100.0,-0.0,-0.0,-0.001,1.5683187,0.0
1592644000,nan,nan,nan,nan,nan,nan,0.0,0.0,100.0,-0.0,-0.0,-0.001,1.5682366,0.0
1592748000,nan,nan,nan,nan,nan,nan,0.0,0.0,100.0,-0.0,-0.0,-0.001,1.568082,0.0
1592844000,nan,nan,nan,nan,nan,nan,0.0,0.0,100.0,-0.0,-0.0,-0.001,1.5678769,0.0
1592948000,nan,nan,nan,nan,nan,nan,0.0,0.0,100.0,-0.0,-0.0,-0.001,1.5676945,0.0
1593044000,nan,nan,nan,nan,nan,nan,0.0,0.0,100.0,-0.0,-0.0,-0.001,1.5680462,0.0
1593148000,nan,nan,nan,nan,nan,nan,0.0,0.0,100.0,-0.0,-0.0,-0.001,1.5681872,0.0
1593244000,nan,nan,nan,nan,nan,nan,0.0,0.0,100.0,-0.0,-0.0,-0.001,1.5680305,0.0
1593348000,-46.26192,-106.06212,-488.13666,-0.00028590916,-0.00036188276,2.2626715,0.10737972,0.02645095,9.506173,0.00016777474,4.1328112e-05,-0.015320063,1.5680383,0.0
1593444000,-46.26191,-106.06212,-488.1366,0.0007165498,-0.0003918694,2.0882185,0.091855176,0.021901755,9.22498,0.00027800826,6.62877e-05,-0.029656917,1.5680383,0.0
1593540000,-46.261887,-106.06212,-488.13168,0.0026687188,-0.00022578167,1.9137652,0.09325107,0.031478673,8.8966465,0.0004412237,0.00014894344,-0.04639727,1.5680383,0.0
1593644000,-46.261856,-106.0621,-488.1358,0.0030177035,-2.847577e-05,1.7247741,0.102590814,0.042925596,8.519014,0.00068690535,0.00028741194,-0.06565115,1.5680383,0.0
1593740000,-46.26181,-106.062065,-488.13083,0.0029222774,0.00021730622,1.5503209,0.09186098,0.03519861,8.138952,0.00079645537,0.00030517986,-0.08502892,1.5680383,0.0
1593844000,-46.26176,-106.06203,-488.13446,0.0041518975,0.001023445,1.3613299,0.09334017,0.033859964,7.6857634,0.0010287027,0.0003731709,-0.108135134,1.5680383,0.0
1593948000,-46.26168,-106.06198,-488.13428,0.0065159607,0.0020256066,1.172339,0.094521254,0.0308501,7.1916885,0.0012856153,0.0004196026,-0.13332593,1.5680383,0.0
1594044000,-46.26162,-106.06195,-488.13394,0.005872855,0.0025825354,0.9978863,0.07908703,0.035849307,6.713378,0.0012712751,0.00057625544,-0.157713,1.5680383,0.0
1594140000,-46.261528,-106.0619,-488.1312,0.004628493,0.0030746658,0.823434,0.08798359,0.039661612,6.190563,0.0016547568,0.0007459383,-0.18436912,1.5680383,0.0
1594244000,-46.261436,-106.061844,-488.13358,0.0050027557,0.0041924063,0.6344441,0.089144476,0.05596081,5.5995483,0.0019496274,0.0012238865,-0.21450248,1.5680383,0.0
1594348000,-46.261307,-106.061775,-488.13437,0.0068521015,0.0058540623,0.44545412,0.10189657,0.039479166,4.9695826,0.002561899,0.0009925913,-0.24662182,1.5692254,0.0
1594444000,-46.26121,-106.06173,-488.13483,0.005447897,0.005323764,0.27100182,0.09895147,0.039727606,4.3433766,0.0028111283,0.001128628,-0.27854943,1.5693287,0.0
1594540000,-46.26108,-106.06165,-488.13443,0.003225062,0.0041198777,0.09654951,0.09203706,0.03473493,3.676238,0.0029333674,0.0011070574,-0.31256402,1.5696975,0.0
1594644000,-46.260944,-106.06157,-488.13593,0.0029615818,0.003722845,0.045464717,0.08844747,0.048213866,3.4959352,0.002900223,0.0015809493,-0.3217569,1.5699507,0.0
1594748000,-46.260765,-106.061455,-488.13718,0.004332754,0.0043336614,-0.015425546,0.10433539,0.047944184,3.254293,0.003554452,0.0016333414,-0.33407724,1.5696288,0.0
1594844000,-46.260635,-106.06138,-488.1375,0.0041898307,0.0043252967,-0.05611842,0.09806948,0.061584912,3.0845761,0.0034279746,0.002152673,-0.3427304,1.5696073,0.0
1594948000,-46.260433,-106.061264,-488.13763,0.0039012106,0.0044432445,-0.11678703,0.09967673,0.048678555,2.8299773,0.0036168273,0.0017663293,-0.3557113,1.5697535,0.0
1595044000,-46.260284,-106.06119,-488.13824,0.0051317816,0.0051959194,-0.15730259,0.10127451,0.06039588,2.6494274,0.003767481,0.002246768,-0.3649168,1.5698149,0.0
1595148000,-46.260056,-106.06106,-488.13947,0.007702293,0.006785094,-0.2180726,0.10692689,0.069546476,2.367222,0.004137213,0.0026908908,-0.37930527,1.5695721,0.0
1595244000,-46.259888,-106.06096,-488.1403,0.007501209,0.006957824,-0.25856042,0.11299288,0.06146813,2.170376,0.004487513,0.0024412072,-0.38934162,1.5693995,0.0
1595348000,-46.259632,-106.0608,-488.14145,0.0068209674,0.0070611406,-0.31924197,0.09371579,0.0759366,1.8731059,0.0038656543,0.0031322862,-0.4044982,1.5694234,0.0
1595444000,-46.259453,-106.06069,-488.14236,0.007594768,0.008197867,-0.35965636,0.10278529,0.07790796,1.6358107,0.0043652565,0.0033087246,-0.41659686,1.5695022,0.0
1595548000,-46.25917,-106.06053,-488.14377,0.00986788,0.010207285,-0.42034712,0.11383067,0.091322355,1.308598,0.0050274404,0.004033339,-0.43328008,1.5690961,0.0
1595644000,-46.258976,-106.06042,-488.14423,0.009648499,0.011988952,-0.46078274,0.102802195,0.099242195,1.0593219,0.0046744184,0.0045125447,-0.4459896,1.5694399,0.0
1595740000,-46.25871,-106.06026,-488.14847,0.008961738,0.0140173575,-0.51709145,0.11686172,0.11083953,0.7419629,0.0055082478,0.0052243927,-0.46217042,1.5693005,0.0
1595844000,-46.258453,-106.06011,-488.14505,0.009955127,0.017069962,-0.56153023,0.1088684,0.13120729,0.44462848,0.005299182,0.0063865297,-0.47733027,1.5687447,0.0
1595948000,-46.25812,-106.05993,-488.14572,0.012028301,0.020883752,-0.6218098,0.11044383,0.14929922,0.072218895,0.005588235,0.007554239,-0.49631786,1.5685607,0.0
1596044000,-46.257893,-106.05981,-488.1455,0.011109869,0.021908395,-0.6622522,0.0981948,0.13780974,-0.22116947,0.005119388,0.0071847127,-0.5112765,1.568758,0.0
1596148000,-46.25755,-106.05962,-488.1449,0.00921598,0.022273242,-0.7222152,0.08722913,0.15356387,-0.59674215,0.0047172094,0.008304482,-0.53042537,1.5684181,0.0
1596244000,-46.25732,-106.0595,-488.1451,0.008807854,0.023947923,-0.76242024,0.093473256,0.16040663,-0.89329076,0.005200209,0.008923922,-0.54554516,1.5682323,0.0
1596348000,-46.256977,-106.05932,-488.146,0.0095745865,0.026860029,-0.8225308,0.102801815,0.16978337,-1.7881305,0.00619697,0.010234667,-0.5911693,1.5678873,0.0
1596444000,-46.25675,-106.0592,-488.1466,0.008524593,0.027135143,-0.8626054,0.09329381,0.1761916,-2.1084137,0.005780222,0.0109163355,-0.6074992,1.5678445,0.0
1596548000,-46.256416,-106.05901,-488.14752,0.0071002813,0.027041055,-0.9227079,0.09160573,0.18191877,-2.5234406,0.0058728214,0.011662768,-0.62865967,1.5678692,0.0
1596644000,-46.256203,-106.05889,-488.14856,0.0070880586,0.028553646,-0.96267074,0.09192021,0.19371602,-2.8671103,0.006057718,0.012766256,-0.64618194,1.5678011,0.0
1596748000,-46.255882,-106.05871,-488.1501,0.008239489,0.03160485,-1.0227354,0.097700536,0.21325815,-3.3147807,0.006664733,0.014547601,-0.66900676,1.5678378,0.0
1596844000,-46.255676,-106.058586,-488.1505,0.007295377,0.030823631,-1.0628096,0.095539995,0.20497875,-3.679119,0.006699173,0.014372915,-0.68758285,1.56831,0.0
1596940000,-46.255413,-106.058426,-488.15955,0.005982448,0.028901028,-1.1233077,0.10020832,0.2098416,-4.1038303,0.007248191,0.015178102,-0.7092371,1.5683894,0.0
1597044000,-46.255184,-106.0583,-488.15335,0.005873845,0.028677722,-1.1621611,0.08266801,0.18366548,-4.347377,0.006083052,0.013514862,-0.72165453,1.5687345,0.0
1597148000,-46.25491,-106.058136,-488.16232,0.00674236,0.029146802,-1.2228689,0.06679823,0.12886961,-4.6089754,0.005008452,0.00966249,-0.7349923,1.568112,0.0
1597244000,-46.254734,-106.05803,-488.17206,0.003845128,0.024844635,-1.2607149,-0.0017104484,0.021618597,-4.71607,-0.00012911372,0.0016318865,-0.74045265,1.5680169,0.0
1597340000,-46.25452,-106.05789,-488.20135,-0.002281171,0.016432304,-1.323739,-0.08922744,-0.08766354,-4.8774886,-0.0068154647,-0.0066960095,-0.74868274,1.5680283,0.0
1597444000,-46.254337,-106.057785,-488.21765,-0.0104333395,0.0044775787,-1.3589239,-0.15611264,-0.20668417,-4.8492823,-0.011895507,-0.01574897,-0.7472446,1.5682185,0.0
1597548000,-46.254135,-106.05767,-488.2632,-0.020335555,-0.010301821,-1.4250579,-0.21645921,-0.27132928,-4.949709,-0.016606977,-0.020816665,-0.7523649,1.5676035,0.0
1597644000,-46.254017,-106.057594,-488.2994,-0.032501858,-0.026011202,-1.4581609,-0.2596812,-0.30353898,-4.899495,-0.019854587,-0.023207845,-0.74980474,1.5677752,0.0
1597748000,-46.253864,-106.0575,-488.3635,-0.04687449,-0.04357862,-1.5173385,-0.2840542,-0.33249527,-4.6792164,-0.021393547,-0.02504189,-0.7385737,1.567637,0.0
1597844000,-46.253788,-106.057465,-488.4134,-0.05935283,-0.059057653,-1.5135193,-0.29397407,-0.33554617,-4.367313,-0.021663375,-0.024726883,-0.722671,1.567929,0.0
1597940000,-46.253708,-106.05743,-488.49503,-0.0703307,-0.07314909,-1.5305176,-0.28282803,-0.33682403,-4.5005713,-0.02103817,-0.025054667,-0.72946525,1.5680209,0.0
1598044000,-46.253635,-106.05739,-488.54855,-0.082000464,-0.090943195,-1.513092,-0.28289273,-0.339607,-4.488757,-0.021025678,-0.025240902,-0.7288629,1.5675776,0.0
1598140000,-46.25356,-106.057335,-488.63312,-0.09155189,-0.107558735,-1.5186231,-0.2717547,-0.3296448,-4.3767376,-0.020039676,-0.024308592,-0.7231515,1.567724,0.0
1598244000,-46.253487,-106.05728,-488.69122,-0.09931753,-0.12130807,-1.4792494,-0.24810538,-0.33086658,-4.278689,-0.018169416,-0.024230236,-0.7181524,1.5677449,0.0
1598348000,-46.253395,-106.05723,-488.7809,-0.10412288,-0.1313631,-1.4627235,-0.22059682,-0.30964136,-4.320414,-0.01620268,-0.02274294,-0.7202798,1.5677187,0.0
1598444000,-46.253338,-106.0572,-488.84018,-0.11026752,-0.14288649,-1.431336,-0.21933931,-0.3161384,-4.288273,-0.016072609,-0.023165789,-0.71864104,1.5683645,0.0
1598548000,-46.253258,-106.05715,-488.92938,-0.116563775,-0.15490635,-1.413699,-0.20624423,-0.30354285,-4.3260345,-0.01515369,-0.022302656,-0.7205664,1.5684724,0.0
1598644000,-46.253204,-106.05712,-488.9903,-0.11939625,-0.16177176,-1.3810999,-0.17949495,-0.27256107,-4.292139,-0.013157453,-0.019979447,-0.7188382,1.5679094,0.0
1598748000,-46.253128,-106.057076,-489.08328,-0.11939768,-0.1650669,-1.3620411,-0.1675969,-0.25005805,-4.303212,-0.01229415,-0.018343125,-0.7194028,1.5680283,0.0
1598844000,-46.253082,-106.057045,-489.14484,-0.119823836,-0.17037888,-1.3280503,-0.15181017,-0.23893306,-4.24718,-0.011091921,-0.017457504,-0.71654594,1.5681103,0.0
1598948000,-46.25302,-106.057,-489.23718,-0.119717434,-0.17544515,-1.3075887,-0.14836636,-0.2318052,-4.269302,-0.010858474,-0.016965104,-0.7176738,1.5688027,0.0
1599044000,-46.252983,-106.05697,-489.29953,-0.1175816,-0.17602529,-1.2726458,-0.13729557,-0.21731696,-4.2266045,-0.010016549,-0.015854597,-0.71549684,1.5686797,0.0
1599148000,-46.252926,-106.05692,-489.3934,-0.113552876,-0.17322397,-1.250685,-0.11272852,-0.20318325,-4.2434497,-0.008234169,-0.014841367,-0.7163557,1.5688801,0.0
1599244000,-46.252888,-106.05689,-489.4553,-0.11050689,-0.1730114,-1.21477,-0.09598253,-0.17832723,-4.2011113,-0.0069908844,-0.012988458,-0.71419704,1.5690676,0.0
1599348000,-46.25283,-106.05685,-489.54718,-0.10676457,-0.17238197,-1.1914009,-0.08347568,-0.16236885,-4.223445,-0.0060893977,-0.011844508,-0.7153357,1.5688683,0.0
1599444000,-46.252792,-106.056816,-489.6084,-0.10149148,-0.16831431,-1.1548402,-0.06562196,-0.14296722,-4.1672564,-0.0047685714,-0.010389044,-0.71247095,1.5686207,0.0
1599548000,-46.252743,-106.05679,-489.70026,-0.094350144,-0.16075596,-1.1301278,-0.055729583,-0.11067976,-4.169135,-0.0040504998,-0.008044352,-0.71256673,1.5683482,0.0
1599644000,-46.252716,-106.05678,-489.76047,-0.09009539,-0.15398481,-1.0928358,-0.055520568,-0.071308285,-4.131523,-0.0040279585,-0.005173341,-0.7106491,1.5687886,0.0
1599748000,-46.25268,-106.056755,-489.84933,-0.08621924,-0.14560813,-1.0665997,-0.046903975,-0.05298036,-4.1386724,-0.0034056779,-0.0038468817,-0.71101356,1.6173929,0.0
1599844000,-46.25266,-106.05674,-489.9079,-0.08119486,-0.13559218,-1.0290437,-0.03985317,-0.027287066,-4.098754,-0.0028848662,-0.001975239,-0.7089783,1.6182128,0.0
1599940000,-46.25263,-106.05672,-489.9912,-0.075152725,-0.123971604,-1.0088704,-0.021983642,-0.013002851,-4.1650147,-0.0015982651,-0.0009453394,-0.7123566,1.619331,0.0
1600044000,-46.2526,-106.05672,-490.05157,-0.06906287,-0.11502499,-0.9635541,-0.029125758,-0.014787199,-4.0731006,-0.0021010207,-0.0010666919,-0.70767033,1.619691,0.0
1600148000,-46.252567,-106.05672,-490.13467,-0.063355714,-0.10768507,-0.9344809,-0.017898759,-0.00109747,-4.0868154,-0.0012917536,-7.920443e-05,-0.7083696,1.6190096,0.0
1600244000,-46.25255,-106.05672,-490.18854,-0.057307914,-0.09903811,-0.8966482,0.0037083735,0.010926871,-4.070156,0.00026037887,0.0007672167,-0.7075202,1.6188011,0.0
1600348000,-46.252525,-106.05672,-490.2669,-0.05011524,-0.088332996,-0.86650425,0.0043685697,0.028350912,-4.0770636,0.00031362975,0.0020353775,-0.7078724,1.6192724,0.0
1600444000,-46.25251,-106.05672,-490.31744,-0.04470163,-0.08215051,-0.8291494,0.0062971273,0.02230379,-4.032974,0.00045382485,0.0016074018,-0.70562446,1.6204506,0.0
1600548000,-46.252487,-106.05672,-490.39844,-0.039181754,-0.07716502,-0.8053727,0.012238345,-0.0009895228,-4.033631,0.0009086542,-7.34686e-05,-0.70565796,1.6207563,0.0
1600644000,-46.252472,-106.05672,-490.4598,-0.033735294,-0.071357526,-0.76712173,0.0216605,0.007547767,-3.6887217,0.001504914,0.0005243988,-0.68807244,1.6206384,0.0
1600748000,-46.25245,-106.05672,-490.54288,-0.027449822,-0.06392916,-0.6810629,0.035597503,0.020493422,-3.1797638,0.0024021287,0.0013829012,-0.66212285,1.6207699,0.0
1600844000,-46.252434,-106.05672,-490.5894,-0.022487633,-0.05991916,-0.57779896,0.028791104,0.022859583,-3.0214674,0.0019211568,0.0015253614,-0.65405196,1.6207699,0.0
1600948000,-46.25241,-106.05672,-490.6435,-0.017380536,-0.056701846,-0.45406806,0.045008548,0.009552141,-3.477871,0.0031031019,0.0006585697,-0.67732203,1.6207699,0.0
1601044000,-46.252396,-106.05672,-490.67117,-0.012472561,-0.052271463,-0.38959366,0.038578972,0.019976921,0.06105888,0.0027313835,0.0014143619,-0.6956416,1.6207699,0.0
1601148000,-46.252384,-106.05672,-490.70428,-0.0073275995,-0.046078652,-0.33624375,0.045700092,0.030286299,-0.23844612,0.0033402755,0.0022136627,-0.7170203,1.6207699,0.0
1601244000,-46.252377,-106.05672,-490.72284,-0.0040090038,-0.041968916,-0.31340414,0.027688725,0.03846675,-0.30045426,0.0020372984,0.0028303305,-0.72144645,1.6207699,0.0
1601348000,-46.252377,-106.05672,-490.74847,-0.0014431939,-0.03780844,-0.29964197,0.022175046,0.039051805,-0.22824705,0.0016241885,0.0028603093,-0.71607023,1.6207699,0.0
1601444000,-46.252377,-106.05672,-490.76465,0.0008761124,-0.032749344,-0.28396147,0.015797772,0.04860052,-0.117546335,0.0011388999,0.0035037298,-0.7082213,1.6207699,0.0
1601540000,-46.252377,-106.05672,-490.7848,0.003282469,-0.026914697,-0.26994482,0.025870804,0.053102553,-0.08125547,0.0018578563,0.003813446,-0.7058,1.6207699,0.0
1601644000,-46.252377,-106.05672,-490.8025,0.0056453277,-0.024051704,-0.25426823,0.03086563,0.047955155,-0.076899655,0.0022177794,0.003445708,-0.7054891,1.6207699,0.0
1601748000,-46.252377,-106.05672,-490.82343,0.0078125065,-0.023218114,-0.24173455,0.029502608,0.021161176,-0.08542814,0.002124423,0.0015237734,-0.70609784,1.6207699,0.0
1601844000,-46.252377,-106.05672,-490.8367,0.009823838,-0.021391599,-0.2281261,0.037769776,0.01181923,-0.066159464,0.002718003,0.0008505399,-0.70472246,1.6207699,0.0
1601940000,-46.252377,-106.05672,-490.85315,0.011860548,-0.01899249,-0.21672209,0.01842845,0.024860775,-0.0669046,0.0013201653,0.0017809601,-0.70477563,1.6207699,0.0
1602044000,-46.252377,-106.05672,-490.86752,0.01186057,-0.019724479,-0.20395216,0.016631603,0.010160912,-0.057698235,0.0011917467,0.00072808575,-0.7041185,1.6207699,0.0
1602140000,-46.252377,-106.05672,-490.88242,0.010606713,-0.021949537,-0.19390321,-0.0039603775,-0.0023145508,-0.07308093,-0.00021021969,-0.00012285802,-0.7052165,1.6207699,0.0
1602244000,-46.252377,-106.05672,-490.89542,0.009526804,-0.02256556,-0.18260948,0.0072701783,-0.0024520978,-0.07737291,0.000516126,-0.00017407982,-0.7055229,1.6207699,0.0
1602348000,-46.252377,-106.05672,-490.9108,0.009139079,-0.021775499,-0.1734968,0.0038386097,-0.006268833,-0.0807509,0.00028454,-0.00046468223,-0.705764,1.6207699,0.0
1602444000,-46.252377,-106.05672,-490.9206,0.0063957553,-0.024319487,-0.16389349,2.3715664e-05,-0.014898308,-0.06115079,1.7312747e-06,-0.001087596,-0.70436496,1.6207699,0.0
1602540000,-46.252377,-106.05672,-490.9327,0.002797189,-0.02771872,-0.15610507,-0.0031169401,-0.025216486,-0.08297975,-0.00022573672,-0.0018262417,-0.7059231,1.6207699,0.0
1602644000,-46.252377,-106.05672,-490.94333,0.00043076815,-0.029487181,-0.147364,-0.00043575745,-0.020354776,-0.05974769,-3.1226402e-05,-0.0014586244,-0.70426476,1.6207699,0.0
1602740000,-46.252377,-106.05672,-490.95428,-0.00072162325,-0.02942916,-0.1398928,-0.001554968,-0.01338652,-0.078372695,-0.00011243816,-0.0009679657,-0.70559424,1.6207699,0.0
1602844000,-46.252377,-106.05672,-490.9639,-0.0039795497,-0.03150928,-0.13077047,-0.011516215,-0.03791808,-0.04658957,-0.0008259971,-0.0027196629,-0.70332557,1.6207699,0.0
1602940000,-46.252377,-106.05672,-490.97382,-0.0078716595,-0.03445191,-0.12299582,-0.019968135,-0.039684746,-0.060570106,-0.0014376758,-0.0028572422,-0.7043235,1.6207699,0.0
1603044000,-46.252377,-106.05672,-490.9825,-0.010571496,-0.035785496,-0.11488071,-0.013010787,-0.030757982,-0.0683247,-0.0009386083,-0.002218905,-0.704877,1.6207699,0.0
1603140000,-46.252377,-106.05672,-490.99146,-0.011687655,-0.03551729,-0.10858856,0.0001237588,-0.020942636,-0.0772378,8.873397e-06,-0.0015015685,-0.70551324,1.6207699,0.0
1603244000,-46.252377,-106.05672,-490.99927,-0.014963698,-0.03655372,-0.10184564,-0.026141524,-0.029874375,-0.078785315,-0.0018778617,-0.0021460091,-0.7056237,1.6207699,0.0
1603340000,-46.252377,-106.05672,-491.00732,-0.01905151,-0.037930798,-0.096534565,-0.026036663,-0.039576735,-0.08616975,-0.0018760153,-0.0028516161,-0.70615077,1.6207699,0.0
1603444000,-46.252377,-106.05672,-491.01443,-0.021791209,-0.037894532,-0.09059977,-0.023044765,-0.034356605,-0.06626004,-0.0016489329,-0.0024583344,-0.7047296,1.6207699,0.0
1603540000,-46.252377,-106.05672,-491.02173,-0.022947237,-0.03667686,-0.08578872,-0.025005305,-0.015288765,-0.078829125,-0.0018000928,-0.0011006142,-0.70562685,1.6207699,0.0
1603644000,-46.252377,-106.05672,-491.02814,-0.025777537,-0.036510132,-0.08012511,-0.03542924,-0.027796837,-0.06660676,-0.0025469596,-0.0019982764,-0.7047544,1.6207699,0.0
1603748000,-46.252377,-106.05672,-491.03577,-0.029640663,-0.037162423,-0.075607955,-0.03364678,-0.017285557,-0.06259722,-0.0024188745,-0.0012426624,-0.7044682,1.6207699,0.0
1603844000,-46.252377,-106.05672,-491.04056,-0.031499743,-0.036437616,-0.07077238,-0.034813654,-0.03318661,-0.0629416,-0.0025023087,-0.0023853616,-0.70449275,1.6207699,0.0
1603948000,-46.252377,-106.05672,-491.04742,-0.031988963,-0.034683596,-0.06679158,-0.026626548,-0.012570571,-0.071465544,-0.0019065397,-0.00090009015,-0.7051012,1.6207699,0.0
1604044000,-46.252377,-106.05672,-491.05176,-0.03515992,-0.03541562,-0.06318259,-0.03751446,-0.02208672,-0.07804217,-0.002688417,-0.0015828115,-0.70557064,1.6207699,0.0
1604140000,-46.252377,-106.05672,-491.05713,-0.039189756,-0.03702464,-0.06038952,-0.05690284,-0.0244696,-0.09315238,-0.0041024494,-0.0017641525,-0.70664924,1.6207699,0.0
1604244000,-46.252377,-106.05672,-491.06183,-0.04150908,-0.03701738,-0.05713218,-0.047703024,-0.020913268,-0.084115185,-0.0034368976,-0.0015067547,-0.70600414,1.6207699,0.0
1604348000,-46.252377,-106.05672,-491.06738,-0.042016424,-0.035393827,-0.054305058,-0.021747528,-0.004741284,-0.07031165,-0.0015776098,-0.00034394235,-0.7050188,1.6207699,0.0
1604444000,-46.252377,-106.05672,-491.0709,-0.04323044,-0.03606062,-0.051274385,-0.034980204,-0.016954556,-0.079787835,-0.0025286018,-0.001225588,-0.7056953,1.6207699,0.0
1604540000,-46.252377,-106.05672,-491.07532,-0.04447345,-0.037531935,-0.049119946,-0.032035768,-0.019510329,-0.093409516,-0.0023111172,-0.0014075098,-0.70666754,1.6207699,0.0
1604644000,-46.252377,-106.05672,-491.07913,-0.044045813,-0.037314486,-0.04611507,-0.031029267,-0.022475498,-0.07605159,-0.0022316668,-0.0016164682,-0.70542854,1.6207699,0.0
1604748000,-46.252377,-106.05672,-491.0837,-0.042110607,-0.035611205,-0.043697547,-0.016455898,-0.010301486,-0.084189676,-0.0011869208,-0.00074301916,-0.70600945,1.6207699,0.0
1604844000,-46.252377,-106.05672,-491.0866,-0.042784657,-0.035516974,-0.04133699,-0.017853608,-0.021531738,-0.09217835,-0.0012934891,-0.0015599688,-0.7065797,1.6207699,0.0
1604948000,-46.252377,-106.05672,-491.09076,-0.044071157,-0.035611182,-0.039391153,-0.012729902,-0.010801543,-0.0844992,-0.00092935655,-0.0007885751,-0.7060228,1.6207699,0.0
1605044000,-46.252377,-106.05672,-491.09338,-0.043520305,-0.034379024,-0.03697073,-0.014600915,-0.02199436,-0.084894605,-0.0010443742,-0.0015732124,-0.70605975,1.6207699,0.0
1605148000,-46.252377,-106.05672,-491.0971,-0.041516248,-0.032066926,-0.035084724,-0.011328646,-0.0029493498,-0.08659945,-0.0007825772,-0.00020373962,-0.70618147,1.6207699,0.0
1605244000,-46.252377,-106.05672,-491.09943,-0.043476805,-0.03145809,-0.033304214,-0.019119902,-0.011831282,-0.08167568,-0.0013746306,-0.0008506133,-0.70583004,1.6207699,0.0
1605348000,-46.252377,-106.05672,-491.10284,-0.04690869,-0.031269632,-0.032043457,-0.03758073,-0.00048682955,-0.075778455,-0.002700938,-3.498858e-05,-0.70540905,1.6207699,0.0
1605444000,-46.252377,-106.05672,-491.10498,-0.048209686,-0.029870776,-0.030124664,-0.041036043,-0.006726903,-0.064006805,-0.002959682,-0.0004851709,-0.7045688,1.6207699,0.0
1605540000,-46.252377,-106.05672,-491.10764,-0.04801399,-0.027718136,-0.028388977,-0.027359195,0.0052300417,-0.068756394,-0.0019857276,0.00037959585,-0.70490783,1.6207699,0.0
1605644000,-46.252377,-106.05672,-491.10995,-0.050706584,-0.024826204,-0.026363373,-0.03714879,0.0020535092,-0.08627946,-0.0026667838,0.00014741436,-0.70615864,1.6207699,0.0
1605748000,-46.252377,-106.05672,-491.11267,-0.054406647,-0.021586373,-0.024536133,-0.045359783,0.019436091,-0.07756484,-0.0032601978,0.0013969534,-0.7055366,1.6207699,0.0
1605844000,-46.252377,-106.05672,-491.11447,-0.05574026,-0.017947907,-0.022662163,-0.045615543,0.021676376,-0.073236234,-0.0032768245,0.0015571378,-0.7052276,1.6207699,0.0
1605940000,-46.252377,-106.05672,-491.11667,-0.0553996,-0.013918053,-0.021093369,-0.032619894,0.037652466,-0.07626078,-0.0023493813,0.0027118423,-0.7054435,1.6207699,0.0
1606044000,-46.252377,-106.05672,-491.11853,-0.056725968,-0.012214787,-0.019584656,-0.041807692,0.026181404,-0.07645398,-0.0030057433,0.0018822991,-0.70545727,1.6207699,0.0
1606148000,-46.252377,-106.05672,-491.1208,-0.058483582,-0.01217129,-0.018733025,-0.047297906,0.01008186,-0.073769055,-0.00340156,0.00072506483,-0.70526564,1.6207699,0.0
1606244000,-46.252377,-106.05672,-491.12216,-0.05812843,-0.011475482,-0.01774311,-0.022876743,0.012163663,-0.09008863,-0.0016541982,0.0008795444,-0.70643055,1.6207699,0.0
1606348000,-46.252377,-106.05672,-491.12415,-0.055664133,-0.010091123,-0.017302513,-0.031271957,0.013920601,-0.094947785,-0.0022625683,0.0010071745,-0.7067774,1.6207699,0.0
1606444000,-46.252377,-106.05672,-491.12546,-0.057012245,-0.012004573,-0.017166138,-0.029548557,0.0050492687,-0.08895145,-0.0021366812,0.0003651169,-0.7063494,1.6207699,0.0
1606540000,-46.252377,-106.05672,-491.12704,-0.059291713,-0.015005206,-0.017396927,-0.027415693,-0.0032893666,-0.08905276,-0.001967197,-0.00023602658,-0.7063553,1.6207699,0.0
1606644000,-46.252377,-106.05672,-491.12845,-0.059396807,-0.016802687,-0.01727581,-0.040171538,-0.011784188,-0.09003152,-0.002894978,-0.0008492322,-0.70642644,1.6207699,0.0
1606740000,-46.252377,-106.05672,-491.12985,-0.058066808,-0.017462246,-0.01720047,-0.03329842,-0.015348604,-0.10287985,-0.0024093166,-0.0011105525,-0.7073436,1.6207699,0.0
1606844000,-46.252377,-106.05672,-491.1311,-0.05808492,-0.0189843,-0.017446518,-0.030042982,-0.014890002,-0.10387376,-0.0021664428,-0.0010737395,-0.7074145,1.6207699,0.0
1606940000,-46.252377,-106.05672,-491.13242,-0.058291484,-0.020303417,-0.017737389,-0.031031922,-0.008551218,-0.10530509,-0.0022341989,-0.0006156602,-0.7075167,1.6207699,0.0
1607044000,-46.252377,-106.05672,-491.1335,-0.05659185,-0.020520857,-0.017371178,-0.020285357,-0.0073971236,-0.08667326,-0.0014667554,-0.00053485733,-0.7061867,1.6207699,0.0
1607140000,-46.252377,-106.05672,-491.13467,-0.053558588,-0.01989753,-0.016700745,-0.014795689,-0.01099307,-0.08646345,-0.0010719527,-0.00079645164,-0.70617175,1.6207699,0.0
1607244000,-46.252377,-106.05672,-491.1357,-0.052703325,-0.020093217,-0.016411781,-0.014958592,-0.003572445,-0.08580917,-0.0010866805,-0.00025952348,-0.7061251,1.6207699,0.0
1607348000,-46.252377,-106.05672,-491.137,-0.052543867,-0.020557078,-0.016260147,-0.01258513,-0.0016992209,-0.08951752,-0.00093610055,-0.00012639056,-0.7063898,1.6207699,0.0
1607444000,-46.252377,-106.05672,-491.13773,-0.050920337,-0.020122204,-0.015558243,-0.02620573,-0.002371371,-0.08357892,-0.0018803757,-0.00017015624,-0.7059659,1.6207699,0.0
1607540000,-46.252377,-106.05672,-491.1387,-0.04824947,-0.018998766,-0.014765739,-0.0080956705,0.0024598162,-0.0901944,-0.0005716494,0.00017369191,-0.70643806,1.6207699,0.0
1607644000,-46.252377,-106.05672,-491.13956,-0.04869884,-0.018520406,-0.013636589,-0.02603997,-0.013010768,-0.084923685,-0.0018759511,-0.00093731156,-0.70606184,1.6207699,0.0
1607740000,-46.252377,-106.05672,-491.14035,-0.050778985,-0.01839718,-0.012172699,-0.025001815,-0.001583958,-0.082269,-0.0017873487,-0.00011323519,-0.70587236,1.6207699,0.0
1607844000,-46.252377,-106.05672,-491.14108,-0.050869588,-0.017505687,-0.010860443,-0.015698887,-0.007349471,-0.08178169,-0.0011254221,-0.000526869,-0.70583755,1.6207699,0.0
1607940000,-46.252377,-106.05672,-491.14185,-0.049394626,-0.01633151,-0.009839058,-0.03491527,-0.0144890025,-0.0789759,-0.0025058093,-0.001039851,-0.7056373,1.6207699,0.0
1608044000,-46.252377,-106.05672,-491.14252,-0.051235598,-0.016563445,-0.008847237,-0.046754662,-0.014897127,-0.07864781,-0.0033718725,-0.0010743572,-0.70561385,1.6207699,0.0
1608140000,-46.252377,-106.05672,-491.14322,-0.05426886,-0.01727374,-0.007855415,-0.035796545,-0.01968274,-0.08002275,-0.0025710345,-0.0014136842,-0.705712,1.6207699,0.0
1608244000,-46.252377,-106.05672,-491.1439,-0.055163965,-0.017136017,-0.0070323944,-0.040708173,-0.005687456,-0.0798058,-0.0029257468,-0.0004087645,-0.7056965,1.6207699,0.0
1608348000,-46.252377,-106.05672,-491.1447,-0.054120265,-0.016295256,-0.0063762665,-0.026129011,-0.0016882294,-0.08117585,-0.0018836724,-0.00012170653,-0.70579433,1.6207699,0.0
1608444000,-46.252377,-106.05672,-491.14523,-0.05404416,-0.015570463,-0.0058727264,-0.04781244,-0.0021382172,-0.083502956,-0.0034350413,-0.00015361828,-0.70596045,1.6207699,0.0
1608548000,-46.252377,-106.05672,-491.146,-0.05382672,-0.014707959,-0.005414963,-0.03579791,-0.0019526335,-0.081448965,-0.0025866732,-0.00014109274,-0.7058138,1.6207699,0.0
1608644000,-46.252377,-106.05672,-491.14645,-0.05201474,-0.013417828,-0.0049419403,-0.020473173,-0.003569819,-0.07209172,-0.0014785053,-0.0002578006,-0.7051459,1.6207699,0.0
1608748000,-46.252377,-106.05672,-491.14706,-0.049068443,-0.011830509,-0.004576683,-0.02335219,0.00029678782,-0.079243675,-0.0016701795,2.1226657e-05,-0.7056564,1.6207699,0.0
1608844000,-46.252377,-106.05672,-491.1474,-0.04687232,-0.010185228,-0.0041189194,-0.025497658,-0.0030258805,-0.07201958,-0.001825293,-0.0002166128,-0.70514077,1.6207699,0.0
1608948000,-46.252377,-106.05672,-491.14792,-0.04438628,-0.008271772,-0.0036306381,-0.012108561,0.0033635339,-0.0723286,-0.0009085519,0.00025237887,-0.7051628,1.6207699,0.0
1609044000,-46.252377,-106.05672,-491.14825,-0.041229803,-0.0062930863,-0.0034322739,-0.017268574,0.0053697308,-0.08126181,-0.0012745468,0.00039632534,-0.7058005,1.6207699,0.0
1609140000,-46.252377,-106.05672,-491.1485,-0.0375696,-0.0041911853,-0.0033864975,-0.013644562,0.019553935,-0.07928696,-0.0009858593,0.0014128287,-0.70565283,1.6207699,0.0
1609244000,-46.252377,-106.05672,-491.1487,-0.03439501,0.00017931554,-0.0034322739,-0.006674864,0.014643102,-0.07303684,-0.0004843442,0.0010625387,-0.70521337,1.6207699,0.0
1609340000,-46.252377,-106.05672,-491.14896,-0.031785756,0.004977444,-0.0036153793,8.984946e-05,0.026229305,-0.08734325,6.4700403e-06,0.0018887667,-0.7062346,1.6207699,0.0
1609444000,-46.252377,-106.05672,-491.14917,-0.028375605,0.009521895,-0.0039052963,-0.004372433,0.042321853,-0.07930222,-0.0003147281,0.0030463305,-0.7056606,1.6207699,0.0
1609540000,-46.252377,-106.05672,-491.1494,-0.024943711,0.013189349,-0.004149437,-0.0014658775,0.0401799,-0.08373573,-0.000105150764,0.0028821966,-0.7059771,1.6207699,0.0
1609644000,-46.252377,-106.05672,-491.14963,-0.02090299,0.017269934,-0.004378319,-7.233024e-05,0.049252756,-0.07562256,-5.2077507e-06,0.0035461807,-0.70539796,1.6207699,0.0
1609748000,-46.252377,-106.05672,-491.1499,-0.016731806,0.020893902,-0.004668236,0.024658607,0.03595859,-0.07403767,0.0017797168,0.002595285,-0.70528483,1.6207699,0.0
1609844000,-46.252377,-106.05672,-491.1501,-0.012738197,0.023126267,-0.004729271,0.02413216,0.03254826,-0.07912262,0.0017412847,0.002348558,-0.70564777,1.6207699,0.0
1609948000,-46.252377,-106.05672,-491.15036,-0.008581507,0.02480779,-0.004958153,0.024799468,0.03892668,-0.082030825,0.0017858823,0.0028032241,-0.70585537,1.6207699,0.0
1610044000,-46.252377,-106.05672,-491.15054,-0.0039029433,0.028779697,-0.004837036,0.032809198,0.044731736,-0.09063475,0.0023573006,0.0032139204,-0.70646954,1.6207699,0.0
1610148000,-46.252377,-106.05672,-491.15082,0.001475024,0.03372279,-0.0046691895,0.038588572,0.046296414,-0.08475487,0.0027745962,0.0033288056,-0.7060498,1.6207699,0.0
1610244000,-46.252377,-106.05672,-491.15097,0.0060738367,0.036977116,-0.0043182373,0.046461042,0.05522661,-0.08281402,0.0033469393,0.0039783893,-0.7059113,1.6207699,0.0
1610348000,-46.252377,-106.05672,-491.15118,0.01040448,0.03937619,-0.003829956,0.043188598,0.059021555,-0.08067941,0.0031097103,0.0042497306,-0.70575887,1.6207699,0.0
1610444000,-46.252377,-106.05672,-491.15134,0.014437956,0.041840494,-0.004058838,0.03151432,0.040014938,-0.0831287,0.0022721144,0.0028849905,-0.70593375,1.6207699,0.0
1610548000,-46.252377,-106.05672,-491.15152,0.018264867,0.043833684,-0.004699707,0.039908707,0.035816025,-0.08889993,0.002875581,0.0025806867,-0.7063457,1.6207699,0.0
1610644000,-46.252377,-106.05672,-491.15164,0.02099734,0.04443527,-0.00491333,0.044873625,0.035754524,-0.08665899,0.0032305752,0.0025740662,-0.7061857,1.6207699,0.0
1610748000,-46.252377,-106.05672,-491.15182,0.023233334,0.04398591,-0.0049743652,0.039651915,0.030927135,-0.09698889,0.0028611317,0.0022315846,-0.70692307,1.6207699,0.0
1610844000,-46.252377,-106.05672,-491.15195,0.026618123,0.045623954,-0.005584717,0.05022143,0.047414705,-0.10146198,0.0036215305,0.003419134,-0.70724237,1.6207699,0.0
1610948000,-46.252377,-106.05672,-491.15213,0.030553756,0.047957804,-0.0061035156,0.04396616,0.045269478,-0.091528274,0.0031659717,0.003259823,-0.7065317,1.6207699,0.0
1611044000,-46.252377,-106.05672,-491.15225,0.033134025,0.04884931,-0.006134033,0.038848683,0.053215854,-0.08218693,0.0027975552,0.0038321575,-0.7058665,1.6207699,0.0
1611140000,-46.252377,-106.05672,-491.1524,0.034819182,0.048834834,-0.0059051514,0.03997407,0.041181903,-0.07059303,0.0028723637,0.002959153,-0.7050389,1.6207699,0.0
1611244000,-46.252377,-106.05672,-491.15256,0.035616465,0.049421936,-0.0059814453,0.041814946,0.030854862,-0.069905475,0.003002513,0.0022155265,-0.70498985,1.6207699,0.0
1611340000,-46.252377,-106.05672,-491.1527,0.035507765,0.049900323,-0.0061187744,0.03823566,0.03580842,-0.07820776,0.0027546927,0.0025798215,-0.70558244,1.6207699,0.0
1611444000,-46.252377,-106.05672,-491.15286,0.035141762,0.0491973,-0.006378174,0.03437464,0.019385241,-0.086877465,0.0024676907,0.0013916298,-0.7062013,1.6207699,0.0
1611548000,-46.252377,-106.05672,-491.15305,0.03433002,0.04745784,-0.00680542,0.017051922,0.030729925,-0.096343875,0.0012306536,0.0022178083,-0.70687705,1.6207699,0.0
1611644000,-46.252377,-106.05672,-491.15317,0.033590753,0.04753035,-0.008117676,0.008201647,0.029202903,-0.10527355,0.0005907803,0.0021035408,-0.7075144,1.6207699,0.0
1611748000,-46.252377,-106.05672,-491.15332,0.032960214,0.048407387,-0.0098724365,0.022138834,0.0260848,-0.10645964,0.0015887871,0.0018719683,-0.7075991,1.6207699,0.0
1611844000,-46.252377,-106.05672,-491.1534,0.031869423,0.047762353,-0.010925293,0.01250366,0.013323224,-0.09810592,0.0009149534,0.0009749249,-0.7070028,1.6207699,0.0
1611940000,-46.252377,-106.05672,-491.15353,0.03046698,0.046131615,-0.011474609,0.010131333,0.01947593,-0.09477903,0.00072982506,0.0014029766,-0.70676535,1.6207699,0.0
1612044000,-46.252377,-106.05672,-491.15363,0.029303722,0.045283664,-0.01184082,0.006790078,0.01806479,-0.084435165,0.00049269653,0.0013108036,-0.706027,1.6207699,0.0
1612148000,-46.252377,-106.05672,-491.15378,0.02857897,0.045370698,-0.012451172,0.0146028055,0.029838676,-0.09204009,0.001050704,0.0021469584,-0.70656985,1.6207699,0.0
1612244000,-46.252377,-106.05672,-491.15387,0.027774489,0.04460972,-0.012283325,0.022270259,0.029659484,-0.0911776,0.0015977892,0.0021279324,-0.7065083,1.6207699,0.0
1612348000,-46.252377,-106.05672,-491.15396,0.026694603,0.043073244,-0.0116119385,0.0010791938,0.020545982,-0.09091692,7.67692e-05,0.0014615527,-0.7064896,1.6207699,0.0
1612444000,-46.252377,-106.05672,-491.15402,0.025419002,0.043131273,-0.01133728,-0.00028935506,0.019037643,-0.090770245,-2.1295102e-05,0.0014010764,-0.7064792,1.6207699,0.0
1612548000,-46.252483,-106.05662,-491.1541,0.017937012,0.05012774,-0.01130619,-0.23210119,0.25732931,-0.083200336,-0.016707834,0.018523883,-0.7059388,1.6218867,0.027925268
1612644000,-46.25392,-106.055176,-491.15417,-0.013972128,0.08036986,-0.010773326,-0.584211,0.60621506,-0.0701405,-0.04199952,0.04358141,-0.7050066,1.6252377,0.055850536
1612748000,-46.26196,-106.0464,-491.15427,-0.09052159,0.17583498,-0.009424464,-0.72602487,1.1842215,-0.03931318,-0.052031502,0.08486875,-0.7028062,1.634453,0.09773844
1612844000,-46.271725,-106.03343,-491.15433,-0.14642541,0.27504894,-0.00931865,-0.7278699,1.5582495,-0.018829554,-0.05205529,0.1114418,-0.7013441,1.6433891,0.12566371
1612940000,-46.289547,-106.00476,-491.15442,-0.22036687,0.4465813,-0.009138579,-0.74623865,2.0883672,0.021185204,-0.053151447,0.14874564,-0.69848776,1.6583458,0.16196658
1613044000,-46.310932,-105.96372,-491.15442,-0.2860124,0.64040357,-0.0069187293,-0.7388897,2.5245707,0.1107117,-0.052143108,0.17815784,-0.6920513,1.6755033,0.19547692
1613148000,-46.343983,-105.889046,-491.15442,-0.36787638,0.9371875,-0.0020315656,-0.74975234,3.1359549,0.19616237,-0.052441232,0.21934356,-0.6859236,1.7014738,0.23736484
1613244000,-46.36966,-105.823105,-491.15442,-0.41763282,1.1594639,0.002497397,-0.7423438,3.4537191,0.25829917,-0.051586412,0.2400033,-0.68147635,1.72158,0.2652901
1613340000,-46.406902,-105.717,-491.15442,-0.48509648,1.4848617,0.007923004,-0.74140555,3.7698474,0.33104742,-0.05112449,0.25995424,-0.67622936,1.7484971,0.24179685
1613444000,-46.444897,-105.59873,-491.15442,-0.537628,1.765611,0.015174338,-0.6818281,3.753451,0.38305292,-0.04675161,0.25736675,-0.6724229,1.7701011,0.20828651
1613548000,-46.497276,-105.424194,-491.15442,-0.60607404,2.1267092,0.021948662,-0.6877355,3.8651476,0.3517079,-0.0473106,0.2658907,-0.674618,1.7925823,0.16639858
1613644000,-46.535164,-105.291756,-491.15442,-0.6399671,2.3370059,0.026230406,-0.6625915,3.7869318,0.31425968,-0.045758083,0.26152274,-0.67724013,1.804777,0.1384733
1613748000,-46.59581,-105.07172,-491.15442,-0.7066922,2.6971247,0.029188152,-0.7018151,3.9516528,0.29481184,-0.048560806,0.27342734,-0.6785533,1.8188804,0.0965854
1613844000,-46.63898,-104.91025,-491.15442,-0.7335862,2.878458,0.031546135,-0.6687938,3.8249142,0.2865505,-0.046309568,0.26485014,-0.679046,1.8254902,0.06866013
1613940000,-46.698833,-104.681046,-491.15442,-0.78195447,3.1545067,0.03361056,-0.6842466,3.8982,0.2775674,-0.047418565,0.27014685,-0.6796051,1.8307432,0.032357283
1614044000,-46.75788,-104.44998,-491.15442,-0.8167501,3.378801,0.034877736,-0.6845652,3.8653586,0.26299444,-0.047507003,0.26824564,-0.6805552,1.832241,-0.0011530388
1614140000,-46.82594,-104.17861,-491.15442,-0.8647775,3.65906,0.035324898,-0.7042435,3.9792395,0.2517104,-0.048924986,0.2764445,-0.6812846,1.8313923,0.0
1614244000,-46.89262,-103.90841,-491.15442,-0.8968439,3.8673184,0.03598197,-0.6927614,3.9256349,0.27147907,-0.048017945,0.27210078,-0.6797362,1.8313727,0.0
1614348000,-46.98212,-103.54015,-491.15442,-0.95791155,4.19689,0.03668208,-0.73395956,3.9188724,0.25515825,-0.050954208,0.27206275,-0.68081445,1.8313973,0.0
1614444000,-47.045723,-103.27591,-491.15442,-0.98244315,4.3202076,0.035562348,-0.7646574,3.5262349,0.21791711,-0.053285662,0.24572805,-0.68338305,1.8314633,0.0
1614548000,-47.146645,-102.85588,-491.15442,-1.0569543,4.6042,0.03250977,-0.85061634,3.2871642,0.15078342,-0.059683114,0.2306424,-0.6880793,1.8316548,0.0007616237
1614644000,-47.21794,-102.560524,-491.15442,-1.0859064,4.67093,0.028827133,-0.8359272,2.8728752,0.079313196,-0.05908081,0.20304614,-0.69310486,1.8318084,0.0011187394
1614748000,-47.331455,-102.09554,-491.15442,-1.1645479,4.8830385,0.024249984,-0.92294854,2.6231406,0.032049045,-0.06553913,0.18627077,-0.6963759,1.8320621,0.0013745616
1614844000,-47.411682,-101.772316,-491.15442,-1.1964285,4.8985586,0.019347683,-0.9180474,2.2431183,-0.027219936,-0.065583155,0.16024311,-0.70056385,1.832242,0.0016328467
1614940000,-47.521408,-101.339195,-491.15442,-1.266143,5.008303,0.013787011,-0.98399687,1.9760044,-0.06625343,-0.07057026,0.14171502,-0.70331305,1.8324797,0.0
1615044000,-47.6277,-100.93088,-491.15442,-1.3156283,5.0125337,0.00797828,-0.94102836,1.6105865,-0.080777004,-0.06758256,0.11566874,-0.7042924,1.8326739,0.00096807326
1615148000,-47.76711,-100.40954,-491.15442,-1.3751187,5.0885687,0.002579718,-0.5405284,1.3325576,-0.109936215,-0.038932778,0.09598045,-0.70634675,1.8328727,3.8560713e-05
1615244000,-47.86183,-100.058075,-491.15442,-1.3644494,5.002552,-0.003887503,-0.24599746,1.1826693,-0.1424192,-0.017776623,0.085463755,-0.70866066,1.8330213,0.0019019153
1615348000,-48.0044,-99.526634,-491.15442,-1.3927007,5.0495496,-0.011456788,-0.45640418,1.3712744,-0.14772107,-0.032998987,0.09914604,-0.7090433,1.8333094,0.0012050851
1615444000,-48.09995,-99.17034,-491.15442,-1.3837783,4.967858,-0.016489817,-0.46518233,1.3188131,-0.11451067,-0.03352037,0.095031776,-0.7066516,1.8334563,0.00053464435
1615548000,-48.243683,-98.63437,-491.15442,-1.4098715,5.0254574,-0.019751588,-0.5375825,1.5159011,-0.067707255,-0.038552765,0.10871295,-0.7032845,1.8336251,0.0
1615644000,-48.339695,-98.27636,-491.15442,-1.3989018,4.942019,-0.023228152,-0.5307149,1.421418,-0.068674326,-0.038064692,0.10194896,-0.70336723,1.8337488,0.0009553607
1615748000,-48.484264,-97.73724,-491.15442,-1.424876,4.9941535,-0.026947577,-0.5884279,1.5653347,-0.07266488,-0.04222271,0.112320766,-0.70367813,1.8339436,8.884119e-06
1615844000,-48.580753,-97.37744,-491.15442,-1.4120214,4.9166803,-0.029111812,-0.55215675,1.4488552,-0.074393556,-0.03962903,0.103986286,-0.70383525,1.834039,0.0
1615948000,-48.725452,-96.83787,-491.15442,-1.4344037,4.9794836,-0.030267661,-0.59275156,1.6308262,-0.052926406,-0.04244988,0.11679156,-0.70230305,1.8341372,0.0
1616044000,-48.82191,-96.478195,-491.15442,-1.4178133,4.902409,-0.031882517,-0.53133214,1.4841295,-0.049583197,-0.0380394,0.10625256,-0.70208067,1.8341885,0.0
1616148000,-48.96694,-95.93741,-491.15442,-1.4364334,4.959972,-0.033953797,-0.5700589,1.6252754,-0.06614719,-0.040882424,0.11655847,-0.703295,1.8342521,0.0
1616244000,-49.063793,-95.576294,-491.15442,-1.4171644,4.8865795,-0.034866676,-0.5210137,1.5321327,-0.06742319,-0.037371587,0.10989775,-0.7034161,1.8342662,0.0
1616348000,-49.209248,-95.03395,-491.15442,-1.4334432,4.954732,-0.034771092,-0.5400984,1.6726811,-0.056257002,-0.038697682,0.11984647,-0.70263994,1.8342484,0.0
1616444000,-49.306343,-94.67194,-491.15442,-1.4129744,4.8846517,-0.03525665,-0.5194938,1.560695,-0.046901558,-0.03718673,0.11171863,-0.7019857,1.8342335,0.0
1616548000,-49.452168,-94.12817,-491.15442,-1.4293364,4.951956,-0.036168035,-0.5332466,1.7004749,-0.049117003,-0.038181163,0.12175626,-0.7021686,1.8342202,0.0
1616644000,-49.549507,-93.76518,-491.15442,-1.4079483,4.885181,-0.03607368,-0.48927075,1.6007223,-0.051120307,-0.035040837,0.114641316,-0.70233923,1.8341886,0.0
1616748000,-49.695683,-93.22011,-491.15442,-1.4225934,4.959537,-0.035367515,-0.51462495,1.7420843,-0.03401778,-0.036793172,0.12455052,-0.7011277,1.8341154,0.0
1616844000,-49.79325,-92.85631,-491.15442,-1.3998997,4.89232,-0.035364635,-0.4691758,1.6428392,-0.03243841,-0.03353918,0.117438875,-0.70103115,1.8340654,0.0
1616940000,-49.92053,-92.38172,-491.15442,-1.4049662,4.928009,-0.03591015,-0.48822266,1.6988139,-0.04395972,-0.03494314,0.121587746,-0.70188427,1.8340065,0.0
1617044000,-50.037926,-91.94396,-491.15442,-1.3907425,4.8966537,-0.035509866,-0.47225168,1.6493486,-0.03141373,-0.033757254,0.117897905,-0.70099425,1.8339388,0.0
1617148000,-50.18505,-91.39542,-491.15442,-1.4043573,4.972388,-0.03431516,-0.49038136,1.795316,-0.03330128,-0.03506143,0.12836203,-0.70116043,1.8338374,0.0
1617244000,-50.28321,-91.02939,-491.15442,-1.3803409,4.905772,-0.034952972,-0.43639562,1.6620548,-0.037635386,-0.031215822,0.11888847,-0.7014792,1.8337681,0.0
1617340000,-50.411274,-90.55188,-491.15442,-1.3843746,4.943947,-0.035956018,-0.45906428,1.7285824,-0.043419536,-0.032857586,0.1237235,-0.70191073,1.8336775,0.0
1617444000,-50.52926,-90.112,-491.15442,-1.369244,4.9133244,-0.035830177,-0.4373904,1.6854911,-0.041660596,-0.031301435,0.120620586,-0.7018051,1.8335896,0.0
1617540000,-50.65751,-89.63378,-491.15442,-1.3737732,4.95479,-0.03481894,-0.44924116,1.7676668,-0.039333187,-0.032142963,0.1264756,-0.70166075,1.8334899,0.0
1617644000,-50.77543,-89.19407,-491.15442,-1.3590893,4.923443,-0.034784544,-0.42816964,1.709176,-0.04227358,-0.030645752,0.12233232,-0.70190024,1.8334048,0.0
1617748000,-50.923183,-88.643135,-491.15442,-1.3730999,4.9960885,-0.035817213,-0.46604204,1.8410057,-0.050339464,-0.033385217,0.13188161,-0.7025056,1.8333154,0.0
1617844000,-51.021675,-88.27587,-491.15442,-1.3502941,4.9298573,-0.035905436,-0.42347026,1.7215827,-0.05667641,-0.030356659,0.12341244,-0.7029935,1.833255,0.0
1617948000,-51.169323,-87.72529,-491.15442,-1.364548,5.003699,-0.03510691,-0.4562832,1.8443154,-0.037670642,-0.0326462,0.13195728,-0.7016459,1.8331614,0.0
1618044000,-51.267727,-87.35835,-491.15442,-1.341159,4.9346046,-0.035469696,-0.41575772,1.7227043,-0.030596823,-0.029725265,0.1231675,-0.7011417,1.8331012,0.0
1618148000,-51.415604,-86.80697,-491.15442,-1.354644,5.0037203,-0.036654662,-0.4631756,1.8489661,-0.05621737,-0.03320405,0.13254836,-0.70301646,1.8330133,0.0
1618244000,-51.514294,-86.43899,-491.15442,-1.3317511,4.934329,-0.03704786,-0.4293566,1.7171825,-0.05954247,-0.030791359,0.12314794,-0.7032851,1.8329585,0.0
1618348000,-51.662376,-85.88684,-491.15442,-1.346511,5.0054383,-0.036340572,-0.46510065,1.8495827,-0.048759647,-0.033319138,0.13250144,-0.7025341,1.8328815,0.0
1618444000,-51.761143,-85.51858,-491.15442,-1.3240602,4.9333286,-0.036672622,-0.4249711,1.7099079,-0.025108527,-0.030370329,0.12219764,-0.70082635,1.83284,0.0
1618548000,-51.909683,-84.96467,-491.15442,-1.3390024,4.999981,-0.03764363,-0.46132228,1.824179,-0.031067295,-0.032988597,0.13044482,-0.7012611,1.8327863,0.0
1618644000,-52.00889,-84.59476,-491.15442,-1.3174909,4.928277,-0.037273653,-0.41706696,1.703952,-0.03921549,-0.029849887,0.121953495,-0.70187086,1.8327557,0.0
1618740000,-52.1382,-84.11261,-491.15442,-1.3250648,4.9638863,-0.03613952,-0.45754248,1.7765102,-0.036344036,-0.03273784,0.12711193,-0.7016805,1.8327194,0.0
1618844000,-52.25716,-83.669014,-491.15442,-1.3132256,4.9247546,-0.035921246,-0.44453156,1.7001606,-0.04491391,-0.031835902,0.12175997,-0.70232105,1.8326966,0.0
1618948000,-52.406593,-83.11181,-491.15442,-1.3304576,4.991247,-0.03637307,-0.47688228,1.8163458,-0.048739813,-0.034167036,0.13013515,-0.70261335,1.8326836,0.0
1619044000,-52.506382,-82.73971,-491.15442,-1.3105838,4.918768,-0.03603335,-0.44041577,1.688375,-0.047951072,-0.031552896,0.120960966,-0.7025808,1.8326769,0.0
1619148000,-52.65617,-82.18118,-491.15442,-1.3289975,4.9888473,-0.034867536,-0.48344475,1.8158778,-0.040443584,-0.034610156,0.13,-0.70206606,1.8326681,0.0
1619244000,-52.7561,-81.80858,-491.15442,-1.3089423,4.914607,-0.03428354,-0.4541164,1.6799935,-0.03942883,-0.032507826,0.12026197,-0.7020056,1.832665,0.0
1619348000,-52.90642,-81.248024,-491.15442,-1.3265401,4.9811363,-0.03403304,-0.47046086,1.7909927,-0.048704162,-0.033710584,0.1283325,-0.70268935,1.8326592,0.0
1619444000,-53.00683,-80.87363,-491.15442,-1.3067105,4.9077506,-0.033052158,-0.45238537,1.6555195,-0.041697383,-0.032393,0.11854328,-0.7022041,1.8326554,0.0
1619548000,-53.15757,-80.31153,-491.15442,-1.3256718,4.9779677,-0.031275548,-0.48445994,1.7955531,-0.024712978,-0.034630008,0.12834914,-0.700996,1.8326564,0.0
1619644000,-53.25812,-79.93659,-491.15442,-1.3065628,4.9043508,-0.031179525,-0.44487533,1.6518716,-0.039738115,-0.031850636,0.11826494,-0.70210123,1.8326634,0.0
1619740000,-53.38931,-79.44741,-491.15436,-1.3164022,4.9383435,-0.03184761,-0.46242318,1.7372909,-0.03491,-0.033091035,0.12432065,-0.70176315,1.8326769,0.0
1619844000,-53.510048,-78.99721,-491.1543,-1.3070959,4.901031,-0.03129806,-0.46874526,1.6720017,-0.04127789,-0.033566628,0.11973126,-0.70225036,1.8326865,0.0
1619948000,-53.66127,-78.433304,-491.1542,-1.327246,4.9727926,-0.029834235,-0.48689592,1.8154734,-0.02800696,-0.034819968,0.12983212,-0.7013149,1.8327038,0.0
1620044000,-53.76207,-78.057434,-491.15414,-1.3077854,4.900473,-0.029438198,-0.46384162,1.6905968,-0.030553153,-0.033180438,0.120935135,-0.70150995,1.8327038,0.0
1620140000,-53.893494,-77.56743,-491.15405,-1.3168157,4.9357996,-0.029562252,-0.48756298,1.7356925,-0.038456686,-0.03490626,0.124264024,-0.7020913,1.8326929,0.0
1620244000,-54.014385,-77.116646,-491.15402,-1.3066328,4.8987265,-0.02852443,-0.454997,1.6806239,-0.024162497,-0.03252759,0.12014726,-0.70107436,1.8326881,0.0
1620348000,-54.16583,-76.551994,-491.15393,-1.3257374,4.9704156,-0.0268748,-0.48488444,1.8147718,-0.036012962,-0.03470808,0.12990156,-0.70196116,1.8326834,0.0
1620444000,-54.266773,-76.17561,-491.15387,-1.3059865,4.8992414,-0.025959985,-0.45275962,1.6852086,-0.029524557,-0.032387696,0.12054967,-0.7015083,1.8326739,0.0
1620540000,-54.398224,-75.685486,-491.1538,-1.3147377,4.9362273,-0.025470952,-0.4659989,1.7462473,-0.037073106,-0.033361513,0.12501629,-0.7020713,1.8326483,0.0
1620644000,-54.51907,-75.23488,-491.15375,-1.3040866,4.8999662,-0.024555178,-0.4383961,1.6974001,-0.02727287,-0.03135451,0.121399686,-0.70138174,1.8326306,0.0
1620740000,-54.650467,-74.74494,-491.1537,-1.3133854,4.937141,-0.023211632,-0.47862875,1.774663,-0.015123222,-0.03418997,0.12676978,-0.7005199,1.832614,0.0
1620844000,-54.771236,-74.29459,-491.15363,-1.303764,4.901394,-0.02324189,-0.4560852,1.7166307,-0.030016698,-0.032630496,0.122815885,-0.70161235,1.8326101,0.0
1620948000,-54.922432,-73.730835,-491.15356,-1.3234754,4.9736195,-0.024521831,-0.4799711,1.840789,-0.039525785,-0.034373544,0.13182968,-0.70231247,1.8326151,0.0
1621044000,-55.023197,-73.35511,-491.1535,-1.3046627,4.9025755,-0.024492053,-0.45468363,1.7166272,-0.030109907,-0.03253171,0.122821264,-0.7016458,1.8326175,0.0
1621148000,-55.174324,-72.79158,-491.15344,-1.3240511,4.973902,-0.023455588,-0.4936904,1.8450513,-0.025099566,-0.035305146,0.13194464,-0.7013002,1.8326213,0.0
1621244000,-55.275116,-72.41574,-491.15338,-1.3046199,4.9002414,-0.023880608,-0.46228817,1.7143754,-0.03229346,-0.033084523,0.1226925,-0.70183146,1.8326252,0.0
1621348000,-55.42659,-71.850914,-491.1533,-1.3232515,4.9684076,-0.024888817,-0.48020187,1.8343675,-0.031600185,-0.034364298,0.13127136,-0.7017855,1.8326312,0.0
1621444000,-55.52773,-71.473785,-491.15323,-1.3037401,4.8945513,-0.02482854,-0.45934772,1.6995298,-0.026882702,-0.032856602,0.12156536,-0.70145684,1.8326344,0.0
1621540000,-55.659588,-70.98213,-491.15314,-1.3135681,4.9299073,-0.024037302,-0.47023016,1.7778893,-0.036759764,-0.033670194,0.12730336,-0.7021935,1.8326404,0.0
1621644000,-55.78091,-70.52977,-491.15308,-1.3048815,4.892044,-0.024128566,-0.4509712,1.723717,-0.030025985,-0.03226953,0.12334168,-0.7017197,1.8326616,0.0
1621748000,-55.93294,-69.96287,-491.15298,-1.326067,4.962791,-0.024953727,-0.49768615,1.8380153,-0.041919902,-0.03565662,0.13168423,-0.7025953,1.8327146,0.0
1621844000,-56.034348,-69.584755,-491.15295,-1.308516,4.8900366,-0.02471039,-0.48451987,1.7065024,-0.046331994,-0.034729693,0.12231965,-0.70292544,1.8327482,0.0
1621948000,-56.186493,-69.017395,-491.15286,-1.3296039,4.9608054,-0.023518214,-0.5152459,1.8225805,-0.027553635,-0.036861636,0.13039075,-0.701585,1.8328,0.0
1622044000,-56.28799,-68.63895,-491.1528,-1.3124348,4.886557,-0.023335917,-0.475614,1.7050499,-0.022313721,-0.03400853,0.12191871,-0.7012199,1.8328465,0.0
1622148000,-56.4404,-68.07065,-491.1527,-1.3342514,4.95563,-0.023306627,-0.51017725,1.8194923,-0.023789966,-0.036485855,0.13012289,-0.7013333,1.8329319,0.0
1622244000,-56.542088,-67.691475,-491.15268,-1.3166457,4.88136,-0.02275814,-0.48285818,1.7003047,-0.028706184,-0.034550507,0.12166386,-0.7017068,1.8329763,0.0
1622348000,-56.6947,-67.12243,-491.1526,-1.3373244,4.95165,-0.021657417,-0.5189636,1.8154244,-0.031608433,-0.037146106,0.12994352,-0.7019356,1.8330271,0.0
1622444000,-56.79648,-66.742935,-491.15253,-1.3206362,4.876997,-0.021841355,-0.48867548,1.6794968,-0.02578514,-0.034957666,0.12014371,-0.7015231,1.8330874,0.0
1622548000,-56.949135,-66.17371,-491.15247,-1.3431731,4.946113,-0.02229696,-0.52536523,1.817426,-0.027510872,-0.037589278,0.13003474,-0.7016554,1.8331996,0.0
1622644000,-57.050884,-65.794304,-491.1524,-1.3257921,4.8716626,-0.022084175,-0.48422816,1.6922212,-0.042991962,-0.03470234,0.12127348,-0.70279604,1.8332547,0.0
1622748000,-57.203506,-65.225235,-491.15234,-1.3462903,4.9415903,-0.021105392,-0.52457994,1.833577,-0.025423732,-0.037527166,0.13116962,-0.7015423,1.8333097,0.0
1622844000,-57.305264,-64.84582,-491.15228,-1.3284299,4.8658066,-0.020892613,-0.49661,1.6826788,-0.027743084,-0.035535224,0.1204051,-0.7017209,1.8333577,0.0
1622948000,-57.457893,-64.276665,-491.15222,-1.3491817,4.9327044,-0.021531189,-0.5256634,1.8178391,-0.032141,-0.037631754,0.13013741,-0.70204973,1.8334477,0.0
1623044000,-57.560078,-63.89566,-491.15216,-1.3307288,4.8581343,-0.021135312,-0.48626265,1.6748575,-0.015230572,-0.03475071,0.11969352,-0.7008331,1.8334861,0.0
1623148000,-57.71395,-63.321884,-491.15207,-1.3511024,4.930849,-0.020098941,-0.5362585,1.8190317,-0.02637797,-0.038368512,0.13014904,-0.70165217,1.8335221,0.0
1623244000,-57.816525,-62.939434,-491.152,-1.334008,4.85658,-0.020038744,-0.50341254,1.6870275,-0.022157684,-0.03600328,0.12065358,-0.7013564,1.8335779,8.2783634e-05
1623348000,-57.97034,-62.365913,-491.15192,-1.3571138,4.926297,-0.020101072,-0.5418928,1.813564,-0.029790815,-0.03878633,0.12980703,-0.7019177,1.8337209,0.0
1623444000,-58.07286,-61.98367,-491.15186,-1.3397657,4.851978,-0.019339016,-0.4975635,1.6819526,-0.026335528,-0.035601385,0.12034613,-0.70168096,1.833787,0.0
1623540000,-58.206448,-61.48557,-491.15176,-1.3509196,4.8883805,-0.017876869,-0.5269462,1.7484463,-0.013577174,-0.03765482,0.12494147,-0.70076907,1.8338414,0.0
1623644000,-58.32911,-61.02821,-491.1517,-1.341635,4.8486147,-0.01680835,-0.5087415,1.6793904,-0.022433678,-0.03638785,0.120118774,-0.70142424,1.8338838,0.0
1623748000,-58.482883,-60.454865,-491.1516,-1.3615861,4.918293,-0.016626677,-0.5381238,1.8012109,-0.039749607,-0.038559165,0.12906544,-0.70269334,1.8339419,0.0
1623844000,-58.58541,-60.072575,-491.15155,-1.3419373,4.8438277,-0.015834197,-0.5037653,1.6706878,-0.025601754,-0.03604544,0.119541146,-0.70168674,1.8339623,0.0
1623940000,-58.719036,-59.574314,-491.1515,-1.351026,4.880336,-0.014398717,-0.5011862,1.7519724,-0.009724259,-0.03580286,0.12515432,-0.7005499,1.8339617,0.0
1624044000,-58.841824,-59.11647,-491.15143,-1.3390632,4.839838,-0.014032085,-0.48030236,1.6886486,-0.014158307,-0.034326967,0.120686844,-0.70087653,1.8339462,0.0
1624148000,-58.995815,-58.542267,-491.15137,-1.3561509,4.908432,-0.01482705,-0.5023514,1.8136116,-0.022118514,-0.035932727,0.12972595,-0.7014608,1.8339256,0.0
1624244000,-59.09854,-58.159214,-491.1513,-1.3339679,4.8338146,-0.014915414,-0.46672642,1.6873033,-0.01938747,-0.03337547,0.120658554,-0.70127004,1.8338883,0.0
1624348000,-59.252735,-57.584267,-491.1512,-1.3505044,4.9062977,-0.014611745,-0.50573933,1.8131671,-0.01901112,-0.036164403,0.12965593,-0.701254,1.8338114,0.0
1624444000,-59.35559,-57.200733,-491.15118,-1.328348,4.8314157,-0.015188271,-0.45574066,1.6741695,-0.032685354,-0.03263549,0.11988692,-0.70225126,1.8337694,0.0
1624548000,-59.509964,-56.62508,-491.1511,-1.3451682,4.9013906,-0.016257891,-0.49393067,1.7991588,-0.03972096,-0.035396352,0.1289324,-0.7027697,1.833722,0.0
1624644000,-59.612938,-56.241093,-491.15103,-1.3230001,4.827338,-0.016533578,-0.43591574,1.6827742,-0.03559202,-0.031226149,0.12054293,-0.70248395,1.8336773,0.0
1624748000,-59.76749,-55.66476,-491.15097,-1.3395209,4.9005094,-0.016255958,-0.48503423,1.802206,-0.030268952,-0.034726396,0.1290303,-0.70211333,1.833585,0.0
1624844000,-59.8706,-55.280273,-491.1509,-1.3160992,4.8270473,-0.016043361,-0.44947127,1.6705987,-0.03880156,-0.032209113,0.11971513,-0.7027444,1.8335036,0.0
1624948000,-60.02542,-54.70297,-491.15085,-1.3311652,4.900212,-0.01549562,-0.4801195,1.810606,-0.017023008,-0.03432901,0.12946008,-0.701186,1.83335,0.0
1625044000,-60.12871,-54.317783,-491.1508,-1.3080527,4.8284354,-0.0145153925,-0.44687063,1.6941893,-0.030903375,-0.03199815,0.12131235,-0.7022056,1.8332541,0.0
1625140000,-60.26315,-53.816475,-491.1507,-1.3151281,4.867889,-0.013725208,-0.46093324,1.7699542,-0.03370291,-0.033014536,0.12677372,-0.70240533,1.8331375,0.0
1625244000,-60.38718,-53.353996,-491.15067,-1.3019844,4.8325114,-0.013633017,-0.4499549,1.7000028,-0.017460797,-0.03217483,0.12156173,-0.7012425,1.8330319,0.0
1625348000,-60.54241,-52.775204,-491.15057,-1.3185424,4.9062343,-0.013904341,-0.48741123,1.8293082,-0.012559209,-0.034835882,0.13074292,-0.7008931,1.8329101,0.0
1625444000,-60.64592,-52.38927,-491.1505,-1.2967207,4.834389,-0.013661267,-0.44231644,1.7040824,-0.008808065,-0.03160099,0.12174697,-0.7006287,1.8328385,0.0
1625548000,-60.80113,-51.810543,-491.15045,-1.3145986,4.9098473,-0.013077937,-0.48147482,1.8271769,-0.015524324,-0.03442219,0.13063078,-0.7011081,1.8327436,0.0
1625644000,-60.90455,-51.42487,-491.1504,-1.2923944,4.8370347,-0.013689364,-0.43504718,1.6940475,-0.021980042,-0.031123333,0.12119238,-0.7015689,1.8326699,0.0
1625748000,-61.05965,-50.846474,-491.1503,-1.3082815,4.9100676,-0.014942259,-0.46350095,1.8393443,-0.042983912,-0.033229757,0.13186805,-0.7030682,1.8325143,0.0
1625844000,-61.163013,-50.461063,-491.15027,-1.2859229,4.837421,-0.015212666,-0.4232906,1.7014052,-0.04221355,-0.030344535,0.12196904,-0.7030132,1.8324218,0.0
1625940000,-61.29742,-49.9599,-491.15018,-1.2938045,4.87531,-0.014972182,-0.45806506,1.7724713,-0.04267794,-0.032839082,0.12707,-0.7030463,1.8323197,0.0
1626044000,-61.42126,-49.498127,-491.15012,-1.2816025,4.835845,-0.015398636,-0.43627623,1.6939902,-0.03421288,-0.03125008,0.121339,-0.7024414,1.8322521,0.0
1626140000,-61.55563,-48.997124,-491.15005,-1.2894408,4.8690767,-0.016007125,-0.44338214,1.7511828,-0.032021187,-0.031751975,0.12540765,-0.7022838,1.8321949,0.0
1626244000,-61.67996,-48.533504,-491.15,-1.2784971,4.831293,-0.015975706,-0.4433703,1.6717038,-0.035299726,-0.03176177,0.119756036,-0.7025197,1.8321515,0.0
1626348000,-61.835384,-47.95397,-491.1499,-1.2980559,4.904584,-0.0150009245,-0.4770235,1.8098992,-0.023263536,-0.03413075,0.12949722,-0.7016605,1.8321292,0.0
1626444000,-61.938995,-47.56763,-491.14987,-1.2759676,4.831054,-0.015240248,-0.43362093,1.6739583,-0.043612264,-0.031089576,0.12001879,-0.703113,1.8320566,-0.0014340973
1626548000,-62.094418,-46.988102,-491.14978,-1.2915515,4.904486,-0.015882896,-0.45277694,1.8137813,-0.03975727,-0.032450188,0.12999237,-0.70283604,1.8318325,-0.00046626595
1626644000,-62.19804,-46.601753,-491.14972,-1.2692301,4.832051,-0.01567051,-0.41630858,1.6859022,-0.031095587,-0.029810399,0.12072155,-0.7022196,1.8317115,-5.3340802e-05
1626740000,-62.332745,-46.099495,-491.14966,-1.2773265,4.870164,-0.01508848,-0.43697533,1.7599995,-0.026719179,-0.03127638,0.12597144,-0.7019072,1.8315828,0.0
1626844000,-62.457092,-45.63587,-491.1496,-1.2653465,4.8338304,-0.015880834,-0.42735788,1.6971114,-0.041984014,-0.0306354,0.12165842,-0.7029951,1.8314701,-0.0002563293
1626940000,-62.591793,-45.133617,-491.14954,-1.2731469,4.8699365,-0.016922787,-0.44159624,1.7642889,-0.030793343,-0.031619888,0.12632947,-0.70219105,1.8313408,0.0
1627044000,-62.71613,-44.67,-491.14948,-1.262537,4.833603,-0.017220011,-0.42193052,1.699236,-0.047469087,-0.030263266,0.12187891,-0.70338833,1.8312676,0.0
1627140000,-62.850838,-44.16774,-491.14938,-1.2726328,4.8714223,-0.016949823,-0.45664266,1.769656,-0.03602938,-0.032714866,0.12678197,-0.70257086,1.8312223,0.0
1627244000,-62.975174,-43.70412,-491.14932,-1.2621485,4.834198,-0.017040165,-0.4314397,1.6995537,-0.042389993,-0.030929357,0.12183882,-0.7030258,1.831174,0.0
1627348000,-63.130592,-43.124596,-491.14926,-1.2805426,4.905796,-0.017828327,-0.46532694,1.8250488,-0.037733175,-0.033342723,0.13077277,-0.7026889,1.8310747,0.0
1627444000,-63.23421,-42.738247,-491.1492,-1.2608206,4.8317294,-0.017616032,-0.43888405,1.6908933,-0.02540772,-0.031408597,0.12100825,-0.7018089,1.8310426,0.0
1627540000,-63.36891,-42.23599,-491.14914,-1.2714385,4.8684983,-0.016735926,-0.45774922,1.750342,-0.018175246,-0.032734785,0.1251713,-0.70129675,1.8310347,0.0
1627644000,-63.49325,-41.772366,-491.14908,-1.2609746,4.831306,-0.016543534,-0.43585506,1.6923506,-0.035263203,-0.031223314,0.12123478,-0.7025171,1.8309877,-0.0007877955
1627740000,-63.62795,-41.270115,-491.149,-1.2694225,4.8675203,-0.016731687,-0.45515105,1.7506278,-0.039305124,-0.03261892,0.12546076,-0.702804,1.8308506,0.0
1627844000,-63.752277,-40.806496,-491.14893,-1.2594621,4.830903,-0.01618084,-0.44303703,1.6964487,-0.03750704,-0.031744964,0.12155578,-0.70267564,1.8307841,0.0
1627940000,-63.88697,-40.304237,-491.14886,-1.2703826,4.8682585,-0.01517057,-0.4680205,1.7639667,-0.025402704,-0.03349364,0.12623735,-0.70180756,1.8307738,0.0
1628044000,-64.01131,-39.840614,-491.1488,-1.2612361,4.8321815,-0.014466915,-0.43399397,1.7032983,-0.029333776,-0.031071225,0.1219454,-0.70209384,1.83076,0.0
1628140000,-64.14601,-39.338356,-491.1487,-1.2712296,4.869295,-0.014106311,-0.46165717,1.7743863,-0.036719594,-0.03307649,0.12712999,-0.70262104,1.8306898,0.0
1628244000,-64.27034,-38.874737,-491.14868,-1.2624816,4.8335266,-0.013637391,-0.44793215,1.708207,-0.039133612,-0.03210106,0.12241867,-0.70279336,1.8306711,0.0
1628348000,-64.42575,-38.295208,-491.1486,-1.2839413,4.908273,-0.012693539,-0.49889985,1.8300079,-0.040274378,-0.03575781,0.13116275,-0.7028748,1.8306928,0.0
1628444000,-64.529366,-37.908855,-491.14853,-1.2652079,4.835685,-0.012115262,-0.464243,1.7084241,-0.03224685,-0.03324656,0.12234806,-0.70229954,1.8306901,0.0
1628540000,-64.664055,-37.406597,-491.14847,-1.2753198,4.873094,-0.011500833,-0.47294173,1.7834786,-0.036371164,-0.033883896,0.12777726,-0.7025962,1.8306139,0.0
1628644000,-64.78808,-36.94419,-491.1484,-1.2664368,4.836118,-0.010827067,-0.4580221,1.7035173,-0.035792906,-0.032813016,0.122041136,-0.70255435,1.8305995,0.0
1628748000,-64.943214,-36.36579,-491.14832,-1.2879025,4.9090385,-0.009883483,-0.5038438,1.8158569,-0.030981168,-0.03607809,0.13002571,-0.70221144,1.8306605,0.0
1628844000,-65.04683,-35.97944,-491.1483,-1.2678047,4.8352575,-0.009538026,-0.46272323,1.6914033,-0.029484168,-0.0331285,0.12109539,-0.7021043,1.830613,-0.002696033
1628948000,-65.20225,-35.399914,-491.1482,-1.2854742,4.9077954,-0.009387675,-0.4765362,1.8308144,-0.035788197,-0.034139335,0.13116062,-0.7025546,1.830319,-0.00115588
