timestamp,timestamp_sample,q[0],q[1],q[2],q[3],delta_q_reset[0],delta_q_reset[1],delta_q_reset[2],delta_q_reset[3],quat_reset_counter
1592248000,0,0.6945996,-0.0005531259,0.0006073348,0.71940243,0.0,0.0,0.0,0.0,0
1592252000,0,0.6945996,-0.0005531225,0.00060748553,0.71940243,0.0,0.0,0.0,0.0,0
1592260000,0,0.6945996,-0.00055311574,0.00060778717,0.71940243,0.0,0.0,0.0,0.0,0
1592268000,0,0.6945996,-0.0005531092,0.00060808857,0.71940243,0.0,0.0,0.0,0.0,0
1592280000,0,0.6945996,-0.0005531001,0.00060853816,0.71940243,0.0,0.0,0.0,0.0,0
1592288000,0,0.6945996,-0.00055309426,0.000608837,0.71940243,0.0,0.0,0.0,0.0,0
1592300000,0,0.6945996,-0.00055308384,0.0006092833,0.71940243,0.0,0.0,0.0,0.0,0
1592308000,0,0.6945996,-0.00055307464,0.000609578,0.71940243,0.0,0.0,0.0,0.0,0
1592320000,0,0.6945996,-0.00055306155,0.00061001995,0.71940243,0.0,0.0,0.0,0.0,0
1592328000,0,0.6945996,-0.00055305555,0.00061031734,0.71940243,0.0,0.0,0.0,0.0,0
1592340000,0,0.6945996,-0.0005530437,0.00061075995,0.71940243,0.0,0.0,0.0,0.0,0
1592348000,0,0.6945996,-0.00055302907,0.0006110473,0.71940243,0.0,0.0,0.0,0.0,0
1592360000,0,0.6945996,-0.0005530128,0.000611486,0.71940243,0.0,0.0,0.0,0.0,0
1592368000,0,0.6945996,-0.0005530052,0.0006117824,0.71940243,0.0,0.0,0.0,0.0,0
1592380000,0,0.6945996,-0.00055299397,0.00061222876,0.71940243,0.0,0.0,0.0,0.0,0
1592388000,0,0.6945996,-0.0005529824,0.0006125213,0.71940243,0.0,0.0,0.0,0.0,0
1592400000,0,0.69459957,-0.0005529678,0.0006129634,0.71940243,0.0,0.0,0.0,0.0,0
1592408000,0,0.69459957,-0.00055295805,0.0006132591,0.71940243,0.0,0.0,0.0,0.0,0
1592416000,0,0.69459957,-0.00055294734,0.0006135535,0.71940243,0.0,0.0,0.0,0.0,0
1592428000,0,0.69459957,-0.0005529302,0.00061399286,0.71940243,0.0,0.0,0.0,0.0,0
1592440000,0,0.69459957,-0.00055292214,0.0006144418,0.71940243,0.0,0.0,0.0,0.0,0
1592448000,0,0.69459957,-0.00055291643,0.0006147406,0.71940243,0.0,0.0,0.0,0.0,0
1592460000,0,0.69459957,-0.0005529035,0.00061518437,0.71940243,0.0,0.0,0.0,0.0,0
1592468000,0,0.69459957,-0.0005528949,0.0006154809,0.71940243,0.0,0.0,0.0,0.0,0
1592480000,0,0.69459957,-0.00055288494,0.00061592844,0.71940243,0.0,0.0,0.0,0.0,0
1592488000,0,0.69459957,-0.0005528789,0.00061622733,0.71940243,0.0,0.0,0.0,0.0,0
1592500000,0,0.69459957,-0.0005528699,0.000616677,0.71940243,0.0,0.0,0.0,0.0,0
1592508000,0,0.69459957,-0.00055286346,0.0006169764,0.71940243,0.0,0.0,0.0,0.0,0
1592520000,0,0.69459957,-0.0005528523,0.0006174223,0.71940243,0.0,0.0,0.0,0.0,0
1592528000,0,0.69459957,-0.00055284286,0.0006177166,0.71940243,0.0,0.0,0.0,0.0,0
1592540000,0,0.69459957,-0.00055283314,0.0006181631,0.71940243,0.0,0.0,0.0,0.0,0
1592548000,0,0.69459957,-0.00055282965,0.0006184639,0.71940243,0.0,0.0,0.0,0.0,0
1592560000,0,0.69459957,-0.00055282254,0.0006189129,0.71940243,0.0,0.0,0.0,0.0,0
1592568000,0,0.69459957,-0.00055272796,0.0006191866,0.71940243,0.0,0.0,0.0,0.0,0
1592580000,0,0.69459957,-0.0005523354,0.0006195387,0.71940243,0.0,0.0,0.0,0.0,0
1592588000,0,0.69459957,-0.00055199454,0.000619755,0.71940243,0.0,0.0,0.0,0.0,0
1592600000,0,0.69459957,-0.0005514336,0.00062006613,0.71940243,0.0,0.0,0.0,0.0,0
1592608000,0,0.69459957,-0.00055104424,0.0006202689,0.71940243,0.0,0.0,0.0,0.0,0
1592620000,0,0.69459957,-0.0005504503,0.0006205675,0.71940243,0.0,0.0,0.0,0.0,0
1592628000,0,0.69459957,-0.0005500558,0.00062076683,0.71940243,0.0,0.0,0.0,0.0,0
1592640000,0,0.69459957,-0.00054946344,0.00062106806,0.71940243,0.0,0.0,0.0,0.0,0
1592644000,0,0.69459957,-0.00054926524,0.00062116864,0.71940243,0.0,0.0,0.0,0.0,0
1592660000,0,0.69459957,-0.0005484657,0.00062155747,0.71940243,0.0,0.0,0.0,0.0,0
1592668000,0,0.69459957,-0.0005480746,0.00062175456,0.71940243,0.0,0.0,0.0,0.0,0
1592680000,0,0.69459957,-0.0005474894,0.00062205753,0.71940243,0.0,0.0,0.0,0.0,0
1592688000,0,0.69459957,-0.0005470948,0.00062226056,0.71940243,0.0,0.0,0.0,0.0,0
1592700000,0,0.69459957,-0.0005464939,0.0006225553,0.71940243,0.0,0.0,0.0,0.0,0
1592708000,0,0.69459957,-0.00054609776,0.0006227541,0.71940243,0.0,0.0,0.0,0.0,0
1592720000,0,0.69459957,-0.000545503,0.0006230537,0.71940243,0.0,0.0,0.0,0.0,0
1592728000,0,0.69459957,-0.0005451047,0.0006232519,0.71940243,0.0,0.0,0.0,0.0,0
1592740000,0,0.69459957,-0.00054450927,0.00062354794,0.71940243,0.0,0.0,0.0,0.0,0
1592748000,0,0.69459957,-0.0005441173,0.00062375196,0.71940243,0.0,0.0,0.0,0.0,0
1592760000,0,0.69459957,-0.0005435207,0.00062405405,0.71940243,0.0,0.0,0.0,0.0,0
1592768000,0,0.69459957,-0.00054311845,0.0006242527,0.71940243,0.0,0.0,0.0,0.0,0
1592780000,0,0.69459957,-0.0005425186,0.0006245512,0.71940243,0.0,0.0,0.0,0.0,0
1592788000,0,0.69459957,-0.0005421211,0.00062475237,0.71940243,0.0,0.0,0.0,0.0,0
1592800000,0,0.69459957,-0.0005415235,0.00062505476,0.71940243,0.0,0.0,0.0,0.0,0
1592808000,0,0.69459957,-0.0005411236,0.0006252568,0.71940243,0.0,0.0,0.0,0.0,0
1592820000,0,0.69459957,-0.0005405209,0.00062555843,0.71940243,0.0,0.0,0.0,0.0,0
1592828000,0,0.69459957,-0.0005401188,0.00062575756,0.71940243,0.0,0.0,0.0,0.0,0
1592840000,0,0.69459957,-0.00053951796,0.00062605325,0.71940243,0.0,0.0,0.0,0.0,0
1592848000,0,0.69459957,-0.00053912436,0.00062625547,0.71940243,0.0,0.0,0.0,0.0,0
1592860000,0,0.69459957,-0.0005385281,0.0006265592,0.71940243,0.0,0.0,0.0,0.0,0
1592868000,0,0.69459957,-0.00053812854,0.0006267612,0.71940243,0.0,0.0,0.0,0.0,0
1592880000,0,0.69459957,-0.00053752697,0.00062705815,0.71940243,0.0,0.0,0.0,0.0,0
1592888000,0,0.69459957,-0.0005371302,0.00062725943,0.71940243,0.0,0.0,0.0,0.0,0
1592900000,0,0.69459957,-0.00053653354,0.00062756275,0.71940243,0.0,0.0,0.0,0.0,0
1592908000,0,0.69459957,-0.0005361343,0.0006277639,0.71940243,0.0,0.0,0.0,0.0,0
1592920000,0,0.69459957,-0.00053553435,0.00062806375,0.71940243,0.0,0.0,0.0,0.0,0
1592928000,0,0.69459957,-0.00053513376,0.00062826154,0.71940243,0.0,0.0,0.0,0.0,0
1592940000,0,0.69459957,-0.0005345398,0.0006285613,0.71940243,0.0,0.0,0.0,0.0,0
1592948000,0,0.69459957,-0.00053414336,0.0006287625,0.71940243,0.0,0.0,0.0,0.0,0
1592956000,0,0.69459957,-0.0005337449,0.0006289625,0.71940243,0.0,0.0,0.0,0.0,0
1592968000,0,0.69459957,-0.0005331436,0.0006292529,0.71940243,0.0,0.0,0.0,0.0,0
1592976000,0,0.69459957,-0.00053274963,0.00062944787,0.71940243,0.0,0.0,0.0,0.0,0
1592988000,0,0.69459957,-0.00053216494,0.0006297499,0.71940243,0.0,0.0,0.0,0.0,0
1593000000,0,0.69459957,-0.00053157366,0.0006300542,0.71940243,0.0,0.0,0.0,0.0,0
1593008000,0,0.69459957,-0.00053117145,0.00063024997,0.71940243,0.0,0.0,0.0,0.0,0
1593020000,0,0.69459957,-0.0005305759,0.0006305475,0.71940243,0.0,0.0,0.0,0.0,0
1593028000,0,0.69459957,-0.0005301794,0.0006307475,0.71940243,0.0,0.0,0.0,0.0,0
1593040000,0,0.69459957,-0.0005295821,0.00063104526,0.71940243,0.0,0.0,0.0,0.0,0
1593048000,0,0.69459957,-0.00052918406,0.0006312419,0.71940243,0.0,0.0,0.0,0.0,0
1593060000,0,0.69459957,-0.0005285948,0.0006315453,0.71940243,0.0,0.0,0.0,0.0,0
1593068000,0,0.69459957,-0.0005281968,0.00063174585,0.71940243,0.0,0.0,0.0,0.0,0
1593080000,0,0.69459957,-0.0005275957,0.0006320461,0.71940243,0.0,0.0,0.0,0.0,0
1593088000,0,0.69459957,-0.00052719493,0.00063224445,0.71940243,0.0,0.0,0.0,0.0,0
1593100000,0,0.69459957,-0.0005265986,0.0006325457,0.71940243,0.0,0.0,0.0,0.0,0
1593108000,0,0.69459957,-0.00052620046,0.0006327472,0.71940243,0.0,0.0,0.0,0.0,0
1593120000,0,0.69459957,-0.00052560103,0.00063305005,0.71940243,0.0,0.0,0.0,0.0,0
1593128000,0,0.69459957,-0.0005251994,0.000633251,0.71940243,0.0,0.0,0.0,0.0,0
1593140000,0,0.69459957,-0.0005245964,0.0006335497,0.71940243,0.0,0.0,0.0,0.0,0
1593148000,0,0.69459957,-0.00052419596,0.00063374673,0.71940243,0.0,0.0,0.0,0.0,0
1593160000,0,0.69459957,-0.0005236045,0.00063404994,0.71940243,0.0,0.0,0.0,0.0,0
1593168000,0,0.69459957,-0.0005232072,0.0006342516,0.71940243,0.0,0.0,0.0,0.0,0
1593180000,0,0.69459957,-0.0005226055,0.000634553,0.71940243,0.0,0.0,0.0,0.0,0
1593188000,0,0.69459957,-0.0005222045,0.000634751,0.71940243,0.0,0.0,0.0,0.0,0
1593200000,0,0.69459957,-0.00052160904,0.00063505286,0.71940243,0.0,0.0,0.0,0.0,0
1593208000,0,0.69459957,-0.0005212113,0.00063525536,0.71940243,0.0,0.0,0.0,0.0,0
1593220000,0,0.69459957,-0.000520612,0.000635557,0.71940243,0.0,0.0,0.0,0.0,0
1593228000,0,0.69459957,-0.0005202119,0.0006357567,0.71940243,0.0,0.0,0.0,0.0,0
1593240000,0,0.69459957,-0.00051961164,0.00063605333,0.71940243,0.0,0.0,0.0,0.0,0
1593248000,0,0.69459957,-0.0005192167,0.00063625444,0.71940243,0.0,0.0,0.0,0.0,0
1593260000,0,0.69459957,-0.0005186198,0.0006365554,0.71940243,0.0,0.0,0.0,0.0,0
1593268000,0,0.69459957,-0.0005182209,0.0006367548,0.71940243,0.0,0.0,0.0,0.0,0
1593280000,0,0.69459957,-0.00051762094,0.00063704565,0.71940243,0.0,0.0,0.0,0.0,0
1593288000,0,0.69459957,-0.00051722745,0.00063724123,0.71940243,0.0,0.0,0.0,0.0,0
1593300000,0,0.69459957,-0.0005166426,0.0006375436,0.71940243,0.0,0.0,0.0,0.0,0
1593308000,0,0.69459957,-0.0005162489,0.00063774636,0.71940243,0.0,0.0,0.0,0.0,0
1593320000,0,0.69459957,-0.0005156484,0.00063804234,0.71940243,0.0,0.0,0.0,0.0,0
1593328000,0,0.69459957,-0.00051525136,0.00063824054,0.71940243,0.0,0.0,0.0,0.0,0
1593340000,0,0.69459957,-0.00051465665,0.0006385397,0.71940243,0.0,0.0,0.0,0.0,0
1593348000,0,0.69459957,-0.0005142592,0.000638738,0.71940243,0.0,0.0,0.0,0.0,0
1593360000,0,0.69459957,-0.0005136637,0.0006390325,0.71940243,0.0,0.0,0.0,0.0,0
1593368000,0,0.69459957,-0.00051327277,0.00063923444,0.71940243,0.0,0.0,0.0,0.0,0
1593380000,0,0.69459957,-0.0005126801,0.00063953677,0.71940243,0.0,0.0,0.0,0.0,0
1593388000,0,0.69459957,-0.0005122796,0.00063973543,0.71940243,0.0,0.0,0.0,0.0,0
1593400000,0,0.69459957,-0.0005116825,0.00064003153,0.71940243,0.0,0.0,0.0,0.0,0
1593408000,0,0.69459957,-0.0005112873,0.0006402312,0.71940243,0.0,0.0,0.0,0.0,0
1593420000,0,0.69459957,-0.00051069254,0.00064053095,0.71940243,0.0,0.0,0.0,0.0,0
1593428000,0,0.69459957,-0.00051029416,0.00064072845,0.71940243,0.0,0.0,0.0,0.0,0
1593440000,0,0.69459957,-0.0005097034,0.0006410262,0.71940243,0.0,0.0,0.0,0.0,0
1593448000,0,0.69459957,-0.00050931086,0.000641228,0.71940243,0.0,0.0,0.0,0.0,0
1593460000,0,0.69459957,-0.0005087143,0.00064152665,0.71940243,0.0,0.0,0.0,0.0,0
1593468000,0,0.69459957,-0.00050831854,0.00064172474,0.71940243,0.0,0.0,0.0,0.0,0
1593480000,0,0.69459957,-0.00050772814,0.00064202526,0.71940243,0.0,0.0,0.0,0.0,0
1593488000,0,0.69459957,-0.0005073335,0.0006422261,0.71940243,0.0,0.0,0.0,0.0,0
1593500000,0,0.69459957,-0.0005067388,0.0006425262,0.71940243,0.0,0.0,0.0,0.0,0
1593508000,0,0.69459957,-0.00050634105,0.0006427231,0.71940243,0.0,0.0,0.0,0.0,0
1593520000,0,0.69459957,-0.00050575024,0.00064301945,0.71940243,0.0,0.0,0.0,0.0,0
1593528000,0,0.69459957,-0.00050535647,0.00064321724,0.71940243,0.0,0.0,0.0,0.0,0
1593540000,0,0.69459957,-0.00050476176,0.0006435085,0.71940243,0.0,0.0,0.0,0.0,0
1593548000,0,0.69459957,-0.00050437043,0.00064370205,0.71940243,0.0,0.0,0.0,0.0,0
1593560000,0,0.69459957,-0.0005037895,0.0006440012,0.71940243,0.0,0.0,0.0,0.0,0
1593568000,0,0.69459957,-0.00050339685,0.00064419804,0.71940243,0.0,0.0,0.0,0.0,0
1593580000,0,0.69459957,-0.0005028089,0.0006444934,0.71940243,0.0,0.0,0.0,0.0,0
1593588000,0,0.69459957,-0.0005024176,0.0006446915,0.71940243,0.0,0.0,0.0,0.0,0
1593600000,0,0.69459957,-0.00050182827,0.00064498634,0.71940243,0.0,0.0,0.0,0.0,0
1593608000,0,0.69459957,-0.0005014346,0.00064517994,0.71940243,0.0,0.0,0.0,0.0,0
1593616000,0,0.69459957,-0.00050104724,0.00064537826,0.71940243,0.0,0.0,0.0,0.0,0
1593628000,0,0.69459957,-0.0005004612,0.0006456755,0.71940243,0.0,0.0,0.0,0.0,0
1593640000,0,0.69459957,-0.00049987127,0.00064596353,0.71940243,0.0,0.0,0.0,0.0,0
1593648000,0,0.69459957,-0.00049948273,0.00064615725,0.71940243,0.0,0.0,0.0,0.0,0
1593660000,0,0.69459957,-0.000498907,0.0006464566,0.71940243,0.0,0.0,0.0,0.0,0
1593668000,0,0.69459957,-0.00049851666,0.0006466519,0.71940243,0.0,0.0,0.0,0.0,0
1593680000,0,0.69459957,-0.00049793546,0.000646948,0.71940243,0.0,0.0,0.0,0.0,0
1593688000,0,0.69459957,-0.0004975478,0.0006471464,0.71940243,0.0,0.0,0.0,0.0,0
1593700000,0,0.69459957,-0.000496964,0.0006474432,0.71940243,0.0,0.0,0.0,0.0,0
1593708000,0,0.69459957,-0.00049657375,0.0006476401,0.71940243,0.0,0.0,0.0,0.0,0
1593720000,0,0.69459957,-0.00049598643,0.00064793014,0.71940243,0.0,0.0,0.0,0.0,0
1593728000,0,0.69459957,-0.0004956005,0.00064812665,0.71940243,0.0,0.0,0.0,0.0,0
1593740000,0,0.69459957,-0.00049501384,0.0006484141,0.71940243,0.0,0.0,0.0,0.0,0
1593748000,0,0.69459957,-0.0004946308,0.0006486085,0.71940243,0.0,0.0,0.0,0.0,0
1593760000,0,0.69459957,-0.0004940525,0.0006489015,0.71940243,0.0,0.0,0.0,0.0,0
1593768000,0,0.69459957,-0.00049366633,0.0006490957,0.71940243,0.0,0.0,0.0,0.0,0
1593780000,0,0.69459957,-0.0004930887,0.00064938917,0.71940243,0.0,0.0,0.0,0.0,0
1593788000,0,0.69459957,-0.0004927018,0.0006495833,0.71940243,0.0,0.0,0.0,0.0,0
1593800000,0,0.69459957,-0.0004921201,0.000649869,0.71940243,0.0,0.0,0.0,0.0,0
1593808000,0,0.69459957,-0.0004917393,0.00065006455,0.71940243,0.0,0.0,0.0,0.0,0
1593820000,0,0.69459957,-0.00049116014,0.0006503474,0.71940243,0.0,0.0,0.0,0.0,0
1593828000,0,0.69459957,-0.00049078296,0.00065054285,0.71940243,0.0,0.0,0.0,0.0,0
1593840000,0,0.69459957,-0.0004902136,0.0006508324,0.71940243,0.0,0.0,0.0,0.0,0
1593848000,0,0.69459957,-0.0004898356,0.0006510282,0.71940243,0.0,0.0,0.0,0.0,0
1593860000,0,0.69459957,-0.00048926496,0.00065132184,0.71940243,0.0,0.0,0.0,0.0,0
1593868000,0,0.69459957,-0.0004888824,0.00065151707,0.71940243,0.0,0.0,0.0,0.0,0
1593880000,0,0.69459957,-0.00048830634,0.00065180694,0.71940243,0.0,0.0,0.0,0.0,0
1593888000,0,0.69459957,-0.00048792336,0.00065199775,0.71940243,0.0,0.0,0.0,0.0,0
1593900000,0,0.69459957,-0.00048734888,0.0006522818,0.71940243,0.0,0.0,0.0,0.0,0
1593908000,0,0.69459957,-0.00048697094,0.00065247214,0.71940243,0.0,0.0,0.0,0.0,0
1593920000,0,0.69459957,-0.00048640362,0.00065275806,0.71940243,0.0,0.0,0.0,0.0,0
1593928000,0,0.69459957,-0.0004860277,0.00065295055,0.71940243,0.0,0.0,0.0,0.0,0
1593940000,0,0.69459957,-0.0004854617,0.0006532388,0.71940243,0.0,0.0,0.0,0.0,0
1593948000,0,0.69459957,-0.00048508184,0.000653428,0.71940243,0.0,0.0,0.0,0.0,0
1593960000,0,0.69459957,-0.0004845145,0.00065370684,0.71940243,0.0,0.0,0.0,0.0,0
1593968000,0,0.69459957,-0.0004841425,0.00065389456,0.71940243,0.0,0.0,0.0,0.0,0
1593980000,0,0.69459957,-0.00048358462,0.00065417675,0.71940243,0.0,0.0,0.0,0.0,0
1593988000,0,0.69459957,-0.00048321683,0.0006543692,0.71940243,0.0,0.0,0.0,0.0,0
1594000000,0,0.69459957,-0.0004826605,0.000654658,0.71940243,0.0,0.0,0.0,0.0,0
1594008000,0,0.69459957,-0.000482287,0.00065484986,0.71940243,0.0,0.0,0.0,0.0,0
1594020000,0,0.69459957,-0.00048172378,0.00065513497,0.71940243,0.0,0.0,0.0,0.0,0
1594028000,0,0.69459957,-0.00048134915,0.0006553236,0.71940243,0.0,0.0,0.0,0.0,0
1594040000,0,0.69459957,-0.00048078448,0.0006556011,0.71940243,0.0,0.0,0.0,0.0,0
1594048000,0,0.69459957,-0.00048041565,0.000655791,0.71940243,0.0,0.0,0.0,0.0,0
1594060000,0,0.69459957,-0.00047985956,0.00065607176,0.71940243,0.0,0.0,0.0,0.0,0
1594068000,0,0.69459957,-0.0004794907,0.0006562611,0.71940243,0.0,0.0,0.0,0.0,0
1594080000,0,0.69459957,-0.00047893322,0.0006565404,0.71940243,0.0,0.0,0.0,0.0,0
1594088000,0,0.69459957,-0.00047855944,0.0006567194,0.71940243,0.0,0.0,0.0,0.0,0
1594100000,0,0.69459957,-0.0004780137,0.00065699976,0.71940243,0.0,0.0,0.0,0.0,0
1594108000,0,0.69459957,-0.0004776519,0.000657185,0.71940243,0.0,0.0,0.0,0.0,0
1594120000,0,0.69459957,-0.0004771109,0.0006574687,0.71940243,0.0,0.0,0.0,0.0,0
1594128000,0,0.69459957,-0.00047674717,0.0006576567,0.71940243,0.0,0.0,0.0,0.0,0
1594140000,0,0.69459957,-0.00047619911,0.00065793644,0.71940243,0.0,0.0,0.0,0.0,0
1594148000,0,0.69459957,-0.00047583232,0.00065812,0.71940243,0.0,0.0,0.0,0.0,0
1594160000,0,0.69459957,-0.00047528394,0.0006583921,0.71940243,0.0,0.0,0.0,0.0,0
1594168000,0,0.69459957,-0.00047492425,0.00065857684,0.71940243,0.0,0.0,0.0,0.0,0
1594180000,0,0.69459957,-0.00047438263,0.000658853,0.71940243,0.0,0.0,0.0,0.0,0
1594188000,0,0.69459957,-0.00047402194,0.0006590374,0.71940243,0.0,0.0,0.0,0.0,0
1594200000,0,0.69459957,-0.00047347773,0.000659306,0.71940243,0.0,0.0,0.0,0.0,0
1594208000,0,0.69459957,-0.00047312255,0.00065948756,0.71940243,0.0,0.0,0.0,0.0,0
1594220000,0,0.69459957,-0.00047258937,0.0006597584,0.71940243,0.0,0.0,0.0,0.0,0
1594228000,0,0.69459957,-0.00047223843,0.0006599428,0.71940243,0.0,0.0,0.0,0.0,0
1594236000,0,0.69459957,-0.00047188543,0.000660127,0.71940243,0.0,0.0,0.0,0.0,0
1594244000,0,0.69459957,-0.0004715306,0.0006603106,0.71940243,0.0,0.0,0.0,0.0,0
1594260000,0,0.69459957,-0.00047081782,0.00066067156,0.71940243,0.0,0.0,0.0,0.0,0
1594268000,0,0.69459957,-0.00047046196,0.00066084904,0.71940243,0.0,0.0,0.0,0.0,0
1594280000,0,0.69459957,-0.00046993291,0.00066111836,0.71940243,0.0,0.0,0.0,0.0,0
1594288000,0,0.69459957,-0.00046958282,0.0006612993,0.71940243,0.0,0.0,0.0,0.0,0
1594300000,0,0.69459957,-0.00046905412,0.00066156435,0.71940243,0.0,0.0,0.0,0.0,0
1594308000,0,0.69459957,-0.00046870307,0.00066173804,0.71940243,0.0,0.0,0.0,0.0,0
1594320000,0,0.69459957,-0.00046818712,0.0006620063,0.71940243,0.0,0.0,0.0,0.0,0
1594328000,0,0.69459957,-0.00046784425,0.00066218607,0.71940243,0.0,0.0,0.0,0.0,0
1594340000,0,0.69459957,-0.0004673283,0.0006624554,0.71940243,0.0,0.0,0.0,0.0,0
1594348000,0,0.69459957,-0.00046698243,0.00066263345,0.71940243,0.0,0.0,0.0,0.0,0
1594360000,0,0.69459957,-0.00046646313,0.0006628968,0.71940243,0.0,0.0,0.0,0.0,0
1594368000,0,0.69459957,-0.00046611865,0.0006630713,0.71940243,0.0,0.0,0.0,0.0,0
1594380000,0,0.69459957,-0.00046560663,0.00066333305,0.71940243,0.0,0.0,0.0,0.0,0
1594388000,0,0.69459957,-0.00046526565,0.0006635064,0.71940243,0.0,0.0,0.0,0.0,0
1594400000,0,0.69459957,-0.00046475555,0.0006637632,0.71940243,0.0,0.0,0.0,0.0,0
1594408000,0,0.69459957,-0.00046442158,0.0006639355,0.71940243,0.0,0.0,0.0,0.0,0
1594420000,0,0.69459957,-0.0004639226,0.00066419644,0.71940243,0.0,0.0,0.0,0.0,0
1594428000,0,0.69459957,-0.0004635905,0.00066437124,0.71940243,0.0,0.0,0.0,0.0,0
1594440000,0,0.69459957,-0.0004630888,0.0006646306,0.71940243,0.0,0.0,0.0,0.0,0
1594448000,0,0.69459957,-0.00046275352,0.00066479936,0.71940243,0.0,0.0,0.0,0.0,0
1594460000,0,0.69459957,-0.0004622566,0.0006650515,0.71940243,0.0,0.0,0.0,0.0,0
1594468000,0,0.69459957,-0.00046193006,0.00066522264,0.71940243,0.0,0.0,0.0,0.0,0
1594480000,0,0.69459957,-0.00046143853,0.00066547655,0.71940243,0.0,0.0,0.0,0.0,0
1594488000,0,0.69459957,-0.00046111023,0.0006656426,0.71940243,0.0,0.0,0.0,0.0,0
1594500000,0,0.69459957,-0.0004606249,0.0006658952,0.71940243,0.0,0.0,0.0,0.0,0
1594508000,0,0.69459957,-0.0004603035,0.0006660645,0.71940243,0.0,0.0,0.0,0.0,0
1594520000,0,0.69459957,-0.00045982032,0.00066631875,0.71940243,0.0,0.0,0.0,0.0,0
1594528000,0,0.69459957,-0.0004594966,0.0006664848,0.71940243,0.0,0.0,0.0,0.0,0
1594540000,0,0.69459957,-0.0004590127,0.0006667298,0.71940243,0.0,0.0,0.0,0.0,0
1594548000,0,0.69459957,-0.0004586952,0.00066689507,0.71940243,0.0,0.0,0.0,0.0,0
1594560000,0,0.69459957,-0.0004582214,0.00066714064,0.71940243,0.0,0.0,0.0,0.0,0
1594568000,0,0.69459957,-0.00045790628,0.00066730357,0.71940243,0.0,0.0,0.0,0.0,0
1594580000,0,0.69459957,-0.00045743675,0.0006675472,0.71940243,0.0,0.0,0.0,0.0,0
1594588000,0,0.69459957,-0.00045712673,0.00066771166,0.71940243,0.0,0.0,0.0,0.0,0
1594600000,0,0.69459957,-0.00045665956,0.00066795846,0.71940243,0.0,0.0,0.0,0.0,0
1594608000,0,0.69459957,-0.00045634585,0.00066811877,0.71940243,0.0,0.0,0.0,0.0,0
1594620000,0,0.69459957,-0.0004558802,0.00066836167,0.71940243,0.0,0.0,0.0,0.0,0
1594628000,0,0.69459957,-0.00045556988,0.0006685231,0.71940243,0.0,0.0,0.0,0.0,0
1594640000,0,0.69459957,-0.0004551067,0.00066876627,0.71940243,0.0,0.0,0.0,0.0,0
1594648000,0,0.69459957,-0.00045479747,0.00066892855,0.71940243,0.0,0.0,0.0,0.0,0
1594660000,0,0.69459957,-0.00045433515,0.0006691736,0.71940243,0.0,0.0,0.0,0.0,0
1594668000,0,0.69459957,-0.0004540273,0.00066933734,0.71940243,0.0,0.0,0.0,0.0,0
1594680000,0,0.69459957,-0.00045356253,0.00066958,0.71940243,0.0,0.0,0.0,0.0,0
1594688000,0,0.69459957,-0.0004532531,0.00066973944,0.71940243,0.0,0.0,0.0,0.0,0
1594700000,0,0.69459957,-0.00045279053,0.00066997804,0.71940243,0.0,0.0,0.0,0.0,0
1594708000,0,0.69459957,-0.00045248534,0.00067013886,0.71940243,0.0,0.0,0.0,0.0,0
1594720000,0,0.69459957,-0.00045202774,0.0006703831,0.71940243,0.0,0.0,0.0,0.0,0
1594728000,0,0.69459957,-0.0004517218,0.0006705447,0.71940243,0.0,0.0,0.0,0.0,0
1594740000,0,0.69459957,-0.0004512624,0.0006707856,0.71940243,0.0,0.0,0.0,0.0,0
1594748000,0,0.69459957,-0.00045095696,0.0006709473,0.71940243,0.0,0.0,0.0,0.0,0
1594760000,0,0.69459957,-0.00045049714,0.0006711836,0.71940243,0.0,0.0,0.0,0.0,0
1594768000,0,0.69459957,-0.00045019327,0.0006713427,0.71940243,0.0,0.0,0.0,0.0,0
1594780000,0,0.69459957,-0.00044973884,0.0006715812,0.71940243,0.0,0.0,0.0,0.0,0
1594788000,0,0.69459957,-0.00044943852,0.000671743,0.71940243,0.0,0.0,0.0,0.0,0
1594800000,0,0.69459957,-0.00044898276,0.00067198224,0.71940243,0.0,0.0,0.0,0.0,0
1594808000,0,0.69459957,-0.00044868127,0.00067214255,0.71940243,0.0,0.0,0.0,0.0,0
1594820000,0,0.69459957,-0.00044822847,0.0006723814,0.71940243,0.0,0.0,0.0,0.0,0
1594828000,0,0.69459957,-0.00044792597,0.0006725374,0.71940243,0.0,0.0,0.0,0.0,0
1594840000,0,0.69459957,-0.00044747474,0.0006727722,0.71940243,0.0,0.0,0.0,0.0,0
1594848000,0,0.69459957,-0.00044717736,0.00067293167,0.71940243,0.0,0.0,0.0,0.0,0
1594860000,0,0.69459957,-0.0004467301,0.00067317137,0.71940243,0.0,0.0,0.0,0.0,0
1594864000,0,0.69459957,-0.0004465803,0.00067325146,0.71940243,0.0,0.0,0.0,0.0,0
1594880000,0,0.69459957,-0.0004459787,0.0006735674,0.71940243,0.0,0.0,0.0,0.0,0
1594888000,0,0.69459957,-0.00044567918,0.00067372306,0.71940243,0.0,0.0,0.0,0.0,0
1594900000,0,0.69459957,-0.00044523188,0.0006739554,0.71940243,0.0,0.0,0.0,0.0,0
1594908000,0,0.69459957,-0.0004449357,0.00067411,0.71940243,0.0,0.0,0.0,0.0,0
1594920000,0,0.69459957,-0.0004444959,0.00067434704,0.71940243,0.0,0.0,0.0,0.0,0
1594928000,0,0.69459957,-0.00044420175,0.0006745054,0.71940243,0.0,0.0,0.0,0.0,0
1594940000,0,0.69459957,-0.00044375757,0.0006747431,0.71940243,0.0,0.0,0.0,0.0,0
1594948000,0,0.69459957,-0.00044345818,0.00067489775,0.71940243,0.0,0.0,0.0,0.0,0
1594960000,0,0.69459957,-0.0004430143,0.0006751302,0.71940243,0.0,0.0,0.0,0.0,0
1594968000,0,0.69459957,-0.00044272037,0.00067528524,0.71940243,0.0,0.0,0.0,0.0,0
1594980000,0,0.69459957,-0.0004422803,0.0006755128,0.71940243,0.0,0.0,0.0,0.0,0
1594988000,0,0.69459957,-0.00044199204,0.00067566923,0.71940243,0.0,0.0,0.0,0.0,0
1595000000,0,0.69459957,-0.0004415569,0.0006759067,0.71940243,0.0,0.0,0.0,0.0,0
1595008000,0,0.69459957,-0.00044126375,0.0006760648,0.71940243,0.0,0.0,0.0,0.0,0
1595020000,0,0.69459957,-0.00044081954,0.0006762962,0.71940243,0.0,0.0,0.0,0.0,0
1595028000,0,0.69459957,-0.00044052568,0.00067644985,0.71940243,0.0,0.0,0.0,0.0,0
1595040000,0,0.69459957,-0.00044008822,0.0006766781,0.71940243,0.0,0.0,0.0,0.0,0
1595048000,0,0.69459957,-0.00043979866,0.0006768281,0.71940243,0.0,0.0,0.0,0.0,0
1595060000,0,0.69459957,-0.00043937206,0.00067706074,0.71940243,0.0,0.0,0.0,0.0,0
1595068000,0,0.69459957,-0.00043908518,0.0006772174,0.71940243,0.0,0.0,0.0,0.0,0
1595080000,0,0.69459957,-0.00043865072,0.00067745085,0.71940243,0.0,0.0,0.0,0.0,0
1595088000,0,0.69459957,-0.000438358,0.0006776023,0.71940243,0.0,0.0,0.0,0.0,0
1595100000,0,0.69459957,-0.0004379242,0.00067782967,0.71940243,0.0,0.0,0.0,0.0,0
1595108000,0,0.69459957,-0.00043763517,0.00067797775,0.71940243,0.0,0.0,0.0,0.0,0
1595116000,0,0.69459957,-0.00043735077,0.0006781271,0.71940243,0.0,0.0,0.0,0.0,0
1595124000,0,0.69459957,-0.0004370721,0.00067828095,0.71940243,0.0,0.0,0.0,0.0,0
1595140000,0,0.69459957,-0.00043650655,0.00067858974,0.71940243,0.0,0.0,0.0,0.0,0
1595148000,0,0.69459957,-0.00043622096,0.0006787438,0.71940243,0.0,0.0,0.0,0.0,0
1595160000,0,0.69459957,-0.00043579008,0.0006789696,0.71940243,0.0,0.0,0.0,0.0,0
1595168000,0,0.69459957,-0.00043550343,0.0006791174,0.71940243,0.0,0.0,0.0,0.0,0
1595180000,0,0.69459957,-0.00043508166,0.0006793372,0.71940243,0.0,0.0,0.0,0.0,0
1595188000,0,0.69459957,-0.00043480578,0.00067948806,0.71940243,0.0,0.0,0.0,0.0,0
1595200000,0,0.69459957,-0.00043438972,0.0006797183,0.71940243,0.0,0.0,0.0,0.0,0
1595208000,0,0.69459957,-0.00043410875,0.00067987165,0.71940243,0.0,0.0,0.0,0.0,0
1595220000,0,0.69459957,-0.00043368345,0.0006800982,0.71940243,0.0,0.0,0.0,0.0,0
1595228000,0,0.69459957,-0.0004333997,0.0006802456,0.71940243,0.0,0.0,0.0,0.0,0
1595240000,0,0.69459957,-0.00043297687,0.00068046036,0.71940243,0.0,0.0,0.0,0.0,0
1595248000,0,0.69459957,-0.00043270344,0.0006806056,0.71940243,0.0,0.0,0.0,0.0,0
1595260000,0,0.69459957,-0.0004322989,0.0006808331,0.71940243,0.0,0.0,0.0,0.0,0
1595268000,0,0.69459957,-0.0004320243,0.00068098493,0.71940243,0.0,0.0,0.0,0.0,0
1595280000,0,0.69459957,-0.00043160722,0.0006812108,0.71940243,0.0,0.0,0.0,0.0,0
1595288000,0,0.69459957,-0.00043132773,0.00068135874,0.71940243,0.0,0.0,0.0,0.0,0
1595300000,0,0.69459957,-0.00043090954,0.00068157504,0.71940243,0.0,0.0,0.0,0.0,0
1595308000,0,0.69459957,-0.0004306357,0.0006817174,0.71940243,0.0,0.0,0.0,0.0,0
1595320000,0,0.69459957,-0.00043023363,0.0006819393,0.71940243,0.0,0.0,0.0,0.0,0
1595328000,0,0.69459957,-0.00042996416,0.0006820891,0.71940243,0.0,0.0,0.0,0.0,0
1595340000,0,0.69459957,-0.0004295547,0.00068231334,0.71940243,0.0,0.0,0.0,0.0,0
1595348000,0,0.69459957,-0.00042927978,0.0006824606,0.71940243,0.0,0.0,0.0,0.0,0
1595360000,0,0.69459957,-0.00042886438,0.00068267324,0.71940243,0.0,0.0,0.0,0.0,0
1595368000,0,0.69459957,-0.00042859156,0.0006828115,0.71940243,0.0,0.0,0.0,0.0,0
1595380000,0,0.69459957,-0.00042819994,0.0006830299,0.71940243,0.0,0.0,0.0,0.0,0
1595388000,0,0.69459957,-0.00042793746,0.00068317837,0.71940243,0.0,0.0,0.0,0.0,0
1595400000,0,0.69459957,-0.0004275364,0.00068340177,0.71940243,0.0,0.0,0.0,0.0,0
1595408000,0,0.69459957,-0.00042726536,0.0006835481,0.71940243,0.0,0.0,0.0,0.0,0
1595420000,0,0.69459957,-0.00042685706,0.00068376167,0.71940243,0.0,0.0,0.0,0.0,0
1595428000,0,0.69459957,-0.00042658814,0.00068390014,0.71940243,0.0,0.0,0.0,0.0,0
1595440000,0,0.69459957,-0.00042619588,0.0006841126,0.71940243,0.0,0.0,0.0,0.0,0
1595448000,0,0.69459957,-0.00042593668,0.00068425894,0.71940243,0.0,0.0,0.0,0.0,0
1595460000,0,0.69459957,-0.00042554276,0.0006844785,0.71940243,0.0,0.0,0.0,0.0,0
1595468000,0,0.69459957,-0.00042527687,0.0006846234,0.71940243,0.0,0.0,0.0,0.0,0
1595480000,0,0.69459957,-0.0004248766,0.00068483676,0.71940243,0.0,0.0,0.0,0.0,0
1595488000,0,0.69459957,-0.00042460955,0.0006849723,0.71940243,0.0,0.0,0.0,0.0,0
1595500000,0,0.69459957,-0.00042422215,0.00068517827,0.71940243,0.0,0.0,0.0,0.0,0
1595508000,0,0.69459957,-0.00042397002,0.00068532233,0.71940243,0.0,0.0,0.0,0.0,0
1595520000,0,0.69459957,-0.00042358582,0.0006855392,0.71940243,0.0,0.0,0.0,0.0,0
1595528000,0,0.69459957,-0.0004233263,0.00068568194,0.71940243,0.0,0.0,0.0,0.0,0
1595540000,0,0.69459957,-0.00042293503,0.00068589154,0.71940243,0.0,0.0,0.0,0.0,0
1595548000,0,0.69459957,-0.00042267446,0.0006860272,0.71940243,0.0,0.0,0.0,0.0,0
1595560000,0,0.69459957,-0.00042229184,0.00068623055,0.71940243,0.0,0.0,0.0,0.0,0
1595564000,0,0.69459957,-0.00042216753,0.0006863009,0.71940243,0.0,0.0,0.0,0.0,0
1595580000,0,0.69459957,-0.0004216657,0.0006865847,0.71940243,0.0,0.0,0.0,0.0,0
1595588000,0,0.69459957,-0.00042141118,0.00068672566,0.71940243,0.0,0.0,0.0,0.0,0
1595600000,0,0.69459957,-0.0004210268,0.0006869321,0.71940243,0.0,0.0,0.0,0.0,0
1595608000,0,0.69459957,-0.0004207732,0.00068706815,0.71940243,0.0,0.0,0.0,0.0,0
1595620000,0,0.69459957,-0.00042039625,0.0006872696,0.71940243,0.0,0.0,0.0,0.0,0
1595628000,0,0.69459957,-0.00042015105,0.00068740913,0.71940243,0.0,0.0,0.0,0.0,0
1595640000,0,0.69459957,-0.00041977974,0.0006876178,0.71940243,0.0,0.0,0.0,0.0,0
1595648000,0,0.69459957,-0.0004195298,0.0006877554,0.71940243,0.0,0.0,0.0,0.0,0
1595660000,0,0.69459957,-0.0004191545,0.0006879592,0.71940243,0.0,0.0,0.0,0.0,0
1595668000,0,0.69459957,-0.0004189048,0.0006880934,0.71940243,0.0,0.0,0.0,0.0,0
1595680000,0,0.69459957,-0.00041853587,0.0006882953,0.71940243,0.0,0.0,0.0,0.0,0
1595684000,0,0.69459957,-0.00041841416,0.0006883632,0.71940243,0.0,0.0,0.0,0.0,0
1595700000,0,0.69459957,-0.00041792716,0.00068863755,0.71940243,0.0,0.0,0.0,0.0,0
1595708000,0,0.69459957,-0.00041768138,0.00068877265,0.71940243,0.0,0.0,0.0,0.0,0
1595720000,0,0.69459957,-0.000417314,0.0006889737,0.71940243,0.0,0.0,0.0,0.0,0
1595728000,0,0.69459957,-0.00041706895,0.00068910426,0.71940243,0.0,0.0,0.0,0.0,0
1595740000,0,0.69459957,-0.00041670882,0.0006893035,0.71940243,0.0,0.0,0.0,0.0,0
1595748000,0,0.69459957,-0.0004164707,0.0006894381,0.71940243,0.0,0.0,0.0,0.0,0
1595760000,0,0.69459957,-0.00041611103,0.0006896399,0.71940243,0.0,0.0,0.0,0.0,0
1595768000,0,0.69459957,-0.00041587104,0.0006897725,0.71940243,0.0,0.0,0.0,0.0,0
1595780000,0,0.69459957,-0.00041551157,0.0006899699,0.71940243,0.0,0.0,0.0,0.0,0
1595788000,0,0.69459957,-0.00041527368,0.00069010054,0.71940243,0.0,0.0,0.0,0.0,0
1595800000,0,0.69459957,-0.0004149187,0.00069029507,0.71940243,0.0,0.0,0.0,0.0,0
1595808000,0,0.69459957,-0.00041468683,0.0006904286,0.71940243,0.0,0.0,0.0,0.0,0
1595816000,0,0.69459957,-0.000414452,0.0006905597,0.71940243,0.0,0.0,0.0,0.0,0
1595828000,0,0.69459957,-0.00041410266,0.00069075683,0.71940243,0.0,0.0,0.0,0.0,0
1595840000,0,0.69459957,-0.00041375085,0.0006909511,0.71940243,0.0,0.0,0.0,0.0,0
1595848000,0,0.69459957,-0.00041351808,0.0006910797,0.71940243,0.0,0.0,0.0,0.0,0
1595860000,0,0.69459957,-0.00041317273,0.0006912733,0.71940243,0.0,0.0,0.0,0.0,0
1595868000,0,0.69459957,-0.00041294377,0.0006914027,0.71940243,0.0,0.0,0.0,0.0,0
1595880000,0,0.69459957,-0.0004126012,0.0006915965,0.71940243,0.0,0.0,0.0,0.0,0
1595888000,0,0.69459957,-0.00041237252,0.00069172477,0.71940243,0.0,0.0,0.0,0.0,0
1595900000,0,0.69459957,-0.0004120309,0.000691915,0.71940243,0.0,0.0,0.0,0.0,0
1595908000,0,0.69459957,-0.0004118032,0.0006920409,0.71940243,0.0,0.0,0.0,0.0,0
1595920000,0,0.69459957,-0.00041146544,0.0006922294,0.71940243,0.0,0.0,0.0,0.0,0
1595928000,0,0.69459957,-0.0004112439,0.0006923564,0.71940243,0.0,0.0,0.0,0.0,0
1595940000,0,0.69459957,-0.0004109101,0.0006925451,0.71940243,0.0,0.0,0.0,0.0,0
1595948000,0,0.69459957,-0.00041068866,0.00069267047,0.71940243,0.0,0.0,0.0,0.0,0
1595960000,0,0.69459957,-0.0004103569,0.00069285836,0.71940243,0.0,0.0,0.0,0.0,0
1595968000,0,0.69459957,-0.00041013645,0.0006929832,0.71940243,0.0,0.0,0.0,0.0,0
1595980000,0,0.69459957,-0.00040980874,0.00069316966,0.71940243,0.0,0.0,0.0,0.0,0
1595988000,0,0.69459957,-0.00040959124,0.00069329544,0.71940243,0.0,0.0,0.0,0.0,0
1596000000,0,0.69459957,-0.0004092638,0.00069348025,0.71940243,0.0,0.0,0.0,0.0,0
1596004000,0,0.69459957,-0.00040915457,0.0006935407,0.71940243,0.0,0.0,0.0,0.0,0
1596020000,0,0.69459957,-0.0004087225,0.0006937864,0.71940243,0.0,0.0,0.0,0.0,0
1596028000,0,0.69459957,-0.0004085074,0.0006939065,0.71940243,0.0,0.0,0.0,0.0,0
1596040000,0,0.69459957,-0.000408191,0.00069409097,0.71940243,0.0,0.0,0.0,0.0,0
1596048000,0,0.69459957,-0.0004079791,0.00069421175,0.71940243,0.0,0.0,0.0,0.0,0
1596060000,0,0.69459957,-0.0004076631,0.00069439196,0.71940243,0.0,0.0,0.0,0.0,0
1596068000,0,0.69459957,-0.00040745272,0.00069451216,0.71940243,0.0,0.0,0.0,0.0,0
1596080000,0,0.69459957,-0.0004071392,0.00069469213,0.71940243,0.0,0.0,0.0,0.0,0
1596088000,0,0.69459957,-0.00040693188,0.00069481146,0.71940243,0.0,0.0,0.0,0.0,0
1596100000,0,0.69459957,-0.0004066226,0.0006949897,0.71940243,0.0,0.0,0.0,0.0,0
1596108000,0,0.69459957,-0.00040641648,0.00069510855,0.71940243,0.0,0.0,0.0,0.0,0
1596120000,0,0.69459957,-0.00040610865,0.00069528545,0.71940243,0.0,0.0,0.0,0.0,0
1596128000,0,0.69459957,-0.00040590475,0.0006954038,0.71940243,0.0,0.0,0.0,0.0,0
1596140000,0,0.69459957,-0.00040559997,0.0006955803,0.71940243,0.0,0.0,0.0,0.0,0
1596148000,0,0.69459957,-0.0004053979,0.0006956976,0.71940243,0.0,0.0,0.0,0.0,0
1596160000,0,0.69459957,-0.00040509595,0.00069587334,0.71940243,0.0,0.0,0.0,0.0,0
1596168000,0,0.69459957,-0.0004048954,0.0006959897,0.71940243,0.0,0.0,0.0,0.0,0
1596180000,0,0.69459957,-0.00040459738,0.0006961626,0.71940243,0.0,0.0,0.0,0.0,0
1596188000,0,0.69459957,-0.00040439997,0.00069627614,0.71940243,0.0,0.0,0.0,0.0,0
1596200000,0,0.69459957,-0.0004041069,0.00069644745,0.71940243,0.0,0.0,0.0,0.0,0
1596208000,0,0.69459957,-0.00040391285,0.00069656194,0.71940243,0.0,0.0,0.0,0.0,0
1596220000,0,0.69459957,-0.00040362158,0.0006967315,0.71940243,0.0,0.0,0.0,0.0,0
1596228000,0,0.69459957,-0.00040342938,0.00069684617,0.71940243,0.0,0.0,0.0,0.0,0
1596240000,0,0.69459957,-0.00040314125,0.0006970156,0.71940243,0.0,0.0,0.0,0.0,0
1596248000,0,0.69459957,-0.00040294963,0.00069712725,0.71940243,0.0,0.0,0.0,0.0,0
1596260000,0,0.69459957,-0.00040266535,0.0006972947,0.71940243,0.0,0.0,0.0,0.0,0
1596268000,0,0.69459957,-0.0004024768,0.0006974052,0.71940243,0.0,0.0,0.0,0.0,0
1596280000,0,0.69459957,-0.00040219666,0.00069757365,0.71940243,0.0,0.0,0.0,0.0,0
1596288000,0,0.69459957,-0.00040200938,0.00069768395,0.71940243,0.0,0.0,0.0,0.0,0
1596300000,0,0.69459957,-0.0004017351,0.00069784303,0.71940243,0.0,0.0,0.0,0.0,0
1596308000,0,0.69459957,-0.00040155757,0.0006979459,0.71940243,0.0,0.0,0.0,0.0,0
1596320000,0,0.69459957,-0.00040129866,0.00069809804,0.71940243,0.0,0.0,0.0,0.0,0
1596328000,0,0.69459957,-0.00040113056,0.00069819595,0.71940243,0.0,0.0,0.0,0.0,0
1596340000,0,0.69459957,-0.0004008833,0.0006983363,0.71940243,0.0,0.0,0.0,0.0,0
1596348000,0,0.69459957,-0.0004007253,0.00069842744,0.71940243,0.0,0.0,0.0,0.0,0
1596360000,0,0.69459957,-0.0004004923,0.00069856265,0.71940243,0.0,0.0,0.0,0.0,0
1596368000,0,0.69459957,-0.00040034027,0.000698654,0.71940243,0.0,0.0,0.0,0.0,0
1596380000,0,0.69459957,-0.00040011582,0.00069879205,0.71940243,0.0,0.0,0.0,0.0,0
1596388000,0,0.69459957,-0.0003999656,0.0006988825,0.71940243,0.0,0.0,0.0,0.0,0
1596400000,0,0.69459957,-0.00039974094,0.0006990171,0.71940243,0.0,0.0,0.0,0.0,0
1596408000,0,0.69459957,-0.000399592,0.0006991056,0.71940243,0.0,0.0,0.0,0.0,0
1596420000,0,0.69459957,-0.0003993726,0.0006992393,0.71940243,0.0,0.0,0.0,0.0,0
1596428000,0,0.69459957,-0.00039922725,0.0006993286,0.71940243,0.0,0.0,0.0,0.0,0
1596440000,0,0.69459957,-0.00039900866,0.0006994606,0.71940243,0.0,0.0,0.0,0.0,0
1596448000,0,0.69459957,-0.00039886285,0.00069954665,0.71940243,0.0,0.0,0.0,0.0,0
1596460000,0,0.69459957,-0.0003986485,0.0006996744,0.71940243,0.0,0.0,0.0,0.0,0
1596468000,0,0.69459957,-0.0003985088,0.00069976196,0.71940243,0.0,0.0,0.0,0.0,0
1596480000,0,0.69459957,-0.0003982962,0.00069989025,0.71940243,0.0,0.0,0.0,0.0,0
1596484000,0,0.69459957,-0.00039822594,0.000699933,0.71940243,0.0,0.0,0.0,0.0,0
1596500000,0,0.69459957,-0.0003979446,0.00070009904,0.71940243,0.0,0.0,0.0,0.0,0
1596508000,0,0.69459957,-0.00039780734,0.0007001831,0.71940243,0.0,0.0,0.0,0.0,0
1596520000,0,0.69459957,-0.0003976027,0.00070031255,0.71940243,0.0,0.0,0.0,0.0,0
1596528000,0,0.69459957,-0.00039746336,0.0007003956,0.71940243,0.0,0.0,0.0,0.0,0
1596540000,0,0.69459957,-0.00039725503,0.00070051645,0.71940243,0.0,0.0,0.0,0.0,0
1596548000,0,0.69459957,-0.00039712005,0.00070059777,0.71940243,0.0,0.0,0.0,0.0,0
1596560000,0,0.69459957,-0.0003969201,0.0007007215,0.71940243,0.0,0.0,0.0,0.0,0
1596568000,0,0.69459957,-0.00039678582,0.000700802,0.71940243,0.0,0.0,0.0,0.0,0
1596580000,0,0.69459957,-0.00039658538,0.0007009204,0.71940243,0.0,0.0,0.0,0.0,0
1596588000,0,0.69459957,-0.00039645412,0.00070100045,0.71940243,0.0,0.0,0.0,0.0,0
1596600000,0,0.69459957,-0.00039626,0.0007011225,0.71940243,0.0,0.0,0.0,0.0,0
1596608000,0,0.69459957,-0.00039612796,0.0007012021,0.71940243,0.0,0.0,0.0,0.0,0
1596620000,0,0.69459957,-0.00039592953,0.0007013168,0.71940243,0.0,0.0,0.0,0.0,0
1596628000,0,0.69459957,-0.0003958004,0.0007013932,0.71940243,0.0,0.0,0.0,0.0,0
1596640000,0,0.69459957,-0.00039561294,0.0007015102,0.71940243,0.0,0.0,0.0,0.0,0
1596648000,0,0.69459957,-0.00039549358,0.00070158497,0.71940243,0.0,0.0,0.0,0.0,0
1596660000,0,0.69459957,-0.0003953225,0.0007016851,0.71940243,0.0,0.0,0.0,0.0,0
1596668000,0,0.69459957,-0.0003952174,0.0007017519,0.71940243,0.0,0.0,0.0,0.0,0
1596680000,0,0.69459957,-0.000395069,0.0007018554,0.71940243,0.0,0.0,0.0,0.0,0
1596688000,0,0.69459957,-0.00039497335,0.0007019274,0.71940243,0.0,0.0,0.0,0.0,0
1596700000,0,0.69459957,-0.00039482513,0.00070202054,0.71940243,0.0,0.0,0.0,0.0,0
1596708000,0,0.69459957,-0.00039473388,0.00070208183,0.71940243,0.0,0.0,0.0,0.0,0
1596720000,0,0.69459957,-0.00039460775,0.000702177,0.71940243,0.0,0.0,0.0,0.0,0
1596728000,0,0.69459957,-0.00039452568,0.00070224097,0.71940243,0.0,0.0,0.0,0.0,0
1596740000,0,0.69459957,-0.0003944019,0.00070232624,0.71940243,0.0,0.0,0.0,0.0,0
1596748000,0,0.69459957,-0.00039432533,0.0007023834,0.71940243,0.0,0.0,0.0,0.0,0
1596760000,0,0.69459957,-0.00039421816,0.00070247194,0.71940243,0.0,0.0,0.0,0.0,0
1596768000,0,0.69459957,-0.000394149,0.00070252793,0.71940243,0.0,0.0,0.0,0.0,0
1596780000,0,0.69459957,-0.00039404706,0.0007026059,0.71940243,0.0,0.0,0.0,0.0,0
1596788000,0,0.69459957,-0.0003939841,0.00070265733,0.71940243,0.0,0.0,0.0,0.0,0
1596800000,0,0.69459957,-0.0003939006,0.00070273975,0.71940243,0.0,0.0,0.0,0.0,0
1596808000,0,0.69459957,-0.00039384217,0.0007027905,0.71940243,0.0,0.0,0.0,0.0,0
1596820000,0,0.69459957,-0.00039375722,0.0007028546,0.71940243,0.0,0.0,0.0,0.0,0
1596828000,0,0.69459957,-0.0003937106,0.0007028963,0.71940243,0.0,0.0,0.0,0.0,0
1596840000,0,0.69459957,-0.00039365198,0.0007029649,0.71940243,0.0,0.0,0.0,0.0,0
1596848000,0,0.69459957,-0.00039361522,0.0007030063,0.71940243,0.0,0.0,0.0,0.0,0
1596860000,0,0.69459957,-0.00039355474,0.00070305896,0.71940243,0.0,0.0,0.0,0.0,0
1596868000,0,0.69459957,-0.00039354293,0.00070304767,0.71940243,0.0,0.0,0.0,0.0,0
1596880000,0,0.69459957,-0.00039149623,0.00070093054,0.7194025,0.0,0.0,0.0,0.0,0
1596888000,0,0.69459957,-0.00038349978,0.00069308747,0.7194025,0.0,0.0,0.0,0.0,0
1596896000,0,0.69459957,-0.0003666356,0.0006766801,0.7194025,0.0,0.0,0.0,0.0,0
1596908000,0,0.69459957,-0.00031978832,0.0006311901,0.71940255,0.0,0.0,0.0,0.0,0
1596916000,0,0.6945995,-0.00027231858,0.0005852333,0.7194027,0.0,0.0,0.0,0.0,0
1596928000,0,0.69459766,-0.00016934557,0.00048609287,0.7194046,0.0,0.0,0.0,0.0,0
1596940000,0,0.69459206,-2.2113074e-05,0.00033901152,0.7194101,0.0,0.0,0.0,0.0,0
1596948000,0,0.69458586,0.000105430656,0.00021162984,0.7194161,0.0,0.0,0.0,0.0,0
1596960000,0,0.694573,0.00034363283,-2.7977683e-05,0.7194285,0.0,0.0,0.0,0.0,0
1596968000,0,0.6945631,0.00052396575,-0.0002262122,0.7194379,0.0,0.0,0.0,0.0,0
1596980000,0,0.6945479,0.0008136802,-0.00058730395,0.7194521,0.0,0.0,0.0,0.0,0
1596988000,0,0.6945387,0.0010103662,-0.000874591,0.7194604,0.0,0.0,0.0,0.0,0
1597000000,0,0.6945277,0.0013002503,-0.0013781104,0.7194698,0.0,0.0,0.0,0.0,0
1597008000,0,0.69452226,0.0014923578,-0.0017647161,0.71947384,0.0,0.0,0.0,0.0,0
1597020000,0,0.694516,0.0017942592,-0.0024236639,0.71947724,0.0,0.0,0.0,0.0,0
1597028000,0,0.6945139,0.0019988432,-0.0029177228,0.71947694,0.0,0.0,0.0,0.0,0
1597036000,0,0.69451404,0.0022012314,-0.0034558077,0.71947384,0.0,0.0,0.0,0.0,0
1597044000,0,0.6945166,0.0024006127,-0.0040390324,0.71946764,0.0,0.0,0.0,0.0,0
1597060000,0,0.694528,0.002810958,-0.0053479425,0.71944666,0.0,0.0,0.0,0.0,0
1597068000,0,0.69453746,0.0030171827,-0.006076256,0.71943086,0.0,0.0,0.0,0.0,0
1597080000,0,0.69455516,0.003343148,-0.0072580026,0.7194014,0.0,0.0,0.0,0.0,0
1597088000,0,0.69456893,0.003576172,-0.008106211,0.71937793,0.0,0.0,0.0,0.0,0
1597100000,0,0.6945941,0.0039339,-0.009475726,0.7193351,0.0,0.0,0.0,0.0,0
1597108000,0,0.694615,0.004161107,-0.0104543,0.7193,0.0,0.0,0.0,0.0,0
1597120000,0,0.6946455,0.0044838265,-0.012001199,0.7192445,0.0,0.0,0.0,0.0,0
1597128000,0,0.6946644,0.004690121,-0.013072676,0.7192062,0.0,0.0,0.0,0.0,0
1597136000,0,0.6946819,0.0048897797,-0.014180049,0.719167,0.0,0.0,0.0,0.0,0
1597148000,0,0.69470584,0.0051612924,-0.015891688,0.7191062,0.0,0.0,0.0,0.0,0
1597160000,0,0.6947264,0.0054038847,-0.01758012,0.7190452,0.0,0.0,0.0,0.0,0
1597168000,0,0.6947389,0.005556559,-0.01866755,0.7190046,0.0,0.0,0.0,0.0,0
1597180000,0,0.6947562,0.005787697,-0.02024152,0.7189435,0.0,0.0,0.0,0.0,0
1597188000,0,0.69476694,0.0059301797,-0.021234246,0.7189033,0.0,0.0,0.0,0.0,0
1597200000,0,0.694782,0.0061147115,-0.022593096,0.7188457,0.0,0.0,0.0,0.0,0
1597208000,0,0.6947909,0.0062245447,-0.023431182,0.71880937,0.0,0.0,0.0,0.0,0
1597220000,0,0.6948025,0.0063655884,-0.02461113,0.7187575,0.0,0.0,0.0,0.0,0
1597228000,0,0.69480884,0.006447484,-0.025330866,0.7187256,0.0,0.0,0.0,0.0,0
1597240000,0,0.694817,0.0065559926,-0.026301995,0.71868193,0.0,0.0,0.0,0.0,0
1597248000,0,0.6948214,0.0066254144,-0.026892073,0.71865517,0.0,0.0,0.0,0.0,0
1597260000,0,0.6948274,0.0067196665,-0.027686294,0.71861833,0.0,0.0,0.0,0.0,0
1597268000,0,0.69483095,0.006769948,-0.02814235,0.7185967,0.0,0.0,0.0,0.0,0
1597280000,0,0.694836,0.0068265814,-0.028715268,0.7185686,0.0,0.0,0.0,0.0,0
1597288000,0,0.694839,0.0068466715,-0.029032437,0.71855277,0.0,0.0,0.0,0.0,0
1597300000,0,0.69484395,0.0068376055,-0.029410975,0.71853274,0.0,0.0,0.0,0.0,0
1597308000,0,0.69484746,0.006808134,-0.029598823,0.71852183,0.0,0.0,0.0,0.0,0
1597320000,0,0.6948531,0.0067428793,-0.029784745,0.7185093,0.0,0.0,0.0,0.0,0
1597324000,0,0.69485515,0.006715793,-0.02982035,0.7185061,0.0,0.0,0.0,0.0,0
1597340000,0,0.694864,0.006581208,-0.02983532,0.71849823,0.0,0.0,0.0,0.0,0
1597344000,0,0.6948662,0.006543564,-0.029809183,0.7184975,0.0,0.0,0.0,0.0,0
1597356000,0,0.6948723,0.0064270543,-0.029667169,0.7184985,0.0,0.0,0.0,0.0,0
1597364000,0,0.69487596,0.0063552526,-0.029514628,0.7185019,0.0,0.0,0.0,0.0,0
1597380000,0,0.6948834,0.006218938,-0.029067144,0.71851414,0.0,0.0,0.0,0.0,0
1597388000,0,0.6948876,0.006143141,-0.028781952,0.71852225,0.0,0.0,0.0,0.0,0
1597400000,0,0.6948948,0.006011742,-0.028278582,0.7185363,0.0,0.0,0.0,0.0,0
1597408000,0,0.69490033,0.005915229,-0.027897052,0.7185467,0.0,0.0,0.0,0.0,0
1597420000,0,0.6949099,0.005757466,-0.027272074,0.7185628,0.0,0.0,0.0,0.0,0
1597428000,0,0.69491684,0.005638985,-0.026827345,0.7185737,0.0,0.0,0.0,0.0,0
1597440000,0,0.69492793,0.0054417797,-0.026116904,0.7185907,0.0,0.0,0.0,0.0,0
1597448000,0,0.6949353,0.005313488,-0.025610197,0.7186027,0.0,0.0,0.0,0.0,0
1597460000,0,0.69494605,0.005130478,-0.02481108,0.7186217,0.0,0.0,0.0,0.0,0
1597464000,0,0.69494957,0.0050678398,-0.024535893,0.7186282,0.0,0.0,0.0,0.0,0
1597480000,0,0.69496304,0.004803858,-0.023398893,0.71865493,0.0,0.0,0.0,0.0,0
1597488000,0,0.69496995,0.0046645324,-0.022814859,0.7186679,0.0,0.0,0.0,0.0,0
1597500000,0,0.6949806,0.0044443114,-0.021922452,0.7186868,0.0,0.0,0.0,0.0,0
1597508000,0,0.6949876,0.0042875516,-0.021309983,0.7186994,0.0,0.0,0.0,0.0,0
1597520000,0,0.6949978,0.0040497696,-0.020354638,0.7187186,0.0,0.0,0.0,0.0,0
1597528000,0,0.6950046,0.003890588,-0.019697081,0.7187313,0.0,0.0,0.0,0.0,0
1597540000,0,0.69501334,0.0036659413,-0.018697131,0.71875066,0.0,0.0,0.0,0.0,0
1597548000,0,0.69501805,0.0035235607,-0.018025327,0.718764,0.0,0.0,0.0,0.0,0
1597560000,0,0.6950233,0.0033347623,-0.017009903,0.7187846,0.0,0.0,0.0,0.0,0
1597568000,0,0.69502556,0.003225297,-0.016346075,0.7187983,0.0,0.0,0.0,0.0,0
1597580000,0,0.69502723,0.0030671668,-0.015390132,0.7188185,0.0,0.0,0.0,0.0,0
1597588000,0,0.6950271,0.0029562942,-0.014768344,0.7188321,0.0,0.0,0.0,0.0,0
1597600000,0,0.6950258,0.0027725054,-0.013842112,0.7188525,0.0,0.0,0.0,0.0,0
1597608000,0,0.6950242,0.002638157,-0.013231899,0.71886605,0.0,0.0,0.0,0.0,0
1597620000,0,0.6950204,0.0024263265,-0.012312979,0.7188868,0.0,0.0,0.0,0.0,0
1597628000,0,0.69501704,0.0022870004,-0.011694411,0.71890086,0.0,0.0,0.0,0.0,0
1597640000,0,0.6950116,0.0020937868,-0.010763632,0.7189212,0.0,0.0,0.0,0.0,0
1597648000,0,0.6950078,0.0019824307,-0.010155072,0.71893406,0.0,0.0,0.0,0.0,0
1597660000,0,0.69500196,0.0018301007,-0.009258201,0.71895224,0.0,0.0,0.0,0.0,0
1597668000,0,0.694998,0.0017472957,-0.008669634,0.71896356,0.0,0.0,0.0,0.0,0
1597680000,0,0.69499266,0.0016376948,-0.007800432,0.71897894,0.0,0.0,0.0,0.0,0
1597688000,0,0.6949894,0.0015631334,-0.007228154,0.7189883,0.0,0.0,0.0,0.0,0
1597696000,0,0.6949862,0.0014795025,-0.006659857,0.718997,0.0,0.0,0.0,0.0,0
1597704000,0,0.69498324,0.0013962359,-0.006097316,0.71900505,0.0,0.0,0.0,0.0,0
1597720000,0,0.69497806,0.0012386593,-0.0050099664,0.71901876,0.0,0.0,0.0,0.0,0
1597728000,0,0.6949755,0.001162867,-0.0044954005,0.7190248,0.0,0.0,0.0,0.0,0
1597740000,0,0.69497144,0.0010528106,-0.0037497957,0.7190331,0.0,0.0,0.0,0.0,0
1597748000,0,0.69496906,0.0009797825,-0.0032639713,0.7190379,0.0,0.0,0.0,0.0,0
1597760000,0,0.6949658,0.0008697616,-0.0025634281,0.719044,0.0,0.0,0.0,0.0,0
1597768000,0,0.69496375,0.00078962295,-0.002112425,0.7190476,0.0,0.0,0.0,0.0,0
1597780000,0,0.69496065,0.00067412027,-0.0014524516,0.7190523,0.0,0.0,0.0,0.0,0
1597788000,0,0.69495887,0.00060620083,-0.0010226909,0.7190548,0.0,0.0,0.0,0.0,0
1597800000,0,0.6949566,0.0005116827,-0.00039240133,0.71905774,0.0,0.0,0.0,0.0,0
1597804000,0,0.69495595,0.00047837,-0.00018311822,0.71905845,0.0,0.0,0.0,0.0,0
1597820000,0,0.69495386,0.0003473906,0.00065157894,0.7190603,0.0,0.0,0.0,0.0,0
1597824000,0,0.6949536,0.0003157864,0.00085751206,0.7190603,0.0,0.0,0.0,0.0,0
1597840000,0,0.6949537,0.0001943662,0.0016486201,0.71905893,0.0,0.0,0.0,0.0,0
1597848000,0,0.6949542,0.0001301649,0.002029625,0.71905744,0.0,0.0,0.0,0.0,0
1597860000,0,0.6949558,4.7284397e-05,0.0025842753,0.7190541,0.0,0.0,0.0,0.0,0
1597868000,0,0.6949577,1.9562042e-06,0.0029331862,0.719051,0.0,0.0,0.0,0.0,0
1597880000,0,0.69496155,-5.6545854e-05,0.0034276547,0.71904504,0.0,0.0,0.0,0.0,0
1597888000,0,0.69496495,-9.402723e-05,0.0037500304,0.71904016,0.0,0.0,0.0,0.0,0
1597900000,0,0.6949715,-0.00014169044,0.0042265616,0.7190312,0.0,0.0,0.0,0.0,0
1597904000,0,0.69497406,-0.00015454323,0.004381207,0.71902776,0.0,0.0,0.0,0.0,0
1597920000,0,0.6949856,-0.00020310978,0.0049785404,0.7190127,0.0,0.0,0.0,0.0,0
1597928000,0,0.6949918,-0.00023489501,0.005262336,0.7190047,0.0,0.0,0.0,0.0,0
1597940000,0,0.69500154,-0.00029155822,0.005669532,0.7189922,0.0,0.0,0.0,0.0,0
1597948000,0,0.6950083,-0.00032604567,0.0059228023,0.7189836,0.0,0.0,0.0,0.0,0
1597960000,0,0.69501865,-0.0003793154,0.006281448,0.7189705,0.0,0.0,0.0,0.0,0
1597968000,0,0.69502574,-0.00042011362,0.006510713,0.71896154,0.0,0.0,0.0,0.0,0
1597980000,0,0.695037,-0.00048930163,0.0068319542,0.7189477,0.0,0.0,0.0,0.0,0
1597988000,0,0.69504476,-0.00053474953,0.00703234,0.71893823,0.0,0.0,0.0,0.0,0
1598000000,0,0.69505656,-0.00060356816,0.00732122,0.71892387,0.0,0.0,0.0,0.0,0
1598008000,0,0.69506425,-0.00064123905,0.007509609,0.71891445,0.0,0.0,0.0,0.0,0
1598020000,0,0.6950756,-0.0006779688,0.007785638,0.7189005,0.0,0.0,0.0,0.0,0
1598028000,0,0.69508296,-0.0006901507,0.007963217,0.7188914,0.0,0.0,0.0,0.0,0
1598040000,0,0.69509363,-0.0006908645,0.008223348,0.71887815,0.0,0.0,0.0,0.0,0
1598048000,0,0.69510037,-0.00067980605,0.0083902655,0.71886975,0.0,0.0,0.0,0.0,0
1598060000,0,0.6951098,-0.0006585434,0.008612942,0.71885806,0.0,0.0,0.0,0.0,0
1598068000,0,0.6951155,-0.0006448638,0.008740874,0.718851,0.0,0.0,0.0,0.0,0
1598080000,0,0.6951234,-0.00063745864,0.008932733,0.718841,0.0,0.0,0.0,0.0,0
1598088000,0,0.6951282,-0.0006378801,0.009074381,0.7188346,0.0,0.0,0.0,0.0,0
1598100000,0,0.6951347,-0.00063684967,0.009311628,0.7188252,0.0,0.0,0.0,0.0,0
1598108000,0,0.69513845,-0.00063972344,0.009481711,0.7188194,0.0,0.0,0.0,0.0,0
1598120000,0,0.69514346,-0.00064775953,0.009745043,0.71881104,0.0,0.0,0.0,0.0,0
1598128000,0,0.6951466,-0.00065585424,0.009918649,0.7188056,0.0,0.0,0.0,0.0,0
1598140000,0,0.69515103,-0.00067724625,0.010156785,0.718798,0.0,0.0,0.0,0.0,0
1598148000,0,0.6951538,-0.00069812074,0.010300406,0.7187933,0.0,0.0,0.0,0.0,0
1598160000,0,0.69515747,-0.0007354883,0.010502651,0.7187867,0.0,0.0,0.0,0.0,0
1598168000,0,0.69516,-0.0007582562,0.010633168,0.71878237,0.0,0.0,0.0,0.0,0
1598180000,0,0.6951638,-0.00078507356,0.010811577,0.718776,0.0,0.0,0.0,0.0,0
1598188000,0,0.69516635,-0.0008001792,0.010921778,0.7187718,0.0,0.0,0.0,0.0,0
1598200000,0,0.69517034,-0.00082093873,0.011076901,0.71876556,0.0,0.0,0.0,0.0,0
1598208000,0,0.695173,-0.0008319411,0.011172444,0.71876144,0.0,0.0,0.0,0.0,0
1598220000,0,0.6951772,-0.00083489745,0.011304084,0.71875536,0.0,0.0,0.0,0.0,0
1598224000,0,0.6951787,-0.0008335043,0.011341803,0.71875334,0.0,0.0,0.0,0.0,0
1598236000,0,0.6951832,-0.00083027116,0.011437756,0.71874744,0.0,0.0,0.0,0.0,0
1598248000,0,0.69518787,-0.0008414312,0.01152145,0.7187416,0.0,0.0,0.0,0.0,0
1598260000,0,0.69519216,-0.0008741162,0.011591466,0.7187363,0.0,0.0,0.0,0.0,0
1598268000,0,0.6951947,-0.0009074246,0.011638614,0.718733,0.0,0.0,0.0,0.0,0
1598276000,0,0.69519687,-0.000950071,0.011693719,0.71873,0.0,0.0,0.0,0.0,0
1598288000,0,0.6951994,-0.0010158394,0.011773926,0.71872616,0.0,0.0,0.0,0.0,0
1598300000,0,0.6952006,-0.0010719628,0.0118454555,0.7187237,0.0,0.0,0.0,0.0,0
1598308000,0,0.6952006,-0.0011024144,0.0118916575,0.7187229,0.0,0.0,0.0,0.0,0
1598320000,0,0.69519925,-0.001153881,0.011952839,0.71872306,0.0,0.0,0.0,0.0,0
1598328000,0,0.6951972,-0.0012076293,0.0119846985,0.7187244,0.0,0.0,0.0,0.0,0
1598340000,0,0.69519234,-0.0013108164,0.012020243,0.7187284,0.0,0.0,0.0,0.0,0
1598348000,0,0.695188,-0.0013782184,0.012042603,0.7187321,0.0,0.0,0.0,0.0,0
1598360000,0,0.69518054,-0.0014715721,0.012079392,0.7187385,0.0,0.0,0.0,0.0,0
1598368000,0,0.69517523,-0.0015259356,0.012101109,0.71874315,0.0,0.0,0.0,0.0,0
1598380000,0,0.69516724,-0.0015923436,0.012122166,0.7187504,0.0,0.0,0.0,0.0,0
1598388000,0,0.695162,-0.0016291337,0.012124744,0.71875536,0.0,0.0,0.0,0.0,0
1598400000,0,0.6951546,-0.0016677952,0.01212055,0.71876246,0.0,0.0,0.0,0.0,0
1598408000,0,0.69514996,-0.001686411,0.012120914,0.7187669,0.0,0.0,0.0,0.0,0
1598420000,0,0.6951432,-0.0017174524,0.01212267,0.7187733,0.0,0.0,0.0,0.0,0
1598428000,0,0.69513905,-0.0017393149,0.012123536,0.7187773,0.0,0.0,0.0,0.0,0
1598440000,0,0.6951333,-0.0017779171,0.012132984,0.7187826,0.0,0.0,0.0,0.0,0
1598448000,0,0.69513,-0.0018011697,0.012140336,0.7187856,0.0,0.0,0.0,0.0,0
1598460000,0,0.6951262,-0.0018310618,0.012138921,0.7187893,0.0,0.0,0.0,0.0,0
1598468000,0,0.69512445,-0.0018490567,0.0121251745,0.71879107,0.0,0.0,0.0,0.0,0
1598480000,0,0.6951231,-0.0018844621,0.012092942,0.7187929,0.0,0.0,0.0,0.0,0
1598488000,0,0.6951228,-0.001911331,0.012076086,0.7187934,0.0,0.0,0.0,0.0,0
1598500000,0,0.6951232,-0.0019554072,0.012067236,0.71879303,0.0,0.0,0.0,0.0,0
1598508000,0,0.695124,-0.0019896056,0.012077712,0.718792,0.0,0.0,0.0,0.0,0
1598520000,0,0.695126,-0.0020386719,0.01210795,0.7187894,0.0,0.0,0.0,0.0,0
1598528000,0,0.695128,-0.00206134,0.012130849,0.71878695,0.0,0.0,0.0,0.0,0
1598540000,0,0.69513184,-0.002076844,0.012166179,0.71878266,0.0,0.0,0.0,0.0,0
1598548000,0,0.6951348,-0.0020759557,0.012189017,0.7187794,0.0,0.0,0.0,0.0,0
1598560000,0,0.6951397,-0.0020692714,0.012219818,0.71877414,0.0,0.0,0.0,0.0,0
1598568000,0,0.69514304,-0.002067161,0.012235926,0.7187706,0.0,0.0,0.0,0.0,0
1598580000,0,0.695148,-0.0020751636,0.012252433,0.71876556,0.0,0.0,0.0,0.0,0
1598588000,0,0.69515115,-0.002089207,0.012259485,0.71876234,0.0,0.0,0.0,0.0,0
1598600000,0,0.6951555,-0.0021143714,0.012264876,0.718758,0.0,0.0,0.0,0.0,0
1598608000,0,0.69515777,-0.0021259198,0.012264486,0.7187558,0.0,0.0,0.0,0.0,0
1598620000,0,0.69515973,-0.002145623,0.012260643,0.7187539,0.0,0.0,0.0,0.0,0
1598628000,0,0.6951601,-0.0021608102,0.012254359,0.7187536,0.0,0.0,0.0,0.0,0
1598640000,0,0.6951589,-0.0021765595,0.012237044,0.718755,0.0,0.0,0.0,0.0,0
1598644000,0,0.69515806,-0.002177542,0.012230213,0.7187559,0.0,0.0,0.0,0.0,0
1598660000,0,0.69515306,-0.002161546,0.012198007,0.7187613,0.0,0.0,0.0,0.0,0
1598668000,0,0.69514966,-0.0021440415,0.012173192,0.7187651,0.0,0.0,0.0,0.0,0
1598680000,0,0.69514364,-0.0021062423,0.0121358195,0.71877164,0.0,0.0,0.0,0.0,0
1598688000,0,0.695139,-0.0020772626,0.012108576,0.7187767,0.0,0.0,0.0,0.0,0
1598700000,0,0.69513124,-0.0020385927,0.012052786,0.7187852,0.0,0.0,0.0,0.0,0
1598708000,0,0.6951257,-0.0020141087,0.012006195,0.7187914,0.0,0.0,0.0,0.0,0
1598720000,0,0.6951169,-0.001992603,0.011925793,0.7188014,0.0,0.0,0.0,0.0,0
1598728000,0,0.6951108,-0.0019937886,0.01186442,0.7188083,0.0,0.0,0.0,0.0,0
1598740000,0,0.6951016,-0.002020057,0.011757363,0.71881884,0.0,0.0,0.0,0.0,0
1598748000,0,0.6950954,-0.002050293,0.011679721,0.718826,0.0,0.0,0.0,0.0,0
1598760000,0,0.6950859,-0.0021027462,0.0115634,0.71883696,0.0,0.0,0.0,0.0,0
1598768000,0,0.6950794,-0.002134839,0.011483067,0.7188445,0.0,0.0,0.0,0.0,0
1598780000,0,0.6950695,-0.002169589,0.011361887,0.71885586,0.0,0.0,0.0,0.0,0
1598788000,0,0.69506276,-0.002179848,0.011279737,0.7188636,0.0,0.0,0.0,0.0,0
1598800000,0,0.69505256,-0.0021758212,0.011161449,0.71887535,0.0,0.0,0.0,0.0,0
1598808000,0,0.69504577,-0.0021578574,0.011088629,0.71888304,0.0,0.0,0.0,0.0,0
1598820000,0,0.6950355,-0.0021158566,0.010985665,0.7188947,0.0,0.0,0.0,0.0,0
1598824000,0,0.69503206,-0.002098786,0.0109514,0.7188986,0.0,0.0,0.0,0.0,0
1598840000,0,0.6950178,-0.002029774,0.010818148,0.71891457,0.0,0.0,0.0,0.0,0
1598848000,0,0.6950104,-0.0020009212,0.010752815,0.7189228,0.0,0.0,0.0,0.0,0
1598860000,0,0.6949991,-0.0019696506,0.010652811,0.7189353,0.0,0.0,0.0,0.0,0
1598868000,0,0.69499147,-0.0019567856,0.0105857095,0.7189437,0.0,0.0,0.0,0.0,0
1598880000,0,0.69497985,-0.0019435922,0.010482011,0.71895653,0.0,0.0,0.0,0.0,0
1598888000,0,0.69497204,-0.0019367007,0.010411937,0.7189651,0.0,0.0,0.0,0.0,0
1598900000,0,0.6949605,-0.0019265168,0.010308887,0.7189778,0.0,0.0,0.0,0.0,0
1598908000,0,0.69495296,-0.001919588,0.010239832,0.7189861,0.0,0.0,0.0,0.0,0
1598920000,0,0.6949425,-0.0019067518,0.010141701,0.7189976,0.0,0.0,0.0,0.0,0
1598928000,0,0.6949363,-0.0018955607,0.010086382,0.7190044,0.0,0.0,0.0,0.0,0
1598940000,0,0.69492835,-0.0018744632,0.010015395,0.71901315,0.0,0.0,0.0,0.0,0
1598948000,0,0.6949239,-0.0018622902,0.009973594,0.7190181,0.0,0.0,0.0,0.0,0
1598960000,0,0.6949186,-0.0018470791,0.009918144,0.719024,0.0,0.0,0.0,0.0,0
1598968000,0,0.69491607,-0.0018428427,0.00988015,0.7190269,0.0,0.0,0.0,0.0,0
1598980000,0,0.6949137,-0.0018439965,0.009817325,0.7190301,0.0,0.0,0.0,0.0,0
1598988000,0,0.69491297,-0.0018474394,0.009777775,0.71903133,0.0,0.0,0.0,0.0,0
1599000000,0,0.694913,-0.0018383289,0.009730823,0.71903193,0.0,0.0,0.0,0.0,0
1599008000,0,0.6949137,-0.0018265472,0.009709761,0.71903163,0.0,0.0,0.0,0.0,0
1599020000,0,0.6949155,-0.0018126429,0.00968781,0.7190302,0.0,0.0,0.0,0.0,0
1599028000,0,0.6949172,-0.0018062262,0.009675695,0.7190287,0.0,0.0,0.0,0.0,0
1599040000,0,0.69492054,-0.0018027805,0.009655865,0.7190258,0.0,0.0,0.0,0.0,0
1599048000,0,0.69492304,-0.0018120775,0.009638389,0.7190236,0.0,0.0,0.0,0.0,0
1599060000,0,0.6949271,-0.0018349064,0.009611852,0.71901995,0.0,0.0,0.0,0.0,0
1599068000,0,0.6949298,-0.0018508006,0.009594461,0.7190175,0.0,0.0,0.0,0.0,0
1599080000,0,0.69493365,-0.0018751543,0.00956128,0.71901417,0.0,0.0,0.0,0.0,0
1599088000,0,0.6949359,-0.0018967045,0.009530878,0.7190124,0.0,0.0,0.0,0.0,0
1599100000,0,0.6949388,-0.0019332642,0.0094766,0.71901023,0.0,0.0,0.0,0.0,0
1599108000,0,0.6949403,-0.0019529373,0.0094418945,0.7190091,0.0,0.0,0.0,0.0,0
1599120000,0,0.6949425,-0.0019648245,0.009397918,0.71900755,0.0,0.0,0.0,0.0,0
1599128000,0,0.69494426,-0.001958677,0.009377312,0.7190061,0.0,0.0,0.0,0.0,0
1599140000,0,0.69494784,-0.0019342944,0.009348388,0.71900314,0.0,0.0,0.0,0.0,0
1599148000,0,0.6949509,-0.0019106722,0.009322801,0.7190006,0.0,0.0,0.0,0.0,0
1599160000,0,0.6949561,-0.0018701226,0.00927863,0.71899617,0.0,0.0,0.0,0.0,0
1599168000,0,0.6949597,-0.0018532842,0.0092461845,0.7189932,0.0,0.0,0.0,0.0,0
1599180000,0,0.69496506,-0.0018362964,0.009197006,0.71898866,0.0,0.0,0.0,0.0,0
1599188000,0,0.6949685,-0.0018252896,0.009160951,0.7189858,0.0,0.0,0.0,0.0,0
1599200000,0,0.6949738,-0.0018125585,0.009092985,0.7189816,0.0,0.0,0.0,0.0,0
1599208000,0,0.6949776,-0.0018011944,0.009036346,0.7189787,0.0,0.0,0.0,0.0,0
1599220000,0,0.6949835,-0.0017863339,0.008937715,0.71897423,0.0,0.0,0.0,0.0,0
1599228000,0,0.6949878,-0.0017775734,0.00886495,0.7189711,0.0,0.0,0.0,0.0,0
1599240000,0,0.69499475,-0.0017680861,0.008754038,0.7189657,0.0,0.0,0.0,0.0,0
1599248000,0,0.6949999,-0.001762588,0.008685341,0.7189616,0.0,0.0,0.0,0.0,0
1599260000,0,0.6950081,-0.0017534257,0.008594877,0.7189547,0.0,0.0,0.0,0.0,0
1599268000,0,0.6950139,-0.0017442043,0.008539539,0.7189498,0.0,0.0,0.0,0.0,0
1599280000,0,0.6950228,-0.0017334956,0.008457222,0.71894217,0.0,0.0,0.0,0.0,0
1599288000,0,0.69502896,-0.001728717,0.008404064,0.71893686,0.0,0.0,0.0,0.0,0
1599300000,0,0.69503844,-0.001728173,0.008323487,0.71892864,0.0,0.0,0.0,0.0,0
1599308000,0,0.69504493,-0.0017321783,0.008266432,0.71892303,0.0,0.0,0.0,0.0,0
1599320000,0,0.6950547,-0.0017431629,0.008174492,0.71891457,0.0,0.0,0.0,0.0,0
1599328000,0,0.69506115,-0.0017538412,0.008111139,0.718909,0.0,0.0,0.0,0.0,0
1599340000,0,0.69507027,-0.0017808147,0.008017857,0.7189012,0.0,0.0,0.0,0.0,0
1599348000,0,0.6950759,-0.0017999011,0.007953028,0.7188964,0.0,0.0,0.0,0.0,0
1599360000,0,0.6950838,-0.0018285768,0.007862901,0.7188898,0.0,0.0,0.0,0.0,0
1599368000,0,0.69508845,-0.0018578935,0.0078076674,0.7188858,0.0,0.0,0.0,0.0,0
1599380000,0,0.6950946,-0.0019162358,0.007724245,0.71888053,0.0,0.0,0.0,0.0,0
1599388000,0,0.69509834,-0.0019582887,0.0076647177,0.7188775,0.0,0.0,0.0,0.0,0
1599400000,0,0.6951033,-0.0020113161,0.007570148,0.71887356,0.0,0.0,0.0,0.0,0
1599408000,0,0.6951061,-0.0020313668,0.007510331,0.71887136,0.0,0.0,0.0,0.0,0
1599420000,0,0.69510967,-0.0020438726,0.007418332,0.71886885,0.0,0.0,0.0,0.0,0
1599428000,0,0.6951115,-0.0020460929,0.0073525645,0.7188677,0.0,0.0,0.0,0.0,0
1599440000,0,0.69511354,-0.0020464105,0.0072547244,0.71886677,0.0,0.0,0.0,0.0,0
1599448000,0,0.69511443,-0.002050337,0.0071949083,0.7188665,0.0,0.0,0.0,0.0,0
1599460000,0,0.69511515,-0.0020585523,0.0071055936,0.7188667,0.0,0.0,0.0,0.0,0
1599468000,0,0.69511527,-0.0020605342,0.007038918,0.71886724,0.0,0.0,0.0,0.0,0
1599480000,0,0.69511473,-0.0020647277,0.006931355,0.7188688,0.0,0.0,0.0,0.0,0
1599488000,0,0.6951138,-0.0020724572,0.0068600653,0.71887034,0.0,0.0,0.0,0.0,0
1599500000,0,0.6951114,-0.0020801232,0.0067522884,0.7188736,0.0,0.0,0.0,0.0,0
1599508000,0,0.69510925,-0.0020807383,0.0066762287,0.7188764,0.0,0.0,0.0,0.0,0
1599520000,0,0.6951052,-0.0020788873,0.0065593743,0.7188814,0.0,0.0,0.0,0.0,0
1599528000,0,0.69510186,-0.002070227,0.0064820093,0.71888536,0.0,0.0,0.0,0.0,0
1599540000,0,0.69509614,-0.0020443574,0.006361796,0.7188921,0.0,0.0,0.0,0.0,0
1599548000,0,0.6950918,-0.0020193055,0.006280958,0.71889704,0.0,0.0,0.0,0.0,0
1599560000,0,0.6950845,-0.0019702776,0.0061612874,0.71890527,0.0,0.0,0.0,0.0,0
1599568000,0,0.6950792,-0.0019264942,0.006083065,0.7189112,0.0,0.0,0.0,0.0,0
1599580000,0,0.6950704,-0.0018490177,0.0059612053,0.7189209,0.0,0.0,0.0,0.0,0
1599588000,0,0.69506425,-0.0017967444,0.0058754855,0.71892774,0.0,0.0,0.0,0.0,0
1599600000,0,0.6950547,-0.00171695,0.0057469406,0.7189381,0.0,0.0,0.0,0.0,0
1599608000,0,0.69504833,-0.0016664393,0.005662274,0.71894515,0.0,0.0,0.0,0.0,0
1599620000,0,0.6950387,-0.0016026476,0.0055258987,0.71895564,0.0,0.0,0.0,0.0,0
1599628000,0,0.69503254,-0.0015663852,0.005425869,0.71896243,0.0,0.0,0.0,0.0,0
1599640000,0,0.6950237,-0.0015194817,0.0052641346,0.71897227,0.0,0.0,0.0,0.0,0
1599648000,0,0.6950181,-0.0014943036,0.005153455,0.7189785,0.0,0.0,0.0,0.0,0
1599660000,0,0.6950103,-0.0014604222,0.004984068,0.71898735,0.0,0.0,0.0,0.0,0
1599668000,0,0.6950054,-0.0014385703,0.0048719184,0.7189929,0.0,0.0,0.0,0.0,0
1599680000,0,0.69499815,-0.0014023626,0.0047083297,0.71900105,0.0,0.0,0.0,0.0,0
1599688000,0,0.6949933,-0.0013778823,0.0046047647,0.7190064,0.0,0.0,0.0,0.0,0
1599700000,0,0.69498616,-0.001339324,0.0044608065,0.71901435,0.0,0.0,0.0,0.0,0
1599708000,0,0.6949813,-0.0013131157,0.0043723877,0.71901965,0.0,0.0,0.0,0.0,0
1599720000,0,0.69497347,-0.0012627022,0.004252993,0.719028,0.0,0.0,0.0,0.0,0
1599728000,0,0.6949678,-0.00122254,0.0041846097,0.71903396,0.0,0.0,0.0,0.0,0
1599740000,0,0.69495827,-0.001160459,0.004088966,0.7190438,0.0,0.0,0.0,0.0,0
