timestamp,data_rate,rate_multiplier,tx_rate_avg,tx_error_rate_avg,tx_message_count,tx_buffer_overruns,rx_rate_avg,rx_message_count,rx_message_lost_count,rx_buffer_overruns,rx_parse_errors,rx_packet_drop_count,rx_message_lost_rate,type,mode,flow_control,forwarding,mavlink_v2,ftp,streams,heartbeat_type_antenna_tracker,heartbeat_type_gcs,heartbeat_type_onboard_controller,heartbeat_type_gimbal,heartbeat_type_adsb,heartbeat_type_camera,heartbeat_type_parachute,heartbeat_type_open_drone_id,heartbeat_component_telemetry_radio,heartbeat_component_log,heartbeat_component_osd,heartbeat_component_vio,heartbeat_component_pairing_manager,heartbeat_component_udp_bridge,heartbeat_component_uart_bridge,open_drone_id_system_healthy,parachute_system_healthy
1593016000,4000.0,0.1386454,3761.9524,0.0,99562,0,0.0,0,0,0,0,0,0.0,0,2,0,1,1,1,61,0,0,0,0,0,0,0,0,0,0,0,0,0,0,0,0,0
1594016000,4000.0,0.1386454,3756.9722,0.0,99622,0,0.0,0,0,0,0,0,0.0,0,2,0,1,1,1,61,0,0,0,0,0,0,0,0,0,0,0,0,0,0,0,0,0
1594268000,4000.0,0.1386454,4084.6614,0.0,99642,0,0.0,0,0,0,0,0,0.0,0,2,0,1,1,1,61,0,0,0,0,0,0,0,0,0,0,0,0,0,0,0,0,0
1595528000,4000.0,0.1386454,3592.6296,0.0,99720,0,0.0,0,0,0,0,0,0.0,0,2,0,1,1,1,61,0,0,0,0,0,0,0,0,0,0,0,0,0,0,0,0,0
1596780000,4000.0,0.1386454,3422.3108,0.0,99799,0,0.0,0,0,0,0,0,0.0,0,2,0,1,1,1,61,0,0,0,0,0,0,0,0,0,0,0,0,0,0,0,0,0
1598032000,4000.0,0.1386454,3915.3389,0.0,99885,0,0.0,0,0,0,0,0,0.0,0,2,0,1,1,1,61,0,0,0,0,0,0,0,0,0,0,0,0,0,0,0,0,0
1599032000,4000.0,0.1386454,3810.757,0.0,99943,0,0.0,0,0,0,0,0,0.0,0,2,0,1,1,1,61,0,0,0,0,0,0,0,0,0,0,0,0,0,0,0,0,0
1599284000,4000.0,0.1386454,3721.1157,0.0,99966,0,0.0,0,0,0,0,0,0.0,0,2,0,1,1,1,61,0,0,0,0,0,0,0,0,0,0,0,0,0,0,0,0,0
1600536000,4000.0,0.1386454,3899.4026,0.0,100034,0,0.0,0,0,0,0,0,0.0,0,2,0,1,1,1,61,0,0,0,0,0,0,0,0,0,0,0,0,0,0,0,0,0
1601788000,4000.0,0.1386454,3592.6296,0.0,100118,0,0.0,0,0,0,0,0,0.0,0,2,0,1,1,1,61,0,0,0,0,0,0,0,0,0,0,0,0,0,0,0,0,0
1603044000,4000.0,0.1386454,3873.506,0.0,100199,0,0.0,0,0,0,0,0,0.0,0,2,0,1,1,1,61,0,0,0,0,0,0,0,0,0,0,0,0,0,0,0,0,0
1604044000,4000.0,0.1386454,3526.8926,0.0,100260,0,0.0,0,0,0,0,0,0.0,0,2,0,1,1,1,61,0,0,0,0,0,0,0,0,0,0,0,0,0,0,0,0,0
1604296000,4000.0,0.1386454,3719.1235,0.0,100280,0,0.0,0,0,0,0,0,0.0,0,2,0,1,1,1,61,0,0,0,0,0,0,0,0,0,0,0,0,0,0,0,0,0
1605548000,4000.0,0.1386454,4412.3506,0.0,100363,0,0.0,0,0,0,0,0,0.0,0,2,0,1,1,1,61,0,0,0,0,0,0,0,0,0,0,0,0,0,0,0,0,0
1606800000,4000.0,0.1386454,3472.1116,0.0,100445,0,0.0,0,0,0,0,0,0.0,0,2,0,1,1,1,61,0,0,0,0,0,0,0,0,0,0,0,0,0,0,0,0,0
1608060000,4000.0,0.1386454,3875.498,0.0,100525,0,0.0,0,0,0,0,0,0.0,0,2,0,1,1,1,61,0,0,0,0,0,0,0,0,0,0,0,0,0,0,0,0,0
1609060000,4000.0,0.1386454,3550.7969,0.0,100586,0,0.0,0,0,0,0,0,0.0,0,2,0,1,1,1,61,0,0,0,0,0,0,0,0,0,0,0,0,0,0,0,0,0
1609316000,4000.0,0.1386454,3464.1436,0.0,100606,0,0.0,0,0,0,0,0,0.0,0,2,0,1,1,1,61,0,0,0,0,0,0,0,0,0,0,0,0,0,0,0,0,0
1610572000,4000.0,0.1386454,3786.8528,0.0,100675,0,0.0,0,0,0,0,0,0.0,0,2,0,1,1,1,61,0,0,0,0,0,0,0,0,0,0,0,0,0,0,0,0,0
1611824000,4000.0,0.1386454,3848.6057,0.0,100760,0,0.0,0,0,0,0,0,0.0,0,2,0,1,1,1,61,0,0,0,0,0,0,0,0,0,0,0,0,0,0,0,0,0
1613076000,4000.0,0.1386454,4133.4663,0.0,100845,0,0.0,0,0,0,0,0,0.0,0,2,0,1,1,1,61,0,0,0,0,0,0,0,0,0,0,0,0,0,0,0,0,0
1614076000,4000.0,0.1386454,3526.8926,0.0,100906,0,0.0,0,0,0,0,0,0.0,0,2,0,1,1,1,61,0,0,0,0,0,0,0,0,0,0,0,0,0,0,0,0,0
1614332000,4000.0,0.1386454,3488.0479,0.0,100927,0,0.0,0,0,0,0,0,0.0,0,2,0,1,1,1,61,0,0,0,0,0,0,0,0,0,0,0,0,0,0,0,0,0
1615588000,4000.0,0.1386454,3915.3389,0.0,101000,0,0.0,0,0,0,0,0,0.0,0,2,0,1,1,1,61,0,0,0,0,0,0,0,0,0,0,0,0,0,0,0,0,0
1616848000,4000.0,0.1386454,3472.1116,0.0,101083,0,0.0,0,0,0,0,0,0.0,0,2,0,1,1,1,61,0,0,0,0,0,0,0,0,0,0,0,0,0,0,0,0,0
1618108000,4000.0,0.1386454,4211.1553,0.0,101162,0,0.0,0,0,0,0,0,0.0,0,2,0,1,1,1,61,0,0,0,0,0,0,0,0,0,0,0,0,0,0,0,0,0
1619108000,4000.0,0.1386454,3537.8486,0.0,101221,0,0.0,0,0,0,0,0,0.0,0,2,0,1,1,1,61,0,0,0,0,0,0,0,0,0,0,0,0,0,0,0,0,0
1619368000,4000.0,0.1386454,3464.1436,0.0,101254,0,0.0,0,0,0,0,0,0.0,0,2,0,1,1,1,61,0,0,0,0,0,0,0,0,0,0,0,0,0,0,0,0,0
1620620000,4000.0,0.1386454,4235.06,0.0,101326,0,0.0,0,0,0,0,0,0.0,0,2,0,1,1,1,61,0,0,0,0,0,0,0,0,0,0,0,0,0,0,0,0,0
1621872000,4000.0,0.1386454,3592.6296,0.0,101408,0,0.0,0,0,0,0,0,0.0,0,2,0,1,1,1,61,0,0,0,0,0,0,0,0,0,0,0,0,0,0,0,0,0
1623124000,4000.0,0.1386454,4143.4263,0.0,101487,0,0.0,0,0,0,0,0,0.0,0,2,0,1,1,1,61,0,0,0,0,0,0,0,0,0,0,0,0,0,0,0,0,0
1624124000,4000.0,0.1386454,3477.0918,0.0,101547,0,0.0,0,0,0,0,0,0.0,0,2,0,1,1,1,61,0,0,0,0,0,0,0,0,0,0,0,0,0,0,0,0,0
1624384000,4000.0,0.1386454,3592.6296,0.0,101565,0,0.0,0,0,0,0,0,0.0,0,2,0,1,1,1,61,0,0,0,0,0,0,0,0,0,0,0,0,0,0,0,0,0
1625640000,4000.0,0.1386454,3860.5579,0.0,101642,0,0.0,0,0,0,0,0,0.0,0,2,0,1,1,1,61,0,0,0,0,0,0,0,0,0,0,0,0,0,0,0,0,0
1626896000,4000.0,0.1386454,3539.8408,0.0,101732,0,0.0,0,0,0,0,0,0.0,0,2,0,1,1,1,61,0,0,0,0,0,0,0,0,0,0,0,0,0,0,0,0,0
1628152000,4000.0,0.1386454,3992.032,0.0,101810,0,0.0,0,0,0,0,0,0.0,0,2,0,1,1,1,61,0,0,0,0,0,0,0,0,0,0,0,0,0,0,0,0,0
1629152000,4000.0,0.1386454,3954.1833,0.0,101870,0,0.0,0,0,0,0,0,0.0,0,2,0,1,1,1,61,0,0,0,0,0,0,0,0,0,0,0,0,0,0,0,0,0
1629412000,4000.0,0.1386454,3485.0598,0.0,101887,0,0.0,0,0,0,0,0,0.0,0,2,0,1,1,1,61,0,0,0,0,0,0,0,0,0,0,0,0,0,0,0,0,0
1630668000,4000.0,0.1386454,3915.3389,0.0,101963,0,0.0,0,0,0,0,0,0.0,0,2,0,1,1,1,61,0,0,0,0,0,0,0,0,0,0,0,0,0,0,0,0,0
1631920000,4000.0,0.1386454,3537.8486,0.0,102044,0,0.0,0,0,0,0,0,0.0,0,2,0,1,1,1,61,0,0,0,0,0,0,0,0,0,0,0,0,0,0,0,0,0
1633176000,4000.0,0.1386454,3681.275,0.0,102126,0,0.0,0,0,0,0,0,0.0,0,2,0,1,1,1,61,0,0,0,0,0,0,0,0,0,0,0,0,0,0,0,0,0
1634176000,4000.0,0.1386454,3616.534,0.0,102197,0,0.0,0,0,0,0,0,0.0,0,2,0,1,1,1,61,0,0,0,0,0,0,0,0,0,0,0,0,0,0,0,0,0
1634428000,4000.0,0.1386454,4320.7173,0.0,102207,0,0.0,0,0,0,0,0,0.0,0,2,0,1,1,1,61,0,0,0,0,0,0,0,0,0,0,0,0,0,0,0,0,0
1635688000,4000.0,0.1386454,3799.801,0.0,102289,0,0.0,0,0,0,0,0,0.0,0,2,0,1,1,1,61,0,0,0,0,0,0,0,0,0,0,0,0,0,0,0,0,0
1636944000,4000.0,0.1386454,3487.052,0.0,102371,0,0.0,0,0,0,0,0,0.0,0,2,0,1,1,1,61,0,0,0,0,0,0,0,0,0,0,0,0,0,0,0,0,0
1637944000,4000.0,0.1386454,3475.0996,0.0,102430,0,0.0,0,0,0,0,0,0.0,0,2,0,1,1,1,61,0,0,0,0,0,0,0,0,0,0,0,0,0,0,0,0,0
1638200000,4000.0,0.1386454,3475.0996,0.0,102453,0,0.0,0,0,0,0,0,0.0,0,2,0,1,1,1,61,0,0,0,0,0,0,0,0,0,0,0,0,0,0,0,0,0
1639452000,4000.0,0.1386454,3600.5977,0.0,102525,0,0.0,0,0,0,0,0,0.0,0,2,0,1,1,1,61,0,0,0,0,0,0,0,0,0,0,0,0,0,0,0,0,0
1640708000,4000.0,0.1386454,4287.8486,0.0,102607,0,0.0,0,0,0,0,0,0.0,0,2,0,1,1,1,61,0,0,0,0,0,0,0,0,0,0,0,0,0,0,0,0,0
1641968000,4000.0,0.1386454,3868.5261,0.0,102700,0,0.0,0,0,0,0,0,0.0,0,2,0,1,1,1,61,0,0,0,0,0,0,0,0,0,0,0,0,0,0,0,0,0
1642968000,4000.0,0.1386454,3464.1436,0.0,102759,0,0.0,0,0,0,0,0,0.0,0,2,0,1,1,1,61,0,0,0,0,0,0,0,0,0,0,0,0,0,0,0,0,0
1643220000,4000.0,0.1386454,3464.1436,0.0,102779,0,0.0,0,0,0,0,0,0.0,0,2,0,1,1,1,61,0,0,0,0,0,0,0,0,0,0,0,0,0,0,0,0,0
1644476000,4000.0,0.1386454,3605.578,0.0,102851,0,0.0,0,0,0,0,0,0.0,0,2,0,1,1,1,61,0,0,0,0,0,0,0,0,0,0,0,0,0,0,0,0,0
1645736000,4000.0,0.1386454,4080.6775,0.0,102935,0,0.0,0,0,0,0,0,0.0,0,2,0,1,1,1,61,0,0,0,0,0,0,0,0,0,0,0,0,0,0,0,0,0
1646996000,4000.0,0.1386454,3524.9004,0.0,103016,0,0.0,0,0,0,0,0,0.0,0,2,0,1,1,1,61,0,0,0,0,0,0,0,0,0,0,0,0,0,0,0,0,0
