timestamp,timestamp_sample,states[0],states[1],states[2],states[3],states[4],states[5],states[6],states[7],states[8],states[9],states[10],states[11],states[12],states[13],states[14],states[15],states[16],states[17],states[18],states[19],states[20],states[21],states[22],states[23],states[24],covariances[0],covariances[1],covariances[2],covariances[3],covariances[4],covariances[5],covariances[6],covariances[7],covariances[8],covariances[9],covariances[10],covariances[11],covariances[12],covariances[13],covariances[14],covariances[15],covariances[16],covariances[17],covariances[18],covariances[19],covariances[20],covariances[21],covariances[22],covariances[23],n_states
1592244000,1592088000,0.7081668,0.0005373279,0.0013926432,0.7060436,-0.044070628,0.0040882225,-0.012251094,0.0,0.0,-488.1567,-0.00023099892,-0.000118735974,0.00018241732,0.006372134,-0.0031001805,0.0024800748,0.21520229,0.012830192,0.42494673,-0.01151204,-0.0010100335,0.0042608664,0.0,0.0,-488.0567,4.2754677e-05,4.25135e-05,0.0070065693,0.013832289,0.014003175,0.005139753,0.11192886,0.112314925,0.082625546,1.5742462e-07,1.5785173e-07,2.9291039e-07,0.0027910247,0.0027876806,8.760972e-06,0.0006978255,6.119035e-06,0.00080264854,0.0003198642,0.0006965447,0.00080107636,1.0,1.0,0.010000001,25
1592252000,1592096000,0.7081826,0.00054501934,0.0014013043,0.70602775,-0.045002915,0.0044897757,-0.012355432,0.0,0.0,-488.1568,-0.00023099892,-0.000118735974,0.00018241732,0.006372134,-0.0031001805,0.0024800748,0.21520229,0.012830192,0.42494673,-0.01151204,-0.0010100335,0.0042608664,0.0,0.0,-488.0568,4.2780764e-05,4.253943e-05,0.007006664,0.0138893165,0.014061427,0.005148284,0.112332314,0.11272228,0.082850315,1.5748863e-07,1.5791574e-07,2.929744e-07,0.0027910252,0.002787681,8.761548e-06,0.00069782557,6.119099e-06,0.0008026486,0.0003198642,0.0006965447,0.00080107636,1.0,1.0,0.010000001,25
1592260000,1592104000,0.7081901,0.00054332335,0.0014178831,0.70602024,-0.045144953,0.004362335,-0.012351148,0.0,0.0,-488.1569,-0.00023099892,-0.000118735974,0.00018241732,0.006372134,-0.0031001805,0.0024800748,0.21520229,0.012830192,0.42494673,-0.01151204,-0.0010100335,0.0042608664,0.0,0.0,-488.0569,4.2806874e-05,4.2565378e-05,0.0070067584,0.013946507,0.014119479,0.005156814,0.11273798,0.11313187,0.083075754,1.5755263e-07,1.5797974e-07,2.930384e-07,0.0027910257,0.0027876815,8.762124e-06,0.0006978256,6.119163e-06,0.00080264866,0.0003198642,0.0006965447,0.00080107636,1.0,1.0,0.010000001,25
1592268000,1592112000,0.7081822,0.00056500244,0.0014298946,0.70602816,-0.04545708,0.0043630837,-0.01284454,0.0,0.0,-488.15698,-0.00023099892,-0.000118735974,0.00018241732,0.006372134,-0.0031001805,0.0024800748,0.21520229,0.012830192,0.42494673,-0.01151204,-0.0010100335,0.0042608664,0.0,0.0,-488.05698,4.283301e-05,4.2591357e-05,0.0070068548,0.014004189,0.014178108,0.0051653455,0.11314587,0.11354372,0.08330187,1.5761664e-07,1.5804375e-07,2.931024e-07,0.0027910261,0.002787682,8.7626995e-06,0.0006978257,6.1192272e-06,0.0008026487,0.0003198642,0.0006965447,0.00080107636,1.0,1.0,0.010000001,25
1592276000,1592120000,0.70817465,0.0005670731,0.0014268709,0.7060357,-0.045606896,0.0048055407,-0.013056412,0.0,0.0,-488.15707,-0.00023099892,-0.000118735974,0.00018241732,0.006372134,-0.0031001805,0.0024800748,0.21520229,0.012830192,0.42494673,-0.01151204,-0.0010100335,0.0042608664,0.0,0.0,-488.05707,4.2859177e-05,4.2617372e-05,0.007006953,0.014061844,0.014236683,0.005173878,0.113556005,0.11395784,0.08352867,1.5768065e-07,1.5810775e-07,2.931664e-07,0.0027910266,0.0027876825,8.763275e-06,0.00069782574,6.1192914e-06,0.0008026488,0.0003198642,0.0006965447,0.00080107636,1.0,1.0,0.010000001,25
1592284000,1592128000,0.70819676,0.0005356391,0.0014732606,0.7060135,-0.045598987,0.0042819064,-0.012217022,0.0,0.0,-488.15704,-0.00023099895,-0.00011873596,0.00018241732,0.00637213,-0.0031001768,0.0024799036,0.21520229,0.012830192,0.42494673,-0.01151204,-0.0010100337,0.0042608664,0.0,0.0,-488.05704,4.2885345e-05,4.2643383e-05,0.0070070475,0.014119112,0.014294716,0.005166132,0.11396838,0.114374235,0.08319286,1.5774465e-07,1.5817176e-07,2.932304e-07,0.002791027,0.002787683,8.7627695e-06,0.0006978258,6.1193555e-06,0.00080264884,0.0003198642,0.0006965447,0.00080107636,1.0,1.0,0.010000001,25
1592300000,1592144000,0.70822144,0.00050703844,0.0015369719,0.7059886,-0.04649602,0.0036493356,-0.012378506,0.0,0.0,-488.15723,-0.00023099895,-0.00011873596,0.00018241732,0.00637213,-0.0031001768,0.0024799036,0.21520229,0.012830192,0.42494673,-0.01151204,-0.0010100337,0.0042608664,0.0,0.0,-488.05722,4.293776e-05,4.269548e-05,0.0070072403,0.014235326,0.014412895,0.0051831994,0.114799894,0.11521388,0.08364677,1.5787266e-07,1.5829977e-07,2.9335843e-07,0.002791028,0.0027876839,8.763921e-06,0.0006978259,6.1194837e-06,0.00080264895,0.0003198642,0.0006965447,0.00080107636,1.0,1.0,0.010000001,25
1592308000,1592152000,0.70823,0.00047745,0.0015415425,0.70597994,-0.046942953,0.0033391137,-0.012296461,0.0,0.0,-488.15732,-0.00023099895,-0.00011873596,0.00018241732,0.00637213,-0.0031001768,0.0024799036,0.21520229,0.012830192,0.42494673,-0.01151204,-0.0010100337,0.0042608664,0.0,0.0,-488.0573,4.2964e-05,4.272156e-05,0.0070073367,0.014293614,0.01447217,0.0051917345,0.115219064,0.11563716,0.08387473,1.5793667e-07,1.5836378e-07,2.9342243e-07,0.0027910285,0.0027876843,8.764497e-06,0.000697826,6.119548e-06,0.000802649,0.0003198642,0.0006965447,0.00080107636,1.0,1.0,0.010000001,25
1592316000,1592160000,0.70826334,0.00051281083,0.001566608,0.7059465,-0.04726989,0.003320898,-0.012315654,0.0,0.0,-488.1574,-0.0002309741,-0.00011862642,0.00018281656,0.006372192,-0.0031002336,0.0024799036,0.21520418,0.012830322,0.42494625,-0.011512059,-0.0010084813,0.0042618224,0.0,0.0,-488.0574,4.2980377e-05,4.2731004e-05,0.007006778,0.014343203,0.014526794,0.0052002706,0.11562923,0.116058104,0.08410338,1.5795355e-07,1.5839815e-07,2.9308077e-07,0.002791029,0.0027876848,8.765072e-06,0.0006978225,6.119022e-06,0.0008026461,0.000319864,0.0006965416,0.0008010739,1.0,1.0,0.010000001,25
1592324000,1592168000,0.70825505,0.0005280708,0.0015661985,0.7059548,-0.04812296,0.003088576,-0.01291725,0.0,0.0,-488.1575,-0.0002309741,-0.00011862642,0.00018281656,0.006372192,-0.0031002336,0.0024799036,0.21520418,0.012830322,0.42494625,-0.011512059,-0.0010084813,0.0042618224,0.0,0.0,-488.0575,4.3006647e-05,4.2757107e-05,0.0070068743,0.014402246,0.014587046,0.0052088094,0.11605282,0.11648596,0.08433271,1.5801756e-07,1.5846216e-07,2.9314478e-07,0.0027910294,0.0027876853,8.765648e-06,0.00069782254,6.1190863e-06,0.00080264616,0.000319864,0.0006965416,0.0008010739,1.0,1.0,0.010000001,25
1592340000,1592184000,0.7082376,0.00045430398,0.0015885246,0.70597225,-0.04825531,0.0028937545,-0.012655392,0.0,0.0,-488.15768,-0.0002309741,-0.00011862642,0.00018281656,0.006372192,-0.0031002336,0.0024799036,0.21520418,0.012830322,0.42494625,-0.011512059,-0.0010084813,0.0042618224,0.0,0.0,-488.05768,4.305924e-05,4.280937e-05,0.007007065,0.014519922,0.0147064775,0.0052258857,0.11690694,0.117348716,0.08479341,1.5814557e-07,1.5859017e-07,2.932728e-07,0.0027910303,0.0027876862,8.7667995e-06,0.00069782266,6.1192145e-06,0.0008026463,0.000319864,0.0006965416,0.0008010739,1.0,1.0,0.010000001,25
1592348000,1592192000,0.7082376,0.00043977326,0.0015764941,0.7059723,-0.047822077,0.002327177,-0.012388691,0.0,0.0,-488.15778,-0.0002309741,-0.00011862642,0.00018281656,0.006372192,-0.0031002336,0.0024799036,0.21520418,0.012830322,0.42494625,-0.011512059,-0.0010084813,0.0042618224,0.0,0.0,-488.05777,4.308556e-05,4.283553e-05,0.0070071598,0.014579013,0.0147661725,0.005234424,0.11733749,0.11778363,0.08502479,1.5820957e-07,1.5865417e-07,2.933368e-07,0.0027910308,0.0027876867,8.767375e-06,0.0006978227,6.1192786e-06,0.00080264633,0.000319864,0.0006965416,0.0008010739,1.0,1.0,0.010000001,25
1592356000,1592200000,0.70823795,0.0004138815,0.001525314,0.705972,-0.048411302,0.00173702,-0.011841831,0.0,0.0,-488.15744,-0.00023097421,-0.00011862636,0.00018281654,0.0063721775,-0.003100219,0.0024793225,0.21520418,0.012830322,0.42494625,-0.011512059,-0.0010084816,0.0042618224,0.0,0.0,-488.05743,4.311191e-05,4.2861717e-05,0.007007256,0.014638165,0.014826371,0.005226027,0.117770374,0.11822092,0.084673285,1.5827358e-07,1.5871818e-07,2.934008e-07,0.0027910313,0.0027876871,8.766826e-06,0.0006978228,6.1193427e-06,0.0008026464,0.000319864,0.0006965416,0.0008010739,1.0,1.0,0.010000001,25
1592364000,1592208000,0.70821846,0.00043290114,0.0015060625,0.7059916,-0.048068255,0.0011751096,-0.011900432,0.0,0.0,-488.15753,-0.00023097421,-0.00011862636,0.00018281654,0.0063721775,-0.003100219,0.0024793225,0.21520418,0.012830322,0.42494625,-0.011512059,-0.0010084816,0.0042618224,0.0,0.0,-488.05753,4.3138276e-05,4.2887914e-05,0.0070073507,0.01469786,0.014886706,0.005234566,0.11820561,0.118660584,0.08490444,1.5833758e-07,1.5878219e-07,2.934648e-07,0.0027910317,0.0027876876,8.767402e-06,0.00069782283,6.119407e-06,0.00080264645,0.000319864,0.0006965416,0.0008010739,1.0,1.0,0.010000001,25
1592380000,1592224000,0.70828545,0.00044960887,0.001460884,0.7059245,-0.048149213,0.00073913636,-0.011188231,0.0,0.0,-488.1577,-0.00023097421,-0.00011862636,0.00018281654,0.0063721775,-0.003100219,0.0024793225,0.21520418,0.012830322,0.42494625,-0.011512059,-0.0010084816,0.0042618224,0.0,0.0,-488.0577,4.3191074e-05,4.294038e-05,0.0070075416,0.014817185,0.015007739,0.0052516493,0.119083166,0.11954713,0.085368805,1.584656e-07,1.589102e-07,2.9359282e-07,0.0027910327,0.0027876885,8.768553e-06,0.00069782295,6.119535e-06,0.00080264657,0.000319864,0.0006965416,0.0008010739,1.0,1.0,0.010000001,25
1592388000,1592232000,0.7082443,0.00050140324,0.0014975243,0.7059657,-0.048078176,0.0011311347,-0.01084524,0.0,0.0,-488.1578,-0.00023044566,-0.000118794764,0.00018207893,0.006372101,-0.003100532,0.0024793223,0.2152016,0.012830142,0.42494276,-0.011511856,-0.0010122174,0.0042639677,0.0,0.0,-488.0578,4.320733e-05,4.2949465e-05,0.0070069814,0.014867525,0.015063429,0.005260193,0.119512685,0.11998865,0.085602015,1.5848113e-07,1.5894379e-07,2.9325133e-07,0.0027910331,0.002787689,8.769129e-06,0.0006978196,6.11901e-06,0.0008026439,0.0003198638,0.00069653866,0.00080107164,1.0,1.0,0.010000001,25
1592396000,1592240000,0.7082189,0.00044465665,0.001477166,0.70599127,-0.040588785,0.00069767097,-0.008835879,0.0,0.0,-488.15146,-0.00022298007,-0.000118854696,0.00018216827,0.006373344,-0.0030973214,0.0024657922,0.21520033,0.012830129,0.42494482,-0.011503659,-0.0010111245,0.0042628683,0.0,0.0,-488.05145,4.2045827e-05,4.182421e-05,0.0070065777,0.012290086,0.012425658,0.004947427,0.10116577,0.10143879,0.078174695,1.5591097e-07,1.5629118e-07,2.932038e-07,0.002791033,0.002787689,8.747902e-06,0.0006978192,6.11906e-06,0.0008026438,0.00031980666,0.0006965375,0.0008010716,1.0,1.0,0.010000001,25
1592404000,1592248000,0.70820564,0.00042002866,0.0015076797,0.7060045,-0.04022463,0.0007564015,-0.009182692,0.0,0.0,-488.15152,-0.00022298007,-0.000118854696,0.00018216827,0.006373344,-0.0030973214,0.0024657922,0.21520033,0.012830129,0.42494482,-0.011503659,-0.0010111245,0.0042628683,0.0,0.0,-488.0515,4.2071377e-05,4.1849613e-05,0.007006672,0.012342227,0.012478337,0.0049559292,0.10151042,0.10178631,0.07838547,1.5597497e-07,1.5635518e-07,2.9326782e-07,0.0027910334,0.0027876894,8.748478e-06,0.0006978193,6.119124e-06,0.00080264383,0.00031980666,0.0006965375,0.0008010716,1.0,1.0,0.010000001,25
1592420000,1592264000,0.70824736,0.000411544,0.0014816839,0.7059627,-0.040068313,0.000711972,-0.008902453,0.0,0.0,-488.15164,-0.00022298007,-0.000118854696,0.00018216827,0.006373344,-0.0030973214,0.0024657922,0.21520033,0.012830129,0.42494482,-0.011503659,-0.0010111245,0.0042628683,0.0,0.0,-488.05164,4.212253e-05,4.1900486e-05,0.0070068613,0.01244651,0.012583886,0.0049729384,0.1022055,0.102487214,0.07880897,1.5610298e-07,1.564832e-07,2.9339583e-07,0.0027910343,0.0027876904,8.749629e-06,0.0006978194,6.1192522e-06,0.00080264395,0.00031980666,0.0006965375,0.0008010716,1.0,1.0,0.010000001,25
1592428000,1592272000,0.70819926,0.00042948243,0.0014703048,0.706011,-0.04018734,0.0002577429,-0.007868761,0.0,0.0,-488.15155,-0.00022298012,-0.000118854674,0.00018216827,0.0063733384,-0.0030973156,0.0024655636,0.21520033,0.012830129,0.42494482,-0.011503659,-0.0010111246,0.0042628683,0.0,0.0,-488.05154,4.2148145e-05,4.192596e-05,0.0070069577,0.01249848,0.012636499,0.0049672024,0.10255595,0.102840625,0.07852011,1.5616699e-07,1.565472e-07,2.9345983e-07,0.0027910348,0.0027876908,8.74926e-06,0.00069781946,6.1193164e-06,0.000802644,0.00031980666,0.0006965375,0.0008010716,1.0,1.0,0.010000001,25
1592436000,1592280000,0.7081827,0.000420272,0.0014815836,0.7060276,-0.040769793,-0.00021484941,-0.008159533,0.0,0.0,-488.1516,-0.00022298012,-0.000118854674,0.00018216827,0.0063733384,-0.0030973156,0.0024655636,0.21520033,0.012830129,0.42494482,-0.011503659,-0.0010111246,0.0042628683,0.0,0.0,-488.0516,4.2173775e-05,4.1951444e-05,0.007007052,0.01255137,0.012690206,0.0049757096,0.10290836,0.10319601,0.07873213,1.56231e-07,1.5661121e-07,2.9352384e-07,0.0027910352,0.0027876913,8.749836e-06,0.0006978195,6.1193805e-06,0.00080264406,0.00031980666,0.0006965375,0.0008010716,1.0,1.0,0.010000001,25
1592444000,1592288000,0.7082146,0.00045734656,0.0014939922,0.7059955,-0.040675733,-0.0006463708,-0.007944455,0.0,0.0,-488.15167,-0.0002222971,-0.00011796839,0.00018067888,0.006373516,-0.0030972227,0.0024655636,0.21519975,0.012830243,0.42494494,-0.011503042,-0.0010116538,0.0042627756,0.0,0.0,-488.05167,4.2197193e-05,4.1974814e-05,0.007007035,0.012603295,0.0127426535,0.0049842168,0.10326213,0.10355266,0.07894481,1.561865e-07,1.565661e-07,2.9320518e-07,0.0027910357,0.0027876918,8.750411e-06,0.0006978195,6.1194423e-06,0.0008026441,0.00031980663,0.00069653743,0.0008010716,1.0,1.0,0.010000001,25
1592460000,1592304000,0.7082069,0.00043575294,0.0015121618,0.70600325,-0.041108143,-0.0011552018,-0.007958703,0.0,0.0,-488.1518,-0.00022207029,-0.00011792805,0.0001807791,0.006373537,-0.0030973784,0.0024655636,0.21520029,0.012830282,0.42494312,-0.011502944,-0.0010118773,0.0042643975,0.0,0.0,-488.0518,4.223962e-05,4.2010888e-05,0.0070065786,0.012702414,0.012846496,0.0050012353,0.103969626,0.10427059,0.07937211,1.5627168e-07,1.5666701e-07,2.929259e-07,0.0027910366,0.0027876927,8.751563e-06,0.00069781643,6.118981e-06,0.00080264156,0.0003198064,0.0006965347,0.0008010694,1.0,1.0,0.010000001,25
1592468000,1592312000,0.70822674,0.000418936,0.0015249766,0.7059833,-0.041226175,-0.0005850672,-0.007821359,0.0,0.0,-488.15186,-0.00022207029,-0.00011792805,0.0001807791,0.006373537,-0.0030973784,0.0024655636,0.21520029,0.012830282,0.42494312,-0.011502944,-0.0010118773,0.0042643975,0.0,0.0,-488.05185,4.2265314e-05,4.203643e-05,0.007006673,0.012755555,0.012900469,0.0050097452,0.104329824,0.10463393,0.07958674,1.5633569e-07,1.5673102e-07,2.929899e-07,0.002791037,0.0027876932,8.7521385e-06,0.0006978165,6.1190453e-06,0.0008026416,0.0003198064,0.0006965347,0.0008010694,1.0,1.0,0.010000001,25
1592476000,1592320000,0.70820636,0.00039959067,0.0015509538,0.70600367,-0.041964404,-0.0016934327,-0.008038789,0.0,0.0,-488.15192,-0.00022207029,-0.00011792805,0.0001807791,0.006373537,-0.0030973784,0.0024655636,0.21520029,0.012830282,0.42494312,-0.011502944,-0.0010118773,0.0042643975,0.0,0.0,-488.0519,4.2291027e-05,4.2061994e-05,0.0070067677,0.012809349,0.012955062,0.005018259,0.10469203,0.1049993,0.07980202,1.563997e-07,1.5679502e-07,2.9305392e-07,0.0027910376,0.0027876936,8.752714e-06,0.00069781655,6.1191095e-06,0.0008026417,0.0003198064,0.0006965347,0.0008010694,1.0,1.0,0.010000001,25
1592484000,1592328000,0.7081823,0.00035955902,0.0015901427,0.70602787,-0.042570967,-0.0032977867,-0.008461572,0.0,0.0,-488.15198,-0.00022207029,-0.00011792805,0.0001807791,0.006373537,-0.0030973784,0.0024655636,0.21520029,0.012830282,0.42494312,-0.011502944,-0.0010118773,0.0042643975,0.0,0.0,-488.05197,4.231675e-05,4.2087573e-05,0.0070068613,0.012863556,0.013009915,0.0050267735,0.10505624,0.10536671,0.08001796,1.564637e-07,1.5685903e-07,2.9311792e-07,0.002791038,0.002787694,8.75329e-06,0.0006978166,6.1191736e-06,0.00080264173,0.0003198064,0.0006965347,0.0008010694,1.0,1.0,0.010000001,25
1592500000,1592344000,0.70814526,0.00033855485,0.001638683,0.7060648,-0.042540632,-0.003758024,-0.00927436,0.0,0.0,-488.15213,-0.00022207027,-0.00011792806,0.0001807791,0.006373538,-0.00309738,0.002465621,0.21520029,0.012830282,0.42494312,-0.011502944,-0.0010118773,0.0042643975,0.0,0.0,-488.05212,4.2368294e-05,4.2138814e-05,0.007007054,0.012972003,0.0131196715,0.005028948,0.10579076,0.10610768,0.079931974,1.5659171e-07,1.5698704e-07,2.9324593e-07,0.002791039,0.002787695,8.753455e-06,0.0006978167,6.119302e-06,0.00080264185,0.0003198064,0.0006965347,0.0008010694,1.0,1.0,0.010000001,25
1592508000,1592352000,0.70815533,0.00032740782,0.0016533638,0.7060546,-0.042363912,-0.004003471,-0.009261049,0.0,0.0,-488.1522,-0.00022207027,-0.00011792806,0.0001807791,0.006373538,-0.00309738,0.002465621,0.21520029,0.012830282,0.42494312,-0.011502944,-0.0010118773,0.0042643975,0.0,0.0,-488.0522,4.2394087e-05,4.2164458e-05,0.0070071486,0.013026257,0.013174515,0.005037462,0.10616107,0.10648128,0.08014848,1.5665572e-07,1.5705105e-07,2.9330994e-07,0.0027910394,0.0027876955,8.754031e-06,0.0006978168,6.119366e-06,0.0008026419,0.0003198064,0.0006965347,0.0008010694,1.0,1.0,0.010000001,25
1592516000,1592360000,0.7081752,0.0003287162,0.0017015506,0.7060346,-0.04294154,-0.003413607,-0.009591967,0.0,0.0,-488.15225,-0.00022207027,-0.00011792806,0.0001807791,0.006373538,-0.00309738,0.002465621,0.21520029,0.012830282,0.42494312,-0.011502944,-0.0010118773,0.0042643975,0.0,0.0,-488.05225,4.24199e-05,4.2190124e-05,0.007007243,0.013080727,0.013230035,0.005045978,0.106533445,0.10685694,0.08036564,1.5671972e-07,1.5711505e-07,2.9337394e-07,0.0027910399,0.002787696,8.754607e-06,0.00069781684,6.11943e-06,0.00080264197,0.0003198064,0.0006965347,0.0008010694,1.0,1.0,0.010000001,25
1592524000,1592368000,0.7081906,0.0003016865,0.0016823622,0.7060193,-0.043376062,-0.0029141603,-0.010315783,0.0,0.0,-488.15234,-0.00022207027,-0.00011792806,0.0001807791,0.006373538,-0.00309738,0.002465621,0.21520029,0.012830282,0.42494312,-0.011502944,-0.0010118773,0.0042643975,0.0,0.0,-488.05234,4.2445732e-05,4.2215812e-05,0.0070073376,0.013135637,0.013285928,0.005054495,0.10690788,0.1072347,0.08058347,1.5678373e-07,1.5717906e-07,2.9343795e-07,0.0027910403,0.0027876964,8.7551825e-06,0.0006978169,6.119494e-06,0.000802642,0.0003198064,0.0006965347,0.0008010694,1.0,1.0,0.010000001,25
1592540000,1592384000,0.70813173,0.00033354005,0.0017427043,0.7060782,-0.043296937,-0.0022794844,-0.010319188,0.0,0.0,-488.15253,-0.0002215531,-0.00011802661,0.00018027717,0.006373606,-0.003097935,0.0024656209,0.21520102,0.012830313,0.4249396,-0.011503275,-0.0010129864,0.004267823,0.0,0.0,-488.05252,4.2488267e-05,4.2251762e-05,0.0070068827,0.01323749,0.013392901,0.00507153,0.1076546,0.10799318,0.08102111,1.5686763e-07,1.5727923e-07,2.9315885e-07,0.0027910413,0.0027876974,8.756334e-06,0.0006978138,6.1190335e-06,0.0008026392,0.0003198061,0.00069653196,0.0008010669,1.0,1.0,0.010000001,25
1592548000,1592392000,0.7081193,0.00032847343,0.0017588706,0.7060906,-0.044614572,-0.0014311752,-0.010576636,0.0,0.0,-488.15262,-0.0002215531,-0.00011802661,0.00018027717,0.006373606,-0.003097935,0.0024656209,0.21520102,0.012830313,0.4249396,-0.011503275,-0.0010129864,0.004267823,0.0,0.0,-488.0526,4.251416e-05,4.22775e-05,0.007006979,0.013292561,0.013449386,0.0050800527,0.10803516,0.10837722,0.081240915,1.5693163e-07,1.5734324e-07,2.9322285e-07,0.0027910417,0.0027876978,8.75691e-06,0.00069781387,6.1190976e-06,0.00080263923,0.0003198061,0.00069653196,0.0008010669,1.0,1.0,0.010000001,25
1592556000,1592400000,0.70812976,0.00031122664,0.00172535,0.70608014,-0.04528895,-0.001102688,-0.01062426,0.0,0.0,-488.1527,-0.0002215531,-0.00011802661,0.00018027717,0.006373606,-0.003097935,0.0024656209,0.21520102,0.012830313,0.4249396,-0.011503275,-0.0010129864,0.004267823,0.0,0.0,-488.0527,4.2540072e-05,4.230326e-05,0.0070070755,0.013347784,0.013505684,0.0050885747,0.108417824,0.10876339,0.08146139,1.5699564e-07,1.5740724e-07,2.9328686e-07,0.0027910422,0.0027876983,8.757485e-06,0.0006978139,6.1191618e-06,0.0008026393,0.0003198061,0.00069653196,0.0008010669,1.0,1.0,0.010000001,25
1592564000,1592408000,0.7081523,0.00027094112,0.0016681411,0.70605767,-0.045847297,-0.0016486885,-0.010876447,0.0,0.0,-488.1528,-0.0002215531,-0.00011802661,0.00018027717,0.006373606,-0.003097935,0.0024656209,0.21520102,0.012830313,0.4249396,-0.011503275,-0.0010129864,0.004267823,0.0,0.0,-488.0528,4.2566e-05,4.2329033e-05,0.00700717,0.013403462,0.013562251,0.005097098,0.1088026,0.1091517,0.08168253,1.5705965e-07,1.5747125e-07,2.9335087e-07,0.0027910427,0.0027876988,8.758061e-06,0.000697814,6.119226e-06,0.00080263935,0.0003198061,0.00069653196,0.0008010669,1.0,1.0,0.010000001,25
1592580000,1592424000,0.7081014,0.0001990603,0.0016726909,0.70610875,-0.046567407,-0.0021777318,-0.0102599785,0.0,0.0,-488.15274,-0.00022155317,-0.00011802658,0.00018027716,0.0063735973,-0.0030979244,0.002465288,0.21520102,0.012830313,0.4249396,-0.011503275,-0.0010129866,0.004267823,0.0,0.0,-488.05273,4.261791e-05,4.2380634e-05,0.007007359,0.013514617,0.013675109,0.005098664,0.109578535,0.109934784,0.08158664,1.5718766e-07,1.5759926e-07,2.9347888e-07,0.0027910436,0.0027876997,8.758185e-06,0.0006978141,6.119354e-06,0.00080263946,0.0003198061,0.00069653196,0.0008010669,1.0,1.0,0.010000001,25
1592588000,1592432000,0.70804644,0.00023629416,0.0017023479,0.70616376,-0.0467324,-0.002235742,-0.010777593,0.0,0.0,-488.15283,-0.00022155317,-0.00011802658,0.00018027716,0.0063735973,-0.0030979244,0.002465288,0.21520102,0.012830313,0.4249396,-0.011503275,-0.0010129866,0.004267823,0.0,0.0,-488.05283,4.2643896e-05,4.2406467e-05,0.0070074536,0.013570927,0.013732229,0.0051071877,0.109969705,0.110329576,0.081808314,1.5725166e-07,1.5766327e-07,2.9354288e-07,0.002791044,0.0027877002,8.7587605e-06,0.00069781416,6.1194182e-06,0.0008026395,0.0003198061,0.00069653196,0.0008010669,1.0,1.0,0.010000001,25
1592596000,1592440000,0.70801336,0.0002527468,0.0017218692,0.70619696,-0.04668195,-0.0018891727,-0.010832161,0.0,0.0,-488.15292,-0.00022155317,-0.00011802658,0.00018027716,0.0063735973,-0.0030979244,0.002465288,0.21520102,0.012830313,0.4249396,-0.011503275,-0.0010129866,0.004267823,0.0,0.0,-488.05292,4.2669904e-05,4.2432323e-05,0.0070075486,0.0136270635,0.013789158,0.0051157116,0.11036304,0.11072656,0.082030654,1.5731567e-07,1.5772727e-07,2.936069e-07,0.0027910445,0.0027877006,8.759336e-06,0.0006978142,6.1194824e-06,0.0008026396,0.0003198061,0.00069653196,0.0008010669,1.0,1.0,0.010000001,25
1592604000,1592448000,0.70802605,0.00021949128,0.0017300771,0.70618415,-0.047011953,-0.0014618615,-0.01114883,0.0,0.0,-488.153,-0.00022143582,-0.00011760971,0.00018182,0.006373795,-0.0030978378,0.002465288,0.21520461,0.012830602,0.42493692,-0.011502904,-0.0010101475,0.0042710435,0.0,0.0,-488.053,4.2686468e-05,4.2442232e-05,0.007006999,0.013675371,0.013842164,0.005124238,0.11074905,0.11112187,0.082253665,1.5733427e-07,1.5776267e-07,2.9326392e-07,0.002791045,0.002787701,8.759912e-06,0.0006978115,6.11896e-06,0.0008026366,0.00031980575,0.0006965297,0.0008010644,1.0,1.0,0.010000001,25
1592620000,1592464000,0.7079897,0.00020470789,0.0016403862,0.70622087,-0.04730661,-0.0023123713,-0.010932803,0.0,0.0,-488.1532,-0.00022143582,-0.00011760971,0.00018182,0.006373795,-0.0030978378,0.002465288,0.21520461,0.012830602,0.42493692,-0.011502904,-0.0010101475,0.0042710435,0.0,0.0,-488.0532,4.2738564e-05,4.2494008e-05,0.007007188,0.01378854,0.013956866,0.0051412927,0.111546285,0.11192671,0.0827017,1.5746228e-07,1.5789068e-07,2.9339193e-07,0.002791046,0.002787702,8.761063e-06,0.0006978116,6.119088e-06,0.0008026367,0.00031980575,0.0006965297,0.0008010644,1.0,1.0,0.010000001,25
1592628000,1592472000,0.7079882,0.00022559406,0.0016523799,0.70622236,-0.04784694,-0.0025999753,-0.010031588,0.0,0.0,-488.1533,-0.00022143582,-0.00011760971,0.00018182,0.006373795,-0.0030978378,0.002465288,0.21520461,0.012830602,0.42493692,-0.011502904,-0.0010101475,0.0042710435,0.0,0.0,-488.05328,4.2764645e-05,4.251993e-05,0.0070072827,0.013844883,0.014014161,0.005149823,0.11194819,0.112332456,0.08292672,1.5752629e-07,1.5795469e-07,2.9345594e-07,0.0027910464,0.0027877025,8.761639e-06,0.00069781166,6.119152e-06,0.0008026368,0.00031980575,0.0006965297,0.0008010644,1.0,1.0,0.010000001,25
1592636000,1592480000,0.7079968,0.00020013795,0.0016700841,0.7062137,-0.047102276,-0.0021441774,-0.010136068,0.0,0.0,-488.15338,-0.00022143582,-0.00011760971,0.00018182,0.006373795,-0.0030978378,0.002465288,0.21520461,0.012830602,0.42493692,-0.011502904,-0.0010101475,0.0042710435,0.0,0.0,-488.05338,4.279075e-05,4.254588e-05,0.007007379,0.013901894,0.01407173,0.0051583503,0.1123523,0.112740435,0.08315242,1.5759029e-07,1.580187e-07,2.9351995e-07,0.0027910469,0.002787703,8.762215e-06,0.0006978117,6.1192163e-06,0.00080263685,0.00031980575,0.0006965297,0.0008010644,1.0,1.0,0.010000001,25
1592644000,1592488000,0.70804805,0.00019905606,0.0016564488,0.70616233,-0.047977325,-0.0022615243,-0.010073258,0.0,0.0,-488.15268,-0.00022186535,-0.000115557945,0.00018542176,0.006373757,-0.0030973388,0.0024642062,0.2152058,0.012830315,0.4249367,-0.011502074,-0.0010089385,0.004271233,0.0,0.0,-488.05267,4.281445e-05,4.2569525e-05,0.007007362,0.0139581775,0.01412904,0.005150761,0.112757675,0.113149576,0.08282059,1.5754391e-07,1.5797161e-07,2.9320128e-07,0.0027910473,0.0027877034,8.76172e-06,0.0006978117,6.119278e-06,0.0008026369,0.00031980572,0.00069652963,0.0008010644,1.0,1.0,0.010000001,25
1592660000,1592504000,0.7080634,0.00017260571,0.0016613116,0.7061469,-0.048442528,-0.0032126992,-0.009310685,0.0,0.0,-488.15286,-0.00022186535,-0.000115557945,0.00018542176,0.006373757,-0.0030973388,0.0024642062,0.2152058,0.012830315,0.4249367,-0.011502074,-0.0010089385,0.004271233,0.0,0.0,-488.05286,4.286674e-05,4.2621497e-05,0.007007553,0.014072874,0.014245325,0.0051678238,0.11357697,0.11397678,0.08327232,1.5767192e-07,1.5809962e-07,2.933293e-07,0.0027910483,0.0027877043,8.762871e-06,0.00069781183,6.1194064e-06,0.000802637,0.00031980572,0.00069652963,0.0008010644,1.0,1.0,0.010000001,25
1592668000,1592512000,0.7080809,0.00016534836,0.0016597882,0.70612943,-0.04828559,-0.0034240806,-0.00918231,0.0,0.0,-488.15292,-0.00022201735,-0.00011546011,0.00018582161,0.006373722,-0.0030971223,0.0024642062,0.21520582,0.012830326,0.4249373,-0.011501765,-0.0010083804,0.0042705904,0.0,0.0,-488.05292,4.28832e-05,4.26311e-05,0.007007002,0.014121943,0.014298992,0.005176355,0.11397929,0.11438938,0.08349921,1.5768944e-07,1.5813441e-07,2.929879e-07,0.0027910487,0.0027877048,8.763447e-06,0.0006978091,6.1188834e-06,0.0008026344,0.00031980537,0.0006965274,0.00080106215,1.0,1.0,0.010000001,25
1592676000,1592520000,0.70804477,0.0001942421,0.0016774059,0.70616555,-0.048283953,-0.0033295632,-0.008948885,0.0,0.0,-488.15298,-0.00022201735,-0.00011546011,0.00018582161,0.006373722,-0.0030971223,0.0024642062,0.21520582,0.012830326,0.4249373,-0.011501765,-0.0010083804,0.0042705904,0.0,0.0,-488.05298,4.290939e-05,4.2657128e-05,0.0070070983,0.014179676,0.014357563,0.0051848884,0.1143944,0.114808604,0.08372677,1.5775345e-07,1.5819842e-07,2.930519e-07,0.0027910492,0.0027877053,8.764023e-06,0.00069780916,6.1189476e-06,0.00080263446,0.00031980537,0.0006965274,0.00080106215,1.0,1.0,0.010000001,25
1592684000,1592528000,0.7080464,0.00026665867,0.0016369761,0.706164,-0.048886098,-0.002556794,-0.009265877,0.0,0.0,-488.15305,-0.00022201735,-0.00011546011,0.00018582161,0.006373722,-0.0030971223,0.0024642062,0.21520582,0.012830326,0.4249373,-0.011501765,-0.0010083804,0.0042705904,0.0,0.0,-488.05304,4.2935593e-05,4.2683165e-05,0.007007193,0.01423781,0.014416944,0.005193424,0.11481178,0.11523013,0.08395501,1.5781745e-07,1.5826242e-07,2.931159e-07,0.0027910497,0.0027877057,8.7645985e-06,0.0006978092,6.1190117e-06,0.0008026345,0.00031980537,0.0006965274,0.00080106215,1.0,1.0,0.010000001,25
1592700000,1592544000,0.7080023,0.00028442228,0.001648162,0.70620817,-0.049553335,-0.0025426464,-0.009697013,0.0,0.0,-488.1532,-0.00022201735,-0.00011546011,0.00018582161,0.006373722,-0.0030971223,0.0024642062,0.21520582,0.012830326,0.4249373,-0.011501765,-0.0010083804,0.0042705904,0.0,0.0,-488.0532,4.2988064e-05,4.2735304e-05,0.007007382,0.014354831,0.0145359235,0.005210498,0.11565338,0.11608012,0.08441353,1.5794546e-07,1.5839043e-07,2.9324391e-07,0.0027910506,0.0027877067,8.76575e-06,0.00069780933,6.11914e-06,0.00080263463,0.00031980537,0.0006965274,0.00080106215,1.0,1.0,0.010000001,25
1592708000,1592552000,0.7079786,0.00028161335,0.001638704,0.70623195,-0.049844135,-0.0023314746,-0.009621017,0.0,0.0,-488.1533,-0.00022201735,-0.00011546011,0.00018582161,0.006373722,-0.0030971223,0.0024642062,0.21520582,0.012830326,0.4249373,-0.011501765,-0.0010083804,0.0042705904,0.0,0.0,-488.05328,4.3014334e-05,4.276141e-05,0.0070074783,0.014413395,0.014595493,0.0052190362,0.116077624,0.11650861,0.0846438,1.5800947e-07,1.5845444e-07,2.9330792e-07,0.002791051,0.0027877071,8.766326e-06,0.0006978094,6.119204e-06,0.0008026347,0.00031980537,0.0006965274,0.00080106215,1.0,1.0,0.010000001,25
1592716000,1592560000,0.7079827,0.0002666933,0.001634544,0.7062278,-0.049580563,-0.0023716458,-0.009064499,0.0,0.0,-488.1536,-0.00022201726,-0.00011546014,0.00018582163,0.0063737314,-0.003097135,0.0024645356,0.21520582,0.012830326,0.4249373,-0.011501765,-0.0010083802,0.0042705904,0.0,0.0,-488.0536,4.3040618e-05,4.2787527e-05,0.007007573,0.0144718615,0.014654663,0.0052107945,0.11650418,0.11693944,0.08429641,1.5807348e-07,1.5851845e-07,2.9337193e-07,0.0027910515,0.0027877076,8.765787e-06,0.00069780945,6.119268e-06,0.00080263475,0.00031980537,0.0006965274,0.00080106215,1.0,1.0,0.010000001,25
1592724000,1592568000,0.70796734,0.00030006084,0.0016574356,0.7062432,-0.049907923,-0.0024749676,-0.008240797,0.0,0.0,-488.15366,-0.00022201726,-0.00011546014,0.00018582163,0.0063737314,-0.003097135,0.0024645356,0.21520582,0.012830326,0.4249373,-0.011501765,-0.0010083802,0.0042705904,0.0,0.0,-488.05365,4.3066924e-05,4.2813666e-05,0.0070076673,0.01453038,0.014714133,0.0052193333,0.11693305,0.117372625,0.08452648,1.5813748e-07,1.5858245e-07,2.9343593e-07,0.002791052,0.002787708,8.766363e-06,0.0006978095,6.1193323e-06,0.0008026348,0.00031980537,0.0006965274,0.00080106215,1.0,1.0,0.010000001,25
1592740000,1592584000,0.70796764,0.00034932836,0.0016996224,0.7062428,-0.05014297,-0.0018825658,-0.007649531,0.0,0.0,-488.15378,-0.00022190921,-0.000115419345,0.00018594658,0.0063738413,-0.0030972853,0.0024645356,0.21520717,0.012830414,0.42493635,-0.011502024,-0.0010076058,0.0042719366,0.0,0.0,-488.05377,4.3109594e-05,4.2849086e-05,0.0070072156,0.014639262,0.0148291495,0.0052364124,0.1177856,0.118241005,0.08498867,1.5821769e-07,1.5868048e-07,2.9315873e-07,0.002791053,0.002787709,8.767514e-06,0.00069780677,6.118874e-06,0.0008026319,0.00031980505,0.0006965251,0.00080105953,1.0,1.0,0.010000001,25
1592748000,1592592000,0.7080109,0.00033432056,0.0017007561,0.7061994,-0.05076029,-0.002054992,-0.007993214,0.0,0.0,-488.15384,-0.00022190921,-0.000115419345,0.00018594658,0.0063738413,-0.0030972853,0.0024645356,0.21520717,0.012830414,0.42493635,-0.011502024,-0.0010076058,0.0042719366,0.0,0.0,-488.05383,4.313595e-05,4.2875272e-05,0.00700731,0.014699065,0.014890069,0.0052449554,0.11822133,0.11868123,0.08522079,1.582817e-07,1.5874448e-07,2.9322274e-07,0.0027910534,0.0027877095,8.76809e-06,0.0006978068,6.118938e-06,0.00080263196,0.00031980505,0.0006965251,0.00080105953,1.0,1.0,0.010000001,25
1592756000,1592600000,0.70798904,0.00029236788,0.0017139458,0.70622134,-0.051132705,-0.0017004022,-0.00831949,0.0,0.0,-488.1539,-0.00022190921,-0.000115419345,0.00018594658,0.0063738413,-0.0030972853,0.0024645356,0.21520717,0.012830414,0.42493635,-0.011502024,-0.0010076058,0.0042719366,0.0,0.0,-488.0539,4.3162338e-05,4.2901484e-05,0.0070074066,0.014758943,0.014951066,0.0052534984,0.118659414,0.119123854,0.0854536,1.583457e-07,1.5880849e-07,2.9328675e-07,0.0027910538,0.00278771,8.768666e-06,0.0006978069,6.119002e-06,0.000802632,0.00031980505,0.0006965251,0.00080105953,1.0,1.0,0.010000001,25
1592764000,1592608000,0.7080025,0.00029895437,0.0017591021,0.7062077,-0.051528662,-0.0017682915,-0.009099774,0.0,0.0,-488.15396,-0.00022190921,-0.000115419345,0.00018594658,0.0063738413,-0.0030972853,0.0024645356,0.21520717,0.012830414,0.42493635,-0.011502024,-0.0010076058,0.0042719366,0.0,0.0,-488.05396,4.3188735e-05,4.292771e-05,0.007007501,0.014819399,0.0150125725,0.005262043,0.11909987,0.11956889,0.08568709,1.584097e-07,1.588725e-07,2.9335075e-07,0.0027910543,0.0027877104,8.7692415e-06,0.00069780694,6.1190663e-06,0.0008026321,0.00031980505,0.0006965251,0.00080105953,1.0,1.0,0.010000001,25
1592780000,1592624000,0.7080078,0.00035768675,0.0017962421,0.7062023,-0.05251041,-0.0013938671,-0.010167576,0.0,0.0,-488.1541,-0.00022190921,-0.000115419345,0.00018594658,0.0063738413,-0.0030972853,0.0024645356,0.21520717,0.012830414,0.42493635,-0.011502024,-0.0010076058,0.0042719366,0.0,0.0,-488.0541,4.3241595e-05,4.2980235e-05,0.007007692,0.014940472,0.015135941,0.0052791354,0.11998797,0.12046625,0.08615614,1.5853772e-07,1.590005e-07,2.9347876e-07,0.0027910552,0.0027877113,8.770393e-06,0.00069780706,6.1191945e-06,0.0008026322,0.00031980505,0.0006965251,0.00080105953,1.0,1.0,0.010000001,25
1592788000,1592632000,0.70801,0.00034350905,0.0017807815,0.70620006,-0.053308267,-0.0018055236,-0.010952981,0.0,0.0,-488.15448,-0.00022190911,-0.000115419374,0.0001859466,0.006373852,-0.0030973007,0.0024649054,0.21520717,0.012830414,0.42493635,-0.011502024,-0.0010076055,0.0042719366,0.0,0.0,-488.05447,4.326806e-05,4.300653e-05,0.007007789,0.015001558,0.015198217,0.0052702324,0.12043563,0.12091859,0.08579256,1.5860172e-07,1.5906451e-07,2.9354277e-07,0.0027910557,0.0027877118,8.769809e-06,0.0006978071,6.1192586e-06,0.00080263225,0.00031980505,0.0006965251,0.00080105953,1.0,1.0,0.010000001,25
1592796000,1592640000,0.70802504,0.00022991198,0.0017045211,0.7061853,-0.04591558,-0.0011423125,-0.009986209,0.0,0.0,-488.14963,-0.00021335258,-0.000115250725,0.00018601173,0.0063757533,-0.0030946468,0.002455667,0.21520576,0.012830409,0.42493904,-0.011491664,-0.0010062081,0.004270388,0.0,0.0,-488.04962,4.208859e-05,4.186247e-05,0.0070072156,0.012377865,0.012513985,0.004955867,0.10177375,0.102049775,0.078331865,1.5599132e-07,1.5637353e-07,2.9349664e-07,0.0027910555,0.002787712,8.748474e-06,0.0006978068,6.1193077e-06,0.0008026321,0.00031973637,0.0006965239,0.0008010595,1.0,1.0,0.010000001,25
1592804000,1592648000,0.7080269,0.00016814131,0.0017014842,0.70618343,-0.044688635,-0.0015447602,-0.009037009,0.0,0.0,-488.1497,-0.0002126358,-0.0001156904,0.00018411403,0.0063758725,-0.003095667,0.0024556667,0.21520537,0.012830314,0.42493576,-0.011493242,-0.0010091981,0.0042735226,0.0,0.0,-488.04968,4.210547e-05,4.1873238e-05,0.007006676,0.012422733,0.012562184,0.0049643684,0.10211543,0.102398366,0.078543246,1.5601329e-07,1.5641096e-07,2.9315294e-07,0.002791056,0.0027877125,8.74905e-06,0.0006978041,6.118785e-06,0.00080262934,0.000319736,0.0006965216,0.0008010571,1.0,1.0,0.010000001,25
1592820000,1592664000,0.70802164,0.00016613907,0.0016847902,0.70618874,-0.045362286,-0.0019699363,-0.008777648,0.0,0.0,-488.1498,-0.0002126358,-0.0001156904,0.00018411403,0.0063758725,-0.003095667,0.0024556667,0.21520537,0.012830314,0.42493576,-0.011493242,-0.0010091981,0.0042735226,0.0,0.0,-488.0498,4.2156666e-05,4.192414e-05,0.0070068655,0.012527544,0.012668527,0.0049813823,0.10281753,0.10310644,0.078967944,1.561413e-07,1.5653897e-07,2.9328095e-07,0.0027910569,0.0027877134,8.750201e-06,0.0006978042,6.1189135e-06,0.00080262945,0.000319736,0.0006965216,0.0008010571,1.0,1.0,0.010000001,25
1592828000,1592672000,0.7080014,0.00016626777,0.0016436711,0.7062092,-0.045949686,-0.0022575436,-0.008838706,0.0,0.0,-488.14987,-0.0002126358,-0.0001156904,0.00018411403,0.0063758725,-0.003095667,0.0024556667,0.21520537,0.012830314,0.42493576,-0.011493242,-0.0010091981,0.0042735226,0.0,0.0,-488.04987,4.2182302e-05,4.194963e-05,0.007006963,0.012580338,0.012722183,0.0049898913,0.10317151,0.10346345,0.07918127,1.562053e-07,1.5660298e-07,2.9334495e-07,0.0027910573,0.002787714,8.750777e-06,0.00069780427,6.1189776e-06,0.0008026295,0.000319736,0.0006965216,0.0008010571,1.0,1.0,0.010000001,25
1592836000,1592680000,0.7080032,0.00018865988,0.0016767244,0.7062072,-0.045927983,-0.0021237067,-0.008629292,0.0,0.0,-488.14993,-0.0002126358,-0.0001156904,0.00018411403,0.0063758725,-0.003095667,0.0024556667,0.21520537,0.012830314,0.42493576,-0.011493242,-0.0010091981,0.0042735226,0.0,0.0,-488.04993,4.2207954e-05,4.1975127e-05,0.0070070582,0.012633077,0.012775604,0.0049984,0.10352747,0.103822455,0.07939524,1.5626931e-07,1.5666699e-07,2.9340896e-07,0.0027910578,0.0027877144,8.751353e-06,0.0006978043,6.1190417e-06,0.00080262957,0.000319736,0.0006965216,0.0008010571,1.0,1.0,0.010000001,25
1592844000,1592688000,0.70799756,0.00018044158,0.0016817189,0.7062129,-0.045458734,-0.0013657976,-0.008795851,0.0,0.0,-488.15,-0.00021193703,-0.00011551729,0.00018436224,0.006375997,-0.0030956299,0.0024556667,0.21520545,0.012830296,0.4249358,-0.011493029,-0.0010090946,0.0042735054,0.0,0.0,-488.05,4.2231382e-05,4.1998497e-05,0.0070070387,0.01268523,0.012828341,0.005006908,0.10388479,0.10418273,0.07960987,1.5622477e-07,1.5662181e-07,2.930906e-07,0.0027910583,0.0027877148,8.751928e-06,0.0006978043,6.1191035e-06,0.0008026296,0.00031973596,0.00069652154,0.0008010571,1.0,1.0,0.010000001,25
1592860000,1592704000,0.7079975,0.0001566429,0.0017147626,0.70621294,-0.046090055,-0.0021754396,-0.00842369,0.0,0.0,-488.15042,-0.00021193693,-0.000115517316,0.00018436226,0.006376009,-0.003095647,0.0024560802,0.21520545,0.012830296,0.4249358,-0.011493029,-0.0010090943,0.0042735054,0.0,0.0,-488.0504,4.2282772e-05,4.2049593e-05,0.0070072315,0.0127917705,0.012936349,0.005009258,0.10460661,0.10491079,0.07952654,1.5635278e-07,1.5674982e-07,2.9321862e-07,0.0027910592,0.0027877158,8.752106e-06,0.00069780444,6.119232e-06,0.00080262974,0.00031973596,0.00069652154,0.0008010571,1.0,1.0,0.010000001,25
1592868000,1592712000,0.7080211,0.00010854004,0.0017392449,0.7061892,-0.047034945,-0.0019464839,-0.008824937,0.0,0.0,-488.15048,-0.00021193693,-0.000115517316,0.00018436226,0.006376009,-0.003095647,0.0024560802,0.21520545,0.012830296,0.4249358,-0.011493029,-0.0010090943,0.0042735054,0.0,0.0,-488.05048,4.2308504e-05,4.207517e-05,0.007007329,0.012845551,0.012991254,0.005017772,0.104970545,0.10527787,0.07974175,1.5641679e-07,1.5681383e-07,2.9328262e-07,0.0027910597,0.0027877162,8.752681e-06,0.0006978045,6.119296e-06,0.0008026298,0.00031973596,0.00069652154,0.0008010571,1.0,1.0,0.010000001,25
1592876000,1592720000,0.70804876,7.54374e-05,0.001757024,0.70616144,-0.047850054,-0.0012451055,-0.008341808,0.0,0.0,-488.15054,-0.00021205457,-0.00011552812,0.00018434953,0.0063760118,-0.003095579,0.0024560802,0.21520543,0.012830287,0.42493668,-0.011493098,-0.0010087636,0.004272818,0.0,0.0,-488.05054,4.232528e-05,4.208563e-05,0.007006792,0.012891566,0.013041744,0.0050262865,0.105328895,0.105643995,0.07995762,1.5643755e-07,1.5685056e-07,2.929401e-07,0.0027910601,0.0027877167,8.753257e-06,0.0006978019,6.1187734e-06,0.00080262695,0.00031973555,0.00069651933,0.00080105464,1.0,1.0,0.010000001,25
1592884000,1592728000,0.70803267,8.045283e-05,0.001717029,0.7061777,-0.048419856,-0.0013054109,-0.0078719035,0.0,0.0,-488.1506,-0.00021205457,-0.00011552812,0.00018434953,0.0063760118,-0.003095579,0.0024560802,0.21520543,0.012830287,0.42493668,-0.011493098,-0.0010087636,0.004272818,0.0,0.0,-488.0506,4.235104e-05,4.2111238e-05,0.0070068883,0.0129451975,0.013096315,0.0050348016,0.10569675,0.10601512,0.08017414,1.5650156e-07,1.5691457e-07,2.930041e-07,0.0027910606,0.0027877172,8.753833e-06,0.00069780194,6.1188375e-06,0.000802627,0.00031973555,0.00069651933,0.00080105464,1.0,1.0,0.010000001,25
1592900000,1592744000,0.7080469,0.00010853636,0.001704061,0.70616335,-0.047485333,-0.0025664375,-0.0070784464,0.0,0.0,-488.15073,-0.00021205457,-0.00011552812,0.00018434953,0.0063760118,-0.003095579,0.0024560802,0.21520543,0.012830287,0.42493668,-0.011493098,-0.0010087636,0.004272818,0.0,0.0,-488.05072,4.240262e-05,4.2162508e-05,0.00700708,0.013053288,0.013205174,0.0050518294,0.10643858,0.10676357,0.08060915,1.5662957e-07,1.5704258e-07,2.931321e-07,0.0027910615,0.002787718,8.754984e-06,0.00069780205,6.1189658e-06,0.0008026271,0.00031973555,0.00069651933,0.00080105464,1.0,1.0,0.010000001,25
1592908000,1592752000,0.7080845,0.00013722552,0.0017216656,0.70612556,-0.04750255,-0.0024109022,-0.007137157,0.0,0.0,-488.1508,-0.00021205457,-0.00011552812,0.00018434953,0.0063760118,-0.003095579,0.0024560802,0.21520543,0.012830287,0.42493668,-0.011493098,-0.0010087636,0.004272818,0.0,0.0,-488.05078,4.2428434e-05,4.2188167e-05,0.0070071756,0.013107726,0.013260359,0.005060346,0.10681257,0.10714092,0.080827646,1.5669357e-07,1.5710658e-07,2.931961e-07,0.002791062,0.0027877185,8.75556e-06,0.0006978021,6.11903e-06,0.0008026272,0.00031973555,0.00069651933,0.00080105464,1.0,1.0,0.010000001,25
1592916000,1592760000,0.70812386,8.2730316e-05,0.0017796851,0.706086,-0.047744267,-0.0027913598,-0.007002525,0.0,0.0,-488.15085,-0.00021205457,-0.00011552812,0.00018434953,0.0063760118,-0.003095579,0.0024560802,0.21520543,0.012830287,0.42493668,-0.011493098,-0.0010087636,0.004272818,0.0,0.0,-488.05084,4.2454267e-05,4.2213847e-05,0.007007271,0.013162333,0.013315707,0.005068864,0.10718863,0.107520364,0.081046805,1.5675758e-07,1.5717059e-07,2.9326011e-07,0.0027910625,0.002787719,8.756136e-06,0.00069780217,6.119094e-06,0.00080262724,0.00031973555,0.00069651933,0.00080105464,1.0,1.0,0.010000001,25
1592924000,1592768000,0.7081426,4.968215e-05,0.0017868271,0.7060672,-0.04849576,-0.0030068583,-0.006718524,0.0,0.0,-488.1509,-0.00021205457,-0.00011552812,0.00018434953,0.0063760118,-0.003095579,0.0024560802,0.21520543,0.012830287,0.42493668,-0.011493098,-0.0010087636,0.004272818,0.0,0.0,-488.0509,4.2480122e-05,4.223955e-05,0.0070073665,0.013217,0.013371371,0.0050773853,0.10756677,0.107901916,0.08126663,1.5682159e-07,1.572346e-07,2.9332412e-07,0.002791063,0.0027877195,8.756711e-06,0.0006978022,6.119158e-06,0.0008026273,0.00031973555,0.00069651933,0.00080105464,1.0,1.0,0.010000001,25
1592940000,1592784000,0.70815223,1.1576758e-05,0.0018357157,0.70605737,-0.04902974,-0.0047801514,-0.0066698864,0.0,0.0,-488.15103,-0.00021205457,-0.00011552812,0.00018434953,0.0063760113,-0.0030955784,0.0024560664,0.21520543,0.012830287,0.42493668,-0.011493098,-0.0010087636,0.004272818,0.0,0.0,-488.05103,4.25319e-05,4.2291016e-05,0.0070075593,0.013327486,0.013483145,0.00507913,0.10832931,0.108671375,0.08117357,1.569496e-07,1.573626e-07,2.9345213e-07,0.0027910639,0.0027877204,8.756848e-06,0.00069780234,6.1192864e-06,0.0008026274,0.00031973555,0.00069651933,0.00080105464,1.0,1.0,0.010000001,25
1592948000,1592792000,0.70817375,-1.6398539e-05,0.0018386372,0.70603585,-0.04929219,-0.005658961,-0.006515025,0.0,0.0,-488.1511,-0.0002118433,-0.00011585182,0.00018306678,0.006375845,-0.0030958361,0.0024560662,0.2152025,0.012830051,0.42493707,-0.011493389,-0.0010120649,0.0042717117,0.0,0.0,-488.0511,4.2548563e-05,4.2301137e-05,0.00700702,0.013375052,0.013534987,0.005087652,0.108705,0.10905578,0.081393935,1.5696907e-07,1.5739859e-07,2.931097e-07,0.0027910643,0.0027877209,8.7574235e-06,0.00069779943,6.118762e-06,0.0008026244,0.00031973512,0.0006965168,0.00080105197,1.0,1.0,0.010000001,25
1592956000,1592800000,0.7081756,-1.1764194e-05,0.0018314103,0.706034,-0.04978663,-0.005469496,-0.0068073645,0.0,0.0,-488.15115,-0.0002118433,-0.00011585182,0.00018306678,0.006375845,-0.0030958361,0.0024560662,0.2152025,0.012830051,0.42493707,-0.011493389,-0.0010120649,0.0042717117,0.0,0.0,-488.05115,4.25745e-05,4.2326912e-05,0.007007117,0.013430655,0.0135916015,0.005096175,0.10909142,0.109445795,0.08161496,1.5703307e-07,1.574626e-07,2.931737e-07,0.0027910648,0.0027877213,8.757999e-06,0.0006977995,6.118826e-06,0.00080262445,0.00031973512,0.0006965168,0.00080105197,1.0,1.0,0.010000001,25
1592964000,1592808000,0.70815194,2.4562125e-05,0.0018166032,0.7060578,-0.049933676,-0.0051492783,-0.0072685108,0.0,0.0,-488.1512,-0.0002118433,-0.00011585182,0.00018306678,0.006375845,-0.0030958361,0.0024560662,0.2152025,0.012830051,0.42493707,-0.011493389,-0.0010120649,0.0042717117,0.0,0.0,-488.0512,4.2600448e-05,4.23527e-05,0.0070072124,0.013486516,0.013648352,0.005104698,0.10947997,0.10983797,0.08183666,1.5709708e-07,1.575266e-07,2.9323772e-07,0.0027910653,0.0027877218,8.758575e-06,0.00069779955,6.1188903e-06,0.0008026245,0.00031973512,0.0006965168,0.00080105197,1.0,1.0,0.010000001,25
1592980000,1592824000,0.7081133,6.316139e-05,0.0016974015,0.70609677,-0.051618267,-0.0053431587,-0.007792495,0.0,0.0,-488.15134,-0.0002118433,-0.00011585182,0.00018306678,0.006375845,-0.0030958361,0.0024560662,0.2152025,0.012830051,0.42493707,-0.011493389,-0.0010120649,0.0042717117,0.0,0.0,-488.05133,4.2652402e-05,4.2404336e-05,0.0070074033,0.013598747,0.01376281,0.0051217517,0.110263504,0.110628836,0.082282074,1.5722509e-07,1.5765461e-07,2.9336573e-07,0.0027910662,0.0027877227,8.759726e-06,0.00069779967,6.1190185e-06,0.0008026246,0.00031973512,0.0006965168,0.00080105197,1.0,1.0,0.010000001,25
1592988000,1592832000,0.70808697,5.9615355e-05,0.0017157951,0.7061232,-0.051437706,-0.0046654125,-0.0069335327,0.0,0.0,-488.1514,-0.0002118433,-0.00011585182,0.00018306678,0.006375845,-0.0030958361,0.0024560662,0.2152025,0.012830051,0.42493707,-0.011493389,-0.0010120649,0.0042717117,0.0,0.0,-488.0514,4.267841e-05,4.2430183e-05,0.0070074988,0.0136542665,0.013819147,0.0051302765,0.11065851,0.111027546,0.082505785,1.572891e-07,1.5771862e-07,2.9342974e-07,0.0027910667,0.0027877232,8.760302e-06,0.0006977997,6.1190826e-06,0.0008026247,0.00031973512,0.0006965168,0.00080105197,1.0,1.0,0.010000001,25
1592996000,1592840000,0.70809555,3.2260294e-05,0.0017368611,0.70611453,-0.051431645,-0.004189036,-0.0063179433,0.0,0.0,-488.15146,-0.0002118433,-0.00011585182,0.00018306678,0.006375845,-0.0030958361,0.0024560662,0.2152025,0.012830051,0.42493707,-0.011493389,-0.0010120649,0.0042717117,0.0,0.0,-488.05145,4.270444e-05,4.2456053e-05,0.007007594,0.013710167,0.013875901,0.0051388033,0.11105568,0.111428455,0.08273016,1.573531e-07,1.5778262e-07,2.9349374e-07,0.0027910671,0.0027877237,8.760878e-06,0.0006977998,6.1191467e-06,0.00080262474,0.00031973512,0.0006965168,0.00080105197,1.0,1.0,0.010000001,25
1593004000,1592848000,0.7080892,-9.814768e-06,0.0017063534,0.706121,-0.0506738,-0.00393259,-0.0055398354,0.0,0.0,-488.15073,-0.00021184361,-0.000115851755,0.00018306675,0.0063758125,-0.0030957828,0.0024549651,0.2152025,0.012830051,0.42493707,-0.011493388,-0.0010120659,0.004271711,0.0,0.0,-488.05072,4.27305e-05,4.248195e-05,0.0070076915,0.013766283,0.013932483,0.005131395,0.11145502,0.11183157,0.08240265,1.574171e-07,1.5784663e-07,2.9355775e-07,0.0027910676,0.0027877241,8.760396e-06,0.00069779984,6.119211e-06,0.0008026248,0.00031973512,0.0006965168,0.00080105197,1.0,1.0,0.010000001,25
1593020000,1592864000,0.7080843,-4.6416744e-06,0.0017859946,0.70612574,-0.050541393,-0.0046205698,-0.0052531273,0.0,0.0,-488.1508,-0.0002118024,-0.000115882656,0.00018294061,0.006375723,-0.003095754,0.0024549651,0.21520153,0.012829982,0.42493695,-0.011493151,-0.0010129556,0.0042713913,0.0,0.0,-488.05078,4.2773136e-05,4.251765e-05,0.007007253,0.013871561,0.014042902,0.0051484504,0.112250246,0.11264035,0.08285175,1.5749929e-07,1.5794586e-07,2.932795e-07,0.0027910685,0.002787725,8.761547e-06,0.0006977972,6.1187525e-06,0.00080262194,0.00031973468,0.0006965147,0.0008010495,1.0,1.0,0.010000001,25
1593028000,1592872000,0.7081039,2.896108e-05,0.0017873903,0.70610607,-0.05066607,-0.0046738354,-0.0056846365,0.0,0.0,-488.15082,-0.0002118024,-0.000115882656,0.00018294061,0.006375723,-0.003095754,0.0024549651,0.21520153,0.012829982,0.42493695,-0.011493151,-0.0010129556,0.0042713913,0.0,0.0,-488.0508,4.2799245e-05,4.2543594e-05,0.00700735,0.013928914,0.014101091,0.00515698,0.11265604,0.11305009,0.08307731,1.5756329e-07,1.5800987e-07,2.933435e-07,0.002791069,0.0027877255,8.762123e-06,0.0006977973,6.1188166e-06,0.000802622,0.00031973468,0.0006965147,0.0008010495,1.0,1.0,0.010000001,25
1593036000,1592880000,0.7080896,5.4775846e-05,0.0018140296,0.7061204,-0.0512281,-0.0039981203,-0.0056666583,0.0,0.0,-488.15085,-0.0002118024,-0.000115882656,0.00018294061,0.006375723,-0.003095754,0.0024549651,0.21520153,0.012829982,0.42493695,-0.011493151,-0.0010129556,0.0042713913,0.0,0.0,-488.05084,4.2825373e-05,4.2569558e-05,0.0070074475,0.013986008,0.014159378,0.005165512,0.11306406,0.11346208,0.08330355,1.576273e-07,1.5807387e-07,2.934075e-07,0.0027910694,0.002787726,8.762699e-06,0.00069779734,6.1188807e-06,0.00080262206,0.00031973468,0.0006965147,0.0008010495,1.0,1.0,0.010000001,25
1593044000,1592888000,0.7080903,2.711731e-05,0.0018479539,0.7061195,-0.0516426,-0.003855709,-0.006102234,0.0,0.0,-488.1509,-0.00021172981,-0.000114287424,0.00018040808,0.006375854,-0.003095585,0.0024549651,0.21520057,0.012830179,0.42493704,-0.011492121,-0.0010138293,0.004271288,0.0,0.0,-488.0509,4.284908e-05,4.2593212e-05,0.00700743,0.0140426885,0.014216972,0.0051740455,0.11347334,0.113875225,0.08353046,1.5758086e-07,1.5802671e-07,2.9308916e-07,0.00279107,0.0027877265,8.763274e-06,0.00069779734,6.1189426e-06,0.0008026221,0.00031973465,0.0006965146,0.0008010495,1.0,1.0,0.010000001,25
1593060000,1592904000,0.7081128,-7.683173e-06,0.0018587878,0.7060969,-0.051330503,-0.003928194,-0.0053299456,0.0,0.0,-488.15106,-0.00021172978,-0.00011428743,0.00018040808,0.006375856,-0.003095589,0.0024550492,0.21520057,0.012830179,0.42493704,-0.011492121,-0.0010138291,0.004271288,0.0,0.0,-488.05106,4.2901407e-05,4.2645206e-05,0.0070076208,0.014157641,0.014333358,0.0051747197,0.114300534,0.11471054,0.08341996,1.5770887e-07,1.5815472e-07,2.9321717e-07,0.0027910708,0.0027877274,8.763337e-06,0.00069779746,6.119071e-06,0.00080262223,0.00031973465,0.0006965146,0.0008010495,1.0,1.0,0.010000001,25
1593068000,1592912000,0.7081249,3.4977616e-05,0.0018579046,0.7060848,-0.050997708,-0.0038321863,-0.005628988,0.0,0.0,-488.1511,-0.00021172978,-0.00011428743,0.00018040808,0.006375856,-0.003095589,0.0024550492,0.21520057,0.012830179,0.42493704,-0.011492121,-0.0010138291,0.004271288,0.0,0.0,-488.0511,4.29276e-05,4.2671236e-05,0.007007716,0.014215808,0.014392203,0.0051832516,0.11471752,0.115131624,0.08364736,1.5777287e-07,1.5821873e-07,2.9328118e-07,0.0027910713,0.0027877279,8.763913e-06,0.0006977975,6.119135e-06,0.0008026223,0.00031973465,0.0006965146,0.0008010495,1.0,1.0,0.010000001,25
1593076000,1592920000,0.70815957,6.9619135e-05,0.001822009,0.7060501,-0.050731763,-0.0037533827,-0.0062246993,0.0,0.0,-488.15115,-0.00021172978,-0.00011428743,0.00018040808,0.006375856,-0.003095589,0.0024550492,0.21520057,0.012830179,0.42493704,-0.011492121,-0.0010138291,0.004271288,0.0,0.0,-488.05115,4.2953812e-05,4.2697284e-05,0.0070078117,0.014274361,0.014451466,0.005191785,0.11513678,0.11555502,0.08387544,1.5783688e-07,1.5828273e-07,2.9334518e-07,0.0027910718,0.0027877283,8.7644885e-06,0.0006977976,6.119199e-06,0.00080262235,0.00031973465,0.0006965146,0.0008010495,1.0,1.0,0.010000001,25
1593084000,1592928000,0.70814335,5.838722e-05,0.001764012,0.7060665,-0.051414542,-0.0038611856,-0.0067599686,0.0,0.0,-488.1512,-0.00021142181,-0.00011432188,0.0001802077,0.0063758125,-0.0030957945,0.002455049,0.21520016,0.012830148,0.42493513,-0.011491991,-0.0010150493,0.004272666,0.0,0.0,-488.0512,4.2970274e-05,4.2706768e-05,0.0070072785,0.014324218,0.014506535,0.0052003227,0.11554704,0.11597606,0.084104195,1.5785396e-07,1.5831733e-07,2.9300452e-07,0.0027910722,0.0027877288,8.765064e-06,0.0006977947,6.118675e-06,0.0008026195,0.00031973424,0.0006965123,0.0008010471,1.0,1.0,0.010000001,25
1593100000,1592944000,0.70814186,5.9778155e-05,0.0017567156,0.7060681,-0.05178502,-0.0041134693,-0.006688513,0.0,0.0,-488.15134,-0.00021142181,-0.00011432188,0.0001802077,0.0063758125,-0.0030957945,0.002455049,0.21520016,0.012830148,0.42493513,-0.011491991,-0.0010150493,0.004272666,0.0,0.0,-488.05133,4.3022796e-05,4.2758944e-05,0.0070074713,0.014441431,0.014625527,0.0052173976,0.116396725,0.116834335,0.084563754,1.5798197e-07,1.5844535e-07,2.9313253e-07,0.0027910732,0.0027877297,8.766216e-06,0.00069779484,6.1188034e-06,0.0008026196,0.00031973424,0.0006965123,0.0008010471,1.0,1.0,0.010000001,25
1593108000,1592952000,0.7081207,5.4765012e-05,0.0018067432,0.7060892,-0.05156124,-0.004954758,-0.006597057,0.0,0.0,-488.1514,-0.00021142181,-0.00011432188,0.0001802077,0.0063758125,-0.0030957945,0.002455049,0.21520016,0.012830148,0.42493513,-0.011491991,-0.0010150493,0.004272666,0.0,0.0,-488.0514,4.3049087e-05,4.278507e-05,0.0070075686,0.014500453,0.014685091,0.0052259355,0.11682503,0.117267,0.08479455,1.5804598e-07,1.5850935e-07,2.9319654e-07,0.0027910736,0.0027877302,8.766791e-06,0.0006977949,6.1188675e-06,0.0008026197,0.00031973424,0.0006965123,0.0008010471,1.0,1.0,0.010000001,25
1593116000,1592960000,0.70808905,4.5930854e-05,0.0017995285,0.70612085,-0.051893085,-0.0055638524,-0.0063131526,0.0,0.0,-488.15146,-0.00021142181,-0.00011432188,0.0001802077,0.0063758125,-0.0030957945,0.002455049,0.21520016,0.012830148,0.42493513,-0.011491991,-0.0010150493,0.004272666,0.0,0.0,-488.05145,4.30754e-05,4.281121e-05,0.007007666,0.014559493,0.014744967,0.005234476,0.117255665,0.11770202,0.08502603,1.5810998e-07,1.5857336e-07,2.9326054e-07,0.002791074,0.0027877307,8.767367e-06,0.00069779495,6.1189317e-06,0.00080261973,0.00031973424,0.0006965123,0.0008010471,1.0,1.0,0.010000001,25
1593124000,1592968000,0.70802546,5.6806453e-05,0.0018261771,0.70618457,-0.052305114,-0.0052346583,-0.00635801,0.0,0.0,-488.15207,-0.00021142157,-0.00011432193,0.00018020772,0.006375835,-0.0030958343,0.002455799,0.21520016,0.012830148,0.42493513,-0.011491992,-0.0010150485,0.0042726663,0.0,0.0,-488.05206,4.310173e-05,4.2837364e-05,0.0070077614,0.014618645,0.0148052275,0.005226062,0.11768864,0.11813941,0.08467463,1.5817399e-07,1.5863736e-07,2.9332455e-07,0.0027910746,0.0027877311,8.766817e-06,0.000697795,6.1189958e-06,0.0008026198,0.00031973424,0.0006965123,0.0008010471,1.0,1.0,0.010000001,25
1593140000,1592984000,0.70807123,1.8510882e-05,0.0018027422,0.70613873,-0.051118072,-0.005911021,-0.0054420605,0.0,0.0,-488.15216,-0.00021142157,-0.00011432193,0.00018020772,0.006375835,-0.0030958343,0.002455799,0.21520016,0.012830148,0.42493513,-0.011491992,-0.0010150485,0.0042726663,0.0,0.0,-488.05215,4.3154447e-05,4.2889737e-05,0.0070079523,0.014737313,0.014924896,0.0052431393,0.11856163,0.11902134,0.08513783,1.58302e-07,1.5876537e-07,2.9345256e-07,0.0027910755,0.002787732,8.767968e-06,0.0006977951,6.119124e-06,0.0008026199,0.00031973424,0.0006965123,0.0008010471,1.0,1.0,0.010000001,25
1593148000,1592992000,0.70804894,-7.633916e-06,0.0018234231,0.706161,-0.050865922,-0.006378689,-0.0050690174,0.0,0.0,-488.1522,-0.00021142157,-0.00011432193,0.00018020772,0.006375835,-0.0030958343,0.002455799,0.21520016,0.012830148,0.42493513,-0.011491992,-0.0010150485,0.0042726663,0.0,0.0,-488.0522,4.3180833e-05,4.291595e-05,0.007008048,0.014797023,0.014985228,0.005251681,0.11900167,0.11946591,0.08537046,1.58366e-07,1.5882938e-07,2.9351656e-07,0.002791076,0.0027877325,8.768544e-06,0.0006977952,6.119188e-06,0.00080261996,0.00031973424,0.0006965123,0.0008010471,1.0,1.0,0.010000001,25
1593156000,1593000000,0.7080602,-3.0123663e-05,0.0018096924,0.70614976,-0.050728317,-0.006541151,-0.004868611,0.0,0.0,-488.15222,-0.00021121147,-0.00011411054,0.00018093208,0.0063759177,-0.0030958755,0.002455799,0.21520172,0.012830278,0.42493266,-0.011491632,-0.0010142142,0.0042751087,0.0,0.0,-488.05222,4.319717e-05,4.2925076e-05,0.0070075127,0.0148475105,0.015040826,0.005260224,0.119431265,0.1199075,0.08560377,1.5838175e-07,1.5886322e-07,2.9317607e-07,0.0027910764,0.002787733,8.76912e-06,0.0006977926,6.118666e-06,0.00080261705,0.00031973378,0.00069651025,0.0008010446,1.0,1.0,0.010000001,25
1593164000,1593008000,0.70805216,-8.228603e-05,0.0018353037,0.70615774,-0.050815377,-0.0071964622,-0.0044319183,0.0,0.0,-488.15225,-0.00021121147,-0.00011411054,0.00018093208,0.0063759177,-0.0030958755,0.002455799,0.21520172,0.012830278,0.42493266,-0.011491632,-0.0010142142,0.0042751087,0.0,0.0,-488.05225,4.3223594e-05,4.2951317e-05,0.007007608,0.014907554,0.015101611,0.005268769,0.1198759,0.12035682,0.08583778,1.5844576e-07,1.5892722e-07,2.9324008e-07,0.002791077,0.0027877335,8.769695e-06,0.0006977927,6.11873e-06,0.0008026171,0.00031973378,0.00069651025,0.0008010446,1.0,1.0,0.010000001,25
1593180000,1593024000,0.70806533,-5.2261188e-05,0.0018641205,0.7061446,-0.05114866,-0.008366223,-0.0041234866,0.0,0.0,-488.1523,-0.00021121147,-0.00011411054,0.00018093208,0.0063759177,-0.0030958755,0.002455799,0.21520172,0.012830278,0.42493266,-0.011491632,-0.0010142142,0.0042751087,0.0,0.0,-488.0523,4.3276494e-05,4.3003864e-05,0.007007799,0.015028573,0.015224206,0.0052858624,0.120772384,0.12126279,0.08630787,1.5857377e-07,1.5905523e-07,2.933681e-07,0.0027910778,0.0027877344,8.770847e-06,0.0006977928,6.1188584e-06,0.0008026172,0.00031973378,0.00069651025,0.0008010446,1.0,1.0,0.010000001,25
1593188000,1593032000,0.70806193,-7.0624636e-05,0.0018264125,0.706148,-0.05076194,-0.008264959,-0.0037187561,0.0,0.0,-488.15234,-0.00021121147,-0.00011411054,0.00018093208,0.0063759177,-0.0030958755,0.002455799,0.21520172,0.012830278,0.42493266,-0.011491632,-0.0010142142,0.0042751087,0.0,0.0,-488.05234,4.330298e-05,4.3030173e-05,0.0070078964,0.015089004,0.015285399,0.0052944086,0.121224254,0.12171946,0.08654395,1.5863777e-07,1.5911924e-07,2.934321e-07,0.0027910783,0.0027877348,8.7714225e-06,0.00069779286,6.1189226e-06,0.0008026173,0.00031973378,0.00069651025,0.0008010446,1.0,1.0,0.010000001,25
1593196000,1593040000,0.70802677,-0.00010840851,0.0017105163,0.70618355,-0.043183573,-0.005557465,-0.0026098466,0.0,0.0,-488.14856,-0.00020308183,-0.00011113224,0.0001804257,0.0063768206,-0.0030924557,0.0024489916,0.21519953,0.012830131,0.42493552,-0.011488947,-0.0010141765,0.0042733382,0.0,0.0,-488.04855,4.211364e-05,4.1877393e-05,0.007007371,0.0124333585,0.012568436,0.0049613044,0.10230324,0.10258477,0.07845465,1.5600727e-07,1.5640605e-07,2.9338207e-07,0.0027910778,0.0027877348,8.748841e-06,0.00069779257,6.1189735e-06,0.000802617,0.0003196705,0.0006965091,0.00080104446,1.0,1.0,0.010000001,25
1593204000,1593048000,0.70805347,-0.00012494093,0.0016987559,0.70615685,-0.04360478,-0.005995724,-0.002072364,0.0,0.0,-488.1486,-0.00020308183,-0.00011113224,0.0001804257,0.0063768206,-0.0030924557,0.0024489916,0.21519953,0.012830131,0.42493552,-0.011488947,-0.0010141765,0.0042733382,0.0,0.0,-488.04858,4.2139225e-05,4.1902833e-05,0.0070074666,0.012485529,0.012621292,0.0049698106,0.10265424,0.10293874,0.07866645,1.5607128e-07,1.5647005e-07,2.9344608e-07,0.0027910783,0.0027877353,8.749416e-06,0.0006977926,6.1190376e-06,0.00080261705,0.0003196705,0.0006965091,0.00080104446,1.0,1.0,0.010000001,25
1593220000,1593064000,0.7080421,-0.00017780974,0.0016764046,0.70616823,-0.04455154,-0.0066475375,-0.002218835,0.0,0.0,-488.14865,-0.00020308183,-0.00011113224,0.0001804257,0.0063768206,-0.0030924557,0.0024489916,0.21519953,0.012830131,0.42493552,-0.011488947,-0.0010141765,0.0042733382,0.0,0.0,-488.04865,4.2190488e-05,4.195381e-05,0.007007663,0.012591041,0.012728284,0.0049868263,0.10336211,0.10365262,0.07909199,1.5619929e-07,1.5659806e-07,2.935741e-07,0.0027910792,0.0027877362,8.750568e-06,0.00069779274,6.119166e-06,0.00080261717,0.0003196705,0.0006965091,0.00080104446,1.0,1.0,0.010000001,25
