timestamp,timestamp_sample,device_id,bias,bias_var,innov,innov_var,innov_test_ratio
1592212000,1592052000,6620172,-0.026576808,0.119216986,0.010781374,12.452657,1.037155e-06
1592284000,1592122666,6620172,-0.026754502,0.11926916,-0.018375585,12.45419,3.012481e-06
1592356000,1592196000,6620172,-0.027346175,0.119320475,-0.06116664,12.455743,3.337468e-05
1592428000,1592268000,6620172,-0.027600259,0.11937021,-0.026242692,12.449558,6.146393e-06
1592500000,1592340000,6620172,-0.02753748,0.11941912,0.0064820945,12.451039,3.7495798e-07
1592572000,1592412000,6620172,-0.027892444,0.11946723,-0.036640987,12.45254,1.1979367e-05
1592644000,1592484000,6620172,-0.029023008,0.11951455,-0.11666933,12.454062,0.000121439465
1592716000,1592554666,6620172,-0.028685488,0.11956109,0.034821346,12.455606,1.0816424e-05
1592788000,1592626666,6620172,-0.02831387,0.11960688,0.038329042,12.45717,1.3103703e-05
1592860000,1592700000,6620172,-0.02786024,0.11965119,0.046746485,12.450865,1.9500956e-05
1592932000,1592770666,6620172,-0.027875073,0.11969478,-0.0015281886,12.452354,2.0838186e-08
1593004000,1592841333,6620172,-0.029034622,0.11973766,-0.11943328,12.453867,0.00012726354
1593060000,1592904000,6620172,-0.028947268,0.11951464,0.009015091,12.45467,7.250459e-07
1593124000,1592962666,6620172,-0.028183913,0.11942862,0.078843504,12.455854,5.545182e-05
1593196000,1593036000,6620172,-0.027699603,0.1194769,0.050003983,12.456369,2.2303613e-05
1593268000,1593106666,6620172,-0.027331112,0.11952375,0.038014546,12.451078,1.2895855e-05
1593324000,1593168000,6620172,-0.027242953,0.119304605,0.009112118,12.451863,7.409037e-07
1593388000,1593225333,6620172,-0.027746642,0.11922239,-0.052102752,12.453022,2.422167e-05
1593444000,1593288000,6620172,-0.028286638,0.11900925,-0.055963077,12.453834,2.7942007e-05
1593508000,1593346666,6620172,-0.02868155,0.118932925,-0.04095775,12.455024,1.4965289e-05
1593580000,1593418666,6620172,-0.028164415,0.11899081,0.05361441,12.456602,2.5640173e-05
1593652000,1593492000,6620172,-0.028983273,0.119046986,-0.08481166,12.450282,6.419326e-05
1593724000,1593562666,6620172,-0.02883421,0.11910222,0.015433468,12.451786,2.1254598e-06
1593796000,1593633333,6620172,-0.028639363,0.119156525,0.020167219,12.45331,3.628814e-06
1593868000,1593708000,6620172,-0.028807938,0.11920993,-0.01744218,12.454855,2.7140657e-06
1593940000,1593777333,6620172,-0.029288858,0.11926245,-0.049744308,12.45642,2.2072474e-05
1593996000,1593838000,6620172,-0.029307785,0.11904876,-0.0019611418,12.456193,3.4307586e-08
1594060000,1593898666,6620172,-0.028208489,0.11897125,0.11393303,12.450521,0.00011584285
1594116000,1593960000,6620172,-0.028980792,0.118762724,-0.08018995,12.451318,5.7382844e-05
1594180000,1594020000,6620172,-0.029197358,0.118690915,-0.022502363,12.452486,4.5181187e-06
1594252000,1594092000,6620172,-0.029589688,0.118753225,-0.04074893,12.454035,1.4814257e-05
1594324000,1594162666,6620172,-0.02907071,0.11881448,0.053881682,12.4556055,2.5898518e-05
1594396000,1594234666,6620172,-0.028513849,0.11887461,0.057787754,12.456126,2.9788329e-05
1594468000,1594308000,6620172,-0.028487256,0.11893308,0.0027570128,12.450795,6.7832524e-08
1594540000,1594378666,6620172,-0.028826334,0.11899056,-0.035141893,12.452309,1.1019399e-05
1594612000,1594449333,6620172,-0.02875694,0.119047076,0.0071893707,12.453845,4.6114317e-07
1594684000,1594522666,6620172,-0.028736813,0.11910264,0.0020845775,12.4553995,3.8764654e-08
1594740000,1594582000,6620172,-0.02867368,0.11889204,0.0065505337,12.456233,3.827579e-07
1594804000,1594642666,6620172,-0.028168553,0.11881746,0.052416354,12.449522,2.4521014e-05
1594860000,1594704000,6620172,-0.028306812,0.1186118,-0.01437295,12.450312,1.8436103e-06
1594924000,1594762666,6620172,-0.028039692,0.1185428,0.027788013,12.451473,6.890516e-06
1594996000,1594836000,6620172,-0.028501987,0.118607864,-0.048071146,12.453011,2.0618263e-05
1595068000,1594908000,6620172,-0.028556025,0.11867182,-0.005616665,12.454569,2.8144e-07
1595140000,1594980000,6620172,-0.027844992,0.118734695,0.07387463,12.456147,4.8681548e-05
1595212000,1595052000,6620172,-0.0277102,0.11879577,0.013990011,12.449778,1.7467551e-06
1595284000,1595124000,6620172,-0.027762555,0.118855804,-0.0054318905,12.451279,2.6329678e-07
1595356000,1595196000,6620172,-0.02836292,0.11891482,-0.0622643,12.452802,3.459144e-05
1595428000,1595268000,6620172,-0.028465537,0.118972845,-0.010638544,12.454345,1.0097201e-06
1595500000,1595338666,6620172,-0.028982699,0.119029894,-0.05359623,12.455908,2.5624215e-05
1595556000,1595400000,6620172,-0.02854983,0.11882074,0.044943392,12.456745,1.8017088e-05
1595620000,1595458666,6620172,-0.027864287,0.11874758,0.071182884,12.449974,4.5221004e-05
1595692000,1595532000,6620172,-0.027600825,0.11880856,0.027345488,12.451479,6.672797e-06
1595764000,1595602666,6620172,-0.02824986,0.11886851,-0.06733936,12.453006,4.0459574e-05
1595836000,1595674666,6620172,-0.028171092,0.11892744,0.008169293,12.454552,5.9538564e-07
1595908000,1595746666,6620172,-0.028277615,0.118985385,-0.011043996,12.456118,1.0879959e-06
1595980000,1595818666,6620172,-0.027751535,0.11904236,0.05452273,12.457705,2.6513964e-05
1596052000,1595890666,6620172,-0.027691593,0.11909763,0.006206125,12.451212,3.4370584e-07
1596108000,1595952000,6620172,-0.027451698,0.118886724,0.024883976,12.452006,5.5253236e-06
1596172000,1596010666,6620172,-0.026718028,0.11881259,0.07615775,12.453176,5.174943e-05
1596244000,1596084000,6620172,-0.026674354,0.11887262,0.0045317486,12.454725,1.8321244e-07
1596316000,1596154666,6620172,-0.02663138,0.118931636,0.0044575576,12.456295,1.7724032e-07
1596388000,1596226666,6620172,-0.02604725,0.11898966,0.060566925,12.457885,3.271781e-05
1596460000,1596298666,6620172,-0.025680004,0.119045965,0.03804066,12.451372,1.2913274e-05
1596532000,1596370666,6620172,-0.025548711,0.11910132,0.013595043,12.452886,1.6491063e-06
1596588000,1596432000,6620172,-0.025422458,0.11889051,0.01309754,12.453693,1.5305192e-06
1596652000,1596490666,6620172,-0.02525577,0.11881646,0.017304782,12.454881,2.6714692e-06
1596724000,1596564000,6620172,-0.025911385,0.11887658,-0.06803647,12.456453,4.1290165e-05
1596796000,1596636000,6620172,-0.026426233,0.11893558,-0.053403802,12.456964,2.5438392e-05
1596868000,1596708000,6620172,-0.026459824,0.11899294,-0.0034809932,12.451516,1.0812885e-07
1596940000,1596780000,6620172,-0.026768837,0.11904933,-0.032011855,12.4530325,9.143323e-06
1597012000,1596852000,6620172,-0.026216246,0.11910478,0.05722538,12.454569,2.921502e-05
1597084000,1596921333,6620172,-0.026267523,0.1191593,-0.005308412,12.456126,2.5136438e-07
1597156000,1596994666,6620172,-0.025560763,0.11921292,0.07314252,12.457703,4.771549e-05
1597228000,1597066666,6620172,-0.025059393,0.119264886,0.051836397,12.451183,2.3978193e-05
1597300000,1597138666,6620172,-0.024849122,0.11931599,0.021732977,12.4526825,4.2143733e-06
1597372000,1597210666,6620172,-0.024454752,0.11936625,0.040748782,12.454205,1.4813946e-05
1597428000,1597272000,6620172,-0.023886293,0.119150445,0.05884806,12.455014,3.0894244e-05
1597492000,1597330666,6620172,-0.023822458,0.119071506,0.006613344,12.456204,3.9013418e-07
1597548000,1597392000,6620172,-0.023315676,0.11886158,0.052600533,12.457039,2.4678737e-05
1597612000,1597450666,6620172,-0.02343592,0.118787654,-0.012481444,12.450208,1.3903064e-06
1597684000,1597524000,6620172,-0.023729464,0.118847884,-0.030458122,12.451709,8.278179e-06
1597756000,1597593333,6620172,-0.022792183,0.118907094,0.097215794,12.453231,8.432359e-05
1597828000,1597668000,6620172,-0.022773683,0.118965305,0.0019181594,12.454774,3.2823966e-08
1597900000,1597738666,6620172,-0.022890503,0.11902254,-0.012107909,12.456337,1.3076918e-06
1597972000,1597812000,6620172,-0.022819495,0.119078815,0.0073570553,12.457919,4.827475e-07
1598044000,1597882666,6620172,-0.023075193,0.1191334,-0.026466394,12.451378,6.250714e-06
1598100000,1597942000,6620172,-0.022797346,0.118921824,0.028812498,12.452169,7.4075447e-06
1598164000,1598002666,6620172,-0.022690002,0.11884703,0.011139631,12.453335,1.1071678e-06
1598220000,1598064000,6620172,-0.023607757,0.11864115,-0.09541303,12.454151,8.121921e-05
1598284000,1598124000,6620172,-0.02348409,0.118571945,0.012865569,12.455347,1.4765893e-06
1598356000,1598196000,6620172,-0.02293956,0.11863681,0.05662618,12.456931,2.8600982e-05
1598428000,1598268000,6620172,-0.02242055,0.11869983,0.0539149,12.450453,2.5941194e-05
1598500000,1598338666,6620172,-0.021764671,0.11876177,0.06810536,12.451961,4.1388757e-05
1598572000,1598410666,6620172,-0.02079644,0.118822664,0.100500025,12.453488,9.0115354e-05
1598644000,1598484000,6620172,-0.021155136,0.11888253,-0.037217475,12.455035,1.235681e-05
1598716000,1598553333,6620172,-0.021195972,0.11894139,-0.0042354893,12.456604,1.600166e-07
1598772000,1598616000,6620172,-0.020984057,0.118734,0.022019947,12.457442,4.324751e-06
1598836000,1598674666,6620172,-0.020463772,0.118662566,0.054065112,12.450577,2.6085683e-05
1598908000,1598748000,6620172,-0.020546755,0.11872524,-0.00861948,12.452087,6.6294496e-07
1598980000,1598818666,6620172,-0.019825693,0.11878685,0.074868046,12.453617,5.0009785e-05
1599036000,1598880000,6620172,-0.019684384,0.11858216,0.01469874,12.454437,1.9274964e-06
1599100000,1598937333,6620172,-0.019992813,0.11851411,-0.03210395,12.455639,9.194082e-06
1599172000,1599010666,6620172,-0.019814735,0.11858012,0.01852797,12.457227,3.0619055e-06
1599244000,1599082666,6620172,-0.020600699,0.11864425,-0.08168673,12.4507265,5.954781e-05
1599300000,1599144000,6620172,-0.020543823,0.11844203,0.005921744,12.451526,3.129206e-07
1599364000,1599204000,6620172,-0.02034576,0.118376404,0.020635376,12.452698,3.799433e-06
1599436000,1599274666,6620172,-0.019841809,0.118444785,0.052480772,12.454249,2.4571993e-05
1599492000,1599336000,6620172,-0.01990436,0.11824672,-0.0065253787,12.455084,3.7985888e-07
1599556000,1599396000,6620172,-0.019231595,0.11818517,0.07022785,12.456303,4.3993354e-05
1599628000,1599466666,6620172,-0.018671934,0.118256815,0.05835513,12.449861,3.0391426e-05
1599748000,1599586666,6620172,-0.01860544,0.118003525,0.0070456583,12.451837,4.4296277e-07
1599820000,1599660000,6620172,-0.01758037,0.11807898,0.1070759,12.45339,0.000102294754
1599892000,1599730666,6620172,-0.016506135,0.118153125,0.11215434,12.454964,0.00011221404
1599948000,1599792000,6620172,-0.015266598,0.117960714,0.1296348,12.4558115,0.00014990933
1600012000,1599852000,6620172,-0.014259452,0.11790398,0.10532397,12.449049,9.9009245e-05
1600084000,1599922666,6620172,-0.013499654,0.117981076,0.07941448,12.450563,5.6281788e-05
1600156000,1599996000,6620172,-0.012481477,0.118056834,0.106364645,12.452098,0.000100950754
1600228000,1600068000,6620172,-0.011829697,0.11813129,0.06805399,12.453653,4.1320724e-05
1600300000,1600140000,6620172,-0.011709909,0.11820446,0.012501083,12.455229,1.3941229e-06
1600372000,1600212000,6620172,-0.010572203,0.11827637,0.11867402,12.456822,0.00012562078
1600444000,1600282666,6620172,-0.010476008,0.11834631,0.010022887,12.450344,8.965238e-07
1600516000,1600356000,6620172,-0.009249007,0.11841505,0.12778558,12.451861,0.00014570919
1600588000,1600426666,6620172,-0.008567676,0.118482605,0.070925035,12.4534,4.4881635e-05
1600644000,1600486000,6620172,-0.009133143,0.118283734,-0.058967724,12.4542265,3.1021977e-05
1600708000,1600546666,6620172,-0.008491402,0.118221395,0.066963956,12.455436,4.0001916e-05
1600780000,1600620000,6620172,-0.008089879,0.118293,0.04187763,12.457031,1.5642536e-05
1600852000,1600692000,6620172,-0.0080257,0.11836264,0.00668607,12.450538,3.9894334e-07
1600924000,1600764000,6620172,-0.0077361553,0.118431084,0.030150944,12.452058,8.111818e-06
1600996000,1600836000,6620172,-0.007354266,0.118498355,0.039749093,12.453599,1.4096687e-05
1601068000,1600906666,6620172,-0.006953001,0.11856447,0.041747577,12.455159,1.5547865e-05
1601124000,1600968000,6620172,-0.0064819255,0.11836419,0.049097776,12.455998,2.1503174e-05
1601188000,1601028000,6620172,-0.0065163374,0.118300475,-0.0035888753,12.457222,1.1488227e-07
1601260000,1601100000,6620172,-0.0056478935,0.11836999,0.090470195,12.450716,7.304226e-05
1601332000,1601170666,6620172,-0.005452975,0.1184383,0.020296331,12.452239,3.6757428e-06
1601404000,1601242666,6620172,-0.0049798256,0.11850545,0.0492457,12.453781,2.1636793e-05
1601476000,1601314666,6620172,-0.0047436357,0.118571445,0.024572112,12.455345,5.386252e-06
1601548000,1601385333,6620172,-0.004576526,0.118636325,0.017377913,12.456927,2.6936539e-06
1601604000,1601448000,6620172,-0.004339982,0.118434094,0.024626575,12.44973,5.4125962e-06
1601668000,1601508000,6620172,-0.0041626925,0.118368454,0.01846962,12.450879,3.0442015e-06
1601740000,1601580000,6620172,-0.004014866,0.11843681,0.015393161,12.452404,2.1142673e-06
1601812000,1601652000,6620172,-0.0033936976,0.118504,0.06465329,12.453949,3.7293375e-05
1601884000,1601722666,6620172,-0.004422936,0.118570045,-0.10707994,12.455514,0.00010228503
1601940000,1601784000,6620172,-0.0046979054,0.11836969,-0.028658118,12.456355,7.325915e-06
1602004000,1601842666,6620172,-0.0045058387,0.11830516,0.02001773,12.449547,3.576297e-06
1602076000,1601916000,6620172,-0.004590311,0.118374616,-0.008799825,12.451053,6.9103413e-07
1602148000,1601988000,6620172,-0.0051233075,0.11844288,-0.0554988,12.4525795,2.7483078e-05
1602220000,1602058666,6620172,-0.004697889,0.11850997,0.04427736,12.454126,1.7490718e-05
1602292000,1602130666,6620172,-0.004087463,0.118575916,0.06350526,12.455694,3.5975678e-05
1602364000,1602204000,6620172,-0.003876773,0.11864074,0.021909729,12.457281,4.281621e-06
1602436000,1602276000,6620172,-0.0036670053,0.118703716,0.021790592,12.450763,4.2374013e-06
1602508000,1602346666,6620172,-0.003297824,0.118765615,0.038334973,12.452273,1.3112914e-05
1602564000,1602408000,6620172,-0.0040552784,0.11856121,-0.078794464,12.453081,5.5395194e-05
1602628000,1602468000,6620172,-0.004402132,0.11849344,-0.036105856,12.4542675,1.1630398e-05
1602700000,1602540000,6620172,-0.003492543,0.11855971,0.09464261,12.455836,7.990207e-05
1602772000,1602612000,6620172,-0.0031444137,0.11862486,0.036207385,12.457425,1.1692934e-05
1602844000,1602682666,6620172,-0.0033253445,0.11868815,-0.018797725,12.450898,3.1533154e-06
1602916000,1602756000,6620172,-0.0032345536,0.11875036,0.009428861,12.452411,7.932727e-07
1602988000,1602826666,6620172,-0.0023758654,0.11881152,0.08914153,12.453944,7.089421e-05
1603060000,1602900000,6620172,-0.002387084,0.118871644,-0.0011641737,12.455498,1.2090158e-08
1603132000,1602972000,6620172,-0.0018018655,0.11893076,0.060706176,12.457071,3.2870576e-05
1603204000,1603044000,6620172,-0.0022992527,0.11898812,-0.05154286,12.450561,2.3708582e-05
1603276000,1603116000,6620172,-0.002501836,0.11904451,-0.02098566,12.452056,3.92972e-06
1603348000,1603188000,6620172,-0.003089771,0.11909996,-0.06088317,12.453573,3.3071818e-05
1603420000,1603260000,6620172,-0.0031477741,0.11915448,-0.0060044676,12.45511,3.216318e-07
1603492000,1603332000,6620172,-0.0027245532,0.1192081,0.043797188,12.456667,1.7109924e-05
1603564000,1603404000,6620172,-0.001417659,0.11926082,0.13520136,12.458244,0.00016302822
1603636000,1603476000,6620172,-0.0014216589,0.11931191,-0.0004133957,12.451641,1.5249753e-09
1603708000,1603548000,6620172,-0.001393131,0.119362146,0.0029475377,12.45314,7.7517065e-08
1603780000,1603620000,6620172,-0.0016943017,0.11941155,-0.031108089,12.454661,8.633208e-06
1603852000,1603692000,6620172,-0.001364032,0.11946014,0.03410397,12.4562025,1.0374848e-05
1603924000,1603764000,6620172,-0.0010906729,0.119507946,0.0282195,12.457763,7.1025793e-06
1603996000,1603836000,6620172,-0.00086511124,0.11955486,0.023276953,12.458251,4.8322863e-06
1604068000,1603908000,6620172,-0.0007253091,0.11960035,0.014414916,12.45269,1.8540376e-06
1604140000,1603980000,6620172,-0.00076800905,0.1196451,-0.004401644,12.454195,1.7285093e-07
1604212000,1604052000,6620172,-0.000486644,0.11968912,0.02899677,12.45572,7.5004596e-06
1604284000,1604124000,6620172,-0.00093331904,0.11973243,-0.046022143,12.457265,1.889159e-05
1604356000,1604196000,6620172,-0.00045734967,0.11977505,0.049029022,12.45883,2.143812e-05
1604428000,1604268000,6620172,-0.00037996093,0.119816214,0.007964673,12.452207,5.6604e-07
1604500000,1604340000,6620172,6.950565e-05,0.11985672,0.04624788,12.453694,1.9082838e-05
1604572000,1604412000,6620172,0.0009317928,0.11989658,0.08870613,12.455204,7.019625e-05
1604644000,1604484000,6620172,0.001015308,0.11993582,0.0085896915,12.456735,6.5812503e-07
1604716000,1604556000,6620172,0.00033472723,0.119974434,-0.06998503,12.458284,4.368271e-05
1604788000,1604628000,6620172,3.9687235e-05,0.12001245,-0.030333506,12.459852,8.205212e-06
1604860000,1604700000,6620172,0.0005431535,0.12004909,0.051718127,12.453166,2.3865103e-05
1604932000,1604770666,6620172,0.00064334867,0.12008516,0.010290586,12.454659,9.447261e-07
1605004000,1604844000,6620172,0.00080588704,0.12012067,0.016690636,12.456174,2.4849553e-06
1605076000,1604914666,6620172,0.0009389293,0.12015563,0.013659445,12.457709,1.6641228e-06
1605132000,1604976000,6620172,0.00072927144,0.11992486,-0.021568812,12.458518,4.149001e-06
1605196000,1605034666,6620172,0.0004634249,0.11983115,-0.027371118,12.458622,6.6814787e-06
1605252000,1605096000,6620172,-8.4222294e-05,0.11960609,-0.056463182,12.452332,2.8447068e-05
1605316000,1605153333,6620172,-0.000556308,0.11951809,-0.048713386,12.45347,2.1172093e-05
1605388000,1605226666,6620172,-0.00082041475,0.1195645,-0.027245205,12.454988,6.6220787e-06
1605444000,1605288000,6620172,-0.0007820653,0.119344935,0.003963725,12.455791,1.4015004e-07
1605508000,1605348000,6620172,-0.00067478616,0.11926231,0.0110970065,12.456978,1.0983898e-06
1605580000,1605420000,6620172,-0.00036635608,0.119314015,0.03189427,12.458553,9.072254e-06
1605652000,1605490666,6620172,-0.00074003555,0.1193641,-0.03860459,12.451961,1.3298348e-05
1605724000,1605564000,6620172,-0.00086022506,0.11941335,-0.012413041,12.453461,1.3747502e-06
1605796000,1605636000,6620172,-0.00077061134,0.1194618,0.009252559,12.454982,7.6372703e-07
1605868000,1605706666,6620172,-0.00047370064,0.11950945,0.03064732,12.456523,8.378103e-06
1605924000,1605766000,6620172,-0.0009684103,0.1192911,-0.05116204,12.45734,2.3346829e-05
1605988000,1605828000,6620172,-0.00034044473,0.11920966,0.06499429,12.458545,3.7673904e-05
1606060000,1605900000,6620172,-8.391839e-05,0.119261764,0.026524527,12.451955,6.2779122e-06
1606132000,1605972000,6620172,6.185449e-05,0.119313,0.01506805,12.45346,2.0257298e-06
1606204000,1606042666,6620172,-3.7087557e-05,0.11936339,-0.010224208,12.454985,9.325533e-07
1606276000,1606116000,6620172,-0.00042135568,0.11941295,-0.039696798,12.456529,1.40563125e-05
1606348000,1606188000,6620172,0.00027595987,0.1194617,0.07201559,12.458093,4.6255034e-05
1606420000,1606258666,6620172,0.0011709537,0.119508885,0.09234489,12.451529,7.609577e-05
1606492000,1606332000,6620172,0.00095043425,0.119555295,-0.022746881,12.453016,4.616647e-06
1606564000,1606404000,6620172,0.0004973224,0.119600944,-0.0467268,12.454526,1.9478806e-05
1606636000,1606476000,6620172,8.667473e-05,0.11964586,-0.042336922,12.456056,1.5988786e-05
1606708000,1606548000,6620172,-0.0003730886,0.11969004,-0.047388922,12.457605,2.00298e-05
1606780000,1606618666,6620172,-0.00028921143,0.11973351,0.008643352,12.459174,6.66243e-07
1606836000,1606680000,6620172,7.827394e-05,0.1195103,0.037917387,12.451834,1.282924e-05
1606900000,1606740000,6620172,0.00015848999,0.1194241,0.0082835425,12.45297,6.12233e-07
1606972000,1606812000,6620172,-4.3468724e-05,0.11947229,-0.020849409,12.454482,3.8781027e-06
1607044000,1606884000,6620172,0.00047766522,0.11951969,0.053784925,12.456017,2.5804738e-05
1607116000,1606956000,6620172,-0.0002915316,0.119566314,-0.0793656,12.45757,5.6180914e-05
1607188000,1607028000,6620172,-0.00037657213,0.11961219,-0.008772189,12.459144,6.8625457e-07
1607260000,1607100000,6620172,-0.00063675886,0.11965655,-0.02681459,12.452515,6.41568e-06
1607332000,1607170666,6620172,-8.351472e-05,0.119700186,0.057002727,12.454013,2.8989416e-05
1607388000,1607232000,6620172,0.00036042283,0.1194779,0.045829363,12.454805,1.8737352e-05
1607452000,1607290666,6620172,0.00069661555,0.1193926,0.034734793,12.455977,1.0762399e-05
1607524000,1607364000,6620172,0.0006984395,0.11944169,0.00018839422,12.457535,3.1656325e-10
1607596000,1607436000,6620172,0.00061985175,0.11948987,-0.008114211,12.458027,5.8722003e-07
1607668000,1607506666,6620172,0.00058130326,0.1195366,-0.0039767856,12.452488,1.4111258e-07
1607740000,1607580000,6620172,0.0008529227,0.11958256,0.028013667,12.45399,7.001465e-06
1607812000,1607652000,6620172,0.0010189791,0.11962778,0.017121932,12.455513,2.6151786e-06
1607884000,1607722666,6620172,0.00080718956,0.11967227,-0.021831967,12.457056,4.2513593e-06
1607956000,1607796000,6620172,0.000727104,0.11971603,-0.008253478,12.458618,6.0752154e-07
1608100000,1607938666,6620172,0.0017244625,0.11979994,0.10257395,12.453508,9.387284e-05
1608172000,1608012000,6620172,0.0011914691,0.11984089,-0.054855566,12.455016,2.6844456e-05
1608244000,1608082666,6620172,0.0013436032,0.11988119,0.015654234,12.456544,2.1858662e-06
1608316000,1608156000,6620172,0.0013492315,0.11992085,0.0005790042,12.458092,2.9899874e-09
1608388000,1608228000,6620172,0.0015779273,0.11995988,0.023522595,12.459661,4.9342566e-06
1608460000,1608300000,6620172,0.0017998425,0.11999753,0.022805618,12.452998,4.6405266e-06
1608532000,1608370666,6620172,0.0014187793,0.12003459,-0.03915336,12.45449,1.3676332e-05
1608604000,1608444000,6620172,0.0014955745,0.12007107,0.007889082,12.456003,5.551773e-07
1608676000,1608516000,6620172,0.0011087193,0.12010698,-0.0397341,12.457538,1.4081601e-05
1608748000,1608588000,6620172,0.0014542334,0.12014234,0.035481855,12.459091,1.1227518e-05
1608820000,1608660000,6620172,0.0017942856,0.12017638,0.0348922,12.452461,1.0863231e-05
1608892000,1608732000,6620172,0.0019421872,0.1202099,0.015173487,12.453939,2.0540997e-06
1608964000,1608804000,6620172,0.0020836121,0.12024291,0.014506787,12.455438,1.8773316e-06
1609036000,1608876000,6620172,0.0014848453,0.120275415,-0.061409783,12.456957,3.3637265e-05
1609108000,1608946666,6620172,0.0011197927,0.12030744,-0.037434552,12.458496,1.2497903e-05
1609180000,1609020000,6620172,0.0009415969,0.120338984,-0.018270671,12.460055,2.9767787e-06
1609252000,1609092000,6620172,0.0010956434,0.12036928,0.015782036,12.453366,2.2222696e-06
1609324000,1609164000,6620172,0.0008329097,0.12039912,-0.026913514,12.454849,6.461894e-06
1609396000,1609236000,6620172,0.00025091803,0.120428525,-0.059609763,12.456355,3.169577e-05
1609468000,1609308000,6620172,-0.0005534225,0.1204575,-0.08237372,12.457879,6.0518865e-05
1609540000,1609378666,6620172,0.00012283347,0.12048606,0.06924849,12.459425,4.2764175e-05
1609612000,1609452000,6620172,-0.0005783665,0.120513424,-0.071747586,12.452774,4.5931007e-05
1609684000,1609524000,6620172,-0.00085817196,0.120540395,-0.028626956,12.454243,7.3112315e-06
1609756000,1609596000,6620172,-0.00035577326,0.12056698,0.051395282,12.455733,2.3563223e-05
1609828000,1609668000,6620172,-0.0011954156,0.12059319,-0.0858869,12.457244,6.579447e-05
1609900000,1609738666,6620172,-0.0019788886,0.120619036,-0.08013393,12.458775,5.7268404e-05
1609956000,1609800000,6620172,-0.0011011579,0.120379336,0.08996107,12.459578,7.217111e-05
1610020000,1609858666,6620172,-0.0009371198,0.120276205,0.016817711,12.452567,2.523669e-06
1610076000,1609920000,6620172,-0.0007794664,0.12004259,0.016195908,12.453328,2.34036e-06
1610140000,1609980000,6620172,-0.0012663455,0.119946204,-0.05006282,12.454463,2.2359553e-05
1610212000,1610050666,6620172,-0.0010174351,0.1199844,0.025588855,12.455978,5.8409214e-06
1610284000,1610122666,6620172,-0.00027119822,0.120022,0.07670103,12.457513,5.247211e-05
1610340000,1610184000,6620172,-0.0005438471,0.1197938,-0.028079633,12.458323,7.032031e-06
1610404000,1610244000,6620172,-0.0009195551,0.11970196,-0.038701758,12.4514,1.3365977e-05
1610476000,1610316000,6620172,-0.00065400533,0.11974461,0.027347777,12.452877,6.6731645e-06
1610548000,1610386666,6620172,-0.00021283794,0.11978657,0.04542329,12.454376,1.840741e-05
1610620000,1610460000,6620172,0.000173151,0.11982786,0.0397331,12.455896,1.4082748e-05
1610692000,1610532000,6620172,0.00027732935,0.119868495,0.010721625,12.457437,1.0252978e-06
1610764000,1610604000,6620172,5.8419027e-05,0.11990849,-0.022524644,12.458996,4.524705e-06
1610836000,1610674666,6620172,0.00027365843,0.119947076,0.022127861,12.452383,4.369019e-06
1610908000,1610748000,6620172,0.00030157733,0.11998505,0.0028696521,12.453867,7.34703e-08
1610980000,1610820000,6620172,-0.00017352871,0.12002243,-0.048824526,12.455372,2.1265563e-05
1611052000,1610892000,6620172,-0.00018579967,0.12005923,-0.0012607975,12.456898,1.417876e-08
1611124000,1610964000,6620172,-0.0008405193,0.12009546,-0.067258045,12.458444,4.03443e-05
1611196000,1611034666,6620172,-0.001216846,0.12013103,-0.038649227,12.458919,1.3321674e-05
1611252000,1611096000,6620172,-0.0007456861,0.119900174,0.04845806,12.452622,2.0952155e-05
1611316000,1611156000,6620172,-0.0013364069,0.11980648,-0.060808267,12.453754,3.299001e-05
1611388000,1611228000,6620172,-0.0014666447,0.11984733,-0.013403583,12.455264,1.6026784e-06
1611460000,1611300000,6620172,-0.0023303025,0.11988752,-0.088865384,12.456795,7.043953e-05
1611532000,1611372000,6620172,-0.0021349979,0.119927086,0.020091534,12.458345,3.6001725e-06
1611604000,1611444000,6620172,-0.0025005923,0.119965926,-0.03759889,12.458823,1.2607544e-05
1611676000,1611516000,6620172,-0.0019322147,0.12000348,0.058408797,12.453229,3.0439116e-05
1611748000,1611588000,6620172,-0.0027450752,0.12004044,-0.08351701,12.454724,6.222619e-05
1611820000,1611658666,6620172,-0.0039105276,0.12007683,-0.119721964,12.45624,0.00012785515
1611892000,1611732000,6620172,-0.0040994613,0.12011265,-0.019404903,12.457777,3.358458e-06
1611964000,1611804000,6620172,-0.003968306,0.12014792,0.013468358,12.459332,1.6176778e-06
1612036000,1611876000,6620172,-0.003999228,0.12018187,-0.0031728074,12.452682,8.982185e-08
1612108000,1611946666,6620172,-0.0049044285,0.120215304,-0.09286357,12.454162,7.6936725e-05
1612180000,1612018666,6620172,-0.0035142023,0.12024823,0.14259975,12.455662,0.0001813962
1612252000,1612092000,6620172,-0.0030246628,0.12028065,0.050206095,12.457183,2.2482807e-05
1612324000,1612164000,6620172,-0.0030546878,0.120312594,-0.0030788528,12.458725,8.45399e-08
1612396000,1612234666,6620172,-0.0025427043,0.12034406,0.052493162,12.460287,2.4571682e-05
1612468000,1612308000,6620172,-0.003304005,0.12037427,-0.077993184,12.453578,5.4272103e-05
1612540000,1612380000,6620172,-0.0034648047,0.120404035,-0.016471386,12.455063,2.4203148e-06
1612612000,1612450666,6620172,-0.0037226796,0.12043336,-0.026411904,12.456571,6.2224067e-06
1612668000,1612512000,6620172,-0.003112816,0.12019707,0.06259109,12.457361,3.4942703e-05
1612732000,1612570666,6620172,-0.0028861468,0.12009806,0.023284934,12.458536,4.8354905e-06
1612788000,1612632000,6620172,-0.0034466258,0.11986849,-0.057691246,12.459351,2.9681232e-05
1612852000,1612692000,6620172,-0.0038331726,0.11977528,-0.03979678,12.452372,1.4131925e-05
1612924000,1612764000,6620172,-0.00481851,0.1198166,-0.10142195,12.453862,9.177351e-05
1612996000,1612836000,6620172,-0.0047070384,0.11985726,0.011471342,12.455374,1.1738948e-06
1613068000,1612908000,6620172,-0.004617093,0.11989727,0.009254158,12.456904,7.63873e-07
1613140000,1612980000,6620172,-0.0040963423,0.11993665,0.05356729,12.458456,2.5591316e-05
1613212000,1613052000,6620172,-0.0034157159,0.11997464,0.06995328,12.451884,4.3665514e-05
1613284000,1613124000,6620172,-0.0028784908,0.12001204,0.055204045,12.45336,2.719022e-05
1613356000,1613194666,6620172,-0.003721696,0.12004884,-0.08662957,12.454857,6.695007e-05
1613428000,1613268000,6620172,-0.003185453,0.120085075,0.05508278,12.456374,2.7064345e-05
1613500000,1613340000,6620172,-0.003125613,0.12012075,0.006145658,12.4579115,3.3685967e-07
1613572000,1613412000,6620172,-0.003539485,0.12015588,-0.042498168,12.459471,1.6106393e-05
1613644000,1613482666,6620172,-0.0033422858,0.12018969,0.0202326,12.452815,3.652526e-06
1613700000,1613544000,6620172,-0.0041011632,0.11995778,-0.07801758,12.453582,5.430604e-05
1613764000,1613604000,6620172,-0.0047478904,0.11986306,-0.06654703,12.454723,3.9507606e-05
1613836000,1613674666,6620172,-0.004230966,0.1199029,0.053179286,12.456246,2.5226402e-05
1613908000,1613748000,6620172,-0.0042975345,0.119942114,-0.006846915,12.457791,4.1812518e-07
1613980000,1613820000,6620172,-0.0048436313,0.11998071,-0.056157786,12.459355,2.8124308e-05
1614052000,1613890666,6620172,-0.0052028075,0.12001792,-0.036904417,12.452729,1.21520525e-05
1614108000,1613952000,6620172,-0.0057519404,0.119789355,-0.056534253,12.453502,2.8516048e-05
1614172000,1614012000,6620172,-0.005849238,0.1196979,-0.0100256475,12.454651,8.967075e-07
1614244000,1614084000,6620172,-0.006093142,0.11974094,-0.025126103,12.456183,5.631483e-06
1614316000,1614156000,6620172,-0.0062499903,0.11978329,-0.016154172,12.457737,2.3274897e-06
1614388000,1614228000,6620172,-0.006868288,0.11982497,-0.06366578,12.459313,3.614727e-05
1614460000,1614300000,6620172,-0.007387975,0.11986521,-0.053464964,12.452667,2.550549e-05
1614532000,1614372000,6620172,-0.0077677225,0.11990481,-0.03905978,12.454168,1.3611386e-05
1614604000,1614444000,6620172,-0.007821871,0.11994378,-0.005568459,12.455691,2.7660482e-07
1614676000,1614516000,6620172,-0.0076855407,0.119982146,0.014016939,12.457237,1.7524359e-06
1614748000,1614588000,6620172,-0.0073545733,0.12001991,0.034022212,12.458806,1.0323005e-05
1614820000,1614658666,6620172,-0.0074030063,0.120056316,-0.004974528,12.452183,2.208085e-07
1614876000,1614720000,6620172,-0.008526989,0.11982695,-0.115674384,12.452959,0.00011938763
1614940000,1614780000,6620172,-0.009014535,0.11973472,-0.05021935,12.454112,2.2500228e-05
1615012000,1614852000,6620172,-0.009325284,0.119776994,-0.03200109,12.455649,9.135254e-06
1615084000,1614924000,6620172,-0.010280442,0.1198186,-0.098340735,12.457209,8.625885e-05
1615156000,1614996000,6620172,-0.010410041,0.11985954,-0.013340163,12.458793,1.5870983e-06
1615228000,1615068000,6620172,-0.011155101,0.11989906,-0.07662609,12.45216,5.239214e-05
1615300000,1615140000,6620172,-0.012447774,0.11993795,-0.13291839,12.453666,0.00015762693
1615372000,1615212000,6620172,-0.012679946,0.11997623,-0.023868144,12.455195,5.0821122e-06
1615444000,1615284000,6620172,-0.013332403,0.120013915,-0.06706248,12.45675,4.0115483e-05
1615516000,1615356000,6620172,-0.014356667,0.12005102,-0.105258904,12.458327,9.881331e-05
1615588000,1615428000,6620172,-0.015252041,0.12008755,-0.091997094,12.459928,7.547275e-05
1615660000,1615500000,6620172,-0.015347528,0.12012273,-0.009802891,12.453224,8.5740106e-07
1615732000,1615572000,6620172,-0.015663601,0.120157376,-0.032443,12.454746,9.389979e-06
1615804000,1615642666,6620172,-0.015377162,0.12019149,0.029396512,12.456293,7.70833e-06
1615876000,1615716000,6620172,-0.016375601,0.12022509,-0.102451205,12.457864,9.361556e-05
1615948000,1615786666,6620172,-0.016716901,0.12025818,-0.035016,12.459458,1.0934311e-05
1616020000,1615860000,6620172,-0.017299853,0.120289996,-0.05976015,12.452746,3.186513e-05
1616092000,1615932000,6620172,-0.018473567,0.12032133,-0.12030391,12.454262,0.00012912162
1616164000,1616004000,6620172,-0.018216187,0.1203522,0.02637762,12.455803,6.2066465e-06
1616236000,1616076000,6620172,-0.018339807,0.120382614,-0.012667602,12.457368,1.431265e-06
1616308000,1616148000,6620172,-0.01815128,0.12041259,0.01931637,12.458959,3.3275667e-06
1616380000,1616220000,6620172,-0.01811381,0.12044213,0.0038385354,12.460574,1.3138644e-07
1616452000,1616292000,6620172,-0.018286258,0.12047045,-0.017652791,12.453773,2.7802466e-06
1616524000,1616362666,6620172,-0.01901906,0.12049836,-0.07500598,12.455309,5.0187406e-05
1616596000,1616434666,6620172,-0.019845266,0.120525874,-0.0845576,12.456872,6.3775486e-05
1616668000,1616508000,6620172,-0.020398665,0.120553,-0.056631785,12.45846,2.8603135e-05
1616740000,1616578666,6620172,-0.021005461,0.12057976,-0.06209035,12.460074,3.437835e-05
1616812000,1616652000,6620172,-0.021543212,0.120605335,-0.05498331,12.453285,2.6973375e-05
1616884000,1616724000,6620172,-0.021445626,0.12063056,0.00997705,12.45482,8.880233e-07
1616956000,1616796000,6620172,-0.02233291,0.12065545,-0.090706475,12.456382,7.33909e-05
1617028000,1616868000,6620172,-0.022443729,0.12068,-0.011327978,12.457971,1.1444979e-06
1617100000,1616940000,6620172,-0.022157872,0.12070422,0.02921863,12.459586,7.6133115e-06
1617172000,1617010666,6620172,-0.023090929,0.12072813,-0.09536532,12.461228,8.109192e-05
1617244000,1617084000,6620172,-0.023097608,0.120750904,-0.00068226457,12.454361,4.152806e-09
1617316000,1617154666,6620172,-0.02312275,0.12077339,-0.002567675,12.455923,5.881142e-08
1617388000,1617228000,6620172,-0.02344201,0.120795585,-0.032602347,12.457515,9.480339e-06
1617460000,1617300000,6620172,-0.023636822,0.120817505,-0.019892951,12.459134,3.5291334e-06
1617532000,1617372000,6620172,-0.023663262,0.12083915,-0.0026998483,12.460782,6.499664e-08
1617604000,1617444000,6620172,-0.024512364,0.120860405,-0.0866883,12.461186,6.700683e-05
1617676000,1617516000,6620172,-0.025492467,0.1208807,-0.09999935,12.455459,8.9205605e-05
1617748000,1617588000,6620172,-0.026108548,0.12090075,-0.06285592,12.457053,3.5239893e-05
1617820000,1617660000,6620172,-0.026503239,0.12092056,-0.040267184,12.458678,1.4460657e-05
1617892000,1617732000,6620172,-0.027048428,0.12094014,-0.055619564,12.46033,2.7585642e-05
1617964000,1617804000,6620172,-0.028339734,0.1209595,-0.13173454,12.462012,0.00015472788
1618036000,1617876000,6620172,-0.028789781,0.120977804,-0.045879014,12.455008,1.8777668e-05
1618108000,1617948000,6620172,-0.029113282,0.12099591,-0.032977797,12.456607,9.700654e-06
1618180000,1618020000,6620172,-0.029407268,0.12101381,-0.02996875,12.458236,8.010105e-06
1618252000,1618092000,6620172,-0.029625628,0.12103152,-0.022258991,12.459895,4.4182884e-06
1618324000,1618164000,6620172,-0.030182539,0.12104905,-0.056769636,12.461585,2.8735345e-05
1618396000,1618236000,6620172,-0.030242408,0.12106639,-0.006102862,12.463303,3.3204077e-07
1618468000,1618308000,6620172,-0.031175047,0.121082716,-0.095001735,12.456174,8.0507416e-05
1618540000,1618378666,6620172,-0.030913038,0.121098876,0.026688963,12.457809,6.353005e-06
1618596000,1618440000,6620172,-0.031088235,0.12084971,-0.01788457,12.458703,2.852605e-06
1618660000,1618500000,6620172,-0.031143872,0.120738104,-0.005685447,12.460005,2.8824942e-07
1618732000,1618572000,6620172,-0.03122286,0.120761395,-0.008071216,12.461727,5.8084083e-07
1618804000,1618644000,6620172,-0.031906858,0.12078427,-0.06988188,12.462114,4.354065e-05
1618876000,1618716000,6620172,-0.03244382,0.120806135,-0.0548241,12.456298,2.6810907e-05
1618948000,1618786666,6620172,-0.033177316,0.120827734,-0.0748865,12.457966,5.001698e-05
1619020000,1618860000,6620172,-0.034196004,0.12084907,-0.1039992,12.459665,9.6451964e-05
1619092000,1618932000,6620172,-0.033701405,0.12087016,0.05049239,12.461396,2.2732263e-05
1619164000,1619004000,6620172,-0.034294713,0.120891,-0.060567394,12.463159,3.2704473e-05
1619236000,1619076000,6620172,-0.034793798,0.12091074,-0.050910365,12.455946,2.3120285e-05
1619308000,1619146666,6620172,-0.035214104,0.120930254,-0.04287344,12.45762,1.6394533e-05
1619380000,1619218666,6620172,-0.0355567,0.12094955,-0.03494581,12.459326,1.0890633e-05
1619452000,1619292000,6620172,-0.03582324,0.12096863,-0.02718744,12.461064,6.590813e-06
1619524000,1619364000,6620172,-0.036659233,0.12098751,-0.08527051,12.462835,6.482437e-05
1619596000,1619436000,6620172,-0.03745652,0.1210062,-0.081321724,12.464636,5.8950984e-05
1619668000,1619508000,6620172,-0.03798488,0.121023804,-0.053852074,12.457269,2.586661e-05
1619740000,1619580000,6620172,-0.03751249,0.12104123,0.048147235,12.458981,2.0673673e-05
1619812000,1619652000,6620172,-0.03734355,0.12105849,0.0172183,12.460726,2.6435935e-06
1619884000,1619724000,6620172,-0.037197232,0.12107557,0.014913131,12.4625025,1.98285e-06
1619956000,1619796000,6620172,-0.037489504,0.1210925,-0.029788852,12.464313,7.910368e-06
1620028000,1619868000,6620172,-0.03673727,0.121108375,0.07661304,12.456907,5.235433e-05
1620100000,1619940000,6620172,-0.036154833,0.12112411,0.05932028,12.458623,3.138295e-05
1620172000,1620012000,6620172,-0.035419017,0.121139705,0.07494268,12.460373,5.008237e-05
1620244000,1620084000,6620172,-0.035315763,0.121155165,0.010516673,12.462155,9.861003e-07
1620316000,1620156000,6620172,-0.03504873,0.12117049,0.027198087,12.463971,6.5944378e-06
1620388000,1620228000,6620172,-0.03499196,0.1211857,0.0057823732,12.465819,2.980224e-07
1620460000,1620298666,6620172,-0.034852352,0.121199876,0.01420949,12.45825,1.8007667e-06
1620532000,1620372000,6620172,-0.035748824,0.12121394,-0.09124628,12.460003,7.4245414e-05
1620604000,1620444000,6620172,-0.036510542,0.121227905,-0.077532426,12.46179,5.3597407e-05
1620676000,1620516000,6620172,-0.03704709,0.12124177,-0.054614946,12.46361,2.6591124e-05
1620748000,1620588000,6620172,-0.037267752,0.12125555,-0.02246219,12.465463,4.4973144e-06
1620820000,1620660000,6620172,-0.038375054,0.12126832,-0.11263459,12.457856,0.00011315084
1620892000,1620732000,6620172,-0.038049407,0.121281005,0.03312603,12.45961,9.785698e-06
1620964000,1620804000,6620172,-0.037700575,0.12129361,0.03548593,12.461398,1.1228019e-05
1621036000,1620876000,6620172,-0.037696563,0.12130615,0.00040809438,12.463221,1.4847332e-09
1621108000,1620948000,6620172,-0.038216334,0.12131862,-0.05287961,12.465076,2.492522e-05
1621180000,1621020000,6620172,-0.03740518,0.12133103,0.08252786,12.466966,6.0701288e-05
1621252000,1621092000,6620172,-0.03716784,0.12134244,0.024130035,12.459191,5.1925845e-06
1621324000,1621164000,6620172,-0.037089527,0.121353805,0.007962517,12.460979,5.6533526e-07
1621396000,1621236000,6620172,-0.037074413,0.121365115,0.0015365481,12.462802,2.104913e-08
1621468000,1621308000,6620172,-0.037168093,0.12137639,-0.009525929,12.464657,8.088943e-07
1621540000,1621380000,6620172,-0.03663003,0.121387616,0.0547157,12.466547,2.6683036e-05
1621612000,1621452000,6620172,-0.03709604,0.12139787,-0.047354344,12.458742,1.9998753e-05
1621684000,1621524000,6620172,-0.036321696,0.12140809,0.0786915,12.460528,5.521749e-05
1621756000,1621594666,6620172,-0.036314733,0.12141829,0.0007076822,12.462349,4.4651305e-09
1621828000,1621668000,6620172,-0.03581571,0.12142847,0.05071903,12.464203,2.2931627e-05
1621900000,1621740000,6620172,-0.035708338,0.12143863,0.010913365,12.466091,1.0615599e-06
1621972000,1621812000,6620172,-0.035988715,0.12144878,-0.028500646,12.468013,7.238852e-06
1622044000,1621884000,6620172,-0.035551496,0.12145796,0.044411566,12.460043,1.7588554e-05
1622116000,1621956000,6620172,-0.035461087,0.12146713,0.009184308,12.46186,7.5208607e-07
1622188000,1622028000,6620172,-0.035064872,0.1214763,0.040252347,12.463709,1.4444171e-05
1622260000,1622100000,6620172,-0.03547998,0.12148547,-0.042175118,12.465593,1.5854668e-05
1622332000,1622172000,6620172,-0.035720676,0.12149465,-0.024456542,12.467511,5.330498e-06
1622404000,1622244000,6620172,-0.03622547,0.12150288,-0.05125442,12.459546,2.3427068e-05
1622476000,1622316000,6620172,-0.036458075,0.12151112,-0.023619499,12.461357,4.9743176e-06
1622548000,1622388000,6620172,-0.036607534,0.12151937,-0.015177667,12.4632015,2.0537043e-06
1622620000,1622460000,6620172,-0.03612328,0.12152765,0.049180776,12.465079,2.1560221e-05
1622692000,1622532000,6620172,-0.036125775,0.12153595,-0.00025367364,12.466991,5.735173e-10
1622764000,1622604000,6620172,-0.036189537,0.12154427,-0.0064767636,12.468937,3.738042e-07
1622836000,1622676000,6620172,-0.03651669,0.12155164,-0.033207435,12.460789,9.832923e-06
1622908000,1622748000,6620172,-0.037360374,0.12155904,-0.08564518,12.462625,6.5396394e-05
1622980000,1622820000,6620172,-0.037373234,0.121566474,-0.0013053976,12.464495,1.5190373e-08
1623052000,1622892000,6620172,-0.03763093,0.12157395,-0.026164364,12.466399,6.101503e-06
1623124000,1622964000,6620172,-0.03688135,0.121581465,0.0761136,12.468335,5.1626597e-05
1623196000,1623036000,6620172,-0.036854748,0.12158902,0.0027016625,12.4703045,6.503432e-08
1623268000,1623108000,6620172,-0.036359545,0.12159562,0.050251964,12.462009,2.2515185e-05
1623340000,1623180000,6620172,-0.035747483,0.121602274,0.06211638,12.463869,3.439671e-05
1623412000,1623252000,6620172,-0.034697715,0.12160898,0.106548265,12.465762,0.00010118856
1623484000,1623324000,6620172,-0.034652624,0.121615745,0.0045768656,12.467689,1.8668433e-07
1623556000,1623396000,6620172,-0.03397429,0.12162256,0.068862826,12.469647,4.22545e-05
1623628000,1623468000,6620172,-0.03396819,0.12162844,0.000618577,12.461356,3.4117698e-09
1623700000,1623540000,6620172,-0.033469144,0.12163439,0.05063079,12.463203,2.2853736e-05
1623772000,1623612000,6620172,-0.032947395,0.1216404,0.05293936,12.465083,2.4981568e-05
1623844000,1623684000,6620172,-0.032678347,0.12164648,0.027301643,12.466997,6.643137e-06
1623916000,1623756000,6620172,-0.03348881,0.121652626,-0.08225085,12.468944,6.028491e-05
1623988000,1623826666,6620172,-0.03369436,0.12165884,-0.020862997,12.470922,3.87804e-06
1624060000,1623900000,6620172,-0.03383846,0.121664114,-0.014614966,12.462499,1.9043551e-06
1624132000,1623972000,6620172,-0.034964934,0.12166947,-0.11426335,12.464365,0.00011638613
1624204000,1624044000,6620172,-0.035066392,0.1216749,-0.010292634,12.466265,9.442223e-07
1624276000,1624114666,6620172,-0.035638485,0.121680416,-0.05804274,12.468197,3.0022691e-05
1624348000,1624188000,6620172,-0.035748623,0.12168601,-0.01117548,12.470161,1.1128017e-06
1624420000,1624260000,6620172,-0.035571825,0.12169068,0.017926358,12.46176,2.8652482e-06
1624492000,1624332000,6620172,-0.035500314,0.12169544,0.0072515123,12.46361,4.6878188e-07
1624564000,1624404000,6620172,-0.035394613,0.12170028,0.010720041,12.465493,1.0243323e-06
1624636000,1624476000,6620172,-0.036132716,0.12170522,-0.0748654,12.46741,4.995093e-05
1624708000,1624548000,6620172,-0.035709135,0.12171025,0.042968653,12.469358,1.6451932e-05
1624780000,1624620000,6620172,-0.036087815,0.12171537,-0.038418062,12.471338,1.31496845e-05
1624852000,1624690666,6620172,-0.035896506,0.12171956,0.0193947,12.462822,3.353569e-06
1624908000,1624752000,6620172,-0.03599464,0.1214587,-0.009971414,12.463853,8.8637734e-07
1624972000,1624812000,6620172,-0.0358691,0.121335655,0.0127707645,12.465324,1.4537432e-06
1625044000,1624884000,6620172,-0.036494464,0.121347755,-0.063618205,12.46725,3.607029e-05
1625116000,1624954666,6620172,-0.03647501,0.1213598,0.0019790828,12.469206,3.4901706e-08
1625188000,1625028000,6620172,-0.037020557,0.121371806,-0.05550497,12.471194,2.7448159e-05
1625260000,1625100000,6620172,-0.03727599,0.12138275,-0.025967725,12.462671,6.0119332e-06
1625332000,1625172000,6620172,-0.037905,0.121393666,-0.06395082,12.464545,3.645636e-05
1625404000,1625242666,6620172,-0.03839542,0.12140455,-0.049863555,12.466452,2.2160579e-05
1625476000,1625316000,6620172,-0.03861117,0.12141541,-0.021937832,12.4683895,4.2887877e-06
1625548000,1625388000,6620172,-0.0391573,0.12142624,-0.05553556,12.470359,2.748026e-05
1625620000,1625460000,6620172,-0.038806174,0.12143604,0.035678297,12.461877,1.1349645e-05
1625692000,1625530666,6620172,-0.038240798,0.12144582,0.057452414,12.463731,2.9425646e-05
1625748000,1625592000,6620172,-0.037556365,0.121190436,0.06970442,12.464775,4.331055e-05
1625812000,1625652000,6620172,-0.0376765,0.12107275,-0.012248322,12.466263,1.3371324e-06
1625884000,1625724000,6620172,-0.03780174,0.1210901,-0.012769058,12.468205,1.453019e-06
1625956000,1625796000,6620172,-0.037472285,0.1211073,0.033590313,12.470179,1.00534e-05
1626028000,1625868000,6620172,-0.037372865,0.12112336,0.010128535,12.461727,9.1468706e-07
1626100000,1625940000,6620172,-0.0375596,0.12113927,-0.01902362,12.463587,3.2262703e-06
1626172000,1626012000,6620172,-0.037843045,0.12115506,-0.028877169,12.465479,7.432891e-06
1626244000,1626084000,6620172,-0.036608927,0.12117072,0.12573367,12.4674015,0.00014089148
1626316000,1626156000,6620172,-0.03669681,0.121186264,-0.008953817,12.469355,7.1438114e-07
1626388000,1626228000,6620172,-0.037254974,0.121201694,-0.056870084,12.471338,2.8814573e-05
1626460000,1626300000,6620172,-0.037112053,0.12121599,0.014549896,12.462761,1.8873959e-06
1626532000,1626372000,6620172,-0.036844045,0.12123019,0.027285393,12.46463,6.6364914e-06
1626604000,1626444000,6620172,-0.037372705,0.1212443,-0.05382368,12.46653,2.5820145e-05
1626676000,1626514666,6620172,-0.038084984,0.12125831,-0.07252109,12.468461,4.6867663e-05
1626748000,1626588000,6620172,-0.038425475,0.121272236,-0.034668922,12.470421,1.0709201e-05
1626820000,1626660000,6620172,-0.03832885,0.121285066,0.009830505,12.461904,8.616378e-07
1626892000,1626732000,6620172,-0.038244877,0.12129782,0.0085436925,12.463749,6.5072885e-07
1626964000,1626804000,6620172,-0.0383093,0.12131051,-0.0065549277,12.465626,3.8298276e-07
1627036000,1626876000,6620172,-0.038750082,0.12132313,-0.044851102,12.467533,1.7927643e-05
1627108000,1626948000,6620172,-0.0379944,0.12133569,0.076897055,12.46947,5.2690088e-05
1627180000,1627020000,6620172,-0.037539475,0.121348195,0.04629518,12.471437,1.9094688e-05
1627252000,1627092000,6620172,-0.038286153,0.121359624,-0.07592488,12.462844,5.139354e-05
1627324000,1627164000,6620172,-0.037830725,0.12137101,0.046312276,12.464697,1.9119127e-05
1627396000,1627236000,6620172,-0.038409706,0.12138235,-0.05887948,12.46658,3.0898547e-05
1627468000,1627306666,6620172,-0.03834171,0.12139365,0.0069155656,12.468493,4.2618575e-07
1627540000,1627380000,6620172,-0.039024513,0.121404916,-0.06944638,12.470436,4.2970958e-05
1627612000,1627452000,6620172,-0.038598184,0.12141514,0.04332749,12.461917,1.6737853e-05
1627684000,1627524000,6620172,-0.037546117,0.12142534,0.10692704,12.463745,0.00010192577
1627756000,1627596000,6620172,-0.03740341,0.121435516,0.014505345,12.465605,1.8754275e-06
1627828000,1627668000,6620172,-0.03745846,0.12144568,-0.005595859,12.467493,2.790692e-07
1627900000,1627740000,6620172,-0.036875933,0.121455826,0.059217494,12.469413,3.1247233e-05
1627972000,1627812000,6620172,-0.03719192,0.12146596,-0.03212431,12.47136,9.194144e-06
1628044000,1627884000,6620172,-0.036085587,0.12147506,0.11238723,12.462778,0.00011260991
1628116000,1627956000,6620172,-0.036026273,0.12148417,0.0060257725,12.464613,3.236713e-07
1628188000,1628028000,6620172,-0.03658,0.12149327,-0.056258883,12.466477,2.8209537e-05
1628260000,1628100000,6620172,-0.03593346,0.12150238,0.065693766,12.468372,3.845883e-05
1628332000,1628172000,6620172,-0.036554683,0.12151149,-0.063126594,12.470295,3.5506306e-05
1628404000,1628244000,6620172,-0.035849843,0.121520445,0.07161938,12.470508,4.570192e-05
1628476000,1628316000,6620172,-0.036523703,0.12152856,-0.068428725,12.463609,4.1743668e-05
1628548000,1628388000,6620172,-0.036546297,0.12153669,-0.002294656,12.465449,4.693369e-08
1628620000,1628460000,6620172,-0.036946367,0.12154484,-0.040632658,12.467318,1.4714142e-05
1628692000,1628532000,6620172,-0.036515623,0.12155301,0.043751787,12.469217,1.7057284e-05
1628764000,1628604000,6620172,-0.036608893,0.121561214,-0.009474367,12.471143,7.997452e-07
1628836000,1628676000,6620172,-0.035606343,0.12156843,0.10176392,12.462596,9.2328686e-05
1628908000,1628748000,6620172,-0.035137143,0.12157567,0.04763027,12.464411,2.022329e-05
1628980000,1628820000,6620172,-0.035007775,0.12158295,0.013133969,12.466254,1.5374942e-06
1629052000,1628892000,6620172,-0.033776898,0.121590264,0.124973595,12.468128,0.00013918511
1629124000,1628964000,6620172,-0.033313822,0.121597625,0.047021527,12.47003,1.9700781e-05
1629196000,1629036000,6620172,-0.033377342,0.121605024,-0.0064505823,12.471958,3.706984e-07
1629268000,1629108000,6620172,-0.032273114,0.121611446,0.11205166,12.4633665,0.00011193314
1629340000,1629180000,6620172,-0.031566285,0.12161792,0.07173234,12.465186,4.5865774e-05
1629412000,1629252000,6620172,-0.031710204,0.12162445,-0.014606811,12.467034,1.9015387e-06
1629484000,1629324000,6620172,-0.031620584,0.121631026,0.009096678,12.468909,7.3738573e-07
1629556000,1629396000,6620172,-0.03138846,0.12163766,0.023563944,12.470814,4.947191e-06
1629628000,1629468000,6620172,-0.030744493,0.121643335,0.06532401,12.46232,3.8045582e-05
1629700000,1629540000,6620172,-0.030517247,0.12164907,0.023054063,12.464113,4.7379567e-06
1629772000,1629612000,6620172,-0.030701932,0.121654876,-0.018738125,12.465937,3.129571e-06
1629844000,1629682666,6620172,-0.030046875,0.12166075,0.06646854,12.467787,3.9373164e-05
1629916000,1629756000,6620172,-0.030744983,0.121666685,-0.07084424,12.469665,4.472103e-05
1629988000,1629826666,6620172,-0.030227054,0.12167269,0.052565053,12.47157,2.4616742e-05
1630044000,1629888000,6620172,-0.029489446,0.1214126,0.07496582,12.462233,5.0105828e-05
1630108000,1629948000,6620172,-0.029918255,0.1212903,-0.04363067,12.463616,1.69706e-05
1630180000,1630020000,6620172,-0.029691707,0.12130311,0.0230518,12.465434,4.7365243e-06
1630252000,1630092000,6620172,-0.028680744,0.12131585,0.10287286,12.4672785,9.431646e-05
1630324000,1630164000,6620172,-0.02832573,0.121328525,0.03612703,12.46915,1.1630147e-05
1630396000,1630236000,6620172,-0.026954336,0.12134113,0.13956231,12.4710455,0.00017353652
1630468000,1630306666,6620172,-0.026063532,0.12135267,0.09058349,12.4625845,7.315558e-05
1630540000,1630380000,6620172,-0.026059616,0.12136416,0.00039824843,12.464371,1.4138238e-09
1630612000,1630452000,6620172,-0.025633523,0.1213756,0.043332566,12.466184,1.6736043e-05
1630684000,1630524000,6620172,-0.025391983,0.12138699,0.024565408,12.468021,5.3778404e-06
1630756000,1630596000,6620172,-0.02459234,0.12139834,0.0813307,12.469885,5.893918e-05
1630828000,1630668000,6620172,-0.024117049,0.12140865,0.0483045,12.461533,2.0804688e-05
1630900000,1630738666,6620172,-0.024244279,0.12141893,-0.012931291,12.463285,1.4907633e-06
1630956000,1630800000,6620172,-0.023212325,0.121164024,0.10511586,12.464248,9.8498116e-05
1631020000,1630858666,6620172,-0.022839842,0.1210468,0.037982833,12.465637,1.2859312e-05
1631076000,1630920000,6620172,-0.021460634,0.12079941,0.14094287,12.466628,0.0001770495
1631140000,1630980000,6620172,-0.021065587,0.12068955,0.04041205,12.468052,1.45539425e-05
1631212000,1631052000,6620172,-0.019565731,0.120713614,0.15329826,12.459877,0.00020956474
1631284000,1631122666,6620172,-0.019739179,0.120737374,-0.01772675,12.461613,2.8018278e-06
1631340000,1631184000,6620172,-0.019996682,0.12049565,-0.026372882,12.462567,6.2010486e-06
1631404000,1631244000,6620172,-0.020061204,0.12039133,-0.006614646,12.463943,3.900455e-07
1631476000,1631316000,6620172,-0.019523729,0.12042178,0.055095382,12.465747,2.7056374e-05
1631548000,1631388000,6620172,-0.0191284,0.120451815,0.040519822,12.467573,1.4632234e-05
1631620000,1631460000,6620172,-0.019152002,0.120480485,-0.0024170093,12.459472,5.2097217e-08
1631692000,1631532000,6620172,-0.018715207,0.12050876,0.04472573,12.46119,1.7836632e-05
1631764000,1631602666,6620172,-0.018098433,0.12053665,0.0631488,12.462932,3.555228e-05
1631836000,1631676000,6620172,-0.018540487,0.12056416,-0.04525606,12.464698,1.8256991e-05
1631908000,1631748000,6620172,-0.018372487,0.12059131,0.017197713,12.466484,2.6360576e-06
1631980000,1631820000,6620172,-0.017927952,0.120618105,0.045502614,12.468291,1.8451143e-05
1632052000,1631892000,6620172,-0.017759517,0.12064359,0.017226048,12.460177,2.6460898e-06
1632124000,1631964000,6620172,-0.018050494,0.12066875,-0.029756352,12.46188,7.894658e-06
1632196000,1632034666,6620172,-0.017509576,0.12069357,0.055312455,12.463604,2.7274682e-05
1632268000,1632108000,6620172,-0.01674589,0.12071808,0.07808697,12.465349,5.4351334e-05
1632340000,1632180000,6620172,-0.017324122,0.12074228,-0.05912081,12.467116,3.115102e-05
1632412000,1632250666,6620172,-0.0177517,0.12076524,-0.04368052,12.459127,1.7015529e-05
1632484000,1632324000,6620172,-0.01757643,0.12078791,0.017904287,12.46079,2.8584195e-06
1632556000,1632396000,6620172,-0.017404063,0.1208103,0.017606948,12.462474,2.763894e-06
1632628000,1632468000,6620172,-0.017006904,0.12083241,0.040566906,12.464179,1.4670252e-05
1632700000,1632540000,6620172,-0.017308893,0.12085426,-0.030844659,12.465903,8.479958e-06
1632772000,1632612000,6620172,-0.01705516,0.12087584,0.02591485,12.4676485,5.985085e-06
1632844000,1632684000,6620172,-0.015920633,0.120896235,0.11577953,12.459672,0.00011954032
1632916000,1632756000,6620172,-0.01563274,0.12091639,0.029378885,12.461315,7.695985e-06
1632988000,1632825333,6620172,-0.015762756,0.120936304,-0.013267407,12.462979,1.5693064e-06
1633044000,1632888000,6620172,-0.015386285,0.120690815,0.03849835,12.46387,1.3212616e-05
1633108000,1632948000,6620172,-0.014330864,0.120582804,0.10803765,12.465173,0.00010404218
1633180000,1633018666,6620172,-0.013706953,0.120609626,0.06386089,12.466893,3.6347054e-05
1633252000,1633092000,6620172,-0.013106815,0.120635174,0.06137541,12.459031,3.3594024e-05
1633324000,1633164000,6620172,-0.012425356,0.12066037,0.069686405,12.460654,4.330248e-05
1633396000,1633236000,6620172,-0.011433853,0.120685235,0.101384096,12.4622965,9.1642956e-05
1633468000,1633308000,6620172,-0.0111014545,0.12070978,0.033986345,12.463961,1.0296992e-05
1633540000,1633380000,6620172,-0.0110486895,0.120734,0.0053946674,12.465641,2.5940136e-07
1633612000,1633452000,6620172,-0.011295134,0.120757006,-0.025175676,12.457941,5.652929e-06
1633684000,1633524000,6620172,-0.011582501,0.120779715,-0.02935428,12.459526,7.6842025e-06
1633756000,1633596000,6620172,-0.011083989,0.120802134,0.05091966,12.461132,2.3119102e-05
1633828000,1633668000,6620172,-0.010688633,0.12082427,0.040380865,12.462757,1.4537663e-05
1633900000,1633738666,6620172,-0.009889262,0.12084613,0.081642,12.464401,5.941736e-05
1633972000,1633812000,6620172,-0.010347332,0.12086772,-0.046781883,12.4660635,1.9506688e-05
1634044000,1633884000,6620172,-0.008579307,0.12088815,0.1804218,12.45837,0.00029031822
1634116000,1633954666,6620172,-0.008500017,0.120908335,0.008091026,12.45994,5.8377935e-07
1634188000,1634028000,6620172,-0.008470848,0.12092827,0.0029763356,12.461529,7.898597e-08
1634260000,1634098666,6620172,-0.00757132,0.12094797,0.09178384,12.463138,7.5103904e-05
1634332000,1634172000,6620172,-0.0076101734,0.12096744,-0.0039643245,12.464765,1.400915e-07
1634404000,1634244000,6620172,-0.007362079,0.120986566,0.02531037,12.465121,5.710287e-06
1634476000,1634316000,6620172,-0.007144689,0.1210047,0.022163104,12.4587555,4.3807054e-06
1634548000,1634388000,6620172,-0.0075293095,0.121022634,-0.03921151,12.460311,1.3710579e-05
1634620000,1634460000,6620172,-0.007951176,0.12104037,-0.0430078,12.4618845,1.6491806e-05
1634692000,1634532000,6620172,-0.008821834,0.121057905,-0.08875903,12.463479,7.023333e-05
1634764000,1634604000,6620172,-0.0088457605,0.12107525,-0.0024391524,12.46509,5.3032238e-08
1634836000,1634676000,6620172,-0.008362878,0.12109153,0.04919,12.457582,2.1581289e-05
1634908000,1634746666,6620172,-0.008206485,0.12110764,0.015931237,12.459107,2.263443e-06
1634964000,1634808000,6620172,-0.008923376,0.120858416,-0.073183894,12.459902,4.7761056e-05
1635028000,1634868000,6620172,-0.008430509,0.12074674,0.050366245,12.461086,2.261938e-05
1635100000,1634940000,6620172,-0.009278612,0.12076995,-0.08666226,12.462667,6.695862e-05
1635172000,1635012000,6620172,-0.009652538,0.12079286,-0.03820674,12.464266,1.3012801e-05
1635244000,1635082666,6620172,-0.009421396,0.120814614,0.023599071,12.456879,4.9675023e-06
1635316000,1635156000,6620172,-0.008917496,0.12083609,0.051444102,12.458393,2.360297e-05
1635388000,1635228000,6620172,-0.008836122,0.12085728,0.008307144,12.459928,6.1538293e-07
1635460000,1635300000,6620172,-0.00894179,0.12087822,-0.0107866805,12.461481,1.0374412e-06
1635532000,1635372000,6620172,-0.00946229,0.120898895,-0.053130962,12.463053,2.5166824e-05
1635604000,1635444000,6620172,-0.008946782,0.1209192,0.052614145,12.463442,2.467883e-05
1635676000,1635516000,6620172,-0.008982936,0.12093852,-0.0036874954,12.457288,1.2128217e-07
1635748000,1635588000,6620172,-0.008789237,0.1209576,0.019755641,12.458796,3.480677e-06
1635820000,1635660000,6620172,-0.009013057,0.120976456,-0.022826973,12.460322,4.646489e-06
1635892000,1635732000,6620172,-0.008496474,0.12099509,0.05268371,12.461869,2.4747254e-05
1635964000,1635804000,6620172,-0.0095538795,0.12101351,-0.10783654,12.463433,0.00010366966
1636036000,1635876000,6620172,-0.009659272,0.12103087,-0.01074031,12.456209,1.0289759e-06
1636108000,1635948000,6620172,-0.009670797,0.12104803,-0.0011744685,12.457693,1.2302762e-08
1636180000,1636020000,6620172,-0.009359674,0.121065006,0.03170449,12.459197,8.964146e-06
1636252000,1636092000,6620172,-0.008316673,0.12108179,0.1062835,12.46072,0.00010072703
1636324000,1636164000,6620172,-0.00784423,0.1210984,0.048142113,12.462262,2.0663834e-05
1636396000,1636236000,6620172,-0.007610019,0.12111483,0.023865959,12.463823,5.077664e-06
1636468000,1636308000,6620172,-0.007783436,0.12113024,-0.017658535,12.456623,2.7814199e-06
1636540000,1636380000,6620172,-0.0071240747,0.121145494,0.067140125,12.458105,4.020405e-05
1636612000,1636452000,6620172,-0.0072609074,0.1211606,-0.013933054,12.459607,1.7311942e-06
1636684000,1636524000,6620172,-0.0068449397,0.12117554,0.042356122,12.461129,1.5996777e-05
1636756000,1636596000,6620172,-0.006252935,0.12119035,0.060281217,12.462669,3.239742e-05
1636828000,1636666666,6620172,-0.006750218,0.121204175,-0.05060131,12.4556055,2.2841055e-05
1636900000,1636740000,6620172,-0.005854931,0.12121788,0.091100805,12.457068,7.40263e-05
1636972000,1636812000,6620172,-0.006265848,0.12123145,-0.041813526,12.45855,1.5592781e-05
1637044000,1636884000,6620172,-0.005836889,0.12124491,0.043649882,12.460053,1.6990405e-05
1637116000,1636956000,6620172,-0.005228012,0.121258244,0.061958715,12.4615755,3.4228615e-05
1637188000,1637028000,6620172,-0.0048602456,0.12127147,0.037424058,12.463118,1.2486265e-05
1637260000,1637100000,6620172,-0.005012017,0.12128375,-0.015433944,12.456047,2.1248636e-06
1637332000,1637172000,6620172,-0.004517693,0.12129593,0.050269585,12.457512,2.253911e-05
1637404000,1637244000,6620172,-0.0041251676,0.121308014,0.039918084,12.458997,1.4210645e-05
1637476000,1637316000,6620172,-0.0033235992,0.12132,0.08151775,12.460503,5.9255177e-05
1637548000,1637388000,6620172,-0.0037821394,0.12133191,-0.046633676,12.462027,1.9389567e-05
1637620000,1637460000,6620172,-0.0038923589,0.121342905,-0.011201992,12.455061,1.1194433e-06
1637692000,1637532000,6620172,-0.0042317924,0.12135382,-0.034498755,12.456509,1.0616173e-05
1637764000,1637604000,6620172,-0.0029489067,0.12136467,0.13039146,12.457977,0.00015163809
1637836000,1637676000,6620172,-0.0028910707,0.12137544,0.0058785942,12.459467,3.081804e-07
1637908000,1637748000,6620172,-0.0026968985,0.121386155,0.019736774,12.460976,3.473424e-06
1637980000,1637820000,6620172,-0.003105692,0.1213968,-0.04155359,12.462503,1.5394633e-05
1638052000,1637892000,6620172,-0.0035921389,0.12140656,-0.04941506,12.455541,2.1782793e-05
1638124000,1637962666,6620172,-0.0025915713,0.12141628,0.10164512,12.456994,9.215466e-05
1638180000,1638024000,6620172,-0.0022082145,0.12116079,0.03902956,12.457741,1.3586436e-05
1638244000,1638084000,6620172,-0.002612635,0.121042974,-0.0412183,12.458866,1.5151622e-05
1638316000,1638156000,6620172,-0.0020866445,0.12106016,0.05360751,12.460381,2.56258e-05
1638388000,1638228000,6620172,-0.0010136385,0.12107716,0.109355934,12.461914,0.000106624604
1638460000,1638300000,6620172,-0.0008829278,0.121093154,0.013312222,12.45502,1.5809356e-06
1638532000,1638370666,6620172,-0.00066090643,0.12110898,0.022611443,12.456478,4.560566e-06
1638588000,1638432000,6620172,-0.0011325476,0.120859474,-0.0481367,12.457231,2.0667532e-05
1638652000,1638492000,6620172,-0.0011809042,0.120747514,-0.00494045,12.458363,2.1768554e-07
1638724000,1638564000,6620172,-0.00081386435,0.12077045,0.037496824,12.459883,1.2538122e-05
1638796000,1638636000,6620172,-0.0008208344,0.120793074,-0.00071201456,12.46142,4.5203046e-09
1638868000,1638708000,6620172,0.0007229735,0.12081461,0.15758963,12.454586,0.00022155597
1638940000,1638780000,6620172,0.0010483556,0.120835856,0.033212572,12.45605,9.839708e-06
