timestamp,roll,pitch,yaw,thrust_body[0],thrust_body[1],thrust_body[2],reset_integral
1592248000,-0.011666184,-0.005924191,-6.67572e-05,0.0,0.0,-0.001,0
1592252000,-0.011656647,-0.0060402416,-0.00010347366,0.0,0.0,-0.001,0
1592268000,-0.011444189,-0.005951388,0.00022864342,0.0,0.0,-0.001,0
1592288000,-0.0116007645,-0.005881338,0.0002411604,0.0,0.0,-0.001,0
1592308000,-0.011746129,-0.006028782,1.001358e-05,0.0,0.0,-0.001,0
1592324000,-0.011748252,-0.00645993,-0.00015771389,0.0,0.0,-0.001,0
1592348000,-0.011883154,-0.0073093018,-0.00013518333,0.0,0.0,-0.001,0
1592368000,-0.012034527,-0.00776877,9.596348e-05,0.0,0.0,-0.001,0
1592388000,-0.012462026,-0.007930767,-0.0003450513,0.0,0.0,-0.001,0
1592404000,-0.012213647,-0.007962108,8.59499e-05,0.0,0.0,-0.001,0
1592428000,-0.011221602,-0.00830237,-0.00028955936,0.0,0.0,-0.001,0
1592444000,-0.011766147,-0.008278939,-0.00025993586,0.0,0.0,-0.001,0
1592468000,-0.010985237,-0.00812052,-9.429455e-05,0.0,0.0,-0.001,0
1592484000,-0.0110889245,-0.008315193,6.967783e-05,0.0,0.0,-0.001,0
1592508000,-0.010818461,-0.008456596,0.00015687943,0.0,0.0,-0.001,0
1592524000,-0.010983494,-0.008432735,-0.00028413534,0.0,0.0,-0.001,0
1592548000,-0.011272752,-0.00775704,-0.00035214424,0.0,0.0,-0.001,0
1592568000,-0.011172273,-0.0076409797,-0.00010764599,0.0,0.0,-0.001,0
1592588000,-0.01184966,-0.0076834303,-8.5532665e-05,0.0,0.0,-0.001,0
1592608000,-0.011690281,-0.0081649795,2.7120113e-05,0.0,0.0,-0.001,0
1592628000,-0.012364388,-0.008180203,-3.296137e-05,0.0,0.0,-0.001,0
1592648000,-0.011605261,-0.00860063,0.00014311075,0.0,0.0,-0.001,0
1592668000,-0.011348889,-0.008604608,-8.761883e-05,0.0,0.0,-0.001,0
1592688000,-0.011434015,-0.008410831,-5.6743622e-05,0.0,0.0,-0.001,0
1592708000,-0.011427643,-0.008818838,-9.5546246e-05,0.0,0.0,-0.001,0
1592728000,-0.011091142,-0.009368676,-6.842613e-05,0.0,0.0,-0.001,0
1592748000,-0.011047978,-0.00901816,0.00016188622,0.0,0.0,-0.001,0
1592768000,-0.011230662,-0.009744367,0.00017690659,0.0,0.0,-0.001,0
1592788000,-0.011213552,-0.010301704,0.00017857552,0.0,0.0,-0.001,0
1592808000,-0.0111559965,-0.010293412,-5.3822994e-05,0.0,0.0,-0.001,0
1592828000,-0.010642313,-0.009193049,-0.00013184547,0.0,0.0,-0.001,0
1592848000,-0.010380995,-0.009610796,-4.7564507e-05,0.0,0.0,-0.001,0
1592868000,-0.010648283,-0.010067789,2.8789043e-05,0.0,0.0,-0.001,0
1592888000,-0.011172541,-0.010137956,7.927418e-05,0.0,0.0,-0.001,0
1592908000,-0.0109349135,-0.010524422,9.596348e-05,0.0,0.0,-0.001,0
1592928000,-0.0109237805,-0.009774053,-2.002716e-05,0.0,0.0,-0.001,0
1592948000,-0.010659493,-0.0095591005,4.4226646e-05,0.0,0.0,-0.001,0
1592968000,-0.010857836,-0.009902398,-0.00022614002,0.0,0.0,-0.001,0
1592984000,-0.010688799,-0.009913006,0.00017106533,0.0,0.0,-0.001,0
1593008000,-0.010243836,-0.010547106,8.761883e-06,0.0,0.0,-0.001,0
1593028000,-0.010468281,-0.010816895,0.00013768673,0.0,0.0,-0.001,0
1593048000,-0.009870288,-0.01058749,6.258488e-05,0.0,0.0,-0.001,0
1593068000,-0.009304586,-0.010710956,-0.00010430813,0.0,0.0,-0.001,0
1593088000,-0.009628814,-0.010672334,-7.259846e-05,0.0,0.0,-0.001,0
1593104000,-0.008841798,-0.010481164,-1.66893e-05,0.0,0.0,-0.001,0
1593124000,-0.008872882,-0.011179703,-0.00012516975,0.0,0.0,-0.001,0
1593148000,-0.008740216,-0.010922338,0.00014144182,0.0,0.0,-0.001,0
1593168000,-0.008823365,-0.0115357805,-1.41859055e-05,0.0,0.0,-0.001,0
1593188000,-0.009061955,-0.011671563,9.7215176e-05,0.0,0.0,-0.001,0
1593208000,-0.008275764,-0.011681462,6.258488e-05,0.0,0.0,-0.001,0
1593224000,-0.008596697,-0.011686589,8.34465e-05,0.0,0.0,-0.001,0
1593244000,-0.0084020095,-0.011208834,6.5505505e-05,0.0,0.0,-0.001,0
1593268000,-0.05211965,-0.02294336,-0.00040012598,0.0,0.0,-0.0038791012,0
1593288000,-0.05054488,-0.02408819,-0.00047898293,0.0,0.0,-0.0067974566,0
1593304000,-0.048755076,-0.0238584,-0.00043934584,0.0,0.0,-0.008903288,0
1593324000,-0.052092902,-0.021677634,-0.00028038025,0.0,0.0,-0.0110244565,0
1593348000,-0.050946698,-0.023404352,-0.000846982,0.0,0.0,-0.014167129,0
1593368000,-0.048951093,-0.019711733,-0.00084489584,0.0,0.0,-0.017447542,0
1593388000,-0.046340346,-0.022051502,-0.0009867549,0.0,0.0,-0.019976392,0
1593408000,-0.045104083,-0.021304054,-0.0013952255,0.0,0.0,-0.02339623,0
1593428000,-0.045817807,-0.020051898,-0.0013397336,0.0,0.0,-0.025977947,0
1593448000,-0.04403141,-0.021884117,-0.0017431974,0.0,0.0,-0.029658293,0
1593468000,-0.044182353,-0.017518906,-0.0017794967,0.0,0.0,-0.03233851,0
1593488000,-0.04388935,-0.018565472,-0.0016251206,0.0,0.0,-0.03631587,0
1593504000,-0.04423262,-0.02000358,-0.0012784004,0.0,0.0,-0.039196454,0
1593524000,-0.04280981,-0.024969494,-0.0009846687,0.0,0.0,-0.042077824,0
1593548000,-0.045168646,-0.026845789,-0.0012959242,0.0,0.0,-0.046399605,0
1593568000,-0.047679383,-0.030307103,-0.0015600324,0.0,0.0,-0.050982524,0
1593588000,-0.04901602,-0.031105937,-0.0015174747,0.0,0.0,-0.053777352,0
1593608000,-0.049552944,-0.029315533,-0.0013034344,0.0,0.0,-0.058186993,0
1593628000,-0.052123368,-0.029914,-0.001132369,0.0,0.0,-0.06109238,0
1593644000,-0.049891774,-0.030214308,-0.0016480684,0.0,0.0,-0.0641684,0
1593668000,-0.050890513,-0.02953027,-0.001760304,0.0,0.0,-0.06877973,0
1593688000,-0.049280763,-0.026805311,-0.0022956133,0.0,0.0,-0.073429324,0
1593708000,-0.045977086,-0.02590231,-0.002849698,0.0,0.0,-0.076733775,0
1593724000,-0.042859316,-0.02703211,-0.0031108856,0.0,0.0,-0.08011933,0
1593744000,-0.046481386,-0.026685972,-0.0035443902,0.0,0.0,-0.08503319,0
1593768000,-0.045033462,-0.02881781,-0.003957033,0.0,0.0,-0.090253994,0
1593788000,-0.044186864,-0.03023381,-0.0033829212,0.0,0.0,-0.093534574,0
1593804000,-0.043902215,-0.02924304,-0.0035285354,0.0,0.0,-0.09722663,0
1593828000,-0.04654221,-0.02532452,-0.003127575,0.0,0.0,-0.102719344,0
1593848000,-0.047498792,-0.025912229,-0.0027470589,0.0,0.0,-0.10814067,0
1593868000,-0.04856929,-0.025230357,-0.002449572,0.0,0.0,-0.1118478,0
1593888000,-0.051440757,-0.023664033,-0.0023728013,0.0,0.0,-0.117486715,0
1593908000,-0.048496135,-0.027602479,-0.0027516484,0.0,0.0,-0.12158436,0
1593928000,-0.047427323,-0.027372267,-0.003274858,0.0,0.0,-0.12738332,0
1593948000,-0.05034708,-0.026464954,-0.0037392378,0.0,0.0,-0.13137405,0
1593964000,-0.04798308,-0.024654582,-0.0035239458,0.0,0.0,-0.13522394,0
1593988000,-0.047897875,-0.027024446,-0.0032556653,0.0,0.0,-0.14108647,0
1594004000,-0.049457543,-0.027642708,-0.0032252073,0.0,0.0,-0.14510186,0
1594028000,-0.044061504,-0.030987231,-0.0034763813,0.0,0.0,-0.15133524,0
1594048000,-0.041536085,-0.027578428,-0.0035927892,0.0,0.0,-0.15771917,0
1594068000,-0.046669707,-0.030299602,-0.0039862394,0.0,0.0,-0.16225246,0
1594088000,-0.045944605,-0.026498538,-0.004287064,0.0,0.0,-0.16875708,0
1594104000,-0.046004876,-0.022978783,-0.0043162704,0.0,0.0,-0.17310728,0
1594124000,-0.048094887,-0.026617192,-0.0043312907,0.0,0.0,-0.1777046,0
1594144000,-0.045404017,-0.028634457,-0.0036378503,0.0,0.0,-0.18437804,0
1594168000,-0.04658243,-0.031552654,-0.0033295155,0.0,0.0,-0.19137944,0
1594188000,-0.047146652,-0.031113017,-0.0032973886,0.0,0.0,-0.19584775,0
1594208000,-0.047126796,-0.032218244,-0.003138423,0.0,0.0,-0.20285375,0
1594228000,-0.04394801,-0.033752464,-0.0030604005,0.0,0.0,-0.20756733,0
1594248000,-0.04654339,-0.034281682,-0.0030925274,0.0,0.0,-0.21451482,0
1594268000,-0.047655664,-0.033694103,-0.0033958554,0.0,0.0,-0.21923098,0
1594284000,-0.047763623,-0.032038715,-0.0032164454,0.0,0.0,-0.22407907,0
1594308000,-0.044346906,-0.03393366,2.0861626e-06,0.0,0.0,-0.23143554,0
1594328000,-0.048363417,-0.029524613,-8.5532665e-05,0.0,0.0,-0.23891702,0
1594348000,-0.051040456,-0.02734719,-0.00013059378,0.0,0.0,-0.24394871,0
1594368000,-0.050787255,-0.03026771,5.7160854e-05,0.0,0.0,-0.2517641,0
1594388000,-0.052352678,-0.02895545,-4.798174e-05,0.0,0.0,-0.25702304,0
1594408000,-0.051207326,-0.03210171,-0.00014936924,0.0,0.0,-0.26528198,0
1594428000,-0.050643217,-0.02808066,-0.000328362,0.0,0.0,-0.2704854,0
1594448000,-0.049852036,-0.026872452,-0.000184834,0.0,0.0,-0.2785659,0
1594468000,-0.048907965,-0.028244382,-0.00025492907,0.0,0.0,-0.2841833,0
1594488000,-0.04366717,-0.02961088,-0.00026535988,0.0,0.0,-0.2927297,0
1594508000,-0.04699874,-0.026589463,-2.7537346e-05,0.0,0.0,-0.29841384,0
1594528000,-0.047132283,-0.025520347,6.67572e-06,0.0,0.0,-0.30698782,0
1594544000,-0.047063082,-0.025880348,-0.00014895201,0.0,0.0,-0.31257975,0
1594564000,-0.045346618,-0.027700001,9.596348e-05,0.0,0.0,-0.31446344,0
1594588000,-0.04613086,-0.030601917,-0.00016105175,0.0,0.0,-0.316434,0
1594608000,-0.048196252,-0.02987765,3.7550926e-05,0.0,0.0,-0.31801602,0
1594628000,-0.046139702,-0.031389546,7.301569e-05,0.0,0.0,-0.3202526,0
1594648000,-0.044370238,-0.030832397,-0.00015729666,0.0,0.0,-0.32177386,0
1594668000,-0.04391106,-0.03352401,-0.00012683868,0.0,0.0,-0.32414147,0
1594688000,-0.045922544,-0.036702882,-7.635355e-05,0.0,0.0,-0.325819,0
1594708000,-0.04549949,-0.033183403,0.00015062094,0.0,0.0,-0.32832488,0
1594724000,-0.04690502,-0.030734632,3.0875206e-05,0.0,0.0,-0.3301024,0
1594748000,-0.049301393,-0.030554686,8.803606e-05,0.0,0.0,-0.33241528,0
1594768000,-0.05099447,-0.031989135,-1.5437603e-05,0.0,0.0,-0.33429098,0
1594784000,-0.049614772,-0.031835746,-0.0001180768,0.0,0.0,-0.3368685,0
1594808000,-0.046272323,-0.03509342,-0.00012224913,0.0,0.0,-0.33836195,0
1594824000,-0.046670865,-0.038270153,-0.00018650293,0.0,0.0,-0.34091705,0
1594848000,-0.047103673,-0.03790683,-0.00018775463,0.0,0.0,-0.3427543,0
1594864000,-0.045100726,-0.035116483,3.170967e-05,0.0,0.0,-0.345539,0
1594888000,-0.046094388,-0.03373068,-4.7147274e-05,0.0,0.0,-0.3473026,0
1594908000,-0.04827544,-0.033411548,-0.0002657771,0.0,0.0,-0.35012734,0
1594928000,-0.046853617,-0.032907136,-0.00011640787,0.0,0.0,-0.35147727,0
1594948000,-0.046471305,-0.032534253,-0.00019735098,0.0,0.0,-0.3542748,0
1594968000,-0.051560454,-0.03606852,-0.00022155046,0.0,0.0,-0.35591978,0
1594984000,-0.047694676,-0.038826417,-3.838539e-05,0.0,0.0,-0.35853332,0
1595008000,-0.047908954,-0.036842957,-0.00017273426,0.0,0.0,-0.36039847,0
1595028000,-0.047391012,-0.037903745,-0.00016772747,0.0,0.0,-0.36321944,0
1595048000,-0.047400124,-0.040211156,-7.802248e-05,0.0,0.0,-0.36494315,0
1595068000,-0.04705577,-0.040082686,-0.0001539588,0.0,0.0,-0.36812964,0
1595088000,-0.04518473,-0.0385582,-1.5437603e-05,0.0,0.0,-0.37012422,0
1595104000,-0.04364536,-0.046675816,-0.000110566616,0.0,0.0,-0.37294957,0
1595124000,-0.049235605,-0.044868078,-8.636713e-05,0.0,0.0,-0.37463057,0
1595148000,-0.049874924,-0.0414218,-0.00025701523,0.0,0.0,-0.37793708,0
1595168000,-0.04961577,-0.040314004,-1.2516975e-05,0.0,0.0,-0.37956122,0
1595188000,-0.05326573,-0.03963886,-0.00014185905,0.0,0.0,-0.38271427,0
1595204000,-0.051423587,-0.039116617,-0.0001385212,0.0,0.0,-0.3840421,0
1595228000,-0.053842194,-0.03716127,-0.00019067526,0.0,0.0,-0.38737625,0
1595248000,-0.052865133,-0.039302964,-0.000100553036,0.0,0.0,-0.38937515,0
1595268000,-0.051665947,-0.040470526,-0.00044977665,0.0,0.0,-0.39254412,0
1595288000,-0.051213283,-0.044743177,-0.00021070242,0.0,0.0,-0.39437634,0
1595308000,-0.049970355,-0.046530273,-7.259846e-05,0.0,0.0,-0.3977199,0
1595328000,-0.047494296,-0.044317983,-4.339218e-05,0.0,0.0,-0.39966863,0
1595348000,-0.04718742,-0.046646327,-0.00027662516,0.0,0.0,-0.4030142,0
1595364000,-0.046856258,-0.04397507,-0.0001514554,0.0,0.0,-0.40478557,0
1595388000,-0.04363217,-0.04814024,-0.0003233552,0.0,0.0,-0.40864408,0
1595408000,-0.047575794,-0.04952551,-0.0002169609,0.0,0.0,-0.4107684,0
1595428000,-0.049021672,-0.048718646,8.803606e-05,0.0,0.0,-0.41452524,0
1595444000,-0.04806967,-0.04853121,-0.00020569563,0.0,0.0,-0.41622764,0
1595468000,-0.048565954,-0.047197897,-0.00024032593,0.0,0.0,-0.42032146,0
1595484000,-0.049338296,-0.04816886,2.2947788e-05,0.0,0.0,-0.42181754,0
1595508000,-0.051719643,-0.05227233,-0.00013059378,0.0,0.0,-0.4262018,0
1595524000,-0.051251628,-0.052774154,-0.00017774105,0.0,0.0,-0.4277637,0
1595548000,-0.0502161,-0.05369846,0.00012224913,0.0,0.0,-0.43193585,0
1595568000,-0.05498024,-0.053749233,-0.00022530556,0.0,0.0,-0.43368596,0
1595588000,-0.05923668,-0.057176173,-0.00026202202,0.0,0.0,-0.4378434,0
1595608000,-0.05415935,-0.061148338,-0.0002219677,0.0,0.0,-0.43991268,0
1595628000,-0.051106375,-0.055789277,-0.00064462423,0.0,0.0,-0.44383958,0
1595648000,-0.04647241,-0.055259615,-0.00011098385,0.0,0.0,-0.44603693,0
1595664000,-0.05019296,-0.05646926,-0.00019609928,0.0,0.0,-0.45006445,0
1595688000,-0.05160636,-0.059431374,-7.843971e-05,0.0,0.0,-0.45202407,0
1595708000,-0.05130341,-0.058881618,-0.00021028519,0.0,0.0,-0.4559896,0
1595728000,-0.049529444,-0.058227904,-0.00031542778,0.0,0.0,-0.45802265,0
1595748000,-0.051733173,-0.0615099,-0.00026243925,0.0,0.0,-0.46223277,0
1595768000,-0.05242618,-0.06431589,-0.00021320581,0.0,0.0,-0.46460262,0
1595788000,-0.05026941,-0.0662887,-0.0002411604,0.0,0.0,-0.46859536,0
1595808000,-0.047757372,-0.06644347,-0.00012934208,0.0,0.0,-0.47072464,0
1595828000,-0.045142382,-0.06842247,-0.0001347661,0.0,0.0,-0.47499955,0
1595848000,-0.04738622,-0.07173939,-0.00032544136,0.0,0.0,-0.4774024,0
1595868000,-0.047705144,-0.06900709,-0.00023657084,0.0,0.0,-0.48170713,0
1595888000,-0.043306336,-0.07050625,-0.00029748678,0.0,0.0,-0.48404074,0
1595904000,-0.044954196,-0.068238154,-5.2154064e-05,0.0,0.0,-0.4883344,0
1595924000,-0.048498213,-0.07607424,-0.00012934208,0.0,0.0,-0.4902854,0
1595948000,-0.04898181,-0.07887423,-0.00016897917,0.0,0.0,-0.49521708,0
1595968000,-0.049177565,-0.07610855,-0.00026202202,0.0,0.0,-0.49762547,0
1595984000,-0.047814384,-0.07389722,-0.00028330088,0.0,0.0,-0.50198275,0
1596004000,-0.044585466,-0.07487448,-0.00045895576,0.0,0.0,-0.50380766,0
1596028000,-0.048114207,-0.07413918,-0.00025367737,0.0,0.0,-0.50921327,0
1596048000,-0.04316225,-0.073538475,-0.00035214424,0.0,0.0,-0.5113526,0
1596068000,-0.041545913,-0.07215401,-0.00023448467,0.0,0.0,-0.5155806,0
1596084000,-0.041955072,-0.07386312,8.094311e-05,0.0,0.0,-0.51726,0
1596104000,-0.040782653,-0.0763676,-0.00022488832,0.0,0.0,-0.5223506,0
1596124000,-0.039365757,-0.07872677,8.302927e-05,0.0,0.0,-0.52421606,0
1596148000,-0.040050637,-0.08115504,-3.7550926e-05,0.0,0.0,-0.5295185,0
1596164000,-0.039069634,-0.07996231,-0.00014144182,0.0,0.0,-0.5311236,0
1596188000,-0.044854183,-0.07803195,-0.0003350377,0.0,0.0,-0.53636056,0
1596204000,-0.042849056,-0.07939419,4.9233437e-05,0.0,0.0,-0.53796244,0
1596228000,-0.039968465,-0.08266138,-0.000351727,0.0,0.0,-0.5432122,0
1596244000,-0.041748688,-0.08302715,8.428097e-05,0.0,0.0,-0.54500324,0
1596268000,-0.04091639,-0.08006336,-0.00038301945,0.0,0.0,-0.55055916,0
1596284000,-0.04138985,-0.08129802,-0.0002874732,0.0,0.0,-0.5775644,0
1596308000,-0.042064853,-0.08361891,-0.00011307001,0.0,0.0,-0.58299494,0
1596324000,-0.044236057,-0.08467728,-2.8789043e-05,0.0,0.0,-0.5846162,0
1596348000,-0.045114044,-0.08488241,-2.2530556e-05,0.0,0.0,-0.59022194,0
1596368000,-0.04592982,-0.08875444,-0.00024700165,0.0,0.0,-0.59245664,0
1596384000,-0.048857793,-0.08928849,-0.00024741888,0.0,0.0,-0.59757656,0
1596404000,-0.047411423,-0.09107802,-0.00011473894,0.0,0.0,-0.5993238,0
1596428000,-0.04449939,-0.08783054,-0.0003529787,0.0,0.0,-0.6052352,0
1596448000,-0.042783402,-0.08984508,-0.00026869774,0.0,0.0,-0.60762477,0
1596468000,-0.044570107,-0.09244457,-0.0003746748,0.0,0.0,-0.61301863,0
1596484000,-0.043027505,-0.09166716,-0.00047272444,0.0,0.0,-0.614601,0
1596508000,-0.0413723,-0.09153336,-7.3850155e-05,0.0,0.0,-0.62037563,0
1596524000,-0.04101477,-0.09173091,-5.5909157e-05,0.0,0.0,-0.62210715,0
1596548000,-0.040524557,-0.09285971,-0.0003208518,0.0,0.0,-0.6280251,0
1596568000,-0.042365063,-0.0911622,-0.0003196001,0.0,0.0,-0.6302096,0
1596588000,-0.04282577,-0.09707317,-0.00027120113,0.0,0.0,-0.6355354,0
1596604000,-0.045683067,-0.09671099,-0.00031000376,0.0,0.0,-0.6370394,0
1596628000,-0.041433245,-0.095411085,-0.00023657084,0.0,0.0,-0.6436286,0
1596648000,-0.0407684,-0.0967717,-0.0003004074,0.0,0.0,-0.64633644,0
1596664000,-0.04212281,-0.09593128,-0.00031876564,0.0,0.0,-0.6517649,0
1596688000,-0.043969225,-0.09736277,-0.0002361536,0.0,0.0,-0.65453845,0
1596708000,-0.043519177,-0.09995644,-0.00010639429,0.0,0.0,-0.66015464,0
1596724000,-0.040953357,-0.100287355,-0.0003567338,0.0,0.0,-0.6617961,0
1596748000,-0.04247412,-0.10304651,-0.00048607588,0.0,0.0,-0.66815346,0
1596768000,-0.0444626,-0.1077002,-0.00039720535,0.0,0.0,-0.67126626,0
1596788000,-0.045458164,-0.10819736,-0.0003671646,0.0,0.0,-0.67703694,0
1596808000,-0.046846323,-0.107854255,-0.00041556358,0.0,0.0,-0.6795284,0
1596824000,-0.045570407,-0.10501359,-0.00029081106,0.0,0.0,-0.68528354,0
1596844000,-0.043382592,-0.1015578,-0.00022780895,0.0,0.0,-0.6869072,0
1596868000,-0.048562665,-0.10152279,-0.00049859285,0.0,0.0,-0.6935903,0
1596888000,-0.04422979,-0.10315703,-0.00031417608,0.0,0.0,-0.6958625,0
1596908000,-0.044839036,-0.10236874,-0.00037676096,0.0,0.0,-0.7018677,0
1596928000,-0.046182517,-0.10087032,-0.00035005808,0.0,0.0,-0.7038225,0
1596948000,-0.04672938,-0.09801866,-0.0005415678,0.0,0.0,-0.7094365,0
1596964000,-0.04533816,-0.092402264,-0.00016897917,0.0,0.0,-0.7105095,0
1596984000,-0.044652693,-0.0856997,-0.0002812147,0.0,0.0,-0.7157599,0
1597004000,-0.038683824,-0.07577132,-0.0003951192,0.0,0.0,-0.71627057,0
1597024000,-0.03576785,-0.06534972,-0.00020736456,0.0,0.0,-0.7214463,0
1597048000,-0.031500056,-0.051745288,-4.965067e-05,0.0,0.0,-0.7218067,0
1597068000,-0.02703191,-0.039607104,-3.0040741e-05,0.0,0.0,-0.7264104,0
1597088000,-0.019694734,-0.023715753,-9.304285e-05,0.0,0.0,-0.7263588,0
1597108000,-0.0109451525,-0.00526426,6.258488e-05,0.0,0.0,-0.7308107,0
1597128000,0.0009050369,0.018683085,0.00019025803,0.0,0.0,-0.73076266,0
1597148000,0.018186815,0.040911086,0.00016564131,0.0,0.0,-0.73522025,0
1597164000,0.033257406,0.0619134,0.0006275177,0.0,0.0,-0.73502755,0
1597188000,0.0547617,0.09702607,0.0009341836,0.0,0.0,-0.73910284,0
1597208000,0.07099107,0.12398605,0.0011411309,0.0,0.0,-0.73776436,0
1597228000,0.089230284,0.1459129,0.0015107989,0.0,0.0,-0.7419146,0
1597248000,0.10928921,0.16513279,0.0016584992,0.0,0.0,-0.74045444,0
1597268000,0.120571755,0.1849961,0.0018166304,0.0,0.0,-0.74456394,0
1597288000,0.13764948,0.20183189,0.0018742085,0.0,0.0,-0.74286747,0
1597308000,0.1474591,0.21113476,0.002065301,0.0,0.0,-0.74686307,0
1597324000,0.15666556,0.22082657,0.0020498633,0.0,0.0,-0.74564195,0
1597344000,0.16409726,0.2321526,0.0017678142,0.0,0.0,-0.7487437,0
1597368000,0.16907299,0.24477652,0.0017636418,0.0,0.0,-0.7460415,0
1597384000,0.17206097,0.25067365,0.0018149614,0.0,0.0,-0.74974626,0
1597408000,0.17421581,0.25602376,0.0016714334,0.0,0.0,-0.74691415,0
1597428000,0.17990491,0.25370657,0.0015804768,0.0,0.0,-0.7506876,0
1597444000,0.17672642,0.25550482,0.0014185905,0.0,0.0,-0.74881357,0
1597464000,0.18000054,0.25329316,0.00089120865,0.0,0.0,-0.7514106,0
1597488000,0.17891334,0.24927282,0.0007355809,0.0,0.0,-0.74849516,0
1597508000,0.17877306,0.24103133,0.0006892681,0.0,0.0,-0.7523789,0
1597528000,0.17775403,0.2378699,0.00018191338,0.0,0.0,-0.7494322,0
1597548000,0.1725292,0.2280874,0.0001001358,0.0,0.0,-0.75339824,0
1597568000,0.17014652,0.22180742,-0.00021070242,0.0,0.0,-0.74992895,0
1597588000,0.16437599,0.21628822,-0.0007789731,0.0,0.0,-0.7536625,0
1597608000,0.16494724,0.20919266,-0.0007264018,0.0,0.0,-0.75006145,0
1597628000,0.15871,0.2006221,-0.00077855587,0.0,0.0,-0.7540429,0
1597644000,0.15574907,0.19059242,-0.00078731775,0.0,0.0,-0.7519592,0
1597668000,0.14872544,0.18369138,-0.00066047907,0.0,0.0,-0.75428903,0
1597688000,0.14391848,0.17406446,-0.0010276437,0.0,0.0,-0.7505046,0
1597708000,0.1370844,0.16762736,-0.0010159612,0.0,0.0,-0.75208163,0
1597724000,0.13125789,0.1616203,-0.0012120605,0.0,0.0,-0.7463251,0
1597748000,0.12781894,0.1556492,-0.0012663007,0.0,0.0,-0.7437649,0
1597768000,0.12542377,0.14731565,-0.0014440417,0.0,0.0,-0.7362117,0
1597788000,0.12151288,0.1443285,-0.0016205311,0.0,0.0,-0.7347062,0
1597804000,0.115711756,0.13977446,-0.0016034245,0.0,0.0,-0.72850454,0
1597828000,0.10634991,0.12670273,-0.0012558699,0.0,0.0,-0.7267252,0
1597844000,0.10488413,0.12156492,-0.00144279,0.0,0.0,-0.7242934,0
1597868000,0.09856441,0.114094935,-0.0015178919,0.0,0.0,-0.7271476,0
1597888000,0.09324691,0.11168041,-0.0013013482,0.0,0.0,-0.72427547,0
1597904000,0.08992065,0.10990462,-0.0012821555,0.0,0.0,-0.7284616,0
1597928000,0.08414114,0.10331659,-0.0013785362,0.0,0.0,-0.7260904,0
1597948000,0.079789445,0.09607945,-0.001049757,0.0,0.0,-0.7301985,0
1597968000,0.07592113,0.08650862,-0.0011749268,0.0,0.0,-0.7273504,0
1597984000,0.07366809,0.0862514,-0.0010547638,0.0,0.0,-0.73135084,0
1598008000,0.072316185,0.08251264,-0.0012045503,0.0,0.0,-0.72850513,0
1598028000,0.06977935,0.07788814,-0.0006700754,0.0,0.0,-0.73240715,0
1598048000,0.066260576,0.07988005,-0.0012425184,0.0,0.0,-0.7296029,0
1598068000,0.059010316,0.080807544,-0.001078546,0.0,0.0,-0.733628,0
1598084000,0.058391355,0.07962101,-0.0011060834,0.0,0.0,-0.7282811,0
1598104000,0.055496525,0.07795186,-0.0012925863,0.0,0.0,-0.7255148,0
1598128000,0.05258504,0.071867205,-0.000983417,0.0,0.0,-0.7190831,0
1598148000,0.052508853,0.067690425,-0.0011373758,0.0,0.0,-0.7238374,0
1598168000,0.05054257,0.061486974,-0.0009095669,0.0,0.0,-0.7184487,0
1598188000,0.044112258,0.05989886,-0.00069385767,0.0,0.0,-0.72353774,0
1598208000,0.04274355,0.06023993,-0.00093376637,0.0,0.0,-0.71859306,0
1598224000,0.03992845,0.059262782,-0.0008035898,0.0,0.0,-0.7238878,0
1598248000,0.035250276,0.059779525,-0.00072681904,0.0,0.0,-0.71879077,0
1598268000,0.03227581,0.056883693,-0.000531137,0.0,0.0,-0.7238537,0
1598288000,0.029681012,0.052690737,-0.0008069277,0.0,0.0,-0.71898633,0
1598304000,0.026221387,0.051155213,-0.000667572,0.0,0.0,-0.72399974,0
1598328000,0.025252476,0.047710136,-0.0007748008,0.0,0.0,-0.71915406,0
1598348000,0.025420368,0.04875331,-0.00070387125,0.0,0.0,-0.72420365,0
1598368000,0.02485191,0.040860455,-0.00064587593,0.0,0.0,-0.71942025,0
1598388000,0.02549152,0.038200334,-0.00068050623,0.0,0.0,-0.72436106,0
1598408000,0.024823472,0.042021587,-0.0005507469,0.0,0.0,-0.7193044,0
1598428000,0.025086157,0.042758495,-0.00086659193,0.0,0.0,-0.7239017,0
1598444000,0.026029177,0.04498508,-0.0007497668,0.0,0.0,-0.7199538,0
1598468000,0.027714342,0.04746437,-0.0006045699,0.0,0.0,-0.72414523,0
1598484000,0.027669184,0.046885036,-0.00056159496,0.0,0.0,-0.7199907,0
1598508000,0.02627857,0.045343734,-0.0006366968,0.0,0.0,-0.72425073,0
1598528000,0.023140624,0.04159258,-0.0005707741,0.0,0.0,-0.7196297,0
1598548000,0.023071729,0.040727574,-0.0004259944,0.0,0.0,-0.7244687,0
1598568000,0.019430473,0.03677634,-0.00035840273,0.0,0.0,-0.7193806,0
1598588000,0.020754471,0.036871064,-0.00011181831,0.0,0.0,-0.7243168,0
1598608000,0.016609833,0.030387625,-0.0001552105,0.0,0.0,-0.7196272,0
1598628000,0.018364348,0.028928295,-0.0002540946,0.0,0.0,-0.7239798,0
1598644000,0.015288025,0.024354883,-0.00027662516,0.0,0.0,-0.71999013,0
1598668000,0.008650042,0.022215981,-0.00030332804,0.0,0.0,-0.7237451,0
1598684000,0.009476185,0.022142988,-0.0004723072,0.0,0.0,-0.7194875,0
1598708000,0.00793273,0.0209795,-0.00019234419,0.0,0.0,-0.7232573,0
1598724000,0.005966887,0.017467298,-0.00030332804,0.0,0.0,-0.71905464,0
1598748000,0.008658864,0.016321186,-0.00016021729,0.0,0.0,-0.72304153,0
1598768000,0.009547502,0.015288273,-0.00014477968,0.0,0.0,-0.7178317,0
1598788000,0.009624705,0.009707134,-0.00019818544,0.0,0.0,-0.72237283,0
1598808000,0.007869653,0.013167244,-0.00016772747,0.0,0.0,-0.7174862,0
1598824000,0.005707182,0.014327109,-0.00032377243,0.0,0.0,-0.7219394,0
1598848000,0.009288825,0.015936466,-0.00017690659,0.0,0.0,-0.7168444,0
1598868000,0.012787744,0.01698678,-0.0002002716,0.0,0.0,-0.7216706,0
1598888000,0.016292684,0.01685737,-0.00044435263,0.0,0.0,-0.71682703,0
1598908000,0.013716646,0.01716565,-0.0002232194,0.0,0.0,-0.7216479,0
1598928000,0.0115907565,0.019021716,-0.00044226646,0.0,0.0,-0.7165139,0
1598948000,0.010979295,0.01626106,-0.00019526482,0.0,0.0,-0.7210292,0
1598968000,0.01137175,0.017308792,-0.0002374053,0.0,0.0,-0.7163283,0
1598988000,0.012790363,0.015029398,-0.00030374527,0.0,0.0,-0.72090226,0
1599008000,0.011607777,0.015383093,-7.8856945e-05,0.0,0.0,-0.7158643,0
1599028000,0.009243831,0.018686313,-8.845329e-05,0.0,0.0,-0.72044903,0
1599044000,0.007940777,0.01575928,-2.670288e-05,0.0,0.0,-0.7164887,0
1599068000,0.010049429,0.014357785,-3.33786e-05,0.0,0.0,-0.72027504,0
1599088000,0.008266676,0.009311769,-0.0002578497,0.0,0.0,-0.7154283,0
1599108000,0.009278037,0.008685954,-0.00039094687,0.0,0.0,-0.72002864,0
1599128000,0.0054519884,0.009218393,-0.00012892485,0.0,0.0,-0.71538675,0
1599148000,0.003763523,0.01052308,0.00017565489,0.0,0.0,-0.7197477,0
1599168000,0.00034924597,0.007554503,-0.000117242336,0.0,0.0,-0.71471894,0
1599188000,-9.575114e-05,0.0043483404,-4.0471554e-05,0.0,0.0,-0.71902406,0
1599208000,0.000498198,0.0032108985,-0.00017690659,0.0,0.0,-0.7145624,0
1599228000,-0.0024789758,0.004384475,-7.5519085e-05,0.0,0.0,-0.71913844,0
1599248000,-0.0024836361,0.00402609,1.66893e-06,0.0,0.0,-0.7143493,0
1599268000,-7.1898103e-06,0.0041801073,-0.00014561415,0.0,0.0,-0.71870005,0
1599284000,-0.0017592423,0.0057489807,5.465746e-05,0.0,0.0,-0.7148166,0
1599308000,-0.001911182,0.00498069,0.0002002716,0.0,0.0,-0.71873146,0
1599328000,-0.0031399317,0.008937543,-6.0498714e-05,0.0,0.0,-0.7140451,0
1599348000,-0.0033859387,0.004831421,-8.46982e-05,0.0,0.0,-0.7185125,0
1599368000,-0.0031999536,0.0015250901,0.00014394522,0.0,0.0,-0.71386045,0
1599388000,-0.003516186,0.0006330786,0.00010097027,0.0,0.0,-0.7182504,0
1599408000,-0.007227447,-0.0005996777,2.6285648e-05,0.0,0.0,-0.7131603,0
1599428000,-0.006038416,-0.0018863222,-1.0430813e-05,0.0,0.0,-0.71730703,0
1599448000,-0.005176846,-0.0019177366,0.00016605854,0.0,0.0,-0.7125626,0
1599464000,-0.005199872,-0.00356217,7.468462e-05,0.0,0.0,-0.71672404,0
1599488000,-0.0036182478,-0.0074919416,7.677078e-05,0.0,0.0,-0.7120626,0
1599508000,-0.0022344217,-0.010867877,0.00031667948,0.0,0.0,-0.71616226,0
1599528000,-0.0012947246,-0.012280856,-4.2557716e-05,0.0,0.0,-0.7114242,0
1599548000,-0.0031479,-0.010987631,0.000105559826,0.0,0.0,-0.71560144,0
1599568000,-0.004174806,-0.0123158,-0.00014227629,0.0,0.0,-0.7112401,0
1599584000,-0.0073414706,-0.015800579,7.2181225e-05,0.0,0.0,-0.7155154,0
1599608000,-0.006960625,-0.012063264,-7.092953e-05,0.0,0.0,-0.7110058,0
1599628000,-0.006512806,-0.014041617,3.838539e-05,0.0,0.0,-0.7151684,0
1599644000,-0.0031904094,-0.015003681,0.00020778179,0.0,0.0,-0.71150804,0
1599668000,0.0009428002,-0.016646031,3.0875206e-05,0.0,0.0,-0.7148089,0
1599684000,0.0008127671,-0.012279356,0.00022363663,0.0,0.0,-0.7114061,0
1599708000,0.0008784309,-0.009445267,-0.00016146898,0.0,0.0,-0.71446717,0
1599728000,0.002345657,-0.011730953,-0.0001026392,0.0,0.0,-0.7100325,0
1599748000,0.0049912967,-0.014616469,2.0444393e-05,0.0,0.0,-0.7139618,0
1599764000,0.002204895,-0.015704677,-7.510185e-05,0.0,0.0,-0.7104593,0
1599788000,0.002184689,-0.016610876,-9.304285e-05,0.0,0.0,-0.71368796,0
1599808000,0.0010968521,-0.014219532,7.927418e-06,0.0,0.0,-0.7095667,0
1599824000,0.000977939,-0.014727569,-0.00012642145,0.0,0.0,-0.7135513,0
1599848000,0.0014738254,-0.017388571,-0.00011098385,0.0,0.0,-0.7089869,0
1599868000,-0.0010385457,-0.015563834,-0.00017732382,0.0,0.0,-0.71312016,0
1599888000,0.0006159246,-0.014745399,-0.000103890896,0.0,0.0,-0.70869213,0
1599908000,-0.0031568725,-0.012919562,-0.00029164553,0.0,0.0,-0.71248406,0
1599924000,-0.005841516,-0.011086695,-0.00024825335,0.0,0.0,-0.7091189,0
1599948000,-0.0027725669,-0.011156086,-5.632639e-05,0.0,0.0,-0.7123591,0
1599968000,-0.0020310273,-0.00828606,1.0848045e-05,0.0,0.0,-0.70793563,0
1599988000,-0.0025266577,-0.008610702,1.2099743e-05,0.0,0.0,-0.71165335,0
1600008000,-0.0016874159,-0.0021476252,-0.0001205802,0.0,0.0,-0.7076641,0
1600024000,0.00073380116,-0.0011642049,0.00014060736,0.0,0.0,-0.71154153,0
1600048000,0.0031516347,-0.0030108446,1.2516975e-05,0.0,0.0,-0.7076742,0
1600064000,0.0035604844,-0.0054635154,3.296137e-05,0.0,0.0,-0.7112966,0
1600088000,0.0033886232,-0.002077274,-1.8775463e-05,0.0,0.0,-0.7071709,0
1600108000,0.0030873525,-0.002058215,5.799532e-05,0.0,0.0,-0.7110295,0
1600124000,0.0018164762,-0.0030311837,0.00032919645,0.0,0.0,-0.7076491,0
1600148000,-0.0008698441,-0.0040113833,0.00029081106,0.0,0.0,-0.7109807,0
1600168000,-0.004641601,-0.0047072945,0.00013893843,0.0,0.0,-0.7073372,0
1600184000,-0.0023680248,-0.0028001904,2.0444393e-05,0.0,0.0,-0.71131873,0
1600204000,-0.0030715337,-0.006117245,-0.00016772747,0.0,0.0,-0.7079116,0
1600228000,-0.0063181184,-0.0047580237,1.0430813e-05,0.0,0.0,-0.7112334,0
1600248000,-0.007972801,-0.0036965327,-5.507469e-05,0.0,0.0,-0.70752066,0
1600268000,-0.005594039,0.0012026343,0.00012725592,0.0,0.0,-0.7111233,0
1600284000,-0.0061425595,-0.0016769464,-4.5895576e-06,0.0,0.0,-0.70771396,0
1600308000,-0.003957051,-0.008455768,-0.00019359589,0.0,0.0,-0.7108086,0
1600324000,-0.004644598,-0.011047992,-0.00018107891,0.0,0.0,-0.7076271,0
1600348000,-0.004545014,-0.008297996,-0.00029039383,0.0,0.0,-0.7106183,0
1600364000,-0.0053860587,-0.0059422245,-8.59499e-05,0.0,0.0,-0.7074366,0
1600388000,-0.008870231,-0.004660924,-0.00044184923,0.0,0.0,-0.7102645,0
1600408000,-0.0046620113,-0.0037874104,-0.00013142824,0.0,0.0,-0.7063192,0
1600428000,-0.0038720265,-0.0036729558,1.9192696e-05,0.0,0.0,-0.7097802,0
1600448000,-0.0019362601,-0.0019548442,-0.00010806322,0.0,0.0,-0.7056264,0
1600468000,-0.0072874157,0.0021563102,4.8816204e-05,0.0,0.0,-0.708861,0
1600488000,-0.007514384,0.005248189,-8.177757e-05,0.0,0.0,-0.705079,0
1600508000,-0.007388649,0.007915422,-2.4616718e-05,0.0,0.0,-0.70845014,0
1600524000,-0.00575661,0.0103821065,-2.336502e-05,0.0,0.0,-0.7052572,0
1600548000,-0.0035907798,0.01114336,0.00030583143,0.0,0.0,-0.70785445,0
1600568000,-0.0006671045,0.008235069,5.2571297e-05,0.0,0.0,-0.7045692,0
1600588000,0.00041173492,0.012395958,-0.00015103817,0.0,0.0,-0.70051557,0
1600608000,-0.00016017444,0.0124365445,-3.7133694e-05,0.0,0.0,-0.69675004,0
1600628000,-0.0029031383,0.011234998,5.0902367e-05,0.0,0.0,-0.6920904,0
1600648000,-0.001420375,0.006783709,0.00010639429,0.0,0.0,-0.6880743,0
1600668000,-0.0021394603,0.0063803974,-0.00018149614,0.0,0.0,-0.682996,0
1600688000,-0.004063091,0.002456883,-2.1278858e-05,0.0,0.0,-0.6796671,0
1600704000,-0.0037592691,-0.0003156009,3.7550926e-06,0.0,0.0,-0.674555,0
1600728000,-0.0055523445,-0.0021369453,0.00013518333,0.0,0.0,-0.6718749,0
1600748000,-0.007399133,-0.0033178271,0.0004698038,0.0,0.0,-0.666226,0
1600768000,-0.003538392,-0.003669715,0.0009300113,0.0,0.0,-0.6639057,0
1600788000,-0.0037264153,-0.0073323855,0.0012688041,0.0,0.0,-0.6582011,0
1600808000,-0.0053785667,-0.0051222523,0.0012846589,0.0,0.0,-0.65604216,0
1600828000,-0.0032882197,-0.0021336693,0.0006175041,0.0,0.0,-0.64994407,0
1600848000,-0.002450402,-0.0035629706,0.00067675114,0.0,0.0,-0.65405655,0
1600868000,-0.0038583558,0.002194509,0.0002182126,0.0,0.0,-0.65723944,0
1600884000,-0.004023648,0.00449637,0.00045102835,0.0,0.0,-0.6605807,0
1600908000,-0.0058135977,0.0061184503,0.00073349476,0.0,0.0,-0.6663173,0
1600924000,-0.0071458546,0.002426415,0.0007209778,0.0,0.0,-0.6701887,0
1600948000,-0.006400466,0.0035772366,0.00027537346,0.0,0.0,-0.67538923,0
1600964000,-0.0057494873,0.0040110964,0.00030207634,0.0,0.0,-0.6784379,0
1600988000,-0.00262954,0.00051793293,0.0010376573,0.0,0.0,-0.6830246,0
1601008000,-0.0017979722,0.001934387,0.0012905002,0.0,0.0,-0.6870029,0
1601028000,-0.0033956142,0.0003248388,0.0017194152,0.0,0.0,-0.6906123,0
1601048000,-0.0015633767,-0.0012170095,0.0018112063,0.0,0.0,-0.6956484,0
1601068000,0.00037153717,-0.0020182058,0.0016739368,0.0,0.0,-0.70051146,0
1601088000,0.0028483663,-0.004197822,0.0016393065,0.0,0.0,-0.7048095,0
1601108000,0.0025512306,-0.007377353,0.0012329221,0.0,0.0,-0.7084713,0
1601128000,0.0010368079,-0.004292289,0.0009625554,0.0,0.0,-0.7114128,0
1601148000,-0.0011429666,-0.0032926714,0.0011498928,0.0,0.0,-0.7147867,0
1601168000,-0.002205396,-0.004109829,0.001168251,0.0,0.0,-0.716532,0
1601184000,-0.0025463775,-0.007051183,0.0013818741,0.0,0.0,-0.71951437,0
1601208000,0.0020538475,-0.008485717,0.0010535121,0.0,0.0,-0.7199978,0
1601228000,0.001299981,-0.0048097367,0.001062274,0.0,0.0,-0.72182536,0
1601248000,0.005360177,-0.0061865044,0.0011828542,0.0,0.0,-0.72145486,0
1601268000,0.0047688205,-0.0073616803,0.001013875,0.0,0.0,-0.7227527,0
1601284000,0.0019358313,-0.0048292587,0.0005361438,0.0,0.0,-0.721947,0
1601308000,0.002002539,-0.005315276,8.34465e-07,0.0,0.0,-0.7208633,0
1601328000,0.0059183356,-0.0051685646,0.000108897686,0.0,0.0,-0.7180783,0
1601348000,0.007521015,-0.0028554255,-0.00043350458,0.0,0.0,-0.71691066,0
1601364000,0.006801018,-0.0047675003,-0.0003938675,0.0,0.0,-0.7150098,0
1601388000,0.0048110383,-0.0030374266,-0.0009967685,0.0,0.0,-0.71314585,0
1601408000,0.0048391167,-0.0059701423,-0.001772821,0.0,0.0,-0.7106604,0
1601428000,0.0054846406,-0.0068626376,-0.001758635,0.0,0.0,-0.71016383,0
1601448000,0.0060213013,-0.00570307,-0.002189219,0.0,0.0,-0.7082309,0
1601468000,0.0032134065,-0.003277904,-0.0025146604,0.0,0.0,-0.7083298,0
1601484000,0.00018676464,-0.006076894,-0.0028363466,0.0,0.0,-0.7074025,0
1601508000,-0.003046224,-0.007568147,-0.0029444098,0.0,0.0,-0.70693094,0
1601528000,-0.0023403568,-0.004716158,-0.002731204,0.0,0.0,-0.70539427,0
1601544000,-0.00023298617,-0.006144082,-0.0029706955,0.0,0.0,-0.70581275,0
1601568000,6.573647e-05,-0.0066171507,-0.0026260614,0.0,0.0,-0.7051283,0
1601588000,-0.0024751527,-0.0066496655,-0.0024750233,0.0,0.0,-0.7055264,0
1601608000,-0.0025381064,-0.002369704,-0.002056539,0.0,0.0,-0.7053532,0
1601628000,-0.002806696,-0.0016173485,-0.0021558404,0.0,0.0,-0.70567274,0
1601648000,-0.0005875677,-0.001221491,-0.0017895103,0.0,0.0,-0.705501,0
1601668000,0.0009498503,0.0054608025,-0.0012204051,0.0,0.0,-0.7059341,0
1601688000,-1.7270446e-05,0.008274032,-0.0010514259,0.0,0.0,-0.70498395,0
1601708000,0.0026321923,0.008126545,-0.00071680546,0.0,0.0,-0.7055979,0
1601728000,0.0010984084,0.007160918,-0.0002887249,0.0,0.0,-0.7051939,0
1601748000,0.00025199354,0.008748148,-0.00033086538,0.0,0.0,-0.70606995,0
1601768000,0.0033893771,0.011487347,-0.0005557537,0.0,0.0,-0.70563734,0
1601788000,0.0033700876,0.010083161,-0.00041890144,0.0,0.0,-0.7058832,0
1601804000,0.0010368377,0.0066145416,-5.5491924e-05,0.0,0.0,-0.7053709,0
1601828000,-0.0015294645,0.004495847,0.00043308735,0.0,0.0,-0.70548564,0
1601848000,-0.004017256,0.010596515,0.0007881522,0.0,0.0,-0.7047282,0
1601868000,-0.004311258,0.00877135,0.0010046959,0.0,0.0,-0.70541245,0
1601884000,-0.0009490317,0.012251386,0.0010939837,0.0,0.0,-0.70471007,0
1601908000,0.00033463445,0.00882233,0.00063335896,0.0,0.0,-0.70520663,0
1601928000,-0.00041766372,0.003180209,0.0007072091,0.0,0.0,-0.70432603,0
1601948000,0.0039040837,0.0019870363,0.0002670288,0.0,0.0,-0.70477915,0
1601968000,0.0030354476,0.0052525145,8.5532665e-05,0.0,0.0,-0.70446044,0
1601988000,0.0013321443,0.00030723715,-0.00027662516,0.0,0.0,-0.70507437,0
1602008000,0.006595759,0.0056380136,-1.8775463e-05,0.0,0.0,-0.7045873,0
1602028000,0.004937942,0.0027243984,-0.00043225288,0.0,0.0,-0.7049968,0
1602048000,0.003307146,0.003956512,-0.0006108284,0.0,0.0,-0.70411986,0
1602068000,0.00675034,0.0074852076,-0.0010643601,0.0,0.0,-0.70490474,0
1602084000,0.0063148164,0.009291397,-0.0005232096,0.0,0.0,-0.7045758,0
1602104000,0.009418171,0.008489807,-0.00068342686,0.0,0.0,-0.7049724,0
1602128000,0.010173057,0.00860499,-0.0009742379,0.0,0.0,-0.70476776,0
1602148000,0.009200249,0.007713621,-0.0009825826,0.0,0.0,-0.7052166,0
1602168000,0.009404353,0.0050911307,-0.001245439,0.0,0.0,-0.7046106,0
1602184000,0.007702282,0.004646673,-0.0014757514,0.0,0.0,-0.7052454,0
1602208000,0.0066291853,0.0049685515,-0.0010781288,0.0,0.0,-0.7049991,0
1602228000,0.005744789,0.0049313395,-0.0014019012,0.0,0.0,-0.7059265,0
1602248000,0.0019394499,0.006500351,-0.0019109249,0.0,0.0,-0.70552313,0
1602268000,0.0014781093,0.006096269,-0.00150913,0.0,0.0,-0.706304,0
1602288000,-0.0024440892,0.0061596436,-0.0010460019,0.0,0.0,-0.7059161,0
1602308000,-0.0048432946,0.002790466,-0.00091832876,0.0,0.0,-0.7062831,0
1602328000,-0.0010580337,0.0026992662,-0.00073599815,0.0,0.0,-0.70563763,0
1602348000,-0.0015995859,0.005121489,-0.00093877316,0.0,0.0,-0.70619655,0
1602364000,0.00035464205,0.0049814763,-0.00054991245,0.0,0.0,-0.7055655,0
1602388000,-0.0026867385,0.0036767283,-0.0005891323,0.0,0.0,-0.7058589,0
1602404000,-0.0015860514,0.004663338,-0.00087702274,0.0,0.0,-0.70510083,0
1602428000,0.0011625764,0.0037788914,-0.0010259748,0.0,0.0,-0.7052814,0
1602444000,0.0038456274,0.0050562248,-0.001019299,0.0,0.0,-0.70467585,0
1602468000,0.008908971,0.0061721783,-0.0007773042,0.0,0.0,-0.70502275,0
1602484000,0.005544908,0.003002158,-0.00067716837,0.0,0.0,-0.7046879,0
1602508000,0.0027480694,0.005074142,-0.00018191338,0.0,0.0,-0.70532966,0
1602524000,0.0021514085,0.005763811,-0.00031292439,0.0,0.0,-0.70499307,0
1602548000,0.0033727286,0.007793472,0.00047272444,0.0,0.0,-0.70592546,0
1602568000,0.004550355,0.008290936,0.00067842007,0.0,0.0,-0.705738,0
1602588000,0.0001780896,0.00703918,0.00036466122,0.0,0.0,-0.70662093,0
1602608000,-0.0022381325,0.00698533,-4.7564507e-05,0.0,0.0,-0.7053016,0
1602628000,-0.0008099363,0.0060505453,-5.5491924e-05,0.0,0.0,-0.70580757,0
1602648000,0.0021022065,0.0034065938,-0.00029164553,0.0,0.0,-0.70426625,0
1602668000,0.0019655516,-0.00014732894,-0.00055867434,0.0,0.0,-0.7051104,0
1602684000,0.0037652077,-0.0006769402,-0.0004518628,0.0,0.0,-0.7045898,0
1602708000,0.003288913,-0.00071547367,-0.0002528429,0.0,0.0,-0.70525205,0
1602728000,0.0029837012,0.0008611996,7.969141e-05,0.0,0.0,-0.704669,0
1602748000,0.0030670497,-0.00043949485,0.00037008524,0.0,0.0,-0.7055949,0
1602768000,0.0010854464,-0.0014656081,0.0003838539,0.0,0.0,-0.7045111,0
1602784000,0.001872197,-0.0018819795,-0.0002349019,0.0,0.0,-0.70506346,0
1602808000,-0.003058265,5.5663055e-05,-0.00019276142,0.0,0.0,-0.70387197,0
1602828000,0.0008668918,0.0045138826,-0.00055742264,0.0,0.0,-0.7045748,0
1602844000,0.005181767,0.0077984855,-0.000829041,0.0,0.0,-0.7035589,0
1602868000,0.004975102,0.008193698,-0.0007777214,0.0,0.0,-0.7040792,0
1602888000,0.0086232945,0.011063564,-0.0010760427,0.0,0.0,-0.70325875,0
1602908000,0.007658325,0.008103982,-0.0012179017,0.0,0.0,-0.70421034,0
1602928000,0.008096121,0.010471405,-0.0013551712,0.0,0.0,-0.70354605,0
1602948000,0.0074624494,0.009837724,-0.0014252663,0.0,0.0,-0.70433074,0
1602968000,0.006048633,0.0075148195,-0.0016030073,0.0,0.0,-0.7038359,0
1602984000,0.0028601605,0.009235342,-0.0012421012,0.0,0.0,-0.7049856,0
1603008000,0.0048638927,0.007904355,-0.0008544922,0.0,0.0,-0.7045489,0
1603028000,0.001793168,0.008399131,-0.00093460083,0.0,0.0,-0.7057805,0
1603044000,0.00338517,0.0058617285,-0.0009621382,0.0,0.0,-0.7050038,0
1603068000,0.0014456282,0.0056383386,-0.00092709064,0.0,0.0,-0.70569634,0
1603088000,-0.0016305898,0.0038640471,-0.00067049265,0.0,0.0,-0.70507425,0
1603104000,-0.0041377023,-0.00090890564,-0.00039803982,0.0,0.0,-0.70581037,0
1603124000,-0.0041469755,-0.0033571306,-0.00034046173,0.0,0.0,-0.70474607,0
1603148000,-0.0051428145,-0.0041712653,-0.00021111965,0.0,0.0,-0.70551485,0
1603164000,-0.002411101,-0.0047998372,-0.00025701523,0.0,0.0,-0.704983,0
1603188000,-0.004569198,-0.004633396,-0.0003246069,0.0,0.0,-0.70633125,0
1603208000,-0.00027537998,-0.00442619,0.00073474646,0.0,0.0,-0.70582914,0
1603224000,0.00014152192,-0.005519556,0.0007197261,0.0,0.0,-0.70676935,0
1603248000,0.0072676493,-0.0013223188,0.00015896559,0.0,0.0,-0.70562947,0
1603268000,0.008789016,-0.0009002667,-0.0001180768,0.0,0.0,-0.70669156,0
1603288000,0.009963274,-0.0025656982,-0.00030833483,0.0,0.0,-0.7051722,0
1603308000,0.010006688,-0.0013065124,-0.0006504655,0.0,0.0,-0.70636237,0
1603328000,0.009760991,0.0011451286,-0.0004606247,0.0,0.0,-0.7049772,0
1603344000,0.0071041537,0.0039441776,-0.0004823208,0.0,0.0,-0.706159,0
1603364000,0.00648879,0.004462136,-0.000572443,0.0,0.0,-0.7047568,0
1603388000,0.0075105894,0.004072393,-0.00052571297,0.0,0.0,-0.7059645,0
1603408000,0.0072792294,0.0009351177,-0.00024950504,0.0,0.0,-0.70442307,0
1603428000,0.004146576,0.002885892,0.00014394522,0.0,0.0,-0.7059239,0
1603448000,0.0020448621,0.0027913922,0.00019901991,0.0,0.0,-0.7047358,0
1603468000,0.003206307,0.0029767894,0.0006930232,0.0,0.0,-0.7064032,0
1603488000,0.0048919367,0.0014903899,0.00075519085,0.0,0.0,-0.7049722,0
1603508000,0.0014788713,0.00056948466,0.0007597804,0.0,0.0,-0.70607024,0
1603528000,0.00089279097,-0.0022859853,0.0007543564,0.0,0.0,-0.7040598,0
1603548000,0.000885522,-0.0045408574,0.0011348724,0.0,0.0,-0.70563,0
1603568000,0.0015890095,-0.0033256048,0.0014961958,0.0,0.0,-0.7043195,0
1603584000,0.005522457,0.0011569911,0.0016247034,0.0,0.0,-0.7060424,0
1603608000,0.0034146663,-0.0023019444,0.0020031333,0.0,0.0,-0.7045669,0
1603628000,0.00399555,-0.00486987,0.001975596,0.0,0.0,-0.7061669,0
1603648000,0.0053446135,-0.002649379,0.0018771291,0.0,0.0,-0.70476186,0
1603668000,0.0044969944,-0.0033935902,0.0018379092,0.0,0.0,-0.7063234,0
1603688000,0.005998617,-0.0039682486,0.0015003681,0.0,0.0,-0.70459104,0
1603704000,0.004351629,-0.0040465267,0.0016726851,0.0,0.0,-0.70602244,0
1603724000,0.004634914,-0.0034309283,0.0017707348,0.0,0.0,-0.70423055,0
1603748000,0.0016343892,-0.00242922,0.0015846491,0.0,0.0,-0.7062375,0
1603768000,-3.7318096e-05,-0.001165868,0.0014256835,0.0,0.0,-0.7042075,0
1603788000,0.003557194,0.0011171259,0.0010752082,0.0,0.0,-0.7060132,0
1603804000,0.0044340184,0.0010810379,0.0010597706,0.0,0.0,-0.7040266,0
1603824000,0.004939406,0.0038778065,0.0007606149,0.0,0.0,-0.7059499,0
1603844000,0.0034433184,0.0044871625,0.00082987547,0.0,0.0,-0.7046171,0
1603864000,-0.000725084,0.006209863,0.0005657673,0.0,0.0,-0.70589226,0
1603888000,-0.0020769248,0.0031500813,0.00011265278,0.0,0.0,-0.70411354,0
1603908000,-0.001570953,0.0016324585,-0.00021988153,0.0,0.0,-0.70591265,0
1603928000,-0.001429149,-0.0027025314,0.00019818544,0.0,0.0,-0.70468736,0
1603948000,-0.00072594825,-0.0034874287,0.0003863573,0.0,0.0,-0.7065404,0
1603964000,-0.0013474068,-0.0029222497,0.00030249357,0.0,0.0,-0.7051824,0
1603988000,-0.00094264094,-0.0064012627,0.00043350458,0.0,0.0,-0.7071779,0
1604008000,0.0007973993,-0.004627212,0.00016355515,0.0,0.0,-0.70543987,0
1604024000,0.00094681326,-0.0033383775,-0.00028580427,0.0,0.0,-0.70697135,0
1604048000,0.003963003,-0.0002909716,-0.000500679,0.0,0.0,-0.70557755,0
1604068000,0.0069728596,0.0011578442,-0.0010610223,0.0,0.0,-0.70679474,0
1604088000,0.009096082,0.0037059225,-0.0010268092,0.0,0.0,-0.70510054,0
1604108000,0.0078035817,0.0031361724,-0.0011427999,0.0,0.0,-0.7063707,0
1604124000,0.010584388,0.0012123068,-0.0013159513,0.0,0.0,-0.7053936,0
1604148000,0.011262484,-6.7260116e-05,-0.001552105,0.0,0.0,-0.70666337,0
1604164000,0.00942192,0.0042715045,-0.0010668635,0.0,0.0,-0.7053906,0
1604188000,0.0044548744,0.0018069597,-0.00037801266,0.0,0.0,-0.7068438,0
1604208000,0.0057898425,-0.00081422785,-0.0006366968,0.0,0.0,-0.70590484,0
1604228000,0.0050793504,-0.0021780916,-0.0014757514,0.0,0.0,-0.7069332,0
1604248000,0.005331342,-0.00011074776,-0.0017811656,0.0,0.0,-0.7060141,0
1604268000,0.0049133804,-0.0010574525,-0.0019931197,0.0,0.0,-0.7068027,0
1604288000,-0.00046593975,-0.0051300563,-0.0017753243,0.0,0.0,-0.70524544,0
1604308000,0.00050471537,-0.004558917,-0.000775218,0.0,0.0,-0.7060228,0
1604328000,-0.002044849,-0.006317902,0.0003029108,0.0,0.0,-0.7046593,0
1604348000,-0.0076864446,-0.0067378534,0.00080525875,0.0,0.0,-0.7058297,0
1604368000,-0.0051072775,-0.0074313246,0.00034588575,0.0,0.0,-0.70493245,0
1604388000,-0.0055944254,-0.0077348296,0.00050902367,0.0,0.0,-0.7061154,0
1604408000,-0.0065076714,-0.005928993,-6.2584877e-06,0.0,0.0,-0.70506954,0
1604428000,-0.0024621254,-0.0061014583,0.00045728683,0.0,0.0,-0.7062324,0
1604444000,0.00021532085,-0.0024859097,0.0001026392,0.0,0.0,-0.7057783,0
1604468000,0.00045185257,-0.00037549553,6.467104e-05,0.0,0.0,-0.7065101,0
1604488000,0.0015537553,0.0065691974,0.00029289722,0.0,0.0,-0.7058344,0
1604504000,-0.0010470739,0.0054819724,0.0007097125,0.0,0.0,-0.7064025,0
1604528000,6.634276e-05,0.0047150776,0.00038260221,0.0,0.0,-0.70602316,0
1604544000,-0.001509266,0.0041107354,0.00052696466,0.0,0.0,-0.7066727,0
1604568000,-0.0060960134,0.0018154858,0.00044894218,0.0,0.0,-0.70556515,0
1604584000,-0.0046329945,0.0029266342,0.00037258863,0.0,0.0,-0.7060954,0
1604608000,-0.00013598893,0.0029290346,0.0010301471,0.0,0.0,-0.7056069,0
1604628000,-0.0018802136,0.0045875614,0.0012663007,0.0,0.0,-0.7062024,0
1604648000,-0.0012807595,0.0039224033,0.00090539455,0.0,0.0,-0.7054339,0
1604668000,-0.0022513187,0.0018717684,0.00089120865,0.0,0.0,-0.705834,0
1604684000,-0.008041339,-0.0013499036,0.0007368326,0.0,0.0,-0.7051738,0
1604708000,-0.008204501,-0.0024502147,0.0011999607,0.0,0.0,-0.7060021,0
1604724000,-0.0077332594,-0.002087035,0.0009742379,0.0,0.0,-0.70575863,0
1604748000,-0.006716447,-0.00352839,0.0010397434,0.0,0.0,-0.70649433,0
1604768000,-0.0048677544,0.0007367593,0.000805676,0.0,0.0,-0.7055012,0
1604784000,-0.0061849193,0.0028470168,0.0006579757,0.0,0.0,-0.70601505,0
1604808000,-0.003350955,0.006690545,6.8843365e-05,0.0,0.0,-0.7059936,0
1604828000,-0.00013023661,0.0027753855,-0.0001527071,0.0,0.0,-0.7070349,0
1604844000,5.8275647e-05,0.0037895858,-0.00011098385,0.0,0.0,-0.7068484,0
1604868000,-0.0012142602,0.0036223878,-0.00080150366,0.0,0.0,-0.7065591,0
1604888000,2.9633753e-05,0.0010948802,-0.0008549094,0.0,0.0,-0.706212,0
1604908000,-0.0006665648,0.00063379377,-0.0013184547,0.0,0.0,-0.7064723,0
1604924000,-0.0013563829,0.00088065816,-0.0016860366,0.0,0.0,-0.7061195,0
1604948000,-0.0034417657,-0.002199057,-0.001557529,0.0,0.0,-0.70648223,0
1604968000,-0.0015984583,-0.0023587428,-0.0017281771,0.0,0.0,-0.7056316,0
1604988000,-0.00251773,0.0009054387,-0.0016772747,0.0,0.0,-0.706005,0
1605008000,0.00066661695,0.00037652894,-0.0016522408,0.0,0.0,-0.7056257,0
1605028000,-0.0015162039,0.00012820336,-0.0012738109,0.0,0.0,-0.70582235,0
1605044000,-0.0020977156,0.0022687342,-0.001144886,0.0,0.0,-0.7059411,0
1605068000,-3.439421e-05,0.0034520277,-0.0005912185,0.0,0.0,-0.7061157,0
1605088000,-0.00210858,-0.0033545543,-0.00012683868,0.0,0.0,-0.7062444,0
1605104000,-0.0031925964,-0.006389581,-0.00040721893,0.0,0.0,-0.70617276,0
1605128000,-0.0017798017,-0.005724065,-0.0005774498,0.0,0.0,-0.70598185,0
1605148000,0.00016294653,-0.005007574,-0.00050234795,0.0,0.0,-0.7060846,0
1605164000,0.0012070239,-0.0045325696,-0.0003901124,0.0,0.0,-0.70617497,0
1605184000,0.0033202283,-0.008546283,-0.00021612644,0.0,0.0,-0.7062001,0
1605208000,-0.0005442947,-0.0059707966,-0.00010764599,0.0,0.0,-0.7059397,0
1605228000,0.00019872095,-0.0018910264,-0.00075644255,0.0,0.0,-0.70614034,0
1605244000,0.0018970901,-0.00018767631,-0.0005211234,0.0,0.0,-0.7058537,0
1605268000,0.0050195605,0.00039062434,-0.00020694733,0.0,0.0,-0.70592535,0
1605288000,0.0057534785,-0.0009128388,1.3768673e-05,0.0,0.0,-0.705647,0
1605308000,0.0046268753,0.00030363875,0.00013643503,0.0,0.0,-0.70565563,0
1605328000,0.0054984214,-0.0046517975,0.00053322315,0.0,0.0,-0.705589,0
1605348000,0.008243182,-0.0050605405,0.00062918663,0.0,0.0,-0.7053596,0
1605368000,0.009071853,-0.0034830319,0.0010405779,0.0,0.0,-0.7053203,0
1605388000,0.006953542,-0.0018500334,0.0013927221,0.0,0.0,-0.70500755,0
1605408000,0.0055431486,0.00044530397,0.0011152625,0.0,0.0,-0.70506436,0
1605428000,0.0059391684,-0.0022656436,0.0005874634,0.0,0.0,-0.70504946,0
1605448000,0.006905231,-0.00040596724,0.00041347742,0.0,0.0,-0.7045752,0
1605468000,0.0050065443,0.0034700665,-3.7133694e-05,0.0,0.0,-0.70467824,0
1605488000,0.0008640089,0.0013602925,0.0001693964,0.0,0.0,-0.7043289,0
1605508000,-0.0034635966,-0.0009327498,-2.8371811e-05,0.0,0.0,-0.7044665,0
1605528000,-0.002021858,-0.0007538316,-0.00027245283,0.0,0.0,-0.7048444,0
1605544000,-0.001930939,-0.004497082,-0.0008778572,0.0,0.0,-0.7049107,0
1605564000,-0.00060089584,-0.0066454923,-0.0012195706,0.0,0.0,-0.7054411,0
1605588000,0.0010372298,-0.0034113824,-0.0013626814,0.0,0.0,-0.7059602,0
1605608000,-0.00013630278,-0.0049848403,-0.0009675622,0.0,0.0,-0.7062133,0
1605628000,0.0030832724,-0.0032887068,-0.0009917617,0.0,0.0,-0.70621353,0
1605644000,0.0017421329,-0.0012963237,-0.0011444688,0.0,0.0,-0.7062109,0
1605668000,0.0030280352,-0.0020717727,-0.0012441874,0.0,0.0,-0.70623285,0
1605688000,0.0059046936,-0.0041984096,-0.0013468266,0.0,0.0,-0.7060719,0
1605708000,0.0077794064,-0.004598567,-0.0010163784,0.0,0.0,-0.70583135,0
1605728000,0.007313799,-0.0036750683,-0.00070011616,0.0,0.0,-0.70551306,0
1605748000,0.0063852714,-0.006369576,-0.00039762259,0.0,0.0,-0.7053958,0
1605768000,0.004867846,-0.0072255027,-0.00013935566,0.0,0.0,-0.7053523,0
1605788000,0.0064913696,-0.0074785315,-0.0007326603,0.0,0.0,-0.7054285,0
1605808000,0.0053227795,-0.008269015,-0.0007839799,0.0,0.0,-0.70541954,0
1605828000,0.0026787478,-0.008743464,-0.0006045699,0.0,0.0,-0.7053547,0
1605848000,0.0029195813,-0.0069859484,-0.0005620122,0.0,0.0,-0.705237,0
1605864000,0.0043024127,-0.0055265157,-0.0006187558,0.0,0.0,-0.7050746,0
1605888000,0.0029965984,-0.0068644723,-0.0008674264,0.0,0.0,-0.70515937,0
1605908000,0.002883623,-0.009797777,-0.00074893236,0.0,0.0,-0.70531833,0
1605928000,-0.003932965,-0.012023329,-0.00076395273,0.0,0.0,-0.7054554,0
1605948000,-0.004447072,-0.009654585,-0.0006863475,0.0,0.0,-0.7054526,0
1605968000,-0.0058156643,-0.0053997952,-0.00043725967,0.0,0.0,-0.70516205,0
1605988000,-0.0031690104,-0.005210246,-0.00056117773,0.0,0.0,-0.7051021,0
1606008000,-0.0036952747,-0.007821937,-0.0007493496,0.0,0.0,-0.70472956,0
1606028000,-0.0018798157,-0.003513408,-0.00077813864,0.0,0.0,-0.705026,0
1606044000,-0.00086510135,-0.003662495,-0.0008190274,0.0,0.0,-0.7053427,0
1606068000,-0.0012654855,0.0031116223,-0.0008569956,0.0,0.0,-0.70550036,0
1606084000,0.0009785027,0.0015475256,-0.0007401705,0.0,0.0,-0.7055994,0
1606108000,-0.0009803476,0.0057782168,-0.0012187362,0.0,0.0,-0.705689,0
1606124000,0.0028855046,0.0040310677,-0.0015266538,0.0,0.0,-0.7053637,0
1606148000,0.0036735076,0.0063828914,-0.0009550452,0.0,0.0,-0.7052142,0
1606164000,0.0037074615,0.005533209,-0.000972569,0.0,0.0,-0.7054827,0
1606184000,0.0020021126,0.00795082,-0.0007814765,0.0,0.0,-0.7054404,0
1606208000,0.0011804029,0.005435924,-0.00052696466,0.0,0.0,-0.7059561,0
1606228000,-0.0047803205,0.0053996425,-0.00047188997,0.0,0.0,-0.70635855,0
1606248000,-0.006724298,0.0046999073,-0.00020736456,0.0,0.0,-0.70643306,0
1606268000,-0.0062277373,0.0062953243,-0.00048565865,0.0,0.0,-0.7064404,0
1606288000,-0.008744149,0.0033414997,-0.00037759542,0.0,0.0,-0.70669246,0
1606308000,-0.011724505,0.002091989,-0.001085639,0.0,0.0,-0.70654887,0
1606324000,-0.0073048985,0.0016378267,-0.0009859204,0.0,0.0,-0.70683265,0
1606348000,-0.0048226295,0.0024525607,-0.000900805,0.0,0.0,-0.7068529,0
1606364000,-0.0024418551,-0.0014124252,-0.0005027652,0.0,0.0,-0.70669484,0
1606388000,-0.004240048,-0.0015209569,-0.0010539293,0.0,0.0,-0.7066546,0
1606404000,-0.002806221,0.0027557882,-0.0007856488,0.0,0.0,-0.70656854,0
1606424000,0.0013130237,0.0019571376,-0.00029748678,0.0,0.0,-0.7063491,0
1606444000,0.003290219,0.002792371,-0.00016480684,0.0,0.0,-0.7063049,0
1606468000,0.0024158412,0.004675178,-0.00042557716,0.0,0.0,-0.7067337,0
1606488000,0.0016711914,0.005560516,-0.0011085868,0.0,0.0,-0.70652556,0
1606508000,0.004728358,0.005392227,-0.0012199879,0.0,0.0,-0.7067019,0
1606524000,0.0022667039,0.0031185541,-0.0011548996,0.0,0.0,-0.7068093,0
1606548000,0.00026520854,0.0058616493,-0.0015024543,0.0,0.0,-0.7063581,0
1606564000,0.0014428904,0.0068224166,-0.0013405681,0.0,0.0,-0.7061571,0
1606588000,0.0025128736,0.0072196904,-0.00083488226,0.0,0.0,-0.7063554,0
1606608000,0.0021099462,0.0062864223,-0.0002603531,0.0,0.0,-0.7063441,0
1606628000,0.0049732644,0.008413157,0.00020194054,0.0,0.0,-0.7064998,0
1606648000,0.0053233295,0.007468665,0.00085657835,0.0,0.0,-0.7064329,0
1606668000,0.0056193955,0.0053749536,0.0011073351,0.0,0.0,-0.706647,0
1606684000,0.0073149237,0.006601472,0.0013935566,0.0,0.0,-0.7062614,0
1606704000,0.0037125228,0.007092757,0.001336813,0.0,0.0,-0.7063383,0
1606728000,0.0010994915,0.0051058773,0.0019288659,0.0,0.0,-0.70697236,0
1606744000,0.002088632,0.0055496464,0.0021846294,0.0,0.0,-0.7073485,0
1606764000,0.0023101117,0.0038816533,0.0026331544,0.0,0.0,-0.7072076,0
1606788000,-0.0010781302,0.0071146865,0.0034989119,0.0,0.0,-0.7068777,0
1606808000,-0.0019396944,0.0051943813,0.0034563541,0.0,0.0,-0.7069761,0
1606824000,-0.0013240092,0.0029568053,0.0035760999,0.0,0.0,-0.70747703,0
1606848000,-0.0013614884,0.0027855434,0.0032635927,0.0,0.0,-0.7074186,0
1606868000,-0.0012402963,0.0020362865,0.0035126805,0.0,0.0,-0.70744634,0
1606884000,-0.002573932,0.0032499228,0.0035460591,0.0,0.0,-0.7072398,0
1606904000,-0.0035787239,-0.0005961126,0.0031371713,0.0,0.0,-0.70761335,0
1606928000,-0.0015568677,0.0020391406,0.0030987859,0.0,0.0,-0.7076263,0
1606944000,-0.0013324954,-0.00040318817,0.003143847,0.0,0.0,-0.7075205,0
1606964000,0.0003181463,-0.0003521992,0.0026527643,0.0,0.0,-0.707473,0
1606988000,-0.0050367173,-0.0005431911,0.0016989708,0.0,0.0,-0.7069377,0
1607008000,-0.00450088,-0.00023899763,0.0012738109,0.0,0.0,-0.70630616,0
1607028000,-0.00387276,-0.0022354214,0.00056409836,0.0,0.0,-0.705951,0
1607044000,-0.0034583523,-0.00092154765,0.00046521425,0.0,0.0,-0.7061842,0
1607064000,-0.0047854427,-0.0019022601,0.00034338236,0.0,0.0,-0.7061493,0
1607088000,-0.00488185,-7.21619e-05,0.00012433529,0.0,0.0,-0.7056584,0
1607108000,-0.0055745346,0.0041914564,-0.00039970875,0.0,0.0,-0.7056917,0
1607124000,-0.0059215007,0.001745492,-0.00035381317,0.0,0.0,-0.7057394,0
1607144000,-0.001957233,0.00037352066,-0.0011790991,0.0,0.0,-0.706173,0
1607168000,-0.0043158787,-0.0025441844,-0.0014778376,0.0,0.0,-0.70598215,0
1607184000,0.000112893526,-0.0047504064,-0.0017240047,0.0,0.0,-0.7062379,0
1607204000,0.002966721,-0.005078226,-0.001365602,0.0,0.0,-0.7063416,0
1607228000,0.0015704879,-0.003655145,-0.00089746714,0.0,0.0,-0.7061698,0
1607248000,0.0003693006,-0.0018693877,-0.0007802248,0.0,0.0,-0.706126,0
1607268000,-0.0008252086,0.0020791572,2.3782253e-05,0.0,0.0,-0.7058229,0
1607284000,-0.0021518017,-0.001551906,0.00013685226,0.0,0.0,-0.7058026,0
1607308000,0.00021831132,-0.0036222355,4.5895576e-05,0.0,0.0,-0.7062245,0
1607328000,-0.0015834081,0.0006974441,-0.00021487474,0.0,0.0,-0.7062082,0
1607348000,-0.0014003147,0.00062218076,0.00040262938,0.0,0.0,-0.706374,0
1607364000,-6.479793e-05,0.000119100325,0.0008920431,0.0,0.0,-0.70637596,0
1607388000,0.0009049021,0.0045192307,0.0007301569,0.0,0.0,-0.7064732,0
1607408000,0.003742202,0.0025582763,0.00076436996,0.0,0.0,-0.70626324,0
1607428000,0.0045432206,0.0002562208,0.0014160872,0.0,0.0,-0.70597434,0
1607444000,0.0053297235,-0.0015729307,0.0011548996,0.0,0.0,-0.7059715,0
1607468000,0.0026969789,-0.0026504626,0.00081318617,0.0,0.0,-0.7057082,0
1607488000,-0.002661792,-0.0016464654,0.001168251,0.0,0.0,-0.7058882,0
1607508000,-0.0012550717,0.0011095102,0.0013322234,0.0,0.0,-0.7058175,0
1607528000,-0.0056098914,0.0011268996,0.0016005039,0.0,0.0,-0.7061229,0
1607544000,-0.0044604787,-0.004388117,0.0017699003,0.0,0.0,-0.7064383,0
1607568000,-0.0062629944,-0.0033432716,0.001611352,0.0,0.0,-0.70690244,0
1607588000,-0.006364318,-0.0010082759,0.001073122,0.0,0.0,-0.7069111,0
1607604000,-0.004920557,-0.0010480377,0.0011540651,0.0,0.0,-0.70694184,0
1607628000,0.0018648882,0.00024343084,0.0014790893,0.0,0.0,-0.70619696,0
1607648000,0.0057834713,0.0023851246,0.0014436245,0.0,0.0,-0.70606494,0
1607668000,0.008860264,0.0002810883,0.0009379387,0.0,0.0,-0.70588654,0
1607688000,0.0073583373,0.0029448713,0.0003387928,0.0,0.0,-0.70574313,0
1607708000,0.0072952984,0.0022092282,-4.464388e-05,0.0,0.0,-0.7055329,0
1607728000,0.0077573573,5.1273033e-05,-0.0003734231,0.0,0.0,-0.705386,0
1607744000,0.004931425,-0.00035274518,-0.00034296513,0.0,0.0,-0.7058746,0
1607768000,0.0053970967,0.0010958535,-0.0008607507,0.0,0.0,-0.705972,0
1607784000,0.0066428,0.0020431129,-0.0007802248,0.0,0.0,-0.7059609,0
1607808000,0.00078897504,0.0012185681,-0.0009829998,0.0,0.0,-0.705946,0
1607828000,0.0002521244,0.0029116818,-0.00087827444,0.0,0.0,-0.7059318,0
1607848000,-0.0024552713,0.0024901554,-0.00069594383,0.0,0.0,-0.7058386,0
1607868000,-0.0013718989,0.006057793,-0.0004351735,0.0,0.0,-0.70592993,0
1607888000,0.0007529459,0.0020119506,-0.00016021729,0.0,0.0,-0.7058337,0
1607908000,0.0030466462,0.0013914204,-0.0003116727,0.0,0.0,-0.7056366,0
1607924000,0.0048934743,0.003166799,-0.0002015233,0.0,0.0,-0.7056758,0
1607948000,0.005980024,0.0044394583,-0.00041472912,0.0,0.0,-0.7056425,0
1607964000,0.005367159,0.004856195,-0.00010180473,0.0,0.0,-0.7058276,0
1607988000,-0.0018102678,0.0033216919,0.00022363663,0.0,0.0,-0.7057761,0
1608008000,-0.0003867224,0.00543994,0.00057578087,0.0,0.0,-0.70571667,0
1608028000,0.0010774629,0.0030949507,0.0005286336,0.0,0.0,-0.70598966,0
1608048000,0.00941273,0.0019606056,0.00063169,0.0,0.0,-0.70562273,0
1608068000,0.010011412,0.0022423477,0.00096172094,0.0,0.0,-0.7053309,0
1608084000,0.0059155254,0.00038017705,0.00075519085,0.0,0.0,-0.70520014,0
1608108000,0.0039732805,-0.00036924402,0.00080275536,0.0,0.0,-0.7055372,0
1608124000,0.0045085675,-0.0007266614,0.0009408593,0.0,0.0,-0.7055496,0
1608148000,0.0040005343,0.0018528921,0.0003951192,0.0,0.0,-0.70571816,0
1608168000,0.004158101,-0.0012532694,0.0,0.0,0.0,-0.70560396,0
1608188000,0.0039977804,-0.00130863,0.00013142824,0.0,0.0,-0.7056026,0
1608208000,0.0050453898,-0.0027716572,-0.00010806322,0.0,0.0,-0.7060299,0
1608224000,0.0052680383,-0.0063948636,-3.0040741e-05,0.0,0.0,-0.7056714,0
1608248000,0.0041016135,-0.004599422,-0.00080150366,0.0,0.0,-0.7057027,0
1608264000,0.0003925655,-0.005430514,-0.00096839666,0.0,0.0,-0.70568866,0
1608284000,7.940829e-05,-0.0021669625,-0.0010051131,0.0,0.0,-0.70567983,0
1608304000,0.0007319059,-4.3222215e-05,-0.00069803,0.0,0.0,-0.70536435,0
1608328000,-0.0015711212,0.0015868647,-0.0010222197,0.0,0.0,-0.7057448,0
1608348000,-0.0027523749,-0.0012911181,-0.00071179867,0.0,0.0,-0.70574695,0
1608364000,-0.0053675547,-0.0038806573,-0.001277566,0.0,0.0,-0.70591,0
1608388000,-0.0021363646,-0.0023940946,-0.0013664365,0.0,0.0,-0.7057019,0
1608408000,0.003915067,-0.0027993983,-0.0018020272,0.0,0.0,-0.70584863,0
1608428000,0.005295096,-0.0040703733,-0.0015074611,0.0,0.0,-0.70605135,0
1608448000,0.0062382966,-0.0028783428,-0.0016034245,0.0,0.0,-0.70596886,0
1608464000,0.0025036745,0.00042643305,-0.0014110804,0.0,0.0,-0.7054768,0
1608484000,-0.00052729296,0.0011524009,-0.0017648935,0.0,0.0,-0.7053302,0
1608508000,0.0030692099,0.0019577732,-0.0016501546,0.0,0.0,-0.7052893,0
1608524000,0.0004406278,-0.0003311946,-0.0018491745,0.0,0.0,-0.7055505,0
1608548000,-0.00080962386,-0.0001180931,-0.001568377,0.0,0.0,-0.70587,0
1608568000,0.00019017607,-0.00216466,-0.0008403063,0.0,0.0,-0.7057638,0
1608588000,-0.0003943462,-0.0011763494,-0.0009120703,0.0,0.0,-0.70577157,0
1608604000,-0.0042944774,-0.0017697071,-0.0007184744,0.0,0.0,-0.70560646,0
1608628000,-0.005709841,-0.001766209,-0.00037884712,0.0,0.0,-0.70533884,0
1608648000,-0.0044640377,0.000870544,-0.00023448467,0.0,0.0,-0.7051475,0
1608668000,0.0014654966,0.0013442612,0.00053447485,0.0,0.0,-0.70518345,0
1608688000,0.003040859,0.0029939846,0.00072807074,0.0,0.0,-0.70556897,0
1608708000,0.0035409038,0.002591982,0.0011031628,0.0,0.0,-0.70562977,0
1608728000,-0.0002994663,-0.0002808054,0.0018525124,0.0,0.0,-0.7056574,0
1608748000,-0.0035458552,-0.00059571024,0.0020056367,0.0,0.0,-0.705718,0
1608768000,-0.004816549,0.0014360338,0.0018462539,0.0,0.0,-0.70575374,0
1608784000,-0.0051580095,0.0025409656,0.0016518235,0.0,0.0,-0.7055327,0
1608808000,-0.0068333345,0.00080630044,0.0012087226,0.0,0.0,-0.7053271,0
1608824000,-0.0037965681,0.0005549537,0.00086283684,0.0,0.0,-0.70501375,0
1608844000,-0.0011140388,0.00037184078,0.0009250045,0.0,0.0,-0.7051013,0
1608868000,-0.0008062329,0.0002719895,0.0008444786,0.0,0.0,-0.7051426,0
1608888000,-0.0020275381,0.002267812,0.000495255,0.0,0.0,-0.7049372,0
