timestamp,timestamp_sample,position[0],position[1],position[2],q[0],q[1],q[2],q[3],velocity[0],velocity[1],velocity[2],angular_velocity[0],angular_velocity[1],angular_velocity[2],position_variance[0],position_variance[1],position_variance[2],orientation_variance[0],orientation_variance[1],orientation_variance[2],velocity_variance[0],velocity_variance[1],velocity_variance[2],pose_frame,velocity_frame,reset_counter,quality
1592244000,1592240000,-46.252556,-106.05669,-488.15652,0.7082546,0.0005248692,0.0015332254,0.7059553,-0.05056077,0.0007653944,-0.010252336,0.0056908126,0.006244352,0.0046108407,0.11192886,0.112314925,0.082625546,4.2533204e-05,4.2713673e-05,0.0070065907,0.013832289,0.014003175,0.005139753,1,1,15,0
1592252000,1592248000,-46.252724,-106.05677,-488.15652,0.7082406,0.000498948,0.0015633957,0.7059693,-0.050108224,0.00077511795,-0.010581134,0.001029934,0.009706103,0.0046113026,0.112332314,0.11272228,0.082850315,4.2559248e-05,4.273979e-05,0.007006685,0.0138893165,0.014061427,0.005148284,1,1,15,0
1592260000,1592256000,-46.252895,-106.056854,-488.15652,0.70825315,0.0005125148,0.0015592634,0.70595676,-0.050107773,0.00087527896,-0.010329964,0.001962091,-0.003343325,-0.0047098147,0.11273798,0.11313187,0.083075754,4.2585765e-05,4.276598e-05,0.0070067793,0.013946507,0.014119479,0.005156814,1,1,15,0
1592268000,1592264000,-46.25307,-106.05694,-488.15656,0.70828104,0.00048803145,0.0015367644,0.7059288,-0.049781553,0.00064028276,-0.010266572,-0.008024825,0.00011870225,-0.010169254,0.11314587,0.11354372,0.08330187,4.2611442e-05,4.279248e-05,0.0070068757,0.014004189,0.014178108,0.0051653455,1,1,15,0
1592276000,1592272000,-46.25325,-106.05702,-488.15656,0.7082323,0.0005048386,0.001525082,0.70597774,-0.049819753,0.00014332977,-0.00924466,0.0011630607,-0.0052076327,0.016994964,0.113556005,0.11395784,0.08352867,4.2637264e-05,4.2818636e-05,0.007006974,0.014061844,0.014236683,0.005173878,1,1,15,0
1592284000,1592280000,-46.253437,-106.057106,-488.15656,0.70821506,0.00049454847,0.0015360782,0.7059949,-0.05032399,-0.0003719422,-0.009518936,0.00036397978,0.003580861,0.0058096927,0.11396838,0.114374235,0.08319286,4.26657e-05,4.2844826e-05,0.0070070657,0.014119112,0.014294716,0.005166132,1,1,15,0
1592300000,1592296000,-46.25383,-106.05728,-488.1566,0.7082459,0.0005406513,0.001559939,0.7059639,-0.050444245,-0.0013648511,-0.00925299,0.0036930963,-0.00041390993,0.0035460168,0.114799894,0.11521388,0.08364677,4.272087e-05,4.2897427e-05,0.0070072548,0.014235326,0.014412895,0.0051831994,1,1,15,0
1592308000,1592304000,-46.254036,-106.057365,-488.1566,0.7082464,0.00050788117,0.0015702771,0.70596343,-0.050596844,-0.001538799,-0.009271859,-0.0037637798,0.007442413,-0.00044869332,0.115219064,0.11563716,0.08387473,4.2748143e-05,4.29233e-05,0.007007351,0.014293614,0.01447217,0.0051917345,1,1,15,0
1592316000,1592312000,-46.254246,-106.05745,-488.15662,0.7082658,0.00049018976,0.0015828789,0.70594394,-0.050645802,-0.001005785,-0.009120259,-0.0007011228,0.005178668,-0.007106683,0.11562923,0.116058104,0.08410338,4.275741e-05,4.293972e-05,0.0070067924,0.014343203,0.014526794,0.0052002706,1,1,15,0
1592324000,1592320000,-46.254467,-106.05753,-488.15662,0.7082451,0.00047003885,0.0016086301,0.7059646,-0.0513177,-0.002150582,-0.009323846,0.0011631789,0.0079749115,0.007140908,0.11605282,0.11648596,0.08433271,4.278294e-05,4.296619e-05,0.007006888,0.014402246,0.014587046,0.0052088094,1,1,15,0
1592340000,1592336000,-46.25493,-106.057724,-488.15665,0.7082011,0.00042046988,0.0016583062,0.70600873,-0.052021667,-0.004349015,-0.009978508,0.0004973402,0.0033144632,0.0067413836,0.11690694,0.117348716,0.08479341,4.2838445e-05,4.3018197e-05,0.007007077,0.014519922,0.0147064775,0.0052258857,1,1,15,0
1592348000,1592344000,-46.25517,-106.05782,-488.15668,0.70818305,0.00040687752,0.0016957673,0.7060268,-0.05170808,-0.0043185214,-0.010513954,0.004358829,0.008907086,0.0062087597,0.11733749,0.11778363,0.08502479,4.28647e-05,4.3044198e-05,0.0070071714,0.014579013,0.0147661725,0.005234424,1,1,15,0
1592356000,1592352000,-46.25541,-106.057915,-488.1567,0.7081929,0.00039511226,0.0017102807,0.7060169,-0.05147333,-0.0045958078,-0.010486524,0.0006304072,0.0045128344,-0.003644936,0.117770374,0.11822092,0.084673285,4.2889977e-05,4.3069784e-05,0.0070072706,0.014638165,0.014826371,0.005226027,1,1,15,0
1592364000,1592360000,-46.255653,-106.058014,-488.15674,0.7082125,0.0003958478,0.0017583135,0.7059971,-0.05199614,-0.0040373513,-0.010803674,0.00875308,0.008241344,-0.007106955,0.11820561,0.118660584,0.08490444,4.2914737e-05,4.3096225e-05,0.007007366,0.01469786,0.014886706,0.005234566,1,1,15,0
1592380000,1592376000,-46.25617,-106.05818,-488.1568,0.7082199,0.00036682285,0.0017297835,0.7059898,-0.051970735,-0.0031588483,-0.011605013,-0.0017664245,-0.0014792132,0.0026135212,0.119083166,0.11954713,0.085368805,4.296551e-05,4.314838e-05,0.0070075598,0.014817185,0.015007739,0.0052516493,1,1,15,0
1592388000,1592384000,-46.25642,-106.05826,-488.15683,0.70817524,0.0004032831,0.001801867,0.70603436,-0.052404113,-0.0029535764,-0.011492208,0.019272733,0.0062437416,0.015662862,0.119512685,0.11998865,0.085602015,4.2973865e-05,4.316515e-05,0.0070069996,0.014867525,0.015063429,0.005260193,1,1,15,0
1592396000,1592392000,-46.25624,-106.05833,-488.15665,0.7081623,0.0003976849,0.0018178612,0.70604724,-0.053441428,-0.0021355588,-0.011685503,0.0019614457,0.0037140276,0.0043453462,0.10116577,0.10143879,0.078174695,4.1848976e-05,4.1999556e-05,0.0070065986,0.012290086,0.012425658,0.004947427,1,1,15,0
1592404000,1592400000,-46.256084,-106.058395,-488.1565,0.7081721,0.00037846685,0.0017827344,0.7060376,-0.053841546,-0.0018354207,-0.011670939,-0.008964911,-0.0029438739,-0.003777387,0.10151042,0.10178631,0.07838547,4.1876152e-05,4.2025185e-05,0.0070066913,0.012342227,0.012478337,0.0049559292,1,1,15,0
1592420000,1592416000,-46.25582,-106.05852,-488.1562,0.70817924,0.0002897139,0.0017268924,0.7060306,-0.054334,-0.0027198337,-0.010994371,-0.007100661,0.008641032,0.004877799,0.1022055,0.102487214,0.07880897,4.1926658e-05,4.2075873e-05,0.007006882,0.01244651,0.012583886,0.0049729384,1,1,15,0
1592428000,1592424000,-46.255714,-106.058586,-488.15604,0.7081416,0.00026059162,0.0017253063,0.70606834,-0.054341193,-0.0029933087,-0.011171285,-0.004837039,0.0047794417,0.0130004585,0.10255595,0.102840625,0.07852011,4.1950912e-05,4.210175e-05,0.0070069786,0.01249848,0.012636499,0.0049672024,1,1,15,0
1592436000,1592432000,-46.25562,-106.05865,-488.1559,0.70808595,0.00029599047,0.0017533815,0.70612407,-0.05426407,-0.0030764642,-0.011633115,0.011807999,-0.0013457255,0.019391907,0.10290836,0.10319601,0.07873213,4.1976993e-05,4.212746e-05,0.007007072,0.01255137,0.012690206,0.0049757096,1,1,15,0
1592444000,1592440000,-46.25553,-106.05871,-488.1558,0.7080521,0.00031063432,0.0017713316,0.7061579,-0.0539752,-0.0027516338,-0.011633636,0.006348104,0.00051829073,0.011668978,0.10326213,0.10355266,0.07894481,4.199972e-05,4.2150972e-05,0.007007056,0.012603295,0.0127426535,0.0049842168,1,1,15,0
1592460000,1592456000,-46.255394,-106.05882,-488.15555,0.7080163,0.00024383902,0.0017556539,0.7061939,-0.05419462,-0.0029045732,-0.011903778,-0.009231777,0.00065056566,0.008607911,0.103969626,0.10427059,0.07937211,4.2037056e-05,4.2192947e-05,0.0070065996,0.012702414,0.012846496,0.0050012353,1,1,15,0
1592468000,1592464000,-46.255344,-106.058876,-488.15543,0.70800346,0.0002553639,0.0016884018,0.706207,-0.05396256,-0.0033995882,-0.011581643,-0.009231959,-0.013996907,0.004213594,0.104329824,0.10463393,0.07958674,4.2063723e-05,4.2218482e-05,0.007006693,0.012755555,0.012900469,0.0050097452,1,1,15,0
1592476000,1592472000,-46.255302,-106.05894,-488.1553,0.708001,0.00027451705,0.0016987338,0.70620936,-0.054286566,-0.003705741,-0.010632623,0.005814692,-0.0016131969,0.00048509988,0.10469203,0.1049993,0.07980202,4.209077e-05,4.2244315e-05,0.007006786,0.012809349,0.012955062,0.005018259,1,1,15,0
1592484000,1592480000,-46.255272,-106.059,-488.1552,0.70800877,0.00024734857,0.0017147843,0.7062016,-0.053330414,-0.0032692535,-0.010690946,-0.001375946,0.0075747827,-0.0031101808,0.10505624,0.10536671,0.08001796,4.2119165e-05,4.2270152e-05,0.0070068766,0.012863556,0.013009915,0.0050267735,1,1,15,0
1592500000,1592496000,-46.255245,-106.059105,-488.155,0.70803446,0.00022200977,0.0017178692,0.7061758,-0.05417732,-0.003816568,-0.010547712,8.89854e-05,0.0061100344,0.0014171273,0.10579076,0.10610768,0.079931974,4.217293e-05,4.2322e-05,0.0070070666,0.012972003,0.0131196715,0.005028948,1,1,15,0
1592508000,1592504000,-46.25525,-106.059166,-488.1549,0.7080532,0.00021102621,0.0017034115,0.7061571,-0.054029237,-0.0045610983,-0.009868302,-0.003905848,-0.00068107597,-0.0069718226,0.10616107,0.10648128,0.08014848,4.2199666e-05,4.2347736e-05,0.00700716,0.013026257,0.013174515,0.005037462,1,1,15,0
1592516000,1592512000,-46.25526,-106.05923,-488.15482,0.7080643,0.00020046819,0.0016998777,0.7061459,-0.053616982,-0.004828022,-0.009699504,-0.0019084326,0.001183214,-0.0043086847,0.106533445,0.10685694,0.08036564,4.222739e-05,4.2373784e-05,0.007007251,0.013080727,0.013230035,0.005045978,1,1,15,0
1592524000,1592520000,-46.25528,-106.05929,-488.15472,0.7080274,0.00022773055,0.0017158685,0.7061829,-0.053431727,-0.004748899,-0.009426755,0.008211672,-0.0020125313,0.012735488,0.10690788,0.1072347,0.08058347,4.2253505e-05,4.2399166e-05,0.0070073465,0.013135637,0.013285928,0.005054495,1,1,15,0
1592540000,1592536000,-46.255333,-106.0594,-488.15457,0.7080276,0.00031542082,0.0016660371,0.7061828,-0.053734403,-0.003611794,-0.009876118,0.00221889,-0.004409365,-0.0001802242,0.1076546,0.10799318,0.08102111,4.229034e-05,4.244227e-05,0.0070068897,0.01323749,0.013392901,0.00507153,1,1,15,0
1592548000,1592544000,-46.25538,-106.05945,-488.15448,0.7079822,0.0003128761,0.001681617,0.70622826,-0.05415655,-0.004006068,-0.010064011,0.0028849342,0.0031805919,0.01566551,0.10803516,0.10837722,0.081240915,4.2316933e-05,4.246831e-05,0.007006986,0.013292561,0.013449386,0.0050800527,1,1,15,0
1592556000,1592552000,-46.255432,-106.0595,-488.15442,0.7079575,0.00030837904,0.0016704716,0.706253,-0.05427434,-0.0038093934,-0.0099533815,-0.0021753572,-0.0012136452,0.008341803,0.108417824,0.10876339,0.08146139,4.234204e-05,4.2493666e-05,0.0070070834,0.013347784,0.013505684,0.0050885747,1,1,15,0
1592564000,1592560000,-46.255497,-106.05955,-488.15436,0.7079607,0.00029182222,0.0016646688,0.7062499,-0.053842127,-0.0038639717,-0.0093229525,-0.0033737258,0.0018490866,-0.0015118306,0.1088026,0.1091517,0.08168253,4.23672e-05,4.251877e-05,0.007007179,0.013403462,0.013562251,0.005097098,1,1,15,0
1592580000,1592576000,-46.25565,-106.05965,-488.1542,0.7079523,0.0003365775,0.0017344401,0.70625806,-0.054054815,-0.0037716932,-0.0078063356,0.011406843,0.0062432094,-0.0032430335,0.109578535,0.109934784,0.08158664,4.2421878e-05,4.2570595e-05,0.007007365,0.013514617,0.013675109,0.005098664,1,1,15,0
1592588000,1592584000,-46.255737,-106.05969,-488.15414,0.7079405,0.000370296,0.0017260591,0.7062699,-0.05397789,-0.003430541,-0.0078096827,0.0050153113,-0.007471938,0.0038144768,0.109969705,0.110329576,0.081808314,4.244709e-05,4.2597152e-05,0.0070074596,0.013570927,0.013732229,0.0051071877,1,1,15,0
1592596000,1592592000,-46.255833,-106.05973,-488.15408,0.70798284,0.00035384766,0.0017257171,0.7062275,-0.054443706,-0.003615613,-0.008122676,-0.0024415702,0.0027813842,-0.015360264,0.11036304,0.11072656,0.082030654,4.2472922e-05,4.2623535e-05,0.0070075546,0.0136270635,0.013789158,0.0051157116,1,1,15,0
1592604000,1592600000,-46.25594,-106.05977,-488.15402,0.70796007,0.00031050373,0.0017374697,0.7062503,-0.054666553,-0.0032689539,-0.008419281,-0.005104718,0.00970557,0.0076758973,0.11074905,0.11112187,0.082253665,4.248475e-05,4.2639407e-05,0.007007004,0.013675371,0.013842164,0.005124238,1,1,15,0
1592620000,1592616000,-46.256184,-106.05984,-488.1539,0.7079836,0.0003546491,0.0018153979,0.7062265,-0.055086814,-0.003066405,-0.009751883,0.013404021,-0.00081453007,-0.003777325,0.111546285,0.11192671,0.0827017,4.253297e-05,4.2691227e-05,0.007007196,0.01378854,0.013956866,0.0051412927,1,1,15,0
1592628000,1592624000,-46.25632,-106.05987,-488.15387,0.7079781,0.00037207926,0.0018154437,0.706232,-0.055625156,-0.0029802807,-0.010183854,0.0035503455,-0.003078199,0.0018155891,0.11194819,0.112332456,0.08292672,4.255851e-05,4.271739e-05,0.0070072925,0.013844883,0.014014161,0.005149823,1,1,15,0
1592636000,1592632000,-46.25647,-106.0599,-488.15384,0.7079802,0.00035674853,0.0017986296,0.70623,-0.056288432,-0.0033970631,-0.010897823,-0.0052380413,-0.00028193157,-0.0008476069,0.1123523,0.112740435,0.08315242,4.2586424e-05,4.2743402e-05,0.007007386,0.013901894,0.01407173,0.0051583503,1,1,15,0
1592644000,1592640000,-46.25663,-106.05992,-488.1538,0.70801115,0.00030373028,0.0017849335,0.70619893,-0.056844074,-0.0028184045,-0.011007455,-0.011363193,0.006908652,-0.011100915,0.112757675,0.113149576,0.08282059,4.260978e-05,4.276677e-05,0.00700737,0.0139581775,0.01412904,0.005150761,1,1,15,0
1592660000,1592656000,-46.25697,-106.05997,-488.15372,0.7080465,0.00026858755,0.0017962287,0.7061635,-0.05584105,-0.0030935635,-0.009465841,0.0063471305,-0.0010828554,-0.0025822937,0.11357697,0.11397678,0.08327232,4.266325e-05,4.2818854e-05,0.007007559,0.014072874,0.014245325,0.0051678238,1,1,15,0
1592668000,1592664000,-46.25715,-106.06,-488.15366,0.70803446,0.00024489142,0.0017633345,0.7061756,-0.056255262,-0.0034777434,-0.00971556,-0.009631844,-0.0016153994,0.004341954,0.11397929,0.11438938,0.08349921,4.2673175e-05,4.2834774e-05,0.007007009,0.014121943,0.014298992,0.005176355,1,1,15,0
1592676000,1592672000,-46.25734,-106.06002,-488.15363,0.7080148,0.0002442648,0.0017210444,0.7061955,-0.056742664,-0.0037612056,-0.009750712,-0.007234827,-0.00734139,0.007137879,0.1143944,0.114808604,0.08372677,4.2698506e-05,4.2861233e-05,0.0070071053,0.014179676,0.014357563,0.0051848884,1,1,15,0
1592684000,1592680000,-46.257538,-106.06004,-488.1536,0.70801723,0.00026594344,0.0017529716,0.7061929,-0.056626573,-0.0036246465,-0.009516353,0.009809396,0.0018465047,-0.0007184932,0.11481178,0.11523013,0.08395501,4.2719646e-05,4.2887514e-05,0.0070072045,0.01423781,0.014416944,0.005193424,1,1,15,0
1592700000,1592696000,-46.25795,-106.06008,-488.15353,0.7080257,0.00023818383,0.0017737366,0.70618445,-0.05621817,-0.0027631496,-0.008951283,-0.00044374692,0.0062407246,-0.004979522,0.11565338,0.11608012,0.08441353,4.2771284e-05,4.294029e-05,0.0070073935,0.014354831,0.0145359235,0.005210498,1,1,15,0
1592708000,1592704000,-46.258163,-106.060104,-488.1535,0.7080124,0.00023289611,0.0017892538,0.70619774,-0.056581985,-0.003682145,-0.009189729,0.0020862282,0.0037107193,0.0048741912,0.116077624,0.11650861,0.0846438,4.2796986e-05,4.2966607e-05,0.007007491,0.014413395,0.014595493,0.0052190362,1,1,15,0
1592716000,1592712000,-46.25839,-106.06013,-488.15347,0.7080367,0.00018425562,0.0018127925,0.70617324,-0.057442117,-0.0034516936,-0.009570246,-0.0041721896,0.012765449,-0.008441665,0.11650418,0.11693944,0.08429641,4.2823573e-05,4.299275e-05,0.0070075844,0.0144718615,0.014654663,0.0052107945,1,1,15,0
1592724000,1592720000,-46.25863,-106.06014,-488.15347,0.7080653,0.00014994909,0.0018288242,0.7061447,-0.05812659,-0.0027439026,-0.00906726,-0.002973851,0.0089039095,-0.009906322,0.11693305,0.117372625,0.08452648,4.2849217e-05,4.301938e-05,0.00700768,0.01453038,0.014714133,0.0052193333,1,1,15,0
1592740000,1592736000,-46.25913,-106.06018,-488.15344,0.70804656,0.000165148,0.0017719992,0.7061635,-0.058293067,-0.0037148127,-0.008046709,-0.00071012403,-0.004678217,0.0014121156,0.1177856,0.118241005,0.08498867,4.288433e-05,4.3062126e-05,0.0070072273,0.014639262,0.0148291495,0.0052364124,1,1,15,0
1592748000,1592744000,-46.259384,-106.0602,-488.1534,0.70806587,0.0001818016,0.0017733693,0.7061442,-0.05752844,-0.004050355,-0.007748377,0.003417778,-0.002680805,-0.006577532,0.11822133,0.11868123,0.08522079,4.2911422e-05,4.3088115e-05,0.0070073213,0.014699065,0.014890069,0.0052449554,1,1,15,0
1592756000,1592752000,-46.25964,-106.06023,-488.1534,0.7081044,0.00021014188,0.0017902082,0.70610553,-0.05747396,-0.0038899053,-0.007789794,0.008211428,-0.0020152435,-0.013368549,0.118659414,0.119123854,0.0854536,4.2939868e-05,4.311439e-05,0.0070074163,0.014758943,0.014951066,0.0052534984,1,1,15,0
1592764000,1592760000,-46.2599,-106.06025,-488.15338,0.70814466,0.00015533541,0.0018475024,0.70606506,-0.0576452,-0.004268724,-0.0076384125,0.0006212833,0.019822909,-0.0140342405,0.11909987,0.11956889,0.08568709,4.296787e-05,4.314104e-05,0.0070075085,0.014819399,0.0150125725,0.005262043,1,1,15,0
1592780000,1592776000,-46.26045,-106.0603,-488.15335,0.70815474,8.463439e-05,0.0018480181,0.70605487,-0.05851602,-0.0049939333,-0.0070342687,-0.007501275,0.0055748653,0.0036756538,0.11998797,0.12046625,0.08615614,4.3019492e-05,4.3194686e-05,0.0070077,0.014940472,0.015135941,0.0052791354,1,1,15,0
1592788000,1592784000,-46.260735,-106.06033,-488.15335,0.7081759,8.345323e-05,0.0019015748,0.7060335,-0.058732502,-0.006246268,-0.00726195,0.009409761,0.009702852,-0.0072433325,0.12043563,0.12091859,0.08579256,4.3045737e-05,4.3220803e-05,0.007007797,0.015001558,0.015198217,0.0052702324,1,1,15,0
1592796000,1592792000,-46.26051,-106.06038,-488.1532,0.70821667,5.881989e-05,0.0019032302,0.70599264,-0.058761235,-0.006991507,-0.0070582433,-0.0039061008,0.0046428735,-0.014167481,0.10177375,0.102049775,0.078331865,4.190212e-05,4.203575e-05,0.007007229,0.012377865,0.012513985,0.004955867,1,1,15,0
1592804000,1592800000,-46.260296,-106.06043,-488.15305,0.7082191,6.1656516e-05,0.001893751,0.70599025,-0.058934987,-0.0067986287,-0.007303351,-0.00045245807,-0.0021484334,-0.00071862695,0.10211543,0.102398366,0.078543246,4.1915508e-05,4.2052114e-05,0.0070066866,0.012422733,0.012562184,0.0049643684,1,1,15,0
1592820000,1592816000,-46.259922,-106.060524,-488.15277,0.70817417,0.00013967026,0.0017801395,0.70603555,-0.05943438,-0.006142272,-0.007941786,-0.008575581,-0.024784945,0.007405904,0.10281753,0.10310644,0.078967944,4.196571e-05,4.2103282e-05,0.007006877,0.012527544,0.012668527,0.0049813823,1,1,15,0
1592828000,1592824000,-46.259766,-106.06057,-488.15265,0.70815635,0.00013072141,0.0017530213,0.7060535,-0.059855122,-0.006656547,-0.008155315,-0.0056464667,-0.0032131963,0.006207361,0.10317151,0.10346345,0.07918127,4.198926e-05,4.2129046e-05,0.0070069754,0.012580338,0.012722183,0.0049898913,1,1,15,0
1592836000,1592832000,-46.259624,-106.06061,-488.15253,0.7081298,0.00012526847,0.0017692392,0.7060801,-0.059387874,-0.00597599,-0.007254809,0.0026094369,0.0038440942,0.00927013,0.10352747,0.103822455,0.07939524,4.2015246e-05,4.2154606e-05,0.007007071,0.012633077,0.012775604,0.0049984,1,1,15,0
1592844000,1592840000,-46.25949,-106.060646,-488.15237,0.70813817,9.602279e-05,0.0017881639,0.7060716,-0.059100423,-0.005496968,-0.0065989355,-0.0011190071,0.008504683,-0.0031134952,0.10388479,0.10418273,0.07960987,4.2039173e-05,4.2178053e-05,0.0070070513,0.01268523,0.012828341,0.005006908,1,1,15,0
1592860000,1592856000,-46.25926,-106.06072,-488.15213,0.708126,4.209471e-05,0.0018026601,0.70608383,-0.057624917,-0.005823396,-0.005670115,0.007269364,0.010102345,0.0018129471,0.10460661,0.10491079,0.07952654,4.209288e-05,4.2229396e-05,0.007007242,0.0127917705,0.012936349,0.005009258,1,1,15,0
1592868000,1592864000,-46.25916,-106.06076,-488.15204,0.7081284,5.3955464e-05,0.0018309834,0.7060814,-0.05742974,-0.005906016,-0.0055590714,0.007801919,0.0029118964,-0.0009833712,0.104970545,0.10527787,0.07974175,4.212202e-05,4.225498e-05,0.007007336,0.012845551,0.012991254,0.005017772,1,1,15,0
1592876000,1592872000,-46.25907,-106.0608,-488.15192,0.7081477,8.570588e-05,0.0018303035,0.706062,-0.05730538,-0.0059539913,-0.00595663,0.0062039825,-0.0057434556,-0.0069754655,0.105328895,0.105643995,0.07995762,4.2135096e-05,4.227119e-05,0.0070067965,0.012891566,0.013041744,0.0050262865,1,1,15,0
1592884000,1592880000,-46.259,-106.06083,-488.15182,0.7081331,0.00010970398,0.0018549112,0.70607656,-0.057625514,-0.0052738367,-0.005905709,0.009266694,0.000115516275,0.0050089895,0.10569675,0.10601512,0.08017414,4.215842e-05,4.229707e-05,0.0070068953,0.0129451975,0.013096315,0.0050348016,1,1,15,0
1592900000,1592896000,-46.258896,-106.0609,-488.15164,0.7081617,6.300404e-05,0.0018738344,0.70604783,-0.057009984,-0.005270066,-0.0062142056,-0.0047147903,-0.0002839441,-0.004045938,0.10643858,0.10676357,0.08060915,4.2207794e-05,4.2348478e-05,0.007007089,0.013053288,0.013205174,0.0050518294,1,1,15,0
1592908000,1592904000,-46.258858,-106.06093,-488.15155,0.70817256,3.913417e-05,0.0018966984,0.70603687,-0.057042684,-0.0053726174,-0.0054661604,0.0004782864,0.008238168,-0.004045953,0.10681257,0.10714092,0.080827646,4.223313e-05,4.2373995e-05,0.007007185,0.013107726,0.013260359,0.005060346,1,1,15,0
1592916000,1592912000,-46.258827,-106.06096,-488.15146,0.7081843,8.001286e-05,0.0018938737,0.7060251,-0.056492925,-0.0052714054,-0.0057363594,0.007402498,-0.007740878,-0.0043122536,0.10718863,0.107520364,0.081046805,4.22645e-05,4.2399577e-05,0.0070072743,0.013162333,0.013315707,0.005068864,1,1,15,0
1592924000,1592920000,-46.25881,-106.06099,-488.1514,0.7082186,0.00011287644,0.0018560578,0.70599085,-0.056014705,-0.0051865517,-0.0063041435,-0.00018731006,-0.01253429,-0.012301934,0.10756677,0.107901916,0.08126663,4.2292348e-05,4.2425323e-05,0.007007369,0.013217,0.013371371,0.0050773853,1,1,15,0
1592940000,1592936000,-46.258804,-106.06105,-488.15128,0.70819825,0.00012421935,0.0017628486,0.7060115,-0.056210693,-0.004864839,-0.006716317,-0.0016521447,-0.01013763,0.002212565,0.10832931,0.108671375,0.08117357,4.2348445e-05,4.247698e-05,0.007007557,0.013327486,0.013483145,0.00507913,1,1,15,0
1592948000,1592944000,-46.258816,-106.06108,-488.1512,0.7082026,0.00010003056,0.0017869348,0.706007,-0.056594536,-0.0055222,-0.006688801,0.00061157986,0.008504473,-0.0017822958,0.108705,0.10905578,0.081393935,4.2360327e-05,4.249315e-05,0.007007017,0.013375052,0.013534987,0.005087652,1,1,15,0
1592956000,1592952000,-46.258835,-106.06112,-488.15115,0.70818055,9.3180075e-05,0.0018351278,0.70602906,-0.056179237,-0.006364613,-0.0065728254,0.007934968,0.009703198,0.0074070273,0.10909142,0.109445795,0.08161496,4.238547e-05,4.251905e-05,0.0070071137,0.013430655,0.0135916015,0.005096175,1,1,15,0
1592964000,1592960000,-46.258865,-106.061165,-488.1511,0.70814794,8.25515e-05,0.0018261378,0.7060617,-0.056322895,-0.0069732103,-0.006265162,-0.0028506224,0.00024898988,0.01113542,0.10947997,0.10983797,0.08183666,4.2408392e-05,4.254506e-05,0.0070072114,0.013486516,0.013648352,0.005104698,1,1,15,0
1592980000,1592976000,-46.25896,-106.06125,-488.151,0.7081,8.5536616e-05,0.00182638,0.70610976,-0.05615503,-0.006758702,-0.00541278,-0.004848044,-0.0033463552,-0.006308373,0.110263504,0.110628836,0.082282074,4.2451826e-05,4.2597363e-05,0.0070074103,0.013598747,0.01376281,0.0051217517,1,1,15,0
1592988000,1592984000,-46.259018,-106.0613,-488.15094,0.70812726,5.0060124e-05,0.0018243882,0.7060825,-0.05501344,-0.0073196515,-0.0052354657,-0.0060464423,0.0058417073,-0.010036814,0.11065851,0.111027546,0.082505785,4.2478612e-05,4.2623436e-05,0.007007505,0.0136542665,0.013819147,0.0051302765,1,1,15,0
1592996000,1592992000,-46.259075,-106.06135,-488.15088,0.708104,2.2327053e-05,0.0018435298,0.70610577,-0.054592606,-0.0077878367,-0.004841675,-0.000986469,0.008238496,0.0078064227,0.11105568,0.111428455,0.08273016,4.250695e-05,4.264941e-05,0.0070075984,0.013710167,0.013875901,0.0051388033,1,1,15,0
1593004000,1593000000,-46.259144,-106.0614,-488.15082,0.70810413,-1.6958041e-06,0.001831086,0.70610565,-0.054383896,-0.008037057,-0.0046166265,-0.005913438,0.001980023,-0.00044939187,0.11145502,0.11183157,0.08240265,4.2533393e-05,4.2675816e-05,0.007007695,0.013766283,0.013932483,0.005131395,1,1,15,0
1593020000,1593016000,-46.259296,-106.061516,-488.15067,0.70809036,-8.109293e-05,0.0018772186,0.70611936,-0.05437945,-0.009348542,-0.0037825492,-0.00018770577,0.008371658,0.0012816193,0.112250246,0.11264035,0.08285175,4.2572912e-05,4.2717656e-05,0.0070072534,0.013871561,0.014042902,0.0051484504,1,1,15,0
1593028000,1593024000,-46.259388,-106.061584,-488.15057,0.7081064,-2.8167153e-05,0.0018814032,0.7061033,-0.054338686,-0.009862494,-0.0038029053,0.010598064,-0.008672569,-0.006041982,0.11265604,0.11305009,0.08307731,4.2597272e-05,4.2743526e-05,0.0070073525,0.013928914,0.014101091,0.00515698,1,1,15,0
1593036000,1593032000,-46.259487,-106.06165,-488.1505,0.708102,-4.788901e-05,0.0018424342,0.70610785,-0.053802863,-0.009760173,-0.0033768208,-0.009908242,-0.0034793061,0.0011485708,0.11306406,0.11346208,0.08330355,4.262322e-05,4.2769614e-05,0.007007449,0.013986008,0.014159378,0.005165512,1,1,15,0
1593044000,1593040000,-46.25959,-106.06171,-488.15042,0.7080785,-4.905332e-05,0.0018068834,0.70613146,-0.053822402,-0.0098243095,-0.0030596848,-0.006046654,-0.006142556,0.007939675,0.11347334,0.113875225,0.08353046,4.2650125e-05,4.2793283e-05,0.0070074284,0.0140426885,0.014216972,0.0051740455,1,1,15,0
1593060000,1593056000,-46.259827,-106.06184,-488.1503,0.70810384,-9.716817e-05,0.0017772624,0.7061061,-0.054916784,-0.010692376,-0.0022509473,-0.007910878,0.002378091,-0.0005799968,0.114300534,0.11471054,0.08341996,4.2704723e-05,4.284546e-05,0.0070076175,0.014157641,0.014333358,0.0051747197,1,1,15,0
1593068000,1593064000,-46.259964,-106.061905,-488.1502,0.7080896,-0.00012183,0.0017693128,0.70612043,-0.054819096,-0.0109107345,-0.0026112047,-0.0053808815,0.0029105472,0.004480192,0.11471752,0.115131624,0.08364736,4.2728465e-05,4.2871518e-05,0.007007715,0.014215808,0.014392203,0.0051832516,1,1,15,0
1593076000,1593072000,-46.260113,-106.06197,-488.15015,0.708116,-0.00014431794,0.0017388061,0.70609397,-0.055748135,-0.011115909,-0.0030607693,-0.008976113,-0.001483816,-0.0099009685,0.11513678,0.11555502,0.08387544,4.2750973e-05,4.2897515e-05,0.007007814,0.014274361,0.014451466,0.005191785,1,1,15,0
1593084000,1593080000,-46.260265,-106.06204,-488.15012,0.7080981,-0.00010401765,0.0017866084,0.7061119,-0.055812977,-0.0103336675,-0.0034102052,0.015924437,0.001312506,0.0058116154,0.11554704,0.11597606,0.084104195,4.275794e-05,4.2913733e-05,0.0070072836,0.014324218,0.014506535,0.0052003227,1,1,15,0
1593100000,1593096000,-46.260605,-106.06218,-488.15,0.7080477,-0.00012866818,0.0017208398,0.7061625,-0.05714878,-0.010386839,-0.0033949914,-0.015101749,-0.004413149,0.010072929,0.116396725,0.116834335,0.084563754,4.280969e-05,4.2966218e-05,0.0070074773,0.014441431,0.014625527,0.0052173976,1,1,15,0
1593108000,1593104000,-46.26079,-106.06224,-488.14996,0.7080489,-0.0001550729,0.0017179862,0.7061614,-0.057631955,-0.0101882955,-0.0033701395,-0.0048486027,0.004109017,-0.0009792456,0.11682503,0.117267,0.08479455,4.283852e-05,4.299251e-05,0.007007571,0.014500453,0.014685091,0.0052259355,1,1,15,0
1593116000,1593112000,-46.260994,-106.0623,-488.1499,0.7080432,-0.00017947855,0.0017532198,0.706167,-0.058277104,-0.0096567655,-0.0035906225,0.0022089495,0.010500616,0.001417678,0.117255665,0.11770202,0.08502603,4.2864576e-05,4.3018972e-05,0.0070076683,0.014559493,0.014744967,0.005234476,1,1,15,0
1593124000,1593120000,-46.261208,-106.062355,-488.1499,0.7080263,-0.00020157096,0.0017726809,0.70618385,-0.059136372,-0.00933399,-0.0035310434,-0.00018813746,0.007304844,0.005412442,0.11768864,0.11813941,0.08467463,4.2891217e-05,4.3045566e-05,0.007007764,0.014618645,0.0148052275,0.005226062,1,1,15,0
1593140000,1593136000,-46.26167,-106.06247,-488.14984,0.70801187,-0.00020810137,0.0017371122,0.70619833,-0.059977345,-0.009013227,-0.0024518103,0.0019425021,-0.008940435,-0.0012453811,0.11856163,0.11902134,0.08513783,4.294461e-05,4.3098087e-05,0.0070079537,0.014737313,0.014924896,0.0052431393,1,1,15,0
1593148000,1593144000,-46.261913,-106.06252,-488.1498,0.7080286,-0.00019062155,0.0017381889,0.7061816,-0.0604513,-0.009180322,-0.0020147115,0.0035404358,-0.0029482571,-0.006438625,0.11900167,0.11946591,0.08537046,4.297322e-05,4.3124575e-05,0.007008047,0.014797023,0.014985228,0.005251681,1,1,15,0
1593156000,1593152000,-46.262165,-106.06258,-488.1498,0.7080438,-0.00021071541,0.0017724987,0.7061663,-0.06110361,-0.009429923,-0.0017210316,0.0027414847,0.009568485,-0.005906079,0.119431265,0.1199075,0.08560377,4.298284e-05,4.3140546e-05,0.0070075113,0.0148475105,0.015040826,0.005260224,1,1,15,0
1593164000,1593160000,-46.26243,-106.06263,-488.14978,0.7080457,-0.00021981122,0.0018078927,0.7061643,-0.06154393,-0.009778174,-0.0017391316,0.0048718066,0.007837246,-0.0011129662,0.1198759,0.12035682,0.08583778,4.3013337e-05,4.3167103e-05,0.007007603,0.014907554,0.015101611,0.005268769,1,1,15,0
1593180000,1593176000,-46.262974,-106.06275,-488.14972,0.70805466,-0.00020294527,0.0018241311,0.70615524,-0.061427034,-0.011010685,-0.0015951794,0.011529638,-0.00095129554,-0.000846638,0.120772384,0.12126279,0.08630787,4.306592e-05,4.3219643e-05,0.0070077935,0.015028573,0.015224206,0.0052858624,1,1,15,0
1593188000,1593184000,-46.263252,-106.06282,-488.1497,0.7080658,-0.00022818144,0.0018329119,0.7061441,-0.061339073,-0.011518822,-0.0020029556,-0.0027183348,0.0059730876,-0.004308749,0.121224254,0.12171946,0.08654395,4.3091117e-05,4.324635e-05,0.0070078927,0.015089004,0.015285399,0.0052944086,1,1,15,0
1593196000,1593192000,-46.263035,-106.06271,-488.14957,0.70805025,-0.00024542425,0.0018262826,0.7061598,-0.061129685,-0.011541866,-0.0023523096,-0.004049811,0.001845264,0.0051453873,0.10230324,0.10258477,0.07845465,4.1931416e-05,4.205531e-05,0.0070073754,0.0124333585,0.012568436,0.0049613044,1,1,15,0
1593204000,1593200000,-46.262836,-106.062614,-488.1494,0.70804524,-0.0002704815,0.0017956677,0.70616484,-0.061000243,-0.0114774825,-0.0016397691,-0.00911798,-0.0008210421,0.0012842849,0.10265424,0.10293874,0.07866645,4.1957253e-05,4.2081057e-05,0.007007471,0.012485529,0.012621292,0.0049698106,1,1,15,0
1593220000,1593216000,-46.26248,-106.06242,-488.14917,0.70806503,-0.00026362113,0.0017995998,0.7061449,-0.060084883,-0.011810294,-0.001606569,0.014451003,0.0014426789,-0.0012456041,0.10336211,0.10365262,0.07909199,4.2009775e-05,4.21333e-05,0.0070076645,0.012591041,0.012728284,0.0049868263,1,1,15,0
1593228000,1593224000,-46.262318,-106.06234,-488.14905,0.7080842,-0.0002799944,0.0017656666,0.70612574,-0.059875652,-0.01252825,-0.0012350314,-0.008185935,-0.0029514225,-0.0072377645,0.10371198,0.104009785,0.07930574,4.202006e-05,4.215056e-05,0.007007136,0.0126371905,0.01277866,0.004995337,1,1,15,0
1593236000,1593232000,-46.262165,-106.062256,-488.14893,0.7080768,-0.00027226005,0.0017474316,0.7061333,-0.059824307,-0.012690932,-0.0014307833,-0.0011292072,-0.0044162436,0.0022164872,0.104070745,0.104371674,0.07952014,4.2045904e-05,4.2174965e-05,0.0070072333,0.012690212,0.012832636,0.0050038467,1,1,15,0
1593244000,1593240000,-46.262035,-106.06219,-488.1488,0.70808405,-0.0002456986,0.0017337109,0.7061261,-0.05987998,-0.012954483,-0.000822518,0.0029987372,-0.0069462815,-0.0029767174,0.10443087,0.10473483,0.079735205,4.2068306e-05,4.2198448e-05,0.0070072142,0.0127424775,0.012885643,0.0050123585,1,1,15,0
1593260000,1593256000,-46.26182,-106.06206,-488.14856,0.7080874,-0.00024117209,0.001814208,0.7061225,-0.059791967,-0.013031714,-0.00030476364,0.0040650493,0.009032416,-0.002578119,0.10515837,0.10546871,0.08016729,4.2119224e-05,4.225162e-05,0.007007406,0.012849421,0.01299472,0.005029387,1,1,15,0
1593268000,1593264000,-46.26173,-106.062,-488.14847,0.7080422,-0.0001909676,0.001819416,0.7061678,-0.059486937,-0.013734798,-0.00046621982,0.010456743,-0.0077456557,0.015664397,0.10552515,0.10583872,0.07986536,4.2147985e-05,4.227715e-05,0.0070074988,0.012903146,0.013049577,0.00502308,1,1,15,0
1593276000,1593272000,-46.261658,-106.06195,-488.14835,0.7080091,-0.00017251393,0.00174484,0.70620114,-0.059762143,-0.014735647,-0.000822724,-0.009250597,-0.016267816,0.011403344,0.10589396,0.10621079,0.08008164,4.217579e-05,4.2302974e-05,0.007007594,0.012956942,0.013104545,0.0050315955,1,1,15,0
1593284000,1593280000,-46.261597,-106.06191,-488.14825,0.7080178,-0.00018009587,0.0016970487,0.70619255,-0.05933856,-0.014453717,-0.00070621516,-0.0091175195,-0.0069466406,-0.0033770828,0.106264815,0.10658492,0.08029858,4.2202537e-05,4.2329666e-05,0.007007688,0.013010615,0.013159283,0.005040112,1,1,15,0
1593300000,1593296000,-46.2615,-106.06184,-488.14807,0.7080246,-0.00019541605,0.0017073607,0.7061857,-0.05851691,-0.014605615,-0.00047830582,-0.005256067,0.0045049917,0.0034140302,0.107004546,0.10733616,0.08073443,4.2234915e-05,4.2371288e-05,0.007007265,0.013111267,0.01326509,0.005057146,1,1,15,0
1593308000,1593304000,-46.26147,-106.061806,-488.148,0.7080337,-0.0002251613,0.0016999078,0.7061766,-0.05912545,-0.0143410275,-0.00036659517,-0.0059220884,0.004105611,-0.0035100717,0.10738145,0.1077165,0.08095335,4.2263662e-05,4.239674e-05,0.0070073577,0.013165734,0.0133205345,0.0050656656,1,1,15,0
1593316000,1593312000,-46.261456,-106.061775,-488.14792,0.7080402,-0.000203661,0.0016931588,0.7061701,-0.05956893,-0.01401393,-0.00040930358,0.0032659164,-0.004815944,-0.0025779689,0.10776042,0.10809894,0.08117293,4.2291886e-05,4.2422078e-05,0.0070074503,0.013220593,0.0133762555,0.005074186,1,1,15,0
1593324000,1593320000,-46.261456,-106.061745,-488.14783,0.7080541,-0.00024199378,0.0017260507,0.7061561,-0.059516292,-0.014312162,-0.00018421734,-0.00032913676,0.012760831,-0.0052412767,0.10814149,0.1084835,0.08086113,4.2317926e-05,4.244837e-05,0.007007544,0.013275521,0.013431749,0.005067442,1,1,15,0
1593340000,1593336000,-46.26149,-106.06171,-488.14767,0.7079829,-0.00027020305,0.0017639811,0.70622736,-0.05929916,-0.014667229,-0.0009339843,0.002067414,-0.0001554215,0.001549911,0.108909935,0.10925901,0.08130072,4.2371168e-05,4.249924e-05,0.007007739,0.0133866025,0.013543952,0.0050844816,1,1,15,0
1593348000,1593344000,-46.261524,-106.06168,-488.1476,0.70798314,-0.00027799522,0.0017671286,0.7062271,-0.05972014,-0.014433226,-0.0007017215,-0.000196271,0.0021082237,-0.00031427655,0.10929734,0.109649986,0.08152151,4.2397496e-05,4.252559e-05,0.007007835,0.0134423515,0.013600446,0.005093003,1,1,15,0
1593356000,1593352000,-46.26157,-106.06167,-488.14755,0.7079569,-0.0003614369,0.0017504329,0.7062534,-0.05927726,-0.014063256,-0.0015161568,-0.017107448,0.011961896,0.00900663,0.10968688,0.11004312,0.08174297,4.2423013e-05,4.2552398e-05,0.0070079323,0.0134976115,0.013656504,0.005101526,1,1,15,0
1593364000,1593360000,-46.261623,-106.06165,-488.1475,0.70797443,-0.0003914582,0.0017420064,0.70623577,-0.058893356,-0.013298874,-0.0012979268,-0.006188513,0.0039723758,-0.0064395177,0.11007856,0.11043843,0.0819651,4.2448413e-05,4.2579395e-05,0.007008027,0.013553617,0.013713218,0.005110049,1,1,15,0
1593380000,1593376000,-46.261738,-106.06162,-488.14737,0.70798254,-0.00035986688,0.0017550356,0.7062277,-0.057480514,-0.013872092,-0.00015418358,0.006461389,-0.0017530208,0.00048599846,0.11085888,0.11123172,0.08241134,4.2484022e-05,4.2621046e-05,0.0070075965,0.013657774,0.013822062,0.0051270993,1,1,15,0
1593388000,1593384000,-46.261803,-106.061615,-488.14728,0.70796394,-0.00035506455,0.0018078234,0.70624626,-0.057430863,-0.013562271,-5.545233e-06,0.010722532,0.008633145,0.0062118494,0.1112569,0.11163353,0.08208712,4.250844e-05,4.2647196e-05,0.007007693,0.013714336,0.013879412,0.005119821,1,1,15,0
1593396000,1593392000,-46.26188,-106.06161,-488.14722,0.70793253,-0.0003935544,0.0018196885,0.70627767,-0.056871135,-0.013574486,-0.0006476275,-0.0041912594,0.009032666,0.010739234,0.1116571,0.112037554,0.08231043,4.2532163e-05,4.267286e-05,0.007007791,0.013770618,0.013936484,0.005128348,1,1,15,0
1593404000,1593400000,-46.26196,-106.06161,-488.14716,0.7079155,-0.00040188507,0.0018571913,0.70629466,-0.0563534,-0.013356488,-0.00071630714,0.0056623844,0.008233941,0.005679039,0.11205949,0.1124438,0.08253441,4.255959e-05,4.2697684e-05,0.0070078885,0.01382736,0.01399417,0.0051368764,1,1,15,0
1593420000,1593416000,-46.262146,-106.06159,-488.14703,0.7079072,-0.00043148486,0.001784009,0.7063031,-0.05635912,-0.012821737,9.9505436e-05,-0.009917047,-0.00042152175,-0.00044622298,0.11287087,0.11326298,0.08298439,4.261172e-05,4.274876e-05,0.007008085,0.013941475,0.014109466,0.0051539335,1,1,15,0
1593428000,1593424000,-46.26225,-106.06159,-488.14694,0.7079189,-0.00042853507,0.0017817623,0.70629144,-0.05598098,-0.013268375,0.00021843707,0.00060238916,-0.000820921,-0.0044408836,0.113279894,0.11367595,0.083210394,4.263239e-05,4.27758e-05,0.007008184,0.013999362,0.014167989,0.0051624663,1,1,15,0
1593436000,1593432000,-46.26236,-106.0616,-488.14688,0.70789146,-0.00045522986,0.001760432,0.706319,-0.05580524,-0.013772971,-2.5239506e-06,-0.008052972,0.0010432999,0.00940745,0.11369115,0.11409119,0.08343707,4.2656335e-05,4.2802723e-05,0.00700828,0.01405669,0.014226079,0.0051709968,1,1,15,0
1593444000,1593440000,-46.262478,-106.0616,-488.14682,0.7078677,-0.0005353919,0.001730185,0.70634276,-0.055501085,-0.013292778,-6.240556e-05,-0.01910496,0.008899433,0.008076196,0.114093,0.114503145,0.08310237,4.2663833e-05,4.2815846e-05,0.0070076426,0.014104525,0.014278501,0.005163267,1,1,15,0
1593460000,1593456000,-46.262737,-106.06161,-488.14667,0.70787007,-0.0005605139,0.0016873983,0.7063405,-0.05542725,-0.011752746,0.0006485877,-0.00605523,-0.0032178143,0.00048575155,0.114926435,0.11534486,0.08355604,4.271852e-05,4.286925e-05,0.0070078317,0.014220229,0.014396048,0.005180333,1,1,15,0
1593468000,1593464000,-46.26288,-106.0616,-488.1466,0.7078628,-0.00056156726,0.0016218433,0.706348,-0.0546849,-0.011730957,0.00017147152,-0.011381523,-0.011340492,0.0023499806,0.11534656,0.11576917,0.083783895,4.274314e-05,4.2895063e-05,0.007007929,0.014278321,0.014455335,0.0051888684,1,1,15,0
1593476000,1593472000,-46.26302,-106.0616,-488.14655,0.70785755,-0.0005839634,0.0016486482,0.70635307,-0.05498619,-0.011748839,0.0007969345,0.001135322,0.0087664155,0.0015509223,0.11576897,0.116195805,0.08401243,4.2773274e-05,4.2921216e-05,0.0070080226,0.014336643,0.014514411,0.005197404,1,1,15,0
1593484000,1593480000,-46.263172,-106.0616,-488.14645,0.70786625,-0.0006154054,0.0016709961,0.70634425,-0.054817908,-0.011336493,0.0010654989,-0.0012616676,0.009565369,-0.0033756762,0.116193675,0.116624765,0.084241636,4.280296e-05,4.2947693e-05,0.007008116,0.014395501,0.01457417,0.005205941,1,1,15,0
1593500000,1593496000,-46.263496,-106.0616,-488.14633,0.7079248,-0.00068732526,0.0017218833,0.7062854,-0.054589164,-0.011340912,0.0021691013,0.003931573,0.010364109,-0.0100339195,0.11705002,0.117489725,0.0847021,4.2855838e-05,4.300003e-05,0.007008306,0.014513245,0.0146937175,0.0052230177,1,1,15,0
1593508000,1593504000,-46.263668,-106.061615,-488.14624,0.7079321,-0.0006795048,0.001742121,0.706278,-0.054156616,-0.012312369,0.003213024,0.005263224,0.0022416865,-0.002843127,0.1174697,0.11792073,0.08435418,4.286917e-05,4.301816e-05,0.0070077754,0.014563624,0.014749103,0.0052147326,1,1,15,0
1593516000,1593512000,-46.263844,-106.06163,-488.14615,0.7079443,-0.0007066701,0.0018118504,0.7062657,-0.053616356,-0.012766234,0.0030335092,0.0077932714,0.017155584,-0.004706567,0.11790354,0.118359044,0.08458454,4.28968e-05,4.3045093e-05,0.007007871,0.01462246,0.014808945,0.0052232696,1,1,15,0
1593524000,1593520000,-46.264023,-106.06165,-488.14606,0.70796514,-0.0007131651,0.0018390483,0.7062447,-0.052933425,-0.0129637495,0.0029433859,0.0039316174,0.0059703225,-0.007769137,0.118339725,0.11879974,0.08481559,4.2922627e-05,4.3071042e-05,0.007007969,0.014681739,0.01486871,0.005231807,1,1,15,0
1593540000,1593536000,-46.264393,-106.06171,-488.1459,0.7079444,-0.0006208651,0.0018630474,0.7062655,-0.05341459,-0.01399115,0.0038875765,0.009124829,-0.00015483524,0.0067451596,0.11921919,0.119688325,0.08527973,4.2977354e-05,4.312193e-05,0.007008161,0.014800581,0.014989049,0.0052488884,1,1,15,0
1593548000,1593544000,-46.26459,-106.061745,-488.1458,0.70792663,-0.000594439,0.0018636745,0.70628333,-0.053981707,-0.014056475,0.004482595,0.0049969377,-0.004549245,0.0059461268,0.11966249,0.12013623,0.08551284,4.3006636e-05,4.3148902e-05,0.007008255,0.014861018,0.015050165,0.00525743,1,1,15,0
1593556000,1593552000,-46.2648,-106.06178,-488.14572,0.7079037,-0.0005615586,0.0018737683,0.70630634,-0.054188963,-0.015188108,0.0051664556,0.0077933115,-0.0040164455,0.0078104017,0.12010819,0.120586574,0.08574663,4.3035794e-05,4.3174776e-05,0.0070083477,0.014921185,0.015111107,0.0052659726,1,1,15,0
1593564000,1593560000,-46.26502,-106.06184,-488.14563,0.70790106,-0.0005030559,0.0019185179,0.70630884,-0.053829413,-0.016009256,0.005479039,0.018445926,-0.0024185763,0.0006200516,0.12055629,0.12103936,0.08598111,4.305948e-05,4.3202017e-05,0.0070084454,0.0149811525,0.015172253,0.005274519,1,1,15,0
1593580000,1593576000,-46.26547,-106.06195,-488.14548,0.7078981,-0.00051077595,0.0018904186,0.70631194,-0.054427553,-0.017038383,0.004966737,-0.0031256853,-0.0036170715,-0.0027090611,0.12144614,0.12194653,0.085852124,4.309427e-05,4.324541e-05,0.007008015,0.015092547,0.015289558,0.005274114,1,1,15,0
1593588000,1593584000,-46.265705,-106.06202,-488.1454,0.7079013,-0.0005336332,0.0018652958,0.7063088,-0.05530875,-0.017034942,0.0053716376,-0.008318956,-0.0004214697,-0.0013781491,0.12190133,0.12240661,0.08608703,4.3120832e-05,4.3273005e-05,0.0070081106,0.015153782,0.015351492,0.0052826605,1,1,15,0
1593596000,1593592000,-46.2655,-106.06197,-488.1452,0.7079579,-0.0005920278,0.0018251515,0.70625204,-0.055090148,-0.017366199,0.005056234,-0.017240487,0.0031736023,-0.020286664,0.10276355,0.103049785,0.07857542,4.1959258e-05,4.2080297e-05,0.007007504,0.012474022,0.01260969,0.0049661533,1,1,15,0
1593604000,1593600000,-46.26531,-106.061935,-488.14505,0.7079359,-0.00059203163,0.0018349004,0.7062741,-0.055260904,-0.01737447,0.0048306356,0.0023267106,0.0018403679,0.0074105924,0.10311673,0.10340598,0.07878761,4.198484e-05,4.210673e-05,0.0070075984,0.012525828,0.012662528,0.0049746595,1,1,15,0
1593620000,1593616000,-46.264984,-106.06188,-488.1447,0.7079765,-0.0005604703,0.0019297351,0.7062332,-0.05615552,-0.01780695,0.004283812,0.02296639,0.013158601,-0.012962418,0.103828974,0.10412435,0.07921395,4.2030748e-05,4.216119e-05,0.007007791,0.012631352,0.012769274,0.0049916715,1,1,15,0
1593628000,1593624000,-46.264847,-106.06186,-488.14456,0.70794994,-0.00056822476,0.0020055224,0.7062596,-0.05587225,-0.017844928,0.004505303,0.012580068,0.01488966,0.009008585,0.10418807,0.10448654,0.0794281,4.2059266e-05,4.218663e-05,0.007007885,0.0126839895,0.012822699,0.0050001815,1,1,15,0
1593636000,1593632000,-46.264725,-106.061844,-488.1444,0.70791674,-0.000545503,0.0020251968,0.70629287,-0.055723287,-0.018434333,0.0043452797,0.00805261,-0.00042328375,0.01140523,0.10454915,0.10485074,0.07964291,4.208825e-05,4.2212494e-05,0.0070079765,0.012736884,0.012876349,0.0050086915,1,1,15,0
1593644000,1593640000,-46.26462,-106.06184,-488.14426,0.7078843,-0.0005277336,0.0019827653,0.7063254,-0.05588061,-0.019237706,0.0040375097,-0.0037986303,-0.010543385,0.011138921,0.10491158,0.10521621,0.07985837,4.2115546e-05,4.2236825e-05,0.0070079546,0.01278909,0.012929153,0.005017203,1,1,15,0
1593660000,1593656000,-46.264477,-106.06183,-488.14395,0.7078814,-0.0005682902,0.001969272,0.7063284,-0.05653897,-0.018920533,0.003989486,-0.009522043,0.0059660524,-0.008569838,0.10563614,0.10595173,0.07977486,4.2156596e-05,4.2277163e-05,0.0070075304,0.01288828,0.01303261,0.005019527,1,1,15,0
1593668000,1593664000,-46.264423,-106.06183,-488.1438,0.7078704,-0.00054085493,0.0019800672,0.70633936,-0.056295928,-0.019003863,0.0039904034,0.0072558913,-0.0028224376,0.003547507,0.10600514,0.10632402,0.079990886,4.218889e-05,4.2301366e-05,0.0070076203,0.012942338,0.013087081,0.0050280388,1,1,15,0
1593676000,1593672000,-46.26438,-106.06184,-488.14365,0.7078337,-0.00050659187,0.0019539916,0.7063763,-0.056215737,-0.019171493,0.003435801,0.0019297117,-0.010545506,0.012735408,0.10637617,0.10669837,0.08020757,4.221699e-05,4.2326286e-05,0.0070077144,0.012996451,0.013141641,0.005036551,1,1,15,0
1593684000,1593680000,-46.264355,-106.061844,-488.14352,0.70780784,-0.00043464729,0.0019617896,0.7064022,-0.056026075,-0.018700054,0.003304284,0.0145796295,-0.011211155,0.008873995,0.10674926,0.1070748,0.08042492,4.2237974e-05,4.2349988e-05,0.007007817,0.013050669,0.013196535,0.0050450666,1,1,15,0
1593700000,1593696000,-46.264324,-106.06187,-488.14325,0.7077641,-0.00033109155,0.0019236252,0.7064462,-0.054709673,-0.018623065,0.0035669198,0.0048589096,-0.009746599,0.01127072,0.10750162,0.10783392,0.0808616,4.2287338e-05,4.2399468e-05,0.0070080133,0.013158969,0.013306292,0.005062103,1,1,15,0
1593708000,1593704000,-46.264313,-106.06188,-488.1431,0.7077296,-0.00032649972,0.0019334367,0.7064808,-0.053652868,-0.018894957,0.004324657,0.0029948622,0.0010392847,0.011936474,0.107880905,0.10821663,0.08108093,4.2311396e-05,4.2424213e-05,0.0070081144,0.0132136615,0.013361388,0.005070622,1,1,15,0
1593716000,1593712000,-46.264313,-106.061905,-488.14297,0.7077212,-0.00028173448,0.0018675165,0.7064894,-0.053158946,-0.019373043,0.0039871605,-0.0032634698,-0.019467114,0.0027484866,0.10826228,0.10860145,0.08130092,4.2336196e-05,4.244748e-05,0.007008212,0.013268663,0.013416704,0.0050791414,1,1,15,0
1593724000,1593720000,-46.264313,-106.06193,-488.14285,0.70769614,-0.00026285648,0.0018547464,0.70651454,-0.053269647,-0.01966353,0.0037642252,0.0015299362,-0.005485431,0.008607596,0.10863711,0.10898491,0.080987856,4.234616e-05,4.246434e-05,0.0070076953,0.013316385,0.0134687815,0.005072342,1,1,15,0
1593740000,1593736000,-46.26436,-106.06199,-488.14264,0.70764697,-0.00029281908,0.001863053,0.7065638,-0.053758424,-0.019484054,0.0033724697,-0.0028643045,0.0027700611,0.002348203,0.10941013,0.109765105,0.08142827,4.239624e-05,4.251768e-05,0.00700789,0.013427017,0.013580967,0.0050893864,1,1,15,0
1593748000,1593744000,-46.2644,-106.06202,-488.14252,0.7076369,-0.00027578452,0.0019026005,0.7065737,-0.053523086,-0.0197036,0.0034581712,0.010451528,0.004101637,0.003413507,0.109799825,0.11015843,0.081649475,4.2423544e-05,4.2545988e-05,0.0070079835,0.013482937,0.013637504,0.0050979084,1,1,15,0
1593756000,1593752000,-46.264446,-106.06206,-488.14243,0.7076042,-0.00029335322,0.001911312,0.7066064,-0.053255655,-0.02024774,0.0036592258,-0.0011332288,0.00476736,0.011403017,0.11019166,0.11055393,0.08187134,4.2449934e-05,4.2571643e-05,0.007008081,0.0135388635,0.013694295,0.0051064324,1,1,15,0
1593764000,1593760000,-46.264503,-106.0621,-488.1423,0.7075913,-0.00026089032,0.0018609079,0.70661944,-0.05297197,-0.020736659,0.0037446443,-0.0027309714,-0.014540491,0.004478813,0.110585645,0.1109516,0.08209387,4.247513e-05,4.259747e-05,0.007008177,0.013595291,0.0137514835,0.005114959,1,1,15,0
1593780000,1593776000,-46.264633,-106.06222,-488.14212,0.7076414,-0.00021711532,0.0018129831,0.7065694,-0.052349117,-0.021888947,0.0027220284,0.00485874,-0.0032219577,-0.013098178,0.11138011,0.111753546,0.08254095,4.2537864e-05,4.264422e-05,0.0070083635,0.013707697,0.013865586,0.005132012,1,1,15,0
1593788000,1593784000,-46.264713,-106.06229,-488.14203,0.7076632,-0.00018915554,0.0017755401,0.7065477,-0.052260444,-0.022053014,0.002767205,-0.0012665062,-0.011477819,-0.0077717844,0.11177086,0.11215383,0.0827655,4.25473e-05,4.2659613e-05,0.0070078494,0.013756318,0.013918512,0.00514054,1,1,15,0
1593796000,1593792000,-46.2648,-106.06235,-488.14194,0.7076588,-0.0002141542,0.0017287807,0.7065522,-0.05198141,-0.022064578,0.0034903523,-0.012318378,-0.0037548372,0.0015485167,0.1121734,0.11256026,0.08243765,4.256884e-05,4.2686264e-05,0.00700795,0.013813494,0.013976242,0.0051331115,1,1,15,0
1593804000,1593800000,-46.264896,-106.062416,-488.14185,0.70764464,-0.00019875148,0.0017411761,0.70656633,-0.051784076,-0.021500364,0.0032635757,0.0052585173,-0.00042583933,0.005010728,0.112578146,0.11296892,0.08266203,4.2594253e-05,4.2712316e-05,0.007008046,0.013870437,0.014034341,0.005141642,1,1,15,0
1593820000,1593816000,-46.265114,-106.06254,-488.1417,0.70766646,-0.00020563875,0.0017894864,0.70654434,-0.05232628,-0.02071965,0.003975429,-0.0017989768,0.0021042046,-0.014696623,0.11339428,0.11379298,0.08311283,4.264748e-05,4.2764677e-05,0.0070082354,0.013984496,0.0141499825,0.0051587005,1,1,15,0
1593828000,1593824000,-46.265236,-106.0626,-488.1416,0.7076946,-0.00018385147,0.001812937,0.7065162,-0.05218917,-0.020414626,0.0035280234,0.008321136,0.00037286483,-0.009902967,0.11380569,0.11420839,0.08333924,4.266917e-05,4.2790725e-05,0.007008338,0.014042312,0.014208534,0.005167232,1,1,15,0
1593836000,1593832000,-46.265366,-106.06267,-488.1415,0.70771474,-0.0001793449,0.0018356994,0.70649594,-0.052428078,-0.020594077,0.0035182429,0.00512534,0.0033025541,-0.0071066367,0.114219345,0.11462609,0.083566315,4.269077e-05,4.2815234e-05,0.007008439,0.014099783,0.014266959,0.0051757633,1,1,15,0
1593844000,1593840000,-46.265495,-106.06274,-488.14145,0.70772356,-0.0001849285,0.0018875215,0.70648694,-0.052416377,-0.020440388,0.0035831798,0.008454251,0.0102268355,-0.003111739,0.11463427,0.115044914,0.08379407,4.270895e-05,4.28383e-05,0.0070084236,0.014156604,0.014324407,0.0051842956,1,1,15,0
1593860000,1593856000,-46.265778,-106.062874,-488.1413,0.7077737,-0.0002974007,0.0019233428,0.70643663,-0.05268208,-0.019832008,0.0034865797,-0.0035328863,0.010360058,-0.0068418537,0.11546172,0.11588711,0.08425162,4.2740987e-05,4.2880136e-05,0.0070080087,0.014263227,0.014435953,0.005201361,1,1,15,0
1593868000,1593864000,-46.265934,-106.062935,-488.1412,0.70778036,-0.00027972757,0.001960786,0.7064298,-0.05345688,-0.019135859,0.0029431174,0.010048955,0.003569001,-0.002181678,0.115884274,0.11631391,0.08390838,4.2760283e-05,4.2906715e-05,0.0070081106,0.014321913,0.014495133,0.005193285,1,1,15,0
1593876000,1593872000,-46.2661,-106.062996,-488.14114,0.70780295,-0.00027829534,0.001971543,0.7064072,-0.053632636,-0.019158557,0.0033291262,0.0024589635,0.0017046414,-0.007774322,0.116309114,0.116743036,0.0841373,4.278441e-05,4.2932905e-05,0.0070082075,0.014380633,0.0145546235,0.0052018217,1,1,15,0
1593884000,1593880000,-46.266277,-106.063065,-488.14108,0.7077988,-0.0002504056,0.0019785631,0.70641136,-0.05381099,-0.018722257,0.0032919997,0.006453695,-0.003621662,0.001679904,0.11673626,0.11717449,0.084366895,4.281171e-05,4.2959367e-05,0.007008304,0.014439504,0.014614474,0.0052103596,1,1,15,0
1593900000,1593896000,-46.266647,-106.063194,-488.14093,0.70776033,-0.00027352668,0.002033506,0.7064497,-0.052772887,-0.019516222,0.004530705,-7.110817e-05,0.0078300545,0.0074056163,0.11759753,0.11804447,0.08482813,4.2866213e-05,4.301123e-05,0.0070084967,0.014557323,0.014733974,0.0052274372,1,1,15,0
1593908000,1593904000,-46.26683,-106.06327,-488.14084,0.7077426,-0.00027108626,0.002100202,0.7064673,-0.051688325,-0.019246707,0.0047484646,0.012445964,0.011425095,0.006473582,0.118031666,0.118483014,0.08505978,4.289384e-05,4.3037806e-05,0.0070085926,0.0146166375,0.0147938235,0.0052359775,1,1,15,0
1593916000,1593912000,-46.267014,-106.06334,-488.14078,0.70774794,-0.00025107324,0.002076152,0.70646197,-0.051198762,-0.019288737,0.004231083,-0.0004704293,-0.007749551,-0.0016489844,0.11846815,0.11892393,0.08529211,4.291502e-05,4.3064454e-05,0.007008693,0.014676203,0.014853938,0.0052445186,1,1,15,0
1593924000,1593920000,-46.26719,-106.06342,-488.14072,0.70770776,-0.00021545039,0.0020683415,0.70650226,-0.051671535,-0.019446012,0.0042382395,0.005121791,-0.0076164384,0.014463168,0.11889452,0.11936201,0.085525125,4.2920274e-05,4.3081305e-05,0.007008183,0.014727354,0.014909743,0.005253061,1,1,15,0
1593940000,1593936000,-46.26757,-106.06358,-488.14056,0.70762825,-0.0001404496,0.002080855,0.70658183,-0.052257914,-0.019270057,0.0043613007,0.013243883,-0.012542634,0.009138411,0.11977898,0.12025572,0.08539956,4.2968375e-05,4.3133314e-05,0.0070083793,0.014847388,0.015031227,0.005252869,1,1,15,0
1593948000,1593944000,-46.26777,-106.06367,-488.14047,0.70761776,-0.00010622021,0.002071912,0.70659244,-0.05195423,-0.018697713,0.004159276,0.004721678,-0.0076161134,0.003811707,0.1202248,0.12070621,0.08563302,4.299345e-05,4.316111e-05,0.007008475,0.014907013,0.015091651,0.005261412,1,1,15,0
1593956000,1593952000,-46.267975,-106.06374,-488.1404,0.70761013,-0.00011076786,0.002075463,0.70660007,-0.051313907,-0.018456712,0.003569193,6.109505e-05,0.0014387302,0.002746575,0.120673016,0.12115913,0.08586717,4.3019507e-05,4.3186978e-05,0.007008572,0.0149671845,0.015152931,0.0052699554,1,1,15,0
1593964000,1593960000,-46.268177,-106.06382,-488.14032,0.70764387,-0.000116938645,0.002065487,0.7065663,-0.0510066,-0.0182308,0.0030659807,-0.002602082,-0.0006917265,-0.01190079,0.12112365,0.12161449,0.086102,4.30481e-05,4.321244e-05,0.007008667,0.015027211,0.015214339,0.005278502,1,1,15,0
1593980000,1593976000,-46.2686,-106.06399,-488.1402,0.707658,-0.000104219755,0.0020509015,0.7065522,-0.0506636,-0.019016594,0.0023793643,0.004721651,0.0019713491,0.00061611144,0.12203219,0.12253262,0.08657375,4.3101885e-05,4.326431e-05,0.0070088594,0.015148514,0.015337596,0.005295596,1,1,15,0
1593988000,1593984000,-46.26882,-106.06408,-488.14017,0.7076782,-9.485079e-05,0.002063239,0.70653194,-0.051266994,-0.019267498,0.0017692021,0.004055825,0.0005066716,-0.007107127,0.12249013,0.12299541,0.086810656,4.3129392e-05,4.329021e-05,0.007008956,0.01520966,0.0153996395,0.005304146,1,1,15,0
1593996000,1593992000,-46.26851,-106.06407,-488.14,0.7076825,-0.00015059944,0.0020511826,0.7065276,-0.051360514,-0.019214014,0.0018263632,-0.011789873,0.0076972223,-0.0015144553,0.10316027,0.10345047,0.07867248,4.194677e-05,4.2077765e-05,0.0070077153,0.012502421,0.012635458,0.0049691726,1,1,15,0
1594004000,1594000000,-46.268215,-106.06407,-488.1399,0.7076832,-0.00018209193,0.0020175325,0.706527,-0.05053779,-0.020128613,0.0017781589,-0.010733288,-0.00029409915,-0.0004496013,0.10351511,0.10380838,0.07888496,4.1977484e-05,4.2104315e-05,0.007007807,0.012554892,0.012688536,0.0049776784,1,1,15,0
1594020000,1594016000,-46.267662,-106.0641,-488.13962,0.70765156,-0.0002034999,0.0019653628,0.7065588,-0.049585972,-0.020894034,0.0016065394,-0.0055402094,0.0034342979,0.0063413144,0.10423071,0.104530185,0.07931186,4.2033233e-05,4.215461e-05,0.0070079993,0.012660328,0.012796222,0.0049946965,1,1,15,0
1594028000,1594024000,-46.26741,-106.06412,-488.1395,0.70765114,-0.00022929594,0.001932929,0.70655936,-0.049568567,-0.020725293,0.0018712494,-0.009534873,-0.0010929641,-5.016477e-05,0.10459149,0.1048941,0.0795263,4.205946e-05,4.2179847e-05,0.0070080976,0.012713154,0.012849773,0.0050032064,1,1,15,0
1594036000,1594032000,-46.26717,-106.06414,-488.13937,0.7076281,-0.00027118935,0.0019302974,0.7065825,-0.048991397,-0.020777976,0.0015936388,-0.0071381438,0.0070296186,0.007939154,0.10495426,0.10526004,0.07974139,4.2083753e-05,4.220478e-05,0.0070081963,0.012766227,0.01290375,0.0050117173,1,1,15,0
1594044000,1594040000,-46.26694,-106.06417,-488.13928,0.7076327,-0.0003146276,0.0019623342,0.7065777,-0.04839987,-0.01989755,0.0016045496,-0.0012792015,0.0134211965,-0.0019145512,0.105318375,0.10562723,0.079957135,4.210917e-05,4.2227715e-05,0.007008171,0.012818102,0.012956163,0.005020229,1,1,15,0
1594060000,1594056000,-46.266533,-106.064224,-488.13907,0.7076115,-0.00031192644,0.0019517734,0.706599,-0.049855284,-0.020869656,0.0026555902,0.001382881,-0.00082643225,0.006074789,0.10605395,0.10636926,0.07987153,4.216689e-05,4.2278072e-05,0.0070083602,0.012925386,0.01306417,0.0050224247,1,1,15,0
1594068000,1594064000,-46.26636,-106.064255,-488.13898,0.7075877,-0.00029431662,0.001963472,0.70662284,-0.050095703,-0.01945446,0.0027187879,0.0059102033,-0.00095975614,0.008205339,0.10641698,0.106740244,0.08008784,4.217456e-05,4.229461e-05,0.0070078596,0.012972244,0.013115002,0.0050309366,1,1,15,0
1594076000,1594072000,-46.2662,-106.064285,-488.1389,0.7075826,-0.00036191303,0.001955609,0.70662785,-0.05006225,-0.019540908,0.002704326,-0.012598998,0.01062495,0.0015473326,0.10678974,0.107116364,0.08030481,4.2197316e-05,4.2320084e-05,0.007007961,0.013026349,0.013169883,0.005039452,1,1,15,0
1594084000,1594080000,-46.266056,-106.064316,-488.1388,0.70756257,-0.00035450642,0.0019533765,0.706648,-0.05001953,-0.019319871,0.002358048,0.0016490169,-0.0016254403,0.0068735923,0.10716455,0.10749456,0.08052243,4.2223222e-05,4.234589e-05,0.007008056,0.013080422,0.013224874,0.005047968,1,1,15,0
1594100000,1594096000,-46.265804,-106.06438,-488.13864,0.7075287,-0.0003886261,0.001953529,0.7066818,-0.050228663,-0.017719466,0.0019389923,-0.0028783807,0.0055650333,0.0036777887,0.10792038,0.10825725,0.080959655,4.2267566e-05,4.2396172e-05,0.007008259,0.013189331,0.013335406,0.005065002,1,1,15,0
1594108000,1594104000,-46.265705,-106.0644,-488.13858,0.7075577,-0.00037605304,0.0019279866,0.70665294,-0.05070581,-0.01834707,0.0021558374,-0.0015467476,-0.006685489,-0.010436995,0.108301416,0.10864175,0.08117926,4.22937e-05,4.2422034e-05,0.0070083556,0.013244358,0.013391113,0.0050735194,1,1,15,0
1594116000,1594112000,-46.26562,-106.06444,-488.1385,0.7075526,-0.00032982466,0.0019487863,0.70665795,-0.05094902,-0.01873825,0.0024936376,0.012567886,-0.0044219145,0.0015473794,0.108684555,0.109028384,0.08086739,4.231939e-05,4.2447904e-05,0.007008454,0.013299523,0.013447036,0.0050667706,1,1,15,0
1594124000,1594120000,-46.265545,-106.064476,-488.1384,0.7075435,-0.0002794345,0.0019601907,0.70666707,-0.050083864,-0.019193841,0.0020720875,0.011635933,-0.0068185925,0.0030118006,0.109069794,0.10941715,0.081086874,4.2342977e-05,4.2474054e-05,0.007008551,0.013354767,0.013502799,0.0050752894,1,1,15,0
1594140000,1594136000,-46.265423,-106.06457,-488.13824,0.70763206,-0.00026104276,0.0019469057,0.7065784,-0.050098084,-0.019516012,0.0018094657,-0.00048176385,-0.0082834475,-0.013765882,0.10983765,0.11019747,0.081527844,4.23796e-05,4.251545e-05,0.007008145,0.013458755,0.013611811,0.0050923326,1,1,15,0
1594148000,1594144000,-46.265377,-106.06462,-488.13815,0.7076298,-0.00024115293,0.0019315206,0.70658076,-0.05033969,-0.01982571,0.0017576319,0.0015154846,-0.0061532417,0.00074705255,0.11022914,0.11059264,0.08174933,4.240793e-05,4.2542277e-05,0.0070082378,0.013514349,0.013668261,0.0051008556,1,1,15,0
1594156000,1594152000,-46.265343,-106.064674,-488.1381,0.7076485,-0.0002725569,0.0018807806,0.7065621,-0.050543465,-0.019837271,0.0015799324,-0.013797643,-0.003356729,-0.006709967,0.11062277,0.11098998,0.081971474,4.2433665e-05,4.25692e-05,0.0070083328,0.013570581,0.013724752,0.0051093786,1,1,15,0
1594164000,1594160000,-46.265324,-106.06473,-488.13803,0.70765483,-0.00032268467,0.0018647772,0.70655584,-0.05081846,-0.02072638,0.0022043765,-0.011001391,0.006097198,-0.0023157734,0.11101856,0.11138951,0.08219429,4.2456584e-05,4.2595824e-05,0.0070084347,0.013626828,0.013781472,0.0051179025,1,1,15,0
1594180000,1594176000,-46.265324,-106.06487,-488.13788,0.7076811,-0.00023519035,0.00194204,0.7065293,-0.050882787,-0.021028228,0.0012016927,0.009638012,-0.008949765,0.0032768387,0.111816645,0.11219515,0.08209348,4.250897e-05,4.2649528e-05,0.0070086257,0.013739377,0.013895519,0.0051191454,1,1,15,0
1594188000,1594184000,-46.265335,-106.06494,-488.13782,0.7076746,-0.00023314536,0.0019578403,0.70653576,-0.050400984,-0.021385584,0.00029502544,0.0037791112,0.0025020994,0.0022118152,0.11221896,0.11260129,0.082316816,4.253706e-05,4.2676515e-05,0.0070087183,0.0137961395,0.013952952,0.0051276707,1,1,15,0
1594196000,1594192000,-46.265358,-106.06502,-488.13776,0.7077024,-0.00022287024,0.0019661556,0.70650786,-0.050901897,-0.021961067,0.00061217556,0.003912176,-0.0002942014,-0.009905666,0.112623475,0.113009654,0.082540825,4.2567546e-05,4.2702675e-05,0.007008811,0.013852516,0.014010388,0.0051361965,1,1,15,0
1594204000,1594200000,-46.265396,-106.06511,-488.1377,0.70769805,-0.00018688795,0.0019278232,0.70651245,-0.05088038,-0.022158429,0.0007637326,0.00018386234,-0.013077457,0.0015460256,0.113030195,0.113420255,0.082765505,4.259299e-05,4.2728898e-05,0.007008908,0.013909216,0.014067841,0.005144726,1,1,15,0
1594220000,1594216000,-46.265457,-106.0653,-488.1376,0.70772463,-0.000115407645,0.0019443074,0.7064858,-0.04950999,-0.023236932,0.00039888217,0.0057757273,-0.0006933105,-0.008838392,0.11383986,0.1142439,0.08321688,4.2628155e-05,4.2770935e-05,0.0070085013,0.014014506,0.014179288,0.0051617892,1,1,15,0
