timestamp,timestamp_sample,time_last_fuse,device_id,observation,observation_variance,innovation,innovation_filtered,innovation_variance,test_ratio,test_ratio_filtered,estimator_instance,innovation_rejected,fused
1592212000,1592052000,1592056000,0,-488.16705,12.37038,0.010772705,-0.001114952,12.452657,3.7277565e-07,1.2043508e-06,0,0,1
1592284000,1592122666,1592128000,0,-488.1388,12.370434,-0.018371582,-0.0032518534,12.45419,1.0840207e-06,9.209801e-07,0,0,1
1592356000,1592196000,1592200000,0,-488.0967,12.370486,-0.061157227,-0.010658413,12.455743,1.2011186e-05,-7.3314726e-07,0,0,1
1592428000,1592268000,1592272000,0,-488.12546,12.370537,-0.026245117,-0.0126203755,12.449558,2.2131105e-06,-9.1943633e-07,0,0,1
1592500000,1592340000,1592344000,0,-488.15857,12.370587,0.0064697266,-0.010217426,12.451039,1.3447027e-07,-7.867768e-07,0,0,1
1592572000,1592412000,1592416000,0,-488.11624,12.370636,-0.03665161,-0.013544806,12.45254,4.3150735e-06,-1.2308981e-06,0,0,1
1592644000,1592484000,1592488000,0,-488.0368,12.370684,-0.1166687,-0.026525436,12.454062,4.3717737e-05,-6.578891e-06,0,0,1
1592716000,1592554666,1592560000,0,-488.18817,12.370731,0.034820557,-0.018928915,12.455606,3.893736e-06,-5.282058e-06,0,0,1
1592788000,1592626666,1592632000,0,-488.19254,12.370778,0.038330078,-0.01172149,12.45717,4.717588e-06,-4.0233613e-06,0,0,1
1592860000,1592700000,1592704000,0,-488.19687,12.370824,0.04675293,-0.004242144,12.450865,7.02228e-06,-2.6105354e-06,0,0,1
1592932000,1592770666,1592776000,0,-488.14944,12.370868,-0.0015258789,-0.003905787,12.452354,7.4790885e-09,-2.288197e-06,0,0,1
1593004000,1592841333,1592848000,0,-488.03207,12.370912,-0.1194458,-0.018213369,12.453867,4.582448e-05,-7.679394e-06,0,0,1
1593060000,1592904000,1592904000,0,-488.16,12.370684,0.009002686,-0.015182183,12.45467,2.6029866e-07,-6.7951114e-06,0,0,1
1593124000,1592962666,1592968000,0,-488.23038,12.370596,0.07885742,-0.005307003,12.455854,1.9969704e-05,-3.984515e-06,0,0,1
1593196000,1593036000,1593040000,0,-488.20145,12.3706455,0.05001831,0.0017695469,12.456369,8.033902e-06,-2.4472633e-06,0,0,1
1593268000,1593106666,1593112000,0,-488.18686,12.370693,0.038024902,0.006259075,12.451077,4.6450377e-06,-1.5690184e-06,0,0,1
1593324000,1593168000,1593168000,0,-488.15833,12.37047,0.009124756,0.0065721925,12.451863,2.6746574e-07,-1.3683555e-06,0,0,1
1593388000,1593225333,1593232000,0,-488.0972,12.370386,-0.052093506,0.00053723576,12.453022,8.716705e-06,-2.1242822e-06,0,0,1
1593444000,1593288000,1593288000,0,-488.093,12.370169,-0.05596924,-0.0057561686,12.453834,1.0061338e-05,-3.0082713e-06,0,0,1
1593508000,1593346666,1593352000,0,-488.10764,12.3700905,-0.04095459,-0.009452386,12.455024,5.386673e-06,-3.2580292e-06,0,0,1
1593580000,1593418666,1593424000,0,-488.20193,12.37015,0.053619385,-0.0015132818,12.456602,9.232176e-06,-1.6858356e-06,0,0,1
1593652000,1593492000,1593496000,0,-488.06055,12.370208,-0.08480835,-0.012167387,12.450282,2.310777e-05,-4.4258722e-06,0,0,1
1593724000,1593562666,1593568000,0,-488.15997,12.370264,0.0154418945,-0.008748509,12.451786,7.6600134e-07,-3.7829586e-06,0,0,1
1593796000,1593633333,1593640000,0,-488.16452,12.370319,0.02017212,-0.0051672016,12.45331,1.3070079e-06,-3.1526565e-06,0,0,1
1593868000,1593708000,1593712000,0,-488.12674,12.370374,-0.017456055,-0.0067639034,12.454855,9.786187e-07,-2.8701818e-06,0,0,1
1593940000,1593777333,1593784000,0,-488.09406,12.370427,-0.049743652,-0.011997949,12.45642,7.945881e-06,-3.4882971e-06,0,0,1
1593996000,1593838000,1593840000,0,-488.1415,12.370209,-0.001953125,-0.010911048,12.456193,1.2249962e-08,-3.1121713e-06,0,0,1
1594060000,1593898666,1593904000,0,-488.25418,12.370131,0.11392212,0.0025963308,12.450521,4.169544e-05,1.7361667e-06,0,0,1
1594116000,1593960000,1593960000,0,-488.06058,12.369918,-0.080200195,-0.006450408,12.451318,2.0663101e-05,-7.1128284e-07,0,0,1
1594180000,1594020000,1594024000,0,-488.1177,12.369844,-0.022491455,-0.008169092,12.452486,1.6249463e-06,-8.0917533e-07,0,0,1
1594252000,1594092000,1594096000,0,-488.09915,12.369907,-0.040740967,-0.012269048,12.454035,5.3310478e-06,-1.3783621e-06,0,0,1
1594324000,1594162666,1594168000,0,-488.19345,12.36997,0.053894043,-0.0040760227,12.4556055,9.327745e-06,-5.261677e-08,0,0,1
1594396000,1594234666,1594240000,0,-488.19763,12.370031,0.057800293,0.0037126038,12.456126,1.0728451e-05,1.3044407e-06,0,0,1
1594468000,1594308000,1594312000,0,-488.14072,12.370091,0.002746582,0.003589042,12.450795,2.4235282e-08,1.1406922e-06,0,0,1
1594540000,1594378666,1594384000,0,-488.10312,12.37015,-0.0,-0.0012088167,12.452309,3.970226e-06,5.078034e-07,0,0,1
1594612000,1594449333,1594456000,0,-488.14575,12.370208,0.0072021484,-0.00016726763,12.453845,1.6660218e-07,4.655517e-07,0,0,1
1594684000,1594522666,1594528000,0,-488.14096,12.370264,0.0020751953,0.000119557895,12.4553995,1.382994e-08,4.0777357e-07,0,0,1
1594740000,1594582000,1594584000,0,-488.14566,12.370049,0.0065612793,0.00080289395,12.456233,1.3824528e-07,3.7918207e-07,0,0,1
1594804000,1594642666,1594648000,0,-488.18784,12.369973,0.0524292,0.0063890386,12.449522,8.831893e-06,1.2937945e-06,0,0,1
1594860000,1594704000,1594704000,0,-488.12158,12.369764,-0.0,0.0041203955,12.450313,6.6377623e-07,1.0799012e-06,0,0,1
1594924000,1594762666,1594768000,0,-488.164,12.369694,0.027801514,0.00660717,12.451473,2.4829967e-06,1.2272415e-06,0,0,1
1594996000,1594836000,1594840000,0,-488.0886,12.36976,-0.0,-0.0003858609,12.453011,7.4207346e-06,1.2109626e-07,0,0,1
1595068000,1594908000,1594912000,0,-488.13132,12.369824,-0.0,-0.0010441036,12.454569,1.0126679e-07,9.310651e-08,0,0,1
1595140000,1594980000,1594984000,0,-488.21118,12.369888,0.07388306,0.008387286,12.456147,1.7529355e-05,2.287879e-06,0,0,1
1595212000,1595052000,1595056000,0,-488.1494,12.369951,0.013977051,0.009090893,12.449778,6.2766725e-07,2.0789012e-06,0,0,1
1595284000,1595124000,1595128000,0,-488.13052,12.370012,-0.0,0.0072628204,12.451279,9.4795155e-08,1.805289e-06,0,0,1
1595356000,1595196000,1595200000,0,-488.07425,12.370072,-0.0,-0.0014877822,12.452802,1.2449543e-05,1.0974645e-08,0,0,1
1595428000,1595268000,1595272000,0,-488.12646,12.3701315,-0.0,-0.0026411482,12.454345,3.6432596e-07,-3.6265988e-08,0,0,1
1595500000,1595338666,1595344000,0,-488.08435,12.37019,-0.0,-0.008950043,12.455908,9.2221835e-06,-1.173765e-06,0,0,1
1595556000,1595400000,1595400000,0,-488.18344,12.369976,0.044952393,-0.0030604084,12.456745,6.4887495e-06,-3.3652253e-07,0,0,1
1595620000,1595458666,1595464000,0,-488.2065,12.369903,0.07119751,0.00473748,12.449974,1.6286253e-05,1.4090494e-06,0,0,1
1595692000,1595532000,1595536000,0,-488.16354,12.369965,0.02734375,0.0076290024,12.451479,2.4019014e-06,1.5360431e-06,0,0,1
1595764000,1595602666,1595608000,0,-488.06937,12.370026,-0.0,-0.0016559875,12.453006,1.4571042e-05,-4.5850948e-07,0,0,1
1595836000,1595674666,1595680000,0,-488.14517,12.370086,0.008178711,-0.00041805347,12.454552,2.148333e-07,-3.7375304e-07,0,0,1
1595908000,1595746666,1595752000,0,-488.12628,12.370144,-0.0,-0.0017560084,12.456118,3.919174e-07,-3.7603945e-07,0,0,1
1595980000,1595818666,1595824000,0,-488.19214,12.370202,0.054534912,0.005329562,12.457705,9.549292e-06,8.7330295e-07,0,0,1
1596052000,1595890666,1595896000,0,-488.13995,12.370259,0.0061950684,0.0054385066,12.451212,1.232936e-07,7.788962e-07,0,0,1
1596108000,1595952000,1595952000,0,-488.15866,12.370044,0.024871826,0.007561883,12.452006,1.9871745e-06,9.109184e-07,0,0,1
1596172000,1596010666,1596016000,0,-488.21008,12.369968,0.076171875,0.014766678,12.453176,1.8636707e-05,2.7723188e-06,0,0,1
1596244000,1596084000,1596088000,0,-488.13892,12.370029,0.0045166016,0.013455612,12.454725,6.55163e-08,2.4260971e-06,0,0,1
1596316000,1596154666,1596160000,0,-488.1389,12.37009,0.0044555664,0.01234113,12.456295,6.3749525e-08,2.1335659e-06,0,0,1
1596388000,1596226666,1596232000,0,-488.1952,12.370149,0.060577393,0.018412827,12.457885,1.1782484e-05,3.3481151e-06,0,0,1
1596460000,1596298666,1596304000,0,-488.17114,12.370207,0.03805542,0.02088532,12.451372,4.652387e-06,3.5122891e-06,0,0,1
1596532000,1596370666,1596376000,0,-488.14725,12.370263,0.013580322,0.01996581,12.452886,5.923933e-07,3.1447498e-06,0,0,1
1596588000,1596432000,1596432000,0,-488.14713,12.370048,0.013092041,0.01921475,12.453693,5.5052436e-07,2.8612926e-06,0,0,1
1596652000,1596490666,1596496000,0,-488.1517,12.369972,0.017303467,0.019014044,12.454881,9.615828e-07,2.6618025e-06,0,0,1
1596724000,1596564000,1596568000,0,-488.06705,12.370033,-0.0,0.007881223,12.456453,1.48588715e-05,4.207684e-07,0,0,1
1596796000,1596636000,1596640000,0,-488.0818,12.370093,-0.0,0.00016677799,12.456964,9.1584925e-06,-7.850126e-07,0,0,1
1596868000,1596708000,1596712000,0,-488.12924,12.370152,-0.0,-0.0002921316,12.451516,3.888191e-08,-6.910941e-07,0,0,1
1596940000,1596780000,1596784000,0,-488.1011,12.37021,-0.0,-0.0042849607,12.4530325,3.2918192e-06,-1.0184581e-06,0,0,1
1597012000,1596852000,1596856000,0,-488.1906,12.370266,0.05722046,0.0034569795,12.454569,1.0515598e-05,4.3338093e-07,0,0,1
1597084000,1596921333,1596928000,0,-488.12903,12.370321,-0.0,0.0023893353,12.456126,9.054732e-08,3.695773e-07,0,0,1
1597156000,1596994666,1597000000,0,-488.2089,12.370376,0.073150635,0.0114401635,12.457703,1.7181388e-05,2.5199167e-06,0,0,1
1597228000,1597066666,1597072000,0,-488.18472,12.37043,0.051849365,0.016526636,12.451183,8.63647e-06,3.2898324e-06,0,0,1
1597300000,1597138666,1597144000,0,-488.16074,12.3704815,0.021728516,0.017181417,12.4526825,1.5165515e-06,3.0666222e-06,0,0,1
1597372000,1597210666,1597216000,0,-488.1887,12.370533,0.040740967,0.020146955,12.454205,5.3309755e-06,3.3516458e-06,0,0,1
1597428000,1597272000,1597272000,0,-488.21646,12.370313,0.05883789,0.02437451,12.455014,1.1118083e-05,4.2002434e-06,0,0,1
1597492000,1597330666,1597336000,0,-488.17834,12.370232,0.0066223145,0.022510337,12.456204,1.4082957e-07,3.7739608e-06,0,0,1
1597548000,1597392000,1597392000,0,-488.23932,12.370018,0.052612305,0.02579942,12.457039,8.8883235e-06,4.33278e-06,0,0,1
1597612000,1597450666,1597456000,0,-488.18246,12.369944,-0.0,0.021779487,12.450208,5.0053006e-07,3.82523e-06,0,0,1
1597684000,1597524000,1597528000,0,-488.192,12.370005,-0.0,0.015098082,12.451709,2.9798352e-06,2.9548078e-06,0,0,1
1597756000,1597593333,1597600000,0,-488.35193,12.370065,0.097229004,0.025099933,12.453231,3.0364743e-05,6.2927716e-06,0,0,1
1597828000,1597668000,1597672000,0,-488.29462,12.370124,0.0019226074,0.022088483,12.454774,1.1871494e-08,5.476689e-06,0,0,1
1597900000,1597738666,1597744000,0,-488.32278,12.370182,-0.0,0.01785298,12.456337,4.713579e-07,4.7401377e-06,0,0,1
1597972000,1597812000,1597816000,0,-488.3886,12.370239,0.0073547363,0.016510172,12.457919,1.7367957e-07,4.156051e-06,0,0,1
1598044000,1597882666,1597888000,0,-488.39325,12.370296,-0.0,0.011189299,12.451378,2.2489558e-06,3.3629144e-06,0,0,1
1598100000,1597942000,1597944000,0,-488.4874,12.37008,0.028808594,0.013058349,12.452169,2.6659936e-06,3.2889852e-06,0,0,1
1598164000,1598002666,1598008000,0,-488.5153,12.370004,0.011138916,0.012850659,12.453335,3.9852924e-07,2.976228e-06,0,0,1
1598220000,1598064000,1598064000,0,-488.44946,12.369793,-0.0,0.001022906,12.45415,2.9229674e-05,-5.427405e-07,0,0,1
1598284000,1598124000,1598128000,0,-488.60532,12.369722,0.012878418,0.0022931392,12.455347,5.326344e-07,-4.2752177e-07,0,0,1
1598356000,1598196000,1598200000,0,-488.7038,12.369789,0.056640625,0.00913408,12.456931,1.0301607e-05,9.2299786e-07,0,0,1
1598428000,1598268000,1598272000,0,-488.7455,12.369854,0.05392456,0.014772043,12.450453,9.342177e-06,1.9827546e-06,0,0,1
1598500000,1598338666,1598344000,0,-488.8154,12.369917,0.068115234,0.02137757,12.451961,1.4904272e-05,3.5828357e-06,0,0,1
1598572000,1598410666,1598416000,0,-488.90393,12.369979,0.100494385,0.03133633,12.453488,3.2437885e-05,7.2149396e-06,0,0,1
1598644000,1598484000,1598488000,0,-488.82315,12.370039,-0.0,0.022565965,12.455035,4.4517915e-06,5.7226716e-06,0,0,1
1598716000,1598553333,1598560000,0,-488.91272,12.370099,-0.0,0.019301316,12.456604,5.7781666e-08,5.018732e-06,0,0,1
1598772000,1598616000,1598616000,0,-488.98322,12.369887,0.022033691,0.019605635,12.457442,1.5588546e-06,4.633388e-06,0,0,1
1598836000,1598674666,1598680000,0,-489.0581,12.369816,0.05407715,0.023225518,12.450577,9.395028e-06,5.133412e-06,0,0,1
1598908000,1598748000,1598752000,0,-489.05292,12.36988,-0.0,0.019154018,12.452087,2.379119e-07,4.446377e-06,0,0,1
1598980000,1598818666,1598824000,0,-489.19382,12.369942,0.07485962,0.026052084,12.453617,1.799947e-05,6.1246665e-06,0,0,1
1599036000,1598880000,1598880000,0,-489.17902,12.369733,0.014709473,0.024812737,12.454437,6.9491244e-07,5.531386e-06,0,0,1
1599100000,1598937333,1598944000,0,-489.18356,12.369664,-0.0,0.018957647,12.455639,3.3099818e-06,4.621872e-06,0,0,1
1599172000,1599010666,1599016000,0,-489.29187,12.369731,0.01852417,0.018902201,12.457227,1.101834e-06,4.171636e-06,0,0,1
1599244000,1599082666,1599088000,0,-489.24472,12.369797,-0.0,0.0062395474,12.4507265,2.1441847e-05,9.475616e-07,0,0,1
1599300000,1599144000,1599144000,0,-489.37698,12.369591,0.00592041,0.006204677,12.451526,1.1260068e-07,8.5632985e-07,0,0,1
1599364000,1599204000,1599208000,0,-489.44266,12.369524,0.020629883,0.0077502346,12.452698,1.3670679e-06,9.1105176e-07,0,0,1
1599436000,1599274666,1599280000,0,-489.53168,12.369594,0.052490234,0.013290422,12.454249,8.849107e-06,1.894027e-06,0,0,1
1599492000,1599336000,1599336000,0,-489.51706,12.369391,-0.0,0.011124666,12.455084,1.369749e-07,1.6721102e-06,0,0,1
1599556000,1599396000,1599400000,0,-489.6439,12.3693285,0.07022095,0.01745641,12.456303,1.5834496e-05,3.1895086e-06,0,0,1
1599628000,1599466666,1599472000,0,-489.6855,12.369402,0.05834961,0.022520246,12.449861,1.0938843e-05,4.1491144e-06,0,0,1
1599684000,1599528000,1599528000,0,-489.67084,12.369204,-0.0,0.020049574,12.450664,2.6928373e-11,3.6957597e-06,0,0,1
1599748000,1599586666,1599592000,0,-489.72717,12.3691435,0.0070495605,0.018684432,12.451837,1.5964328e-07,3.3244291e-06,0,0,1
1599820000,1599660000,1599664000,0,-489.88205,12.369221,0.10708618,0.029991722,12.45339,3.6833186e-05,7.610467e-06,0,0,1
1599892000,1599730666,1599736000,0,-489.94205,12.369296,0.1121521,0.040165704,12.454964,4.039544e-05,1.1670255e-05,0,0,1
1599948000,1599792000,1599792000,0,-490.002,12.3691,0.12963867,0.049941942,12.4558115,5.3970583e-05,1.6292188e-05,0,0,1
1600012000,1599852000,1599856000,0,-490.02426,12.369042,0.10531616,0.055874895,12.449049,3.5638044e-05,1.8364957e-05,0,0,1
1600084000,1599922666,1599928000,0,-490.05142,12.369121,0.07940674,0.058788862,12.450563,2.0257492e-05,1.859931e-05,0,0,1
1600156000,1599996000,1600000000,0,-490.13046,12.369198,0.10635376,0.064872794,12.452098,3.633483e-05,2.0867825e-05,0,0,1
1600228000,1600068000,1600072000,0,-490.14355,12.369273,0.0680542,0.06527325,12.453653,1.4875552e-05,2.0113554e-05,0,0,1
1600300000,1600140000,1600144000,0,-490.1382,12.369349,0.012512207,0.058631998,12.455229,5.027779e-07,1.7645065e-05,0,0,1
1600372000,1600212000,1600216000,0,-490.29303,12.369421,0.11868286,0.066190846,12.456822,4.5230223e-05,2.1117323e-05,0,0,1
1600444000,1600282666,1600288000,0,-490.23083,12.3694935,0.010009766,0.0592339,12.450344,3.2190405e-07,1.854221e-05,0,0,1
1600516000,1600356000,1600360000,0,-490.39505,12.369563,0.1277771,0.06800112,12.451861,5.2448337e-05,2.2879074e-05,0,0,1
1600588000,1600426666,1600432000,0,-490.38446,12.369632,0.07092285,0.06836292,12.4534,1.6156395e-05,2.2046599e-05,0,0,1
1600644000,1600486000,1600488000,0,-490.2899,12.369429,-0.0,0.054856542,12.4542265,1.11649715e-05,1.8523524e-05,0,0,1
1600708000,1600546666,1600552000,0,-490.45474,12.369366,0.06695557,0.0561657,12.455436,1.4397081e-05,1.807703e-05,0,0,1
1600780000,1600620000,1600624000,0,-490.4729,12.369438,0.041870117,0.05433718,12.457031,5.629292e-06,1.6484864e-05,0,0,1
1600852000,1600692000,1600696000,0,-490.47717,12.36951,0.0066833496,0.048338797,12.450538,1.4350276e-07,1.4427909e-05,0,0,1
1600924000,1600764000,1600768000,0,-490.53815,12.369579,0.030151367,0.046049472,12.452058,2.9203363e-06,1.2979403e-05,0,0,1
1600996000,1600836000,1600840000,0,-490.5801,12.369648,0.039733887,0.045254502,12.453599,5.0709255e-06,1.1983931e-05,0,0,1
1601068000,1600906666,1600912000,0,-490.6079,12.369715,0.041748047,0.044820294,12.455159,5.5973574e-06,1.1193077e-05,0,0,1
1601124000,1600968000,1600968000,0,-490.63098,12.369511,0.049102783,0.04528822,12.455998,7.742722e-06,1.0816075e-05,0,0,1
1601188000,1601028000,1601032000,0,-490.59296,12.369446,-0.0,0.040050082,12.457222,4.1639254e-08,9.652748e-06,0,0,1
1601260000,1601100000,1601104000,0,-490.7057,12.369517,0.09048462,0.046398483,12.450716,2.6303598e-05,1.174866e-05,0,0,1
1601332000,1601170666,1601176000,0,-490.64847,12.369587,0.02029419,0.04316597,12.452239,1.3229882e-06,1.0457641e-05,0,0,1
1601404000,1601242666,1601248000,0,-490.69052,12.369655,0.04925537,0.043932468,12.453781,7.792305e-06,1.0122144e-05,0,0,1
1601476000,1601314666,1601320000,0,-490.68066,12.369722,0.02456665,0.041494813,12.455345,1.938189e-06,9.091996e-06,0,0,1
1601548000,1601385333,1601392000,0,-490.6898,12.369788,0.017364502,0.0385067,12.456927,9.682193e-07,8.08601e-06,0,0,1
1601604000,1601448000,1601448000,0,-490.70844,12.369583,0.024627686,0.036960926,12.44973,1.9487102e-06,7.402469e-06,0,0,1
1601668000,1601508000,1601512000,0,-490.71756,12.369515,0.018463135,0.03497902,12.450879,1.095143e-06,6.7266838e-06,0,0,1
1601740000,1601580000,1601584000,0,-490.73148,12.369585,0.015380859,0.032512117,12.452404,7.599202e-07,5.9756226e-06,0,0,1
1601812000,1601652000,1601656000,0,-490.7971,12.369654,0.06466675,0.036559552,12.453949,1.3431204e-05,6.9140874e-06,0,0,1
1601884000,1601722666,1601728000,0,-490.6415,12.36972,-0.0,0.018771794,12.455514,3.6826903e-05,1.4976076e-06,0,0,1
1601940000,1601784000,1601784000,0,-490.73175,12.369516,-0.0,0.013589609,12.456355,2.6369405e-06,1.0458474e-06,0,0,1
1602004000,1601842666,1601848000,0,-490.79306,12.3694515,0.020019531,0.014264821,12.449547,1.2876986e-06,1.0712444e-06,0,0,1
1602076000,1601916000,1601920000,0,-490.77878,12.369522,-0.0,0.011316045,12.451053,2.4816416e-07,9.024815e-07,0,0,1
1602148000,1601988000,1601992000,0,-490.746,12.369592,-0.0,0.0029041898,12.4525795,9.898427e-06,-4.5707338e-07,0,0,1
1602220000,1602058666,1602064000,0,-490.85922,12.369659,0.044281006,0.008027911,12.454126,6.297696e-06,3.793748e-07,0,0,1
1602292000,1602130666,1602136000,0,-490.89166,12.369727,0.06350708,0.015011303,12.455694,1.2951985e-05,1.961941e-06,0,0,1
1602364000,1602204000,1602208000,0,-490.86288,12.369793,0.021911621,0.015893908,12.457281,1.5416498e-06,1.9081824e-06,0,0,1
1602436000,1602276000,1602280000,0,-490.87204,12.369858,0.02178955,0.016636018,12.450763,1.5253187e-06,1.8599898e-06,0,0,1
1602508000,1602346666,1602352000,0,-490.9,12.369921,0.038330078,0.01932241,12.452273,4.719443e-06,2.214078e-06,0,0,1
1602564000,1602408000,1602408000,0,-490.79166,12.369712,-0.0,0.008601489,12.453081,1.9943243e-05,-2.0693528e-07,0,0,1
1602628000,1602468000,1602472000,0,-490.84406,12.369643,-0.0,0.003811798,12.4542675,4.1861176e-06,-6.3327616e-07,0,0,1
1602700000,1602540000,1602544000,0,-490.98526,12.36971,0.09463501,0.015244089,12.455836,2.8760125e-05,3.0665922e-06,0,0,1
1602772000,1602612000,1602616000,0,-490.93738,12.369777,0.036193848,0.017881121,12.457425,4.2063093e-06,3.2100531e-06,0,0,1
1602844000,1602682666,1602688000,0,-490.8948,12.369842,-0.0,0.013339016,12.450898,1.1353267e-06,2.6719615e-06,0,0,1
1602916000,1602756000,1602760000,0,-490.93253,12.3699045,0.009429932,0.012839013,12.452411,2.8564304e-07,2.3667324e-06,0,0,1
1602988000,1602826666,1602832000,0,-491.02164,12.369967,0.089141846,0.02228765,12.453944,2.5522095e-05,5.2340783e-06,0,0,1
1603060000,1602900000,1602904000,0,-490.94098,12.3700285,-0.0,0.019288551,12.455498,4.318831e-09,4.5640454e-06,0,0,1
1603132000,1602972000,1602976000,0,-491.0114,12.370089,0.060699463,0.024501113,12.457071,1.183079e-05,5.4787406e-06,0,0,1
1603204000,1603044000,1603048000,0,-490.90753,12.370148,-0.0,0.014928978,12.450561,8.5355305e-06,3.7147065e-06,0,0,1
1603276000,1603116000,1603120000,0,-490.9456,12.370205,-0.0,0.010406941,12.452056,1.4161066e-06,3.06887e-06,0,0,1
1603348000,1603188000,1603192000,0,-490.91293,12.370261,-0.0,0.0014334368,12.453573,1.19056185e-05,1.1839695e-06,0,0,1
1603420000,1603260000,1603264000,0,-490.97455,12.3703165,-0.0,0.00049625366,12.45511,1.1607669e-07,1.0203273e-06,0,0,1
1603492000,1603332000,1603336000,0,-491.03094,12.370371,0.043792725,0.005946159,12.456667,6.1583173e-06,1.6670673e-06,0,0,1
1603564000,1603404000,1603408000,0,-491.12912,12.370425,0.13519287,0.022214975,12.458244,5.8682785e-05,8.84387e-06,0,0,1
1603636000,1603476000,1603480000,0,-491.00104,12.370478,-0.0,0.019364905,12.451641,5.8639416e-10,7.730582e-06,0,0,1
1603708000,1603548000,1603552000,0,-491.01047,12.370528,0.002960205,0.017299978,12.45314,2.8146522e-08,6.761045e-06,0,0,1
1603780000,1603620000,1603624000,0,-490.98227,12.370579,-0.0,0.011208,12.454661,3.1058219e-06,5.5190617e-06,0,0,1
1603852000,1603692000,1603696000,0,-491.05298,12.370628,0.034118652,0.014091858,12.4562025,3.7381617e-06,5.2948926e-06,0,0,1
1603924000,1603764000,1603768000,0,-491.05264,12.370677,0.02822876,0.015871327,12.457763,2.5586066e-06,4.950465e-06,0,0,1
1603996000,1603836000,1603840000,0,-491.05237,12.370725,0.023284912,0.016804505,12.458251,1.740813e-06,4.546453e-06,0,0,1
1604068000,1603908000,1603912000,0,-491.04745,12.370771,0.014404297,0.01650238,12.45269,6.664705e-07,4.0580635e-06,0,0,1
1604140000,1603980000,1603984000,0,-491.03323,12.370817,-0.0,0.013872,12.454195,6.202538e-08,3.539451e-06,0,0,1
1604212000,1604052000,1604056000,0,-491.07083,12.370862,0.0289917,0.01577518,12.45572,2.6992213e-06,3.4336879e-06,0,0,1
1604284000,1604124000,1604128000,0,-491.00012,12.370906,-0.0,0.007996702,12.457265,6.800489e-06,2.1454698e-06,0,0,1
1604356000,1604196000,1604200000,0,-491.09918,12.370949,0.049041748,0.013163211,12.45883,7.72173e-06,2.8473767e-06,0,0,1
1604428000,1604268000,1604272000,0,-491.06113,12.370992,0.007965088,0.012508902,12.452207,2.037956e-07,2.5146182e-06,0,0,1
1604500000,1604340000,1604344000,0,-491.1033,12.371033,0.04623413,0.016754035,12.453694,6.8657378e-06,3.0623116e-06,0,0,1
1604572000,1604412000,1604416000,0,-491.1498,12.371074,0.0887146,0.025812007,12.455204,2.5275476e-05,5.8583737e-06,0,0,1
1604644000,1604484000,1604488000,0,-491.07382,12.371114,0.008575439,0.02364237,12.456735,2.3613946e-07,5.15068e-06,0,0,1
1604716000,1604556000,1604560000,0,-490.99863,12.371153,-0.0,0.011858139,12.458284,1.5722078e-05,2.52334e-06,0,0,1
1604788000,1604628000,1604632000,0,-491.04156,12.371191,-0.0,0.0065471814,12.459852,2.9540647e-06,1.8338767e-06,0,0,1
1604860000,1604700000,1604704000,0,-491.12637,12.371229,0.051727295,0.012234189,12.453166,8.594482e-06,2.684862e-06,0,0,1
1604932000,1604770666,1604776000,0,-491.0883,12.371265,0.010284424,0.011992748,12.454659,3.3969414e-07,2.394458e-06,0,0,1
1605004000,1604844000,1604848000,0,-491.0976,12.371302,0.016693115,0.012593962,12.456174,8.948497e-07,2.202646e-06,0,0,1
1605076000,1604914666,1604920000,0,-491.09744,12.371338,0.013671875,0.012727441,12.457709,6.001751e-07,2.004211e-06,0,0,1
1605132000,1604976000,1604976000,0,-491.06442,12.371102,-0.0,0.0089792935,12.458518,1.4946261e-06,1.6219116e-06,0,0,1
1605196000,1605034666,1605040000,0,-491.05994,12.371006,-0.0,0.0051617743,12.458622,2.4058859e-06,1.1989491e-06,0,0,1
1605252000,1605096000,1605096000,0,-491.03204,12.370777,-0.0,-0.0015710397,12.452332,1.023889e-05,-5.0803123e-08,0,0,1
1605316000,1605153333,1605160000,0,-491.042,12.3706875,-0.0,-0.006419832,12.45347,7.6196584e-06,-8.294134e-07,0,0,1
1605388000,1605226666,1605232000,0,-491.06592,12.370735,-0.0,-0.009084426,12.454988,2.3851721e-06,-1.028405e-06,0,0,1
1605444000,1605288000,1605288000,0,-491.09906,12.370511,0.003967285,-0.0076583344,12.455791,5.054469e-08,-9.1051385e-07,0,0,1
1605508000,1605348000,1605352000,0,-491.10843,12.370426,0.011108398,-0.005647613,12.456978,3.962326e-07,-7.705053e-07,0,0,1
1605580000,1605420000,1605424000,0,-491.13177,12.370479,0.03189087,-0.0009224899,12.458553,3.265315e-06,-2.625e-07,0,0,1
1605652000,1605490666,1605496000,0,-491.06573,12.370531,-0.0,-0.005588711,12.451961,4.787441e-06,-8.2282685e-07,0,0,1
1605724000,1605564000,1605568000,0,-491.09427,12.370581,-0.0,-0.0064625707,12.453461,4.955174e-07,-7.8096133e-07,0,0,1
1605796000,1605636000,1605640000,0,-491.11786,12.37063,0.009246826,-0.0044851643,12.454982,2.7460112e-07,-6.480933e-07,0,0,1
1605868000,1605706666,1605712000,0,-491.14124,12.370679,0.030639648,-0.00013563223,12.456523,3.014607e-06,-1.9453839e-07,0,0,1
1605924000,1605766000,1605768000,0,-491.06116,12.370456,-0.0,-0.0055469535,12.45734,8.4000685e-06,-1.0649788e-06,0,0,1
1605988000,1605828000,1605832000,0,-491.17902,12.370373,0.06500244,0.0022360762,12.458545,1.3566006e-05,5.491156e-07,0,0,1
1606060000,1605900000,1605904000,0,-491.1408,12.370426,0.026519775,0.0052927653,12.451955,2.259239e-06,7.643759e-07,0,0,1
1606132000,1605972000,1605976000,0,-491.1312,12.370479,0.015075684,0.0065241815,12.45346,7.3000194e-07,7.600491e-07,0,0,1
1606204000,1606042666,1606048000,0,-491.10757,12.37053,-0.0,0.0044503175,12.454985,3.356654e-07,6.2436595e-07,0,0,1
1606276000,1606116000,1606120000,0,-491.07947,12.37058,-0.0,-0.001197292,12.456529,5.0619483e-06,-1.0295906e-07,0,0,1
1606348000,1606188000,1606192000,0,-491.19257,12.370629,0.072021484,0.008019056,12.458093,1.6654536e-05,2.0063758e-06,0,0,1
1606420000,1606258666,1606264000,0,-491.21063,12.370679,0.09234619,0.018461348,12.451529,2.7395252e-05,5.1502993e-06,0,0,1
1606492000,1606332000,1606336000,0,-491.09708,12.370726,-0.022735596,0.013191931,12.453016,1.6603441e-06,4.2791635e-06,0,0,1
1606564000,1606404000,1606408000,0,-491.07382,12.370772,-0.046722412,0.005650266,12.454526,7.0110536e-06,2.8580175e-06,0,0,1
1606636000,1606476000,1606480000,0,-491.07895,12.370818,-0.04232788,-0.0003889408,12.456056,5.753505e-06,1.7740498e-06,0,0,1
1606708000,1606548000,1606552000,0,-491.07468,12.370863,-0.0473938,-0.0063056354,12.457605,7.212212e-06,6.42912e-07,0,0,1
1606780000,1606618666,1606624000,0,-491.13147,12.370907,0.008636475,-0.004455343,12.459174,2.3946595e-07,5.92953e-07,0,0,1
1606836000,1606680000,1606680000,0,-491.15955,12.37068,0.037902832,0.00017291075,12.451834,4.614982e-06,1.0324188e-06,0,0,1
1606900000,1606740000,1606744000,0,-491.131,12.370592,0.008270264,0.0010404842,12.45297,2.1969782e-07,9.453416e-07,0,0,1
1606972000,1606812000,1606816000,0,-491.10278,12.370641,-0.020843506,-0.0017141438,12.454482,1.3953265e-06,6.507121e-07,0,0,1
1607044000,1606884000,1606888000,0,-491.17807,12.370689,0.053771973,0.005270122,12.456017,9.2852315e-06,1.7375745e-06,0,0,1
1607116000,1606956000,1606960000,0,-491.0461,12.370736,-0.07937622,-0.0053846617,12.45757,2.0230542e-05,-1.0276427e-06,0,0,1
1607188000,1607028000,1607032000,0,-491.1173,12.370783,-0.008758545,-0.005809346,12.459144,2.4628375e-07,-9.2928985e-07,0,0,1
1607260000,1607100000,1607104000,0,-491.0986,12.370829,-0.026824951,-0.008454667,12.452515,2.3114303e-06,-1.1032655e-06,0,0,1
1607332000,1607170666,1607176000,0,-491.18338,12.370873,0.057006836,-0.00034852047,12.454013,1.0437694e-05,3.2586013e-07,0,0,1
1607388000,1607232000,1607232000,0,-491.17343,12.370646,0.045837402,0.004697971,12.454805,6.7478127e-06,1.0275529e-06,0,0,1
1607452000,1607290666,1607296000,0,-491.1636,12.37056,0.034729004,0.007851556,12.455977,3.8731723e-06,1.3263739e-06,0,0,1
1607524000,1607364000,1607368000,0,-491.1304,12.370609,0.00018310547,0.0068707,12.457535,1.0765409e-10,1.1567338e-06,0,0,1
1607596000,1607436000,1607440000,0,-491.1257,12.370659,-0.008117676,0.0049840515,12.458027,2.1157976e-07,9.844986e-07,0,0,1
1607668000,1607506666,1607512000,0,-491.1305,12.370707,-0.003967285,0.0038756006,12.452488,5.0558096e-08,8.563267e-07,0,0,1
1607740000,1607580000,1607584000,0,-491.1634,12.370753,0.028015137,0.00696324,12.45399,2.5207917e-06,1.069225e-06,0,0,1
1607812000,1607652000,1607656000,0,-491.15372,12.370799,0.017120361,0.008241759,12.455513,9.412917e-07,1.0531215e-06,0,0,1
1607884000,1607722666,1607728000,0,-491.116,12.370845,-0.021820068,0.0045191804,12.457056,1.5288216e-06,7.3339754e-07,0,0,1
1607956000,1607796000,1607800000,0,-491.1303,12.370889,-0.008239746,0.0028872117,12.458618,2.1798057e-07,6.117087e-07,0,0,1
1608028000,1607868000,1607872000,0,-491.13974,12.370933,9.1552734e-05,0.0025353106,12.452022,2.6925438e-11,5.3471376e-07,0,0,1
1608100000,1607938666,1607944000,0,-491.24304,12.3709755,0.10256958,0.014922629,12.453508,3.379134e-05,4.6529067e-06,0,0,1
1608172000,1608012000,1608016000,0,-491.0871,12.3710165,-0.054870605,0.0059955167,12.455016,9.669304e-06,2.8209815e-06,0,0,1
1608244000,1608082666,1608088000,0,-491.15808,12.3710575,0.015655518,0.007191722,12.456544,7.8704085e-07,2.5691172e-06,0,0,1
1608316000,1608156000,1608160000,0,-491.14383,12.371098,0.000579834,0.0063460087,12.458092,1.079483e-09,2.2406448e-06,0,0,1
1608388000,1608228000,1608232000,0,-491.16733,12.371138,0.023529053,0.0085089095,12.459661,1.7773078e-06,2.1823228e-06,0,0,1
1608460000,1608300000,1608304000,0,-491.16708,12.371177,0.02279663,0.010307364,12.452998,1.6692732e-06,2.1177432e-06,0,0,1
1608532000,1608370666,1608376000,0,-491.10583,12.371214,-0.039154053,0.00418252,12.45449,4.9236537e-06,1.2458017e-06,0,0,1
1608604000,1608444000,1608448000,0,-491.15317,12.371251,0.007904053,0.0046585337,12.456003,2.0062309e-07,1.112115e-06,0,0,1
1608676000,1608516000,1608520000,0,-491.10614,12.371288,-0.039733887,-0.000929323,12.457538,5.069322e-06,3.3403205e-07,0,0,1
1608748000,1608588000,1608592000,0,-491.18164,12.371324,0.035491943,0.0036551715,12.459091,4.044205e-06,8.010468e-07,0,0,1
1608820000,1608660000,1608664000,0,-491.18127,12.371359,0.03488159,0.0075857695,12.452461,3.9083857e-06,1.1921803e-06,0,0,1
1608892000,1608732000,1608736000,0,-491.16217,12.371393,0.015167236,0.00854008,12.453939,7.388668e-07,1.1351199e-06,0,0,1
1608964000,1608804000,1608808000,0,-491.16202,12.371427,0.01449585,0.009289757,12.455438,6.7482057e-07,1.0771801e-06,0,0,1
1609036000,1608876000,1608880000,0,-491.08676,12.37146,-0.061401367,0.00039157458,12.456957,1.2106096e-05,-5.8225316e-07,0,0,1
1609108000,1608946666,1608952000,0,-491.1108,12.371492,-0.03744507,-0.004293765,12.458496,4.501773e-06,-1.0676104e-06,0,0,1
1609180000,1609020000,1609024000,0,-491.12997,12.371524,-0.01828003,-0.00608272,12.460055,1.0727383e-06,-1.0682662e-06,0,0,1
1609252000,1609092000,1609096000,0,-491.16302,12.371555,0.015777588,-0.003331073,12.453366,7.995662e-07,-8.3315444e-07,0,0,1
1609324000,1609164000,1609168000,0,-491.1206,12.371586,-0.026916504,-0.006299868,12.454849,2.326799e-06,-1.0211656e-06,0,0,1
1609396000,1609236000,1609240000,0,-491.088,12.371616,-0.05960083,-0.01300908,12.456355,1.1407057e-05,-2.3284806e-06,0,0,1
1609468000,1609308000,1609312000,0,-491.06512,12.371645,-0.08236694,-0.02173944,12.457879,2.1783204e-05,-4.7773265e-06,0,0,1
1609540000,1609378666,1609384000,0,-491.21616,12.371675,0.069244385,-0.010472845,12.459425,1.5393278e-05,-2.2795855e-06,0,0,1
1609612000,1609452000,1609456000,0,-491.07465,12.371703,-0.071746826,-0.018310277,12.452774,1.6534814e-05,-4.102943e-06,0,0,1
1609684000,1609524000,1609528000,0,-491.11758,12.37173,-0.028625488,-0.019608695,12.454243,2.6317732e-06,-3.9177608e-06,0,0,1
1609756000,1609596000,1609600000,0,-491.1977,12.3717575,0.0513916,-0.010671596,12.455733,8.481546e-06,-2.357009e-06,0,0,1
1609828000,1609668000,1609672000,0,-491.06104,12.371784,-0.085876465,-0.020137943,12.457244,2.3680253e-05,-5.0410536e-06,0,0,1
1609900000,1609738666,1609744000,0,-491.06656,12.37181,-0.08013916,-0.027567938,12.458775,2.0619316e-05,-6.9701214e-06,0,0,1
1609956000,1609800000,1609800000,0,-491.23636,12.371566,0.08996582,-0.014725646,12.459578,2.5984344e-05,-3.3693616e-06,0,0,1
1610020000,1609858666,1609864000,0,-491.16507,12.371461,0.016815186,-0.011413516,12.452567,9.0824796e-07,-2.920166e-06,0,0,1
1610076000,1609920000,1609920000,0,-491.16492,12.3712225,0.016204834,-0.008395805,12.453328,8.4345857e-07,-2.5089346e-06,0,0,1
1610140000,1609980000,1609984000,0,-491.09903,12.371124,-0.050048828,-0.012858629,12.454463,8.04494e-06,-3.102078e-06,0,0,1
1610212000,1610050666,1610056000,0,-491.1746,12.371163,0.02557373,-0.0080995215,12.455978,2.1002465e-06,-2.4578703e-06,0,0,1
1610284000,1610122666,1610128000,0,-491.226,12.3712015,0.076690674,0.002573369,12.457513,1.8884859e-05,2.2862696e-07,0,0,1
1610340000,1610184000,1610184000,0,-491.12198,12.370969,-0.028076172,-0.0007755442,12.458323,2.530907e-06,-7.289273e-08,0,0,1
1610404000,1610244000,1610248000,0,-491.1082,12.370875,-0.03869629,-0.0048384806,12.4514,4.8103916e-06,-5.804818e-07,0,0,1
1610476000,1610316000,1610320000,0,-491.17426,12.370918,0.02734375,-0.0007875706,12.452877,2.401632e-06,-2.0511087e-07,0,0,1
1610548000,1610386666,1610392000,0,-491.19278,12.370961,0.045410156,0.0049331286,12.454376,6.622836e-06,6.40399e-07,0,0,1
1610620000,1610460000,1610464000,0,-491.18765,12.371003,0.039733887,0.0093844235,12.455896,5.06999e-06,1.206979e-06,0,0,1
1610692000,1610532000,1610536000,0,-491.1591,12.371045,0.01071167,0.00955149,12.457437,3.684221e-07,1.1014264e-06,0,0,1
1610764000,1610604000,1610608000,0,-491.12613,12.371085,-0.022521973,0.005514271,12.458996,1.6285077e-06,7.577984e-07,0,0,1
1610836000,1610674666,1610680000,0,-491.1686,12.371125,0.022125244,0.0075712204,12.452383,1.5724747e-06,8.586804e-07,0,0,1
1610908000,1610748000,1610752000,0,-491.1496,12.371164,0.0028686523,0.0069697243,12.453867,2.6430879e-08,7.52229e-07,0,0,1
1610980000,1610820000,1610824000,0,-491.09793,12.3712015,-0.048828125,-5.378062e-05,12.455372,7.65673e-06,-3.0624136e-07,0,0,1
1611052000,1610892000,1610896000,0,-491.14536,12.37124,-0.0012512207,-0.00020450733,12.456898,5.0271045e-09,-2.683263e-07,0,0,1
1611124000,1610964000,1610968000,0,-491.07962,12.371276,-0.06726074,-0.008645151,12.458444,1.4525112e-05,-2.0628868e-06,0,0,1
1611196000,1611034666,1611040000,0,-491.1085,12.371312,-0.038635254,-0.012358848,12.458919,4.7923354e-06,-2.4008764e-06,0,0,1
1611252000,1611096000,1611096000,0,-491.19336,12.371078,0.048461914,-0.005713285,12.452622,7.543976e-06,-1.314255e-06,0,0,1
1611316000,1611156000,1611160000,0,-491.08487,12.370982,-0.060821533,-0.01161774,12.453754,1.1881586e-05,-2.446469e-06,0,0,1
1611388000,1611228000,1611232000,0,-491.13245,12.371023,-0.013397217,-0.01184173,12.455264,5.7641626e-07,-2.2110776e-06,0,0,1
1611460000,1611300000,1611304000,0,-491.05743,12.371064,-0.08886719,-0.02153724,12.456795,2.5359259e-05,-5.1248344e-06,0,0,1
1611532000,1611372000,1611376000,0,-491.1663,12.371104,0.020080566,-0.016298637,12.458345,1.2946474e-06,-4.316788e-06,0,0,1
1611604000,1611444000,1611448000,0,-491.10507,12.371144,-0.037597656,-0.018979631,12.458823,4.538418e-06,-4.3446853e-06,0,0,1
1611676000,1611516000,1611520000,0,-491.19934,12.371182,0.058410645,-0.009238198,12.453229,1.0958775e-05,-2.4183757e-06,0,0,1
1611748000,1611588000,1611592000,0,-491.0579,12.371221,-0.08352661,-0.018589187,12.454724,2.240658e-05,-4.9343735e-06,0,0,1
1611820000,1611658666,1611664000,0,-491.02115,12.371257,-0.11972046,-0.03111235,12.45624,4.6026693e-05,-1.0022866e-05,0,0,1
1611892000,1611732000,1611736000,0,-491.1209,12.371294,-0.01940918,-0.02961542,12.457777,1.2095778e-06,-8.895577e-06,0,0,1
1611964000,1611804000,1611808000,0,-491.15396,12.371329,0.013458252,-0.02419356,12.459332,5.814904e-07,-7.70266e-06,0,0,1
1612036000,1611876000,1611880000,0,-491.13507,12.371365,-0.0031738281,-0.02154772,12.452682,3.2356677e-08,-6.737167e-06,0,0,1
1612108000,1611946666,1611952000,0,-491.0459,12.371399,-0.09286499,-0.03037899,12.454162,2.7698072e-05,-9.332772e-06,0,0,1
1612180000,1612018666,1612024000,0,-491.28156,12.371432,0.14260864,-0.0086043235,12.455662,6.531078e-05,6.291884e-08,0,0,1
1612252000,1612092000,1612096000,0,-491.19095,12.371465,0.050201416,-0.0010825992,12.457183,8.092302e-06,1.0899411e-06,0,0,1
1612324000,1612164000,1612168000,0,-491.13882,12.371497,-0.0030822754,-0.0013343067,12.458725,3.0502065e-08,9.489063e-07,0,0,1
1612396000,1612234666,1612240000,0,-491.1952,12.37153,0.052490234,0.0053308266,12.460287,8.84482e-06,1.9266631e-06,0,0,1
1612468000,1612308000,1612312000,0,-491.0632,12.371561,-0.07800293,-0.0053282264,12.453578,1.954284e-05,-8.194579e-07,0,0,1
1612540000,1612380000,1612384000,0,-491.125,12.371591,-0.016479492,-0.0067318818,12.455063,8.721711e-07,-8.260931e-07,0,0,1
1612612000,1612450666,1612456000,0,-491.11578,12.371621,-0.026397705,-0.009167115,12.456571,2.2376587e-06,-1.0008883e-06,0,0,1
1612668000,1612512000,1612512000,0,-491.20523,12.37138,0.06259155,-0.0013264259,12.457361,1.2579559e-05,4.829752e-07,0,0,1
1612732000,1612570666,1612576000,0,-491.16708,12.371279,0.023284912,0.0012580322,12.458536,1.7407731e-06,6.150577e-07,0,0,1
1612788000,1612632000,1612632000,0,-491.08704,12.371044,-0.057678223,-0.005181621,12.459351,1.068042e-05,-6.1913937e-07,0,0,1
1612852000,1612692000,1612696000,0,-491.097,12.37095,-0.039794922,-0.008890188,12.452372,5.0870176e-06,-1.0978406e-06,0,0,1
1612924000,1612764000,1612768000,0,-491.03635,12.370992,-0.10140991,-0.020536028,12.453862,3.303062e-05,-5.117351e-06,0,0,1
1612996000,1612836000,1612840000,0,-491.15,12.371034,0.011474609,-0.016506717,12.455374,4.228429e-07,-4.419984e-06,0,0,1
1613068000,1612908000,1612912000,0,-491.14987,12.371074,0.009246826,-0.013265012,12.456904,2.7455872e-07,-3.8290627e-06,0,0,1
1613140000,1612980000,1612984000,0,-491.19675,12.371114,0.05355835,-0.00485368,12.458456,9.209799e-06,-2.1878077e-06,0,0,1
1613212000,1613052000,1613056000,0,-491.2103,12.371154,0.06994629,0.0045617,12.451884,1.5716443e-05,6.587402e-08,0,0,1
1613284000,1613124000,1613128000,0,-491.20026,12.371191,0.0552063,0.010936544,12.45336,9.78928e-06,1.2897991e-06,0,0,1
1613356000,1613194666,1613200000,0,-491.06354,12.371229,-0.086639404,-0.0011463584,12.454857,2.41075e-05,-1.8551676e-06,0,0,1
1613428000,1613268000,1613272000,0,-491.20993,12.371265,0.05508423,0.0060459827,12.456374,9.743677e-06,-3.7158281e-07,0,0,1
1613500000,1613340000,1613344000,0,-491.16714,12.371302,0.006134033,0.006057066,12.4579115,1.2081115e-07,-3.0960317e-07,0,0,1
1613572000,1613412000,1613416000,0,-491.12482,12.371338,-0.042510986,-5.639484e-05,12.459471,5.8018004e-06,-1.0009286e-06,0,0,1
1613644000,1613482666,1613488000,0,-491.19098,12.371372,0.020233154,0.0024560753,12.452815,1.3149815e-06,-7.1414775e-07,0,0,1
1613700000,1613544000,1613544000,0,-491.0969,12.371136,-0.07800293,-0.0063352548,12.453582,1.9542835e-05,-2.7714586e-06,0,0,1
1613764000,1613604000,1613608000,0,-491.11172,12.371039,-0.06655884,-0.012787782,12.454723,1.4227788e-05,-3.9989222e-06,0,0,1
1613836000,1613674666,1613680000,0,-491.23447,12.371079,0.05319214,-0.0046174387,12.456246,9.085895e-06,-2.3786197e-06,0,0,1
1613908000,1613748000,1613752000,0,-491.17758,12.3711195,-0.0068359375,-0.0049012024,12.457791,1.5004278e-07,-2.0935668e-06,0,0,1
1613980000,1613820000,1613824000,0,-491.1307,12.371159,-0.056152344,-0.011352395,12.459355,1.0122789e-05,-3.104238e-06,0,0,1
1614052000,1613890666,1613896000,0,-491.15002,12.371198,-0.036895752,-0.014515448,12.452729,4.3726845e-06,-3.2613107e-06,0,0,1
1614108000,1613952000,1613952000,0,-491.1316,12.370964,-0.056549072,-0.01910824,12.453502,1.0271159e-05,-4.02724e-06,0,0,1
1614172000,1614012000,1614016000,0,-491.17908,12.370871,-0.010040283,-0.018136673,12.454651,3.237579e-07,-3.6304382e-06,0,0,1
1614244000,1614084000,1614088000,0,-491.16513,12.370914,-0.025115967,-0.019015186,12.456183,2.0256984e-06,-3.428443e-06,0,0,1
1614316000,1614156000,1614160000,0,-491.17477,12.370957,-0.016143799,-0.018653752,12.457737,8.368205e-07,-3.1022248e-06,0,0,1
1614388000,1614228000,1614232000,0,-491.12796,12.371,-0.06365967,-0.024318833,12.459313,1.3010518e-05,-4.3494224e-06,0,0,1
1614460000,1614300000,1614304000,0,-491.13327,12.371041,-0.053466797,-0.027987808,12.452667,9.182606e-06,-4.957795e-06,0,0,1
1614532000,1614372000,1614376000,0,-491.14786,12.371082,-0.0390625,-0.029381825,12.454168,4.9007813e-06,-4.950619e-06,0,0,1
1614604000,1614444000,1614448000,0,-491.18112,12.371121,-0.005554199,-0.026382543,12.455691,9.906838e-08,-4.339934e-06,0,0,1
1614676000,1614516000,1614520000,0,-491.19995,12.3711605,0.014007568,-0.021298474,12.457237,6.3003364e-07,-3.7143438e-06,0,0,1
1614748000,1614588000,1614592000,0,-491.2186,12.371199,0.0340271,-0.014334416,12.458806,3.7173497e-06,-2.778886e-06,0,0,1
1614820000,1614658666,1614664000,0,-491.17603,12.371237,-0.0049743652,-0.013175353,12.452183,7.948586e-08,-2.4446172e-06,0,0,1
1614876000,1614720000,1614720000,0,-491.0634,12.371003,-0.11566162,-0.024373487,12.452959,4.2970063e-05,-6.8726185e-06,0,0,1
1614940000,1614780000,1614784000,0,-491.12552,12.370909,-0.050231934,-0.027144033,12.454112,8.104141e-06,-7.004567e-06,0,0,1
1615012000,1614852000,1614856000,0,-491.1401,12.370952,-0.03201294,-0.027756903,12.455648,3.291128e-06,-6.5371414e-06,0,0,1
1615084000,1614924000,1614928000,0,-491.07,12.370994,-0.09832764,-0.036639933,12.457209,3.1044914e-05,-9.622036e-06,0,0,1
1615156000,1614996000,1615000000,0,-491.15076,12.371036,-0.013336182,-0.033706594,12.458793,5.7101437e-07,-8.482746e-06,0,0,1
1615228000,1615068000,1615072000,0,-491.07578,12.371077,-0.07662964,-0.039109495,12.45216,1.8862918e-05,-9.789341e-06,0,0,1
1615300000,1615140000,1615144000,0,-491.0155,12.371116,-0.13290405,-0.0509158,12.453666,5.6733454e-05,-1.569839e-05,0,0,1
1615372000,1615212000,1615216000,0,-491.1201,12.371155,-0.023864746,-0.047510773,12.455195,1.8290395e-06,-1.3952597e-05,0,0,1
1615444000,1615284000,1615288000,0,-491.07333,12.371193,-0.06707764,-0.049973734,12.45675,1.44481e-05,-1.4014969e-05,0,0,1
1615516000,1615356000,1615360000,0,-491.03174,12.371231,-0.10525513,-0.05693223,12.458327,3.5570236e-05,-1.672822e-05,0,0,1
1615588000,1615428000,1615432000,0,-491.04214,12.371268,-0.0920105,-0.061347675,12.459928,2.7178108e-05,-1.804359e-05,0,0,1
1615660000,1615500000,1615504000,0,-491.1135,12.3713045,-0.009796143,-0.05485867,12.453224,3.0823958e-07,-1.5811169e-05,0,0,1
1615732000,1615572000,1615576000,0,-491.09012,12.37134,-0.032440186,-0.052036762,12.454746,3.379806e-06,-1.4246382e-05,0,0,1
1615804000,1615642666,1615648000,0,-491.15146,12.371374,0.029388428,-0.04195382,12.456293,2.7734727e-06,-1.2138801e-05,0,0,1
1615876000,1615716000,1615720000,0,-491.0197,12.371408,-0.10244751,-0.049691446,12.457864,3.3699172e-05,-1.4896545e-05,0,0,1
1615948000,1615786666,1615792000,0,-491.08646,12.371442,-0.035003662,-0.047872648,12.459458,3.9335782e-06,-1.3538992e-05,0,0,1
1616020000,1615860000,1615864000,0,-491.05392,12.371475,-0.059753418,-0.049392294,12.452746,1.1468863e-05,-1.3274206e-05,0,0,1
1616092000,1615932000,1615936000,0,-490.99347,12.371507,-0.12030029,-0.058317777,12.454262,4.6480993e-05,-1.745408e-05,0,0,1
1616164000,1616004000,1616008000,0,-491.14017,12.371538,0.026367188,-0.04765813,12.455803,2.2326253e-06,-1.49760335e-05,0,0,1
1616236000,1616076000,1616080000,0,-491.10236,12.371569,-0.012664795,-0.043253377,12.457368,5.15027e-07,-1.3155767e-05,0,0,1
1616308000,1616148000,1616152000,0,-491.13535,12.371599,0.019317627,-0.03537731,12.458959,1.19808e-06,-1.134899e-05,0,0,1
1616380000,1616220000,1616224000,0,-491.1211,12.37163,0.0038452148,-0.030440208,12.460574,4.7463875e-08,-9.914471e-06,0,0,1
1616452000,1616292000,1616296000,0,-491.0929,12.371659,-0.01763916,-0.028828887,12.453773,9.993437e-07,-8.792287e-06,0,0,1
1616524000,1616362666,1616368000,0,-491.03668,12.371687,-0.07501221,-0.034547802,12.455309,1.8070466e-05,-9.941211e-06,0,0,1
1616596000,1616434666,1616440000,0,-491.02805,12.371716,-0.08456421,-0.040843572,12.456872,2.2962764e-05,-1.1580288e-05,0,0,1
1616668000,1616508000,1616512000,0,-491.05704,12.371742,-0.056640625,-0.04286414,12.45846,1.0300344e-05,-1.1416572e-05,0,0,1
1616740000,1616578666,1616584000,0,-491.0529,12.37177,-0.06210327,-0.045246538,12.460074,1.2381359e-05,-1.1536043e-05,0,0,1
1616812000,1616652000,1616656000,0,-491.0535,12.371797,-0.054992676,-0.046493147,12.453285,9.7137245e-06,-1.1302954e-05,0,0,1
1616884000,1616724000,1616728000,0,-491.11978,12.371822,0.009979248,-0.039384734,12.45482,3.1982927e-07,-9.839946e-06,0,0,1
1616956000,1616796000,1616800000,0,-491.0211,12.371847,-0.09069824,-0.045843776,12.456382,2.6415924e-05,-1.1926432e-05,0,0,1
1617028000,1616868000,1616872000,0,-491.10178,12.371872,-0.0113220215,-0.04149838,12.457971,4.1158603e-07,-1.04770115e-05,0,0,1
1617100000,1616940000,1616944000,0,-491.14413,12.371897,0.029205322,-0.032598615,12.459586,2.738296e-06,-8.813547e-06,0,0,1
1617172000,1617010666,1617016000,0,-491.0218,12.371921,-0.09536743,-0.040371325,12.461228,2.9194385e-05,-1.1337321e-05,0,0,1
1617244000,1617084000,1617088000,0,-491.10724,12.371945,-0.0006713867,-0.035293385,12.454361,1.4477183e-09,-9.887372e-06,0,0,1
1617316000,1617154666,1617160000,0,-491.10724,12.371967,-0.0025634766,-0.031240417,12.455923,2.1102931e-08,-8.665624e-06,0,0,1
1617388000,1617228000,1617232000,0,-491.0791,12.37199,-0.032592773,-0.031413395,12.457515,3.4109175e-06,-7.993504e-06,0,0,1
1617460000,1617300000,1617304000,0,-491.0935,12.372012,-0.019897461,-0.029963836,12.459134,1.2710641e-06,-7.1473232e-06,0,0,1
1617532000,1617372000,1617376000,0,-491.1125,12.372034,-0.0026855469,-0.026530206,12.460782,2.3151554e-08,-6.250574e-06,0,0,1
1617604000,1617444000,1617448000,0,-491.02798,12.372056,-0.08670044,-0.034104083,12.461186,2.4129215e-05,-8.501032e-06,0,0,1
1617676000,1617516000,1617520000,0,-491.01007,12.372077,-0.1000061,-0.042399444,12.455459,3.2118354e-05,-1.1473842e-05,0,0,1
1617748000,1617588000,1617592000,0,-491.04858,12.372097,-0.06286621,-0.04497568,12.457053,1.2690515e-05,-1.162699e-05,0,0,1
1617820000,1617660000,1617664000,0,-491.07272,12.372118,-0.040252686,-0.044381175,12.458678,5.2020887e-06,-1.0818261e-05,0,0,1
1617892000,1617732000,1617736000,0,-491.059,12.372137,-0.055633545,-0.045797557,12.46033,9.935825e-06,-1.07071855e-05,0,0,1
1617964000,1617804000,1617808000,0,-490.9844,12.372157,-0.13174438,-0.056616038,12.462012,5.571037e-05,-1.6371921e-05,0,0,1
1618036000,1617876000,1617880000,0,-491.06085,12.372176,-0.04586792,-0.055263128,12.455008,6.7566916e-06,-1.5161613e-05,0,0,1
1618108000,1617948000,1617952000,0,-491.07538,12.372194,-0.032989502,-0.052459456,12.456607,3.494715e-06,-1.3693053e-05,0,0,1
1618180000,1618020000,1618024000,0,-491.08038,12.372212,-0.029968262,-0.049628396,12.458236,2.8835436e-06,-1.2332415e-05,0,0,1
1618252000,1618092000,1618096000,0,-491.0901,12.372231,-0.022247314,-0.046181828,12.459895,1.5889154e-06,-1.0980087e-05,0,0,1
1618324000,1618164000,1618168000,0,-491.05743,12.372249,-0.056762695,-0.047513686,12.461585,1.0342195e-05,-1.0899793e-05,0,0,1
1618396000,1618236000,1618240000,0,-491.10962,12.372266,-0.0061035156,-0.04230122,12.463303,1.1956028e-07,-9.54284e-06,0,0,1
1618468000,1618308000,1618312000,0,-491.0111,12.372283,-0.09500122,-0.048934784,12.456174,2.8982357e-05,-1.1989772e-05,0,0,1
1618540000,1618378666,1618384000,0,-491.13412,12.372299,0.02670288,-0.039568514,12.457809,2.2894676e-06,-1.0221564e-05,0,0,1
1618596000,1618440000,1618440000,0,-491.09158,12.3720455,-0.0178833,-0.037199084,12.458703,1.026792e-06,-9.216899e-06,0,0,1
1618660000,1618500000,1618504000,0,-491.10587,12.371931,-0.0056762695,-0.03382164,12.460005,1.0343506e-07,-8.240457e-06,0,0,1
1618732000,1618572000,1618576000,0,-491.10593,12.371955,-0.008056641,-0.030578492,12.461727,2.0834818e-07,-7.2294224e-06,0,0,1
1618804000,1618644000,1618648000,0,-491.04495,12.371978,-0.069885254,-0.035526197,12.462114,1.5676149e-05,-8.292646e-06,0,0,1
1618876000,1618716000,1618720000,0,-491.05502,12.372001,-0.05480957,-0.037953474,12.456298,9.646812e-06,-8.463101e-06,0,0,1
1618948000,1618786666,1618792000,0,-491.03677,12.372023,-0.07489014,-0.04252737,12.457966,1.8007859e-05,-9.645036e-06,0,0,1
1619020000,1618860000,1618864000,0,-491.00934,12.372045,-0.104003906,-0.05039071,12.459665,3.4725854e-05,-1.2853073e-05,0,0,1
1619092000,1618932000,1618936000,0,-491.1653,12.372066,0.05050659,-0.03769035,12.461396,8.188218e-06,-1.0204519e-05,0,0,1
1619164000,1619004000,1619008000,0,-491.0568,12.372087,-0.060577393,-0.040571235,12.463159,1.1777497e-05,-1.0402516e-05,0,0,1
1619236000,1619076000,1619080000,0,-491.0621,12.3721075,-0.05090332,-0.04187178,12.455946,8.321e-06,-1.0140507e-05,0,0,1
1619308000,1619146666,1619152000,0,-491.072,12.372128,-0.042877197,-0.04199628,12.45762,5.9030667e-06,-9.615781e-06,0,0,1
1619380000,1619218666,1619224000,0,-491.08182,12.372147,-0.034942627,-0.04110841,12.459326,3.919914e-06,-8.898819e-06,0,0,1
1619452000,1619292000,1619296000,0,-491.09152,12.372167,-0.027191162,-0.039328285,12.461064,2.3733423e-06,-8.0641585e-06,0,0,1
1619524000,1619364000,1619368000,0,-491.03546,12.372186,-0.08526611,-0.04511067,12.462835,2.3334369e-05,-9.986283e-06,0,0,1
1619596000,1619436000,1619440000,0,-491.041,12.372204,-0.081329346,-0.049669664,12.464636,2.1226331e-05,-1.1401114e-05,0,0,1
1619668000,1619508000,1619512000,0,-491.06055,12.372223,-0.053863525,-0.050197564,12.457269,9.31594e-06,-1.1138644e-05,0,0,1
1619740000,1619580000,1619584000,0,-491.1644,12.372241,0.04815674,-0.037817303,12.458981,7.445461e-06,-8.799387e-06,0,0,1
1619812000,1619652000,1619656000,0,-491.13574,12.372258,0.017211914,-0.030890549,12.460726,9.5098784e-07,-7.572067e-06,0,0,1
1619884000,1619724000,1619728000,0,-491.1356,12.372275,0.014923096,-0.025123797,12.4625025,7.147803e-07,-6.5289673e-06,0,0,1
1619956000,1619796000,1619800000,0,-491.09317,12.3722925,-0.029785156,-0.025710542,12.464313,2.8470258e-06,-6.065506e-06,0,0,1
1620028000,1619868000,1619872000,0,-491.19205,12.37231,0.07659912,-0.012832404,12.456907,1.8840714e-05,-2.9304576e-06,0,0,1
1620100000,1619940000,1619944000,0,-491.17722,12.372325,0.059326172,-0.0037495075,12.458623,1.1300108e-05,-1.1391978e-06,0,0,1
1620172000,1620012000,1620016000,0,-491.19543,12.372341,0.07495117,0.006156871,12.460373,1.803374e-05,1.2741789e-06,0,0,1
1620244000,1620084000,1620088000,0,-491.13367,12.372356,0.010528564,0.006707154,12.462155,3.5579933e-07,1.1585787e-06,0,0,1
1620316000,1620156000,1620160000,0,-491.1523,12.372372,0.027191162,0.009285561,12.463971,2.372789e-06,1.3114163e-06,0,0,1
1620388000,1620228000,1620232000,0,-491.13327,12.372387,0.0057678223,0.008842768,12.465819,1.0674878e-07,1.1597799e-06,0,0,1
1620460000,1620298666,1620304000,0,-491.13794,12.372402,0.014221191,0.009508782,12.45825,6.4934414e-07,1.0965723e-06,0,0,1
1620532000,1620372000,1620376000,0,-491.0345,12.3724165,-0.09124756,-0.0033787591,12.460003,2.6729102e-05,-2.4625538e-06,0,0,1
1620604000,1620444000,1620448000,0,-491.04947,12.372431,-0.077545166,-0.012714391,12.46179,1.930141e-05,-4.58213e-06,0,0,1
1620676000,1620516000,1620520000,0,-491.0737,12.372445,-0.054626465,-0.017990036,12.46361,9.576843e-06,-5.210835e-06,0,0,1
1620748000,1620588000,1620592000,0,-491.10712,12.372458,-0.022460938,-0.018552806,12.465463,1.6188527e-06,-4.7586973e-06,0,0,1
1620820000,1620660000,1620664000,0,-491.00873,12.372473,-0.11264038,-0.030395996,12.457856,4.0738487e-05,-9.287622e-06,0,0,1
1620892000,1620732000,1620736000,0,-491.15536,12.372485,0.033111572,-0.022402037,12.45961,3.5197772e-06,-7.675501e-06,0,0,1
1620964000,1620804000,1620808000,0,-491.15976,12.372498,0.035491943,-0.015114684,12.461398,4.0434566e-06,-6.200388e-06,0,0,1
1621036000,1620876000,1620880000,0,-491.12653,12.37251,0.00039672852,-0.0131621985,12.463221,5.051456e-10,-5.419856e-06,0,0,1
1621108000,1620948000,1620952000,0,-491.0749,12.372523,-0.052886963,-0.018162519,12.465076,8.975575e-06,-5.8674286e-06,0,0,1
1621180000,1621020000,1621024000,0,-491.21155,12.372536,0.08251953,-0.0054892544,12.466966,2.1848053e-05,-2.3787668e-06,0,0,1
1621252000,1621092000,1621096000,0,-491.14505,12.372548,0.024139404,-0.0017597731,12.459191,1.8707822e-06,-1.8438586e-06,0,0,1
1621324000,1621164000,1621168000,0,-491.1307,12.37256,0.007965088,-0.00053566485,12.460979,2.0365214e-07,-1.58613e-06,0,0,1
1621396000,1621236000,1621240000,0,-491.12592,12.372571,0.0015258789,-0.00027616986,12.462802,7.472819e-09,-1.3855366e-06,0,0,1
1621468000,1621308000,1621312000,0,-491.11652,12.3725815,-0.009521484,-0.0014399156,12.464657,2.909303e-07,-1.247754e-06,0,0,1
1621540000,1621380000,1621384000,0,-491.18234,12.372593,0.054718018,0.0056289146,12.466547,9.606707e-06,1.1854172e-07,0,0,1
1621612000,1621452000,1621456000,0,-491.07382,12.372604,-0.04736328,-0.001041431,12.458742,7.202269e-06,-8.029589e-07,0,0,1
1621684000,1621524000,1621528000,0,-491.20108,12.372615,0.078704834,0.008996559,12.460528,1.9885034e-05,1.8011239e-06,0,0,1
1621756000,1621594666,1621600000,0,-491.12515,12.372625,0.0007019043,0.007969426,12.462349,1.581306e-09,1.5782852e-06,0,0,1
1621828000,1621668000,1621672000,0,-491.1768,12.372635,0.050720215,0.013437593,12.464203,8.255771e-06,2.432389e-06,0,0,1
1621900000,1621740000,1621744000,0,-491.13876,12.372645,0.010925293,0.01312136,12.466091,3.8299743e-07,2.1744236e-06,0,0,1
1621972000,1621812000,1621816000,0,-491.10107,12.372656,-0.028503418,0.007881878,12.468013,2.6064934e-06,1.5726298e-06,0,0,1
1622044000,1621884000,1621888000,0,-491.16708,12.372665,0.044403076,0.012478951,12.460043,6.3294588e-06,2.1713915e-06,0,0,1
1622116000,1621956000,1621960000,0,-491.1338,12.372675,0.009185791,0.012064428,12.46186,2.7083843e-07,1.932161e-06,0,0,1
1622188000,1622028000,1622032000,0,-491.16656,12.372684,0.040252686,0.0156126,12.463709,5.199989e-06,2.343496e-06,0,0,1
1622260000,1622100000,1622104000,0,-491.08633,12.372693,-0.042175293,0.0083386,12.465593,5.7077277e-06,1.3300553e-06,0,0,1
1622332000,1622172000,1622176000,0,-491.10556,12.372703,-0.02444458,0.0042120465,12.467511,1.9171027e-06,9.213221e-07,0,0,1
1622404000,1622244000,1622248000,0,-491.0729,12.372711,-0.05126953,-0.002771648,12.459546,8.4387175e-06,-2.568646e-07,0,0,1
1622476000,1622316000,1622320000,0,-491.1016,12.37272,-0.023620605,-0.005395992,12.461357,1.790922e-06,-4.4996273e-07,0,0,1
1622548000,1622388000,1622392000,0,-491.11124,12.372728,-0.015167236,-0.006625939,12.4632015,7.383177e-07,-4.862591e-07,0,0,1
1622620000,1622460000,1622464000,0,-491.1771,12.372736,0.049194336,0.0004003886,12.465079,7.76596e-06,5.524817e-07,0,0,1
1622692000,1622532000,1622536000,0,-491.12967,12.372745,-0.00024414062,0.00031925907,12.466991,1.9123987e-10,4.829145e-07,0,0,1
1622764000,1622604000,1622608000,0,-491.12497,12.372753,-0.0064697266,-0.00053529855,12.468937,1.3427724e-07,4.0522605e-07,0,0,1
1622836000,1622676000,1622680000,0,-491.09216,12.372761,-0.033203125,-0.0046473322,12.460789,3.5389335e-06,-9.124153e-08,0,0,1
1622908000,1622748000,1622752000,0,-491.04086,12.372768,-0.085632324,-0.014841247,12.462625,2.3535637e-05,-3.0422839e-06,0,0,1
1622980000,1622820000,1622824000,0,-491.1262,12.372776,-0.0013122559,-0.013138298,12.464495,5.526146e-09,-2.6600346e-06,0,0,1
1623052000,1622892000,1622896000,0,-491.10275,12.372784,-0.026153564,-0.014776583,12.466399,2.1947283e-06,-2.6014645e-06,0,0,1
1623124000,1622964000,1622968000,0,-491.2063,12.37279,0.07611084,-0.0033362089,12.468335,1.858423e-05,6.5265795e-08,0,0,1
1623196000,1623036000,1623040000,0,-491.13513,12.372798,0.0027160645,-0.0025743842,12.4703045,2.3662635e-08,6.002903e-08,0,0,1
1623268000,1623108000,1623112000,0,-491.17734,12.372806,0.05026245,0.004076406,12.462009,8.10885e-06,1.0731673e-06,0,0,1
1623340000,1623180000,1623184000,0,-491.19092,12.372812,0.06210327,0.011380486,12.463869,1.2377589e-05,2.4961014e-06,0,0,1
1623412000,1623252000,1623256000,0,-491.23724,12.372819,0.106536865,0.02335821,12.465762,3.642009e-05,6.7662536e-06,0,0,1
1623484000,1623324000,1623328000,0,-491.13763,12.372826,0.0045776367,0.020994224,12.467689,6.722901e-08,5.9230197e-06,0,0,1
1623556000,1623396000,1623400000,0,-491.2033,12.372832,0.068847656,0.027017731,12.469647,1.5204921e-05,7.0913707e-06,0,0,1
1623628000,1623468000,1623472000,0,-491.1322,12.372839,0.00061035156,0.023693725,12.461356,1.1957897e-09,6.1989012e-06,0,0,1
1623700000,1623540000,1623544000,0,-491.18384,12.372846,0.050628662,0.027084136,12.463203,8.226653e-06,6.4541427e-06,0,0,1
1623772000,1623612000,1623616000,0,-491.18805,12.372851,0.052947998,0.030339727,12.465083,8.9963e-06,6.7741344e-06,0,0,1
1623844000,1623684000,1623688000,0,-491.16406,12.372857,0.027313232,0.02995877,12.466997,2.3935602e-06,6.2227336e-06,0,0,1
1623916000,1623756000,1623760000,0,-491.0558,12.372863,-0.08224487,0.015835235,12.468944,2.1699412e-05,2.7080582e-06,0,0,1
1623988000,1623826666,1623832000,0,-491.1176,12.3728695,-0.020874023,0.0112895,12.470922,1.3975705e-06,2.1996552e-06,0,0,1
1624060000,1623900000,1623904000,0,-491.11783,12.372875,-0.01461792,0.007975734,12.462499,6.8584507e-07,1.8305767e-06,0,0,1
1624132000,1623972000,1623976000,0,-491.0194,12.372881,-0.11425781,-0.0074103056,12.464365,4.1894946e-05,-3.6733345e-06,0,0,1
1624204000,1624044000,1624048000,0,-491.1238,12.372887,-0.010284424,-0.0077720825,12.466265,3.3937792e-07,-3.2536757e-06,0,0,1
1624276000,1624114666,1624120000,0,-491.07697,12.372891,-0.058044434,-0.013997346,12.468197,1.0808801e-05,-4.1892326e-06,0,0,1
1624348000,1624188000,1624192000,0,-491.12448,12.372897,-0.011169434,-0.0136356335,12.470161,4.0017525e-07,-3.704582e-06,0,0,1
1624420000,1624260000,1624264000,0,-491.14804,12.372903,0.017913818,-0.0096643735,12.46176,1.0300469e-06,-3.1086147e-06,0,0,1
1624492000,1624332000,1624336000,0,-491.13852,12.372908,0.0072631836,-0.007533632,12.46361,1.6930517e-07,-2.6960095e-06,0,0,1
1624564000,1624404000,1624408000,0,-491.14313,12.372912,0.01071167,-0.005237021,12.465493,3.6818398e-07,-2.3103069e-06,0,0,1
1624636000,1624476000,1624480000,0,-491.0585,12.372917,-0.07485962,-0.0140007045,12.46741,1.7979557e-05,-4.2826596e-06,0,0,1
1624708000,1624548000,1624552000,0,-491.1766,12.372922,0.04296875,-0.0068297246,12.469358,5.922722e-06,-2.998066e-06,0,0,1
1624780000,1624620000,1624624000,0,-491.09637,12.372927,-0.03842163,-0.010806328,12.471338,4.734766e-06,-3.2166718e-06,0,0,1
1624852000,1624690666,1624696000,0,-491.1531,12.372932,0.01940918,-0.0070647188,12.462822,1.2090882e-06,-2.6686266e-06,0,0,1
1624908000,1624752000,1624752000,0,-491.12473,12.372666,-0.009979248,-0.007383174,12.463853,3.1959746e-07,-2.4119606e-06,0,0,1
1624972000,1624812000,1624816000,0,-491.1483,12.37254,0.012756348,-0.005225368,12.465324,5.221666e-07,-2.09759e-06,0,0,1
1625044000,1624884000,1624888000,0,-491.07306,12.372553,-0.06362915,-0.012576893,12.46725,1.29897735e-05,-3.4686338e-06,0,0,1
1625116000,1624954666,1624960000,0,-491.13943,12.372564,0.0019836426,-0.010773851,12.469206,1.2622578e-08,-3.0375472e-06,0,0,1
1625188000,1625028000,1625032000,0,-491.08307,12.372577,-0.055511475,-0.01649615,12.471194,9.883653e-06,-3.9132187e-06,0,0,1
1625260000,1625100000,1625104000,0,-491.1071,12.372588,-0.025970459,-0.01768872,12.462671,2.1647518e-06,-3.693132e-06,0,0,1
1625332000,1625172000,1625176000,0,-491.06976,12.3726,-0.063964844,-0.023513686,12.464545,1.3130047e-05,-4.880995e-06,0,0,1
1625404000,1625242666,1625248000,0,-491.0845,12.37261,-0.049865723,-0.026776878,12.466452,7.978502e-06,-5.264562e-06,0,0,1
1625476000,1625316000,1625320000,0,-491.11316,12.372622,-0.021942139,-0.026158476,12.4683895,1.5445697e-06,-4.788745e-06,0,0,1
1625548000,1625388000,1625392000,0,-491.0805,12.372632,-0.055541992,-0.0298571,12.470359,9.895186e-06,-5.4315137e-06,0,0,1
1625620000,1625460000,1625464000,0,-491.16556,12.372643,0.03567505,-0.0216083,12.461877,4.085128e-06,-4.233615e-06,0,0,1
1625692000,1625530666,1625536000,0,-491.1887,12.372653,0.0574646,-0.011816644,12.463731,1.0597727e-05,-2.3970388e-06,0,0,1
1625748000,1625592000,1625592000,0,-491.2022,12.372393,0.06970215,-0.002909517,12.464775,1.559078e-05,-4.3160503e-07,0,0,1
1625812000,1625652000,1625656000,0,-491.1217,12.3722725,-0.012237549,-0.003908949,12.466263,4.8052124e-07,-4.3684605e-07,0,0,1
1625884000,1625724000,1625728000,0,-491.12183,12.37229,-0.012756348,-0.0050226077,12.468205,5.220459e-07,-4.475705e-07,0,0,1
1625956000,1625796000,1625800000,0,-491.1689,12.372307,0.033599854,-0.00016103964,12.470179,3.62128e-06,6.4592456e-08,0,0,1
1626028000,1625868000,1625872000,0,-491.1404,12.372324,0.010131836,0.001134567,12.461727,3.29502e-07,9.7937715e-08,0,0,1
