timestamp,timestamp_sample,xyz[0],xyz[1],xyz[2],xyz_derivative[0],xyz_derivative[1],xyz_derivative[2]
1592248000,0,5.5424356e-05,5.1151834e-05,7.80075e-08,0.0,0.0,0.0
1592252000,0,5.542436e-05,5.115182e-05,7.800862e-08,0.0,0.0,0.0
1592260000,0,5.5424374e-05,5.1151783e-05,7.801084e-08,0.0,0.0,0.0
1592268000,0,5.5269527e-05,5.1156498e-05,7.7826904e-08,0.0,0.0,0.0
1592280000,0,5.4834956e-05,5.0856812e-05,7.729372e-08,0.0,0.0,0.0
1592288000,0,5.4713e-05,5.0732917e-05,7.712407e-08,0.0,0.0,0.0
1592300000,0,5.4732733e-05,5.0154515e-05,7.704509e-08,0.0,0.0,0.0
1592308000,0,5.4538097e-05,4.929059e-05,7.6746005e-08,0.0,0.0,0.0
1592320000,0,5.462911e-05,5.062142e-05,7.690114e-08,0.0,0.0,0.0
1592328000,0,5.4331198e-05,5.022162e-05,7.6668506e-08,0.0,0.0,0.0
1592340000,0,5.4437107e-05,4.9356797e-05,7.657918e-08,0.0,0.0,0.0
1592348000,0,5.4225387e-05,4.7048503e-05,7.618118e-08,0.0,0.0,0.0
1592360000,0,5.468632e-05,5.0252398e-05,7.694516e-08,0.0,0.0,0.0
1592368000,0,5.457055e-05,5.0584847e-05,7.691753e-08,0.0,0.0,0.0
1592380000,0,5.471561e-05,4.9569353e-05,7.689435e-08,0.0,0.0,0.0
1592388000,0,5.4629385e-05,4.8775717e-05,7.679663e-08,0.0,0.0,0.0
1592400000,0,5.47376e-05,4.958296e-05,7.6999186e-08,0.0,0.0,0.0
1592408000,0,5.4890843e-05,4.955569e-05,7.713688e-08,0.0,0.0,0.0
1592416000,0,5.478553e-05,4.9052e-05,7.6974764e-08,0.0,0.0,0.0
1592428000,0,5.4635337e-05,4.9135928e-05,7.67824e-08,0.0,0.0,0.0
1592440000,0,5.458881e-05,5.086126e-05,7.699339e-08,0.0,0.0,0.0
1592448000,0,5.490078e-05,5.1258416e-05,7.728496e-08,0.0,0.0,0.0
1592460000,0,5.467681e-05,4.933771e-05,7.689919e-08,0.0,0.0,0.0
1592468000,0,5.486792e-05,5.0147275e-05,7.719072e-08,0.0,0.0,0.0
1592480000,0,5.4776454e-05,5.072668e-05,7.717861e-08,0.0,0.0,0.0
1592488000,0,5.479673e-05,5.076159e-05,7.720811e-08,0.0,0.0,0.0
1592500000,0,5.5005512e-05,5.101934e-05,7.742403e-08,0.0,0.0,0.0
1592508000,0,5.497276e-05,5.076374e-05,7.7367254e-08,0.0,0.0,0.0
1592520000,0,5.465284e-05,4.9951566e-05,7.69868e-08,0.0,0.0,0.0
1592528000,0,5.4517237e-05,4.916375e-05,7.676666e-08,0.0,0.0,0.0
1592540000,0,5.4817276e-05,5.191534e-05,7.727494e-08,0.0,0.0,0.0
1592548000,0,5.4548902e-05,5.1719482e-05,7.705455e-08,0.0,0.0,0.0
1592560000,0,5.452029e-05,5.056944e-05,7.685323e-08,0.0,0.0,0.0
1592568000,0,5.4482476e-05,4.9978316e-05,7.681245e-08,0.0,0.0,0.0
1592580000,0,5.4713426e-05,5.1050578e-05,7.712281e-08,0.0,0.0,0.0
1592588000,0,5.4701206e-05,5.1112143e-05,7.710308e-08,0.0,0.0,0.0
1592600000,0,5.4619104e-05,5.091223e-05,7.694382e-08,0.0,0.0,0.0
1592608000,0,5.4643733e-05,5.0491017e-05,7.689289e-08,0.0,0.0,0.0
1592620000,0,5.4505304e-05,4.9198126e-05,7.654846e-08,0.0,0.0,0.0
1592628000,0,5.4586948e-05,5.028314e-05,7.663872e-08,0.0,0.0,0.0
1592640000,0,5.444776e-05,5.058309e-05,7.655249e-08,0.0,0.0,0.0
1592644000,0,5.4704247e-05,5.0583723e-05,7.674701e-08,0.0,0.0,0.0
1592660000,0,5.4270422e-05,4.7342222e-05,7.5961815e-08,0.0,0.0,0.0
1592668000,0,5.4496944e-05,4.9162947e-05,7.627127e-08,0.0,0.0,0.0
1592680000,0,5.4597233e-05,5.0692237e-05,7.653105e-08,0.0,0.0,0.0
1592688000,0,5.48595e-05,5.0957624e-05,7.671409e-08,0.0,0.0,0.0
1592700000,0,5.4604207e-05,4.886089e-05,7.6287996e-08,0.0,0.0,0.0
1592708000,0,5.471889e-05,4.9463117e-05,7.643361e-08,0.0,0.0,0.0
1592720000,0,5.4887318e-05,4.9510123e-05,7.653823e-08,0.0,0.0,0.0
1592728000,0,5.4765416e-05,4.9014667e-05,7.633434e-08,0.0,0.0,0.0
1592740000,0,5.4639986e-05,4.9201295e-05,7.6121026e-08,0.0,0.0,0.0
1592748000,0,5.491538e-05,5.1288498e-05,7.656138e-08,0.0,0.0,0.0
1592760000,0,5.4895143e-05,5.122888e-05,7.648524e-08,0.0,0.0,0.0
1592768000,0,5.4648186e-05,4.93632e-05,7.604035e-08,0.0,0.0,0.0
1592780000,0,5.4855675e-05,5.017311e-05,7.6317434e-08,0.0,0.0,0.0
1592788000,0,5.4772547e-05,5.0603627e-05,7.6253485e-08,0.0,0.0,0.0
1592800000,0,5.484929e-05,5.0818377e-05,7.6296324e-08,0.0,0.0,0.0
1592808000,0,5.4982975e-05,5.0979917e-05,7.639471e-08,0.0,0.0,0.0
1592820000,0,5.4922937e-05,5.056186e-05,7.6238976e-08,0.0,0.0,0.0
1592828000,0,5.466849e-05,5.001874e-05,7.5917605e-08,0.0,0.0,0.0
1592840000,0,5.447935e-05,4.908188e-05,7.557486e-08,0.0,0.0,0.0
1592848000,0,5.4794487e-05,5.1701314e-05,7.602111e-08,0.0,0.0,0.0
1592860000,0,5.4487384e-05,5.064697e-05,7.569478e-08,0.0,0.0,0.0
1592868000,0,5.4585194e-05,5.098396e-05,7.567207e-08,0.0,0.0,0.0
1592880000,0,5.453234e-05,5.0258754e-05,7.558782e-08,0.0,0.0,0.0
1592888000,0,5.4660453e-05,5.0927556e-05,7.573712e-08,0.0,0.0,0.0
1592900000,0,5.4698685e-05,5.1116214e-05,7.575505e-08,0.0,0.0,0.0
1592908000,0,5.4626966e-05,5.0996317e-05,7.5634084e-08,0.0,0.0,0.0
1592920000,0,5.4612734e-05,5.025853e-05,7.550567e-08,0.0,0.0,0.0
1592928000,0,5.4554122e-05,4.9348426e-05,7.530934e-08,0.0,0.0,0.0
1592940000,0,5.4727407e-05,5.1129082e-05,7.5520795e-08,0.0,0.0,0.0
1592948000,0,5.4482e-05,5.080429e-05,7.528145e-08,0.0,0.0,0.0
1592956000,0,5.4609056e-05,5.0518633e-05,7.5290444e-08,0.0,0.0,0.0
1592968000,0,5.4308814e-05,4.756382e-05,7.475319e-08,0.0,0.0,0.0
1592976000,0,5.4359778e-05,4.810545e-05,7.4783e-08,0.0,0.0,0.0
1592988000,0,5.452983e-05,4.9651335e-05,7.510183e-08,0.0,0.0,0.0
1593000000,0,5.484827e-05,5.085731e-05,7.535067e-08,0.0,0.0,0.0
1593008000,0,5.4549906e-05,4.8548452e-05,7.490582e-08,0.0,0.0,0.0
1593020000,0,5.475115e-05,4.9536367e-05,7.5149316e-08,0.0,0.0,0.0
1593028000,0,5.4914086e-05,4.9640093e-05,7.5266996e-08,0.0,0.0,0.0
1593040000,0,5.474502e-05,4.9008002e-05,7.499363e-08,0.0,0.0,0.0
1593048000,0,5.4611162e-05,4.8561415e-05,7.4768074e-08,0.0,0.0,0.0
1593060000,0,5.493011e-05,5.128394e-05,7.522092e-08,0.0,0.0,0.0
1593068000,0,5.4597815e-05,5.017107e-05,7.486397e-08,0.0,0.0,0.0
1593080000,0,5.4680226e-05,4.934968e-05,7.475057e-08,0.0,0.0,0.0
1593088000,0,5.48131e-05,4.9801674e-05,7.4923314e-08,0.0,0.0,0.0
1593100000,0,5.4768818e-05,5.059842e-05,7.490683e-08,0.0,0.0,0.0
1593108000,0,5.4822372e-05,5.0711165e-05,7.493462e-08,0.0,0.0,0.0
1593120000,0,5.495492e-05,5.086551e-05,7.500593e-08,0.0,0.0,0.0
1593128000,0,5.4936554e-05,5.056434e-05,7.492877e-08,0.0,0.0,0.0
1593140000,0,5.4653163e-05,4.9774775e-05,7.455652e-08,0.0,0.0,0.0
1593148000,0,5.451845e-05,4.9197908e-05,7.4325e-08,0.0,0.0,0.0
1593160000,0,5.485599e-05,5.1913124e-05,7.4770796e-08,0.0,0.0,0.0
1593168000,0,5.448807e-05,5.148143e-05,7.440641e-08,0.0,0.0,0.0
1593180000,0,5.4454238e-05,4.9977574e-05,7.415657e-08,0.0,0.0,0.0
1593188000,0,5.450208e-05,5.0120972e-05,7.422756e-08,0.0,0.0,0.0
1593200000,0,5.4688247e-05,5.1060102e-05,7.442967e-08,0.0,0.0,0.0
1593208000,0,5.4775788e-05,5.1280054e-05,7.4501045e-08,0.0,0.0,0.0
1593220000,0,5.4619784e-05,5.090449e-05,7.427468e-08,0.0,0.0,0.0
1593228000,0,5.4562915e-05,5.034149e-05,7.414741e-08,0.0,0.0,0.0
1593240000,0,5.453432e-05,4.9211365e-05,7.3946566e-08,0.0,0.0,0.0
1593248000,0,5.474936e-05,5.1133746e-05,7.4201445e-08,0.0,0.0,0.0
1593260000,0,5.4508735e-05,4.9799593e-05,7.3931986e-08,0.0,0.0,0.0
1593268000,0,5.4494325e-05,4.961324e-05,7.3764326e-08,0.0,0.0,0.0
1593280000,0,5.4352033e-05,4.7974307e-05,7.353481e-08,0.0,0.0,0.0
1593288000,0,5.433763e-05,4.8306258e-05,7.346305e-08,0.0,0.0,0.0
1593300000,0,5.4470456e-05,4.993095e-05,7.372494e-08,0.0,0.0,0.0
1593308000,0,5.4859065e-05,5.1107952e-05,7.406582e-08,0.0,0.0,0.0
1593320000,0,5.4528406e-05,4.8793536e-05,7.357112e-08,0.0,0.0,0.0
1593328000,0,5.4693046e-05,4.9458642e-05,7.3745866e-08,0.0,0.0,0.0
1593340000,0,5.4715205e-05,4.9609327e-05,7.371527e-08,0.0,0.0,0.0
1593348000,0,5.460635e-05,4.922784e-05,7.354634e-08,0.0,0.0,0.0
1593360000,0,5.439857e-05,4.8599213e-05,7.32054e-08,0.0,0.0,0.0
1593368000,0,5.4670014e-05,5.1110394e-05,7.357195e-08,0.0,0.0,0.0
1593380000,0,5.4770302e-05,5.1149775e-05,7.36172e-08,0.0,0.0,0.0
1593388000,0,5.444306e-05,4.9293783e-05,7.314026e-08,0.0,0.0,0.0
1593400000,0,5.437032e-05,4.9857113e-05,7.311661e-08,0.0,0.0,0.0
1593408000,0,5.4462835e-05,5.0153507e-05,7.3193036e-08,0.0,0.0,0.0
1593420000,0,5.452413e-05,4.999102e-05,7.316443e-08,0.0,0.0,0.0
1593428000,0,5.4406057e-05,4.926704e-05,7.295499e-08,0.0,0.0,0.0
1593440000,0,5.4302312e-05,5.1288076e-05,7.2853666e-08,0.0,0.0,0.0
1593448000,0,5.415604e-05,5.133261e-05,7.276202e-08,0.0,0.0,0.0
1593460000,0,5.4021257e-05,4.947522e-05,7.244277e-08,0.0,0.0,0.0
1593468000,0,5.4091634e-05,5.0306753e-05,7.25416e-08,0.0,0.0,0.0
1593480000,0,5.414435e-05,5.095965e-05,7.256455e-08,0.0,0.0,0.0
1593488000,0,5.418162e-05,5.1103016e-05,7.257124e-08,0.0,0.0,0.0
1593500000,0,5.4114884e-05,5.0642106e-05,7.244099e-08,0.0,0.0,0.0
1593508000,0,5.3926004e-05,4.976045e-05,7.21605e-08,0.0,0.0,0.0
1593520000,0,5.4180644e-05,5.0936123e-05,7.231418e-08,0.0,0.0,0.0
1593528000,0,5.3764186e-05,5.010185e-05,7.192726e-08,0.0,0.0,0.0
1593540000,0,5.364385e-05,4.7464062e-05,7.155967e-08,0.0,0.0,0.0
1593548000,0,5.37658e-05,4.8434562e-05,7.1638475e-08,0.0,0.0,0.0
1593560000,0,5.3990512e-05,4.9855975e-05,7.193169e-08,0.0,0.0,0.0
1593568000,0,5.3899985e-05,4.8479294e-05,7.16924e-08,0.0,0.0,0.0
1593580000,0,5.3952037e-05,4.9599992e-05,7.177963e-08,0.0,0.0,0.0
1593588000,0,5.3934968e-05,4.974719e-05,7.173638e-08,0.0,0.0,0.0
1593600000,0,5.3808093e-05,4.901697e-05,7.151438e-08,0.0,0.0,0.0
1593608000,0,5.3653977e-05,4.805264e-05,7.12575e-08,0.0,0.0,0.0
1593616000,0,5.388112e-05,5.0497027e-05,7.151886e-08,0.0,0.0,0.0
1593628000,0,5.360707e-05,4.96588e-05,7.1131794e-08,0.0,0.0,0.0
1593640000,0,5.3483192e-05,4.814623e-05,7.097039e-08,0.0,0.0,0.0
1593648000,0,5.3442127e-05,4.8155365e-05,7.082206e-08,0.0,0.0,0.0
1593660000,0,5.3557364e-05,5.064671e-05,7.100124e-08,0.0,0.0,0.0
1593668000,0,5.3262927e-05,4.8996524e-05,7.062898e-08,0.0,0.0,0.0
1593680000,0,5.333266e-05,5.0351027e-05,7.071859e-08,0.0,0.0,0.0
1593688000,0,5.330905e-05,5.0593593e-05,7.0658274e-08,0.0,0.0,0.0
1593700000,0,5.322139e-05,5.0543124e-05,7.0495325e-08,0.0,0.0,0.0
1593708000,0,5.319795e-05,5.0248018e-05,7.041336e-08,0.0,0.0,0.0
1593720000,0,5.2868676e-05,4.8532966e-05,6.993828e-08,0.0,0.0,0.0
1593728000,0,5.2923097e-05,4.9485956e-05,7.004096e-08,0.0,0.0,0.0
1593740000,0,5.2791846e-05,4.6554836e-05,6.966353e-08,0.0,0.0,0.0
1593748000,0,5.3163898e-05,4.967603e-05,7.010613e-08,0.0,0.0,0.0
1593760000,0,5.2974654e-05,4.790596e-05,6.97819e-08,0.0,0.0,0.0
1593768000,0,5.3070467e-05,4.9092316e-05,6.992245e-08,0.0,0.0,0.0
1593780000,0,5.2963554e-05,4.938728e-05,6.9742725e-08,0.0,0.0,0.0
1593788000,0,5.2892978e-05,4.888968e-05,6.9617855e-08,0.0,0.0,0.0
1593800000,0,5.2623458e-05,4.7252484e-05,6.9180935e-08,0.0,0.0,0.0
1593808000,0,5.2714462e-05,4.9012837e-05,6.9339535e-08,0.0,0.0,0.0
1593820000,0,5.2304644e-05,4.671766e-05,6.874433e-08,0.0,0.0,0.0
1593828000,0,5.2510804e-05,4.8626393e-05,6.907242e-08,0.0,0.0,0.0
1593840000,0,5.2383828e-05,4.907622e-05,6.887776e-08,0.0,0.0,0.0
1593848000,0,5.2373674e-05,4.9847386e-05,6.8844415e-08,0.0,0.0,0.0
1593860000,0,5.2360545e-05,5.0124603e-05,6.878912e-08,0.0,0.0,0.0
1593868000,0,5.2328676e-05,5.0055154e-05,6.871515e-08,0.0,0.0,0.0
1593880000,0,5.213103e-05,4.910795e-05,6.839995e-08,0.0,0.0,0.0
1593888000,0,5.1973395e-05,4.9138212e-05,6.8127484e-08,0.0,0.0,0.0
1593900000,0,5.169522e-05,4.627896e-05,6.768587e-08,0.0,0.0,0.0
1593908000,0,5.225808e-05,4.8989248e-05,6.828355e-08,0.0,0.0,0.0
1593920000,0,5.1901774e-05,4.7636888e-05,6.788044e-08,0.0,0.0,0.0
1593928000,0,5.1938867e-05,4.8824226e-05,6.790774e-08,0.0,0.0,0.0
1593940000,0,5.1789033e-05,4.866667e-05,6.767238e-08,0.0,0.0,0.0
1593948000,0,5.1658026e-05,4.7588495e-05,6.746406e-08,0.0,0.0,0.0
1593960000,0,5.1516396e-05,4.7310867e-05,6.7184395e-08,0.0,0.0,0.0
1593968000,0,5.116356e-05,4.7391874e-05,6.683384e-08,0.0,0.0,0.0
1593980000,0,5.1151106e-05,4.768705e-05,6.682608e-08,0.0,0.0,0.0
1593988000,0,5.1295505e-05,4.9063055e-05,6.695e-08,0.0,0.0,0.0
1594000000,0,5.1203053e-05,4.9376402e-05,6.6812255e-08,0.0,0.0,0.0
1594008000,0,5.1177507e-05,4.9360133e-05,6.674898e-08,0.0,0.0,0.0
1594020000,0,5.10164e-05,4.8484217e-05,6.64926e-08,0.0,0.0,0.0
1594028000,0,5.1055573e-05,4.895587e-05,6.641524e-08,0.0,0.0,0.0
1594040000,0,5.0792034e-05,4.5579e-05,6.598523e-08,0.0,0.0,0.0
1594048000,0,5.1008217e-05,4.8571495e-05,6.625328e-08,0.0,0.0,0.0
1594060000,0,5.0835988e-05,4.8111546e-05,6.60593e-08,0.0,0.0,0.0
1594068000,0,5.0741943e-05,4.826043e-05,6.5908935e-08,0.0,0.0,0.0
1594080000,0,5.0481187e-05,4.667745e-05,6.553086e-08,0.0,0.0,0.0
1594088000,0,5.018484e-05,4.4403383e-05,6.506139e-08,0.0,0.0,0.0
1594100000,0,4.9876566e-05,4.4796685e-05,6.470542e-08,0.0,0.0,0.0
1594108000,0,5.0008995e-05,4.7508034e-05,6.496047e-08,0.0,0.0,0.0
1594120000,0,5.0006776e-05,4.8519996e-05,6.489045e-08,0.0,0.0,0.0
1594128000,0,4.9878035e-05,4.854107e-05,6.470552e-08,0.0,0.0,0.0
1594140000,0,4.969165e-05,4.8008675e-05,6.443489e-08,0.0,0.0,0.0
1594148000,0,4.9628794e-05,4.7094472e-05,6.426467e-08,0.0,0.0,0.0
1594160000,0,4.944702e-05,4.526022e-05,6.390994e-08,0.0,0.0,0.0
1594168000,0,4.9533795e-05,4.727083e-05,6.4003565e-08,0.0,0.0,0.0
1594180000,0,4.953905e-05,4.7490757e-05,6.403911e-08,0.0,0.0,0.0
1594188000,0,4.9299586e-05,4.7174104e-05,6.372808e-08,0.0,0.0,0.0
1594200000,0,4.8936665e-05,4.508848e-05,6.317579e-08,0.0,0.0,0.0
1594208000,0,4.8907106e-05,4.6919085e-05,6.310522e-08,0.0,0.0,0.0
1594220000,0,4.854321e-05,4.6428402e-05,6.2788615e-08,0.0,0.0,0.0
1594228000,0,4.8599057e-05,4.753886e-05,6.280232e-08,0.0,0.0,0.0
1594236000,0,4.8585185e-05,4.7748665e-05,6.2761345e-08,0.0,0.0,0.0
1594244000,0,4.851007e-05,4.7653037e-05,6.2638584e-08,0.0,0.0,0.0
1594260000,0,4.8260656e-05,4.67339e-05,6.227951e-08,0.0,0.0,0.0
1594268000,0,4.8362457e-05,4.6217156e-05,6.2237696e-08,0.0,0.0,0.0
1594280000,0,4.8159447e-05,4.619682e-05,6.202379e-08,0.0,0.0,0.0
1594288000,0,4.805088e-05,4.656122e-05,6.1863425e-08,0.0,0.0,0.0
1594300000,0,4.760882e-05,4.489016e-05,6.125239e-08,0.0,0.0,0.0
1594308000,0,4.7192476e-05,4.320372e-05,6.076973e-08,0.0,0.0,0.0
1594320000,0,4.7175425e-05,4.499011e-05,6.0798286e-08,0.0,0.0,0.0
1594328000,0,4.7304125e-05,4.6634836e-05,6.0900675e-08,0.0,0.0,0.0
1594340000,0,4.7091442e-05,4.6846108e-05,6.060889e-08,0.0,0.0,0.0
1594348000,0,4.699161e-05,4.6307567e-05,6.047787e-08,0.0,0.0,0.0
1594360000,0,4.6751695e-05,4.5220175e-05,6.006921e-08,0.0,0.0,0.0
1594368000,0,4.6895082e-05,4.533804e-05,6.015752e-08,0.0,0.0,0.0
1594380000,0,4.655485e-05,4.5627752e-05,5.9763885e-08,0.0,0.0,0.0
1594388000,0,4.6196812e-05,4.4429777e-05,5.931865e-08,0.0,0.0,0.0
1594400000,0,4.5884808e-05,4.2935557e-05,5.893202e-08,0.0,0.0,0.0
1594408000,0,4.6015444e-05,4.5281515e-05,5.9080172e-08,0.0,0.0,0.0
1594420000,0,4.567312e-05,4.548688e-05,5.864764e-08,0.0,0.0,0.0
1594428000,0,4.5566536e-05,4.5851546e-05,5.849067e-08,0.0,0.0,0.0
1594440000,0,4.5244782e-05,4.478162e-05,5.8078932e-08,0.0,0.0,0.0
1594448000,0,4.499344e-05,4.363938e-05,5.774886e-08,0.0,0.0,0.0
1594460000,0,4.490295e-05,4.324672e-05,5.7532578e-08,0.0,0.0,0.0
1594468000,0,4.4899207e-05,4.456764e-05,5.75148e-08,0.0,0.0,0.0
1594480000,0,4.4686443e-05,4.4225344e-05,5.7218756e-08,0.0,0.0,0.0
1594488000,0,4.444801e-05,4.328803e-05,5.6952853e-08,0.0,0.0,0.0
1594500000,0,4.409089e-05,4.3382428e-05,5.6498763e-08,0.0,0.0,0.0
1594508000,0,4.4078075e-05,4.472209e-05,5.648304e-08,0.0,0.0,0.0
1594520000,0,4.3889708e-05,4.4526234e-05,5.619994e-08,0.0,0.0,0.0
1594528000,0,4.370299e-05,4.4125045e-05,5.590791e-08,0.0,0.0,0.0
1594540000,0,4.3483185e-05,4.276813e-05,5.5566492e-08,0.0,0.0,0.0
1594548000,0,4.3267424e-05,4.33368e-05,5.532029e-08,0.0,0.0,0.0
1594560000,0,4.272193e-05,4.2887747e-05,5.4614315e-08,0.0,0.0,0.0
1594568000,0,4.2725627e-05,4.2884905e-05,5.4657384e-08,0.0,0.0,0.0
1594580000,0,4.239027e-05,4.2664415e-05,5.42344e-08,0.0,0.0,0.0
1594588000,0,4.2525877e-05,4.377446e-05,5.4398424e-08,0.0,0.0,0.0
1594600000,0,4.240393e-05,4.3198896e-05,5.4201983e-08,0.0,0.0,0.0
1594608000,0,4.224437e-05,4.2178926e-05,5.395767e-08,0.0,0.0,0.0
1594620000,0,4.2412477e-05,4.2432664e-05,5.4085778e-08,0.0,0.0,0.0
1594628000,0,4.2239928e-05,4.2238877e-05,5.3870245e-08,0.0,0.0,0.0
1594640000,0,4.2357828e-05,4.2970318e-05,5.3963664e-08,0.0,0.0,0.0
1594648000,0,4.231705e-05,4.2438347e-05,5.390482e-08,0.0,0.0,0.0
1594660000,0,4.1921317e-05,4.250787e-05,5.351191e-08,0.0,0.0,0.0
1594668000,0,4.2099273e-05,4.3665827e-05,5.3660976e-08,0.0,0.0,0.0
1594680000,0,4.1888336e-05,4.2913445e-05,5.333759e-08,0.0,0.0,0.0
1594688000,0,4.182262e-05,4.247143e-05,5.3297555e-08,0.0,0.0,0.0
1594700000,0,4.1775813e-05,4.1661955e-05,5.315669e-08,0.0,0.0,0.0
1594708000,0,4.1687097e-05,4.17829e-05,5.3073958e-08,0.0,0.0,0.0
1594720000,0,4.1859912e-05,4.29322e-05,5.3202996e-08,0.0,0.0,0.0
1594728000,0,4.167701e-05,4.3635155e-05,5.2909346e-08,0.0,0.0,0.0
1594740000,0,4.1511455e-05,4.308421e-05,5.277972e-08,0.0,0.0,0.0
1594748000,0,4.15694e-05,4.299304e-05,5.283485e-08,0.0,0.0,0.0
1594760000,0,4.129007e-05,4.1668813e-05,5.2417363e-08,0.0,0.0,0.0
1594768000,0,4.1324278e-05,4.1424883e-05,5.2475773e-08,0.0,0.0,0.0
1594780000,0,4.123626e-05,4.174236e-05,5.2349172e-08,0.0,0.0,0.0
1594788000,0,4.1471667e-05,4.303131e-05,5.2523173e-08,0.0,0.0,0.0
1594800000,0,4.099856e-05,4.1639476e-05,5.2019146e-08,0.0,0.0,0.0
1594808000,0,4.0957704e-05,4.241985e-05,5.1905268e-08,0.0,0.0,0.0
1594820000,0,4.095222e-05,4.2649448e-05,5.192578e-08,0.0,0.0,0.0
1594828000,0,4.0626386e-05,4.169734e-05,5.1615235e-08,0.0,0.0,0.0
1594840000,0,4.0831626e-05,4.073509e-05,5.1732993e-08,0.0,0.0,0.0
1594848000,0,4.081099e-05,4.177434e-05,5.1603003e-08,0.0,0.0,0.0
1594860000,0,4.1034044e-05,4.283989e-05,5.1798885e-08,0.0,0.0,0.0
1594864000,0,4.0930434e-05,4.28915e-05,5.1706724e-08,0.0,0.0,0.0
1594880000,0,4.0573123e-05,4.2741285e-05,5.123193e-08,0.0,0.0,0.0
1594888000,0,4.0400206e-05,4.2160384e-05,5.109249e-08,0.0,0.0,0.0
1594900000,0,4.0074698e-05,4.0744457e-05,5.082221e-08,0.0,0.0,0.0
1594908000,0,4.020793e-05,4.055549e-05,5.0807042e-08,0.0,0.0,0.0
1594920000,0,4.0308078e-05,4.169182e-05,5.0859143e-08,0.0,0.0,0.0
1594928000,0,4.0327053e-05,4.24848e-05,5.0831886e-08,0.0,0.0,0.0
1594940000,0,4.026474e-05,4.2607648e-05,5.074671e-08,0.0,0.0,0.0
1594948000,0,4.000968e-05,4.1094423e-05,5.047074e-08,0.0,0.0,0.0
1594960000,0,4.0019822e-05,4.1764048e-05,5.047395e-08,0.0,0.0,0.0
1594968000,0,3.98952e-05,4.1551153e-05,5.028059e-08,0.0,0.0,0.0
1594980000,0,3.9747843e-05,4.078679e-05,5.0067065e-08,0.0,0.0,0.0
1594988000,0,3.9776383e-05,4.1580774e-05,5.0115073e-08,0.0,0.0,0.0
1595000000,0,4.0107127e-05,4.2552045e-05,5.0383694e-08,0.0,0.0,0.0
1595008000,0,3.9986484e-05,4.276103e-05,5.0245717e-08,0.0,0.0,0.0
1595020000,0,3.9536495e-05,4.111741e-05,4.972884e-08,0.0,0.0,0.0
1595028000,0,3.936843e-05,4.061493e-05,4.9600377e-08,0.0,0.0,0.0
1595040000,0,3.920149e-05,4.0007748e-05,4.9338535e-08,0.0,0.0,0.0
1595048000,0,3.912537e-05,3.9963466e-05,4.928034e-08,0.0,0.0,0.0
1595060000,0,3.938124e-05,4.2024116e-05,4.9436608e-08,0.0,0.0,0.0
1595068000,0,3.9510585e-05,4.2139436e-05,4.9495927e-08,0.0,0.0,0.0
1595080000,0,3.9210543e-05,4.205306e-05,4.918218e-08,0.0,0.0,0.0
1595088000,0,3.8906357e-05,4.054551e-05,4.8855174e-08,0.0,0.0,0.0
1595100000,0,3.8764258e-05,4.0313433e-05,4.8741786e-08,0.0,0.0,0.0
1595108000,0,3.8505976e-05,3.8550814e-05,4.8409824e-08,0.0,0.0,0.0
1595116000,0,3.843179e-05,3.8611877e-05,4.830109e-08,0.0,0.0,0.0
1595124000,0,3.873529e-05,4.1572795e-05,4.8523248e-08,0.0,0.0,0.0
1595140000,0,3.872176e-05,4.176567e-05,4.844586e-08,0.0,0.0,0.0
1595148000,0,3.8749953e-05,4.1927182e-05,4.844153e-08,0.0,0.0,0.0
1595160000,0,3.8324084e-05,4.1021103e-05,4.7978396e-08,0.0,0.0,0.0
1595168000,0,3.796153e-05,3.894089e-05,4.7693362e-08,0.0,0.0,0.0
1595180000,0,3.7864076e-05,3.961882e-05,4.74178e-08,0.0,0.0,0.0
1595188000,0,3.815147e-05,4.1015344e-05,4.7734627e-08,0.0,0.0,0.0
1595200000,0,3.838719e-05,4.1588497e-05,4.78849e-08,0.0,0.0,0.0
1595208000,0,3.8450948e-05,4.194907e-05,4.793968e-08,0.0,0.0,0.0
1595220000,0,3.7932125e-05,4.10988e-05,4.7396192e-08,0.0,0.0,0.0
1595228000,0,3.7672115e-05,4.025658e-05,4.7078288e-08,0.0,0.0,0.0
1595240000,0,3.6973946e-05,3.7745394e-05,4.6425665e-08,0.0,0.0,0.0
1595248000,0,3.7371e-05,3.9003018e-05,4.6771305e-08,0.0,0.0,0.0
1595260000,0,3.763639e-05,4.127303e-05,4.6939203e-08,0.0,0.0,0.0
1595268000,0,3.777049e-05,4.1403182e-05,4.703858e-08,0.0,0.0,0.0
1595280000,0,3.745238e-05,4.116114e-05,4.6662993e-08,0.0,0.0,0.0
1595288000,0,3.732039e-05,4.0530012e-05,4.653884e-08,0.0,0.0,0.0
1595300000,0,3.6792604e-05,3.874585e-05,4.5901707e-08,0.0,0.0,0.0
1595308000,0,3.6765312e-05,3.9110884e-05,4.598449e-08,0.0,0.0,0.0
1595320000,0,3.7036374e-05,4.068343e-05,4.6151353e-08,0.0,0.0,0.0
1595328000,0,3.7113532e-05,4.0974253e-05,4.6151577e-08,0.0,0.0,0.0
1595340000,0,3.6983016e-05,4.1031926e-05,4.5982517e-08,0.0,0.0,0.0
1595348000,0,3.6753663e-05,4.063916e-05,4.5742404e-08,0.0,0.0,0.0
1595360000,0,3.6174326e-05,3.7065805e-05,4.5201467e-08,0.0,0.0,0.0
1595368000,0,3.582311e-05,3.5356497e-05,4.4900943e-08,0.0,0.0,0.0
1595380000,0,3.6412228e-05,3.999318e-05,4.5312554e-08,0.0,0.0,0.0
1595388000,0,3.650683e-05,4.0499257e-05,4.5377877e-08,0.0,0.0,0.0
1595400000,0,3.677327e-05,4.095129e-05,4.5541395e-08,0.0,0.0,0.0
1595408000,0,3.6304384e-05,4.04472e-05,4.5079076e-08,0.0,0.0,0.0
1595420000,0,3.5867397e-05,3.8306694e-05,4.463681e-08,0.0,0.0,0.0
1595428000,0,3.5578127e-05,3.8181093e-05,4.4339327e-08,0.0,0.0,0.0
1595440000,0,3.5809582e-05,3.924151e-05,4.452983e-08,0.0,0.0,0.0
1595448000,0,3.5895933e-05,4.0118743e-05,4.4577376e-08,0.0,0.0,0.0
1595460000,0,3.5941248e-05,4.0545066e-05,4.4508102e-08,0.0,0.0,0.0
1595468000,0,3.5753244e-05,4.024613e-05,4.430427e-08,0.0,0.0,0.0
1595480000,0,3.534369e-05,3.9229064e-05,4.3849294e-08,0.0,0.0,0.0
1595488000,0,3.4747227e-05,3.6936017e-05,4.333577e-08,0.0,0.0,0.0
1595500000,0,3.4945413e-05,3.8095153e-05,4.3458506e-08,0.0,0.0,0.0
1595508000,0,3.5123965e-05,3.960977e-05,4.357102e-08,0.0,0.0,0.0
1595520000,0,3.520235e-05,4.016466e-05,4.3564455e-08,0.0,0.0,0.0
1595528000,0,3.4954755e-05,3.982363e-05,4.3263373e-08,0.0,0.0,0.0
1595540000,0,3.459169e-05,3.900854e-05,4.292854e-08,0.0,0.0,0.0
1595548000,0,3.4327877e-05,3.7647722e-05,4.2707e-08,0.0,0.0,0.0
1595560000,0,3.420504e-05,3.701308e-05,4.253313e-08,0.0,0.0,0.0
1595568000,0,3.4401037e-05,3.9082435e-05,4.2621913e-08,0.0,0.0,0.0
1595580000,0,3.4498018e-05,3.9683582e-05,4.2627654e-08,0.0,0.0,0.0
1595588000,0,3.4308665e-05,3.9461927e-05,4.2428717e-08,0.0,0.0,0.0
1595600000,0,3.3830056e-05,3.78801e-05,4.1972687e-08,0.0,0.0,0.0
1595608000,0,3.3802156e-05,3.808299e-05,4.18793e-08,0.0,0.0,0.0
1595620000,0,3.3515404e-05,3.6583206e-05,4.164855e-08,0.0,0.0,0.0
1595628000,0,3.38215e-05,3.8801187e-05,4.184245e-08,0.0,0.0,0.0
1595640000,0,3.3628203e-05,3.9034483e-05,4.1526345e-08,0.0,0.0,0.0
1595648000,0,3.3472064e-05,3.8507e-05,4.1395268e-08,0.0,0.0,0.0
1595660000,0,3.3314078e-05,3.8169717e-05,4.1223462e-08,0.0,0.0,0.0
1595668000,0,3.317966e-05,3.6849397e-05,4.1138936e-08,0.0,0.0,0.0
1595680000,0,3.303169e-05,3.741303e-05,4.0877506e-08,0.0,0.0,0.0
1595684000,0,3.3060343e-05,3.790507e-05,4.0904293e-08,0.0,0.0,0.0
1595700000,0,3.3019023e-05,3.857859e-05,4.0750542e-08,0.0,0.0,0.0
1595708000,0,3.27529e-05,3.8264145e-05,4.0512738e-08,0.0,0.0,0.0
1595720000,0,3.253906e-05,3.7876787e-05,4.0204608e-08,0.0,0.0,0.0
1595728000,0,3.2294098e-05,3.6559813e-05,4.00178e-08,0.0,0.0,0.0
1595740000,0,3.224551e-05,3.706137e-05,3.9877772e-08,0.0,0.0,0.0
1595748000,0,3.2458956e-05,3.8048347e-05,4.0061504e-08,0.0,0.0,0.0
1595760000,0,3.215857e-05,3.768433e-05,3.9696502e-08,0.0,0.0,0.0
1595768000,0,3.200993e-05,3.7745573e-05,3.9531066e-08,0.0,0.0,0.0
1595780000,0,3.1825017e-05,3.6935227e-05,3.9335553e-08,0.0,0.0,0.0
1595788000,0,3.1812036e-05,3.7226368e-05,3.93282e-08,0.0,0.0,0.0
1595800000,0,3.1585292e-05,3.6347457e-05,3.9081712e-08,0.0,0.0,0.0
1595808000,0,3.17734e-05,3.7901125e-05,3.9161385e-08,0.0,0.0,0.0
1595816000,0,3.148089e-05,3.7187183e-05,3.886116e-08,0.0,0.0,0.0
1595828000,0,3.134964e-05,3.7636044e-05,3.8673598e-08,0.0,0.0,0.0
1595840000,0,3.11468e-05,3.6655063e-05,3.8513246e-08,0.0,0.0,0.0
1595848000,0,3.100882e-05,3.614952e-05,3.8354415e-08,0.0,0.0,0.0
1595860000,0,3.0805983e-05,3.6586047e-05,3.8086682e-08,0.0,0.0,0.0
1595868000,0,3.070155e-05,3.6942303e-05,3.7926892e-08,0.0,0.0,0.0
1595880000,0,3.0588744e-05,3.7309943e-05,3.772796e-08,0.0,0.0,0.0
1595888000,0,3.0515179e-05,3.6990958e-05,3.7613834e-08,0.0,0.0,0.0
1595900000,0,3.036176e-05,3.6943762e-05,3.740936e-08,0.0,0.0,0.0
1595908000,0,3.0309493e-05,3.583786e-05,3.742537e-08,0.0,0.0,0.0
1595920000,0,2.9796067e-05,3.5954727e-05,3.6889002e-08,0.0,0.0,0.0
1595928000,0,2.9814806e-05,3.6772315e-05,3.67982e-08,0.0,0.0,0.0
1595940000,0,2.9561668e-05,3.574854e-05,3.6565346e-08,0.0,0.0,0.0
1595948000,0,2.95935e-05,3.6173675e-05,3.656757e-08,0.0,0.0,0.0
1595960000,0,2.9564264e-05,3.6134876e-05,3.64894e-08,0.0,0.0,0.0
1595968000,0,2.9482739e-05,3.61439e-05,3.6343117e-08,0.0,0.0,0.0
1595980000,0,2.9290963e-05,3.645667e-05,3.6147433e-08,0.0,0.0,0.0
1595988000,0,2.9217776e-05,3.6498514e-05,3.604339e-08,0.0,0.0,0.0
1596000000,0,2.8876046e-05,3.5931727e-05,3.5637015e-08,0.0,0.0,0.0
1596004000,0,2.8699926e-05,3.5167755e-05,3.5480525e-08,0.0,0.0,0.0
1596020000,0,2.8753151e-05,3.5175635e-05,3.54684e-08,0.0,0.0,0.0
1596028000,0,2.8376167e-05,3.4757202e-05,3.5100996e-08,0.0,0.0,0.0
1596040000,0,2.8274597e-05,3.581936e-05,3.489182e-08,0.0,0.0,0.0
1596048000,0,2.7953356e-05,3.5196503e-05,3.4558447e-08,0.0,0.0,0.0
1596060000,0,2.7875396e-05,3.5159937e-05,3.4485875e-08,0.0,0.0,0.0
1596068000,0,2.8119777e-05,3.5027526e-05,3.4660133e-08,0.0,0.0,0.0
1596080000,0,2.7869813e-05,3.547968e-05,3.4321715e-08,0.0,0.0,0.0
1596088000,0,2.7554916e-05,3.530578e-05,3.401966e-08,0.0,0.0,0.0
1596100000,0,2.7412072e-05,3.5052326e-05,3.3863714e-08,0.0,0.0,0.0
1596108000,0,2.7374585e-05,3.4664725e-05,3.3824552e-08,0.0,0.0,0.0
1596120000,0,2.7131638e-05,3.489166e-05,3.3480305e-08,0.0,0.0,0.0
1596128000,0,2.7076003e-05,3.472592e-05,3.3451254e-08,0.0,0.0,0.0
1596140000,0,2.6863569e-05,3.5001543e-05,3.3214587e-08,0.0,0.0,0.0
1596148000,0,2.6801375e-05,3.470149e-05,3.313121e-08,0.0,0.0,0.0
1596160000,0,2.6504722e-05,3.4341338e-05,3.2817653e-08,0.0,0.0,0.0
1596168000,0,2.6494863e-05,3.4255037e-05,3.2705056e-08,0.0,0.0,0.0
1596180000,0,2.6080059e-05,3.4300057e-05,3.2252284e-08,0.0,0.0,0.0
1596188000,0,2.5862062e-05,3.4311648e-05,3.198341e-08,0.0,0.0,0.0
1596200000,0,2.58702e-05,3.4326396e-05,3.2011734e-08,0.0,0.0,0.0
1596208000,0,2.5692507e-05,3.4191893e-05,3.1811457e-08,0.0,0.0,0.0
1596220000,0,2.5695132e-05,3.4085093e-05,3.178581e-08,0.0,0.0,0.0
1596228000,0,2.5560408e-05,3.4226887e-05,3.1597256e-08,0.0,0.0,0.0
1596240000,0,2.5317364e-05,3.457964e-05,3.126769e-08,0.0,0.0,0.0
1596248000,0,2.5170366e-05,3.3918946e-05,3.1172657e-08,0.0,0.0,0.0
1596260000,0,2.4799421e-05,3.3224384e-05,3.0764586e-08,0.0,0.0,0.0
1596268000,0,2.4845613e-05,3.3342167e-05,3.0787064e-08,0.0,0.0,0.0
1596280000,0,2.4728857e-05,3.378369e-05,3.0639715e-08,0.0,0.0,0.0
1596288000,0,2.4436868e-05,3.3378634e-05,3.030396e-08,0.0,0.0,0.0
1596300000,0,2.2887207e-05,3.2843964e-05,2.8555604e-08,0.0,0.0,0.0
1596308000,0,2.2243454e-05,3.1960622e-05,2.7842061e-08,0.0,0.0,0.0
1596320000,0,2.1601287e-05,3.155211e-05,2.6965386e-08,0.0,0.0,0.0
1596328000,0,2.1008776e-05,3.1022122e-05,2.6263322e-08,0.0,0.0,0.0
1596340000,0,1.9909688e-05,2.839115e-05,2.4806285e-08,0.0,0.0,0.0
1596348000,0,1.9800242e-05,2.9231847e-05,2.4567901e-08,0.0,0.0,0.0
1596360000,0,1.9611034e-05,2.8002156e-05,2.438902e-08,0.0,0.0,0.0
1596368000,0,1.9651105e-05,2.828869e-05,2.4328996e-08,0.0,0.0,0.0
1596380000,0,1.962201e-05,2.9141143e-05,2.4248614e-08,0.0,0.0,0.0
1596388000,0,1.942862e-05,2.8871107e-05,2.4001013e-08,0.0,0.0,0.0
1596400000,0,1.9251596e-05,2.8092172e-05,2.3836144e-08,0.0,0.0,0.0
1596408000,0,1.917196e-05,2.7649825e-05,2.3741029e-08,0.0,0.0,0.0
1596420000,0,1.8939163e-05,2.7928076e-05,2.3451639e-08,0.0,0.0,0.0
1596428000,0,1.8856847e-05,2.7765589e-05,2.3325214e-08,0.0,0.0,0.0
1596440000,0,1.8730487e-05,2.733891e-05,2.3118968e-08,0.0,0.0,0.0
1596448000,0,1.8688554e-05,2.6740472e-05,2.302461e-08,0.0,0.0,0.0
1596460000,0,1.8396559e-05,2.6991971e-05,2.2722592e-08,0.0,0.0,0.0
1596468000,0,1.844205e-05,2.7572692e-05,2.2729944e-08,0.0,0.0,0.0
1596480000,0,1.803384e-05,2.5988345e-05,2.2330404e-08,0.0,0.0,0.0
1596484000,0,1.8230021e-05,2.6760648e-05,2.2360314e-08,0.0,0.0,0.0
1596500000,0,1.7947568e-05,2.5916928e-05,2.207256e-08,0.0,0.0,0.0
1596508000,0,1.8007122e-05,2.6264412e-05,2.2110854e-08,0.0,0.0,0.0
1596520000,0,1.7973975e-05,2.7408352e-05,2.2011534e-08,0.0,0.0,0.0
1596528000,0,1.7717844e-05,2.603506e-05,2.1746787e-08,0.0,0.0,0.0
1596540000,0,1.7610195e-05,2.523905e-05,2.1561567e-08,0.0,0.0,0.0
1596548000,0,1.7380673e-05,2.5569725e-05,2.1328496e-08,0.0,0.0,0.0
1596560000,0,1.7215634e-05,2.5640886e-05,2.1152548e-08,0.0,0.0,0.0
1596568000,0,1.722639e-05,2.5683208e-05,2.1063066e-08,0.0,0.0,0.0
1596580000,0,1.6979733e-05,2.4587544e-05,2.0823268e-08,0.0,0.0,0.0
1596588000,0,1.6971788e-05,2.4870293e-05,2.0719614e-08,0.0,0.0,0.0
1596600000,0,1.7081271e-05,2.652842e-05,2.0648129e-08,0.0,0.0,0.0
1596608000,0,1.6854106e-05,2.5706096e-05,2.0434587e-08,0.0,0.0,0.0
1596620000,0,1.6501379e-05,2.4075212e-05,2.0146931e-08,0.0,0.0,0.0
1596628000,0,1.6513899e-05,2.4408499e-05,2.0095612e-08,0.0,0.0,0.0
1596640000,0,1.570135e-05,2.5689329e-05,1.918818e-08,0.0,0.0,0.0
1596648000,0,1.434677e-05,2.6363394e-05,1.779064e-08,0.0,0.0,0.0
1596660000,0,1.2439169e-05,2.3386205e-05,1.5961787e-08,0.0,0.0,0.0
1596668000,0,1.2132153e-05,2.3830844e-05,1.561222e-08,0.0,0.0,0.0
1596680000,0,1.2079941e-05,2.4781393e-05,1.545666e-08,0.0,0.0,0.0
1596688000,0,1.1817512e-05,2.5942118e-05,1.512454e-08,0.0,0.0,0.0
1596700000,0,1.0648786e-05,2.2641065e-05,1.4000087e-08,0.0,0.0,0.0
1596708000,0,1.0218161e-05,2.2846194e-05,1.3587256e-08,0.0,0.0,0.0
1596720000,0,9.820647e-06,2.4174802e-05,1.2991678e-08,0.0,0.0,0.0
1596728000,0,9.561582e-06,2.4158922e-05,1.2684257e-08,0.0,0.0,0.0
1596740000,0,8.52151e-06,2.1924008e-05,1.1755962e-08,0.0,0.0,0.0
1596748000,0,8.509392e-06,2.2075978e-05,1.1765027e-08,0.0,0.0,0.0
1596760000,0,7.7665545e-06,2.2775508e-05,1.08509495e-08,0.0,0.0,0.0
1596768000,0,7.198832e-06,2.2538381e-05,1.0193646e-08,0.0,0.0,0.0
1596780000,0,6.7333085e-06,2.0822574e-05,9.788433e-09,0.0,0.0,0.0
1596788000,0,6.4534875e-06,2.1036622e-05,9.488012e-09,0.0,0.0,0.0
1596800000,0,6.061805e-06,2.3923976e-05,8.798811e-09,0.0,0.0,0.0
1596808000,0,5.3443464e-06,2.1163918e-05,8.22584e-09,0.0,0.0,0.0
1596820000,0,3.396098e-06,1.8192344e-05,5.997201e-09,0.0,0.0,0.0
1596828000,0,4.2290394e-06,1.962518e-05,6.9812187e-09,0.0,0.0,0.0
1596840000,0,2.6616667e-06,2.0147365e-05,5.0265863e-09,0.0,0.0,0.0
1596848000,0,3.6457407e-06,1.925768e-05,5.9242247e-09,0.0,0.0,0.0
1596860000,0,3.0451567e-06,1.6298029e-05,5.042173e-09,0.0,0.0,0.0
1596868000,0,-4.557886e-06,1.0308737e-05,-2.9659697e-09,0.0,0.0,0.0
1596880000,0,-2.464524e-05,-0.0011062762,6.758905e-06,0.0,0.0,0.0
1596888000,0,-1.9695664e-05,-0.0034478037,5.6809854e-06,0.0,0.0,0.0
1596896000,0,-2.3223049e-05,-0.0067604044,6.819996e-06,0.0,0.0,0.0
1596908000,0,-3.195252e-05,-0.013039016,9.187727e-06,0.0,0.0,0.0
1596916000,0,-1.0975621e-05,-0.017794104,6.308935e-05,0.0,0.0,0.0
1596928000,0,4.66122e-05,-0.027236471,0.00073049346,0.0,0.0,0.0
1596940000,0,-0.0008213866,-0.038610544,0.0016299149,0.0,0.0,0.0
1596948000,0,-0.0007020379,-0.047262862,0.0023393575,0.0,0.0,0.0
1596960000,0,-0.0020351573,-0.06066826,0.0032302872,0.0,0.0,0.0
1596968000,0,-0.0051931404,-0.06888442,0.0034878026,0.0,0.0,0.0
1596980000,0,-0.012483068,-0.08021214,0.0034198393,0.0,0.0,0.0
1596988000,0,-0.019295463,-0.08685685,0.0030148954,0.0,0.0,0.0
1597000000,0,-0.030807434,-0.096092716,0.0021185772,0.0,0.0,0.0
1597008000,0,-0.03780344,-0.103734724,0.0016282131,0.0,0.0,0.0
1597020000,0,-0.047363922,-0.11678214,0.0009877583,0.0,0.0,0.0
1597028000,0,-0.055387367,-0.12448323,0.00022151145,0.0,0.0,0.0
1597036000,0,-0.06380455,-0.1315859,-0.0006721023,0.0,0.0,0.0
1597044000,0,-0.072347224,-0.13912396,-0.0016218696,0.0,0.0,0.0
1597060000,0,-0.08847426,-0.1571323,-0.0033730303,0.0,0.0,0.0
1597068000,0,-0.09724164,-0.1658498,-0.00445615,0.0,0.0,0.0
1597080000,0,-0.107307,-0.18101345,-0.0056638503,0.0,0.0,0.0
1597088000,0,-0.113909334,-0.19183803,-0.0064834305,0.0,0.0,0.0
1597100000,0,-0.12822556,-0.2054823,-0.008396913,0.0,0.0,0.0
1597108000,0,-0.13933477,-0.21229608,-0.009630074,0.0,0.0,0.0
1597120000,0,-0.1517672,-0.21970087,-0.009532264,0.0,0.0,0.0
1597128000,0,-0.15886264,-0.22434293,-0.009424675,0.0,0.0,0.0
1597136000,0,-0.16664088,-0.22917987,-0.009276753,0.0,0.0,0.0
1597148000,0,-0.17573625,-0.22997954,-0.009018569,0.0,0.0,0.0
1597160000,0,-0.17283972,-0.22108847,-0.008624415,0.0,0.0,0.0
1597168000,0,-0.16770983,-0.21500967,-0.008473102,0.0,0.0,0.0
1597180000,0,-0.15979756,-0.20705551,-0.008391745,0.0,0.0,0.0
1597188000,0,-0.1516116,-0.19458827,-0.0080905715,0.0,0.0,0.0
1597200000,0,-0.13676646,-0.17282902,-0.0076323077,0.0,0.0,0.0
1597208000,0,-0.13018538,-0.1631792,-0.00711462,0.0,0.0,0.0
1597220000,0,-0.122303665,-0.14897738,-0.00651188,0.0,0.0,0.0
1597228000,0,-0.112998046,-0.13654613,-0.00586995,0.0,0.0,0.0
1597240000,0,-0.0999122,-0.12080577,-0.0052501187,0.0,0.0,0.0
1597248000,0,-0.09208023,-0.112753965,-0.0048436127,0.0,0.0,0.0
1597260000,0,-0.080011204,-0.09797079,-0.004326373,0.0,0.0,0.0
1597268000,0,-0.07108563,-0.08492164,-0.0038901567,0.0,0.0,0.0
1597280000,0,-0.058511898,-0.06774848,-0.0032290325,0.0,0.0,0.0
1597288000,0,-0.052120794,-0.055392113,-0.0027991056,0.0,0.0,0.0
1597300000,0,-0.04359121,-0.036336154,-0.0022425817,0.0,0.0,0.0
1597308000,0,-0.037253805,-0.02445008,-0.0019055066,0.0,0.0,0.0
1597320000,0,-0.026064346,-0.008482812,-0.0014420284,0.0,0.0,0.0
1597324000,0,-0.022256678,-0.0026203238,-0.0013208938,0.0,0.0,0.0
1597340000,0,-0.00741064,0.018304743,-0.0007171289,0.0,0.0,0.0
1597344000,0,-0.0037063768,0.02263488,-0.0005509186,0.0,0.0,0.0
1597356000,0,0.007370882,0.033990826,-8.262467e-06,0.0,0.0,0.0
1597364000,0,0.017611455,0.04132471,0.00029374947,0.0,0.0,0.0
1597380000,0,0.033568207,0.057141047,0.0006533753,0.0,0.0,0.0
1597388000,0,0.039555974,0.06536408,0.00078546314,0.0,0.0,0.0
1597400000,0,0.047786646,0.078246035,0.00092304155,0.0,0.0,0.0
1597408000,0,0.05302072,0.08541362,0.00090360566,0.0,0.0,0.0
1597420000,0,0.058128696,0.09391023,0.00081487506,0.0,0.0,0.0
1597428000,0,0.059764765,0.10033975,0.00080932805,0.0,0.0,0.0
1597440000,0,0.06436473,0.108151175,0.0008950856,0.0,0.0,0.0
1597448000,0,0.070264876,0.112113096,0.0009159206,0.0,0.0,0.0
1597460000,0,0.07619345,0.11581346,0.0010302156,0.0,0.0,0.0
1597464000,0,0.07718451,0.1181862,0.0010959035,0.0,0.0,0.0
1597480000,0,0.08043793,0.12421251,0.0012236553,0.0,0.0,0.0
1597488000,0,0.080947325,0.12720652,0.0011035491,0.0,0.0,0.0
1597500000,0,0.081792854,0.13147886,0.0010559832,0.0,0.0,0.0
1597508000,0,0.08327812,0.13545063,0.0011237261,0.0,0.0,0.0
1597520000,0,0.08884135,0.14135313,0.0011558549,0.0,0.0,0.0
1597528000,0,0.091198795,0.14303873,0.0011317824,0.0,0.0,0.0
1597540000,0,0.09483621,0.14300981,0.0013811538,0.0,0.0,0.0
1597548000,0,0.096543185,0.14197335,0.0015630178,0.0,0.0,0.0
1597560000,0,0.10080233,0.13927016,0.0017950464,0.0,0.0,0.0
1597568000,0,0.09991627,0.13344671,0.0019034205,0.0,0.0,0.0
1597580000,0,0.094219685,0.12892838,0.0021552907,0.0,0.0,0.0
1597588000,0,0.09223781,0.12782964,0.002392848,0.0,0.0,0.0
1597600000,0,0.087971434,0.13017093,0.0025795423,0.0,0.0,0.0
1597608000,0,0.08601252,0.13013986,0.002720063,0.0,0.0,0.0
1597620000,0,0.085595585,0.132364,0.0030121552,0.0,0.0,0.0
1597628000,0,0.08763429,0.13250144,0.0031116793,0.0,0.0,0.0
1597640000,0,0.08982066,0.12901494,0.0029646996,0.0,0.0,0.0
1597648000,0,0.090068035,0.1249667,0.002880806,0.0,0.0,0.0
1597660000,0,0.090038545,0.12006593,0.002720897,0.0,0.0,0.0
1597668000,0,0.09173134,0.116418906,0.002548229,0.0,0.0,0.0
1597680000,0,0.0911545,0.112480775,0.002227043,0.0,0.0,0.0
1597688000,0,0.089506224,0.11335512,0.0021086286,0.0,0.0,0.0
1597696000,0,0.08706515,0.113606006,0.001969626,0.0,0.0,0.0
1597704000,0,0.08651508,0.11238542,0.0018109523,0.0,0.0,0.0
1597720000,0,0.08193103,0.10521833,0.0014930667,0.0,0.0,0.0
1597728000,0,0.07850084,0.10241645,0.0014354229,0.0,0.0,0.0
1597740000,0,0.076241404,0.09846564,0.0013434781,0.0,0.0,0.0
1597748000,0,0.0740638,0.09696824,0.0011624264,0.0,0.0,0.0
1597760000,0,0.06956365,0.09345586,0.0009947157,0.0,0.0,0.0
1597768000,0,0.06640141,0.09230195,0.0009312988,0.0,0.0,0.0
1597780000,0,0.06577635,0.08926369,0.00082102185,0.0,0.0,0.0
1597788000,0,0.06535172,0.085984506,0.0006716247,0.0,0.0,0.0
1597800000,0,0.06419952,0.08435518,0.00050626363,0.0,0.0,0.0
1597804000,0,0.06366761,0.084697515,0.0004498376,0.0,0.0,0.0
1597820000,0,0.06359321,0.08411488,0.00016803876,0.0,0.0,0.0
1597824000,0,0.06305689,0.08291901,5.9693404e-05,0.0,0.0,0.0
1597840000,0,0.058618218,0.07901475,-0.0002919555,0.0,0.0,0.0
1597848000,0,0.057180215,0.07715228,-0.00042788978,0.0,0.0,0.0
1597860000,0,0.056305658,0.07253534,-0.0007392063,0.0,0.0,0.0
1597868000,0,0.054319408,0.06740056,-0.0009609143,0.0,0.0,0.0
1597880000,0,0.05171006,0.06371794,-0.0013064755,0.0,0.0,0.0
1597888000,0,0.051527534,0.06242582,-0.0015459048,0.0,0.0,0.0
1597900000,0,0.051408235,0.059852704,-0.0019957197,0.0,0.0,0.0
1597904000,0,0.05113813,0.05835205,-0.0021276788,0.0,0.0,0.0
1597920000,0,0.047741305,0.055650864,-0.0024755194,0.0,0.0,0.0
1597928000,0,0.044841662,0.05482696,-0.002557201,0.0,0.0,0.0
1597940000,0,0.0411484,0.052880947,-0.002683379,0.0,0.0,0.0
1597948000,0,0.038939636,0.04934157,-0.0027313782,0.0,0.0,0.0
1597960000,0,0.03582834,0.047516085,-0.002838476,0.0,0.0,0.0
1597968000,0,0.033518516,0.046983127,-0.002887506,0.0,0.0,0.0
1597980000,0,0.02924607,0.04441463,-0.0030496027,0.0,0.0,0.0
1597988000,0,0.027792608,0.0425967,-0.0031106086,0.0,0.0,0.0
1598000000,0,0.026436197,0.04109256,-0.003119826,0.0,0.0,0.0
1598008000,0,0.02768251,0.03891647,-0.0030455785,0.0,0.0,0.0
1598020000,0,0.029469516,0.035003625,-0.0029506811,0.0,0.0,0.0
1598028000,0,0.029902339,0.032461148,-0.0028826883,0.0,0.0,0.0
1598040000,0,0.03188396,0.028938366,-0.0027140924,0.0,0.0,0.0
1598048000,0,0.03170161,0.026325604,-0.0025983646,0.0,0.0,0.0
1598060000,0,0.02758582,0.021528622,-0.0023321141,0.0,0.0,0.0
1598068000,0,0.024784273,0.019556029,-0.0021646,0.0,0.0,0.0
1598080000,0,0.02388864,0.022625988,-0.0020241821,0.0,0.0,0.0
1598088000,0,0.026062507,0.0253223,-0.0019382932,0.0,0.0,0.0
1598100000,0,0.02947604,0.028341455,-0.0017703793,0.0,0.0,0.0
1598108000,0,0.030236557,0.03061058,-0.0016397367,0.0,0.0,0.0
1598120000,0,0.030822147,0.031532552,-0.0015246307,0.0,0.0,0.0
1598128000,0,0.029244024,0.031553037,-0.0014920661,0.0,0.0,0.0
1598140000,0,0.024471942,0.029366925,-0.0013888171,0.0,0.0,0.0
1598148000,0,0.021462882,0.028493816,-0.0013131347,0.0,0.0,0.0
1598160000,0,0.019677853,0.027687112,-0.0012375754,0.0,0.0,0.0
1598168000,0,0.01943997,0.026293285,-0.001231879,0.0,0.0,0.0
1598180000,0,0.017575325,0.022784613,-0.0012116259,0.0,0.0,0.0
1598188000,0,0.017083086,0.021567648,-0.0012153282,0.0,0.0,0.0
1598200000,0,0.015612466,0.019884959,-0.0012211284,0.0,0.0,0.0
1598208000,0,0.015356771,0.018077271,-0.0012070513,0.0,0.0,0.0
1598220000,0,0.0150399525,0.014198226,-0.0011877296,0.0,0.0,0.0
1598224000,0,0.014051505,0.012602442,-0.0012067596,0.0,0.0,0.0
1598236000,0,0.01097702,0.0103304135,-0.001219877,0.0,0.0,0.0
1598248000,0,0.007304581,0.011386977,-0.0012375903,0.0,0.0,0.0
1598260000,0,0.003474519,0.0125225475,-0.0011556516,0.0,0.0,0.0
1598268000,0,0.0025660207,0.014898722,-0.0010974283,0.0,0.0,0.0
1598276000,0,0.0024245703,0.017828299,-0.001013475,0.0,0.0,0.0
1598288000,0,0.0018335397,0.016356235,-0.0007589063,0.0,0.0,0.0
1598300000,0,0.002444808,0.014425662,-0.00040489217,0.0,0.0,0.0
1598308000,0,0.0030907993,0.013239073,-0.00016469242,0.0,0.0,0.0
1598320000,0,-0.00014932496,0.013660306,0.00023170098,0.0,0.0,0.0
1598328000,0,-0.0048415717,0.015758159,0.00052674237,0.0,0.0,0.0
1598340000,0,-0.008339183,0.016414367,0.0010144014,0.0,0.0,0.0
1598348000,0,-0.00740744,0.01588209,0.0012850034,0.0,0.0,0.0
1598360000,0,-0.006123111,0.015085338,0.0015208328,0.0,0.0,0.0
1598368000,0,-0.005379014,0.012947201,0.0016168372,0.0,0.0,0.0
1598380000,0,-0.0053672516,0.009148903,0.0016923451,0.0,0.0,0.0
1598388000,0,-0.0060747443,0.0063990476,0.0016895013,0.0,0.0,0.0
1598400000,0,-0.003991412,0.0032821305,0.0015870495,0.0,0.0,0.0
1598408000,0,-0.003093857,0.0035881589,0.0015465879,0.0,0.0,0.0
1598420000,0,-0.0035861286,0.003952289,0.0014534494,0.0,0.0,0.0
1598428000,0,-0.0036567652,0.0042346567,0.0013510501,0.0,0.0,0.0
1598440000,0,-0.0031609104,0.0063222325,0.0011589251,0.0,0.0,0.0
1598448000,0,-0.0026585497,0.0050493227,0.0010021684,0.0,0.0,0.0
1598460000,0,-0.0043706903,0.00243115,0.0007266664,0.0,0.0,0.0
1598468000,0,-0.006072449,0.00043152398,0.0005032232,0.0,0.0,0.0
1598480000,0,-0.008456417,0.0010509233,0.00019221441,0.0,0.0,0.0
1598488000,0,-0.007361248,0.0021577077,-9.653957e-06,0.0,0.0,0.0
1598500000,0,-0.005455982,0.005695744,-0.00027096504,0.0,0.0,0.0
1598508000,0,-0.0035932271,0.008646462,-0.00045024627,0.0,0.0,0.0
1598520000,0,-0.0012580178,0.009144289,-0.00073472766,0.0,0.0,0.0
1598528000,0,0.00064572884,0.0076528047,-0.0008634018,0.0,0.0,0.0
1598540000,0,0.0033784334,0.0049917605,-0.0010219748,0.0,0.0,0.0
1598548000,0,0.004476775,0.0034397074,-0.0011161505,0.0,0.0,0.0
1598560000,0,0.0041992078,0.002538881,-0.0011868959,0.0,0.0,0.0
1598568000,0,0.0028784915,0.0024399576,-0.0011926439,0.0,0.0,0.0
1598580000,0,0.0001710057,0.0031407105,-0.001181716,0.0,0.0,0.0
1598588000,0,-0.0016466147,0.003939983,-0.0011719256,0.0,0.0,0.0
1598600000,0,-0.0019304137,0.002933439,-0.0009944519,0.0,0.0,0.0
1598608000,0,-0.0022567923,0.0018451796,-0.0007601323,0.0,0.0,0.0
1598620000,0,-0.003017556,0.0020045629,-0.00037086374,0.0,0.0,0.0
1598628000,0,-0.0040013455,0.0014294918,-7.350125e-05,0.0,0.0,0.0
1598640000,0,-0.0034513231,-0.0011404684,0.00043217544,0.0,0.0,0.0
1598644000,0,-0.00280287,-0.0020172945,0.000588102,0.0,0.0,0.0
1598660000,0,-0.0012273387,-0.005864483,0.0011272782,0.0,0.0,0.0
1598668000,0,-0.001454196,-0.007899915,0.0013474425,0.0,0.0,0.0
1598680000,0,0.0007528071,-0.009246666,0.0016419694,0.0,0.0,0.0
1598688000,0,-0.0003554214,-0.010135808,0.0018266449,0.0,0.0,0.0
1598700000,0,-0.0029884558,-0.011731923,0.0020445304,0.0,0.0,0.0
1598708000,0,-0.0045773895,-0.012597644,0.0021510764,0.0,0.0,0.0
1598720000,0,-0.008704598,-0.011270474,0.0022519808,0.0,0.0,0.0
1598728000,0,-0.012173995,-0.010191536,0.0022498174,0.0,0.0,0.0
1598740000,0,-0.017623609,-0.008779644,0.0022295883,0.0,0.0,0.0
1598748000,0,-0.019655338,-0.0077569047,0.0022390757,0.0,0.0,0.0
1598760000,0,-0.020092132,-0.0073118224,0.0022935641,0.0,0.0,0.0
1598768000,0,-0.0199077,-0.008424172,0.0023424756,0.0,0.0,0.0
1598780000,0,-0.01779493,-0.01091216,0.0024268217,0.0,0.0,0.0
1598788000,0,-0.016131476,-0.012854344,0.00250209,0.0,0.0,0.0
1598800000,0,-0.012214585,-0.014890117,0.0025514176,0.0,0.0,0.0
1598808000,0,-0.009299208,-0.016171208,0.0025756045,0.0,0.0,0.0
1598820000,0,-0.0067969863,-0.017552145,0.0026389514,0.0,0.0,0.0
1598824000,0,-0.0064090975,-0.018028872,0.0026491436,0.0,0.0,0.0
1598840000,0,-0.0059799845,-0.01715876,0.0027831427,0.0,0.0,0.0
1598848000,0,-0.0070537096,-0.016317694,0.0028032195,0.0,0.0,0.0
1598860000,0,-0.009050779,-0.014852403,0.0028319827,0.0,0.0,0.0
1598868000,0,-0.010106055,-0.013654515,0.0028469807,0.0,0.0,0.0
1598880000,0,-0.011160909,-0.013751557,0.0028796946,0.0,0.0,0.0
1598888000,0,-0.011470698,-0.0132693965,0.002868669,0.0,0.0,0.0
1598900000,0,-0.011118699,-0.013158367,0.0028268208,0.0,0.0,0.0
1598908000,0,-0.011224916,-0.013254482,0.0027427804,0.0,0.0,0.0
1598920000,0,-0.0095277345,-0.012514119,0.0024778836,0.0,0.0,0.0
1598928000,0,-0.0075560426,-0.011343737,0.0022335239,0.0,0.0,0.0
1598940000,0,-0.0055864626,-0.010365415,0.0018608579,0.0,0.0,0.0
1598948000,0,-0.0052423426,-0.009130504,0.0016050525,0.0,0.0,0.0
1598960000,0,-0.0052214693,-0.007817083,0.0011764885,0.0,0.0,0.0
1598968000,0,-0.006407509,-0.0072751977,0.0008897579,0.0,0.0,0.0
1598980000,0,-0.008106586,-0.0068785306,0.00049706077,0.0,0.0,0.0
1598988000,0,-0.007392779,-0.006136726,0.00025918684,0.0,0.0,0.0
1599000000,0,-0.0030521627,-0.0066778655,-3.0785e-05,0.0,0.0,0.0
1599008000,0,-0.0013798983,-0.005364831,-0.00018811095,0.0,0.0,0.0
1599020000,0,-0.0011056069,-0.0037058897,-0.00045136333,0.0,0.0,0.0
1599028000,0,-0.00101879,-0.003173643,-0.0006043664,0.0,0.0,0.0
1599040000,0,-0.002968999,-0.0023987174,-0.000797522,0.0,0.0,0.0
1599048000,0,-0.005164942,-0.00103409,-0.0008889434,0.0,0.0,0.0
1599060000,0,-0.0059092673,-0.00012724026,-0.00095768616,0.0,0.0,0.0
1599068000,0,-0.005915544,-0.0002789712,-0.0009556683,0.0,0.0,0.0
1599080000,0,-0.007565177,-0.0011674037,-0.00085361104,0.0,0.0,0.0
1599088000,0,-0.009683107,-0.0015173128,-0.0007601314,0.0,0.0,0.0
1599100000,0,-0.01082126,-0.0020216415,-0.0006201736,0.0,0.0,0.0
1599108000,0,-0.009118668,-0.0026922682,-0.0005134753,0.0,0.0,0.0
1599120000,0,-0.0052113957,-0.004218889,-0.00048054438,0.0,0.0,0.0
1599128000,0,-0.0019069626,-0.00488874,-0.0005904726,0.0,0.0,0.0
1599140000,0,-0.00041494425,-0.007145863,-0.00083072187,0.0,0.0,0.0
1599148000,0,-0.0004047629,-0.009174108,-0.0009771398,0.0,0.0,0.0
1599160000,0,-0.0013432542,-0.009793222,-0.0011230129,0.0,0.0,0.0
1599168000,0,-0.003300981,-0.00830808,-0.0011579606,0.0,0.0,0.0
1599180000,0,-0.0039430135,-0.007866498,-0.0011352194,0.0,0.0,0.0
1599188000,0,-0.004927309,-0.008339366,-0.0011068704,0.0,0.0,0.0
1599200000,0,-0.0073641427,-0.010325478,-0.0011419042,0.0,0.0,0.0
1599208000,0,-0.008611597,-0.012263518,-0.0011865989,0.0,0.0,0.0
1599220000,0,-0.0106702885,-0.0137463985,-0.0012671087,0.0,0.0,0.0
1599228000,0,-0.011841321,-0.014302157,-0.0013501594,0.0,0.0,0.0
1599240000,0,-0.012095724,-0.013686876,-0.0015499996,0.0,0.0,0.0
1599248000,0,-0.011071117,-0.012609625,-0.0016847965,0.0,0.0,0.0
1599260000,0,-0.009055659,-0.0113501,-0.0018506179,0.0,0.0,0.0
1599268000,0,-0.008189839,-0.011222518,-0.0019057547,0.0,0.0,0.0
1599280000,0,-0.008887176,-0.01059654,-0.001993276,0.0,0.0,0.0
1599288000,0,-0.008690247,-0.009894653,-0.0020561637,0.0,0.0,0.0
1599300000,0,-0.010148419,-0.009286364,-0.0021331322,0.0,0.0,0.0
1599308000,0,-0.011179291,-0.009178882,-0.0021704691,0.0,0.0,0.0
1599320000,0,-0.012803504,-0.00938805,-0.0021983373,0.0,0.0,0.0
1599328000,0,-0.013325802,-0.008867308,-0.0021585196,0.0,0.0,0.0
1599340000,0,-0.01488968,-0.007288211,-0.0020169208,0.0,0.0,0.0
1599348000,0,-0.01487924,-0.008019276,-0.0018823436,0.0,0.0,0.0
1599360000,0,-0.013970487,-0.006084901,-0.0017142607,0.0,0.0,0.0
1599368000,0,-0.015420723,-0.0037481922,-0.001567612,0.0,0.0,0.0
1599380000,0,-0.01729071,-0.0025435705,-0.0013926396,0.0,0.0,0.0
1599388000,0,-0.018205596,-0.002948236,-0.0012826985,0.0,0.0,0.0
1599400000,0,-0.01644297,-0.0056546875,-0.0010758247,0.0,0.0,0.0
1599408000,0,-0.013659204,-0.007158473,-0.000915788,0.0,0.0,0.0
1599420000,0,-0.012069052,-0.010189924,-0.0006915475,0.0,0.0,0.0
1599428000,0,-0.012269333,-0.011256853,-0.000514988,0.0,0.0,0.0
1599440000,0,-0.011437871,-0.010926799,-0.00033320935,0.0,0.0,0.0
1599448000,0,-0.0114426315,-0.009303239,-0.00021191264,0.0,0.0,0.0
1599460000,0,-0.011829799,-0.009893337,-5.3245465e-05,0.0,0.0,0.0
1599468000,0,-0.0125282705,-0.011734539,6.683975e-05,0.0,0.0,0.0
1599480000,0,-0.013852393,-0.01171311,0.0002734676,0.0,0.0,0.0
1599488000,0,-0.014162541,-0.010826197,0.00044311697,0.0,0.0,0.0
1599500000,0,-0.013651104,-0.0122408075,0.00070480065,0.0,0.0,0.0
1599508000,0,-0.013854294,-0.0133049935,0.00086707156,0.0,0.0,0.0
1599520000,0,-0.013455355,-0.014092457,0.0011195766,0.0,0.0,0.0
1599528000,0,-0.012093829,-0.015365947,0.0012904047,0.0,0.0,0.0
1599540000,0,-0.011056991,-0.017797321,0.0015365176,0.0,0.0,0.0
1599548000,0,-0.009881715,-0.01872721,0.0016745693,0.0,0.0,0.0
1599560000,0,-0.0078221345,-0.02036213,0.0019050062,0.0,0.0,0.0
1599568000,0,-0.0060987794,-0.021841487,0.0020648756,0.0,0.0,0.0
1599580000,0,-0.005826922,-0.023952965,0.0022800842,0.0,0.0,0.0
1599588000,0,-0.0064696847,-0.024340332,0.0023532007,0.0,0.0,0.0
1599600000,0,-0.0059064184,-0.024409663,0.0023862044,0.0,0.0,0.0
1599608000,0,-0.0068382523,-0.023590205,0.0024115772,0.0,0.0,0.0
1599620000,0,-0.010071552,-0.023469165,0.0023634145,0.0,0.0,0.0
1599628000,0,-0.012239568,-0.024055831,0.002288426,0.0,0.0,0.0
1599640000,0,-0.014684422,-0.024233943,0.0021472564,0.0,0.0,0.0
1599648000,0,-0.015774174,-0.023602767,0.0020533027,0.0,0.0,0.0
1599660000,0,-0.01658411,-0.023678256,0.0018917822,0.0,0.0,0.0
1599668000,0,-0.016197782,-0.02331155,0.0018196221,0.0,0.0,0.0
1599680000,0,-0.015122613,-0.023035018,0.0018036581,0.0,0.0,0.0
1599688000,0,-0.014016428,-0.022237647,0.0017828728,0.0,0.0,0.0
1599700000,0,-0.012329553,-0.020696051,0.0017721188,0.0,0.0,0.0
1599708000,0,-0.010959011,-0.01990658,0.0018146337,0.0,0.0,0.0
1599720000,0,-0.0068888734,-0.019608486,0.0019699256,0.0,0.0,0.0
1599728000,0,-0.005008252,-0.01897718,0.0021108338,0.0,0.0,0.0
1599740000,0,-0.0039536343,-0.018414078,0.0024197898,0.0,0.0,0.0
1599748000,0,-0.0033860079,-0.018945066,0.0026956417,0.0,0.0,0.0
1599756000,0,-0.002518585,-0.019822208,0.0029676314,0.0,0.0,0.0
1599768000,0,-0.002243674,-0.022853993,0.0032922542,0.0,0.0,0.0
1599780000,0,-0.003578511,-0.025607415,0.0035042476,0.0,0.0,0.0
1599788000,0,-0.004829091,-0.027531147,0.0036541629,0.0,0.0,0.0
1599800000,0,-0.0066711493,-0.030670501,0.0038429871,0.0,0.0,0.0
1599808000,0,-0.008539185,-0.03047489,0.0039379513,0.0,0.0,0.0
1599820000,0,-0.008890319,-0.028207436,0.0040059695,0.0,0.0,0.0
1599828000,0,-0.008729485,-0.027857032,0.004084088,0.0,0.0,0.0
1599840000,0,-0.007643101,-0.027332284,0.0041285427,0.0,0.0,0.0
1599848000,0,-0.007846974,-0.027184714,0.0040759337,0.0,0.0,0.0
1599860000,0,-0.010224556,-0.027766218,0.003944253,0.0,0.0,0.0
1599868000,0,-0.011637378,-0.027627517,0.0038891109,0.0,0.0,0.0
1599880000,0,-0.013439361,-0.026068034,0.0037858272,0.0,0.0,0.0
1599888000,0,-0.01353146,-0.02584715,0.0036954328,0.0,0.0,0.0
1599900000,0,-0.012510651,-0.024826612,0.0035488675,0.0,0.0,0.0
1599908000,0,-0.011786744,-0.024936792,0.0034370532,0.0,0.0,0.0
1599920000,0,-0.011118322,-0.025229529,0.0032645043,0.0,0.0,0.0
1599928000,0,-0.010805871,-0.023860956,0.0031193544,0.0,0.0,0.0
1599940000,0,-0.010650527,-0.021473648,0.002858015,0.0,0.0,0.0
1599948000,0,-0.010939525,-0.02025532,0.0026605849,0.0,0.0,0.0
1599960000,0,-0.00975105,-0.018026229,0.0023524915,0.0,0.0,0.0
1599968000,0,-0.008059433,-0.016499987,0.0021089101,0.0,0.0,0.0
1599980000,0,-0.0074883704,-0.013509495,0.0018088557,0.0,0.0,0.0
1599988000,0,-0.008213991,-0.011694096,0.0016219429,0.0,0.0,0.0
1600000000,0,-0.007743902,-0.010311747,0.0013865067,0.0,0.0,0.0
1600008000,0,-0.007991836,-0.01104964,0.0011664265,0.0,0.0,0.0
1600020000,0,-0.009536052,-0.012953451,0.00086602534,0.0,0.0,0.0
1600028000,0,-0.009535508,-0.013222087,0.00063833717,0.0,0.0,0.0
1600040000,0,-0.007759666,-0.014192694,0.00029285342,0.0,0.0,0.0
1600048000,0,-0.007501289,-0.014067242,0.00012710736,0.0,0.0,0.0
1600060000,0,-0.0075958567,-0.0141169,-0.00011623402,0.0,0.0,0.0
1600068000,0,-0.007752272,-0.0150049245,-0.0002792084,0.0,0.0,0.0
1600080000,0,-0.006846502,-0.014987663,-0.00046619916,0.0,0.0,0.0
1600088000,0,-0.0061600106,-0.014977464,-0.00056823087,0.0,0.0,0.0
1600100000,0,-0.00472764,-0.01369375,-0.00068933686,0.0,0.0,0.0
1600108000,0,-0.0046700584,-0.013601359,-0.0007341889,0.0,0.0,0.0
1600120000,0,-0.006307884,-0.0130268,-0.00074827624,0.0,0.0,0.0
1600128000,0,-0.007152569,-0.011305041,-0.00074914296,0.0,0.0,0.0
1600140000,0,-0.007806265,-0.0077017667,-0.00068569975,0.0,0.0,0.0
1600148000,0,-0.0077564726,-0.0059212544,-0.00059023587,0.0,0.0,0.0
1600160000,0,-0.006406288,-0.0064096632,-0.0003408321,0.0,0.0,0.0
1600168000,0,-0.0073336875,-0.0076769367,-0.0001498064,0.0,0.0,0.0
1600180000,0,-0.0089197485,-0.00961587,0.00017954399,0.0,0.0,0.0
1600188000,0,-0.009367217,-0.0107463775,0.00042725864,0.0,0.0,0.0
1600200000,0,-0.010833977,-0.01327191,0.00087797974,0.0,0.0,0.0
1600208000,0,-0.011398852,-0.0141105475,0.0011332077,0.0,0.0,0.0
1600220000,0,-0.010910414,-0.0138717415,0.0014653092,0.0,0.0,0.0
1600228000,0,-0.0099567445,-0.014010225,0.0016753005,0.0,0.0,0.0
1600240000,0,-0.0077092773,-0.0117765125,0.001943004,0.0,0.0,0.0
1600248000,0,-0.0075022904,-0.00932971,0.0020550878,0.0,0.0,0.0
1600260000,0,-0.008346587,-0.008474437,0.0022028147,0.0,0.0,0.0
1600268000,0,-0.008907605,-0.007871587,0.0023225318,0.0,0.0,0.0
1600280000,0,-0.009283534,-0.008587619,0.0025125602,0.0,0.0,0.0
1600288000,0,-0.009334208,-0.008923005,0.0026708576,0.0,0.0,0.0
1600300000,0,-0.00879727,-0.009273711,0.0029128143,0.0,0.0,0.0
1600308000,0,-0.009235309,-0.00920719,0.0030870417,0.0,0.0,0.0
1600320000,0,-0.009057299,-0.011088605,0.0033845578,0.0,0.0,0.0
1600328000,0,-0.008901197,-0.013248793,0.0035662856,0.0,0.0,0.0
1600340000,0,-0.00802966,-0.013028323,0.003794438,0.0,0.0,0.0
1600348000,0,-0.0076681664,-0.012444584,0.003939341,0.0,0.0,0.0
1600360000,0,-0.0066472027,-0.013280961,0.004111627,0.0,0.0,0.0
1600368000,0,-0.0061367573,-0.012453082,0.0042280266,0.0,0.0,0.0
1600380000,0,-0.0067084143,-0.009947266,0.0044227997,0.0,0.0,0.0
1600388000,0,-0.0088229915,-0.008042683,0.0045638266,0.0,0.0,0.0
1600400000,0,-0.011998066,-0.008346788,0.0046708775,0.0,0.0,0.0
1600408000,0,-0.010754385,-0.010184936,0.0047389623,0.0,0.0,0.0
1600420000,0,-0.007936177,-0.010443656,0.004697749,0.0,0.0,0.0
1600428000,0,-0.0075772284,-0.010346572,0.004667523,0.0,0.0,0.0
1600440000,0,-0.0055340864,-0.0107279755,0.004563892,0.0,0.0,0.0
1600448000,0,-0.0047060773,-0.011338299,0.004446957,0.0,0.0,0.0
1600460000,0,-0.0031182414,-0.012367374,0.0042444766,0.0,0.0,0.0
1600468000,0,-0.0023520503,-0.01283631,0.0041087894,0.0,0.0,0.0
1600480000,0,-0.004365107,-0.011497568,0.0039361687,0.0,0.0,0.0
1600488000,0,-0.0063210763,-0.010290082,0.0038122497,0.0,0.0,0.0
1600500000,0,-0.008098849,-0.0076414486,0.003584168,0.0,0.0,0.0
1600508000,0,-0.009318599,-0.0056686704,0.0034287714,0.0,0.0,0.0
1600520000,0,-0.010513898,-0.0018709477,0.003178679,0.0,0.0,0.0
1600528000,0,-0.010563497,0.0014862409,0.0030116143,0.0,0.0,0.0
1600540000,0,-0.011574707,0.004654811,0.0027596126,0.0,0.0,0.0
1600548000,0,-0.012109408,0.0051844735,0.0026255364,0.0,0.0,0.0
1600560000,0,-0.011661318,0.0052534854,0.0024439425,0.0,0.0,0.0
1600568000,0,-0.01249991,0.0067859753,0.00236095,0.0,0.0,0.0
1600580000,0,-0.010891752,0.010322949,0.0022207508,0.0,0.0,0.0
1600588000,0,-0.0088696135,0.011696494,0.0021552686,0.0,0.0,0.0
1600600000,0,-0.0066561713,0.012380767,0.002087592,0.0,0.0,0.0
1600608000,0,-0.0055447365,0.013309042,0.0020397657,0.0,0.0,0.0
1600620000,0,-0.003353176,0.013221398,0.0020029054,0.0,0.0,0.0
1600628000,0,-0.0018135499,0.0127259325,0.00198024,0.0,0.0,0.0
1600640000,0,-0.00039899425,0.0127813555,0.0019375086,0.0,0.0,0.0
1600648000,0,-0.00046495904,0.013007795,0.0018789407,0.0,0.0,0.0
1600660000,0,0.0006783575,0.012685187,0.0018164605,0.0,0.0,0.0
1600668000,0,0.0008936427,0.011663073,0.0017871184,0.0,0.0,0.0
1600680000,0,0.0013923141,0.01077744,0.0017594734,0.0,0.0,0.0
1600688000,0,0.000930547,0.010844561,0.0016933294,0.0,0.0,0.0
1600700000,0,-0.0008897964,0.01003825,0.0015691164,0.0,0.0,0.0
1600708000,0,-0.0025380324,0.0076330868,0.0014680102,0.0,0.0,0.0
1600720000,0,-0.0032325448,0.003269816,0.0013284094,0.0,0.0,0.0
1600728000,0,-0.004206687,0.0013787244,0.0012021279,0.0,0.0,0.0
1600740000,0,-0.006816555,0.00017538684,0.0009947161,0.0,0.0,0.0
1600748000,0,-0.008241408,-0.00012911764,0.0008720544,0.0,0.0,0.0
1600760000,0,-0.011697404,-0.001496417,0.0007191644,0.0,0.0,0.0
1600768000,0,-0.013433481,-0.0033735458,0.0006225897,0.0,0.0,0.0
1600780000,0,-0.013330149,-0.004014851,0.00050648913,0.0,0.0,0.0
1600788000,0,-0.013257662,-0.004102965,0.00046072982,0.0,0.0,0.0
1600800000,0,-0.011196786,-0.0035505097,0.00045812817,0.0,0.0,0.0
1600808000,0,-0.009819817,-0.0028989825,0.00047665602,0.0,0.0,0.0
1600820000,0,-0.00977539,-0.003260819,0.0005126602,0.0,0.0,0.0
1600828000,0,-0.009772529,-0.0036451416,0.0005211615,0.0,0.0,0.0
1600840000,0,-0.0100815995,-0.0040074345,0.00048389437,0.0,0.0,0.0
1600848000,0,-0.009794075,-0.0038805339,0.00042178112,0.0,0.0,0.0
1600860000,0,-0.0097232,-0.004595227,0.000256002,0.0,0.0,0.0
1600868000,0,-0.00995652,-0.004699881,0.00011823672,0.0,0.0,0.0
1600880000,0,-0.009610648,7.90457e-05,-0.00015663136,0.0,0.0,0.0
1600888000,0,-0.00974464,0.0015227237,-0.00036702337,0.0,0.0,0.0
1600900000,0,-0.0107279075,0.0014057793,-0.0006522822,0.0,0.0,0.0
1600908000,0,-0.0085705975,0.0017833356,-0.0008289187,0.0,0.0,0.0
1600920000,0,-0.006521947,0.0032406647,-0.0010241158,0.0,0.0,0.0
1600924000,0,-0.0056840573,0.0034097247,-0.0010621338,0.0,0.0,0.0
1600940000,0,-0.006005579,0.0030522556,-0.0011426718,0.0,0.0,0.0
1600948000,0,-0.0062683388,0.003203067,-0.0011712563,0.0,0.0,0.0
1600960000,0,-0.007813999,0.0034589225,-0.0012689087,0.0,0.0,0.0
1600968000,0,-0.010533519,0.004270249,-0.0013497536,0.0,0.0,0.0
1600980000,0,-0.016454741,0.0046992437,-0.0014588218,0.0,0.0,0.0
1600988000,0,-0.017625993,0.0037421775,-0.0014764743,0.0,0.0,0.0
1601000000,0,-0.01725857,0.0030796325,-0.0014516462,0.0,0.0,0.0
1601008000,0,-0.01569844,0.002538416,-0.0013733432,0.0,0.0,0.0
1601020000,0,-0.014585162,-1.6502811e-06,-0.0012656021,0.0,0.0,0.0
1601028000,0,-0.014939259,-0.0012286324,-0.0011520563,0.0,0.0,0.0
1601040000,0,-0.013225384,-0.0026521424,-0.00085902226,0.0,0.0,0.0
1601048000,0,-0.012812156,-0.0020882187,-0.0006365883,0.0,0.0,0.0
1601060000,0,-0.010716716,0.00036530633,-0.00032709143,0.0,0.0,0.0
1601068000,0,-0.008813675,0.0030148795,-0.000119625875,0.0,0.0,0.0
1601080000,0,-0.0044663795,0.0065525486,0.00014354616,0.0,0.0,0.0
1601088000,0,-0.002041361,0.005962222,0.0003085165,0.0,0.0,0.0
1601100000,0,0.0011576826,0.0021725127,0.00052597414,0.0,0.0,0.0
1601108000,0,0.0018797385,-0.001947138,0.0006521195,0.0,0.0,0.0
1601120000,0,0.00043581182,-0.005333384,0.0009276258,0.0,0.0,0.0
1601128000,0,-0.0004837155,-0.006488891,0.0010420636,0.0,0.0,0.0
1601140000,0,0.00011420664,-0.005840348,0.0011469512,0.0,0.0,0.0
1601148000,0,0.0011401061,-0.0042516585,0.0011624297,0.0,0.0,0.0
1601160000,0,0.00087177794,-0.0023314862,0.001187679,0.0,0.0,0.0
1601168000,0,0.0010806253,-0.0012992658,0.0012539872,0.0,0.0,0.0
1601180000,0,-0.00032724917,-9.104557e-05,0.0013827992,0.0,0.0,0.0
1601188000,0,-0.0015155848,0.00029144407,0.0014669872,0.0,0.0,0.0
1601200000,0,-0.003020174,-0.0034044725,0.001620114,0.0,0.0,0.0
1601208000,0,-0.0028105602,-0.0058593885,0.0017328195,0.0,0.0,0.0
1601220000,0,0.0023110139,-0.008408478,0.0018213454,0.0,0.0,0.0
1601228000,0,0.0053249546,-0.009555199,0.0018507228,0.0,0.0,0.0
1601240000,0,0.006393841,-0.009114482,0.002021528,0.0,0.0,0.0
1601248000,0,0.0066232854,-0.0077372394,0.0021412969,0.0,0.0,0.0
1601260000,0,0.007806122,-0.006323057,0.0023264424,0.0,0.0,0.0
1601268000,0,0.0076829176,-0.006114817,0.0023961556,0.0,0.0,0.0
1601280000,0,0.0045732935,-0.0076010665,0.0024519053,0.0,0.0,0.0
1601288000,0,0.0024323764,-0.0078106215,0.0025069206,0.0,0.0,0.0
1601300000,0,-0.00020678737,-0.007921985,0.002561273,0.0,0.0,0.0
1601308000,0,-0.0008207166,-0.00802639,0.002570576,0.0,0.0,0.0
1601320000,0,-0.0003079045,-0.0076060817,0.0025449318,0.0,0.0,0.0
1601328000,0,0.0007476408,-0.0073412107,0.0025000803,0.0,0.0,0.0
1601340000,0,0.0019031427,-0.006008542,0.0023970546,0.0,0.0,0.0
1601348000,0,0.0012622871,-0.0058930083,0.002321768,0.0,0.0,0.0
1601360000,0,0.00035784813,-0.004569305,0.0021317832,0.0,0.0,0.0
1601368000,0,0.001983863,-0.0029374077,0.0019684345,0.0,0.0,0.0
1601380000,0,0.005567858,-0.002706149,0.0018042756,0.0,0.0,0.0
1601388000,0,0.007080861,-0.003498995,0.0017297586,0.0,0.0,0.0
1601400000,0,0.0077966657,-0.004128968,0.0016108202,0.0,0.0,0.0
1601408000,0,0.008395672,-0.004830214,0.0014901976,0.0,0.0,0.0
1601420000,0,0.009764739,-0.0053359237,0.0012033109,0.0,0.0,0.0
1601428000,0,0.009412468,-0.0045242673,0.0009944895,0.0,0.0,0.0
1601440000,0,0.007890419,-0.0035667154,0.00062310504,0.0,0.0,0.0
1601448000,0,0.007756908,-0.0030851753,0.00037801353,0.0,0.0,0.0
1601460000,0,0.0064112535,-0.0033967267,-2.9174736e-05,0.0,0.0,0.0
1601468000,0,0.0047859456,-0.0038219874,-0.0003164801,0.0,0.0,0.0
1601480000,0,0.0021404899,-0.0038016567,-0.0007600415,0.0,0.0,0.0
