timestamp,timestamp_sample,time_last_fuse,device_id,observation[0],observation[1],observation[2],observation_variance[0],observation_variance[1],observation_variance[2],innovation[0],innovation[1],innovation[2],innovation_filtered[0],innovation_filtered[1],innovation_filtered[2],innovation_variance[0],innovation_variance[1],innovation_variance[2],test_ratio[0],test_ratio[1],test_ratio[2],test_ratio_filtered[0],test_ratio_filtered[1],test_ratio_filtered[2],estimator_instance,innovation_rejected,fused
1591996000,1591834000,1591840000,0,0.0,-0.01,0.02,0.09,0.09,0.20250002,-0.043039676,0.022485426,-0.034806374,-0.03040208,0.017350012,-0.019861871,0.104766406,0.10495723,0.20775364,0.0007072548,0.00019268587,0.00023325392,-0.0004427362,0.00012886741,-0.00012268122,0,0,1
1592396000,1592238000,1592240000,0,0.0,0.0,0.03,0.09,0.09,0.20250002,-0.04760374,0.0007366432,-0.040459253,-0.038089547,0.009925454,-0.029066894,0.10492761,0.10512415,0.20776875,0.000863878,2.0647708e-07,0.00031514867,-0.00063094555,7.13685e-05,-0.00020869543,0,0,1
1592796000,1592634000,1592640000,0,0.0,0.0,0.01,0.09,0.09,0.20250002,-0.05399466,-0.0012263892,-0.021092074,-0.04511904,0.004996738,-0.025542308,0.10506224,0.10526024,0.2077788,0.0011099795,5.7154745e-07,8.564408e-05,-0.0008426614,3.957357e-05,-0.00015431113,0,0,1
1593196000,1593038000,1593040000,0,0.0,0.01,0.01,0.09,0.09,0.20250002,-0.0509262,-0.018336467,-0.013422275,-0.047714274,-0.0054309326,-0.020125832,0.10514976,0.10534709,0.20780297,0.0009865843,0.0001276641,3.4678516e-05,-0.00090698095,-3.5165387e-05,-0.000100847,0,0,1
1593596000,1593438000,1593440000,0,-0.01,0.0,0.0,0.09,0.09,0.20250002,-0.04342191,-0.011213236,-0.0004755929,-0.045806557,-0.008000845,-0.011392392,0.10521475,0.10541347,0.20779122,0.0007168053,4.77118e-05,4.354151e-08,-0.0008224584,-4.0741572e-05,-5.6045457e-05,0,0,1
1593996000,1593838000,1593840000,0,0.0,-0.01,0.0,0.09,0.09,0.20250002,-0.05064045,-0.008706085,0.0031363769,-0.047954954,-0.008314285,-0.004935161,0.10526089,0.10545643,0.20781271,0.0009745139,2.8749664e-05,1.8934087e-06,-0.0008900386,-3.5411835e-05,-3.0294848e-05,0,0,1
1594396000,1594238000,1594240000,0,0.02,0.01,0.0,0.09,0.09,0.20250002,-0.068754986,-0.03283511,-0.0017250851,-0.057199415,-0.019212432,-0.0035084607,0.10530545,0.10549618,0.20781612,0.0017956328,0.00040878996,5.727984e-07,-0.001292525,-0.00020135769,-1.7085047e-05,0,0,1
1594796000,1594634000,1594640000,0,-0.01,0.0,0.0,0.09,0.09,0.20250002,-0.040794916,-0.019861426,-0.005349219,-0.049949214,-0.019499265,-0.00432201,0.10532889,0.105522394,0.20781739,0.000632011,0.00014953272,5.507555e-06,-0.0010006013,-0.0001784529,-1.196821e-05,0,0,1
1595196000,1595034000,1595040000,0,0.0,0.0,-0.01,0.09,0.09,0.20250002,-0.05433236,-0.025855174,0.0026698015,-0.05189728,-0.022324113,-0.001214538,0.10534877,0.10553993,0.20781878,0.0011208504,0.00025336002,1.3719338e-06,-0.0010540454,-0.00021174495,-6.0392567e-06,0,0,1
1595596000,1595438000,1595440000,0,0.0,-0.02,0.01,0.09,0.09,0.20250002,-0.05016056,-0.012265712,-0.017097795,-0.051121134,-0.017828988,-0.008312807,0.105376095,0.10555676,0.20781806,0.0009550864,5.7011104e-05,5.626741e-05,-0.0010098204,-0.00014259398,-2.8486353e-05,0,0,1
1595996000,1595838000,1595840000,0,0.0,0.0,0.01,0.09,0.09,0.20250002,-0.04952831,-0.045618642,-0.0129917655,-0.05041321,-0.030179948,-0.010392345,0.10539487,0.10556588,0.20781663,0.0009309954,0.0007885353,3.248748e-05,-0.00097478705,-0.00042967903,-3.0264633e-05,0,0,1
1596396000,1596234000,1596240000,0,0.0,0.0,-0.01,0.09,0.09,0.20250002,-0.03638247,-0.050644673,0.00735523,-0.044212125,-0.039224625,-0.0025485512,0.105416,0.10558025,0.20781448,0.00050227065,0.00097172835,1.04130195e-05,-0.0007659517,-0.00066924543,-1.2286564e-05,0,0,1
1596796000,1596634000,1596640000,0,0.0,0.02,0.0,0.09,0.09,0.20250002,-0.035312306,-0.07760027,-0.007028036,-0.04025665,-0.056280468,-0.0045394334,0.10545422,0.10560402,0.20783,0.00047298588,0.0022808986,9.506479e-06,-0.00063574465,-0.0013855358,-1.1050971e-05,0,0,1
1597196000,1597038000,1597040000,0,0.02,0.0,0.0,0.09,0.09,0.20250002,-0.051240005,-0.053086463,-0.047888525,-0.04516514,-0.05485306,-0.023912257,0.10550439,0.10565062,0.2078267,0.0009954232,0.0010669782,0.00044138904,-0.0007964859,-0.0012431715,-0.00020337019,0,0,1
1597596000,1597434000,1597440000,0,0.08,0.099999994,-0.22,0.09,0.09,0.20250002,-0.02295681,-0.00464464,-0.11827716,-0.035349853,-0.032662734,-0.06561817,0.105772,0.10595509,0.20782292,0.00019930235,8.144085e-06,0.0026925784,-0.00053255213,-0.00069733354,-0.0013035113,0,0,1
1597996000,1597834000,1597840000,0,0.13,0.22,-0.61,0.09,0.09,0.20250002,-0.021578066,-0.07313216,-0.06688881,-0.029229058,-0.050649144,-0.0661829,0.10608864,0.10627341,0.20782036,0.0001755562,0.0020130386,0.00086115004,-0.00037388725,-0.0012820914,-0.0011069063,0,0,1
1598396000,1598238000,1598240000,0,0.11,0.16,-0.7,0.09,0.09,0.20250002,-0.062066667,-0.08073234,-0.06604111,-0.04390427,-0.0640934,-0.06611953,0.105979525,0.10614124,0.20781791,0.001453968,0.0024562406,0.00083947106,-0.0008565782,-0.0018068217,-0.0009873888,0,0,1
1598796000,1598638000,1598640000,0,0.02,0.08,-0.76,0.09,0.09,0.20250002,-0.039712004,-0.08236081,-0.03073728,-0.04204104,-0.07221225,-0.050394084,0.10595198,0.10604082,0.20781563,0.00059538044,0.0025587517,0.00018184974,-0.0007404903,-0.0021410128,-0.0006293714,0,0,1
1599196000,1599038000,1599040000,0,-0.03,0.0,-0.82,0.09,0.09,0.20250002,-0.03204041,-0.072234675,0.01973778,-0.037596315,-0.07222222,-0.019224362,0.10601354,0.105999626,0.20781419,0.0003873422,0.0019690064,7.4986216e-05,-0.0005835356,-0.0020645654,-0.00031632354,0,0,1
1599596000,1599438000,1599440000,0,-0.04,-0.08,-0.82,0.09,0.09,0.20250002,-0.05091039,-0.0372165,0.040663064,-0.04351368,-0.05666412,0.0073922724,0.10602285,0.105941385,0.20781365,0.0009778525,0.0005229563,0.000318263,-0.00075878756,-0.0013794057,-3.428504e-05,0,0,1
1599996000,1599838000,1599840000,0,-0.07,-0.089999996,-0.78999996,0.09,0.09,0.20250002,-0.022149816,-0.066193886,0.05503881,-0.03401863,-0.06089957,0.028568514,0.10600512,0.105876744,0.20781416,0.00018512855,0.0016553703,0.000583073,-0.00050382793,-0.0015020567,0.00024009633,0,0,1
1600396000,1600238000,1600240000,0,-0.06,-0.08,-0.69,0.09,0.09,0.20250002,-0.02879123,-0.06710622,0.02971971,-0.03169534,-0.06365808,0.029080156,0.1059269,0.10582085,0.20781398,0.0003130215,0.0017022145,0.00017000997,-0.00041902508,-0.0015910157,0.00020894683,0,0,1
1600796000,1600638000,1600640000,0,-0.06,-0.06,-0.59999996,0.09,0.09,0.20250002,-0.0174076,-0.05708422,0.019549072,-0.025345232,-0.060736366,0.024844117,0.105853975,0.1057879,0.20781241,0.00011450663,0.0012321288,7.3559844e-05,-0.00028368353,-0.0014315104,0.00014877484,0,0,1
1601196000,1601038000,1601040000,0,-0.04,-0.06,-0.29,0.09,0.09,0.20250002,-0.023853593,-0.03754067,0.09267938,-0.024682282,-0.05042717,0.054993127,0.10562354,0.105572484,0.20781048,0.00021547994,0.0005339656,0.0016533273,-0.00025337082,-0.0010326016,0.00081746484,0,0,1
1601596000,1601434000,1601440000,0,-0.03,-0.03,-0.22999999,0.09,0.09,0.20250002,-0.0062920954,-0.059909,-0.007978588,-0.016554477,-0.0546178,0.02716188,0.10573281,0.1057343,0.20782633,1.4977551e-05,0.0013577763,1.2252128e-05,-0.00014800951,-0.0011763172,0.00045075957,0,0,1
1601996000,1601838000,1601840000,0,0.0,0.0,-0.21,0.09,0.09,0.20250002,-0.028024338,-0.0612055,0.0055514723,-0.021680389,-0.05756186,0.017504131,0.105808094,0.105789095,0.20782433,0.00029690113,0.0014164458,5.9317113e-06,-0.00021454957,-0.0012836313,0.00025196484,0,0,1
1602396000,1602238000,1602240000,0,0.04,0.02,-0.14,0.09,0.09,0.20250002,-0.047089092,-0.06278151,-0.023470253,-0.032973148,-0.059881706,-0.00070670806,0.1058618,0.105866045,0.20782225,0.00083784055,0.0014892474,0.00010602383,-0.0004915678,-0.0013750163,9.2858754e-05,0,0,1
1602796000,1602638000,1602640000,0,0.04,0.02,-0.19,0.09,0.09,0.20250002,-0.049081977,-0.054610956,0.051565796,-0.040132627,-0.05753915,0.02252552,0.10589864,0.10585371,0.20781958,0.000909942,0.001126973,0.00051179616,-0.0006775119,-0.0012647748,0.00027905317,0,0,1
1603196000,1603038000,1603040000,0,0.04,0.01,-0.11,0.09,0.09,0.20250002,-0.051022153,-0.043872558,0.0022046417,-0.044972416,-0.05146511,0.0134940175,0.10591783,0.10585362,0.20783418,0.0009831245,0.00072734454,9.3544674e-07,-0.0008133397,-0.0010259169,0.00015544529,0,0,1
1603604000,1603442000,1603448000,0,0.03,0.0,-0.099999994,0.09,0.09,0.20250002,-0.045861878,-0.03807394,0.014821611,-0.04536992,-0.04548056,0.014087323,0.10601032,0.10593479,0.20783812,0.00079362525,0.00054736494,4.227909e-05,-0.0008045293,-0.00081205077,0.00010487102,0,0,1
1603996000,1603838000,1603840000,0,0.04,0.01,-0.06,0.09,0.09,0.20250002,-0.060462575,-0.049682073,-0.008650165,-0.052040335,-0.04733748,0.0040381653,0.105959214,0.10588449,0.20784064,0.0013800492,0.0009324532,1.4400525e-05,-0.0010588885,-0.00086526433,5.215726e-05,0,0,1
1604396000,1604238000,1604240000,0,0.01,0.01,-0.049999997,0.09,0.09,0.20250002,-0.035290085,-0.05165778,-0.0024129078,-0.044595778,-0.049257614,0.0011710215,0.10598982,0.10592417,0.20783465,0.00047000364,0.001007712,1.12053e-06,-0.0007971619,-0.0009285744,2.847824e-05,0,0,1
1604796000,1604638000,1604640000,0,0.01,-0.01,-0.049999997,0.09,0.09,0.20250002,-0.050336488,-0.03327211,0.0045125335,-0.047147203,-0.042152945,0.002656138,0.106019795,0.10598586,0.20782793,0.0009559581,0.00041780417,3.919196e-06,-0.000867738,-0.0007015654,1.7563108e-05,0,0,1
1605196000,1605038000,1605040000,0,0.02,-0.01,-0.02,0.09,0.09,0.20250002,-0.06844051,-0.033086024,-0.015750702,-0.056610897,-0.0381232,-0.0055246805,0.10602793,0.106029294,0.20783934,0.0017671207,0.0004129746,4.7745463e-05,-0.0012674637,-0.00057330285,-1.1462926e-05,0,0,1
1605596000,1605434000,1605440000,0,0.02,-0.049999997,-0.07,0.09,0.09,0.20250002,-0.060931783,0.006148722,0.03556426,-0.058520574,-0.018556593,0.012635162,0.106035456,0.106024094,0.20781733,0.0014005437,1.4263468e-05,0.00024344775,-0.0013262803,-0.00031361953,0.000101198486,0,0,1
1605996000,1605838000,1605840000,0,0.0,-0.01,0.0,0.09,0.09,0.20250002,-0.04280612,-0.037357338,-0.024927132,-0.051497743,-0.026958697,-0.004151527,0.106022045,0.10603232,0.20781389,0.0006913143,0.0005264699,0.00011959968,-0.0010425122,-0.00040874293,2.5232075e-06,0,0,1
1606396000,1606234000,1606240000,0,0.01,0.02,0.02,0.09,0.09,0.20250002,-0.06429788,-0.05358248,-0.03516255,-0.057154946,-0.038725458,-0.01785729,0.10598919,0.10605696,0.20782872,0.001560241,0.0010828453,0.00023796613,-0.0012713298,-0.0007066721,-0.00010376449,0,0,1
1606796000,1606638000,1606640000,0,-0.02,0.0,0.0,0.09,0.09,0.20250002,-0.03455991,-0.022411777,-0.01480709,-0.047057167,-0.03143483,-0.016494147,0.10597383,0.106050946,0.2078243,0.00045082349,0.00018945149,4.219909e-05,-0.0009046433,-0.00047552487,-7.6250755e-05,0,0,1
1607196000,1607038000,1607040000,0,-0.02,0.0,0.0,0.09,0.09,0.20250002,-0.04051427,-0.024718516,-0.016694933,-0.044149213,-0.028449802,-0.016583385,0.10596067,0.10604005,0.20782046,0.0006196285,0.00023048084,5.364646e-05,-0.00077797007,-0.0003666164,-6.6204404e-05,0,0,1
1607596000,1607438000,1607440000,0,0.0,-0.01,-0.049999997,0.09,0.09,0.20250002,-0.056969203,-0.017204123,0.034083128,-0.049846984,-0.023451721,0.0059350654,0.105943,0.10599287,0.20783468,0.0012253722,0.00011169877,0.00022357378,-0.0009768155,-0.00025331968,6.2585896e-05,0,0,1
1607996000,1607838000,1607840000,0,0.01,0.0,-0.03,0.09,0.09,0.20250002,-0.06350863,-0.024859447,0.017963877,-0.055918828,-0.024077376,0.011281204,0.105917156,0.10595654,0.20783056,0.0015232079,0.00023330025,6.2108455e-05,-0.0012196566,-0.00024442215,6.23737e-05,0,0,1
1608396000,1608238000,1608240000,0,-0.02,-0.01,-0.02,0.09,0.09,0.20250002,-0.027616784,-0.011395989,0.011637446,-0.04334014,-0.018441204,0.011439534,0.1058902,0.10591839,0.20782533,0.00028810475,4.9044767e-05,2.6066145e-05,-0.0008056335,-0.00015758775,4.6237008e-05,0,0,1
1608796000,1608638000,1608640000,0,-0.04,-0.02,-0.01,0.09,0.09,0.20250002,-0.015037235,-0.002219865,0.0022136215,-0.03076107,-0.0112317195,0.0073391283,0.105867416,0.10590133,0.20783767,8.543457e-05,1.8612802e-06,9.4306677e-07,-0.00048554505,-8.837598e-05,2.6106365e-05,0,0,1
1609196000,1609038000,1609040000,0,-0.04,-0.049999997,0.0,0.09,0.09,0.20250002,-0.012190882,0.030249208,-0.0034218654,-0.022507653,0.0072042504,0.0025564642,0.10584445,0.10586466,0.20783111,5.6164532e-05,0.00034572996,2.253592e-06,-0.00029470926,0.00010456001,1.3501939e-05,0,0,1
1609596000,1609438000,1609440000,0,-0.049999997,-0.03,0.01,0.09,0.09,0.20250002,0.0035302676,0.0076951087,-0.014325732,-0.010935243,0.0074224095,-0.0049467348,0.10582587,0.10584131,0.2078424,4.710678e-06,2.237867e-05,3.9496583e-05,-0.00016163371,6.803496e-05,-1.0052962e-05,0,0,1
1609996000,1609838000,1609840000,0,-0.06,-0.049999997,-0.03,0.09,0.09,0.20250002,0.016992964,0.044746757,0.024976207,0.0014772946,0.02401101,0.008352351,0.1058283,0.105831645,0.20783527,0.00010914313,0.0007567764,0.00012005872,-4.1288433e-05,0.0003741423,4.7774458e-05,0,0,1
1610396000,1610238000,1610240000,0,-0.049999997,-0.02,0.02,0.09,0.09,0.20250002,0.013576347,0.020235274,-0.024375878,0.006854652,0.022332905,-0.006193529,0.10583154,0.10583777,0.20783073,6.966438e-05,0.00015475243,0.000114359114,8.02393e-06,0.0002766357,-2.428491e-05,0,0,1
1610796000,1610634000,1610640000,0,-0.049999997,-0.02,0.0,0.09,0.09,0.20250002,0.034891743,0.03998137,-0.0037835538,0.019246046,0.030132895,-0.005128406,0.10587723,0.105905,0.20782703,0.00045994166,0.0006037524,2.7552294e-06,0.00020775541,0.00042120958,-1.476956e-05,0,0,1
1611196000,1611038000,1611040000,0,0.0,0.0,-0.01,0.09,0.09,0.20250002,-0.0012545185,0.023177497,0.00343805,0.01008429,0.02702451,-0.0013000343,0.105870664,0.1059764,0.20784041,5.946186e-07,0.00020276074,2.2748584e-06,0.00011464323,0.00032358422,-7.1523646e-06,0,0,1
1611604000,1611442000,1611448000,0,0.0,0.0,0.049999997,0.09,0.09,0.20250002,0.011790927,0.036836773,-0.055395827,0.01084699,0.031409636,-0.025475588,0.10595845,0.10607779,0.20784482,5.2483196e-05,0.0005116803,0.00059057475,8.686375e-05,0.00040764487,-0.00026788533,0,0,1
1612004000,1611842000,1611848000,0,0.01,0.01,0.01,0.09,0.09,0.20250002,0.013605153,0.031548634,-0.018295282,0.012072841,0.031471413,-0.02228434,0.10592935,0.106096506,0.20783857,6.989571e-05,0.00037524942,6.441872e-05,7.9322395e-05,0.00039324688,-0.00017745572,0,0,1
1612404000,1612242000,1612248000,0,0.01,0.0,-0.01,0.09,0.09,0.20250002,0.008296901,0.036489625,-0.0017406996,0.010394645,0.03370173,-0.013153832,0.105856,0.10600819,0.2078316,2.6012156e-05,0.0005024113,5.831712e-07,5.5628952e-05,0.0004417644,-9.884569e-05,0,0,1
1612796000,1612638000,1612640000,0,0.06,0.0,0.07,0.09,0.09,0.20250002,-0.039283104,0.038768966,-0.084968746,-0.011561145,0.035941266,-0.044893455,0.10576516,0.10590755,0.20781659,0.0005836184,0.00056767726,0.0013896269,-0.00022689556,0.0004974134,-0.0006693248,0,0,1
1613196000,1613038000,1613040000,0,-0.08,0.12,0.0,0.09,0.09,0.20250002,-0.05728057,0.16048717,-0.05242516,-0.031880893,0.091295004,-0.04824088,0.10815439,0.106011756,0.20783271,0.0012134741,0.009718218,0.0005289634,-0.0006653749,0.004595549,-0.000606942,0,0,1
1613604000,1613442000,1613448000,0,-0.35,0.84999996,-0.099999994,0.09,0.09,0.20250002,-0.076434195,0.28156036,0.016429089,-0.05179188,0.17632508,-0.019339703,0.13560411,0.109186895,0.20785472,0.0017233064,0.029042399,5.194301e-05,-0.0011381672,0.01552091,-0.00031248454,0,0,1
1613996000,1613838000,1613840000,0,-0.64,1.9799999,-0.04,0.09,0.09,0.20250002,-0.024071336,0.23148906,0.009297341,-0.03954039,0.20070559,-0.006683153,0.16763902,0.11019641,0.20789158,0.00013825642,0.019451518,1.6631853e-05,-0.00069624244,0.017258098,-0.00016702685,0,0,1
1614404000,1614242000,1614248000,0,-0.75,3.09,0.01,0.09,0.09,0.20250002,-0.085992396,0.16384673,-0.023518967,-0.060299914,0.18423326,-0.014207122,0.16622731,0.10875444,0.20797352,0.0017794169,0.009873896,0.00010638697,-0.001180316,0.013958079,-0.00013992673,0,0,1
1614804000,1614642000,1614648000,0,-0.90999997,4.06,0.0,0.09,0.09,0.20250002,-0.030047655,0.07830763,0.033657573,-0.046854466,0.1371552,0.0070660776,0.15211456,0.107595876,0.2080728,0.00023741623,0.002279673,0.00021777613,-0.0007612494,0.008767676,1.9052328e-05,0,0,1
1615204000,1615042000,1615048000,0,-1.0,4.65,0.089999996,0.09,0.09,0.20250002,-0.098021984,-0.06198883,-0.043410853,-0.06959559,0.04864674,-0.015368116,0.13390791,0.10717539,0.2081375,0.0028701245,0.0014341408,0.00036216486,-0.0016985273,0.0042335344,-0.00015037754,0,0,1
1615596000,1615438000,1615440000,0,-1.17,4.74,0.049999997,0.09,0.09,0.20250002,-0.017802835,-0.15202427,-0.02756548,-0.046705045,-0.040042676,-0.020758916,0.11904234,0.106813036,0.20816702,0.000106496875,0.008654891,0.00014600885,-0.0009949068,-0.0014626887,-0.00014844674,0,0,1
1616004000,1615842000,1615848000,0,-1.1999999,4.62,0.0,0.09,0.09,0.20250002,0.004538417,-0.13553476,-0.0051069483,-0.023804206,-0.08271834,-0.013764011,0.11130789,0.10648151,0.20824468,7.4018935e-06,0.006900606,5.0096687e-06,-0.0005469724,-0.0038929083,-8.4344334e-05,0,0,1
1616404000,1616242000,1616248000,0,-1.22,4.5099998,0.01,0.09,0.09,0.20250002,-0.017399311,-0.063632965,-0.026733512,-0.020957585,-0.07423595,-0.019528234,0.10793308,0.10629751,0.2083176,0.00011219397,0.0015237062,0.00013722906,-0.00035373753,-0.0028399294,-0.00010784865,0,0,1
1616804000,1616646000,1616648000,0,-1.26,4.52,0.0,0.09,0.09,0.20250002,-0.004169464,-0.084468365,-0.023799606,-0.01345493,-0.078808844,-0.021437122,0.10641898,0.106162794,0.20842372,6.5343347e-06,0.0026882882,0.000108705724,-0.0001985715,-0.0027721606,-0.00010823168,0,0,1
1617196000,1617038000,1617040000,0,-1.27,4.49,0.03,0.09,0.09,0.20250002,-0.005748868,-0.035727024,-0.06004069,-0.010068409,-0.059876025,-0.038401917,0.10582995,0.106006056,0.20850784,1.2491543e-05,0.00048164045,0.0006915585,-0.00011679645,-0.0017655643,-0.0003645816,0,0,1
1617604000,1617442000,1617448000,0,-1.27,4.52,0.0,0.09,0.09,0.20250002,-0.013486981,-0.03037548,-0.029183812,-0.011596178,-0.046692155,-0.034282323,0.10592517,0.10604228,0.20864323,6.86895e-05,0.00034803848,0.00016328254,-9.529733e-05,-0.0011320682,-0.0002746205,0,0,1
1618004000,1617842000,1617848000,0,-1.28,4.5499997,0.02,0.09,0.09,0.20250002,0.0007197857,-0.027542591,-0.045780625,-0.006122416,-0.038181238,-0.03939268,0.10623894,0.106029555,0.20874865,1.950665e-07,0.0002861822,0.0004016056,-5.285626e-05,-0.00075611885,-0.00033105834,0,0,1
1618404000,1618242000,1618248000,0,-1.27,4.61,0.03,0.09,0.09,0.20250002,-0.00063443184,-0.04336691,-0.057435684,-0.0036833116,-0.04048598,-0.047411792,0.10669263,0.10605529,0.20885263,1.5090218e-07,0.0007093239,0.0006318058,-2.9431654e-05,-0.0007353211,-0.00046472388,0,0,1
1618804000,1618642000,1618648000,0,-1.26,4.64,-0.02,0.09,0.09,0.20250002,-0.0013533831,-0.033586025,-0.013750497,-0.0026477878,-0.037419334,-0.032451216,0.10721888,0.10610494,0.20897833,6.833296e-07,0.00042524733,3.619058e-05,-1.665462e-05,-0.0005975105,-0.0002742646,0,0,1
1619204000,1619042000,1619048000,0,-1.26,4.68,-0.04,0.09,0.09,0.20250002,0.010001421,-0.043106556,0.008822456,0.0029740832,-0.03994699,-0.01410736,0.10773265,0.10615074,0.20907858,3.71395e-05,0.0007002024,1.4891191e-05,7.2538805e-06,-0.00064315135,-0.0001457509,0,0,1
1619604000,1619442000,1619448000,0,-1.24,4.68,0.0,0.09,0.09,0.20250002,-0.009427309,-0.010858059,-0.030365415,-0.0025376473,-0.027018573,-0.021333162,0.10815996,0.10617816,0.20916854,3.2867672e-05,4.4414952e-05,0.00017632832,-1.0577922e-05,-0.00037704626,-0.00015934087,0,0,1
1620004000,1619842000,1619848000,0,-1.26,4.69,0.0,0.09,0.09,0.20250002,0.012569308,-0.0079422,-0.028874822,0.0041765557,-0.018540185,-0.02468501,0.10854495,0.10619561,0.20927596,5.8220125e-05,2.3759378e-05,0.00015935997,1.9998992e-05,-0.00022002986,-0.00015934937,0,0,1
1620404000,1620242000,1620248000,0,-1.26,4.66,-0.04,0.09,0.09,0.20250002,0.0047706366,0.036251545,0.010319561,0.0044405917,0.005811697,-0.009127422,0.10878235,0.106188625,0.20934898,8.368627e-06,0.00049503404,2.0347523e-05,1.48299405e-05,9.777634e-05,-7.9484074e-05,0,0,1
1620804000,1620642000,1620648000,0,-1.25,4.67,0.01,0.09,0.09,0.20250002,-0.012665153,0.040016174,-0.035556033,-0.0031619617,0.021013688,-0.020873472,0.10885633,0.10616577,0.20943582,5.8942314e-05,0.00060331845,0.00024145468,-1.7957733e-05,0.0003224617,-0.00015147102,0,0,1
1621204000,1621042000,1621048000,0,-1.26,4.71,0.02,0.09,0.09,0.20250002,-0.00012600422,0.006585598,-0.04418988,-0.0018126471,0.014601203,-0.03123632,0.1088612,0.10615289,0.20948978,5.8338743e-09,1.6342503e-05,0.00037285744,-9.9791105e-06,0.00018640872,-0.000249865,0,0,1
1621604000,1621442000,1621448000,0,-1.24,4.71,0.0,0.09,0.09,0.20250002,-0.0258286,0.030364037,-0.025473423,-0.012486405,0.021606907,-0.028675033,0.10871925,0.10612211,0.20955753,0.00024544558,0.00034751467,0.00012386007,-0.00011463088,0.00025801137,-0.0001938628,0,0,1
1622004000,1621842000,1621848000,0,-1.24,4.73,0.0,0.09,0.09,0.20250002,-0.022367477,0.019964695,-0.021324567,-0.016877994,0.020877035,-0.02540816,0.108558945,0.10609067,0.20959081,0.00018434375,0.00015028242,8.67857e-05,-0.00014561438,0.00021013182,-0.00014627297,0,0,1
1622396000,1622238000,1622240000,0,-1.23,4.73,-0.01,0.09,0.09,0.20250002,-0.041173697,0.03600216,-0.012987291,-0.027615827,0.027561799,-0.01991858,0.10826205,0.10598341,0.20962411,0.00062635925,0.00048919185,3.2185177e-05,-0.00035808643,0.0003334664,-9.585024e-05,0,0,1
1622804000,1622642000,1622648000,0,-1.25,4.77,-0.01,0.09,0.09,0.20250002,-0.029392362,0.002649784,-0.008843323,-0.028409764,0.016428553,-0.014969018,0.10813767,0.106015265,0.20965141,0.00031955968,2.6491866e-06,1.4920837e-05,-0.00034086872,0.00018562331,-5.9682676e-05,0,0,1
1623204000,1623042000,1623048000,0,-1.24,4.7799997,-0.01,0.09,0.09,0.20250002,-0.051119328,-0.0019583702,-0.013765775,-0.038502906,0.008256586,-0.014434244,0.107918106,0.105971366,0.20965333,0.00096858095,1.4476415e-06,3.6154262e-05,-0.000619852,0.00010248066,-4.92256e-05,0,0,1
1623604000,1623442000,1623448000,0,-1.27,4.77,-0.03,0.09,0.09,0.20250002,-0.026521683,0.011734486,0.009901671,-0.033177916,0.009802319,-0.0036182813,0.10768966,0.10593272,0.20967622,0.00026126916,5.1994568e-05,1.870371e-05,-0.00046048182,8.0042395e-05,-1.9034795e-05,0,0,1
1624004000,1623842000,1623848000,0,-1.29,4.81,0.0,0.09,0.09,0.20250002,-0.014778256,-0.02239418,-0.016622491,-0.02500029,-0.004507237,-0.00939793,0.107439205,0.10589738,0.20966098,8.130993e-05,0.00018942842,5.271505e-05,-0.00029196095,-3.972242e-05,-3.40038e-05,0,0,1
1624404000,1624242000,1624248000,0,-1.3,4.79,0.0,0.09,0.09,0.20250002,-0.02245903,-0.008205414,-0.015129188,-0.02387084,-0.0061508715,-0.011945156,0.107246846,0.10586221,0.20967191,0.00018812974,2.5440171e-05,4.3666758e-05,-0.00024581375,-3.3374752e-05,-3.8298447e-05,0,0,1
1624804000,1624642000,1624648000,0,-1.3399999,4.7799997,-0.04,0.09,0.09,0.20250002,0.013741016,0.006072998,0.026254356,-0.007154459,-0.0007180404,0.005032407,0.10702542,0.105846755,0.20964356,7.056848e-05,1.3937623e-05,0.00013151679,-0.00010519942,-1.2347027e-05,3.7174996e-05,0,0,1
1625204000,1625042000,1625048000,0,-1.3199999,4.79,0.0,0.09,0.09,0.20250002,0.0039874315,-0.0017719269,-0.01312983,-0.0022025076,-0.0011864344,-0.003039699,0.10681219,0.1058443,0.20961201,5.9542303e-06,1.1865448e-06,3.289744e-05,-5.5797795e-05,-7.3868127e-06,6.031689e-06,0,0,1
1625604000,1625442000,1625448000,0,-1.3199999,4.79,0.0,0.09,0.09,0.20250002,0.013750672,0.0038609505,-0.017964952,0.004887795,0.0010568479,-0.009673145,0.106623285,0.10584743,0.2096061,7.093422e-05,5.633368e-06,6.1589715e-05,5.275506e-07,-1.6000654e-06,-2.402227e-05,0,0,1
1625996000,1625838000,1625840000,0,-1.3,4.81,0.0,0.09,0.09,0.20250002,-0.0043952465,-0.006585121,-0.011033088,0.0007850225,-0.0023206295,-0.010274191,0.10636479,0.10576801,0.2095525,7.2648822e-06,1.6399597e-05,2.3235998e-05,-2.9164262e-06,-8.14093e-06,-2.3674766e-05,0,0,1
1626404000,1626242000,1626248000,0,-1.3299999,4.7999997,0.0,0.09,0.09,0.20250002,0.03922856,0.017402172,-0.014245689,0.01796554,0.0064935423,-0.012049064,0.10628518,0.10584663,0.209526,0.0005791512,0.00011444318,3.874262e-05,0.00025721113,4.664223e-05,-3.0408628e-05,0,0,1
1626804000,1626642000,1626648000,0,-1.3,4.81,0.02,0.09,0.09,0.20250002,0.007432461,0.0076298714,-0.034988206,0.013284171,0.0069985776,-0.02224424,0.10615872,0.105836146,0.2095089,2.0814674e-05,2.2001912e-05,0.00023372268,0.00015214604,3.5690977e-05,-0.00012077043,0,0,1
1627204000,1627042000,1627048000,0,-1.3,4.83,0.0,0.09,0.09,0.20250002,0.02040565,-0.011891365,-0.013121739,0.016449273,-0.0013969536,-0.018189795,0.10604682,0.10582725,0.20946123,0.00015705914,5.3447322e-05,3.2880554e-05,0.00015432964,-3.926045e-06,-8.170826e-05,0,0,1
1627604000,1627442000,1627448000,0,-1.3,4.81,-0.01,0.09,0.09,0.20250002,0.027830958,0.014855385,-0.0089772325,0.0215078,0.005826309,-0.014095323,0.10595572,0.10582463,0.20944063,0.0002924098,8.341441e-05,1.5391608e-05,0.0002156986,3.4891935e-05,-5.2234187e-05,0,0,1
1628004000,1627842000,1627848000,0,-1.28,4.81,0.0,0.09,0.09,0.20250002,0.013408899,0.01646185,-0.015903085,0.017908288,0.010553216,-0.014898773,0.10586989,0.10581012,0.2093898,6.7931906e-05,0.00010244483,4.831336e-05,0.00015002451,6.4915446e-05,-5.0491595e-05,0,0,1
1628404000,1628242000,1628248000,0,-1.28,4.7999997,-0.03,0.09,0.09,0.20250002,0.0146359205,0.026411533,0.01717416,0.016453903,0.017601358,-0.0006441362,0.10579932,0.1057923,0.20936735,8.098736e-05,0.0002637504,5.6351055e-05,0.00011934133,0.00015328654,-3.005971e-06,0,0,1
1628804000,1628642000,1628648000,0,-1.3,4.8199997,0.01,0.09,0.09,0.20250002,0.036805153,0.014074326,-0.021339225,0.025498904,0.016033787,-0.009841954,0.10574098,0.10578205,0.20931406,0.0005124293,7.4903684e-05,8.701996e-05,0.00029404712,0.000118449716,-4.0345523e-05,0,0,1
1629204000,1629042000,1629048000,0,-1.3299999,4.81,-0.01,0.09,0.09,0.20250002,0.06072581,0.034180164,-0.0042571183,0.04115531,0.024098843,-0.0073598046,0.10569226,0.10577045,0.20926043,0.0013956078,0.00044181856,3.464211e-06,0.00078362966,0.00026216923,-2.3953828e-05,0,0,1
1629604000,1629442000,1629448000,0,-1.29,4.81,-0.06,0.09,0.09,0.20250002,0.029109001,-0.0016655922,0.07480653,0.035801396,0.012647983,0.029158568,0.1056633,0.10574886,0.2092361,0.00032076755,1.049353e-06,0.0010697994,0.00057791313,0.00014518318,0.0004621588,0,0,1
1630004000,1629842000,1629848000,0,-1.22,4.46,-0.01,0.09,0.09,0.20250002,0.05342424,-0.109424114,0.011504235,0.04363377,-0.04160629,0.021312196,0.10612874,0.10579665,0.20917419,0.001075731,0.0045270384,2.5308555e-05,0.0007991656,-0.00193136,0.0002680031,0,0,1
1630404000,1630242000,1630248000,0,-1.06,3.83,0.01,0.09,0.09,0.20250002,0.05324769,-0.10808492,0.0010648947,0.047906622,-0.071152344,0.012313395,0.10731139,0.105891585,0.20910104,0.0010568558,0.0044129468,2.1692877e-07,0.00091369456,-0.0030342876,0.00014898702,0,0,1
1630804000,1630642000,1630648000,0,-0.9,3.1899998,-0.03,0.09,0.09,0.20250002,0.074545324,-0.06738138,0.043068983,0.059746046,-0.06947636,0.025982546,0.10862225,0.106032744,0.20904388,0.0020463597,0.001712773,0.0003549374,0.0014171014,-0.0024469476,0.00024052052,0,0,1
1631204000,1631042000,1631048000,0,-0.7,2.57,0.01,0.09,0.09,0.20250002,0.039960444,-0.024383545,-9.6546486e-05,0.050952442,-0.04943511,0.014391838,0.10968804,0.106147096,0.20894837,0.00058231945,0.00022405031,1.7844072e-09,0.0010460871,-0.0014589932,0.00013362171,0,0,1
1631604000,1631442000,1631448000,0,-0.51,2.03,0.0,0.09,0.09,0.20250002,0.028715402,0.00046515465,0.004038113,0.041069314,-0.027257212,0.009790182,0.11015941,0.106248334,0.20884183,0.0002994113,8.1457785e-08,3.1231975e-06,0.00071423117,-0.0008105155,7.562236e-05,0,0,1
1632004000,1631842000,1631848000,0,-0.31,1.5799999,0.0,0.09,0.09,0.20250002,-0.028835297,-0.0031148195,0.003516011,0.010000596,-0.016527258,0.0070016617,0.11007615,0.106263,0.20872805,0.00030214514,3.652109e-06,2.3690795e-06,0.00026250834,-0.00045190952,4.3065345e-05,0,0,1
1632404000,1632242000,1632248000,0,-0.22999999,1.17,-0.01,0.09,0.09,0.20250002,-0.025415957,0.03813386,0.009293014,-0.005740095,0.0077665746,0.008020041,0.10949233,0.106157474,0.20863114,0.00023598762,0.0005479374,1.6557473e-05,4.0954546e-05,-7.533061e-06,3.1284068e-05,0,0,1
1632804000,1632642000,1632648000,0,-0.16,0.84,0.0,0.09,0.09,0.20250002,-0.027068764,0.08067322,-5.1543117e-05,-0.015219504,0.04016953,0.00443267,0.10861754,0.106053144,0.20850678,0.00026983413,0.0024546818,5.096607e-10,-9.7173775e-05,0.0010867848,1.737981e-05,0,0,1
1633204000,1633042000,1633048000,0,-0.12,0.59999996,0.02,0.09,0.09,0.20250002,-0.034139,0.08637357,-0.021334652,-0.02362817,0.06070466,-0.007019474,0.1077195,0.10593849,0.20838854,0.00043278,0.0028168773,8.7368986e-05,-0.0002463321,0.0018557148,-2.9175215e-05,0,0,1
1633596000,1633438000,1633440000,0,-0.099999994,0.45,0.0,0.09,0.09,0.20250002,-0.025235564,0.06675339,0.00310271,-0.02433858,0.063377984,-0.0025458308,0.10683387,0.10578825,0.20829374,0.00023843886,0.0016848808,1.8486987e-06,-0.00024284358,0.0017802123,-1.5463755e-05,0,0,1
1634004000,1633842000,1633848000,0,-0.11,0.32999998,-0.07,0.09,0.09,0.20250002,0.0051560476,0.06990436,0.06844373,-0.011157353,0.06629464,0.029179592,0.10625343,0.10581367,0.20820501,1.00080815e-05,0.0018472545,0.00089998683,-0.00012984351,0.0018101736,0.0003936535,0,0,1
1634404000,1634242000,1634248000,0,-0.089999996,0.22,0.0,0.09,0.09,0.20250002,-0.0048807934,0.10066819,-0.0017852709,-0.008367771,0.08157177,0.01541743,0.10580641,0.10576876,0.20813793,9.005936e-06,0.0038325435,6.1251535e-07,-7.613792e-05,0.0027090046,0.00021842415,0,0,1
1634804000,1634642000,1634648000,0,-0.099999994,0.17,-0.04,0.09,0.09,0.20250002,0.02005241,0.084057674,0.04422033,0.0042634215,0.08267662,0.028218718,0.105579406,0.10574058,0.20806167,0.00015234,0.0026728406,0.00037593424,2.5407826e-05,0.0026929318,0.00028842862,0,0,1
1635204000,1635042000,1635048000,0,-0.049999997,0.099999994,-0.03,0.09,0.09,0.20250002,-0.007801354,0.09525329,0.030336818,-0.0010987013,0.08826625,0.029160095,0.105545655,0.10573533,0.20799999,2.3065326e-05,0.0034324154,0.00017698511,3.864203e-06,0.0030215913,0.00023889817,0,0,1
1635604000,1635442000,1635448000,0,-0.03,0.08,-0.049999997,0.09,0.09,0.20250002,-0.006472843,0.074073195,0.047792926,-0.0034872089,0.08195823,0.037441354,0.10563487,0.10573035,0.20796824,1.58651e-05,0.0020757855,0.00043932936,-4.9043765e-06,0.002601233,0.0003279787,0,0,1
1636004000,1635842000,1635848000,0,-0.03,0.06,0.0,0.09,0.09,0.20250002,0.01960229,0.067665145,0.0002667904,0.0067747915,0.07560574,0.020919325,0.10581319,0.105724856,0.20792581,0.00014525591,0.0017322593,1.369279e-08,6.183353e-05,0.0022150225,0.00018221645,0,0,1
1636404000,1636242000,1636248000,0,-0.04,0.06,0.0,0.09,0.09,0.20250002,0.036291204,0.046291586,7.536262e-05,0.0198932,0.062577225,0.011655341,0.1060533,0.105731085,0.20789103,0.00049675076,0.0008107023,1.0927889e-09,0.0002551301,0.0015908801,0.00010123184,0,0,1
1636796000,1636638000,1636640000,0,-0.02,0.02,0.02,0.09,0.09,0.20250002,0.027355755,0.07215676,-0.020904247,0.023191381,0.06681103,-0.0027348334,0.106223494,0.10566974,0.20787361,0.00028179729,0.0019708944,8.408716e-05,0.00026691603,0.0017588328,1.9327468e-05,0,0,1
1637204000,1637042000,1637048000,0,-0.01,0.04,-0.01,0.09,0.09,0.20250002,0.03384535,0.017749071,0.00922201,0.027952667,0.044885114,0.0026087114,0.10651405,0.10575427,0.20786177,0.00043018087,0.000119155295,1.6365775e-05,0.0003398795,0.0010260566,1.800388e-05,0,0,1
1637604000,1637442000,1637448000,0,0.0,0.04,-0.03,0.09,0.09,0.20250002,0.025287744,0.0021514967,0.03182865,0.026768256,0.025892394,0.015595352,0.10667644,0.1057515,0.20786244,0.00023977929,1.7508739e-06,0.00019494872,0.00029539052,0.0005708096,9.6646036e-05,0,0,1
1638004000,1637842000,1637848000,0,0.0,0.0,0.01,0.09,0.09,0.20250002,0.028766243,0.031376466,-0.007647725,0.02765625,0.02832976,0.0052650953,0.10679826,0.1057486,0.20784801,0.0003099289,0.00037238604,1.1255858e-05,0.00030185204,0.00048262134,4.8689635e-05,0,0,1
1638404000,1638242000,1638248000,0,0.01,0.04,0.01,0.09,0.09,0.20250002,0.03055589,-0.030437516,-0.0073537175,0.028944978,0.002210969,-0.0003432664,0.1068706,0.10574764,0.20783757,0.0003494553,0.0003504352,1.0407582e-05,0.00032300904,0.000112373964,2.2424203e-05,0,0,1
1638804000,1638642000,1638648000,0,-0.01,0.01,0.0,0.09,0.09,0.20250002,0.061086223,-0.0023996406,0.0016118735,0.04322998,0.00016180915,0.00052568474,0.10690726,0.1057417,0.20783064,0.0013961733,2.1782419e-06,5.000487e-07,0.00079997093,6.146187e-05,1.2680134e-05,0,0,1
1639204000,1639042000,1639048000,0,0.03,0.03,0.089999996,0.09,0.09,0.20250002,0.0051830392,-0.03425329,0.15279669,0.026320226,-0.015133793,0.06820169,0.10669556,0.10557355,0.20784368,1.0071232e-05,0.0004445386,0.004493151,0.00044890435,-0.00016342723,0.0020040008,0,0,1
1639604000,1639442000,1639448000,0,0.01,0.049999997,0.76,0.09,0.09,0.20250002,0.0132797435,-0.00012223423,0.04333377,0.020524455,-0.0084619885,0.05714928,0.10639396,0.10522919,0.20783873,6.630135e-05,5.679491e-09,0.0003613986,0.00027885856,-9.079542e-05,0.0012739553,0,0,1
1640004000,1639842000,1639848000,0,-0.01,0.08,0.64,0.09,0.09,0.20250002,0.026368355,-0.032219995,0.014936924,0.023121744,-0.019021103,0.03838823,0.10653952,0.105415955,0.20785248,0.00026104497,0.00039391685,4.2936546e-05,0.0002709414,-0.00022551607,0.0007268358,0,0,1
1640404000,1640242000,1640248000,0,0.0,0.07,0.65,0.09,0.09,0.20250002,0.020069217,-0.050871316,0.030110002,0.021765066,-0.033176754,0.034709018,0.10643779,0.105457716,0.20784876,0.00015136485,0.0009815842,0.00017447537,0.00021779627,-0.0005615464,0.00048134226,0,0,1
1640804000,1640642000,1640648000,0,0.01,0.06,0.7,0.09,0.09,0.20250002,0.012961928,-0.056831975,0.0017732382,0.01785256,-0.043690186,0.020070892,0.10635272,0.105497845,0.20784584,6.3190324e-05,0.0012246215,6.0513577e-07,0.00014908251,-0.0008562465,0.0002676813,0,0,1
1641204000,1641042000,1641048000,0,0.0,0.03,0.65,0.09,0.09,0.20250002,0.021324005,-0.038810417,0.057375193,0.019395424,-0.0415214,0.036650583,0.10628981,0.10555066,0.20784292,0.00017112201,0.00057081535,0.0006335386,0.00015887784,-0.0007293882,0.00043028453,0,0,1
1641604000,1641442000,1641448000,0,0.02,0.01,0.7,0.09,0.09,0.20250002,5.9004873e-05,-0.035136342,0.008644223,0.01080146,-0.038683597,0.024203312,0.10621059,0.10559127,0.207859,1.3111969e-09,0.00046767597,1.4379477e-05,8.8266046e-05,-0.00061307166,0.00024543784,0,0,1
1642004000,1641842000,1641848000,0,0.02,0.0,0.69,0.09,0.09,0.20250002,0.0034592412,-0.040564183,0.019960463,0.0075382516,-0.039519414,0.022317601,0.10613167,0.10562428,0.20785612,4.510002e-06,0.0006231343,7.667228e-05,5.1041134e-05,-0.00061754393,0.00017043093,0,0,1
1642404000,1642242000,1642248000,0,0.0,-0.02,0.74,0.09,0.09,0.20250002,0.026484966,-0.023561057,-0.025892317,0.015959013,-0.03242681,0.00089096837,0.10607571,0.10565249,0.20785326,0.00026451045,0.00021016954,0.00012901642,0.00014591639,-0.00043648863,3.7343212e-05,0,0,1
1642804000,1642642000,1642648000,0,0.01,-0.01,0.68,0.09,0.09,0.20250002,0.013507493,-0.046518378,0.029130101,0.014869449,-0.038689733,0.013441695,0.10600605,0.10567645,0.2078685,6.884602e-05,0.0008190886,0.0001632884,0.00011166289,-0.0006065331,9.331886e-05,0,0,1
1643204000,1643042000,1643048000,0,0.02,-0.049999997,0.71999997,0.09,0.09,0.20250002,0.0036855955,-0.014545478,-0.008560181,0.009898847,-0.027958952,0.0036630826,0.10594326,0.10569228,0.20786427,5.128637e-06,8.007053e-05,1.4100873e-05,6.431433e-05,-0.0003725497,4.557675e-05,0,0,1
1643604000,1643446000,1643448000,0,0.0,-0.03,0.75,0.09,0.09,0.20250002,0.015585436,0.008024318,-0.7874545,0.012440198,-0.0118779335,-0.34988943,0.10649535,0.10624948,0.20786136,9.123621e-05,2.4240937e-05,0.11932657,7.634579e-05,-0.00019522292,-0.05330215,0,0,1
1644004000,1643842000,1643848000,0,0.02,0.02,0.03,0.09,0.09,0.20250002,-0.013035271,-0.02454244,-0.03133115,0.0011809515,-0.017475193,-0.20909806,0.10633553,0.10614074,0.20787564,6.3917796e-05,0.00022699348,0.00018889007,1.4354293e-05,-0.00020926437,-0.029827988,0,0,1
1644404000,1644242000,1644248000,0,-0.01,0.0,0.0,0.09,0.09,0.20250002,0.02031124,0.013007854,-0.0010327175,0.009683303,-0.003927171,-0.11662457,0.106202185,0.106055655,0.20787032,0.00015538154,6.381716e-05,2.0522516e-07,7.703307e-05,-8.789479e-05,-0.016571194,0,0,1
1644804000,1644642000,1644648000,0,0.01,-0.02,0.0,0.09,0.09,0.20250002,-0.0010312386,0.046080746,-0.0033650696,0.004921284,0.018298572,-0.06628701,0.10607335,0.10597335,0.20788276,4.0102555e-07,0.0008014978,2.1788615e-06,4.2617914e-05,0.00030739082,-0.009207187,0,0,1
1645196000,1645038000,1645040000,0,0.0,0.0,-0.04,0.09,0.09,0.20250002,0.0051401784,0.033311978,0.038509846,0.0050180275,0.02493396,-0.019970544,0.10589822,0.10583728,0.20786949,9.979935e-06,0.00041939394,0.00028537295,2.8193095e-05,0.00035689218,-0.0050118146,0,0,1
1645604000,1645442000,1645448000,0,0.0,-0.02,0.03,0.09,0.09,0.20250002,0.009199129,0.05327817,-0.033994228,0.006886573,0.03760106,-0.026237765,0.10586455,0.10584876,0.20787492,3.197444e-05,0.0010726865,0.00022236592,2.9882987e-05,0.00067678257,-0.0028713974,0,0,1
1646004000,1645842000,1645848000,0,-0.01,0.0,0.0,0.09,0.09,0.20250002,0.02829876,0.031340465,0.002999641,0.016403101,0.034818575,-0.013243361,0.10575995,0.10578187,0.2078694,0.00030288208,0.00037141514,1.7314421e-06,0.00015121592,0.0005410637,-0.0015944513,0,0,1
1646404000,1646242000,1646248000,0,0.01,0.0,-0.03,0.09,0.09,0.20250002,0.0108522065,0.028073696,0.029884955,0.013936037,0.031820852,0.005924781,0.105676144,0.1057325,0.20788221,4.4577853e-05,0.0002981609,0.00017184934,0.00010382122,0.0004331069,-0.0008094287,0,0,1
1646804000,1646642000,1646648000,0,-0.01,0.0,0.0,0.09,0.09,0.20250002,0.029278547,0.01958125,-0.0021684691,0.02075493,0.026381029,0.0023277807,0.10561316,0.105695166,0.20787576,0.00032466915,0.00014510613,9.048209e-07,0.00020197587,0.00030510654,-0.00045008474,0,0,1
1647204000,1647042000,1647048000,0,0.01,0.0,0.0,0.09,0.09,0.20250002,0.007908497,0.018644705,-0.0034922957,0.0150454035,0.022942662,-0.00025892002,0.10555865,0.10566146,0.20787016,2.3700313e-05,0.00013159956,2.3468745e-06,0.00012274229,0.00022799232,-0.00025109012,0,0,1
