timestamp,timestamp_sample,control_mode_flags,output_tracking_error[0],output_tracking_error[1],output_tracking_error[2],filter_fault_flags,pos_horiz_accuracy,pos_vert_accuracy,hdg_test_ratio,vel_test_ratio,pos_test_ratio,hgt_test_ratio,tas_test_ratio,hagl_test_ratio,beta_test_ratio,time_slip,accel_device_id,gyro_device_id,baro_device_id,mag_device_id,mag_inclination_deg,mag_inclination_ref_deg,mag_strength_gs,mag_strength_ref_gs,gps_check_fail_flags,solution_status_flags,reset_count_vel_ne,reset_count_vel_d,reset_count_pos_ne,reset_count_pod_d,reset_count_quat,pre_flt_fail_innov_heading,pre_flt_fail_innov_height,pre_flt_fail_innov_pos_horiz,pre_flt_fail_innov_vel_horiz,pre_flt_fail_innov_vel_vert,pre_flt_fail_mag_field_disturbed,health_flags,timeout_flags
1592244000,1592088000,17764060236391,0.0001458649,0.0027465238,0.0068577197,0,0.47354385,0.2874466,0.011760956,0.021041298,0.00093840045,0.0055555357,nan,nan,nan,0.004,1310988,1310988,6620172,197388,63.56895,63.157204,0.48415276,0.48238713,0,959,2,1,5,5,2,0,0,0,0,0,0,0,0
1592252000,1592096000,17764060236391,0.00014008422,0.0026504952,0.006691407,0,0.47439918,0.2878373,0.011760956,0.021041298,0.00093840045,0.0055555357,nan,nan,nan,0.004,1310988,1310988,6620172,197388,63.56895,63.157204,0.48415276,0.48238713,0,959,2,1,5,5,2,0,0,0,0,0,0,0,0
1592260000,1592104000,17764060236391,0.00013519266,0.0025581564,0.006532349,0,0.4752577,0.28822866,0.011760956,0.021041298,0.00093840045,0.0055555357,nan,nan,nan,0.004,1310988,1310988,6620172,197388,63.56895,63.157204,0.48415276,0.48238713,0,959,2,1,5,5,2,0,0,0,0,0,0,0,0
1592268000,1592112000,17764060236391,0.00013040169,0.0024699874,0.006378813,0,0.4761193,0.28862065,0.011760956,0.021041298,0.00093840045,0.0055555357,nan,nan,nan,0.004,1310988,1310988,6620172,197388,63.56895,63.157204,0.48415276,0.48238713,0,959,2,1,5,5,2,0,0,0,0,0,0,0,0
1592276000,1592120000,17764060236391,0.00012575086,0.0023843893,0.0062311613,0,0.4769841,0.28901327,0.011760956,0.021041298,0.00093840045,0.0055555357,nan,nan,nan,0.004,1310988,1310988,6620172,197388,63.56895,63.157204,0.48415276,0.48238713,0,959,2,1,5,5,2,0,0,0,0,0,0,0,0
1592284000,1592128000,17764060236391,0.0001211317,0.0022997549,0.006046865,0,0.4778521,0.28843173,0.011760956,0.021041298,0.00093840045,0.0054866592,nan,nan,nan,0.004,1310988,1310988,6620172,197388,63.56895,63.157204,0.48415276,0.48238713,0,959,2,1,5,5,2,0,0,0,0,0,0,0,0
1592300000,1592144000,17764060236391,0.00011208972,0.00214749,0.0057870327,0,0.4795975,0.2892175,0.011760956,0.021041298,0.00093840045,0.0054866592,nan,nan,nan,0.004,1310988,1310988,6620172,197388,63.56895,63.157204,0.48415276,0.48238713,0,959,2,1,5,5,2,0,0,0,0,0,0,0,0
1592308000,1592152000,17764060236391,0.0001077483,0.0020754286,0.0056669484,0,0.480475,0.28961134,0.011760956,0.021041298,0.00093840045,0.0054866592,nan,nan,nan,0.004,1310988,1310988,6620172,197388,63.56895,63.157204,0.48415276,0.48238713,0,959,2,1,5,5,2,0,0,0,0,0,0,0,0
1592316000,1592160000,17764060236391,9.229263e-05,0.0020289046,0.005572179,0,0.4813391,0.29000583,0.01127553,0.021041298,0.00093840045,0.0054866592,nan,nan,nan,0.004,1310988,1310988,6620172,197388,63.24351,63.157204,0.48180223,0.48238713,0,959,2,1,5,5,2,0,0,0,0,0,0,0,0
1592324000,1592168000,17764060236391,8.804353e-05,0.001964919,0.005464047,0,0.48222277,0.29040095,0.01127553,0.021041298,0.00093840045,0.0054866592,nan,nan,nan,0.004,1310988,1310988,6620172,197388,63.24351,63.157204,0.48180223,0.48238713,0,959,2,1,5,5,2,0,0,0,0,0,0,0,0
1592340000,1592184000,17764060236391,7.9303405e-05,0.0018458415,0.005265541,0,0.48399964,0.29119307,0.01127553,0.021041298,0.00093840045,0.0054866592,nan,nan,nan,0.004,1310988,1310988,6620172,197388,63.24351,63.157204,0.48180223,0.48238713,0,959,2,1,5,5,2,0,0,0,0,0,0,0,0
1592348000,1592192000,17764060236391,7.52493e-05,0.0017910468,0.005174554,0,0.4848929,0.2915901,0.01127553,0.021041298,0.00093840045,0.0054866592,nan,nan,nan,0.004,1310988,1310988,6620172,197388,63.24351,63.157204,0.48180223,0.48238713,0,959,2,1,5,5,2,0,0,0,0,0,0,0,0
1592356000,1592200000,17764060236391,7.125667e-05,0.0017198463,0.004884717,0,0.48578936,0.29098675,0.01127553,0.021041298,0.00093840045,0.005434941,nan,nan,nan,0.004,1310988,1310988,6620172,197388,63.24351,63.157204,0.48180223,0.48238713,0,959,2,1,5,5,2,0,0,0,0,0,0,0,0
1592364000,1592208000,17764060236391,6.7261775e-05,0.0016715126,0.0048071584,0,0.486689,0.29138365,0.01127553,0.021041298,0.00093840045,0.005434941,nan,nan,nan,0.004,1310988,1310988,6620172,197388,63.24351,63.157204,0.48180223,0.48238713,0,959,2,1,5,5,2,0,0,0,0,0,0,0,0
1592380000,1592224000,17764060236391,6.021191e-05,0.0015839635,0.0046736836,0,0.488498,0.2921794,0.01127553,0.021041298,0.00093840045,0.005434941,nan,nan,nan,0.004,1310988,1310988,6620172,197388,63.24351,63.157204,0.48180223,0.48238713,0,959,2,1,5,5,2,0,0,0,0,0,0,0,0
1592388000,1592232000,17764060236391,8.6287306e-05,0.0017213896,0.0048104837,0,0.48938873,0.29257822,0.008777187,0.021041298,0.00093840045,0.005434941,nan,nan,nan,0.004,1310988,1310988,6620172,197388,62.813053,63.157204,0.47924426,0.48238713,0,959,2,1,5,5,2,0,0,0,0,0,0,0,0
1592396000,1592240000,17764060236391,0.00022034481,0.008579532,0.018046131,0,0.45011616,0.27959737,0.008777187,0.02511863,0.0014502055,0.0051822485,nan,nan,nan,0.004,1310988,1310988,6620172,197388,62.813053,63.157204,0.47924426,0.48238713,0,959,2,1,5,5,2,0,0,0,0,0,0,0,0
1592404000,1592248000,17764060236391,0.00021724045,0.008297021,0.017491158,0,0.45088437,0.27997404,0.008777187,0.02511863,0.0014502055,0.0051822485,nan,nan,nan,0.004,1310988,1310988,6620172,197388,62.813053,63.157204,0.47924426,0.48238713,0,959,2,1,5,5,2,0,0,0,0,0,0,0,0
1592420000,1592264000,17764060236391,0.00021139822,0.0077552716,0.016431095,0,0.4524298,0.28072935,0.008777187,0.02511863,0.0014502055,0.0051822485,nan,nan,nan,0.004,1310988,1310988,6620172,197388,62.813053,63.157204,0.47924426,0.48238713,0,959,2,1,5,5,2,0,0,0,0,0,0,0,0
1592428000,1592272000,17764060236391,0.00020860831,0.0075004175,0.015953507,0,0.453207,0.2802144,0.008777187,0.02511863,0.0014502055,0.0052335644,nan,nan,nan,0.004,1310988,1310988,6620172,197388,62.813053,63.157204,0.47924426,0.48238713,0,959,2,1,5,5,2,0,0,0,0,0,0,0,0
1592436000,1592280000,17764060236391,0.00020600321,0.0072499416,0.015459358,0,0.45398718,0.28059247,0.008777187,0.02511863,0.0014502055,0.0052335644,nan,nan,nan,0.004,1310988,1310988,6620172,197388,62.813053,63.157204,0.47924426,0.48238713,0,959,2,1,5,5,2,0,0,0,0,0,0,0,0
1592444000,1592288000,17764060236391,0.00021991937,0.0070786066,0.015040519,0,0.45476896,0.2809712,0.008777187,0.02511863,0.0014502055,0.0052335644,nan,nan,nan,0.004,1310988,1310988,6620172,197388,62.813053,63.157204,0.47924426,0.48238713,0,959,2,1,5,5,2,0,0,0,0,0,0,0,0
1592460000,1592304000,17764060236391,0.00021653446,0.006705381,0.014219277,0,0.45633343,0.28173056,0.009146529,0.02511863,0.0014502055,0.0052335644,nan,nan,nan,0.004,1310988,1310988,6620172,197388,63.05947,63.157204,0.48094746,0.48238713,0,959,2,1,5,5,2,0,0,0,0,0,0,0,0
1592468000,1592312000,17764060236391,0.000214433,0.006479902,0.013781168,0,0.45712554,0.28211123,0.009146529,0.02511863,0.0014502055,0.0052335644,nan,nan,nan,0.004,1310988,1310988,6620172,197388,63.05947,63.157204,0.48094746,0.48238713,0,959,2,1,5,5,2,0,0,0,0,0,0,0,0
1592476000,1592320000,17764060236391,0.00021278231,0.0062619788,0.013357146,0,0.45792064,0.28249252,0.009146529,0.02511863,0.0014502055,0.0052335644,nan,nan,nan,0.004,1310988,1310988,6620172,197388,63.05947,63.157204,0.48094746,0.48238713,0,959,2,1,5,5,2,0,0,0,0,0,0,0,0
1592484000,1592328000,17764060236391,0.0002109716,0.0060508857,0.012947845,0,0.4587188,0.28287446,0.009146529,0.02511863,0.0014502055,0.0052335644,nan,nan,nan,0.004,1310988,1310988,6620172,197388,63.05947,63.157204,0.48094746,0.48238713,0,959,2,1,5,5,2,0,0,0,0,0,0,0,0
1592500000,1592344000,17764060236391,0.0002078602,0.0056480207,0.012166595,0,0.4603243,0.28272244,0.009146529,0.02511863,0.0014502055,0.0051976307,nan,nan,nan,0.004,1310988,1310988,6620172,197388,63.05947,63.157204,0.48094746,0.48238713,0,959,2,1,5,5,2,0,0,0,0,0,0,0,0
1592508000,1592352000,17764060236391,0.00020646489,0.005456063,0.011796819,0,0.4611316,0.28310508,0.009146529,0.02511863,0.0014502055,0.0051976307,nan,nan,nan,0.004,1310988,1310988,6620172,197388,63.05947,63.157204,0.48094746,0.48238713,0,959,2,1,5,5,2,0,0,0,0,0,0,0,0
1592516000,1592360000,17764060236391,0.0002052393,0.0052715642,0.011439875,0,0.46194196,0.28348833,0.009146529,0.02511863,0.0014502055,0.0051976307,nan,nan,nan,0.004,1310988,1310988,6620172,197388,63.05947,63.157204,0.48094746,0.48238713,0,959,2,1,5,5,2,0,0,0,0,0,0,0,0
1592524000,1592368000,17764060236391,0.00020404808,0.005090293,0.011092737,0,0.46275544,0.28387228,0.009146529,0.02511863,0.0014502055,0.0051976307,nan,nan,nan,0.004,1310988,1310988,6620172,197388,63.05947,63.157204,0.48094746,0.48238713,0,959,2,1,5,5,2,0,0,0,0,0,0,0,0
1592540000,1592384000,17764060236391,0.00022071727,0.004945484,0.010639882,0,0.46437892,0.28464207,0.0131585905,0.02511863,0.0014502055,0.0051976307,nan,nan,nan,0.004,1310988,1310988,6620172,197388,62.80366,63.157204,0.4822441,0.48238713,0,959,2,1,5,5,2,0,0,0,0,0,0,0,0
1592548000,1592392000,17764060236391,0.00021909524,0.0047764443,0.010323555,0,0.46520144,0.28502792,0.0131585905,0.02511863,0.0014502055,0.0051976307,nan,nan,nan,0.004,1310988,1310988,6620172,197388,62.80366,63.157204,0.4822441,0.48238713,0,959,2,1,5,5,2,0,0,0,0,0,0,0,0
1592556000,1592400000,17764060236391,0.00021364227,0.004610865,0.010017815,0,0.46602705,0.28541443,0.0131585905,0.02511863,0.0014502055,0.0051976307,nan,nan,nan,0.004,1310988,1310988,6620172,197388,62.80366,63.157204,0.4822441,0.48238713,0,959,2,1,5,5,2,0,0,0,0,0,0,0,0
1592564000,1592408000,17764060236391,0.00020844853,0.0044493843,0.009720318,0,0.46685576,0.28580156,0.0131585905,0.02511863,0.0014502055,0.0051976307,nan,nan,nan,0.004,1310988,1310988,6620172,197388,62.80366,63.157204,0.4822441,0.48238713,0,959,2,1,5,5,2,0,0,0,0,0,0,0,0
1592580000,1592424000,17764060236391,0.00019807665,0.0041467953,0.009153278,0,0.4685225,0.28563374,0.0131585905,0.02511863,0.0014502055,0.0053088577,nan,nan,nan,0.004,1310988,1310988,6620172,197388,62.80366,63.157204,0.4822441,0.48238713,0,959,2,1,5,5,2,0,0,0,0,0,0,0,0
1592588000,1592432000,17764060236391,0.00019294862,0.0040045055,0.008881498,0,0.4693605,0.28602153,0.0131585905,0.02511863,0.0014502055,0.0053088577,nan,nan,nan,0.004,1310988,1310988,6620172,197388,62.80366,63.157204,0.4822441,0.48238713,0,959,2,1,5,5,2,0,0,0,0,0,0,0,0
1592596000,1592440000,17764060236391,0.00018790664,0.0038660683,0.008618527,0,0.47020167,0.28640994,0.0131585905,0.02511863,0.0014502055,0.0053088577,nan,nan,nan,0.004,1310988,1310988,6620172,197388,62.80366,63.157204,0.4822441,0.48238713,0,959,2,1,5,5,2,0,0,0,0,0,0,0,0
1592604000,1592448000,17764060236391,0.00015570718,0.0038343605,0.008467536,0,0.47103179,0.28679898,0.012825464,0.02511863,0.0014502055,0.0053088577,nan,nan,nan,0.004,1310988,1310988,6620172,197388,63.155083,63.157204,0.48231125,0.48238713,0,959,2,1,5,5,2,0,0,0,0,0,0,0,0
1592620000,1592464000,17764060236391,0.00014498919,0.0035732172,0.00798484,0,0.4727293,0.28757903,0.012825464,0.02511863,0.0014502055,0.0053088577,nan,nan,nan,0.004,1310988,1310988,6620172,197388,63.155083,63.157204,0.48231125,0.48238713,0,959,2,1,5,5,2,0,0,0,0,0,0,0,0
1592628000,1592472000,17764060236391,0.00013961447,0.0034517746,0.0077586747,0,0.47358277,0.28797,0.012825464,0.02511863,0.0014502055,0.0053088577,nan,nan,nan,0.004,1310988,1310988,6620172,197388,63.155083,63.157204,0.48231125,0.48238713,0,959,2,1,5,5,2,0,0,0,0,0,0,0,0
1592636000,1592480000,17764060236391,0.000134431,0.003334324,0.0075400737,0,0.47443938,0.2883616,0.012825464,0.02511863,0.0014502055,0.0053088577,nan,nan,nan,0.004,1310988,1310988,6620172,197388,63.155083,63.157204,0.48231125,0.48238713,0,959,2,1,5,5,2,0,0,0,0,0,0,0,0
1592644000,1592488000,17764060236391,0.00012566752,0.0032596977,0.0072889845,0,0.475297,0.28778565,0.012825464,0.02511863,0.0014502055,0.006036596,nan,nan,nan,0.004,1310988,1310988,6620172,197388,63.155083,63.157204,0.48231125,0.48238713,0,959,2,1,5,5,2,0,0,0,0,0,0,0,0
1592660000,1592504000,17764060236391,0.0001176018,0.0030466411,0.006874852,0,0.47702596,0.28856945,0.012825464,0.02511863,0.0014502055,0.006036596,nan,nan,nan,0.004,1310988,1310988,6620172,197388,63.155083,63.157204,0.48231125,0.48238713,0,959,2,1,5,5,2,0,0,0,0,0,0,0,0
1592668000,1592512000,17764060236391,0.0001163699,0.002911504,0.0066317003,0,0.47787935,0.2889623,0.011688494,0.02511863,0.0014502055,0.006036596,nan,nan,nan,0.004,1310988,1310988,6620172,197388,63.398502,63.157204,0.48001054,0.48238713,0,959,2,1,5,5,2,0,0,0,0,0,0,0,0
1592676000,1592520000,17764060236391,0.00011321564,0.0028185197,0.006447079,0,0.4787515,0.28935578,0.011688494,0.02511863,0.0014502055,0.006036596,nan,nan,nan,0.004,1310988,1310988,6620172,197388,63.398502,63.157204,0.48001054,0.48238713,0,959,2,1,5,5,2,0,0,0,0,0,0,0,0
1592684000,1592528000,17764060236391,0.00011013357,0.002727537,0.0062703644,0,0.47962683,0.28974992,0.011688494,0.02511863,0.0014502055,0.006036596,nan,nan,nan,0.004,1310988,1310988,6620172,197388,63.398502,63.157204,0.48001054,0.48238713,0,959,2,1,5,5,2,0,0,0,0,0,0,0,0
1592700000,1592544000,17764060236391,0.00010466097,0.0025596244,0.0059456364,0,0.48138705,0.29054007,0.011688494,0.02511863,0.0014502055,0.006036596,nan,nan,nan,0.004,1310988,1310988,6620172,197388,63.398502,63.157204,0.48001054,0.48238713,0,959,2,1,5,5,2,0,0,0,0,0,0,0,0
1592708000,1592552000,17764060236391,0.000102209364,0.002480658,0.00579878,0,0.48227194,0.29093608,0.011688494,0.02511863,0.0014502055,0.006036596,nan,nan,nan,0.004,1310988,1310988,6620172,197388,63.398502,63.157204,0.48001054,0.48238713,0,959,2,1,5,5,2,0,0,0,0,0,0,0,0
1592716000,1592560000,17764060236391,0.000100210375,0.0024092852,0.0057113725,0,0.48316002,0.29033846,0.011688494,0.02511863,0.0014502055,0.0059032645,nan,nan,nan,0.004,1310988,1310988,6620172,197388,63.398502,63.157204,0.48001054,0.48238713,0,959,2,1,5,5,2,0,0,0,0,0,0,0,0
1592724000,1592568000,17764060236391,9.8487435e-05,0.0023393966,0.005578969,0,0.48405132,0.29073438,0.011688494,0.02511863,0.0014502055,0.0059032645,nan,nan,nan,0.004,1310988,1310988,6620172,197388,63.398502,63.157204,0.48001054,0.48238713,0,959,2,1,5,5,2,0,0,0,0,0,0,0,0
1592740000,1592584000,17764060236391,0.000102220445,0.0022555976,0.0053941286,0,0.48582572,0.29152817,0.011333793,0.02511863,0.0014502055,0.0059032645,nan,nan,nan,0.004,1310988,1310988,6620172,197388,63.17184,63.157204,0.48185882,0.48238713,0,959,2,1,5,5,2,0,0,0,0,0,0,0,0
1592748000,1592592000,17764060236391,0.00010164566,0.0021935047,0.0052849734,0,0.48672637,0.291926,0.011333793,0.02511863,0.0014502055,0.0059032645,nan,nan,nan,0.004,1310988,1310988,6620172,197388,63.17184,63.157204,0.48185882,0.48238713,0,959,2,1,5,5,2,0,0,0,0,0,0,0,0
1592756000,1592600000,17764060236391,0.00010118336,0.0021355,0.0051826867,0,0.48763025,0.29232448,0.011333793,0.02511863,0.0014502055,0.0059032645,nan,nan,nan,0.004,1310988,1310988,6620172,197388,63.17184,63.157204,0.48185882,0.48238713,0,959,2,1,5,5,2,0,0,0,0,0,0,0,0
1592764000,1592608000,17764060236391,9.961984e-05,0.0020821316,0.0050851246,0,0.48853737,0.29272357,0.011333793,0.02511863,0.0014502055,0.0059032645,nan,nan,nan,0.004,1310988,1310988,6620172,197388,63.17184,63.157204,0.48185882,0.48238713,0,959,2,1,5,5,2,0,0,0,0,0,0,0,0
1592780000,1592624000,17764060236391,9.669654e-05,0.0019830419,0.0049176523,0,0.49036133,0.29352367,0.011333793,0.02511863,0.0014502055,0.0059032645,nan,nan,nan,0.004,1310988,1310988,6620172,197388,63.17184,63.157204,0.48185882,0.48238713,0,959,2,1,5,5,2,0,0,0,0,0,0,0,0
1592788000,1592632000,17764060236391,9.535637e-05,0.0019473047,0.004975492,0,0.49127814,0.29290366,0.011333793,0.02511863,0.0014502055,0.005757044,nan,nan,nan,0.004,1310988,1310988,6620172,197388,63.17184,63.157204,0.48185882,0.48238713,0,959,2,1,5,5,2,0,0,0,0,0,0,0,0
1592796000,1592640000,17764060236391,0.00022174015,0.009273626,0.019393781,0,0.4514682,0.27987832,0.011333793,0.029028632,0.0022595858,0.005533141,nan,nan,nan,0.004,1310988,1310988,6620172,197388,63.17184,63.157204,0.48185882,0.48238713,0,959,2,1,5,5,2,0,0,0,0,0,0,0,0
1592804000,1592648000,17764060236391,0.00023101263,0.009209736,0.019028317,0,0.452232,0.28025568,0.017412508,0.029028632,0.0022595858,0.005533141,nan,nan,nan,0.004,1310988,1310988,6620172,197388,62.608337,63.157204,0.48298198,0.48238713,0,959,2,1,5,5,2,0,0,0,0,0,0,0,0
1592820000,1592664000,17764060236391,0.00022545153,0.008585263,0.017830227,0,0.45378846,0.28101236,0.017412508,0.029028632,0.0022595858,0.005533141,nan,nan,nan,0.004,1310988,1310988,6620172,197388,62.608337,63.157204,0.48298198,0.48238713,0,959,2,1,5,5,2,0,0,0,0,0,0,0,0
1592828000,1592672000,17764060236391,0.00022305528,0.008285838,0.017258124,0,0.4545712,0.28139165,0.017412508,0.029028632,0.0022595858,0.005533141,nan,nan,nan,0.004,1310988,1310988,6620172,197388,62.608337,63.157204,0.48298198,0.48238713,0,959,2,1,5,5,2,0,0,0,0,0,0,0,0
1592836000,1592680000,17764060236391,0.00022080331,0.007998136,0.016703416,0,0.45535693,0.2817716,0.017412508,0.029028632,0.0022595858,0.005533141,nan,nan,nan,0.004,1310988,1310988,6620172,197388,62.608337,63.157204,0.48298198,0.48238713,0,959,2,1,5,5,2,0,0,0,0,0,0,0,0
1592844000,1592688000,17764060236391,0.00022116408,0.0077816853,0.016219543,0,0.45614418,0.2821522,0.017412508,0.029028632,0.0022595858,0.005533141,nan,nan,nan,0.004,1310988,1310988,6620172,197388,62.608337,63.157204,0.48298198,0.48238713,0,959,2,1,5,5,2,0,0,0,0,0,0,0,0
1592860000,1592704000,17764060236391,0.0002173939,0.0072405725,0.015170945,0,0.4577307,0.2820045,0.017412508,0.029028632,0.0022595858,0.0053380826,nan,nan,nan,0.004,1310988,1310988,6620172,197388,62.608337,63.157204,0.48298198,0.48238713,0,959,2,1,5,5,2,0,0,0,0,0,0,0,0
1592868000,1592712000,17764060236391,0.0002157957,0.0069829146,0.014682638,0,0.45852852,0.28238583,0.017412508,0.029028632,0.0022595858,0.0053380826,nan,nan,nan,0.004,1310988,1310988,6620172,197388,62.608337,63.157204,0.48298198,0.48238713,0,959,2,1,5,5,2,0,0,0,0,0,0,0,0
1592876000,1592720000,17764060236391,0.000212231,0.0066847163,0.014160341,0,0.45931786,0.28276777,0.016181825,0.029028632,0.0022595858,0.0053380826,nan,nan,nan,0.004,1310988,1310988,6620172,197388,63.37298,63.157204,0.48065817,0.48238713,0,959,2,1,5,5,2,0,0,0,0,0,0,0,0
1592884000,1592728000,17764060236391,0.00021093265,0.0064428463,0.013703655,0,0.4601216,0.28315037,0.016181825,0.029028632,0.0022595858,0.0053380826,nan,nan,nan,0.004,1310988,1310988,6620172,197388,63.37298,63.157204,0.48065817,0.48238713,0,959,2,1,5,5,2,0,0,0,0,0,0,0,0
1592900000,1592744000,17764060236391,0.00020879412,0.0059838984,0.012832906,0,0.46173817,0.28391752,0.016181825,0.029028632,0.0022595858,0.0053380826,nan,nan,nan,0.004,1310988,1310988,6620172,197388,63.37298,63.157204,0.48065817,0.48238713,0,959,2,1,5,5,2,0,0,0,0,0,0,0,0
1592908000,1592752000,17764060236391,0.00020795414,0.005766208,0.012418432,0,0.4625511,0.28430203,0.016181825,0.029028632,0.0022595858,0.0053380826,nan,nan,nan,0.004,1310988,1310988,6620172,197388,63.37298,63.157204,0.48065817,0.48238713,0,959,2,1,5,5,2,0,0,0,0,0,0,0,0
1592916000,1592760000,17764060236391,0.00020728199,0.0055550886,0.012017941,0,0.46336702,0.2846872,0.016181825,0.029028632,0.0022595858,0.0053380826,nan,nan,nan,0.004,1310988,1310988,6620172,197388,63.37298,63.157204,0.48065817,0.48238713,0,959,2,1,5,5,2,0,0,0,0,0,0,0,0
1592924000,1592768000,17764060236391,0.0002068154,0.0053493422,0.0116305025,0,0.46418604,0.285073,0.016181825,0.029028632,0.0022595858,0.0053380826,nan,nan,nan,0.004,1310988,1310988,6620172,197388,63.37298,63.157204,0.48065817,0.48238713,0,959,2,1,5,5,2,0,0,0,0,0,0,0,0
1592940000,1592784000,17764060236391,0.00020619007,0.004959422,0.010896788,0,0.46583334,0.28490975,0.016181825,0.029028632,0.0022595858,0.005286564,nan,nan,nan,0.004,1310988,1310988,6620172,197388,63.37298,63.157204,0.48065817,0.48238713,0,959,2,1,5,5,2,0,0,0,0,0,0,0,0
1592948000,1592792000,17764060236391,0.00023272027,0.0048214355,0.010604608,0,0.46664846,0.28529623,0.015302919,0.029028632,0.0022595858,0.005286564,nan,nan,nan,0.004,1310988,1310988,6620172,197388,63.0779,63.157204,0.47963554,0.48238713,0,959,2,1,5,5,2,0,0,0,0,0,0,0,0
1592956000,1592800000,17764060236391,0.00022877677,0.0046381284,0.010265126,0,0.46747965,0.28568333,0.015302919,0.029028632,0.0022595858,0.005286564,nan,nan,nan,0.004,1310988,1310988,6620172,197388,63.0779,63.157204,0.47963554,0.48238713,0,959,2,1,5,5,2,0,0,0,0,0,0,0,0
1592964000,1592808000,17764060236391,0.0002235509,0.0044608694,0.0099346535,0,0.46831393,0.2860711,0.015302919,0.029028632,0.0022595858,0.005286564,nan,nan,nan,0.004,1310988,1310988,6620172,197388,63.0779,63.157204,0.47963554,0.48238713,0,959,2,1,5,5,2,0,0,0,0,0,0,0,0
1592980000,1592824000,17764060236391,0.00021334109,0.0041191126,0.009304743,0,0.46999186,0.28684852,0.015302919,0.029028632,0.0022595858,0.005286564,nan,nan,nan,0.004,1310988,1310988,6620172,197388,63.0779,63.157204,0.47963554,0.48238713,0,959,2,1,5,5,2,0,0,0,0,0,0,0,0
1592988000,1592832000,17764060236391,0.00020840405,0.0039584585,0.009004644,0,0.4708355,0.2872382,0.015302919,0.029028632,0.0022595858,0.005286564,nan,nan,nan,0.004,1310988,1310988,6620172,197388,63.0779,63.157204,0.47963554,0.48238713,0,959,2,1,5,5,2,0,0,0,0,0,0,0,0
1592996000,1592840000,17764060236391,0.0002034988,0.0038028099,0.0087159425,0,0.47168225,0.2876285,0.015302919,0.029028632,0.0022595858,0.005286564,nan,nan,nan,0.004,1310988,1310988,6620172,197388,63.0779,63.157204,0.47963554,0.48238713,0,959,2,1,5,5,2,0,0,0,0,0,0,0,0
1593004000,1592848000,17764060236391,0.00019864229,0.0036431379,0.008332629,0,0.47253212,0.28705862,0.015302919,0.029028632,0.0022595858,0.005915811,nan,nan,nan,0.004,1310988,1310988,6620172,197388,63.0779,63.157204,0.47963554,0.48238713,0,959,2,1,5,5,2,0,0,0,0,0,0,0,0
1593020000,1592864000,17764060236391,0.00019358695,0.00336999,0.0077924035,0,0.4742263,0.2878398,0.014323477,0.029028632,0.0022595858,0.005915811,nan,nan,nan,0.004,1310988,1310988,6620172,197388,63.23054,63.157204,0.4796788,0.48238713,0,959,2,1,5,5,2,0,0,0,0,0,0,0,0
1593028000,1592872000,17764060236391,0.00018889461,0.0032335366,0.007529338,0,0.4750854,0.28823134,0.014323477,0.029028632,0.0022595858,0.005915811,nan,nan,nan,0.004,1310988,1310988,6620172,197388,63.23054,63.157204,0.4796788,0.48238713,0,959,2,1,5,5,2,0,0,0,0,0,0,0,0
1593036000,1592880000,17764060236391,0.00018445839,0.0031025966,0.0072754966,0,0.47594762,0.28862354,0.014323477,0.029028632,0.0022595858,0.005915811,nan,nan,nan,0.004,1310988,1310988,6620172,197388,63.23054,63.157204,0.4796788,0.48238713,0,959,2,1,5,5,2,0,0,0,0,0,0,0,0
1593044000,1592888000,17764060236391,0.00021571998,0.003061437,0.0071189096,0,0.47681084,0.28901637,0.014323477,0.029028632,0.0022595858,0.005915811,nan,nan,nan,0.004,1310988,1310988,6620172,197388,63.23054,63.157204,0.4796788,0.48238713,0,959,2,1,5,5,2,0,0,0,0,0,0,0,0
1593060000,1592904000,17764060236391,0.0002079675,0.0028232576,0.0066787438,0,0.478551,0.28882515,0.014323477,0.029028632,0.0022595858,0.005833597,nan,nan,nan,0.004,1310988,1310988,6620172,197388,63.23054,63.157204,0.4796788,0.48238713,0,959,2,1,5,5,2,0,0,0,0,0,0,0,0
1593068000,1592912000,17764060236391,0.00020409838,0.0027112698,0.00646509,0,0.47942585,0.28921854,0.014323477,0.029028632,0.0022595858,0.005833597,nan,nan,nan,0.004,1310988,1310988,6620172,197388,63.23054,63.157204,0.4796788,0.48238713,0,959,2,1,5,5,2,0,0,0,0,0,0,0,0
1593076000,1592920000,17764060236391,0.00020021561,0.0026025402,0.006267508,0,0.48030385,0.28961256,0.014323477,0.029028632,0.0022595858,0.005833597,nan,nan,nan,0.004,1310988,1310988,6620172,197388,63.23054,63.157204,0.4796788,0.48238713,0,959,2,1,5,5,2,0,0,0,0,0,0,0,0
1593084000,1592928000,17764060236391,0.00020700389,0.00260028,0.0061972057,0,0.48116848,0.29000723,0.014153173,0.029028632,0.0022595858,0.005833597,nan,nan,nan,0.004,1310988,1310988,6620172,197388,62.99852,63.157204,0.48041418,0.48238713,0,959,2,1,5,5,2,0,0,0,0,0,0,0,0
1593100000,1592944000,17764060236391,0.0001995834,0.0023977845,0.005838299,0,0.48294002,0.2907985,0.014153173,0.029028632,0.0022595858,0.005833597,nan,nan,nan,0.004,1310988,1310988,6620172,197388,62.99852,63.157204,0.48041418,0.48238713,0,959,2,1,5,5,2,0,0,0,0,0,0,0,0
1593108000,1592952000,17764060236391,0.0001946981,0.0023057298,0.005674157,0,0.48383057,0.29119503,0.014153173,0.029028632,0.0022595858,0.005833597,nan,nan,nan,0.004,1310988,1310988,6620172,197388,62.99852,63.157204,0.48041418,0.48238713,0,959,2,1,5,5,2,0,0,0,0,0,0,0,0
1593116000,1592960000,17764060236391,0.00018987709,0.0022160541,0.005520259,0,0.48472434,0.29159224,0.014153173,0.029028632,0.0022595858,0.005833597,nan,nan,nan,0.004,1310988,1310988,6620172,197388,62.99852,63.157204,0.48041418,0.48238713,0,959,2,1,5,5,2,0,0,0,0,0,0,0,0
1593124000,1592968000,17764060236391,0.00018513377,0.0021527042,0.0056187063,0,0.4856213,0.29098904,0.014153173,0.029028632,0.0022595858,0.0055282875,nan,nan,nan,0.004,1310988,1310988,6620172,197388,62.99852,63.157204,0.48041418,0.48238713,0,959,2,1,5,5,2,0,0,0,0,0,0,0,0
1593140000,1592984000,17764060236391,0.00017615088,0.0019982206,0.0053602965,0,0.48742485,0.29178387,0.014153173,0.029028632,0.0022595858,0.0055282875,nan,nan,nan,0.004,1310988,1310988,6620172,197388,62.99852,63.157204,0.48041418,0.48238713,0,959,2,1,5,5,2,0,0,0,0,0,0,0,0
1593148000,1592992000,17764060236391,0.00017191525,0.0019293937,0.005238291,0,0.4883314,0.29218224,0.014153173,0.029028632,0.0022595858,0.0055282875,nan,nan,nan,0.004,1310988,1310988,6620172,197388,62.99852,63.157204,0.48041418,0.48238713,0,959,2,1,5,5,2,0,0,0,0,0,0,0,0
1593156000,1593000000,17764060236391,0.00014334776,0.0019862202,0.0052445694,0,0.48922262,0.29258123,0.013777249,0.029028632,0.0022595858,0.0055282875,nan,nan,nan,0.004,1310988,1310988,6620172,197388,63.083664,63.157204,0.4812004,0.48238713,0,959,2,1,5,5,2,0,0,0,0,0,0,0,0
1593164000,1593008000,17764060236391,0.0001390055,0.001922665,0.0051372033,0,0.4901354,0.29298085,0.013777249,0.029028632,0.0022595858,0.0055282875,nan,nan,nan,0.004,1310988,1310988,6620172,197388,63.083664,63.157204,0.4812004,0.48238713,0,959,2,1,5,5,2,0,0,0,0,0,0,0,0
1593180000,1593024000,17764060236391,0.00013061891,0.0018082045,0.004952406,0,0.49197072,0.293782,0.013777249,0.029028632,0.0022595858,0.0055282875,nan,nan,nan,0.004,1310988,1310988,6620172,197388,63.083664,63.157204,0.4812004,0.48238713,0,959,2,1,5,5,2,0,0,0,0,0,0,0,0
1593188000,1593032000,17764060236391,0.00012635709,0.0017562811,0.0048728446,0,0.4928932,0.29418352,0.013777249,0.029028632,0.0022595858,0.0055282875,nan,nan,nan,0.004,1310988,1310988,6620172,197388,63.083664,63.157204,0.4812004,0.48238713,0,959,2,1,5,5,2,0,0,0,0,0,0,0,0
1593196000,1593040000,17764060236391,0.00026979006,0.00949779,0.019868841,0,0.45264557,0.28009757,0.013777249,0.030116124,0.002912108,0.005048013,nan,nan,nan,0.004,1310988,1310988,6620172,197388,63.083664,63.157204,0.4812004,0.48238713,0,959,2,1,5,5,2,0,0,0,0,0,0,0,0
1593204000,1593048000,17764060236391,0.0002649319,0.009167328,0.019229598,0,0.45342362,0.2804754,0.013777249,0.030116124,0.002912108,0.005048013,nan,nan,nan,0.004,1310988,1310988,6620172,197388,63.083664,63.157204,0.4812004,0.48238713,0,959,2,1,5,5,2,0,0,0,0,0,0,0,0
1593220000,1593064000,17764060236391,0.00025541306,0.008535818,0.018009564,0,0.45498872,0.28123298,0.013777249,0.030116124,0.002912108,0.005048013,nan,nan,nan,0.004,1310988,1310988,6620172,197388,63.083664,63.157204,0.4812004,0.48238713,0,959,2,1,5,5,2,0,0,0,0,0,0,0,0
1593228000,1593072000,17764060236391,0.00026423307,0.00848412,0.017678542,0,0.45576504,0.28161275,0.0152151445,0.030116124,0.002912108,0.005048013,nan,nan,nan,0.004,1310988,1310988,6620172,197388,62.648705,63.157204,0.47794586,0.48238713,0,959,2,1,5,5,2,0,0,0,0,0,0,0,0
1593236000,1593080000,17764060236391,0.0002599306,0.008186797,0.017107908,0,0.45655495,0.28199315,0.0152151445,0.030116124,0.002912108,0.005048013,nan,nan,nan,0.004,1310988,1310988,6620172,197388,62.648705,63.157204,0.47794586,0.48238713,0,959,2,1,5,5,2,0,0,0,0,0,0,0,0
1593244000,1593088000,17764060236391,0.0002447895,0.007821077,0.016487664,0,0.45734635,0.28237423,0.0152151445,0.030116124,0.002912108,0.005048013,nan,nan,nan,0.004,1310988,1310988,6620172,197388,62.648705,63.157204,0.47794586,0.48238713,0,959,2,1,5,5,2,0,0,0,0,0,0,0,0
1593260000,1593104000,17764060236391,0.00023651731,0.0072684987,0.015436065,0,0.45894125,0.2831383,0.0152151445,0.030116124,0.002912108,0.005048013,nan,nan,nan,0.004,1310988,1310988,6620172,197388,62.648705,63.157204,0.47794586,0.48238713,0,959,2,1,5,5,2,0,0,0,0,0,0,0,0
1593268000,1593112000,17764060236391,0.00023268916,0.0070079695,0.014945969,0,0.4597433,0.2826046,0.0152151445,0.030116124,0.002912108,0.0048921285,nan,nan,nan,0.004,1310988,1310988,6620172,197388,62.648705,63.157204,0.47794586,0.48238713,0,959,2,1,5,5,2,0,0,0,0,0,0,0,0
1593276000,1593120000,17764060236391,0.00022894956,0.0067545776,0.01446247,0,0.4605483,0.282987,0.0152151445,0.030116124,0.002912108,0.0048921285,nan,nan,nan,0.004,1310988,1310988,6620172,197388,62.648705,63.157204,0.47794586,0.48238713,0,959,2,1,5,5,2,0,0,0,0,0,0,0,0
1593284000,1593128000,17764060236391,0.00022543035,0.006507612,0.013995468,0,0.4613564,0.28337005,0.0152151445,0.030116124,0.002912108,0.0048921285,nan,nan,nan,0.004,1310988,1310988,6620172,197388,62.648705,63.157204,0.47794586,0.48238713,0,959,2,1,5,5,2,0,0,0,0,0,0,0,0
1593300000,1593144000,17764060236391,0.00022427316,0.006132528,0.013205677,0,0.46296945,0.28413805,0.015258078,0.030116124,0.002912108,0.0048921285,nan,nan,nan,0.004,1310988,1310988,6620172,197388,63.02274,63.157204,0.48173627,0.48238713,0,959,2,1,5,5,2,0,0,0,0,0,0,0,0
1593308000,1593152000,17764060236391,0.00022130941,0.0059072194,0.012778312,0,0.46378654,0.28452304,0.015258078,0.030116124,0.002912108,0.0048921285,nan,nan,nan,0.004,1310988,1310988,6620172,197388,63.02274,63.157204,0.48173627,0.48238713,0,959,2,1,5,5,2,0,0,0,0,0,0,0,0
1593316000,1593160000,17764060236391,0.00021857939,0.005689437,0.012365003,0,0.46460667,0.28490862,0.015258078,0.030116124,0.002912108,0.0048921285,nan,nan,nan,0.004,1310988,1310988,6620172,197388,63.02274,63.157204,0.48173627,0.48238713,0,959,2,1,5,5,2,0,0,0,0,0,0,0,0
1593324000,1593168000,17764060236391,0.00021607336,0.0054773376,0.011973591,0,0.4654299,0.28436092,0.015258078,0.030116124,0.002912108,0.00485071,nan,nan,nan,0.004,1310988,1310988,6620172,197388,63.02274,63.157204,0.48173627,0.48238713,0,959,2,1,5,5,2,0,0,0,0,0,0,0,0
1593340000,1593184000,17764060236391,0.00021140696,0.005076143,0.011215708,0,0.4670856,0.28513283,0.015258078,0.030116124,0.002912108,0.00485071,nan,nan,nan,0.004,1310988,1310988,6620172,197388,63.02274,63.157204,0.48173627,0.48238713,0,959,2,1,5,5,2,0,0,0,0,0,0,0,0
1593348000,1593192000,17764060236391,0.00020920289,0.004884495,0.010860319,0,0.46791807,0.28551972,0.015258078,0.030116124,0.002912108,0.00485071,nan,nan,nan,0.004,1310988,1310988,6620172,197388,63.02274,63.157204,0.48173627,0.48238713,0,959,2,1,5,5,2,0,0,0,0,0,0,0,0
1593356000,1593200000,17764060236391,0.00020234965,0.0046980935,0.010511339,0,0.46875367,0.28590727,0.015258078,0.030116124,0.002912108,0.00485071,nan,nan,nan,0.004,1310988,1310988,6620172,197388,63.02274,63.157204,0.48173627,0.48238713,0,959,2,1,5,5,2,0,0,0,0,0,0,0,0
1593364000,1593208000,17764060236391,0.00019558393,0.0045176875,0.010173412,0,0.46959236,0.28629547,0.015258078,0.030116124,0.002912108,0.00485071,nan,nan,nan,0.004,1310988,1310988,6620172,197388,63.02274,63.157204,0.48173627,0.48238713,0,959,2,1,5,5,2,0,0,0,0,0,0,0,0
1593380000,1593224000,17764060236391,0.0002062864,0.0041719656,0.009534356,0,0.4712649,0.28707376,0.015138548,0.030116124,0.002912108,0.00485071,nan,nan,nan,0.004,1310988,1310988,6620172,197388,63.067574,63.157204,0.48203504,0.48238713,0,959,2,1,5,5,2,0,0,0,0,0,0,0,0
1593388000,1593232000,17764060236391,0.00019959404,0.004002368,0.009157437,0,0.47211275,0.2865085,0.015138548,0.030116124,0.002912108,0.004994572,nan,nan,nan,0.004,1310988,1310988,6620172,197388,63.067574,63.157204,0.48203504,0.48238713,0,959,2,1,5,5,2,0,0,0,0,0,0,0,0
1593396000,1593240000,17764060236391,0.0001929378,0.0038439163,0.008857534,0,0.4729637,0.28689796,0.015138548,0.030116124,0.002912108,0.004994572,nan,nan,nan,0.004,1310988,1310988,6620172,197388,63.067574,63.157204,0.48203504,0.48238713,0,959,2,1,5,5,2,0,0,0,0,0,0,0,0
1593404000,1593248000,17764060236391,0.00018661568,0.0036934272,0.008568248,0,0.47381777,0.28728804,0.015138548,0.030116124,0.002912108,0.004994572,nan,nan,nan,0.004,1310988,1310988,6620172,197388,63.067574,63.157204,0.48203504,0.48238713,0,959,2,1,5,5,2,0,0,0,0,0,0,0,0
1593420000,1593264000,17764060236391,0.00017451246,0.0034069028,0.008021612,0,0.47553533,0.2880701,0.015138548,0.030116124,0.002912108,0.004994572,nan,nan,nan,0.004,1310988,1310988,6620172,197388,63.067574,63.157204,0.48203504,0.48238713,0,959,2,1,5,5,2,0,0,0,0,0,0,0,0
1593428000,1593272000,17764060236391,0.0001685292,0.0032681865,0.007764001,0,0.47639883,0.28846213,0.015138548,0.030116124,0.002912108,0.004994572,nan,nan,nan,0.004,1310988,1310988,6620172,197388,63.067574,63.157204,0.48203504,0.48238713,0,959,2,1,5,5,2,0,0,0,0,0,0,0,0
1593436000,1593280000,17764060236391,0.00016277544,0.0031358963,0.007516309,0,0.47726548,0.28885475,0.015138548,0.030116124,0.002912108,0.004994572,nan,nan,nan,0.004,1310988,1310988,6620172,197388,63.067574,63.157204,0.48203504,0.48238713,0,959,2,1,5,5,2,0,0,0,0,0,0,0,0
1593444000,1593288000,17764060236391,0.00015628342,0.003011696,0.0071916846,0,0.4781173,0.28827482,0.0142109515,0.030116124,0.002912108,0.0051330444,nan,nan,nan,0.004,1310988,1310988,6620172,197388,63.18303,63.157204,0.47979623,0.48238713,0,959,2,1,5,5,2,0,0,0,0,0,0,0,0
1593460000,1593304000,17764060236391,0.00014521414,0.0027760433,0.0067410376,0,0.4798659,0.28906062,0.0142109515,0.030116124,0.002912108,0.0051330444,nan,nan,nan,0.004,1310988,1310988,6620172,197388,63.18303,63.157204,0.47979623,0.48238713,0,959,2,1,5,5,2,0,0,0,0,0,0,0,0
1593468000,1593312000,17764060236391,0.00013964018,0.0026660885,0.0065318383,0,0.48074496,0.2894545,0.0142109515,0.030116124,0.002912108,0.0051330444,nan,nan,nan,0.004,1310988,1310988,6620172,197388,63.18303,63.157204,0.47979623,0.48238713,0,959,2,1,5,5,2,0,0,0,0,0,0,0,0
1593476000,1593320000,17764060236391,0.0001341712,0.0025632437,0.006332586,0,0.4816272,0.28984898,0.0142109515,0.030116124,0.002912108,0.0051330444,nan,nan,nan,0.004,1310988,1310988,6620172,197388,63.18303,63.157204,0.47979623,0.48238713,0,959,2,1,5,5,2,0,0,0,0,0,0,0,0
1593484000,1593328000,17764060236391,0.00012883486,0.0024658465,0.0061444268,0,0.48251262,0.2902441,0.0142109515,0.030116124,0.002912108,0.0051330444,nan,nan,nan,0.004,1310988,1310988,6620172,197388,63.18303,63.157204,0.47979623,0.48238713,0,959,2,1,5,5,2,0,0,0,0,0,0,0,0
1593500000,1593344000,17764060236391,0.00011882909,0.0022841224,0.0057954937,0,0.48429304,0.29103625,0.0142109515,0.030116124,0.002912108,0.0051330444,nan,nan,nan,0.004,1310988,1310988,6620172,197388,63.18303,63.157204,0.47979623,0.48238713,0,959,2,1,5,5,2,0,0,0,0,0,0,0,0
1593508000,1593352000,17764060236391,0.00014006674,0.0020902832,0.0054347566,0,0.4851705,0.2904379,0.013159241,0.030116124,0.002912108,0.0051683267,nan,nan,nan,0.004,1310988,1310988,6620172,197388,63.319492,63.157204,0.4793766,0.48238713,0,959,2,1,5,5,2,0,0,0,0,0,0,0,0
1593516000,1593360000,17764060236391,0.00013609328,0.0020146526,0.005283882,0,0.48606852,0.29083422,0.013159241,0.030116124,0.002912108,0.0051683267,nan,nan,nan,0.004,1310988,1310988,6620172,197388,63.319492,63.157204,0.4793766,0.48238713,0,959,2,1,5,5,2,0,0,0,0,0,0,0,0
1593524000,1593368000,17764060236391,0.0001322952,0.001944598,0.0051441668,0,0.48696968,0.29123116,0.013159241,0.030116124,0.002912108,0.0051683267,nan,nan,nan,0.004,1310988,1310988,6620172,197388,63.319492,63.157204,0.4793766,0.48238713,0,959,2,1,5,5,2,0,0,0,0,0,0,0,0
1593540000,1593384000,17764060236391,0.00012324458,0.0018229048,0.004902802,0,0.48878166,0.29202694,0.013159241,0.030116124,0.002912108,0.0051683267,nan,nan,nan,0.004,1310988,1310988,6620172,197388,63.319492,63.157204,0.4793766,0.48238713,0,959,2,1,5,5,2,0,0,0,0,0,0,0,0
1593548000,1593392000,17764060236391,0.000118916934,0.0017704165,0.004797717,0,0.48969248,0.29242578,0.013159241,0.030116124,0.002912108,0.0051683267,nan,nan,nan,0.004,1310988,1310988,6620172,197388,63.319492,63.157204,0.4793766,0.48238713,0,959,2,1,5,5,2,0,0,0,0,0,0,0,0
1593556000,1593400000,17764060236391,0.0001148342,0.0017237746,0.004700763,0,0.49060652,0.29282525,0.013159241,0.030116124,0.002912108,0.0051683267,nan,nan,nan,0.004,1310988,1310988,6620172,197388,63.319492,63.157204,0.4793766,0.48238713,0,959,2,1,5,5,2,0,0,0,0,0,0,0,0
1593564000,1593408000,17764060236391,0.00011093761,0.0016798057,0.004614894,0,0.4915238,0.29322535,0.013159241,0.030116124,0.002912108,0.0051683267,nan,nan,nan,0.004,1310988,1310988,6620172,197388,63.319492,63.157204,0.4793766,0.48238713,0,959,2,1,5,5,2,0,0,0,0,0,0,0,0
1593580000,1593424000,17764060236391,8.476114e-05,0.0017072761,0.004759874,0,0.49334842,0.29300532,0.012372818,0.030116124,0.002912108,0.004915025,nan,nan,nan,0.004,1310988,1310988,6620172,197388,63.16795,63.157204,0.48018917,0.48238713,0,959,2,1,5,5,2,0,0,0,0,0,0,0,0
1593588000,1593432000,17764060236391,8.099547e-05,0.0016760936,0.004700018,0,0.49427515,0.29340592,0.012372818,0.030116124,0.002912108,0.004915025,nan,nan,nan,0.004,1310988,1310988,6620172,197388,63.16795,63.157204,0.48018917,0.48238713,0,959,2,1,5,5,2,0,0,0,0,0,0,0,0
1593596000,1593440000,17764060236391,0.00022437095,0.0075687435,0.016491182,0,0.45366654,0.28031307,0.012372818,0.028678536,0.0036580868,0.004798401,nan,nan,nan,0.004,1310988,1310988,6620172,197388,63.16795,63.157204,0.48018917,0.48238713,0,959,2,1,5,5,2,0,0,0,0,0,0,0,0
1593604000,1593448000,17764060236391,0.00022051665,0.007275341,0.01589961,0,0.4544477,0.2806913,0.012372818,0.028678536,0.0036580868,0.004798401,nan,nan,nan,0.004,1310988,1310988,6620172,197388,63.16795,63.157204,0.48018917,0.48238713,0,959,2,1,5,5,2,0,0,0,0,0,0,0,0
1593620000,1593464000,17764060236391,0.00021316354,0.006713449,0.01477036,0,0.456019,0.28144974,0.012372818,0.028678536,0.0036580868,0.004798401,nan,nan,nan,0.004,1310988,1310988,6620172,197388,63.16795,63.157204,0.48018917,0.48238713,0,959,2,1,5,5,2,0,0,0,0,0,0,0,0
1593628000,1593472000,17764060236391,0.00020961874,0.006447728,0.014231818,0,0.45680916,0.28182992,0.012372818,0.028678536,0.0036580868,0.004798401,nan,nan,nan,0.004,1310988,1310988,6620172,197388,63.16795,63.157204,0.48018917,0.48238713,0,959,2,1,5,5,2,0,0,0,0,0,0,0,0
1593636000,1593480000,17764060236391,0.00020641534,0.006190012,0.013710662,0,0.45760232,0.28221074,0.012372818,0.028678536,0.0036580868,0.004798401,nan,nan,nan,0.004,1310988,1310988,6620172,197388,63.16795,63.157204,0.48018917,0.48238713,0,959,2,1,5,5,2,0,0,0,0,0,0,0,0
1593644000,1593488000,17764060236391,0.00018303147,0.0058635203,0.013129901,0,0.458397,0.28259224,0.012372818,0.028678536,0.0036580868,0.004798401,nan,nan,nan,0.004,1310988,1310988,6620172,197388,63.16795,63.157204,0.48018917,0.48238713,0,959,2,1,5,5,2,0,0,0,0,0,0,0,0
1593660000,1593504000,17764060236391,0.00018484321,0.0053045005,0.012071972,0,0.45998684,0.28244442,0.011210522,0.028678536,0.0036580868,0.0052010906,nan,nan,nan,0.004,1310988,1310988,6620172,197388,63.424374,63.157204,0.4805834,0.48238713,0,959,2,1,5,5,2,0,0,0,0,0,0,0,0
1593668000,1593512000,17764060236391,0.00018152849,0.0050869035,0.011614628,0,0.4607919,0.2828266,0.011210522,0.028678536,0.0036580868,0.0052010906,nan,nan,nan,0.004,1310988,1310988,6620172,197388,63.424374,63.157204,0.4805834,0.48238713,0,959,2,1,5,5,2,0,0,0,0,0,0,0,0
1593676000,1593520000,17764060236391,0.00017842039,0.004875036,0.011173165,0,0.46159998,0.2832094,0.011210522,0.028678536,0.0036580868,0.0052010906,nan,nan,nan,0.004,1310988,1310988,6620172,197388,63.424374,63.157204,0.4805834,0.48238713,0,959,2,1,5,5,2,0,0,0,0,0,0,0,0
1593684000,1593528000,17764060236391,0.00017547944,0.004669667,0.010745314,0,0.46241114,0.28359288,0.011210522,0.028678536,0.0036580868,0.0052010906,nan,nan,nan,0.004,1310988,1310988,6620172,197388,63.424374,63.157204,0.4805834,0.48238713,0,959,2,1,5,5,2,0,0,0,0,0,0,0,0
1593700000,1593544000,17764060236391,0.0001698268,0.0042798775,0.0099358065,0,0.4640426,0.28436175,0.011210522,0.028678536,0.0036580868,0.0052010906,nan,nan,nan,0.004,1310988,1310988,6620172,197388,63.424374,63.157204,0.4805834,0.48238713,0,959,2,1,5,5,2,0,0,0,0,0,0,0,0
1593708000,1593552000,17764060236391,0.00016728831,0.004095133,0.009553319,0,0.4648629,0.28474712,0.011210522,0.028678536,0.0036580868,0.0052010906,nan,nan,nan,0.004,1310988,1310988,6620172,197388,63.424374,63.157204,0.4805834,0.48238713,0,959,2,1,5,5,2,0,0,0,0,0,0,0,0
1593716000,1593560000,17764060236391,0.00016503588,0.0039185225,0.009185826,0,0.4656863,0.28513315,0.011210522,0.028678536,0.0036580868,0.0052010906,nan,nan,nan,0.004,1310988,1310988,6620172,197388,63.424374,63.157204,0.4805834,0.48238713,0,959,2,1,5,5,2,0,0,0,0,0,0,0,0
1593724000,1593568000,17764060236391,0.00015365351,0.0038689263,0.00896176,0,0.46649975,0.28458366,0.010746572,0.028678536,0.0036580868,0.005121694,nan,nan,nan,0.004,1310988,1310988,6620172,197388,63.089054,63.157204,0.47991598,0.48238713,0,959,2,1,5,5,2,0,0,0,0,0,0,0,0
1593740000,1593584000,17764060236391,0.0001501134,0.0035360062,0.008292652,0,0.46816155,0.28535637,0.010746572,0.028678536,0.0036580868,0.005121694,nan,nan,nan,0.004,1310988,1310988,6620172,197388,63.089054,63.157204,0.47991598,0.48238713,0,959,2,1,5,5,2,0,0,0,0,0,0,0,0
1593748000,1593592000,17764060236391,0.00014865695,0.0033785393,0.00797877,0,0.46899706,0.2857437,0.010746572,0.028678536,0.0036580868,0.005121694,nan,nan,nan,0.004,1310988,1310988,6620172,197388,63.089054,63.157204,0.47991598,0.48238713,0,959,2,1,5,5,2,0,0,0,0,0,0,0,0
1593756000,1593600000,17764060236391,0.000143008,0.0032293762,0.0076763113,0,0.4698357,0.28613168,0.010746572,0.028678536,0.0036580868,0.005121694,nan,nan,nan,0.004,1310988,1310988,6620172,197388,63.089054,63.157204,0.47991598,0.48238713,0,959,2,1,5,5,2,0,0,0,0,0,0,0,0
1593764000,1593608000,17764060236391,0.00013740026,0.0030856633,0.0073855245,0,0.47067744,0.28652027,0.010746572,0.028678536,0.0036580868,0.005121694,nan,nan,nan,0.004,1310988,1310988,6620172,197388,63.089054,63.157204,0.47991598,0.48238713,0,959,2,1,5,5,2,0,0,0,0,0,0,0,0
1593780000,1593624000,17764060236391,0.0001265535,0.002823168,0.0068391035,0,0.47237024,0.28729942,0.010746572,0.028678536,0.0036580868,0.005121694,nan,nan,nan,0.004,1310988,1310988,6620172,197388,63.089054,63.157204,0.47991598,0.48238713,0,959,2,1,5,5,2,0,0,0,0,0,0,0,0
1593788000,1593632000,17764060236391,0.00011532839,0.0027103405,0.006581,0,0.47320682,0.28768992,0.010186299,0.028678536,0.0036580868,0.005121694,nan,nan,nan,0.004,1310988,1310988,6620172,197388,63.38734,63.157204,0.4841914,0.48238713,0,959,2,1,5,5,2,0,0,0,0,0,0,0,0
1593796000,1593640000,17764060236391,0.000110674446,0.0025949404,0.006375418,0,0.4740608,0.28711957,0.010186299,0.028678536,0.0036580868,0.0050369888,nan,nan,nan,0.004,1310988,1310988,6620172,197388,63.38734,63.157204,0.4841914,0.48238713,0,959,2,1,5,5,2,0,0,0,0,0,0,0,0
1593804000,1593648000,17764060236391,0.00010630902,0.0024835228,0.006147316,0,0.47491798,0.28751007,0.010186299,0.028678536,0.0036580868,0.0050369888,nan,nan,nan,0.004,1310988,1310988,6620172,197388,63.38734,63.157204,0.4841914,0.48238713,0,959,2,1,5,5,2,0,0,0,0,0,0,0,0
1593820000,1593664000,17764060236391,9.8198754e-05,0.0022792532,0.0057263994,0,0.47664165,0.28829294,0.010186299,0.028678536,0.0036580868,0.0050369888,nan,nan,nan,0.004,1310988,1310988,6620172,197388,63.38734,63.157204,0.4841914,0.48238713,0,959,2,1,5,5,2,0,0,0,0,0,0,0,0
1593828000,1593672000,17764060236391,9.430424e-05,0.0021850865,0.0055344226,0,0.4775082,0.28868535,0.010186299,0.028678536,0.0036580868,0.0050369888,nan,nan,nan,0.004,1310988,1310988,6620172,197388,63.38734,63.157204,0.4841914,0.48238713,0,959,2,1,5,5,2,0,0,0,0,0,0,0,0
1593836000,1593680000,17764060236391,9.055719e-05,0.002097912,0.005353051,0,0.4783779,0.28907838,0.010186299,0.028678536,0.0036580868,0.0050369888,nan,nan,nan,0.004,1310988,1310988,6620172,197388,63.38734,63.157204,0.4841914,0.48238713,0,959,2,1,5,5,2,0,0,0,0,0,0,0,0
1593844000,1593688000,17764060236391,0.00010643976,0.0021221023,0.005301115,0,0.47924855,0.28947204,0.010186299,0.028678536,0.0036580868,0.0050369888,nan,nan,nan,0.004,1310988,1310988,6620172,197388,63.38734,63.157204,0.4841914,0.48238713,0,959,2,1,5,5,2,0,0,0,0,0,0,0,0
1593860000,1593704000,17764060236391,0.000113353955,0.0020346304,0.005064943,0,0.48098737,0.2902613,0.010182895,0.028678536,0.0036580868,0.0050369888,nan,nan,nan,0.004,1310988,1310988,6620172,197388,63.085133,63.157204,0.4810269,0.48238713,0,959,2,1,5,5,2,0,0,0,0,0,0,0,0
1593868000,1593712000,17764060236391,0.00011119885,0.0019449337,0.0048607015,0,0.48186946,0.28966942,0.010182895,0.028678536,0.0036580868,0.0049962834,nan,nan,nan,0.004,1310988,1310988,6620172,197388,63.085133,63.157204,0.4810269,0.48238713,0,959,2,1,5,5,2,0,0,0,0,0,0,0,0
1593876000,1593720000,17764060236391,0.00010916199,0.0018694416,0.0047244923,0,0.48275474,0.2900643,0.010182895,0.028678536,0.0036580868,0.0049962834,nan,nan,nan,0.004,1310988,1310988,6620172,197388,63.085133,63.157204,0.4810269,0.48238713,0,959,2,1,5,5,2,0,0,0,0,0,0,0,0
1593884000,1593728000,17764060236391,0.00010655481,0.0018018198,0.0046012388,0,0.4836432,0.2904598,0.010182895,0.028678536,0.0036580868,0.0049962834,nan,nan,nan,0.004,1310988,1310988,6620172,197388,63.085133,63.157204,0.4810269,0.48238713,0,959,2,1,5,5,2,0,0,0,0,0,0,0,0
1593900000,1593744000,17764060236391,0.00010161033,0.0016864019,0.004388924,0,0.4854297,0.2912527,0.010182895,0.028678536,0.0036580868,0.0049962834,nan,nan,nan,0.004,1310988,1310988,6620172,197388,63.085133,63.157204,0.4810269,0.48238713,0,959,2,1,5,5,2,0,0,0,0,0,0,0,0
1593908000,1593752000,17764060236391,9.919046e-05,0.0016385668,0.0043021436,0,0.48632777,0.2916501,0.010182895,0.028678536,0.0036580868,0.0049962834,nan,nan,nan,0.004,1310988,1310988,6620172,197388,63.085133,63.157204,0.4810269,0.48238713,0,959,2,1,5,5,2,0,0,0,0,0,0,0,0
1593916000,1593760000,17764060236391,9.717721e-05,0.0015945095,0.004228269,0,0.487229,0.29204813,0.010182895,0.028678536,0.0036580868,0.0049962834,nan,nan,nan,0.004,1310988,1310988,6620172,197388,63.085133,63.157204,0.4810269,0.48238713,0,959,2,1,5,5,2,0,0,0,0,0,0,0,0
1593924000,1593768000,17764060236391,8.410453e-05,0.0015281468,0.0041733542,0,0.48811528,0.2924468,0.015085658,0.028678536,0.0036580868,0.0049962834,nan,nan,nan,0.004,1310988,1310988,6620172,197388,62.4021,63.157204,0.47769663,0.48238713,0,959,2,1,5,5,2,0,0,0,0,0,0,0,0
1593940000,1593784000,17764060236391,7.7978046e-05,0.0014021533,0.0038172877,0,0.48993337,0.29223204,0.015085658,0.028678536,0.0036580868,0.005083052,nan,nan,nan,0.004,1310988,1310988,6620172,197388,62.4021,63.157204,0.47769663,0.48238713,0,959,2,1,5,5,2,0,0,0,0,0,0,0,0
1593948000,1593792000,17764060236391,7.504564e-05,0.0013615874,0.0037656943,0,0.49084723,0.2926312,0.015085658,0.028678536,0.0036580868,0.005083052,nan,nan,nan,0.004,1310988,1310988,6620172,197388,62.4021,63.157204,0.47769663,0.48238713,0,959,2,1,5,5,2,0,0,0,0,0,0,0,0
1593956000,1593800000,17764060236391,7.224827e-05,0.001329438,0.0037268584,0,0.4917643,0.293031,0.015085658,0.028678536,0.0036580868,0.005083052,nan,nan,nan,0.004,1310988,1310988,6620172,197388,62.4021,63.157204,0.47769663,0.48238713,0,959,2,1,5,5,2,0,0,0,0,0,0,0,0
1593964000,1593808000,17764060236391,6.952301e-05,0.0013056529,0.0036988016,0,0.49268463,0.29343143,0.015085658,0.028678536,0.0036580868,0.005083052,nan,nan,nan,0.004,1310988,1310988,6620172,197388,62.4021,63.157204,0.47769663,0.48238713,0,959,2,1,5,5,2,0,0,0,0,0,0,0,0
1593980000,1593824000,17764060236391,6.442401e-05,0.0012763585,0.0036794906,0,0.49453494,0.2942342,0.015085658,0.028678536,0.0036580868,0.005083052,nan,nan,nan,0.004,1310988,1310988,6620172,197388,62.4021,63.157204,0.47769663,0.48238713,0,959,2,1,5,5,2,0,0,0,0,0,0,0,0
1593988000,1593832000,17764060236391,6.206944e-05,0.0012714721,0.003682704,0,0.49546498,0.2946365,0.015085658,0.028678536,0.0036580868,0.005083052,nan,nan,nan,0.004,1310988,1310988,6620172,197388,62.4021,63.157204,0.47769663,0.48238713,0,959,2,1,5,5,2,0,0,0,0,0,0,0,0
1593996000,1593840000,17764060236391,0.0002461311,0.008243055,0.017311225,0,0.45454454,0.28048617,0.015746117,0.029833514,0.004447165,0.004795529,nan,nan,nan,0.004,1310988,1310988,6620172,197388,62.926563,63.157204,0.48164776,0.48238713,0,959,2,1,5,5,2,0,0,0,0,0,0,0,0
1594004000,1593848000,17764060236391,0.00024395142,0.007911661,0.016655024,0,0.4553279,0.28086466,0.015746117,0.029833514,0.004447165,0.004795529,nan,nan,nan,0.004,1310988,1310988,6620172,197388,62.926563,63.157204,0.48164776,0.48238713,0,959,2,1,5,5,2,0,0,0,0,0,0,0,0
1594020000,1593864000,17764060236391,0.00024007735,0.0072812317,0.015400298,0,0.45690358,0.28162363,0.015746117,0.029833514,0.004447165,0.004795529,nan,nan,nan,0.004,1310988,1310988,6620172,197388,62.926563,63.157204,0.48164776,0.48238713,0,959,2,1,5,5,2,0,0,0,0,0,0,0,0
1594028000,1593872000,17764060236391,0.00023836922,0.0069795894,0.014801868,0,0.45769596,0.2820041,0.015746117,0.029833514,0.004447165,0.004795529,nan,nan,nan,0.004,1310988,1310988,6620172,197388,62.926563,63.157204,0.48164776,0.48238713,0,959,2,1,5,5,2,0,0,0,0,0,0,0,0
1594036000,1593880000,17764060236391,0.00023668584,0.0066874214,0.014220966,0,0.45849133,0.28238517,0.015746117,0.029833514,0.004447165,0.004795529,nan,nan,nan,0.004,1310988,1310988,6620172,197388,62.926563,63.157204,0.48164776,0.48238713,0,959,2,1,5,5,2,0,0,0,0,0,0,0,0
1594044000,1593888000,17764060236391,0.00023904258,0.0065001184,0.0137396185,0,0.45928815,0.28276694,0.015746117,0.029833514,0.004447165,0.004795529,nan,nan,nan,0.004,1310988,1310988,6620172,197388,62.926563,63.157204,0.48164776,0.48238713,0,959,2,1,5,5,2,0,0,0,0,0,0,0,0
1594060000,1593904000,17764060236391,0.0002364102,0.0059621483,0.012724433,0,0.46089393,0.2826155,0.015746117,0.029833514,0.004447165,0.00457228,nan,nan,nan,0.004,1310988,1310988,6620172,197388,62.926563,63.157204,0.48164776,0.48238713,0,959,2,1,5,5,2,0,0,0,0,0,0,0,0
1594068000,1593912000,17764060236391,0.0002383064,0.0057981885,0.012315596,0,0.46168953,0.28299797,0.015001426,0.029833514,0.004447165,0.00457228,nan,nan,nan,0.004,1310988,1310988,6620172,197388,63.051304,63.157204,0.47967082,0.48238713,0,959,2,1,5,5,2,0,0,0,0,0,0,0,0
1594076000,1593920000,17764060236391,0.00023722876,0.0055422396,0.0118219135,0,0.46249986,0.28338104,0.015001426,0.029833514,0.004447165,0.00457228,nan,nan,nan,0.004,1310988,1310988,6620172,197388,63.051304,63.157204,0.47967082,0.48238713,0,959,2,1,5,5,2,0,0,0,0,0,0,0,0
1594084000,1593928000,17764060236391,0.00023540438,0.0052943774,0.011343821,0,0.4633132,0.28376475,0.015001426,0.029833514,0.004447165,0.00457228,nan,nan,nan,0.004,1310988,1310988,6620172,197388,63.051304,63.157204,0.47967082,0.48238713,0,959,2,1,5,5,2,0,0,0,0,0,0,0,0
1594100000,1593944000,17764060236391,0.00023210459,0.004822158,0.010436332,0,0.46494907,0.2845341,0.015001426,0.029833514,0.004447165,0.00457228,nan,nan,nan,0.004,1310988,1310988,6620172,197388,63.051304,63.157204,0.47967082,0.48238713,0,959,2,1,5,5,2,0,0,0,0,0,0,0,0
1594108000,1593952000,17764060236391,0.00023056261,0.0045967274,0.010004489,0,0.4657716,0.28491974,0.015001426,0.029833514,0.004447165,0.00457228,nan,nan,nan,0.004,1310988,1310988,6620172,197388,63.051304,63.157204,0.47967082,0.48238713,0,959,2,1,5,5,2,0,0,0,0,0,0,0,0
1594116000,1593960000,17764060236391,0.00022903233,0.004368913,0.009497213,0,0.4665972,0.2843719,0.015001426,0.029833514,0.004447165,0.0043351497,nan,nan,nan,0.004,1310988,1310988,6620172,197388,63.051304,63.157204,0.47967082,0.48238713,0,959,2,1,5,5,2,0,0,0,0,0,0,0,0
1594124000,1593968000,17764060236391,0.00022764214,0.0041562603,0.009089941,0,0.46742585,0.28475758,0.015001426,0.029833514,0.004447165,0.0043351497,nan,nan,nan,0.004,1310988,1310988,6620172,197388,63.051304,63.157204,0.47967082,0.48238713,0,959,2,1,5,5,2,0,0,0,0,0,0,0,0
1594140000,1593984000,17764060236391,0.00022033752,0.0039360356,0.008505618,0,0.46907902,0.2855308,0.014870934,0.029833514,0.004447165,0.0043351497,nan,nan,nan,0.004,1310988,1310988,6620172,197388,62.97634,63.157204,0.48056272,0.48238713,0,959,2,1,5,5,2,0,0,0,0,0,0,0,0
1594148000,1593992000,17764060236391,0.00021889183,0.0037394175,0.008140421,0,0.4699168,0.28591838,0.014870934,0.029833514,0.004447165,0.0043351497,nan,nan,nan,0.004,1310988,1310988,6620172,197388,62.97634,63.157204,0.48056272,0.48238713,0,959,2,1,5,5,2,0,0,0,0,0,0,0,0
1594156000,1594000000,17764060236391,0.00021248161,0.003548945,0.0077881324,0,0.47075763,0.28630662,0.014870934,0.029833514,0.004447165,0.0043351497,nan,nan,nan,0.004,1310988,1310988,6620172,197388,62.97634,63.157204,0.48056272,0.48238713,0,959,2,1,5,5,2,0,0,0,0,0,0,0,0
1594164000,1594008000,17764060236391,0.00020613757,0.0033648405,0.0074474597,0,0.4716016,0.28669548,0.014870934,0.029833514,0.004447165,0.0043351497,nan,nan,nan,0.004,1310988,1310988,6620172,197388,62.97634,63.157204,0.48056272,0.48238713,0,959,2,1,5,5,2,0,0,0,0,0,0,0,0
1594180000,1594024000,17764060236391,0.00019360906,0.0030125754,0.006762628,0,0.47329885,0.2865196,0.014870934,0.029833514,0.004447165,0.0043632328,nan,nan,nan,0.004,1310988,1310988,6620172,197388,62.97634,63.157204,0.48056272,0.48238713,0,959,2,1,5,5,2,0,0,0,0,0,0,0,0
1594188000,1594032000,17764060236391,0.00018743884,0.0028481914,0.0064592124,0,0.47415215,0.28690907,0.014870934,0.029833514,0.004447165,0.0043632328,nan,nan,nan,0.004,1310988,1310988,6620172,197388,62.97634,63.157204,0.48056272,0.48238713,0,959,2,1,5,5,2,0,0,0,0,0,0,0,0
1594196000,1594040000,17764060236391,0.00018133837,0.0026912794,0.0061683613,0,0.47500855,0.2872992,0.014870934,0.029833514,0.004447165,0.0043632328,nan,nan,nan,0.004,1310988,1310988,6620172,197388,62.97634,63.157204,0.48056272,0.48238713,0,959,2,1,5,5,2,0,0,0,0,0,0,0,0
1594204000,1594048000,17764060236391,0.0001751537,0.002539239,0.005889643,0,0.4758681,0.28768995,0.014870934,0.029833514,0.004447165,0.0043632328,nan,nan,nan,0.004,1310988,1310988,6620172,197388,62.97634,63.157204,0.48056272,0.48238713,0,959,2,1,5,5,2,0,0,0,0,0,0,0,0
1594220000,1594064000,17764060236391,0.00019303769,0.002433187,0.005548091,0,0.47758114,0.28847337,0.022569634,0.029833514,0.004447165,0.0043632328,nan,nan,nan,0.004,1310988,1310988,6620172,197388,62.545677,63.157204,0.48527724,0.48238713,0,959,2,1,5,5,2,0,0,0,0,0,0,0,0
1594228000,1594072000,17764060236391,0.00018699732,0.0022847187,0.005286937,0,0.4784499,0.28886604,0.022569634,0.029833514,0.004447165,0.0043632328,nan,nan,nan,0.004,1310988,1310988,6620172,197388,62.545677,63.157204,0.48527724,0.48238713,0,959,2,1,5,5,2,0,0,0,0,0,0,0,0
1594236000,1594080000,17764060236391,0.00018102632,0.002143402,0.0050384775,0,0.4793218,0.28925934,0.022569634,0.029833514,0.004447165,0.0043632328,nan,nan,nan,0.004,1310988,1310988,6620172,197388,62.545677,63.157204,0.48527724,0.48238713,0,959,2,1,5,5,2,0,0,0,0,0,0,0,0
1594244000,1594088000,17764060236391,0.00015685604,0.0019570389,0.0047435146,0,0.4801946,0.28965327,0.022569634,0.029833514,0.004447165,0.0043632328,nan,nan,nan,0.004,1310988,1310988,6620172,197388,62.545677,63.157204,0.48527724,0.48238713,0,959,2,1,5,5,2,0,0,0,0,0,0,0,0
1594260000,1594104000,17764060236391,0.0001452764,0.0016970272,0.0042132977,0,0.4819541,0.28946042,0.022569634,0.029833514,0.004447165,0.00450048,nan,nan,nan,0.004,1310988,1310988,6620172,197388,62.545677,63.157204,0.48527724,0.48238713,0,959,2,1,5,5,2,0,0,0,0,0,0,0,0
1594268000,1594112000,17764060236391,0.00013961025,0.0015847723,0.0040218276,0,0.4828386,0.2898549,0.022569634,0.029833514,0.004447165,0.00450048,nan,nan,nan,0.004,1310988,1310988,6620172,197388,62.545677,63.157204,0.48527724,0.48238713,0,959,2,1,5,5,2,0,0,0,0,0,0,0,0
1594276000,1594120000,17764060236391,0.00013401723,0.0014794305,0.0038447652,0,0.48372626,0.29025006,0.022569634,0.029833514,0.004447165,0.00450048,nan,nan,nan,0.004,1310988,1310988,6620172,197388,62.545677,63.157204,0.48527724,0.48238713,0,959,2,1,5,5,2,0,0,0,0,0,0,0,0
1594284000,1594128000,17763985787543,0.00012907705,0.0014153665,0.0037312843,0,0.48459998,0.29064584,0.021143489,0.029833514,0.004447165,0.00450048,nan,nan,nan,0.004,1310988,1310988,6620172,197388,63.200207,63.157204,0.48042765,0.48238713,0,831,2,1,5,5,2,0,0,0,0,0,0,0,0
1594300000,1594144000,17763985787543,0.00011811855,0.0012393737,0.0034913095,0,0.48639083,0.2914393,0.021143489,0.029833514,0.004447165,0.00450048,nan,nan,nan,0.004,1310988,1310988,6620172,197388,63.200207,63.157204,0.48042765,0.48238713,0,831,2,1,5,5,2,0,0,0,0,0,0,0,0
1594308000,1594152000,17763985787543,0.00011258126,0.0011649578,0.003398111,0,0.48729104,0.29183698,0.021143489,0.029833514,0.004447165,0.00450048,nan,nan,nan,0.004,1310988,1310988,6620172,197388,63.200207,63.157204,0.48042765,0.48238713,0,831,2,1,5,5,2,0,0,0,0,0,0,0,0
1594316000,1594160000,17763985787543,0.0001072077,0.0011026321,0.0033245657,0,0.4881944,0.29223526,0.021143489,0.029833514,0.004447165,0.00450048,nan,nan,nan,0.004,1310988,1310988,6620172,197388,63.200207,63.157204,0.48042765,0.48238713,0,831,2,1,5,5,2,0,0,0,0,0,0,0,0
1594324000,1594168000,17763985787543,0.000102046644,0.0010863753,0.0035532915,0,0.48910102,0.2916265,0.021143489,0.029833514,0.004447165,0.0040281536,nan,nan,nan,0.004,1310988,1310988,6620172,197388,63.200207,63.157204,0.48042765,0.48238713,0,831,2,1,5,5,2,0,0,0,0,0,0,0,0
1594340000,1594184000,17763985787543,9.224523e-05,0.0010181227,0.003482071,0,0.49092388,0.29242352,0.021143489,0.029833514,0.004447165,0.0040281536,nan,nan,nan,0.004,1310988,1310988,6620172,197388,63.200207,63.157204,0.48042765,0.48238713,0,831,2,1,5,5,2,0,0,0,0,0,0,0,0
1594348000,1594192000,17763985787543,0.00010371361,0.0011101776,0.0035311985,0,0.4918212,0.29282296,0.018996619,0.029833514,0.004447165,0.0040281536,nan,nan,nan,0.004,1310988,1310988,6620172,197388,63.621044,63.157204,0.48106903,0.48238713,0,831,2,1,5,5,2,0,0,0,0,0,0,0,0
1594356000,1594200000,17763985787543,0.000100005265,0.0011139272,0.0035382959,0,0.49274045,0.29322305,0.018996619,0.029833514,0.004447165,0.0040281536,nan,nan,nan,0.004,1310988,1310988,6620172,197388,63.621044,63.157204,0.48106903,0.48238713,0,831,2,1,5,5,2,0,0,0,0,0,0,0,0
1594364000,1594208000,17763985787543,9.6548465e-05,0.0011255719,0.0035565705,0,0.4936629,0.29362375,0.018996619,0.029833514,0.004447165,0.0040281536,nan,nan,nan,0.004,1310988,1310988,6620172,197388,63.621044,63.157204,0.48106903,0.48238713,0,831,2,1,5,5,2,0,0,0,0,0,0,0,0
1594380000,1594224000,17763985787543,9.164536e-05,0.0011711828,0.0036190874,0,0.49551758,0.29442707,0.018996619,0.029833514,0.004447165,0.0040281536,nan,nan,nan,0.004,1310988,1310988,6620172,197388,63.621044,63.157204,0.48106903,0.48238713,0,831,2,1,5,5,2,0,0,0,0,0,0,0,0
1594388000,1594232000,17763985787543,8.9614776e-05,0.0012019159,0.00365831,0,0.49644977,0.29482967,0.018996619,0.029833514,0.004447165,0.0040281536,nan,nan,nan,0.004,1310988,1310988,6620172,197388,63.621044,63.157204,0.48106903,0.48238713,0,831,2,1,5,5,2,0,0,0,0,0,0,0,0
1594396000,1594240000,17763985787543,0.00030993347,0.011452487,0.023712793,0,0.45530355,0.2806522,0.018996619,0.035951704,0.004887644,0.0041064587,nan,nan,nan,0.004,1310988,1310988,6620172,197388,63.621044,63.157204,0.48106903,0.48238713,0,831,2,1,5,5,2,0,0,0,0,0,0,0,0
1594404000,1594248000,17763985787543,0.000306132,0.011018292,0.022865977,0,0.45608857,0.28103095,0.018996619,0.035951704,0.004887644,0.0041064587,nan,nan,nan,0.004,1310988,1310988,6620172,197388,63.621044,63.157204,0.48106903,0.48238713,0,831,2,1,5,5,2,0,0,0,0,0,0,0,0
1594420000,1594264000,17763985787543,0.00029431103,0.010237581,0.021292888,0,0.45765683,0.2817904,0.017789738,0.035951704,0.004887644,0.0041064587,nan,nan,nan,0.004,1310988,1310988,6620172,197388,63.23767,63.157204,0.4809651,0.48238713,0,831,2,1,5,5,2,0,0,0,0,0,0,0,0
