timestamp,timestamp_sample,time_last_fuse,device_id,observation[0],observation[1],observation[2],observation_variance[0],observation_variance[1],observation_variance[2],innovation[0],innovation[1],innovation[2],innovation_filtered[0],innovation_filtered[1],innovation_filtered[2],innovation_variance[0],innovation_variance[1],innovation_variance[2],test_ratio[0],test_ratio[1],test_ratio[2],test_ratio_filtered[0],test_ratio_filtered[1],test_ratio_filtered[2],estimator_instance,innovation_rejected,fused
1592244000,1592088000,1592088000,0,0.001718369,0.0031371212,-0.9999936,1.0,1.0,1.0,-0.0005020256,-0.0058677588,-1.847744e-06,0.00034177356,-0.0033361907,-3.2171298e-05,1.0000428,1.0000426,1.0,4.032303e-06,0.000550866,5.4626526e-11,6.350191e-05,-0.0005463906,-9.023631e-08,0,0,1
1592252000,1592096000,1592096000,0,0.0062906505,0.009131583,-0.9999385,1.0,1.0,1.0,-0.005075489,-0.011882249,-5.698204e-05,0.00025646234,-0.0034707743,-3.2562017e-05,1.0000428,1.0000426,1.0,0.0004121518,0.0022589094,5.1951247e-08,5.60113e-05,-0.0005733594,-8.9633396e-08,0,0,1
1592260000,1592104000,1592104000,0,-0.0003883624,-0.00096615107,-0.9999994,1.0,1.0,1.0,0.0016294294,-0.0018055094,4.053116e-06,0.00027808387,-0.0034445496,-3.19854e-05,1.0000428,1.0000426,1.0,4.2478823e-05,5.215561e-05,2.6284397e-10,5.579819e-05,-0.00056515145,-8.821771e-08,0,0,1
1592268000,1592112000,1592112000,0,0.00122549,0.0011342596,-0.9999985,1.0,1.0,1.0,1.9465806e-06,-0.0039536003,3.0994415e-06,0.00027373526,-0.0034525662,-3.1432883e-05,1.0000428,1.0000426,1.0,6.062422e-11,0.00025008465,1.537046e-10,5.491948e-05,-0.0005601898,-8.6826034e-08,0,0,1
1592276000,1592120000,1592120000,0,0.006839483,-0.00089654006,-0.9999763,1.0,1.0,1.0,-0.005619283,-0.0019214773,-1.9073486e-05,0.00018093182,-0.0034284545,-3.1238247e-05,1.0000429,1.0000427,1.0,0.0005051998,5.9070677e-05,5.820766e-09,4.6098707e-05,-0.00055229815,-8.555036e-08,0,0,1
1592284000,1592128000,1592128000,0,-0.0054135025,-0.002961797,-0.9999809,1.0,1.0,1.0,0.006743882,0.00012283772,-1.4305115e-05,0.00028428537,-0.0033725286,-3.0971583e-05,1.0000429,1.0000427,1.0,0.00072764786,2.4141542e-07,3.274181e-09,5.6831763e-05,-0.00054359675,-8.425467e-08,0,0,1
1592300000,1592144000,1592144000,0,-0.007856397,0.004590375,-0.9999586,1.0,1.0,1.0,0.009317502,-0.0074787345,-3.618002e-05,0.00040305068,-0.0034456265,-3.0554143e-05,1.0000429,1.0000427,1.0,0.001388994,0.0008948653,2.09439e-08,7.6553886e-05,-0.0005445069,-8.195132e-08,0,0,1
1592308000,1592152000,1592152000,0,-0.0024663927,0.0028371126,-0.9999929,1.0,1.0,1.0,0.0039757853,-0.005689997,-1.847744e-06,0.0004593142,-0.0034809709,-3.0102074e-05,1.0000429,1.0000427,1.0,0.00025289904,0.000517995,5.4626526e-11,7.9330974e-05,-0.00054408936,-8.066161e-08,0,0,1
1592316000,1592160000,1592160000,0,0.0006856421,0.0013701146,-0.9999988,1.0,1.0,1.0,0.00080946565,-0.0043084077,4.172325e-06,0.0004648284,-0.0034940015,-2.956232e-05,1.000043,1.0000427,1.0,1.0483303e-05,0.00029698535,2.7853275e-10,7.824676e-05,-0.00054019794,-7.938696e-08,0,0,1
1592324000,1592168000,1592168000,0,-0.0015001274,0.007821375,-0.9999683,1.0,1.0,1.0,0.002973075,-0.010780723,-2.6285648e-05,0.00050432835,-0.003608753,-2.9510718e-05,1.000043,1.0000428,1.0,0.00014142072,0.0018595041,1.1054965e-08,7.9241625e-05,-0.0005609744,-7.831086e-08,0,0,1
1592340000,1592184000,1592184000,0,-0.005312807,-0.004006491,-0.9999779,1.0,1.0,1.0,0.0069214604,0.0011200723,-1.6748905e-05,0.00052833935,-0.0035219751,-2.9050037e-05,1.000043,1.0000428,1.0,0.00076647283,2.0072133e-05,4.488413e-09,8.388887e-05,-0.0005450936,-7.597483e-08,0,0,1
1592348000,1592192000,1592192000,0,-0.005615683,-0.00841274,-0.99994886,1.0,1.0,1.0,0.007227812,0.0055638906,-4.5776367e-05,0.00063384284,-0.0033788907,-2.9313444e-05,1.000043,1.0000428,1.0,0.0008358243,0.00049528887,3.3527613e-08,9.573038e-05,-0.0005287096,-7.5306374e-08,0,0,1
1592356000,1592200000,1592200000,0,-0.0060157874,0.0047911927,-0.9999704,1.0,1.0,1.0,0.0075919805,-0.0075311037,-2.4616718e-05,0.0007434198,-0.0034442798,-2.923948e-05,1.0000432,1.0000429,1.0,0.0009221709,0.0009074414,9.695725e-09,0.00010874519,-0.0005346739,-7.427314e-08,0,0,1
1592364000,1592208000,1592208000,0,-0.0056203837,-0.007131333,-0.9999588,1.0,1.0,1.0,0.007142377,0.004391621,-3.629923e-05,0.00084419077,-0.0033208798,-2.9350656e-05,1.0000432,1.0000429,1.0,0.0008161816,0.0003085681,2.1082144e-08,0.00011988592,-0.00052139454,-7.343549e-08,0,0,1
1592380000,1592224000,1592224000,0,7.201927e-05,-0.00011658711,-1.0,1.0,1.0,1.0,0.0013626466,-0.0025828634,4.6491623e-06,0.0009049012,-0.0032332586,-2.8493329e-05,1.0000432,1.0000429,1.0,2.970761e-05,0.000106734355,3.4583536e-10,0.00012105369,-0.00050616194,-7.11536e-08,0,0,1
1592388000,1592232000,1592232000,0,0.0073086605,-0.0007373812,-0.99997306,1.0,1.0,1.0,-0.005895382,-0.0020872522,-2.193451e-05,0.00079781015,-0.0032152112,-2.839004e-05,1.0000432,1.0000429,1.0,0.0005560644,6.970296e-05,7.697963e-09,0.00011039041,-0.00049928855,-7.01543e-08,0,0,1
1592396000,1592240000,1592240000,0,-0.003569714,-0.008963547,-0.9999535,1.0,1.0,1.0,0.0050341804,0.0062479856,-4.172325e-05,0.0008645246,-0.0030661845,-2.8600012e-05,1.0000421,1.0000418,1.0,0.0004054705,0.00062457105,2.7853275e-08,0.000115037335,-0.00048159,-6.9488145e-08,0,0,1
1592404000,1592248000,1592248000,0,0.0023025984,-0.0073426096,-0.9999704,1.0,1.0,1.0,-0.0007601883,0.004618819,-2.4735928e-05,0.0008389386,-0.0029451607,-2.853916e-05,1.0000421,1.0000418,1.0,9.245791e-06,0.00034132152,9.789858e-09,0.000113080125,-0.00046863075,-6.854801e-08,0,0,1
1592420000,1592264000,1592264000,0,-0.0008970428,-0.0057639265,-0.999983,1.0,1.0,1.0,0.0024147707,0.0030889497,-1.2218952e-05,0.00082191895,-0.002821473,-2.7874898e-05,1.0000421,1.000042,1.0,9.329395e-05,0.00015265937,2.3888447e-09,0.0001101577,-0.00045188074,-6.644491e-08,0,0,1
1592428000,1592272000,1592272000,0,-0.0043931734,-0.0011659191,-0.9999896,1.0,1.0,1.0,0.005869272,-0.0015185018,-5.7816505e-06,0.0009014048,-0.0028009538,-2.7526972e-05,1.0000422,1.000042,1.0,0.0005511504,3.6892012e-05,5.3483973e-10,0.00011710246,-0.00044534547,-6.540696e-08,0,0,1
1592436000,1592280000,1592280000,0,-0.0045183855,0.004690886,-0.9999788,1.0,1.0,1.0,0.006023402,-0.0073782224,-1.6450882e-05,0.0009820662,-0.0028730368,-2.7352546e-05,1.0000422,1.000042,1.0,0.0005804774,0.0008709741,4.3301043e-09,0.00012439971,-0.0004520483,-6.444512e-08,0,0,1
1592444000,1592288000,1592288000,0,-0.005200148,-0.00321008,-0.9999814,1.0,1.0,1.0,0.0066748764,0.0004497685,-1.3589859e-05,0.0010717167,-0.002820709,-2.7135811e-05,1.0000422,1.000042,1.0,0.00071283354,3.2365315e-06,2.9549483e-09,0.00013366638,-0.00044487845,-6.347677e-08,0,0,1
1592460000,1592304000,1592304000,0,-0.00018820724,9.4601535e-05,-1.0,1.0,1.0,1.0,0.0017147681,-0.0028469902,4.887581e-06,0.0011425348,-0.0028366605,-2.6237693e-05,1.0000422,1.000042,1.0,4.704489e-05,0.00012968021,3.8221515e-10,0.00013639867,-0.00043664375,-6.148797e-08,0,0,1
1592468000,1592312000,1592312000,0,0.008843934,-0.001216361,-0.9999602,1.0,1.0,1.0,-0.0072753993,-0.0015302583,-3.4809113e-05,0.0010099689,-0.0028160873,-2.6372676e-05,1.0000423,1.0000421,1.0,0.0008468671,3.7465474e-05,1.9386789e-08,0.00012091416,-0.00043035747,-6.082496e-08,0,0,1
1592476000,1592320000,1592320000,0,-0.012482923,0.0065829046,-0.9999004,1.0,1.0,1.0,0.014115489,-0.009338848,-9.447336e-05,0.001216355,-0.002918808,-2.7445129e-05,1.0000423,1.0000421,1.0,0.0031878178,0.0013953667,1.4280346e-07,0.00016921185,-0.00044555447,-6.211596e-08,0,0,1
1592484000,1592328000,1592328000,0,-0.018614054,0.0048722234,-0.9998149,1.0,1.0,1.0,0.020358559,-0.00762686,-0.00017982721,0.001517807,-0.0029929506,-2.9844847e-05,1.0000423,1.0000421,1.0,0.0066312538,0.0009306647,5.174052e-07,0.00027097628,-0.000453194,-6.928587e-08,0,0,1
1592500000,1592344000,1592344000,0,0.0026626626,-0.0060078474,-0.99997836,1.0,1.0,1.0,-0.0008198947,0.0032143225,-1.6093254e-05,0.0015608176,-0.00289257,-2.9270088e-05,1.0000423,1.0000422,1.0,1.0755183e-05,0.00016530293,4.1438852e-09,0.0002733649,-0.0004384062,-6.719733e-08,0,0,1
1592508000,1592352000,1592352000,0,-0.0012424956,-0.005060582,-0.99998647,1.0,1.0,1.0,0.0031218368,0.0022621406,-7.8082085e-06,0.0015854005,-0.0028113935,-2.8932105e-05,1.0000424,1.0000422,1.0,0.00015592722,8.1873026e-05,9.754899e-10,0.00027151548,-0.00043021282,-6.615446e-08,0,0,1
1592516000,1592360000,1592360000,0,0.009410735,0.004485922,-0.9999457,1.0,1.0,1.0,-0.0074649137,-0.0073542064,-4.8220158e-05,0.001442876,-0.0028829337,-2.9235855e-05,1.0000424,1.0000422,1.0,0.00089156115,0.0008653131,3.7202938e-08,0.0002531993,-0.0004370648,-6.5698536e-08,0,0,1
1592524000,1592368000,1592368000,0,0.008248239,0.0027044234,-0.99996233,1.0,1.0,1.0,-0.0062913657,-0.0055072866,-3.1888485e-05,0.0013210769,-0.002924262,-2.9277628e-05,1.0000424,1.0000422,1.0,0.0006332736,0.0004852628,1.6270008e-08,0.0002392391,-0.00043782382,-6.492014e-08,0,0,1
1592540000,1592384000,1592384000,0,0.004988529,0.0033000084,-0.9999821,1.0,1.0,1.0,-0.0029914114,-0.0062333597,-1.1563301e-05,0.0011463375,-0.0028617634,-2.9302435e-05,1.0000424,1.0000422,1.0,0.00014317059,0.00062165014,2.139359e-09,0.00022181228,-0.0004289775,-6.351763e-08,0,0,1
1592548000,1592392000,1592392000,0,0.012754689,0.013819326,-0.99982315,1.0,1.0,1.0,-0.010727573,-0.016768366,-0.00017040968,0.00095934677,-0.003080765,-3.1524596e-05,1.0000426,1.0000423,1.0,0.0018412148,0.004498659,4.6463134e-07,0.00018932366,-0.00049306697,-6.9834385e-08,0,0,1
1592556000,1592400000,1592400000,0,0.0061639575,0.0057252985,-0.9999646,1.0,1.0,1.0,-0.004159916,-0.0086025465,-2.9206276e-05,0.00087872846,-0.0031677221,-3.1488085e-05,1.0000426,1.0000423,1.0,0.00027686666,0.0011840109,1.3648105e-08,0.00018198208,-0.00050394796,-6.894956e-08,0,0,1
1592564000,1592408000,1592408000,0,-0.0049773776,0.004333971,-0.9999782,1.0,1.0,1.0,0.006957373,-0.007073314,-1.6093254e-05,0.00097445515,-0.0032292276,-3.1245647e-05,1.0000426,1.0000423,1.0,0.0007744477,0.00080047443,4.1438852e-09,0.00019131224,-0.00050861767,-6.7929e-08,0,0,1
1592580000,1592424000,1592424000,0,-0.0010534723,0.00063628185,-0.9999992,1.0,1.0,1.0,0.0031412253,-0.003280395,4.9471855e-06,0.001050141,-0.0032718943,-3.0206156e-05,1.0000426,1.0000424,1.0,0.00015787002,0.00017216855,3.915943e-10,0.00019113491,-0.000504156,-6.5800414e-08,0,0,1
1592588000,1592432000,1592432000,0,0.0013374334,-0.00065153977,-0.9999989,1.0,1.0,1.0,0.0007395245,-0.0020873477,4.887581e-06,0.0010452494,-0.00325324,-2.9653498e-05,1.0000427,1.0000424,1.0,8.749969e-06,6.9709364e-05,3.8221515e-10,0.00018826271,-0.0004973143,-6.475817e-08,0,0,1
1592596000,1592440000,1592440000,0,0.0064978716,-0.003421,-0.99997294,1.0,1.0,1.0,-0.004416637,0.00063114637,-2.0980835e-05,0.0009592354,-0.0031920685,-2.9516921e-05,1.0000427,1.0000424,1.0,0.00031209362,6.3732614e-06,7.043127e-09,0.00018038308,-0.00048938225,-6.384927e-08,0,0,1
1592604000,1592448000,1592448000,0,0.0054675243,0.0020968234,-0.99998283,1.0,1.0,1.0,-0.0033276475,-0.0048511405,-1.1086464e-05,0.0008917255,-0.0032181956,-2.9226678e-05,1.0000427,1.0000424,1.0,0.00017716423,0.00037652106,1.966555e-09,0.00017475242,-0.0004876049,-6.287474e-08,0,0,1
1592620000,1592464000,1592464000,0,-0.004075158,-0.0027173741,-0.999988,1.0,1.0,1.0,0.006108773,0.00011056219,-6.4969063e-06,0.0010338124,-0.0031753483,-2.838615e-05,1.0000427,1.0000424,1.0,0.0005970482,1.9557568e-07,6.7535666e-10,0.00018430842,-0.00047601401,-6.091976e-08,0,0,1
1592628000,1592472000,1592472000,0,-0.0017041118,0.0043046265,-0.9999893,1.0,1.0,1.0,0.0037252032,-0.0069579575,-5.1259995e-06,0.0010761966,-0.0032349168,-2.801985e-05,1.0000428,1.0000426,1.0,0.00022202473,0.00077457784,4.2041393e-10,0.00018490237,-0.0004807158,-5.9967014e-08,0,0,1
1592636000,1592480000,1592480000,0,0.007908208,-0.01210594,-0.9998955,1.0,1.0,1.0,-0.0058260607,0.009463673,-9.87649e-05,0.00096749957,-0.003034939,-2.9133944e-05,1.0000428,1.0000426,1.0,0.0005430645,0.0014329168,1.5607208e-07,0.00017343833,-0.00045057986,-6.148048e-08,0,0,1
1592644000,1592488000,1592488000,0,-0.0016263411,0.008010626,-0.99996656,1.0,1.0,1.0,0.0036994098,-0.010629984,-2.783537e-05,0.0010105218,-0.003154546,-2.9113493e-05,1.0000428,1.0000426,1.0,0.00021896075,0.0018078679,1.2396924e-08,0.00017415521,-0.00047195447,-6.070751e-08,0,0,1
1592660000,1592504000,1592504000,0,-0.0072450717,-0.0020053475,-0.99997175,1.0,1.0,1.0,0.00935393,-0.00058534415,-2.2768974e-05,0.0011706563,-0.0031477273,-2.853368e-05,1.0000429,1.0000427,1.0,0.0013998761,5.4818106e-06,8.294819e-09,0.00019279384,-0.00046432487,-5.8940298e-08,0,0,1
1592668000,1592512000,1592512000,0,-0.0010719335,-0.0054207593,-0.99998474,1.0,1.0,1.0,0.0031889472,0.0028425488,-9.834766e-06,0.0012024404,-0.0030533923,-2.8239208e-05,1.0000429,1.0000427,1.0,0.00016270316,0.00012927582,1.5475621e-09,0.00019231997,-0.00045497683,-5.8036477e-08,0,0,1
1592676000,1592520000,1592520000,0,0.003310047,-0.0026617458,-0.9999909,1.0,1.0,1.0,-0.0012090243,1.7629238e-05,-3.3974648e-06,0.0011644645,-0.0030050296,-2.7848e-05,1.0000429,1.0000427,1.0,2.3386834e-05,4.9724282e-09,1.8468427e-10,0.00018892302,-0.00044781176,-5.7125426e-08,0,0,1
1592684000,1592528000,1592528000,0,0.01173125,0.0049804947,-0.9999189,1.0,1.0,1.0,-0.00978975,-0.007670055,-7.5638294e-05,0.0009919573,-0.0030784947,-2.8600603e-05,1.0000429,1.0000427,1.0,0.0015333615,0.00094123575,9.1538425e-08,0.00016180043,-0.00045558222,-5.7667364e-08,0,0,1
1592700000,1592544000,1592544000,0,-0.0028976535,0.004870931,-0.99998397,1.0,1.0,1.0,0.0048297355,-0.007601565,-1.0430813e-05,0.00095967005,-0.0031156512,-2.8180653e-05,1.000043,1.0000428,1.0,0.00037320546,0.0009245011,1.7408297e-09,0.0001564461,-0.0004560974,-5.5991663e-08,0,0,1
1592708000,1592552000,1592552000,0,0.0046082917,0.0010035766,-0.9999889,1.0,1.0,1.0,-0.0026857257,-0.0037169391,-5.6028366e-06,0.0009022622,-0.0031251202,-2.7825097e-05,1.000043,1.0000428,1.0,0.00011540499,0.00022104073,5.0226845e-10,0.00015216498,-0.0004523957,-5.5117813e-08,0,0,1
1592716000,1592560000,1592560000,0,0.0014311092,-0.006072426,-0.99998057,1.0,1.0,1.0,0.00050665624,0.003386077,-1.3947487e-05,0.0008960322,-0.0030225816,-2.7606553e-05,1.000043,1.0000428,1.0,4.107032e-06,0.00018344044,3.1125182e-09,0.00014983336,-0.00044238253,-5.429883e-08,0,0,1
1592724000,1592568000,1592568000,0,0.00058239803,0.0014477189,-0.99999887,1.0,1.0,1.0,0.0013405903,-0.0042136908,4.5895576e-06,0.0009030331,-0.003041339,-2.7099528e-05,1.000043,1.0000428,1.0,2.875368e-05,0.00028407088,3.3702463e-10,0.00014792659,-0.00043988944,-5.3438423e-08,0,0,1
1592740000,1592584000,1592584000,0,0.006404022,-0.0018981843,-0.99997765,1.0,1.0,1.0,-0.004490888,-0.0009971341,-1.6450882e-05,0.00075977884,-0.0030029796,-2.6599557e-05,1.0000432,1.0000428,1.0,0.00032267533,1.5907743e-05,4.3301043e-09,0.00013619573,-0.00042812715,-5.184472e-08,0,0,1
1592748000,1592592000,1592592000,0,-0.00027152651,0.0049529574,-0.9999877,1.0,1.0,1.0,0.00220764,-0.007828508,-6.198883e-06,0.0007825798,-0.0030789722,-2.6278287e-05,1.0000432,1.0000429,1.0,7.7975434e-05,0.0009805264,6.148184e-10,0.00013527887,-0.00043682635,-5.1037947e-08,0,0,1
1592756000,1592600000,1592600000,0,0.0065036654,0.0019036579,-0.99997705,1.0,1.0,1.0,-0.0044897087,-0.0047384943,-1.6987324e-05,0.00069955166,-0.0031051065,-2.6131973e-05,1.0000432,1.0000429,1.0,0.00032250583,0.00035923783,4.6171067e-09,0.00012806966,-0.00043560448,-5.030691e-08,0,0,1
1592764000,1592608000,1592608000,0,0.0011997821,0.0020872022,-0.9999971,1.0,1.0,1.0,0.0008688676,-0.004995106,3.3974648e-06,0.00070221804,-0.0031348702,-2.5666943e-05,1.0000432,1.0000429,1.0,1.2078373e-05,0.00039920016,1.8468427e-10,0.00012624303,-0.0004350312,-4.9511765e-08,0,0,1
1592780000,1592624000,1592624000,0,0.0031723587,0.00551493,-0.9999798,1.0,1.0,1.0,-0.0011340505,-0.008558441,-1.3530254e-05,0.0006070299,-0.00323194,-2.5225796e-05,1.0000433,1.000043,1.0,2.057624e-05,0.0011719002,2.9290845e-09,0.00011880771,-0.00044363944,-4.8033304e-08,0,0,1
1592788000,1592632000,1592632000,0,-0.0031862252,0.0070599467,-0.9999699,1.0,1.0,1.0,0.0052226754,-0.010061538,-2.3543835e-05,0.0006797172,-0.0033394927,-2.5199308e-05,1.0000433,1.000043,1.0,0.00043640254,0.001619683,8.868994e-09,0.00012380921,-0.0004621598,-4.7416542e-08,0,0,1
1592796000,1592640000,1592640000,0,0.009437956,0.0058418964,-0.99993837,1.0,1.0,1.0,-0.0073489896,-0.008574879,-5.5730343e-05,0.00055328093,-0.0034219397,-2.5680112e-05,1.0000421,1.0000418,1.0,0.000864086,0.0011764074,4.9693938e-08,0.0001082518,-0.0004734078,-4.7452406e-08,0,0,1
1592804000,1592648000,1592648000,0,-0.00087508134,-0.014780646,-0.99989045,1.0,1.0,1.0,0.0030469974,0.012139429,-0.00010371208,0.00059255207,-0.0031768787,-2.6908961e-05,1.0000421,1.0000418,1.0,0.00014854083,0.0023577532,1.7209913e-07,0.00010888627,-0.0004288226,-4.941535e-08,0,0,1
1592820000,1592664000,1592664000,0,-0.0027846554,0.003946605,-0.99998844,1.0,1.0,1.0,0.0049357405,-0.006561425,-5.90086e-06,0.0006593705,-0.0032119602,-2.6094516e-05,1.0000422,1.000042,1.0,0.0003897681,0.00068880786,5.5712235e-10,0.00011168159,-0.00042726356,-4.787542e-08,0,0,1
1592828000,1592672000,1592672000,0,-0.0015888016,0.0049149403,-0.9999867,1.0,1.0,1.0,0.0036814047,-0.0074719274,-7.927418e-06,0.0007069616,-0.0032790464,-2.580842e-05,1.0000422,1.000042,1.0,0.0002168347,0.0008932377,1.0055032e-09,0.00011333755,-0.00043460174,-4.7137313e-08,0,0,1
1592836000,1592680000,1592680000,0,0.0038195776,-0.002908351,-0.9999885,1.0,1.0,1.0,-0.0017117909,0.00027297763,-5.841255e-06,0.00066887104,-0.003223109,-2.5493977e-05,1.0000422,1.000042,1.0,4.6881672e-05,1.1922185e-06,5.459242e-10,0.00011081441,-0.00042773885,-4.640359e-08,0,0,1
1592844000,1592688000,1592688000,0,0.011608355,-0.0077794534,-0.9999024,1.0,1.0,1.0,-0.009481188,0.0051455367,-9.173155e-05,0.0005090276,-0.0030913195,-2.6537087e-05,1.0000422,1.000042,1.0,0.0014382261,0.00042360698,1.3463483e-07,8.642007e-05,-0.00041433182,-4.779306e-08,0,0,1
1592860000,1592704000,1592704000,0,-0.00951623,0.0030477312,-0.9999501,1.0,1.0,1.0,0.011723079,-0.0056915116,-4.4047832e-05,0.0006554711,-0.0031204864,-2.6416305e-05,1.0000423,1.0000421,1.0,0.002198796,0.00051827106,3.1043385e-08,0.000117834585,-0.00041089425,-4.6788713e-08,0,0,1
1592868000,1592712000,1592712000,0,0.005182237,0.009379305,-0.9999426,1.0,1.0,1.0,-0.0028726924,-0.011989474,-5.13196e-05,0.00059990946,-0.0032601554,-2.6808482e-05,1.0000423,1.0000421,1.0,0.0001320322,0.0022998631,4.213922e-08,0.000113899674,-0.0004406418,-4.6715492e-08,0,0,1
1592876000,1592720000,1592720000,0,0.011404001,0.0072693825,-0.9999085,1.0,1.0,1.0,-0.009022426,-0.009857694,-8.529425e-05,0.0004483766,-0.0033640538,-2.7729518e-05,1.0000423,1.0000421,1.0,0.0013024117,0.0015547206,1.16401736e-07,9.159556e-05,-0.00045818635,-4.7812915e-08,0,0,1
1592884000,1592728000,1592728000,0,0.0015259169,0.004765531,-0.9999875,1.0,1.0,1.0,0.0007918803,-0.0073045124,-6.735325e-06,0.0004537861,-0.0034261083,-2.73989e-05,1.0000423,1.0000421,1.0,1.0032766e-05,0.00085365854,7.258336e-10,9.031111e-05,-0.00046441425,-4.7071385e-08,0,0,1
1592900000,1592744000,1592744000,0,-0.002070043,-0.011392963,-0.999933,1.0,1.0,1.0,0.004329865,0.008832574,-6.1154366e-05,0.000690736,-0.003130776,-2.8370545e-05,1.0000424,1.0000422,1.0,0.00029995095,0.0012481771,5.98377e-08,0.00012675893,-0.00042774956,-4.7314725e-08,0,0,1
1592908000,1592752000,1592752000,0,0.004225376,-0.002400906,-0.99998814,1.0,1.0,1.0,-0.0019810037,-0.0002248527,-5.90086e-06,0.00064866134,-0.0030850135,-2.8016691e-05,1.0000424,1.0000422,1.0,6.2787345e-05,8.089056e-07,5.5712235e-10,0.00012377395,-0.00042102608,-4.6578386e-08,0,0,1
1592916000,1592760000,1592760000,0,-0.0024623924,0.00044193884,-0.9999969,1.0,1.0,1.0,0.004866038,-0.003072327,3.2186508e-06,0.0007150767,-0.0030848137,-2.7524797e-05,1.0000424,1.0000422,1.0,0.00037883714,0.00015102072,1.6575541e-10,0.00012779068,-0.00041677404,-4.5842256e-08,0,0,1
1592924000,1592768000,1592768000,0,-0.00032387467,0.0070115617,-0.9999754,1.0,1.0,1.0,0.0027843735,-0.009605166,-1.8179417e-05,0.000747664,-0.0031874964,-2.7377626e-05,1.0000424,1.0000422,1.0,0.0001240385,0.001476085,5.287859e-09,0.00012773159,-0.0004334561,-4.5203603e-08,0,0,1
1592940000,1592784000,1592784000,0,-0.013382332,0.00088286557,-0.99991006,1.0,1.0,1.0,0.015965916,-0.003491503,-8.314848e-05,0.0010784857,-0.0031932422,-2.7869433e-05,1.0000426,1.0000423,1.0,0.004078394,0.00019504124,1.10618714e-07,0.00019886518,-0.00042560126,-4.5534588e-08,0,0,1
1592948000,1592792000,1592792000,0,-0.0069996174,0.001863651,-0.9999738,1.0,1.0,1.0,0.009626922,-0.0044367122,-1.9431114e-05,0.0012131068,-0.0032128245,-2.7736547e-05,1.0000426,1.0000423,1.0,0.001482779,0.00031493732,6.041091e-09,0.0002190843,-0.00042385852,-4.4912642e-08,0,0,1
1592956000,1592800000,1592800000,0,0.0049980455,0.0037167715,-0.99998057,1.0,1.0,1.0,-0.0023875134,-0.0062861852,-1.2814999e-05,0.0011564041,-0.003261224,-2.7501563e-05,1.0000426,1.0000423,1.0,9.119965e-05,0.00063223124,2.627587e-09,0.00021419793,-0.00042713998,-4.4246736e-08,0,0,1
1592964000,1592808000,1592808000,0,0.006590961,-0.0007246075,-0.99997807,1.0,1.0,1.0,-0.0040527834,-0.0018754337,-1.5377998e-05,0.0010743696,-0.0032394005,-2.731064e-05,1.0000426,1.0000423,1.0,0.00026278966,5.6273642e-05,3.7837253e-09,0.00020668632,-0.00042129957,-4.3609525e-08,0,0,1
1592980000,1592824000,1592824000,0,-0.0042937323,0.006596512,-0.999969,1.0,1.0,1.0,0.0066084415,-0.009083022,-2.527237e-05,0.0010815648,-0.0034720157,-2.7825292e-05,1.0000427,1.0000424,1.0,0.00069871417,0.0013199648,1.02190825e-08,0.00020709482,-0.0004664992,-4.3379124e-08,0,0,1
1592988000,1592832000,1592832000,0,0.011086755,-0.0048099793,-0.9999269,1.0,1.0,1.0,-0.008741083,0.0023024282,-6.723404e-05,0.0009268775,-0.0033810795,-2.8445902e-05,1.0000427,1.0000424,1.0,0.0012224523,8.481521e-05,7.232666e-08,0.00018458227,-0.00045781708,-4.383499e-08,0,0,1
1592996000,1592840000,1592840000,0,0.008534958,-0.0025591385,-0.9999603,1.0,1.0,1.0,-0.00612079,6.0606282e-05,-3.361702e-05,0.0008158906,-0.0033268798,-2.8527336e-05,1.0000427,1.0000424,1.0,0.00059939956,5.8767448e-08,1.8081664e-08,0.0001722361,-0.00045060643,-4.3429427e-08,0,0,1
1593004000,1592848000,1592848000,0,0.0057527414,-0.012127381,-0.99990994,1.0,1.0,1.0,-0.0033223801,0.009731497,-8.422136e-05,0.00075072097,-0.003121236,-2.9404408e-05,1.0000427,1.0000424,1.0,0.00017660382,0.0015151682,1.1349181e-07,0.00016674257,-0.00041964935,-4.4532772e-08,0,0,1
1593020000,1592864000,1592864000,0,0.0014298953,-0.0017242761,-0.9999975,1.0,1.0,1.0,0.0011059291,-0.0007914236,3.9339066e-06,0.0008612703,-0.0030007395,-2.869617e-05,1.0000428,1.0000426,1.0,1.9568432e-05,1.0021195e-05,2.4760993e-10,0.00017587187,-0.0004053984,-4.3213984e-08,0,0,1
1593028000,1592872000,1592872000,0,0.0018113244,-0.0009865372,-0.99999785,1.0,1.0,1.0,0.00067909225,-0.0015786516,4.2915344e-06,0.00085840136,-0.0029783444,-2.8176679e-05,1.0000428,1.0000426,1.0,7.378345e-06,3.9872557e-05,2.9467628e-10,0.00017321843,-0.0003996421,-4.2528807e-08,0,0,1
1593036000,1592880000,1592880000,0,0.011086497,0.004549807,-0.9999281,1.0,1.0,1.0,-0.008594863,-0.0071892254,-6.532669e-05,0.0007095311,-0.0030446576,-2.8761719e-05,1.0000428,1.0000426,1.0,0.0011818962,0.00082692417,6.8281224e-08,0.00015187805,-0.00040637096,-4.2934357e-08,0,0,1
1593044000,1592888000,1592888000,0,0.0021241084,0.0026857741,-0.99999416,1.0,1.0,1.0,0.00046272716,-0.005334211,9.536743e-07,0.0007056444,-0.0030807136,-2.829376e-05,1.0000428,1.0000426,1.0,3.4257162e-06,0.00045524153,1.4551915e-11,0.00014954021,-0.0004071406,-4.2257994e-08,0,0,1
1593060000,1592904000,1592904000,0,0.001281251,0.0006861245,-0.9999989,1.0,1.0,1.0,0.0013620618,-0.0033002119,5.841255e-06,0.0006982497,-0.0029239473,-2.8040115e-05,1.0000429,1.0000427,1.0,2.9682125e-05,0.00017425494,5.459242e-10,0.00014528715,-0.00038410502,-4.1467715e-08,0,0,1
1593068000,1592912000,1592912000,0,0.003813714,-0.0068954006,-0.9999689,1.0,1.0,1.0,-0.0012318518,0.004222187,-2.4199486e-05,0.00066785445,-0.0028114098,-2.7979631e-05,1.0000429,1.0000427,1.0,2.4278297e-05,0.00028521768,9.369842e-09,0.00014261683,-0.00037356452,-4.0962234e-08,0,0,1
1593076000,1592920000,1592920000,0,0.0034897397,-0.0060326722,-0.9999757,1.0,1.0,1.0,-0.0010075029,0.0033612102,-1.7642975e-05,0.0006414709,-0.0027142032,-2.781685e-05,1.0000429,1.0000427,1.0,1.6240298e-05,0.00018075603,4.980393e-09,0.00014011514,-0.00036483505,-4.039559e-08,0,0,1
1593084000,1592928000,1592928000,0,0.0011957937,0.0077552856,-0.9999692,1.0,1.0,1.0,0.0012201027,-0.010328999,-2.4616718e-05,0.0006505832,-0.0028341212,-2.7766455e-05,1.0000429,1.0000427,1.0,2.3817385e-05,0.0017069386,9.695725e-09,0.00013828368,-0.00038597055,-3.9912127e-08,0,0,1
1593100000,1592944000,1592944000,0,-0.005984593,0.0048254724,-0.99997044,1.0,1.0,1.0,0.008388186,-0.0073908567,-2.3424625e-05,0.00068230164,-0.0028204052,-2.7824795e-05,1.000043,1.0000428,1.0,0.0011257381,0.0008739588,8.779409e-09,0.00014507642,-0.00038589112,-3.9123574e-08,0,0,1
1593108000,1592952000,1592952000,0,-0.008245097,-0.0055151638,-0.9999507,1.0,1.0,1.0,0.010726543,0.0028861598,-4.2796135e-05,0.0008404787,-0.002730538,-2.8060564e-05,1.000043,1.0000428,1.0,0.0018408605,0.00013327299,2.9304147e-08,0.00017178169,-0.0003777153,-3.896894e-08,0,0,1
1593116000,1592960000,1592960000,0,-0.0053193048,0.001617023,-0.99998444,1.0,1.0,1.0,0.007802892,-0.004223438,-9.119511e-06,0.000950123,-0.0027540482,-2.7762278e-05,1.000043,1.0000428,1.0,0.00097412005,0.00028538663,1.3306476e-09,0.00018441695,-0.0003762613,-3.837621e-08,0,0,1
1593124000,1592968000,1592968000,0,0.006691633,0.002607703,-0.9999742,1.0,1.0,1.0,-0.0041859047,-0.00526738,-1.9133091e-05,0.00086924067,-0.0027936283,-2.7626385e-05,1.0000432,1.0000428,1.0,0.00028033668,0.00044390562,5.8572027e-09,0.00017709799,-0.00037732656,-3.78641e-08,0,0,1
1593140000,1592984000,1592984000,0,-0.004597259,-0.0149471825,-0.99987775,1.0,1.0,1.0,0.007124056,0.012374996,-0.00011575222,0.0009772523,-0.0024675974,-2.8721794e-05,1.0000432,1.0000429,1.0,0.0008119998,0.0024501432,2.1437722e-07,0.0001848967,-0.0003249658,-4.0075978e-08,0,0,1
1593148000,1592992000,1592992000,0,-0.0033873038,-0.0058096056,-0.99997735,1.0,1.0,1.0,0.005980231,0.0032451553,-1.5974045e-05,0.0010560394,-0.0023776328,-2.852104e-05,1.0000432,1.0000429,1.0,0.0005721859,0.00016848929,4.0827217e-09,0.00019099574,-0.00031719485,-3.9509157e-08,0,0,1
1593156000,1593000000,1593000000,0,-0.0005810364,-0.0030851946,-0.999995,1.0,1.0,1.0,0.0031863223,0.0005720258,1.5497208e-06,0.0010895871,-0.0023311814,-2.8047485e-05,1.0000432,1.0000429,1.0,0.00016243538,5.235191e-06,3.842615e-11,0.00019054596,-0.00031211722,-3.888636e-08,0,0,1
1593164000,1593008000,1593008000,0,-0.0056865625,-0.0013819957,-0.99998283,1.0,1.0,1.0,0.008401758,-0.0010935067,-1.0371208e-05,0.0012047394,-0.0023116905,-2.7769118e-05,1.0000433,1.0000429,1.0,0.0011293837,1.913129e-05,1.7209913e-09,0.00020533081,-0.00030750327,-3.8301078e-08,0,0,1
1593180000,1593024000,1593024000,0,-0.0038606855,-0.0011868705,-0.99999183,1.0,1.0,1.0,0.0065743313,-0.0013717976,-1.3113022e-06,0.0014005114,-0.0023052085,-2.7059696e-05,1.0000433,1.000043,1.0,0.0006915194,3.0107965e-05,2.7512215e-11,0.00022721822,-0.0003003806,-3.7124238e-08,0,0,1
1593188000,1593032000,1593032000,0,0.0039975666,-0.0074305176,-0.9999644,1.0,1.0,1.0,-0.0013113976,0.004951096,-2.8908253e-05,0.0013578042,-0.002190936,-2.7088807e-05,1.0000433,1.000043,1.0,2.7515029e-05,0.00039219676,1.3370993e-08,0.00022320668,-0.0002894739,-3.6750173e-08,0,0,1
1593196000,1593040000,1593040000,0,0.001717255,-0.00033222928,-0.99999845,1.0,1.0,1.0,0.0008580403,-0.0019301353,4.2915344e-06,0.0013499339,-0.0021868288,-2.6594627e-05,1.0000421,1.0000418,1.0,1.1779234e-05,5.960426e-05,2.9467628e-10,0.00021987711,-0.0002858539,-3.616679e-08,0,0,1
1593204000,1593048000,1593048000,0,-0.0030565583,0.0031685168,-0.9999903,1.0,1.0,1.0,0.005638634,-0.0053907633,-3.993511e-06,0.0014174725,-0.0022372843,-2.6238704e-05,1.0000421,1.000042,1.0,0.00050868565,0.00046494577,2.551701e-10,0.00022442528,-0.00028867423,-3.560125e-08,0,0,1
1593220000,1593064000,1593064000,0,-0.00015668709,-0.0018419446,-0.99999833,1.0,1.0,1.0,0.0027817446,-0.0002739092,4.053116e-06,0.0015031765,-0.002354657,-2.6056186e-05,1.0000422,1.000042,1.0,0.00012380442,1.2003695e-06,2.6284397e-10,0.00022703016,-0.00031422908,-3.499221e-08,0,0,1
1593228000,1593072000,1593072000,0,-4.222234e-05,0.011199931,-0.9999373,1.0,1.0,1.0,0.0026552754,-0.013231143,-5.722046e-05,0.0015213198,-0.0025259403,-2.6546963e-05,1.0000422,1.000042,1.0,0.00011280304,0.0028008928,5.2386895e-08,0.00022523131,-0.00035338913,-3.526614e-08,0,0,1
1593236000,1593080000,1593080000,0,0.01253602,0.00012105235,-0.9999214,1.0,1.0,1.0,-0.009912195,-0.0022797054,-7.289648e-05,0.0013412645,-0.0025220625,-2.7276876e-05,1.0000422,1.000042,1.0,0.0015719594,8.314941e-05,8.502235e-08,0.0001969291,-0.0003491334,-3.6049702e-08,0,0,1
1593244000,1593088000,1593088000,0,-0.0014616704,0.004681683,-0.999988,1.0,1.0,1.0,0.0040621627,-0.0068388972,-6.377697e-06,0.0013841132,-0.0025900442,-2.6947755e-05,1.0000422,1.000042,1.0,0.0002640075,0.00074829685,6.508003e-10,0.00019798546,-0.00035541944,-3.549224e-08,0,0,1
1593260000,1593104000,1593104000,0,0.0051109376,0.0055156257,-0.9999717,1.0,1.0,1.0,-0.0025132142,-0.0075179506,-2.2947788e-05,0.0012504462,-0.0028290192,-2.7579417e-05,1.0000423,1.0000421,1.0,0.00010105566,0.0009042752,8.425616e-09,0.00018753961,-0.00040047066,-3.5793082e-08,0,0,1
1593268000,1593112000,1593112000,0,0.009427006,0.007487174,-0.9999275,1.0,1.0,1.0,-0.0067449347,-0.009507132,-6.687641e-05,0.0011245346,-0.0029341863,-2.8198268e-05,1.0000423,1.0000421,1.0,0.0007278755,0.001446108,7.155927e-08,0.00017312363,-0.0004169374,-3.635633e-08,0,0,1
1593276000,1593120000,1593120000,0,0.006835019,0.010211267,-0.9999245,1.0,1.0,1.0,-0.00409423,-0.012229772,-6.967783e-05,0.0010423494,-0.0030805734,-2.885149e-05,1.0000423,1.0000421,1.0,0.00026819215,0.0023929768,7.768e-08,0.00016617378,-0.00044805612,-3.7007094e-08,0,0,1
1593284000,1593128000,1593128000,0,0.0035998933,0.0089760795,-0.9999532,1.0,1.0,1.0,-0.00082914415,-0.01092389,-4.1127205e-05,0.0010128771,-0.0032040903,-2.9044808e-05,1.0000424,1.0000422,1.0,1.0999213e-05,0.0019092215,2.7063152e-08,0.00016338365,-0.0004710666,-3.6850498e-08,0,0,1
1593300000,1593144000,1593144000,0,0.0005059512,0.0052188397,-0.9999863,1.0,1.0,1.0,0.0021707092,-0.0072051445,-8.165836e-06,0.0009653541,-0.0032534862,-2.8451508e-05,1.0000424,1.0000422,1.0,7.538845e-05,0.00083059067,1.0668941e-09,0.00015687903,-0.00047076837,-3.5751388e-08,0,0,1
1593308000,1593152000,1593152000,0,-0.0004852274,0.007464302,-0.999972,1.0,1.0,1.0,0.0032388968,-0.009472343,-2.2232533e-05,0.0010011579,-0.003351421,-2.8353572e-05,1.0000424,1.0000422,1.0,0.00016784013,0.001435544,7.908568e-09,0.00015705165,-0.00048596167,-3.531292e-08,0,0,1
1593316000,1593160000,1593160000,0,-0.0016616345,0.0046410295,-0.99998784,1.0,1.0,1.0,0.0044783885,-0.006687955,-6.0796738e-06,0.0010559175,-0.003403965,-2.8002802e-05,1.0000424,1.0000422,1.0,0.00032088178,0.00071562966,5.9139893e-10,0.00015963164,-0.00048957847,-3.4766124e-08,0,0,1
1593324000,1593168000,1593168000,0,-0.004819939,-0.0016901563,-0.9999869,1.0,1.0,1.0,0.0076433504,-0.00031464687,-7.1525574e-06,0.0011596566,-0.0033553143,-2.7674452e-05,1.0000426,1.0000422,1.0,0.00093469315,1.5839755e-06,8.1854523e-10,0.00017183734,-0.0004818935,-3.4231515e-08,0,0,1
1593340000,1593184000,1593184000,0,-0.0036002612,-0.002215508,-0.9999911,1.0,1.0,1.0,0.0064646695,0.00014046254,-2.682209e-06,0.0013516122,-0.0032518713,-2.7005282e-05,1.0000426,1.0000423,1.0,0.00066864275,3.1566222e-07,1.1510792e-10,0.00019348574,-0.00046684378,-3.3187938e-08,0,0,1
1593348000,1593192000,1593192000,0,0.0014225517,-0.0005882218,-0.99999887,1.0,1.0,1.0,0.0014569031,-0.001454478,5.066395e-06,0.0013532703,-0.0032235659,-2.6500216e-05,1.0000426,1.0000423,1.0,3.395962e-05,3.3846667e-05,4.106937e-10,0.00019097351,-0.00046002492,-3.2658825e-08,0,0,1
1593356000,1593200000,1593200000,0,0.0025432534,0.00043135765,-0.99999666,1.0,1.0,1.0,0.00033000484,-0.0024011435,2.7418137e-06,0.0013371558,-0.0032106144,-2.6039712e-05,1.0000426,1.0000423,1.0,1.742377e-06,9.2243936e-05,1.2028067e-10,0.0001879935,-0.0004542331,-3.214262e-08,0,0,1
1593364000,1593208000,1593208000,0,0.002629239,-0.0023357612,-0.9999938,1.0,1.0,1.0,0.0002315538,0.00045505213,-3.5762787e-07,0.0013197447,-0.0031528873,-2.563527e-05,1.0000427,1.0000424,1.0,8.57838e-07,3.3130184e-06,2.046363e-12,0.00018504648,-0.00044702765,-3.1636468e-08,0,0,1
1593380000,1593224000,1593224000,0,-0.007414757,-0.0008062764,-0.99997216,1.0,1.0,1.0,0.010270519,-0.0011201499,-2.1874905e-05,0.0015365649,-0.0030168535,-2.540875e-05,1.0000427,1.0000424,1.0,0.001687665,2.007492e-05,7.656183e-09,0.00021541776,-0.00043023526,-3.0823088e-08,0,0,1
1593388000,1593232000,1593232000,0,-0.0002997208,0.0011025382,-0.9999993,1.0,1.0,1.0,0.0031205153,-0.0030199906,5.1259995e-06,0.001561509,-0.0030169028,-2.4927887e-05,1.0000427,1.0000424,1.0,0.00015579519,0.0001459193,4.2041393e-10,0.00021447883,-0.00042575784,-3.0331066e-08,0,0,1
1593396000,1593240000,1593240000,0,-0.0016716298,0.0023328073,-0.9999959,1.0,1.0,1.0,0.0044372957,-0.004274186,1.4901161e-06,0.001606797,-0.0030367025,-2.4511855e-05,1.0000427,1.0000424,1.0,0.00031502004,0.00029228628,3.5527137e-11,0.00021606215,-0.00042365593,-2.9852853e-08,0,0,1
1593404000,1593248000,1593248000,0,0.00090924354,0.0045429366,-0.99998933,1.0,1.0,1.0,0.0018949811,-0.0065828906,-4.7683716e-06,0.0016113353,-0.003092548,-2.4200934e-05,1.0000428,1.0000426,1.0,5.74528e-05,0.0006933217,3.6379788e-10,0.00021356437,-0.00042790265,-2.9388458e-08,0,0,1
1593420000,1593264000,1593264000,0,-0.0070823436,-0.0028266148,-0.9999709,1.0,1.0,1.0,0.009897434,0.0006701993,-2.2828579e-05,0.001733073,-0.002970774,-2.3806055e-05,1.0000428,1.0000426,1.0,0.0015672802,7.1863674e-06,8.338304e-09,0.00023184415,-0.00041419882,-2.8601441e-08,0,0,1
1593428000,1593272000,1593272000,0,-0.010976716,0.0045495294,-0.9999294,1.0,1.0,1.0,0.013661869,-0.0066321865,-6.4730644e-05,0.0019209281,-0.003028434,-2.4450537e-05,1.0000428,1.0000426,1.0,0.0029862188,0.00070374436,6.70409e-08,0.00027522014,-0.0004187586,-2.9206786e-08,0,0,1
1593436000,1593280000,1593280000,0,0.0053187264,-0.0043000374,-0.99997663,1.0,1.0,1.0,-0.0026886924,0.0022903965,-1.7881393e-05,0.0018483357,-0.002944673,-2.4347086e-05,1.0000429,1.0000426,1.0,0.00011566011,8.393108e-05,5.1159077e-09,0.00026906453,-0.00041084224,-2.8827403e-08,0,0,1
1593444000,1593288000,1593288000,0,0.002957582,-0.0038045528,-0.99998844,1.0,1.0,1.0,-0.00032407208,0.0017515197,-5.9604645e-06,0.0018141246,-0.002870717,-2.4057532e-05,1.0000429,1.0000426,1.0,1.6802913e-06,4.9083053e-05,5.684342e-10,0.00026480082,-0.00040359932,-2.838238e-08,0,0,1
1593460000,1593304000,1593304000,0,0.0052239257,0.008707094,-0.9999484,1.0,1.0,1.0,-0.0025209507,-0.010672269,-4.607439e-05,0.0017792667,-0.002906145,-2.413576e-05,1.0000429,1.0000427,1.0,0.000101678714,0.0018222795,3.396559e-08,0.00025883297,-0.00041778217,-2.8041626e-08,0,0,1
1593468000,1593312000,1593312000,0,0.0059844004,0.0064638164,-0.9999612,1.0,1.0,1.0,-0.0033195154,-0.008455062,-3.33786e-05,0.001698971,-0.0029935297,-2.4281317e-05,1.0000429,1.0000427,1.0,0.00017629935,0.0011437605,1.7826096e-08,0.0002519805,-0.0004292149,-2.7880752e-08,0,0,1
1593476000,1593320000,1593320000,0,-0.0018217249,6.513564e-05,-0.99999833,1.0,1.0,1.0,0.0045891767,-0.0020536338,3.993511e-06,0.001744486,-0.0029787282,-2.3836044e-05,1.000043,1.0000427,1.0,0.0003369542,6.747571e-05,2.551701e-10,0.00025331866,-0.00042351824,-2.7437666e-08,0,0,1
1593484000,1593328000,1593328000,0,0.0006092756,0.0021446222,-0.9999976,1.0,1.0,1.0,0.0022560265,-0.0041405936,3.8146973e-06,0.0017525417,-0.0029970251,-2.34006e-05,1.000043,1.0000428,1.0,8.143098e-05,0.00027430052,2.3283064e-10,0.00025061177,-0.00042116837,-2.700191e-08,0,0,1
1593500000,1593344000,1593344000,0,0.0051134676,0.0058986153,-0.99996954,1.0,1.0,1.0,-0.0022317686,-0.007909583,-2.4318695e-05,0.00172088,-0.0030015495,-2.3070825e-05,1.000043,1.0000428,1.0,7.968923e-05,0.0010009411,9.462383e-09,0.0002450278,-0.00042305197,-2.6307518e-08,0,0,1
1593508000,1593352000,1593352000,0,0.006958788,-0.0049956194,-0.9999633,1.0,1.0,1.0,-0.0039764913,0.0031201416,-3.0457973e-05,0.0016311577,-0.0029051448,-2.3187158e-05,1.000043,1.0000428,1.0,0.00025298883,0.00015575787,1.484301e-08,0.00023718501,-0.00041393685,-2.6126974e-08,0,0,1
1593516000,1593360000,1593360000,0,0.012082572,-0.0043082023,-0.9999177,1.0,1.0,1.0,-0.009068003,0.0024823872,-7.611513e-05,0.001462667,-0.0028203018,-2.402067e-05,1.0000432,1.0000428,1.0,0.001315602,9.859172e-05,9.269621e-08,0.00021273167,-0.00040586555,-2.717531e-08,0,0,1
1593524000,1593368000,1593368000,0,0.00013703346,-0.00987531,-0.9999512,1.0,1.0,1.0,0.002868226,0.0080287885,-4.261732e-05,0.0014848018,-0.00264945,-2.4313531e-05,1.0000432,1.0000428,1.0,0.00013162185,0.0010313389,2.9059777e-08,0.00021145435,-0.0003832324,-2.7204985e-08,0,0,1
1593540000,1593384000,1593384000,0,0.0064168223,-0.00039591358,-0.9999794,1.0,1.0,1.0,-0.0033558328,-0.0015882438,-1.4126301e-05,0.0014746675,-0.0025071276,-2.4157802e-05,1.0000432,1.0000429,1.0,0.00018017805,4.035856e-05,3.192838e-09,0.00021020585,-0.0003645148,-2.6555446e-08,0,0,1
1593548000,1593392000,1593392000,0,0.0024156203,-0.0068663303,-0.9999735,1.0,1.0,1.0,0.0007178569,0.0049154353,-1.9729137e-05,0.0014627492,-0.0023902368,-2.408806e-05,1.0000432,1.0000429,1.0,8.244741e-06,0.0003865675,6.227822e-09,0.00020702535,-0.00035268674,-2.6235325e-08,0,0,1
1593556000,1593400000,1593400000,0,0.0054180697,-0.006483238,-0.99996424,1.0,1.0,1.0,-0.002218415,0.004486899,-2.861023e-05,0.0014047781,-0.0022819354,-2.4159275e-05,1.0000433,1.0000429,1.0,7.873844e-05,0.00032210237,1.3096724e-08,0.00020252513,-0.00034206014,-2.6028419e-08,0,0,1
1593564000,1593408000,1593408000,0,0.007227869,0.0042900005,-0.9999647,1.0,1.0,1.0,-0.004084495,-0.006228381,-2.8550625e-05,0.0013183329,-0.0023440842,-2.422843e-05,1.0000433,1.000043,1.0,0.000266918,0.00062065694,1.3042211e-08,0.00019513232,-0.0003464475,-2.5823912e-08,0,0,1
1593580000,1593424000,1593424000,0,-0.003106549,-0.0047559496,-0.99998385,1.0,1.0,1.0,0.006237603,0.0028943412,-9.596348e-06,0.0013504603,-0.002193879,-2.381278e-05,1.0000433,1.000043,1.0,0.00062249607,0.00013402961,1.4734383e-09,0.00019819755,-0.00033249476,-2.5077558e-08,0,0,1
1593588000,1593432000,1593432000,0,-0.0037969674,-0.0021445642,-0.9999905,1.0,1.0,1.0,0.0069366246,0.0003471428,-2.9206276e-06,0.0014384314,-0.002153863,-2.348377e-05,1.0000433,1.000043,1.0,0.0007698349,1.9280471e-06,1.3648105e-10,0.00020719972,-0.00032722825,-2.4684786e-08,0,0,1
1593596000,1593440000,1593440000,0,0.008829764,-0.0036268325,-0.99995446,1.0,1.0,1.0,-0.005656793,0.0021285298,-3.9339066e-05,0.0013266957,-0.0020864238,-2.3733459e-05,1.0000421,1.0000418,1.0,0.00051196734,7.248719e-05,2.4760993e-08,0.00019587425,-0.00032093353,-2.4685987e-08,0,0,1
1593604000,1593448000,1593448000,0,0.0126474695,0.0043934155,-0.9999104,1.0,1.0,1.0,-0.009472141,-0.0058506276,-8.350611e-05,0.0011566352,-0.0021457025,-2.467476e-05,1.0000422,1.000042,1.0,0.0014354828,0.0005476545,1.1157232e-07,0.00017018359,-0.00032450393,-2.6054275e-08,0,0,1
1593620000,1593464000,1593464000,0,0.002886379,-0.009161369,-0.9999538,1.0,1.0,1.0,0.00017321436,0.007843695,-4.0709972e-05,0.0009790638,-0.0019019797,-2.5834552e-05,1.0000422,1.000042,1.0,4.800312e-07,0.0009843354,2.651683e-08,0.00014342272,-0.00029594643,-2.737477e-08,0,0,1
1593628000,1593472000,1593472000,0,0.0024668914,0.0040542963,-0.99998873,1.0,1.0,1.0,0.0006631969,-0.005381034,-5.4240227e-06,0.0009740895,-0.0019567679,-2.5513125e-05,1.0000422,1.000042,1.0,7.036985e-06,0.00046326904,4.7072035e-10,0.00014127491,-0.00029858144,-2.6951083e-08,0,0,1
1593636000,1593480000,1593480000,0,0.008073521,-0.0019948243,-0.9999655,1.0,1.0,1.0,-0.004866493,0.0006783225,-2.8550625e-05,0.00088211184,-0.0019152703,-2.556096e-05,1.0000422,1.000042,1.0,0.00037890807,7.3616343e-06,1.3042211e-08,0.00013308306,-0.00029376344,-2.6732046e-08,0,0,1
1593644000,1593488000,1593488000,0,0.002161585,-0.0008206239,-0.99999726,1.0,1.0,1.0,0.0011373747,-0.00043963065,3.5762787e-06,0.0008861317,-0.0018920319,-2.5102105e-05,1.0000423,1.0000421,1.0,2.0697062e-05,3.0922715e-06,2.0463631e-10,0.0001313132,-0.00028918593,-2.6307847e-08,0,0,1
1593660000,1593504000,1593504000,0,-0.009489068,-0.005628364,-0.9999391,1.0,1.0,1.0,0.012882569,0.004281682,-5.4240227e-05,0.0010565475,-0.0017568157,-2.5202378e-05,1.0000423,1.0000421,1.0,0.0026552568,0.00029331248,4.7072035e-08,0.00016900149,-0.00027545283,-2.6228028e-08,0,0,1
1593668000,1593512000,1593512000,0,-0.0025277718,-0.0070277527,-0.9999721,1.0,1.0,1.0,0.0060589295,0.005618894,-2.0742416e-05,0.0011353252,-0.0016406628,-2.5132143e-05,1.0000423,1.0000421,1.0,0.00058734516,0.0005051303,6.8839654e-09,0.00017558958,-0.00026316018,-2.5923397e-08,0,0,1
1593676000,1593520000,1593520000,0,0.00076820824,-0.008905967,-0.99996006,1.0,1.0,1.0,0.0028111616,0.007465915,-3.248453e-05,0.0011617163,-0.0014972521,-2.524793e-05,1.0000423,1.0000421,1.0,0.00012643672,0.0008918006,1.6883916e-08,0.00017481552,-0.00024497183,-2.5781043e-08,0,0,1
1593684000,1593528000,1593528000,0,-0.00033286153,0.0014339923,-0.9999989,1.0,1.0,1.0,0.0038176095,-0.0029693716,6.198883e-06,0.0012035414,-0.0015204351,-2.4752704e-05,1.0000424,1.0000422,1.0,0.00023317638,0.00014106874,6.148184e-10,0.00017573459,-0.00024333555,-2.536536e-08,0,0,1
1593700000,1593544000,1593544000,0,0.0022750609,0.006760606,-0.9999745,1.0,1.0,1.0,0.0011726145,-0.008409234,-1.8119812e-05,0.0013403879,-0.0016910015,-2.4606414e-05,1.0000424,1.0000422,1.0,2.1999464e-05,0.0011313957,5.2532414e-09,0.00019570587,-0.00026112093,-2.4776089e-08,0,0,1
1593708000,1593552000,1593552000,0,-0.011446079,0.0020083778,-0.99993247,1.0,1.0,1.0,0.01486188,-0.0037195277,-6.0260296e-05,0.0015533247,-0.0017229468,-2.5167892e-05,1.0000424,1.0000422,1.0,0.0035338576,0.00022134885,5.8100852e-08,0.0002482752,-0.0002604946,-2.5300888e-08,0,0,1
1593716000,1593560000,1593560000,0,-0.0073941364,-0.005458506,-0.99995774,1.0,1.0,1.0,0.01079094,0.0035998113,-3.4749508e-05,0.001698799,-0.0016391238,-2.5318785e-05,1.0000426,1.0000422,1.0,0.0018630311,0.00020732952,1.9320453e-08,0.00027370444,-0.00025312728,-2.5206708e-08,0,0,1
1593724000,1593568000,1593568000,0,0.0007440171,0.0040356643,-0.9999916,1.0,1.0,1.0,0.0026486202,-0.005867881,-1.0728836e-06,0.0017137568,-0.0017057183,-2.4936959e-05,1.0000426,1.0000423,1.0,0.000112238245,0.00055088906,1.8417268e-11,0.00027116167,-0.00025781643,-2.4810042e-08,0,0,1
1593740000,1593584000,1593584000,0,0.0030871008,0.010540456,-0.9999397,1.0,1.0,1.0,0.00027400698,-0.012280925,-5.3167343e-05,0.0018358568,-0.0019034516,-2.5369176e-05,1.0000426,1.0000423,1.0,1.201226e-06,0.0024130358,4.5228262e-08,0.00029300916,-0.00029118935,-2.489155e-08,0,0,1
1593748000,1593592000,1593592000,0,-0.0017869538,-0.0006569565,-0.99999815,1.0,1.0,1.0,0.0051740822,-0.0009450034,5.066395e-06,0.0018884273,-0.0018883579,-2.4889876e-05,1.0000426,1.0000423,1.0,0.00042831982,1.4287898e-05,4.106937e-10,0.00029514002,-0.0002868287,-2.449309e-08,0,0,1
1593756000,1593600000,1593600000,0,0.0023381885,0.004138931,-0.9999886,1.0,1.0,1.0,0.0010639417,-0.0057597226,-4.23193e-06,0.0018754433,-0.0019493243,-2.4564553e-05,1.0000427,1.0000423,1.0,1.8110779e-05,0.000530768,2.8654767e-10,0.00029077736,-0.00029067026,-2.4111884e-08,0,0,1
1593764000,1593608000,1593608000,0,-0.004294973,0.0075884433,-0.999962,1.0,1.0,1.0,0.0076834685,-0.009213958,-3.105402e-05,0.0019669083,-0.002063728,-2.466675e-05,1.0000427,1.0000424,1.0,0.00094453065,0.0013582947,1.5429634e-08,0.0003010727,-0.00030748325,-2.3975156e-08,0,0,1
1593780000,1593624000,1593624000,0,0.0022784888,-0.0022354138,-0.99999493,1.0,1.0,1.0,0.0013351853,0.00032559747,3.2782555e-06,0.0019208376,-0.002133164,-2.423698e-05,1.0000427,1.0000424,1.0,2.8522298e-05,1.6961475e-06,1.7195134e-10,0.00029208115,-0.00031780638,-2.3382414e-08,0,0,1
1593788000,1593632000,1593632000,0,-0.004742107,-0.000690382,-0.99998856,1.0,1.0,1.0,0.008349557,-0.0012868103,-2.9802322e-06,0.0020220773,-0.0021198357,-2.3902228e-05,1.0000427,1.0000424,1.0,0.0011153942,2.6492966e-05,1.4210855e-10,0.0003050467,-0.00031321877,-2.3016424e-08,0,0,1
1593796000,1593640000,1593640000,0,-0.0076144435,0.0030708567,-0.9999663,1.0,1.0,1.0,0.011137746,-0.005017993,-2.5570393e-05,0.0021656312,-0.0021654759,-2.3928498e-05,1.0000428,1.0000424,1.0,0.0019847052,0.00040286698,1.046152e-08,0.000331498,-0.00031463054,-2.2818709e-08,0,0,1
1593804000,1593648000,1593648000,0,0.0047018337,0.010096373,-0.999938,1.0,1.0,1.0,-0.0011859443,-0.012051741,-5.38826e-05,0.0021128505,-0.002321165,-2.4400217e-05,1.0000428,1.0000426,1.0,2.250246e-05,0.0023238123,4.645335e-08,0.0003259232,-0.0003462712,-2.3190907e-08,0,0,1
1593820000,1593664000,1593664000,0,0.0016546182,-0.0022784572,-0.999996,1.0,1.0,1.0,0.0018872812,0.00034136232,4.053116e-06,0.002059041,-0.0022760006,-2.3619199e-05,1.0000428,1.0000426,1.0,5.6986846e-05,1.8643724e-06,2.6284397e-10,0.00031631975,-0.0003365282,-2.2464212e-08,0,0,1
1593828000,1593672000,1593672000,0,0.00051830127,-0.00030029923,-0.99999976,1.0,1.0,1.0,0.0029394284,-0.0016525883,7.6293945e-06,0.0020729054,-0.002266183,-2.3127095e-05,1.0000428,1.0000426,1.0,0.00013823791,4.369491e-05,9.313226e-10,0.0003135153,-0.00033191664,-2.2095778e-08,0,0,1
1593836000,1593680000,1593680000,0,0.0085662035,-0.0018840599,-0.99996156,1.0,1.0,1.0,-0.0051979134,-0.00018570444,-3.0577183e-05,0.0019584044,-0.0022334196,-2.324442e-05,1.0000429,1.0000426,1.0,0.0004322743,5.5175474e-07,1.4959426e-08,0.0003017706,-0.0003266983,-2.1983395e-08,0,0,1
1593844000,1593688000,1593688000,0,0.002941476,-0.0048205033,-0.99998397,1.0,1.0,1.0,0.0003065616,0.0026893998,-8.404255e-06,0.0019323912,-0.0021558949,-2.3010716e-05,1.0000429,1.0000427,1.0,1.5036155e-06,0.000115721,1.130104e-09,0.000297042,-0.00031973107,-2.1654996e-08,0,0,1
1593860000,1593704000,1593704000,0,-0.0010245052,-0.0133723235,-0.99991006,1.0,1.0,1.0,0.0042021335,0.011195567,-8.255243e-05,0.0019418759,-0.0017704853,-2.4533141e-05,1.0000429,1.0000427,1.0,0.0002825147,0.002005366,1.0903847e-07,0.00029222315,-0.00025742396,-2.3610333e-08,0,0,1
1593868000,1593712000,1593712000,0,-0.0037723992,-0.0061081247,-0.99997425,1.0,1.0,1.0,0.006794637,0.0039574327,-1.8835068e-05,0.0020182973,-0.0016802818,-2.4443409e-05,1.0000429,1.0000427,1.0,0.0007386418,0.0002505697,5.6761564e-09,0.00029925336,-0.00024942408,-2.3327905e-08,0,0,1
1593876000,1593720000,1593720000,0,-0.0014470584,0.0015199548,-0.99999774,1.0,1.0,1.0,0.004425657,-0.003683066,4.351139e-06,0.0020562084,-0.0017118218,-2.3989951e-05,1.000043,1.0000427,1.0,0.00031336956,0.00021703035,3.0291858e-10,0.00029947565,-0.00024891394,-2.2955765e-08,0,0,1
1593884000,1593728000,1593728000,0,0.0028268371,0.0037216106,-0.9999891,1.0,1.0,1.0,0.00018577767,-0.0058845067,-4.172325e-06,0.0020267528,-0.0017775333,-2.3677861e-05,1.000043,1.0000428,1.0,5.521897e-07,0.00055401505,2.7853275e-10,0.0002947682,-0.0002537187,-2.2598643e-08,0,0,1
1593900000,1593744000,1593744000,0,-0.00039021755,-0.0031453236,-0.99999505,1.0,1.0,1.0,0.0034584934,0.0009216408,2.2053719e-06,0.002001026,-0.0017805863,-2.2979002e-05,1.000043,1.0000428,1.0,0.0001913706,1.3590166e-05,7.781864e-11,0.0002882776,-0.0002510939,-2.189718e-08,0,0,1
1593908000,1593752000,1593752000,0,-0.004485859,-0.0035887994,-0.9999835,1.0,1.0,1.0,0.007592465,0.001373926,-9.23872e-06,0.0020890802,-0.001730909,-2.276262e-05,1.0000432,1.0000428,1.0,0.0009222885,3.0201467e-05,1.3656631e-09,0.00029826202,-0.00024666407,-2.1573848e-08,0,0,1
1593916000,1593760000,1593760000,0,-0.0039081373,-0.0038253819,-0.99998504,1.0,1.0,1.0,0.006898735,0.001632272,-8.165836e-06,0.0021648228,-0.0016779455,-2.253275e-05,1.0000432,1.0000428,1.0,0.0007614479,4.262717e-05,1.0668941e-09,0.00030555628,-0.0002421083,-2.1250905e-08,0,0,1
1593924000,1593768000,1593768000,0,-0.009391108,-0.0032453176,-0.99995065,1.0,1.0,1.0,0.012285599,0.0011088669,-4.2915344e-05,0.0023242051,-0.0016340587,-2.2853736e-05,1.0000432,1.0000429,1.0,0.0024148705,1.9672529e-05,2.9467628e-08,0.00033877383,-0.00023798578,-2.1380302e-08,0,0,1
1593940000,1593784000,1593784000,0,3.970598e-05,-0.0015109031,-0.9999988,1.0,1.0,1.0,0.002738343,-0.0006537485,5.00679e-06,0.0023495792,-0.0015459929,-2.2175314e-05,1.0000432,1.0000429,1.0,0.000119971184,6.837901e-06,4.0108716e-10,0.00033318563,-0.00022834752,-2.071944e-08,0,0,1
1593948000,1593792000,1593792000,0,0.001983406,-0.0038814417,-0.99999046,1.0,1.0,1.0,0.0007649765,0.0018153363,-3.5762787e-06,0.002324625,-0.0014930586,-2.1882417e-05,1.0000433,1.0000429,1.0,9.3626195e-06,5.272487e-05,2.0463631e-10,0.00032808605,-0.00022392118,-2.0396373e-08,0,0,1
1593956000,1593800000,1593800000,0,0.00932606,-0.0029376522,-0.9999522,1.0,1.0,1.0,-0.00658077,0.00082940306,-4.184246e-05,0.0021843824,-0.0014564844,-2.219675e-05,1.0000433,1.0000429,1.0,0.00069287454,1.1006079e-05,2.8012664e-08,0.00031200793,-0.00022022154,-2.0516314e-08,0,0,1
1593964000,1593808000,1593808000,0,0.010520146,0.006945821,-0.99992055,1.0,1.0,1.0,-0.0077119395,-0.009132478,-7.31349e-05,0.002028535,-0.0015773663,-2.2998925e-05,1.0000433,1.000043,1.0,0.00095154304,0.0013343772,8.5579416e-08,0.0002921095,-0.0002377673,-2.1540929e-08,0,0,1
1593980000,1593824000,1593824000,0,0.006150326,-0.0024540669,-0.99997807,1.0,1.0,1.0,-0.0033210763,0.00021585659,-1.5377998e-05,0.0018953164,-0.0015406348,-2.2554763e-05,1.0000433,1.000043,1.0,0.00017646512,7.45473e-07,3.7837253e-09,0.00027988548,-0.00023058863,-2.0928482e-08,0,0,1
1593988000,1593832000,1593832000,0,3.3697772e-05,0.0022477321,-0.99999744,1.0,1.0,1.0,0.002822499,-0.0045267493,4.1127205e-06,0.0019099177,-0.0015876602,-2.2134802e-05,1.0000434,1.000043,1.0,0.00012745848,0.00032784924,2.7063152e-10,0.00027748506,-0.00023212029,-2.0594637e-08,0,0,1
1593996000,1593840000,1593840000,0,0.0044083614,-0.0009346335,-0.9999899,1.0,1.0,1.0,-0.0015050222,-0.0012331493,-3.516674e-06,0.0018561392,-0.0015820774,-2.1841603e-05,1.0000422,1.0000418,1.0,3.623994e-05,2.4329498e-05,1.9787194e-10,0.0002725445,-0.000228848,-2.0273427e-08,0,0,1
1594004000,1593848000,1593848000,0,0.0016675481,-0.00337261,-0.9999929,1.0,1.0,1.0,0.0013639779,0.0012802952,-2.9802322e-07,0.0018483886,-0.0015370006,-2.1502334e-05,1.0000422,1.000042,1.0,2.9765715e-05,2.6225393e-05,1.4210855e-12,0.00026872123,-0.00022483109,-1.9954182e-08,0,0,1
1594020000,1593864000,1593864000,0,0.011487117,0.008945447,-0.99989396,1.0,1.0,1.0,-0.008343242,-0.01108951,-9.87649e-05,0.0015320622,-0.0017779453,-2.348981e-05,1.0000422,1.000042,1.0,0.001113708,0.001967553,1.5607208e-07,0.00022609017,-0.00026228421,-2.3046677e-08,0,0,1
1594028000,1593872000,1593872000,0,0.0024173304,0.0013438547,-0.9999961,1.0,1.0,1.0,0.00074069924,-0.0035073163,3.33786e-06,0.0015195998,-0.0018051795,-2.3067329e-05,1.0000422,1.000042,1.0,8.777795e-06,0.00019681202,1.7826096e-10,0.00022266792,-0.00026125315,-2.2680931e-08,0,0,1
1594036000,1593880000,1593880000,0,0.008240615,0.0012668283,-0.9999653,1.0,1.0,1.0,-0.0051112045,-0.0034818836,-2.7298927e-05,0.0014151777,-0.0018315843,-2.3133967e-05,1.0000423,1.000042,1.0,0.0004179729,0.00019396808,1.1923703e-08,0.00021257909,-0.00026019354,-2.2511525e-08,0,0,1
1594044000,1593888000,1593888000,0,0.0005431737,-0.0021759425,-0.99999756,1.0,1.0,1.0,0.0026352934,-8.870079e-05,5.1259995e-06,0.0014343922,-0.0018041373,-2.2688928e-05,1.0000423,1.0000421,1.0,0.00011111164,1.2587999e-07,4.2041393e-10,0.00021098118,-0.000256098,-2.2150392e-08,0,0,1
1594060000,1593904000,1593904000,0,0.006420899,-0.015145588,-0.9998647,1.0,1.0,1.0,-0.003087032,0.012787157,-0.0001269579,0.0014698238,-0.0013751038,-2.543161e-05,1.0000423,1.0000421,1.0,0.0001524698,0.0026160718,2.578929e-07,0.00021912932,-0.0001766138,-2.7696839e-08,0,0,1
1594068000,1593912000,1593912000,0,0.0023465985,-0.0075113703,-0.9999691,1.0,1.0,1.0,0.00092476164,0.005161238,-2.2768974e-05,0.0014612401,-0.0012721693,-2.5389678e-05,1.0000423,1.0000421,1.0,1.3682366e-05,0.0004261961,8.294819e-09,0.00021589393,-0.00016712073,-2.7391295e-08,0,0,1
1594076000,1593920000,1593920000,0,0.00085413305,0.0048091393,-0.999988,1.0,1.0,1.0,0.0023564068,-0.0072005317,-3.993511e-06,0.0014753372,-0.0013655294,-2.505273e-05,1.0000424,1.0000421,1.0,8.883868e-05,0.00082952756,2.551701e-10,0.00021389306,-0.00017755233,-2.6963955e-08,0,0,1
1594084000,1593928000,1593928000,0,0.0067996616,0.0025124059,-0.9999737,1.0,1.0,1.0,-0.0035765339,-0.0049260044,-1.8179417e-05,0.0013957801,-0.0014215999,-2.494449e-05,1.0000424,1.0000422,1.0,0.00020465683,0.00038823194,5.287859e-09,0.00020730172,-0.00018087012,-2.66226e-08,0,0,1
1594100000,1593944000,1593944000,0,0.01003018,-0.0053498284,-0.9999354,1.0,1.0,1.0,-0.006967814,0.002792342,-5.6684017e-05,0.0012732956,-0.0014073598,-2.4981928e-05,1.0000424,1.0000422,1.0,0.000776774,0.00012474952,5.1409245e-08,0.00018957432,-0.00017893,-2.6594366e-08,0,0,1
1594108000,1593952000,1593952000,0,0.0058486722,-0.009629253,-0.9999365,1.0,1.0,1.0,-0.0027744705,0.007071292,-5.5372715e-05,0.0012095512,-0.0012738378,-2.5460522e-05,1.0000424,1.0000422,1.0,0.00012315776,0.000800017,4.90582e-08,0.0001846494,-0.00016351351,-2.6948127e-08,0,0,1
1594116000,1593960000,1593960000,0,0.005653532,-0.0054282425,-0.9999693,1.0,1.0,1.0,-0.0025842362,0.0028914595,-2.270937e-05,0.0011498065,-0.0012082425,-2.5417197e-05,1.0000426,1.0000422,1.0,0.00010684788,0.00013376297,8.2514475e-09,0.0001800589,-0.00015883199,-2.665369e-08,0,0,1
1594124000,1593968000,1593968000,0,-0.0030640243,-0.004133538,-0.99998677,1.0,1.0,1.0,0.006079277,0.0016337661,-5.4836273e-06,0.001227436,-0.0011634865,-2.5103283e-05,1.0000426,1.0000423,1.0,0.0005912966,4.270526e-05,4.811227e-10,0.00018653508,-0.00015565817,-2.6241525e-08,0,0,1
1594140000,1593984000,1593984000,0,-0.00040704865,0.005935849,-0.9999823,1.0,1.0,1.0,0.0034366113,-0.008499563,-9.834766e-06,0.0013121008,-0.0012477,-2.4457104e-05,1.0000426,1.0000423,1.0,0.0001889567,0.0011558322,1.5475621e-09,0.00018858202,-0.00016881416,-2.5445612e-08,0,0,1
1594148000,1593992000,1593992000,0,0.002925031,0.002935121,-0.9999914,1.0,1.0,1.0,0.00016651768,-0.0054043955,-7.1525574e-07,0.0012940601,-0.0013131597,-2.4083216e-05,1.0000426,1.0000423,1.0,4.4363134e-07,0.0004673001,8.185452e-12,0.00018561921,-0.00017351472,-2.5045022e-08,0,0,1
1594156000,1594000000,1594000000,0,-0.009379253,-0.008795472,-0.9999173,1.0,1.0,1.0,0.012468851,0.006412089,-7.510185e-05,0.0014700411,-0.0011915022,-2.488666e-05,1.0000427,1.0000423,1.0,0.00248745,0.0006578103,9.024461e-08,0.00022186851,-0.00016042299,-2.6071787e-08,0,0,1
1594164000,1594008000,1594008000,0,-0.0040399903,-0.006128828,-0.9999731,1.0,1.0,1.0,0.007060434,0.0037928673,-1.9609928e-05,0.0015580788,-0.0011130082,-2.4803561e-05,1.0000427,1.0000424,1.0,0.00079756166,0.00023016371,6.1527885e-09,0.00023093454,-0.00015427201,-2.5758101e-08,0,0,1
1594180000,1594024000,1594024000,0,0.004418755,0.0013319165,-0.9999894,1.0,1.0,1.0,-0.0013789102,-0.003547404,-3.5762787e-06,0.0015541173,-0.0011258196,-2.4046014e-05,1.0000427,1.0000424,1.0,3.0420992e-05,0.00020133666,2.0463631e-10,0.00022779575,-0.0001525513,-2.4954879e-08,0,0,1
1594188000,1594032000,1594032000,0,0.0017016158,-0.005857605,-0.99998146,1.0,1.0,1.0,0.00139472,0.0036990421,-1.1444092e-05,0.0015516072,-0.0010498376,-2.3847559e-05,1.0000428,1.0000424,1.0,3.1122574e-05,0.00021891732,2.0954758e-09,0.00022469854,-0.00014670141,-2.4594888e-08,0,0,1
1594196000,1594040000,1594040000,0,0.013736695,-0.0060932618,-0.99988705,1.0,1.0,1.0,-0.0105325645,0.003944995,-0.000105559826,0.0013613052,-0.00097117876,-2.5134366e-05,1.0000428,1.0000426,1.0,0.0017748828,0.00024899715,1.7828603e-07,0.00019320907,-0.00014046993,-2.701522e-08,0,0,1
1594204000,1594048000,1594048000,0,-0.0007890048,0.004445581,-0.99998975,1.0,1.0,1.0,0.0039826366,-0.006583627,-2.861023e-06,0.001402586,-0.0010595637,-2.4783605e-05,1.0000428,1.0000426,1.0,0.00025377146,0.00069347676,1.3096724e-10,0.0001941628,-0.0001491787,-2.6591847e-08,0,0,1
1594220000,1594064000,1594064000,0,0.020542154,0.004210662,-0.99978006,1.0,1.0,1.0,-0.017353842,-0.0063919723,-0.00021255016,0.0012394197,-0.0014208751,-2.97862e-05,1.0000428,1.0000426,1.0,0.004818287,0.00065368915,7.2284115e-07,0.00013668128,-0.00024388598,-4.3238533e-08,0,0,1
1594228000,1594072000,1594072000,0,0.0015256295,0.00073572225,-0.9999985,1.0,1.0,1.0,0.001748051,-0.0028162715,6.020069e-06,0.0012474296,-0.0014428499,-2.9222323e-05,1.0000429,1.0000426,1.0,4.8888818e-05,0.00012689676,5.798597e-10,0.00013529872,-0.00024204364,-4.254848e-08,0,0,1
1594236000,1594080000,1594080000,0,0.0054150047,0.00048043716,-0.9999852,1.0,1.0,1.0,-0.0021540462,-0.0025743486,-7.2717667e-06,0.0011938631,-0.0014606687,-2.8876644e-05,1.0000429,1.0000426,1.0,7.423545e-05,0.00010603182,8.4605745e-10,0.00013199897,-0.00023990171,-4.189175e-08,0,0,1
1594244000,1594088000,1594088000,0,0.011905236,-0.0011935496,-0.9999284,1.0,1.0,1.0,-0.008638907,-0.00088711584,-6.407499e-05,0.0010390163,-0.0014516364,-2.9430948e-05,1.0000429,1.0000427,1.0,0.0011940403,1.2591055e-05,6.5689676e-08,0.00011111646,-0.00023632201,-4.226652e-08,0,0,1
1594260000,1594104000,1594104000,0,-0.005385776,0.0069338228,-0.9999615,1.0,1.0,1.0,0.008644362,-0.008981323,-3.1113625e-05,0.000980479,-0.0016685121,-3.0608808e-05,1.0000429,1.0000427,1.0,0.0011955486,0.0012905715,1.5488922e-08,9.931494e-05,-0.0002643237,-4.3857234e-08,0,0,1
1594268000,1594112000,1594112000,0,-0.0023838847,0.0037493845,-0.99999017,1.0,1.0,1.0,0.005607464,-0.0058974614,-2.3245811e-06,0.0010533448,-0.0017351097,-3.0163386e-05,1.000043,1.0000427,1.0,0.00050307676,0.0005564571,8.645884e-11,0.00010567339,-0.00026892422,-4.316793e-08,0,0,1
1594276000,1594120000,1594120000,0,-0.0031726356,-0.010527249,-0.99993956,1.0,1.0,1.0,0.0063420082,0.008286014,-5.298853e-05,0.0011366309,-0.0015772968,-3.052284e-05,1.000043,1.0000428,1.0,0.0006435094,0.0010984815,4.4924548e-08,0.000114143244,-0.00024739027,-4.3195595e-08,0,0,1
1594284000,1594128000,1594128000,0,0.0045978683,-0.0005448299,-0.9999892,1.0,1.0,1.0,-0.0014056268,-0.0017187224,-3.2186508e-06,0.0010965953,-0.0015795239,-3.0092851e-05,1.000043,1.0000428,1.0,3.1611224e-05,4.7262085e-05,1.6575541e-10,0.0001118479,-0.00024423865,-4.251796e-08,0,0,1
1594300000,1594144000,1594144000,0,-0.0014667916,0.0033581224,-0.9999933,1.0,1.0,1.0,0.0045445673,-0.0056296065,5.364418e-07,0.0012375632,-0.0016767071,-2.9144061e-05,1.0000432,1.0000428,1.0,0.0003304352,0.0005070578,4.604317e-12,0.00012464945,-0.00024805043,-4.1189285e-08,0,0,1
1594308000,1594152000,1594152000,0,0.002325722,0.002944871,-0.99999297,1.0,1.0,1.0,0.00072571565,-0.0051058074,0.0,0.0012295026,-0.0017307086,-2.86851e-05,1.0000432,1.0000428,1.0,8.426247e-06,0.0004170905,0.0,0.00012281917,-0.00025071247,-4.0540634e-08,0,0,1
1594316000,1594160000,1594160000,0,-0.008873325,0.0039095404,-0.999953,1.0,1.0,1.0,0.011973976,-0.0059824064,-4.0113926e-05,0.0013987069,-0.0017976646,-2.886508e-05,1.0000432,1.0000429,1.0,0.0022939187,0.00057260244,2.5746033e-08,0.00015700972,-0.0002557816,-4.0307647e-08,0,0,1
1594324000,1594168000,1594168000,0,-0.0045848973,4.115094e-05,-0.9999895,1.0,1.0,1.0,0.0077445284,-0.002280273,-2.9802322e-06,0.0014986411,-0.0018052647,-2.8457445e-05,1.0000432,1.0000429,1.0,0.0009596021,8.3190745e-05,1.4210855e-10,0.00016964898,-0.00025306363,-3.967512e-08,0,0,1
1594340000,1594184000,1594184000,0,-0.0018878655,-0.0062264926,-0.9999789,1.0,1.0,1.0,0.0049966085,0.0038799034,-1.3589859e-05,0.0014869116,-0.0017355955,-2.7941125e-05,1.0000433,1.0000429,1.0,0.00039944027,0.00024084807,2.9549483e-09,0.00016867719,-0.00024372563,-3.850795e-08,0,0,1
1594348000,1594192000,1594192000,0,-0.0047734035,0.006191665,-0.9999695,1.0,1.0,1.0,0.007880377,-0.008569302,-2.2888184e-05,0.001587596,-0.001843213,-2.7861552e-05,1.0000433,1.000043,1.0,0.0009935624,0.0011748765,8.381903e-09,0.0001816675,-0.00025838942,-3.8033523e-08,0,0,1
