timestamp,timestamp_sample,hover_thrust,hover_thrust_var,accel_innov,accel_innov_var,accel_innov_test_ratio,accel_noise_var,valid
1598884000,1598884000,0.59168524,0.0038691473,-4.209362,12.922745,0.15234749,5.1813,0
1598892000,1598892000,0.61613774,0.00297418,-2.1220846,6.7404184,0.07423283,5.3316016,0
1598980000,1598980000,0.6727873,0.0012224582,-0.77664113,6.566557,0.010206117,6.3283005,0
1599084000,1599084000,0.6886192,0.0007907927,-0.46302003,7.238336,0.0032909273,7.107238,0
1599180000,1599180000,0.6946078,0.000628972,-0.34443954,7.625065,0.001728781,7.5178785,0
1599276000,1599276000,0.6990325,0.00052138296,-0.2970811,7.8936005,0.001242317,7.801757,0
1599380000,1599380000,0.7,0.00044819698,-0.3497428,8.039844,0.00169047,7.9556537,0
1599484000,1599484000,0.7,0.00039382308,-0.24984556,8.078656,0.00085854216,7.9978995,0
1599580000,1599580000,0.7,0.00035142023,-0.32731158,8.051108,0.0014785109,7.9744854,0
1599684000,1599684000,0.7,0.00031715303,-0.17899922,7.967639,0.00044681743,7.891818,0
1599780000,1599780000,0.7,0.00029309533,-0.28783906,7.857331,0.0011716067,7.785067,0
1599876000,1599876000,0.7,0.00027219648,-0.18023105,7.725897,0.00046716232,7.654643,0
1599980000,1599980000,0.7,0.00024869654,-0.21018928,7.523849,0.00065243704,7.4553757,0
1600076000,1600076000,0.7,0.00023287983,-0.27644426,7.3517475,0.0011550002,7.2867227,0
1600180000,1600180000,0.7,0.0002146624,-0.4324779,7.1194544,0.0029190304,7.058408,0
1600276000,1600276000,0.7,0.00019975688,-0.26804203,6.892181,0.0011582614,6.8318205,0
1600380000,1600380000,0.7,0.00018534134,-0.31333497,6.634258,0.0016443069,6.5766096,0
1600484000,1600484000,0.7,0.00017434436,-0.37627792,6.4069076,0.0024554243,6.3525543,0
1600580000,1600580000,0.7,0.00016342195,-0.24271852,6.16391,0.0010619572,6.1110554,0
1600684000,1600684000,0.7,0.00015307992,-0.23360795,5.8922358,0.0010290882,5.8435636,0
1600780000,1600780000,0.7,0.00014547039,-0.470057,5.6807065,0.004321716,5.6371517,0
1600876000,1600876000,0.7,0.00013862879,-0.745337,5.4876246,0.011248082,5.447476,0
1600980000,1600980000,0.7,0.0001318659,-0.658414,5.312802,0.00906634,5.2712483,0
1601084000,1601084000,0.7,0.00012395481,-0.47144482,5.0840454,0.004857466,5.041427,1
1601180000,1601180000,0.7,0.000116801195,-0.17068633,4.861271,0.0006658941,4.8183317,1
1601284000,1601284000,0.6999852,0.00010944074,-0.07207458,4.6200857,0.00012493141,4.579176,1
1601380000,1601380000,0.6997615,0.00010369874,0.040021434,4.4228578,4.0238316e-05,4.384172,1
1601484000,1601484000,0.6999943,9.796625e-05,-0.13356957,4.2187223,0.00046988498,4.1826806,1
1601580000,1601580000,0.7,9.2661685e-05,-0.14396581,4.0261183,0.00057199167,3.9919508,1
1601668000,1601668000,0.7,8.890889e-05,-0.18139035,3.8888175,0.0009400874,3.8559716,1
1601780000,1601780000,0.7,8.417481e-05,-0.0653651,3.7117405,0.00012790035,3.6802726,1
1601876000,1601876000,0.7,7.972856e-05,-0.09372844,3.541073,0.00027565466,3.5112376,1
1601980000,1601980000,0.7,7.5553326e-05,-0.15493712,3.3782778,0.0007895381,3.3499675,1
1602084000,1602084000,0.7,7.130531e-05,-0.121751666,3.209957,0.0005131072,3.1831203,1
1602180000,1602180000,0.7,6.7618086e-05,-0.13709825,3.0621212,0.00068202295,3.0365674,1
1602284000,1602284000,0.7,6.385357e-05,-0.15316764,2.910001,0.0008957738,2.8857741,1
1602380000,1602380000,0.7,6.111552e-05,-0.20505242,2.7971642,0.0016702032,2.7739904,1
1602484000,1602484000,0.7,5.7752975e-05,-0.14769772,2.6568131,0.0009123134,2.6348314,1
1602580000,1602580000,0.7,5.50625e-05,-0.116958804,2.5442317,0.000597402,2.5231333,1
1602684000,1602684000,0.7,5.2059266e-05,-0.18303177,2.4163446,0.001540464,2.396469,1
1602780000,1602780000,0.7,4.9659473e-05,-0.09547781,2.313315,0.00043785232,2.2942448,1
1602884000,1602884000,0.7,4.69819e-05,-0.1593003,2.1968513,0.0012834826,2.1788607,1
1602980000,1602980000,0.7,4.4647888e-05,-0.19422425,2.0950325,0.0020006618,2.0778885,1
1603076000,1603076000,0.7,4.2612166e-05,-0.22718324,2.0058336,0.0028590069,1.9894758,1
1603180000,1603180000,0.7,4.0848514e-05,-0.12492304,1.9281033,0.0008993159,1.9122913,1
1603276000,1603276000,0.7,3.8991624e-05,-0.067556016,1.8458166,0.00027472424,1.8307208,1
1603380000,1603380000,0.7,3.691524e-05,-0.14192942,1.7529049,0.0012768621,1.7385875,1
1603484000,1603484000,0.7,3.495675e-05,-0.068658665,1.664761,0.00031462725,1.6511956,1
1603580000,1603580000,0.7,3.3388e-05,-0.2305306,1.5937402,0.003705076,1.5808216,1
1603684000,1603684000,0.7,3.175988e-05,-0.07413609,1.5196724,0.0004018527,1.5073265,1
1603772000,1603772000,0.7,3.0467556e-05,-0.12374894,1.4605044,0.0011650313,1.448659,1
1603884000,1603884000,0.7,2.8869736e-05,-0.021634355,1.3870591,3.749302e-05,1.3758434,1
1603980000,1603980000,0.7,2.7585214e-05,-0.12751348,1.3280492,0.0013603654,1.3172541,1
1604076000,1604076000,0.7,2.6358332e-05,-0.080205284,1.2712955,0.0005622338,1.2609999,1
1604180000,1604180000,0.7,2.4981635e-05,-0.15689489,1.2074134,0.0022652654,1.1976329,1
1604284000,1604284000,0.7,2.3678496e-05,-0.019567028,1.1468236,3.709459e-05,1.137582,1
1604372000,1604372000,0.7,2.263421e-05,-0.18915388,1.0978508,0.0036211347,1.0890172,1
1604484000,1604484000,0.7,2.1549726e-05,-0.18818197,1.0468578,0.0037585972,1.0384319,1
1604580000,1604580000,0.7,2.05173e-05,-0.11494288,1.0041146,0.0014619696,1.0,1
1604676000,1604676000,0.7,1.9566112e-05,-0.037478596,1.0039145,0.00015546312,1.0,1
1604780000,1604780000,0.7,1.8631208e-05,-0.11759816,1.0037339,0.0015308758,1.0,1
1604884000,1604884000,0.7,1.7844393e-05,-0.061543286,1.0035789,0.000419341,1.0,1
1604980000,1604980000,0.7,1.7122013e-05,-0.14497222,1.0034295,0.0023272347,1.0,1
1605084000,1605084000,0.7,1.640396e-05,-0.21927531,1.0032859,0.0053249095,1.0,1
1605180000,1605180000,0.7,1.5792983e-05,-0.14199778,1.0031643,0.0022333076,1.0,1
1605284000,1605284000,0.7,1.5181476e-05,-0.034905683,1.0030385,0.00013496842,1.0,1
1605380000,1605380000,0.6999987,1.465894e-05,0.0062696114,1.0029291,4.354803e-06,1.0,1
1605484000,1605484000,0.7,1.4173568e-05,-0.09842913,1.0028242,0.0010734455,1.0,1
1605580000,1605580000,0.7,1.3719057e-05,-0.15258594,1.0027454,0.002579858,1.0,1
1605684000,1605684000,0.7,1.33280855e-05,-0.107248835,1.0026686,0.0012746332,1.0,1
1605780000,1605780000,0.7,1.2925718e-05,-0.081657186,1.0025835,0.0007389682,1.0,1
1605884000,1605884000,0.7,1.2580116e-05,-0.16005714,1.0025108,0.0028393473,1.0,1
1605980000,1605980000,0.7,1.22223955e-05,-0.10573451,1.0024397,0.0012391753,1.0,1
1606084000,1606084000,0.7,1.1914155e-05,-0.08378721,1.0023816,0.0007781797,1.0,1
1606180000,1606180000,0.7,1.1620518e-05,-0.040783383,1.0023224,0.00018438116,1.0,1
1606276000,1606276000,0.7,1.1315243e-05,-0.20849459,1.0022672,0.0048190737,1.0,1
1606380000,1606380000,0.7,1.1002228e-05,-0.06702681,1.002206,0.00049807824,1.0,1
1606484000,1606484000,0.6999996,1.070682e-05,0.0029077753,1.0021467,9.374495e-07,1.0,1
1606580000,1606580000,0.7,1.0492186e-05,-0.17912051,1.0021,0.0035574357,1.0,1
1606684000,1606684000,0.7,1.0224181e-05,-0.05851601,1.002047,0.00037968098,1.0,1
1606780000,1606780000,0.7,1.0028926e-05,-0.06529469,1.0020118,0.0004727596,1.0,1
1606876000,1606876000,0.7,9.802516e-06,-0.033051692,1.0019686,0.000121140896,1.0,1
1606980000,1606980000,0.69999963,9.568804e-06,-0.026937023,1.0019201,8.0468075e-05,1.0,1
1607084000,1607084000,0.7,9.364755e-06,-0.04017718,1.001872,0.0001790211,1.0,1
1607180000,1607180000,0.7,9.185793e-06,-0.09818944,1.0018384,0.001069275,1.0,1
1607284000,1607284000,0.7,8.982327e-06,-0.06711576,1.0017955,0.0004996058,1.0,1
1607380000,1607380000,0.7,8.833748e-06,-0.14202447,1.0017686,0.00223726,1.0,1
1607484000,1607484000,0.7,8.661199e-06,-0.12538213,1.0017313,0.001743723,1.0,1
1607580000,1607580000,0.7,8.494717e-06,-0.065218866,1.0017036,0.0004718074,1.0,1
1607676000,1607676000,0.7,8.348779e-06,-0.08374675,1.0016681,0.0007779821,1.0,1
1607780000,1607780000,0.7,8.209169e-06,-0.04137505,1.0016421,0.00018989868,1.0,1
1607884000,1607884000,0.7,8.074411e-06,-0.13029636,1.0016135,0.0018833104,1.0,1
1607980000,1607980000,0.7,7.931048e-06,-0.06359623,1.0015852,0.00044867545,1.0,1
1608084000,1608084000,0.7,7.781808e-06,-0.05203572,1.0015525,0.000300391,1.0,1
1608180000,1608180000,0.7,7.672697e-06,-0.06898147,1.0015327,0.0005279068,1.0,1
1608284000,1608284000,0.7,7.5448784e-06,-0.024376106,1.0015072,6.592226e-05,1.0,1
1608380000,1608380000,0.7,7.420801e-06,-0.009153098,1.0014832,9.295014e-06,1.0,1
1608476000,1608476000,0.7,7.301029e-06,-0.050402083,1.0014573,0.00028185258,1.0,1
1608580000,1608580000,0.7,7.186225e-06,-0.08696536,1.0014359,0.00083912554,1.0,1
1608684000,1608684000,0.7,7.0754095e-06,-0.12321758,1.0014124,0.0016845732,1.0,1
1608780000,1608780000,0.7,6.967355e-06,-0.059614733,1.0013913,0.00039433097,1.0,1
1608884000,1608884000,0.7,6.854463e-06,-0.046153903,1.0013665,0.00023636397,1.0,1
1608980000,1608980000,0.7,6.753831e-06,-0.09519057,1.0013487,0.0010054489,1.0,1
1609084000,1609084000,0.7,6.6657535e-06,-0.030969393,1.0013325,0.00010642522,1.0,1
1609180000,1609180000,0.7,6.570781e-06,-0.04081678,1.0013124,0.00018486955,1.0,1
1609276000,1609276000,0.7,6.487258e-06,-0.09267971,1.0012951,0.0009531576,1.0,1
1609380000,1609380000,0.7,6.414939e-06,-0.074236065,1.0012834,0.00061154773,1.0,1
1609484000,1609484000,0.7,6.336457e-06,-0.05665224,1.0012659,0.00035615763,1.0,1
1609580000,1609580000,0.7,6.2515264e-06,-0.08095925,1.0012485,0.0007273586,1.0,1
1609684000,1609684000,0.7,6.1776086e-06,-0.1251128,1.0012327,0.0017371045,1.0,1
1609780000,1609780000,0.7,6.1048668e-06,-0.09484356,1.0012196,0.0009982603,1.0,1
1609884000,1609884000,0.7,6.027573e-06,-0.0964069,1.0012031,0.0010314579,1.0,1
1609980000,1609980000,0.7,5.9516155e-06,-0.14681135,1.0011903,0.0023919942,1.0,1
1610084000,1610084000,0.7,5.885336e-06,-0.12837857,1.001179,0.0018290721,1.0,1
1610180000,1610180000,0.7,5.8199707e-06,-0.061822616,1.0011637,0.00042417704,1.0,1
1610284000,1610284000,0.7,5.757162e-06,-0.09165169,1.001151,0.000932264,1.0,1
1610380000,1610380000,0.7,5.695114e-06,-0.07802941,1.0011376,0.0006757411,1.0,1
1610484000,1610484000,0.6999991,5.6354475e-06,0.011451669,1.0011274,1.4554784e-05,1.0,1
1610580000,1610580000,0.7,5.576299e-06,-0.065579206,1.001116,0.0004773153,1.0,1
1610684000,1610684000,0.7,5.5193955e-06,-0.14422719,1.0011051,0.0023087244,1.0,1
1610780000,1610780000,0.7,5.4570123e-06,-0.11200623,1.0010948,0.0013924084,1.0,1
1610876000,1610876000,0.7,5.401988e-06,-0.1061593,1.0010816,0.0012508468,1.0,1
1610980000,1610980000,0.7,5.3434655e-06,-0.00951305,1.0010687,1.0044612e-05,1.0,1
1611084000,1611084000,0.7,5.2865903e-06,-0.049993545,1.0010557,0.0002774132,1.0,1
1611180000,1611180000,0.7,5.230432e-06,-0.1927372,1.0010424,0.0041232165,1.0,1
1611276000,1611276000,0.7,5.181016e-06,-0.18566687,1.0010325,0.0038262927,1.0,1
1611380000,1611380000,0.7,5.1334437e-06,-0.12239344,1.0010256,0.0016627563,1.0,1
1611484000,1611484000,0.7,5.0816934e-06,-0.0814728,1.0010178,0.0007367853,1.0,1
1611580000,1611580000,0.7,5.0353065e-06,-0.064299196,1.0010095,0.00045891307,1.0,1
1611684000,1611684000,0.7,4.995655e-06,-0.157292,1.0010028,0.0027462204,1.0,1
1611780000,1611780000,0.7,4.9461455e-06,-0.088148296,1.0009929,0.00086249056,1.0,1
1611884000,1611884000,0.7,4.8938937e-06,-0.055942137,1.0009801,0.00034738425,1.0,1
1611980000,1611980000,0.7,4.8515985e-06,-0.052959833,1.0009705,0.00031133607,1.0,1
1612084000,1612084000,0.7,4.801874e-06,-0.06520361,1.0009612,0.00047193642,1.0,1
1612180000,1612180000,0.7,4.7660715e-06,-0.062524304,1.0009526,0.000433952,1.0,1
1612284000,1612284000,0.7,4.731774e-06,-0.17442146,1.0009462,0.003377121,1.0,1
1612380000,1612380000,0.7,4.692895e-06,-6.534159e-05,1.0009395,4.739462e-10,1.0,1
1612476000,1612476000,0.7,4.6504965e-06,-0.08493346,1.0009302,0.0008007766,1.0,1
1612580000,1612580000,0.7,4.6140863e-06,-0.02326221,1.0009243,6.007008e-05,1.0,1
1612684000,1612684000,0.7,4.5740544e-06,-0.11471607,1.0009208,0.0014608521,1.0,1
1612772000,1612772000,0.7,4.5455095e-06,-0.17459367,1.0009152,0.0033838975,1.0,1
1612884000,1612884000,0.7,4.5033025e-06,-0.05551617,1.0009112,0.00034213765,1.0,1
1612980000,1612980000,0.6999961,4.4684302e-06,0.018617839,1.0009079,3.8478833e-05,1.0,1
1613076000,1613076000,0.6999352,4.4305366e-06,0.004123874,1.0008907,1.8879115e-06,1.0,1
1613180000,1613180000,0.6999312,4.3947202e-06,-0.022014663,1.0008785,5.380222e-05,1.0,1
1613276000,1613276000,0.6999043,4.3627992e-06,-0.037961263,1.0008696,0.00015997839,1.0,1
1613380000,1613380000,0.699813,4.3293358e-06,0.11991023,1.0008334,0.0015962768,1.0,1
1613476000,1613476000,0.6997402,4.3005753e-06,0.052845538,1.0008084,0.0003100439,1.0,1
1613580000,1613580000,0.69969153,4.270297e-06,0.069134,1.0007979,0.00053063326,1.0,1
1613684000,1613684000,0.6996496,4.2371594e-06,0.020169407,1.0007938,4.5164703e-05,1.0,1
1613780000,1613780000,0.6995518,4.210252e-06,0.1801402,1.0007938,0.0036027501,1.0,1
1613884000,1613884000,0.699443,4.178098e-06,0.19125107,1.0007845,0.0040609217,1.0,1
1613980000,1613980000,0.69936067,4.1521776e-06,0.058380842,1.0007831,0.00037840623,1.0,1
1614084000,1614084000,0.69927806,4.127344e-06,0.19288717,1.000782,0.00413071,1.0,1
1614180000,1614180000,0.69918156,4.1019453e-06,0.10168178,1.0007825,0.0011479,1.0,1
1614284000,1614284000,0.6990491,4.0715972e-06,0.091833666,1.0007697,0.00093632616,1.0,1
1614380000,1614380000,0.6989691,4.0474647e-06,0.20720091,1.0007583,0.0047666323,1.0,1
1614484000,1614484000,0.6988722,4.0249665e-06,0.09479484,1.0007463,0.0009977068,1.0,1
1614580000,1614580000,0.6988009,4.0049044e-06,0.09119105,1.0007491,0.000923287,1.0,1
1614684000,1614684000,0.6987167,3.976849e-06,0.18315947,1.0007498,0.003724695,1.0,1
1614780000,1614780000,0.6986478,3.954018e-06,0.13671696,1.0007559,0.0020752677,1.0,1
1614884000,1614884000,0.6986114,3.928992e-06,0.07274639,1.0007607,0.00058755715,1.0,1
1614980000,1614980000,0.6985684,3.903127e-06,0.19311754,1.0007646,0.0041406546,1.0,1
1615084000,1615084000,0.69851995,3.878348e-06,0.12994853,1.0007597,0.0018748667,1.0,1
1615180000,1615180000,0.6985232,3.8531116e-06,0.018623052,1.0007602,3.850607e-05,1.0,1
1615276000,1615276000,0.69852227,3.8278963e-06,-0.05252329,1.0007689,0.00030628627,1.0,1
1615380000,1615380000,0.6985126,3.800506e-06,-0.032128885,1.0007704,0.000114607836,1.0,1
1615484000,1615484000,0.69847935,3.7793445e-06,0.105146185,1.000763,0.0012274768,1.0,1
1615580000,1615580000,0.69845915,3.7578673e-06,-0.06139215,1.0007558,0.0004184611,1.0,1
1615684000,1615684000,0.6984919,3.737625e-06,-0.044637736,1.0007513,0.00022122572,1.0,1
1615780000,1615780000,0.6985246,3.7196655e-06,-0.08886623,1.0007492,0.0008768104,1.0,1
1615884000,1615884000,0.6985436,3.6946008e-06,-0.01327347,1.0007405,1.9561629e-05,1.0,1
1615980000,1615980000,0.69855386,3.674688e-06,-0.12348032,1.0007365,0.0016929077,1.0,1
1616084000,1616084000,0.6985577,3.6533193e-06,-0.056066416,1.0007285,0.00034901718,1.0,1
1616180000,1616180000,0.69859236,3.6341128e-06,-0.124201365,1.0007277,0.0017127513,1.0,1
1616284000,1616284000,0.6986172,3.6107908e-06,0.0055575147,1.0007216,3.4292998e-06,1.0,1
1616380000,1616380000,0.6986448,3.5896908e-06,-0.12854713,1.0007178,0.0018347236,1.0,1
1616484000,1616484000,0.6986651,3.5698108e-06,-0.10042925,1.0007118,0.0011198734,1.0,1
1616580000,1616580000,0.698671,3.5544842e-06,-0.034345046,1.0007097,0.00013097175,1.0,1
1616684000,1616684000,0.698707,3.5327396e-06,-0.020905301,1.0007043,4.8524897e-05,1.0,1
1616780000,1616780000,0.69870615,3.5130638e-06,-0.030229,1.0006993,0.00010146155,1.0,1
1616884000,1616884000,0.6987399,3.492163e-06,-0.13990423,1.000694,0.0021732908,1.0,1
1616980000,1616980000,0.6987524,3.4755542e-06,0.027128853,1.0006925,8.1718375e-05,1.0,1
1617084000,1617084000,0.69877577,3.4600666e-06,-0.056312762,1.0006872,0.00035210548,1.0,1
1617180000,1617180000,0.6987877,3.443991e-06,0.10232149,1.0006853,0.0011625019,1.0,1
1617284000,1617284000,0.6988091,3.4290015e-06,-0.021811562,1.0006816,5.282446e-05,1.0,1
1617380000,1617380000,0.6988266,3.4110599e-06,-0.056089394,1.0006799,0.0003493203,1.0,1
1617476000,1617476000,0.6988283,3.393413e-06,0.022497892,1.0006751,5.620152e-05,1.0,1
1617580000,1617580000,0.6988518,3.3768997e-06,0.027190201,1.000671,8.209014e-05,1.0,1
1617684000,1617684000,0.6989006,3.3583942e-06,-0.04336068,1.0006682,0.0002087659,1.0,1
1617780000,1617780000,0.69893193,3.3415415e-06,-0.13892514,1.000667,0.0021430366,1.0,1
1617884000,1617884000,0.6989563,3.3235578e-06,-0.020897787,1.0006617,4.849208e-05,1.0,1
1617980000,1617980000,0.6989555,3.309473e-06,0.002204936,1.0006577,5.3983854e-07,1.0,1
1618084000,1618084000,0.69897574,3.2943158e-06,-0.12631753,1.0006534,0.0017717445,1.0,1
1618180000,1618180000,0.6990282,3.2784953e-06,-0.07671841,1.0006553,0.00065354,1.0,1
1618276000,1618276000,0.6990507,3.2628527e-06,-0.08569647,1.000652,0.0008154556,1.0,1
1618380000,1618380000,0.6990547,3.2483326e-06,0.083447635,1.0006473,0.00077322253,1.0,1
1618484000,1618484000,0.69904286,3.236219e-06,-0.023741998,1.0006409,6.259127e-05,1.0,1
1618580000,1618580000,0.699056,3.2234477e-06,-0.1002633,1.0006402,0.0011162553,1.0,1
1618684000,1618684000,0.6990808,3.2096166e-06,-0.038764004,1.0006366,0.00016685466,1.0,1
1618780000,1618780000,0.6991005,3.1991945e-06,-0.058614552,1.0006362,0.00038149793,1.0,1
1618884000,1618884000,0.6991187,3.183699e-06,-0.033236634,1.0006317,0.00012266406,1.0,1
1618980000,1618980000,0.6991461,3.1715897e-06,-0.07160199,1.0006317,0.0005692898,1.0,1
1619076000,1619076000,0.6991745,3.1596387e-06,-0.09245056,1.0006294,0.00094908103,1.0,1
1619180000,1619180000,0.69918406,3.1467282e-06,-0.031686768,1.0006256,0.00011149151,1.0,1
1619284000,1619284000,0.69920325,3.1379213e-06,-0.04551955,1.0006227,0.0002300822,1.0,1
1619380000,1619380000,0.6992195,3.1283948e-06,-0.082448624,1.0006218,0.00075483904,1.0,1
1619484000,1619484000,0.6992306,3.11407e-06,0.035669982,1.0006168,0.0001412848,1.0,1
1619580000,1619580000,0.69924635,3.1029906e-06,-0.14275476,1.0006152,0.0022629325,1.0,1
1619684000,1619684000,0.699275,3.0890783e-06,-0.039527614,1.0006127,0.00017349729,1.0,1
1619780000,1619780000,0.6992892,3.0764122e-06,-0.017618738,1.000612,3.4470006e-05,1.0,1
1619884000,1619884000,0.6993147,3.0628846e-06,-0.0571831,1.0006075,0.00036310242,1.0,1
1619980000,1619980000,0.699319,3.0506171e-06,0.013217948,1.0006047,1.9400952e-05,1.0,1
1620084000,1620084000,0.69933414,3.0393892e-06,-0.10606918,1.0006013,0.0012493234,1.0,1
1620180000,1620180000,0.6993431,3.0292852e-06,0.041342176,1.0006007,0.00018979439,1.0,1
1620284000,1620284000,0.6993786,3.018367e-06,-0.1571288,1.0005976,0.0027416346,1.0,1
1620380000,1620380000,0.6993899,3.006754e-06,-0.06459213,1.0005958,0.00046329547,1.0,1
1620484000,1620484000,0.6994102,2.9961593e-06,0.0037302673,1.0005928,1.5451833e-06,1.0,1
1620580000,1620580000,0.69943047,2.9866123e-06,-0.017109392,1.0005927,3.2506432e-05,1.0,1
1620684000,1620684000,0.6994416,2.9745381e-06,-0.055500895,1.0005882,0.00034205985,1.0,1
1620780000,1620780000,0.69944715,2.9653315e-06,-0.06667373,1.0005865,0.0004936423,1.0,1
1620884000,1620884000,0.69947326,2.9535875e-06,-0.06567866,1.0005844,0.0004790186,1.0,1
1620980000,1620980000,0.6994986,2.9428663e-06,-0.06252905,1.0005848,0.00043417743,1.0,1
1621084000,1621084000,0.6994959,2.9314394e-06,0.034304503,1.0005795,0.0001306797,1.0,1
1621180000,1621180000,0.69952214,2.921089e-06,-0.070317,1.000579,0.0005490688,1.0,1
1621284000,1621284000,0.69952744,2.9116882e-06,0.07783442,1.0005759,0.0006727456,1.0,1
1621380000,1621380000,0.6995413,2.9016037e-06,-0.13305704,1.0005755,0.0019659991,1.0,1
1621476000,1621476000,0.69955224,2.8916345e-06,-0.2509239,1.000573,0.006991861,1.0,1
1621580000,1621580000,0.6995717,2.8809638e-06,-0.016394569,1.0005716,2.9847593e-05,1.0,1
1621684000,1621684000,0.6995984,2.870466e-06,-0.11613344,1.0005687,0.001497701,1.0,1
1621780000,1621780000,0.6996086,2.862498e-06,-0.06752751,1.0005684,0.00050637487,1.0,1
1621884000,1621884000,0.6996168,2.8554473e-06,-0.0057754833,1.0005653,3.7041514e-06,1.0,1
1621972000,1621972000,0.6996267,2.8468905e-06,0.012384491,1.0005611,1.7032178e-05,1.0,1
1622084000,1622084000,0.6996186,2.8377624e-06,0.062698565,1.0005593,0.00043654587,1.0,1
1622180000,1622180000,0.6996481,2.8302918e-06,-0.029219266,1.0005604,9.48097e-05,1.0,1
1622276000,1622276000,0.69966865,2.8212978e-06,-0.102383465,1.0005592,0.0011640573,1.0,1
1622380000,1622380000,0.6996808,2.8132479e-06,0.020279866,1.0005574,4.567154e-05,1.0,1
1622484000,1622484000,0.6996861,2.8053257e-06,-0.044196658,1.0005541,0.0002169181,1.0,1
1622580000,1622580000,0.6997053,2.7966687e-06,-0.098350614,1.0005543,0.0010741649,1.0,1
1622684000,1622684000,0.6997258,2.7889093e-06,0.004062671,1.0005518,1.8329104e-06,1.0,1
1622780000,1622780000,0.6997314,2.7804595e-06,-0.078849174,1.0005504,0.00069041917,1.0,1
1622884000,1622884000,0.699748,2.7729686e-06,-0.083639845,1.0005479,0.0007768659,1.0,1
1622980000,1622980000,0.6997515,2.7647368e-06,0.056129612,1.0005474,0.00034986774,1.0,1
1623084000,1623084000,0.69975895,2.7559868e-06,-0.056788374,1.0005434,0.00035812976,1.0,1
1623180000,1623180000,0.6997745,2.7524613e-06,0.0071340054,1.0005454,5.65181e-06,1.0,1
1623284000,1623284000,0.6997761,2.7468272e-06,0.007605156,1.0005418,6.4230085e-06,1.0,1
1623372000,1623372000,0.6997934,2.7410867e-06,0.06641327,1.0005405,0.0004898155,1.0,1
1623476000,1623476000,0.69979864,2.7355766e-06,0.022305261,1.0005409,5.525064e-05,1.0,1
1623580000,1623580000,0.699802,2.7301776e-06,-0.052111026,1.0005386,0.00030156635,1.0,1
1623676000,1623676000,0.6998413,2.7225442e-06,-0.1818374,1.0005392,0.0036718913,1.0,1
1623780000,1623780000,0.69985914,2.7157596e-06,0.000624001,1.0005387,4.3240846e-08,1.0,1
1623884000,1623884000,0.6998526,2.7105518e-06,0.061325602,1.0005337,0.00041764704,1.0,1
1623980000,1623980000,0.6998586,2.7046326e-06,-0.034795016,1.0005332,0.00013444977,1.0,1
1624084000,1624084000,0.6998791,2.6981716e-06,-0.09845068,1.0005322,0.0010763757,1.0,1
1624180000,1624180000,0.69988316,2.6923556e-06,-0.040354602,1.000532,0.00018084755,1.0,1
1624284000,1624284000,0.69989693,2.6846042e-06,-0.050504185,1.0005296,0.00028325806,1.0,1
1624380000,1624380000,0.6999018,2.6775467e-06,-0.049946696,1.0005289,0.00027703927,1.0,1
1624484000,1624484000,0.6999198,2.6699822e-06,0.12705778,1.0005279,0.0017927955,1.0,1
1624580000,1624580000,0.6999383,2.6630646e-06,0.003764961,1.0005282,1.5741608e-06,1.0,1
1624668000,1624668000,0.6999461,2.6581824e-06,-0.032892954,1.0005254,0.00012015314,1.0,1
1624780000,1624780000,0.69996315,2.651684e-06,-0.054038156,1.0005254,0.00032428766,1.0,1
1624884000,1624884000,0.69997644,2.645807e-06,0.04596255,1.0005234,0.00023460564,1.0,1
1624980000,1624980000,0.69997853,2.6405864e-06,0.023107208,1.000522,5.9296057e-05,1.0,1
1625084000,1625084000,0.7,2.6348814e-06,-0.08923091,1.0005207,0.0008842235,1.0,1
1625180000,1625180000,0.6999949,2.6311204e-06,0.0038887486,1.0005205,1.6793888e-06,1.0,1
1625276000,1625276000,0.699992,2.6247328e-06,0.034161534,1.0005181,0.00012960068,1.0,1
1625380000,1625380000,0.7,2.6206135e-06,-0.035100054,1.000517,0.00013681968,1.0,1
1625484000,1625484000,0.7,2.6152172e-06,-0.0021035639,1.0005145,4.914117e-07,1.0,1
1625580000,1625580000,0.7,2.609053e-06,-0.0022626463,1.0005151,5.685481e-07,1.0,1
1625684000,1625684000,0.7,2.6024377e-06,-0.018393498,1.0005136,3.7571903e-05,1.0,1
1625780000,1625780000,0.7,2.5976678e-06,-0.03002095,1.0005159,0.00010008808,1.0,1
1625884000,1625884000,0.6999999,2.5924453e-06,0.0007836409,1.0005132,6.8197565e-08,1.0,1
1625980000,1625980000,0.6999905,2.5877875e-06,0.07245979,1.0005126,0.00058308116,1.0,1
1626084000,1626084000,0.7,2.5827264e-06,-0.02509503,1.0005107,6.9937676e-05,1.0,1
1626180000,1626180000,0.7,2.5768966e-06,-0.00022710115,1.0005105,5.7276246e-09,1.0,1
1626284000,1626284000,0.6999996,2.5732732e-06,0.0108021945,1.000508,1.2958684e-05,1.0,1
1626380000,1626380000,0.7,2.5675884e-06,-0.08911993,1.0005081,0.0008820366,1.0,1
1626476000,1626476000,0.7,2.5619208e-06,-0.0026351288,1.0005083,7.711529e-07,1.0,1
1626580000,1626580000,0.6999974,2.5558595e-06,-0.05975247,1.0005065,0.00039650558,1.0,1
1626684000,1626684000,0.6999973,2.5498969e-06,-0.029309597,1.0005028,9.5402305e-05,1.0,1
1626780000,1626780000,0.7,2.5482939e-06,-0.089166895,1.0005054,0.0008829687,1.0,1
1626876000,1626876000,0.699994,2.5428456e-06,0.0027262457,1.000504,8.2540794e-07,1.0,1
1626980000,1626980000,0.7,2.5370507e-06,-0.038853075,1.0005027,0.00016764477,1.0,1
1627084000,1627084000,0.69999844,2.5325555e-06,-0.02793308,1.0005012,8.665178e-05,1.0,1
1627180000,1627180000,0.7,2.5273118e-06,-0.078437164,1.0005009,0.0006832565,1.0,1
1627276000,1627276000,0.6999994,2.5233783e-06,0.016607545,1.0005015,3.0630257e-05,1.0,1
1627380000,1627380000,0.7,2.519053e-06,-0.010943752,1.0004995,1.3300657e-05,1.0,1
1627484000,1627484000,0.69999397,2.513579e-06,0.022417117,1.0004953,5.5808705e-05,1.0,1
1627580000,1627580000,0.7,2.5086247e-06,-0.072061986,1.0004953,0.0005767066,1.0,1
1627684000,1627684000,0.7,2.5032687e-06,-0.09381199,1.000496,0.0009773696,1.0,1
1627780000,1627780000,0.7,2.4995916e-06,-0.049468517,1.0004954,0.00027176912,1.0,1
1627884000,1627884000,0.7,2.494338e-06,-0.052588426,1.0004935,0.00030713092,1.0,1
1627980000,1627980000,0.69999516,2.490792e-06,-0.11103542,1.0004922,0.0013692,1.0,1
1628084000,1628084000,0.7,2.4868893e-06,-0.094027646,1.0004909,0.0009818733,1.0,1
1628180000,1628180000,0.7,2.484626e-06,-0.15626425,1.0004929,0.0027118314,1.0,1
1628284000,1628284000,0.7,2.4819847e-06,-0.12381953,1.0004903,0.0017026403,1.0,1
1628380000,1628380000,0.7,2.4785493e-06,-0.1343739,1.0004922,0.0020052737,1.0,1
1628476000,1628476000,0.7,2.4763574e-06,0.0004124418,1.0004911,1.8891637e-08,1.0,1
1628580000,1628580000,0.7,2.4726019e-06,-0.023109047,1.0004904,5.9307364e-05,1.0,1
1628684000,1628684000,0.7,2.4688902e-06,-0.09514962,1.0004876,0.0010054488,1.0,1
1628780000,1628780000,0.7,2.4644264e-06,-0.09160867,1.0004873,0.00093200675,1.0,1
1628884000,1628884000,0.7,2.4620276e-06,-0.10980979,1.0004864,0.0013391477,1.0,1
1628980000,1628980000,0.69999367,2.4588235e-06,0.01761293,1.0004864,3.4451612e-05,1.0,1
1629084000,1629084000,0.69999605,2.455342e-06,-0.070328034,1.0004829,0.00054929394,1.0,1
1629180000,1629180000,0.69999987,2.452269e-06,0.0029476287,1.0004809,9.649266e-07,1.0,1
1629284000,1629284000,0.7,2.4478406e-06,-0.15932685,1.0004762,0.0028192182,1.0,1
1629380000,1629380000,0.69999796,2.443779e-06,-0.0751126,1.0004781,0.0006265786,1.0,1
1629484000,1629484000,0.7,2.4404535e-06,-0.1226096,1.0004847,0.0016695368,1.0,1
1629580000,1629580000,0.6999989,2.4373307e-06,-0.04700792,1.0004889,0.00024540717,1.0,1
1629684000,1629684000,0.7,2.4350184e-06,-0.022774592,1.0004874,5.760326e-05,1.0,1
1629780000,1629780000,0.7,2.4307865e-06,-0.078994244,1.0004846,0.0006930076,1.0,1
1629876000,1629876000,0.6999995,2.428953e-06,0.014466755,1.0004853,2.324283e-05,1.0,1
1629980000,1629980000,0.7,2.4244487e-06,-0.13495943,1.000485,0.0020228021,1.0,1
1630076000,1630076000,0.7,2.4203039e-06,-0.09683564,1.0004852,0.0010413993,1.0,1
1630180000,1630180000,0.7,2.4169638e-06,-0.11247902,1.0004869,0.0014050417,1.0,1
1630284000,1630284000,0.7,2.4124686e-06,-0.068654954,1.000486,0.0005234681,1.0,1
1630380000,1630380000,0.7,2.4083984e-06,-0.15527508,1.0004845,0.0026776304,1.0,1
1630476000,1630476000,0.7,2.404342e-06,-0.13098791,1.0004857,0.0019055007,1.0,1
1630580000,1630580000,0.7,2.4011215e-06,-0.17566767,1.0004857,0.003427128,1.0,1
1630684000,1630684000,0.7,2.3967527e-06,-0.12236521,1.0004855,0.0016628864,1.0,1
1630780000,1630780000,0.7,2.395098e-06,-0.14784837,1.0004836,0.0024276192,1.0,1
1630876000,1630876000,0.7,2.3911805e-06,-0.055089094,1.0004824,0.0003370383,1.0,1
1630980000,1630980000,0.7,2.3869834e-06,-0.12178475,1.0004827,0.0016471521,1.0,1
1631084000,1631084000,0.7,2.3828104e-06,-0.13375123,1.000482,0.0019867527,1.0,1
1631180000,1631180000,0.7,2.380168e-06,-0.08438317,1.0004804,0.00079078885,1.0,1
1631276000,1631276000,0.7,2.376427e-06,-0.047458403,1.0004793,0.00025013564,1.0,1
1631380000,1631380000,0.7,2.3724385e-06,-0.01973281,1.0004776,4.3244218e-05,1.0,1
1631476000,1631476000,0.7,2.3688328e-06,-0.21682523,1.000476,0.0052212016,1.0,1
1631572000,1631572000,0.7,2.3652935e-06,-0.16816895,1.0004753,0.0031408179,1.0,1
1631684000,1631684000,0.7,2.3645027e-06,-0.17163374,1.0004778,0.0032715634,1.0,1
1631780000,1631780000,0.7,2.3609414e-06,-0.14882852,1.0004755,0.0024599333,1.0,1
1631884000,1631884000,0.7,2.357167e-06,-0.1408939,1.0004747,0.0022046303,1.0,1
1631980000,1631980000,0.7,2.3537298e-06,-0.0037483945,1.0004728,1.5604246e-06,1.0,1
1632084000,1632084000,0.7,2.351185e-06,-0.12553766,1.0004721,0.0017502521,1.0,1
1632172000,1632172000,0.7,2.3492041e-06,-0.06710383,1.0004725,0.0005000886,1.0,1
1632284000,1632284000,0.69999796,2.3475457e-06,0.021956593,1.0004696,5.3540636e-05,1.0,1
1632380000,1632380000,0.7,2.3453792e-06,-0.060624704,1.0004698,0.00040818096,1.0,1
1632484000,1632484000,0.7,2.3429784e-06,-0.16086748,1.000468,0.0028740268,1.0,1
1632580000,1632580000,0.7,2.3419727e-06,-0.1959326,1.0004678,0.004263515,1.0,1
1632684000,1632684000,0.7,2.3406837e-06,-0.16997537,1.0004686,0.0032086773,1.0,1
1632780000,1632780000,0.7,2.3374814e-06,-0.037475742,1.0004689,0.00015597479,1.0,1
1632868000,1632868000,0.7,2.3356795e-06,-0.073438555,1.0004667,0.0005989673,1.0,1
1632980000,1632980000,0.7,2.3342216e-06,-0.15680018,1.0004666,0.002730537,1.0,1
1633084000,1633084000,0.7,2.3308637e-06,-0.0007750094,1.000466,6.670664e-08,1.0,1
1633180000,1633180000,0.7,2.329973e-06,-0.13549802,1.000465,0.00203902,1.0,1
1633284000,1633284000,0.7,2.3266625e-06,-0.07749704,1.0004655,0.00066699967,1.0,1
1633380000,1633380000,0.7,2.3236223e-06,-0.05804384,1.000466,0.00037416868,1.0,1
1633476000,1633476000,0.7,2.3216687e-06,-0.06308149,1.0004658,0.00044193576,1.0,1
1633580000,1633580000,0.7,2.3195144e-06,-0.07295342,1.0004637,0.0005910816,1.0,1
1633684000,1633684000,0.7,2.318491e-06,-0.062252752,1.0004627,0.00043040147,1.0,1
1633780000,1633780000,0.7,2.3155949e-06,-0.0640666,1.000462,0.00045584812,1.0,1
1633884000,1633884000,0.7,2.313533e-06,-0.08048,1.0004628,0.00071933726,1.0,1
1633980000,1633980000,0.7,2.310662e-06,-0.12029289,1.0004615,0.0016070782,1.0,1
1634076000,1634076000,0.7,2.3078442e-06,-0.04115943,1.0004603,0.00018814657,1.0,1
1634180000,1634180000,0.7,2.3059001e-06,-0.110627994,1.0004593,0.0013592149,1.0,1
1634276000,1634276000,0.7,2.3042044e-06,-0.0790288,1.0004596,0.00069363136,1.0,1
1634380000,1634380000,0.7,2.3033447e-06,-0.09689279,1.0004594,0.0010426557,1.0,1
1634484000,1634484000,0.7,2.3003693e-06,-0.066420674,1.0004609,0.00048996374,1.0,1
1634580000,1634580000,0.7,2.2976221e-06,-0.08862628,1.0004599,0.00087233406,1.0,1
1634684000,1634684000,0.7,2.2946842e-06,-0.091574274,1.0004598,0.0009313326,1.0,1
1634780000,1634780000,0.7,2.2930135e-06,-0.05117061,1.0004611,0.0002908027,1.0,1
1634876000,1634876000,0.7,2.2913696e-06,-0.020786993,1.0004592,4.798897e-05,1.0,1
1634980000,1634980000,0.7,2.2895476e-06,-0.04218401,1.0004582,0.00019763064,1.0,1
1635076000,1635076000,0.7,2.286929e-06,-0.087683626,1.0004576,0.00085387786,1.0,1
1635180000,1635180000,0.7,2.2851436e-06,-0.011539549,1.0004579,1.4788916e-05,1.0,1
1635284000,1635284000,0.7,2.2834058e-06,-0.21823291,1.000456,0.005289322,1.0,1
1635380000,1635380000,0.7,2.280873e-06,-0.177609,1.0004551,0.0035034008,1.0,1
1635476000,1635476000,0.7,2.2794156e-06,-0.17034808,1.0004554,0.0032228064,1.0,1
1635580000,1635580000,0.7,2.2767142e-06,-0.14792447,1.0004554,0.0024301873,1.0,1
1635676000,1635676000,0.7,2.2742345e-06,-0.1271394,1.0004547,0.0017952312,1.0,1
1635780000,1635780000,0.7,2.2726156e-06,-0.09752687,1.0004549,0.0010563517,1.0,1
1635884000,1635884000,0.7,2.272041e-06,-0.066189095,1.0004542,0.00048655638,1.0,1
1635980000,1635980000,0.7,2.270666e-06,-0.12536463,1.0004532,0.0017454633,1.0,1
1636076000,1636076000,0.7,2.2693048e-06,-0.1253975,1.0004537,0.001746378,1.0,1
1636172000,1636172000,0.7,2.266919e-06,-0.12870964,1.0004534,0.0018398517,1.0,1
1636284000,1636284000,0.7,2.2651739e-06,-0.1286737,1.0004531,0.0018388248,1.0,1
1636380000,1636380000,0.7,2.2638394e-06,-0.093955226,1.0004524,0.0009803993,1.0,1
1636484000,1636484000,0.7,2.2633697e-06,-0.07681236,1.0004516,0.00065527495,1.0,1
1636580000,1636580000,0.7,2.2610782e-06,-0.11497821,1.0004513,0.001468225,1.0,1
1636676000,1636676000,0.7,2.2598053e-06,-0.08782653,1.0004511,0.00085666904,1.0,1
1636780000,1636780000,0.7,2.2573429e-06,-0.1158184,1.0004511,0.0014897616,1.0,1
1636884000,1636884000,0.7,2.254878e-06,-0.1298975,1.0004524,0.0018739703,1.0,1
1636980000,1636980000,0.7,2.2526144e-06,-0.055966318,1.0004511,0.0003478685,1.0,1
1637076000,1637076000,0.7,2.2503953e-06,-0.047982156,1.0004495,0.0002556948,1.0,1
1637180000,1637180000,0.7,2.249057e-06,-0.082585745,1.0004487,0.00075748295,1.0,1
1637284000,1637284000,0.7,2.2487257e-06,-0.058532685,1.0004505,0.00038050362,1.0,1
1637380000,1637380000,0.7,2.2475492e-06,-0.05890115,1.00045,0.00038530942,1.0,1
1637484000,1637484000,0.69999975,2.2451995e-06,0.006786205,1.00045,5.1146512e-06,1.0,1
1637580000,1637580000,0.7,2.244058e-06,-0.12090829,1.000449,0.0016235838,1.0,1
1637676000,1637676000,0.7,2.2429545e-06,-0.050084278,1.0004473,0.0002785904,1.0,1
1637780000,1637780000,0.7,2.2407075e-06,-0.055410758,1.0004476,0.00034099762,1.0,1
1637884000,1637884000,0.7,2.2394588e-06,-0.013445839,1.0004475,2.0078858e-05,1.0,1
1637980000,1637980000,0.7,2.2384038e-06,-0.06728499,1.0004467,0.00050280534,1.0,1
1638084000,1638084000,0.7,2.2361942e-06,-0.13321683,1.0004468,0.0019709778,1.0,1
1638180000,1638180000,0.7,2.2361548e-06,-0.13188002,1.0004475,0.0019316177,1.0,1
1638284000,1638284000,0.6999993,2.2349445e-06,0.02197767,1.0004466,5.364471e-05,1.0,1
1638380000,1638380000,0.7,2.2329384e-06,-0.059949152,1.0004461,0.00039914428,1.0,1
1638476000,1638476000,0.7,2.2329384e-06,-0.067610614,1.0004461,0.0005076841,1.0,1
1638580000,1638580000,0.7,2.232783e-06,-0.07240643,1.0004449,0.0005822623,1.0,1
1638676000,1638676000,0.7,2.2318213e-06,-0.102409534,1.0004454,0.0011647827,1.0,1
1638780000,1638780000,0.69999444,2.231731e-06,0.096710175,1.0004307,0.001038759,1.0,1
1638884000,1638884000,0.69998235,2.2315314e-06,-0.097263634,1.0003933,0.0010507217,1.0,1
1638980000,1638980000,0.7,2.2330744e-06,-0.36219442,1.0003624,0.014570809,1.0,1
1639076000,1639076000,0.7,2.233452e-06,-0.69234157,1.0003456,0.053241253,1.0,1
1639180000,1639180000,0.7,2.2342363e-06,-0.9435818,1.0003439,0.09889339,1.0,1
1639276000,1639276000,0.7,2.235011e-06,-1.1324964,1.0003985,0.14244856,1.0,1
1639380000,1639380000,0.7,2.2353238e-06,-0.69800854,1.000446,0.054110967,1.0,1
1639476000,1639476000,0.7,2.2328263e-06,-0.35001668,1.0004776,0.01360591,1.0,1
1639580000,1639580000,0.7,2.2293432e-06,-0.093770385,1.0005025,0.0009764965,1.0,1
1639676000,1639676000,0.699961,2.228341e-06,0.1549455,1.0004791,0.0026662902,1.0,1
1639780000,1639780000,0.6999586,2.2265776e-06,-0.04337737,1.0004615,0.00020896981,1.0,1
1639884000,1639884000,0.7,2.2241127e-06,-0.16523015,1.0004554,0.003032064,1.0,1
1639980000,1639980000,0.7,2.2219615e-06,-0.22836626,1.0004518,0.005791955,1.0,1
1640084000,1640084000,0.7,2.2196618e-06,-0.27789873,1.0004534,0.008576968,1.0,1
1640180000,1640180000,0.7,2.217574e-06,-0.29698348,1.0004499,0.009795503,1.0,1
1640284000,1640284000,0.7,2.2162965e-06,-0.2955051,1.0004541,0.009698182,1.0,1
1640380000,1640380000,0.7,2.2141878e-06,-0.32124323,1.000452,0.011461176,1.0,1
1640484000,1640484000,0.7,2.2139195e-06,-0.2868662,1.000454,0.00913943,1.0,1
1640580000,1640580000,0.7,2.211807e-06,-0.2803588,1.0004532,0.008729494,1.0,1
1640676000,1640676000,0.7,2.2106904e-06,-0.28288764,1.0004536,0.008887681,1.0,1
1640780000,1640780000,0.7,2.2094011e-06,-0.2655433,1.0004534,0.007831255,1.0,1
1640876000,1640876000,0.7,2.2082918e-06,-0.24509539,1.0004541,0.0066716094,1.0,1
1640980000,1640980000,0.7,2.2070165e-06,-0.34366655,1.0004538,0.0131170135,1.0,1
1641084000,1641084000,0.7,2.205738e-06,-0.14094014,1.0004554,0.0022061202,1.0,1
1641180000,1641180000,0.7,2.205652e-06,-0.33785436,1.0004534,0.012677094,1.0,1
1641284000,1641284000,0.7,2.2034005e-06,-0.31568488,1.0004548,0.01106796,1.0,1
1641380000,1641380000,0.7,2.2023562e-06,-0.25810263,1.0004517,0.007398543,1.0,1
1641476000,1641476000,0.7,2.201327e-06,-0.23360503,1.0004516,0.0060607414,1.0,1
1641580000,1641580000,0.7,2.201126e-06,-0.2665425,1.0004518,0.007890313,1.0,1
1641684000,1641684000,0.7,2.1989422e-06,-0.16962421,1.0004534,0.0031954818,1.0,1
1641780000,1641780000,0.7,2.1969645e-06,-0.26898873,1.0004504,0.008035818,1.0,1
1641876000,1641876000,0.7,2.195007e-06,-0.36225724,1.0004504,0.014574582,1.0,1
1641980000,1641980000,0.7,2.1938965e-06,-0.19835253,1.0004495,0.004369561,1.0,1
1642084000,1642084000,0.7,2.194763e-06,-0.28119957,1.0004531,0.008781931,1.0,1
1642180000,1642180000,0.7,2.1937856e-06,-0.2261731,1.0004513,0.0056812437,1.0,1
1642276000,1642276000,0.7,2.1938076e-06,-0.24475816,1.0004522,0.006653276,1.0,1
1642380000,1642380000,0.7,2.1946282e-06,-0.15100068,1.0004529,0.0025323203,1.0,1
1642484000,1642484000,0.7,2.192483e-06,-0.20458859,1.0004534,0.004648614,1.0,1
1642580000,1642580000,0.7,2.1905448e-06,-0.30080453,1.0004501,0.010049183,1.0,1
1642684000,1642684000,0.7,2.1914345e-06,-0.25212187,1.0004524,0.0070596323,1.0,1
1642780000,1642780000,0.7,2.1904998e-06,-0.25221914,1.0004498,0.007065099,1.0,1
1642884000,1642884000,0.7,2.1894161e-06,-0.24598795,1.0004518,0.006720305,1.0,1
1642980000,1642980000,0.7,2.1884928e-06,-0.24595156,1.000451,0.0067183226,1.0,1
1643084000,1643084000,0.7,2.1864068e-06,-0.17806783,1.0004532,0.0035215323,1.0,1
1643172000,1643172000,0.7,2.1846708e-06,-0.33461413,1.0004531,0.012435101,1.0,1
1643284000,1643284000,0.7,2.1844587e-06,-0.29153544,1.0004518,0.009439391,1.0,1
1643380000,1643380000,0.7,2.1864912e-06,-0.21615395,1.0004512,0.005189051,1.0,1
1643484000,1643484000,0.69997424,2.195085e-06,4.4211683,17.760439,0.122286335,17.747446,1
1643580000,1643580000,0.6999393,2.204815e-06,3.5001392,17.393286,0.078261204,17.353071,1
1643684000,1643684000,0.6998854,2.2153054e-06,3.793448,16.8767,0.09474106,16.838877,1
1643780000,1643780000,0.6998366,2.2250329e-06,4.2197385,16.485468,0.120012715,16.453253,1
1643876000,1643876000,0.6997852,2.2347845e-06,4.507745,16.15276,0.13977498,16.122536,1
1643980000,1643980000,0.6997469,2.2455e-06,8.150291,16.777964,0.4399107,16.857033,1
1644076000,1644076000,0.6997164,2.255432e-06,8.126701,17.536917,0.4184397,17.586746,1
1644180000,1644180000,0.6996866,2.266196e-06,8.133781,18.00396,0.40829536,18.031378,1
1644284000,1644284000,0.6996548,2.2769582e-06,8.058799,18.233618,0.39575398,18.238958,1
1644380000,1644380000,0.6996279,2.2868942e-06,8.179371,18.25799,0.4071405,18.254374,1
1644484000,1644484000,0.69959843,2.297658e-06,8.024937,18.124838,0.39479044,18.105366,1
1644580000,1644580000,0.699576,2.3075972e-06,8.237801,17.940842,0.42027855,17.920792,1
1644588000,0,nan,nan,nan,nan,nan,nan,0
