timestamp,timestamp_sample,yaw_composite,yaw_variance,yaw[0],yaw[1],yaw[2],yaw[3],yaw[4],innov_vn[0],innov_vn[1],innov_vn[2],innov_vn[3],innov_vn[4],innov_ve[0],innov_ve[1],innov_ve[2],innov_ve[3],innov_ve[4],weight[0],weight[1],weight[2],weight[3],weight[4],yaw_composite_valid
1592244000,1592088000,1.4466667,0.86076427,-2.9143863,-1.1003957,0.3722829,1.3066697,2.1560898,-0.0021258742,0.014382432,3.6717975e-05,-0.011596113,-0.014130969,-0.0044130227,0.011262105,0.024327334,0.018498227,0.0068644593,0.0484533,0.02777567,0.1703575,0.46906763,0.28434595,0
1592252000,1592096000,1.4466667,0.86076427,-2.9144313,-1.1004409,0.37223774,1.3066245,2.1560447,-0.0021258742,0.014382432,3.6717975e-05,-0.011596113,-0.014130969,-0.0044130227,0.011262105,0.024327334,0.018498227,0.0068644593,0.0484533,0.02777567,0.1703575,0.46906763,0.28434595,0
1592260000,1592104000,1.4466667,0.86076427,-2.914453,-1.1004626,0.37221608,1.306603,2.156023,-0.0021258742,0.014382432,3.6717975e-05,-0.011596113,-0.014130969,-0.0044130227,0.011262105,0.024327334,0.018498227,0.0068644593,0.0484533,0.02777567,0.1703575,0.46906763,0.28434595,0
1592268000,1592112000,1.4466667,0.86076427,-2.914431,-1.1004406,0.372238,1.3066249,2.1560452,-0.0021258742,0.014382432,3.6717975e-05,-0.011596113,-0.014130969,-0.0044130227,0.011262105,0.024327334,0.018498227,0.0068644593,0.0484533,0.02777567,0.1703575,0.46906763,0.28434595,0
1592276000,1592120000,1.4466667,0.86076427,-2.9144104,-1.1004198,0.3722589,1.3066458,2.156066,-0.0021258742,0.014382432,3.6717975e-05,-0.011596113,-0.014130969,-0.0044130227,0.011262105,0.024327334,0.018498227,0.0068644593,0.0484533,0.02777567,0.1703575,0.46906763,0.28434595,0
1592284000,1592128000,1.4466667,0.86076427,-2.9144733,-1.1004826,0.3721959,1.3065827,2.156003,-0.0021258742,0.014382432,3.6717975e-05,-0.011596113,-0.014130969,-0.0044130227,0.011262105,0.024327334,0.018498227,0.0068644593,0.0484533,0.02777567,0.1703575,0.46906763,0.28434595,0
1592292000,1592136000,1.4466667,0.86076427,-2.9144907,-1.1005001,0.37217847,1.3065654,2.1559854,-0.0021258742,0.014382432,3.6717975e-05,-0.011596113,-0.014130969,-0.0044130227,0.011262105,0.024327334,0.018498227,0.0068644593,0.0484533,0.02777567,0.1703575,0.46906763,0.28434595,0
1592300000,1592144000,1.4466667,0.86076427,-2.914544,-1.1005535,0.37212506,1.3065116,2.155932,-0.0021258742,0.014382432,3.6717975e-05,-0.011596113,-0.014130969,-0.0044130227,0.011262105,0.024327334,0.018498227,0.0068644593,0.0484533,0.02777567,0.1703575,0.46906763,0.28434595,0
1592308000,1592152000,1.4466667,0.86076427,-2.914569,-1.1005785,0.3721002,1.306487,2.1559074,-0.0021258742,0.014382432,3.6717975e-05,-0.011596113,-0.014130969,-0.0044130227,0.011262105,0.024327334,0.018498227,0.0068644593,0.0484533,0.02777567,0.1703575,0.46906763,0.28434595,0
1592316000,1592160000,1.4466667,0.86076427,-2.914647,-1.1006565,0.37202203,1.3064086,2.1558292,-0.0021258742,0.014382432,3.6717975e-05,-0.011596113,-0.014130969,-0.0044130227,0.011262105,0.024327334,0.018498227,0.0068644593,0.0484533,0.02777567,0.1703575,0.46906763,0.28434595,0
1592324000,1592168000,1.4466667,0.86076427,-2.914624,-1.1006335,0.37204498,1.3064317,2.155852,-0.0021258742,0.014382432,3.6717975e-05,-0.011596113,-0.014130969,-0.0044130227,0.011262105,0.024327334,0.018498227,0.0068644593,0.0484533,0.02777567,0.1703575,0.46906763,0.28434595,0
1592332000,1592176000,1.4466667,0.86076427,-2.914622,-1.1006315,0.37204692,1.3064334,2.1558542,-0.0021258742,0.014382432,3.6717975e-05,-0.011596113,-0.014130969,-0.0044130227,0.011262105,0.024327334,0.018498227,0.0068644593,0.0484533,0.02777567,0.1703575,0.46906763,0.28434595,0
1592340000,1592184000,1.4466667,0.86076427,-2.9145756,-1.1005849,0.37209344,1.3064802,2.1559007,-0.0021258742,0.014382432,3.6717975e-05,-0.011596113,-0.014130969,-0.0044130227,0.011262105,0.024327334,0.018498227,0.0068644593,0.0484533,0.02777567,0.1703575,0.46906763,0.28434595,0
1592348000,1592192000,1.4466667,0.86076427,-2.914576,-1.1005853,0.37209314,1.3064797,2.1559002,-0.0021258742,0.014382432,3.6717975e-05,-0.011596113,-0.014130969,-0.0044130227,0.011262105,0.024327334,0.018498227,0.0068644593,0.0484533,0.02777567,0.1703575,0.46906763,0.28434595,0
1592356000,1592200000,1.4466667,0.86076427,-2.9145775,-1.100587,0.3720916,1.3064783,2.1558986,-0.0021258742,0.014382432,3.6717975e-05,-0.011596113,-0.014130969,-0.0044130227,0.011262105,0.024327334,0.018498227,0.0068644593,0.0484533,0.02777567,0.1703575,0.46906763,0.28434595,0
1592364000,1592208000,1.4466667,0.86076427,-2.9145226,-1.1005319,0.37214637,1.3065329,2.1559534,-0.0021258742,0.014382432,3.6717975e-05,-0.011596113,-0.014130969,-0.0044130227,0.011262105,0.024327334,0.018498227,0.0068644593,0.0484533,0.02777567,0.1703575,0.46906763,0.28434595,0
1592372000,1592216000,1.4466667,0.86076427,-2.91465,-1.1006595,0.37201908,1.3064058,2.1558263,-0.0021258742,0.014382432,3.6717975e-05,-0.011596113,-0.014130969,-0.0044130227,0.011262105,0.024327334,0.018498227,0.0068644593,0.0484533,0.02777567,0.1703575,0.46906763,0.28434595,0
1592380000,1592224000,1.4466667,0.86076427,-2.9147131,-1.1007228,0.37195578,1.3063425,2.1557627,-0.0021258742,0.014382432,3.6717975e-05,-0.011596113,-0.014130969,-0.0044130227,0.011262105,0.024327334,0.018498227,0.0068644593,0.0484533,0.02777567,0.1703575,0.46906763,0.28434595,0
1592388000,1592232000,1.4466667,0.86076427,-2.9146285,-1.1006376,0.3720405,1.3064271,2.1558475,-0.0021258742,0.014382432,3.6717975e-05,-0.011596113,-0.014130969,-0.0044130227,0.011262105,0.024327334,0.018498227,0.0068644593,0.0484533,0.02777567,0.1703575,0.46906763,0.28434595,0
1592396000,1592240000,1.4455463,0.86115927,-2.9144213,-1.1004876,0.3718865,1.3062441,2.1557953,0.008409485,0.0055992147,-0.009456781,-0.010893761,-0.0044097574,-0.01665035,0.0012587004,-0.0022378045,-0.012503443,-0.01942421,0.048426922,0.027826468,0.17059004,0.4690698,0.28408676,0
1592404000,1592248000,1.4455463,0.86115927,-2.9143844,-1.1004505,0.37192348,1.3062814,2.1558323,0.008409485,0.0055992147,-0.009456781,-0.010893761,-0.0044097574,-0.01665035,0.0012587004,-0.0022378045,-0.012503443,-0.01942421,0.048426922,0.027826468,0.17059004,0.4690698,0.28408676,0
1592412000,1592256000,1.4455463,0.86115927,-2.9144223,-1.1004881,0.37188572,1.3062435,2.1557949,0.008409485,0.0055992147,-0.009456781,-0.010893761,-0.0044097574,-0.01665035,0.0012587004,-0.0022378045,-0.012503443,-0.01942421,0.048426922,0.027826468,0.17059004,0.4690698,0.28408676,0
1592420000,1592264000,1.4455463,0.86115927,-2.9145036,-1.1005695,0.37180436,1.3061622,2.1557133,0.008409485,0.0055992147,-0.009456781,-0.010893761,-0.0044097574,-0.01665035,0.0012587004,-0.0022378045,-0.012503443,-0.01942421,0.048426922,0.027826468,0.17059004,0.4690698,0.28408676,0
1592428000,1592272000,1.4455463,0.86115927,-2.9143677,-1.1004338,0.3719402,1.3062981,2.1558492,0.008409485,0.0055992147,-0.009456781,-0.010893761,-0.0044097574,-0.01665035,0.0012587004,-0.0022378045,-0.012503443,-0.01942421,0.048426922,0.027826468,0.17059004,0.4690698,0.28408676,0
1592436000,1592280000,1.4455463,0.86115927,-2.9143212,-1.1003871,0.3719868,1.3063447,2.1558957,0.008409485,0.0055992147,-0.009456781,-0.010893761,-0.0044097574,-0.01665035,0.0012587004,-0.0022378045,-0.012503443,-0.01942421,0.048426922,0.027826468,0.17059004,0.4690698,0.28408676,0
1592444000,1592288000,1.4455463,0.86115927,-2.9144409,-1.100507,0.371867,1.3062251,2.155776,0.008409485,0.0055992147,-0.009456781,-0.010893761,-0.0044097574,-0.01665035,0.0012587004,-0.0022378045,-0.012503443,-0.01942421,0.048426922,0.027826468,0.17059004,0.4690698,0.28408676,0
1592452000,1592296000,1.4455463,0.86115927,-2.9144125,-1.1004785,0.37189537,1.3062534,2.1558042,0.008409485,0.0055992147,-0.009456781,-0.010893761,-0.0044097574,-0.01665035,0.0012587004,-0.0022378045,-0.012503443,-0.01942421,0.048426922,0.027826468,0.17059004,0.4690698,0.28408676,0
1592460000,1592304000,1.4455463,0.86115927,-2.914416,-1.1004821,0.37189192,1.3062499,2.1558008,0.008409485,0.0055992147,-0.009456781,-0.010893761,-0.0044097574,-0.01665035,0.0012587004,-0.0022378045,-0.012503443,-0.01942421,0.048426922,0.027826468,0.17059004,0.4690698,0.28408676,0
1592468000,1592312000,1.4455463,0.86115927,-2.9144728,-1.1005388,0.37183517,1.3061932,2.155744,0.008409485,0.0055992147,-0.009456781,-0.010893761,-0.0044097574,-0.01665035,0.0012587004,-0.0022378045,-0.012503443,-0.01942421,0.048426922,0.027826468,0.17059004,0.4690698,0.28408676,0
1592476000,1592320000,1.4455463,0.86115927,-2.9144154,-1.1004815,0.37189248,1.3062503,2.1558013,0.008409485,0.0055992147,-0.009456781,-0.010893761,-0.0044097574,-0.01665035,0.0012587004,-0.0022378045,-0.012503443,-0.01942421,0.048426922,0.027826468,0.17059004,0.4690698,0.28408676,0
1592484000,1592328000,1.4455463,0.86115927,-2.9143474,-1.1004134,0.37196055,1.3063183,2.1558695,0.008409485,0.0055992147,-0.009456781,-0.010893761,-0.0044097574,-0.01665035,0.0012587004,-0.0022378045,-0.012503443,-0.01942421,0.048426922,0.027826468,0.17059004,0.4690698,0.28408676,0
1592492000,1592336000,1.4455463,0.86115927,-2.9142935,-1.1003594,0.37201452,1.3063723,2.1559234,0.008409485,0.0055992147,-0.009456781,-0.010893761,-0.0044097574,-0.01665035,0.0012587004,-0.0022378045,-0.012503443,-0.01942421,0.048426922,0.027826468,0.17059004,0.4690698,0.28408676,0
1592500000,1592344000,1.4455463,0.86115927,-2.9142437,-1.1003094,0.37206444,1.3064222,2.1559732,0.008409485,0.0055992147,-0.009456781,-0.010893761,-0.0044097574,-0.01665035,0.0012587004,-0.0022378045,-0.012503443,-0.01942421,0.048426922,0.027826468,0.17059004,0.4690698,0.28408676,0
1592508000,1592352000,1.4455463,0.86115927,-2.9142728,-1.1003387,0.3720353,1.3063931,2.1559443,0.008409485,0.0055992147,-0.009456781,-0.010893761,-0.0044097574,-0.01665035,0.0012587004,-0.0022378045,-0.012503443,-0.01942421,0.048426922,0.027826468,0.17059004,0.4690698,0.28408676,0
1592516000,1592360000,1.4455463,0.86115927,-2.9143293,-1.1003951,0.37197867,1.3063364,2.1558876,0.008409485,0.0055992147,-0.009456781,-0.010893761,-0.0044097574,-0.01665035,0.0012587004,-0.0022378045,-0.012503443,-0.01942421,0.048426922,0.027826468,0.17059004,0.4690698,0.28408676,0
1592524000,1592368000,1.4455463,0.86115927,-2.9143734,-1.1004392,0.37193462,1.3062923,2.1558435,0.008409485,0.0055992147,-0.009456781,-0.010893761,-0.0044097574,-0.01665035,0.0012587004,-0.0022378045,-0.012503443,-0.01942421,0.048426922,0.027826468,0.17059004,0.4690698,0.28408676,0
1592532000,1592376000,1.4455463,0.86115927,-2.9143524,-1.1004182,0.37195554,1.306313,2.1558645,0.008409485,0.0055992147,-0.009456781,-0.010893761,-0.0044097574,-0.01665035,0.0012587004,-0.0022378045,-0.012503443,-0.01942421,0.048426922,0.027826468,0.17059004,0.4690698,0.28408676,0
1592540000,1592384000,1.4455463,0.86115927,-2.914227,-1.1002929,0.37208092,1.3064384,2.1559896,0.008409485,0.0055992147,-0.009456781,-0.010893761,-0.0044097574,-0.01665035,0.0012587004,-0.0022378045,-0.012503443,-0.01942421,0.048426922,0.027826468,0.17059004,0.4690698,0.28408676,0
1592548000,1592392000,1.4455463,0.86115927,-2.9141922,-1.1002579,0.37211585,1.3064735,2.1560247,0.008409485,0.0055992147,-0.009456781,-0.010893761,-0.0044097574,-0.01665035,0.0012587004,-0.0022378045,-0.012503443,-0.01942421,0.048426922,0.027826468,0.17059004,0.4690698,0.28408676,0
1592556000,1592400000,1.4455463,0.86115927,-2.9142225,-1.1002882,0.3720855,1.3064432,2.1559947,0.008409485,0.0055992147,-0.009456781,-0.010893761,-0.0044097574,-0.01665035,0.0012587004,-0.0022378045,-0.012503443,-0.01942421,0.048426922,0.027826468,0.17059004,0.4690698,0.28408676,0
1592564000,1592408000,1.4455463,0.86115927,-2.9142869,-1.1003525,0.37202114,1.3063788,2.15593,0.008409485,0.0055992147,-0.009456781,-0.010893761,-0.0044097574,-0.01665035,0.0012587004,-0.0022378045,-0.012503443,-0.01942421,0.048426922,0.027826468,0.17059004,0.4690698,0.28408676,0
1592572000,1592416000,1.4455463,0.86115927,-2.9142525,-1.1003182,0.37205547,1.3064132,2.1559644,0.008409485,0.0055992147,-0.009456781,-0.010893761,-0.0044097574,-0.01665035,0.0012587004,-0.0022378045,-0.012503443,-0.01942421,0.048426922,0.027826468,0.17059004,0.4690698,0.28408676,0
1592580000,1592424000,1.4455463,0.86115927,-2.9141486,-1.100214,0.37215957,1.3065174,2.1560686,0.008409485,0.0055992147,-0.009456781,-0.010893761,-0.0044097574,-0.01665035,0.0012587004,-0.0022378045,-0.012503443,-0.01942421,0.048426922,0.027826468,0.17059004,0.4690698,0.28408676,0
1592588000,1592432000,1.4455463,0.86115927,-2.9139936,-1.1000593,0.37231457,1.3066723,2.1562233,0.008409485,0.0055992147,-0.009456781,-0.010893761,-0.0044097574,-0.01665035,0.0012587004,-0.0022378045,-0.012503443,-0.01942421,0.048426922,0.027826468,0.17059004,0.4690698,0.28408676,0
1592596000,1592440000,1.4455463,0.86115927,-2.9138951,-1.0999608,0.372413,1.3067707,2.156322,0.008409485,0.0055992147,-0.009456781,-0.010893761,-0.0044097574,-0.01665035,0.0012587004,-0.0022378045,-0.012503443,-0.01942421,0.048426922,0.027826468,0.17059004,0.4690698,0.28408676,0
1592604000,1592448000,1.4455463,0.86115927,-2.9138741,-1.0999395,0.37243414,1.3067919,2.156343,0.008409485,0.0055992147,-0.009456781,-0.010893761,-0.0044097574,-0.01665035,0.0012587004,-0.0022378045,-0.012503443,-0.01942421,0.048426922,0.027826468,0.17059004,0.4690698,0.28408676,0
1592612000,1592456000,1.4455463,0.86115927,-2.913805,-1.0998706,0.37250316,1.306861,2.156412,0.008409485,0.0055992147,-0.009456781,-0.010893761,-0.0044097574,-0.01665035,0.0012587004,-0.0022378045,-0.012503443,-0.01942421,0.048426922,0.027826468,0.17059004,0.4690698,0.28408676,0
1592620000,1592464000,1.4455463,0.86115927,-2.9137712,-1.0998368,0.37253708,1.3068948,2.156446,0.008409485,0.0055992147,-0.009456781,-0.010893761,-0.0044097574,-0.01665035,0.0012587004,-0.0022378045,-0.012503443,-0.01942421,0.048426922,0.027826468,0.17059004,0.4690698,0.28408676,0
1592628000,1592472000,1.4455463,0.86115927,-2.9137673,-1.099833,0.37254086,1.3068986,2.1564498,0.008409485,0.0055992147,-0.009456781,-0.010893761,-0.0044097574,-0.01665035,0.0012587004,-0.0022378045,-0.012503443,-0.01942421,0.048426922,0.027826468,0.17059004,0.4690698,0.28408676,0
1592636000,1592480000,1.4455463,0.86115927,-2.9137921,-1.0998577,0.37251595,1.3068737,2.1564245,0.008409485,0.0055992147,-0.009456781,-0.010893761,-0.0044097574,-0.01665035,0.0012587004,-0.0022378045,-0.012503443,-0.01942421,0.048426922,0.027826468,0.17059004,0.4690698,0.28408676,0
1592644000,1592488000,1.4455463,0.86115927,-2.913882,-1.0999477,0.3724262,1.3067839,2.1563349,0.008409485,0.0055992147,-0.009456781,-0.010893761,-0.0044097574,-0.01665035,0.0012587004,-0.0022378045,-0.012503443,-0.01942421,0.048426922,0.027826468,0.17059004,0.4690698,0.28408676,0
1592652000,1592496000,1.4455463,0.86115927,-2.9138708,-1.0999361,0.3724375,1.3067951,2.1563458,0.008409485,0.0055992147,-0.009456781,-0.010893761,-0.0044097574,-0.01665035,0.0012587004,-0.0022378045,-0.012503443,-0.01942421,0.048426922,0.027826468,0.17059004,0.4690698,0.28408676,0
1592660000,1592504000,1.4455463,0.86115927,-2.9139264,-1.099992,0.37238178,1.3067392,2.1562905,0.008409485,0.0055992147,-0.009456781,-0.010893761,-0.0044097574,-0.01665035,0.0012587004,-0.0022378045,-0.012503443,-0.01942421,0.048426922,0.027826468,0.17059004,0.4690698,0.28408676,0
1592668000,1592512000,1.4455463,0.86115927,-2.913961,-1.1000262,0.3723473,1.3067048,2.156256,0.008409485,0.0055992147,-0.009456781,-0.010893761,-0.0044097574,-0.01665035,0.0012587004,-0.0022378045,-0.012503443,-0.01942421,0.048426922,0.027826468,0.17059004,0.4690698,0.28408676,0
1592676000,1592520000,1.4455463,0.86115927,-2.9138591,-1.0999248,0.372449,1.3068063,2.1563578,0.008409485,0.0055992147,-0.009456781,-0.010893761,-0.0044097574,-0.01665035,0.0012587004,-0.0022378045,-0.012503443,-0.01942421,0.048426922,0.027826468,0.17059004,0.4690698,0.28408676,0
1592684000,1592528000,1.4455463,0.86115927,-2.9138594,-1.0999252,0.37244877,1.3068061,2.1563573,0.008409485,0.0055992147,-0.009456781,-0.010893761,-0.0044097574,-0.01665035,0.0012587004,-0.0022378045,-0.012503443,-0.01942421,0.048426922,0.027826468,0.17059004,0.4690698,0.28408676,0
1592692000,1592536000,1.4455463,0.86115927,-2.913861,-1.0999266,0.3724472,1.3068045,2.1563559,0.008409485,0.0055992147,-0.009456781,-0.010893761,-0.0044097574,-0.01665035,0.0012587004,-0.0022378045,-0.012503443,-0.01942421,0.048426922,0.027826468,0.17059004,0.4690698,0.28408676,0
1592700000,1592544000,1.4455463,0.86115927,-2.9137356,-1.0998014,0.3725725,1.3069298,2.1564813,0.008409485,0.0055992147,-0.009456781,-0.010893761,-0.0044097574,-0.01665035,0.0012587004,-0.0022378045,-0.012503443,-0.01942421,0.048426922,0.027826468,0.17059004,0.4690698,0.28408676,0
1592708000,1592552000,1.4455463,0.86115927,-2.913669,-1.0997347,0.37263918,1.3069965,2.156548,0.008409485,0.0055992147,-0.009456781,-0.010893761,-0.0044097574,-0.01665035,0.0012587004,-0.0022378045,-0.012503443,-0.01942421,0.048426922,0.027826468,0.17059004,0.4690698,0.28408676,0
1592716000,1592560000,1.4455463,0.86115927,-2.913681,-1.0997468,0.37262714,1.3069843,2.1565356,0.008409485,0.0055992147,-0.009456781,-0.010893761,-0.0044097574,-0.01665035,0.0012587004,-0.0022378045,-0.012503443,-0.01942421,0.048426922,0.027826468,0.17059004,0.4690698,0.28408676,0
1592724000,1592568000,1.4455463,0.86115927,-2.9136379,-1.0997037,0.3726703,1.3070275,2.156579,0.008409485,0.0055992147,-0.009456781,-0.010893761,-0.0044097574,-0.01665035,0.0012587004,-0.0022378045,-0.012503443,-0.01942421,0.048426922,0.027826468,0.17059004,0.4690698,0.28408676,0
1592732000,1592576000,1.4455463,0.86115927,-2.9136639,-1.0997294,0.3726444,1.3070018,2.156553,0.008409485,0.0055992147,-0.009456781,-0.010893761,-0.0044097574,-0.01665035,0.0012587004,-0.0022378045,-0.012503443,-0.01942421,0.048426922,0.027826468,0.17059004,0.4690698,0.28408676,0
1592740000,1592584000,1.4455463,0.86115927,-2.9136333,-1.0996991,0.3726747,1.307032,2.1565833,0.008409485,0.0055992147,-0.009456781,-0.010893761,-0.0044097574,-0.01665035,0.0012587004,-0.0022378045,-0.012503443,-0.01942421,0.048426922,0.027826468,0.17059004,0.4690698,0.28408676,0
1592748000,1592592000,1.4455463,0.86115927,-2.9137564,-1.099822,0.37255186,1.3069091,2.1564605,0.008409485,0.0055992147,-0.009456781,-0.010893761,-0.0044097574,-0.01665035,0.0012587004,-0.0022378045,-0.012503443,-0.01942421,0.048426922,0.027826468,0.17059004,0.4690698,0.28408676,0
1592756000,1592600000,1.4455463,0.86115927,-2.9136949,-1.0997603,0.3726134,1.3069706,2.1565218,0.008409485,0.0055992147,-0.009456781,-0.010893761,-0.0044097574,-0.01665035,0.0012587004,-0.0022378045,-0.012503443,-0.01942421,0.048426922,0.027826468,0.17059004,0.4690698,0.28408676,0
1592764000,1592608000,1.4455463,0.86115927,-2.9137335,-1.099799,0.3725747,1.3069321,2.1564832,0.008409485,0.0055992147,-0.009456781,-0.010893761,-0.0044097574,-0.01665035,0.0012587004,-0.0022378045,-0.012503443,-0.01942421,0.048426922,0.027826468,0.17059004,0.4690698,0.28408676,0
1592772000,1592616000,1.4455463,0.86115927,-2.9137638,-1.0998292,0.37254447,1.3069018,2.1564531,0.008409485,0.0055992147,-0.009456781,-0.010893761,-0.0044097574,-0.01665035,0.0012587004,-0.0022378045,-0.012503443,-0.01942421,0.048426922,0.027826468,0.17059004,0.4690698,0.28408676,0
1592780000,1592624000,1.4455463,0.86115927,-2.9137492,-1.0998147,0.37255883,1.3069162,2.1564677,0.008409485,0.0055992147,-0.009456781,-0.010893761,-0.0044097574,-0.01665035,0.0012587004,-0.0022378045,-0.012503443,-0.01942421,0.048426922,0.027826468,0.17059004,0.4690698,0.28408676,0
1592788000,1592632000,1.4455463,0.86115927,-2.9137561,-1.0998213,0.37255207,1.3069096,2.1564605,0.008409485,0.0055992147,-0.009456781,-0.010893761,-0.0044097574,-0.01665035,0.0012587004,-0.0022378045,-0.012503443,-0.01942421,0.048426922,0.027826468,0.17059004,0.4690698,0.28408676,0
1592796000,1592640000,1.4460127,0.8611375,-2.913835,-1.0998861,0.37244964,1.3067919,2.15635,0.00400502,0.009773895,-0.0055586323,-0.011643659,-0.008960024,-0.012136367,0.0054778866,0.009297418,0.00062020106,-0.008699106,0.048418228,0.027829392,0.17061849,0.46908233,0.28405154,0
1592804000,1592648000,1.4460127,0.8611375,-2.913918,-1.099969,0.37236646,1.3067087,2.1562667,0.00400502,0.009773895,-0.0055586323,-0.011643659,-0.008960024,-0.012136367,0.0054778866,0.009297418,0.00062020106,-0.008699106,0.048418228,0.027829392,0.17061849,0.46908233,0.28405154,0
1592812000,1592656000,1.4460127,0.8611375,-2.913939,-1.0999901,0.37234572,1.3066881,2.156246,0.00400502,0.009773895,-0.0055586323,-0.011643659,-0.008960024,-0.012136367,0.0054778866,0.009297418,0.00062020106,-0.008699106,0.048418228,0.027829392,0.17061849,0.46908233,0.28405154,0
1592820000,1592664000,1.4460127,0.8611375,-2.913904,-1.0999552,0.37238067,1.3067229,2.156281,0.00400502,0.009773895,-0.0055586323,-0.011643659,-0.008960024,-0.012136367,0.0054778866,0.009297418,0.00062020106,-0.008699106,0.048418228,0.027829392,0.17061849,0.46908233,0.28405154,0
1592828000,1592672000,1.4460127,0.8611375,-2.9138467,-1.0998981,0.37243792,1.3067801,2.1563382,0.00400502,0.009773895,-0.0055586323,-0.011643659,-0.008960024,-0.012136367,0.0054778866,0.009297418,0.00062020106,-0.008699106,0.048418228,0.027829392,0.17061849,0.46908233,0.28405154,0
1592836000,1592680000,1.4460127,0.8611375,-2.9138527,-1.099904,0.372432,1.3067743,2.1563325,0.00400502,0.009773895,-0.0055586323,-0.011643659,-0.008960024,-0.012136367,0.0054778866,0.009297418,0.00062020106,-0.008699106,0.048418228,0.027829392,0.17061849,0.46908233,0.28405154,0
1592844000,1592688000,1.4460127,0.8611375,-2.9138339,-1.0998852,0.3724508,1.306793,2.1563509,0.00400502,0.009773895,-0.0055586323,-0.011643659,-0.008960024,-0.012136367,0.0054778866,0.009297418,0.00062020106,-0.008699106,0.048418228,0.027829392,0.17061849,0.46908233,0.28405154,0
1592852000,1592696000,1.4460127,0.8611375,-2.9138737,-1.099925,0.37241098,1.3067532,2.1563113,0.00400502,0.009773895,-0.0055586323,-0.011643659,-0.008960024,-0.012136367,0.0054778866,0.009297418,0.00062020106,-0.008699106,0.048418228,0.027829392,0.17061849,0.46908233,0.28405154,0
1592860000,1592704000,1.4460127,0.8611375,-2.9138348,-1.0998861,0.37244993,1.3067923,2.1563501,0.00400502,0.009773895,-0.0055586323,-0.011643659,-0.008960024,-0.012136367,0.0054778866,0.009297418,0.00062020106,-0.008699106,0.048418228,0.027829392,0.17061849,0.46908233,0.28405154,0
1592868000,1592712000,1.4460127,0.8611375,-2.913902,-1.0999537,0.3723825,1.3067248,2.1562824,0.00400502,0.009773895,-0.0055586323,-0.011643659,-0.008960024,-0.012136367,0.0054778866,0.009297418,0.00062020106,-0.008699106,0.048418228,0.027829392,0.17061849,0.46908233,0.28405154,0
1592876000,1592720000,1.4460127,0.8611375,-2.9139814,-1.1000328,0.3723034,1.3066455,2.1562035,0.00400502,0.009773895,-0.0055586323,-0.011643659,-0.008960024,-0.012136367,0.0054778866,0.009297418,0.00062020106,-0.008699106,0.048418228,0.027829392,0.17061849,0.46908233,0.28405154,0
1592884000,1592728000,1.4460127,0.8611375,-2.913936,-1.0999873,0.37234885,1.306691,2.156249,0.00400502,0.009773895,-0.0055586323,-0.011643659,-0.008960024,-0.012136367,0.0054778866,0.009297418,0.00062020106,-0.008699106,0.048418228,0.027829392,0.17061849,0.46908233,0.28405154,0
1592892000,1592736000,1.4460127,0.8611375,-2.9139245,-1.099976,0.37236023,1.3067024,2.1562603,0.00400502,0.009773895,-0.0055586323,-0.011643659,-0.008960024,-0.012136367,0.0054778866,0.009297418,0.00062020106,-0.008699106,0.048418228,0.027829392,0.17061849,0.46908233,0.28405154,0
1592900000,1592744000,1.4460127,0.8611375,-2.9139771,-1.1000285,0.37230757,1.3066498,2.1562076,0.00400502,0.009773895,-0.0055586323,-0.011643659,-0.008960024,-0.012136367,0.0054778866,0.009297418,0.00062020106,-0.008699106,0.048418228,0.027829392,0.17061849,0.46908233,0.28405154,0
1592908000,1592752000,1.4460127,0.8611375,-2.9140842,-1.1001356,0.37220043,1.3065428,2.1561005,0.00400502,0.009773895,-0.0055586323,-0.011643659,-0.008960024,-0.012136367,0.0054778866,0.009297418,0.00062020106,-0.008699106,0.048418228,0.027829392,0.17061849,0.46908233,0.28405154,0
1592916000,1592760000,1.4460127,0.8611375,-2.9141965,-1.1002479,0.3720882,1.3064303,2.1559882,0.00400502,0.009773895,-0.0055586323,-0.011643659,-0.008960024,-0.012136367,0.0054778866,0.009297418,0.00062020106,-0.008699106,0.048418228,0.027829392,0.17061849,0.46908233,0.28405154,0
1592924000,1592768000,1.4460127,0.8611375,-2.91425,-1.1003013,0.37203464,1.3063768,2.1559348,0.00400502,0.009773895,-0.0055586323,-0.011643659,-0.008960024,-0.012136367,0.0054778866,0.009297418,0.00062020106,-0.008699106,0.048418228,0.027829392,0.17061849,0.46908233,0.28405154,0
1592932000,1592776000,1.4460127,0.8611375,-2.9142203,-1.1002717,0.3720643,1.3064064,2.1559644,0.00400502,0.009773895,-0.0055586323,-0.011643659,-0.008960024,-0.012136367,0.0054778866,0.009297418,0.00062020106,-0.008699106,0.048418228,0.027829392,0.17061849,0.46908233,0.28405154,0
1592940000,1592784000,1.4460127,0.8611375,-2.9142785,-1.1003299,0.37200603,1.3063483,2.1559062,0.00400502,0.009773895,-0.0055586323,-0.011643659,-0.008960024,-0.012136367,0.0054778866,0.009297418,0.00062020106,-0.008699106,0.048418228,0.027829392,0.17061849,0.46908233,0.28405154,0
1592948000,1592792000,1.4460127,0.8611375,-2.9143918,-1.1004432,0.3718928,1.3062352,2.1557932,0.00400502,0.009773895,-0.0055586323,-0.011643659,-0.008960024,-0.012136367,0.0054778866,0.009297418,0.00062020106,-0.008699106,0.048418228,0.027829392,0.17061849,0.46908233,0.28405154,0
1592956000,1592800000,1.4460127,0.8611375,-2.9143975,-1.1004486,0.3718871,1.3062295,2.155787,0.00400502,0.009773895,-0.0055586323,-0.011643659,-0.008960024,-0.012136367,0.0054778866,0.009297418,0.00062020106,-0.008699106,0.048418228,0.027829392,0.17061849,0.46908233,0.28405154,0
1592964000,1592808000,1.4460127,0.8611375,-2.914331,-1.1003821,0.37195373,1.3062961,2.155854,0.00400502,0.009773895,-0.0055586323,-0.011643659,-0.008960024,-0.012136367,0.0054778866,0.009297418,0.00062020106,-0.008699106,0.048418228,0.027829392,0.17061849,0.46908233,0.28405154,0
1592972000,1592816000,1.4460127,0.8611375,-2.9142716,-1.1003226,0.3720132,1.3063556,2.1559134,0.00400502,0.009773895,-0.0055586323,-0.011643659,-0.008960024,-0.012136367,0.0054778866,0.009297418,0.00062020106,-0.008699106,0.048418228,0.027829392,0.17061849,0.46908233,0.28405154,0
1592980000,1592824000,1.4460127,0.8611375,-2.9142218,-1.1002729,0.37206298,1.3064054,2.1559632,0.00400502,0.009773895,-0.0055586323,-0.011643659,-0.008960024,-0.012136367,0.0054778866,0.009297418,0.00062020106,-0.008699106,0.048418228,0.027829392,0.17061849,0.46908233,0.28405154,0
1592988000,1592832000,1.4460127,0.8611375,-2.9141476,-1.1001989,0.37213713,1.3064795,2.1560373,0.00400502,0.009773895,-0.0055586323,-0.011643659,-0.008960024,-0.012136367,0.0054778866,0.009297418,0.00062020106,-0.008699106,0.048418228,0.027829392,0.17061849,0.46908233,0.28405154,0
1592996000,1592840000,1.4460127,0.8611375,-2.9141724,-1.1002238,0.37211227,1.3064547,2.1560123,0.00400502,0.009773895,-0.0055586323,-0.011643659,-0.008960024,-0.012136367,0.0054778866,0.009297418,0.00062020106,-0.008699106,0.048418228,0.027829392,0.17061849,0.46908233,0.28405154,0
1593004000,1592848000,1.4460127,0.8611375,-2.9141545,-1.1002055,0.3721302,1.3064723,2.1560304,0.00400502,0.009773895,-0.0055586323,-0.011643659,-0.008960024,-0.012136367,0.0054778866,0.009297418,0.00062020106,-0.008699106,0.048418228,0.027829392,0.17061849,0.46908233,0.28405154,0
1593012000,1592856000,1.4460127,0.8611375,-2.91414,-1.1001914,0.37214452,1.306487,2.1560445,0.00400502,0.009773895,-0.0055586323,-0.011643659,-0.008960024,-0.012136367,0.0054778866,0.009297418,0.00062020106,-0.008699106,0.048418228,0.027829392,0.17061849,0.46908233,0.28405154,0
1593020000,1592864000,1.4460127,0.8611375,-2.914148,-1.1001992,0.37213662,1.3064787,2.1560366,0.00400502,0.009773895,-0.0055586323,-0.011643659,-0.008960024,-0.012136367,0.0054778866,0.009297418,0.00062020106,-0.008699106,0.048418228,0.027829392,0.17061849,0.46908233,0.28405154,0
1593028000,1592872000,1.4460127,0.8611375,-2.9142041,-1.1002553,0.37208068,1.306423,2.1559808,0.00400502,0.009773895,-0.0055586323,-0.011643659,-0.008960024,-0.012136367,0.0054778866,0.009297418,0.00062020106,-0.008699106,0.048418228,0.027829392,0.17061849,0.46908233,0.28405154,0
1593036000,1592880000,1.4460127,0.8611375,-2.914164,-1.1002152,0.37212053,1.3064626,2.1560206,0.00400502,0.009773895,-0.0055586323,-0.011643659,-0.008960024,-0.012136367,0.0054778866,0.009297418,0.00062020106,-0.008699106,0.048418228,0.027829392,0.17061849,0.46908233,0.28405154,0
1593044000,1592888000,1.4460127,0.8611375,-2.9142156,-1.1002669,0.372069,1.3064113,2.1559691,0.00400502,0.009773895,-0.0055586323,-0.011643659,-0.008960024,-0.012136367,0.0054778866,0.009297418,0.00062020106,-0.008699106,0.048418228,0.027829392,0.17061849,0.46908233,0.28405154,0
1593052000,1592896000,1.4460127,0.8611375,-2.914248,-1.1002989,0.37203687,1.3063791,2.1559367,0.00400502,0.009773895,-0.0055586323,-0.011643659,-0.008960024,-0.012136367,0.0054778866,0.009297418,0.00062020106,-0.008699106,0.048418228,0.027829392,0.17061849,0.46908233,0.28405154,0
1593060000,1592904000,1.4460127,0.8611375,-2.9142802,-1.1003314,0.37200454,1.3063469,2.1559045,0.00400502,0.009773895,-0.0055586323,-0.011643659,-0.008960024,-0.012136367,0.0054778866,0.009297418,0.00062020106,-0.008699106,0.048418228,0.027829392,0.17061849,0.46908233,0.28405154,0
1593068000,1592912000,1.4460127,0.8611375,-2.914315,-1.1003659,0.37196982,1.3063121,2.1558697,0.00400502,0.009773895,-0.0055586323,-0.011643659,-0.008960024,-0.012136367,0.0054778866,0.009297418,0.00062020106,-0.008699106,0.048418228,0.027829392,0.17061849,0.46908233,0.28405154,0
1593076000,1592920000,1.4460127,0.8611375,-2.9144132,-1.1004645,0.3718715,1.3062139,2.1557715,0.00400502,0.009773895,-0.0055586323,-0.011643659,-0.008960024,-0.012136367,0.0054778866,0.009297418,0.00062020106,-0.008699106,0.048418228,0.027829392,0.17061849,0.46908233,0.28405154,0
1593084000,1592928000,1.4460127,0.8611375,-2.9143763,-1.1004274,0.37190863,1.3062507,2.1558084,0.00400502,0.009773895,-0.0055586323,-0.011643659,-0.008960024,-0.012136367,0.0054778866,0.009297418,0.00062020106,-0.008699106,0.048418228,0.027829392,0.17061849,0.46908233,0.28405154,0
1593092000,1592936000,1.4460127,0.8611375,-2.9143584,-1.1004095,0.37192643,1.3062687,2.1558263,0.00400502,0.009773895,-0.0055586323,-0.011643659,-0.008960024,-0.012136367,0.0054778866,0.009297418,0.00062020106,-0.008699106,0.048418228,0.027829392,0.17061849,0.46908233,0.28405154,0
1593100000,1592944000,1.4460127,0.8611375,-2.9143727,-1.1004238,0.37191218,1.3062541,2.1558118,0.00400502,0.009773895,-0.0055586323,-0.011643659,-0.008960024,-0.012136367,0.0054778866,0.009297418,0.00062020106,-0.008699106,0.048418228,0.027829392,0.17061849,0.46908233,0.28405154,0
1593108000,1592952000,1.4460127,0.8611375,-2.9143136,-1.1003647,0.3719713,1.3063135,2.1558712,0.00400502,0.009773895,-0.0055586323,-0.011643659,-0.008960024,-0.012136367,0.0054778866,0.009297418,0.00062020106,-0.008699106,0.048418228,0.027829392,0.17061849,0.46908233,0.28405154,0
1593116000,1592960000,1.4460127,0.8611375,-2.9142244,-1.1002755,0.3720605,1.3064024,2.15596,0.00400502,0.009773895,-0.0055586323,-0.011643659,-0.008960024,-0.012136367,0.0054778866,0.009297418,0.00062020106,-0.008699106,0.048418228,0.027829392,0.17061849,0.46908233,0.28405154,0
1593124000,1592968000,1.4460127,0.8611375,-2.9140449,-1.100096,0.37224007,1.306582,2.1561399,0.00400502,0.009773895,-0.0055586323,-0.011643659,-0.008960024,-0.012136367,0.0054778866,0.009297418,0.00062020106,-0.008699106,0.048418228,0.027829392,0.17061849,0.46908233,0.28405154,0
1593132000,1592976000,1.4460127,0.8611375,-2.9140952,-1.1001463,0.37218967,1.3065319,2.1560893,0.00400502,0.009773895,-0.0055586323,-0.011643659,-0.008960024,-0.012136367,0.0054778866,0.009297418,0.00062020106,-0.008699106,0.048418228,0.027829392,0.17061849,0.46908233,0.28405154,0
1593140000,1592984000,1.4460127,0.8611375,-2.9141753,-1.1002263,0.37210956,1.3064518,2.1560092,0.00400502,0.009773895,-0.0055586323,-0.011643659,-0.008960024,-0.012136367,0.0054778866,0.009297418,0.00062020106,-0.008699106,0.048418228,0.027829392,0.17061849,0.46908233,0.28405154,0
1593148000,1592992000,1.4460127,0.8611375,-2.9141128,-1.1001639,0.3721721,1.306514,2.1560717,0.00400502,0.009773895,-0.0055586323,-0.011643659,-0.008960024,-0.012136367,0.0054778866,0.009297418,0.00062020106,-0.008699106,0.048418228,0.027829392,0.17061849,0.46908233,0.28405154,0
1593156000,1593000000,1.4460127,0.8611375,-2.9141161,-1.1001673,0.37216857,1.3065109,2.1560683,0.00400502,0.009773895,-0.0055586323,-0.011643659,-0.008960024,-0.012136367,0.0054778866,0.009297418,0.00062020106,-0.008699106,0.048418228,0.027829392,0.17061849,0.46908233,0.28405154,0
1593164000,1593008000,1.4460127,0.8611375,-2.9140942,-1.1001452,0.37219065,1.3065327,2.1560903,0.00400502,0.009773895,-0.0055586323,-0.011643659,-0.008960024,-0.012136367,0.0054778866,0.009297418,0.00062020106,-0.008699106,0.048418228,0.027829392,0.17061849,0.46908233,0.28405154,0
1593172000,1593016000,1.4460127,0.8611375,-2.914084,-1.1001351,0.37220094,1.3065431,2.156101,0.00400502,0.009773895,-0.0055586323,-0.011643659,-0.008960024,-0.012136367,0.0054778866,0.009297418,0.00062020106,-0.008699106,0.048418228,0.027829392,0.17061849,0.46908233,0.28405154,0
1593180000,1593024000,1.4460127,0.8611375,-2.9141324,-1.1001836,0.3721524,1.3064945,2.156052,0.00400502,0.009773895,-0.0055586323,-0.011643659,-0.008960024,-0.012136367,0.0054778866,0.009297418,0.00062020106,-0.008699106,0.048418228,0.027829392,0.17061849,0.46908233,0.28405154,0
1593188000,1593032000,1.4460127,0.8611375,-2.914123,-1.1001741,0.3721618,1.306504,2.1560614,0.00400502,0.009773895,-0.0055586323,-0.011643659,-0.008960024,-0.012136367,0.0054778866,0.009297418,0.00062020106,-0.008699106,0.048418228,0.027829392,0.17061849,0.46908233,0.28405154,0
1593196000,1593040000,1.4453914,0.8615948,-2.9139218,-1.1000851,0.37208065,1.3064494,2.156117,0.005913009,0.0010945962,-0.006225324,-0.005079105,-0.00035944086,-0.012725421,-0.003767128,-0.00841602,-0.014118127,-0.016578065,0.048423864,0.027870692,0.17075059,0.46903723,0.2839177,0
1593204000,1593048000,1.4453914,0.8615948,-2.9139977,-1.1001611,0.37200472,1.3063735,2.1560411,0.005913009,0.0010945962,-0.006225324,-0.005079105,-0.00035944086,-0.012725421,-0.003767128,-0.00841602,-0.014118127,-0.016578065,0.048423864,0.027870692,0.17075059,0.46903723,0.2839177,0
1593212000,1593056000,1.4453914,0.8615948,-2.914002,-1.1001655,0.37200022,1.3063691,2.1560366,0.005913009,0.0010945962,-0.006225324,-0.005079105,-0.00035944086,-0.012725421,-0.003767128,-0.00841602,-0.014118127,-0.016578065,0.048423864,0.027870692,0.17075059,0.46903723,0.2839177,0
1593220000,1593064000,1.4453914,0.8615948,-2.9139662,-1.1001297,0.3720362,1.3064052,2.1560726,0.005913009,0.0010945962,-0.006225324,-0.005079105,-0.00035944086,-0.012725421,-0.003767128,-0.00841602,-0.014118127,-0.016578065,0.048423864,0.027870692,0.17075059,0.46903723,0.2839177,0
1593228000,1593072000,1.4453914,0.8615948,-2.914045,-1.1002088,0.3719572,1.3063259,2.1559937,0.005913009,0.0010945962,-0.006225324,-0.005079105,-0.00035944086,-0.012725421,-0.003767128,-0.00841602,-0.014118127,-0.016578065,0.048423864,0.027870692,0.17075059,0.46903723,0.2839177,0
1593236000,1593080000,1.4453914,0.8615948,-2.9139988,-1.1001625,0.37200332,1.3063723,2.1560397,0.005913009,0.0010945962,-0.006225324,-0.005079105,-0.00035944086,-0.012725421,-0.003767128,-0.00841602,-0.014118127,-0.016578065,0.048423864,0.027870692,0.17075059,0.46903723,0.2839177,0
1593244000,1593088000,1.4453914,0.8615948,-2.9139462,-1.1001096,0.37205625,1.3064251,2.1560926,0.005913009,0.0010945962,-0.006225324,-0.005079105,-0.00035944086,-0.012725421,-0.003767128,-0.00841602,-0.014118127,-0.016578065,0.048423864,0.027870692,0.17075059,0.46903723,0.2839177,0
1593252000,1593096000,1.4453914,0.8615948,-2.913865,-1.1000288,0.37213707,1.306506,2.1561737,0.005913009,0.0010945962,-0.006225324,-0.005079105,-0.00035944086,-0.012725421,-0.003767128,-0.00841602,-0.014118127,-0.016578065,0.048423864,0.027870692,0.17075059,0.46903723,0.2839177,0
1593260000,1593104000,1.4453914,0.8615948,-2.913873,-1.1000364,0.37212935,1.3064983,2.1561658,0.005913009,0.0010945962,-0.006225324,-0.005079105,-0.00035944086,-0.012725421,-0.003767128,-0.00841602,-0.014118127,-0.016578065,0.048423864,0.027870692,0.17075059,0.46903723,0.2839177,0
1593268000,1593112000,1.4453914,0.8615948,-2.9138615,-1.1000252,0.37214065,1.3065095,2.156177,0.005913009,0.0010945962,-0.006225324,-0.005079105,-0.00035944086,-0.012725421,-0.003767128,-0.00841602,-0.014118127,-0.016578065,0.048423864,0.027870692,0.17075059,0.46903723,0.2839177,0
1593276000,1593120000,1.4453914,0.8615948,-2.9138184,-1.099982,0.37218395,1.306553,2.1562204,0.005913009,0.0010945962,-0.006225324,-0.005079105,-0.00035944086,-0.012725421,-0.003767128,-0.00841602,-0.014118127,-0.016578065,0.048423864,0.027870692,0.17075059,0.46903723,0.2839177,0
1593284000,1593128000,1.4453914,0.8615948,-2.913776,-1.0999395,0.37222636,1.3065952,2.1562629,0.005913009,0.0010945962,-0.006225324,-0.005079105,-0.00035944086,-0.012725421,-0.003767128,-0.00841602,-0.014118127,-0.016578065,0.048423864,0.027870692,0.17075059,0.46903723,0.2839177,0
1593292000,1593136000,1.4453914,0.8615948,-2.913786,-1.0999495,0.37221634,1.3065853,2.1562529,0.005913009,0.0010945962,-0.006225324,-0.005079105,-0.00035944086,-0.012725421,-0.003767128,-0.00841602,-0.014118127,-0.016578065,0.048423864,0.027870692,0.17075059,0.46903723,0.2839177,0
1593300000,1593144000,1.4453914,0.8615948,-2.9138374,-1.1000009,0.37216482,1.3065338,2.1562014,0.005913009,0.0010945962,-0.006225324,-0.005079105,-0.00035944086,-0.012725421,-0.003767128,-0.00841602,-0.014118127,-0.016578065,0.048423864,0.027870692,0.17075059,0.46903723,0.2839177,0
1593308000,1593152000,1.4453914,0.8615948,-2.9138849,-1.100048,0.37211743,1.3064865,2.156154,0.005913009,0.0010945962,-0.006225324,-0.005079105,-0.00035944086,-0.012725421,-0.003767128,-0.00841602,-0.014118127,-0.016578065,0.048423864,0.027870692,0.17075059,0.46903723,0.2839177,0
1593316000,1593160000,1.4453914,0.8615948,-2.9138937,-1.1000572,0.37210843,1.3064777,2.156145,0.005913009,0.0010945962,-0.006225324,-0.005079105,-0.00035944086,-0.012725421,-0.003767128,-0.00841602,-0.014118127,-0.016578065,0.048423864,0.027870692,0.17075059,0.46903723,0.2839177,0
1593324000,1593168000,1.4453914,0.8615948,-2.9139185,-1.1000818,0.37208363,1.3064529,2.1561203,0.005913009,0.0010945962,-0.006225324,-0.005079105,-0.00035944086,-0.012725421,-0.003767128,-0.00841602,-0.014118127,-0.016578065,0.048423864,0.027870692,0.17075059,0.46903723,0.2839177,0
1593332000,1593176000,1.4453914,0.8615948,-2.9139256,-1.1000888,0.37207663,1.306446,2.1561134,0.005913009,0.0010945962,-0.006225324,-0.005079105,-0.00035944086,-0.012725421,-0.003767128,-0.00841602,-0.014118127,-0.016578065,0.048423864,0.027870692,0.17075059,0.46903723,0.2839177,0
1593340000,1593184000,1.4453914,0.8615948,-2.91396,-1.1001234,0.37204218,1.3064114,2.1560788,0.005913009,0.0010945962,-0.006225324,-0.005079105,-0.00035944086,-0.012725421,-0.003767128,-0.00841602,-0.014118127,-0.016578065,0.048423864,0.027870692,0.17075059,0.46903723,0.2839177,0
1593348000,1593192000,1.4453914,0.8615948,-2.9139187,-1.100082,0.37208346,1.3064528,2.15612,0.005913009,0.0010945962,-0.006225324,-0.005079105,-0.00035944086,-0.012725421,-0.003767128,-0.00841602,-0.014118127,-0.016578065,0.048423864,0.027870692,0.17075059,0.46903723,0.2839177,0
1593356000,1593200000,1.4453914,0.8615948,-2.9139082,-1.1000715,0.37209398,1.3064632,2.1561306,0.005913009,0.0010945962,-0.006225324,-0.005079105,-0.00035944086,-0.012725421,-0.003767128,-0.00841602,-0.014118127,-0.016578065,0.048423864,0.027870692,0.17075059,0.46903723,0.2839177,0
1593364000,1593208000,1.4453914,0.8615948,-2.9139616,-1.1001248,0.37204057,1.3064096,2.1560771,0.005913009,0.0010945962,-0.006225324,-0.005079105,-0.00035944086,-0.012725421,-0.003767128,-0.00841602,-0.014118127,-0.016578065,0.048423864,0.027870692,0.17075059,0.46903723,0.2839177,0
1593372000,1593216000,1.4453914,0.8615948,-2.913972,-1.1001354,0.37203026,1.3063996,2.156067,0.005913009,0.0010945962,-0.006225324,-0.005079105,-0.00035944086,-0.012725421,-0.003767128,-0.00841602,-0.014118127,-0.016578065,0.048423864,0.027870692,0.17075059,0.46903723,0.2839177,0
1593380000,1593224000,1.4453914,0.8615948,-2.9140296,-1.1001929,0.37197262,1.3063418,2.1560092,0.005913009,0.0010945962,-0.006225324,-0.005079105,-0.00035944086,-0.012725421,-0.003767128,-0.00841602,-0.014118127,-0.016578065,0.048423864,0.027870692,0.17075059,0.46903723,0.2839177,0
1593388000,1593232000,1.4453914,0.8615948,-2.9140117,-1.1001753,0.37199038,1.3063595,2.1560268,0.005913009,0.0010945962,-0.006225324,-0.005079105,-0.00035944086,-0.012725421,-0.003767128,-0.00841602,-0.014118127,-0.016578065,0.048423864,0.027870692,0.17075059,0.46903723,0.2839177,0
1593396000,1593240000,1.4453914,0.8615948,-2.9140358,-1.1001989,0.3719665,1.3063354,2.156003,0.005913009,0.0010945962,-0.006225324,-0.005079105,-0.00035944086,-0.012725421,-0.003767128,-0.00841602,-0.014118127,-0.016578065,0.048423864,0.027870692,0.17075059,0.46903723,0.2839177,0
1593404000,1593248000,1.4453914,0.8615948,-2.914031,-1.1001945,0.37197116,1.3063401,2.1560075,0.005913009,0.0010945962,-0.006225324,-0.005079105,-0.00035944086,-0.012725421,-0.003767128,-0.00841602,-0.014118127,-0.016578065,0.048423864,0.027870692,0.17075059,0.46903723,0.2839177,0
1593412000,1593256000,1.4453914,0.8615948,-2.9140518,-1.1002151,0.37195045,1.3063196,2.155987,0.005913009,0.0010945962,-0.006225324,-0.005079105,-0.00035944086,-0.012725421,-0.003767128,-0.00841602,-0.014118127,-0.016578065,0.048423864,0.027870692,0.17075059,0.46903723,0.2839177,0
1593420000,1593264000,1.4453914,0.8615948,-2.9139266,-1.1000899,0.3720756,1.3064446,2.156112,0.005913009,0.0010945962,-0.006225324,-0.005079105,-0.00035944086,-0.012725421,-0.003767128,-0.00841602,-0.014118127,-0.016578065,0.048423864,0.027870692,0.17075059,0.46903723,0.2839177,0
1593428000,1593272000,1.4453914,0.8615948,-2.913835,-1.0999985,0.372167,1.3065362,2.1562035,0.005913009,0.0010945962,-0.006225324,-0.005079105,-0.00035944086,-0.012725421,-0.003767128,-0.00841602,-0.014118127,-0.016578065,0.048423864,0.027870692,0.17075059,0.46903723,0.2839177,0
1593436000,1593280000,1.4453914,0.8615948,-2.913862,-1.1000254,0.3721402,1.3065093,2.1561766,0.005913009,0.0010945962,-0.006225324,-0.005079105,-0.00035944086,-0.012725421,-0.003767128,-0.00841602,-0.014118127,-0.016578065,0.048423864,0.027870692,0.17075059,0.46903723,0.2839177,0
1593444000,1593288000,1.4453914,0.8615948,-2.9139137,-1.1000769,0.3720885,1.3064576,2.156125,0.005913009,0.0010945962,-0.006225324,-0.005079105,-0.00035944086,-0.012725421,-0.003767128,-0.00841602,-0.014118127,-0.016578065,0.048423864,0.027870692,0.17075059,0.46903723,0.2839177,0
1593452000,1593296000,1.4453914,0.8615948,-2.913886,-1.1000497,0.37211603,1.3064849,2.1561525,0.005913009,0.0010945962,-0.006225324,-0.005079105,-0.00035944086,-0.012725421,-0.003767128,-0.00841602,-0.014118127,-0.016578065,0.048423864,0.027870692,0.17075059,0.46903723,0.2839177,0
1593460000,1593304000,1.4453914,0.8615948,-2.9139142,-1.1000775,0.372088,1.306457,2.1561246,0.005913009,0.0010945962,-0.006225324,-0.005079105,-0.00035944086,-0.012725421,-0.003767128,-0.00841602,-0.014118127,-0.016578065,0.048423864,0.027870692,0.17075059,0.46903723,0.2839177,0
1593468000,1593312000,1.4453914,0.8615948,-2.9139347,-1.1000981,0.3720673,1.3064365,2.156104,0.005913009,0.0010945962,-0.006225324,-0.005079105,-0.00035944086,-0.012725421,-0.003767128,-0.00841602,-0.014118127,-0.016578065,0.048423864,0.027870692,0.17075059,0.46903723,0.2839177,0
1593476000,1593320000,1.4453914,0.8615948,-2.9139767,-1.10014,0.37202546,1.3063946,2.1560621,0.005913009,0.0010945962,-0.006225324,-0.005079105,-0.00035944086,-0.012725421,-0.003767128,-0.00841602,-0.014118127,-0.016578065,0.048423864,0.027870692,0.17075059,0.46903723,0.2839177,0
1593484000,1593328000,1.4453914,0.8615948,-2.9137917,-1.0999551,0.3722104,1.3065797,2.1562471,0.005913009,0.0010945962,-0.006225324,-0.005079105,-0.00035944086,-0.012725421,-0.003767128,-0.00841602,-0.014118127,-0.016578065,0.048423864,0.027870692,0.17075059,0.46903723,0.2839177,0
1593492000,1593336000,1.4453914,0.8615948,-2.9137795,-1.0999428,0.37222275,1.306592,2.1562595,0.005913009,0.0010945962,-0.006225324,-0.005079105,-0.00035944086,-0.012725421,-0.003767128,-0.00841602,-0.014118127,-0.016578065,0.048423864,0.027870692,0.17075059,0.46903723,0.2839177,0
1593500000,1593344000,1.4453914,0.8615948,-2.913782,-1.0999452,0.3722202,1.3065894,2.1562567,0.005913009,0.0010945962,-0.006225324,-0.005079105,-0.00035944086,-0.012725421,-0.003767128,-0.00841602,-0.014118127,-0.016578065,0.048423864,0.027870692,0.17075059,0.46903723,0.2839177,0
1593508000,1593352000,1.4453914,0.8615948,-2.9137094,-1.0998727,0.3722927,1.3066618,2.1563294,0.005913009,0.0010945962,-0.006225324,-0.005079105,-0.00035944086,-0.012725421,-0.003767128,-0.00841602,-0.014118127,-0.016578065,0.048423864,0.027870692,0.17075059,0.46903723,0.2839177,0
1593516000,1593360000,1.4453914,0.8615948,-2.9137607,-1.0999242,0.37224135,1.3066105,2.1562781,0.005913009,0.0010945962,-0.006225324,-0.005079105,-0.00035944086,-0.012725421,-0.003767128,-0.00841602,-0.014118127,-0.016578065,0.048423864,0.027870692,0.17075059,0.46903723,0.2839177,0
1593524000,1593368000,1.4453914,0.8615948,-2.9137921,-1.0999556,0.37221003,1.3065794,2.1562467,0.005913009,0.0010945962,-0.006225324,-0.005079105,-0.00035944086,-0.012725421,-0.003767128,-0.00841602,-0.014118127,-0.016578065,0.048423864,0.027870692,0.17075059,0.46903723,0.2839177,0
1593532000,1593376000,1.4453914,0.8615948,-2.9137883,-1.0999516,0.37221378,1.3065829,2.1562505,0.005913009,0.0010945962,-0.006225324,-0.005079105,-0.00035944086,-0.012725421,-0.003767128,-0.00841602,-0.014118127,-0.016578065,0.048423864,0.027870692,0.17075059,0.46903723,0.2839177,0
1593540000,1593384000,1.4453914,0.8615948,-2.913739,-1.0999025,0.37226325,1.3066326,2.1563,0.005913009,0.0010945962,-0.006225324,-0.005079105,-0.00035944086,-0.012725421,-0.003767128,-0.00841602,-0.014118127,-0.016578065,0.048423864,0.027870692,0.17075059,0.46903723,0.2839177,0
1593548000,1593392000,1.4453914,0.8615948,-2.913653,-1.0998163,0.3723492,1.3067186,2.156386,0.005913009,0.0010945962,-0.006225324,-0.005079105,-0.00035944086,-0.012725421,-0.003767128,-0.00841602,-0.014118127,-0.016578065,0.048423864,0.027870692,0.17075059,0.46903723,0.2839177,0
1593556000,1593400000,1.4453914,0.8615948,-2.9136076,-1.0997711,0.37239456,1.3067639,2.1564312,0.005913009,0.0010945962,-0.006225324,-0.005079105,-0.00035944086,-0.012725421,-0.003767128,-0.00841602,-0.014118127,-0.016578065,0.048423864,0.027870692,0.17075059,0.46903723,0.2839177,0
1593564000,1593408000,1.4453914,0.8615948,-2.9135854,-1.0997491,0.37241673,1.3067861,2.1564531,0.005913009,0.0010945962,-0.006225324,-0.005079105,-0.00035944086,-0.012725421,-0.003767128,-0.00841602,-0.014118127,-0.016578065,0.048423864,0.027870692,0.17075059,0.46903723,0.2839177,0
1593572000,1593416000,1.4453914,0.8615948,-2.9135888,-1.0997524,0.37241343,1.3067827,2.1564503,0.005913009,0.0010945962,-0.006225324,-0.005079105,-0.00035944086,-0.012725421,-0.003767128,-0.00841602,-0.014118127,-0.016578065,0.048423864,0.027870692,0.17075059,0.46903723,0.2839177,0
1593580000,1593424000,1.4453914,0.8615948,-2.9136243,-1.099788,0.3723779,1.3067472,2.1564145,0.005913009,0.0010945962,-0.006225324,-0.005079105,-0.00035944086,-0.012725421,-0.003767128,-0.00841602,-0.014118127,-0.016578065,0.048423864,0.027870692,0.17075059,0.46903723,0.2839177,0
1593588000,1593432000,1.4453914,0.8615948,-2.9135487,-1.0997125,0.37245336,1.3068225,2.1564898,0.005913009,0.0010945962,-0.006225324,-0.005079105,-0.00035944086,-0.012725421,-0.003767128,-0.00841602,-0.014118127,-0.016578065,0.048423864,0.027870692,0.17075059,0.46903723,0.2839177,0
1593596000,1593440000,1.4462407,0.86055636,-2.9137568,-1.0995952,0.37279102,1.307029,2.1564724,0.015556769,0.015485631,0.0034894776,0.001179304,0.0053606112,0.0017346862,0.015849296,0.014920815,0.007187291,0.0010981867,0.048370656,0.02778856,0.17057611,0.46919945,0.28406522,0
1593604000,1593448000,1.4462407,0.86055636,-2.913772,-1.0996104,0.37277588,1.307014,2.1564574,0.015556769,0.015485631,0.0034894776,0.001179304,0.0053606112,0.0017346862,0.015849296,0.014920815,0.007187291,0.0010981867,0.048370656,0.02778856,0.17057611,0.46919945,0.28406522,0
1593612000,1593456000,1.4462407,0.86055636,-2.913768,-1.0996064,0.3727799,1.307018,2.1564612,0.015556769,0.015485631,0.0034894776,0.001179304,0.0053606112,0.0017346862,0.015849296,0.014920815,0.007187291,0.0010981867,0.048370656,0.02778856,0.17057611,0.46919945,0.28406522,0
1593620000,1593464000,1.4462407,0.86055636,-2.913749,-1.0995871,0.37279898,1.307037,2.1564803,0.015556769,0.015485631,0.0034894776,0.001179304,0.0053606112,0.0017346862,0.015849296,0.014920815,0.007187291,0.0010981867,0.048370656,0.02778856,0.17057611,0.46919945,0.28406522,0
1593628000,1593472000,1.4462407,0.86055636,-2.9137366,-1.0995748,0.3728113,1.3070494,2.1564927,0.015556769,0.015485631,0.0034894776,0.001179304,0.0053606112,0.0017346862,0.015849296,0.014920815,0.007187291,0.0010981867,0.048370656,0.02778856,0.17057611,0.46919945,0.28406522,0
1593636000,1593480000,1.4462407,0.86055636,-2.9137635,-1.0996017,0.3727844,1.3070226,2.1564658,0.015556769,0.015485631,0.0034894776,0.001179304,0.0053606112,0.0017346862,0.015849296,0.014920815,0.007187291,0.0010981867,0.048370656,0.02778856,0.17057611,0.46919945,0.28406522,0
1593644000,1593488000,1.4462407,0.86055636,-2.9138532,-1.0996914,0.37269476,1.3069329,2.1563761,0.015556769,0.015485631,0.0034894776,0.001179304,0.0053606112,0.0017346862,0.015849296,0.014920815,0.007187291,0.0010981867,0.048370656,0.02778856,0.17057611,0.46919945,0.28406522,0
1593652000,1593496000,1.4462407,0.86055636,-2.9139338,-1.0997717,0.3726143,1.3068526,2.1562958,0.015556769,0.015485631,0.0034894776,0.001179304,0.0053606112,0.0017346862,0.015849296,0.014920815,0.007187291,0.0010981867,0.048370656,0.02778856,0.17057611,0.46919945,0.28406522,0
1593660000,1593504000,1.4462407,0.86055636,-2.9139566,-1.0997946,0.3725914,1.3068297,2.156273,0.015556769,0.015485631,0.0034894776,0.001179304,0.0053606112,0.0017346862,0.015849296,0.014920815,0.007187291,0.0010981867,0.048370656,0.02778856,0.17057611,0.46919945,0.28406522,0
1593668000,1593512000,1.4462407,0.86055636,-2.9139943,-1.0998325,0.37255356,1.3067918,2.156235,0.015556769,0.015485631,0.0034894776,0.001179304,0.0053606112,0.0017346862,0.015849296,0.014920815,0.007187291,0.0010981867,0.048370656,0.02778856,0.17057611,0.46919945,0.28406522,0
1593676000,1593520000,1.4462407,0.86055636,-2.9140568,-1.0998948,0.37249127,1.3067294,2.1561728,0.015556769,0.015485631,0.0034894776,0.001179304,0.0053606112,0.0017346862,0.015849296,0.014920815,0.007187291,0.0010981867,0.048370656,0.02778856,0.17057611,0.46919945,0.28406522,0
1593684000,1593528000,1.4462407,0.86055636,-2.9140575,-1.0998955,0.37249044,1.3067288,2.156172,0.015556769,0.015485631,0.0034894776,0.001179304,0.0053606112,0.0017346862,0.015849296,0.014920815,0.007187291,0.0010981867,0.048370656,0.02778856,0.17057611,0.46919945,0.28406522,0
1593692000,1593536000,1.4462407,0.86055636,-2.9140036,-1.0998418,0.37254417,1.3067827,2.1562257,0.015556769,0.015485631,0.0034894776,0.001179304,0.0053606112,0.0017346862,0.015849296,0.014920815,0.007187291,0.0010981867,0.048370656,0.02778856,0.17057611,0.46919945,0.28406522,0
1593700000,1593544000,1.4462407,0.86055636,-2.9139564,-1.0997944,0.3725916,1.3068298,2.1562731,0.015556769,0.015485631,0.0034894776,0.001179304,0.0053606112,0.0017346862,0.015849296,0.014920815,0.007187291,0.0010981867,0.048370656,0.02778856,0.17057611,0.46919945,0.28406522,0
1593708000,1593552000,1.4462407,0.86055636,-2.9138942,-1.099732,0.37265387,1.3068923,2.1563354,0.015556769,0.015485631,0.0034894776,0.001179304,0.0053606112,0.0017346862,0.015849296,0.014920815,0.007187291,0.0010981867,0.048370656,0.02778856,0.17057611,0.46919945,0.28406522,0
1593716000,1593560000,1.4462407,0.86055636,-2.9138896,-1.0997275,0.37265834,1.3068964,2.1563396,0.015556769,0.015485631,0.0034894776,0.001179304,0.0053606112,0.0017346862,0.015849296,0.014920815,0.007187291,0.0010981867,0.048370656,0.02778856,0.17057611,0.46919945,0.28406522,0
1593724000,1593568000,1.4462407,0.86055636,-2.9138644,-1.0997025,0.37268358,1.306922,2.156365,0.015556769,0.015485631,0.0034894776,0.001179304,0.0053606112,0.0017346862,0.015849296,0.014920815,0.007187291,0.0010981867,0.048370656,0.02778856,0.17057611,0.46919945,0.28406522,0
1593732000,1593576000,1.4462407,0.86055636,-2.9138858,-1.099724,0.37266204,1.3069003,2.1563432,0.015556769,0.015485631,0.0034894776,0.001179304,0.0053606112,0.0017346862,0.015849296,0.014920815,0.007187291,0.0010981867,0.048370656,0.02778856,0.17057611,0.46919945,0.28406522,0
1593740000,1593584000,1.4462407,0.86055636,-2.9138968,-1.0997348,0.37265122,1.3068894,2.1563325,0.015556769,0.015485631,0.0034894776,0.001179304,0.0053606112,0.0017346862,0.015849296,0.014920815,0.007187291,0.0010981867,0.048370656,0.02778856,0.17057611,0.46919945,0.28406522,0
1593748000,1593592000,1.4462407,0.86055636,-2.9140587,-1.0998966,0.37248942,1.3067274,2.1561708,0.015556769,0.015485631,0.0034894776,0.001179304,0.0053606112,0.0017346862,0.015849296,0.014920815,0.007187291,0.0010981867,0.048370656,0.02778856,0.17057611,0.46919945,0.28406522,0
1593756000,1593600000,1.4462407,0.86055636,-2.9139993,-1.0998373,0.37254855,1.3067868,2.15623,0.015556769,0.015485631,0.0034894776,0.001179304,0.0053606112,0.0017346862,0.015849296,0.014920815,0.007187291,0.0010981867,0.048370656,0.02778856,0.17057611,0.46919945,0.28406522,0
1593764000,1593608000,1.4462407,0.86055636,-2.9140167,-1.0998547,0.37253118,1.3067694,2.1562126,0.015556769,0.015485631,0.0034894776,0.001179304,0.0053606112,0.0017346862,0.015849296,0.014920815,0.007187291,0.0010981867,0.048370656,0.02778856,0.17057611,0.46919945,0.28406522,0
1593772000,1593616000,1.4462407,0.86055636,-2.9141212,-1.0999593,0.37242684,1.306665,2.1561081,0.015556769,0.015485631,0.0034894776,0.001179304,0.0053606112,0.0017346862,0.015849296,0.014920815,0.007187291,0.0010981867,0.048370656,0.02778856,0.17057611,0.46919945,0.28406522,0
1593780000,1593624000,1.4462407,0.86055636,-2.9140494,-1.0998877,0.37249842,1.3067367,2.15618,0.015556769,0.015485631,0.0034894776,0.001179304,0.0053606112,0.0017346862,0.015849296,0.014920815,0.007187291,0.0010981867,0.048370656,0.02778856,0.17057611,0.46919945,0.28406522,0
1593788000,1593632000,1.4462407,0.86055636,-2.9139585,-1.0997967,0.37258953,1.3068278,2.156271,0.015556769,0.015485631,0.0034894776,0.001179304,0.0053606112,0.0017346862,0.015849296,0.014920815,0.007187291,0.0010981867,0.048370656,0.02778856,0.17057611,0.46919945,0.28406522,0
1593796000,1593640000,1.4462407,0.86055636,-2.9138694,-1.0997076,0.37267864,1.3069171,2.1563601,0.015556769,0.015485631,0.0034894776,0.001179304,0.0053606112,0.0017346862,0.015849296,0.014920815,0.007187291,0.0010981867,0.048370656,0.02778856,0.17057611,0.46919945,0.28406522,0
1593804000,1593648000,1.4462407,0.86055636,-2.9137971,-1.0996355,0.37275073,1.306989,2.1564322,0.015556769,0.015485631,0.0034894776,0.001179304,0.0053606112,0.0017346862,0.015849296,0.014920815,0.007187291,0.0010981867,0.048370656,0.02778856,0.17057611,0.46919945,0.28406522,0
1593812000,1593656000,1.4462407,0.86055636,-2.9138656,-1.0997037,0.37268242,1.3069208,2.1563637,0.015556769,0.015485631,0.0034894776,0.001179304,0.0053606112,0.0017346862,0.015849296,0.014920815,0.007187291,0.0010981867,0.048370656,0.02778856,0.17057611,0.46919945,0.28406522,0
1593820000,1593664000,1.4462407,0.86055636,-2.9138374,-1.0996755,0.37271065,1.3069489,2.156392,0.015556769,0.015485631,0.0034894776,0.001179304,0.0053606112,0.0017346862,0.015849296,0.014920815,0.007187291,0.0010981867,0.048370656,0.02778856,0.17057611,0.46919945,0.28406522,0
1593828000,1593672000,1.4462407,0.86055636,-2.9137354,-1.0995736,0.37281245,1.3070507,2.156494,0.015556769,0.015485631,0.0034894776,0.001179304,0.0053606112,0.0017346862,0.015849296,0.014920815,0.007187291,0.0010981867,0.048370656,0.02778856,0.17057611,0.46919945,0.28406522,0
1593836000,1593680000,1.4462407,0.86055636,-2.9136648,-1.099503,0.37288305,1.3071214,2.1565645,0.015556769,0.015485631,0.0034894776,0.001179304,0.0053606112,0.0017346862,0.015849296,0.014920815,0.007187291,0.0010981867,0.048370656,0.02778856,0.17057611,0.46919945,0.28406522,0
1593844000,1593688000,1.4462407,0.86055636,-2.9136357,-1.0994736,0.3729122,1.3071506,2.1565938,0.015556769,0.015485631,0.0034894776,0.001179304,0.0053606112,0.0017346862,0.015849296,0.014920815,0.007187291,0.0010981867,0.048370656,0.02778856,0.17057611,0.46919945,0.28406522,0
1593852000,1593696000,1.4462407,0.86055636,-2.9135456,-1.0993835,0.37300223,1.3072405,2.156684,0.015556769,0.015485631,0.0034894776,0.001179304,0.0053606112,0.0017346862,0.015849296,0.014920815,0.007187291,0.0010981867,0.048370656,0.02778856,0.17057611,0.46919945,0.28406522,0
1593860000,1593704000,1.4462407,0.86055636,-2.9134502,-1.0992881,0.3730977,1.3073359,2.1567793,0.015556769,0.015485631,0.0034894776,0.001179304,0.0053606112,0.0017346862,0.015849296,0.014920815,0.007187291,0.0010981867,0.048370656,0.02778856,0.17057611,0.46919945,0.28406522,0
1593868000,1593712000,1.4462407,0.86055636,-2.9134283,-1.0992663,0.37311974,1.3073578,2.1568012,0.015556769,0.015485631,0.0034894776,0.001179304,0.0053606112,0.0017346862,0.015849296,0.014920815,0.007187291,0.0010981867,0.048370656,0.02778856,0.17057611,0.46919945,0.28406522,0
1593876000,1593720000,1.4462407,0.86055636,-2.9133594,-1.0991976,0.37318856,1.3074266,2.1568701,0.015556769,0.015485631,0.0034894776,0.001179304,0.0053606112,0.0017346862,0.015849296,0.014920815,0.007187291,0.0010981867,0.048370656,0.02778856,0.17057611,0.46919945,0.28406522,0
1593884000,1593728000,1.4462407,0.86055636,-2.9132416,-1.0990796,0.37330633,1.3075445,2.156988,0.015556769,0.015485631,0.0034894776,0.001179304,0.0053606112,0.0017346862,0.015849296,0.014920815,0.007187291,0.0010981867,0.048370656,0.02778856,0.17057611,0.46919945,0.28406522,0
1593892000,1593736000,1.4462407,0.86055636,-2.9132228,-1.099061,0.37332517,1.3075633,2.1570065,0.015556769,0.015485631,0.0034894776,0.001179304,0.0053606112,0.0017346862,0.015849296,0.014920815,0.007187291,0.0010981867,0.048370656,0.02778856,0.17057611,0.46919945,0.28406522,0
1593900000,1593744000,1.4462407,0.86055636,-2.9131956,-1.099034,0.37335226,1.3075904,2.1570334,0.015556769,0.015485631,0.0034894776,0.001179304,0.0053606112,0.0017346862,0.015849296,0.014920815,0.007187291,0.0010981867,0.048370656,0.02778856,0.17057611,0.46919945,0.28406522,0
1593908000,1593752000,1.4462407,0.86055636,-2.9131045,-1.0989426,0.37344345,1.3076816,2.157125,0.015556769,0.015485631,0.0034894776,0.001179304,0.0053606112,0.0017346862,0.015849296,0.014920815,0.007187291,0.0010981867,0.048370656,0.02778856,0.17057611,0.46919945,0.28406522,0
1593916000,1593760000,1.4462407,0.86055636,-2.9130685,-1.098907,0.37347934,1.3077173,2.1571608,0.015556769,0.015485631,0.0034894776,0.001179304,0.0053606112,0.0017346862,0.015849296,0.014920815,0.007187291,0.0010981867,0.048370656,0.02778856,0.17057611,0.46919945,0.28406522,0
1593924000,1593768000,1.4462407,0.86055636,-2.9131072,-1.0989456,0.37344077,1.3076787,2.157122,0.015556769,0.015485631,0.0034894776,0.001179304,0.0053606112,0.0017346862,0.015849296,0.014920815,0.007187291,0.0010981867,0.048370656,0.02778856,0.17057611,0.46919945,0.28406522,0
1593932000,1593776000,1.4462407,0.86055636,-2.913212,-1.0990504,0.37333584,1.3075739,2.1570172,0.015556769,0.015485631,0.0034894776,0.001179304,0.0053606112,0.0017346862,0.015849296,0.014920815,0.007187291,0.0010981867,0.048370656,0.02778856,0.17057611,0.46919945,0.28406522,0
1593940000,1593784000,1.4462407,0.86055636,-2.9132743,-1.0991126,0.3732737,1.3075116,2.156955,0.015556769,0.015485631,0.0034894776,0.001179304,0.0053606112,0.0017346862,0.015849296,0.014920815,0.007187291,0.0010981867,0.048370656,0.02778856,0.17057611,0.46919945,0.28406522,0
