timestamp,timestamp_sample,xyz[0],xyz[1],xyz[2]
1592248000,1592248000,-0.0017137245,-0.08298975,-9.807497
1592252000,1592252000,0.011784473,-0.07424407,-9.827005
1592300000,1592300000,-0.03778811,0.005828711,-9.80821
1592348000,1592348000,0.018369302,-0.05861918,-9.858554
1592400000,1592400000,0.090172626,0.109628335,-9.824997
1592444000,1592444000,0.062495455,-0.019950662,-9.833038
1592500000,1592500000,-0.016865203,0.04573929,-9.785174
1592548000,1592548000,-0.009402108,0.02771214,-9.834231
1592600000,1592600000,0.03456592,0.03940462,-9.8563
1592648000,1592648000,0.043220043,-0.054604717,-9.754144
1592700000,1592700000,0.032160394,-0.012011936,-9.754115
1592748000,1592748000,-0.033096045,-0.09795824,-9.771176
1592800000,1592800000,-0.013147277,0.034098122,-9.815946
1592848000,1592848000,0.08246517,-0.083338715,-9.713081
1592900000,1592900000,0.026957972,-0.06200386,-9.780869
1592948000,1592948000,-0.037077714,0.015164223,-9.803097
1593000000,1593000000,-0.017196404,-0.051893532,-9.769786
1593048000,1593048000,-0.009774212,0.0049227863,-9.752879
1593100000,1593100000,0.043528445,0.08424337,-9.818382
1593148000,1593148000,0.0068408274,0.04207619,-9.754644
1593200000,1593200000,0.021258455,-0.00036897592,-9.780127
1593248000,1593248000,-0.00181991,0.03236692,-9.776385
1593300000,1593300000,0.0070270067,-0.028114408,-9.79533
1593348000,1593348000,0.03490958,0.02472393,-9.812259
1593400000,1593400000,0.04312201,-0.06867438,-9.862874
1593448000,1593448000,0.111573465,0.00890241,-9.754717
1593500000,1593500000,0.011670668,-0.01794384,-9.718397
1593548000,1593548000,-0.018433105,0.060976207,-9.719808
1593600000,1593600000,0.009341082,0.021422815,-9.844826
1593648000,1593648000,-0.022142237,0.06763763,-9.842303
1593700000,1593700000,0.01879906,-0.11103207,-9.751221
1593744000,1593744000,0.018234227,-0.0031692847,-9.797784
1593800000,1593800000,0.0616331,-0.04034708,-9.778577
1593848000,1593848000,0.025884068,-0.016266024,-9.801091
1593900000,1593900000,-0.029003112,-0.12164511,-9.768486
1593948000,1593948000,0.08148928,-0.05101944,-9.836213
1594000000,1594000000,-0.034230936,-0.024377536,-9.802983
1594048000,1594048000,0.07537463,-0.017832916,-9.786247
1594100000,1594100000,0.10969916,0.05357477,-9.83338
1594148000,1594148000,-0.0069822073,0.03541375,-9.813905
1594196000,1594196000,-0.038301203,0.03690222,-9.798969
1594248000,1594248000,-0.04628138,0.039783705,-9.847918
1594300000,1594300000,-0.04912482,-0.047340497,-9.794928
1594348000,1594348000,0.016734235,0.013538394,-9.766281
1594400000,1594400000,-0.0938555,0.041355405,-9.723099
1594448000,1594448000,-0.043841228,-0.0016934127,-9.774221
1594500000,1594500000,0.10040678,0.08398249,-9.794521
1594548000,1594548000,-0.026068207,-0.041896794,-9.8364525
1594600000,1594600000,0.011261133,0.056553785,-9.815996
1594648000,1594648000,0.0005690898,-0.059935078,-9.824863
1594700000,1594700000,0.103594884,-0.012022582,-9.785143
1594748000,1594748000,-0.0016575335,0.046680424,-9.805984
1594800000,1594800000,-0.04124272,-0.020295395,-9.836178
1594848000,1594848000,-0.035753615,0.043651722,-9.754076
1594900000,1594900000,0.017575989,0.05637604,-9.753089
1594948000,1594948000,0.0331057,0.04647714,-9.856734
1595000000,1595000000,0.076001525,-0.0015315975,-9.782716
1595048000,1595048000,0.007642796,-0.029085688,-9.739162
1595100000,1595100000,-0.14790747,-0.059698243,-9.857258
1595148000,1595148000,-0.009477859,-0.0005719089,-9.876515
1595200000,1595200000,0.033153743,-0.0038749543,-9.902657
1595248000,1595248000,-0.00464799,0.04546685,-9.814914
1595300000,1595300000,-0.002609698,-0.050573096,-9.819975
1595348000,1595348000,0.050442472,-0.06629353,-9.767535
1595400000,1595400000,-0.02187207,0.05396493,-9.788854
1595444000,1595444000,0.047069725,-0.036213126,-9.743776
1595500000,1595500000,-0.0072445795,0.018131353,-9.7164755
1595548000,1595548000,0.05409287,0.009310408,-9.792056
1595600000,1595600000,-0.07694274,-0.043934792,-9.810335
1595648000,1595648000,0.01027042,0.0010139178,-9.713795
1595700000,1595700000,0.0138749825,0.035594128,-9.817472
1595748000,1595748000,0.0032509137,0.041590393,-9.798663
1595800000,1595800000,0.05919317,-0.040948447,-9.783976
1595848000,1595848000,0.054280307,0.08585161,-9.776252
1595900000,1595900000,0.07040907,0.04666458,-9.801814
1595948000,1595948000,0.012132284,-0.028833544,-9.801216
1596000000,1596000000,-0.024220824,0.0052375332,-9.770381
1596048000,1596048000,-0.032511704,-0.12300893,-9.822813
1596100000,1596100000,-0.008727491,-0.05012513,-9.796962
1596148000,1596148000,0.021343002,-0.06214864,-9.855133
1596200000,1596200000,-0.048278674,-0.02175929,-9.809478
1596248000,1596248000,0.025579236,-0.022691824,-9.822664
1596300000,1596300000,-0.015632264,-0.0046132263,-9.877638
1596348000,1596348000,0.023250695,0.060124617,-9.794806
1596400000,1596400000,0.048726793,-0.0042195814,-9.803003
1596448000,1596448000,-0.046889856,0.048375476,-9.725378
1596500000,1596500000,-0.051063664,-0.027246185,-9.88972
1596548000,1596548000,0.0712906,0.01821168,-9.890953
1596600000,1596600000,0.020309674,-0.018797446,-9.791635
1596648000,1596648000,0.008233694,0.00079628837,-9.838929
1596700000,1596700000,-0.014609482,-0.013572196,-9.879504
1596748000,1596748000,-0.033361107,0.039421875,-9.715437
1596800000,1596800000,-0.038771965,0.018850615,-9.864425
1596848000,1596848000,0.0008308408,0.07751529,-9.811539
1596900000,1596900000,-0.007813012,0.041737236,-9.807413
1596948000,1596948000,0.075647056,-0.053731076,-9.953653
1597000000,1597000000,0.07219572,-0.059721008,-10.138008
1597048000,1597048000,0.015574018,0.031705316,-10.253068
1597100000,1597100000,-0.026719091,0.07403579,-10.367037
1597148000,1597148000,0.03965391,-0.05538459,-10.3791485
1597200000,1597200000,-0.015939148,0.10314367,-10.561763
1597248000,1597248000,0.003815609,-0.0055509717,-10.555952
1597300000,1597300000,-0.13695237,0.013448354,-10.609986
1597344000,1597344000,-0.06414225,0.05852615,-10.747283
1597400000,1597400000,-0.023548929,0.07263953,-10.751816
1597444000,1597444000,-0.05190727,0.0009931922,-10.804918
1597500000,1597500000,-0.10141532,-0.0175131,-10.730255
1597548000,1597548000,-0.02030008,0.05427782,-10.726784
1597600000,1597600000,-0.092383176,-0.03269776,-10.744198
1597648000,1597648000,-0.081173256,0.05686527,-10.789549
1597700000,1597700000,-0.055841148,0.05263643,-10.76893
1597748000,1597748000,-0.082892254,0.024415573,-10.625864
1597800000,1597800000,-0.056910425,0.04594238,-10.491285
1597848000,1597848000,-0.038513824,0.009106232,-10.117854
1597900000,1597900000,0.0115466425,0.009448215,-10.009714
1597948000,1597948000,-0.22042145,0.036003765,-10.03241
1598000000,1598000000,-0.06710326,0.042816006,-10.090268
1598048000,1598048000,-0.0021186378,0.077092156,-10.009367
1598100000,1598100000,-0.066343404,0.10784219,-10.222649
1598148000,1598148000,-0.17299739,-0.010129968,-10.017049
1598200000,1598200000,-0.0011669667,0.03289394,-9.936619
1598248000,1598248000,-0.056652747,0.0900484,-9.903881
1598300000,1598300000,-0.08527538,0.061116252,-9.914583
1598348000,1598348000,-0.063504755,0.056902323,-9.862972
1598400000,1598400000,0.015984112,0.065387204,-9.907812
1598444000,1598444000,0.06245985,0.027417876,-9.8820505
1598500000,1598500000,-0.04204003,0.015142204,-9.872139
1598548000,1598548000,-0.06014749,0.014284773,-9.89528
1598600000,1598600000,-0.10678606,0.0862035,-9.7665615
1598648000,1598648000,-0.05238413,0.12219331,-9.865627
1598700000,1598700000,-0.0045166174,0.023762653,-9.836552
1598748000,1598748000,0.011612268,-0.07335111,-9.869333
1598800000,1598800000,0.03186652,0.0753306,-9.807192
1598848000,1598848000,-0.029452851,-0.07175716,-9.852741
1598900000,1598900000,-0.010644377,0.00045266282,-9.787556
1598948000,1598948000,0.06465598,-0.047663067,-9.746527
1599000000,1599000000,0.029038327,0.0037646722,-9.808948
1599048000,1599048000,0.04667643,-0.069370635,-9.78727
1599100000,1599100000,0.04485532,-0.048038326,-9.732805
1599148000,1599148000,0.075490355,0.03131228,-9.82113
1599200000,1599200000,-0.0026214835,-0.08919527,-9.709922
1599248000,1599248000,-0.036778413,0.017831849,-9.80156
1599300000,1599300000,0.029377716,-0.027913189,-9.724601
1599348000,1599348000,-0.038337614,0.007650931,-9.724884
1599400000,1599400000,0.056139864,0.066703215,-9.806855
1599448000,1599448000,0.05690045,-0.0044686184,-9.766684
1599500000,1599500000,-0.05617262,-0.060197547,-9.757635
1599548000,1599548000,0.095476344,-0.025333948,-9.703953
1599600000,1599600000,0.102736235,-5.1434617e-05,-9.741739
1599644000,1599644000,-0.07173482,-0.14795461,-9.727141
1599700000,1599700000,0.040936857,-0.003001558,-9.680217
1599748000,1599748000,-0.01342153,-0.00205346,-9.670872
1599800000,1599800000,0.074547194,-0.06565869,-9.626204
1599848000,1599848000,-0.03801465,-0.03244231,-9.62263
1599900000,1599900000,0.04129024,0.12593777,-9.685076
1599948000,1599948000,0.08544924,-0.064801045,-9.663168
1600000000,1600000000,0.113000944,-0.053715333,-9.600414
1600048000,1600048000,-0.056748096,-0.053122737,-9.633646
1600100000,1600100000,-0.030905472,-0.099266164,-9.617195
1600148000,1600148000,0.04018908,-0.010367855,-9.530275
1600200000,1600200000,-0.04482407,0.011719497,-9.576816
1600248000,1600248000,0.1425126,-0.0014724463,-9.542738
1600300000,1600300000,-0.08750463,-0.084537715,-9.648771
1600348000,1600348000,0.041943785,-0.04266357,-9.595969
1600400000,1600400000,-0.019773223,-0.103406765,-9.632539
1600448000,1600448000,0.045689255,0.027899638,-9.662802
1600500000,1600500000,0.08076648,0.024834644,-9.595402
1600548000,1600548000,0.054494265,-0.08205399,-9.573887
1600600000,1600600000,0.047504842,-0.004856189,-9.630904
1600648000,1600648000,-0.030695703,-0.050527267,-9.493599
1600696000,1600696000,-0.009571611,-0.0056020766,-9.104194
1600748000,1600748000,0.014018623,0.017023306,-8.899108
1600800000,1600800000,0.045789912,0.022007685,-8.704691
1600848000,1600848000,0.030087832,0.070233814,-8.5155735
1600900000,1600900000,-0.0009772722,0.010558523,-8.420118
1600948000,1600948000,0.02863556,-0.013871644,-8.797849
1601000000,1601000000,0.07389713,-0.0059797512,-9.025925
1601048000,1601048000,-0.05437717,0.010965942,-9.209472
1601100000,1601100000,-0.060923226,-0.0061683664,-9.648592
1601148000,1601148000,-0.039102852,0.07285983,-9.826169
1601200000,1601200000,-0.058587164,-0.060184427,-9.985562
1601248000,1601248000,-0.13805723,-0.05023606,-10.041247
1601300000,1601300000,-0.025961116,-0.026018219,-10.185283
1601348000,1601348000,-0.052247252,0.031027844,-10.1370125
1601400000,1601400000,-0.03351254,-0.017494792,-9.982813
1601448000,1601448000,-0.040620353,-0.0791166,-9.85154
1601500000,1601500000,-0.041900806,0.07266343,-9.774632
1601544000,1601544000,0.008276035,-0.057036947,-9.704718
1601600000,1601600000,0.026404502,0.01829337,-9.585988
1601648000,1601648000,0.03675778,-0.0363545,-9.693448
1601700000,1601700000,-0.011523647,-0.049236763,-9.700122
1601748000,1601748000,0.07759076,-0.04696053,-9.648264
1601800000,1601800000,-0.10749309,0.028097428,-9.700919
1601848000,1601848000,0.079032205,0.017906833,-9.73583
1601900000,1601900000,0.0016805688,-0.03820567,-9.707118
1601948000,1601948000,0.06380056,-0.046859246,-9.706202
1602000000,1602000000,0.08796123,-0.084134705,-9.6797085
1602048000,1602048000,0.014115365,-0.034230888,-9.669693
1602100000,1602100000,-0.045420624,-0.002625269,-9.689896
1602148000,1602148000,-0.06898986,0.009181311,-9.807473
1602200000,1602200000,-0.033848513,0.0059267115,-9.668616
1602248000,1602248000,-0.018413072,0.051899355,-9.616518
1602300000,1602300000,-0.074906684,0.06029872,-9.793253
1602348000,1602348000,0.04378902,-0.056193307,-9.7674885
1602396000,1602396000,0.012034214,0.060163546,-9.775006
1602448000,1602448000,-0.04524932,-0.053708702,-9.793716
1602500000,1602500000,0.06486766,0.06556675,-9.74206
1602548000,1602548000,0.008719227,0.034603518,-9.633412
1602600000,1602600000,0.036758695,0.08055077,-9.884357
1602648000,1602648000,-0.08611581,0.015755152,-9.798588
1602700000,1602700000,0.048451412,0.08734608,-9.786565
1602748000,1602748000,-0.07195246,0.008868881,-9.72962
1602800000,1602800000,0.009846182,0.14709035,-9.784509
1602848000,1602848000,0.013175411,0.03761286,-9.7539215
1602900000,1602900000,-0.07982562,0.05856637,-9.683891
1602948000,1602948000,-0.050368283,0.0051719905,-9.703676
1603000000,1603000000,0.011041349,-0.045998596,-9.638569
1603048000,1603048000,-0.02638401,0.06028092,-9.757918
1603100000,1603100000,-0.08122389,0.06491854,-9.801742
1603148000,1603148000,-0.0051815994,-0.0695164,-9.690732
1603200000,1603200000,-0.032047607,0.03643887,-9.667036
1603248000,1603248000,0.030205078,-0.07791104,-9.739515
1603300000,1603300000,0.023908751,-0.011988638,-9.779166
1603348000,1603348000,0.04955243,0.00074645283,-9.813788
1603400000,1603400000,-0.010711126,0.014676601,-9.79884
1603448000,1603448000,0.007326285,0.046543248,-9.699957
1603500000,1603500000,-0.011433502,0.09537018,-9.820747
1603548000,1603548000,-0.058254763,0.008637058,-9.728224
1603600000,1603600000,-0.04802436,0.024861457,-9.744919
1603648000,1603648000,0.011389362,0.034551084,-9.738727
1603700000,1603700000,-0.002488608,0.042653564,-9.801096
1603748000,1603748000,-0.051485535,0.06501191,-9.780716
1603800000,1603800000,0.05419327,0.023382246,-9.762858
1603844000,1603844000,0.036275223,0.05675338,-9.794518
1603900000,1603900000,-0.022658007,-0.0042809565,-9.6945
1603948000,1603948000,-0.015225293,0.051123977,-9.75966
1604000000,1604000000,-0.00248922,0.022688547,-9.829216
1604048000,1604048000,0.08064673,-0.018753618,-9.764837
1604100000,1604100000,-0.0021159109,0.023397285,-9.779022
1604148000,1604148000,0.04487525,0.0454323,-9.779819
1604200000,1604200000,-0.034954786,-0.030570125,-9.709077
1604248000,1604248000,0.012713185,-0.010177454,-9.74625
1604300000,1604300000,0.012750879,-0.02807505,-9.860226
1604348000,1604348000,-0.060753617,0.05018104,-9.754705
1604396000,1604396000,-0.03541259,0.09922713,-9.776111
1604444000,1604444000,0.049330976,0.002667929,-9.792244
1604500000,1604500000,-0.047263317,0.055437498,-9.807163
1604548000,1604548000,-0.08584224,0.09105374,-9.803669
1604600000,1604600000,-0.0024231342,-0.074742034,-9.77433
1604648000,1604648000,-0.03695046,-0.074443884,-9.842177
1604700000,1604700000,-0.015672237,0.012148159,-9.711111
1604748000,1604748000,0.10861533,-0.07809588,-9.853023
1604800000,1604800000,0.063767724,-0.063017756,-9.694408
1604848000,1604848000,0.0078332415,0.09371339,-9.892118
1604900000,1604900000,-0.0019904256,0.044322744,-9.786682
1604948000,1604948000,-0.0005326667,0.012404081,-9.89349
1605000000,1605000000,0.014481105,-0.05603909,-9.838333
1605044000,1605044000,0.05408729,-0.043772917,-9.731789
1605100000,1605100000,-0.027099099,0.014140578,-9.8491535
1605148000,1605148000,-0.006711797,-0.013103391,-9.763463
1605200000,1605200000,0.044339437,0.07273113,-9.843716
1605248000,1605248000,0.0227106,-0.02215328,-9.758366
1605296000,1605296000,-0.00038729972,0.002058994,-9.793567
1605348000,1605348000,0.015709769,0.013381461,-9.786235
1605400000,1605400000,0.03814628,-0.015827116,-9.768452
1605448000,1605448000,-0.0019788872,-0.06336881,-9.771013
1605496000,1605496000,-0.04355152,0.08098883,-9.753584
1605548000,1605548000,-0.083059154,-0.0182942,-9.672027
1605600000,1605600000,-0.06578547,0.058950633,-9.785306
1605648000,1605648000,0.0018371204,0.018296538,-9.780888
1605700000,1605700000,0.027231215,0.02762685,-9.856653
1605748000,1605748000,-0.07237339,0.029517412,-9.754715
1605800000,1605800000,-0.009957006,0.029754467,-9.772043
1605848000,1605848000,0.058122896,-0.038020235,-9.787604
1605900000,1605900000,-0.06703622,0.011618754,-9.751154
1605948000,1605948000,0.042873718,-0.05737815,-9.789662
1606000000,1606000000,-0.070244744,0.05565077,-9.843169
1606048000,1606048000,0.054221794,-0.021565381,-9.765397
1606100000,1606100000,0.039972693,0.06113725,-9.785785
1606148000,1606148000,0.0013574921,-0.035833884,-9.776381
1606200000,1606200000,-0.018063433,-0.037019737,-9.730391
1606248000,1606248000,0.008134761,0.050746195,-9.824707
1606300000,1606300000,-0.013449986,0.08596711,-9.856146
1606348000,1606348000,-0.061534777,-0.118342705,-9.829414
1606400000,1606400000,0.01716802,-0.0037683179,-9.933168
1606448000,1606448000,0.03231294,0.09737134,-9.779469
1606500000,1606500000,-0.03254226,-0.07053862,-9.75685
1606548000,1606548000,0.07085073,-0.00024661538,-9.845971
1606600000,1606600000,-0.0206027,0.007361562,-9.86397
1606648000,1606648000,-0.07148034,-0.086924426,-9.788077
1606700000,1606700000,-0.009345938,0.022173248,-9.785294
1606748000,1606748000,-0.037141487,-0.0514699,-9.845372
1606800000,1606800000,-0.024639877,0.03613137,-9.792381
1606848000,1606848000,0.046619914,0.050092183,-9.780418
1606900000,1606900000,-0.027088251,0.04219321,-9.819242
1606948000,1606948000,0.021611188,-0.0296691,-9.805887
1606996000,1606996000,0.0019454395,-0.0072789486,-9.904779
1607048000,1607048000,-0.032395877,-0.013918541,-9.836388
1607100000,1607100000,0.067964144,0.0355193,-9.748877
1607144000,1607144000,-0.060094625,0.030027084,-9.758571
1607200000,1607200000,-0.04475195,0.0019907504,-9.779646
1607248000,1607248000,0.04793629,0.08216449,-9.887828
1607300000,1607300000,-0.027961245,-0.074685976,-9.717288
1607348000,1607348000,-0.09138307,-0.018064994,-9.797046
1607396000,1607396000,0.012695101,-0.077141754,-9.796696
1607444000,1607444000,-0.0032729395,-0.008073549,-9.8069725
1607500000,1607500000,0.083179295,-0.004714944,-9.827106
1607548000,1607548000,-0.042067345,-0.061059516,-9.671414
1607600000,1607600000,-0.00046405545,-0.03707239,-9.86915
1607648000,1607648000,0.0070283157,-0.042771026,-9.758228
1607700000,1607700000,-0.055019096,0.003363003,-9.839104
1607744000,1607744000,-0.030197999,0.013909452,-9.71386
1607800000,1607800000,-0.02312284,0.09107861,-9.760664
1607848000,1607848000,0.13045408,0.0016614674,-9.756965
1607900000,1607900000,0.014309134,-0.07515511,-9.850291
1607948000,1607948000,0.0038429247,-0.05407887,-9.736265
1608000000,1608000000,0.056459226,-0.025055267,-9.78333
1608048000,1608048000,0.012040801,-0.14218841,-9.853033
1608100000,1608100000,-0.027065227,0.05385296,-9.701143
1608148000,1608148000,0.022648685,0.049040098,-9.800318
1608200000,1608200000,-0.011018284,-0.04229733,-9.729864
1608248000,1608248000,0.0253211,0.062498026,-9.787654
1608300000,1608300000,0.033170637,0.016194053,-9.854375
1608348000,1608348000,-0.107566826,0.011722173,-9.791872
1608400000,1608400000,0.005177949,-0.10873773,-9.698021
1608448000,1608448000,-0.0352617,0.02055277,-9.862744
1608500000,1608500000,0.012181982,-0.06964552,-9.867236
1608548000,1608548000,-0.041988026,-0.06649067,-9.803564
1608600000,1608600000,-0.05044525,0.072061755,-9.88787
1608648000,1608648000,-0.005622894,-0.12186897,-9.781368
1608700000,1608700000,0.010028433,-0.047970112,-9.781791
1608748000,1608748000,0.0016878177,-0.028917601,-9.8016405
1608800000,1608800000,-0.017345486,0.029733429,-9.7993765
1608848000,1608848000,-0.073028214,-0.03824893,-9.803925
1608900000,1608900000,-0.02313014,0.030248202,-9.856713
1608948000,1608948000,0.016238727,-0.060224038,-9.722555
1608996000,1608996000,-0.01818478,-0.013386331,-9.703322
1609044000,1609044000,-0.015034405,-0.0276764,-9.795927
1609100000,1609100000,-0.04137238,-0.028692473,-9.730831
1609148000,1609148000,0.00043386756,-0.041794606,-9.842139
1609200000,1609200000,0.057280023,-0.0040775025,-9.795546
1609248000,1609248000,0.017263547,0.013030193,-9.74028
1609300000,1609300000,0.07366987,-0.053821743,-9.798445
1609348000,1609348000,-0.09026565,0.020642791,-9.766478
1609400000,1609400000,-0.004634804,-0.17016795,-9.86948
1609448000,1609448000,-0.043774746,-0.035307515,-9.834162
1609500000,1609500000,0.020097904,0.042816516,-9.757578
1609548000,1609548000,0.0062302323,-0.04158478,-9.75975
1609596000,1609596000,-0.027268386,0.007438726,-9.836463
1609648000,1609648000,0.0057278625,-0.07716945,-9.760408
1609700000,1609700000,0.14725003,0.017272128,-9.882552
1609748000,1609748000,-0.010617256,0.054508787,-9.810819
1609800000,1609800000,0.09198398,-0.03264744,-9.859406
1609848000,1609848000,-0.053276885,-0.097825155,-9.804868
1609900000,1609900000,-0.04100045,0.0011885415,-9.751266
1609948000,1609948000,-0.0016676332,-0.06592821,-9.790293
1610000000,1610000000,0.03537555,-0.027229466,-9.798733
1610048000,1610048000,0.01866848,0.0692767,-9.733434
1610100000,1610100000,-0.019659951,-0.022280091,-9.794822
1610148000,1610148000,0.020153077,-0.011426737,-9.880944
1610200000,1610200000,-0.028127916,0.0038531625,-9.788694
1610248000,1610248000,-0.12792481,0.034445502,-9.771709
1610300000,1610300000,-0.027110808,-0.12391131,-9.789324
1610348000,1610348000,-0.031383578,0.020565355,-9.770273
1610400000,1610400000,0.025345864,-0.033240072,-9.818614
1610448000,1610448000,0.01837594,-0.09827123,-9.7699795
1610500000,1610500000,0.058083445,0.011395044,-9.768492
1610548000,1610548000,-0.03263274,0.021630943,-9.822115
1610600000,1610600000,-0.011259028,-0.028804854,-9.830821
1610644000,1610644000,0.066521294,0.012256319,-9.80852
1610700000,1610700000,-0.0070600123,-0.11586879,-9.844438
1610748000,1610748000,0.00836141,0.0039297664,-9.74244
1610800000,1610800000,-0.022086782,0.021223748,-9.831186
1610848000,1610848000,0.00934238,0.0031618332,-9.865265
1610900000,1610900000,0.038669717,-0.030040063,-9.797527
1610948000,1610948000,0.02929148,-0.0042787585,-9.914013
1611000000,1611000000,-0.0072379424,-0.035881445,-9.838033
1611048000,1611048000,-0.047922518,-0.07673294,-9.813402
1611100000,1611100000,0.013513433,0.03767638,-9.827958
1611144000,1611144000,0.0336058,-0.06863999,-9.810086
1611200000,1611200000,0.083043054,0.013192427,-9.842828
1611248000,1611248000,-0.010741949,-0.1047564,-9.803639
1611300000,1611300000,-0.032869745,-0.0012545816,-9.796244
1611344000,1611344000,-0.0087600695,0.05970983,-9.761529
1611400000,1611400000,0.038110342,0.027859557,-9.829927
1611448000,1611448000,0.0199165,-0.033532932,-9.811087
1611500000,1611500000,-0.05728364,-0.09372927,-9.782299
1611548000,1611548000,-0.040553786,-0.0403869,-9.771746
1611600000,1611600000,0.0178459,-0.043830324,-9.818801
1611644000,1611644000,-0.0303195,0.019850362,-9.822944
1611700000,1611700000,-0.010625855,0.053898215,-9.898141
1611748000,1611748000,-0.02077607,0.02381393,-9.838868
1611800000,1611800000,0.007345248,0.0072004492,-9.844636
1611848000,1611848000,0.05573163,-0.034767736,-9.8993
1611900000,1611900000,0.11527222,-0.031590194,-9.812571
1611948000,1611948000,-0.057166606,0.031394564,-9.846186
1612000000,1612000000,0.017408798,-0.08809151,-9.790151
1612048000,1612048000,-0.071344465,0.002755775,-9.802591
1612100000,1612100000,-0.007708513,0.033032436,-9.857508
1612148000,1612148000,-0.078151174,-0.0008134744,-9.842207
1612196000,1612196000,0.0032859258,0.06883197,-9.758754
1612248000,1612248000,0.024029039,0.044733923,-9.878212
1612300000,1612300000,-0.027358506,-0.0038790996,-9.788508
1612348000,1612348000,-0.0025819656,-0.04585849,-9.78116
1612400000,1612400000,-0.022516064,0.0029312347,-9.839754
1612448000,1612448000,-0.023140544,0.026196646,-9.762068
1612500000,1612500000,-0.05630452,0.0028461567,-9.859639
1612548000,1612548000,-0.02871563,0.0007246976,-9.834628
1612600000,1612600000,-0.061159454,0.036041144,-9.803883
1612648000,1612648000,0.015317573,0.008801948,-9.845887
1612700000,1612700000,-0.026776757,-0.017374862,-9.934045
1612748000,1612748000,0.101328574,-0.04143541,-9.905723
1612800000,1612800000,-0.019236853,0.02676487,-9.865989
1612848000,1612848000,-0.061191127,-0.027466765,-9.900384
1612900000,1612900000,-0.07264824,0.010677367,-9.895179
1612948000,1612948000,0.026375815,-0.021116927,-9.951986
1613000000,1613000000,-0.13404211,-0.13073857,-10.118955
1613048000,1613048000,-0.1461393,-0.03197419,-10.173606
1613096000,1613096000,-0.13179255,-0.10912746,-10.118098
1613148000,1613148000,-0.14965251,-0.07803828,-10.145177
1613200000,1613200000,-0.16691238,-0.11657733,-10.09297
1613248000,1613248000,-0.26598448,-0.11551802,-10.195613
1613300000,1613300000,-0.19037469,-0.15052715,-10.3000555
1613348000,1613348000,-0.25697017,-0.15538377,-10.312864
1613400000,1613400000,-0.36392638,-0.046993963,-10.178019
1613448000,1613448000,-0.3513506,-0.018101461,-10.118729
1613496000,1613496000,-0.37135875,-0.08310294,-10.031041
1613548000,1613548000,-0.5471504,-0.10186607,-10.072409
1613600000,1613600000,-0.57939345,-0.094684735,-10.115177
1613648000,1613648000,-0.56290114,-0.08050053,-10.080453
1613700000,1613700000,-0.73053557,-0.09101292,-10.087999
1613748000,1613748000,-0.74892056,-0.10000276,-10.248575
1613800000,1613800000,-0.90987056,0.017942145,-10.095107
1613848000,1613848000,-0.7938702,-0.08740732,-10.121716
1613900000,1613900000,-0.8749015,0.053025912,-10.081729
1613948000,1613948000,-0.89544106,-0.13051596,-10.112104
1613996000,1613996000,-0.9350529,-0.0620766,-10.066796
1614048000,1614048000,-1.0319877,-0.006103257,-10.028255
1614100000,1614100000,-1.068373,-0.026712216,-10.003339
1614148000,1614148000,-1.2183387,0.0224522,-10.127951
1614200000,1614200000,-1.2859539,0.029929437,-10.11626
1614248000,1614248000,-1.1893054,0.0671438,-10.122637
1614300000,1614300000,-1.2955216,0.014699661,-10.002413
1614348000,1614348000,-1.207356,0.020316519,-9.938366
1614400000,1614400000,-1.3738729,0.0061488557,-9.898657
1614448000,1614448000,-1.3692064,-0.027247183,-9.859565
1614500000,1614500000,-1.5225196,0.0054180725,-9.7733135
1614548000,1614548000,-1.4245312,0.045443017,-9.82457
1614600000,1614600000,-1.525896,0.09105119,-9.773844
1614648000,1614648000,-1.4785857,0.090108044,-9.709559
1614700000,1614700000,-1.6581967,0.06736556,-9.739738
1614748000,1614748000,-1.6762956,-0.0018019499,-9.743766
1614800000,1614800000,-1.6909767,0.05839551,-9.627625
1614848000,1614848000,-1.6595548,0.068699256,-9.6385765
1614900000,1614900000,-1.6721301,0.03191311,-9.737656
1614948000,1614948000,-1.7722726,0.096161604,-9.580767
1615000000,1615000000,-1.6537645,0.06093896,-9.751428
1615048000,1615048000,-1.7020143,0.09845572,-9.6829815
1615100000,1615100000,-1.754695,0.030719675,-9.624309
1615148000,1615148000,-1.8249029,0.011246899,-9.6327305
1615196000,1615196000,-1.7677824,0.05940515,-9.685909
1615248000,1615248000,-1.7787495,0.04418254,-9.675537
1615300000,1615300000,-1.7427197,-0.0044365767,-9.768495
1615348000,1615348000,-1.7795982,0.15364955,-9.824433
1615396000,1615396000,-1.7123355,0.01429426,-9.839188
1615448000,1615448000,-1.7435224,-0.07495468,-9.883207
1615500000,1615500000,-1.8068178,0.024398053,-9.799538
1615548000,1615548000,-1.6966958,-0.013002024,-9.81514
1615600000,1615600000,-1.7398446,-0.062183388,-9.684777
1615648000,1615648000,-1.7180533,-0.08783135,-9.695434
1615700000,1615700000,-1.7460816,-0.038658313,-9.779379
1615748000,1615748000,-1.710072,0.010099755,-9.704111
1615800000,1615800000,-1.6821411,-0.007909809,-9.800451
1615848000,1615848000,-1.6090975,-0.03390932,-9.659268
1615900000,1615900000,-1.7629169,-0.033953667,-9.802406
1615948000,1615948000,-1.809359,-0.0739826,-9.69542
1615996000,1615996000,-1.6657833,0.033762626,-9.757286
1616048000,1616048000,-1.6772988,-0.02245693,-9.7273655
1616100000,1616100000,-1.6865964,0.03091753,-9.675522
1616148000,1616148000,-1.6565269,0.0070874547,-9.652397
1616200000,1616200000,-1.7301983,-0.034666404,-9.667353
1616248000,1616248000,-1.6747884,0.0068782633,-9.668436
1616300000,1616300000,-1.7007043,-0.00855506,-9.642454
1616348000,1616348000,-1.6967233,-0.06407836,-9.647237
1616400000,1616400000,-1.6413285,-0.04284932,-9.757968
1616448000,1616448000,-1.6500127,-0.018640919,-9.669411
1616500000,1616500000,-1.7064917,-0.028414574,-9.711298
1616548000,1616548000,-1.7577548,0.018621136,-9.670547
1616600000,1616600000,-1.7188014,-0.0014835474,-9.667365
1616648000,1616648000,-1.6762189,-0.0018678021,-9.628233
1616700000,1616700000,-1.6862785,-0.036832094,-9.699428
1616748000,1616748000,-1.6492878,-0.041817475,-9.750544
1616800000,1616800000,-1.701392,-0.05161653,-9.661964
1616848000,1616848000,-1.7201418,0.0071931956,-9.698814
1616900000,1616900000,-1.6806092,-0.10788937,-9.612483
1616948000,1616948000,-1.6478213,-0.048929762,-9.669044
1617000000,1617000000,-1.6767137,0.020854225,-9.736433
1617048000,1617048000,-1.6743345,-0.06872737,-9.5640745
1617100000,1617100000,-1.7773027,-0.007820872,-9.650425
1617148000,1617148000,-1.6915457,-0.037090134,-9.680033
1617200000,1617200000,-1.6245186,-0.06604774,-9.686316
1617248000,1617248000,-1.6783578,0.030374523,-9.638336
1617296000,1617296000,-1.7355053,-0.053098872,-9.756087
1617344000,1617344000,-1.6513716,-0.01913172,-9.623936
1617400000,1617400000,-1.7361188,-0.06583968,-9.720214
1617448000,1617448000,-1.7499536,-0.020265972,-9.674009
1617500000,1617500000,-1.7659645,0.024598911,-9.615866
1617548000,1617548000,-1.696231,-0.02167271,-9.678657
1617600000,1617600000,-1.6845772,-0.06338463,-9.606714
1617648000,1617648000,-1.730222,-0.07663208,-9.604148
1617700000,1617700000,-1.7453434,-0.015928365,-9.66627
1617748000,1617748000,-1.7143692,-0.098105654,-9.639786
1617800000,1617800000,-1.7277138,0.033130545,-9.66891
1617848000,1617848000,-1.7789905,-0.035536367,-9.639545
1617900000,1617900000,-1.7400818,-0.051308833,-9.682611
1617948000,1617948000,-1.6893402,-0.0008795317,-9.781891
1618000000,1618000000,-1.7784917,0.01797302,-9.719578
1618048000,1618048000,-1.7121564,0.043379046,-9.629412
1618100000,1618100000,-1.7195108,-0.12696213,-9.705023
1618148000,1618148000,-1.7662694,-0.08230767,-9.584448
1618200000,1618200000,-1.7439919,-0.026520934,-9.611465
1618248000,1618248000,-1.7496758,-0.027048584,-9.684374
1618300000,1618300000,-1.7533965,0.017731287,-9.756392
1618348000,1618348000,-1.8210759,0.0072360784,-9.639105
1618400000,1618400000,-1.693758,-0.07571979,-9.756096
1618448000,1618448000,-1.7952338,-0.023849335,-9.673429
1618500000,1618500000,-1.7664202,0.0052957954,-9.686684
1618548000,1618548000,-1.7296178,-0.04780449,-9.653409
1618600000,1618600000,-1.7358264,0.09805245,-9.677015
1618648000,1618648000,-1.7687904,-0.016925527,-9.681144
1618700000,1618700000,-1.7476327,-0.049663752,-9.647926
1618744000,1618744000,-1.774593,-0.016838726,-9.699752
1618800000,1618800000,-1.6798443,-0.03211397,-9.671846
1618848000,1618848000,-1.7877517,0.03659381,-9.677212
1618900000,1618900000,-1.6859744,-0.03234809,-9.653496
1618948000,1618948000,-1.7992936,0.029930241,-9.612149
1619000000,1619000000,-1.8001966,0.005538045,-9.692757
1619048000,1619048000,-1.7760158,-0.018887818,-9.662272
1619096000,1619096000,-1.7755885,-0.0066655637,-9.645314
1619148000,1619148000,-1.7757779,-0.100847736,-9.699724
1619200000,1619200000,-1.763897,-0.06400826,-9.647651
1619248000,1619248000,-1.7416394,-0.0065150904,-9.592631
1619300000,1619300000,-1.692256,0.16819349,-9.689917
1619348000,1619348000,-1.7809103,-0.0994212,-9.687564
1619400000,1619400000,-1.7603679,-0.010189555,-9.650139
1619448000,1619448000,-1.7653611,-0.05799997,-9.616959
1619500000,1619500000,-1.7577999,0.003867731,-9.645201
1619548000,1619548000,-1.7550081,-0.018930612,-9.6342325
1619600000,1619600000,-1.6127408,0.034789477,-9.633467
1619648000,1619648000,-1.7325342,0.08897291,-9.62502
1619700000,1619700000,-1.8256601,0.070245564,-9.675826
1619748000,1619748000,-1.7969851,-0.04201707,-9.593781
1619800000,1619800000,-1.7750074,-0.07282463,-9.596305
1619848000,1619848000,-1.7541447,-0.07268342,-9.624192
1619900000,1619900000,-1.7771679,0.03278231,-9.639681
1619948000,1619948000,-1.821239,0.05949436,-9.707159
1620000000,1620000000,-1.8328484,0.059105095,-9.625646
1620048000,1620048000,-1.7847859,-0.070664465,-9.629065
1620100000,1620100000,-1.7004988,-0.011594353,-9.644825
1620148000,1620148000,-1.6608478,-0.07779702,-9.65517
1620200000,1620200000,-1.7749484,0.06935286,-9.650532
1620248000,1620248000,-1.735421,-0.055466108,-9.61563
1620300000,1620300000,-1.7449796,-0.023850305,-9.588823
1620348000,1620348000,-1.7406476,-0.020319229,-9.5673065
1620400000,1620400000,-1.6881187,-0.07845932,-9.637226
1620448000,1620448000,-1.7208807,0.05521342,-9.549364
1620500000,1620500000,-1.7424157,0.020858476,-9.609129
1620548000,1620548000,-1.7362028,-0.023290966,-9.606115
1620596000,1620596000,-1.7791959,0.037017647,-9.647469
1620648000,1620648000,-1.773212,-0.023563739,-9.663185
1620700000,1620700000,-1.7998912,-0.014139983,-9.680535
1620748000,1620748000,-1.7878443,-0.121063545,-9.718996
1620800000,1620800000,-1.7733696,-0.034058318,-9.573531
1620848000,1620848000,-1.773449,0.001536129,-9.626855
1620900000,1620900000,-1.7508498,0.07750797,-9.612494
1620948000,1620948000,-1.6724238,-0.01105421,-9.604397
1621000000,1621000000,-1.8331703,-0.08767347,-9.7285595
1621048000,1621048000,-1.7505519,-0.013366946,-9.630259
1621100000,1621100000,-1.7102282,0.04676189,-9.633183
1621148000,1621148000,-1.713229,-0.07135686,-9.562218
1621200000,1621200000,-1.8034346,0.04977274,-9.689104
1621248000,1621248000,-1.7479061,-0.0042896117,-9.6125765
1621300000,1621300000,-1.7325869,0.054518063,-9.736147
1621348000,1621348000,-1.8638431,0.081443,-9.637091
1621396000,1621396000,-1.6775243,-0.02986103,-9.637815
1621448000,1621448000,-1.8560474,0.0062815924,-9.660214
1621500000,1621500000,-1.7493038,-0.10010323,-9.602647
1621548000,1621548000,-1.7279234,0.013035701,-9.601578
1621596000,1621596000,-1.8595685,0.0123492535,-9.647859
1621648000,1621648000,-1.7524754,0.06678247,-9.66252
1621700000,1621700000,-1.7935152,-0.041593585,-9.623832
1621748000,1621748000,-1.8335772,-0.00045905216,-9.714753
1621796000,1621796000,-1.7968868,-0.11383861,-9.681824
1621848000,1621848000,-1.7777783,-0.073786244,-9.741409
1621900000,1621900000,-1.7473718,0.04726952,-9.67576
1621948000,1621948000,-1.7329265,0.005025522,-9.704018
1622000000,1622000000,-1.8300405,0.03796904,-9.62335
1622048000,1622048000,-1.7542652,-0.067019634,-9.742039
1622100000,1622100000,-1.746876,-0.028030086,-9.651176
1622148000,1622148000,-1.7148117,0.045722734,-9.556931
1622200000,1622200000,-1.7525406,0.045913447,-9.651063
1622248000,1622248000,-1.8166335,0.04104501,-9.606193
1622300000,1622300000,-1.7942929,0.032100424,-9.625046
1622348000,1622348000,-1.7839512,0.030773433,-9.620334
1622400000,1622400000,-1.734434,-0.030494673,-9.690084
1622448000,1622448000,-1.7721071,0.024857115,-9.637523
1622500000,1622500000,-1.7469001,-0.0144679155,-9.62306
1622548000,1622548000,-1.7089251,0.036062915,-9.6185665
1622600000,1622600000,-1.794024,0.03915294,-9.571839
1622648000,1622648000,-1.8466501,-0.013173273,-9.627058
1622700000,1622700000,-1.8441185,0.0013277605,-9.565432
1622748000,1622748000,-1.8629072,0.04120255,-9.640926
1622800000,1622800000,-1.7921174,-0.00894321,-9.681404
1622848000,1622848000,-1.8186499,0.0821391,-9.639288
1622900000,1622900000,-1.8100882,0.04294803,-9.6247425
1622948000,1622948000,-1.8113108,-0.028366247,-9.658807
1623000000,1623000000,-1.7735995,-0.03958163,-9.670179
1623048000,1623048000,-1.7482705,-0.022390043,-9.574365
1623100000,1623100000,-1.7533602,0.0073950216,-9.603912
1623148000,1623148000,-1.8385915,-0.089871876,-9.563211
1623200000,1623200000,-1.8411728,-0.0041491897,-9.62959
1623248000,1623248000,-1.8686473,-0.03761936,-9.73006
1623296000,1623296000,-1.8309474,0.03166363,-9.608662
1623348000,1623348000,-1.8296462,0.00056547695,-9.651545
1623400000,1623400000,-1.7655724,-0.04371723,-9.634
1623448000,1623448000,-1.7495781,0.06994396,-9.622787
1623500000,1623500000,-1.760922,-0.013341521,-9.629302
1623548000,1623548000,-1.8314726,0.04170068,-9.65917
1623600000,1623600000,-1.7840924,0.07006836,-9.623921
1623648000,1623648000,-1.7648942,0.012541115,-9.625971
1623700000,1623700000,-1.6758115,-0.03409336,-9.618777
1623748000,1623748000,-1.7260813,-0.014875128,-9.636108
1623800000,1623800000,-1.753474,-0.035580914,-9.703363
1623848000,1623848000,-1.8034276,-0.013616826,-9.623709
1623900000,1623900000,-1.8253851,0.07277684,-9.592533
1623948000,1623948000,-1.7777596,0.038686443,-9.653194
1624000000,1624000000,-1.8792968,-0.036600735,-9.661989
1624048000,1624048000,-1.8206365,0.0040438427,-9.64472
1624096000,1624096000,-1.8062711,-0.034582485,-9.593179
1624148000,1624148000,-1.7907155,0.04887824,-9.673588
1624200000,1624200000,-1.7913773,-0.06301581,-9.754577
1624248000,1624248000,-1.8111371,-0.020465467,-9.57207
1624300000,1624300000,-1.8568866,-0.054352064,-9.644184
1624348000,1624348000,-1.7015046,-0.1114374,-9.553841
1624400000,1624400000,-1.7802429,0.0034403878,-9.615497
1624444000,1624444000,-1.7895005,0.028743567,-9.567102
1624500000,1624500000,-1.826957,-0.003998314,-9.626087
1624548000,1624548000,-1.7380446,-0.038446084,-9.651619
1624600000,1624600000,-1.766589,0.027105909,-9.607915
1624648000,1624648000,-1.8243314,0.062190402,-9.648033
1624700000,1624700000,-1.8390671,-0.021131687,-9.601448
1624748000,1624748000,-1.7632353,-0.05943326,-9.6208935
1624800000,1624800000,-1.7539121,-0.037965603,-9.568499
1624848000,1624848000,-1.8802738,-0.053498894,-9.708556
1624900000,1624900000,-1.8013479,-0.036899716,-9.637667
1624948000,1624948000,-1.7956055,0.028789729,-9.692574
1625000000,1625000000,-1.8184592,0.022804545,-9.588547
1625048000,1625048000,-1.8189822,-0.10424134,-9.574549
1625100000,1625100000,-1.7719022,-0.03542146,-9.569496
1625144000,1625144000,-1.8062015,-0.01927485,-9.655419
1625200000,1625200000,-1.7134194,-0.004891552,-9.656103
1625248000,1625248000,-1.7934045,-0.10818936,-9.637888
1625300000,1625300000,-1.8023517,-0.016973034,-9.639629
1625348000,1625348000,-1.8318263,-0.024091814,-9.678413
1625400000,1625400000,-1.8617411,-0.041284908,-9.639891
1625448000,1625448000,-1.7565718,0.0117099425,-9.6779375
1625500000,1625500000,-1.8448609,-0.07144334,-9.628253
1625548000,1625548000,-1.8005936,-0.07140288,-9.60707
1625600000,1625600000,-1.7090465,-0.020811928,-9.710565
1625648000,1625648000,-1.7728814,0.067524254,-9.50378
1625700000,1625700000,-1.8308885,-0.008749527,-9.515984
1625748000,1625748000,-1.8829048,-0.043122057,-9.643916
1625796000,1625796000,-1.8111662,-0.055680227,-9.72235
1625848000,1625848000,-1.8668405,0.057662386,-9.639303
1625900000,1625900000,-1.7986972,-0.07926293,-9.602158
1625948000,1625948000,-1.7497474,-0.052349474,-9.652507
1626000000,1626000000,-1.7623256,0.014235404,-9.597787
1626048000,1626048000,-1.8322523,0.0038737678,-9.631599
1626100000,1626100000,-1.7876848,0.05462809,-9.680767
1626144000,1626144000,-1.8359723,0.0148419095,-9.577519
1626200000,1626200000,-1.6875063,-0.06659538,-9.58665
1626248000,1626248000,-1.770505,-0.04168437,-9.634749
1626300000,1626300000,-1.7820077,0.012168925,-9.692383
1626348000,1626348000,-1.7495921,-0.011395713,-9.644551
1626400000,1626400000,-1.771147,-0.043175783,-9.540405
1626444000,1626444000,-1.8411525,0.01536008,-9.673969
1626500000,1626500000,-1.7900196,0.108882874,-9.58842
1626548000,1626548000,-1.8260946,0.08266308,-9.705803
1626600000,1626600000,-1.8825756,-0.037712164,-9.620891
1626648000,1626648000,-1.7264768,0.04895413,-9.6325245
1626700000,1626700000,-1.7864801,0.031751696,-9.597429
1626748000,1626748000,-1.8115394,-0.058580097,-9.615479
1626800000,1626800000,-1.7469361,-0.0045943144,-9.618943
1626848000,1626848000,-1.816462,0.00934097,-9.726326
1626900000,1626900000,-1.8085195,0.017414428,-9.673713
1626948000,1626948000,-1.8655137,-0.015594511,-9.567989
1627000000,1627000000,-1.8295579,-0.016530583,-9.575764
1627048000,1627048000,-1.914368,-0.04669268,-9.643265
1627100000,1627100000,-1.8417264,-0.038521904,-9.640152
1627148000,1627148000,-1.7576966,0.011920835,-9.682873
1627196000,1627196000,-1.7427688,-0.05546902,-9.666651
1627244000,1627244000,-1.7832689,0.04599072,-9.547837
1627300000,1627300000,-1.772142,-0.041257408,-9.643972
1627348000,1627348000,-1.8329712,-0.052921552,-9.760888
1627400000,1627400000,-1.8262448,-0.02081962,-9.727159
1627448000,1627448000,-1.7789593,0.044096984,-9.663165
1627500000,1627500000,-1.8057921,-0.016208608,-9.61845
1627548000,1627548000,-1.7443411,0.06319856,-9.67575
1627600000,1627600000,-1.8018682,0.09487498,-9.551926
1627648000,1627648000,-1.8525084,0.0054319277,-9.559592
1627700000,1627700000,-1.773061,0.01941259,-9.699251
1627744000,1627744000,-1.7554383,-0.031440884,-9.704028
1627800000,1627800000,-1.8484657,-0.07462971,-9.609843
1627848000,1627848000,-1.9166663,-0.039683457,-9.713753
1627900000,1627900000,-1.8856251,-0.03792704,-9.722428
1627948000,1627948000,-1.8889226,-0.07640786,-9.715684
1628000000,1628000000,-1.8349648,0.030395467,-9.557841
1628048000,1628048000,-1.7818975,0.0008852631,-9.608235
1628100000,1628100000,-1.8062904,-0.014560629,-9.605801
1628148000,1628148000,-1.8408908,-0.023064602,-9.655615
1628200000,1628200000,-1.7639278,0.07807697,-9.63106
1628248000,1628248000,-1.8578665,0.025691016,-9.673635
1628300000,1628300000,-1.8111513,-0.09701428,-9.549624
1628348000,1628348000,-1.7366282,-0.1049982,-9.619503
1628400000,1628400000,-1.8345337,-0.050869368,-9.725383
1628444000,1628444000,-1.7586024,-0.032814942,-9.607552
1628500000,1628500000,-1.7929871,-0.046846643,-9.66421
1628548000,1628548000,-1.7826315,-0.03676018,-9.639909
1628600000,1628600000,-1.6919556,-0.13365182,-9.595473
1628648000,1628648000,-1.7861006,-0.058803067,-9.718594
1628700000,1628700000,-1.764039,0.03278389,-9.655888
1628748000,1628748000,-1.7861054,0.0016045778,-9.647267
1628800000,1628800000,-1.8806393,-0.11708518,-9.639225
1628848000,1628848000,-1.725321,-0.04622344,-9.587378
1628900000,1628900000,-1.7615823,0.0014836453,-9.572151
1628948000,1628948000,-1.82812,0.0005360842,-9.61401
1629000000,1629000000,-1.8032649,0.023688661,-9.70713
1629048000,1629048000,-1.7204509,0.004401848,-9.598434
1629100000,1629100000,-1.7834437,-0.06303328,-9.58566
1629144000,1629144000,-1.7285,-0.013051088,-9.621193
1629200000,1629200000,-1.7727835,-0.024498215,-9.594265
1629248000,1629248000,-1.8636616,-0.10405688,-9.618156
1629300000,1629300000,-1.817575,-0.06391063,-9.444962
1629348000,1629348000,-1.7558624,0.03521606,-9.493158
1629400000,1629400000,-1.8067803,-0.017960222,-9.584061
1629444000,1629444000,-1.7544364,-0.04415225,-9.5762825
1629500000,1629500000,-1.7206082,0.08556204,-9.6156
1629548000,1629548000,-1.7898705,-0.060565032,-9.564801
1629600000,1629600000,-1.689248,0.060427535,-9.723518
1629648000,1629648000,-1.7384515,0.002236545,-9.862412
1629696000,1629696000,-1.7014685,-0.05414305,-9.825896
1629748000,1629748000,-1.675465,0.014464,-9.779563
1629800000,1629800000,-1.6798747,-0.0057576112,-9.732243
1629848000,1629848000,-1.6452651,-0.06385505,-9.806158
1629896000,1629896000,-1.635937,0.0032363618,-9.888539
1629948000,1629948000,-1.525897,0.09208475,-9.759515
1629996000,1629996000,-1.5132225,-0.02852451,-9.799311
1630048000,1630048000,-1.593061,-0.029590836,-9.801193
1630100000,1630100000,-1.4392843,0.037627548,-9.734308
1630148000,1630148000,-1.4323401,-0.08290693,-9.771755
1630200000,1630200000,-1.4598135,-0.054700963,-9.87914
1630244000,1630244000,-1.3888692,0.035090238,-9.864355
1630300000,1630300000,-1.4277558,-0.04435566,-9.877053
1630348000,1630348000,-1.4001256,-0.041271996,-9.869085
1630400000,1630400000,-1.3462256,-0.097290546,-9.794075
1630444000,1630444000,-1.2045566,0.025432851,-9.820485
1630500000,1630500000,-1.2737703,-0.0038868436,-9.869849
1630548000,1630548000,-1.2142693,-0.06492063,-9.845031
1630600000,1630600000,-1.2292783,-0.031187005,-9.807677
1630648000,1630648000,-1.1041827,-0.0412613,-9.861546
1630700000,1630700000,-1.1095573,-0.003119468,-9.860366
1630748000,1630748000,-1.1551994,0.016681109,-9.940876
1630800000,1630800000,-1.1293466,-0.016261674,-9.892441
1630844000,1630844000,-1.0409582,-0.034943573,-9.853073
1630900000,1630900000,-1.0256795,-0.11155749,-9.837084
1630948000,1630948000,-0.96468854,0.051024124,-9.79798
1631000000,1631000000,-0.92019576,-0.009855823,-9.79636
1631044000,1631044000,-0.9244573,-0.071725674,-9.906735
1631100000,1631100000,-0.89995396,-0.025081532,-9.914752
1631148000,1631148000,-0.9015875,-0.05078301,-9.865735
1631196000,1631196000,-0.8809484,-0.012887141,-9.884124
1631248000,1631248000,-0.81806445,-0.05890314,-9.833458
1631300000,1631300000,-0.7536429,-0.08725338,-9.865877
1631348000,1631348000,-0.7762829,-0.035400905,-9.969445
1631400000,1631400000,-0.81154525,-0.036125287,-9.872022
1631448000,1631448000,-0.7412426,-0.050110117,-9.870928
1631500000,1631500000,-0.6995411,-0.049980715,-9.916798
1631548000,1631548000,-0.68359184,0.03230297,-9.834299
1631600000,1631600000,-0.74384046,-0.01884655,-9.806118
1631648000,1631648000,-0.61542135,0.064651914,-9.83982
1631700000,1631700000,-0.61337817,-0.087688096,-9.910959
1631748000,1631748000,-0.6095282,0.05079646,-9.91323
1631800000,1631800000,-0.6962302,0.06968143,-9.938744
1631848000,1631848000,-0.58242375,-0.02628682,-9.908465
1631900000,1631900000,-0.49189785,-0.0109836,-9.910793
1631948000,1631948000,-0.47251904,-0.022833904,-9.87903
1632000000,1632000000,-0.5513705,0.10295974,-9.8056135
1632048000,1632048000,-0.45059472,0.019316345,-9.904887
1632100000,1632100000,-0.4316482,0.04064726,-9.842718
1632148000,1632148000,-0.5003167,-0.00080140075,-9.829883
1632200000,1632200000,-0.47204775,0.012083633,-9.965868
1632244000,1632244000,-0.3835019,-0.040509455,-9.831696
1632300000,1632300000,-0.4455771,-0.02925009,-9.751803
1632348000,1632348000,-0.4058057,0.0247766,-9.838343
1632400000,1632400000,-0.31663024,0.097093366,-9.84798
1632448000,1632448000,-0.39271381,0.07331927,-9.853243
1632500000,1632500000,-0.3226381,0.043599837,-9.89362
1632548000,1632548000,-0.386284,-0.04891423,-9.835373
1632600000,1632600000,-0.31227478,-0.043595556,-9.789093
1632648000,1632648000,-0.33702892,-0.013555957,-9.866242
1632700000,1632700000,-0.28547683,0.09119436,-9.826159
1632748000,1632748000,-0.3716364,0.060501907,-9.768336
1632800000,1632800000,-0.33381572,0.038219556,-9.867828
1632848000,1632848000,-0.36070204,-0.016120732,-9.873928
1632896000,1632896000,-0.15883875,-0.030733295,-9.886118
1632948000,1632948000,-0.3340165,0.030899739,-9.807161
1633000000,1633000000,-0.22996116,0.029085604,-9.816644
1633048000,1633048000,-0.24364606,0.062661886,-9.83124
1633100000,1633100000,-0.25929284,-0.013418557,-9.74982
1633148000,1633148000,-0.24918915,0.025065541,-9.826351
1633200000,1633200000,-0.1722327,0.051209092,-9.787191
1633248000,1633248000,-0.19631377,-0.007879574,-9.824023
1633300000,1633300000,-0.14829004,0.007184649,-9.817497
1633348000,1633348000,-0.14860862,0.036280323,-9.787511
1633400000,1633400000,-0.19275263,-0.05589394,-9.839716
1633448000,1633448000,-0.1288541,-0.00017642253,-9.809846
1633500000,1633500000,-0.19925742,0.005460024,-9.911351
1633544000,1633544000,-0.20374304,0.024027806,-9.831467
1633600000,1633600000,-0.13417111,0.010792747,-9.961429
1633648000,1633648000,-0.14811423,-0.035204817,-9.846954
1633700000,1633700000,-0.09363204,0.046210095,-9.856003
1633748000,1633748000,-0.1776473,0.031411648,-9.735247
1633800000,1633800000,-0.09266396,-0.053670585,-9.733671
1633844000,1633844000,-0.16581598,-0.013467921,-9.805975
1633900000,1633900000,-0.115485266,-0.069131084,-9.803959
1633948000,1633948000,-0.114438966,0.05713085,-9.870937
1634000000,1634000000,-0.10026633,0.021199433,-9.844056
1634048000,1634048000,-0.15436761,-0.042293306,-9.8269205
1634100000,1634100000,-0.109802596,0.047740187,-9.814873
1634144000,1634144000,-0.042691022,0.020300295,-9.738827
1634200000,1634200000,0.024534967,-0.07137583,-9.749545
1634248000,1634248000,-0.07523454,-0.021055806,-9.809298
1634300000,1634300000,-0.14464204,0.042704903,-9.767807
1634348000,1634348000,0.024842918,0.035675593,-9.7987585
1634400000,1634400000,-0.03622719,0.04171264,-9.82421
1634448000,1634448000,0.0017647516,-0.0033197012,-9.732199
1634500000,1634500000,0.011279212,-0.005767632,-9.753662
1634548000,1634548000,-0.03315406,-0.026274547,-9.878845
1634600000,1634600000,-0.028985154,-0.099398755,-9.796616
1634648000,1634648000,-0.12148765,-0.061102636,-9.7922125
1634700000,1634700000,0.0031914837,-0.07717979,-9.74278
1634748000,1634748000,-0.075813815,-0.036052667,-9.786265
1634796000,1634796000,-0.12882507,-0.029110199,-9.907806
1634848000,1634848000,-0.066634595,0.041100167,-9.825853
1634900000,1634900000,0.026002849,-0.01008712,-9.775932
1634948000,1634948000,-0.055279866,-0.095468275,-9.83997
1635000000,1635000000,-0.10509109,0.055963334,-9.755817
1635048000,1635048000,-0.11101064,-0.0458201,-9.8391
1635100000,1635100000,-0.01385444,0.010452549,-9.769695
1635148000,1635148000,0.0016133944,-0.01889241,-9.871069
1635200000,1635200000,-0.14356238,0.030598823,-9.855099
1635248000,1635248000,-0.035027903,-0.04471784,-9.862511
1635300000,1635300000,-0.009002494,-0.028905902,-9.822697
1635348000,1635348000,-0.043985046,-0.016566552,-9.791325
1635400000,1635400000,-0.03617816,-0.007685613,-9.863948
1635448000,1635448000,-0.05409786,-0.06350567,-9.740642
1635500000,1635500000,-0.14090404,0.00021975208,-9.78748
1635548000,1635548000,-0.037435938,-0.024881007,-9.733398
1635600000,1635600000,-0.042514686,9.035831e-05,-9.839907
1635648000,1635648000,-0.06989126,0.05845331,-9.883217
1635700000,1635700000,-0.085570246,-0.029658116,-9.8310375
1635748000,1635748000,-0.08526826,-0.07049139,-9.8102255
1635800000,1635800000,-0.04458928,-0.0014299946,-9.773405
1635848000,1635848000,0.033400163,0.01452427,-9.803532
1635900000,1635900000,-0.06536461,-0.05618024,-9.873648
1635944000,1635944000,0.041405823,0.010333842,-9.836797
1636000000,1636000000,-0.10260753,0.0034404243,-9.809032
1636048000,1636048000,-0.10925289,-0.010118185,-9.7032795
1636100000,1636100000,-0.0139297545,0.0016138456,-9.819426
1636148000,1636148000,0.02410663,0.06989309,-9.791664
1636200000,1636200000,-0.067555234,-0.03043995,-9.817391
1636248000,1636248000,0.014774305,0.01758564,-9.809149
1636300000,1636300000,-0.0020148647,-0.06975929,-9.791096
1636348000,1636348000,-0.007857105,-0.004666798,-9.8412895
1636400000,1636400000,-0.010483487,-0.019403398,-9.855825
1636448000,1636448000,0.032187726,-0.008451046,-9.798756
1636500000,1636500000,0.026575387,-0.09213617,-9.8038435
1636548000,1636548000,-0.054581802,-0.0113526285,-9.74656
1636596000,1636596000,-0.028385904,-0.009879037,-9.780694
1636648000,1636648000,0.015418593,0.08342092,-9.945263
1636700000,1636700000,-0.0096487105,-0.06392848,-9.751989
1636748000,1636748000,-0.050765965,0.040535852,-9.844093
1636800000,1636800000,-0.20393708,-0.02984003,-9.811143
1636844000,1636844000,-0.0809567,-0.03419095,-9.704542
1636896000,1636896000,-0.007238428,0.03244567,-9.881662
1636944000,1636944000,-0.09133594,-0.032775603,-9.84907
1637000000,1637000000,0.040413633,-0.11245298,-9.770575
1637044000,1637044000,0.037587788,0.012693111,-9.853301
1637100000,1637100000,-0.00901995,0.029390704,-9.828604
1637148000,1637148000,-0.02911762,-0.038814392,-9.826109
1637200000,1637200000,-0.10238989,0.058305237,-9.762739
1637248000,1637248000,0.017227508,-0.005884582,-9.739837
1637300000,1637300000,-0.084882855,-0.016174898,-9.833608
1637348000,1637348000,0.024186894,0.029476386,-9.788668
1637400000,1637400000,-0.06578216,-0.062433816,-9.816243
1637448000,1637448000,-0.020866225,0.021096379,-9.801862
1637500000,1637500000,-0.013166855,0.017153518,-9.839722
1637548000,1637548000,-0.009483999,0.063712806,-9.888371
1637600000,1637600000,-0.058267675,-0.07915042,-9.902334
1637648000,1637648000,-0.0484732,0.02801454,-9.815117
1637700000,1637700000,-0.052052557,-0.03889427,-9.737714
1637748000,1637748000,-0.020844549,-0.0011694189,-9.748531
1637800000,1637800000,0.0709139,0.0071317237,-9.730178
1637848000,1637848000,-0.007474899,0.03328518,-9.772374
1637900000,1637900000,-0.01304977,-0.04304771,-9.849585
1637944000,1637944000,-0.040596336,0.06850846,-9.809515
1638000000,1638000000,0.05177155,-0.019981213,-9.765983
1638048000,1638048000,0.00801679,0.03078887,-9.887733
1638100000,1638100000,-0.076744474,0.0013074693,-9.754824
1638148000,1638148000,-0.035429247,0.04288003,-9.812412
1638200000,1638200000,0.022640835,-0.06962137,-9.827916
1638244000,1638244000,-0.03270498,-0.04562053,-9.8660965
1638300000,1638300000,-0.02882279,-0.034384254,-9.809154
1638348000,1638348000,0.0016873933,-0.021616386,-9.757864
1638400000,1638400000,0.02452348,-0.008984233,-9.835307
1638448000,1638448000,0.004408364,-0.07067893,-9.734432
1638500000,1638500000,0.020185122,0.0413193,-9.81131
1638548000,1638548000,0.033112045,0.04263719,-9.837723
1638600000,1638600000,-0.050485242,0.011063965,-9.874452
1638644000,1638644000,-0.036421422,-0.023107344,-9.651978
1638700000,1638700000,-0.014167694,0.0281505,-9.744717
1638744000,1638744000,0.010686456,0.037599415,-9.801325
1638800000,1638800000,0.027523346,0.0406306,-9.773358
1638844000,1638844000,-0.072459415,-0.03769415,-9.508343
1638900000,1638900000,0.0029243191,0.027656306,-9.045673
1638948000,1638948000,-0.039806865,-0.029158121,-8.672677
1639000000,1639000000,-0.04675135,0.027610166,-8.315416
1639048000,1639048000,-0.019431202,0.06773053,-8.095137
1639100000,1639100000,-0.05311457,0.013422871,-7.892429
1639148000,1639148000,-0.11331176,-0.0039020719,-7.7793856
1639196000,1639196000,-0.06477065,0.018531812,-7.7239466
1639248000,1639248000,0.006600418,-0.04023161,-7.9375
1639300000,1639300000,-0.06926624,-0.06062879,-8.463779
1639348000,1639348000,-0.0015886938,-0.03609505,-8.969198
1639396000,1639396000,0.015301644,0.076919705,-9.2584095
1639448000,1639448000,-0.11832086,0.070737496,-9.663636
1639496000,1639496000,-0.05903873,0.016809426,-9.945787
1639548000,1639548000,-0.04681143,0.0176079,-10.266302
1639600000,1639600000,0.015175604,0.04502995,-10.401864
1639648000,1639648000,-0.11395565,0.07520182,-10.47669
1639700000,1639700000,-0.052891877,-0.02310275,-10.296681
1639748000,1639748000,-0.030714318,0.011738056,-10.101941
1639796000,1639796000,-0.016610458,-0.0048118457,-9.981041
1639848000,1639848000,-0.0049797166,-0.040380098,-9.905188
1639900000,1639900000,-0.029909175,0.012034375,-9.790577
1639948000,1639948000,-0.0603315,0.041896835,-9.709229
1640000000,1640000000,-0.08231438,0.036870886,-9.682809
1640048000,1640048000,-0.07609298,-0.09493541,-9.683176
1640100000,1640100000,-0.031327542,0.023278335,-9.699619
1640148000,1640148000,-0.075894,0.10493906,-9.835833
1640200000,1640200000,0.020633321,-0.010564761,-9.654482
1640248000,1640248000,-0.10572537,-0.029721756,-9.745237
1640300000,1640300000,-0.0067321216,0.027401626,-9.731863
1640348000,1640348000,-0.007563954,0.0012180412,-9.69499
1640400000,1640400000,-0.05350534,0.025244704,-9.7519865
1640448000,1640448000,-0.015456179,-0.022565685,-9.76366
1640500000,1640500000,-0.027123088,0.014189795,-9.65218
1640548000,1640548000,-0.065559,0.056257445,-9.749053
1640600000,1640600000,-0.106460065,-0.106839195,-9.803341
1640648000,1640648000,-0.014491574,0.009604374,-9.621639
1640700000,1640700000,-0.1147249,-0.0254175,-9.779766
1640748000,1640748000,-0.013667102,-0.04035427,-9.693304
1640800000,1640800000,-0.037615318,-0.0019203243,-9.762303
1640848000,1640848000,0.06941928,0.033631302,-9.727034
1640900000,1640900000,0.07325138,-0.019512268,-9.812349
1640948000,1640948000,-0.033434056,0.010644466,-9.711812
1641000000,1641000000,-0.007250763,0.039686263,-9.804923
1641048000,1641048000,0.016915435,-0.08530193,-9.839045
1641100000,1641100000,0.07498247,0.025813328,-9.811273
1641148000,1641148000,-0.008305432,0.03190603,-9.8251505
1641200000,1641200000,0.03205864,0.040683262,-9.807349
1641248000,1641248000,0.08423368,0.0006892213,-9.776819
1641300000,1641300000,-0.027482979,0.029800907,-9.795167
1641348000,1641348000,0.099367015,-0.032064367,-9.851803
1641400000,1641400000,-0.022400508,0.040810183,-9.789575
1641448000,1641448000,-0.0014191023,0.02571154,-9.806885
1641500000,1641500000,-0.021892568,0.05455639,-9.855774
1641548000,1641548000,-0.0032679094,0.02448481,-9.8300495
1641600000,1641600000,-0.012879198,-0.028426254,-9.7567
1641648000,1641648000,0.00073306076,0.022419145,-9.801237
1641700000,1641700000,0.008448392,0.056311987,-9.820548
1641748000,1641748000,0.054758284,0.0005358942,-9.772775
1641800000,1641800000,0.069690414,-0.06429255,-9.825076
1641848000,1641848000,0.02543364,-0.06236773,-9.888791
1641900000,1641900000,-0.052831046,0.054159105,-9.8304615
1641948000,1641948000,0.024509715,-0.14988807,-9.787023
1642000000,1642000000,-0.003118473,-0.036461562,-9.781362
1642048000,1642048000,-0.03038336,-0.040647503,-9.766079
1642100000,1642100000,0.06937849,0.03625553,-9.767552
1642148000,1642148000,0.05705322,-0.032532066,-9.81851
1642200000,1642200000,-0.025704203,0.04889752,-9.895035
1642244000,1642244000,0.005318723,-0.039501794,-9.79155
1642300000,1642300000,-0.027142566,-0.045987822,-9.762436
1642348000,1642348000,0.018115994,0.0022724313,-9.855791
1642400000,1642400000,0.0015224011,-0.056349065,-9.858239
1642444000,1642444000,0.051200632,-0.05046528,-9.8026
1642500000,1642500000,0.016564265,-0.01589582,-9.819427
1642548000,1642548000,-0.034806196,-0.023150578,-9.8008995
1642600000,1642600000,0.0056612915,-0.09347476,-9.734253
1642644000,1642644000,0.025129998,-0.07022647,-9.784388
1642700000,1642700000,-0.04022691,0.03286533,-9.79089
1642748000,1642748000,-0.056712974,-0.046417177,-9.77921
1642800000,1642800000,0.016345598,0.060371846,-9.774765
1642848000,1642848000,-0.008352333,-0.010447821,-9.819769
1642900000,1642900000,0.013768969,-0.0663645,-9.754562
1642948000,1642948000,-0.019134494,0.06885291,-9.756594
1642996000,1642996000,0.04841871,-0.059871897,-9.82595
1643048000,1643048000,0.022589698,-0.0004696953,-9.805187
1643100000,1643100000,0.060970284,0.055037674,-9.911913
1643148000,1643148000,0.045683265,-0.028000675,-9.913803
1643200000,1643200000,0.07330009,0.019209117,-9.841952
1643244000,1643244000,0.046865523,0.076171435,-9.726957
1643300000,1643300000,0.017045768,-0.02878401,-9.798652
1643348000,1643348000,-0.06641232,-0.03277182,-9.742847
1643400000,1643400000,7.207345,-0.28030786,-25.388218
1643448000,1643448000,-0.055498257,-0.0038394919,-10.037287
1643500000,1643500000,-0.026349138,0.043949418,-9.991079
1643548000,1643548000,-0.05269173,0.027882194,-9.824268
1643600000,1643600000,-0.029964007,-0.028509896,-9.8281765
1643648000,1643648000,0.03436096,0.0034443284,-9.863144
1643700000,1643700000,0.054943234,-0.055129427,-9.865086
1643744000,1643744000,-0.03706904,-0.025049299,-9.846888
1643800000,1643800000,0.045614656,0.068130404,-9.822008
1643848000,1643848000,0.040735897,-0.009745876,-9.871809
1643900000,1643900000,-0.015280306,-0.028001092,-9.796452
1643948000,1643948000,-0.019117577,0.007022688,-9.850561
1644000000,1644000000,-0.010519857,0.095729046,-9.754011
1644048000,1644048000,0.035642773,-0.018655453,-9.795575
1644096000,1644096000,-0.06603281,-0.1121508,-9.786978
1644148000,1644148000,-0.027465697,-0.019915696,-9.812433
1644196000,1644196000,-0.007733888,-0.061629765,-9.860011
1644248000,1644248000,0.055408746,-0.03906802,-9.761272
1644300000,1644300000,0.03233889,0.03083878,-9.776611
1644344000,1644344000,-0.051018514,-0.033027343,-9.853775
1644400000,1644400000,-0.02414805,0.089118354,-9.777184
1644444000,1644444000,0.06297081,-0.08452511,-9.802445
1644500000,1644500000,0.04063315,0.034312256,-9.795801
1644548000,1644548000,0.1191632,-0.08388317,-9.756985
1644600000,1644600000,-0.095814824,0.031630434,-9.766149
1644644000,1644644000,-0.032581232,-0.054294713,-9.800253
1644700000,1644700000,0.0384036,-0.015763663,-9.799471
1644748000,1644748000,0.04763273,-0.094186366,-9.722676
1644800000,1644800000,0.00848409,0.06607457,-9.876136
1644848000,1644848000,-0.027959764,-0.05168597,-9.785076
1644900000,1644900000,0.053419176,0.014564963,-9.812395
1644948000,1644948000,0.045103587,0.044212595,-9.816478
1645000000,1645000000,0.060653593,0.056972433,-9.79439
1645048000,1645048000,-0.0185083,-0.050618906,-9.792412
1645100000,1645100000,-0.018200584,-0.01585447,-9.865078
1645148000,1645148000,-0.029539721,0.022151185,-9.724158
1645200000,1645200000,-0.046885245,-0.0444576,-9.840272
1645248000,1645248000,-0.0788323,-0.060158066,-9.718038
1645300000,1645300000,0.048708104,-0.013597434,-9.82761
1645348000,1645348000,-0.11746478,0.050620712,-9.725146
1645400000,1645400000,0.05397015,-0.042834837,-9.785837
1645448000,1645448000,0.10631602,-0.043763924,-9.860472
1645500000,1645500000,-0.034755707,-0.05452803,-9.787776
1645544000,1645544000,-0.021094022,0.030924655,-9.809082
1645596000,1645596000,-0.003319481,-0.04423068,-9.81599
1645648000,1645648000,-0.01194451,0.0040319795,-9.837204
