timestamp,timestamp_sample,ref_timestamp,ref_lat,ref_lon,x,y,z,delta_xy[0],delta_xy[1],delta_z,vx,vy,vz,z_deriv,delta_vxy[0],delta_vxy[1],delta_vz,ax,ay,az,heading,heading_var,unaided_heading,delta_heading,tilt_var,ref_alt,dist_bottom,dist_bottom_var,delta_dist_bottom,eph,epv,evh,evv,vxy_max,vz_max,hagl_min,hagl_max_z,hagl_max_xy,xy_valid,z_valid,v_xy_valid,v_z_valid,xy_reset_counter,z_reset_counter,vxy_reset_counter,vz_reset_counter,heading_reset_counter,heading_good_for_control,xy_global,z_global,dist_bottom_valid,dist_bottom_reset_counter,dist_bottom_sensor_bitfield,dead_reckoning
1592244000,1592240000,66708000,47.398166100000005,8.5470148,-46.252556,-106.05669,-488.15652,86876.08,2880536.2,0.0,-0.05056077,0.0007653944,-0.010252336,0.0045834305,-0.0035367864,-0.0033599276,2.4400651e-05,0.058822595,-0.049099606,0.048242506,1.5675468,0.0070065693,-0.00292065,0.03802982,8.526818e-05,0.0,0.1000061,0.010000001,0.0,0.47354385,0.2874466,0.16683963,0.07169207,inf,inf,inf,inf,inf,1,1,1,1,5,5,2,1,2,1,1,1,0,5,0,0
1592252000,1592248000,66708000,47.398166100000005,8.5470148,-46.252724,-106.05677,-488.15652,86876.08,2880536.2,0.0,-0.050108224,0.00077511795,-0.010581134,0.004207602,-0.0035367864,-0.0033599276,2.4400651e-05,0.04362514,0.0074868063,-0.043374017,1.5675864,0.007006664,-0.0028834566,0.03802982,8.532019e-05,0.0,0.1000061,0.010000001,0.0,0.47439918,0.2878373,0.16718476,0.07175154,inf,inf,inf,inf,inf,1,1,1,1,5,5,2,1,2,1,1,1,0,5,0,0
1592260000,1592256000,66708000,47.398166100000005,8.5470148,-46.252895,-106.056854,-488.15652,86876.08,2880536.2,0.0,-0.050107773,0.00087527896,-0.010329964,0.004409737,-0.0035367864,-0.0033599276,2.4400651e-05,-0.012532683,0.018607555,0.029198823,1.5675511,0.0070067584,-0.0029211268,0.03802982,8.537225e-05,0.0,0.1000061,0.010000001,0.0,0.4752577,0.28822866,0.16752906,0.07181096,inf,inf,inf,inf,inf,1,1,1,1,5,5,2,1,2,1,1,1,0,5,0,0
1592268000,1592264000,66708000,47.398166100000005,8.5470148,-46.25307,-106.05694,-488.15656,86876.08,2880536.2,0.0,-0.049781553,0.00064028276,-0.010266572,0.0044222334,-0.0035367864,-0.0033599276,2.4400651e-05,0.028531449,-0.02346304,0.005801208,1.567472,0.0070068548,-0.0030024275,0.03802982,8.542437e-05,0.0,0.1000061,0.010000001,0.0,0.4761193,0.28862065,0.16787584,0.071870334,inf,inf,inf,inf,inf,1,1,1,1,5,5,2,1,2,1,1,1,0,5,0,0
1592276000,1592272000,66708000,47.398166100000005,8.5470148,-46.25325,-106.05702,-488.15656,86876.08,2880536.2,0.0,-0.049819753,0.00014332977,-0.00924466,0.005391559,-0.0035367864,-0.0033599276,2.4400651e-05,-0.016682725,-0.056379765,0.12568896,1.5676101,0.007006953,-0.0028664097,0.03802982,8.547655e-05,0.0,0.1000061,0.010000001,0.0,0.4769841,0.28901327,0.16822167,0.07192967,inf,inf,inf,inf,inf,1,1,1,1,5,5,2,1,2,1,1,1,0,5,0,0
1592284000,1592280000,66708000,47.398166100000005,8.5470148,-46.253437,-106.057106,-488.15656,86876.08,2880536.2,0.0,-0.05032399,-0.0003719422,-0.009518936,0.005066971,-0.0035367864,-0.0033599276,2.4400651e-05,-0.074609615,-0.05884689,-0.036348585,1.5676587,0.0070070475,-0.0028200373,0.03802982,8.552873e-05,0.0,0.1000061,0.010000001,0.0,0.4778521,0.28843173,0.16856402,0.07187581,inf,inf,inf,inf,inf,1,1,1,1,5,5,2,1,2,1,1,1,0,5,0,0
1592300000,1592296000,66708000,47.398166100000005,8.5470148,-46.25383,-106.05728,-488.1566,86876.08,2880536.2,0.0,-0.050444245,-0.0013648511,-0.00925299,0.005226795,-0.0035367864,-0.0033599276,2.4400651e-05,-0.03949036,-0.048545588,0.0024419276,1.5675713,0.0070072403,-0.0029113516,0.03802982,8.563324e-05,0.0,0.1000061,0.010000001,0.0,0.4795975,0.2892175,0.16925785,0.07199444,inf,inf,inf,inf,inf,1,1,1,1,5,5,2,1,2,1,1,1,0,5,0,0
1592308000,1592304000,66708000,47.398166100000005,8.5470148,-46.254036,-106.057365,-488.1566,86876.08,2880536.2,0.0,-0.050596844,-0.001538799,-0.009271859,0.005152292,-0.0035367864,-0.0033599276,2.4400651e-05,-0.029716222,-0.016674168,-0.0042165625,1.56757,0.0070073367,-0.0029146895,0.03802982,8.568556e-05,0.0,0.1000061,0.010000001,0.0,0.480475,0.28961134,0.16960478,0.07205369,inf,inf,inf,inf,inf,1,1,1,1,5,5,2,1,2,1,1,1,0,5,0,0
1592316000,1592312000,66708000,47.398166100000005,8.5470148,-46.254246,-106.05745,-488.15662,86876.08,2880536.2,0.0,-0.050645802,-0.001005785,-0.009120259,0.005246633,-0.0035367864,-0.0033599276,2.4400651e-05,-0.016515752,0.071367465,0.017156823,1.567515,0.007006778,-0.002971433,0.03802982,8.571138e-05,0.0,0.1000061,0.010000001,0.0,0.4813391,0.29000583,0.16991174,0.0721129,inf,inf,inf,inf,inf,1,1,1,1,5,5,2,1,2,1,1,1,0,5,0,0
1592324000,1592320000,66708000,47.398166100000005,8.5470148,-46.254467,-106.05753,-488.15662,86876.08,2880536.2,0.0,-0.0513177,-0.002150582,-0.009323846,0.004984316,-0.0035367864,-0.0033599276,2.4400651e-05,-0.09409329,-0.13850008,-0.02717832,1.5675737,0.0070068743,-0.0029142126,0.03802982,8.576375e-05,0.0,0.1000061,0.010000001,0.0,0.48222277,0.29040095,0.17026243,0.07217208,inf,inf,inf,inf,inf,1,1,1,1,5,5,2,1,2,1,1,1,0,5,0,0
1592340000,1592336000,66708000,47.398166100000005,8.5470148,-46.25493,-106.057724,-488.15665,86876.08,2880536.2,0.0,-0.052021667,-0.004349015,-0.009978508,0.0042080837,-0.0035367864,-0.0033599276,2.4400651e-05,-0.029744882,-0.06541061,-0.03226427,1.5676985,0.007007065,-0.0027921423,0.03802982,8.586861e-05,0.0,0.1000061,0.010000001,0.0,0.48399964,0.29119307,0.1709573,0.07229029,inf,inf,inf,inf,inf,1,1,1,1,5,5,2,1,2,1,1,1,0,5,0,0
1592348000,1592344000,66708000,47.398166100000005,8.5470148,-46.25517,-106.05782,-488.15668,86876.08,2880536.2,0.0,-0.05170808,-0.0043185214,-0.010513954,0.0036098731,-0.0035367864,-0.0033599276,2.4400651e-05,0.029932786,0.00799197,-0.068483405,1.5677497,0.0070071598,-0.0027420744,0.03802982,8.592109e-05,0.0,0.1000061,0.010000001,0.0,0.4848929,0.2915901,0.17130436,0.07234932,inf,inf,inf,inf,inf,1,1,1,1,5,5,2,1,2,1,1,1,0,5,0,0
1592356000,1592352000,66708000,47.398166100000005,8.5470148,-46.25541,-106.057915,-488.1567,86876.08,2880536.2,0.0,-0.05147333,-0.0045958078,-0.010486524,0.0035870932,-0.0035367864,-0.0033599276,2.4400651e-05,0.020350132,-0.030607129,0.0016456469,1.5677218,0.007007256,-0.0027711615,0.03802982,8.597363e-05,0.0,0.1000061,0.010000001,0.0,0.48578936,0.29098675,0.17165236,0.07229127,inf,inf,inf,inf,inf,1,1,1,1,5,5,2,1,2,1,1,1,0,5,0,0
1592364000,1592360000,66708000,47.398166100000005,8.5470148,-46.255653,-106.058014,-488.15674,86876.08,2880536.2,0.0,-0.05199614,-0.0040373513,-0.010803674,0.003217897,-0.0035367864,-0.0033599276,2.4400651e-05,-0.07408806,0.07373905,-0.04136469,1.5676664,0.0070073507,-0.002827786,0.03802982,8.602619e-05,0.0,0.1000061,0.010000001,0.0,0.486689,0.29138365,0.17200164,0.0723503,inf,inf,inf,inf,inf,1,1,1,1,5,5,2,1,2,1,1,1,0,5,0,0
1592380000,1592376000,66708000,47.398166100000005,8.5470148,-46.25617,-106.05818,-488.1568,86876.08,2880536.2,0.0,-0.051970735,-0.0031588483,-0.011605013,0.0023069347,-0.0035367864,-0.0033599276,2.4400651e-05,0.042309903,0.05475784,-0.01294678,1.5676454,0.0070075416,-0.002850674,0.03802982,8.6131455e-05,0.0,0.1000061,0.010000001,0.0,0.488498,0.2921794,0.17269894,0.072468266,inf,inf,inf,inf,inf,1,1,1,1,5,5,2,1,2,1,1,1,0,5,0,0
1592388000,1592384000,66708000,47.398166100000005,8.5470148,-46.25642,-106.05826,-488.15683,86876.08,2880536.2,0.0,-0.052404113,-0.0029535764,-0.011492208,0.0023621805,-0.0035367864,-0.0033599276,2.4400651e-05,-0.06312121,0.029517427,0.012558418,1.5677719,0.0070069814,-0.002725266,0.03802982,8.61568e-05,0.0,0.1000061,0.010000001,0.0,0.48938873,0.29257822,0.17300564,0.072527185,inf,inf,inf,inf,inf,1,1,1,1,5,5,2,1,2,1,1,1,0,5,0,0
1592396000,1592392000,66708000,47.398166100000005,8.5470148,-46.25624,-106.05833,-488.15665,86876.08,2880536.2,0.0,-0.053441428,-0.0021355588,-0.011685503,0.0023205741,-0.0035367864,-0.0033599276,2.4400651e-05,-0.16651051,0.10614179,-0.03216322,1.5678084,0.0070065777,-0.0026903376,0.03802982,8.3870036e-05,0.0,0.1000061,0.010000001,0.0,0.45011616,0.27959737,0.15721242,0.07033795,inf,inf,inf,inf,inf,1,1,1,1,5,5,2,1,2,1,1,1,0,5,0,0
1592404000,1592400000,66708000,47.398166100000005,8.5470148,-46.256084,-106.058395,-488.1565,86876.08,2880536.2,0.0,-0.053841546,-0.0018354207,-0.011670939,0.002478217,-0.0035367864,-0.0033599276,2.4400651e-05,-0.08584721,0.041278623,-0.0059395093,1.5677809,0.007006672,-0.0027204975,0.03802982,8.392099e-05,0.0,0.1000061,0.010000001,0.0,0.45088437,0.27997404,0.15754543,0.07039836,inf,inf,inf,inf,inf,1,1,1,1,5,5,2,1,2,1,1,1,0,5,0,0
1592420000,1592416000,66708000,47.398166100000005,8.5470148,-46.25582,-106.05852,-488.1562,86876.08,2880536.2,0.0,-0.054334,-0.0027198337,-0.010994371,0.003416168,-0.0035367864,-0.0033599276,2.4400651e-05,-0.05913922,-0.035342284,0.1012641,1.5677607,0.0070068613,-0.00274577,0.03802982,8.402302e-05,0.0,0.1000061,0.010000001,0.0,0.4524298,0.28072935,0.15820998,0.07051907,inf,inf,inf,inf,inf,1,1,1,1,5,5,2,1,2,1,1,1,0,5,0,0
1592428000,1592424000,66708000,47.398166100000005,8.5470148,-46.255714,-106.058586,-488.15604,86876.08,2880536.2,0.0,-0.054341193,-0.0029933087,-0.011171285,0.0033628633,-0.0035367864,-0.0033599276,2.4400651e-05,-0.033850975,-0.030765083,-0.029302666,1.5678673,0.0070069577,-0.0026417002,0.03802982,8.4074105e-05,0.0,0.1000061,0.010000001,0.0,0.453207,0.2802144,0.15854014,0.07047838,inf,inf,inf,inf,inf,1,1,1,1,5,5,2,1,2,1,1,1,0,5,0,0
1592436000,1592432000,66708000,47.398166100000005,8.5470148,-46.25562,-106.05865,-488.1559,86876.08,2880536.2,0.0,-0.05426407,-0.0030764642,-0.011633115,0.0030166195,-0.0035367864,-0.0033599276,2.4400651e-05,-0.022406008,-0.0070870197,-0.06469851,1.5680249,0.007007052,-0.0024864897,0.03802982,8.412522e-05,0.0,0.1000061,0.010000001,0.0,0.45398718,0.28059247,0.15887597,0.07053871,inf,inf,inf,inf,inf,1,1,1,1,5,5,2,1,2,1,1,1,0,5,0,0
1592444000,1592440000,66708000,47.398166100000005,8.5470148,-46.25553,-106.05871,-488.1558,86876.08,2880536.2,0.0,-0.0539752,-0.0027516338,-0.011633636,0.0031239218,-0.0035367864,-0.0033599276,2.4400651e-05,0.0046933354,0.04344198,-0.006822403,1.5681206,0.007007035,-0.0023931488,0.03802982,8.4172e-05,0.0,0.1000061,0.010000001,0.0,0.45476896,0.2809712,0.15920411,0.07059898,inf,inf,inf,inf,inf,1,1,1,1,5,5,2,1,2,1,1,1,0,5,0,0
1592460000,1592456000,66708000,47.398166100000005,8.5470148,-46.255394,-106.05882,-488.15555,86876.08,2880536.2,0.0,-0.05419462,-0.0029045732,-0.011903778,0.0030470153,-0.0035367864,-0.0033599276,2.4400651e-05,-0.039002914,-0.0465664,-0.0071050595,1.5682222,0.0070065786,-0.0022976622,0.03802982,8.425051e-05,0.0,0.1000061,0.010000001,0.0,0.45633343,0.28173056,0.15984026,0.07071941,inf,inf,inf,inf,inf,1,1,1,1,5,5,2,1,2,1,1,1,0,5,0,0
1592468000,1592464000,66708000,47.398166100000005,8.5470148,-46.255344,-106.058876,-488.15543,86876.08,2880536.2,0.0,-0.05396256,-0.0033995882,-0.011581643,0.0034550196,-0.0035367864,-0.0033599276,2.4400651e-05,-0.00025547703,-0.059384115,0.034111083,1.5682586,0.007006673,-0.0022642836,0.03802982,8.430175e-05,0.0,0.1000061,0.010000001,0.0,0.45712554,0.28211123,0.16017498,0.070779555,inf,inf,inf,inf,inf,1,1,1,1,5,5,2,1,2,1,1,1,0,5,0,0
1592476000,1592472000,66708000,47.398166100000005,8.5470148,-46.255302,-106.05894,-488.1553,86876.08,2880536.2,0.0,-0.054286566,-0.003705741,-0.010632623,0.0044830497,-0.0035367864,-0.0033599276,2.4400651e-05,-0.0689646,-0.03586711,0.11266069,1.5682654,0.0070067677,-0.0022603497,0.03802982,8.435302e-05,0.0,0.1000061,0.010000001,0.0,0.45792064,0.28249252,0.16051297,0.07083967,inf,inf,inf,inf,inf,1,1,1,1,5,5,2,1,2,1,1,1,0,5,0,0
1592484000,1592480000,66708000,47.398166100000005,8.5470148,-46.255272,-106.059,-488.1552,86876.08,2880536.2,0.0,-0.053330414,-0.0032692535,-0.010690946,0.0044971798,-0.0035367864,-0.0033599276,2.4400651e-05,0.09183299,0.056870677,-0.01307344,1.5682436,0.0070068613,-0.0022851452,0.03802982,8.4404324e-05,0.0,0.1000061,0.010000001,0.0,0.4587188,0.28287446,0.16085233,0.07089974,inf,inf,inf,inf,inf,1,1,1,1,5,5,2,1,2,1,1,1,0,5,0,0
1592500000,1592496000,66708000,47.398166100000005,8.5470148,-46.255245,-106.059105,-488.155,86876.08,2880536.2,0.0,-0.05417732,-0.003816568,-0.010547712,0.004765846,-0.0035367864,-0.0033599276,2.4400651e-05,-0.053376812,-0.028075539,0.01563737,1.5681708,0.007007054,-0.0023634657,0.03802982,8.4507104e-05,0.0,0.1000061,0.010000001,0.0,0.4603243,0.28272244,0.16152917,0.07091508,inf,inf,inf,inf,inf,1,1,1,1,5,5,2,1,2,1,1,1,0,5,0,0
1592508000,1592504000,66708000,47.398166100000005,8.5470148,-46.25525,-106.059166,-488.1549,86876.08,2880536.2,0.0,-0.054029237,-0.0045610983,-0.009868302,0.0054988367,-0.0035367864,-0.0033599276,2.4400651e-05,-0.006972768,-0.09100373,0.07968908,1.5681177,0.0070071486,-0.0024192557,0.03802982,8.4558545e-05,0.0,0.1000061,0.010000001,0.0,0.4611316,0.28310508,0.16186652,0.07097508,inf,inf,inf,inf,inf,1,1,1,1,5,5,2,1,2,1,1,1,0,5,0,0
1592516000,1592512000,66708000,47.398166100000005,8.5470148,-46.25526,-106.05923,-488.15482,86876.08,2880536.2,0.0,-0.053616982,-0.004828022,-0.009699504,0.005715781,-0.0035367864,-0.0033599276,2.4400651e-05,0.02673799,-0.031382333,0.016025266,1.5680861,0.007007243,-0.0024538264,0.03802982,8.461002e-05,0.0,0.1000061,0.010000001,0.0,0.46194196,0.28348833,0.16220592,0.07103505,inf,inf,inf,inf,inf,1,1,1,1,5,5,2,1,2,1,1,1,0,5,0,0
1592524000,1592520000,66708000,47.398166100000005,8.5470148,-46.25528,-106.05929,-488.15472,86876.08,2880536.2,0.0,-0.053431727,-0.004748899,-0.009426755,0.006030577,-0.0035367864,-0.0033599276,2.4400651e-05,-0.0009568948,0.011800469,0.029176937,1.5681908,0.0070073376,-0.0023520216,0.03802982,8.4661544e-05,0.0,0.1000061,0.010000001,0.0,0.46275544,0.28387228,0.16254711,0.07109497,inf,inf,inf,inf,inf,1,1,1,1,5,5,2,1,2,1,1,1,0,5,0,0
1592540000,1592536000,66708000,47.398166100000005,8.5470148,-46.255333,-106.0594,-488.15457,86876.08,2880536.2,0.0,-0.053734403,-0.003611794,-0.009876118,0.0056481226,-0.0035367864,-0.0033599276,2.4400651e-05,-0.009482501,0.04911581,-0.02593221,1.5681901,0.0070068827,-0.0023586974,0.03802982,8.474003e-05,0.0,0.1000061,0.010000001,0.0,0.46437892,0.28464207,0.1631882,0.071214676,inf,inf,inf,inf,inf,1,1,1,1,5,5,2,1,2,1,1,1,0,5,0,0
1592548000,1592544000,66708000,47.398166100000005,8.5470148,-46.25538,-106.05945,-488.15448,86876.08,2880536.2,0.0,-0.05415655,-0.004006068,-0.010064011,0.0054854928,-0.0035367864,-0.0033599276,2.4400651e-05,-0.075800136,-0.047439918,-0.027954577,1.5683187,0.007006979,-0.00223317,0.03802982,8.479166e-05,0.0,0.1000061,0.010000001,0.0,0.46520144,0.28502792,0.16352965,0.07127449,inf,inf,inf,inf,inf,1,1,1,1,5,5,2,1,2,1,1,1,0,5,0,0
1592556000,1592552000,66708000,47.398166100000005,8.5470148,-46.255432,-106.0595,-488.15442,86876.08,2880536.2,0.0,-0.05427434,-0.0038093934,-0.0099533815,0.0056162155,-0.0035367864,-0.0033599276,2.4400651e-05,-0.037125498,0.026362665,0.009501818,1.5683885,0.0070070755,-0.0021664128,0.03802982,8.4843334e-05,0.0,0.1000061,0.010000001,0.0,0.46602705,0.28541443,0.16387028,0.07133424,inf,inf,inf,inf,inf,1,1,1,1,5,5,2,1,2,1,1,1,0,5,0,0
1592564000,1592560000,66708000,47.398166100000005,8.5470148,-46.255497,-106.05955,-488.15436,86876.08,2880536.2,0.0,-0.053842127,-0.0038639717,-0.0093229525,0.0062617804,-0.0035367864,-0.0033599276,2.4400651e-05,0.032243095,-0.0051082177,0.07461337,1.5683798,0.00700717,-0.0021785721,0.03802982,8.489503e-05,0.0,0.1000061,0.010000001,0.0,0.46685576,0.28580156,0.1642124,0.07139397,inf,inf,inf,inf,inf,1,1,1,1,5,5,2,1,2,1,1,1,0,5,0,0
1592580000,1592576000,66708000,47.398166100000005,8.5470148,-46.25565,-106.05965,-488.1542,86876.08,2880536.2,0.0,-0.054054815,-0.0037716932,-0.0078063356,0.00780977,-0.0035367864,-0.0033599276,2.4400651e-05,-0.026549099,0.027693225,0.078300476,1.5684032,0.007007359,-0.002161406,0.03802982,8.4998544e-05,0.0,0.1000061,0.010000001,0.0,0.4685225,0.28563374,0.16489308,0.071404934,inf,inf,inf,inf,inf,1,1,1,1,5,5,2,1,2,1,1,1,0,5,0,0
1592588000,1592584000,66708000,47.398166100000005,8.5470148,-46.255737,-106.05969,-488.15414,86876.08,2880536.2,0.0,-0.05397789,-0.003430541,-0.0078096827,0.007814794,-0.0035367864,-0.0033599276,2.4400651e-05,-0.010438337,0.044162594,-0.00437675,1.5684367,0.0070074536,-0.0021308884,0.03802982,8.5050364e-05,0.0,0.1000061,0.010000001,0.0,0.4693605,0.28602153,0.16523667,0.07146459,inf,inf,inf,inf,inf,1,1,1,1,5,5,2,1,2,1,1,1,0,5,0,0
1592596000,1592592000,66708000,47.398166100000005,8.5470148,-46.255833,-106.05973,-488.15408,86876.08,2880536.2,0.0,-0.054443706,-0.003615613,-0.008122676,0.0075056227,-0.0035367864,-0.0033599276,2.4400651e-05,-0.07773789,-0.021675011,-0.042956784,1.5683168,0.0070075486,-0.0022539124,0.03802982,8.510223e-05,0.0,0.1000061,0.010000001,0.0,0.47020167,0.28640994,0.16557844,0.0715242,inf,inf,inf,inf,inf,1,1,1,1,5,5,2,1,2,1,1,1,0,5,0,0
1592604000,1592600000,66708000,47.398166100000005,8.5470148,-46.25594,-106.05977,-488.15402,86876.08,2880536.2,0.0,-0.054666553,-0.0032689539,-0.008419281,0.007208496,-0.0035367864,-0.0033599276,2.4400651e-05,-0.047039352,0.044067264,-0.040785406,1.5683813,0.007006999,-0.0021922812,0.03802982,8.5128704e-05,0.0,0.1000061,0.010000001,0.0,0.47103179,0.28679898,0.1658841,0.071583785,inf,inf,inf,inf,inf,1,1,1,1,5,5,2,1,2,1,1,1,0,5,0,0
1592620000,1592616000,66708000,47.398166100000005,8.5470148,-46.256184,-106.05984,-488.1539,86876.08,2880536.2,0.0,-0.055086814,-0.003066405,-0.009751883,0.0058625336,-0.0035367864,-0.0033599276,2.4400651e-05,-0.039099775,0.035363838,-0.076109536,1.5683148,0.007007188,-0.0022611842,0.03802982,8.5232576e-05,0.0,0.1000061,0.010000001,0.0,0.4727293,0.28757903,0.16656953,0.07170281,inf,inf,inf,inf,inf,1,1,1,1,5,5,2,1,2,1,1,1,0,5,0,0
1592628000,1592624000,66708000,47.398166100000005,8.5470148,-46.25632,-106.05987,-488.15387,86876.08,2880536.2,0.0,-0.055625156,-0.0029802807,-0.010183854,0.0054178354,-0.0035367864,-0.0033599276,2.4400651e-05,-0.08493539,0.011396006,-0.057360154,1.5683303,0.0070072827,-0.0022466406,0.03802982,8.528457e-05,0.0,0.1000061,0.010000001,0.0,0.47358277,0.28797,0.16691029,0.07176227,inf,inf,inf,inf,inf,1,1,1,1,5,5,2,1,2,1,1,1,0,5,0,0
1592636000,1592632000,66708000,47.398166100000005,8.5470148,-46.25647,-106.0599,-488.15384,86876.08,2880536.2,0.0,-0.056288432,-0.0033970631,-0.010897823,0.004687147,-0.0035367864,-0.0033599276,2.4400651e-05,-0.1000665,-0.051508166,-0.092501745,1.5683244,0.007007379,-0.0022533163,0.03802982,8.533663e-05,0.0,0.1000061,0.010000001,0.0,0.47443938,0.2883616,0.16725317,0.07182166,inf,inf,inf,inf,inf,1,1,1,1,5,5,2,1,2,1,1,1,0,5,0,0
1592644000,1592640000,66708000,47.398166100000005,8.5470148,-46.25663,-106.05992,-488.1538,86876.08,2880536.2,0.0,-0.056844074,-0.0028184045,-0.011007455,0.0045827716,-0.0035367864,-0.0033599276,2.4400651e-05,-0.085979514,0.07220191,-0.01738686,1.5682366,0.007007362,-0.0023418888,0.03802982,8.5383974e-05,0.0,0.1000061,0.010000001,0.0,0.475297,0.28778565,0.16759242,0.071768805,inf,inf,inf,inf,inf,1,1,1,1,5,5,2,1,2,1,1,1,0,5,0,0
1592660000,1592656000,66708000,47.398166100000005,8.5470148,-46.25697,-106.05997,-488.15372,86876.08,2880536.2,0.0,-0.05584105,-0.0030935635,-0.009465841,0.0061210524,-0.0035367864,-0.0033599276,2.4400651e-05,-0.021825394,-0.004699728,0.066977456,1.5681366,0.007007553,-0.0024407133,0.03802982,8.548824e-05,0.0,0.1000061,0.010000001,0.0,0.47702596,0.28856945,0.16828012,0.071887575,inf,inf,inf,inf,inf,1,1,1,1,5,5,2,1,2,1,1,1,0,5,0,0
1592668000,1592664000,66708000,47.398166100000005,8.5470148,-46.25715,-106.06,-488.15366,86876.08,2880536.2,0.0,-0.056255262,-0.0034777434,-0.00971556,0.0058638467,-0.0035367864,-0.0033599276,2.4400651e-05,-0.06670096,-0.04836228,-0.034554858,1.5681705,0.007007002,-0.0024060234,0.03802982,8.55143e-05,0.0,0.1000061,0.010000001,0.0,0.47787935,0.2889623,0.1685851,0.07194689,inf,inf,inf,inf,inf,1,1,1,1,5,5,2,1,2,1,1,1,0,5,0,0
1592676000,1592672000,66708000,47.398166100000005,8.5470148,-46.25734,-106.06002,-488.15363,86876.08,2880536.2,0.0,-0.056742664,-0.0037612056,-0.009750712,0.0058177523,-0.0035367864,-0.0033599276,2.4400651e-05,-0.07543958,-0.035782166,-0.0076261344,1.5682263,0.0070070983,-0.0023490414,0.03802982,8.556651e-05,0.0,0.1000061,0.010000001,0.0,0.4787515,0.28935578,0.1689297,0.072006166,inf,inf,inf,inf,inf,1,1,1,1,5,5,2,1,2,1,1,1,0,5,0,0
1592684000,1592680000,66708000,47.398166100000005,8.5470148,-46.257538,-106.06004,-488.1536,86876.08,2880536.2,0.0,-0.056626573,-0.0036246465,-0.009516353,0.006037847,-0.0035367864,-0.0033599276,2.4400651e-05,0.00039874882,0.016722437,0.026167834,1.5682193,0.007007193,-0.0023546442,0.03802982,8.5618754e-05,0.0,0.1000061,0.010000001,0.0,0.47962683,0.28974992,0.16927715,0.07206541,inf,inf,inf,inf,inf,1,1,1,1,5,5,2,1,2,1,1,1,0,5,0,0
1592700000,1592696000,66708000,47.398166100000005,8.5470148,-46.25795,-106.06008,-488.15353,86876.08,2880536.2,0.0,-0.05621817,-0.0027631496,-0.008951283,0.006564178,-0.0035367864,-0.0033599276,2.4400651e-05,-0.024709357,0.013928878,0.08550053,1.5681956,0.007007382,-0.0023757443,0.03802982,8.572337e-05,0.0,0.1000061,0.010000001,0.0,0.48138705,0.29054007,0.1699728,0.07218378,inf,inf,inf,inf,inf,1,1,1,1,5,5,2,1,2,1,1,1,0,5,0,0
1592708000,1592704000,66708000,47.398166100000005,8.5470148,-46.258163,-106.060104,-488.1535,86876.08,2880536.2,0.0,-0.056581985,-0.003682145,-0.009189729,0.006300612,-0.0035367864,-0.0033599276,2.4400651e-05,-0.058435176,-0.11525123,-0.032635868,1.5682333,0.0070074783,-0.0023367628,0.03802982,8.577574e-05,0.0,0.1000061,0.010000001,0.0,0.48227194,0.29093608,0.17031996,0.0722429,inf,inf,inf,inf,inf,1,1,1,1,5,5,2,1,2,1,1,1,0,5,0,0
1592716000,1592712000,66708000,47.398166100000005,8.5470148,-46.25839,-106.06013,-488.15347,86876.08,2880536.2,0.0,-0.057442117,-0.0034516936,-0.009570246,0.005884285,-0.0035367864,-0.0033599276,2.4400651e-05,-0.12010543,0.028419038,-0.05013961,1.5681642,0.007007573,-0.002404116,0.03802982,8.582814e-05,0.0,0.1000061,0.010000001,0.0,0.48316002,0.29033846,0.17066495,0.07218584,inf,inf,inf,inf,inf,1,1,1,1,5,5,2,1,2,1,1,1,0,5,0,0
1592724000,1592720000,66708000,47.398166100000005,8.5470148,-46.25863,-106.06014,-488.15347,86876.08,2880536.2,0.0,-0.05812659,-0.0027439026,-0.00906726,0.0063489205,-0.0035367864,-0.0033599276,2.4400651e-05,-0.097796954,0.08807848,0.060384158,1.5680836,0.0070076673,-0.002483271,0.03802982,8.588059e-05,0.0,0.1000061,0.010000001,0.0,0.48405132,0.29073438,0.17101027,0.07224496,inf,inf,inf,inf,inf,1,1,1,1,5,5,2,1,2,1,1,1,0,5,0,0
1592740000,1592736000,66708000,47.398166100000005,8.5470148,-46.25913,-106.06018,-488.15344,86876.08,2880536.2,0.0,-0.058293067,-0.0037148127,-0.008046709,0.0072849137,-0.0035367864,-0.0033599276,2.4400651e-05,0.028644925,-0.11492933,0.064095475,1.5681365,0.0070072156,-0.0024270043,0.03802982,8.595868e-05,0.0,0.1000061,0.010000001,0.0,0.48582572,0.29152817,0.17166366,0.072363056,inf,inf,inf,inf,inf,1,1,1,1,5,5,2,1,2,1,1,1,0,5,0,0
1592748000,1592744000,66708000,47.398166100000005,8.5470148,-46.259384,-106.0602,-488.1534,86876.08,2880536.2,0.0,-0.05752844,-0.004050355,-0.007748377,0.0075372155,-0.0035367864,-0.0033599276,2.4400651e-05,0.08416567,-0.042430785,0.035045665,1.568082,0.00700731,-0.0024794564,0.03802982,8.601122e-05,0.0,0.1000061,0.010000001,0.0,0.48672637,0.291926,0.17201492,0.072422065,inf,inf,inf,inf,inf,1,1,1,1,5,5,2,1,2,1,1,1,0,5,0,0
1592756000,1592752000,66708000,47.398166100000005,8.5470148,-46.25964,-106.06023,-488.1534,86876.08,2880536.2,0.0,-0.05747396,-0.0038899053,-0.007789794,0.0074475007,-0.0035367864,-0.0033599276,2.4400651e-05,-0.00427112,0.019555757,-0.0073467377,1.5679728,0.0070074066,-0.002586387,0.03802982,8.6063825e-05,0.0,0.1000061,0.010000001,0.0,0.48763025,0.29232448,0.17236592,0.07248102,inf,inf,inf,inf,inf,1,1,1,1,5,5,2,1,2,1,1,1,0,5,0,0
1592764000,1592760000,66708000,47.398166100000005,8.5470148,-46.2599,-106.06025,-488.15338,86876.08,2880536.2,0.0,-0.0576452,-0.004268724,-0.0076384125,0.00754855,-0.0035367864,-0.0033599276,2.4400651e-05,-0.03217202,-0.04786298,0.016827134,1.5678589,0.007007501,-0.0026982054,0.03802982,8.6116444e-05,0.0,0.1000061,0.010000001,0.0,0.48853737,0.29272357,0.17271934,0.07253994,inf,inf,inf,inf,inf,1,1,1,1,5,5,2,1,2,1,1,1,0,5,0,0
1592780000,1592776000,66708000,47.398166100000005,8.5470148,-46.26045,-106.0603,-488.15335,86876.08,2880536.2,0.0,-0.05851602,-0.0049939333,-0.0070342687,0.008045946,-0.0035367864,-0.0033599276,2.4400651e-05,-0.033704452,-0.064702086,0.03603054,1.5678301,0.007007692,-0.002722405,0.03802982,8.622183e-05,0.0,0.1000061,0.010000001,0.0,0.49036133,0.29352367,0.17342553,0.07265766,inf,inf,inf,inf,inf,1,1,1,1,5,5,2,1,2,1,1,1,0,5,0,0
1592788000,1592784000,66708000,47.398166100000005,8.5470148,-46.260735,-106.06033,-488.15335,86876.08,2880536.2,0.0,-0.058732502,-0.006246268,-0.00726195,0.0077524106,-0.0035367864,-0.0033599276,2.4400651e-05,-0.036920916,-0.15706517,-0.03016414,1.5677702,0.007007789,-0.0027802214,0.03802982,8.6274595e-05,0.0,0.1000061,0.010000001,0.0,0.49127814,0.29290366,0.17378081,0.07259636,inf,inf,inf,inf,inf,1,1,1,1,5,5,2,1,2,1,1,1,0,5,0,0
1592796000,1592792000,66708000,47.398166100000005,8.5470148,-46.26051,-106.06038,-488.1532,86876.08,2880536.2,0.0,-0.058761235,-0.006991507,-0.0070582433,0.008050144,-0.0035367864,-0.0033599276,2.4400651e-05,-0.04557529,-0.09402464,0.019382218,1.5676548,0.0070072156,-0.0028935894,0.03802982,8.395106e-05,0.0,0.1000061,0.010000001,0.0,0.4514682,0.27987832,0.15777151,0.07039792,inf,inf,inf,inf,inf,1,1,1,1,5,5,2,1,2,1,1,1,0,5,0,0
1592804000,1592800000,66708000,47.398166100000005,8.5470148,-46.260296,-106.06043,-488.15305,86876.08,2880536.2,0.0,-0.058934987,-0.0067986287,-0.007303351,0.0078923,-0.0035367864,-0.0033599276,2.4400651e-05,-0.063686475,0.02389877,-0.03653066,1.5676479,0.007006676,-0.0028994307,0.03802982,8.397871e-05,0.0,0.1000061,0.010000001,0.0,0.452232,0.28025568,0.15806618,0.07045827,inf,inf,inf,inf,inf,1,1,1,1,5,5,2,1,2,1,1,1,0,5,0,0
1592820000,1592816000,66708000,47.398166100000005,8.5470148,-46.259922,-106.060524,-488.15277,86876.08,2880536.2,0.0,-0.05943438,-0.006142272,-0.007941786,0.0074083633,-0.0035367864,-0.0033599276,2.4400651e-05,-0.12262191,0.04121221,-0.033409797,1.567775,0.0070068655,-0.0027740225,0.03802982,8.4080806e-05,0.0,0.1000061,0.010000001,0.0,0.45378846,0.28101236,0.15873271,0.07057891,inf,inf,inf,inf,inf,1,1,1,1,5,5,2,1,2,1,1,1,0,5,0,0
1592828000,1592824000,66708000,47.398166100000005,8.5470148,-46.259766,-106.06057,-488.15265,86876.08,2880536.2,0.0,-0.059855122,-0.006656547,-0.008155315,0.007262502,-0.0035367864,-0.0033599276,2.4400651e-05,-0.09116929,-0.06452146,-0.03205379,1.5678256,0.007006963,-0.002724193,0.03802982,8.413193e-05,0.0,0.1000061,0.010000001,0.0,0.4545712,0.28139165,0.15906766,0.07063916,inf,inf,inf,inf,inf,1,1,1,1,5,5,2,1,2,1,1,1,0,5,0,0
1592836000,1592832000,66708000,47.398166100000005,8.5470148,-46.259624,-106.06061,-488.15253,86876.08,2880536.2,0.0,-0.059387874,-0.00597599,-0.007254809,0.008224555,-0.0035367864,-0.0033599276,2.4400651e-05,0.020889036,0.084821425,0.107366584,1.5679008,0.0070070582,-0.0026499256,0.03802982,8.418308e-05,0.0,0.1000061,0.010000001,0.0,0.45535693,0.2817716,0.15940101,0.070699364,inf,inf,inf,inf,inf,1,1,1,1,5,5,2,1,2,1,1,1,0,5,0,0
1592844000,1592840000,66708000,47.398166100000005,8.5470148,-46.25949,-106.060646,-488.15237,86876.08,2880536.2,0.0,-0.059100423,-0.005496968,-0.0065989355,0.0089360485,-0.0035367864,-0.0033599276,2.4400651e-05,-0.00080085825,0.05956436,0.07694913,1.5678769,0.0070070387,-0.0026748404,0.03802982,8.4229876e-05,0.0,0.1000061,0.010000001,0.0,0.45614418,0.2821522,0.15972967,0.070759505,inf,inf,inf,inf,inf,1,1,1,1,5,5,2,1,2,1,1,1,0,5,0,0
1592860000,1592856000,66708000,47.398166100000005,8.5470148,-46.25926,-106.06072,-488.15213,86876.08,2880536.2,0.0,-0.057624917,-0.005823396,-0.005670115,0.009948915,-0.0035367864,-0.0033599276,2.4400651e-05,0.02051677,-0.07364609,0.026339663,1.5679116,0.0070072315,-0.002642177,0.03802982,8.4332365e-05,0.0,0.1000061,0.010000001,0.0,0.4577307,0.2820045,0.16039987,0.07077611,inf,inf,inf,inf,inf,1,1,1,1,5,5,2,1,2,1,1,1,0,5,0,0
1592868000,1592864000,66708000,47.398166100000005,8.5470148,-46.25916,-106.06076,-488.15204,86876.08,2880536.2,0.0,-0.05742974,-0.005906016,-0.0055590714,0.010089153,-0.0035367864,-0.0033599276,2.4400651e-05,-0.009376539,-0.010675498,0.009500886,1.5679048,0.007007329,-0.002650164,0.03802982,8.4383675e-05,0.0,0.1000061,0.010000001,0.0,0.45852852,0.28238583,0.16073832,0.07083623,inf,inf,inf,inf,inf,1,1,1,1,5,5,2,1,2,1,1,1,0,5,0,0
1592876000,1592872000,66708000,47.398166100000005,8.5470148,-46.25907,-106.0608,-488.15192,86876.08,2880536.2,0.0,-0.05730538,-0.0059539913,-0.00595663,0.009715915,-0.0035367864,-0.0033599276,2.4400651e-05,-0.017100869,-0.0063392213,-0.05393661,1.5678501,0.007006792,-0.0027057156,0.03802982,8.441091e-05,0.0,0.1000061,0.010000001,0.0,0.45931786,0.28276777,0.16103822,0.070896305,inf,inf,inf,inf,inf,1,1,1,1,5,5,2,1,2,1,1,1,0,5,0,0
1592884000,1592880000,66708000,47.398166100000005,8.5470148,-46.259,-106.06083,-488.15182,86876.08,2880536.2,0.0,-0.057625514,-0.0052738367,-0.005905709,0.009786322,-0.0035367864,-0.0033599276,2.4400651e-05,-0.07175786,0.0846765,0.0022575257,1.5678915,0.0070068883,-0.002665542,0.03802982,8.446228e-05,0.0,0.1000061,0.010000001,0.0,0.4601216,0.28315037,0.16137382,0.070956334,inf,inf,inf,inf,inf,1,1,1,1,5,5,2,1,2,1,1,1,0,5,0,0
1592900000,1592896000,66708000,47.398166100000005,8.5470148,-46.258896,-106.0609,-488.15164,86876.08,2880536.2,0.0,-0.057009984,-0.005270066,-0.0062142056,0.009502472,-0.0035367864,-0.0033599276,2.4400651e-05,0.06998046,0.004213772,0.00804616,1.5678104,0.00700708,-0.002749227,0.03802982,8.456512e-05,0.0,0.1000061,0.010000001,0.0,0.46173817,0.28391752,0.16204463,0.07107622,inf,inf,inf,inf,inf,1,1,1,1,5,5,2,1,2,1,1,1,0,5,0,0
1592908000,1592904000,66708000,47.398166100000005,8.5470148,-46.258858,-106.06093,-488.15155,86876.08,2880536.2,0.0,-0.057042684,-0.0053726174,-0.0054661604,0.010255874,-0.0035367864,-0.0033599276,2.4400651e-05,-0.0332841,-0.013171171,0.08977576,1.5677797,0.0070071756,-0.0027814135,0.03802982,8.46166e-05,0.0,0.1000061,0.010000001,0.0,0.4625511,0.28430203,0.16238253,0.07113611,inf,inf,inf,inf,inf,1,1,1,1,5,5,2,1,2,1,1,1,0,5,0,0
1592916000,1592912000,66708000,47.398166100000005,8.5470148,-46.258827,-106.06096,-488.15146,86876.08,2880536.2,0.0,-0.056492925,-0.0052714054,-0.0057363594,0.009986581,-0.0035367864,-0.0033599276,2.4400651e-05,0.040326152,0.012282504,-0.037385613,1.5677464,0.007007271,-0.0028161034,0.03802982,8.4668114e-05,0.0,0.1000061,0.010000001,0.0,0.46336702,0.2846872,0.16272074,0.07119596,inf,inf,inf,inf,inf,1,1,1,1,5,5,2,1,2,1,1,1,0,5,0,0
1592924000,1592920000,66708000,47.398166100000005,8.5470148,-46.25881,-106.06099,-488.1514,86876.08,2880536.2,0.0,-0.056014705,-0.0051865517,-0.0063041435,0.009415355,-0.0035367864,-0.0033599276,2.4400651e-05,0.032167412,0.010229834,-0.074467614,1.5676494,0.0070073665,-0.0029148087,0.03802982,8.471967e-05,0.0,0.1000061,0.010000001,0.0,0.46418604,0.285073,0.16305941,0.07125577,inf,inf,inf,inf,inf,1,1,1,1,5,5,2,1,2,1,1,1,0,5,0,0
1592940000,1592936000,66708000,47.398166100000005,8.5470148,-46.258804,-106.06105,-488.15128,86876.08,2880536.2,0.0,-0.056210693,-0.004864839,-0.006716317,0.008983641,-0.0035367864,-0.0033599276,2.4400651e-05,0.02542452,0.05086188,0.008669681,1.567707,0.0070075593,-0.00286033,0.03802982,8.482292e-05,0.0,0.1000061,0.010000001,0.0,0.46583334,0.28490975,0.16373952,0.071268015,inf,inf,inf,inf,inf,1,1,1,1,5,5,2,1,2,1,1,1,0,5,0,0
1592948000,1592944000,66708000,47.398166100000005,8.5470148,-46.258816,-106.06108,-488.1512,86876.08,2880536.2,0.0,-0.056594536,-0.0055222,-0.006688801,0.008995357,-0.0035367864,-0.0033599276,2.4400651e-05,-0.0737279,-0.082059816,0.0002668239,1.5676945,0.00700702,-0.0028743967,0.03802982,8.48497e-05,0.0,0.1000061,0.010000001,0.0,0.46664846,0.28529623,0.1640428,0.071327776,inf,inf,inf,inf,inf,1,1,1,1,5,5,2,1,2,1,1,1,0,5,0,0
1592956000,1592952000,66708000,47.398166100000005,8.5470148,-46.258835,-106.06112,-488.15115,86876.08,2880536.2,0.0,-0.056179237,-0.006364613,-0.0065728254,0.009091726,-0.0035367864,-0.0033599276,2.4400651e-05,0.02687114,-0.10520441,0.011427793,1.5677571,0.007007117,-0.0028149113,0.03802982,8.490141e-05,0.0,0.1000061,0.010000001,0.0,0.46747965,0.28568333,0.16438448,0.0713875,inf,inf,inf,inf,inf,1,1,1,1,5,5,2,1,2,1,1,1,0,5,0,0
1592964000,1592960000,66708000,47.398166100000005,8.5470148,-46.258865,-106.061165,-488.1511,86876.08,2880536.2,0.0,-0.056322895,-0.0069732103,-0.006265162,0.009376208,-0.0035367864,-0.0033599276,2.4400651e-05,-0.042312846,-0.07598576,0.035488974,1.5678493,0.0070072124,-0.0027259812,0.03802982,8.495315e-05,0.0,0.1000061,0.010000001,0.0,0.46831393,0.2860711,0.16472664,0.07144717,inf,inf,inf,inf,inf,1,1,1,1,5,5,2,1,2,1,1,1,0,5,0,0
1592980000,1592976000,66708000,47.398166100000005,8.5470148,-46.25896,-106.06125,-488.151,86876.08,2880536.2,0.0,-0.05615503,-0.006758702,-0.00541278,0.010172372,-0.0035367864,-0.0033599276,2.4400651e-05,0.02675452,-0.014272749,0.09500375,1.567985,0.0070074033,-0.0025969967,0.03802982,8.505674e-05,0.0,0.1000061,0.010000001,0.0,0.46999186,0.28684852,0.16541329,0.07156642,inf,inf,inf,inf,inf,1,1,1,1,5,5,2,1,2,1,1,1,0,5,0,0
1592988000,1592984000,66708000,47.398166100000005,8.5470148,-46.259018,-106.0613,-488.15094,86876.08,2880536.2,0.0,-0.05501344,-0.0073196515,-0.0052354657,0.01031688,-0.0035367864,-0.0033599276,2.4400651e-05,0.12030926,-0.07005424,0.019479541,1.567908,0.0070074988,-0.0026773438,0.03802982,8.510859e-05,0.0,0.1000061,0.010000001,0.0,0.4708355,0.2872382,0.16575105,0.07162595,inf,inf,inf,inf,inf,1,1,1,1,5,5,2,1,2,1,1,1,0,5,0,0
1592996000,1592992000,66708000,47.398166100000005,8.5470148,-46.259075,-106.06135,-488.15088,86876.08,2880536.2,0.0,-0.054592606,-0.0077878367,-0.004841675,0.010674676,-0.0035367864,-0.0033599276,2.4400651e-05,0.030836482,-0.05847658,0.046628058,1.5679739,0.007007594,-0.002614759,0.03802982,8.516049e-05,0.0,0.1000061,0.010000001,0.0,0.47168225,0.2876285,0.16609055,0.07168545,inf,inf,inf,inf,inf,1,1,1,1,5,5,2,1,2,1,1,1,0,5,0,0
1593004000,1593000000,66708000,47.398166100000005,8.5470148,-46.259144,-106.0614,-488.15082,86876.08,2880536.2,0.0,-0.054383896,-0.008037057,-0.0046166265,0.01088631,-0.0035367864,-0.0033599276,2.4400651e-05,0.0049331626,-0.031119592,0.025079118,1.5679735,0.0070076915,-0.0026185736,0.03802982,8.521245e-05,0.0,0.1000061,0.010000001,0.0,0.47253212,0.28705862,0.16642946,0.071633756,inf,inf,inf,inf,inf,1,1,1,1,5,5,2,1,2,1,1,1,0,5,0,0
1593020000,1593016000,66708000,47.398166100000005,8.5470148,-46.259296,-106.061516,-488.15067,86876.08,2880536.2,0.0,-0.05437945,-0.009348542,-0.0037825492,0.011684086,-0.0035367864,-0.0033599276,2.4400651e-05,-0.02864239,-0.081796035,0.043863427,1.5680125,0.007007253,-0.0025861487,0.03802982,8.529078e-05,0.0,0.1000061,0.010000001,0.0,0.4742263,0.2878398,0.16707622,0.071752705,inf,inf,inf,inf,inf,1,1,1,1,5,5,2,1,2,1,1,1,0,5,0,0
1593028000,1593024000,66708000,47.398166100000005,8.5470148,-46.259388,-106.061584,-488.15057,86876.08,2880536.2,0.0,-0.054338686,-0.009862494,-0.0038029053,0.011641082,-0.0035367864,-0.0033599276,2.4400651e-05,-0.014423918,-0.06419927,-0.00530621,1.5679673,0.00700735,-0.0026350245,0.03802982,8.5342836e-05,0.0,0.1000061,0.010000001,0.0,0.4750854,0.28823134,0.16742164,0.071812116,inf,inf,inf,inf,inf,1,1,1,1,5,5,2,1,2,1,1,1,0,5,0,0
1593036000,1593032000,66708000,47.398166100000005,8.5470148,-46.259487,-106.06165,-488.1505,86876.08,2880536.2,0.0,-0.053802863,-0.009760173,-0.0033768208,0.0120417345,-0.0035367864,-0.0033599276,2.4400651e-05,0.0479994,0.012824056,0.05059037,1.5679797,0.0070074475,-0.0026259646,0.03802982,8.539493e-05,0.0,0.1000061,0.010000001,0.0,0.47594762,0.28862354,0.16776587,0.0718715,inf,inf,inf,inf,inf,1,1,1,1,5,5,2,1,2,1,1,1,0,5,0,0
1593044000,1593040000,66708000,47.398166100000005,8.5470148,-46.25959,-106.06171,-488.15042,86876.08,2880536.2,0.0,-0.053822402,-0.0098243095,-0.0030596848,0.0123298345,-0.0035367864,-0.0033599276,2.4400651e-05,-0.020915907,-0.008714274,0.03706058,1.5680462,0.00700743,-0.0025626644,0.03802982,8.544229e-05,0.0,0.1000061,0.010000001,0.0,0.47681084,0.28901637,0.1681061,0.07193084,inf,inf,inf,inf,inf,1,1,1,1,5,5,2,1,2,1,1,1,0,5,0,0
1593060000,1593056000,66708000,47.398166100000005,8.5470148,-46.259827,-106.06184,-488.1503,86876.08,2880536.2,0.0,-0.054916784,-0.010692376,-0.0022509473,0.013069251,-0.0035367864,-0.0033599276,2.4400651e-05,-0.117518,-0.05459684,0.029032117,1.5679743,0.0070076208,-0.0026433691,0.03802982,8.554661e-05,0.0,0.1000061,0.010000001,0.0,0.478551,0.28882515,0.16879277,0.07193553,inf,inf,inf,inf,inf,1,1,1,1,5,5,2,1,2,1,1,1,0,5,0,0
1593068000,1593064000,66708000,47.398166100000005,8.5470148,-46.259964,-106.061905,-488.1502,86876.08,2880536.2,0.0,-0.054819096,-0.0109107345,-0.0026112047,0.012669824,-0.0035367864,-0.0033599276,2.4400651e-05,-0.0047462373,-0.02796815,-0.04732329,1.5680147,0.007007716,-0.0026072487,0.03802982,8.559883e-05,0.0,0.1000061,0.010000001,0.0,0.47942585,0.28921854,0.16913903,0.071994804,inf,inf,inf,inf,inf,1,1,1,1,5,5,2,1,2,1,1,1,0,5,0,0
1593076000,1593072000,66708000,47.398166100000005,8.5470148,-46.260113,-106.06197,-488.15015,86876.08,2880536.2,0.0,-0.055748135,-0.011115909,-0.0030607693,0.012178012,-0.0035367864,-0.0033599276,2.4400651e-05,-0.1326069,-0.026304377,-0.05840929,1.5679398,0.0070078117,-0.002686523,0.03802982,8.5651096e-05,0.0,0.1000061,0.010000001,0.0,0.48030385,0.28961256,0.16948694,0.07205404,inf,inf,inf,inf,inf,1,1,1,1,5,5,2,1,2,1,1,1,0,5,0,0
1593084000,1593080000,66708000,47.398166100000005,8.5470148,-46.260265,-106.06204,-488.15012,86876.08,2880536.2,0.0,-0.055812977,-0.0103336675,-0.0034102052,0.011783513,-0.0035367864,-0.0033599276,2.4400651e-05,-0.024643697,0.0971915,-0.04581641,1.5679908,0.0070072785,-0.0026400313,0.03802982,8.567704e-05,0.0,0.1000061,0.010000001,0.0,0.48116848,0.29000723,0.16979621,0.07211326,inf,inf,inf,inf,inf,1,1,1,1,5,5,2,1,2,1,1,1,0,5,0,0
1593100000,1593096000,66708000,47.398166100000005,8.5470148,-46.260605,-106.06218,-488.15,86876.08,2880536.2,0.0,-0.05714878,-0.010386839,-0.0033949914,0.011700761,-0.0035367864,-0.0033599276,2.4400651e-05,-0.12959033,0.032180794,-0.032828186,1.5681332,0.0070074713,-0.0025065169,0.03802982,8.5781736e-05,0.0,0.1000061,0.010000001,0.0,0.48294002,0.2907985,0.17049034,0.07223155,inf,inf,inf,inf,inf,1,1,1,1,5,5,2,1,2,1,1,1,0,5,0,0
1593108000,1593104000,66708000,47.398166100000005,8.5470148,-46.26079,-106.06224,-488.14996,86876.08,2880536.2,0.0,-0.057631955,-0.0101882955,-0.0033701395,0.0116728945,-0.0035367864,-0.0033599276,2.4400651e-05,-0.07556505,0.02424145,0.0011823139,1.56813,0.0070075686,-0.0025143847,0.03802982,8.583415e-05,0.0,0.1000061,0.010000001,0.0,0.48383057,0.29119503,0.17083777,0.07229063,inf,inf,inf,inf,inf,1,1,1,1,5,5,2,1,2,1,1,1,0,5,0,0
1593116000,1593112000,66708000,47.398166100000005,8.5470148,-46.260994,-106.0623,-488.1499,86876.08,2880536.2,0.0,-0.058277104,-0.0096567655,-0.0035906225,0.011397285,-0.0035367864,-0.0033599276,2.4400651e-05,-0.0953755,0.06587042,-0.029417684,1.5681461,0.007007666,-0.0025028214,0.03802982,8.588661e-05,0.0,0.1000061,0.010000001,0.0,0.48472434,0.29159224,0.17118545,0.07234968,inf,inf,inf,inf,inf,1,1,1,1,5,5,2,1,2,1,1,1,0,5,0,0
1593124000,1593120000,66708000,47.398166100000005,8.5470148,-46.261208,-106.062355,-488.1499,86876.08,2880536.2,0.0,-0.059136372,-0.00933399,-0.0035310434,0.011381524,-0.0035367864,-0.0033599276,2.4400651e-05,-0.1217203,0.039780516,0.0060242596,1.5681939,0.0070077614,-0.0024594292,0.03802982,8.593909e-05,0.0,0.1000061,0.010000001,0.0,0.4856213,0.29098904,0.17153388,0.07229151,inf,inf,inf,inf,inf,1,1,1,1,5,5,2,1,2,1,1,1,0,5,0,0
1593140000,1593136000,66708000,47.398166100000005,8.5470148,-46.26167,-106.06247,-488.14984,86876.08,2880536.2,0.0,-0.059977345,-0.009013227,-0.0024518103,0.012305896,-0.0035367864,-0.0033599276,2.4400651e-05,-0.024564004,0.031232163,0.04772795,1.5682346,0.0070079523,-0.0024271235,0.03802982,8.604418e-05,0.0,0.1000061,0.010000001,0.0,0.48742485,0.29178387,0.1722272,0.072409526,inf,inf,inf,inf,inf,1,1,1,1,5,5,2,1,2,1,1,1,0,5,0,0
1593148000,1593144000,66708000,47.398166100000005,8.5470148,-46.261913,-106.06252,-488.1498,86876.08,2880536.2,0.0,-0.0604513,-0.009180322,-0.0020147115,0.012664392,-0.0035367864,-0.0033599276,2.4400651e-05,-0.07233832,-0.021444794,0.053366177,1.5681872,0.007008048,-0.002478622,0.03802982,8.6096785e-05,0.0,0.1000061,0.010000001,0.0,0.4883314,0.29218224,0.17257535,0.07246848,inf,inf,inf,inf,inf,1,1,1,1,5,5,2,1,2,1,1,1,0,5,0,0
1593156000,1593152000,66708000,47.398166100000005,8.5470148,-46.262165,-106.06258,-488.1498,86876.08,2880536.2,0.0,-0.06110361,-0.009429923,-0.0017210316,0.0128786545,-0.0035367864,-0.0033599276,2.4400651e-05,-0.09462244,-0.03210458,0.035487577,1.5681443,0.0070075127,-0.0025255904,0.03802982,8.612225e-05,0.0,0.1000061,0.010000001,0.0,0.48922262,0.29258123,0.17288244,0.0725274,inf,inf,inf,inf,inf,1,1,1,1,5,5,2,1,2,1,1,1,0,5,0,0
1593164000,1593160000,66708000,47.398166100000005,8.5470148,-46.26243,-106.06263,-488.14978,86876.08,2880536.2,0.0,-0.06154393,-0.009778174,-0.0017391316,0.01278029,-0.0035367864,-0.0033599276,2.4400651e-05,-0.06773841,-0.04443007,-0.0034384427,1.568139,0.007007608,-0.0025342926,0.03802982,8.6174914e-05,0.0,0.1000061,0.010000001,0.0,0.4901354,0.29298085,0.17323154,0.07258628,inf,inf,inf,inf,inf,1,1,1,1,5,5,2,1,2,1,1,1,0,5,0,0
1593180000,1593176000,66708000,47.398166100000005,8.5470148,-46.262974,-106.06275,-488.14972,86876.08,2880536.2,0.0,-0.061427034,-0.011010685,-0.0015951794,0.012761032,-0.0035367864,-0.0033599276,2.4400651e-05,-0.004618914,-0.08061117,-0.019041354,1.5681134,0.007007799,-0.0025661215,0.03802982,8.628036e-05,0.0,0.1000061,0.010000001,0.0,0.49197072,0.293782,0.17393325,0.072703935,inf,inf,inf,inf,inf,1,1,1,1,5,5,2,1,2,1,1,1,0,5,0,0
1593188000,1593184000,66708000,47.398166100000005,8.5470148,-46.263252,-106.06282,-488.1497,86876.08,2880536.2,0.0,-0.061339073,-0.011518822,-0.0020029556,0.0122703295,-0.0035367864,-0.0033599276,2.4400651e-05,-0.0006119398,-0.06437225,-0.05201669,1.5680821,0.0070078964,-0.002600573,0.03802982,8.633315e-05,0.0,0.1000061,0.010000001,0.0,0.4928932,0.29418352,0.17428254,0.07276269,inf,inf,inf,inf,inf,1,1,1,1,5,5,2,1,2,1,1,1,0,5,0,0
1593196000,1593192000,66708000,47.398166100000005,8.5470148,-46.263035,-106.06271,-488.14957,86876.08,2880536.2,0.0,-0.061129685,-0.011541866,-0.0023523096,0.011961718,-0.0035367864,-0.0033599276,2.4400651e-05,-0.016154563,-0.014870495,-0.04793284,1.5681262,0.007007371,-0.002559565,0.03802982,8.3991035e-05,0.0,0.1000061,0.010000001,0.0,0.45264557,0.28009757,0.15811956,0.07043653,inf,inf,inf,inf,inf,1,1,1,1,5,5,2,1,2,1,1,1,0,5,0,0
1593204000,1593200000,66708000,47.398166100000005,8.5470148,-46.262836,-106.062614,-488.1494,86876.08,2880536.2,0.0,-0.061000243,-0.0114774825,-0.0016397691,0.012709443,-0.0035367864,-0.0033599276,2.4400651e-05,-0.02496313,-0.003626709,0.084938474,1.5681404,0.0070074666,-0.002549313,0.03802982,8.4042054e-05,0.0,0.1000061,0.010000001,0.0,0.45342362,0.2804754,0.15845132,0.07049689,inf,inf,inf,inf,inf,1,1,1,1,5,5,2,1,2,1,1,1,0,5,0,0
1593220000,1593216000,66708000,47.398166100000005,8.5470148,-46.26248,-106.06242,-488.14917,86876.08,2880536.2,0.0,-0.060084883,-0.011810294,-0.001606569,0.012796798,-0.0035367864,-0.0033599276,2.4400651e-05,0.03262314,-0.061299838,0.026923602,1.5680841,0.007007663,-0.00261309,0.03802982,8.4144296e-05,0.0,0.1000061,0.010000001,0.0,0.45498872,0.28123298,0.15912047,0.07061747,inf,inf,inf,inf,inf,1,1,1,1,5,5,2,1,2,1,1,1,0,5,0,0
1593228000,1593224000,66708000,47.398166100000005,8.5470148,-46.262318,-106.06234,-488.14905,86876.08,2880536.2,0.0,-0.059875652,-0.01252825,-0.0012350314,0.013187791,-0.0035367864,-0.0033599276,2.4400651e-05,-0.012727268,-0.10058419,0.042696945,1.5680298,0.0070071355,-0.002671145,0.03802982,8.4171785e-05,0.0,0.1000061,0.010000001,0.0,0.45576504,0.28161275,0.1594235,0.0706777,inf,inf,inf,inf,inf,1,1,1,1,5,5,2,1,2,1,1,1,0,5,0,0
1593236000,1593232000,66708000,47.398166100000005,8.5470148,-46.262165,-106.062256,-488.14893,86876.08,2880536.2,0.0,-0.059824307,-0.012690932,-0.0014307833,0.013006788,-0.0035367864,-0.0033599276,2.4400651e-05,-0.031390443,-0.030892877,-0.028095206,1.5680509,0.007007231,-0.0026533827,0.03802982,8.422295e-05,0.0,0.1000061,0.010000001,0.0,0.45655495,0.28199315,0.15975872,0.070737876,inf,inf,inf,inf,inf,1,1,1,1,5,5,2,1,2,1,1,1,0,5,0,0
1593244000,1593240000,66708000,47.398166100000005,8.5470148,-46.262035,-106.06219,-488.1488,86876.08,2880536.2,0.0,-0.05987998,-0.012954483,-0.000822518,0.01362527,-0.0035367864,-0.0033599276,2.4400651e-05,-0.04333872,-0.043293506,0.07252208,1.5680305,0.007007211,-0.0026771054,0.03802982,8.426975e-05,0.0,0.1000061,0.010000001,0.0,0.45734635,0.28237423,0.16008785,0.07079801,inf,inf,inf,inf,inf,1,1,1,1,5,5,2,1,2,1,1,1,0,5,0,0
1593260000,1593256000,66708000,47.398166100000005,8.5470148,-46.26182,-106.06206,-488.14856,86876.08,2880536.2,0.0,-0.059791967,-0.013031714,-0.00030476364,0.014150519,-0.0035367864,-0.0033599276,2.4400651e-05,0.007617478,-0.010725015,0.054362226,1.5680209,0.0070074047,-0.0026926026,0.03802982,8.437228e-05,0.0,0.1000061,0.010000001,0.0,0.45894125,0.2831383,0.16076113,0.07091817,inf,inf,inf,inf,inf,1,1,1,1,5,5,2,1,2,1,1,1,0,5,0,0
1593268000,1593264000,66708000,47.398166100000005,8.5470148,-46.26173,-106.062,-488.14847,86876.08,2880536.2,0.0,-0.059486937,-0.013734798,-0.00046621982,0.013978758,-0.0035367864,-0.0033599276,2.4400651e-05,0.004719296,-0.0974578,-0.023197846,1.568149,0.0070075,-0.002567552,0.03802982,8.44236e-05,0.0,0.1000061,0.010000001,0.0,0.4597433,0.2826046,0.1610985,0.07087369,inf,inf,inf,inf,inf,1,1,1,1,5,5,2,1,2,1,1,1,0,5,0,0
1593276000,1593272000,66708000,47.398166100000005,8.5470148,-46.261658,-106.06195,-488.14835,86876.08,2880536.2,0.0,-0.059762143,-0.014735647,-0.000822724,0.013608388,-0.0035367864,-0.0033599276,2.4400651e-05,-0.06687859,-0.134436,-0.047480218,1.5682425,0.0070075975,-0.0024768338,0.03802982,8.447497e-05,0.0,0.1000061,0.010000001,0.0,0.4605483,0.282987,0.16143571,0.07093374,inf,inf,inf,inf,inf,1,1,1,1,5,5,2,1,2,1,1,1,0,5,0,0
1593284000,1593280000,66708000,47.398166100000005,8.5470148,-46.261597,-106.06191,-488.14825,86876.08,2880536.2,0.0,-0.05933856,-0.014453717,-0.00070621516,0.013707505,-0.0035367864,-0.0033599276,2.4400651e-05,0.021381933,0.026149055,0.011742114,1.568218,0.007007693,-0.0025041327,0.03802982,8.452636e-05,0.0,0.1000061,0.010000001,0.0,0.4613564,0.28337005,0.16177113,0.070993744,inf,inf,inf,inf,inf,1,1,1,1,5,5,2,1,2,1,1,1,0,5,0,0
1593300000,1593296000,66708000,47.398166100000005,8.5470148,-46.2615,-106.06184,-488.14807,86876.08,2880536.2,0.0,-0.05851691,-0.014605615,-0.00047830582,0.013890056,-0.0035367864,-0.0033599276,2.4400651e-05,0.025966333,-0.03932228,-0.0006644986,1.5681987,0.0070072655,-0.0025283322,0.03802982,8.460489e-05,0.0,0.1000061,0.010000001,0.0,0.46296945,0.28413805,0.162408,0.07111361,inf,inf,inf,inf,inf,1,1,1,1,5,5,2,1,2,1,1,1,0,5,0,0
1593308000,1593304000,66708000,47.398166100000005,8.5470148,-46.26147,-106.061806,-488.148,86876.08,2880536.2,0.0,-0.05912545,-0.0143410275,-0.00036659517,0.013974839,-0.0035367864,-0.0033599276,2.4400651e-05,-0.10551113,0.024676614,0.011413823,1.5681728,0.007007361,-0.0025565848,0.03802982,8.4656385e-05,0.0,0.1000061,0.010000001,0.0,0.46378654,0.28452304,0.16274603,0.07117349,inf,inf,inf,inf,inf,1,1,1,1,5,5,2,1,2,1,1,1,0,5,0,0
1593316000,1593312000,66708000,47.398166100000005,8.5470148,-46.261456,-106.061775,-488.14792,86876.08,2880536.2,0.0,-0.05956893,-0.01401393,-0.00040930358,0.013902769,-0.0035367864,-0.0033599276,2.4400651e-05,-0.08406242,0.03269895,-0.0078035514,1.5681545,0.0070074564,-0.002577208,0.03802982,8.470791e-05,0.0,0.1000061,0.010000001,0.0,0.46460667,0.28490862,0.1630854,0.07123332,inf,inf,inf,inf,inf,1,1,1,1,5,5,2,1,2,1,1,1,0,5,0,0
1593324000,1593320000,66708000,47.398166100000005,8.5470148,-46.261456,-106.061745,-488.14783,86876.08,2880536.2,0.0,-0.059516292,-0.014312162,-0.00018421734,0.0140941385,-0.0035367864,-0.0033599276,2.4400651e-05,-0.021247312,-0.045260206,0.025793443,1.5681151,0.007007552,-0.0026189312,0.03802982,8.4759486e-05,0.0,0.1000061,0.010000001,0.0,0.4654299,0.28436092,0.16342358,0.07118597,inf,inf,inf,inf,inf,1,1,1,1,5,5,2,1,2,1,1,1,0,5,0,0
1593340000,1593336000,66708000,47.398166100000005,8.5470148,-46.26149,-106.06171,-488.14767,86876.08,2880536.2,0.0,-0.05929916,-0.014667229,-0.0009339843,0.01327042,-0.0035367864,-0.0033599276,2.4400651e-05,0.015682643,-0.037201993,-0.04433747,1.5683167,0.0070077465,-0.002421163,0.03802982,8.486278e-05,0.0,0.1000061,0.010000001,0.0,0.4670856,0.28513283,0.16410533,0.07130555,inf,inf,inf,inf,inf,1,1,1,1,5,5,2,1,2,1,1,1,0,5,0,0
1593348000,1593344000,66708000,47.398166100000005,8.5470148,-46.261524,-106.06168,-488.1476,86876.08,2880536.2,0.0,-0.05972014,-0.014433226,-0.0007017215,0.013461816,-0.0035367864,-0.0033599276,2.4400651e-05,-0.07819531,0.02185278,0.026919411,1.5683161,0.007007844,-0.0024235472,0.03802982,8.491449e-05,0.0,0.1000061,0.010000001,0.0,0.46791807,0.28551972,0.16444695,0.07136528,inf,inf,inf,inf,inf,1,1,1,1,5,5,2,1,2,1,1,1,0,5,0,0
1593356000,1593352000,66708000,47.398166100000005,8.5470148,-46.26157,-106.06167,-488.14755,86876.08,2880536.2,0.0,-0.05927726,-0.014063256,-0.0015161568,0.012604705,-0.0035367864,-0.0033599276,2.4400651e-05,0.030505763,0.03903489,-0.10384572,1.5683903,0.007007941,-0.0023511872,0.03802982,8.496624e-05,0.0,0.1000061,0.010000001,0.0,0.46875367,0.28590727,0.16478506,0.07142497,inf,inf,inf,inf,inf,1,1,1,1,5,5,2,1,2,1,1,1,0,5,0,0
1593364000,1593360000,66708000,47.398166100000005,8.5470148,-46.261623,-106.06165,-488.1475,86876.08,2880536.2,0.0,-0.058893356,-0.013298874,-0.0012979268,0.012778468,-0.0035367864,-0.0033599276,2.4400651e-05,0.02383329,0.08851832,0.025307292,1.5683403,0.0070080366,-0.0024028048,0.03802982,8.5018015e-05,0.0,0.1000061,0.010000001,0.0,0.46959236,0.28629547,0.16512673,0.07148461,inf,inf,inf,inf,inf,1,1,1,1,5,5,2,1,2,1,1,1,0,5,0,0
1593380000,1593376000,66708000,47.398166100000005,8.5470148,-46.261738,-106.06162,-488.14737,86876.08,2880536.2,0.0,-0.057480514,-0.013872092,-0.00015418358,0.013828137,-0.0035367864,-0.0033599276,2.4400651e-05,0.051992353,-0.055919863,0.09930692,1.5683177,0.0070076054,-0.0024301037,0.03802982,8.509647e-05,0.0,0.1000061,0.010000001,0.0,0.4712649,0.28707376,0.16577043,0.07160377,inf,inf,inf,inf,inf,1,1,1,1,5,5,2,1,2,1,1,1,0,5,0,0
1593388000,1593384000,66708000,47.398166100000005,8.5470148,-46.261803,-106.061615,-488.14728,86876.08,2880536.2,0.0,-0.057430863,-0.013562271,-5.545233e-06,0.013938149,-0.0035367864,-0.0033599276,2.4400651e-05,-0.016335716,0.032724015,0.016571486,1.5683705,0.007007701,-0.0023802742,0.03802982,8.5148335e-05,0.0,0.1000061,0.010000001,0.0,0.47211275,0.2865085,0.16611366,0.071552925,inf,inf,inf,inf,inf,1,1,1,1,5,5,2,1,2,1,1,1,0,5,0,0
1593396000,1593392000,66708000,47.398166100000005,8.5470148,-46.26188,-106.06161,-488.14722,86876.08,2880536.2,0.0,-0.056871135,-0.013574486,-0.0006476275,0.01325541,-0.0035367864,-0.0033599276,2.4400651e-05,0.048055187,-0.0073751155,-0.082199454,1.5684593,0.0070077963,-0.0022944435,0.03802982,8.5200256e-05,0.0,0.1000061,0.010000001,0.0,0.4729637,0.28689796,0.16645451,0.071612485,inf,inf,inf,inf,inf,1,1,1,1,5,5,2,1,2,1,1,1,0,5,0,0
1593404000,1593400000,66708000,47.398166100000005,8.5470148,-46.26196,-106.06161,-488.14716,86876.08,2880536.2,0.0,-0.0563534,-0.013356488,-0.00071630714,0.013144046,-0.0035367864,-0.0033599276,2.4400651e-05,0.043414544,0.021545302,-0.010456889,1.5685076,0.0070078936,-0.0022487864,0.03802982,8.525222e-05,0.0,0.1000061,0.010000001,0.0,0.47381777,0.28728804,0.16679788,0.07167201,inf,inf,inf,inf,inf,1,1,1,1,5,5,2,1,2,1,1,1,0,5,0,0
1593420000,1593416000,66708000,47.398166100000005,8.5470148,-46.262146,-106.06159,-488.14703,86876.08,2880536.2,0.0,-0.05635912,-0.012821737,9.9505436e-05,0.013868525,-0.0035367864,-0.0033599276,2.4400651e-05,0.01949962,0.0157024,0.044682525,1.5685309,0.0070080883,-0.0022304282,0.03802982,8.5356296e-05,0.0,0.1000061,0.010000001,0.0,0.47553533,0.2880701,0.16748415,0.071790904,inf,inf,inf,inf,inf,1,1,1,1,5,5,2,1,2,1,1,1,0,5,0,0
1593428000,1593424000,66708000,47.398166100000005,8.5470148,-46.26225,-106.06159,-488.14694,86876.08,2880536.2,0.0,-0.05598098,-0.013268375,0.00021843707,0.013939008,-0.0035367864,-0.0033599276,2.4400651e-05,0.027717672,-0.06110491,0.013183801,1.5684979,0.0070081837,-0.0022659525,0.03802982,8.540836e-05,0.0,0.1000061,0.010000001,0.0,0.47639883,0.28846213,0.16783132,0.07185031,inf,inf,inf,inf,inf,1,1,1,1,5,5,2,1,2,1,1,1,0,5,0,0
1593436000,1593432000,66708000,47.398166100000005,8.5470148,-46.26236,-106.0616,-488.14688,86876.08,2880536.2,0.0,-0.05580524,-0.013772971,-2.5239506e-06,0.0136679085,-0.0035367864,-0.0033599276,2.4400651e-05,0.0029788655,-0.068212494,-0.029243527,1.5685755,0.007008279,-0.0021906123,0.03802982,8.546049e-05,0.0,0.1000061,0.010000001,0.0,0.47726548,0.28885475,0.16817482,0.07190964,inf,inf,inf,inf,inf,1,1,1,1,5,5,2,1,2,1,1,1,0,5,0,0
1593444000,1593440000,66708000,47.398166100000005,8.5470148,-46.262478,-106.0616,-488.14682,86876.08,2880536.2,0.0,-0.055501085,-0.013292778,-6.240556e-05,0.013568149,-0.0035367864,-0.0033599276,2.4400651e-05,0.01953779,0.054993816,-0.009307637,1.5686425,0.0070076403,-0.0021257624,0.03802982,8.5481886e-05,0.0,0.1000061,0.010000001,0.0,0.4781173,0.28827482,0.16847263,0.07185587,inf,inf,inf,inf,inf,1,1,1,1,5,5,2,1,2,1,1,1,0,5,0,0
1593460000,1593456000,66708000,47.398166100000005,8.5470148,-46.262737,-106.06161,-488.14667,86876.08,2880536.2,0.0,-0.05542725,-0.011752746,0.0006485877,0.014193326,-0.0035367864,-0.0033599276,2.4400651e-05,0.032184333,0.09096816,-0.0064433548,1.5686358,0.007007833,-0.0021372065,0.03802982,8.558625e-05,0.0,0.1000061,0.010000001,0.0,0.4798659,0.28906062,0.16916347,0.07197453,inf,inf,inf,inf,inf,1,1,1,1,5,5,2,1,2,1,1,1,0,5,0,0
1593468000,1593464000,66708000,47.398166100000005,8.5470148,-46.26288,-106.0616,-488.1466,86876.08,2880536.2,0.0,-0.0546849,-0.011730957,0.00017147152,0.013670419,-0.0035367864,-0.0033599276,2.4400651e-05,0.07586026,-0.0019364433,-0.06127683,1.5686566,0.0070079286,-0.0021184906,0.03802982,8.5638494e-05,0.0,0.1000061,0.010000001,0.0,0.48074496,0.2894545,0.16951005,0.0720338,inf,inf,inf,inf,inf,1,1,1,1,5,5,2,1,2,1,1,1,0,5,0,0
1593476000,1593472000,66708000,47.398166100000005,8.5470148,-46.26302,-106.0616,-488.14655,86876.08,2880536.2,0.0,-0.05498619,-0.011748839,0.0007969345,0.014248255,-0.0035367864,-0.0033599276,2.4400651e-05,-0.05410606,-0.0067850593,0.07660361,1.5686711,0.007008026,-0.0021058545,0.03802982,8.569079e-05,0.0,0.1000061,0.010000001,0.0,0.4816272,0.28984898,0.16985598,0.072093025,inf,inf,inf,inf,inf,1,1,1,1,5,5,2,1,2,1,1,1,0,5,0,0
1593484000,1593480000,66708000,47.398166100000005,8.5470148,-46.263172,-106.0616,-488.14645,86876.08,2880536.2,0.0,-0.054817908,-0.011336493,0.0010654989,0.014467459,-0.0035367864,-0.0033599276,2.4400651e-05,0.0050656623,0.04710143,0.032047737,1.5686463,0.007008123,-0.0021326765,0.03802982,8.574312e-05,0.0,0.1000061,0.010000001,0.0,0.48251262,0.2902441,0.17020479,0.072152205,inf,inf,inf,inf,inf,1,1,1,1,5,5,2,1,2,1,1,1,0,5,0,0
1593500000,1593496000,66708000,47.398166100000005,8.5470148,-46.263496,-106.0616,-488.14633,86876.08,2880536.2,0.0,-0.054589164,-0.011340912,0.0021691013,0.015467754,-0.0035367864,-0.0033599276,2.4400651e-05,0.0038655282,0.0024595228,0.07767695,1.5684804,0.007008314,-0.0023029074,0.03802982,8.584788e-05,0.0,0.1000061,0.010000001,0.0,0.48429304,0.29103625,0.17090045,0.072270446,inf,inf,inf,inf,inf,1,1,1,1,5,5,2,1,2,1,1,1,0,5,0,0
1593508000,1593504000,66708000,47.398166100000005,8.5470148,-46.263668,-106.061615,-488.14624,86876.08,2880536.2,0.0,-0.054156616,-0.012312369,0.003213024,0.016466893,-0.0035367864,-0.0033599276,2.4400651e-05,0.039573655,-0.12513383,0.12893508,1.5684597,0.007007789,-0.0023255572,0.03802982,8.5873646e-05,0.0,0.1000061,0.010000001,0.0,0.4851705,0.2904379,0.1712096,0.072213106,inf,inf,inf,inf,inf,1,1,1,1,5,5,2,1,2,1,1,1,0,5,0,0
1593516000,1593512000,66708000,47.398166100000005,8.5470148,-46.263844,-106.06163,-488.14615,86876.08,2880536.2,0.0,-0.053616356,-0.012766234,0.0030335092,0.016241081,-0.0035367864,-0.0033599276,2.4400651e-05,0.053468283,-0.060342222,-0.02393918,1.5684253,0.007007886,-0.0023628697,0.03802982,8.592612e-05,0.0,0.1000061,0.010000001,0.0,0.48606852,0.29083422,0.17155585,0.07227219,inf,inf,inf,inf,inf,1,1,1,1,5,5,2,1,2,1,1,1,0,5,0,0
1593524000,1593520000,66708000,47.398166100000005,8.5470148,-46.264023,-106.06165,-488.14606,86876.08,2880536.2,0.0,-0.052933425,-0.0129637495,0.0029433859,0.016103143,-0.0035367864,-0.0033599276,2.4400651e-05,0.07171588,-0.028205134,-0.012711621,1.5683662,0.0070079835,-0.0024248585,0.03802982,8.597862e-05,0.0,0.1000061,0.010000001,0.0,0.48696968,0.29123116,0.17190243,0.072331235,inf,inf,inf,inf,inf,1,1,1,1,5,5,2,1,2,1,1,1,0,5,0,0
1593540000,1593536000,66708000,47.398166100000005,8.5470148,-46.264393,-106.06171,-488.1459,86876.08,2880536.2,0.0,-0.05341459,-0.01399115,0.0038875765,0.01694687,-0.0035367864,-0.0033599276,2.4400651e-05,-0.055409614,-0.09778938,0.10625412,1.5684252,0.0070081763,-0.0023716912,0.03802982,8.608376e-05,0.0,0.1000061,0.010000001,0.0,0.48878166,0.29202694,0.17259672,0.072449215,inf,inf,inf,inf,inf,1,1,1,1,5,5,2,1,2,1,1,1,0,5,0,0
1593548000,1593544000,66708000,47.398166100000005,8.5470148,-46.26459,-106.061745,-488.1458,86876.08,2880536.2,0.0,-0.053981707,-0.014056475,0.004482595,0.017489327,-0.0035367864,-0.0033599276,2.4400651e-05,-0.08336367,-0.01142476,0.07308321,1.5684755,0.0070082736,-0.0023241267,0.03802982,8.6136395e-05,0.0,0.1000061,0.010000001,0.0,0.48969248,0.29242578,0.1729485,0.072508134,inf,inf,inf,inf,inf,1,1,1,1,5,5,2,1,2,1,1,1,0,5,0,0
1593556000,1593552000,66708000,47.398166100000005,8.5470148,-46.2648,-106.06178,-488.14572,86876.08,2880536.2,0.0,-0.054188963,-0.015188108,0.0051664556,0.018119281,-0.0035367864,-0.0033599276,2.4400651e-05,-0.038009934,-0.14463359,0.08423626,1.5685407,0.007008369,-0.002261661,0.03802982,8.618906e-05,0.0,0.1000061,0.010000001,0.0,0.49060652,0.29282525,0.17329827,0.07256702,inf,inf,inf,inf,inf,1,1,1,1,5,5,2,1,2,1,1,1,0,5,0,0
1593564000,1593560000,66708000,47.398166100000005,8.5470148,-46.26502,-106.06184,-488.14563,86876.08,2880536.2,0.0,-0.053829413,-0.016009256,0.005479039,0.018376628,-0.0035367864,-0.0033599276,2.4400651e-05,0.033211447,-0.105735086,0.03787316,1.5685481,0.0070084645,-0.0022566542,0.03802982,8.624175e-05,0.0,0.1000061,0.010000001,0.0,0.4915238,0.29322535,0.17364736,0.07262588,inf,inf,inf,inf,inf,1,1,1,1,5,5,2,1,2,1,1,1,0,5,0,0
1593580000,1593576000,66708000,47.398166100000005,8.5470148,-46.26547,-106.06195,-488.14548,86876.08,2880536.2,0.0,-0.054427553,-0.017038383,0.004966737,0.01773783,-0.0035367864,-0.0033599276,2.4400651e-05,-0.037999712,-0.108515315,0.0057010907,1.5685567,0.007008035,-0.002253078,0.03802982,8.631978e-05,0.0,0.1000061,0.010000001,0.0,0.49334842,0.29300532,0.17430463,0.0726231,inf,inf,inf,inf,inf,1,1,1,1,5,5,2,1,2,1,1,1,0,5,0,0
1593588000,1593584000,66708000,47.398166100000005,8.5470148,-46.265705,-106.06202,-488.1454,86876.08,2880536.2,0.0,-0.05530875,-0.017034942,0.0053716376,0.01807199,-0.0035367864,-0.0033599276,2.4400651e-05,-0.12102987,-0.0027125797,0.049792226,1.5685475,0.0070081325,-0.0022642836,0.03802982,8.63726e-05,0.0,0.1000061,0.010000001,0.0,0.49427515,0.29340592,0.17465758,0.07268191,inf,inf,inf,inf,inf,1,1,1,1,5,5,2,1,2,1,1,1,0,5,0,0
1593596000,1593592000,66708000,47.398166100000005,8.5470148,-46.2655,-106.06197,-488.1452,86876.08,2880536.2,0.0,-0.055090148,-0.017366199,0.005056234,0.017792264,-0.0035367864,-0.0033599276,2.4400651e-05,-0.010448081,-0.0513213,-0.042431984,1.5683868,0.007007526,-0.0024265274,0.03802982,8.40171e-05,0.0,0.1000061,0.010000001,0.0,0.45366654,0.28031307,0.15837839,0.07047094,inf,inf,inf,inf,inf,1,1,1,1,5,5,2,1,2,1,1,1,0,5,0,0
