timestamp,timestamp_sample,device_id,magnetometer_ga[0],magnetometer_ga[1],magnetometer_ga[2],calibration_count
1592244000,1592229000,197388,-0.00023688578,-0.21775486,0.42691666,0
1592344000,1592301500,197388,0.0017064027,-0.21670511,0.42935586,0
1592392000,1592374000,197388,0.00017605792,-0.21920602,0.429544,0
1592488000,1592445000,197388,0.004894479,-0.21653584,0.43094364,0
1592524000,1592512000,197388,0.001934866,-0.21381544,0.42975497,0
1592628000,1592582666,197388,0.0014273418,-0.21621218,0.43062535,0
1592656000,1592650000,197388,-0.0033441402,-0.22105354,0.42941326,0
1592776000,1592721600,197388,0.000816908,-0.21430187,0.43023983,0
1592800000,1592794000,197388,-0.0022434765,-0.21606305,0.42820787,0
1592920000,1592864400,197388,0.0005353857,-0.21496356,0.4288148,0
1592932000,1592932000,197388,0.00056993304,-0.21700369,0.42861038,0
1593064000,1593002181,197388,0.0027143124,-0.21671961,0.42962664,0
1593076000,1593076000,197388,0.0009929026,-0.2187116,0.42496645,0
1593208000,1593146909,197388,0.00063470955,-0.21767065,0.4297545,0
1593216000,1593216000,197388,-0.002491745,-0.21747068,0.43018377,0
1593340000,1593284400,197388,0.00075583166,-0.21556762,0.42864257,0
1593352000,1593352000,197388,-0.001780602,-0.21444346,0.42873392,0
1593484000,1593423272,197388,0.0020677987,-0.21592037,0.42890066,0
1593496000,1593496000,197388,-0.0011483689,-0.2144429,0.43008527,0
1593624000,1593566181,197388,0.0025750361,-0.21638893,0.42835563,0
1593636000,1593636000,197388,0.001964533,-0.21601284,0.43333116,0
1593760000,1593705200,197388,0.0015667491,-0.21678896,0.42940304,0
1593772000,1593772000,197388,-0.0027647999,-0.22038117,0.4238143,0
1593904000,1593842181,197388,0.002568907,-0.21817291,0.42939323,0
1593912000,1593912000,197388,0.0007842906,-0.21636482,0.42810017,0
1594036000,1593981600,197388,0.0037023835,-0.21718954,0.42866716,0
1594060000,1594054000,197388,-0.004085026,-0.22279036,0.4310937,0
1594180000,1594124800,197388,0.00071885454,-0.21563116,0.42931738,0
1594192000,1594192000,197388,0.0029031564,-0.21267447,0.43149573,0
1594324000,1594263272,197388,0.0025160608,-0.21560821,0.42992347,0
1594336000,1594336000,197388,0.0014369662,-0.2138207,0.43236446,0
1594468000,1594405818,197388,0.0017565135,-0.21669614,0.4281373,0
1594480000,1594480000,197388,0.0041834163,-0.22069167,0.42574313,0
1594612000,1594550545,197388,0.0010981797,-0.21503636,0.4279285,0
1594624000,1594624000,197388,0.0016304746,-0.21311988,0.4331869,0
1594756000,1594695636,197388,0.0018355865,-0.21585011,0.4298138,0
1594764000,1594764000,197388,-0.0051075513,-0.22793831,0.42724597,0
1594888000,1594832000,197388,0.003130447,-0.21531236,0.429305,0
1594900000,1594900000,197388,0.001828253,-0.21822156,0.43096337,0
1595032000,1594970909,197388,0.0007021902,-0.21608557,0.43085957,0
1595044000,1595044000,197388,-0.0015840863,-0.21331422,0.43297353,0
1595176000,1595115272,197388,0.003031344,-0.21569093,0.4313261,0
1595188000,1595188000,197388,-0.0035529134,-0.2147299,0.43055722,0
1595316000,1595259272,197388,-0.0006846623,-0.215279,0.43145004,0
1595328000,1595328000,197388,0.005112195,-0.22345728,0.42501444,0
1595452000,1595397200,197388,0.00093488296,-0.21605329,0.42966482,0
1595476000,1595468000,197388,0.0019855292,-0.21112353,0.4308137,0
1595580000,1595535111,197388,0.0021695357,-0.2142128,0.43002412,0
1595616000,1595605333,197388,0.0007883826,-0.2159717,0.43234485,0
1595716000,1595673000,197388,6.7419256e-05,-0.21729645,0.42972827,0
1595752000,1595740000,197388,0.00310231,-0.21625462,0.4277854,0
1595860000,1595810666,197388,0.0013060985,-0.21469498,0.4279824,0
1595884000,1595878000,197388,-0.0017946596,-0.2142969,0.42454997,0
1596000000,1595948800,197388,0.0028949443,-0.21604829,0.4310909,0
1596028000,1596020000,197388,-0.00091837003,-0.21536112,0.4228081,0
1596132000,1596087111,197388,0.00017380943,-0.21580191,0.42771316,0
1596160000,1596154000,197388,0.00411917,-0.22238474,0.42828518,0
1596280000,1596225200,197388,0.0010582823,-0.21675979,0.42807108,0
1596292000,1596292000,197388,-0.003009228,-0.21610828,0.4312707,0
1596424000,1596362181,197388,0.002434906,-0.21794042,0.42972904,0
1596436000,1596436000,197388,-0.002182521,-0.218782,0.4298039,0
1596568000,1596506909,197388,0.00059589796,-0.21537416,0.43049788,0
1596580000,1596580000,197388,-8.0454076e-05,-0.212321,0.43310848,0
1596708000,1596650545,197388,0.002037609,-0.21766499,0.43071458,0
1596724000,1596724000,197388,0.0002611237,-0.21626864,0.42676437,0
1596856000,1596795636,197388,0.002543607,-0.21601203,0.42749402,0
1596868000,1596868000,197388,0.002951725,-0.21059032,0.43268153,0
1596996000,1596938181,197388,0.0020054386,-0.21578467,0.42682236,0
1597012000,1597012000,197388,0.0056557055,-0.21442124,0.43412468,0
1597144000,1597082181,197388,0.008555028,-0.21734169,0.42754704,0
1597152000,1597152000,197388,0.011391694,-0.22290368,0.42079803,0
1597276000,1597221600,197388,0.0191683,-0.22801761,0.41959602,0
1597300000,1597294000,197388,0.025395803,-0.22984576,0.4242633,0
1597420000,1597365200,197388,0.020924691,-0.23100042,0.42151722,0
1597440000,1597434000,197388,0.023915354,-0.23311007,0.41982466,0
1597552000,1597502222,197388,0.017930128,-0.22792241,0.42522267,0
1597588000,1597573333,197388,0.014389662,-0.22634767,0.4244574,0
1597684000,1597641000,197388,0.011547147,-0.22219437,0.42485422,0
1597720000,1597708000,197388,0.008088101,-0.21957842,0.42871648,0
1597824000,1597778666,197388,0.0036046389,-0.21601164,0.42956704,0
1597852000,1597846000,197388,-0.0020656795,-0.21580371,0.42536825,0
1597972000,1597916400,197388,-0.0011389342,-0.21347885,0.43004665,0
1597984000,1597984000,197388,-0.003885973,-0.20926873,0.42531046,0
1598112000,1598054909,197388,-0.0048350804,-0.21075277,0.43292633,0
1598128000,1598128000,197388,-0.0040881117,-0.20721333,0.43493953,0
1598256000,1598199272,197388,-0.005851306,-0.20987414,0.43142524,0
1598272000,1598272000,197388,-0.006605708,-0.20954989,0.43253088,0
1598404000,1598342909,197388,-0.0059450595,-0.20915984,0.4321183,0
1598412000,1598412000,197388,-0.0023907863,-0.21451503,0.4321008,0
1598532000,1598480800,197388,-0.006251208,-0.20914698,0.42995572,0
1598548000,1598548000,197388,-0.0031320099,-0.21053132,0.4336924,0
1598680000,1598618545,197388,-0.004841675,-0.20908579,0.43215528,0
1598692000,1598692000,197388,-0.007912416,-0.21301556,0.43876925,0
1598824000,1598763272,197388,-0.0067654997,-0.21120398,0.43136653,0
1598836000,1598836000,197388,-0.015786977,-0.20931742,0.43116656,0
1598968000,1598905818,197388,-0.0070162024,-0.2104926,0.43246955,0
1598980000,1598980000,197388,-0.0010846199,-0.21785751,0.4354768,0
1599108000,1599050909,197388,-0.003755517,-0.21251896,0.43092182,0
1599124000,1599124000,197388,0.0009077289,-0.2146848,0.42771944,0
1599256000,1599195636,197388,-0.004610829,-0.21098089,0.4307506,0
1599268000,1599268000,197388,-0.005121812,-0.20704855,0.4330949,0
1599400000,1599338545,197388,-0.0030006466,-0.2133479,0.43019998,0
1599412000,1599412000,197388,-0.0044528516,-0.2175531,0.42620143,0
1599544000,1599483272,197388,-0.0014957953,-0.21500973,0.42986658,0
1599556000,1599556000,197388,-0.001743327,-0.21564387,0.43140548,0
1599688000,1599627272,197388,-0.0033122038,-0.21316755,0.4309625,0
1599700000,1599700000,197388,-0.0018870188,-0.21308894,0.42652637,0
1599828000,1599770545,197388,-0.0007722415,-0.21499197,0.4275111,0
1599844000,1599844000,197388,0.0007715511,-0.21176954,0.427734,0
1599976000,1599915636,197388,0.00018327552,-0.21608952,0.4304824,0
1599988000,1599988000,197388,-0.0001886781,-0.21762761,0.42420396,0
1600120000,1600060000,197388,0.0014693392,-0.21406063,0.42998824,0
1600132000,1600132000,197388,-0.005929524,-0.21517977,0.4265419,0
1600264000,1600202545,197388,0.0029397972,-0.21547416,0.42876086,0
1600276000,1600276000,197388,0.0076593296,-0.21703991,0.42096218,0
1600404000,1600346909,197388,0.0040662554,-0.21762212,0.43084657,0
1600420000,1600420000,197388,0.0023705494,-0.22010678,0.42980862,0
1600552000,1600491272,197388,0.0023739997,-0.21719894,0.42656714,0
1600564000,1600564000,197388,0.008228303,-0.2146251,0.42650262,0
1600696000,1600634909,197388,0.0028697923,-0.21936631,0.4285221,0
1600708000,1600708000,197388,0.00023585648,-0.22058794,0.42111158,0
1600836000,1600778181,197388,0.0039397366,-0.21525544,0.42806184,0
1600852000,1600852000,197388,0.0031340234,-0.2116882,0.42025176,0
1600980000,1600922909,197388,0.0006824277,-0.21893124,0.4286375,0
1600996000,1600996000,197388,0.0032083753,-0.21411201,0.4249313,0
1601128000,1601067636,197388,0.0036709323,-0.21943869,0.42742926,0
1601136000,1601136000,197388,0.0021197058,-0.21643144,0.4240321,0
1601260000,1601204800,197388,0.0018357768,-0.21965492,0.42845875,0
1601272000,1601272000,197388,0.0060080593,-0.21870458,0.42496628,0
1601400000,1601342909,197388,0.0058812737,-0.21924642,0.42572117,0
1601412000,1601412000,197388,0.0015675427,-0.22253412,0.4317873,0
1601536000,1601481600,197388,0.0035148882,-0.21942186,0.42633876,0
1601556000,1601550000,197388,0.006297619,-0.21709274,0.42681304,0
1601668000,1601620000,197388,0.0037134162,-0.21700509,0.42736503,0
1601704000,1601689333,197388,0.0046820454,-0.21964303,0.42627692,0
1601800000,1601757500,197388,0.0056577907,-0.21808943,0.4287066,0
1601844000,1601829000,197388,0.006468908,-0.21975517,0.4287006,0
1601932000,1601896000,197388,0.0039135874,-0.21793571,0.4265376,0
1601992000,1601968000,197388,0.005057802,-0.21919338,0.42747125,0
1602076000,1602040000,197388,0.0031377664,-0.21854834,0.42769372,0
1602132000,1602110400,197388,0.004699183,-0.21727419,0.42648354,0
1602208000,1602177333,197388,0.0056760134,-0.22011106,0.42922503,0
1602268000,1602244000,197388,0.0021194909,-0.21714154,0.428442,0
1602352000,1602316000,197388,0.0027995766,-0.21872103,0.43021816,0
1602412000,1602386400,197388,0.0002103643,-0.21733676,0.42942482,0
1602496000,1602458857,197388,0.0026524023,-0.21640803,0.42842498,0
1602544000,1602526000,197388,0.0042609675,-0.21666788,0.4289076,0
1602640000,1602597500,197388,0.0029897857,-0.21918982,0.42899984,0
1602688000,1602669000,197388,0.004082941,-0.21975017,0.42765224,0
1602784000,1602741500,197388,0.0029113062,-0.21771076,0.42909387,0
1602828000,1602811000,197388,0.0044070967,-0.21946526,0.4280854,0
1602916000,1602879428,197388,0.004034769,-0.21715553,0.43013647,0
1602972000,1602951200,197388,0.0014246638,-0.21891804,0.42923784,0
1603060000,1603021714,197388,0.0038610832,-0.21803793,0.42868197,0
1603108000,1603090000,197388,0.005085065,-0.22068487,0.429215,0
1603204000,1603160500,197388,0.0033844807,-0.21862583,0.42760235,0
1603240000,1603228000,197388,-0.0005213184,-0.21721351,0.4298317,0
1603348000,1603300000,197388,0.0004011167,-0.21578637,0.42778933,0
1603384000,1603372000,197388,0.00038577372,-0.21659467,0.42972738,0
1603492000,1603444000,197388,0.00066133117,-0.21825261,0.42864168,0
1603528000,1603516000,197388,-0.0023817779,-0.21593493,0.4280193,0
1603636000,1603587555,197388,0.00151164,-0.21774611,0.43057004,0
1603672000,1603660000,197388,0.0062411944,-0.21689689,0.42607594,0
1603780000,1603731555,197388,0.001293915,-0.2167394,0.42844158,0
1603816000,1603804000,197388,0.0034196272,-0.21911934,0.42589438,0
1603924000,1603875555,197388,0.0033273462,-0.21491888,0.4293818,0
1603960000,1603948000,197388,0.0005048465,-0.21491814,0.42894873,0
1604068000,1604018666,197388,-0.0006456696,-0.21384825,0.43003193,0
1604092000,1604086000,197388,0.003196001,-0.21630186,0.4251747,0
1604212000,1604157600,197388,0.0028539014,-0.21706688,0.42884007,0
1604236000,1604228000,197388,0.005195045,-0.21473017,0.4257628,0
1604344000,1604296000,197388,-0.0013251199,-0.21627626,0.42941427,0
1604380000,1604368000,197388,-0.0015511606,-0.21630329,0.4288606,0
1604488000,1604439111,197388,0.0029475067,-0.21516083,0.42937163,0
1604512000,1604506000,197388,0.0014909336,-0.21248019,0.43092847,0
1604632000,1604577600,197388,0.0017503398,-0.21844378,0.430619,0
1604656000,1604650000,197388,-0.0016577683,-0.21822794,0.43056676,0
1604772000,1604720800,197388,0.0006191265,-0.21619432,0.4314377,0
1604788000,1604788000,197388,-0.00070732506,-0.21805373,0.43059164,0
1604920000,1604860000,197388,0.0023612764,-0.21676016,0.4297485,0
1604932000,1604932000,197388,-7.424247e-05,-0.21117267,0.43751627,0
1605060000,1605002181,197388,0.0019028499,-0.21493167,0.43114495,0
1605076000,1605076000,197388,0.009047641,-0.2209131,0.4302232,0
1605208000,1605147272,197388,0.0016858358,-0.21733987,0.4284649,0
1605220000,1605220000,197388,0.0012641803,-0.22204968,0.4330267,0
1605348000,1605290909,197388,0.0004904201,-0.21751451,0.42755097,0
1605364000,1605364000,197388,0.0011270212,-0.2082491,0.43177274,0
1605492000,1605435272,197388,0.0015025424,-0.21658906,0.43049154,0
1605508000,1605508000,197388,0.0006585755,-0.2146806,0.4358609,0
1605640000,1605580000,197388,0.0016958481,-0.21613412,0.42878234,0
1605652000,1605652000,197388,-0.0026842502,-0.21902786,0.4271735,0
1605784000,1605722909,197388,0.001911291,-0.21322131,0.4281959,0
1605796000,1605796000,197388,0.0022420026,-0.21246305,0.43217906,0
1605924000,1605867272,197388,0.0018415225,-0.21501443,0.42820403,0
1605940000,1605940000,197388,0.0055656475,-0.21758778,0.42640272,0
1606072000,1606011272,197388,0.0029680205,-0.21349004,0.4307695,0
1606084000,1606084000,197388,-0.0004393138,-0.20867424,0.43459526,0
1606216000,1606155272,197388,0.0031600087,-0.21554501,0.42885405,0
1606228000,1606228000,197388,0.0015989243,-0.21646926,0.43244424,0
1606360000,1606299272,197388,0.0035078076,-0.21520981,0.42930487,0
1606372000,1606372000,197388,-0.003979538,-0.21808697,0.42733422,0
1606504000,1606444000,197388,0.0042905677,-0.21892536,0.43038833,0
1606512000,1606512000,197388,0.00037755634,-0.22468747,0.42641494,0
1606636000,1606581600,197388,0.0036124804,-0.21573272,0.4311145,0
1606660000,1606652000,197388,0.0018841315,-0.212823,0.42504072,0
1606768000,1606719555,197388,0.0036151106,-0.21594095,0.42923623,0
1606804000,1606792000,197388,0.00340786,-0.21838954,0.43055218,0
1606908000,1606863111,197388,0.0028944893,-0.21543679,0.4280897,0
1606936000,1606930000,197388,-0.0008284785,-0.21738169,0.4313975,0
1607056000,1607001600,197388,-0.0008673821,-0.21490374,0.42906928,0
1607080000,1607074000,197388,0.0017041545,-0.21432616,0.42376435,0
1607196000,1607145600,197388,0.00032411524,-0.21401492,0.42889842,0
1607220000,1607216000,197388,0.0044146925,-0.21770036,0.4288103,0
1607332000,1607282666,197388,0.00017683994,-0.21566947,0.4304033,0
1607368000,1607354666,197388,-0.00083241356,-0.21994326,0.42525098,0
1607464000,1607422000,197388,-0.0008763097,-0.21501158,0.42658237,0
1607508000,1607493000,197388,0.0007060259,-0.21667685,0.43124658,0
1607608000,1607565500,197388,-0.0007304823,-0.21586399,0.4303554,0
1607656000,1607637000,197388,-0.0021942246,-0.21305202,0.430285,0
1607752000,1607709500,197388,0.0022933185,-0.21471103,0.42786843,0
1607800000,1607782000,197388,0.0022214788,-0.21653491,0.42865214,0
1607896000,1607854000,197388,0.00027421367,-0.2146253,0.42683816,0
1607944000,1607925000,197388,-0.00017433049,-0.21502604,0.43046808,0
1608040000,1607997500,197388,9.4118295e-05,-0.21546797,0.42967564,0
1608084000,1608069000,197388,-0.0015823231,-0.21379983,0.42864642,0
1608184000,1608141500,197388,0.002157486,-0.21651414,0.43125814,0
1608232000,1608214000,197388,-0.002068099,-0.2137807,0.432702,0
1608328000,1608285000,197388,-0.0018058694,-0.21246979,0.4298721,0
1608364000,1608352000,197388,0.0005810298,-0.21061943,0.4323054,0
1608472000,1608423111,197388,0.001155173,-0.2119963,0.4311334,0
1608496000,1608490000,197388,-0.0002663365,-0.2147778,0.42749196,0
1608616000,1608561600,197388,0.0008498993,-0.2128878,0.43005976,0
1608640000,1608634000,197388,0.0010939622,-0.21390143,0.4324488,0
1608760000,1608705600,197388,6.826175e-05,-0.21384995,0.43073177,0
1608784000,1608778000,197388,-0.005930835,-0.21167055,0.42848736,0
1608904000,1608849600,197388,0.00019678856,-0.2118084,0.42940423,0
1608928000,1608922000,197388,-0.002331845,-0.21545681,0.4295913,0
1609044000,1608993200,197388,0.00035218714,-0.21508303,0.42961636,0
1609060000,1609060000,197388,-0.005245696,-0.21538733,0.42545715,0
1609192000,1609132000,197388,0.0017225574,-0.2143146,0.4291027,0
1609200000,1609200000,197388,-0.0034409815,-0.2130413,0.43485272,0
1609320000,1609269200,197388,0.0020371948,-0.21535185,0.42813802,0
1609348000,1609340000,197388,-0.0034011242,-0.21289358,0.42918196,0
1609456000,1609407555,197388,0.0019841199,-0.21438195,0.42912018,0
1609492000,1609480000,197388,0.0010673406,-0.21509027,0.4306824,0
1609600000,1609551111,197388,0.0018898518,-0.21479768,0.43075767,0
1609624000,1609618000,197388,-1.9126106e-05,-0.21323776,0.43177974,0
1609744000,1609689600,197388,0.0030361335,-0.21782966,0.42737982,0
1609764000,1609760000,197388,0.0038268645,-0.21556386,0.43226594,0
1609876000,1609827555,197388,0.0017905437,-0.21558107,0.4286418,0
1609912000,1609898666,197388,0.0013379643,-0.21561281,0.4254164,0
1610008000,1609965500,197388,0.0015576405,-0.21697828,0.4300028,0
1610052000,1610036000,197388,0.0014603655,-0.2148538,0.42782634,0
1610140000,1610104000,197388,0.0017514714,-0.21737258,0.42738882,0
1610196000,1610173600,197388,0.0015904596,-0.21802609,0.4295663,0
1610268000,1610241333,197388,0.0018464085,-0.21733752,0.4286251,0
1610344000,1610312666,197388,0.00029565868,-0.2192757,0.4298148,0
1610416000,1610384666,197388,0.00242062,-0.21916255,0.43149337,0
1610476000,1610452000,197388,0.0045502367,-0.21668632,0.42688066,0
1610560000,1610523428,197388,0.0017988954,-0.21856622,0.42716345,0
1610620000,1610595200,197388,0.002952449,-0.22154863,0.42973644,0
1610704000,1610667428,197388,0.004710545,-0.21929836,0.42798707,0
1610764000,1610740000,197388,0.0059720236,-0.21881056,0.42802587,0
1610848000,1610812000,197388,0.002259863,-0.21589771,0.4288606,0
1610908000,1610883200,197388,0.00157062,-0.21825452,0.42730036,0
1610992000,1610954857,197388,0.002961654,-0.21827063,0.42752603,0
1611040000,1611022000,197388,0.00092172995,-0.21923351,0.42738628,0
1611136000,1611093500,197388,0.00087896147,-0.21937837,0.42988873,0
1611184000,1611166000,197388,0.0033108788,-0.2153157,0.4274277,0
1611280000,1611237500,197388,0.0007871477,-0.2200746,0.43000185,0
1611328000,1611310000,197388,0.0018279598,-0.21945861,0.43204045,0
1611424000,1611382000,197388,0.0026856223,-0.2193212,0.42867553,0
1611468000,1611453000,197388,0.000576047,-0.21813722,0.42860875,0
1611556000,1611520000,197388,0.004636083,-0.21807648,0.42806786,0
1611616000,1611591200,197388,0.0048374585,-0.21809307,0.4262909,0
1611700000,1611663428,197388,-1.3788447e-05,-0.21824221,0.4294982,0
1611760000,1611736000,197388,0.0023648532,-0.21809237,0.4274485,0
1611844000,1611807428,197388,-0.00047346973,-0.21905233,0.43048137,0
1611900000,1611878400,197388,0.0024994065,-0.2159488,0.4294033,0
1611988000,1611950857,197388,0.0012975669,-0.21653557,0.42801198,0
1612048000,1612022400,197388,0.0047486722,-0.21729045,0.4311711,0
1612120000,1612089333,197388,-0.0014319973,-0.21481156,0.42815766,0
1612192000,1612160666,197388,0.000528745,-0.21739316,0.43149328,0
1612264000,1612232666,197388,0.0020316863,-0.21588618,0.42702648,0
1612336000,1612305333,197388,0.0017329573,-0.21821341,0.4291831,0
1612408000,1612377333,197388,0.0005270037,-0.21667032,0.426134,0
1612476000,1612448666,197388,0.0013481148,-0.2175077,0.42647785,0
1612540000,1612516000,197388,-0.0005193782,-0.21719444,0.42892036,0
1612624000,1612587428,197388,0.002620552,-0.21531613,0.43003494,0
1612684000,1612659200,197388,0.0031981952,-0.21580069,0.429841,0
1612768000,1612730285,197388,0.0073720827,-0.20815472,0.43537122,0
1612816000,1612797000,197388,0.022301922,-0.20191589,0.4329073,0
1612912000,1612869000,197388,0.030328775,-0.19255587,0.43812048,0
1612948000,1612936000,197388,0.04238778,-0.19176498,0.4408041,0
1613056000,1613007111,197388,0.05131704,-0.18930991,0.4374054,0
1613080000,1613074000,197388,0.06347975,-0.18953246,0.43870193,0
1613200000,1613145200,197388,0.07352858,-0.19055918,0.43572074,0
1613224000,1613216000,197388,0.08575044,-0.19403236,0.4339342,0
1613332000,1613283555,197388,0.09363804,-0.19591345,0.42986548,0
1613368000,1613356000,197388,0.09913236,-0.20023696,0.43036836,0
1613476000,1613427555,197388,0.105498806,-0.20339467,0.42189375,0
1613508000,1613498666,197388,0.11293181,-0.20434698,0.42029452,0
1613620000,1613571111,197388,0.114979535,-0.21231611,0.4149069,0
1613656000,1613642666,197388,0.11276817,-0.21516582,0.4159375,0
1613752000,1613709500,197388,0.11138591,-0.2183111,0.4133781,0
1613800000,1613781000,197388,0.10605403,-0.2218298,0.41277122,0
1613884000,1613848000,197388,0.11021622,-0.22348276,0.413251,0
1613940000,1613918400,197388,0.11112892,-0.2232465,0.41006094,0
1614016000,1613985333,197388,0.108591944,-0.2276138,0.4093067,0
1614088000,1614057333,197388,0.112316534,-0.22505085,0.4115822,0
1614160000,1614129333,197388,0.11232552,-0.22791356,0.41060123,0
1614232000,1614200666,197388,0.11375545,-0.22625819,0.40897787,0
1614304000,1614273333,197388,0.116081916,-0.22775573,0.40846837,0
1614376000,1614344666,197388,0.11386812,-0.22514564,0.40921068,0
1614448000,1614416000,197388,0.117448345,-0.22418994,0.4065284,0
1614508000,1614484000,197388,0.11872907,-0.22399564,0.40812546,0
1614588000,1614554285,197388,0.11431816,-0.2223788,0.41156825,0
1614640000,1614622000,197388,0.10864561,-0.2191232,0.41152453,0
1614736000,1614694000,197388,0.10352154,-0.21615796,0.41446137,0
1614784000,1614766000,197388,0.09438846,-0.21389678,0.41876528,0
1614880000,1614836500,197388,0.08684121,-0.2114727,0.42317164,0
1614928000,1614909000,197388,0.078654476,-0.20934063,0.42913294,0
1615012000,1614976000,197388,0.069784,-0.20357184,0.42925653,0
1615072000,1615048000,197388,0.06027515,-0.19846486,0.43516642,0
1615156000,1615120000,197388,0.052732125,-0.19554384,0.43701524,0
1615216000,1615192000,197388,0.042063233,-0.19692741,0.435874,0
1615300000,1615264000,197388,0.030173933,-0.19853514,0.4383496,0
1615360000,1615333600,197388,0.02265364,-0.20322268,0.43659493,0
1615428000,1615401333,197388,0.019357799,-0.20512146,0.43318748,0
1615500000,1615472666,197388,0.0161526,-0.2073389,0.43480432,0
1615564000,1615540000,197388,0.01471445,-0.20560212,0.43393284,0
1615648000,1615611428,197388,0.018502915,-0.2066448,0.43378153,0
1615708000,1615684000,197388,0.01962023,-0.2078245,0.42995802,0
1615788000,1615755428,197388,0.02014787,-0.20604695,0.43387273,0
1615852000,1615828000,197388,0.022482324,-0.2066702,0.43640366,0
1615936000,1615900000,197388,0.022348214,-0.20536031,0.43457574,0
1615996000,1615972000,197388,0.023005113,-0.20435868,0.4366947,0
1616080000,1616044000,197388,0.023237223,-0.20606452,0.43314558,0
1616136000,1616114400,197388,0.025585888,-0.20742825,0.43153724,0
1616212000,1616182000,197388,0.02457472,-0.20593712,0.4339816,0
1616284000,1616254000,197388,0.02435812,-0.20539793,0.43194127,0
1616356000,1616326000,197388,0.026182868,-0.20848802,0.43295717,0
1616428000,1616396666,197388,0.025106292,-0.20475659,0.43198857,0
1616500000,1616469333,197388,0.026071435,-0.20768493,0.43264705,0
1616572000,1616541333,197388,0.026610035,-0.20381701,0.43254957,0
1616644000,1616613333,197388,0.027168592,-0.20813923,0.4342291,0
1616704000,1616680000,197388,0.028605998,-0.20761621,0.43338242,0
1616788000,1616752000,197388,0.027068526,-0.20899482,0.4312338,0
1616844000,1616823200,197388,0.028629437,-0.20742893,0.43379474,0
1616920000,1616890000,197388,0.02968612,-0.20794629,0.4313105,0
1616992000,1616961333,197388,0.03183558,-0.2065926,0.43415284,0
1617064000,1617033333,197388,0.03244499,-0.2111294,0.4318378,0
1617132000,1617103333,197388,0.032686897,-0.20859304,0.43279085,0
1617196000,1617171200,197388,0.032720815,-0.20981215,0.4300317,0
1617280000,1617243428,197388,0.029685209,-0.21157879,0.4327731,0
1617340000,1617315200,197388,0.03264838,-0.21229306,0.4280281,0
1617412000,1617382000,197388,0.029331831,-0.2098948,0.43113416,0
1617484000,1617454000,197388,0.03213796,-0.21187681,0.43079263,0
1617556000,1617526000,197388,0.032130033,-0.2135188,0.42720518,0
1617628000,1617598000,197388,0.032127276,-0.21513927,0.42639038,0
1617700000,1617670000,197388,0.032181617,-0.21100669,0.43035412,0
1617772000,1617742000,197388,0.03440631,-0.20995882,0.42999566,0
1617844000,1617814000,197388,0.034429133,-0.21248141,0.4290648,0
1617916000,1617885333,197388,0.034819905,-0.2128639,0.4316095,0
1617988000,1617957333,197388,0.036465887,-0.21192549,0.43054843,0
1618060000,1618029333,197388,0.037279848,-0.21455666,0.43062127,0
1618120000,1618096000,197388,0.036473125,-0.21044472,0.43106553,0
1618204000,1618167428,197388,0.03284145,-0.21197161,0.42834556,0
1618260000,1618237600,197388,0.033205427,-0.21343195,0.43000957,0
1618336000,1618305333,197388,0.034106605,-0.21210796,0.43122005,0
1618404000,1618376666,197388,0.033650864,-0.21418369,0.4284411,0
1618480000,1618449333,197388,0.033182457,-0.21323201,0.42889115,0
1618540000,1618516000,197388,0.03435093,-0.210457,0.4287471,0
1618624000,1618588000,197388,0.03193515,-0.21535058,0.42706576,0
1618684000,1618659200,197388,0.03411377,-0.21290188,0.43070593,0
1618756000,1618726000,197388,0.03523182,-0.21439242,0.42823118,0
1618828000,1618797333,197388,0.035230454,-0.21484265,0.43212268,0
1618888000,1618864000,197388,0.031872556,-0.2102156,0.4322358,0
1618972000,1618935428,197388,0.03106997,-0.21369582,0.42807335,0
1619032000,1619008000,197388,0.033108454,-0.2151002,0.43303457,0
1619116000,1619078857,197388,0.031562768,-0.2136916,0.42966682,0
1619164000,1619146000,197388,0.030804414,-0.21161243,0.42982873,0
1619260000,1619216500,197388,0.034954775,-0.21316443,0.43217966,0
1619308000,1619288000,197388,0.033294734,-0.21181192,0.43101692,0
1619392000,1619355428,197388,0.03249494,-0.21059316,0.42947844,0
1619452000,1619427200,197388,0.032989156,-0.2120792,0.4277897,0
1619536000,1619499428,197388,0.033424754,-0.21141809,0.4305548,0
1619596000,1619572000,197388,0.030324364,-0.20952009,0.4311475,0
1619680000,1619643428,197388,0.035650283,-0.21092406,0.4290848,0
1619740000,1619715200,197388,0.03257916,-0.21341248,0.43165836,0
1619812000,1619782000,197388,0.03182237,-0.21100947,0.4292178,0
1619884000,1619854000,197388,0.031959996,-0.20938556,0.4276641,0
1619956000,1619926000,197388,0.029889986,-0.2129195,0.42879033,0
1620028000,1619997333,197388,0.033655033,-0.21164423,0.43159932,0
1620096000,1620068666,197388,0.031363636,-0.21179448,0.43058115,0
1620160000,1620136000,197388,0.03587125,-0.21247509,0.43089095,0
1620244000,1620206857,197388,0.032188796,-0.21191932,0.43214607,0
1620304000,1620279200,197388,0.032080483,-0.21016966,0.42900315,0
1620388000,1620350857,197388,0.032070287,-0.21076728,0.42868853,0
1620448000,1620423200,197388,0.037838783,-0.20992143,0.43238816,0
1620520000,1620490000,197388,0.031448465,-0.21287301,0.4295969,0
1620592000,1620562000,197388,0.031140348,-0.21117777,0.4282378,0
1620664000,1620634000,197388,0.03377199,-0.213794,0.43131095,0
1620736000,1620706000,197388,0.033886,-0.21425758,0.43069822,0
1620808000,1620776666,197388,0.031508278,-0.211821,0.42999813,0
1620868000,1620844000,197388,0.032439116,-0.20876627,0.43254948,0
1620952000,1620916000,197388,0.032195263,-0.20960477,0.43026835,0
1621012000,1620988000,197388,0.0306537,-0.21141541,0.42626745,0
1621092000,1621058857,197388,0.031400383,-0.21462065,0.4279369,0
1621156000,1621131200,197388,0.03419557,-0.21072403,0.42845532,0
1621236000,1621202857,197388,0.032775905,-0.2128064,0.4286067,0
1621300000,1621275200,197388,0.03459924,-0.21205091,0.4293459,0
1621372000,1621342000,197388,0.033780605,-0.21445999,0.43064722,0
1621444000,1621414000,197388,0.032933947,-0.21317744,0.428109,0
1621516000,1621486000,197388,0.034212254,-0.21277952,0.4294452,0
1621588000,1621556666,197388,0.03141009,-0.21305287,0.4330758,0
1621648000,1621624000,197388,0.036492802,-0.21344161,0.43001205,0
1621732000,1621696000,197388,0.03134871,-0.20957878,0.43158725,0
1621792000,1621768000,197388,0.034145854,-0.2110403,0.43122122,0
1621872000,1621839428,197388,0.03735369,-0.21134703,0.43387824,0
1621936000,1621911200,197388,0.0353031,-0.21108596,0.43038902,0
1622020000,1621983428,197388,0.032029547,-0.21106976,0.4282196,0
1622080000,1622056000,197388,0.033822816,-0.210073,0.43057033,0
1622164000,1622127428,197388,0.035697576,-0.20828371,0.4319366,0
1622224000,1622200000,197388,0.036567874,-0.21075521,0.43075252,0
1622308000,1622271428,197388,0.033797953,-0.21028866,0.4296371,0
1622368000,1622343200,197388,0.03295762,-0.210524,0.42899486,0
1622440000,1622410000,197388,0.033581074,-0.20933995,0.43168446,0
1622512000,1622481333,197388,0.03425696,-0.20967388,0.4288535,0
1622572000,1622548000,197388,0.036181528,-0.20705771,0.4309655,0
1622656000,1622619428,197388,0.034011148,-0.21169215,0.42946815,0
1622716000,1622692000,197388,0.031890053,-0.21189122,0.43023106,0
1622796000,1622763428,197388,0.035411574,-0.21024854,0.43078828,0
1622860000,1622835200,197388,0.032306787,-0.21228842,0.43186077,0
1622944000,1622907428,197388,0.03241974,-0.21000049,0.4329809,0
1623004000,1622980000,197388,0.033363085,-0.20810056,0.43312475,0
1623088000,1623050285,197388,0.035384804,-0.20836025,0.4319912,0
1623136000,1623117000,197388,0.036720637,-0.21013477,0.4302008,0
1623232000,1623189500,197388,0.03504942,-0.21080226,0.43384585,0
1623280000,1623262000,197388,0.035074454,-0.20996793,0.4303873,0
1623376000,1623333500,197388,0.033410985,-0.20930293,0.4284585,0
1623424000,1623404000,197388,0.035267457,-0.20913553,0.430825,0
1623508000,1623472000,197388,0.03313876,-0.2108052,0.43240824,0
1623568000,1623543200,197388,0.031358,-0.2101949,0.43233785,0
1623652000,1623615428,197388,0.032711454,-0.20915678,0.43018425,0
1623712000,1623688000,197388,0.033662703,-0.21223986,0.43216655,0
1623796000,1623759428,197388,0.034044165,-0.2096851,0.43180805,0
1623856000,1623831200,197388,0.034662645,-0.20819233,0.4309837,0
1623928000,1623898000,197388,0.03130379,-0.21100545,0.43083602,0
1624000000,1623970000,197388,0.032575786,-0.20755267,0.43373656,0
1624072000,1624041333,197388,0.035215892,-0.20565222,0.4304642,0
1624132000,1624108000,197388,0.032407235,-0.20985083,0.4292965,0
1624216000,1624180000,197388,0.032958906,-0.20789988,0.43092686,0
1624276000,1624252000,197388,0.028454527,-0.20763074,0.43066207,0
1624360000,1624324000,197388,0.032037523,-0.21099545,0.431698,0
1624420000,1624396000,197388,0.033307288,-0.2115825,0.42996487,0
1624504000,1624467428,197388,0.033152074,-0.20930175,0.43190348,0
1624564000,1624540000,197388,0.03466117,-0.21279712,0.43029615,0
1624648000,1624612000,197388,0.031932205,-0.21053967,0.42840388,0
1624708000,1624683200,197388,0.032851115,-0.21096139,0.433911,0
1624792000,1624754285,197388,0.0321868,-0.21153638,0.4318069,0
1624840000,1624822000,197388,0.034126066,-0.21184012,0.43183297,0
1624932000,1624893000,197388,0.03351727,-0.21036941,0.4302989,0
1624972000,1624960000,197388,0.032142058,-0.20892483,0.4294353,0
1625080000,1625031555,197388,0.033531606,-0.21067102,0.4307888,0
1625116000,1625104000,197388,0.03498153,-0.21321528,0.4325537,0
1625220000,1625175111,197388,0.03316309,-0.21111797,0.43257013,0
1625248000,1625242000,197388,0.034279454,-0.21480614,0.43357804,0
1625368000,1625313600,197388,0.031744506,-0.21098307,0.43086863,0
1625392000,1625386000,197388,0.033009008,-0.21147269,0.43637955,0
1625512000,1625458000,197388,0.03461506,-0.20831302,0.42961225,0
1625536000,1625530000,197388,0.033669256,-0.21005806,0.4310484,0
1625652000,1625600000,197388,0.035133757,-0.21198697,0.43058252,0
1625668000,1625668000,197388,0.04057968,-0.2102222,0.42799067,0
1625800000,1625740000,197388,0.03259158,-0.21153855,0.43015188,0
1625812000,1625812000,197388,0.031919938,-0.20724028,0.43413565,0
1625944000,1625884000,197388,0.034237046,-0.21094735,0.43160522,0
1625956000,1625956000,197388,0.035323903,-0.21577895,0.4318375,0
1626088000,1626026545,197388,0.035464007,-0.21002886,0.4292443,0
1626100000,1626100000,197388,0.033535127,-0.21480253,0.42869857,0
1626232000,1626171636,197388,0.034316145,-0.20975992,0.43013144,0
1626244000,1626244000,197388,0.039417557,-0.21398637,0.43335214,0
1626376000,1626315272,197388,0.035869196,-0.2119334,0.43017298,0
1626388000,1626388000,197388,0.030995985,-0.21291044,0.43571246,0
1626520000,1626460000,197388,0.033045065,-0.21240224,0.43232238,0
1626532000,1626532000,197388,0.032048363,-0.20991325,0.42983857,0
1626664000,1626603272,197388,0.0332222,-0.21150345,0.43030176,0
1626676000,1626676000,197388,0.032159355,-0.20939305,0.4324949,0
1626808000,1626747636,197388,0.033690203,-0.21005581,0.43299282,0
1626820000,1626820000,197388,0.034736793,-0.21147217,0.4268323,0
1626952000,1626891636,197388,0.033321016,-0.21073164,0.42991018,0
1626964000,1626964000,197388,0.03577392,-0.21439664,0.4324539,0
1627096000,1627035636,197388,0.032292567,-0.21274233,0.4315993,0
1627104000,1627104000,197388,0.030002562,-0.20976926,0.4309919,0
1627228000,1627173200,197388,0.033975076,-0.21142629,0.4303662,0
1627240000,1627240000,197388,0.02798628,-0.21261786,0.4311704,0
1627372000,1627311272,197388,0.03374085,-0.21354598,0.43102327,0
1627384000,1627384000,197388,0.031032206,-0.21483812,0.43258864,0
1627516000,1627455636,197388,0.03407204,-0.21119168,0.4278649,0
1627528000,1627528000,197388,0.031189585,-0.20772396,0.43440112,0
1627660000,1627599272,197388,0.035139687,-0.21235766,0.4299878,0
1627672000,1627672000,197388,0.034893423,-0.21373284,0.43005309,0
1627804000,1627742909,197388,0.033457756,-0.21022227,0.4319658,0
1627816000,1627816000,197388,0.03795277,-0.20982236,0.42710477,0
1627948000,1627887636,197388,0.03224002,-0.20958097,0.43033874,0
1627960000,1627960000,197388,0.037202585,-0.2111821,0.42416513,0
1628092000,1628032000,197388,0.03308839,-0.21090218,0.43063867,0
1628104000,1628104000,197388,0.032790605,-0.20995718,0.433417,0
1628236000,1628176000,197388,0.034223884,-0.21083826,0.42945242,0
1628244000,1628244000,197388,0.031313993,-0.21042684,0.42554873,0
1628368000,1628314000,197388,0.03529794,-0.21224158,0.43003485,0
1628392000,1628386000,197388,0.03618565,-0.21370763,0.4302926,0
1628512000,1628457600,197388,0.03602608,-0.21087705,0.42852098,0
1628532000,1628528000,197388,0.039787747,-0.21245994,0.42490327,0
1628644000,1628596000,197388,0.0360217,-0.21040256,0.4294761,0
1628680000,1628668000,197388,0.038160294,-0.20634788,0.43024474,0
1628788000,1628740000,197388,0.035158467,-0.21046902,0.42959538,0
1628824000,1628812000,197388,0.03553727,-0.20837055,0.4306553,0
1628932000,1628883555,197388,0.034198068,-0.20894982,0.42927217,0
1628968000,1628956000,197388,0.036008824,-0.20597093,0.4323532,0
1629076000,1629027555,197388,0.034207463,-0.20780964,0.4305176,0
1629112000,1629100000,197388,0.03558395,-0.21199286,0.43283948,0
1629220000,1629172000,197388,0.033256225,-0.20906298,0.43232286,0
1629256000,1629244000,197388,0.032170977,-0.20969205,0.4320069,0
1629364000,1629315555,197388,0.028437141,-0.21210063,0.43083906,0
1629400000,1629388000,197388,0.017813591,-0.21067393,0.43020043,0
1629508000,1629460000,197388,0.011566431,-0.2112501,0.42972106,0
1629544000,1629532000,197388,-0.0010012393,-0.21059528,0.4335142,0
1629652000,1629603555,197388,-0.015794514,-0.20872654,0.43103418,0
1629688000,1629676000,197388,-0.03132461,-0.20839809,0.43054014,0
1629796000,1629747555,197388,-0.039784748,-0.20853762,0.43209687,0
1629832000,1629818666,197388,-0.047136318,-0.21135291,0.42650995,0
1629940000,1629890666,197388,-0.04765027,-0.20793109,0.42955583,0
1629972000,1629961333,197388,-0.055275753,-0.21048443,0.43245384,0
1630068000,1630029000,197388,-0.052132577,-0.20789853,0.42763302,0
1630108000,1630096000,197388,-0.052766815,-0.21131277,0.42796737,0
1630216000,1630168000,197388,-0.05370863,-0.21094264,0.4256715,0
1630252000,1630240000,197388,-0.055662274,-0.21386854,0.43200013,0
1630360000,1630311555,197388,-0.05578894,-0.21306664,0.42678955,0
1630396000,1630384000,197388,-0.057208132,-0.21388644,0.42519104,0
1630504000,1630455555,197388,-0.059592843,-0.2163025,0.42633212,0
1630540000,1630528000,197388,-0.060221463,-0.21568106,0.42971408,0
1630648000,1630600000,197388,-0.06249081,-0.2136742,0.42432198,0
1630684000,1630672000,197388,-0.063306384,-0.21044408,0.42816377,0
1630792000,1630743111,197388,-0.06445644,-0.21399485,0.42680556,0
1630816000,1630810000,197388,-0.058189377,-0.21359998,0.42108792,0
1630936000,1630881600,197388,-0.06602071,-0.21395361,0.4257497,0
1630960000,1630954000,197388,-0.066817135,-0.21491517,0.42478108,0
1631080000,1631025600,197388,-0.0659128,-0.2159559,0.42361113,0
1631104000,1631098000,197388,-0.0681371,-0.2191562,0.42228162,0
1631224000,1631168800,197388,-0.067476764,-0.21845482,0.422819,0
1631236000,1631236000,197388,-0.06585633,-0.21895884,0.41711736,0
1631368000,1631307636,197388,-0.068285495,-0.22087047,0.42260098,0
1631380000,1631380000,197388,-0.062456284,-0.21870205,0.41832638,0
1631508000,1631451272,197388,-0.06666292,-0.22022757,0.4224996,0
1631524000,1631524000,197388,-0.06469289,-0.21719998,0.42653692,0
1631656000,1631596000,197388,-0.06478017,-0.21973261,0.42412135,0
1631668000,1631668000,197388,-0.060894772,-0.21841799,0.42761227,0
1631800000,1631739636,197388,-0.060673613,-0.215883,0.42546496,0
1631812000,1631812000,197388,-0.060771056,-0.2148543,0.42644545,0
1631944000,1631883636,197388,-0.06029225,-0.2150791,0.4233754,0
1631952000,1631952000,197388,-0.0632691,-0.21962856,0.43142727,0
1632076000,1632020800,197388,-0.061468035,-0.21117385,0.42808595,0
1632100000,1632092000,197388,-0.06316902,-0.21451563,0.42342502,0
1632204000,1632159555,197388,-0.057753254,-0.21149404,0.42727837,0
1632244000,1632230666,197388,-0.058590814,-0.21622193,0.426485,0
1632340000,1632298000,197388,-0.057352263,-0.2136097,0.42811117,0
1632388000,1632370000,197388,-0.05760354,-0.21384244,0.4260105,0
1632484000,1632442000,197388,-0.0565803,-0.21008626,0.42629626,0
1632528000,1632513000,197388,-0.055079397,-0.2104866,0.42361295,0
1632628000,1632585000,197388,-0.05498363,-0.21178447,0.42648175,0
1632676000,1632657000,197388,-0.05264053,-0.20988289,0.43117154,0
1632772000,1632729000,197388,-0.05285423,-0.21189044,0.4273899,0
1632820000,1632801000,197388,-0.05386354,-0.20873481,0.42677537,0
1632916000,1632872500,197388,-0.05083604,-0.21150847,0.42743307,0
1632952000,1632940000,197388,-0.049519137,-0.2146645,0.430593,0
1633060000,1633010666,197388,-0.051647563,-0.21203487,0.4306286,0
1633096000,1633082666,197388,-0.049523436,-0.21066678,0.42991242,0
1633204000,1633155111,197388,-0.048233338,-0.2080968,0.43044728,0
1633228000,1633222000,197388,-0.049896434,-0.20911323,0.42855376,0
1633348000,1633294000,197388,-0.045147877,-0.21060932,0.42718673,0
1633372000,1633366000,197388,-0.046556868,-0.21233073,0.4323464,0
1633492000,1633437600,197388,-0.044225197,-0.21111698,0.42996606,0
1633516000,1633510000,197388,-0.04522694,-0.20941064,0.42740604,0
1633636000,1633581600,197388,-0.042413127,-0.21147452,0.42875892,0
1633660000,1633652000,197388,-0.039880726,-0.21416141,0.42920798,0
1633768000,1633719555,197388,-0.041148443,-0.21078612,0.43325576,0
1633804000,1633792000,197388,-0.040767528,-0.21095973,0.42812046,0
1633912000,1633863555,197388,-0.039456714,-0.21166325,0.4314576,0
1633948000,1633936000,197388,-0.04441642,-0.21009159,0.42984092,0
1634056000,1634007555,197388,-0.041635156,-0.21110137,0.43015817,0
1634092000,1634080000,197388,-0.04268209,-0.20829254,0.43208212,0
1634196000,1634150222,197388,-0.040800467,-0.21188356,0.43049648,0
1634232000,1634221333,197388,-0.04291287,-0.211191,0.42986605,0
1634332000,1634289500,197388,-0.04540094,-0.2121206,0.42940995,0
1634380000,1634361000,197388,-0.0412828,-0.2107596,0.42786932,0
1634464000,1634428000,197388,-0.039836075,-0.21423517,0.43086317,0
1634524000,1634500000,197388,-0.04082657,-0.2101532,0.43021652,0
1634608000,1634570857,197388,-0.041455068,-0.21108833,0.42940268,0
1634668000,1634643200,197388,-0.04305554,-0.21260762,0.42911693,0
1634740000,1634710000,197388,-0.042074658,-0.21321654,0.42853928,0
1634812000,1634782000,197388,-0.04227785,-0.21401666,0.42718217,0
1634884000,1634854000,197388,-0.041314535,-0.21544681,0.42897183,0
1634956000,1634926000,197388,-0.040179156,-0.21184175,0.4264369,0
1635028000,1634998000,197388,-0.042117767,-0.21496812,0.4302504,0
1635100000,1635070000,197388,-0.038462065,-0.21186267,0.4270235,0
1635172000,1635142000,197388,-0.039305497,-0.21322626,0.4284595,0
1635244000,1635213333,197388,-0.037780184,-0.21270339,0.42717338,0
1635316000,1635285333,197388,-0.04167132,-0.21271877,0.42937368,0
1635376000,1635352000,197388,-0.03893329,-0.2119441,0.42827272,0
1635460000,1635424000,197388,-0.038381733,-0.215559,0.4287217,0
1635520000,1635496000,197388,-0.037087366,-0.21631496,0.42728397,0
1635600000,1635567428,197388,-0.03690484,-0.2139291,0.4289492,0
1635660000,1635637600,197388,-0.03809262,-0.21388666,0.4311336,0
1635736000,1635705333,197388,-0.036828443,-0.21409026,0.42717117,0
1635808000,1635777333,197388,-0.035962246,-0.2120627,0.4278714,0
1635868000,1635844000,197388,-0.03751248,-0.21096812,0.42918095,0
1635952000,1635915428,197388,-0.035736967,-0.21521659,0.43082514,0
1636012000,1635987200,197388,-0.037538033,-0.21349159,0.42940098,0
1636096000,1636058857,197388,-0.038324203,-0.21313481,0.4299718,0
1636156000,1636131200,197388,-0.039340146,-0.21466461,0.43003345,0
1636240000,1636203428,197388,-0.037347425,-0.21140176,0.4303116,0
1636300000,1636275200,197388,-0.03924409,-0.21592236,0.4290435,0
1636372000,1636342000,197388,-0.03736633,-0.21415913,0.4288972,0
1636444000,1636414000,197388,-0.03822213,-0.21237391,0.43105316,0
1636512000,1636484666,197388,-0.037826214,-0.21233052,0.42686582,0
1636576000,1636552000,197388,-0.039601427,-0.21262617,0.4294091,0
1636660000,1636622857,197388,-0.0402482,-0.21441376,0.42759567,0
1636720000,1636695200,197388,-0.03798734,-0.21347968,0.42714366,0
1636804000,1636767428,197388,-0.039873313,-0.21268108,0.42897052,0
1636864000,1636840000,197388,-0.0405603,-0.21173814,0.42956176,0
1636948000,1636911428,197388,-0.038505077,-0.21060349,0.4300156,0
1637008000,1636984000,197388,-0.039260775,-0.2141708,0.4277137,0
1637088000,1637054857,197388,-0.0393531,-0.2131003,0.43086198,0
1637140000,1637122000,197388,-0.03728389,-0.21272372,0.427079,0
1637236000,1637194000,197388,-0.036939062,-0.21386835,0.4284338,0
1637284000,1637264000,197388,-0.04069477,-0.216171,0.42932856,0
1637368000,1637332000,197388,-0.036241792,-0.21206197,0.42873794,0
1637428000,1637404000,197388,-0.038364194,-0.21376212,0.42902443,0
1637508000,1637475428,197388,-0.036258876,-0.21358891,0.42935398,0
1637572000,1637546400,197388,-0.03869814,-0.21184385,0.43161035,0
1637644000,1637614000,197388,-0.038641572,-0.2125909,0.42641518,0
1637716000,1637684666,197388,-0.03680762,-0.21450005,0.43142462,0
1637776000,1637752000,197388,-0.037425585,-0.21242364,0.42776987,0
1637860000,1637824000,197388,-0.03829612,-0.21219634,0.42919064,0
1637920000,1637896000,197388,-0.036447704,-0.21452151,0.42914638,0
1638004000,1637968000,197388,-0.038338535,-0.21510908,0.42768964,0
1638064000,1638040000,197388,-0.03692292,-0.21364844,0.42971906,0
1638148000,1638112000,197388,-0.03848418,-0.21580797,0.42663547,0
1638208000,1638184000,197388,-0.039117,-0.21231082,0.42914715,0
1638292000,1638254285,197388,-0.0370156,-0.2153496,0.42861405,0
1638340000,1638322000,197388,-0.042432807,-0.21554574,0.42421928,0
1638436000,1638393000,197388,-0.037414756,-0.21565655,0.42786014,0
1638484000,1638465000,197388,-0.035695054,-0.2110094,0.42821276,0
1638568000,1638532000,197388,-0.035661682,-0.21478698,0.42972425,0
1638628000,1638604000,197388,-0.037452284,-0.21237397,0.42898747,0
1638712000,1638675428,197388,-0.03607963,-0.21116398,0.42946133,0
1638772000,1638748000,197388,-0.037096974,-0.2153267,0.42974266,0
1638856000,1638820000,197388,-0.037900098,-0.21141556,0.4310849,0
1638916000,1638892000,197388,-0.039272856,-0.2127461,0.42857844,0
1638996000,1638963428,197388,-0.035080194,-0.21155773,0.4325234,0
1639060000,1639035200,197388,-0.031411774,-0.21465175,0.43029928,0
1639144000,1639107428,197388,-0.029643007,-0.2109236,0.42976096,0
1639204000,1639179200,197388,-0.028531486,-0.21295534,0.42793298,0
1639288000,1639250857,197388,-0.028790802,-0.21314333,0.4298385,0
1639348000,1639323200,197388,-0.027547969,-0.21380992,0.4321373,0
1639428000,1639394285,197388,-0.025372287,-0.21155713,0.42870793,0
1639476000,1639461000,197388,-0.029243428,-0.21263666,0.42914906,0
1639572000,1639533000,197388,-0.028051393,-0.21308185,0.43027082,0
1639612000,1639600000,197388,-0.03444479,-0.21213254,0.4296771,0
1639720000,1639671555,197388,-0.03454131,-0.21205889,0.43044642,0
1639756000,1639742666,197388,-0.0384618,-0.21254197,0.4287765,0
1639852000,1639810000,197388,-0.03931043,-0.2117763,0.42907155,0
1639896000,1639881000,197388,-0.038441285,-0.21389343,0.42672053,0
1639984000,1639948000,197388,-0.03930328,-0.21450984,0.42875728,0
1640040000,1640018400,197388,-0.035961602,-0.21107851,0.42835626,0
1640116000,1640085333,197388,-0.040642597,-0.21201645,0.42867237,0
1640176000,1640152000,197388,-0.038492687,-0.21093944,0.42786524,0
1640260000,1640223428,197388,-0.038522232,-0.21232936,0.42595455,0
1640320000,1640295200,197388,-0.03610694,-0.20988707,0.4282782,0
1640404000,1640366857,197388,-0.036656033,-0.21276127,0.4296167,0
1640452000,1640434000,197388,-0.036924873,-0.21419112,0.4279561,0
1640548000,1640505500,197388,-0.03814923,-0.2149363,0.42689157,0
1640596000,1640578000,197388,-0.03736027,-0.2134001,0.42785656,0
1640692000,1640649500,197388,-0.037256,-0.21440166,0.42874306,0
1640740000,1640722000,197388,-0.040067706,-0.21185988,0.42834145,0
1640836000,1640794000,197388,-0.03893575,-0.21435434,0.428622,0
1640884000,1640865000,197388,-0.035826348,-0.21457958,0.42912978,0
1640976000,1640936500,197388,-0.036967065,-0.2123542,0.43104535,0
1641016000,1641004000,197388,-0.03858703,-0.21551263,0.43047428,0
1641124000,1641076000,197388,-0.0391631,-0.21281399,0.42837214,0
1641156000,1641146666,197388,-0.041440595,-0.2104561,0.42922843,0
1641252000,1641213500,197388,-0.04037257,-0.2137158,0.4298567,0
1641304000,1641285000,197388,-0.041562412,-0.21053609,0.42736325,0
1641388000,1641352000,197388,-0.039586812,-0.2125075,0.43088204,0
1641448000,1641424000,197388,-0.04063947,-0.2116162,0.4299812,0
1641532000,1641495428,197388,-0.03976693,-0.21111573,0.42646116,0
1641592000,1641567200,197388,-0.03922644,-0.21264485,0.42938375,0
1641676000,1641638857,197388,-0.042057697,-0.21250148,0.42685476,0
1641724000,1641706000,197388,-0.042028964,-0.21236962,0.42884976,0
1641820000,1641778000,197388,-0.03872266,-0.21396454,0.4283976,0
1641868000,1641850000,197388,-0.03710147,-0.21132451,0.42765975,0
1641964000,1641921500,197388,-0.0361277,-0.21256723,0.43095997,0
1642012000,1641993000,197388,-0.03908385,-0.21018973,0.4293918,0
1642108000,1642064500,197388,-0.03729211,-0.21329571,0.42938936,0
1642156000,1642137000,197388,-0.039495595,-0.21234241,0.43063653,0
1642240000,1642204000,197388,-0.040263068,-0.21255425,0.42951623,0
1642300000,1642275200,197388,-0.037595935,-0.21291952,0.42979237,0
1642380000,1642346857,197388,-0.040141083,-0.21137129,0.42855105,0
1642444000,1642419200,197388,-0.038969796,-0.21216166,0.4307335,0
1642516000,1642486000,197388,-0.041688174,-0.2134184,0.43009716,0
1642584000,1642557333,197388,-0.038781468,-0.21157013,0.42896935,0
1642648000,1642624000,197388,-0.037922572,-0.21129075,0.4319218,0
1642732000,1642695428,197388,-0.038753133,-0.21262613,0.43125996,0
1642788000,1642767200,197388,-0.040788162,-0.21222015,0.4305862,0
1642876000,1642839428,197388,-0.0377907,-0.21505992,0.4290036,0
1642936000,1642912000,197388,-0.03963223,-0.21335141,0.4312125,0
1643020000,1642984000,197388,-0.037369452,-0.21365955,0.42856768,0
1643080000,1643056000,197388,-0.037413947,-0.21136676,0.43093178,0
1643164000,1643128000,197388,-0.0396354,-0.21401836,0.4310335,0
1643224000,1643200000,197388,-0.03964586,-0.21459761,0.42962047,0
1643304000,1643271428,197388,-0.037045788,-0.21326073,0.42809236,0
1643368000,1643342400,197388,-0.036533874,-0.21603107,0.42921615,0
1643440000,1643409333,197388,-0.037097972,-0.21487048,0.42800015,0
1643500000,1643476000,197388,-0.0359446,-0.21307528,0.43208528,0
1643584000,1643547428,197388,-0.03797947,-0.21347876,0.4299829,0
1643644000,1643620000,197388,-0.037490048,-0.21319042,0.43009982,0
1643728000,1643691428,197388,-0.03596905,-0.21388029,0.42907554,0
1643788000,1643764000,197388,-0.040122565,-0.21286522,0.43112713,0
1643872000,1643835428,197388,-0.036787786,-0.21186073,0.4289113,0
1643932000,1643908000,197388,-0.03680232,-0.21272945,0.42966405,0
1644016000,1643979428,197388,-0.037919313,-0.21477737,0.42829406,0
1644076000,1644052000,197388,-0.03598046,-0.21119595,0.42688414,0
1644160000,1644123428,197388,-0.035592113,-0.214326,0.43013445,0
1644220000,1644195200,197388,-0.03483366,-0.21381441,0.43019396,0
1644304000,1644266857,197388,-0.037595827,-0.2141628,0.4298799,0
1644352000,1644334000,197388,-0.036107168,-0.21252699,0.42673752,0
1644448000,1644405500,197388,-0.036448393,-0.21378636,0.42932993,0
1644496000,1644477000,197388,-0.034499712,-0.21364856,0.42944184,0
1644592000,1644549500,197388,-0.03674648,-0.21556486,0.4292851,0
1644636000,1644620000,197388,-0.03790122,-0.210718,0.42774034,0
1644724000,1644687428,197388,-0.033257518,-0.21157353,0.42906108,0
1644784000,1644759200,197388,-0.037081003,-0.21157208,0.4291689,0
1644868000,1644831428,197388,-0.036535434,-0.21269912,0.43124264,0
1644928000,1644903200,197388,-0.03788793,-0.21578553,0.4284718,0
1645012000,1644974857,197388,-0.035409547,-0.21079698,0.43035018,0
1645072000,1645047200,197388,-0.038820673,-0.21480043,0.42946702,0
1645144000,1645114000,197388,-0.03522325,-0.21251363,0.429313,0
1645216000,1645185333,197388,-0.039388955,-0.2138938,0.4312327,0
1645288000,1645256666,197388,-0.03480394,-0.21353292,0.42860955,0
1645360000,1645329333,197388,-0.036387485,-0.2128044,0.42828712,0
1645432000,1645401333,197388,-0.03577396,-0.21264271,0.43184218,0
1645504000,1645473333,197388,-0.03635808,-0.21155092,0.42999536,0
1645576000,1645544000,197388,-0.03664501,-0.21321605,0.42791483,0
1645648000,1645616666,197388,-0.03922391,-0.21192692,0.42756423,0
1645708000,1645684000,197388,-0.038105924,-0.21142565,0.4298968,0
1645788000,1645754285,197388,-0.034580905,-0.21266921,0.4292422,0
1645840000,1645822000,197388,-0.035351247,-0.2147605,0.42745757,0
1645932000,1645893000,197388,-0.036034938,-0.211389,0.43156457,0
1645972000,1645960000,197388,-0.03654453,-0.21091115,0.42981276,0
1646080000,1646032000,197388,-0.03511491,-0.21359129,0.42911932,0
1646116000,1646104000,197388,-0.03283728,-0.21222284,0.4290988,0
1646220000,1646175555,197388,-0.03745801,-0.2144663,0.43141237,0
1646260000,1646248000,197388,-0.03593856,-0.2125663,0.42789662,0
1646368000,1646319555,197388,-0.037745774,-0.21354075,0.4301847,0
1646404000,1646392000,197388,-0.037422765,-0.20919172,0.43165952,0
1646512000,1646463555,197388,-0.036854982,-0.21179877,0.4282855,0
1646544000,1646534666,197388,-0.037685614,-0.21273832,0.43106622,0
1646644000,1646601500,197388,-0.03757796,-0.21304272,0.4281792,0
1646692000,1646674000,197388,-0.03503878,-0.21679898,0.4324697,0
1646788000,1646745500,197388,-0.03537841,-0.2123187,0.4317234,0
1646836000,1646817000,197388,-0.035044648,-0.21339223,0.4288813,0
1646932000,1646888500,197388,-0.03854723,-0.21309578,0.4276694,0
1646968000,1646956000,197388,-0.037374727,-0.21575391,0.42914695,0
1647076000,1647027555,197388,-0.035230853,-0.21398917,0.42814142,0
1647108000,1647098666,197388,-0.036649942,-0.2172823,0.42952737,0
1647204000,1647165500,197388,-0.035948336,-0.21360582,0.4304669,0
1647256000,1647238000,197388,-0.03742099,-0.21343814,0.42925966,0
1647352000,1647309000,197388,-0.034686297,-0.2148381,0.42912298,0
1647388000,1647376000,197388,-0.03672941,-0.21196693,0.43341082,0
1647496000,1647447555,197388,-0.036137864,-0.21328424,0.42905828,0
1647532000,1647520000,197388,-0.0380893,-0.21179855,0.42901766,0
