timestamp,timestamp_sample,q[0],q[1],q[2],q[3],delta_q_reset[0],delta_q_reset[1],delta_q_reset[2],delta_q_reset[3],quat_reset_counter
1592248000,1592244000,0.70824534,0.0005100395,0.0015539614,0.70596457,0.9998193,1.4551915e-10,0.0,0.019013762,2
1592252000,1592248000,0.7082406,0.000498948,0.0015633957,0.7059693,0.9998193,1.4551915e-10,0.0,0.019013762,2
1592260000,1592256000,0.70825315,0.0005125148,0.0015592634,0.70595676,0.9998193,1.4551915e-10,0.0,0.019013762,2
1592268000,1592264000,0.70828104,0.00048803145,0.0015367644,0.7059288,0.9998193,1.4551915e-10,0.0,0.019013762,2
1592280000,1592276000,0.70820546,0.00050367846,0.0015247234,0.7060046,0.9998193,1.4551915e-10,0.0,0.019013762,2
1592288000,1592284000,0.7082447,0.00050799426,0.0015444062,0.7059652,0.9998193,1.4551915e-10,0.0,0.019013762,2
1592300000,1592296000,0.7082459,0.0005406513,0.001559939,0.7059639,0.9998193,1.4551915e-10,0.0,0.019013762,2
1592308000,1592304000,0.7082464,0.00050788117,0.0015702771,0.70596343,0.9998193,1.4551915e-10,0.0,0.019013762,2
1592320000,1592316000,0.7082628,0.0004827366,0.0015972618,0.705947,0.9998193,1.4551915e-10,0.0,0.019013762,2
1592328000,1592324000,0.70822775,0.00045436603,0.0016290497,0.70598197,0.9998193,1.4551915e-10,0.0,0.019013762,2
1592340000,1592336000,0.7082011,0.00042046988,0.0016583062,0.70600873,0.9998193,1.4551915e-10,0.0,0.019013762,2
1592348000,1592344000,0.70818305,0.00040687752,0.0016957673,0.7060268,0.9998193,1.4551915e-10,0.0,0.019013762,2
1592360000,1592356000,0.708203,0.00040208563,0.0017442676,0.7060066,0.9998193,1.4551915e-10,0.0,0.019013762,2
1592368000,1592364000,0.70822346,0.0003797999,0.0017497843,0.70598614,0.9998193,1.4551915e-10,0.0,0.019013762,2
1592380000,1592376000,0.7082199,0.00036682285,0.0017297835,0.7059898,0.9998193,1.4551915e-10,0.0,0.019013762,2
1592388000,1592384000,0.70817524,0.0004032831,0.001801867,0.70603436,0.9998193,1.4551915e-10,0.0,0.019013762,2
1592400000,1592396000,0.70815945,0.0003877302,0.0018078266,0.7060501,0.9998193,1.4551915e-10,0.0,0.019013762,2
1592408000,1592404000,0.7081892,0.00035563565,0.0017478773,0.7060205,0.9998193,1.4551915e-10,0.0,0.019013762,2
1592420000,1592416000,0.70817924,0.0002897139,0.0017268924,0.7060306,0.9998193,1.4551915e-10,0.0,0.019013762,2
1592428000,1592424000,0.7081416,0.00026059162,0.0017253063,0.70606834,0.9998193,1.4551915e-10,0.0,0.019013762,2
1592440000,1592436000,0.70806056,0.00031632587,0.0017613936,0.70614946,0.9998193,1.4551915e-10,0.0,0.019013762,2
1592448000,1592444000,0.7080484,0.0002959033,0.0017752249,0.7061616,0.9998193,1.4551915e-10,0.0,0.019013762,2
1592460000,1592456000,0.7080163,0.00024383902,0.0017556539,0.7061939,0.9998193,1.4551915e-10,0.0,0.019013762,2
1592468000,1592464000,0.70800346,0.0002553639,0.0016884018,0.706207,0.9998193,1.4551915e-10,0.0,0.019013762,2
1592480000,1592476000,0.7079977,0.00026096063,0.001715042,0.70621264,0.9998193,1.4551915e-10,0.0,0.019013762,2
1592488000,1592484000,0.7080232,0.00024690805,0.0017050976,0.7061871,0.9998193,1.4551915e-10,0.0,0.019013762,2
1592500000,1592496000,0.70803446,0.00022200977,0.0017178692,0.7061758,0.9998193,1.4551915e-10,0.0,0.019013762,2
1592508000,1592504000,0.7080532,0.00021102621,0.0017034115,0.7061571,0.9998193,1.4551915e-10,0.0,0.019013762,2
1592520000,1592516000,0.7080498,0.00020241486,0.0017082663,0.7061604,0.9998193,1.4551915e-10,0.0,0.019013762,2
1592528000,1592524000,0.70801896,0.00026692572,0.0017012375,0.70619136,0.9998193,1.4551915e-10,0.0,0.019013762,2
1592540000,1592536000,0.7080276,0.00031542082,0.0016660371,0.7061828,0.9998193,1.4551915e-10,0.0,0.019013762,2
1592548000,1592544000,0.7079822,0.0003128761,0.001681617,0.70622826,0.9998193,1.4551915e-10,0.0,0.019013762,2
1592560000,1592556000,0.707964,0.00028540334,0.0016698496,0.7062465,0.9998193,1.4551915e-10,0.0,0.019013762,2
1592568000,1592564000,0.7079461,0.00031411523,0.0016624978,0.7062645,0.9998193,1.4551915e-10,0.0,0.019013762,2
1592580000,1592576000,0.7079523,0.0003365775,0.0017344401,0.70625806,0.9998193,1.4551915e-10,0.0,0.019013762,2
1592588000,1592584000,0.7079405,0.000370296,0.0017260591,0.7062699,0.9998193,1.4551915e-10,0.0,0.019013762,2
1592600000,1592596000,0.7079739,0.000324249,0.0017221886,0.7062365,0.9998193,1.4551915e-10,0.0,0.019013762,2
1592608000,1592604000,0.70796233,0.00031371953,0.001754595,0.7062479,0.9998193,1.4551915e-10,0.0,0.019013762,2
1592620000,1592616000,0.7079836,0.0003546491,0.0018153979,0.7062265,0.9998193,1.4551915e-10,0.0,0.019013762,2
1592628000,1592624000,0.7079781,0.00037207926,0.0018154437,0.706232,0.9998193,1.4551915e-10,0.0,0.019013762,2
1592640000,1592636000,0.7079972,0.00033361572,0.0017842454,0.70621294,0.9998193,1.4551915e-10,0.0,0.019013762,2
1592648000,1592644000,0.7080281,0.00026788726,0.0017856195,0.70618206,0.9998193,1.4551915e-10,0.0,0.019013762,2
1592660000,1592656000,0.7080465,0.00026858755,0.0017962287,0.7061635,0.9998193,1.4551915e-10,0.0,0.019013762,2
1592668000,1592664000,0.70803446,0.00024489142,0.0017633345,0.7061756,0.9998193,1.4551915e-10,0.0,0.019013762,2
1592680000,1592676000,0.70801675,0.00025001657,0.0017360733,0.70619345,0.9998193,1.4551915e-10,0.0,0.019013762,2
1592688000,1592684000,0.70800906,0.00026946346,0.001753709,0.7062011,0.9998193,1.4551915e-10,0.0,0.019013762,2
1592700000,1592696000,0.7080257,0.00023818383,0.0017737366,0.70618445,0.9998193,1.4551915e-10,0.0,0.019013762,2
1592708000,1592704000,0.7080124,0.00023289611,0.0017892538,0.70619774,0.9998193,1.4551915e-10,0.0,0.019013762,2
1592720000,1592716000,0.7080568,0.00015768326,0.0018294848,0.70615315,0.9998193,1.4551915e-10,0.0,0.019013762,2
1592728000,1592724000,0.7080554,0.00015468511,0.0018082026,0.7061547,0.9998193,1.4551915e-10,0.0,0.019013762,2
1592740000,1592736000,0.70804656,0.000165148,0.0017719992,0.7061635,0.9998193,1.4551915e-10,0.0,0.019013762,2
1592748000,1592744000,0.70806587,0.0001818016,0.0017733693,0.7061442,0.9998193,1.4551915e-10,0.0,0.019013762,2
1592760000,1592756000,0.70811814,0.00019009913,0.0018186547,0.7060917,0.9998193,1.4551915e-10,0.0,0.019013762,2
1592768000,1592764000,0.7081656,0.00013412883,0.0018537508,0.706044,0.9998193,1.4551915e-10,0.0,0.019013762,2
1592780000,1592776000,0.70815474,8.463439e-05,0.0018480181,0.70605487,0.9998193,1.4551915e-10,0.0,0.019013762,2
1592788000,1592784000,0.7081759,8.345323e-05,0.0019015748,0.7060335,0.9998193,1.4551915e-10,0.0,0.019013762,2
1592800000,1592796000,0.708222,5.607824e-05,0.0018947311,0.7059873,0.9998193,1.4551915e-10,0.0,0.019013762,2
1592808000,1592804000,0.70821095,7.921545e-05,0.0018957558,0.7059985,0.9998193,1.4551915e-10,0.0,0.019013762,2
1592820000,1592816000,0.70817417,0.00013967026,0.0017801395,0.70603555,0.9998193,1.4551915e-10,0.0,0.019013762,2
1592828000,1592824000,0.70815635,0.00013072141,0.0017530213,0.7060535,0.9998193,1.4551915e-10,0.0,0.019013762,2
1592840000,1592836000,0.7081336,0.00011009997,0.0017913193,0.7060762,0.9998193,1.4551915e-10,0.0,0.019013762,2
1592848000,1592844000,0.7081311,7.064688e-05,0.0017669406,0.70607877,0.9998193,1.4551915e-10,0.0,0.019013762,2
1592860000,1592856000,0.708126,4.209471e-05,0.0018026601,0.70608383,0.9998193,1.4551915e-10,0.0,0.019013762,2
1592868000,1592864000,0.7081284,5.3955464e-05,0.0018309834,0.7060814,0.9998193,1.4551915e-10,0.0,0.019013762,2
1592880000,1592876000,0.7081413,0.00010709886,0.0018294117,0.7060684,0.9998193,1.4551915e-10,0.0,0.019013762,2
1592888000,1592884000,0.70814174,9.4196796e-05,0.001883464,0.70606786,0.9998193,1.4551915e-10,0.0,0.019013762,2
1592900000,1592896000,0.7081617,6.300404e-05,0.0018738344,0.70604783,0.9998193,1.4551915e-10,0.0,0.019013762,2
1592908000,1592904000,0.70817256,3.913417e-05,0.0018966984,0.70603687,0.9998193,1.4551915e-10,0.0,0.019013762,2
1592920000,1592916000,0.7082009,0.00010925907,0.001879842,0.70600855,0.9998193,1.4551915e-10,0.0,0.019013762,2
1592928000,1592924000,0.70821476,0.000104496925,0.0018292852,0.7059947,0.9998193,1.4551915e-10,0.0,0.019013762,2
1592940000,1592936000,0.70819825,0.00012421935,0.0017628486,0.7060115,0.9998193,1.4551915e-10,0.0,0.019013762,2
1592948000,1592944000,0.7082026,0.00010003056,0.0017869348,0.706007,0.9998193,1.4551915e-10,0.0,0.019013762,2
1592960000,1592956000,0.7081663,8.0342e-05,0.00184006,0.7060433,0.9998193,1.4551915e-10,0.0,0.019013762,2
1592968000,1592964000,0.7081183,8.710904e-05,0.0018348384,0.70609146,0.9998193,1.4551915e-10,0.0,0.019013762,2
1592980000,1592976000,0.7081,8.5536616e-05,0.00182638,0.70610976,0.9998193,1.4551915e-10,0.0,0.019013762,2
1592988000,1592984000,0.70812726,5.0060124e-05,0.0018243882,0.7060825,0.9998193,1.4551915e-10,0.0,0.019013762,2
1593000000,1592996000,0.7081007,1.2205978e-05,0.0018361752,0.7061091,0.9998193,1.4551915e-10,0.0,0.019013762,2
1593008000,1593004000,0.7081042,-2.4209685e-05,0.001837713,0.70610565,0.9998193,1.4551915e-10,0.0,0.019013762,2
1593020000,1593016000,0.70809036,-8.109293e-05,0.0018772186,0.70611936,0.9998193,1.4551915e-10,0.0,0.019013762,2
1593028000,1593024000,0.7081064,-2.8167153e-05,0.0018814032,0.7061033,0.9998193,1.4551915e-10,0.0,0.019013762,2
1593040000,1593036000,0.7080882,-4.4328182e-05,0.001820887,0.70612174,0.9998193,1.4551915e-10,0.0,0.019013762,2
1593048000,1593044000,0.7080851,-6.0893846e-05,0.0018083153,0.70612484,0.9998193,1.4551915e-10,0.0,0.019013762,2
1593060000,1593056000,0.70810384,-9.716817e-05,0.0017772624,0.7061061,0.9998193,1.4551915e-10,0.0,0.019013762,2
1593068000,1593064000,0.7080896,-0.00012183,0.0017693128,0.70612043,0.9998193,1.4551915e-10,0.0,0.019013762,2
1593080000,1593076000,0.70811594,-0.00013266798,0.001759893,0.7060941,0.9998193,1.4551915e-10,0.0,0.019013762,2
1593088000,1593084000,0.70808774,-8.973179e-05,0.0017945117,0.7061222,0.9998193,1.4551915e-10,0.0,0.019013762,2
1593100000,1593096000,0.7080477,-0.00012866818,0.0017208398,0.7061625,0.9998193,1.4551915e-10,0.0,0.019013762,2
1593108000,1593104000,0.7080489,-0.0001550729,0.0017179862,0.7061614,0.9998193,1.4551915e-10,0.0,0.019013762,2
1593120000,1593116000,0.70803064,-0.00018505802,0.0017593662,0.70617956,0.9998193,1.4551915e-10,0.0,0.019013762,2
1593128000,1593124000,0.7080179,-0.00022221173,0.0017720896,0.70619226,0.9998193,1.4551915e-10,0.0,0.019013762,2
1593140000,1593136000,0.70801187,-0.00020810137,0.0017371122,0.70619833,0.9998193,1.4551915e-10,0.0,0.019013762,2
1593148000,1593144000,0.7080286,-0.00019062155,0.0017381889,0.7061816,0.9998193,1.4551915e-10,0.0,0.019013762,2
1593160000,1593156000,0.7080502,-0.00021017592,0.0018028043,0.70615983,0.9998193,1.4551915e-10,0.0,0.019013762,2
1593168000,1593164000,0.7080428,-0.00023735753,0.0017998279,0.7061673,0.9998193,1.4551915e-10,0.0,0.019013762,2
1593180000,1593176000,0.70805466,-0.00020294527,0.0018241311,0.70615524,0.9998193,1.4551915e-10,0.0,0.019013762,2
1593188000,1593184000,0.7080658,-0.00022818144,0.0018329119,0.7061441,0.9998193,1.4551915e-10,0.0,0.019013762,2
1593200000,1593196000,0.70804495,-0.00024682286,0.0018201887,0.7061651,0.9998193,1.4551915e-10,0.0,0.019013762,2
1593208000,1593204000,0.708052,-0.00029866942,0.0017643868,0.70615816,0.9998193,1.4551915e-10,0.0,0.019013762,2
1593220000,1593216000,0.70806503,-0.00026362113,0.0017995998,0.7061449,0.9998193,1.4551915e-10,0.0,0.019013762,2
1593228000,1593224000,0.7080842,-0.0002799944,0.0017656666,0.70612574,0.9998193,1.4551915e-10,0.0,0.019013762,2
1593240000,1593236000,0.7080787,-0.00026424637,0.0017417091,0.7061314,0.9998193,1.4551915e-10,0.0,0.019013762,2
1593248000,1593244000,0.7080819,-0.00022404814,0.0017475871,0.7061282,0.9998193,1.4551915e-10,0.0,0.019013762,2
1593260000,1593256000,0.7080874,-0.00024117209,0.001814208,0.7061225,0.9998193,1.4551915e-10,0.0,0.019013762,2
1593268000,1593264000,0.7080422,-0.0001909676,0.001819416,0.7061678,0.9998193,1.4551915e-10,0.0,0.019013762,2
1593280000,1593276000,0.7080105,-0.00017612592,0.0017079512,0.7061999,0.9998193,1.4551915e-10,0.0,0.019013762,2
1593288000,1593284000,0.7080296,-0.00017424904,0.0017057267,0.70618063,0.9998193,1.4551915e-10,0.0,0.019013762,2
1593300000,1593296000,0.7080246,-0.00019541605,0.0017073607,0.7061857,0.9998193,1.4551915e-10,0.0,0.019013762,2
1593308000,1593304000,0.7080337,-0.0002251613,0.0016999078,0.7061766,0.9998193,1.4551915e-10,0.0,0.019013762,2
1593320000,1593316000,0.7080599,-0.00022644764,0.0017011312,0.70615023,0.9998193,1.4551915e-10,0.0,0.019013762,2
1593328000,1593324000,0.7080227,-0.00025444894,0.0017570091,0.7061875,0.9998193,1.4551915e-10,0.0,0.019013762,2
1593340000,1593336000,0.7079829,-0.00027020305,0.0017639811,0.70622736,0.9998193,1.4551915e-10,0.0,0.019013762,2
1593348000,1593344000,0.70798314,-0.00027799522,0.0017671286,0.7062271,0.9998193,1.4551915e-10,0.0,0.019013762,2
1593360000,1593356000,0.7079621,-0.0003826455,0.0017524434,0.70624816,0.9998193,1.4551915e-10,0.0,0.019013762,2
1593368000,1593364000,0.70798194,-0.00039458412,0.0017372494,0.7062283,0.9998193,1.4551915e-10,0.0,0.019013762,2
1593380000,1593376000,0.70798254,-0.00035986688,0.0017550356,0.7062277,0.9998193,1.4551915e-10,0.0,0.019013762,2
1593388000,1593384000,0.70796394,-0.00035506455,0.0018078234,0.70624626,0.9998193,1.4551915e-10,0.0,0.019013762,2
1593400000,1593396000,0.7079195,-0.0004044938,0.0018328008,0.7062907,0.9998193,1.4551915e-10,0.0,0.019013762,2
1593408000,1593404000,0.7079119,-0.0003962816,0.0018514821,0.70629823,0.9998193,1.4551915e-10,0.0,0.019013762,2
1593420000,1593416000,0.7079072,-0.00043148486,0.001784009,0.7063031,0.9998193,1.4551915e-10,0.0,0.019013762,2
1593428000,1593424000,0.7079189,-0.00042853507,0.0017817623,0.70629144,0.9998193,1.4551915e-10,0.0,0.019013762,2
1593440000,1593436000,0.7078758,-0.0004962335,0.0017541631,0.70633465,0.9998193,1.4551915e-10,0.0,0.019013762,2
1593448000,1593444000,0.70786864,-0.00055496,0.0017167557,0.70634186,0.9998193,1.4551915e-10,0.0,0.019013762,2
1593460000,1593456000,0.70787007,-0.0005605139,0.0016873983,0.7063405,0.9998193,1.4551915e-10,0.0,0.019013762,2
1593468000,1593464000,0.7078628,-0.00056156726,0.0016218433,0.706348,0.9998193,1.4551915e-10,0.0,0.019013762,2
1593480000,1593476000,0.7078551,-0.0005977724,0.0016718779,0.70635545,0.9998193,1.4551915e-10,0.0,0.019013762,2
1593488000,1593484000,0.7078827,-0.000636424,0.0016712752,0.70632774,0.9998193,1.4551915e-10,0.0,0.019013762,2
1593500000,1593496000,0.7079248,-0.00068732526,0.0017218833,0.7062854,0.9998193,1.4551915e-10,0.0,0.019013762,2
1593508000,1593504000,0.7079321,-0.0006795048,0.001742121,0.706278,0.9998193,1.4551915e-10,0.0,0.019013762,2
1593520000,1593516000,0.7079556,-0.00071669393,0.0018299761,0.70625424,0.9998193,1.4551915e-10,0.0,0.019013762,2
1593528000,1593524000,0.70797056,-0.00067685195,0.0018424651,0.7062392,0.9998193,1.4551915e-10,0.0,0.019013762,2
1593540000,1593536000,0.7079444,-0.0006208651,0.0018630474,0.7062655,0.9998193,1.4551915e-10,0.0,0.019013762,2
1593548000,1593544000,0.70792663,-0.000594439,0.0018636745,0.70628333,0.9998193,1.4551915e-10,0.0,0.019013762,2
1593560000,1593556000,0.70790124,-0.000529301,0.0018874782,0.7063087,0.9998193,1.4551915e-10,0.0,0.019013762,2
1593568000,1593564000,0.70789486,-0.0004994047,0.0019270146,0.7063151,0.9998193,1.4551915e-10,0.0,0.019013762,2
1593580000,1593576000,0.7078981,-0.00051077595,0.0018904186,0.70631194,0.9998193,1.4551915e-10,0.0,0.019013762,2
1593588000,1593584000,0.7079013,-0.0005336332,0.0018652958,0.7063088,0.9998193,1.4551915e-10,0.0,0.019013762,2
1593600000,1593596000,0.70795727,-0.0005929961,0.0018317132,0.7062527,0.9998193,1.4551915e-10,0.0,0.019013762,2
1593608000,1593604000,0.7079281,-0.00059336494,0.0018268002,0.7062819,0.9998193,1.4551915e-10,0.0,0.019013762,2
1593620000,1593616000,0.7079765,-0.0005604703,0.0019297351,0.7062332,0.9998193,1.4551915e-10,0.0,0.019013762,2
1593628000,1593624000,0.70794994,-0.00056822476,0.0020055224,0.7062596,0.9998193,1.4551915e-10,0.0,0.019013762,2
1593640000,1593636000,0.70789886,-0.0005294563,0.0020051042,0.70631087,0.9998193,1.4551915e-10,0.0,0.019013762,2
1593648000,1593644000,0.7078669,-0.0005254982,0.001977392,0.7063429,0.9998193,1.4551915e-10,0.0,0.019013762,2
1593660000,1593656000,0.7078814,-0.0005682902,0.001969272,0.7063284,0.9998193,1.4551915e-10,0.0,0.019013762,2
1593668000,1593664000,0.7078704,-0.00054085493,0.0019800672,0.70633936,0.9998193,1.4551915e-10,0.0,0.019013762,2
1593680000,1593676000,0.70781964,-0.00047570796,0.001950929,0.7063904,0.9998193,1.4551915e-10,0.0,0.019013762,2
1593688000,1593684000,0.7078009,-0.00039812754,0.0019575977,0.7064091,0.9998193,1.4551915e-10,0.0,0.019013762,2
1593700000,1593696000,0.7077641,-0.00033109155,0.0019236252,0.7064462,0.9998193,1.4551915e-10,0.0,0.019013762,2
1593708000,1593704000,0.7077296,-0.00032649972,0.0019334367,0.7064808,0.9998193,1.4551915e-10,0.0,0.019013762,2
1593720000,1593716000,0.7077109,-0.0002659113,0.0018464366,0.7064997,0.9998193,1.4551915e-10,0.0,0.019013762,2
1593728000,1593724000,0.7076762,-0.0002673078,0.0018675538,0.70653445,0.9998193,1.4551915e-10,0.0,0.019013762,2
1593740000,1593736000,0.70764697,-0.00029281908,0.001863053,0.7065638,0.9998193,1.4551915e-10,0.0,0.019013762,2
1593748000,1593744000,0.7076369,-0.00027578452,0.0019026005,0.7065737,0.9998193,1.4551915e-10,0.0,0.019013762,2
1593760000,1593756000,0.7075968,-0.00029141954,0.0019026919,0.70661384,0.9998193,1.4551915e-10,0.0,0.019013762,2
1593768000,1593764000,0.7075907,-0.00024052762,0.0018165209,0.70662016,0.9998193,1.4551915e-10,0.0,0.019013762,2
1593780000,1593776000,0.7076414,-0.00021711532,0.0018129831,0.7065694,0.9998193,1.4551915e-10,0.0,0.019013762,2
1593788000,1593784000,0.7076632,-0.00018915554,0.0017755401,0.7065477,0.9998193,1.4551915e-10,0.0,0.019013762,2
1593800000,1593796000,0.7076519,-0.00021285801,0.0017323468,0.70655906,0.9998193,1.4551915e-10,0.0,0.019013762,2
1593808000,1593804000,0.7076355,-0.00019478716,0.0017617152,0.7065754,0.9998193,1.4551915e-10,0.0,0.019013762,2
1593820000,1593816000,0.70766646,-0.00020563875,0.0017894864,0.70654434,0.9998193,1.4551915e-10,0.0,0.019013762,2
1593828000,1593824000,0.7076946,-0.00018385147,0.001812937,0.7065162,0.9998193,1.4551915e-10,0.0,0.019013762,2
1593840000,1593836000,0.7077139,-0.00017120417,0.0018574594,0.7064967,0.9998193,1.4551915e-10,0.0,0.019013762,2
1593848000,1593844000,0.70774275,-0.0002239884,0.0019013692,0.7064677,0.9998193,1.4551915e-10,0.0,0.019013762,2
1593860000,1593856000,0.7077737,-0.0002974007,0.0019233428,0.70643663,0.9998193,1.4551915e-10,0.0,0.019013762,2
1593868000,1593864000,0.70778036,-0.00027972757,0.001960786,0.7064298,0.9998193,1.4551915e-10,0.0,0.019013762,2
1593880000,1593876000,0.7078035,-0.00026341534,0.0019759927,0.70640665,0.9998193,1.4551915e-10,0.0,0.019013762,2
1593888000,1593884000,0.7077903,-0.00024338247,0.001999242,0.70641977,0.9998193,1.4551915e-10,0.0,0.019013762,2
1593900000,1593896000,0.70776033,-0.00027352668,0.002033506,0.7064497,0.9998193,1.4551915e-10,0.0,0.019013762,2
1593908000,1593904000,0.7077426,-0.00027108626,0.002100202,0.7064673,0.9998193,1.4551915e-10,0.0,0.019013762,2
1593920000,1593916000,0.7077403,-0.00022822122,0.002063764,0.70646966,0.9998193,1.4551915e-10,0.0,0.019013762,2
1593928000,1593924000,0.7076761,-0.00021181855,0.002084939,0.70653397,0.9998193,1.4551915e-10,0.0,0.019013762,2
1593940000,1593936000,0.70762825,-0.0001404496,0.002080855,0.70658183,0.9998193,1.4551915e-10,0.0,0.019013762,2
1593948000,1593944000,0.70761776,-0.00010622021,0.002071912,0.70659244,0.9998193,1.4551915e-10,0.0,0.019013762,2
1593960000,1593956000,0.7076221,-0.00011063132,0.0020789476,0.7065881,0.9998193,1.4551915e-10,0.0,0.019013762,2
1593968000,1593964000,0.70765847,-0.000120210105,0.0020452638,0.7065517,0.9998193,1.4551915e-10,0.0,0.019013762,2
1593980000,1593976000,0.707658,-0.000104219755,0.0020509015,0.7065522,0.9998193,1.4551915e-10,0.0,0.019013762,2
1593988000,1593984000,0.7076782,-9.485079e-05,0.002063239,0.70653194,0.9998193,1.4551915e-10,0.0,0.019013762,2
1594000000,1593996000,0.7076806,-0.00017669598,0.0020349314,0.70652956,0.9998193,1.4551915e-10,0.0,0.019013762,2
1594008000,1594004000,0.70768136,-0.0001814473,0.0019933658,0.70652896,0.9998193,1.4551915e-10,0.0,0.019013762,2
1594020000,1594016000,0.70765156,-0.0002034999,0.0019653628,0.7065588,0.9998193,1.4551915e-10,0.0,0.019013762,2
1594028000,1594024000,0.70765114,-0.00022929594,0.001932929,0.70655936,0.9998193,1.4551915e-10,0.0,0.019013762,2
1594040000,1594036000,0.7076257,-0.0003024988,0.0019472664,0.7065848,0.9998193,1.4551915e-10,0.0,0.019013762,2
1594048000,1594044000,0.7076349,-0.00031510173,0.0019649577,0.7065755,0.9998193,1.4551915e-10,0.0,0.019013762,2
1594060000,1594056000,0.7076115,-0.00031192644,0.0019517734,0.706599,0.9998193,1.4551915e-10,0.0,0.019013762,2
1594068000,1594064000,0.7075877,-0.00029431662,0.001963472,0.70662284,0.9998193,1.4551915e-10,0.0,0.019013762,2
1594080000,1594076000,0.70757693,-0.0003691454,0.0019522381,0.7066336,0.9998193,1.4551915e-10,0.0,0.019013762,2
1594088000,1594084000,0.70754856,-0.00034739665,0.0019500119,0.706662,0.9998193,1.4551915e-10,0.0,0.019013762,2
1594100000,1594096000,0.7075287,-0.0003886261,0.001953529,0.7066818,0.9998193,1.4551915e-10,0.0,0.019013762,2
1594108000,1594104000,0.7075577,-0.00037605304,0.0019279866,0.70665294,0.9998193,1.4551915e-10,0.0,0.019013762,2
1594120000,1594116000,0.7075412,-0.00030422595,0.001967673,0.7066693,0.9998193,1.4551915e-10,0.0,0.019013762,2
1594128000,1594124000,0.707566,-0.0002723881,0.0019628897,0.70664454,0.9998193,1.4551915e-10,0.0,0.019013762,2
1594140000,1594136000,0.70763206,-0.00026104276,0.0019469057,0.7065784,0.9998193,1.4551915e-10,0.0,0.019013762,2
1594148000,1594144000,0.7076298,-0.00024115293,0.0019315206,0.70658076,0.9998193,1.4551915e-10,0.0,0.019013762,2
1594160000,1594156000,0.7076479,-0.0003109929,0.0018575374,0.70656276,0.9998193,1.4551915e-10,0.0,0.019013762,2
1594168000,1594164000,0.7076711,-0.000314393,0.001902538,0.7065394,0.9998193,1.4551915e-10,0.0,0.019013762,2
1594180000,1594176000,0.7076811,-0.00023519035,0.00194204,0.7065293,0.9998193,1.4551915e-10,0.0,0.019013762,2
1594188000,1594184000,0.7076746,-0.00023314536,0.0019578403,0.70653576,0.9998193,1.4551915e-10,0.0,0.019013762,2
1594200000,1594196000,0.7077023,-0.00020808596,0.0019471797,0.70650804,0.9998193,1.4551915e-10,0.0,0.019013762,2
1594208000,1594204000,0.7076949,-0.00015737244,0.0019220505,0.7065156,0.9998193,1.4551915e-10,0.0,0.019013762,2
1594220000,1594216000,0.70772463,-0.000115407645,0.0019443074,0.7064858,0.9998193,1.4551915e-10,0.0,0.019013762,2
1594228000,1594224000,0.70770377,-9.639908e-05,0.0019290921,0.7065067,0.9998193,1.4551915e-10,0.0,0.019013762,2
1594240000,1594236000,0.7077148,-8.8613204e-05,0.0019180872,0.70649564,0.9998193,1.4551915e-10,0.0,0.019013762,2
1594248000,1594244000,0.7077011,-0.000100372345,0.0019113581,0.7065094,0.9998193,1.4551915e-10,0.0,0.019013762,2
1594260000,1594256000,0.70767105,-0.00013670049,0.0019217497,0.7065395,0.9998193,1.4551915e-10,0.0,0.019013762,2
1594268000,1594264000,0.7076633,-0.00015552533,0.0018892089,0.7065473,0.9998193,1.4551915e-10,0.0,0.019013762,2
1594280000,1594276000,0.70768166,-0.0001443983,0.0018350222,0.70652914,0.9998193,1.4551915e-10,0.0,0.019013762,2
1594288000,1594284000,0.70767254,-0.00011790741,0.0018101307,0.7065383,0.9998193,1.4551915e-10,0.0,0.019013762,2
1594300000,1594296000,0.7076397,-0.0001264158,0.0018040128,0.7065712,0.9998193,1.4551915e-10,0.0,0.019013762,2
1594308000,1594304000,0.70764935,-0.00014351372,0.0018275143,0.70656145,0.9998193,1.4551915e-10,0.0,0.019013762,2
1594320000,1594316000,0.70764667,-0.00014401639,0.0018212576,0.7065641,0.9998193,1.4551915e-10,0.0,0.019013762,2
1594328000,1594324000,0.7076458,-0.00012666709,0.0018987451,0.70656484,0.9998193,1.4551915e-10,0.0,0.019013762,2
1594340000,1594336000,0.70766884,-0.00020540407,0.0019349308,0.7065416,0.9998193,1.4551915e-10,0.0,0.019013762,2
1594348000,1594344000,0.707662,-0.00023660032,0.001915054,0.7065486,0.9998193,1.4551915e-10,0.0,0.019013762,2
1594360000,1594356000,0.7076594,-0.00026279857,0.001902839,0.70655113,0.9998193,1.4551915e-10,0.0,0.019013762,2
1594368000,1594364000,0.70769143,-0.00023336294,0.001890939,0.7065191,0.9998193,1.4551915e-10,0.0,0.019013762,2
1594380000,1594376000,0.70769846,-0.00014385235,0.001858841,0.70651215,0.9998193,1.4551915e-10,0.0,0.019013762,2
1594388000,1594384000,0.70770293,-0.00016204763,0.0018859082,0.70650756,0.9998193,1.4551915e-10,0.0,0.019013762,2
1594400000,1594396000,0.7076578,-0.00019072281,0.0018204873,0.7065529,0.9998193,1.4551915e-10,0.0,0.019013762,2
1594408000,1594404000,0.7076387,-0.00019374222,0.0017913282,0.70657223,0.9998193,1.4551915e-10,0.0,0.019013762,2
1594420000,1594416000,0.7076292,-0.00019331987,0.001810171,0.70658165,0.9998193,1.4551915e-10,0.0,0.019013762,2
1594428000,1594424000,0.70759785,-0.00018492942,0.0017780933,0.7066131,0.9998193,1.4551915e-10,0.0,0.019013762,2
1594440000,1594436000,0.70762086,-0.00010951377,0.0018019227,0.70659006,0.9998193,1.4551915e-10,0.0,0.019013762,2
1594448000,1594444000,0.7076114,-9.582788e-05,0.0017782077,0.70659965,0.9998193,1.4551915e-10,0.0,0.019013762,2
1594460000,1594456000,0.7075778,-7.402095e-05,0.0018168896,0.7066331,0.9998193,1.4551915e-10,0.0,0.019013762,2
1594468000,1594464000,0.70755476,-6.812117e-05,0.0018237671,0.7066563,0.9998193,1.4551915e-10,0.0,0.019013762,2
1594480000,1594476000,0.70754,-0.00012576555,0.0018110173,0.70667106,0.9998193,1.4551915e-10,0.0,0.019013762,2
1594488000,1594484000,0.70750356,-0.00011898185,0.0018812405,0.7067073,0.9998193,1.4551915e-10,0.0,0.019013762,2
1594500000,1594496000,0.70747006,-0.00015461858,0.0019273198,0.7067408,0.9998193,1.4551915e-10,0.0,0.019013762,2
1594508000,1594504000,0.70747447,-0.00016298794,0.0019433686,0.7067363,0.9998193,1.4551915e-10,0.0,0.019013762,2
1594520000,1594516000,0.7074729,-0.00022540768,0.0019243859,0.7067378,0.9998193,1.4551915e-10,0.0,0.019013762,2
1594528000,1594524000,0.707486,-0.00026163866,0.0019148848,0.70672476,0.9998193,1.4551915e-10,0.0,0.019013762,2
1594540000,1594536000,0.7074952,-0.00019523191,0.0018778158,0.7067157,0.9998193,1.4551915e-10,0.0,0.019013762,2
1594548000,1594544000,0.70747364,-0.00018839432,0.001869851,0.7067373,0.9998193,1.4551915e-10,0.0,0.019013762,2
1594560000,1594556000,0.7075026,-0.00020027137,0.0018954445,0.70670825,0.9998193,1.4551915e-10,0.0,0.019013762,2
1594568000,1594564000,0.70750546,-0.00022540976,0.001931718,0.7067053,0.9998193,1.4551915e-10,0.0,0.019013762,2
1594580000,1594576000,0.7074672,-0.00023244212,0.0019478776,0.7067434,0.9998193,1.4551915e-10,0.0,0.019013762,2
1594588000,1594584000,0.70745605,-0.0002329895,0.0019290177,0.70675474,0.9998193,1.4551915e-10,0.0,0.019013762,2
1594600000,1594596000,0.7073879,-0.00020855296,0.0018901853,0.70682305,0.9998193,1.4551915e-10,0.0,0.019013762,2
1594608000,1594604000,0.707402,-0.00020079876,0.0018331317,0.7068091,0.9998193,1.4551915e-10,0.0,0.019013762,2
1594620000,1594616000,0.7074159,-0.00022053196,0.001749045,0.7067954,0.9998193,1.4551915e-10,0.0,0.019013762,2
1594628000,1594624000,0.7074352,-0.0002213573,0.0017001304,0.7067762,0.9998193,1.4551915e-10,0.0,0.019013762,2
1594640000,1594636000,0.70741993,-0.0002464896,0.0016936264,0.7067915,0.9998193,1.4551915e-10,0.0,0.019013762,2
1594648000,1594644000,0.70739526,-0.00024821388,0.0017221594,0.70681614,0.9998193,1.4551915e-10,0.0,0.019013762,2
1594660000,1594656000,0.7073869,-0.00023707951,0.0017234802,0.7068245,0.9998193,1.4551915e-10,0.0,0.019013762,2
1594668000,1594664000,0.7073811,-0.00024819977,0.0017021382,0.70683026,0.9998193,1.4551915e-10,0.0,0.019013762,2
1594680000,1594676000,0.7074127,-0.00025396043,0.0017418406,0.7067986,0.9998193,1.4551915e-10,0.0,0.019013762,2
1594688000,1594684000,0.70740736,-0.00022394712,0.001723334,0.7068039,0.9998193,1.4551915e-10,0.0,0.019013762,2
1594700000,1594696000,0.70742315,-0.00026874105,0.0017302152,0.7067882,0.9998193,1.4551915e-10,0.0,0.019013762,2
1594708000,1594704000,0.7074528,-0.0002726295,0.0017164424,0.70675856,0.9998193,1.4551915e-10,0.0,0.019013762,2
1594720000,1594716000,0.70745337,-0.00022462326,0.0016965077,0.706758,0.9998193,1.4551915e-10,0.0,0.019013762,2
1594728000,1594724000,0.70746416,-0.00025813695,0.0016961462,0.7067472,0.9998193,1.4551915e-10,0.0,0.019013762,2
1594740000,1594736000,0.7074969,-0.00032909296,0.0017352905,0.7067143,0.9998193,1.4551915e-10,0.0,0.019013762,2
1594748000,1594744000,0.7075194,-0.0003584411,0.0017053587,0.7066918,0.9998193,1.4551915e-10,0.0,0.019013762,2
1594760000,1594756000,0.7075395,-0.0004217777,0.001660436,0.7066718,0.9998193,1.4551915e-10,0.0,0.019013762,2
1594768000,1594764000,0.70754844,-0.0004408467,0.001656667,0.7066628,0.9998193,1.4551915e-10,0.0,0.019013762,2
1594780000,1594776000,0.7075667,-0.00041665352,0.0017136123,0.7066445,0.9998193,1.4551915e-10,0.0,0.019013762,2
1594788000,1594784000,0.7075702,-0.0004081668,0.0016990681,0.70664096,0.9998193,1.4551915e-10,0.0,0.019013762,2
1594800000,1594796000,0.7075773,-0.0004527727,0.0017319939,0.70663375,0.9998193,1.4551915e-10,0.0,0.019013762,2
1594808000,1594804000,0.70759064,-0.00044454276,0.0017740352,0.7066202,0.9998193,1.4551915e-10,0.0,0.019013762,2
1594820000,1594816000,0.7075334,-0.0004568112,0.0018673867,0.70667726,0.9998193,1.4551915e-10,0.0,0.019013762,2
1594828000,1594824000,0.70751673,-0.00046203946,0.0018817153,0.706694,0.9998193,1.4551915e-10,0.0,0.019013762,2
1594840000,1594836000,0.707524,-0.0004628555,0.0017737168,0.7066869,0.9998193,1.4551915e-10,0.0,0.019013762,2
1594848000,1594844000,0.707517,-0.0004948324,0.0017561563,0.70669395,0.9998193,1.4551915e-10,0.0,0.019013762,2
1594860000,1594856000,0.707506,-0.00046950497,0.0017503728,0.70670503,0.9998193,1.4551915e-10,0.0,0.019013762,2
1594868000,1594864000,0.7075426,-0.0004171985,0.0017170173,0.70666856,0.9998193,1.4551915e-10,0.0,0.019013762,2
1594880000,1594876000,0.7075601,-0.0004340553,0.0017422736,0.7066509,0.9998193,1.4551915e-10,0.0,0.019013762,2
1594888000,1594884000,0.70757604,-0.00047238,0.0018036059,0.70663476,0.9998193,1.4551915e-10,0.0,0.019013762,2
1594900000,1594896000,0.70754987,-0.00049060705,0.001812431,0.7066609,0.9998193,1.4551915e-10,0.0,0.019013762,2
1594908000,1594904000,0.7075288,-0.00046900084,0.0017634728,0.7066822,0.9998193,1.4551915e-10,0.0,0.019013762,2
1594920000,1594916000,0.7074857,-0.00043329337,0.0017817997,0.70672536,0.9998193,1.4551915e-10,0.0,0.019013762,2
1594928000,1594924000,0.70747536,-0.0004568716,0.0017683224,0.7067357,0.9998193,1.4551915e-10,0.0,0.019013762,2
1594940000,1594936000,0.70748824,-0.0005124407,0.0017626379,0.7067228,0.9998193,1.4551915e-10,0.0,0.019013762,2
1594948000,1594944000,0.70747524,-0.00056690024,0.0017123221,0.7067359,0.9998193,1.4551915e-10,0.0,0.019013762,2
1594960000,1594956000,0.70749635,-0.0005817793,0.0017119785,0.7067147,0.9998193,1.4551915e-10,0.0,0.019013762,2
1594968000,1594964000,0.70749164,-0.0005684003,0.0017137125,0.7067194,0.9998193,1.4551915e-10,0.0,0.019013762,2
1594980000,1594976000,0.7074923,-0.0005989464,0.0017603242,0.7067186,0.9998193,1.4551915e-10,0.0,0.019013762,2
1594988000,1594984000,0.70748925,-0.00064423855,0.0018202503,0.7067215,0.9998193,1.4551915e-10,0.0,0.019013762,2
1595000000,1594996000,0.7074944,-0.0006660586,0.0018411161,0.70671636,0.9998193,1.4551915e-10,0.0,0.019013762,2
1595008000,1595004000,0.7074887,-0.00069209177,0.0018834838,0.7067218,0.9998193,1.4551915e-10,0.0,0.019013762,2
1595020000,1595016000,0.70746857,-0.00073938613,0.0019000759,0.7067419,0.9998193,1.4551915e-10,0.0,0.019013762,2
1595028000,1595024000,0.70746183,-0.0007770584,0.0019128423,0.70674855,0.9998193,1.4551915e-10,0.0,0.019013762,2
1595040000,1595036000,0.7074363,-0.0008261464,0.001924772,0.70677406,0.9998193,1.4551915e-10,0.0,0.019013762,2
1595048000,1595044000,0.707459,-0.00083109504,0.0019161585,0.7067513,0.9998193,1.4551915e-10,0.0,0.019013762,2
1595060000,1595056000,0.7074651,-0.0008346595,0.0018683379,0.7067453,0.9998193,1.4551915e-10,0.0,0.019013762,2
1595068000,1595064000,0.70746136,-0.00082442886,0.0018500899,0.70674914,0.9998193,1.4551915e-10,0.0,0.019013762,2
1595080000,1595076000,0.70748144,-0.00080003886,0.0018928406,0.706729,0.9998193,1.4551915e-10,0.0,0.019013762,2
1595088000,1595084000,0.70750505,-0.00083463645,0.0019127533,0.7067052,0.9998193,1.4551915e-10,0.0,0.019013762,2
1595100000,1595096000,0.7075444,-0.0008513357,0.0018701849,0.70666593,0.9998193,1.4551915e-10,0.0,0.019013762,2
1595108000,1595104000,0.7075404,-0.0008078709,0.0018581968,0.7066701,0.9998193,1.4551915e-10,0.0,0.019013762,2
1595120000,1595116000,0.7075641,-0.00076648797,0.0017713706,0.7066466,0.9998193,1.4551915e-10,0.0,0.019013762,2
1595128000,1595124000,0.7075699,-0.0007558128,0.0016981213,0.7066409,0.9998193,1.4551915e-10,0.0,0.019013762,2
1595140000,1595136000,0.7075546,-0.00071456766,0.0017429416,0.7066562,0.9998193,1.4551915e-10,0.0,0.019013762,2
1595148000,1595144000,0.70753926,-0.0007093457,0.0018344141,0.7066714,0.9998193,1.4551915e-10,0.0,0.019013762,2
1595160000,1595156000,0.7075902,-0.00067577005,0.0018416764,0.7066204,0.9998193,1.4551915e-10,0.0,0.019013762,2
1595168000,1595164000,0.70762026,-0.0006466124,0.0017983553,0.7065904,0.9998193,1.4551915e-10,0.0,0.019013762,2
1595180000,1595176000,0.7076445,-0.000634406,0.0017767913,0.70656615,0.9998193,1.4551915e-10,0.0,0.019013762,2
1595188000,1595184000,0.7076443,-0.0006540581,0.0017923776,0.70656633,0.9998193,1.4551915e-10,0.0,0.019013762,2
1595200000,1595196000,0.70765454,-0.0007201569,0.0018092749,0.7065559,0.9998193,1.4551915e-10,0.0,0.019013762,2
1595208000,1595204000,0.70763063,-0.0007169203,0.0018024021,0.70657986,0.9998193,1.4551915e-10,0.0,0.019013762,2
1595220000,1595216000,0.70760494,-0.0006930316,0.0018224374,0.7066056,0.9998193,1.4551915e-10,0.0,0.019013762,2
1595228000,1595224000,0.7075977,-0.00065591186,0.0018208658,0.706613,0.9998193,1.4551915e-10,0.0,0.019013762,2
1595240000,1595236000,0.70760286,-0.0006460061,0.0018330754,0.70660776,0.9998193,1.4551915e-10,0.0,0.019013762,2
1595248000,1595244000,0.70760447,-0.00064917223,0.0018530516,0.70660603,0.9998193,1.4551915e-10,0.0,0.019013762,2
1595260000,1595256000,0.70759565,-0.00066522544,0.0018145273,0.706615,0.9998193,1.4551915e-10,0.0,0.019013762,2
1595268000,1595264000,0.7075563,-0.0006837405,0.001789786,0.7066544,0.9998193,1.4551915e-10,0.0,0.019013762,2
1595280000,1595276000,0.7075771,-0.0006949053,0.001804412,0.7066335,0.9998193,1.4551915e-10,0.0,0.019013762,2
1595288000,1595284000,0.7075747,-0.00068636006,0.0018075339,0.70663595,0.9998193,1.4551915e-10,0.0,0.019013762,2
1595300000,1595296000,0.7075636,-0.0006691291,0.0018926583,0.7066469,0.9998193,1.4551915e-10,0.0,0.019013762,2
1595308000,1595304000,0.70757276,-0.00066435477,0.0019168998,0.7066377,0.9998193,1.4551915e-10,0.0,0.019013762,2
1595320000,1595316000,0.70759773,-0.0006721246,0.0019026317,0.70661265,0.9998193,1.4551915e-10,0.0,0.019013762,2
1595328000,1595324000,0.7076032,-0.0006439837,0.0019170985,0.7066071,0.9998193,1.4551915e-10,0.0,0.019013762,2
1595340000,1595336000,0.7076102,-0.0006000648,0.0019416399,0.7066001,0.9998193,1.4551915e-10,0.0,0.019013762,2
1595348000,1595344000,0.7075918,-0.00061706913,0.0019252982,0.7066186,0.9998193,1.4551915e-10,0.0,0.019013762,2
1595360000,1595356000,0.70759374,-0.00063567347,0.0018979807,0.70661676,0.9998193,1.4551915e-10,0.0,0.019013762,2
1595368000,1595364000,0.70758325,-0.0006300374,0.0019141271,0.7066272,0.9998193,1.4551915e-10,0.0,0.019013762,2
1595380000,1595376000,0.70753354,-0.0007222336,0.0018788787,0.7066769,0.9998193,1.4551915e-10,0.0,0.019013762,2
1595388000,1595384000,0.7075091,-0.0007767588,0.0018945086,0.7067013,0.9998193,1.4551915e-10,0.0,0.019013762,2
1595400000,1595396000,0.7075038,-0.00078273803,0.0018304548,0.7067068,0.9998193,1.4551915e-10,0.0,0.019013762,2
1595408000,1595404000,0.70748895,-0.0007947096,0.0017712804,0.7067218,0.9998193,1.4551915e-10,0.0,0.019013762,2
1595420000,1595416000,0.70752764,-0.000762996,0.0018015611,0.706683,0.9998193,1.4551915e-10,0.0,0.019013762,2
1595428000,1595424000,0.70755893,-0.0008307113,0.0018359505,0.7066515,0.9998193,1.4551915e-10,0.0,0.019013762,2
1595440000,1595436000,0.70756584,-0.0008748892,0.0018793978,0.7066445,0.9998193,1.4551915e-10,0.0,0.019013762,2
1595448000,1595444000,0.7075803,-0.0008931888,0.0018728941,0.7066299,0.9998193,1.4551915e-10,0.0,0.019013762,2
1595460000,1595456000,0.7076438,-0.000977038,0.0018265246,0.70656633,0.9998193,1.4551915e-10,0.0,0.019013762,2
1595468000,1595464000,0.7076339,-0.0009850579,0.0018040236,0.70657635,0.9998193,1.4551915e-10,0.0,0.019013762,2
1595480000,1595476000,0.7076619,-0.00095233927,0.001758261,0.7065484,0.9998193,1.4551915e-10,0.0,0.019013762,2
1595488000,1595484000,0.70768285,-0.0009878332,0.0017822335,0.7065274,0.9998193,1.4551915e-10,0.0,0.019013762,2
1595500000,1595496000,0.70767295,-0.0010493994,0.001820822,0.7065371,0.9998193,1.4551915e-10,0.0,0.019013762,2
1595508000,1595504000,0.70768106,-0.0010542945,0.0018460833,0.7065289,0.9998193,1.4551915e-10,0.0,0.019013762,2
1595520000,1595516000,0.7076409,-0.0010577317,0.0018291933,0.7065692,0.9998193,1.4551915e-10,0.0,0.019013762,2
1595528000,1595524000,0.70766443,-0.0010882831,0.0017732611,0.70654565,0.9998193,1.4551915e-10,0.0,0.019013762,2
1595540000,1595536000,0.7076658,-0.0010819951,0.0017083131,0.7065444,0.9998193,1.4551915e-10,0.0,0.019013762,2
1595548000,1595544000,0.7077069,-0.0010902734,0.0017018256,0.70650333,0.9998193,1.4551915e-10,0.0,0.019013762,2
1595560000,1595556000,0.70770234,-0.001092159,0.0016649931,0.7065079,0.9998193,1.4551915e-10,0.0,0.019013762,2
1595568000,1595564000,0.70769924,-0.0010667196,0.0017087742,0.70651096,0.9998193,1.4551915e-10,0.0,0.019013762,2
1595580000,1595576000,0.707669,-0.0010232216,0.0017406739,0.70654124,0.9998193,1.4551915e-10,0.0,0.019013762,2
1595588000,1595584000,0.7076678,-0.0010101876,0.0017661345,0.7065424,0.9998193,1.4551915e-10,0.0,0.019013762,2
1595600000,1595596000,0.7076499,-0.0009733289,0.0017504981,0.70656043,0.9998193,1.4551915e-10,0.0,0.019013762,2
1595608000,1595604000,0.7076526,-0.0010157111,0.0017944182,0.7065575,0.9998193,1.4551915e-10,0.0,0.019013762,2
1595620000,1595616000,0.7076283,-0.00095099927,0.0017878135,0.706582,0.9998193,1.4551915e-10,0.0,0.019013762,2
1595628000,1595624000,0.7075728,-0.00092019915,0.0017414669,0.7066377,0.9998193,1.4551915e-10,0.0,0.019013762,2
1595640000,1595636000,0.7075771,-0.0008954428,0.0017093986,0.7066335,0.9998193,1.4551915e-10,0.0,0.019013762,2
1595648000,1595644000,0.7075943,-0.0008937582,0.001710147,0.70661634,0.9998193,1.4551915e-10,0.0,0.019013762,2
1595660000,1595656000,0.7076051,-0.00096533855,0.0017603582,0.70660526,0.9998193,1.4551915e-10,0.0,0.019013762,2
1595668000,1595664000,0.70760566,-0.0009767642,0.001767619,0.7066047,0.9998193,1.4551915e-10,0.0,0.019013762,2
1595680000,1595676000,0.7076185,-0.0009782859,0.0017749612,0.7065918,0.9998193,1.4551915e-10,0.0,0.019013762,2
1595688000,1595684000,0.70764846,-0.0009927974,0.0017513689,0.7065619,0.9998193,1.4551915e-10,0.0,0.019013762,2
1595700000,1595696000,0.70766836,-0.0010206902,0.0017301879,0.706542,0.9998193,1.4551915e-10,0.0,0.019013762,2
1595708000,1595704000,0.70767,-0.0010170251,0.0017149663,0.7065404,0.9998193,1.4551915e-10,0.0,0.019013762,2
1595720000,1595716000,0.70765424,-0.0010172214,0.0017967189,0.70655596,0.9998193,1.4551915e-10,0.0,0.019013762,2
1595728000,1595724000,0.70761776,-0.0010085243,0.0018105977,0.7065924,0.9998193,1.4551915e-10,0.0,0.019013762,2
1595740000,1595736000,0.70763475,-0.001060424,0.0018438199,0.70657533,0.9998193,1.4551915e-10,0.0,0.019013762,2
1595748000,1595744000,0.7076311,-0.0010676578,0.0018004576,0.7065791,0.9998193,1.4551915e-10,0.0,0.019013762,2
1595760000,1595756000,0.70767564,-0.0010744545,0.0017523373,0.7065345,0.9998193,1.4551915e-10,0.0,0.019013762,2
1595768000,1595764000,0.7076983,-0.0011249885,0.0017350711,0.70651174,0.9998193,1.4551915e-10,0.0,0.019013762,2
1595780000,1595776000,0.7077442,-0.0011783248,0.0017339152,0.7064657,0.9998193,1.4551915e-10,0.0,0.019013762,2
1595788000,1595784000,0.7077459,-0.0012196277,0.0017748377,0.7064638,0.9998193,1.4551915e-10,0.0,0.019013762,2
1595800000,1595796000,0.70775115,-0.001282201,0.001706592,0.7064586,0.9998193,1.4551915e-10,0.0,0.019013762,2
1595808000,1595804000,0.70778203,-0.001247053,0.0017238174,0.7064277,0.9998193,1.4551915e-10,0.0,0.019013762,2
1595820000,1595816000,0.7078051,-0.0013034542,0.0017303217,0.7064045,0.9998193,1.4551915e-10,0.0,0.019013762,2
1595828000,1595824000,0.7078182,-0.0013080686,0.0017793998,0.7063912,0.9998193,1.4551915e-10,0.0,0.019013762,2
1595840000,1595836000,0.70784575,-0.0013413021,0.0018557813,0.7063633,0.9998193,1.4551915e-10,0.0,0.019013762,2
1595848000,1595844000,0.7078221,-0.0013276854,0.001877936,0.706387,0.9998193,1.4551915e-10,0.0,0.019013762,2
1595860000,1595856000,0.7078116,-0.0013175171,0.0018328915,0.70639765,0.9998193,1.4551915e-10,0.0,0.019013762,2
1595868000,1595864000,0.70781356,-0.0013057877,0.0018374377,0.7063957,0.9998193,1.4551915e-10,0.0,0.019013762,2
1595880000,1595876000,0.70781815,-0.0012819289,0.0018339999,0.7063912,0.9998193,1.4551915e-10,0.0,0.019013762,2
1595888000,1595884000,0.7078044,-0.0012783579,0.0018439906,0.706405,0.9998193,1.4551915e-10,0.0,0.019013762,2
1595900000,1595896000,0.7078288,-0.0013098345,0.0018057332,0.7063805,0.9998193,1.4551915e-10,0.0,0.019013762,2
1595908000,1595904000,0.7078615,-0.0012561725,0.0018507476,0.7063478,0.9998193,1.4551915e-10,0.0,0.019013762,2
1595920000,1595916000,0.70787793,-0.0012271872,0.0018661364,0.7063313,0.9998193,1.4551915e-10,0.0,0.019013762,2
1595928000,1595924000,0.7078903,-0.00116929,0.0018762838,0.70631903,0.9998193,1.4551915e-10,0.0,0.019013762,2
1595940000,1595936000,0.70788133,-0.0012124277,0.001907785,0.7063278,0.9998193,1.4551915e-10,0.0,0.019013762,2
1595948000,1595944000,0.70789576,-0.0012150989,0.0019215018,0.7063133,0.9998193,1.4551915e-10,0.0,0.019013762,2
1595960000,1595956000,0.70789105,-0.0012253583,0.0019633078,0.7063179,0.9998193,1.4551915e-10,0.0,0.019013762,2
1595968000,1595964000,0.70789075,-0.0012587876,0.0019945158,0.70631796,0.9998193,1.4551915e-10,0.0,0.019013762,2
1595980000,1595976000,0.7078853,-0.0012494288,0.0019844712,0.70632356,0.9998193,1.4551915e-10,0.0,0.019013762,2
1595988000,1595984000,0.70788866,-0.0012553531,0.0019799606,0.7063202,0.9998193,1.4551915e-10,0.0,0.019013762,2
1596000000,1595996000,0.7079003,-0.0013063169,0.0019369184,0.7063085,0.9998193,1.4551915e-10,0.0,0.019013762,2
1596008000,1596004000,0.7078728,-0.0012862253,0.0019554186,0.706336,0.9998193,1.4551915e-10,0.0,0.019013762,2
1596020000,1596016000,0.7078534,-0.0013149917,0.0018676225,0.7063557,0.9998193,1.4551915e-10,0.0,0.019013762,2
1596028000,1596024000,0.70785564,-0.0012908285,0.0018503603,0.70635355,0.9998193,1.4551915e-10,0.0,0.019013762,2
1596040000,1596036000,0.70784175,-0.0012501592,0.0018371642,0.70636755,0.9998193,1.4551915e-10,0.0,0.019013762,2
1596048000,1596044000,0.70781136,-0.0012379291,0.0018117523,0.7063981,0.9998193,1.4551915e-10,0.0,0.019013762,2
1596060000,1596056000,0.70775336,-0.0012637512,0.0018021766,0.70645624,0.9998193,1.4551915e-10,0.0,0.019013762,2
1596068000,1596064000,0.7077519,-0.0012383772,0.0017718647,0.7064578,0.9998193,1.4551915e-10,0.0,0.019013762,2
1596080000,1596076000,0.7077715,-0.0011867207,0.0017983248,0.7064382,0.9998193,1.4551915e-10,0.0,0.019013762,2
1596088000,1596084000,0.7077921,-0.0011993969,0.0017819955,0.7064176,0.9998193,1.4551915e-10,0.0,0.019013762,2
1596100000,1596096000,0.70781004,-0.0011891827,0.0017437772,0.70639974,0.9998193,1.4551915e-10,0.0,0.019013762,2
1596108000,1596104000,0.707816,-0.0011354735,0.0017613445,0.7063937,0.9998193,1.4551915e-10,0.0,0.019013762,2
1596120000,1596116000,0.7079028,-0.0012206098,0.0017845667,0.70630664,0.9998193,1.4551915e-10,0.0,0.019013762,2
1596128000,1596124000,0.707917,-0.0012233937,0.0017969381,0.7062924,0.9998193,1.4551915e-10,0.0,0.019013762,2
1596140000,1596136000,0.70792097,-0.0012803766,0.0018594826,0.7062881,0.9998193,1.4551915e-10,0.0,0.019013762,2
1596148000,1596144000,0.707946,-0.00128804,0.0018955941,0.70626295,0.9998193,1.4551915e-10,0.0,0.019013762,2
1596160000,1596156000,0.7079287,-0.0012357592,0.0019182084,0.7062802,0.9998193,1.4551915e-10,0.0,0.019013762,2
1596168000,1596164000,0.707931,-0.0011850343,0.0018930461,0.7062781,0.9998193,1.4551915e-10,0.0,0.019013762,2
1596180000,1596176000,0.70793575,-0.0011419216,0.001829317,0.7062736,0.9998193,1.4551915e-10,0.0,0.019013762,2
1596188000,1596184000,0.70792526,-0.0011362965,0.0018398499,0.7062841,0.9998193,1.4551915e-10,0.0,0.019013762,2
1596200000,1596196000,0.7079232,-0.0011047139,0.0018582225,0.7062862,0.9998193,1.4551915e-10,0.0,0.019013762,2
1596208000,1596204000,0.70796615,-0.0011267299,0.0018466968,0.70624316,0.9998193,1.4551915e-10,0.0,0.019013762,2
1596220000,1596216000,0.70794755,-0.0010917436,0.0018205678,0.7062618,0.9998193,1.4551915e-10,0.0,0.019013762,2
1596228000,1596224000,0.70793235,-0.0010898698,0.0018044207,0.70627713,0.9998193,1.4551915e-10,0.0,0.019013762,2
1596240000,1596236000,0.70799786,-0.0010890011,0.0017514194,0.7062116,0.9998193,1.4551915e-10,0.0,0.019013762,2
1596248000,1596244000,0.7080147,-0.0010442463,0.0017459216,0.7061948,0.9998193,1.4551915e-10,0.0,0.019013762,2
1596260000,1596256000,0.70797265,-0.001016303,0.0017336363,0.7062371,0.9998193,1.4551915e-10,0.0,0.019013762,2
1596268000,1596264000,0.7079533,-0.0010422195,0.0017556027,0.70625633,0.9998193,1.4551915e-10,0.0,0.019013762,2
1596280000,1596276000,0.70791364,-0.0010417867,0.0017184411,0.70629615,0.9998193,1.4551915e-10,0.0,0.019013762,2
1596288000,1596284000,0.7079388,-0.0010606342,0.0017522096,0.7062708,0.9998193,1.4551915e-10,0.0,0.019013762,2
1596300000,1596296000,0.7079661,-0.0010520045,0.0017671966,0.70624346,0.9998193,1.4551915e-10,0.0,0.019013762,2
1596308000,1596304000,0.7079831,-0.0010531531,0.001773664,0.7062264,0.9998193,1.4551915e-10,0.0,0.019013762,2
1596320000,1596316000,0.70800924,-0.0010325008,0.0017482837,0.7062003,0.9998193,1.4551915e-10,0.0,0.019013762,2
1596328000,1596324000,0.7080498,-0.0010442229,0.0017699919,0.7061596,0.9998193,1.4551915e-10,0.0,0.019013762,2
1596340000,1596336000,0.70810384,-0.0009794583,0.0018265032,0.70610535,0.9998193,1.4551915e-10,0.0,0.019013762,2
1596348000,1596344000,0.7081339,-0.0009832166,0.0018638422,0.7060751,0.9998193,1.4551915e-10,0.0,0.019013762,2
1596360000,1596356000,0.70814604,-0.0010181178,0.0019362702,0.7060627,0.9998193,1.4551915e-10,0.0,0.019013762,2
1596368000,1596364000,0.70814866,-0.0010625068,0.0019520286,0.70605993,0.9998193,1.4551915e-10,0.0,0.019013762,2
1596380000,1596376000,0.7081481,-0.0010604617,0.0020208762,0.7060602,0.9998193,1.4551915e-10,0.0,0.019013762,2
1596388000,1596384000,0.7081646,-0.00107856,0.0020111178,0.7060437,0.9998193,1.4551915e-10,0.0,0.019013762,2
1596400000,1596396000,0.70818347,-0.0011329368,0.0020125424,0.70602465,0.9998193,1.4551915e-10,0.0,0.019013762,2
1596408000,1596404000,0.70820963,-0.0011461237,0.001986489,0.7059985,0.9998193,1.4551915e-10,0.0,0.019013762,2
1596420000,1596416000,0.7082018,-0.0011532635,0.0019972697,0.7060063,0.9998193,1.4551915e-10,0.0,0.019013762,2
1596428000,1596424000,0.70819116,-0.0011534803,0.0020090416,0.706017,0.9998193,1.4551915e-10,0.0,0.019013762,2
1596440000,1596436000,0.70816606,-0.0011379239,0.002050131,0.706042,0.9998193,1.4551915e-10,0.0,0.019013762,2
1596448000,1596444000,0.70814735,-0.0011393119,0.0020179604,0.70606095,0.9998193,1.4551915e-10,0.0,0.019013762,2
1596460000,1596456000,0.7081443,-0.00113488,0.0019684045,0.7060641,0.9998193,1.4551915e-10,0.0,0.019013762,2
1596468000,1596464000,0.70813257,-0.0011117384,0.001984114,0.7060759,0.9998193,1.4551915e-10,0.0,0.019013762,2
1596480000,1596476000,0.70810884,-0.0010977043,0.002019461,0.7060996,0.9998193,1.4551915e-10,0.0,0.019013762,2
1596488000,1596484000,0.70809186,-0.0010753273,0.0020156775,0.70611674,0.9998193,1.4551915e-10,0.0,0.019013762,2
1596500000,1596496000,0.7080721,-0.0011246301,0.0020143033,0.7061364,0.9998193,1.4551915e-10,0.0,0.019013762,2
1596508000,1596504000,0.708095,-0.0011137394,0.0019563104,0.7061136,0.9998193,1.4551915e-10,0.0,0.019013762,2
1596520000,1596516000,0.70814484,-0.001112769,0.001953354,0.7060637,0.9998193,1.4551915e-10,0.0,0.019013762,2
1596528000,1596524000,0.7081492,-0.0010994753,0.0019602252,0.70605934,0.9998193,1.4551915e-10,0.0,0.019013762,2
1596540000,1596536000,0.7081482,-0.0010946598,0.0019167451,0.7060604,0.9998193,1.4551915e-10,0.0,0.019013762,2
1596548000,1596544000,0.7081401,-0.0011092352,0.0019018814,0.7060686,0.9998193,1.4551915e-10,0.0,0.019013762,2
1596560000,1596556000,0.70815593,-0.0011289597,0.0018536223,0.7060528,0.9998193,1.4551915e-10,0.0,0.019013762,2
1596568000,1596564000,0.7081545,-0.0011710416,0.0018551361,0.7060541,0.9998193,1.4551915e-10,0.0,0.019013762,2
1596580000,1596576000,0.70814705,-0.0011875828,0.0019089106,0.7060614,0.9998193,1.4551915e-10,0.0,0.019013762,2
1596588000,1596584000,0.7081499,-0.0012040576,0.0019362086,0.7060585,0.9998193,1.4551915e-10,0.0,0.019013762,2
1596600000,1596596000,0.70814854,-0.0012369871,0.0019040914,0.7060599,0.9998193,1.4551915e-10,0.0,0.019013762,2
1596608000,1596604000,0.7081444,-0.0012433705,0.0018882845,0.706064,0.9998193,1.4551915e-10,0.0,0.019013762,2
1596620000,1596616000,0.7081587,-0.0012793406,0.0018948514,0.7060497,0.9998193,1.4551915e-10,0.0,0.019013762,2
1596628000,1596624000,0.7081656,-0.0012899429,0.0018683142,0.70604277,0.9998193,1.4551915e-10,0.0,0.019013762,2
1596640000,1596636000,0.70815593,-0.0012932309,0.0018085368,0.7060526,0.9998193,1.4551915e-10,0.0,0.019013762,2
1596648000,1596644000,0.70816195,-0.0012464777,0.0018725048,0.70604646,0.9998193,1.4551915e-10,0.0,0.019013762,2
1596660000,1596656000,0.7081508,-0.001192511,0.0018422962,0.7060578,0.9998193,1.4551915e-10,0.0,0.019013762,2
1596668000,1596664000,0.7081531,-0.001206173,0.0018161652,0.7060555,0.9998193,1.4551915e-10,0.0,0.019013762,2
1596680000,1596676000,0.7081734,-0.0011496864,0.0017948669,0.7060354,0.9998193,1.4551915e-10,0.0,0.019013762,2
1596688000,1596684000,0.70818406,-0.0011704165,0.0018619505,0.7060245,0.9998193,1.4551915e-10,0.0,0.019013762,2
1596700000,1596696000,0.7082046,-0.0011458987,0.0018993416,0.7060037,0.9998193,1.4551915e-10,0.0,0.019013762,2
1596708000,1596704000,0.7082297,-0.001147959,0.0019055469,0.7059786,0.9998193,1.4551915e-10,0.0,0.019013762,2
1596720000,1596716000,0.708244,-0.001148648,0.0019790614,0.70596397,0.9998193,1.4551915e-10,0.0,0.019013762,2
1596728000,1596724000,0.7082159,-0.0011298815,0.0019821099,0.70599234,0.9998193,1.4551915e-10,0.0,0.019013762,2
1596740000,1596736000,0.70817506,-0.0011498495,0.0019403613,0.7060333,0.9998193,1.4551915e-10,0.0,0.019013762,2
1596748000,1596744000,0.70815116,-0.0011272952,0.001984994,0.70605725,0.9998193,1.4551915e-10,0.0,0.019013762,2
1596760000,1596756000,0.70807403,-0.0011044543,0.0020674004,0.7061344,0.9998193,1.4551915e-10,0.0,0.019013762,2
1596768000,1596764000,0.7080475,-0.0011004204,0.0020786957,0.70616096,0.9998193,1.4551915e-10,0.0,0.019013762,2
1596780000,1596776000,0.7080079,-0.0010707411,0.0020343165,0.70620084,0.9998193,1.4551915e-10,0.0,0.019013762,2
1596788000,1596784000,0.7080025,-0.0010385716,0.002026473,0.70620626,0.9998193,1.4551915e-10,0.0,0.019013762,2
1596800000,1596796000,0.7079614,-0.0010643024,0.0020494384,0.70624745,0.9998193,1.4551915e-10,0.0,0.019013762,2
1596808000,1596804000,0.7079482,-0.0010940508,0.0020795234,0.7062605,0.9998193,1.4551915e-10,0.0,0.019013762,2
1596820000,1596816000,0.7079656,-0.0011010312,0.0020509963,0.7062431,0.9998193,1.4551915e-10,0.0,0.019013762,2
1596828000,1596824000,0.7079689,-0.0011383696,0.0020872008,0.70623964,0.9998193,1.4551915e-10,0.0,0.019013762,2
1596840000,1596836000,0.70797706,-0.0011080545,0.0020667152,0.7062316,0.9998193,1.4551915e-10,0.0,0.019013762,2
1596848000,1596844000,0.7079986,-0.0010901572,0.0020543346,0.70621,0.9998193,1.4551915e-10,0.0,0.019013762,2
1596860000,1596856000,0.70801127,-0.0010692484,0.0020697585,0.7061973,0.9998193,1.4551915e-10,0.0,0.019013762,2
1596868000,1596864000,0.70798993,-0.001050479,0.0020643051,0.7062187,0.9998193,1.4551915e-10,0.0,0.019013762,2
1596880000,1596876000,0.70800835,-0.0010247307,0.0020659054,0.7062003,0.9998193,1.4551915e-10,0.0,0.019013762,2
1596888000,1596884000,0.7080115,-0.0010169549,0.0020706693,0.7061972,0.9998193,1.4551915e-10,0.0,0.019013762,2
1596900000,1596896000,0.70801467,-0.00096413103,0.0020173609,0.7061943,0.9998193,1.4551915e-10,0.0,0.019013762,2
1596908000,1596904000,0.7080048,-0.0009101201,0.0019321294,0.7062044,0.9998193,1.4551915e-10,0.0,0.019013762,2
1596920000,1596916000,0.7079765,-0.0007890019,0.0019229286,0.7062329,0.9998193,1.4551915e-10,0.0,0.019013762,2
1596928000,1596924000,0.7079622,-0.00073045545,0.0018460331,0.7062475,0.9998193,1.4551915e-10,0.0,0.019013762,2
1596940000,1596936000,0.7079569,-0.0006641733,0.0017137807,0.70625323,0.9998193,1.4551915e-10,0.0,0.019013762,2
1596948000,1596944000,0.70792615,-0.0005528793,0.0016270867,0.70628446,0.9998193,1.4551915e-10,0.0,0.019013762,2
1596960000,1596956000,0.7079404,-0.00034516698,0.0013915709,0.70627075,0.9998193,1.4551915e-10,0.0,0.019013762,2
1596968000,1596964000,0.70793074,-0.00018353977,0.0012861398,0.7062807,0.9998193,1.4551915e-10,0.0,0.019013762,2
1596980000,1596976000,0.70788735,0.00012692933,0.0010091048,0.7063247,0.9998193,1.4551915e-10,0.0,0.019013762,2
1596988000,1596984000,0.7078768,0.0003350064,0.0007524944,0.7063355,0.9998193,1.4551915e-10,0.0,0.019013762,2
1597000000,1596996000,0.7078631,0.0005998934,0.00030042417,0.7063493,0.9998193,1.4551915e-10,0.0,0.019013762,2
1597008000,1597004000,0.70782804,0.0007965544,1.0171481e-05,0.7063844,0.9998193,1.4551915e-10,0.0,0.019013762,2
1597020000,1597016000,0.70782137,0.0011455888,-0.0005500711,0.7063903,0.9998193,1.4551915e-10,0.0,0.019013762,2
1597028000,1597024000,0.70781785,0.0013544138,-0.0010181862,0.70639306,0.9998193,1.4551915e-10,0.0,0.019013762,2
1597040000,1597036000,0.70782804,0.0016425685,-0.0017071071,0.7063809,0.9998193,1.4551915e-10,0.0,0.019013762,2
1597048000,1597044000,0.707847,0.0018689907,-0.0022363274,0.7063598,0.9998193,1.4551915e-10,0.0,0.019013762,2
1597060000,1597056000,0.70792115,0.002090336,-0.0031306716,0.7062815,0.9998193,1.4551915e-10,0.0,0.019013762,2
1597068000,1597064000,0.7079368,0.0022135966,-0.0038339288,0.70626193,0.9998193,1.4551915e-10,0.0,0.019013762,2
1597080000,1597076000,0.7079859,0.0024842746,-0.00487639,0.70620537,0.9998193,1.4551915e-10,0.0,0.019013762,2
1597088000,1597084000,0.70800525,0.0027316383,-0.00565637,0.70617926,0.9998193,1.4551915e-10,0.0,0.019013762,2
1597100000,1597096000,0.7080361,0.0030397775,-0.006955058,0.70613545,0.9998193,1.4551915e-10,0.0,0.019013762,2
1597108000,1597104000,0.7080468,0.0032465262,-0.007862433,0.70611435,0.9998193,1.4551915e-10,0.0,0.019013762,2
1597120000,1597116000,0.708049,0.0035909913,-0.009285161,0.70609325,0.9998193,1.4551915e-10,0.0,0.019013762,2
1597128000,1597124000,0.7080573,0.0038449706,-0.010303064,0.70606947,0.9998193,1.4551915e-10,0.0,0.019013762,2
1597140000,1597136000,0.7080582,0.0041021067,-0.011874069,0.7060424,0.9998193,1.4551915e-10,0.0,0.019013762,2
1597148000,1597144000,0.7080418,0.004311796,-0.012990463,0.7060379,0.9998193,1.4551915e-10,0.0,0.019013762,2
1597160000,1597156000,0.708033,0.004536798,-0.01477647,0.70601016,0.9998193,1.4551915e-10,0.0,0.019013762,2
1597168000,1597164000,0.70806724,0.004692439,-0.015929865,0.70594984,0.9998193,1.4551915e-10,0.0,0.019013762,2
1597180000,1597176000,0.708097,0.0049479883,-0.01765919,0.705877,0.9998193,1.4551915e-10,0.0,0.019013762,2
1597188000,1597184000,0.70810765,0.0051031574,-0.018731909,0.70583755,0.9998193,1.4551915e-10,0.0,0.019013762,2
1597200000,1597196000,0.70807964,0.005353375,-0.02023968,0.7058222,0.9998193,1.4551915e-10,0.0,0.019013762,2
1597208000,1597204000,0.708079,0.005456898,-0.02118643,0.7057942,0.9998193,1.4551915e-10,0.0,0.019013762,2
1597220000,1597216000,0.7080451,0.005541106,-0.022464054,0.7057881,0.9998193,1.4551915e-10,0.0,0.019013762,2
1597228000,1597224000,0.7080587,0.005618973,-0.023221452,0.70574933,0.9998193,1.4551915e-10,0.0,0.019013762,2
1597240000,1597236000,0.7080458,0.0056874594,-0.024321651,0.7057247,0.9998193,1.4551915e-10,0.0,0.019013762,2
1597248000,1597244000,0.7080771,0.0057396977,-0.024979308,0.70566994,0.9998193,1.4551915e-10,0.0,0.019013762,2
1597260000,1597256000,0.70809937,0.0057963757,-0.025878327,0.7056146,0.9998193,1.4551915e-10,0.0,0.019013762,2
1597268000,1597264000,0.70810133,0.0058914283,-0.026394602,0.70559275,0.9998193,1.4551915e-10,0.0,0.019013762,2
1597280000,1597276000,0.70804924,0.006028052,-0.027108567,0.7056168,0.9998193,1.4551915e-10,0.0,0.019013762,2
1597288000,1597284000,0.7080517,0.0060834168,-0.02744998,0.7056007,0.9998193,1.4551915e-10,0.0,0.019013762,2
1597300000,1597296000,0.7079955,0.0061123404,-0.027931796,0.705638,0.9998193,1.4551915e-10,0.0,0.019013762,2
1597308000,1597304000,0.70801926,0.0061520697,-0.028193101,0.7056034,0.9998193,1.4551915e-10,0.0,0.019013762,2
1597320000,1597316000,0.7080497,0.006182328,-0.028477537,0.7055611,0.9998193,1.4551915e-10,0.0,0.019013762,2
1597328000,1597324000,0.70806485,0.0061378144,-0.02858175,0.705542,0.9998193,1.4551915e-10,0.0,0.019013762,2
1597340000,1597336000,0.7080576,0.006067292,-0.02864343,0.70554745,0.9998193,1.4551915e-10,0.0,0.019013762,2
1597348000,1597344000,0.7080299,0.00594424,-0.028674057,0.70557505,0.9998193,1.4551915e-10,0.0,0.019013762,2
1597360000,1597356000,0.7079724,0.0058502974,-0.028624203,0.7056356,0.9998193,1.4551915e-10,0.0,0.019013762,2
1597368000,1597364000,0.70793575,0.005801605,-0.028539656,0.70567614,0.9998193,1.4551915e-10,0.0,0.019013762,2
1597380000,1597376000,0.7079143,0.0057032406,-0.028321248,0.70570725,0.9998193,1.4551915e-10,0.0,0.019013762,2
1597388000,1597384000,0.70792145,0.005635253,-0.02812389,0.7057086,0.9998193,1.4551915e-10,0.0,0.019013762,2
1597400000,1597396000,0.70792687,0.0055124303,-0.027729403,0.70571965,0.9998193,1.4551915e-10,0.0,0.019013762,2
1597408000,1597404000,0.7079201,0.0054458803,-0.027408807,0.7057395,0.9998193,1.4551915e-10,0.0,0.019013762,2
1597420000,1597416000,0.70794624,0.005313052,-0.026858328,0.70573545,0.9998193,1.4551915e-10,0.0,0.019013762,2
1597428000,1597424000,0.7079777,0.0051700524,-0.026454635,0.70572025,0.9998193,1.4551915e-10,0.0,0.019013762,2
1597440000,1597436000,0.7079873,0.0049552796,-0.025839005,0.705735,0.9998193,1.4551915e-10,0.0,0.019013762,2
1597448000,1597444000,0.7080066,0.004832584,-0.025391886,0.7057327,0.9998193,1.4551915e-10,0.0,0.019013762,2
1597460000,1597456000,0.7080057,0.004633498,-0.024602816,0.7057628,0.9998193,1.4551915e-10,0.0,0.019013762,2
1597468000,1597464000,0.7079852,0.0045366827,-0.024039043,0.7058035,0.9998193,1.4551915e-10,0.0,0.019013762,2
1597480000,1597476000,0.7079849,0.0044072918,-0.023260588,0.70583063,0.9998193,1.4551915e-10,0.0,0.019013762,2
1597488000,1597484000,0.70802116,0.004244904,-0.022727361,0.7058126,0.9998193,1.4551915e-10,0.0,0.019013762,2
1597500000,1597496000,0.70806175,0.004047226,-0.021900399,0.7057992,0.9998193,1.4551915e-10,0.0,0.019013762,2
1597508000,1597504000,0.7081017,0.003928656,-0.0213602,0.7057764,0.9998193,1.4551915e-10,0.0,0.019013762,2
1597520000,1597516000,0.7081462,0.0036709022,-0.020510135,0.7057584,0.9998193,1.4551915e-10,0.0,0.019013762,2
1597528000,1597524000,0.70815027,0.0034632876,-0.019857543,0.70577395,0.9998193,1.4551915e-10,0.0,0.019013762,2
1597540000,1597536000,0.7082122,0.003186601,-0.018896345,0.70573956,0.9998193,1.4551915e-10,0.0,0.019013762,2
1597548000,1597544000,0.7082279,0.0029982685,-0.018207343,0.7057427,0.9998193,1.4551915e-10,0.0,0.019013762,2
1597560000,1597556000,0.7082368,0.0027362749,-0.017068336,0.70576334,0.9998193,1.4551915e-10,0.0,0.019013762,2
1597568000,1597564000,0.70825124,0.002626979,-0.016401863,0.705765,0.9998193,1.4551915e-10,0.0,0.019013762,2
1597580000,1597576000,0.7082538,0.0025473626,-0.015413904,0.70578504,0.9998193,1.4551915e-10,0.0,0.019013762,2
1597588000,1597584000,0.7082179,0.0025239212,-0.014780344,0.7058347,0.9998193,1.4551915e-10,0.0,0.019013762,2
