timestamp,timestamp_sample,control[0],control[1],control[2],control[3],control[4],control[5],control[6],control[7],control[8],control[9],control[10],control[11],reversible_flags
1592248000,1592248000,0.0,0.0019999999,0.0,0.0019999999,nan,nan,nan,nan,nan,nan,nan,nan,0
1592252000,1592252000,0.0017705278,0.000117453215,0.00037185478,0.001740164,nan,nan,nan,nan,nan,nan,nan,nan,0
1592348000,1592348000,0.0,0.0019999999,0.0,0.0019999999,nan,nan,nan,nan,nan,nan,nan,nan,0
1592444000,1592444000,0.0,0.0019999999,0.0,0.0019999999,nan,nan,nan,nan,nan,nan,nan,nan,0
1592548000,1592548000,0.0006844863,0.0002005492,0.00048336614,0.0026315982,nan,nan,nan,nan,nan,nan,nan,nan,0
1592648000,1592648000,0.0,0.0019999999,0.0,0.0019999999,nan,nan,nan,nan,nan,nan,nan,nan,0
1592748000,1592748000,0.0006264609,0.0013735391,0.0,0.0019999996,nan,nan,nan,nan,nan,nan,nan,nan,0
1592848000,1592848000,4.6338788e-05,0.0020605489,0.0003671364,0.0015259753,nan,nan,nan,nan,nan,nan,nan,nan,0
1592944000,1592944000,4.656613e-10,0.0020000003,0.0,0.0019999994,nan,nan,nan,nan,nan,nan,nan,nan,0
1593048000,1593048000,0.0,0.0019999999,0.0,0.0019999999,nan,nan,nan,nan,nan,nan,nan,nan,0
1593148000,1593148000,0.0,0.0019999996,0.0,0.0019999996,nan,nan,nan,nan,nan,nan,nan,nan,0
1593248000,1593248000,0.0,0.0019999999,0.0,0.0020000003,nan,nan,nan,nan,nan,nan,nan,nan,0
1593348000,1593348000,0.011132246,0.016480207,0.009284306,0.019771753,nan,nan,nan,nan,nan,nan,nan,nan,0
1593448000,1593448000,0.03013058,0.025424255,0.023456365,0.034672707,nan,nan,nan,nan,nan,nan,nan,nan,0
1593548000,1593548000,0.047385298,0.04491912,0.041154824,0.052139163,nan,nan,nan,nan,nan,nan,nan,nan,0
1593648000,1593648000,0.06360649,0.06360073,0.05741,0.07205635,nan,nan,nan,nan,nan,nan,nan,nan,0
1593748000,1593748000,0.08455082,0.08282958,0.07847553,0.094276816,nan,nan,nan,nan,nan,nan,nan,nan,0
1593848000,1593848000,0.10158212,0.11048533,0.09957102,0.113489546,nan,nan,nan,nan,nan,nan,nan,nan,0
1593948000,1593948000,0.12974085,0.1307135,0.12740101,0.13764077,nan,nan,nan,nan,nan,nan,nan,nan,0
1594048000,1594048000,0.15685731,0.152687,0.15162726,0.16113794,nan,nan,nan,nan,nan,nan,nan,nan,0
1594148000,1594148000,0.1844151,0.1834191,0.17957996,0.19009796,nan,nan,nan,nan,nan,nan,nan,nan,0
1594244000,1594244000,0.21056472,0.21315451,0.20437959,0.22066668,nan,nan,nan,nan,nan,nan,nan,nan,0
1594348000,1594348000,0.2462795,0.2409414,0.23833638,0.25023752,nan,nan,nan,nan,nan,nan,nan,nan,0
1594444000,1594444000,0.27670172,0.27431196,0.2687179,0.28362596,nan,nan,nan,nan,nan,nan,nan,nan,0
1594548000,1594548000,0.31148848,0.31263494,0.30240613,0.32378933,nan,nan,nan,nan,nan,nan,nan,nan,0
1594648000,1594648000,0.32075104,0.32172614,0.30804265,0.33657548,nan,nan,nan,nan,nan,nan,nan,nan,0
1594748000,1594748000,0.3333586,0.3321507,0.32160985,0.34254187,nan,nan,nan,nan,nan,nan,nan,nan,0
1594848000,1594848000,0.3408877,0.34404874,0.32711577,0.35848472,nan,nan,nan,nan,nan,nan,nan,nan,0
1594948000,1594948000,0.35432014,0.3536152,0.3413234,0.36784038,nan,nan,nan,nan,nan,nan,nan,nan,0
1595048000,1595048000,0.3646441,0.36456504,0.35172984,0.37833983,nan,nan,nan,nan,nan,nan,nan,nan,0
1595148000,1595148000,0.37655562,0.37949088,0.35721558,0.3984861,nan,nan,nan,nan,nan,nan,nan,nan,0
1595244000,1595244000,0.38766325,0.39077634,0.36925653,0.4089313,nan,nan,nan,nan,nan,nan,nan,nan,0
1595348000,1595348000,0.39857495,0.40746215,0.38340324,0.4226164,nan,nan,nan,nan,nan,nan,nan,nan,0
1595444000,1595444000,0.41480315,0.41781655,0.3964173,0.43587345,nan,nan,nan,nan,nan,nan,nan,nan,0
1595548000,1595548000,0.42852578,0.43629742,0.40828866,0.45463142,nan,nan,nan,nan,nan,nan,nan,nan,0
1595648000,1595648000,0.4397425,0.45073244,0.41753548,0.47396603,nan,nan,nan,nan,nan,nan,nan,nan,0
1595748000,1595748000,0.45953825,0.46486294,0.4401804,0.48434937,nan,nan,nan,nan,nan,nan,nan,nan,0
1595848000,1595848000,0.4729754,0.4817178,0.4499572,0.50292534,nan,nan,nan,nan,nan,nan,nan,nan,0
1595948000,1595948000,0.4887571,0.5025269,0.46333903,0.5262452,nan,nan,nan,nan,nan,nan,nan,nan,0
1596048000,1596048000,0.50304615,0.5177825,0.48051536,0.5417666,nan,nan,nan,nan,nan,nan,nan,nan,0
1596148000,1596148000,0.52227074,0.5378945,0.4969322,0.56097627,nan,nan,nan,nan,nan,nan,nan,nan,0
1596248000,1596248000,0.53733295,0.5539692,0.5083811,0.5803294,nan,nan,nan,nan,nan,nan,nan,nan,0
1596348000,1596348000,0.5781041,0.60427535,0.5477666,0.6307415,nan,nan,nan,nan,nan,nan,nan,nan,0
1596448000,1596448000,0.5940359,0.6202424,0.57085574,0.6421974,nan,nan,nan,nan,nan,nan,nan,nan,0
1596548000,1596548000,0.6119254,0.6446425,0.5858544,0.6696779,nan,nan,nan,nan,nan,nan,nan,nan,0
1596648000,1596648000,0.634632,0.65691686,0.5995645,0.6912114,nan,nan,nan,nan,nan,nan,nan,nan,0
1596748000,1596748000,0.6525016,0.68358135,0.6177083,0.7188224,nan,nan,nan,nan,nan,nan,nan,nan,0
1596848000,1596848000,0.6695823,0.70393497,0.63724285,0.7368683,nan,nan,nan,nan,nan,nan,nan,nan,0
1596948000,1596948000,0.6993016,0.7188962,0.6677268,0.75182104,nan,nan,nan,nan,nan,nan,nan,nan,0
1597048000,1597048000,0.7166063,0.72646844,0.6972674,0.74638945,nan,nan,nan,nan,nan,nan,nan,nan,0
1597148000,1597148000,0.7431019,0.72867584,0.7515917,0.71751136,nan,nan,nan,nan,nan,nan,nan,nan,0
1597248000,1597248000,0.7491608,0.7351767,0.7527362,0.7270834,nan,nan,nan,nan,nan,nan,nan,nan,0
1597348000,1597348000,0.75232166,0.7464769,0.7619242,0.73425186,nan,nan,nan,nan,nan,nan,nan,nan,0
1597448000,1597448000,0.7529215,0.74548614,0.75285506,0.7439913,nan,nan,nan,nan,nan,nan,nan,nan,0
1597548000,1597548000,0.75326,0.7551452,0.74716896,0.75801855,nan,nan,nan,nan,nan,nan,nan,nan,0
1597648000,1597648000,0.74937004,0.75390136,0.75068337,0.7538818,nan,nan,nan,nan,nan,nan,nan,nan,0
1597748000,1597748000,0.7421399,0.74525464,0.73925334,0.7484114,nan,nan,nan,nan,nan,nan,nan,nan,0
1597848000,1597848000,0.7228304,0.7243979,0.71959615,0.73034894,nan,nan,nan,nan,nan,nan,nan,nan,0
1597948000,1597948000,0.7335905,0.72643054,0.72943604,0.7313367,nan,nan,nan,nan,nan,nan,nan,nan,0
1598048000,1598048000,0.73075014,0.7307247,0.72805274,0.7318606,nan,nan,nan,nan,nan,nan,nan,nan,0
1598148000,1598148000,0.72240525,0.7253927,0.72335726,0.72419405,nan,nan,nan,nan,nan,nan,nan,nan,0
1598248000,1598248000,0.7244474,0.71599066,0.7247183,0.71315265,nan,nan,nan,nan,nan,nan,nan,nan,0
1598348000,1598348000,0.7208916,0.72768676,0.7219347,0.7263013,nan,nan,nan,nan,nan,nan,nan,nan,0
1598448000,1598448000,0.7185655,0.71996707,0.71852136,0.7227609,nan,nan,nan,nan,nan,nan,nan,nan,0
1598548000,1598548000,0.72719616,0.72160697,0.7251633,0.7239082,nan,nan,nan,nan,nan,nan,nan,nan,0
1598644000,1598644000,0.72066283,0.7205843,0.71582097,0.7228922,nan,nan,nan,nan,nan,nan,nan,nan,0
1598748000,1598748000,0.7228505,0.7238025,0.72197926,0.72353363,nan,nan,nan,nan,nan,nan,nan,nan,0
1598848000,1598848000,0.7204195,0.71504074,0.72037333,0.7151519,nan,nan,nan,nan,nan,nan,nan,nan,0
1598948000,1598948000,0.7229029,0.71751547,0.723121,0.7205773,nan,nan,nan,nan,nan,nan,nan,nan,0
1599048000,1599048000,0.7174953,0.715909,0.71770144,0.7148489,nan,nan,nan,nan,nan,nan,nan,nan,0
1599148000,1599148000,0.72642815,0.7130378,0.7225958,0.7169289,nan,nan,nan,nan,nan,nan,nan,nan,0
1599248000,1599248000,0.7167539,0.71365345,0.7163236,0.7142045,nan,nan,nan,nan,nan,nan,nan,nan,0
1599348000,1599348000,0.7256325,0.7117643,0.72008806,0.71656483,nan,nan,nan,nan,nan,nan,nan,nan,0
1599448000,1599448000,0.71312696,0.71492684,0.71078336,0.7149529,nan,nan,nan,nan,nan,nan,nan,nan,0
1599548000,1599548000,0.71507543,0.7170816,0.7162602,0.7139883,nan,nan,nan,nan,nan,nan,nan,nan,0
1599648000,1599648000,0.7127593,0.7103287,0.71602696,0.7069169,nan,nan,nan,nan,nan,nan,nan,nan,0
1599748000,1599748000,0.7147476,0.7144151,0.7112906,0.7153936,nan,nan,nan,nan,nan,nan,nan,nan,0
1599848000,1599848000,0.71164274,0.7060309,0.7123524,0.70592123,nan,nan,nan,nan,nan,nan,nan,nan,0
1599948000,1599948000,0.714094,0.70931697,0.7176466,0.7083785,nan,nan,nan,nan,nan,nan,nan,nan,0
1600048000,1600048000,0.70725685,0.7083433,0.70775014,0.7096203,nan,nan,nan,nan,nan,nan,nan,nan,0
1600148000,1600148000,0.71350074,0.7100458,0.7082008,0.71217525,nan,nan,nan,nan,nan,nan,nan,nan,0
1600248000,1600248000,0.711297,0.70551604,0.7104069,0.7045157,nan,nan,nan,nan,nan,nan,nan,nan,0
1600348000,1600348000,0.7150308,0.7068568,0.71515405,0.7054314,nan,nan,nan,nan,nan,nan,nan,nan,0
1600448000,1600448000,0.70728207,0.7041219,0.70784783,0.70576924,nan,nan,nan,nan,nan,nan,nan,nan,0
1600548000,1600548000,0.71426475,0.7010999,0.7120906,0.7039623,nan,nan,nan,nan,nan,nan,nan,nan,0
1600648000,1600648000,0.68922734,0.68747973,0.6871746,0.68979234,nan,nan,nan,nan,nan,nan,nan,nan,0
1600748000,1600748000,0.66374516,0.6684933,0.6639717,0.6686937,nan,nan,nan,nan,nan,nan,nan,nan,0
1600844000,1600844000,0.65190786,0.6523157,0.65083843,0.65489405,nan,nan,nan,nan,nan,nan,nan,nan,0
1600948000,1600948000,0.6795846,0.6703935,0.676674,0.6749045,nan,nan,nan,nan,nan,nan,nan,nan,0
1601048000,1601048000,0.6998763,0.6904746,0.69968015,0.68838245,nan,nan,nan,nan,nan,nan,nan,nan,0
1601148000,1601148000,0.7170924,0.7129515,0.7178778,0.7112249,nan,nan,nan,nan,nan,nan,nan,nan,0
1601248000,1601248000,0.723899,0.72123474,0.7219559,0.72181636,nan,nan,nan,nan,nan,nan,nan,nan,0
1601348000,1601348000,0.7165391,0.71644026,0.72374547,0.7109176,nan,nan,nan,nan,nan,nan,nan,nan,0
1601448000,1601448000,0.7104364,0.7053015,0.7103311,0.70956,nan,nan,nan,nan,nan,nan,nan,nan,0
1601548000,1601548000,0.7055272,0.7040308,0.7110285,0.70266426,nan,nan,nan,nan,nan,nan,nan,nan,0
1601648000,1601648000,0.7107581,0.7007614,0.7075024,0.70360684,nan,nan,nan,nan,nan,nan,nan,nan,0
1601748000,1601748000,0.7133523,0.6999664,0.70469266,0.7062682,nan,nan,nan,nan,nan,nan,nan,nan,0
1601848000,1601848000,0.7093535,0.7027357,0.7054462,0.70273966,nan,nan,nan,nan,nan,nan,nan,nan,0
1601948000,1601948000,0.7078161,0.7017289,0.711727,0.6978443,nan,nan,nan,nan,nan,nan,nan,nan,0
1602048000,1602048000,0.7092973,0.69863135,0.7098637,0.6994419,nan,nan,nan,nan,nan,nan,nan,nan,0
1602148000,1602148000,0.7063843,0.70353097,0.70529294,0.7056579,nan,nan,nan,nan,nan,nan,nan,nan,0
1602248000,1602248000,0.7095643,0.70025617,0.7082645,0.7038921,nan,nan,nan,nan,nan,nan,nan,nan,0
1602348000,1602348000,0.70711493,0.7050655,0.703951,0.7086545,nan,nan,nan,nan,nan,nan,nan,nan,0
1602448000,1602448000,0.70475054,0.70419985,0.70410454,0.70564824,nan,nan,nan,nan,nan,nan,nan,nan,0
1602548000,1602548000,0.7065102,0.7071324,0.7067815,0.7032775,nan,nan,nan,nan,nan,nan,nan,nan,0
1602648000,1602648000,0.70674497,0.70250505,0.7059737,0.70292133,nan,nan,nan,nan,nan,nan,nan,nan,0
1602748000,1602748000,0.70952404,0.7026967,0.7093761,0.70078254,nan,nan,nan,nan,nan,nan,nan,nan,0
1602848000,1602848000,0.7064988,0.69981337,0.70775396,0.7001693,nan,nan,nan,nan,nan,nan,nan,nan,0
1602948000,1602948000,0.7086465,0.69891953,0.70859504,0.7011617,nan,nan,nan,nan,nan,nan,nan,nan,0
1603048000,1603048000,0.7052982,0.70427954,0.7016473,0.70878994,nan,nan,nan,nan,nan,nan,nan,nan,0
1603148000,1603148000,0.70293427,0.70794845,0.7042358,0.70694065,nan,nan,nan,nan,nan,nan,nan,nan,0
1603248000,1603248000,0.70838696,0.7029911,0.7107452,0.7007989,nan,nan,nan,nan,nan,nan,nan,nan,0
1603348000,1603348000,0.7107316,0.70082575,0.70933336,0.703745,nan,nan,nan,nan,nan,nan,nan,nan,0
1603448000,1603448000,0.7102257,0.6993667,0.70715576,0.70229214,nan,nan,nan,nan,nan,nan,nan,nan,0
1603548000,1603548000,0.71102035,0.70120907,0.7005532,0.7097372,nan,nan,nan,nan,nan,nan,nan,nan,0
1603644000,1603644000,0.7086703,0.70212746,0.70862365,0.6996427,nan,nan,nan,nan,nan,nan,nan,nan,0
1603748000,1603748000,0.70503217,0.7083636,0.7043421,0.70721185,nan,nan,nan,nan,nan,nan,nan,nan,0
1603848000,1603848000,0.7019059,0.70740294,0.703334,0.70582527,nan,nan,nan,nan,nan,nan,nan,nan,0
1603948000,1603948000,0.7091427,0.70414054,0.70783,0.70504814,nan,nan,nan,nan,nan,nan,nan,nan,0
1604048000,1604048000,0.7070605,0.70332456,0.7084677,0.70361334,nan,nan,nan,nan,nan,nan,nan,nan,0
1604148000,1604148000,0.7105605,0.70120907,0.71276486,0.7021188,nan,nan,nan,nan,nan,nan,nan,nan,0
1604248000,1604248000,0.70656884,0.70383006,0.7111391,0.70259994,nan,nan,nan,nan,nan,nan,nan,nan,0
1604348000,1604348000,0.7078223,0.70578635,0.7047966,0.7049132,nan,nan,nan,nan,nan,nan,nan,nan,0
1604448000,1604448000,0.7077686,0.7037164,0.7064213,0.70520663,nan,nan,nan,nan,nan,nan,nan,nan,0
1604548000,1604548000,0.71014607,0.703559,0.7063419,0.7066437,nan,nan,nan,nan,nan,nan,nan,nan,0
1604648000,1604648000,0.7051144,0.7064525,0.7051634,0.705551,nan,nan,nan,nan,nan,nan,nan,nan,0
1604748000,1604748000,0.7043851,0.70926213,0.70682025,0.7055096,nan,nan,nan,nan,nan,nan,nan,nan,0
1604848000,1604848000,0.70807576,0.7047852,0.7089997,0.7055326,nan,nan,nan,nan,nan,nan,nan,nan,0
1604948000,1604948000,0.71040285,0.70121986,0.7069361,0.70736986,nan,nan,nan,nan,nan,nan,nan,nan,0
1605044000,1605044000,0.7100184,0.7018365,0.70667106,0.7052381,nan,nan,nan,nan,nan,nan,nan,nan,0
1605148000,1605148000,0.70939445,0.70322675,0.7070582,0.7046588,nan,nan,nan,nan,nan,nan,nan,nan,0
1605244000,1605244000,0.7090048,0.702706,0.70492214,0.7067816,nan,nan,nan,nan,nan,nan,nan,nan,0
1605348000,1605348000,0.7051445,0.706503,0.7064616,0.70332897,nan,nan,nan,nan,nan,nan,nan,nan,0
1605448000,1605448000,0.708951,0.7000931,0.70711243,0.70249945,nan,nan,nan,nan,nan,nan,nan,nan,0
1605548000,1605548000,0.7039765,0.70427054,0.71062815,0.70076734,nan,nan,nan,nan,nan,nan,nan,nan,0
1605648000,1605648000,0.7040865,0.70791095,0.71155614,0.70128983,nan,nan,nan,nan,nan,nan,nan,nan,0
1605748000,1605748000,0.70758206,0.7043887,0.70642596,0.70318633,nan,nan,nan,nan,nan,nan,nan,nan,0
1605848000,1605848000,0.7093137,0.7019272,0.71028745,0.6994968,nan,nan,nan,nan,nan,nan,nan,nan,0
1605948000,1605948000,0.7082677,0.7032457,0.7091718,0.7011251,nan,nan,nan,nan,nan,nan,nan,nan,0
1606048000,1606048000,0.70893496,0.7019126,0.7072139,0.7033092,nan,nan,nan,nan,nan,nan,nan,nan,0
1606148000,1606148000,0.7051413,0.7050252,0.70994675,0.7007433,nan,nan,nan,nan,nan,nan,nan,nan,0
1606248000,1606248000,0.7073094,0.7063377,0.71274906,0.69999576,nan,nan,nan,nan,nan,nan,nan,nan,0
1606348000,1606348000,0.7099775,0.7032968,0.7063855,0.70775163,nan,nan,nan,nan,nan,nan,nan,nan,0
1606448000,1606448000,0.7085015,0.7042275,0.7082999,0.7041905,nan,nan,nan,nan,nan,nan,nan,nan,0
1606548000,1606548000,0.7101957,0.70083785,0.7106372,0.7037613,nan,nan,nan,nan,nan,nan,nan,nan,0
1606648000,1606648000,0.7089235,0.7054041,0.7047826,0.70660055,nan,nan,nan,nan,nan,nan,nan,nan,0
1606748000,1606748000,0.71132034,0.7054883,0.71100014,0.70158505,nan,nan,nan,nan,nan,nan,nan,nan,0
1606848000,1606848000,0.70391864,0.7124906,0.70737255,0.7054194,nan,nan,nan,nan,nan,nan,nan,nan,0
1606948000,1606948000,0.70693785,0.7089573,0.71016836,0.7040182,nan,nan,nan,nan,nan,nan,nan,nan,0
1607048000,1607048000,0.70538855,0.7053499,0.7061111,0.70788705,nan,nan,nan,nan,nan,nan,nan,nan,0
1607148000,1607148000,0.7075832,0.7024315,0.70817256,0.7065045,nan,nan,nan,nan,nan,nan,nan,nan,0
1607248000,1607248000,0.7049954,0.7070386,0.7045269,0.70826536,nan,nan,nan,nan,nan,nan,nan,nan,0
1607348000,1607348000,0.70672333,0.706858,0.710759,0.7011554,nan,nan,nan,nan,nan,nan,nan,nan,0
1607448000,1607448000,0.7075347,0.7048594,0.7054654,0.70602626,nan,nan,nan,nan,nan,nan,nan,nan,0
1607548000,1607548000,0.70977366,0.70444566,0.7099531,0.7015805,nan,nan,nan,nan,nan,nan,nan,nan,0
1607648000,1607648000,0.708902,0.70387673,0.70630246,0.7049373,nan,nan,nan,nan,nan,nan,nan,nan,0
1607744000,1607744000,0.7039949,0.7061918,0.7041649,0.7078363,nan,nan,nan,nan,nan,nan,nan,nan,0
1607848000,1607848000,0.710449,0.70097196,0.70943403,0.7023648,nan,nan,nan,nan,nan,nan,nan,nan,0
1607948000,1607948000,0.7088867,0.70229,0.71067804,0.7007151,nan,nan,nan,nan,nan,nan,nan,nan,0
1608048000,1608048000,0.70645577,0.7058176,0.70809406,0.70219815,nan,nan,nan,nan,nan,nan,nan,nan,0
1608148000,1608148000,0.70910424,0.7023534,0.70265025,0.7087645,nan,nan,nan,nan,nan,nan,nan,nan,0
1608248000,1608248000,0.7046586,0.7055178,0.7044181,0.7082292,nan,nan,nan,nan,nan,nan,nan,nan,0
1608348000,1608348000,0.7097565,0.7014046,0.7109907,0.70083576,nan,nan,nan,nan,nan,nan,nan,nan,0
1608448000,1608448000,0.7095865,0.7016882,0.7098118,0.70293844,nan,nan,nan,nan,nan,nan,nan,nan,0
1608548000,1608548000,0.70196927,0.70944345,0.7041705,0.7078964,nan,nan,nan,nan,nan,nan,nan,nan,0
1608648000,1608648000,0.7083897,0.7027979,0.70354414,0.7057577,nan,nan,nan,nan,nan,nan,nan,nan,0
1608748000,1608748000,0.7090407,0.7048425,0.7016884,0.70730007,nan,nan,nan,nan,nan,nan,nan,nan,0
1608848000,1608848000,0.71281,0.69787884,0.7092249,0.7004913,nan,nan,nan,nan,nan,nan,nan,nan,0
1608948000,1608948000,0.7043452,0.7051287,0.7049341,0.7055289,nan,nan,nan,nan,nan,nan,nan,nan,0
1609048000,1609048000,0.70472264,0.7058624,0.7084563,0.70411766,nan,nan,nan,nan,nan,nan,nan,nan,0
1609148000,1609148000,0.7046232,0.70706254,0.70462644,0.7063075,nan,nan,nan,nan,nan,nan,nan,nan,0
1609244000,1609244000,0.7053987,0.7041487,0.7061221,0.704746,nan,nan,nan,nan,nan,nan,nan,nan,0
1609348000,1609348000,0.7091976,0.7025337,0.70957124,0.70364577,nan,nan,nan,nan,nan,nan,nan,nan,0
1609448000,1609448000,0.7069729,0.70375156,0.7084164,0.70379925,nan,nan,nan,nan,nan,nan,nan,nan,0
1609548000,1609548000,0.70868254,0.7036028,0.7094226,0.7022238,nan,nan,nan,nan,nan,nan,nan,nan,0
1609648000,1609648000,0.707555,0.7051884,0.70645404,0.70211214,nan,nan,nan,nan,nan,nan,nan,nan,0
1609748000,1609748000,0.706346,0.70526135,0.7038472,0.7056681,nan,nan,nan,nan,nan,nan,nan,nan,0
1609848000,1609848000,0.7112263,0.70002675,0.7108003,0.70015794,nan,nan,nan,nan,nan,nan,nan,nan,0
1609948000,1609948000,0.70131934,0.70882064,0.7072311,0.7056942,nan,nan,nan,nan,nan,nan,nan,nan,0
1610048000,1610048000,0.70821476,0.70251316,0.71267736,0.7022156,nan,nan,nan,nan,nan,nan,nan,nan,0
1610148000,1610148000,0.70541644,0.7045694,0.7094775,0.70559347,nan,nan,nan,nan,nan,nan,nan,nan,0
1610248000,1610248000,0.7059815,0.7047091,0.70955825,0.7029764,nan,nan,nan,nan,nan,nan,nan,nan,0
1610348000,1610348000,0.710229,0.70262736,0.711801,0.6983059,nan,nan,nan,nan,nan,nan,nan,nan,0
1610448000,1610448000,0.709261,0.70345265,0.70925194,0.7014356,nan,nan,nan,nan,nan,nan,nan,nan,0
1610548000,1610548000,0.70874816,0.70546955,0.70501894,0.70625216,nan,nan,nan,nan,nan,nan,nan,nan,0
1610648000,1610648000,0.7103558,0.7023293,0.70658904,0.70563984,nan,nan,nan,nan,nan,nan,nan,nan,0
1610748000,1610748000,0.71201104,0.70049953,0.7051286,0.7095064,nan,nan,nan,nan,nan,nan,nan,nan,0
1610848000,1610848000,0.7066613,0.70784616,0.7050773,0.7097195,nan,nan,nan,nan,nan,nan,nan,nan,0
1610948000,1610948000,0.7073989,0.70732605,0.7056209,0.70682,nan,nan,nan,nan,nan,nan,nan,nan,0
1611048000,1611048000,0.7094777,0.7019805,0.7061737,0.7055464,nan,nan,nan,nan,nan,nan,nan,nan,0
1611148000,1611148000,0.70610845,0.7029251,0.7112719,0.6998981,nan,nan,nan,nan,nan,nan,nan,nan,0
1611248000,1611248000,0.7092385,0.70011383,0.70995027,0.7009717,nan,nan,nan,nan,nan,nan,nan,nan,0
1611344000,1611344000,0.70905775,0.7019645,0.70702714,0.70432043,nan,nan,nan,nan,nan,nan,nan,nan,0
1611448000,1611448000,0.7078474,0.7044442,0.71111274,0.70121515,nan,nan,nan,nan,nan,nan,nan,nan,0
1611548000,1611548000,0.70733166,0.70743704,0.7088842,0.7032874,nan,nan,nan,nan,nan,nan,nan,nan,0
1611644000,1611644000,0.7102773,0.7063774,0.712321,0.7009832,nan,nan,nan,nan,nan,nan,nan,nan,0
1611748000,1611748000,0.7102015,0.7047644,0.70979285,0.7056312,nan,nan,nan,nan,nan,nan,nan,nan,0
1611848000,1611848000,0.7066549,0.7071217,0.7045111,0.71023715,nan,nan,nan,nan,nan,nan,nan,nan,0
1611948000,1611948000,0.71085274,0.7021788,0.7091305,0.7049063,nan,nan,nan,nan,nan,nan,nan,nan,0
1612048000,1612048000,0.7116838,0.7017627,0.71011704,0.7005496,nan,nan,nan,nan,nan,nan,nan,nan,0
1612148000,1612148000,0.7083396,0.7056667,0.7067748,0.70571196,nan,nan,nan,nan,nan,nan,nan,nan,0
1612248000,1612248000,0.7054554,0.7076951,0.70612514,0.70756686,nan,nan,nan,nan,nan,nan,nan,nan,0
1612348000,1612348000,0.7099022,0.70349276,0.70987356,0.7025879,nan,nan,nan,nan,nan,nan,nan,nan,0
1612448000,1612448000,0.70744187,0.7056237,0.70489323,0.70753074,nan,nan,nan,nan,nan,nan,nan,nan,0
1612548000,1612548000,0.69956243,0.71631676,0.70441437,0.70467573,nan,nan,nan,nan,nan,nan,nan,nan,0
1612648000,1612648000,0.6983459,0.7312685,0.6950657,0.7062697,nan,nan,nan,nan,nan,nan,nan,nan,0
1612748000,1612748000,0.71875125,0.7247321,0.68689084,0.7068708,nan,nan,nan,nan,nan,nan,nan,nan,0
1612848000,1612848000,0.7308059,0.72646064,0.6921757,0.6997826,nan,nan,nan,nan,nan,nan,nan,nan,0
1612944000,1612944000,0.73421603,0.7368762,0.69388485,0.70207787,nan,nan,nan,nan,nan,nan,nan,nan,0
1613048000,1613048000,0.7361938,0.7344238,0.6999029,0.7006379,nan,nan,nan,nan,nan,nan,nan,nan,0
1613148000,1613148000,0.7395595,0.7303392,0.7071923,0.704337,nan,nan,nan,nan,nan,nan,nan,nan,0
1613248000,1613248000,0.7362251,0.73700666,0.7175872,0.71203095,nan,nan,nan,nan,nan,nan,nan,nan,0
1613348000,1613348000,0.7438057,0.7188578,0.7258888,0.71654946,nan,nan,nan,nan,nan,nan,nan,nan,0
1613444000,1613444000,0.72755134,0.70574504,0.7398777,0.71915394,nan,nan,nan,nan,nan,nan,nan,nan,0
1613548000,1613548000,0.7142231,0.7022536,0.74482787,0.73863333,nan,nan,nan,nan,nan,nan,nan,nan,0
1613648000,1613648000,0.71340036,0.7069064,0.74803203,0.74656963,nan,nan,nan,nan,nan,nan,nan,nan,0
1613748000,1613748000,0.7196195,0.71188545,0.7444038,0.7514134,nan,nan,nan,nan,nan,nan,nan,nan,0
1613848000,1613848000,0.7158893,0.72532517,0.7382618,0.7489209,nan,nan,nan,nan,nan,nan,nan,nan,0
1613948000,1613948000,0.7247494,0.7269985,0.7367553,0.7429562,nan,nan,nan,nan,nan,nan,nan,nan,0
1614048000,1614048000,0.7220909,0.7370002,0.7330327,0.7467626,nan,nan,nan,nan,nan,nan,nan,nan,0
1614148000,1614148000,0.72189164,0.7463361,0.7345487,0.7446668,nan,nan,nan,nan,nan,nan,nan,nan,0
1614244000,1614244000,0.72977257,0.74307823,0.73025,0.74141395,nan,nan,nan,nan,nan,nan,nan,nan,0
1614348000,1614348000,0.73394334,0.7405124,0.72807586,0.733613,nan,nan,nan,nan,nan,nan,nan,nan,0
1614448000,1614448000,0.7283616,0.74116385,0.7248397,0.7239438,nan,nan,nan,nan,nan,nan,nan,nan,0
1614548000,1614548000,0.732009,0.73307884,0.7218783,0.72205836,nan,nan,nan,nan,nan,nan,nan,nan,0
1614648000,1614648000,0.72431445,0.73455244,0.7232215,0.72051454,nan,nan,nan,nan,nan,nan,nan,nan,0
1614748000,1614748000,0.7195487,0.73173565,0.7139443,0.7273988,nan,nan,nan,nan,nan,nan,nan,nan,0
1614848000,1614848000,0.71335816,0.73201483,0.710524,0.7339324,nan,nan,nan,nan,nan,nan,nan,nan,0
1614948000,1614948000,0.709022,0.73197186,0.7110615,0.73158807,nan,nan,nan,nan,nan,nan,nan,nan,0
1615048000,1615048000,0.70440316,0.72908145,0.7105861,0.72678417,nan,nan,nan,nan,nan,nan,nan,nan,0
1615148000,1615148000,0.70846564,0.715932,0.6988336,0.7319576,nan,nan,nan,nan,nan,nan,nan,nan,0
1615248000,1615248000,0.6989878,0.72321016,0.6993129,0.7360045,nan,nan,nan,nan,nan,nan,nan,nan,0
1615348000,1615348000,0.6878149,0.7406639,0.69737756,0.73879534,nan,nan,nan,nan,nan,nan,nan,nan,0
1615448000,1615448000,0.6993195,0.73195803,0.7048011,0.7230177,nan,nan,nan,nan,nan,nan,nan,nan,0
1615544000,1615544000,0.6970092,0.7344701,0.6938645,0.7269961,nan,nan,nan,nan,nan,nan,nan,nan,0
1615648000,1615648000,0.7048154,0.72473603,0.70017797,0.71911323,nan,nan,nan,nan,nan,nan,nan,nan,0
1615744000,1615744000,0.70212156,0.7301052,0.6965674,0.72613144,nan,nan,nan,nan,nan,nan,nan,nan,0
1615848000,1615848000,0.7064996,0.7218961,0.7032926,0.7211712,nan,nan,nan,nan,nan,nan,nan,nan,0
1615948000,1615948000,0.7025641,0.7212945,0.6961105,0.7300942,nan,nan,nan,nan,nan,nan,nan,nan,0
1616048000,1616048000,0.7014974,0.7194579,0.7053488,0.72162014,nan,nan,nan,nan,nan,nan,nan,nan,0
1616148000,1616148000,0.7003132,0.7216813,0.706712,0.72412914,nan,nan,nan,nan,nan,nan,nan,nan,0
1616248000,1616248000,0.7036605,0.72146165,0.7006053,0.72831297,nan,nan,nan,nan,nan,nan,nan,nan,0
1616348000,1616348000,0.70175725,0.723171,0.7066811,0.72047555,nan,nan,nan,nan,nan,nan,nan,nan,0
1616448000,1616448000,0.70687526,0.71894026,0.7031976,0.7215857,nan,nan,nan,nan,nan,nan,nan,nan,0
1616548000,1616548000,0.7014979,0.7248359,0.6996895,0.7251041,nan,nan,nan,nan,nan,nan,nan,nan,0
1616648000,1616648000,0.7040193,0.7233407,0.70280147,0.7226756,nan,nan,nan,nan,nan,nan,nan,nan,0
1616748000,1616748000,0.7020052,0.7234279,0.70456934,0.7201167,nan,nan,nan,nan,nan,nan,nan,nan,0
1616848000,1616848000,0.7022276,0.7232087,0.7007723,0.7238774,nan,nan,nan,nan,nan,nan,nan,nan,0
1616948000,1616948000,0.70280546,0.7234872,0.70591146,0.7205729,nan,nan,nan,nan,nan,nan,nan,nan,0
1617048000,1617048000,0.701322,0.7227259,0.7037792,0.72093034,nan,nan,nan,nan,nan,nan,nan,nan,0
1617148000,1617148000,0.7032555,0.7229509,0.7018224,0.7235147,nan,nan,nan,nan,nan,nan,nan,nan,0
1617248000,1617248000,0.7029488,0.7203205,0.7038206,0.7215782,nan,nan,nan,nan,nan,nan,nan,nan,0
1617348000,1617348000,0.7012388,0.72444177,0.7005884,0.7276846,nan,nan,nan,nan,nan,nan,nan,nan,0
1617448000,1617448000,0.7069683,0.7194339,0.70175815,0.7262019,nan,nan,nan,nan,nan,nan,nan,nan,0
1617548000,1617548000,0.7052645,0.7211701,0.7040344,0.7243009,nan,nan,nan,nan,nan,nan,nan,nan,0
1617648000,1617648000,0.7062935,0.7205392,0.7059373,0.72235894,nan,nan,nan,nan,nan,nan,nan,nan,0
1617748000,1617748000,0.70962644,0.72055066,0.7114382,0.71684635,nan,nan,nan,nan,nan,nan,nan,nan,0
1617848000,1617848000,0.70363045,0.7272806,0.7024404,0.7276405,nan,nan,nan,nan,nan,nan,nan,nan,0
1617944000,1617944000,0.7016794,0.7284602,0.70044637,0.73004216,nan,nan,nan,nan,nan,nan,nan,nan,0
1618048000,1618048000,0.70620805,0.72123224,0.70235837,0.7230661,nan,nan,nan,nan,nan,nan,nan,nan,0
1618148000,1618148000,0.70526505,0.72575074,0.70183986,0.72747827,nan,nan,nan,nan,nan,nan,nan,nan,0
1618248000,1618248000,0.7047216,0.72758555,0.7015942,0.72893524,nan,nan,nan,nan,nan,nan,nan,nan,0
1618348000,1618348000,0.70925707,0.71922576,0.70898247,0.7216677,nan,nan,nan,nan,nan,nan,nan,nan,0
1618448000,1618448000,0.70432746,0.7202109,0.705353,0.72197413,nan,nan,nan,nan,nan,nan,nan,nan,0
1618548000,1618548000,0.7025093,0.7237935,0.70616996,0.7202239,nan,nan,nan,nan,nan,nan,nan,nan,0
1618648000,1618648000,0.7080828,0.7205752,0.70316005,0.72371316,nan,nan,nan,nan,nan,nan,nan,nan,0
1618748000,1618748000,0.7045074,0.72198296,0.70227623,0.72664136,nan,nan,nan,nan,nan,nan,nan,nan,0
1618848000,1618848000,0.70033026,0.7255044,0.709046,0.72173655,nan,nan,nan,nan,nan,nan,nan,nan,0
1618948000,1618948000,0.7044438,0.72365427,0.70253146,0.72689176,nan,nan,nan,nan,nan,nan,nan,nan,0
1619048000,1619048000,0.7086009,0.7226436,0.69931823,0.7268329,nan,nan,nan,nan,nan,nan,nan,nan,0
1619148000,1619148000,0.7061548,0.7235485,0.6995732,0.7271323,nan,nan,nan,nan,nan,nan,nan,nan,0
1619248000,1619248000,0.7031181,0.7254066,0.70193017,0.72453994,nan,nan,nan,nan,nan,nan,nan,nan,0
1619348000,1619348000,0.7012174,0.7264494,0.70613825,0.7236073,nan,nan,nan,nan,nan,nan,nan,nan,0
1619448000,1619448000,0.7032105,0.722957,0.70293987,0.7254032,nan,nan,nan,nan,nan,nan,nan,nan,0
1619548000,1619548000,0.7049793,0.718289,0.7038178,0.72343546,nan,nan,nan,nan,nan,nan,nan,nan,0
1619648000,1619648000,0.7020601,0.72351223,0.70639515,0.72165185,nan,nan,nan,nan,nan,nan,nan,nan,0
1619748000,1619748000,0.70305896,0.7248965,0.69999385,0.725882,nan,nan,nan,nan,nan,nan,nan,nan,0
1619844000,1619844000,0.701387,0.7270616,0.70128506,0.72583544,nan,nan,nan,nan,nan,nan,nan,nan,0
1619948000,1619948000,0.70654494,0.7221029,0.704149,0.72066754,nan,nan,nan,nan,nan,nan,nan,nan,0
1620048000,1620048000,0.7004121,0.72704417,0.7042142,0.7214563,nan,nan,nan,nan,nan,nan,nan,nan,0
1620148000,1620148000,0.70279336,0.7257841,0.702671,0.7241802,nan,nan,nan,nan,nan,nan,nan,nan,0
1620248000,1620248000,0.699443,0.7271422,0.7001055,0.7251989,nan,nan,nan,nan,nan,nan,nan,nan,0
1620348000,1620348000,0.70382655,0.7234434,0.7023756,0.72524697,nan,nan,nan,nan,nan,nan,nan,nan,0
1620448000,1620448000,0.7058931,0.7195429,0.7032118,0.7237325,nan,nan,nan,nan,nan,nan,nan,nan,0
1620548000,1620548000,0.7060687,0.72011787,0.7045494,0.72484416,nan,nan,nan,nan,nan,nan,nan,nan,0
1620648000,1620648000,0.70278096,0.72384995,0.70755726,0.7196808,nan,nan,nan,nan,nan,nan,nan,nan,0
1620748000,1620748000,0.7031754,0.7228131,0.7039127,0.7209727,nan,nan,nan,nan,nan,nan,nan,nan,0
1620848000,1620848000,0.70579016,0.72198856,0.70826316,0.71966815,nan,nan,nan,nan,nan,nan,nan,nan,0
1620948000,1620948000,0.7061068,0.7219999,0.70576036,0.72370934,nan,nan,nan,nan,nan,nan,nan,nan,0
1621044000,1621044000,0.70055985,0.7276815,0.70039487,0.7271246,nan,nan,nan,nan,nan,nan,nan,nan,0
1621148000,1621148000,0.70847917,0.717696,0.705223,0.7221544,nan,nan,nan,nan,nan,nan,nan,nan,0
1621248000,1621248000,0.70357585,0.72418535,0.7043609,0.72363394,nan,nan,nan,nan,nan,nan,nan,nan,0
1621348000,1621348000,0.70281756,0.7256374,0.70276,0.72430986,nan,nan,nan,nan,nan,nan,nan,nan,0
1621448000,1621448000,0.705096,0.7233462,0.70610726,0.7198624,nan,nan,nan,nan,nan,nan,nan,nan,0
1621548000,1621548000,0.7031504,0.72553533,0.703622,0.725427,nan,nan,nan,nan,nan,nan,nan,nan,0
1621648000,1621648000,0.7070114,0.7213002,0.7055004,0.72234625,nan,nan,nan,nan,nan,nan,nan,nan,0
1621748000,1621748000,0.7091152,0.7203224,0.70214397,0.7283008,nan,nan,nan,nan,nan,nan,nan,nan,0
1621848000,1621848000,0.7030051,0.72725254,0.7013986,0.72990865,nan,nan,nan,nan,nan,nan,nan,nan,0
1621948000,1621948000,0.7063926,0.7214601,0.70719445,0.720527,nan,nan,nan,nan,nan,nan,nan,nan,0
1622048000,1622048000,0.7010753,0.72515684,0.6981702,0.73006576,nan,nan,nan,nan,nan,nan,nan,nan,0
1622148000,1622148000,0.701753,0.7236682,0.701011,0.725974,nan,nan,nan,nan,nan,nan,nan,nan,0
1622248000,1622248000,0.70395225,0.72289443,0.7071372,0.72112364,nan,nan,nan,nan,nan,nan,nan,nan,0
1622348000,1622348000,0.70386916,0.7244554,0.7060755,0.7212272,nan,nan,nan,nan,nan,nan,nan,nan,0
1622448000,1622448000,0.7063217,0.72189087,0.7026742,0.72247577,nan,nan,nan,nan,nan,nan,nan,nan,0
1622548000,1622548000,0.70001143,0.728597,0.702337,0.72383285,nan,nan,nan,nan,nan,nan,nan,nan,0
1622648000,1622648000,0.70312124,0.7272945,0.7047333,0.72410077,nan,nan,nan,nan,nan,nan,nan,nan,0
1622748000,1622748000,0.7026759,0.7254259,0.7033351,0.7239365,nan,nan,nan,nan,nan,nan,nan,nan,0
1622848000,1622848000,0.7070863,0.7205152,0.7024888,0.72399324,nan,nan,nan,nan,nan,nan,nan,nan,0
1622948000,1622948000,0.7033865,0.7250287,0.70537895,0.7224464,nan,nan,nan,nan,nan,nan,nan,nan,0
1623048000,1623048000,0.69953907,0.72427595,0.70315933,0.7240126,nan,nan,nan,nan,nan,nan,nan,nan,0
1623148000,1623148000,0.70303833,0.7235387,0.70492524,0.72302663,nan,nan,nan,nan,nan,nan,nan,nan,0
1623248000,1623248000,0.70159113,0.7247073,0.7062469,0.7217852,nan,nan,nan,nan,nan,nan,nan,nan,0
1623348000,1623348000,0.70771545,0.71984917,0.708696,0.7198254,nan,nan,nan,nan,nan,nan,nan,nan,0
1623448000,1623448000,0.70194155,0.72561866,0.7033511,0.72371775,nan,nan,nan,nan,nan,nan,nan,nan,0
1623548000,1623548000,0.6994304,0.7265974,0.6974156,0.72781724,nan,nan,nan,nan,nan,nan,nan,nan,0
1623648000,1623648000,0.7013659,0.7246838,0.6999383,0.7277434,nan,nan,nan,nan,nan,nan,nan,nan,0
1623748000,1623748000,0.7044232,0.7253332,0.70503813,0.7235705,nan,nan,nan,nan,nan,nan,nan,nan,0
1623848000,1623848000,0.7025561,0.7240728,0.69772315,0.7298531,nan,nan,nan,nan,nan,nan,nan,nan,0
1623948000,1623948000,0.6996486,0.7260484,0.70106053,0.72340876,nan,nan,nan,nan,nan,nan,nan,nan,0
1624048000,1624048000,0.69721484,0.7293492,0.69958174,0.72483236,nan,nan,nan,nan,nan,nan,nan,nan,0
1624144000,1624144000,0.7055519,0.7244063,0.69956446,0.72815573,nan,nan,nan,nan,nan,nan,nan,nan,0
1624248000,1624248000,0.69973886,0.7276496,0.70029896,0.7252989,nan,nan,nan,nan,nan,nan,nan,nan,0
1624348000,1624348000,0.6978154,0.727138,0.7036921,0.72330636,nan,nan,nan,nan,nan,nan,nan,nan,0
1624448000,1624448000,0.7000506,0.7254631,0.70176,0.7277719,nan,nan,nan,nan,nan,nan,nan,nan,0
1624548000,1624548000,0.7013256,0.7263419,0.7050638,0.7249695,nan,nan,nan,nan,nan,nan,nan,nan,0
1624648000,1624648000,0.7036126,0.7253041,0.7004219,0.72820216,nan,nan,nan,nan,nan,nan,nan,nan,0
1624748000,1624748000,0.70689815,0.7213398,0.7019814,0.72512275,nan,nan,nan,nan,nan,nan,nan,nan,0
1624848000,1624848000,0.7025914,0.7278804,0.7019782,0.724994,nan,nan,nan,nan,nan,nan,nan,nan,0
1624948000,1624948000,0.7020176,0.72524476,0.70331484,0.7220627,nan,nan,nan,nan,nan,nan,nan,nan,0
1625044000,1625044000,0.704229,0.7239481,0.7003234,0.72786444,nan,nan,nan,nan,nan,nan,nan,nan,0
1625144000,1625144000,0.6992307,0.7311751,0.70053023,0.73051155,nan,nan,nan,nan,nan,nan,nan,nan,0
1625248000,1625248000,0.703729,0.72276783,0.70209485,0.72458255,nan,nan,nan,nan,nan,nan,nan,nan,0
1625348000,1625348000,0.70308626,0.72253674,0.70008194,0.7263132,nan,nan,nan,nan,nan,nan,nan,nan,0
1625448000,1625448000,0.7006943,0.72332823,0.70371383,0.72304934,nan,nan,nan,nan,nan,nan,nan,nan,0
1625548000,1625548000,0.6994565,0.72564423,0.7045126,0.722302,nan,nan,nan,nan,nan,nan,nan,nan,0
1625644000,1625644000,0.70148176,0.72503465,0.7014299,0.7247694,nan,nan,nan,nan,nan,nan,nan,nan,0
1625748000,1625748000,0.7052672,0.7254633,0.70085806,0.7287516,nan,nan,nan,nan,nan,nan,nan,nan,0
1625848000,1625848000,0.7047484,0.7250597,0.70707923,0.7228248,nan,nan,nan,nan,nan,nan,nan,nan,0
1625948000,1625948000,0.7062145,0.72453517,0.705391,0.7246265,nan,nan,nan,nan,nan,nan,nan,nan,0
1626048000,1626048000,0.7086698,0.7208909,0.7068686,0.7204326,nan,nan,nan,nan,nan,nan,nan,nan,0
1626148000,1626148000,0.70493543,0.7239374,0.7026296,0.72489446,nan,nan,nan,nan,nan,nan,nan,nan,0
1626248000,1626248000,0.70028234,0.72697204,0.7050604,0.7242838,nan,nan,nan,nan,nan,nan,nan,nan,0
1626348000,1626348000,0.7014302,0.72385275,0.70144147,0.7272895,nan,nan,nan,nan,nan,nan,nan,nan,0
1626448000,1626448000,0.7023469,0.72665125,0.7047038,0.7253998,nan,nan,nan,nan,nan,nan,nan,nan,0
1626548000,1626548000,0.70703226,0.72277004,0.70568556,0.72345823,nan,nan,nan,nan,nan,nan,nan,nan,0
1626648000,1626648000,0.70475686,0.7244952,0.7029139,0.723922,nan,nan,nan,nan,nan,nan,nan,nan,0
1626748000,1626748000,0.7050884,0.72282964,0.7061669,0.7211437,nan,nan,nan,nan,nan,nan,nan,nan,0
1626848000,1626848000,0.6998506,0.73102736,0.705708,0.72335595,nan,nan,nan,nan,nan,nan,nan,nan,0
1626948000,1626948000,0.70477515,0.72596824,0.7024944,0.7234207,nan,nan,nan,nan,nan,nan,nan,nan,0
1627048000,1627048000,0.7052293,0.72469103,0.70660806,0.7248045,nan,nan,nan,nan,nan,nan,nan,nan,0
1627148000,1627148000,0.7049324,0.72131956,0.70522404,0.727194,nan,nan,nan,nan,nan,nan,nan,nan,0
1627248000,1627248000,0.7032043,0.7249668,0.70537364,0.7256033,nan,nan,nan,nan,nan,nan,nan,nan,0
1627348000,1627348000,0.70514566,0.72334135,0.71000946,0.72147363,nan,nan,nan,nan,nan,nan,nan,nan,0
1627444000,1627444000,0.70245516,0.72661865,0.70272034,0.7237354,nan,nan,nan,nan,nan,nan,nan,nan,0
1627544000,1627544000,0.700439,0.730046,0.70179075,0.7241803,nan,nan,nan,nan,nan,nan,nan,nan,0
1627648000,1627648000,0.699876,0.7296955,0.7033142,0.7243445,nan,nan,nan,nan,nan,nan,nan,nan,0
1627748000,1627748000,0.70823085,0.7216526,0.7068361,0.7219173,nan,nan,nan,nan,nan,nan,nan,nan,0
1627844000,1627844000,0.70625776,0.7231204,0.7091567,0.7208423,nan,nan,nan,nan,nan,nan,nan,nan,0
1627948000,1627948000,0.69822896,0.7281192,0.7014253,0.72765356,nan,nan,nan,nan,nan,nan,nan,nan,0
1628048000,1628048000,0.7037658,0.7238217,0.7029877,0.7260626,nan,nan,nan,nan,nan,nan,nan,nan,0
1628148000,1628148000,0.7020007,0.7257068,0.7013045,0.7301694,nan,nan,nan,nan,nan,nan,nan,nan,0
1628248000,1628248000,0.702168,0.72760177,0.7061468,0.72371215,nan,nan,nan,nan,nan,nan,nan,nan,0
1628344000,1628344000,0.6996535,0.7323026,0.6989256,0.7324725,nan,nan,nan,nan,nan,nan,nan,nan,0
1628448000,1628448000,0.7008449,0.728478,0.7047412,0.7236408,nan,nan,nan,nan,nan,nan,nan,nan,0
1628548000,1628548000,0.70611703,0.72509915,0.7020584,0.72642183,nan,nan,nan,nan,nan,nan,nan,nan,0
1628648000,1628648000,0.70730305,0.72418034,0.7062861,0.7218156,nan,nan,nan,nan,nan,nan,nan,nan,0
1628748000,1628748000,0.7068605,0.7220882,0.70721704,0.72036636,nan,nan,nan,nan,nan,nan,nan,nan,0
1628848000,1628848000,0.70662785,0.7210271,0.70405734,0.72492355,nan,nan,nan,nan,nan,nan,nan,nan,0
1628948000,1628948000,0.7025324,0.72556,0.70632595,0.7236625,nan,nan,nan,nan,nan,nan,nan,nan,0
1629044000,1629044000,0.700808,0.724805,0.7019497,0.7230442,nan,nan,nan,nan,nan,nan,nan,nan,0
1629148000,1629148000,0.7007638,0.7255579,0.7021558,0.72305536,nan,nan,nan,nan,nan,nan,nan,nan,0
1629248000,1629248000,0.70719,0.7105311,0.7079018,0.7103003,nan,nan,nan,nan,nan,nan,nan,nan,0
1629348000,1629348000,0.70673126,0.70902383,0.7135998,0.7046824,nan,nan,nan,nan,nan,nan,nan,nan,0
1629448000,1629448000,0.7037989,0.7135421,0.7026593,0.716441,nan,nan,nan,nan,nan,nan,nan,nan,0
1629548000,1629548000,0.697122,0.7236433,0.6962644,0.7237561,nan,nan,nan,nan,nan,nan,nan,nan,0
1629648000,1629648000,0.6909064,0.7266044,0.68258595,0.7336251,nan,nan,nan,nan,nan,nan,nan,nan,0
1629748000,1629748000,0.6860591,0.72608143,0.6842767,0.7271742,nan,nan,nan,nan,nan,nan,nan,nan,0
1629848000,1629848000,0.69269586,0.71996087,0.6962843,0.7153767,nan,nan,nan,nan,nan,nan,nan,nan,0
1629948000,1629948000,0.6949132,0.716699,0.6982622,0.7144392,nan,nan,nan,nan,nan,nan,nan,nan,0
1630048000,1630048000,0.6959715,0.7170355,0.699797,0.7153399,nan,nan,nan,nan,nan,nan,nan,nan,0
1630148000,1630148000,0.7005549,0.7147733,0.70143634,0.718631,nan,nan,nan,nan,nan,nan,nan,nan,0
1630244000,1630244000,0.6996963,0.7183028,0.7031785,0.7177697,nan,nan,nan,nan,nan,nan,nan,nan,0
1630348000,1630348000,0.7015671,0.7146199,0.6979034,0.7201176,nan,nan,nan,nan,nan,nan,nan,nan,0
1630448000,1630448000,0.70216507,0.7167502,0.69858664,0.7215727,nan,nan,nan,nan,nan,nan,nan,nan,0
1630548000,1630548000,0.7059381,0.71496075,0.70433533,0.71730846,nan,nan,nan,nan,nan,nan,nan,nan,0
1630648000,1630648000,0.7063055,0.71735007,0.7036217,0.7196454,nan,nan,nan,nan,nan,nan,nan,nan,0
1630748000,1630748000,0.7024878,0.7200466,0.70184094,0.7211633,nan,nan,nan,nan,nan,nan,nan,nan,0
1630848000,1630848000,0.70363086,0.7151332,0.70776516,0.7150185,nan,nan,nan,nan,nan,nan,nan,nan,0
1630948000,1630948000,0.70458376,0.71214837,0.7090328,0.7179131,nan,nan,nan,nan,nan,nan,nan,nan,0
1631048000,1631048000,0.7055596,0.7130341,0.7107929,0.7170878,nan,nan,nan,nan,nan,nan,nan,nan,0
1631148000,1631148000,0.70546824,0.71349967,0.70754796,0.71703005,nan,nan,nan,nan,nan,nan,nan,nan,0
1631248000,1631248000,0.7067047,0.7142626,0.7052723,0.7171628,nan,nan,nan,nan,nan,nan,nan,nan,0
1631348000,1631348000,0.70969933,0.7127369,0.70600075,0.7145203,nan,nan,nan,nan,nan,nan,nan,nan,0
1631448000,1631448000,0.70866144,0.7139364,0.70456624,0.7116986,nan,nan,nan,nan,nan,nan,nan,nan,0
1631548000,1631548000,0.70544535,0.71525806,0.70461,0.7100371,nan,nan,nan,nan,nan,nan,nan,nan,0
1631648000,1631648000,0.7115914,0.71360123,0.7092282,0.70846915,nan,nan,nan,nan,nan,nan,nan,nan,0
1631748000,1631748000,0.70998836,0.71286887,0.7038073,0.7161616,nan,nan,nan,nan,nan,nan,nan,nan,0
1631848000,1631848000,0.7060409,0.71517724,0.7017645,0.7144571,nan,nan,nan,nan,nan,nan,nan,nan,0
1631948000,1631948000,0.70949817,0.7107313,0.7091528,0.70816237,nan,nan,nan,nan,nan,nan,nan,nan,0
1632048000,1632048000,0.71052915,0.70767397,0.704769,0.71099293,nan,nan,nan,nan,nan,nan,nan,nan,0
1632148000,1632148000,0.7106795,0.7064025,0.7090822,0.7104903,nan,nan,nan,nan,nan,nan,nan,nan,0
1632248000,1632248000,0.7099765,0.7048783,0.7082905,0.708504,nan,nan,nan,nan,nan,nan,nan,nan,0
1632348000,1632348000,0.70406795,0.70959854,0.7046662,0.7103991,nan,nan,nan,nan,nan,nan,nan,nan,0
1632448000,1632448000,0.7054792,0.7073995,0.7065235,0.7078626,nan,nan,nan,nan,nan,nan,nan,nan,0
1632548000,1632548000,0.7002845,0.71249306,0.70864594,0.7044766,nan,nan,nan,nan,nan,nan,nan,nan,0
1632648000,1632648000,0.7061127,0.709856,0.70860946,0.7053777,nan,nan,nan,nan,nan,nan,nan,nan,0
1632748000,1632748000,0.7024474,0.7116785,0.707634,0.7084646,nan,nan,nan,nan,nan,nan,nan,nan,0
1632844000,1632844000,0.71092296,0.70283055,0.70553255,0.7082608,nan,nan,nan,nan,nan,nan,nan,nan,0
1632948000,1632948000,0.7020611,0.7095929,0.70147955,0.71086323,nan,nan,nan,nan,nan,nan,nan,nan,0
1633048000,1633048000,0.7076866,0.7057782,0.70788413,0.70548886,nan,nan,nan,nan,nan,nan,nan,nan,0
1633148000,1633148000,0.70886534,0.703378,0.7087081,0.70355624,nan,nan,nan,nan,nan,nan,nan,nan,0
1633248000,1633248000,0.70535594,0.7081374,0.70595074,0.7082053,nan,nan,nan,nan,nan,nan,nan,nan,0
1633348000,1633348000,0.710046,0.70530564,0.70817953,0.7057268,nan,nan,nan,nan,nan,nan,nan,nan,0
1633448000,1633448000,0.70505244,0.71080196,0.7076831,0.70797855,nan,nan,nan,nan,nan,nan,nan,nan,0
1633544000,1633544000,0.709233,0.7037869,0.71112645,0.7026645,nan,nan,nan,nan,nan,nan,nan,nan,0
1633648000,1633648000,0.70880413,0.70248044,0.70939356,0.70145136,nan,nan,nan,nan,nan,nan,nan,nan,0
1633748000,1633748000,0.7093313,0.7019601,0.71142334,0.6996079,nan,nan,nan,nan,nan,nan,nan,nan,0
1633848000,1633848000,0.70673466,0.7064008,0.70552826,0.7073465,nan,nan,nan,nan,nan,nan,nan,nan,0
1633948000,1633948000,0.7063076,0.70497966,0.70585406,0.70826215,nan,nan,nan,nan,nan,nan,nan,nan,0
1634044000,1634044000,0.7097198,0.70257777,0.707104,0.7040216,nan,nan,nan,nan,nan,nan,nan,nan,0
1634148000,1634148000,0.70858514,0.7026052,0.7015667,0.7082314,nan,nan,nan,nan,nan,nan,nan,nan,0
1634248000,1634248000,0.70490605,0.7056397,0.7133871,0.69766665,nan,nan,nan,nan,nan,nan,nan,nan,0
1634348000,1634348000,0.7041869,0.7071395,0.7093728,0.70184726,nan,nan,nan,nan,nan,nan,nan,nan,0
1634448000,1634448000,0.70663416,0.70513415,0.7089491,0.70325005,nan,nan,nan,nan,nan,nan,nan,nan,0
1634548000,1634548000,0.71082306,0.7044204,0.70835453,0.703637,nan,nan,nan,nan,nan,nan,nan,nan,0
1634648000,1634648000,0.7050897,0.7093786,0.70834094,0.70430726,nan,nan,nan,nan,nan,nan,nan,nan,0
1634748000,1634748000,0.71050125,0.70621896,0.71256185,0.7040083,nan,nan,nan,nan,nan,nan,nan,nan,0
1634848000,1634848000,0.706123,0.7068516,0.71136755,0.70556027,nan,nan,nan,nan,nan,nan,nan,nan,0
1634948000,1634948000,0.7093991,0.7029041,0.70683,0.70791364,nan,nan,nan,nan,nan,nan,nan,nan,0
1635048000,1635048000,0.71153265,0.7010078,0.7107789,0.7040191,nan,nan,nan,nan,nan,nan,nan,nan,0
1635148000,1635148000,0.71078396,0.70385927,0.7072792,0.70725256,nan,nan,nan,nan,nan,nan,nan,nan,0
1635248000,1635248000,0.71370465,0.69920313,0.70980024,0.7026723,nan,nan,nan,nan,nan,nan,nan,nan,0
1635348000,1635348000,0.70033705,0.71163756,0.70236963,0.71006715,nan,nan,nan,nan,nan,nan,nan,nan,0
1635448000,1635448000,0.70861995,0.70354414,0.70190006,0.70879585,nan,nan,nan,nan,nan,nan,nan,nan,0
1635548000,1635548000,0.70936006,0.7052927,0.70639026,0.7031073,nan,nan,nan,nan,nan,nan,nan,nan,0
1635648000,1635648000,0.7065102,0.70931005,0.7026835,0.70970565,nan,nan,nan,nan,nan,nan,nan,nan,0
1635748000,1635748000,0.711329,0.70137846,0.71198297,0.6997055,nan,nan,nan,nan,nan,nan,nan,nan,0
1635848000,1635848000,0.7071245,0.70429844,0.7087545,0.7053019,nan,nan,nan,nan,nan,nan,nan,nan,0
1635948000,1635948000,0.710552,0.6994221,0.71080756,0.7019789,nan,nan,nan,nan,nan,nan,nan,nan,0
1636048000,1636048000,0.70796657,0.70131963,0.7107953,0.7028031,nan,nan,nan,nan,nan,nan,nan,nan,0
1636148000,1636148000,0.70972663,0.7022403,0.71212214,0.7015895,nan,nan,nan,nan,nan,nan,nan,nan,0
1636248000,1636248000,0.7045945,0.7082406,0.7063845,0.7063176,nan,nan,nan,nan,nan,nan,nan,nan,0
1636348000,1636348000,0.7083047,0.70719475,0.709314,0.70175064,nan,nan,nan,nan,nan,nan,nan,nan,0
1636448000,1636448000,0.71054757,0.7020125,0.70871556,0.70133454,nan,nan,nan,nan,nan,nan,nan,nan,0
1636548000,1636548000,0.71155465,0.6994235,0.7084172,0.7014863,nan,nan,nan,nan,nan,nan,nan,nan,0
1636648000,1636648000,0.70693904,0.7065304,0.7041081,0.7071557,nan,nan,nan,nan,nan,nan,nan,nan,0
1636748000,1636748000,0.70740145,0.70452315,0.7086999,0.704629,nan,nan,nan,nan,nan,nan,nan,nan,0
1636848000,1636848000,0.70704544,0.70584804,0.7127464,0.7028337,nan,nan,nan,nan,nan,nan,nan,nan,0
1636948000,1636948000,0.7079966,0.7041346,0.7086876,0.7072156,nan,nan,nan,nan,nan,nan,nan,nan,0
1637048000,1637048000,0.7115955,0.70211095,0.70921177,0.70415586,nan,nan,nan,nan,nan,nan,nan,nan,0
1637148000,1637148000,0.70774317,0.70444137,0.7076656,0.70270205,nan,nan,nan,nan,nan,nan,nan,nan,0
1637248000,1637248000,0.70869553,0.70559,0.7050218,0.70608085,nan,nan,nan,nan,nan,nan,nan,nan,0
1637348000,1637348000,0.7058349,0.7090048,0.7049551,0.70732594,nan,nan,nan,nan,nan,nan,nan,nan,0
1637444000,1637444000,0.7099975,0.70326096,0.71156394,0.7029462,nan,nan,nan,nan,nan,nan,nan,nan,0
1637548000,1637548000,0.7064841,0.70746374,0.7072143,0.7074581,nan,nan,nan,nan,nan,nan,nan,nan,0
1637648000,1637648000,0.7089512,0.7005735,0.7103425,0.7033874,nan,nan,nan,nan,nan,nan,nan,nan,0
1637748000,1637748000,0.7083889,0.7028053,0.70611024,0.70555604,nan,nan,nan,nan,nan,nan,nan,nan,0
1637848000,1637848000,0.70912784,0.70472926,0.7077377,0.70337784,nan,nan,nan,nan,nan,nan,nan,nan,0
1637948000,1637948000,0.7046444,0.7073863,0.7059488,0.70569205,nan,nan,nan,nan,nan,nan,nan,nan,0
1638048000,1638048000,0.7072047,0.7050036,0.70532864,0.70674354,nan,nan,nan,nan,nan,nan,nan,nan,0
1638144000,1638144000,0.7082486,0.70425165,0.7101587,0.7025113,nan,nan,nan,nan,nan,nan,nan,nan,0
1638248000,1638248000,0.7080056,0.7045536,0.70945495,0.70337784,nan,nan,nan,nan,nan,nan,nan,nan,0
1638348000,1638348000,0.70473045,0.7075079,0.7057328,0.7058282,nan,nan,nan,nan,nan,nan,nan,nan,0
1638448000,1638448000,0.7076136,0.7032647,0.7082744,0.7029782,nan,nan,nan,nan,nan,nan,nan,nan,0
1638548000,1638548000,0.7092804,0.6994894,0.7078337,0.70455587,nan,nan,nan,nan,nan,nan,nan,nan,0
1638648000,1638648000,0.71131563,0.6984063,0.7092893,0.7000875,nan,nan,nan,nan,nan,nan,nan,nan,0
1638748000,1638748000,0.7071984,0.70620507,0.7042474,0.7070795,nan,nan,nan,nan,nan,nan,nan,nan,0
1638848000,1638848000,0.6766022,0.67478704,0.6727936,0.6765644,nan,nan,nan,nan,nan,nan,nan,nan,0
1638948000,1638948000,0.6532173,0.6429939,0.6479652,0.64633775,nan,nan,nan,nan,nan,nan,nan,nan,0
1639048000,1639048000,0.63130903,0.6311296,0.62929076,0.63477415,nan,nan,nan,nan,nan,nan,nan,nan,0
1639148000,1639148000,0.6171397,0.61802304,0.62143624,0.6173197,nan,nan,nan,nan,nan,nan,nan,nan,0
1639248000,1639248000,0.65805006,0.6481759,0.658648,0.65022475,nan,nan,nan,nan,nan,nan,nan,nan,0
1639348000,1639348000,0.7011002,0.6923495,0.70129174,0.6922578,nan,nan,nan,nan,nan,nan,nan,nan,0
1639448000,1639448000,0.73673487,0.71119326,0.73238146,0.7139575,nan,nan,nan,nan,nan,nan,nan,nan,0
1639548000,1639548000,0.7524278,0.7388796,0.74767923,0.74150354,nan,nan,nan,nan,nan,nan,nan,nan,0
1639648000,1639648000,0.7339727,0.7472785,0.7383786,0.74014896,nan,nan,nan,nan,nan,nan,nan,nan,0
1639748000,1639748000,0.7244921,0.72224337,0.7232101,0.7234804,nan,nan,nan,nan,nan,nan,nan,nan,0
1639848000,1639848000,0.71782315,0.71452916,0.71676207,0.71687317,nan,nan,nan,nan,nan,nan,nan,nan,0
1639948000,1639948000,0.7130347,0.71257466,0.71652144,0.71269923,nan,nan,nan,nan,nan,nan,nan,nan,0
1640048000,1640048000,0.7147529,0.7126833,0.7113607,0.7167393,nan,nan,nan,nan,nan,nan,nan,nan,0
1640148000,1640148000,0.71274817,0.7134748,0.709356,0.71778643,nan,nan,nan,nan,nan,nan,nan,nan,0
1640248000,1640248000,0.71125567,0.71854156,0.71659607,0.71325976,nan,nan,nan,nan,nan,nan,nan,nan,0
1640348000,1640348000,0.71537375,0.71584606,0.71783686,0.7127254,nan,nan,nan,nan,nan,nan,nan,nan,0
1640448000,1640448000,0.7192126,0.71086144,0.7191264,0.71205497,nan,nan,nan,nan,nan,nan,nan,nan,0
1640548000,1640548000,0.71793383,0.71396214,0.71729565,0.7160635,nan,nan,nan,nan,nan,nan,nan,nan,0
1640648000,1640648000,0.7170177,0.7174039,0.7152883,0.7170184,nan,nan,nan,nan,nan,nan,nan,nan,0
1640748000,1640748000,0.718618,0.71557564,0.718277,0.71629477,nan,nan,nan,nan,nan,nan,nan,nan,0
1640848000,1640848000,0.7190732,0.71699667,0.7177347,0.71740866,nan,nan,nan,nan,nan,nan,nan,nan,0
1640948000,1640948000,0.7170531,0.7187519,0.7206579,0.7140188,nan,nan,nan,nan,nan,nan,nan,nan,0
1641048000,1641048000,0.7228323,0.7142976,0.71839815,0.71667075,nan,nan,nan,nan,nan,nan,nan,nan,0
1641148000,1641148000,0.71781725,0.71694183,0.71877474,0.7173263,nan,nan,nan,nan,nan,nan,nan,nan,0
1641248000,1641248000,0.71793085,0.716585,0.72308654,0.7143509,nan,nan,nan,nan,nan,nan,nan,nan,0
1641348000,1641348000,0.7159315,0.717526,0.7158812,0.7181468,nan,nan,nan,nan,nan,nan,nan,nan,0
1641448000,1641448000,0.72027993,0.71458215,0.716236,0.71819466,nan,nan,nan,nan,nan,nan,nan,nan,0
1641548000,1641548000,0.72041714,0.7144286,0.7211013,0.7133221,nan,nan,nan,nan,nan,nan,nan,nan,0
1641648000,1641648000,0.71643096,0.7217859,0.7224474,0.7158156,nan,nan,nan,nan,nan,nan,nan,nan,0
1641748000,1641748000,0.7182931,0.7157811,0.7204098,0.7135516,nan,nan,nan,nan,nan,nan,nan,nan,0
1641848000,1641848000,0.7239562,0.71097344,0.7204799,0.7141719,nan,nan,nan,nan,nan,nan,nan,nan,0
1641948000,1641948000,0.7190162,0.71362126,0.71786195,0.7160699,nan,nan,nan,nan,nan,nan,nan,nan,0
1642048000,1642048000,0.7222405,0.71429294,0.716785,0.71776,nan,nan,nan,nan,nan,nan,nan,nan,0
1642148000,1642148000,0.7230766,0.7140256,0.7166832,0.7196253,nan,nan,nan,nan,nan,nan,nan,nan,0
1642244000,1642244000,0.71976495,0.7171252,0.7195063,0.7166187,nan,nan,nan,nan,nan,nan,nan,nan,0
1642348000,1642348000,0.720588,0.7179813,0.71914667,0.7191518,nan,nan,nan,nan,nan,nan,nan,nan,0
1642448000,1642448000,0.7197854,0.71646833,0.7193673,0.7177694,nan,nan,nan,nan,nan,nan,nan,nan,0
1642548000,1642548000,0.7181005,0.7157045,0.71832705,0.7185323,nan,nan,nan,nan,nan,nan,nan,nan,0
1642644000,1642644000,0.7219122,0.7127189,0.72222704,0.7143646,nan,nan,nan,nan,nan,nan,nan,nan,0
1642748000,1642748000,0.7141087,0.7197264,0.7182966,0.717795,nan,nan,nan,nan,nan,nan,nan,nan,0
1642848000,1642848000,0.7211838,0.71775895,0.72348386,0.715031,nan,nan,nan,nan,nan,nan,nan,nan,0
1642948000,1642948000,0.7214003,0.7172226,0.71776664,0.71611017,nan,nan,nan,nan,nan,nan,nan,nan,0
1643048000,1643048000,0.7216381,0.7175356,0.7237283,0.7133473,nan,nan,nan,nan,nan,nan,nan,nan,0
1643148000,1643148000,0.717047,0.7193213,0.71822876,0.7184062,nan,nan,nan,nan,nan,nan,nan,nan,0
1643248000,1643248000,0.7186553,0.71642435,0.7226256,0.7132781,nan,nan,nan,nan,nan,nan,nan,nan,0
1643348000,1643348000,0.7168901,0.7205886,0.7186817,0.72025746,nan,nan,nan,nan,nan,nan,nan,nan,0
1643448000,1643448000,0.49668285,0.49696425,0.49656385,0.49837607,nan,nan,nan,nan,nan,nan,nan,nan,0
1643548000,1643548000,0.48098132,0.45886075,0.47907397,0.4624837,nan,nan,nan,nan,nan,nan,nan,nan,0
1643648000,1643648000,0.4536375,0.42944008,0.45099434,0.43278664,nan,nan,nan,nan,nan,nan,nan,nan,0
1643748000,1643748000,0.4238697,0.40086445,0.42486572,0.403117,nan,nan,nan,nan,nan,nan,nan,nan,0
1643848000,1643848000,0.40090653,0.3677245,0.39960968,0.37085956,nan,nan,nan,nan,nan,nan,nan,nan,0
1643948000,1643948000,0.12940095,0.10822369,0.12694389,0.115431435,nan,nan,nan,nan,nan,nan,nan,nan,0
1644048000,1644048000,0.13033159,0.107835375,0.12993118,0.11190182,nan,nan,nan,nan,nan,nan,nan,nan,0
1644148000,1644148000,0.12705529,0.11161814,0.12785329,0.11347324,nan,nan,nan,nan,nan,nan,nan,nan,0
1644248000,1644248000,0.13047759,0.108756095,0.1304387,0.11032758,nan,nan,nan,nan,nan,nan,nan,nan,0
1644348000,1644348000,0.1279523,0.111123286,0.13169569,0.1092287,nan,nan,nan,nan,nan,nan,nan,nan,0
1644448000,1644448000,0.13066189,0.10904288,0.12943132,0.11086387,nan,nan,nan,nan,nan,nan,nan,nan,0
1644548000,1644548000,0.13095643,0.10989804,0.1276813,0.11146419,nan,nan,nan,nan,nan,nan,nan,nan,0
1644648000,1644648000,0.0020000003,0.0,0.0020000003,0.0,nan,nan,nan,nan,nan,nan,nan,nan,0
1644748000,1644748000,0.0019999994,0.0,0.0019999994,0.0,nan,nan,nan,nan,nan,nan,nan,nan,0
1644848000,1644848000,0.0019999994,0.0,0.0020000013,0.0,nan,nan,nan,nan,nan,nan,nan,nan,0
1644948000,1644948000,0.0020000006,0.0,0.0019999999,0.0,nan,nan,nan,nan,nan,nan,nan,nan,0
1645048000,1645048000,0.0020000003,0.0,0.0020000003,0.0,nan,nan,nan,nan,nan,nan,nan,nan,0
1645148000,1645148000,0.0020000003,0.0,0.0020000003,0.0,nan,nan,nan,nan,nan,nan,nan,nan,0
1645248000,1645248000,0.0020000013,0.0,0.0019999994,0.0,nan,nan,nan,nan,nan,nan,nan,nan,0
1645348000,1645348000,0.0020000003,0.0,0.0020000003,0.0,nan,nan,nan,nan,nan,nan,nan,nan,0
1645448000,1645448000,0.0020000003,0.0,0.0019999994,0.0,nan,nan,nan,nan,nan,nan,nan,nan,0
1645544000,1645544000,0.0020000003,0.0,0.0020000003,0.0,nan,nan,nan,nan,nan,nan,nan,nan,0
1645648000,1645648000,0.0020000003,0.0,0.002,0.0,nan,nan,nan,nan,nan,nan,nan,nan,0
1645748000,1645748000,0.0020000003,0.0,0.0020000003,0.0,nan,nan,nan,nan,nan,nan,nan,nan,0
1645848000,1645848000,0.0020000003,0.0,0.0020000003,0.0,nan,nan,nan,nan,nan,nan,nan,nan,0
1645948000,1645948000,0.0020000013,0.0,0.0019999994,0.0,nan,nan,nan,nan,nan,nan,nan,nan,0
1646048000,1646048000,0.0019999994,0.0,0.0019999994,0.0,nan,nan,nan,nan,nan,nan,nan,nan,0
1646148000,1646148000,0.0019999985,0.0,0.0019999994,9.313226e-10,nan,nan,nan,nan,nan,nan,nan,nan,0
1646244000,1646244000,0.0020000003,0.0,0.0020000003,0.0,nan,nan,nan,nan,nan,nan,nan,nan,0
1646348000,1646348000,0.0019999994,0.0,0.0020000013,0.0,nan,nan,nan,nan,nan,nan,nan,nan,0
1646448000,1646448000,0.0020000008,0.0,0.0019999999,0.0,nan,nan,nan,nan,nan,nan,nan,nan,0
1646548000,1646548000,0.001999999,0.0,0.0019999994,0.0,nan,nan,nan,nan,nan,nan,nan,nan,0
1646644000,1646644000,0.0019999999,0.0,0.0019999996,0.0,nan,nan,nan,nan,nan,nan,nan,nan,0
1646748000,1646748000,0.00022550681,0.0008074074,0.0024192568,0.00054782873,nan,nan,nan,nan,nan,nan,nan,nan,0
1646848000,1646848000,0.0011366579,0.0006522842,0.0015583279,0.0006527298,nan,nan,nan,nan,nan,nan,nan,nan,0
1646948000,1646948000,0.0,0.002,0.0,0.002,nan,nan,nan,nan,nan,nan,nan,nan,0
1647048000,1647048000,0.0010889901,0.0007039056,0.002084746,0.000122358,nan,nan,nan,nan,nan,nan,nan,nan,0
1647148000,1647148000,0.0019999992,0.0,0.002,0.0,nan,nan,nan,nan,nan,nan,nan,nan,0
1647248000,1647248000,0.0019999999,0.0,0.00020840362,0.0017915962,nan,nan,nan,nan,nan,nan,nan,nan,0
1647344000,1647344000,0.0019999999,0.0,0.0014159746,0.0005840252,nan,nan,nan,nan,nan,nan,nan,nan,0
1647444000,1647444000,0.0019999999,0.0,0.0012919483,0.0007080516,nan,nan,nan,nan,nan,nan,nan,nan,0
1647548000,1647548000,0.0,0.0016613516,0.00014681288,0.002191835,nan,nan,nan,nan,nan,nan,nan,nan,0
