timestamp,timestamp_sample,time_last_fuse,device_id,observation[0],observation[1],observation[2],observation_variance[0],observation_variance[1],observation_variance[2],innovation[0],innovation[1],innovation[2],innovation_filtered[0],innovation_filtered[1],innovation_filtered[2],innovation_variance[0],innovation_variance[1],innovation_variance[2],test_ratio[0],test_ratio[1],test_ratio[2],test_ratio_filtered[0],test_ratio_filtered[1],test_ratio_filtered[2],estimator_instance,innovation_rejected,fused
1592244000,1592086666,1592088000,0,-0.00021346015,-0.2143242,0.43413013,0.0025000002,0.0025000002,0.0025000002,0.0016674604,-0.0006905496,-0.0043236017,0.0009747036,0.0002553739,-0.0006037032,0.0025113393,0.0025035578,0.0025017667,0.00012301645,2.1142698e-05,0.00083037885,8.570165e-05,4.1212e-05,-0.00013832007,0,0,1
1592316000,1592154000,1592160000,0,0.0024208943,-0.21562023,0.43085432,0.0025000002,0.0025000002,0.0025000002,-0.0010379544,0.0007008463,-0.0009967685,0.0007358314,0.00030822316,-0.0006503189,0.002511362,0.0025035962,0.0025017764,4.7665555e-05,2.1787793e-05,4.410004e-05,6.987297e-05,3.8906637e-05,-0.00012713758,0,0,1
1592388000,1592225000,1592232000,0,-0.00023688578,-0.21775486,0.42691666,0.0025000002,0.0025000002,0.0025000002,0.0016555535,0.0027901828,0.0029168725,0.0008501926,0.0006168751,-0.00020658842,0.0025113889,0.0025036328,0.0025017858,0.00012126346,0.00034557685,0.000378233,7.626303e-05,7.703902e-05,-6.4298154e-05,0,0,1
1592460000,1592297500,1592304000,0,0.0017064027,-0.21670511,0.42935586,0.0025000002,0.0025000002,0.0025000002,-0.00035895035,0.0017069876,0.00046271086,0.0006970697,0.00075491687,-0.00012173181,0.0025112783,0.0025034717,0.002501745,5.700743e-06,0.00012931405,9.540869e-06,6.588334e-05,8.3659e-05,-5.4947363e-05,0,0,1
1592532000,1592370000,1592376000,0,0.00017605792,-0.21920602,0.429544,0.0025000002,0.0025000002,0.0025000002,0.000980149,0.004219681,0.00028538704,0.00073291815,0.001193707,-6.992831e-05,0.002511305,0.0025035087,0.0025017548,4.2505217e-05,0.0007903174,3.666878e-06,6.292279e-05,0.0001731485,-4.7524598e-05,0,0,1
1592604000,1592441000,1592448000,0,0.004894479,-0.21653584,0.43094364,0.0025000002,0.0025000002,0.0025000002,-0.003933645,0.0015281141,-0.0011177361,0.00015266245,0.001235195,-0.00020012211,0.0025113309,0.002503545,0.0025017643,0.00068461103,0.00010353491,5.5411732e-05,-3.0028008e-05,0.00016449252,-4.850531e-05,0,0,1
1592668000,1592508000,1592512000,0,0.001934866,-0.21381544,0.42975497,0.0025000002,0.0025000002,0.0025000002,-0.0009170361,-0.0012680143,3.3795834e-05,2.6260692e-05,0.0009393824,-0.00017255216,0.0025113444,0.002503576,0.0025017725,3.7206948e-05,7.1376366e-05,4.8935256e-08,-3.0876312e-05,0.00013662089,-4.276786e-05,0,0,1
1592740000,1592578666,1592584000,0,0.0014273418,-0.21621218,0.43062535,0.0025000002,0.0025000002,0.0025000002,-0.00038913265,0.0012620538,-0.0007716119,-2.5177775e-05,0.0009793257,-0.0002466595,0.0025113695,0.0025036149,0.002501782,6.699497e-06,7.067591e-05,2.6401383e-05,-2.788248e-05,0.00012845488,-4.0741186e-05,0,0,1
1592804000,1592646000,1592648000,0,-0.0033441402,-0.22105354,0.42941326,0.0025000002,0.0025000002,0.0025000002,0.0043392535,0.0060047507,0.0003912151,0.00049281446,0.0015758644,-0.00017063352,0.002511255,0.0025034465,0.0025017394,0.00083309924,0.0016007612,6.891441e-06,7.4303076e-05,0.00030319544,-3.5087913e-05,0,0,1
1592876000,1592717600,1592720000,0,0.000816908,-0.21430187,0.43023983,0.0025000002,0.0025000002,0.0025000002,8.213427e-05,-0.0007780045,-0.00044438243,0.00044137167,0.0012810146,-0.00020497605,0.0025112776,0.0025034824,0.002501749,2.984775e-07,2.686355e-05,8.786985e-06,6.5033084e-05,0.00026185147,-3.1793395e-05,0,0,1
1592948000,1592790000,1592792000,0,-0.0022434765,-0.21606305,0.42820787,0.0025000002,0.0025000002,0.0025000002,0.0031277407,0.0009845495,0.0015882254,0.000781157,0.0012435917,2.1885935e-05,0.0025113055,0.0025035194,0.002501759,0.00043283205,4.3073254e-05,0.00011208509,0.00011155412,0.00023417932,-1.35949285e-05,0,0,1
1593020000,1592860400,1592864000,0,0.0005353857,-0.21496356,0.4288148,0.0025000002,0.0025000002,0.0025000002,0.00032052957,-0.00014457107,0.00096684694,0.00072430534,0.0010722679,0.00013850344,0.0025113309,0.0025035553,0.0025017678,4.5455845e-06,9.269536e-07,4.150891e-05,9.83469e-05,0.000205162,-6.7938936e-06,0,0,1
1593084000,1592928000,1592928000,0,0.00056993304,-0.21700369,0.42861038,0.0025000002,0.0025000002,0.0025000002,0.00037497282,0.0019248277,0.0011819601,0.00068270054,0.001173815,0.00026288218,0.002511344,0.0025035879,0.0025017757,6.220866e-06,0.00016444191,6.2138904e-05,8.737488e-05,0.00020031232,1.4158613e-06,0,0,1
1593156000,1592998181,1593000000,0,0.0027143124,-0.21671961,0.42962664,0.0025000002,0.0025000002,0.0025000002,-0.001910449,0.0016101897,0.00015410781,0.00036352154,0.0012274773,0.00024959593,0.0025113707,0.0025036247,0.0025017853,0.00016147956,0.00011500782,1.0661761e-06,5.6744513e-05,0.00018981258,1.3728202e-06,0,0,1
1593228000,1593072000,1593072000,0,0.0009929026,-0.2187116,0.42496645,0.0025000002,0.0025000002,0.0025000002,-0.00017582253,0.0034026802,0.004713297,0.00029413757,0.0015073023,0.0008240341,0.0025112638,0.0025034575,0.0025017431,1.3677736e-06,0.0005138673,0.0009873195,4.9268652e-05,0.00023150063,0.00012821003,0,0,1
1593300000,1593142909,1593144000,0,0.00063470955,-0.21767065,0.4297545,0.0025000002,0.0025000002,0.0025000002,0.00011300575,0.0023352504,-8.696318e-05,0.00027164034,0.0016101362,0.00071101706,0.0025112855,0.0025034936,0.0025017527,5.650183e-07,0.00024203437,3.2771075e-07,4.3219483e-05,0.00023280896,0.000112245165,0,0,1
1593372000,1593212000,1593216000,0,-0.002491745,-0.21747068,0.43018377,0.0025000002,0.0025000002,0.0025000002,0.0031832373,0.0021374524,-0.00051259995,0.00062512537,0.0016742288,0.00056258123,0.002511313,0.0025035301,0.0025017622,0.00044832678,0.00020288175,1.1625537e-05,9.24019e-05,0.00022917562,9.720653e-05,0,0,1
1593444000,1593280400,1593288000,0,0.00075583166,-0.21556762,0.42864257,0.0025000002,0.0025000002,0.0025000002,1.18128955e-05,0.00025744736,0.0010392666,0.0005513207,0.0015037373,0.0006199598,0.0025113386,0.0025035674,0.0025017716,6.173976e-09,2.941697e-06,4.798107e-05,8.12832e-05,0.00020195113,9.128285e-05,0,0,1
1593508000,1593348000,1593352000,0,-0.001780602,-0.21444346,0.42873392,0.0025000002,0.0025000002,0.0025000002,0.0023579085,-0.0009468049,0.0009134412,0.0007664816,0.0012119387,0.0006548516,0.0025113523,0.002503598,0.00250178,0.00024598223,3.974502e-05,3.7015227e-05,0.00010089851,0.00017316561,8.481969e-05,0,0,1
1593580000,1593419272,1593424000,0,0.0020677987,-0.21592037,0.42890066,0.0025000002,0.0025000002,0.0025000002,-0.0015848065,0.0005251467,0.00074508786,0.00047313448,0.0011262164,0.0006661408,0.002511379,0.0025036351,0.0025017897,0.00011112141,1.2224834e-05,2.4672554e-05,7.444687e-05,0.00015308661,7.731572e-05,0,0,1
1593652000,1593492000,1593496000,0,-0.0011483689,-0.2144429,0.43008527,0.0025000002,0.0025000002,0.0025000002,0.0015470814,-0.0011895299,-0.0005558729,0.0006095099,0.0008321861,0.00051088934,0.0025112678,0.0025034668,0.002501748,0.00010589873,6.2771665e-05,1.3752186e-05,7.844079e-05,0.0001256758,6.575145e-05,0,0,1
1593724000,1593562181,1593568000,0,0.0025750361,-0.21638893,0.42835563,0.0025000002,0.0025000002,0.0025000002,-0.0022084704,0.0009837598,0.001287818,0.00026265747,0.00085078616,0.00060657837,0.002511294,0.0025035061,0.0025017573,0.00021579584,4.2912307e-05,7.371437e-05,4.2224536e-05,0.000115488816,6.673157e-05,0,0,1
1593788000,1593632000,1593632000,0,0.001964533,-0.21601284,0.43333116,0.0025000002,0.0025000002,0.0025000002,-0.0016614366,0.00066778064,-0.003655821,2.690131e-05,0.0008283214,8.435466e-05,0.002511313,0.002503539,0.002501766,0.00012213053,1.9771127e-05,0.0005934725,2.2086373e-05,0.00010376068,-1.4162179e-05,0,0,1
1593860000,1593701200,1593704000,0,0.0015667491,-0.21678896,0.42940304,0.0025000002,0.0025000002,0.0025000002,-0.0011795973,0.0015250444,0.00031235814,-0.00011977773,0.00091299874,0.000112166716,0.0025113325,0.0025035767,0.0025017748,6.156316e-05,0.00010319037,4.3544496e-06,1.1916753e-05,0.000103691345,-1.19110355e-05,0,0,1
1593924000,1593768000,1593768000,0,-0.0027647999,-0.22038117,0.4238143,0.0025000002,0.0025000002,0.0025000002,0.0032054568,0.005100578,0.005890131,0.0002721165,0.0014065946,0.00079341396,0.0025113488,0.0025036093,0.0025017825,0.0004546009,0.0011548656,0.001542117,6.408912e-05,0.00022757708,0.00017123834,0,0,1
1593996000,1593838181,1593840000,0,0.002568907,-0.21817291,0.42939323,0.0025000002,0.0025000002,0.0025000002,-0.0020905556,0.0029762536,0.00035125017,-1.8694118e-05,0.0015997487,0.0007391739,0.0025113751,0.0025036472,0.0025017923,0.00019336121,0.00039301597,5.5261853e-06,3.2400727e-05,0.00024794022,0.00015084157,0,0,1
1594068000,1593908000,1593912000,0,0.0007842906,-0.21636482,0.42810017,0.0025000002,0.0025000002,0.0025000002,-0.00043144915,0.001173079,0.0016519725,-6.926833e-05,0.0015474581,0.00085108035,0.002511264,0.0025034805,0.0025017504,8.236151e-06,6.106591e-05,0.00012127971,2.7421556e-05,0.00022504281,0.0001472194,0,0,1
1594140000,1593977600,1593984000,0,0.0037023835,-0.21718954,0.42866716,0.0025000002,0.0025000002,0.0025000002,-0.0032920698,0.002086714,0.0011268854,-0.00046306575,0.0016132746,0.00088490447,0.00251129,0.002503519,0.0025017601,0.00047951116,0.00019314085,5.6499975e-05,-3.4521072e-05,0.00022114467,0.0001361343,0,0,1
1594212000,1594050000,1594056000,0,-0.004085026,-0.22279036,0.4310937,0.0025000002,0.0025000002,0.0025000002,0.004404052,0.0075045675,-0.0013909638,0.00015255151,0.0023585348,0.00059748325,0.002511317,0.0025035534,0.002501769,0.00085814536,0.0025000218,8.549827e-05,7.838781e-05,0.0005093884,0.000108101114,0,0,1
1594284000,1594120800,1594128000,0,0.00071885454,-0.21563116,0.42931738,0.0025000002,0.0025000002,0.0025000002,-0.0004121,0.00039106607,0.00041410327,8.251415e-05,0.002114485,0.00057472766,0.002511339,0.0025035907,0.0025017792,7.513761e-06,6.78389e-06,7.6130864e-06,6.7732886e-05,0.00044704712,9.563694e-05,0,0,1
1594348000,1594188000,1594192000,0,0.0029031564,-0.21267447,0.43149573,0.0025000002,0.0025000002,0.0025000002,-0.0024919994,-0.0025127083,-0.001740843,-0.00022250581,0.0015662101,0.00030038902,0.0025113584,0.0025036263,0.002501788,0.00027475442,0.000280316,0.00013459078,2.7156111e-05,0.00036087152,6.8360314e-05,0,0,1
1594420000,1594259272,1594264000,0,0.0025160608,-0.21560821,0.42992347,0.0025000002,0.0025000002,0.0025000002,-0.001996152,0.00033654273,-0.00021389127,-0.00044378627,0.0014127481,0.00023622761,0.0025112515,0.0025034621,0.002501746,0.0001763009,5.01527e-06,2.0318466e-06,1.7727762e-06,0.00031647482,5.9578175e-05,0,0,1
1594492000,1594332000,1594336000,0,0.0014369662,-0.2138207,0.43236446,0.0025000002,0.0025000002,0.0025000002,-0.00096641295,-0.0014419556,-0.0026486516,-0.00051015214,0.0010502177,-0.00013010716,0.0025112801,0.0025035013,0.0025017564,4.1322615e-05,9.2306655e-05,0.00031157042,-3.6997021e-06,0.0002645656,1.2447785e-05,0,0,1
1594564000,1594401818,1594408000,0,0.0017565135,-0.21669614,0.4281373,0.0025000002,0.0025000002,0.0025000002,-0.0012071878,0.0013732314,0.0015468299,-0.00059555774,0.001089769,7.536508e-05,0.0025113074,0.0025035404,0.0025017655,6.447737e-05,8.366678e-05,0.00010626916,-1.1146597e-05,0.00024240065,2.3943421e-05,0,0,1
1594636000,1594476000,1594480000,0,0.0041834163,-0.22069167,0.42574313,0.0025000002,0.0025000002,0.0025000002,-0.0037029674,0.0054570436,0.003986895,-0.0009970225,0.0016539085,0.00058070285,0.0025113362,0.0025035816,0.0025017762,0.00060666987,0.001321277,0.00070591323,-8.8085806e-05,0.00038178713,0.00011205117,0,0,1
1594708000,1594546545,1594552000,0,0.0010981797,-0.21503636,0.4279285,0.0025000002,0.0025000002,0.0025000002,-0.0007041842,-0.00019343197,0.0018059909,-0.00096081453,0.0014254748,0.0007321981,0.0025113646,0.0025036219,0.0025017865,2.193917e-05,1.6632198e-06,0.00014484969,-7.990711e-05,0.00033437542,0.000116106545,0,0,1
1594780000,1594620000,1594624000,0,0.0016304746,-0.21311988,0.4331869,0.0025000002,0.0025000002,0.0025000002,-0.0011825813,-0.0022194237,-0.0035099983,-0.000989221,0.00095856644,0.00018880796,0.0025113926,0.002503661,0.0025017967,6.187353e-05,0.00021864606,0.0005471631,-7.759716e-05,0.0002635378,3.1147014e-05,0,0,1
1594852000,1594691636,1594696000,0,0.0018355865,-0.21585011,0.4298138,0.0025000002,0.0025000002,0.0025000002,-0.0014245743,0.00045718253,-0.00016185641,-0.0010437784,0.00089569297,0.00014486264,0.0025112866,0.0025034964,0.0025017548,8.979071e-05,9.263261e-06,1.1636237e-06,-7.9125224e-05,0.00023167275,2.7097925e-05,0,0,1
1594916000,1594760000,1594760000,0,-0.0051075513,-0.22793831,0.42724597,0.0025000002,0.0025000002,0.0025000002,0.0055347215,0.012402311,0.0023343563,-0.0002525028,0.0022798567,0.00040821225,0.0025113067,0.002503529,0.0025017639,0.0013553431,0.0068278234,0.00024200433,9.341561e-05,0.0010250714,5.294731e-05,0,0,1
1594988000,1594828000,1594832000,0,0.003130447,-0.21531236,0.429305,0.0025000002,0.0025000002,0.0025000002,-0.0028659794,-0.00013282895,0.00032654405,-0.0005653838,0.0019909479,0.0003984273,0.0025113367,0.0025035704,0.0025017746,0.00036341153,7.895842e-07,4.733917e-06,3.8725044e-05,0.00090225704,4.7175286e-05,0,0,1
1595052000,1594896000,1594896000,0,0.001828253,-0.21822156,0.43096337,0.0025000002,0.0025000002,0.0025000002,-0.0015538493,0.002776295,-0.0013321936,-0.0006837212,0.0020849332,0.00019123156,0.0025113565,0.0025036053,0.0025017837,0.00010682353,0.0003420042,7.882974e-05,2.1300217e-05,0.00083518453,3.2090178e-05,0,0,1
1595124000,1594966909,1594968000,0,0.0007021902,-0.21608557,0.43085957,0.0025000002,0.0025000002,0.0025000002,-0.00045865402,0.00055485964,-0.0012693107,-0.00065576704,0.001894883,9.822834e-06,0.0025113854,0.0025036447,0.0025017941,9.307103e-06,1.36594135e-05,7.1558934e-05,1.7498674e-05,0.0007331481,1.9216575e-05,0,0,1
1595196000,1595040000,1595040000,0,-0.0015840863,-0.21331422,0.43297353,0.0025000002,0.0025000002,0.0025000002,0.0015278738,-0.00224562,-0.003388971,-0.0003772694,0.0013668435,-0.00042365195,0.0025114168,0.0025036852,0.0025018055,0.00010327939,0.0002237436,0.00051007856,2.8438993e-05,0.0006111078,-4.8288777e-05,0,0,1
1595268000,1595111272,1595112000,0,0.003031344,-0.21569093,0.4313261,0.0025000002,0.0025000002,0.0025000002,-0.0028960258,2.489984e-05,-0.0017995834,-0.0006915099,0.0011993527,-0.00059531874,0.0025113088,0.002503519,0.0025017632,0.00037107544,2.6296975e-08,0.0001438387,-2.14045e-05,0.00053486915,-6.0209604e-05,0,0,1
1595340000,1595184000,1595184000,0,-0.0035529134,-0.2147299,0.43055722,0.0025000002,0.0025000002,0.0025000002,0.003827137,-0.0008651018,-0.0009971857,-0.00011770852,0.0009372888,-0.0006463492,0.0025113362,0.002503559,0.0025017725,0.0006480383,3.3159748e-05,4.4162825e-05,6.360486e-05,0.00046273787,-5.81719e-05,0,0,1
1595412000,1595255272,1595256000,0,-0.0006846623,-0.215279,0.43145004,0.0025000002,0.0025000002,0.0025000002,0.00089128036,-0.0002924055,-0.0018762946,8.173112e-06,0.0007838915,-0.0007997911,0.0025113646,0.0025036,0.0025017832,3.514604e-05,3.7905133e-06,0.00015634586,6.005433e-05,0.0004045337,-7.04201e-05,0,0,1
1595484000,1595324000,1595328000,0,0.005112195,-0.22345728,0.42501444,0.0025000002,0.0025000002,0.0025000002,-0.004952001,0.008005917,0.0046215057,-0.0005912397,0.0016565191,-0.00014467374,0.0025113935,0.0025036414,0.002501794,0.0010849361,0.0028438116,0.00094851013,-7.831218e-05,0.0006993085,5.2712647e-05,0,0,1
1595556000,1595393200,1595400000,0,0.00093488296,-0.21605329,0.42966482,0.0025000002,0.0025000002,0.0025000002,-0.00084219314,0.0004374385,-0.00011000037,-0.00062174915,0.0015082903,-0.00014045955,0.0025114221,0.0025036805,0.0025018044,3.1380594e-05,8.485611e-06,5.374891e-07,-7.260651e-05,0.0006153223,4.6238805e-05,0,0,1
1595620000,1595464000,1595464000,0,0.0019855292,-0.21112353,0.4308137,0.0025000002,0.0025000002,0.0025000002,-0.0019203443,-0.004670322,-0.0013480783,-0.00078282226,0.0007418686,-0.0002902458,0.0025113085,0.002503508,0.0025017615,0.00016316073,0.0009682222,8.0710284e-05,-8.383853e-05,0.0004189051,3.0492492e-05,0,0,1
1595692000,1595531111,1595536000,0,0.0021695357,-0.2142128,0.43002412,0.0025000002,0.0025000002,0.0025000002,-0.0020801732,-0.0016847104,-0.0006120205,-0.0009363487,0.00045466315,-0.00032831563,0.002511337,0.0025035467,0.002501772,0.0001914483,0.00012602635,1.6631824e-05,-9.65729e-05,0.0003544188,2.4915877e-05,0,0,1
1595764000,1595601333,1595608000,0,0.0007883826,-0.2159717,0.43234485,0.0025000002,0.0025000002,0.0025000002,-0.00072709937,0.00017863512,-0.0028791428,-0.0009105799,0.00042065172,-0.00064244267,0.0025113653,0.0025035879,0.0025017823,2.3390263e-05,1.4137673e-06,0.00036815077,-8.756056e-05,0.00031094675,-2.3489702e-05,0,0,1
1595828000,1595669000,1595672000,0,6.7419256e-05,-0.21729645,0.42972827,0.0025000002,0.0025000002,0.0025000002,2.6422553e-05,0.0015268028,-0.0002501607,-0.0007988874,0.000552507,-0.0005956756,0.0025113844,0.0025036233,0.002501791,3.088829e-08,0.000103455604,2.7781898e-06,-7.711949e-05,0.0002862134,-2.1020849e-05,0,0,1
1595892000,1595736000,1595736000,0,0.00310231,-0.21625462,0.4277854,0.0025000002,0.0025000002,0.0025000002,-0.00309713,0.00049336255,0.001699537,-0.001070461,0.0005454435,-0.00032445882,0.0025114054,0.0025036589,0.0025018007,0.00042438455,1.0774623e-05,0.00012828365,-0.000118154334,0.00025366596,-3.3781653e-06,0,0,1
1595964000,1595806666,1595808000,0,0.0013060985,-0.21469498,0.4279824,0.0025000002,0.0025000002,0.0025000002,-0.0012300089,-0.0012400597,0.0014123917,-0.001090218,0.0003243091,-0.000109385335,0.0025114345,0.0025036973,0.002501812,6.693483e-05,6.827384e-05,8.859376e-05,-0.00011181179,0.00021379991,8.010788e-06,0,0,1
1596036000,1595874000,1595880000,0,-0.0017946596,-0.2142969,0.42454997,0.0025000002,0.0025000002,0.0025000002,0.0018496951,-0.0016215593,0.00485304,-0.0007412946,9.340573e-05,0.00047957897,0.002511329,0.002503531,0.0025017685,0.000151375,0.00011664903,0.0010460126,-8.057548e-05,0.00017458061,0.00013120596,0,0,1
1596108000,1595944800,1595952000,0,0.0028949443,-0.21604829,0.4310909,0.0025000002,0.0025000002,0.0025000002,-0.0028414829,0.00022502244,-0.0016428232,-0.0010017945,0.00010965814,0.00021632406,0.0025113574,0.0025035716,0.0025017788,0.00035722269,2.2355202e-06,0.00011986406,-0.000114889815,0.00015320354,0.000100064135,0,0,1
1596172000,1596016000,1596016000,0,-0.00091837003,-0.21536112,0.4228081,0.0025000002,0.0025000002,0.0025000002,0.0009454349,-0.0005592704,0.00659281,-0.0007590726,2.6298461e-05,0.0010111515,0.0025113777,0.0025036065,0.0025017885,3.954656e-05,1.3872634e-05,0.0019304001,-9.563934e-05,0.00013237752,0.00032821525,0,0,1
1596244000,1596083111,1596088000,0,0.00017380943,-0.21580191,0.42771316,0.0025000002,0.0025000002,0.0025000002,-7.153954e-05,-9.3981624e-05,0.0016947687,-0.00067771104,1.2061955e-05,0.001092049,0.0025114047,0.002503647,0.002501798,2.2642955e-07,3.9218e-07,0.00012756255,-8.434833e-05,0.00011666577,0.00030447033,0,0,1
1596308000,1596150000,1596152000,0,0.00411917,-0.22238474,0.42828518,0.0025000002,0.0025000002,0.0025000002,-0.0040647723,0.0065562576,0.0011570454,-0.0010773609,0.00078413566,0.0010997036,0.002511426,0.0025036833,0.0025018076,0.00073098677,0.0019071369,5.9444596e-05,-0.00016064722,0.00032792904,0.00027555897,0,0,1
1596380000,1596221200,1596224000,0,0.0010582823,-0.21675979,0.42807108,0.0025000002,0.0025000002,0.0025000002,-0.0008269027,0.0009877086,0.0013960898,-0.0010461414,0.00080949086,0.0011366472,0.0025114538,0.0025037245,0.0025018174,3.0251096e-05,4.3279946e-05,8.656139e-05,-0.00014439336,0.00029244757,0.00025200043,0,0,1
1596444000,1596288000,1596288000,0,-0.003009228,-0.21610828,0.4312707,0.0025000002,0.0025000002,0.0025000002,0.0033619376,0.00028404593,-0.0018332899,-0.00052662886,0.00074764196,0.0007866273,0.0025113386,0.0025035515,0.0025017725,0.0005000708,3.597322e-06,0.00014926858,-6.8440284e-05,0.00025840523,0.00020470904,0,0,1
1596516000,1596358181,1596360000,0,0.002434906,-0.21794042,0.42972904,0.0025000002,0.0025000002,0.0025000002,-0.0020922888,0.0022479594,-0.00022441149,-0.00071933883,0.000932253,0.00066217524,0.002511369,0.0025035925,0.0025017832,0.00019368244,0.0002241787,2.2379215e-06,-8.3855775e-05,0.00025419245,0.00017923687,0,0,1
1596588000,1596432000,1596432000,0,-0.002182521,-0.218782,0.4298039,0.0025000002,0.0025000002,0.0025000002,0.0024144044,0.0030929744,-0.00029343367,-0.00031619813,0.0012102837,0.00053924276,0.0025113996,0.0025036328,0.0025017941,0.00025790615,0.000424698,3.8236817e-06,-3.9889783e-05,0.00027612716,0.00015568703,0,0,1
1596660000,1596502909,1596504000,0,0.00059589796,-0.21537416,0.43049788,0.0025000002,0.0025000002,0.0025000002,-0.0003559459,-0.00033156574,-0.0009955466,-0.00032113495,0.0010187745,0.00034861302,0.0025114266,0.0025036733,0.0025018044,5.605379e-06,4.880266e-06,4.4020006e-05,-3.5631532e-05,0.000241225,0.00013088268,0,0,1
1596732000,1596576000,1596576000,0,-8.0454076e-05,-0.212321,0.43310848,0.0025000002,0.0025000002,0.0025000002,0.0003277529,-0.0034427047,-0.0036352277,-0.00023837696,0.00044976838,-0.00015946961,0.0025114557,0.0025037134,0.0025018149,4.7525323e-06,0.0005259769,0.0005868785,-3.0481022e-05,0.00014337746,3.9340703e-05,0,0,1
1596804000,1596646545,1596648000,0,0.002037609,-0.21766499,0.43071458,0.0025000002,0.0025000002,0.0025000002,-0.0017037988,0.00182046,-0.0012838542,-0.00041956897,0.00061919907,-0.00029849663,0.002511348,0.002503544,0.002501771,0.00012843612,0.00014702046,7.320745e-05,-4.2592674e-05,0.0001438279,2.5424693e-05,0,0,1
1596876000,1596720000,1596720000,0,0.0002611237,-0.21626864,0.42676437,0.0025000002,0.0025000002,0.0025000002,0.000110684894,0.0005479008,0.0027289987,-0.00035164767,0.0006100641,8.93035e-05,0.002511377,0.0025035848,0.0025017813,5.420287e-07,1.3322054e-05,0.00033076556,-3.7067464e-05,0.00012711114,6.453642e-05,0,0,1
1596948000,1596791636,1596792000,0,0.002543607,-0.21601203,0.42749402,0.0025000002,0.0025000002,0.0025000002,-0.0023237467,0.00037392974,0.0020439327,-0.00059878617,0.0005804109,0.0003342498,0.0025114038,0.0025036272,0.0025017916,0.0002389013,6.1891096e-06,0.00018553663,-6.236078e-05,0.000111957495,7.9699865e-05,0,0,1
1597020000,1596864000,1596864000,0,0.002951725,-0.21059032,0.43268153,0.0025000002,0.0025000002,0.0025000002,-0.0027384385,-0.00502035,-0.0031304657,-0.00086930254,-0.00012776337,-0.00010379494,0.0025114326,0.0025036675,0.0025018025,0.0003317737,0.0011187792,0.00043523492,-9.6422664e-05,-4.3644606e-05,1.4596633e-05,0,0,1
1597092000,1596934181,1596936000,0,0.0020054386,-0.21578467,0.42682236,0.0025000002,0.0025000002,0.0025000002,-0.0013743769,0.00021117926,0.0027363896,-0.00093146984,-8.607998e-05,0.0002457897,0.0025114573,0.0025037092,0.0025018114,8.356865e-05,1.9737324e-06,0.00033254983,-9.484052e-05,-3.802965e-05,5.373205e-05,0,0,1
1597164000,1597008000,1597008000,0,0.0056557055,-0.21442124,0.43412468,0.0025000002,0.0025000002,0.0025000002,-0.0030509327,-0.0013301075,-0.004717231,-0.0012041284,-0.0002461995,-0.00039267493,0.0025114885,0.0025037483,0.0025018249,0.0004118049,7.8587516e-05,0.0009882565,-0.00013561643,-4.3247222e-05,-8.031468e-05,0,0,1
1597236000,1597078181,1597080000,0,0.008555028,-0.21734169,0.42754704,0.0025000002,0.0025000002,0.0025000002,-0.0016906727,-0.00049574673,0.0006414354,-0.0012640149,-0.00027695275,-0.00026538456,0.0025115015,0.0025035762,0.0025018596,0.00012645707,1.0920729e-05,1.8275578e-05,-0.00013448905,-3.92683e-05,-6.817965e-05,0,0,1
1597308000,1597148000,1597152000,0,0.011391694,-0.22290368,0.42079803,0.0025000002,0.0025000002,0.0025000002,0.001982024,0.0008467436,0.0048750937,-0.00086628296,-0.00013925259,0.0003644462,0.0025120163,0.0025037338,0.002502245,0.00017376122,3.1827494e-05,0.0010552588,-9.671964e-05,-3.0557047e-05,6.947346e-05,0,0,1
1597380000,1597217600,1597224000,0,0.0191683,-0.22801761,0.41959602,0.0025000002,0.0025000002,0.0025000002,0.00032317732,0.0013174862,0.0031997561,-0.0007209416,3.874392e-05,0.0007108876,0.002512835,0.0025040882,0.0025029567,4.6182267e-06,7.701567e-05,0.0004544855,-8.4337065e-05,-1.7412625e-05,0.00011651848,0,0,1
1597452000,1597290000,1597296000,0,0.025395803,-0.22984576,0.4242633,0.0025000002,0.0025000002,0.0025000002,-0.0028285012,0.0006777197,-0.0030492544,-0.0009875163,0.000119668744,0.00023534964,0.0025133798,0.0025043737,0.0025034605,0.00035368133,2.0427326e-05,0.0004125352,-0.00011840506,-1.262644e-05,4.960114e-05,0,0,1
1597524000,1597361200,1597368000,0,0.020924691,-0.23100042,0.42151722,0.0025000002,0.0025000002,0.0025000002,0.0017349105,0.0013158619,-0.0005891621,-0.00064816617,0.0002687033,0.00013252956,0.0025134098,0.00250447,0.0025035387,0.00013306025,7.67516e-05,1.5424197e-05,-8.705995e-05,-1.4854804e-06,4.1495743e-05,0,0,1
1597588000,1597430000,1597432000,0,0.023915354,-0.23311007,0.41982466,0.0025000002,0.0025000002,0.0025000002,-0.0031587044,0.0044146776,0.0017956495,-0.00095183187,0.0007702686,0.00033376145,0.0025130762,0.0025043923,0.0025032808,0.00044113325,0.0008649446,0.00014320508,-0.00012988738,0.000103314786,5.379814e-05,0,0,1
1597660000,1597498222,1597504000,0,0.017930128,-0.22792241,0.42522267,0.0025000002,0.0025000002,0.0025000002,-0.0005671941,0.0013397485,-0.0022103786,-0.00090565137,0.0008386422,2.8311071e-05,0.002512444,0.0025040146,0.0025027695,1.4227365e-05,7.9647114e-05,0.0002168974,-0.000116000985,0.00010047319,2.129783e-05,0,0,1
1597732000,1597569333,1597576000,0,0.014389662,-0.22634767,0.4244574,0.0025000002,0.0025000002,0.0025000002,-0.0013415571,0.0024764985,0.0002784431,-0.0009599275,0.001042569,5.9467293e-05,0.0025119614,0.0025038503,0.0025023308,7.9609126e-05,0.000272146,3.4448612e-06,-0.00011146971,0.00012184876,1.9074896e-05,0,0,1
1597796000,1597637000,1597640000,0,0.011547147,-0.22219437,0.42485422,0.0025000002,0.0025000002,0.0025000002,-0.0021855943,0.00069856644,0.0013291538,-0.0011060294,0.0010015259,0.00021082626,0.0025116918,0.002503763,0.0025020654,0.00021131497,2.1636646e-05,7.846275e-05,-0.00012337146,0.00010990328,2.6154043e-05,0,0,1
1597860000,1597704000,1597704000,0,0.008088101,-0.21957842,0.42871648,0.0025000002,0.0025000002,0.0025000002,-0.0019945512,0.00046516955,-0.0011502206,-0.0012110223,0.00093810563,5.0005285e-05,0.0025115525,0.0025037273,0.0025019033,0.00017599712,9.58827e-06,5.8748512e-05,-0.00012959001,9.804948e-05,1.6121467e-05,0,0,1
1597932000,1597774666,1597776000,0,0.0036046389,-0.21601164,0.42956704,0.0025000002,0.0025000002,0.0025000002,-0.00063625164,-0.0006311387,-0.0006197691,-0.001139848,0.0007437689,-3.2930664e-05,0.0025115195,0.0025037483,0.0025018312,1.7909306e-05,1.7684597e-05,1.705802e-05,-0.00011576051,8.371804e-05,1.2012826e-05,0,0,1
1598004000,1597842000,1597848000,0,-0.0020656795,-0.21580371,0.42536825,0.0025000002,0.0025000002,0.0025000002,0.002454184,0.0011941642,0.0046839416,-0.0007132906,0.0007972768,0.000526889,0.002511426,0.002503589,0.0025017823,0.00026647182,6.333533e-05,0.0009743788,-7.039529e-05,8.1298924e-05,0.00012623117,0,0,1
1598076000,1597912400,1597920000,0,-0.0011389342,-0.21347885,0.43004665,0.0025000002,0.0025000002,0.0025000002,-0.0004891325,0.000521034,0.0008777976,-0.0006856245,0.0007631711,0.0005702008,0.0025115022,0.0025036742,0.0025018328,1.058466e-05,1.2043728e-05,3.422183e-05,-6.301333e-05,7.2751296e-05,0.000114875176,0,0,1
1598140000,1597980000,1597984000,0,-0.003885973,-0.20926873,0.42531046,0.0025000002,0.0025000002,0.0025000002,0.0009624744,-0.0024911016,0.0062337816,-0.0004893393,0.0003756129,0.0012447198,0.002511573,0.002503758,0.002501892,4.0981708e-05,0.0002753547,0.0017257979,-5.0627736e-05,3.129259e-05,0.00030673278,0,0,1
1598212000,1598050909,1598056000,0,-0.0048350804,-0.21075277,0.43292633,0.0025000002,0.0025000002,0.0025000002,0.00076020416,-0.0001077652,-0.0009229481,-0.0003341414,0.00031558864,0.0009754851,0.0025116573,0.0025038423,0.0025019555,2.5565694e-05,5.143491e-07,3.7831265e-05,-4.1164232e-05,2.7342052e-05,0.00026393664,0,0,1
1598284000,1598124000,1598128000,0,-0.0040881117,-0.20721333,0.43493953,0.0025000002,0.0025000002,0.0025000002,-0.00062086433,-0.0029433966,-0.0025812387,-0.00037070952,-0.00010006802,0.000521871,0.002511721,0.0025039224,0.0025020086,1.7052165e-05,0.0003844685,0.0002958791,-3.8089023e-05,-2.5179528e-05,0.00019253875,0,0,1
1598356000,1598195272,1598200000,0,-0.005851306,-0.20987414,0.43142524,0.0025000002,0.0025000002,0.0025000002,0.0002906695,0.00031134486,0.0012355447,-0.00028819573,-4.8738348e-05,0.00061090104,0.0025118014,0.0025040007,0.0025020672,3.7374134e-06,4.301749e-06,6.778449e-05,-3.287075e-05,-2.1501439e-05,0.00017697438,0,0,1
1598428000,1598268000,1598272000,0,-0.006605708,-0.20954989,0.43253088,0.0025000002,0.0025000002,0.0025000002,0.0009402782,0.00033944845,0.00030130148,-0.00013219769,5.634647e-07,0.00057159556,0.002511702,0.0025038363,0.0025020456,3.9111284e-05,5.115132e-06,4.0334016e-06,-2.3730094e-05,-1.8121527e-05,0.00015501343,0,0,1
1598500000,1598338909,1598344000,0,-0.0059450595,-0.20915984,0.4321183,0.0025000002,0.0025000002,0.0025000002,-0.00010103453,-0.00010189414,0.00069370866,-0.00012832711,-1.2165299e-05,0.00058675435,0.0025117493,0.0025038733,0.0025020624,4.515656e-07,4.609564e-07,2.1366432e-05,-2.0838816e-05,-1.5928019e-05,0.00013841398,0,0,1
1598564000,1598408000,1598408000,0,-0.0023907863,-0.21451503,0.4321008,0.0025000002,0.0025000002,0.0025000002,-0.0040532174,0.0050512254,0.0006171763,-0.0006048319,0.0006025056,0.00059041154,0.00251179,0.0025038961,0.0025020714,0.0007267314,0.0011320286,1.689881e-05,-0.000106538326,0.00012344068,0.00012366132,0,0,1
1598636000,1598476800,1598480000,0,-0.006251208,-0.20914698,0.42995572,0.0025000002,0.0025000002,0.0025000002,-0.00033091102,-0.00037053227,0.002738744,-0.0005716994,0.00048480782,0.00085026305,0.0025118212,0.0025039332,0.0025020815,4.843856e-06,6.0930856e-06,0.00033308184,-9.423773e-05,0.00010777274,0.00014899207,0,0,1
1598700000,1598544000,1598544000,0,-0.0031320099,-0.21053132,0.4336924,0.0025000002,0.0025000002,0.0025000002,-0.0037299814,0.00080390275,-0.0010988116,-0.0009458823,0.00052256265,0.0006193116,0.002511857,0.0025039562,0.0025020884,0.0006154261,2.8646868e-05,5.3642765e-05,-0.00015598643,9.8398166e-05,0.00012498455,0,0,1
1598772000,1598614545,1598616000,0,-0.004841675,-0.20908579,0.43215528,0.0025000002,0.0025000002,0.0025000002,-0.002066248,-0.0005815625,0.00046905875,-0.0010844099,0.00038601397,0.0006007126,0.002511898,0.0025040004,0.002502107,0.0001888515,1.5019948e-05,9.7632e-06,-0.00016005003,8.437459e-05,0.000110738016,0,0,1
1598844000,1598688000,1598688000,0,-0.007912416,-0.21301556,0.43876925,0.0025000002,0.0025000002,0.0025000002,0.0008353861,0.0031301975,-0.0062499642,-0.0008384994,0.00073752867,-0.00027679402,0.002511787,0.0025038016,0.0025020535,3.087089e-05,0.00043482604,0.0017346216,-0.00013559459,0.00012926462,-0.0001256378,0,0,1
1598916000,1598759272,1598760000,0,-0.0067654997,-0.21120398,0.43136653,0.0025000002,0.0025000002,0.0025000002,3.217254e-05,0.0011363775,0.0010648072,-0.00072987424,0.000787289,-0.000109416316,0.0025117889,0.002503831,0.0025020444,4.57873e-08,5.7305588e-05,5.0350045e-05,-0.00011867207,0.000120287,-0.00010368152,0,0,1
1598988000,1598832000,1598832000,0,-0.015786977,-0.20931742,0.43116656,0.0025000002,0.0025000002,0.0025000002,0.009329996,-0.0012734979,0.00100559,0.0005475809,0.00052575546,3.2253374e-05,0.002511792,0.0025038423,0.002502023,0.0038506743,7.1830465e-05,4.496292e-05,0.0003853763,9.5890915e-05,-8.480587e-05,0,0,1
1599060000,1598901818,1598904000,0,-0.0070162024,-0.2104926,0.43246955,0.0025000002,0.0025000002,0.0025000002,0.0007856665,-0.00032652915,-0.0004130304,0.00057675276,0.0004213383,-2.2301501e-05,0.0025117912,0.0025038724,0.0025020135,2.730552e-05,4.7288945e-06,7.57456e-06,0.00034150304,8.356229e-05,-7.534296e-05,0,0,1
1599132000,1598976000,1598976000,0,-0.0010846199,-0.21785751,0.4354768,0.0025000002,0.0025000002,0.0025000002,-0.0048987726,0.006764397,-0.0035575926,-0.00013066304,0.0012407433,-0.00047909093,0.0025117968,0.0025038999,0.002502005,0.0010615673,0.0020300492,0.0005621665,0.000160232,0.00033504056,-0.0001382386,0,0,1
1599204000,1599046909,1599048000,0,-0.003755517,-0.21251896,0.43092182,0.0025000002,0.0025000002,0.0025000002,-0.0018296624,0.001308471,0.00093862414,-0.00034168502,0.0012491235,-0.0003030218,0.0025116543,0.0025037108,0.0025019418,0.00014809471,7.5950615e-05,3.9114893e-05,0.00012193668,0.00030286063,-0.00011621064,0,0,1
1599276000,1599120000,1599120000,0,0.0009077289,-0.2146848,0.42771944,0.0025000002,0.0025000002,0.0025000002,-0.0065836934,0.0032179505,0.0040159225,-0.0011377796,0.0015000982,0.0002477563,0.0025116806,0.00250374,0.0025019434,0.0019174863,0.00045926182,0.0007160808,-0.00013816766,0.00032280775,-1.0061689e-05,0,0,1
1599348000,1599191636,1599192000,0,-0.004610829,-0.21098089,0.4307506,0.0025000002,0.0025000002,0.0025000002,-0.00090237055,-0.00053566694,0.0009569824,-0.0011082786,0.001244961,0.00033663667,0.002511696,0.002503778,0.0025019476,3.6021374e-05,1.27412095e-05,4.0672527e-05,-0.00012536693,0.0002807576,-3.703804e-06,0,0,1
1599420000,1599264000,1599264000,0,-0.005121812,-0.20704855,0.4330949,0.0025000002,0.0025000002,0.0025000002,3.118906e-05,-0.0048083216,-0.0015614629,-0.00096421567,0.00047964504,9.6662916e-05,0.0025116974,0.002503804,0.0025019364,4.3032323e-08,0.0010259901,0.00010827571,-0.00010951134,0.00011554542,-1.6924834e-05,0,0,1
1599492000,1599334545,1599336000,0,-0.0030006466,-0.2133479,0.43019998,0.0025000002,0.0025000002,0.0025000002,-0.0016888753,0.0012525916,0.001209408,-0.0010538162,0.0005751766,0.00023423712,0.0025117048,0.0025038342,0.002501931,0.00012617811,6.959053e-05,6.494763e-05,-0.0001115721,0.00010986334,-6.801718e-06,0,0,1
1599564000,1599408000,1599408000,0,-0.0044528516,-0.2175531,0.42620143,0.0025000002,0.0025000002,0.0025000002,-1.7221086e-05,0.005029008,0.004992157,-0.00092103664,0.00114568,0.0008436877,0.002511722,0.0025038589,0.0025019264,1.3119189e-08,0.0011223196,0.0011067718,-9.728229e-05,0.0002395509,0.00013583814,0,0,1
1599636000,1599479272,1599480000,0,-0.0014957953,-0.21500973,0.42986658,0.0025000002,0.0025000002,0.0025000002,-0.0025451472,0.0019527674,0.0010531843,-0.001123661,0.0012463152,0.00086981023,0.0025115805,0.002503661,0.002501857,0.00028657363,0.00016915283,4.9250346e-05,-0.00012089831,0.00023076801,0.00012503544,0,0,1
1599708000,1599552000,1599552000,0,-0.001743327,-0.21564387,0.43140548,0.0025000002,0.0025000002,0.0025000002,-0.0018625939,0.002091349,-0.0007396336,-0.0012174945,0.0013536221,0.00066543464,0.0025115889,0.0025036857,0.0025018505,0.00015347771,0.00019410232,2.4295698e-05,-0.00012503541,0.00022611201,0.00010607259,0,0,0
1599780000,1599623272,1599624000,0,-0.0033122038,-0.21316755,0.4309625,0.0025000002,0.0025000002,0.0025000002,0.000986194,3.20971e-05,-0.0047936738,-0.0009425619,0.0011892819,-1.5101861e-05,0.009191951,0.005700163,0.0057958905,1.1756404e-05,2.578871e-08,0.00043971575,-0.00010796924,0.00019790545,3.797994e-05,0,0,1
1599852000,1599696000,1599696000,0,-0.0018870188,-0.21308894,0.42652637,0.0025000002,0.0025000002,0.0025000002,-0.00028439783,-0.0005301088,0.002141118,-0.0008589848,0.00097090966,0.0002586936,0.0043202396,0.003903551,0.0039216247,2.080186e-06,8.007164e-06,0.0001298769,-9.452289e-05,0.0001717576,4.9649498e-05,0,0,1
1599924000,1599766545,1599768000,0,-0.0007722415,-0.21499197,0.4275111,0.0025000002,0.0025000002,0.0025000002,-0.0008238915,0.0013030469,0.00025132298,-0.0008546457,0.0010119298,0.00025774344,0.0035530983,0.0033989232,0.0034062744,2.1227082e-05,5.5473163e-05,2.055213e-06,-8.546023e-05,0.00015737962,4.3764707e-05,0,0,1
1599996000,1599840000,1599840000,0,0.0007715511,-0.21176954,0.427734,0.0025000002,0.0025000002,0.0025000002,-0.0014286322,-0.0023170859,-6.41346e-05,-0.00092816877,0.0005854452,0.00021654024,0.0032413362,0.0031612145,0.003165161,6.996394e-05,0.00018878872,1.4345211e-07,-8.347528e-05,0.000113038215,3.8140424e-05,0,0,1
1600068000,1599911636,1599912000,0,0.00018327552,-0.21608952,0.4304824,0.0025000002,0.0025000002,0.0025000002,0.00029888406,0.0022896081,-0.002897501,-0.0007743976,0.0007990125,-0.00017372344,0.0030714264,0.003022935,0.0030254,3.231639e-06,0.00019269419,0.000308368,-7.2609386e-05,0.00012302051,-5.2831456e-06,0,0,1
1600140000,1599984000,1599984000,0,-0.0001886781,-0.21762761,0.42420396,0.0025000002,0.0025000002,0.0025000002,0.0014528098,0.0031327307,0.0037326217,-0.00049281167,0.0010940768,0.00032009423,0.0029653967,0.0029325006,0.0029341911,7.9084646e-05,0.000371871,0.0005274527,-5.3430704e-05,0.0001544827,6.207067e-05,0,0,1
1600212000,1600056000,1600056000,0,0.0014693392,-0.21406063,0.42998824,0.0025000002,0.0025000002,0.0025000002,-0.000114105,-0.0011013001,-0.0027083755,-0.0004451423,0.0008177388,-6.110684e-05,0.002892624,0.0028687401,0.0028699609,5.0012073e-07,4.697401e-05,0.0002839794,-4.6768113e-05,0.00012912451,1.8511924e-05,0,0,1
1600284000,1600128000,1600128000,0,-0.005929524,-0.21517977,0.4265419,0.0025000002,0.0025000002,0.0025000002,0.007839984,0.00018244982,0.001098156,0.00059774076,0.00073771365,8.457359e-05,0.0028393094,0.0028213705,0.0028222941,0.0024053326,1.3042476e-06,4.7311758e-05,0.0002618879,0.00011303525,2.2137077e-05,0,0,1
1600356000,1600198545,1600200000,0,0.0029397972,-0.21547416,0.42876086,0.0025000002,0.0025000002,0.0025000002,-0.0017789311,0.00038731098,-0.0012819171,0.0003038773,0.00069439714,-8.4337385e-05,0.0027988094,0.0027847975,0.0027855004,0.00012563262,5.987522e-06,6.5509965e-05,0.00021397296,9.9799334e-05,1.1299964e-05,0,0,1
1600428000,1600272000,1600272000,0,0.0076593296,-0.21703991,0.42096218,0.0025000002,0.0025000002,0.0025000002,-0.0058995,0.0016075373,0.006491095,-0.00049072574,0.0008113601,0.0007580781,0.0027669382,0.0027556971,0.0027562636,0.001397618,0.00010419228,0.001699162,7.54105e-06,0.000100362035,0.0002275016,0,0,1
1600500000,1600342909,1600344000,0,0.0040662554,-0.21762212,0.43084657,0.0025000002,0.0025000002,0.0025000002,-0.001550854,0.0017746538,-0.0041327775,-0.0006223976,0.0009309948,0.00015064783,0.0027412612,0.0027319978,0.0027324527,9.748749e-05,0.00012807533,0.00069444027,-5.5038818e-06,0.00010380413,0.000112993024,0,0,1
1600572000,1600416000,1600416000,0,0.0023705494,-0.22010678,0.42980862,0.0025000002,0.0025000002,0.0025000002,0.00056131283,0.0039018393,-0.0028499067,-0.00047142926,0.0013098913,-0.00023204595,0.002720106,0.0027123252,0.0027127005,1.2870091e-05,0.00062367035,0.000332688,-3.1604984e-06,0.00017010694,5.6151664e-05,0,0,1
1600644000,1600487272,1600488000,0,0.0023739997,-0.21719894,0.42656714,0.0025000002,0.0025000002,0.0025000002,0.00071975077,0.00048787892,0.0005117953,-0.00032281742,0.0012073363,-0.00013925871,0.0027024103,0.0026957325,0.002696043,2.1299553e-05,9.810622e-06,1.0790099e-05,-1.088581e-07,0.00015010835,5.049235e-05,0,0,1
1600716000,1600560000,1600560000,0,0.008228303,-0.2146251,0.42650262,0.0025000002,0.0025000002,0.0025000002,-0.004928922,-0.0023470223,0.00042164326,-0.00090772467,0.00075597287,-6.79363e-05,0.0026872964,0.0026815496,0.002681808,0.0010044904,0.0002282665,7.39228e-06,-0.00012765049,0.00010206033,4.5019275e-05,0,0,1
1600788000,1600630909,1600632000,0,0.0028697923,-0.21936631,0.4285221,0.0025000002,0.0025000002,0.0025000002,0.0005596048,0.0022074431,-0.0018004477,-0.00072547694,0.0009362502,-0.00028312788,0.0026742367,0.0026692895,0.002669484,1.3011295e-05,0.00020283311,0.00013493339,-0.00011017978,0.00011457668,2.2668492e-05,0,0,1
1600860000,1600704000,1600704000,0,0.00023585648,-0.22058794,0.42111158,0.0025000002,0.0025000002,0.0025000002,0.0025401798,0.0032199174,0.0056939423,-0.00030898093,0.0012275008,0.0004791515,0.0026629358,0.002658579,0.0026587164,0.0002692314,0.00043329984,0.0013548186,-6.1790364e-05,0.00015522607,0.00019256852,0,0,1
1600932000,1600774181,1600776000,0,0.0039397366,-0.21525544,0.42806184,0.0025000002,0.0025000002,0.0025000002,-0.0014204229,-0.0023374408,-0.001612246,-0.0004457833,0.00078870734,0.00022173289,0.0026530398,0.0026491473,0.002649246,8.449851e-05,0.0002291583,0.00010901567,-6.458541e-05,0.00010791393,0.0001554479,0,0,1
1601004000,1600848000,1600848000,0,0.0031340234,-0.2116882,0.42025176,0.0025000002,0.0025000002,0.0025000002,-0.0005035825,-0.0059721023,0.006186992,-0.0004532189,-8.104084e-05,0.0009891246,0.0026442225,0.00264078,0.0026408501,1.065616e-05,0.0015006638,0.0016105066,-5.7647674e-05,-9.902171e-05,0.00034263404,0,0,1
1601076000,1600918909,1600920000,0,0.0006824277,-0.21893124,0.4286375,0.0025000002,0.0025000002,0.0025000002,0.0021429746,0.0013509542,-0.0026513636,-0.00013076211,9.6814925e-05,0.000536946,0.00263634,0.0026333048,0.0026333523,0.00019354865,7.70053e-05,0.00029664082,-2.6448164e-05,-7.7158504e-05,0.00026323376,0,0,1
1601148000,1600992000,1600992000,0,0.0032083753,-0.21411201,0.4249313,0.0025000002,0.0025000002,0.0025000002,-0.0005938271,-0.003617078,0.0011487305,-0.0001898206,-0.00037684903,0.0006149636,0.0026293322,0.0026265855,0.0026266046,1.49015705e-05,0.00055345584,5.5814835e-05,-2.4975532e-05,-0.00013790462,0.00023677992,0,0,1
1601220000,1601063636,1601064000,0,0.0036709323,-0.21943869,0.42742926,0.0025000002,0.0025000002,0.0025000002,-0.00089324685,0.0015964359,-0.0015526712,-0.0002779722,-0.00012956129,0.00034334164,0.0026229755,0.0026205142,0.002620516,3.3799188e-05,0.00010806289,0.00010219687,-2.608129e-05,-0.00010708059,0.0001943002,0,0,1
1601292000,1601132000,1601136000,0,0.0021197058,-0.21643144,0.4240321,0.0025000002,0.0025000002,0.0025000002,0.0005901041,-0.0015581548,0.0018788874,-0.00017355819,-0.00030139752,0.0005280323,0.0026172535,0.0026150006,0.0026149806,1.4783218e-05,0.00010316118,0.00014998922,-2.1166023e-05,-0.00010660916,0.00018897039,0,0,1
1601364000,1601200800,1601208000,0,0.0018357768,-0.21965492,0.42845875,0.0025000002,0.0025000002,0.0025000002,0.00093755865,0.0016375929,-0.002680242,-3.916149e-05,-6.68686e-05,0.00013996847,0.002612027,0.0026099717,0.002609935,3.739183e-05,0.000114160095,0.00030583172,-1.4083075e-05,-7.99057e-05,0.00012912089,0,0,1
1601428000,1601268000,1601272000,0,0.0060080593,-0.21870458,0.42496628,0.0025000002,0.0025000002,0.0025000002,-0.0030672075,0.00079251826,0.0010127425,-0.0003979145,3.4952813e-05,0.00024338918,0.002607263,0.0026053614,0.0026053141,0.00040092116,2.6788333e-05,4.3754295e-05,-5.9914382e-05,-6.726494e-05,0.00011900694,0,0,1
1601500000,1601338909,1601344000,0,0.0058812737,-0.21924642,0.42572117,0.0025000002,0.0025000002,0.0025000002,-0.002662433,0.0014011264,0.00026610494,-0.00067917607,0.00020464075,0.00024624012,0.002602892,0.0026011276,0.0026010708,0.0003025929,8.386313e-05,3.0303163e-06,-9.0055946e-05,-4.849428e-05,0.000104602215,0,0,1
1601564000,1601408000,1601408000,0,0.0015675427,-0.22253412,0.4317873,0.0025000002,0.0025000002,0.0025000002,0.0017670892,0.0046370924,-0.005809188,-0.00038218504,0.00074276386,-0.0004889063,0.0025988643,0.0025972207,0.0025971527,0.00013350294,0.00091989076,0.0014436714,-6.291458e-05,6.907336e-05,-8.336732e-05,0,0,1
1601636000,1601477600,1601480000,0,0.0035148882,-0.21942186,0.42633876,0.0025000002,0.0025000002,0.0025000002,-0.00017099797,0.0016175956,-7.5399876e-06,-0.00035637987,0.0008496583,-0.00043008153,0.002595163,0.0025936128,0.0025935308,1.2519148e-06,0.000112094065,2.4034492e-09,-5.5379955e-05,7.43301e-05,-7.3180876e-05,0,0,1
1601708000,1601546000,1601552000,0,0.006297619,-0.21709274,0.42681304,0.0025000002,0.0025000002,0.0025000002,-0.0028824557,-0.00070394576,-0.00044846535,-0.00066036225,0.0006627117,-0.0004322783,0.0025917164,0.0025902616,0.0025901678,0.00035620114,2.1251173e-05,8.6225855e-06,-9.158011e-05,6.282806e-05,-6.5412074e-05,0,0,1
1601772000,1601616000,1601616000,0,0.0037134162,-0.21700509,0.42736503,0.0025000002,0.0025000002,0.0025000002,9.115858e-06,-0.0008735359,-0.0010408759,-0.0005781456,0.00047405311,-0.00050703326,0.0025884998,0.0025871396,0.0025870418,3.5670111e-09,3.276962e-05,4.654289e-05,-8.033299e-05,5.1087995e-05,-6.3094805e-05,0,0,1
1601844000,1601685333,1601688000,0,0.0046820454,-0.21964303,0.42627692,0.0025000002,0.0025000002,0.0025000002,-0.0007233899,0.0017785132,7.209182e-05,-0.00059583335,0.00063291023,-0.00043649087,0.0025855063,0.0025842304,0.0025841244,2.2488308e-05,0.00013600152,2.243302e-07,-7.32887e-05,6.1428706e-05,-5.538384e-05,0,0,1
1601916000,1601753500,1601760000,0,0.0056577907,-0.21808943,0.4287066,0.0025000002,0.0025000002,0.0025000002,-0.0016078247,9.3489885e-05,-0.0023981929,-0.0007172491,0.0005681933,-0.0006718341,0.0025827198,0.0025815137,0.0025813943,0.00011121352,3.7627166e-07,0.00024752718,-7.7838806e-05,5.4103813e-05,-7.8436635e-05,0,0,1
1601988000,1601825000,1601832000,0,0.006468908,-0.21975517,0.4287006,0.0025000002,0.0025000002,0.0025000002,-0.0025654372,0.001985997,-0.0021977127,-0.00094847474,0.00074557343,-0.0008627034,0.0025801028,0.002578967,0.0025788255,0.00028342835,0.00016992899,0.00020805349,-0.000103559985,6.859463e-05,-9.465292e-05,0,0,1
1602052000,1601892000,1601896000,0,0.0039135874,-0.21793571,0.4265376,0.0025000002,0.0025000002,0.0025000002,-0.00021209849,0.00020056963,8.356571e-05,-0.0008614603,0.0006811707,-0.0007508886,0.0025776492,0.0025765721,0.0025764164,1.9391384e-06,1.7345026e-06,3.010512e-07,-9.1551876e-05,6.069405e-05,-8.3432606e-05,0,0,1
1602124000,1601964000,1601968000,0,0.005057802,-0.21919338,0.42747125,0.0025000002,0.0025000002,0.0025000002,-0.001584877,0.0012990981,-0.0009290874,-0.0009525197,0.0007589527,-0.00077330216,0.0025753453,0.0025743262,0.0025741549,0.000108371016,7.284213e-05,3.7248545e-05,-9.366897e-05,6.2223175e-05,-7.7619225e-05,0,0,1
1602196000,1602036000,1602040000,0,0.0031377664,-0.21854834,0.42769372,0.0025000002,0.0025000002,0.0025000002,-2.3062428e-05,0.0008225441,-0.0010167062,-0.0008355251,0.0007669562,-0.00080393936,0.0025731788,0.0025722082,0.00257202,2.2966645e-08,2.922544e-05,4.4654644e-05,-8.1881364e-05,5.8069614e-05,-7.346984e-05,0,0,1
1602268000,1602106400,1602112000,0,0.004699183,-0.21727419,0.42648354,0.0025000002,0.0025000002,0.0025000002,-0.0015138928,-0.00034338236,0.00028848648,-0.0009192507,0.0006299164,-0.0006691187,0.002571137,0.00257021,0.002570012,9.904271e-05,5.097218e-06,3.5962944e-06,-8.399945e-05,5.0273426e-05,-6.395817e-05,0,0,1
1602332000,1602173333,1602176000,0,0.0056760134,-0.22011106,0.42922503,0.0025000002,0.0025000002,0.0025000002,-0.002834067,0.0027682334,-0.002323389,-0.001145317,0.0008823691,-0.00086439896,0.0025691995,0.0025683178,0.0025681073,0.0003473601,0.00033152263,0.00023351103,-0.000115092225,8.347815e-05,-8.397585e-05,0,0,1
1602396000,1602240000,1602240000,0,0.0021194909,-0.21714154,0.428442,0.0025000002,0.0025000002,0.0025000002,0.0007110876,-9.417534e-05,-0.001386255,-0.0009269155,0.000767484,-0.00092579407,0.0025673753,0.0025665269,0.0025663076,2.1883377e-05,3.837541e-07,8.320226e-05,-9.8977376e-05,7.3612006e-05,-8.388484e-05,0,0,1
1602468000,1602312000,1602312000,0,0.0027995766,-0.21872103,0.43021816,0.0025000002,0.0025000002,0.0025000002,-0.00015015481,0.0017760694,-0.0029791296,-0.0008291414,0.000894438,-0.0011842375,0.0025656396,0.0025648293,0.0025646007,9.764283e-07,0.00013665191,0.0003844804,-8.6641594e-05,8.15471e-05,-0.00012172204,0,0,1
1602540000,1602382400,1602384000,0,0.0002103643,-0.21733676,0.42942482,0.0025000002,0.0025000002,0.0025000002,0.0022031486,0.00040601194,-0.0020796657,-0.00045488964,0.0008341475,-0.0012947436,0.0025640014,0.0025632202,0.002562981,0.00021034239,7.1435147e-06,0.00018748506,-4.998719e-05,7.236405e-05,-0.00012983865,0,0,1
1602612000,1602454857,1602456000,0,0.0026524023,-0.21640803,0.42842498,0.0025000002,0.0025000002,0.0025000002,-0.00049830496,-0.0006750673,-0.0011000931,-0.0004603848,0.00064312445,-0.0012701111,0.002562442,0.0025616908,0.0025614423,1.0766978e-05,1.9765735e-05,5.2500272e-05,-4.502301e-05,6.0703e-05,-0.00012004978,0,0,1
1602684000,1602522000,1602528000,0,0.0042609675,-0.21666788,0.4289076,0.0025000002,0.0025000002,0.0025000002,-0.0021707418,-0.00014726818,-0.0014281869,-0.00066287076,0.00054954935,-0.0012888343,0.0025609569,0.002560235,0.0025599776,0.00020444268,9.4144224e-07,8.8539535e-05,-6.3896405e-05,5.340503e-05,-0.00011631934,0,0,1
1602756000,1602593500,1602600000,0,0.0029897857,-0.21918982,0.42899984,0.0025000002,0.0025000002,0.0025000002,-0.0010741453,0.002369225,-0.0014908314,-0.00071432506,0.0007772057,-0.0013140828,0.0025595464,0.002558848,0.0025585834,5.0086488e-05,0.0002437358,9.6495394e-05,-6.2168656e-05,7.721719e-05,-0.000113839174,0,0,1
1602828000,1602665000,1602672000,0,0.004082941,-0.21975017,0.42765224,0.0025000002,0.0025000002,0.0025000002,-0.0023157727,0.002786845,-0.00015333295,-0.0009146811,0.0010286318,-0.0011688392,0.002558201,0.0025575191,0.0025572497,0.00023292423,0.00033741785,1.0190935e-06,-8.353178e-05,0.00010977073,-9.9724326e-05,0,0,1
1602900000,1602737500,1602744000,0,0.0029113062,-0.21771076,0.42909387,0.0025000002,0.0025000002,0.0025000002,-0.0010208604,0.000689432,-0.0015894473,-0.0009281274,0.0009856748,-0.001222096,0.0025569217,0.0025562556,0.0025559769,4.528692e-05,2.0659501e-05,0.000109814224,-7.868854e-05,9.84859e-05,-0.000101002086,0,0,1
1602964000,1602807000,1602808000,0,0.0044070967,-0.21946526,0.4280854,0.0025000002,0.0025000002,0.0025000002,-0.002608804,0.002629742,-0.0004439652,-0.0011332319,0.001186309,-0.0011271122,0.002555693,0.002555045,0.0025547592,0.000295891,0.00030073102,8.565141e-06,-0.00010519525,0.00012316726,-8.972137e-05,0,0,1
1603036000,1602875428,1602880000,0,0.004034769,-0.21715553,0.43013647,0.0025000002,0.0025000002,0.0025000002,-0.0021140713,0.00029666722,-0.0024688542,-0.0012513065,0.0010792115,-0.0012886318,0.0025545242,0.0025538898,0.0025535917,0.00019439573,3.8287617e-06,0.00026521282,-0.000115933304,0.00010880116,-0.00011084723,0,0,1
1603108000,1602947200,1602952000,0,0.0014246638,-0.21891804,0.42923784,0.0025000002,0.0025000002,0.0025000002,0.00039810213,0.0022704452,-0.0014080107,-0.0010442636,0.0012287389,-0.0013035878,0.0025534034,0.0025527847,0.0025524767,6.896473e-06,0.00022436587,8.627095e-05,-0.000100515026,0.00012330749,-0.00010776228,0,0,1
1603180000,1603017714,1603024000,0,0.0038610832,-0.21803793,0.42868197,0.0025000002,0.0025000002,0.0025000002,-0.0021975718,0.0015497208,-0.0007183552,-0.0011868094,0.0012684101,-0.0012312466,0.002552332,0.002551725,0.0025514096,0.00021023571,0.000104574174,2.2468676e-05,-0.00011407621,0.0001209921,-9.722022e-05,0,0,1
1603244000,1603086000,1603088000,0,0.005085065,-0.22068487,0.429215,0.0025000002,0.0025000002,0.0025000002,-0.003728768,0.0043021888,-0.0011667609,-0.0014922546,0.0016329509,-0.0012234647,0.0025512925,0.002550698,0.0025503852,0.0006055193,0.00080625736,5.928015e-05,-0.00017312868,0.0002033345,-9.266129e-05,0,0,1
1603316000,1603156500,1603160000,0,0.0033844807,-0.21862583,0.42760235,0.0025000002,0.0025000002,0.0025000002,-0.0021681634,0.0021929592,0.00048708916,-0.0015757806,0.0017021536,-0.0010120706,0.0025503107,0.0025497214,0.0025494033,0.0002048087,0.00020956737,1.034416e-05,-0.00017704356,0.00020410473,-7.993231e-05,0,0,1
1603380000,1603224000,1603224000,0,-0.0005213184,-0.21721351,0.4298317,0.0025000002,0.0025000002,0.0025000002,0.0017359103,0.0006572455,-0.0017925501,-0.001181879,0.0015778737,-0.0011048869,0.0025493586,0.0025487796,0.0025484555,0.0001313352,1.883342e-05,0.00014007401,-0.00014036415,0.00018206805,-8.7085726e-05,0,0,1
1603452000,1603296000,1603296000,0,0.0004011167,-0.21578637,0.42778933,0.0025000002,0.0025000002,0.0025000002,0.000777332,-0.0009266883,0.00021091104,-0.000935265,0.0012626094,-0.00093927153,0.0025484452,0.0025478757,0.0025475402,2.6344822e-05,3.745262e-05,1.9387485e-06,-0.00011937981,0.00015443607,-7.587985e-05,0,0,1
1603524000,1603368000,1603368000,0,0.00038577372,-0.21659467,0.42972738,0.0025000002,0.0025000002,0.0025000002,0.00089885935,0.00020486116,-0.0015765727,-0.00070439617,0.0011294665,-0.0010194919,0.0025475647,0.0025470094,0.0025466587,3.5238365e-05,1.8308496e-06,0.000108447064,-9.991738e-05,0.00013522702,-7.997922e-05,0,0,1
1603596000,1603440000,1603440000,0,0.00066133117,-0.21825261,0.42864168,0.0025000002,0.0025000002,0.0025000002,0.000658018,0.002112776,-0.00033423305,-0.0005329035,0.0012532427,-0.0009332086,0.0025467188,0.0025461756,0.002545813,1.8890874e-05,0.00019479869,4.8693714e-06,-8.496249e-05,0.00014272555,-7.052483e-05,0,0,1
1603668000,1603512000,1603512000,0,-0.0023817779,-0.21593493,0.4280193,0.0025000002,0.0025000002,0.0025000002,0.0036907012,-0.00021129847,0.0003104806,-1.2609526e-06,0.0010688896,-0.00077665993,0.0025458976,0.0025453607,0.0025449947,0.00059447606,1.9497281e-06,4.2087063e-06,5.6123827e-07,0.00012451467,-6.111781e-05,0,0,1
1603740000,1603583555,1603584000,0,0.00151164,-0.21774611,0.43057004,0.0025000002,0.0025000002,0.0025000002,-0.0002563838,0.0019588768,-0.002066791,-3.3200686e-05,0.0011803092,-0.0009381602,0.002545113,0.0025445875,0.0025442105,2.8696675e-06,0.00016755245,0.0001865282,1.31711e-07,0.00012990272,-7.681838e-05,0,0,1
1603812000,1603656000,1603656000,0,0.0062411944,-0.21689689,0.42607594,0.0025000002,0.0025000002,0.0025000002,-0.0051688603,0.00091712177,0.0023837686,-0.0006831371,0.0011469983,-0.0005177657,0.0025443598,0.002543837,0.0025434543,0.0011667251,3.673628e-05,0.00024822165,-0.00014753826,0.00011811217,-3.5683384e-05,0,0,1
1603884000,1603727555,1603728000,0,0.001293915,-0.2167394,0.42844158,0.0025000002,0.0025000002,0.0025000002,9.725007e-05,0.0011086166,0.00016063452,-0.00058543764,0.0011421978,-0.00043281543,0.0025436282,0.0025431174,0.002542718,4.131271e-07,5.370103e-05,1.129679e-06,-0.0001290157,0.00011004831,-3.1074625e-05,0,0,1
1603956000,1603800000,1603800000,0,0.0034196272,-0.21911934,0.42589438,0.0025000002,0.0025000002,0.0025000002,-0.0018987213,0.0033968687,0.0026676953,-0.00075163844,0.0014275347,-4.0381274e-05,0.0025429225,0.0025424175,0.0025420056,0.00015752403,0.00050427613,0.00031116477,-0.00013262352,0.00015993929,1.2237015e-05,0,0,1
1604028000,1603871555,1603872000,0,0.0033273462,-0.21491888,0.4293818,0.0025000002,0.0025000002,0.0025000002,-0.0016935078,-0.0006508231,-0.00075802207,-0.0008695544,0.001167335,-0.0001302335,0.0025422291,0.002541733,0.0025413155,0.00012534793,1.8517525e-05,2.512684e-05,-0.00013171266,0.00013759764,7.559301e-06,0,0,1
1604100000,1603944000,1603944000,0,0.0005048465,-0.21491814,0.42894873,0.0025000002,0.0025000002,0.0025000002,0.0011238721,-0.00070384145,-0.00034412742,-0.00061727903,0.0009305286,-0.00015731814,0.00254157,0.002541079,0.0025406524,5.5219083e-05,2.1662563e-05,5.1827665e-06,-0.00010805576,0.00011744269,5.946746e-06,0,0,1
1604172000,1604014666,1604016000,0,-0.0006456696,-0.21384825,0.43003193,0.0025000002,0.0025000002,0.0025000002,0.0021509714,-0.0018369555,-0.0014589131,-0.0002744845,0.00058782985,-0.0003185165,0.0025409332,0.0025404464,0.0025400107,0.00020231755,0.00014758471,9.312818e-05,-6.9622e-05,8.4624146e-05,-6.321777e-06,0,0,1
1604244000,1604082000,1604088000,0,0.003196001,-0.21630186,0.4251747,0.0025000002,0.0025000002,0.0025000002,-0.0017949686,0.00068975985,0.0034433603,-0.00045494305,0.00059992936,0.0001279678,0.0025403162,0.0025398356,0.0025393893,0.0001409235,2.0814616e-05,0.0005188076,-7.808441e-05,7.7050914e-05,5.6003166e-05,0,0,1
1604316000,1604153600,1604160000,0,0.0028539014,-0.21706688,0.42884007,0.0025000002,0.0025000002,0.0025000002,-0.0013305901,0.0013840944,-0.00030571222,-0.0005646287,0.00069815427,7.365995e-05,0.0025397192,0.0025392429,0.0025387853,7.745695e-05,8.382568e-05,4.0869113e-06,-7.800582e-05,7.789954e-05,4.8476137e-05,0,0,1
1604380000,1604224000,1604224000,0,0.005195045,-0.21473017,0.4257628,0.0025000002,0.0025000002,0.0025000002,-0.0037929667,-0.00073835254,0.0028952658,-0.0009630771,0.00052085664,0.00042189495,0.0025391383,0.002538668,0.0025382035,0.00062954845,2.3860928e-05,0.00036692282,-0.0001460784,6.534004e-05,8.777951e-05,0,0,1
1604452000,1604292000,1604296000,0,-0.0013251199,-0.21627626,0.42941427,0.0025000002,0.0025000002,0.0025000002,0.0027772582,0.0010282099,-0.0006942451,-0.00051529054,0.00058159354,0.00028828724,0.0025385618,0.0025381008,0.0025376345,0.00033759983,4.6280074e-05,2.1096032e-05,-8.8173256e-05,6.3058214e-05,7.474511e-05,0,0,1
1604524000,1604364000,1604368000,0,-0.0015511606,-0.21630329,0.4288606,0.0025000002,0.0025000002,0.0025000002,0.0030822493,0.001006782,-0.00014740229,-6.2453386e-05,0.00063511415,0.00023345892,0.00253802,0.0025375616,0.0025370852,0.00041590867,4.4382752e-05,9.501421e-07,-2.4722387e-05,6.0707458e-05,6.521704e-05,0,0,1
1604596000,1604435111,1604440000,0,0.0029475067,-0.21516083,0.42937163,0.0025000002,0.0025000002,0.0025000002,-0.0013167501,-0.0002808869,-0.0007221699,-0.00021863019,0.00052105874,0.000114467846,0.002537495,0.0025370363,0.002536549,7.592049e-05,3.4555555e-06,2.2846329e-05,-3.109724e-05,5.27183e-05,5.4251967e-05,0,0,1
1604660000,1604502000,1604504000,0,0.0014909336,-0.21248019,0.43092847,0.0025000002,0.0025000002,0.0025000002,0.00042631885,-0.0028700083,-0.0022252798,-0.00014253063,0.00012093774,-0.00016165074,0.0025369793,0.002536526,0.0025360296,7.959938e-06,0.00036081154,0.00021702981,-2.648876e-05,3.9246224e-06,2.224258e-05,0,0,1
1604732000,1604573600,1604576000,0,0.0017503398,-0.21844378,0.430619,0.0025000002,0.0025000002,0.0025000002,0.00033028307,0.0031616688,-0.0018720329,-8.330484e-05,0.00050182955,-0.00037584294,0.0025364826,0.0025360335,0.0025355255,4.778573e-06,0.00043796634,0.0001535023,-2.2572138e-05,5.8293735e-05,2.2835411e-07,0,0,1
1604804000,1604646000,1604648000,0,-0.0016577683,-0.21822794,0.43056676,0.0025000002,0.0025000002,0.0025000002,0.0035174303,0.0027926415,-0.0018473566,0.0003721341,0.0007915825,-0.00056191476,0.002535984,0.0025355378,0.0025350326,0.0005420783,0.0003417566,0.00014951335,4.884765e-05,9.414753e-05,-1.871172e-05,0,0,1
1604876000,1604716800,1604720000,0,0.0006191265,-0.21619432,0.4314377,0.0025000002,0.0025000002,0.0025000002,0.0011867743,0.0005248934,-0.002791047,0.00047317916,0.00075850164,-0.0008384002,0.0025355197,0.0025350712,0.0025345562,6.172013e-05,1.2074986e-05,0.00034148322,5.044431e-05,8.396754e-05,-5.8747144e-05,0,0,1
1604940000,1604784000,1604784000,0,-0.00070732506,-0.21805373,0.43059164,0.0025000002,0.0025000002,0.0025000002,0.0025589156,0.0022151768,-0.0019892156,0.00072029035,0.0009310808,-0.00097471004,0.002535063,0.002534614,0.002534092,0.0002869992,0.00021510605,0.00017344824,7.8470555e-05,9.95044e-05,-7.233655e-05,0,0,1
1605012000,1604856000,1604856000,0,0.0023612764,-0.21676016,0.4297485,0.0025000002,0.0025000002,0.0025000002,-0.00063237414,0.00070659816,-0.0012123585,0.0005500249,0.00090282585,-0.001004607,0.002534626,0.002534174,0.0025336414,1.75304e-05,2.1891827e-05,6.444336e-05,6.638652e-05,8.973499e-05,-7.1343005e-05,0,0,1
1605084000,1604928000,1604928000,0,-7.424247e-05,-0.21117267,0.43751627,0.0025000002,0.0025000002,0.0025000002,0.0015537568,-0.0049764514,-0.009005964,0.00067636877,0.00016277446,-0.002011863,0.0025342,0.0025337464,0.0025332044,0.000105848005,0.0010860189,0.003558101,7.13537e-05,-5.826199e-05,-0.00051023555,0,0,1
1605156000,1604998181,1605000000,0,0.0019028499,-0.21493167,0.43114495,0.0025000002,0.0025000002,0.0025000002,-0.00044369232,-0.0011573881,-0.0025202036,0.0005385055,2.800807e-07,-0.0020744521,0.0025337823,0.0025333308,0.0025327783,8.632806e-06,5.875342e-05,0.00027866775,6.150852e-05,-5.832248e-05,-0.00048173292,0,0,1
1605228000,1605072000,1605072000,0,0.009047641,-0.2209131,0.4302232,0.0025000002,0.0025000002,0.0025000002,-0.007587873,0.0046429783,-0.0016656518,-0.0005069132,0.00059754297,-0.002021777,0.0025333522,0.0025329057,0.0025323583,0.0025252362,0.0009456608,0.00012163428,-0.00027126347,7.0835056e-05,-0.000435408,0,0,1
1605300000,1605143272,1605144000,0,0.0016858358,-0.21733987,0.4284649,0.0025000002,0.0025000002,0.0025000002,-8.777101e-05,0.00081013143,1.2755394e-05,-0.00045462092,0.00062406453,-0.0017679259,0.0025329618,0.002532511,0.0025319539,3.3793336e-07,2.8794422e-05,7.3427637e-09,-0.00023746275,6.559006e-05,-0.0003810855,0,0,1
