timestamp,timestamp_sample,gps_hvel[0],gps_hvel[1],gps_vvel,gps_hpos[0],gps_hpos[1],gps_vpos,ev_hvel[0],ev_hvel[1],ev_vvel,ev_hpos[0],ev_hpos[1],ev_vpos,rng_vpos,baro_vpos,aux_hvel[0],aux_hvel[1],flow[0],flow[1],heading,mag_field[0],mag_field[1],mag_field[2],gravity[0],gravity[1],gravity[2],drag[0],drag[1],airspeed,beta,hagl,hagl_rate
1592244000,1592088000,0.0007072548,0.00019268587,0.00023325392,1.7240282e-06,3.6289915e-08,8.503385e-05,0.0,0.0,0.0,0.0,0.0,0.0,0.0,3.7277565e-07,0.0,0.0,0.0,0.0,0.00083037885,0.00012301645,2.1142698e-05,0.00083037885,4.032303e-06,0.000550866,5.4626526e-11,0.0,0.0,0.0,0.0,0.0,0.0
1592252000,1592096000,0.0007072548,0.00019268587,0.00023325392,1.7240282e-06,3.6289915e-08,8.503385e-05,0.0,0.0,0.0,0.0,0.0,0.0,0.0,3.7277565e-07,0.0,0.0,0.0,0.0,0.00083037885,0.00012301645,2.1142698e-05,0.00083037885,0.0004121518,0.0022589094,5.1951247e-08,0.0,0.0,0.0,0.0,0.0,0.0
1592260000,1592104000,0.0007072548,0.00019268587,0.00023325392,1.7240282e-06,3.6289915e-08,8.503385e-05,0.0,0.0,0.0,0.0,0.0,0.0,0.0,3.7277565e-07,0.0,0.0,0.0,0.0,0.00083037885,0.00012301645,2.1142698e-05,0.00083037885,4.2478823e-05,5.215561e-05,2.6284397e-10,0.0,0.0,0.0,0.0,0.0,0.0
1592268000,1592112000,0.0007072548,0.00019268587,0.00023325392,1.7240282e-06,3.6289915e-08,8.503385e-05,0.0,0.0,0.0,0.0,0.0,0.0,0.0,3.7277565e-07,0.0,0.0,0.0,0.0,0.00083037885,0.00012301645,2.1142698e-05,0.00083037885,6.062422e-11,0.00025008465,1.537046e-10,0.0,0.0,0.0,0.0,0.0,0.0
1592276000,1592120000,0.0007072548,0.00019268587,0.00023325392,1.7240282e-06,3.6289915e-08,8.503385e-05,0.0,0.0,0.0,0.0,0.0,0.0,0.0,3.7277565e-07,0.0,0.0,0.0,0.0,0.00083037885,0.00012301645,2.1142698e-05,0.00083037885,0.0005051998,5.9070677e-05,5.820766e-09,0.0,0.0,0.0,0.0,0.0,0.0
1592284000,1592128000,0.0007072548,0.00019268587,0.00023325392,1.7240282e-06,3.6289915e-08,8.503385e-05,0.0,0.0,0.0,0.0,0.0,0.0,0.0,1.0840207e-06,0.0,0.0,0.0,0.0,0.00083037885,0.00012301645,2.1142698e-05,0.00083037885,0.00072764786,2.4141542e-07,3.274181e-09,0.0,0.0,0.0,0.0,0.0,0.0
1592300000,1592144000,0.0007072548,0.00019268587,0.00023325392,1.7240282e-06,3.6289915e-08,8.503385e-05,0.0,0.0,0.0,0.0,0.0,0.0,0.0,1.0840207e-06,0.0,0.0,0.0,0.0,0.00083037885,0.00012301645,2.1142698e-05,0.00083037885,0.001388994,0.0008948653,2.09439e-08,0.0,0.0,0.0,0.0,0.0,0.0
1592308000,1592152000,0.0007072548,0.00019268587,0.00023325392,1.7240282e-06,3.6289915e-08,8.503385e-05,0.0,0.0,0.0,0.0,0.0,0.0,0.0,1.0840207e-06,0.0,0.0,0.0,0.0,0.00083037885,0.00012301645,2.1142698e-05,0.00083037885,0.00025289904,0.000517995,5.4626526e-11,0.0,0.0,0.0,0.0,0.0,0.0
1592316000,1592160000,0.0007072548,0.00019268587,0.00023325392,1.7240282e-06,3.6289915e-08,8.503385e-05,0.0,0.0,0.0,0.0,0.0,0.0,0.0,1.0840207e-06,0.0,0.0,0.0,0.0,4.7665555e-05,4.7665555e-05,2.1787793e-05,4.410004e-05,1.0483303e-05,0.00029698535,2.7853275e-10,0.0,0.0,0.0,0.0,0.0,0.0
1592324000,1592168000,0.0007072548,0.00019268587,0.00023325392,1.7240282e-06,3.6289915e-08,8.503385e-05,0.0,0.0,0.0,0.0,0.0,0.0,0.0,1.0840207e-06,0.0,0.0,0.0,0.0,4.7665555e-05,4.7665555e-05,2.1787793e-05,4.410004e-05,0.00014142072,0.0018595041,1.1054965e-08,0.0,0.0,0.0,0.0,0.0,0.0
1592340000,1592184000,0.0007072548,0.00019268587,0.00023325392,1.7240282e-06,3.6289915e-08,8.503385e-05,0.0,0.0,0.0,0.0,0.0,0.0,0.0,1.0840207e-06,0.0,0.0,0.0,0.0,4.7665555e-05,4.7665555e-05,2.1787793e-05,4.410004e-05,0.00076647283,2.0072133e-05,4.488413e-09,0.0,0.0,0.0,0.0,0.0,0.0
1592348000,1592192000,0.0007072548,0.00019268587,0.00023325392,1.7240282e-06,3.6289915e-08,8.503385e-05,0.0,0.0,0.0,0.0,0.0,0.0,0.0,1.0840207e-06,0.0,0.0,0.0,0.0,4.7665555e-05,4.7665555e-05,2.1787793e-05,4.410004e-05,0.0008358243,0.00049528887,3.3527613e-08,0.0,0.0,0.0,0.0,0.0,0.0
1592356000,1592200000,0.0007072548,0.00019268587,0.00023325392,1.7240282e-06,3.6289915e-08,8.503385e-05,0.0,0.0,0.0,0.0,0.0,0.0,0.0,1.2011186e-05,0.0,0.0,0.0,0.0,4.7665555e-05,4.7665555e-05,2.1787793e-05,4.410004e-05,0.0009221709,0.0009074414,9.695725e-09,0.0,0.0,0.0,0.0,0.0,0.0
1592364000,1592208000,0.0007072548,0.00019268587,0.00023325392,1.7240282e-06,3.6289915e-08,8.503385e-05,0.0,0.0,0.0,0.0,0.0,0.0,0.0,1.2011186e-05,0.0,0.0,0.0,0.0,4.7665555e-05,4.7665555e-05,2.1787793e-05,4.410004e-05,0.0008161816,0.0003085681,2.1082144e-08,0.0,0.0,0.0,0.0,0.0,0.0
1592380000,1592224000,0.0007072548,0.00019268587,0.00023325392,1.7240282e-06,3.6289915e-08,8.503385e-05,0.0,0.0,0.0,0.0,0.0,0.0,0.0,1.2011186e-05,0.0,0.0,0.0,0.0,4.7665555e-05,4.7665555e-05,2.1787793e-05,4.410004e-05,2.970761e-05,0.000106734355,3.4583536e-10,0.0,0.0,0.0,0.0,0.0,0.0
1592388000,1592232000,0.0007072548,0.00019268587,0.00023325392,1.7240282e-06,3.6289915e-08,8.503385e-05,0.0,0.0,0.0,0.0,0.0,0.0,0.0,1.2011186e-05,0.0,0.0,0.0,0.0,0.000378233,0.00012126346,0.00034557685,0.000378233,0.0005560644,6.970296e-05,7.697963e-09,0.0,0.0,0.0,0.0,0.0,0.0
1592396000,1592240000,0.000863878,2.0647708e-07,0.00031514867,4.7356302e-06,4.0675283e-07,7.819648e-05,0.0,0.0,0.0,0.0,0.0,0.0,0.0,1.2011186e-05,0.0,0.0,0.0,0.0,0.000378233,0.00012126346,0.00034557685,0.000378233,0.0004054705,0.00062457105,2.7853275e-08,0.0,0.0,0.0,0.0,0.0,0.0
1592404000,1592248000,0.000863878,2.0647708e-07,0.00031514867,4.7356302e-06,4.0675283e-07,7.819648e-05,0.0,0.0,0.0,0.0,0.0,0.0,0.0,1.2011186e-05,0.0,0.0,0.0,0.0,0.000378233,0.00012126346,0.00034557685,0.000378233,9.245791e-06,0.00034132152,9.789858e-09,0.0,0.0,0.0,0.0,0.0,0.0
1592420000,1592264000,0.000863878,2.0647708e-07,0.00031514867,4.7356302e-06,4.0675283e-07,7.819648e-05,0.0,0.0,0.0,0.0,0.0,0.0,0.0,1.2011186e-05,0.0,0.0,0.0,0.0,0.000378233,0.00012126346,0.00034557685,0.000378233,9.329395e-05,0.00015265937,2.3888447e-09,0.0,0.0,0.0,0.0,0.0,0.0
1592428000,1592272000,0.000863878,2.0647708e-07,0.00031514867,4.7356302e-06,4.0675283e-07,7.819648e-05,0.0,0.0,0.0,0.0,0.0,0.0,0.0,2.2131105e-06,0.0,0.0,0.0,0.0,0.000378233,0.00012126346,0.00034557685,0.000378233,0.0005511504,3.6892012e-05,5.3483973e-10,0.0,0.0,0.0,0.0,0.0,0.0
1592436000,1592280000,0.000863878,2.0647708e-07,0.00031514867,4.7356302e-06,4.0675283e-07,7.819648e-05,0.0,0.0,0.0,0.0,0.0,0.0,0.0,2.2131105e-06,0.0,0.0,0.0,0.0,0.000378233,0.00012126346,0.00034557685,0.000378233,0.0005804774,0.0008709741,4.3301043e-09,0.0,0.0,0.0,0.0,0.0,0.0
1592444000,1592288000,0.000863878,2.0647708e-07,0.00031514867,4.7356302e-06,4.0675283e-07,7.819648e-05,0.0,0.0,0.0,0.0,0.0,0.0,0.0,2.2131105e-06,0.0,0.0,0.0,0.0,0.000378233,0.00012126346,0.00034557685,0.000378233,0.00071283354,3.2365315e-06,2.9549483e-09,0.0,0.0,0.0,0.0,0.0,0.0
1592460000,1592304000,0.000863878,2.0647708e-07,0.00031514867,4.7356302e-06,4.0675283e-07,7.819648e-05,0.0,0.0,0.0,0.0,0.0,0.0,0.0,2.2131105e-06,0.0,0.0,0.0,0.0,0.00012931405,5.700743e-06,0.00012931405,9.540869e-06,4.704489e-05,0.00012968021,3.8221515e-10,0.0,0.0,0.0,0.0,0.0,0.0
1592468000,1592312000,0.000863878,2.0647708e-07,0.00031514867,4.7356302e-06,4.0675283e-07,7.819648e-05,0.0,0.0,0.0,0.0,0.0,0.0,0.0,2.2131105e-06,0.0,0.0,0.0,0.0,0.00012931405,5.700743e-06,0.00012931405,9.540869e-06,0.0008468671,3.7465474e-05,1.9386789e-08,0.0,0.0,0.0,0.0,0.0,0.0
1592476000,1592320000,0.000863878,2.0647708e-07,0.00031514867,4.7356302e-06,4.0675283e-07,7.819648e-05,0.0,0.0,0.0,0.0,0.0,0.0,0.0,2.2131105e-06,0.0,0.0,0.0,0.0,0.00012931405,5.700743e-06,0.00012931405,9.540869e-06,0.0031878178,0.0013953667,1.4280346e-07,0.0,0.0,0.0,0.0,0.0,0.0
1592484000,1592328000,0.000863878,2.0647708e-07,0.00031514867,4.7356302e-06,4.0675283e-07,7.819648e-05,0.0,0.0,0.0,0.0,0.0,0.0,0.0,2.2131105e-06,0.0,0.0,0.0,0.0,0.00012931405,5.700743e-06,0.00012931405,9.540869e-06,0.0066312538,0.0009306647,5.174052e-07,0.0,0.0,0.0,0.0,0.0,0.0
1592500000,1592344000,0.000863878,2.0647708e-07,0.00031514867,4.7356302e-06,4.0675283e-07,7.819648e-05,0.0,0.0,0.0,0.0,0.0,0.0,0.0,1.3447027e-07,0.0,0.0,0.0,0.0,0.00012931405,5.700743e-06,0.00012931405,9.540869e-06,1.0755183e-05,0.00016530293,4.1438852e-09,0.0,0.0,0.0,0.0,0.0,0.0
1592508000,1592352000,0.000863878,2.0647708e-07,0.00031514867,4.7356302e-06,4.0675283e-07,7.819648e-05,0.0,0.0,0.0,0.0,0.0,0.0,0.0,1.3447027e-07,0.0,0.0,0.0,0.0,0.00012931405,5.700743e-06,0.00012931405,9.540869e-06,0.00015592722,8.1873026e-05,9.754899e-10,0.0,0.0,0.0,0.0,0.0,0.0
1592516000,1592360000,0.000863878,2.0647708e-07,0.00031514867,4.7356302e-06,4.0675283e-07,7.819648e-05,0.0,0.0,0.0,0.0,0.0,0.0,0.0,1.3447027e-07,0.0,0.0,0.0,0.0,0.00012931405,5.700743e-06,0.00012931405,9.540869e-06,0.00089156115,0.0008653131,3.7202938e-08,0.0,0.0,0.0,0.0,0.0,0.0
1592524000,1592368000,0.000863878,2.0647708e-07,0.00031514867,4.7356302e-06,4.0675283e-07,7.819648e-05,0.0,0.0,0.0,0.0,0.0,0.0,0.0,1.3447027e-07,0.0,0.0,0.0,0.0,0.00012931405,5.700743e-06,0.00012931405,9.540869e-06,0.0006332736,0.0004852628,1.6270008e-08,0.0,0.0,0.0,0.0,0.0,0.0
1592540000,1592384000,0.000863878,2.0647708e-07,0.00031514867,4.7356302e-06,4.0675283e-07,7.819648e-05,0.0,0.0,0.0,0.0,0.0,0.0,0.0,1.3447027e-07,0.0,0.0,0.0,0.0,0.0007903174,4.2505217e-05,0.0007903174,3.666878e-06,0.00014317059,0.00062165014,2.139359e-09,0.0,0.0,0.0,0.0,0.0,0.0
1592548000,1592392000,0.000863878,2.0647708e-07,0.00031514867,4.7356302e-06,4.0675283e-07,7.819648e-05,0.0,0.0,0.0,0.0,0.0,0.0,0.0,1.3447027e-07,0.0,0.0,0.0,0.0,0.0007903174,4.2505217e-05,0.0007903174,3.666878e-06,0.0018412148,0.004498659,4.6463134e-07,0.0,0.0,0.0,0.0,0.0,0.0
1592556000,1592400000,0.000863878,2.0647708e-07,0.00031514867,4.7356302e-06,4.0675283e-07,7.819648e-05,0.0,0.0,0.0,0.0,0.0,0.0,0.0,1.3447027e-07,0.0,0.0,0.0,0.0,0.0007903174,4.2505217e-05,0.0007903174,3.666878e-06,0.00027686666,0.0011840109,1.3648105e-08,0.0,0.0,0.0,0.0,0.0,0.0
1592564000,1592408000,0.000863878,2.0647708e-07,0.00031514867,4.7356302e-06,4.0675283e-07,7.819648e-05,0.0,0.0,0.0,0.0,0.0,0.0,0.0,1.3447027e-07,0.0,0.0,0.0,0.0,0.0007903174,4.2505217e-05,0.0007903174,3.666878e-06,0.0007744477,0.00080047443,4.1438852e-09,0.0,0.0,0.0,0.0,0.0,0.0
1592580000,1592424000,0.000863878,2.0647708e-07,0.00031514867,4.7356302e-06,4.0675283e-07,7.819648e-05,0.0,0.0,0.0,0.0,0.0,0.0,0.0,4.3150735e-06,0.0,0.0,0.0,0.0,0.0007903174,4.2505217e-05,0.0007903174,3.666878e-06,0.00015787002,0.00017216855,3.915943e-10,0.0,0.0,0.0,0.0,0.0,0.0
1592588000,1592432000,0.000863878,2.0647708e-07,0.00031514867,4.7356302e-06,4.0675283e-07,7.819648e-05,0.0,0.0,0.0,0.0,0.0,0.0,0.0,4.3150735e-06,0.0,0.0,0.0,0.0,0.0007903174,4.2505217e-05,0.0007903174,3.666878e-06,8.749969e-06,6.9709364e-05,3.8221515e-10,0.0,0.0,0.0,0.0,0.0,0.0
1592596000,1592440000,0.000863878,2.0647708e-07,0.00031514867,4.7356302e-06,4.0675283e-07,7.819648e-05,0.0,0.0,0.0,0.0,0.0,0.0,0.0,4.3150735e-06,0.0,0.0,0.0,0.0,0.0007903174,4.2505217e-05,0.0007903174,3.666878e-06,0.00031209362,6.3732614e-06,7.043127e-09,0.0,0.0,0.0,0.0,0.0,0.0
1592604000,1592448000,0.000863878,2.0647708e-07,0.00031514867,4.7356302e-06,4.0675283e-07,7.819648e-05,0.0,0.0,0.0,0.0,0.0,0.0,0.0,4.3150735e-06,0.0,0.0,0.0,0.0,0.00068461103,0.00068461103,0.00010353491,5.5411732e-05,0.00017716423,0.00037652106,1.966555e-09,0.0,0.0,0.0,0.0,0.0,0.0
1592620000,1592464000,0.000863878,2.0647708e-07,0.00031514867,4.7356302e-06,4.0675283e-07,7.819648e-05,0.0,0.0,0.0,0.0,0.0,0.0,0.0,4.3150735e-06,0.0,0.0,0.0,0.0,0.00068461103,0.00068461103,0.00010353491,5.5411732e-05,0.0005970482,1.9557568e-07,6.7535666e-10,0.0,0.0,0.0,0.0,0.0,0.0
1592628000,1592472000,0.000863878,2.0647708e-07,0.00031514867,4.7356302e-06,4.0675283e-07,7.819648e-05,0.0,0.0,0.0,0.0,0.0,0.0,0.0,4.3150735e-06,0.0,0.0,0.0,0.0,0.00068461103,0.00068461103,0.00010353491,5.5411732e-05,0.00022202473,0.00077457784,4.2041393e-10,0.0,0.0,0.0,0.0,0.0,0.0
1592636000,1592480000,0.000863878,2.0647708e-07,0.00031514867,4.7356302e-06,4.0675283e-07,7.819648e-05,0.0,0.0,0.0,0.0,0.0,0.0,0.0,4.3150735e-06,0.0,0.0,0.0,0.0,0.00068461103,0.00068461103,0.00010353491,5.5411732e-05,0.0005430645,0.0014329168,1.5607208e-07,0.0,0.0,0.0,0.0,0.0,0.0
1592644000,1592488000,0.000863878,2.0647708e-07,0.00031514867,4.7356302e-06,4.0675283e-07,7.819648e-05,0.0,0.0,0.0,0.0,0.0,0.0,0.0,4.3717737e-05,0.0,0.0,0.0,0.0,0.00068461103,0.00068461103,0.00010353491,5.5411732e-05,0.00021896075,0.0018078679,1.2396924e-08,0.0,0.0,0.0,0.0,0.0,0.0
1592660000,1592504000,0.000863878,2.0647708e-07,0.00031514867,4.7356302e-06,4.0675283e-07,7.819648e-05,0.0,0.0,0.0,0.0,0.0,0.0,0.0,4.3717737e-05,0.0,0.0,0.0,0.0,0.00068461103,0.00068461103,0.00010353491,5.5411732e-05,0.0013998761,5.4818106e-06,8.294819e-09,0.0,0.0,0.0,0.0,0.0,0.0
1592668000,1592512000,0.000863878,2.0647708e-07,0.00031514867,4.7356302e-06,4.0675283e-07,7.819648e-05,0.0,0.0,0.0,0.0,0.0,0.0,0.0,4.3717737e-05,0.0,0.0,0.0,0.0,7.1376366e-05,3.7206948e-05,7.1376366e-05,4.8935256e-08,0.00016270316,0.00012927582,1.5475621e-09,0.0,0.0,0.0,0.0,0.0,0.0
1592676000,1592520000,0.000863878,2.0647708e-07,0.00031514867,4.7356302e-06,4.0675283e-07,7.819648e-05,0.0,0.0,0.0,0.0,0.0,0.0,0.0,4.3717737e-05,0.0,0.0,0.0,0.0,7.1376366e-05,3.7206948e-05,7.1376366e-05,4.8935256e-08,2.3386834e-05,4.9724282e-09,1.8468427e-10,0.0,0.0,0.0,0.0,0.0,0.0
1592684000,1592528000,0.000863878,2.0647708e-07,0.00031514867,4.7356302e-06,4.0675283e-07,7.819648e-05,0.0,0.0,0.0,0.0,0.0,0.0,0.0,4.3717737e-05,0.0,0.0,0.0,0.0,7.1376366e-05,3.7206948e-05,7.1376366e-05,4.8935256e-08,0.0015333615,0.00094123575,9.1538425e-08,0.0,0.0,0.0,0.0,0.0,0.0
1592700000,1592544000,0.000863878,2.0647708e-07,0.00031514867,4.7356302e-06,4.0675283e-07,7.819648e-05,0.0,0.0,0.0,0.0,0.0,0.0,0.0,4.3717737e-05,0.0,0.0,0.0,0.0,7.1376366e-05,3.7206948e-05,7.1376366e-05,4.8935256e-08,0.00037320546,0.0009245011,1.7408297e-09,0.0,0.0,0.0,0.0,0.0,0.0
1592708000,1592552000,0.000863878,2.0647708e-07,0.00031514867,4.7356302e-06,4.0675283e-07,7.819648e-05,0.0,0.0,0.0,0.0,0.0,0.0,0.0,4.3717737e-05,0.0,0.0,0.0,0.0,7.1376366e-05,3.7206948e-05,7.1376366e-05,4.8935256e-08,0.00011540499,0.00022104073,5.0226845e-10,0.0,0.0,0.0,0.0,0.0,0.0
1592716000,1592560000,0.000863878,2.0647708e-07,0.00031514867,4.7356302e-06,4.0675283e-07,7.819648e-05,0.0,0.0,0.0,0.0,0.0,0.0,0.0,3.893736e-06,0.0,0.0,0.0,0.0,7.1376366e-05,3.7206948e-05,7.1376366e-05,4.8935256e-08,4.107032e-06,0.00018344044,3.1125182e-09,0.0,0.0,0.0,0.0,0.0,0.0
1592724000,1592568000,0.000863878,2.0647708e-07,0.00031514867,4.7356302e-06,4.0675283e-07,7.819648e-05,0.0,0.0,0.0,0.0,0.0,0.0,0.0,3.893736e-06,0.0,0.0,0.0,0.0,7.1376366e-05,3.7206948e-05,7.1376366e-05,4.8935256e-08,2.875368e-05,0.00028407088,3.3702463e-10,0.0,0.0,0.0,0.0,0.0,0.0
1592740000,1592584000,0.000863878,2.0647708e-07,0.00031514867,4.7356302e-06,4.0675283e-07,7.819648e-05,0.0,0.0,0.0,0.0,0.0,0.0,0.0,3.893736e-06,0.0,0.0,0.0,0.0,7.067591e-05,6.699497e-06,7.067591e-05,2.6401383e-05,0.00032267533,1.5907743e-05,4.3301043e-09,0.0,0.0,0.0,0.0,0.0,0.0
1592748000,1592592000,0.000863878,2.0647708e-07,0.00031514867,4.7356302e-06,4.0675283e-07,7.819648e-05,0.0,0.0,0.0,0.0,0.0,0.0,0.0,3.893736e-06,0.0,0.0,0.0,0.0,7.067591e-05,6.699497e-06,7.067591e-05,2.6401383e-05,7.7975434e-05,0.0009805264,6.148184e-10,0.0,0.0,0.0,0.0,0.0,0.0
1592756000,1592600000,0.000863878,2.0647708e-07,0.00031514867,4.7356302e-06,4.0675283e-07,7.819648e-05,0.0,0.0,0.0,0.0,0.0,0.0,0.0,3.893736e-06,0.0,0.0,0.0,0.0,7.067591e-05,6.699497e-06,7.067591e-05,2.6401383e-05,0.00032250583,0.00035923783,4.6171067e-09,0.0,0.0,0.0,0.0,0.0,0.0
1592764000,1592608000,0.000863878,2.0647708e-07,0.00031514867,4.7356302e-06,4.0675283e-07,7.819648e-05,0.0,0.0,0.0,0.0,0.0,0.0,0.0,3.893736e-06,0.0,0.0,0.0,0.0,7.067591e-05,6.699497e-06,7.067591e-05,2.6401383e-05,1.2078373e-05,0.00039920016,1.8468427e-10,0.0,0.0,0.0,0.0,0.0,0.0
1592780000,1592624000,0.000863878,2.0647708e-07,0.00031514867,4.7356302e-06,4.0675283e-07,7.819648e-05,0.0,0.0,0.0,0.0,0.0,0.0,0.0,3.893736e-06,0.0,0.0,0.0,0.0,7.067591e-05,6.699497e-06,7.067591e-05,2.6401383e-05,2.057624e-05,0.0011719002,2.9290845e-09,0.0,0.0,0.0,0.0,0.0,0.0
1592788000,1592632000,0.000863878,2.0647708e-07,0.00031514867,4.7356302e-06,4.0675283e-07,7.819648e-05,0.0,0.0,0.0,0.0,0.0,0.0,0.0,4.717588e-06,0.0,0.0,0.0,0.0,7.067591e-05,6.699497e-06,7.067591e-05,2.6401383e-05,0.00043640254,0.001619683,8.868994e-09,0.0,0.0,0.0,0.0,0.0,0.0
1592796000,1592640000,0.0011099795,5.7154745e-07,8.564408e-05,8.896929e-06,5.598587e-07,7.159276e-05,0.0,0.0,0.0,0.0,0.0,0.0,0.0,4.717588e-06,0.0,0.0,0.0,0.0,7.067591e-05,6.699497e-06,7.067591e-05,2.6401383e-05,0.000864086,0.0011764074,4.9693938e-08,0.0,0.0,0.0,0.0,0.0,0.0
1592804000,1592648000,0.0011099795,5.7154745e-07,8.564408e-05,8.896929e-06,5.598587e-07,7.159276e-05,0.0,0.0,0.0,0.0,0.0,0.0,0.0,4.717588e-06,0.0,0.0,0.0,0.0,0.0016007612,0.00083309924,0.0016007612,6.891441e-06,0.00014854083,0.0023577532,1.7209913e-07,0.0,0.0,0.0,0.0,0.0,0.0
1592820000,1592664000,0.0011099795,5.7154745e-07,8.564408e-05,8.896929e-06,5.598587e-07,7.159276e-05,0.0,0.0,0.0,0.0,0.0,0.0,0.0,4.717588e-06,0.0,0.0,0.0,0.0,0.0016007612,0.00083309924,0.0016007612,6.891441e-06,0.0003897681,0.00068880786,5.5712235e-10,0.0,0.0,0.0,0.0,0.0,0.0
1592828000,1592672000,0.0011099795,5.7154745e-07,8.564408e-05,8.896929e-06,5.598587e-07,7.159276e-05,0.0,0.0,0.0,0.0,0.0,0.0,0.0,4.717588e-06,0.0,0.0,0.0,0.0,0.0016007612,0.00083309924,0.0016007612,6.891441e-06,0.0002168347,0.0008932377,1.0055032e-09,0.0,0.0,0.0,0.0,0.0,0.0
1592836000,1592680000,0.0011099795,5.7154745e-07,8.564408e-05,8.896929e-06,5.598587e-07,7.159276e-05,0.0,0.0,0.0,0.0,0.0,0.0,0.0,4.717588e-06,0.0,0.0,0.0,0.0,0.0016007612,0.00083309924,0.0016007612,6.891441e-06,4.6881672e-05,1.1922185e-06,5.459242e-10,0.0,0.0,0.0,0.0,0.0,0.0
1592844000,1592688000,0.0011099795,5.7154745e-07,8.564408e-05,8.896929e-06,5.598587e-07,7.159276e-05,0.0,0.0,0.0,0.0,0.0,0.0,0.0,4.717588e-06,0.0,0.0,0.0,0.0,0.0016007612,0.00083309924,0.0016007612,6.891441e-06,0.0014382261,0.00042360698,1.3463483e-07,0.0,0.0,0.0,0.0,0.0,0.0
1592860000,1592704000,0.0011099795,5.7154745e-07,8.564408e-05,8.896929e-06,5.598587e-07,7.159276e-05,0.0,0.0,0.0,0.0,0.0,0.0,0.0,7.02228e-06,0.0,0.0,0.0,0.0,0.0016007612,0.00083309924,0.0016007612,6.891441e-06,0.002198796,0.00051827106,3.1043385e-08,0.0,0.0,0.0,0.0,0.0,0.0
1592868000,1592712000,0.0011099795,5.7154745e-07,8.564408e-05,8.896929e-06,5.598587e-07,7.159276e-05,0.0,0.0,0.0,0.0,0.0,0.0,0.0,7.02228e-06,0.0,0.0,0.0,0.0,0.0016007612,0.00083309924,0.0016007612,6.891441e-06,0.0001320322,0.0022998631,4.213922e-08,0.0,0.0,0.0,0.0,0.0,0.0
1592876000,1592720000,0.0011099795,5.7154745e-07,8.564408e-05,8.896929e-06,5.598587e-07,7.159276e-05,0.0,0.0,0.0,0.0,0.0,0.0,0.0,7.02228e-06,0.0,0.0,0.0,0.0,2.686355e-05,2.984775e-07,2.686355e-05,8.786985e-06,0.0013024117,0.0015547206,1.16401736e-07,0.0,0.0,0.0,0.0,0.0,0.0
1592884000,1592728000,0.0011099795,5.7154745e-07,8.564408e-05,8.896929e-06,5.598587e-07,7.159276e-05,0.0,0.0,0.0,0.0,0.0,0.0,0.0,7.02228e-06,0.0,0.0,0.0,0.0,2.686355e-05,2.984775e-07,2.686355e-05,8.786985e-06,1.0032766e-05,0.00085365854,7.258336e-10,0.0,0.0,0.0,0.0,0.0,0.0
1592900000,1592744000,0.0011099795,5.7154745e-07,8.564408e-05,8.896929e-06,5.598587e-07,7.159276e-05,0.0,0.0,0.0,0.0,0.0,0.0,0.0,7.02228e-06,0.0,0.0,0.0,0.0,2.686355e-05,2.984775e-07,2.686355e-05,8.786985e-06,0.00029995095,0.0012481771,5.98377e-08,0.0,0.0,0.0,0.0,0.0,0.0
1592908000,1592752000,0.0011099795,5.7154745e-07,8.564408e-05,8.896929e-06,5.598587e-07,7.159276e-05,0.0,0.0,0.0,0.0,0.0,0.0,0.0,7.02228e-06,0.0,0.0,0.0,0.0,2.686355e-05,2.984775e-07,2.686355e-05,8.786985e-06,6.2787345e-05,8.089056e-07,5.5712235e-10,0.0,0.0,0.0,0.0,0.0,0.0
1592916000,1592760000,0.0011099795,5.7154745e-07,8.564408e-05,8.896929e-06,5.598587e-07,7.159276e-05,0.0,0.0,0.0,0.0,0.0,0.0,0.0,7.02228e-06,0.0,0.0,0.0,0.0,2.686355e-05,2.984775e-07,2.686355e-05,8.786985e-06,0.00037883714,0.00015102072,1.6575541e-10,0.0,0.0,0.0,0.0,0.0,0.0
1592924000,1592768000,0.0011099795,5.7154745e-07,8.564408e-05,8.896929e-06,5.598587e-07,7.159276e-05,0.0,0.0,0.0,0.0,0.0,0.0,0.0,7.02228e-06,0.0,0.0,0.0,0.0,2.686355e-05,2.984775e-07,2.686355e-05,8.786985e-06,0.0001240385,0.001476085,5.287859e-09,0.0,0.0,0.0,0.0,0.0,0.0
1592940000,1592784000,0.0011099795,5.7154745e-07,8.564408e-05,8.896929e-06,5.598587e-07,7.159276e-05,0.0,0.0,0.0,0.0,0.0,0.0,0.0,7.4790885e-09,0.0,0.0,0.0,0.0,2.686355e-05,2.984775e-07,2.686355e-05,8.786985e-06,0.004078394,0.00019504124,1.10618714e-07,0.0,0.0,0.0,0.0,0.0,0.0
1592948000,1592792000,0.0011099795,5.7154745e-07,8.564408e-05,8.896929e-06,5.598587e-07,7.159276e-05,0.0,0.0,0.0,0.0,0.0,0.0,0.0,7.4790885e-09,0.0,0.0,0.0,0.0,0.00043283205,0.00043283205,4.3073254e-05,0.00011208509,0.001482779,0.00031493732,6.041091e-09,0.0,0.0,0.0,0.0,0.0,0.0
1592956000,1592800000,0.0011099795,5.7154745e-07,8.564408e-05,8.896929e-06,5.598587e-07,7.159276e-05,0.0,0.0,0.0,0.0,0.0,0.0,0.0,7.4790885e-09,0.0,0.0,0.0,0.0,0.00043283205,0.00043283205,4.3073254e-05,0.00011208509,9.119965e-05,0.00063223124,2.627587e-09,0.0,0.0,0.0,0.0,0.0,0.0
1592964000,1592808000,0.0011099795,5.7154745e-07,8.564408e-05,8.896929e-06,5.598587e-07,7.159276e-05,0.0,0.0,0.0,0.0,0.0,0.0,0.0,7.4790885e-09,0.0,0.0,0.0,0.0,0.00043283205,0.00043283205,4.3073254e-05,0.00011208509,0.00026278966,5.6273642e-05,3.7837253e-09,0.0,0.0,0.0,0.0,0.0,0.0
1592980000,1592824000,0.0011099795,5.7154745e-07,8.564408e-05,8.896929e-06,5.598587e-07,7.159276e-05,0.0,0.0,0.0,0.0,0.0,0.0,0.0,7.4790885e-09,0.0,0.0,0.0,0.0,0.00043283205,0.00043283205,4.3073254e-05,0.00011208509,0.00069871417,0.0013199648,1.02190825e-08,0.0,0.0,0.0,0.0,0.0,0.0
1592988000,1592832000,0.0011099795,5.7154745e-07,8.564408e-05,8.896929e-06,5.598587e-07,7.159276e-05,0.0,0.0,0.0,0.0,0.0,0.0,0.0,7.4790885e-09,0.0,0.0,0.0,0.0,0.00043283205,0.00043283205,4.3073254e-05,0.00011208509,0.0012224523,8.481521e-05,7.232666e-08,0.0,0.0,0.0,0.0,0.0,0.0
1592996000,1592840000,0.0011099795,5.7154745e-07,8.564408e-05,8.896929e-06,5.598587e-07,7.159276e-05,0.0,0.0,0.0,0.0,0.0,0.0,0.0,7.4790885e-09,0.0,0.0,0.0,0.0,0.00043283205,0.00043283205,4.3073254e-05,0.00011208509,0.00059939956,5.8767448e-08,1.8081664e-08,0.0,0.0,0.0,0.0,0.0,0.0
1593004000,1592848000,0.0011099795,5.7154745e-07,8.564408e-05,8.896929e-06,5.598587e-07,7.159276e-05,0.0,0.0,0.0,0.0,0.0,0.0,0.0,4.582448e-05,0.0,0.0,0.0,0.0,0.00043283205,0.00043283205,4.3073254e-05,0.00011208509,0.00017660382,0.0015151682,1.1349181e-07,0.0,0.0,0.0,0.0,0.0,0.0
1593020000,1592864000,0.0011099795,5.7154745e-07,8.564408e-05,8.896929e-06,5.598587e-07,7.159276e-05,0.0,0.0,0.0,0.0,0.0,0.0,0.0,4.582448e-05,0.0,0.0,0.0,0.0,4.150891e-05,4.5455845e-06,9.269536e-07,4.150891e-05,1.9568432e-05,1.0021195e-05,2.4760993e-10,0.0,0.0,0.0,0.0,0.0,0.0
1593028000,1592872000,0.0011099795,5.7154745e-07,8.564408e-05,8.896929e-06,5.598587e-07,7.159276e-05,0.0,0.0,0.0,0.0,0.0,0.0,0.0,4.582448e-05,0.0,0.0,0.0,0.0,4.150891e-05,4.5455845e-06,9.269536e-07,4.150891e-05,7.378345e-06,3.9872557e-05,2.9467628e-10,0.0,0.0,0.0,0.0,0.0,0.0
1593036000,1592880000,0.0011099795,5.7154745e-07,8.564408e-05,8.896929e-06,5.598587e-07,7.159276e-05,0.0,0.0,0.0,0.0,0.0,0.0,0.0,4.582448e-05,0.0,0.0,0.0,0.0,4.150891e-05,4.5455845e-06,9.269536e-07,4.150891e-05,0.0011818962,0.00082692417,6.8281224e-08,0.0,0.0,0.0,0.0,0.0,0.0
1593044000,1592888000,0.0011099795,5.7154745e-07,8.564408e-05,8.896929e-06,5.598587e-07,7.159276e-05,0.0,0.0,0.0,0.0,0.0,0.0,0.0,4.582448e-05,0.0,0.0,0.0,0.0,4.150891e-05,4.5455845e-06,9.269536e-07,4.150891e-05,3.4257162e-06,0.00045524153,1.4551915e-11,0.0,0.0,0.0,0.0,0.0,0.0
1593060000,1592904000,0.0011099795,5.7154745e-07,8.564408e-05,8.896929e-06,5.598587e-07,7.159276e-05,0.0,0.0,0.0,0.0,0.0,0.0,0.0,2.6029866e-07,0.0,0.0,0.0,0.0,4.150891e-05,4.5455845e-06,9.269536e-07,4.150891e-05,2.9682125e-05,0.00017425494,5.459242e-10,0.0,0.0,0.0,0.0,0.0,0.0
1593068000,1592912000,0.0011099795,5.7154745e-07,8.564408e-05,8.896929e-06,5.598587e-07,7.159276e-05,0.0,0.0,0.0,0.0,0.0,0.0,0.0,2.6029866e-07,0.0,0.0,0.0,0.0,4.150891e-05,4.5455845e-06,9.269536e-07,4.150891e-05,2.4278297e-05,0.00028521768,9.369842e-09,0.0,0.0,0.0,0.0,0.0,0.0
1593076000,1592920000,0.0011099795,5.7154745e-07,8.564408e-05,8.896929e-06,5.598587e-07,7.159276e-05,0.0,0.0,0.0,0.0,0.0,0.0,0.0,2.6029866e-07,0.0,0.0,0.0,0.0,4.150891e-05,4.5455845e-06,9.269536e-07,4.150891e-05,1.6240298e-05,0.00018075603,4.980393e-09,0.0,0.0,0.0,0.0,0.0,0.0
1593084000,1592928000,0.0011099795,5.7154745e-07,8.564408e-05,8.896929e-06,5.598587e-07,7.159276e-05,0.0,0.0,0.0,0.0,0.0,0.0,0.0,2.6029866e-07,0.0,0.0,0.0,0.0,0.00016444191,6.220866e-06,0.00016444191,6.2138904e-05,2.3817385e-05,0.0017069386,9.695725e-09,0.0,0.0,0.0,0.0,0.0,0.0
1593100000,1592944000,0.0011099795,5.7154745e-07,8.564408e-05,8.896929e-06,5.598587e-07,7.159276e-05,0.0,0.0,0.0,0.0,0.0,0.0,0.0,2.6029866e-07,0.0,0.0,0.0,0.0,0.00016444191,6.220866e-06,0.00016444191,6.2138904e-05,0.0011257381,0.0008739588,8.779409e-09,0.0,0.0,0.0,0.0,0.0,0.0
1593108000,1592952000,0.0011099795,5.7154745e-07,8.564408e-05,8.896929e-06,5.598587e-07,7.159276e-05,0.0,0.0,0.0,0.0,0.0,0.0,0.0,2.6029866e-07,0.0,0.0,0.0,0.0,0.00016444191,6.220866e-06,0.00016444191,6.2138904e-05,0.0018408605,0.00013327299,2.9304147e-08,0.0,0.0,0.0,0.0,0.0,0.0
1593116000,1592960000,0.0011099795,5.7154745e-07,8.564408e-05,8.896929e-06,5.598587e-07,7.159276e-05,0.0,0.0,0.0,0.0,0.0,0.0,0.0,2.6029866e-07,0.0,0.0,0.0,0.0,0.00016444191,6.220866e-06,0.00016444191,6.2138904e-05,0.00097412005,0.00028538663,1.3306476e-09,0.0,0.0,0.0,0.0,0.0,0.0
1593124000,1592968000,0.0011099795,5.7154745e-07,8.564408e-05,8.896929e-06,5.598587e-07,7.159276e-05,0.0,0.0,0.0,0.0,0.0,0.0,0.0,1.9969704e-05,0.0,0.0,0.0,0.0,0.00016444191,6.220866e-06,0.00016444191,6.2138904e-05,0.00028033668,0.00044390562,5.8572027e-09,0.0,0.0,0.0,0.0,0.0,0.0
1593140000,1592984000,0.0011099795,5.7154745e-07,8.564408e-05,8.896929e-06,5.598587e-07,7.159276e-05,0.0,0.0,0.0,0.0,0.0,0.0,0.0,1.9969704e-05,0.0,0.0,0.0,0.0,0.00016444191,6.220866e-06,0.00016444191,6.2138904e-05,0.0008119998,0.0024501432,2.1437722e-07,0.0,0.0,0.0,0.0,0.0,0.0
1593148000,1592992000,0.0011099795,5.7154745e-07,8.564408e-05,8.896929e-06,5.598587e-07,7.159276e-05,0.0,0.0,0.0,0.0,0.0,0.0,0.0,1.9969704e-05,0.0,0.0,0.0,0.0,0.00016444191,6.220866e-06,0.00016444191,6.2138904e-05,0.0005721859,0.00016848929,4.0827217e-09,0.0,0.0,0.0,0.0,0.0,0.0
1593156000,1593000000,0.0011099795,5.7154745e-07,8.564408e-05,8.896929e-06,5.598587e-07,7.159276e-05,0.0,0.0,0.0,0.0,0.0,0.0,0.0,1.9969704e-05,0.0,0.0,0.0,0.0,0.00016147956,0.00016147956,0.00011500782,1.0661761e-06,0.00016243538,5.235191e-06,3.842615e-11,0.0,0.0,0.0,0.0,0.0,0.0
1593164000,1593008000,0.0011099795,5.7154745e-07,8.564408e-05,8.896929e-06,5.598587e-07,7.159276e-05,0.0,0.0,0.0,0.0,0.0,0.0,0.0,1.9969704e-05,0.0,0.0,0.0,0.0,0.00016147956,0.00016147956,0.00011500782,1.0661761e-06,0.0011293837,1.913129e-05,1.7209913e-09,0.0,0.0,0.0,0.0,0.0,0.0
1593180000,1593024000,0.0011099795,5.7154745e-07,8.564408e-05,8.896929e-06,5.598587e-07,7.159276e-05,0.0,0.0,0.0,0.0,0.0,0.0,0.0,1.9969704e-05,0.0,0.0,0.0,0.0,0.00016147956,0.00016147956,0.00011500782,1.0661761e-06,0.0006915194,3.0107965e-05,2.7512215e-11,0.0,0.0,0.0,0.0,0.0,0.0
1593188000,1593032000,0.0011099795,5.7154745e-07,8.564408e-05,8.896929e-06,5.598587e-07,7.159276e-05,0.0,0.0,0.0,0.0,0.0,0.0,0.0,1.9969704e-05,0.0,0.0,0.0,0.0,0.00016147956,0.00016147956,0.00011500782,1.0661761e-06,2.7515029e-05,0.00039219676,1.3370993e-08,0.0,0.0,0.0,0.0,0.0,0.0
1593196000,1593040000,0.0009865843,0.0001276641,3.4678516e-05,1.2656915e-05,9.949223e-07,6.12759e-05,0.0,0.0,0.0,0.0,0.0,0.0,0.0,8.033902e-06,0.0,0.0,0.0,0.0,0.00016147956,0.00016147956,0.00011500782,1.0661761e-06,1.1779234e-05,5.960426e-05,2.9467628e-10,0.0,0.0,0.0,0.0,0.0,0.0
1593204000,1593048000,0.0009865843,0.0001276641,3.4678516e-05,1.2656915e-05,9.949223e-07,6.12759e-05,0.0,0.0,0.0,0.0,0.0,0.0,0.0,8.033902e-06,0.0,0.0,0.0,0.0,0.00016147956,0.00016147956,0.00011500782,1.0661761e-06,0.00050868565,0.00046494577,2.551701e-10,0.0,0.0,0.0,0.0,0.0,0.0
1593220000,1593064000,0.0009865843,0.0001276641,3.4678516e-05,1.2656915e-05,9.949223e-07,6.12759e-05,0.0,0.0,0.0,0.0,0.0,0.0,0.0,8.033902e-06,0.0,0.0,0.0,0.0,0.00016147956,0.00016147956,0.00011500782,1.0661761e-06,0.00012380442,1.2003695e-06,2.6284397e-10,0.0,0.0,0.0,0.0,0.0,0.0
1593228000,1593072000,0.0009865843,0.0001276641,3.4678516e-05,1.2656915e-05,9.949223e-07,6.12759e-05,0.0,0.0,0.0,0.0,0.0,0.0,0.0,8.033902e-06,0.0,0.0,0.0,0.0,0.0009873195,1.3677736e-06,0.0005138673,0.0009873195,0.00011280304,0.0028008928,5.2386895e-08,0.0,0.0,0.0,0.0,0.0,0.0
1593236000,1593080000,0.0009865843,0.0001276641,3.4678516e-05,1.2656915e-05,9.949223e-07,6.12759e-05,0.0,0.0,0.0,0.0,0.0,0.0,0.0,8.033902e-06,0.0,0.0,0.0,0.0,0.0009873195,1.3677736e-06,0.0005138673,0.0009873195,0.0015719594,8.314941e-05,8.502235e-08,0.0,0.0,0.0,0.0,0.0,0.0
1593244000,1593088000,0.0009865843,0.0001276641,3.4678516e-05,1.2656915e-05,9.949223e-07,6.12759e-05,0.0,0.0,0.0,0.0,0.0,0.0,0.0,8.033902e-06,0.0,0.0,0.0,0.0,0.0009873195,1.3677736e-06,0.0005138673,0.0009873195,0.0002640075,0.00074829685,6.508003e-10,0.0,0.0,0.0,0.0,0.0,0.0
1593260000,1593104000,0.0009865843,0.0001276641,3.4678516e-05,1.2656915e-05,9.949223e-07,6.12759e-05,0.0,0.0,0.0,0.0,0.0,0.0,0.0,8.033902e-06,0.0,0.0,0.0,0.0,0.0009873195,1.3677736e-06,0.0005138673,0.0009873195,0.00010105566,0.0009042752,8.425616e-09,0.0,0.0,0.0,0.0,0.0,0.0
1593268000,1593112000,0.0009865843,0.0001276641,3.4678516e-05,1.2656915e-05,9.949223e-07,6.12759e-05,0.0,0.0,0.0,0.0,0.0,0.0,0.0,4.6450377e-06,0.0,0.0,0.0,0.0,0.0009873195,1.3677736e-06,0.0005138673,0.0009873195,0.0007278755,0.001446108,7.155927e-08,0.0,0.0,0.0,0.0,0.0,0.0
1593276000,1593120000,0.0009865843,0.0001276641,3.4678516e-05,1.2656915e-05,9.949223e-07,6.12759e-05,0.0,0.0,0.0,0.0,0.0,0.0,0.0,4.6450377e-06,0.0,0.0,0.0,0.0,0.0009873195,1.3677736e-06,0.0005138673,0.0009873195,0.00026819215,0.0023929768,7.768e-08,0.0,0.0,0.0,0.0,0.0,0.0
1593284000,1593128000,0.0009865843,0.0001276641,3.4678516e-05,1.2656915e-05,9.949223e-07,6.12759e-05,0.0,0.0,0.0,0.0,0.0,0.0,0.0,4.6450377e-06,0.0,0.0,0.0,0.0,0.0009873195,1.3677736e-06,0.0005138673,0.0009873195,1.0999213e-05,0.0019092215,2.7063152e-08,0.0,0.0,0.0,0.0,0.0,0.0
1593300000,1593144000,0.0009865843,0.0001276641,3.4678516e-05,1.2656915e-05,9.949223e-07,6.12759e-05,0.0,0.0,0.0,0.0,0.0,0.0,0.0,4.6450377e-06,0.0,0.0,0.0,0.0,0.00024203437,5.650183e-07,0.00024203437,3.2771075e-07,7.538845e-05,0.00083059067,1.0668941e-09,0.0,0.0,0.0,0.0,0.0,0.0
1593308000,1593152000,0.0009865843,0.0001276641,3.4678516e-05,1.2656915e-05,9.949223e-07,6.12759e-05,0.0,0.0,0.0,0.0,0.0,0.0,0.0,4.6450377e-06,0.0,0.0,0.0,0.0,0.00024203437,5.650183e-07,0.00024203437,3.2771075e-07,0.00016784013,0.001435544,7.908568e-09,0.0,0.0,0.0,0.0,0.0,0.0
1593316000,1593160000,0.0009865843,0.0001276641,3.4678516e-05,1.2656915e-05,9.949223e-07,6.12759e-05,0.0,0.0,0.0,0.0,0.0,0.0,0.0,4.6450377e-06,0.0,0.0,0.0,0.0,0.00024203437,5.650183e-07,0.00024203437,3.2771075e-07,0.00032088178,0.00071562966,5.9139893e-10,0.0,0.0,0.0,0.0,0.0,0.0
1593324000,1593168000,0.0009865843,0.0001276641,3.4678516e-05,1.2656915e-05,9.949223e-07,6.12759e-05,0.0,0.0,0.0,0.0,0.0,0.0,0.0,2.6746574e-07,0.0,0.0,0.0,0.0,0.00024203437,5.650183e-07,0.00024203437,3.2771075e-07,0.00093469315,1.5839755e-06,8.1854523e-10,0.0,0.0,0.0,0.0,0.0,0.0
1593340000,1593184000,0.0009865843,0.0001276641,3.4678516e-05,1.2656915e-05,9.949223e-07,6.12759e-05,0.0,0.0,0.0,0.0,0.0,0.0,0.0,2.6746574e-07,0.0,0.0,0.0,0.0,0.00024203437,5.650183e-07,0.00024203437,3.2771075e-07,0.00066864275,3.1566222e-07,1.1510792e-10,0.0,0.0,0.0,0.0,0.0,0.0
1593348000,1593192000,0.0009865843,0.0001276641,3.4678516e-05,1.2656915e-05,9.949223e-07,6.12759e-05,0.0,0.0,0.0,0.0,0.0,0.0,0.0,2.6746574e-07,0.0,0.0,0.0,0.0,0.00024203437,5.650183e-07,0.00024203437,3.2771075e-07,3.395962e-05,3.3846667e-05,4.106937e-10,0.0,0.0,0.0,0.0,0.0,0.0
1593356000,1593200000,0.0009865843,0.0001276641,3.4678516e-05,1.2656915e-05,9.949223e-07,6.12759e-05,0.0,0.0,0.0,0.0,0.0,0.0,0.0,2.6746574e-07,0.0,0.0,0.0,0.0,0.00024203437,5.650183e-07,0.00024203437,3.2771075e-07,1.742377e-06,9.2243936e-05,1.2028067e-10,0.0,0.0,0.0,0.0,0.0,0.0
1593364000,1593208000,0.0009865843,0.0001276641,3.4678516e-05,1.2656915e-05,9.949223e-07,6.12759e-05,0.0,0.0,0.0,0.0,0.0,0.0,0.0,2.6746574e-07,0.0,0.0,0.0,0.0,0.00024203437,5.650183e-07,0.00024203437,3.2771075e-07,8.57838e-07,3.3130184e-06,2.046363e-12,0.0,0.0,0.0,0.0,0.0,0.0
1593380000,1593224000,0.0009865843,0.0001276641,3.4678516e-05,1.2656915e-05,9.949223e-07,6.12759e-05,0.0,0.0,0.0,0.0,0.0,0.0,0.0,2.6746574e-07,0.0,0.0,0.0,0.0,0.00044832678,0.00044832678,0.00020288175,1.1625537e-05,0.001687665,2.007492e-05,7.656183e-09,0.0,0.0,0.0,0.0,0.0,0.0
1593388000,1593232000,0.0009865843,0.0001276641,3.4678516e-05,1.2656915e-05,9.949223e-07,6.12759e-05,0.0,0.0,0.0,0.0,0.0,0.0,0.0,8.716705e-06,0.0,0.0,0.0,0.0,0.00044832678,0.00044832678,0.00020288175,1.1625537e-05,0.00015579519,0.0001459193,4.2041393e-10,0.0,0.0,0.0,0.0,0.0,0.0
1593396000,1593240000,0.0009865843,0.0001276641,3.4678516e-05,1.2656915e-05,9.949223e-07,6.12759e-05,0.0,0.0,0.0,0.0,0.0,0.0,0.0,8.716705e-06,0.0,0.0,0.0,0.0,0.00044832678,0.00044832678,0.00020288175,1.1625537e-05,0.00031502004,0.00029228628,3.5527137e-11,0.0,0.0,0.0,0.0,0.0,0.0
1593404000,1593248000,0.0009865843,0.0001276641,3.4678516e-05,1.2656915e-05,9.949223e-07,6.12759e-05,0.0,0.0,0.0,0.0,0.0,0.0,0.0,8.716705e-06,0.0,0.0,0.0,0.0,0.00044832678,0.00044832678,0.00020288175,1.1625537e-05,5.74528e-05,0.0006933217,3.6379788e-10,0.0,0.0,0.0,0.0,0.0,0.0
1593420000,1593264000,0.0009865843,0.0001276641,3.4678516e-05,1.2656915e-05,9.949223e-07,6.12759e-05,0.0,0.0,0.0,0.0,0.0,0.0,0.0,8.716705e-06,0.0,0.0,0.0,0.0,0.00044832678,0.00044832678,0.00020288175,1.1625537e-05,0.0015672802,7.1863674e-06,8.338304e-09,0.0,0.0,0.0,0.0,0.0,0.0
1593428000,1593272000,0.0009865843,0.0001276641,3.4678516e-05,1.2656915e-05,9.949223e-07,6.12759e-05,0.0,0.0,0.0,0.0,0.0,0.0,0.0,8.716705e-06,0.0,0.0,0.0,0.0,0.00044832678,0.00044832678,0.00020288175,1.1625537e-05,0.0029862188,0.00070374436,6.70409e-08,0.0,0.0,0.0,0.0,0.0,0.0
1593436000,1593280000,0.0009865843,0.0001276641,3.4678516e-05,1.2656915e-05,9.949223e-07,6.12759e-05,0.0,0.0,0.0,0.0,0.0,0.0,0.0,8.716705e-06,0.0,0.0,0.0,0.0,0.00044832678,0.00044832678,0.00020288175,1.1625537e-05,0.00011566011,8.393108e-05,5.1159077e-09,0.0,0.0,0.0,0.0,0.0,0.0
1593444000,1593288000,0.0009865843,0.0001276641,3.4678516e-05,1.2656915e-05,9.949223e-07,6.12759e-05,0.0,0.0,0.0,0.0,0.0,0.0,0.0,1.0061338e-05,0.0,0.0,0.0,0.0,4.798107e-05,6.173976e-09,2.941697e-06,4.798107e-05,1.6802913e-06,4.9083053e-05,5.684342e-10,0.0,0.0,0.0,0.0,0.0,0.0
1593460000,1593304000,0.0009865843,0.0001276641,3.4678516e-05,1.2656915e-05,9.949223e-07,6.12759e-05,0.0,0.0,0.0,0.0,0.0,0.0,0.0,1.0061338e-05,0.0,0.0,0.0,0.0,4.798107e-05,6.173976e-09,2.941697e-06,4.798107e-05,0.000101678714,0.0018222795,3.396559e-08,0.0,0.0,0.0,0.0,0.0,0.0
1593468000,1593312000,0.0009865843,0.0001276641,3.4678516e-05,1.2656915e-05,9.949223e-07,6.12759e-05,0.0,0.0,0.0,0.0,0.0,0.0,0.0,1.0061338e-05,0.0,0.0,0.0,0.0,4.798107e-05,6.173976e-09,2.941697e-06,4.798107e-05,0.00017629935,0.0011437605,1.7826096e-08,0.0,0.0,0.0,0.0,0.0,0.0
1593476000,1593320000,0.0009865843,0.0001276641,3.4678516e-05,1.2656915e-05,9.949223e-07,6.12759e-05,0.0,0.0,0.0,0.0,0.0,0.0,0.0,1.0061338e-05,0.0,0.0,0.0,0.0,4.798107e-05,6.173976e-09,2.941697e-06,4.798107e-05,0.0003369542,6.747571e-05,2.551701e-10,0.0,0.0,0.0,0.0,0.0,0.0
1593484000,1593328000,0.0009865843,0.0001276641,3.4678516e-05,1.2656915e-05,9.949223e-07,6.12759e-05,0.0,0.0,0.0,0.0,0.0,0.0,0.0,1.0061338e-05,0.0,0.0,0.0,0.0,4.798107e-05,6.173976e-09,2.941697e-06,4.798107e-05,8.143098e-05,0.00027430052,2.3283064e-10,0.0,0.0,0.0,0.0,0.0,0.0
1593500000,1593344000,0.0009865843,0.0001276641,3.4678516e-05,1.2656915e-05,9.949223e-07,6.12759e-05,0.0,0.0,0.0,0.0,0.0,0.0,0.0,1.0061338e-05,0.0,0.0,0.0,0.0,4.798107e-05,6.173976e-09,2.941697e-06,4.798107e-05,7.968923e-05,0.0010009411,9.462383e-09,0.0,0.0,0.0,0.0,0.0,0.0
1593508000,1593352000,0.0009865843,0.0001276641,3.4678516e-05,1.2656915e-05,9.949223e-07,6.12759e-05,0.0,0.0,0.0,0.0,0.0,0.0,0.0,5.386673e-06,0.0,0.0,0.0,0.0,0.00024598223,0.00024598223,3.974502e-05,3.7015227e-05,0.00025298883,0.00015575787,1.484301e-08,0.0,0.0,0.0,0.0,0.0,0.0
1593516000,1593360000,0.0009865843,0.0001276641,3.4678516e-05,1.2656915e-05,9.949223e-07,6.12759e-05,0.0,0.0,0.0,0.0,0.0,0.0,0.0,5.386673e-06,0.0,0.0,0.0,0.0,0.00024598223,0.00024598223,3.974502e-05,3.7015227e-05,0.001315602,9.859172e-05,9.269621e-08,0.0,0.0,0.0,0.0,0.0,0.0
1593524000,1593368000,0.0009865843,0.0001276641,3.4678516e-05,1.2656915e-05,9.949223e-07,6.12759e-05,0.0,0.0,0.0,0.0,0.0,0.0,0.0,5.386673e-06,0.0,0.0,0.0,0.0,0.00024598223,0.00024598223,3.974502e-05,3.7015227e-05,0.00013162185,0.0010313389,2.9059777e-08,0.0,0.0,0.0,0.0,0.0,0.0
1593540000,1593384000,0.0009865843,0.0001276641,3.4678516e-05,1.2656915e-05,9.949223e-07,6.12759e-05,0.0,0.0,0.0,0.0,0.0,0.0,0.0,5.386673e-06,0.0,0.0,0.0,0.0,0.00024598223,0.00024598223,3.974502e-05,3.7015227e-05,0.00018017805,4.035856e-05,3.192838e-09,0.0,0.0,0.0,0.0,0.0,0.0
1593548000,1593392000,0.0009865843,0.0001276641,3.4678516e-05,1.2656915e-05,9.949223e-07,6.12759e-05,0.0,0.0,0.0,0.0,0.0,0.0,0.0,5.386673e-06,0.0,0.0,0.0,0.0,0.00024598223,0.00024598223,3.974502e-05,3.7015227e-05,8.244741e-06,0.0003865675,6.227822e-09,0.0,0.0,0.0,0.0,0.0,0.0
1593556000,1593400000,0.0009865843,0.0001276641,3.4678516e-05,1.2656915e-05,9.949223e-07,6.12759e-05,0.0,0.0,0.0,0.0,0.0,0.0,0.0,5.386673e-06,0.0,0.0,0.0,0.0,0.00024598223,0.00024598223,3.974502e-05,3.7015227e-05,7.873844e-05,0.00032210237,1.3096724e-08,0.0,0.0,0.0,0.0,0.0,0.0
1593564000,1593408000,0.0009865843,0.0001276641,3.4678516e-05,1.2656915e-05,9.949223e-07,6.12759e-05,0.0,0.0,0.0,0.0,0.0,0.0,0.0,5.386673e-06,0.0,0.0,0.0,0.0,0.00024598223,0.00024598223,3.974502e-05,3.7015227e-05,0.000266918,0.00062065694,1.3042211e-08,0.0,0.0,0.0,0.0,0.0,0.0
1593580000,1593424000,0.0009865843,0.0001276641,3.4678516e-05,1.2656915e-05,9.949223e-07,6.12759e-05,0.0,0.0,0.0,0.0,0.0,0.0,0.0,9.232176e-06,0.0,0.0,0.0,0.0,0.00011112141,0.00011112141,1.2224834e-05,2.4672554e-05,0.00062249607,0.00013402961,1.4734383e-09,0.0,0.0,0.0,0.0,0.0,0.0
1593588000,1593432000,0.0009865843,0.0001276641,3.4678516e-05,1.2656915e-05,9.949223e-07,6.12759e-05,0.0,0.0,0.0,0.0,0.0,0.0,0.0,9.232176e-06,0.0,0.0,0.0,0.0,0.00011112141,0.00011112141,1.2224834e-05,2.4672554e-05,0.0007698349,1.9280471e-06,1.3648105e-10,0.0,0.0,0.0,0.0,0.0,0.0
1593596000,1593440000,0.0007168053,4.77118e-05,4.354151e-08,1.9508132e-05,4.0726306e-07,6.395658e-05,0.0,0.0,0.0,0.0,0.0,0.0,0.0,9.232176e-06,0.0,0.0,0.0,0.0,0.00011112141,0.00011112141,1.2224834e-05,2.4672554e-05,0.00051196734,7.248719e-05,2.4760993e-08,0.0,0.0,0.0,0.0,0.0,0.0
1593604000,1593448000,0.0007168053,4.77118e-05,4.354151e-08,1.9508132e-05,4.0726306e-07,6.395658e-05,0.0,0.0,0.0,0.0,0.0,0.0,0.0,9.232176e-06,0.0,0.0,0.0,0.0,0.00011112141,0.00011112141,1.2224834e-05,2.4672554e-05,0.0014354828,0.0005476545,1.1157232e-07,0.0,0.0,0.0,0.0,0.0,0.0
1593620000,1593464000,0.0007168053,4.77118e-05,4.354151e-08,1.9508132e-05,4.0726306e-07,6.395658e-05,0.0,0.0,0.0,0.0,0.0,0.0,0.0,9.232176e-06,0.0,0.0,0.0,0.0,0.00011112141,0.00011112141,1.2224834e-05,2.4672554e-05,4.800312e-07,0.0009843354,2.651683e-08,0.0,0.0,0.0,0.0,0.0,0.0
1593628000,1593472000,0.0007168053,4.77118e-05,4.354151e-08,1.9508132e-05,4.0726306e-07,6.395658e-05,0.0,0.0,0.0,0.0,0.0,0.0,0.0,9.232176e-06,0.0,0.0,0.0,0.0,0.00011112141,0.00011112141,1.2224834e-05,2.4672554e-05,7.036985e-06,0.00046326904,4.7072035e-10,0.0,0.0,0.0,0.0,0.0,0.0
1593636000,1593480000,0.0007168053,4.77118e-05,4.354151e-08,1.9508132e-05,4.0726306e-07,6.395658e-05,0.0,0.0,0.0,0.0,0.0,0.0,0.0,9.232176e-06,0.0,0.0,0.0,0.0,0.00011112141,0.00011112141,1.2224834e-05,2.4672554e-05,0.00037890807,7.3616343e-06,1.3042211e-08,0.0,0.0,0.0,0.0,0.0,0.0
1593644000,1593488000,0.0007168053,4.77118e-05,4.354151e-08,1.9508132e-05,4.0726306e-07,6.395658e-05,0.0,0.0,0.0,0.0,0.0,0.0,0.0,9.232176e-06,0.0,0.0,0.0,0.0,0.00011112141,0.00011112141,1.2224834e-05,2.4672554e-05,2.0697062e-05,3.0922715e-06,2.0463631e-10,0.0,0.0,0.0,0.0,0.0,0.0
1593660000,1593504000,0.0007168053,4.77118e-05,4.354151e-08,1.9508132e-05,4.0726306e-07,6.395658e-05,0.0,0.0,0.0,0.0,0.0,0.0,0.0,2.310777e-05,0.0,0.0,0.0,0.0,0.00010589873,0.00010589873,6.2771665e-05,1.3752186e-05,0.0026552568,0.00029331248,4.7072035e-08,0.0,0.0,0.0,0.0,0.0,0.0
1593668000,1593512000,0.0007168053,4.77118e-05,4.354151e-08,1.9508132e-05,4.0726306e-07,6.395658e-05,0.0,0.0,0.0,0.0,0.0,0.0,0.0,2.310777e-05,0.0,0.0,0.0,0.0,0.00010589873,0.00010589873,6.2771665e-05,1.3752186e-05,0.00058734516,0.0005051303,6.8839654e-09,0.0,0.0,0.0,0.0,0.0,0.0
1593676000,1593520000,0.0007168053,4.77118e-05,4.354151e-08,1.9508132e-05,4.0726306e-07,6.395658e-05,0.0,0.0,0.0,0.0,0.0,0.0,0.0,2.310777e-05,0.0,0.0,0.0,0.0,0.00010589873,0.00010589873,6.2771665e-05,1.3752186e-05,0.00012643672,0.0008918006,1.6883916e-08,0.0,0.0,0.0,0.0,0.0,0.0
1593684000,1593528000,0.0007168053,4.77118e-05,4.354151e-08,1.9508132e-05,4.0726306e-07,6.395658e-05,0.0,0.0,0.0,0.0,0.0,0.0,0.0,2.310777e-05,0.0,0.0,0.0,0.0,0.00010589873,0.00010589873,6.2771665e-05,1.3752186e-05,0.00023317638,0.00014106874,6.148184e-10,0.0,0.0,0.0,0.0,0.0,0.0
1593700000,1593544000,0.0007168053,4.77118e-05,4.354151e-08,1.9508132e-05,4.0726306e-07,6.395658e-05,0.0,0.0,0.0,0.0,0.0,0.0,0.0,2.310777e-05,0.0,0.0,0.0,0.0,0.00010589873,0.00010589873,6.2771665e-05,1.3752186e-05,2.1999464e-05,0.0011313957,5.2532414e-09,0.0,0.0,0.0,0.0,0.0,0.0
1593708000,1593552000,0.0007168053,4.77118e-05,4.354151e-08,1.9508132e-05,4.0726306e-07,6.395658e-05,0.0,0.0,0.0,0.0,0.0,0.0,0.0,2.310777e-05,0.0,0.0,0.0,0.0,0.00010589873,0.00010589873,6.2771665e-05,1.3752186e-05,0.0035338576,0.00022134885,5.8100852e-08,0.0,0.0,0.0,0.0,0.0,0.0
1593716000,1593560000,0.0007168053,4.77118e-05,4.354151e-08,1.9508132e-05,4.0726306e-07,6.395658e-05,0.0,0.0,0.0,0.0,0.0,0.0,0.0,2.310777e-05,0.0,0.0,0.0,0.0,0.00010589873,0.00010589873,6.2771665e-05,1.3752186e-05,0.0018630311,0.00020732952,1.9320453e-08,0.0,0.0,0.0,0.0,0.0,0.0
1593724000,1593568000,0.0007168053,4.77118e-05,4.354151e-08,1.9508132e-05,4.0726306e-07,6.395658e-05,0.0,0.0,0.0,0.0,0.0,0.0,0.0,7.6600134e-07,0.0,0.0,0.0,0.0,0.00021579584,0.00021579584,4.2912307e-05,7.371437e-05,0.000112238245,0.00055088906,1.8417268e-11,0.0,0.0,0.0,0.0,0.0,0.0
1593740000,1593584000,0.0007168053,4.77118e-05,4.354151e-08,1.9508132e-05,4.0726306e-07,6.395658e-05,0.0,0.0,0.0,0.0,0.0,0.0,0.0,7.6600134e-07,0.0,0.0,0.0,0.0,0.00021579584,0.00021579584,4.2912307e-05,7.371437e-05,1.201226e-06,0.0024130358,4.5228262e-08,0.0,0.0,0.0,0.0,0.0,0.0
1593748000,1593592000,0.0007168053,4.77118e-05,4.354151e-08,1.9508132e-05,4.0726306e-07,6.395658e-05,0.0,0.0,0.0,0.0,0.0,0.0,0.0,7.6600134e-07,0.0,0.0,0.0,0.0,0.00021579584,0.00021579584,4.2912307e-05,7.371437e-05,0.00042831982,1.4287898e-05,4.106937e-10,0.0,0.0,0.0,0.0,0.0,0.0
1593756000,1593600000,0.0007168053,4.77118e-05,4.354151e-08,1.9508132e-05,4.0726306e-07,6.395658e-05,0.0,0.0,0.0,0.0,0.0,0.0,0.0,7.6600134e-07,0.0,0.0,0.0,0.0,0.00021579584,0.00021579584,4.2912307e-05,7.371437e-05,1.8110779e-05,0.000530768,2.8654767e-10,0.0,0.0,0.0,0.0,0.0,0.0
1593764000,1593608000,0.0007168053,4.77118e-05,4.354151e-08,1.9508132e-05,4.0726306e-07,6.395658e-05,0.0,0.0,0.0,0.0,0.0,0.0,0.0,7.6600134e-07,0.0,0.0,0.0,0.0,0.00021579584,0.00021579584,4.2912307e-05,7.371437e-05,0.00094453065,0.0013582947,1.5429634e-08,0.0,0.0,0.0,0.0,0.0,0.0
1593780000,1593624000,0.0007168053,4.77118e-05,4.354151e-08,1.9508132e-05,4.0726306e-07,6.395658e-05,0.0,0.0,0.0,0.0,0.0,0.0,0.0,7.6600134e-07,0.0,0.0,0.0,0.0,0.00021579584,0.00021579584,4.2912307e-05,7.371437e-05,2.8522298e-05,1.6961475e-06,1.7195134e-10,0.0,0.0,0.0,0.0,0.0,0.0
1593788000,1593632000,0.0007168053,4.77118e-05,4.354151e-08,1.9508132e-05,4.0726306e-07,6.395658e-05,0.0,0.0,0.0,0.0,0.0,0.0,0.0,7.6600134e-07,0.0,0.0,0.0,0.0,0.0005934725,0.00012213053,1.9771127e-05,0.0005934725,0.0011153942,2.6492966e-05,1.4210855e-10,0.0,0.0,0.0,0.0,0.0,0.0
1593796000,1593640000,0.0007168053,4.77118e-05,4.354151e-08,1.9508132e-05,4.0726306e-07,6.395658e-05,0.0,0.0,0.0,0.0,0.0,0.0,0.0,1.3070079e-06,0.0,0.0,0.0,0.0,0.0005934725,0.00012213053,1.9771127e-05,0.0005934725,0.0019847052,0.00040286698,1.046152e-08,0.0,0.0,0.0,0.0,0.0,0.0
1593804000,1593648000,0.0007168053,4.77118e-05,4.354151e-08,1.9508132e-05,4.0726306e-07,6.395658e-05,0.0,0.0,0.0,0.0,0.0,0.0,0.0,1.3070079e-06,0.0,0.0,0.0,0.0,0.0005934725,0.00012213053,1.9771127e-05,0.0005934725,2.250246e-05,0.0023238123,4.645335e-08,0.0,0.0,0.0,0.0,0.0,0.0
1593820000,1593664000,0.0007168053,4.77118e-05,4.354151e-08,1.9508132e-05,4.0726306e-07,6.395658e-05,0.0,0.0,0.0,0.0,0.0,0.0,0.0,1.3070079e-06,0.0,0.0,0.0,0.0,0.0005934725,0.00012213053,1.9771127e-05,0.0005934725,5.6986846e-05,1.8643724e-06,2.6284397e-10,0.0,0.0,0.0,0.0,0.0,0.0
1593828000,1593672000,0.0007168053,4.77118e-05,4.354151e-08,1.9508132e-05,4.0726306e-07,6.395658e-05,0.0,0.0,0.0,0.0,0.0,0.0,0.0,1.3070079e-06,0.0,0.0,0.0,0.0,0.0005934725,0.00012213053,1.9771127e-05,0.0005934725,0.00013823791,4.369491e-05,9.313226e-10,0.0,0.0,0.0,0.0,0.0,0.0
1593836000,1593680000,0.0007168053,4.77118e-05,4.354151e-08,1.9508132e-05,4.0726306e-07,6.395658e-05,0.0,0.0,0.0,0.0,0.0,0.0,0.0,1.3070079e-06,0.0,0.0,0.0,0.0,0.0005934725,0.00012213053,1.9771127e-05,0.0005934725,0.0004322743,5.5175474e-07,1.4959426e-08,0.0,0.0,0.0,0.0,0.0,0.0
1593844000,1593688000,0.0007168053,4.77118e-05,4.354151e-08,1.9508132e-05,4.0726306e-07,6.395658e-05,0.0,0.0,0.0,0.0,0.0,0.0,0.0,1.3070079e-06,0.0,0.0,0.0,0.0,0.0005934725,0.00012213053,1.9771127e-05,0.0005934725,1.5036155e-06,0.000115721,1.130104e-09,0.0,0.0,0.0,0.0,0.0,0.0
1593860000,1593704000,0.0007168053,4.77118e-05,4.354151e-08,1.9508132e-05,4.0726306e-07,6.395658e-05,0.0,0.0,0.0,0.0,0.0,0.0,0.0,1.3070079e-06,0.0,0.0,0.0,0.0,0.00010319037,6.156316e-05,0.00010319037,4.3544496e-06,0.0002825147,0.002005366,1.0903847e-07,0.0,0.0,0.0,0.0,0.0,0.0
1593868000,1593712000,0.0007168053,4.77118e-05,4.354151e-08,1.9508132e-05,4.0726306e-07,6.395658e-05,0.0,0.0,0.0,0.0,0.0,0.0,0.0,9.786187e-07,0.0,0.0,0.0,0.0,0.00010319037,6.156316e-05,0.00010319037,4.3544496e-06,0.0007386418,0.0002505697,5.6761564e-09,0.0,0.0,0.0,0.0,0.0,0.0
1593876000,1593720000,0.0007168053,4.77118e-05,4.354151e-08,1.9508132e-05,4.0726306e-07,6.395658e-05,0.0,0.0,0.0,0.0,0.0,0.0,0.0,9.786187e-07,0.0,0.0,0.0,0.0,0.00010319037,6.156316e-05,0.00010319037,4.3544496e-06,0.00031336956,0.00021703035,3.0291858e-10,0.0,0.0,0.0,0.0,0.0,0.0
1593884000,1593728000,0.0007168053,4.77118e-05,4.354151e-08,1.9508132e-05,4.0726306e-07,6.395658e-05,0.0,0.0,0.0,0.0,0.0,0.0,0.0,9.786187e-07,0.0,0.0,0.0,0.0,0.00010319037,6.156316e-05,0.00010319037,4.3544496e-06,5.521897e-07,0.00055401505,2.7853275e-10,0.0,0.0,0.0,0.0,0.0,0.0
1593900000,1593744000,0.0007168053,4.77118e-05,4.354151e-08,1.9508132e-05,4.0726306e-07,6.395658e-05,0.0,0.0,0.0,0.0,0.0,0.0,0.0,9.786187e-07,0.0,0.0,0.0,0.0,0.00010319037,6.156316e-05,0.00010319037,4.3544496e-06,0.0001913706,1.3590166e-05,7.781864e-11,0.0,0.0,0.0,0.0,0.0,0.0
1593908000,1593752000,0.0007168053,4.77118e-05,4.354151e-08,1.9508132e-05,4.0726306e-07,6.395658e-05,0.0,0.0,0.0,0.0,0.0,0.0,0.0,9.786187e-07,0.0,0.0,0.0,0.0,0.00010319037,6.156316e-05,0.00010319037,4.3544496e-06,0.0009222885,3.0201467e-05,1.3656631e-09,0.0,0.0,0.0,0.0,0.0,0.0
1593916000,1593760000,0.0007168053,4.77118e-05,4.354151e-08,1.9508132e-05,4.0726306e-07,6.395658e-05,0.0,0.0,0.0,0.0,0.0,0.0,0.0,9.786187e-07,0.0,0.0,0.0,0.0,0.00010319037,6.156316e-05,0.00010319037,4.3544496e-06,0.0007614479,4.262717e-05,1.0668941e-09,0.0,0.0,0.0,0.0,0.0,0.0
1593924000,1593768000,0.0007168053,4.77118e-05,4.354151e-08,1.9508132e-05,4.0726306e-07,6.395658e-05,0.0,0.0,0.0,0.0,0.0,0.0,0.0,9.786187e-07,0.0,0.0,0.0,0.0,0.001542117,0.0004546009,0.0011548656,0.001542117,0.0024148705,1.9672529e-05,2.9467628e-08,0.0,0.0,0.0,0.0,0.0,0.0
1593940000,1593784000,0.0007168053,4.77118e-05,4.354151e-08,1.9508132e-05,4.0726306e-07,6.395658e-05,0.0,0.0,0.0,0.0,0.0,0.0,0.0,7.945881e-06,0.0,0.0,0.0,0.0,0.001542117,0.0004546009,0.0011548656,0.001542117,0.000119971184,6.837901e-06,4.0108716e-10,0.0,0.0,0.0,0.0,0.0,0.0
1593948000,1593792000,0.0007168053,4.77118e-05,4.354151e-08,1.9508132e-05,4.0726306e-07,6.395658e-05,0.0,0.0,0.0,0.0,0.0,0.0,0.0,7.945881e-06,0.0,0.0,0.0,0.0,0.001542117,0.0004546009,0.0011548656,0.001542117,9.3626195e-06,5.272487e-05,2.0463631e-10,0.0,0.0,0.0,0.0,0.0,0.0
1593956000,1593800000,0.0007168053,4.77118e-05,4.354151e-08,1.9508132e-05,4.0726306e-07,6.395658e-05,0.0,0.0,0.0,0.0,0.0,0.0,0.0,7.945881e-06,0.0,0.0,0.0,0.0,0.001542117,0.0004546009,0.0011548656,0.001542117,0.00069287454,1.1006079e-05,2.8012664e-08,0.0,0.0,0.0,0.0,0.0,0.0
1593964000,1593808000,0.0007168053,4.77118e-05,4.354151e-08,1.9508132e-05,4.0726306e-07,6.395658e-05,0.0,0.0,0.0,0.0,0.0,0.0,0.0,7.945881e-06,0.0,0.0,0.0,0.0,0.001542117,0.0004546009,0.0011548656,0.001542117,0.00095154304,0.0013343772,8.5579416e-08,0.0,0.0,0.0,0.0,0.0,0.0
1593980000,1593824000,0.0007168053,4.77118e-05,4.354151e-08,1.9508132e-05,4.0726306e-07,6.395658e-05,0.0,0.0,0.0,0.0,0.0,0.0,0.0,7.945881e-06,0.0,0.0,0.0,0.0,0.001542117,0.0004546009,0.0011548656,0.001542117,0.00017646512,7.45473e-07,3.7837253e-09,0.0,0.0,0.0,0.0,0.0,0.0
1593988000,1593832000,0.0007168053,4.77118e-05,4.354151e-08,1.9508132e-05,4.0726306e-07,6.395658e-05,0.0,0.0,0.0,0.0,0.0,0.0,0.0,7.945881e-06,0.0,0.0,0.0,0.0,0.001542117,0.0004546009,0.0011548656,0.001542117,0.00012745848,0.00032784924,2.7063152e-10,0.0,0.0,0.0,0.0,0.0,0.0
1593996000,1593840000,0.0009745139,2.8749664e-05,1.8934087e-06,2.777187e-05,1.072584e-06,5.1757215e-05,0.0,0.0,0.0,0.0,0.0,0.0,0.0,1.2249962e-08,0.0,0.0,0.0,0.0,0.00039301597,0.00019336121,0.00039301597,5.5261853e-06,3.623994e-05,2.4329498e-05,1.9787194e-10,0.0,0.0,0.0,0.0,0.0,0.0
1594004000,1593848000,0.0009745139,2.8749664e-05,1.8934087e-06,2.777187e-05,1.072584e-06,5.1757215e-05,0.0,0.0,0.0,0.0,0.0,0.0,0.0,1.2249962e-08,0.0,0.0,0.0,0.0,0.00039301597,0.00019336121,0.00039301597,5.5261853e-06,2.9765715e-05,2.6225393e-05,1.4210855e-12,0.0,0.0,0.0,0.0,0.0,0.0
1594020000,1593864000,0.0009745139,2.8749664e-05,1.8934087e-06,2.777187e-05,1.072584e-06,5.1757215e-05,0.0,0.0,0.0,0.0,0.0,0.0,0.0,1.2249962e-08,0.0,0.0,0.0,0.0,0.00039301597,0.00019336121,0.00039301597,5.5261853e-06,0.001113708,0.001967553,1.5607208e-07,0.0,0.0,0.0,0.0,0.0,0.0
1594028000,1593872000,0.0009745139,2.8749664e-05,1.8934087e-06,2.777187e-05,1.072584e-06,5.1757215e-05,0.0,0.0,0.0,0.0,0.0,0.0,0.0,1.2249962e-08,0.0,0.0,0.0,0.0,0.00039301597,0.00019336121,0.00039301597,5.5261853e-06,8.777795e-06,0.00019681202,1.7826096e-10,0.0,0.0,0.0,0.0,0.0,0.0
1594036000,1593880000,0.0009745139,2.8749664e-05,1.8934087e-06,2.777187e-05,1.072584e-06,5.1757215e-05,0.0,0.0,0.0,0.0,0.0,0.0,0.0,1.2249962e-08,0.0,0.0,0.0,0.0,0.00039301597,0.00019336121,0.00039301597,5.5261853e-06,0.0004179729,0.00019396808,1.1923703e-08,0.0,0.0,0.0,0.0,0.0,0.0
1594044000,1593888000,0.0009745139,2.8749664e-05,1.8934087e-06,2.777187e-05,1.072584e-06,5.1757215e-05,0.0,0.0,0.0,0.0,0.0,0.0,0.0,1.2249962e-08,0.0,0.0,0.0,0.0,0.00039301597,0.00019336121,0.00039301597,5.5261853e-06,0.00011111164,1.2587999e-07,4.2041393e-10,0.0,0.0,0.0,0.0,0.0,0.0
1594060000,1593904000,0.0009745139,2.8749664e-05,1.8934087e-06,2.777187e-05,1.072584e-06,5.1757215e-05,0.0,0.0,0.0,0.0,0.0,0.0,0.0,4.169544e-05,0.0,0.0,0.0,0.0,0.00039301597,0.00019336121,0.00039301597,5.5261853e-06,0.0001524698,0.0026160718,2.578929e-07,0.0,0.0,0.0,0.0,0.0,0.0
1594068000,1593912000,0.0009745139,2.8749664e-05,1.8934087e-06,2.777187e-05,1.072584e-06,5.1757215e-05,0.0,0.0,0.0,0.0,0.0,0.0,0.0,4.169544e-05,0.0,0.0,0.0,0.0,0.00012127971,8.236151e-06,6.106591e-05,0.00012127971,1.3682366e-05,0.0004261961,8.294819e-09,0.0,0.0,0.0,0.0,0.0,0.0
1594076000,1593920000,0.0009745139,2.8749664e-05,1.8934087e-06,2.777187e-05,1.072584e-06,5.1757215e-05,0.0,0.0,0.0,0.0,0.0,0.0,0.0,4.169544e-05,0.0,0.0,0.0,0.0,0.00012127971,8.236151e-06,6.106591e-05,0.00012127971,8.883868e-05,0.00082952756,2.551701e-10,0.0,0.0,0.0,0.0,0.0,0.0
1594084000,1593928000,0.0009745139,2.8749664e-05,1.8934087e-06,2.777187e-05,1.072584e-06,5.1757215e-05,0.0,0.0,0.0,0.0,0.0,0.0,0.0,4.169544e-05,0.0,0.0,0.0,0.0,0.00012127971,8.236151e-06,6.106591e-05,0.00012127971,0.00020465683,0.00038823194,5.287859e-09,0.0,0.0,0.0,0.0,0.0,0.0
1594100000,1593944000,0.0009745139,2.8749664e-05,1.8934087e-06,2.777187e-05,1.072584e-06,5.1757215e-05,0.0,0.0,0.0,0.0,0.0,0.0,0.0,4.169544e-05,0.0,0.0,0.0,0.0,0.00012127971,8.236151e-06,6.106591e-05,0.00012127971,0.000776774,0.00012474952,5.1409245e-08,0.0,0.0,0.0,0.0,0.0,0.0
1594108000,1593952000,0.0009745139,2.8749664e-05,1.8934087e-06,2.777187e-05,1.072584e-06,5.1757215e-05,0.0,0.0,0.0,0.0,0.0,0.0,0.0,4.169544e-05,0.0,0.0,0.0,0.0,0.00012127971,8.236151e-06,6.106591e-05,0.00012127971,0.00012315776,0.000800017,4.90582e-08,0.0,0.0,0.0,0.0,0.0,0.0
1594116000,1593960000,0.0009745139,2.8749664e-05,1.8934087e-06,2.777187e-05,1.072584e-06,5.1757215e-05,0.0,0.0,0.0,0.0,0.0,0.0,0.0,2.0663101e-05,0.0,0.0,0.0,0.0,0.00012127971,8.236151e-06,6.106591e-05,0.00012127971,0.00010684788,0.00013376297,8.2514475e-09,0.0,0.0,0.0,0.0,0.0,0.0
1594124000,1593968000,0.0009745139,2.8749664e-05,1.8934087e-06,2.777187e-05,1.072584e-06,5.1757215e-05,0.0,0.0,0.0,0.0,0.0,0.0,0.0,2.0663101e-05,0.0,0.0,0.0,0.0,0.00012127971,8.236151e-06,6.106591e-05,0.00012127971,0.0005912966,4.270526e-05,4.811227e-10,0.0,0.0,0.0,0.0,0.0,0.0
1594140000,1593984000,0.0009745139,2.8749664e-05,1.8934087e-06,2.777187e-05,1.072584e-06,5.1757215e-05,0.0,0.0,0.0,0.0,0.0,0.0,0.0,2.0663101e-05,0.0,0.0,0.0,0.0,0.00047951116,0.00047951116,0.00019314085,5.6499975e-05,0.0001889567,0.0011558322,1.5475621e-09,0.0,0.0,0.0,0.0,0.0,0.0
1594148000,1593992000,0.0009745139,2.8749664e-05,1.8934087e-06,2.777187e-05,1.072584e-06,5.1757215e-05,0.0,0.0,0.0,0.0,0.0,0.0,0.0,2.0663101e-05,0.0,0.0,0.0,0.0,0.00047951116,0.00047951116,0.00019314085,5.6499975e-05,4.4363134e-07,0.0004673001,8.185452e-12,0.0,0.0,0.0,0.0,0.0,0.0
1594156000,1594000000,0.0009745139,2.8749664e-05,1.8934087e-06,2.777187e-05,1.072584e-06,5.1757215e-05,0.0,0.0,0.0,0.0,0.0,0.0,0.0,2.0663101e-05,0.0,0.0,0.0,0.0,0.00047951116,0.00047951116,0.00019314085,5.6499975e-05,0.00248745,0.0006578103,9.024461e-08,0.0,0.0,0.0,0.0,0.0,0.0
1594164000,1594008000,0.0009745139,2.8749664e-05,1.8934087e-06,2.777187e-05,1.072584e-06,5.1757215e-05,0.0,0.0,0.0,0.0,0.0,0.0,0.0,2.0663101e-05,0.0,0.0,0.0,0.0,0.00047951116,0.00047951116,0.00019314085,5.6499975e-05,0.00079756166,0.00023016371,6.1527885e-09,0.0,0.0,0.0,0.0,0.0,0.0
1594180000,1594024000,0.0009745139,2.8749664e-05,1.8934087e-06,2.777187e-05,1.072584e-06,5.1757215e-05,0.0,0.0,0.0,0.0,0.0,0.0,0.0,1.6249463e-06,0.0,0.0,0.0,0.0,0.00047951116,0.00047951116,0.00019314085,5.6499975e-05,3.0420992e-05,0.00020133666,2.0463631e-10,0.0,0.0,0.0,0.0,0.0,0.0
1594188000,1594032000,0.0009745139,2.8749664e-05,1.8934087e-06,2.777187e-05,1.072584e-06,5.1757215e-05,0.0,0.0,0.0,0.0,0.0,0.0,0.0,1.6249463e-06,0.0,0.0,0.0,0.0,0.00047951116,0.00047951116,0.00019314085,5.6499975e-05,3.1122574e-05,0.00021891732,2.0954758e-09,0.0,0.0,0.0,0.0,0.0,0.0
1594196000,1594040000,0.0009745139,2.8749664e-05,1.8934087e-06,2.777187e-05,1.072584e-06,5.1757215e-05,0.0,0.0,0.0,0.0,0.0,0.0,0.0,1.6249463e-06,0.0,0.0,0.0,0.0,0.00047951116,0.00047951116,0.00019314085,5.6499975e-05,0.0017748828,0.00024899715,1.7828603e-07,0.0,0.0,0.0,0.0,0.0,0.0
1594204000,1594048000,0.0009745139,2.8749664e-05,1.8934087e-06,2.777187e-05,1.072584e-06,5.1757215e-05,0.0,0.0,0.0,0.0,0.0,0.0,0.0,1.6249463e-06,0.0,0.0,0.0,0.0,0.00047951116,0.00047951116,0.00019314085,5.6499975e-05,0.00025377146,0.00069347676,1.3096724e-10,0.0,0.0,0.0,0.0,0.0,0.0
1594220000,1594064000,0.0009745139,2.8749664e-05,1.8934087e-06,2.777187e-05,1.072584e-06,5.1757215e-05,0.0,0.0,0.0,0.0,0.0,0.0,0.0,1.6249463e-06,0.0,0.0,0.0,0.0,0.0025000218,0.00085814536,0.0025000218,8.549827e-05,0.004818287,0.00065368915,7.2284115e-07,0.0,0.0,0.0,0.0,0.0,0.0
1594228000,1594072000,0.0009745139,2.8749664e-05,1.8934087e-06,2.777187e-05,1.072584e-06,5.1757215e-05,0.0,0.0,0.0,0.0,0.0,0.0,0.0,1.6249463e-06,0.0,0.0,0.0,0.0,0.0025000218,0.00085814536,0.0025000218,8.549827e-05,4.8888818e-05,0.00012689676,5.798597e-10,0.0,0.0,0.0,0.0,0.0,0.0
1594236000,1594080000,0.0009745139,2.8749664e-05,1.8934087e-06,2.777187e-05,1.072584e-06,5.1757215e-05,0.0,0.0,0.0,0.0,0.0,0.0,0.0,1.6249463e-06,0.0,0.0,0.0,0.0,0.0025000218,0.00085814536,0.0025000218,8.549827e-05,7.423545e-05,0.00010603182,8.4605745e-10,0.0,0.0,0.0,0.0,0.0,0.0
1594244000,1594088000,0.0009745139,2.8749664e-05,1.8934087e-06,2.777187e-05,1.072584e-06,5.1757215e-05,0.0,0.0,0.0,0.0,0.0,0.0,0.0,1.6249463e-06,0.0,0.0,0.0,0.0,0.0025000218,0.00085814536,0.0025000218,8.549827e-05,0.0011940403,1.2591055e-05,6.5689676e-08,0.0,0.0,0.0,0.0,0.0,0.0
1594260000,1594104000,0.0009745139,2.8749664e-05,1.8934087e-06,2.777187e-05,1.072584e-06,5.1757215e-05,0.0,0.0,0.0,0.0,0.0,0.0,0.0,5.3310478e-06,0.0,0.0,0.0,0.0,0.0025000218,0.00085814536,0.0025000218,8.549827e-05,0.0011955486,0.0012905715,1.5488922e-08,0.0,0.0,0.0,0.0,0.0,0.0
1594268000,1594112000,0.0009745139,2.8749664e-05,1.8934087e-06,2.777187e-05,1.072584e-06,5.1757215e-05,0.0,0.0,0.0,0.0,0.0,0.0,0.0,5.3310478e-06,0.0,0.0,0.0,0.0,0.0025000218,0.00085814536,0.0025000218,8.549827e-05,0.00050307676,0.0005564571,8.645884e-11,0.0,0.0,0.0,0.0,0.0,0.0
1594276000,1594120000,0.0009745139,2.8749664e-05,1.8934087e-06,2.777187e-05,1.072584e-06,5.1757215e-05,0.0,0.0,0.0,0.0,0.0,0.0,0.0,5.3310478e-06,0.0,0.0,0.0,0.0,0.0025000218,0.00085814536,0.0025000218,8.549827e-05,0.0006435094,0.0010984815,4.4924548e-08,0.0,0.0,0.0,0.0,0.0,0.0
1594284000,1594128000,0.0009745139,2.8749664e-05,1.8934087e-06,2.777187e-05,1.072584e-06,5.1757215e-05,0.0,0.0,0.0,0.0,0.0,0.0,0.0,5.3310478e-06,0.0,0.0,0.0,0.0,7.6130864e-06,7.513761e-06,6.78389e-06,7.6130864e-06,3.1611224e-05,4.7262085e-05,1.6575541e-10,0.0,0.0,0.0,0.0,0.0,0.0
1594300000,1594144000,0.0009745139,2.8749664e-05,1.8934087e-06,2.777187e-05,1.072584e-06,5.1757215e-05,0.0,0.0,0.0,0.0,0.0,0.0,0.0,5.3310478e-06,0.0,0.0,0.0,0.0,7.6130864e-06,7.513761e-06,6.78389e-06,7.6130864e-06,0.0003304352,0.0005070578,4.604317e-12,0.0,0.0,0.0,0.0,0.0,0.0
1594308000,1594152000,0.0009745139,2.8749664e-05,1.8934087e-06,2.777187e-05,1.072584e-06,5.1757215e-05,0.0,0.0,0.0,0.0,0.0,0.0,0.0,5.3310478e-06,0.0,0.0,0.0,0.0,7.6130864e-06,7.513761e-06,6.78389e-06,7.6130864e-06,8.426247e-06,0.0004170905,0.0,0.0,0.0,0.0,0.0,0.0,0.0
1594316000,1594160000,0.0009745139,2.8749664e-05,1.8934087e-06,2.777187e-05,1.072584e-06,5.1757215e-05,0.0,0.0,0.0,0.0,0.0,0.0,0.0,5.3310478e-06,0.0,0.0,0.0,0.0,7.6130864e-06,7.513761e-06,6.78389e-06,7.6130864e-06,0.0022939187,0.00057260244,2.5746033e-08,0.0,0.0,0.0,0.0,0.0,0.0
1594324000,1594168000,0.0009745139,2.8749664e-05,1.8934087e-06,2.777187e-05,1.072584e-06,5.1757215e-05,0.0,0.0,0.0,0.0,0.0,0.0,0.0,9.327745e-06,0.0,0.0,0.0,0.0,7.6130864e-06,7.513761e-06,6.78389e-06,7.6130864e-06,0.0009596021,8.3190745e-05,1.4210855e-10,0.0,0.0,0.0,0.0,0.0,0.0
1594340000,1594184000,0.0009745139,2.8749664e-05,1.8934087e-06,2.777187e-05,1.072584e-06,5.1757215e-05,0.0,0.0,0.0,0.0,0.0,0.0,0.0,9.327745e-06,0.0,0.0,0.0,0.0,7.6130864e-06,7.513761e-06,6.78389e-06,7.6130864e-06,0.00039944027,0.00024084807,2.9549483e-09,0.0,0.0,0.0,0.0,0.0,0.0
1594348000,1594192000,0.0009745139,2.8749664e-05,1.8934087e-06,2.777187e-05,1.072584e-06,5.1757215e-05,0.0,0.0,0.0,0.0,0.0,0.0,0.0,9.327745e-06,0.0,0.0,0.0,0.0,0.000280316,0.00027475442,0.000280316,0.00013459078,0.0009935624,0.0011748765,8.381903e-09,0.0,0.0,0.0,0.0,0.0,0.0
1594356000,1594200000,0.0009745139,2.8749664e-05,1.8934087e-06,2.777187e-05,1.072584e-06,5.1757215e-05,0.0,0.0,0.0,0.0,0.0,0.0,0.0,9.327745e-06,0.0,0.0,0.0,0.0,0.000280316,0.00027475442,0.000280316,0.00013459078,0.00014759004,5.395597e-05,8.4605745e-10,0.0,0.0,0.0,0.0,0.0,0.0
1594364000,1594208000,0.0009745139,2.8749664e-05,1.8934087e-06,2.777187e-05,1.072584e-06,5.1757215e-05,0.0,0.0,0.0,0.0,0.0,0.0,0.0,9.327745e-06,0.0,0.0,0.0,0.0,0.000280316,0.00027475442,0.000280316,0.00013459078,0.0010049542,0.0016897359,1.1951329e-07,0.0,0.0,0.0,0.0,0.0,0.0
