timestamp,timestamp_sample,xyz[0],xyz[1],xyz[2],xyz_derivative[0],xyz_derivative[1],xyz_derivative[2]
1592248000,1592248000,7.861061e-06,0.009851022,0.0041101966,-0.5065915,0.45860332,-0.04778879
1592252000,1592252000,0.0019286806,0.0014132857,0.0005823539,-0.1764971,-0.40043378,-0.3268286
1592260000,1592260000,-0.0062950533,-0.0015410719,-0.010382504,-0.7348221,-0.30043384,-0.89434767
1592268000,1592268000,-0.0022914116,-0.00221403,-0.00010819151,0.03978437,-0.20504041,0.47545016
1592280000,1592280000,0.0010102483,0.0034524302,0.006723719,0.14615926,0.49286658,-0.26704144
1592288000,1592288000,0.009196253,-0.002939449,-0.015890844,0.63484097,-0.27264693,-1.440735
1592300000,1592300000,0.00089978456,0.0028750016,0.003801506,-0.341301,0.36003464,0.5011177
1592308000,1592308000,-0.0061764196,0.008280776,-0.00542387,-0.5863128,0.46771955,-0.45528463
1592320000,1592320000,0.0017236981,0.0075900517,0.0074039754,0.14923877,0.17975785,0.88760364
1592328000,1592328000,-0.00062055426,0.014259842,0.009410614,-0.12528028,0.5459123,0.41561955
1592340000,1592340000,0.003146647,0.0053500994,0.007557233,0.2725581,-0.20921591,0.110528685
1592348000,1592348000,0.0019877,0.006419128,0.0022107374,-0.024367988,-0.07133929,-0.35639098
1592360000,1592360000,0.007307431,0.00768771,-0.008084574,0.2572435,0.08735587,-0.5655135
1592368000,1592368000,-0.007905021,0.0013440496,-0.0051809773,-0.8891685,-0.41078436,-0.008182265
1592380000,1592380000,0.013971278,0.005566886,0.010559869,1.4255531,0.38789803,1.0015324
1592388000,1592388000,0.013355832,0.0025477025,0.012396706,0.42099178,-0.08040772,0.4345079
1592396000,1592396000,-0.0053680227,0.0022248398,0.0013147807,-1.0782181,-0.11447001,-0.53200126
1592408000,1592408000,-0.01749131,-0.0036959688,-0.008337502,-0.88981056,-0.22736327,-0.4747736
1592420000,1592420000,-0.005845196,0.0073571275,0.011852466,0.3161747,0.3825789,1.0345932
1592424000,1592424000,-0.0039278916,0.00604113,0.014010586,0.37075067,0.14454807,0.86898905
1592440000,1592440000,0.007342107,0.00012055964,0.011455733,0.12452775,0.028709834,-0.3425498
1592444000,1592444000,-0.00044800056,0.0052476036,0.0039965236,-0.5685977,0.4478694,-0.8517603
1592460000,1592460000,-0.013883785,-0.010931238,0.01049844,-0.78378904,-1.2513065,0.26577026
1592468000,1592468000,-0.0009240923,-0.011052819,-0.0027065373,0.6029834,-0.45283914,-0.80465865
1592480000,1592480000,-0.00039225997,0.008328057,-0.0034384117,-0.105742455,0.7880472,-0.49301344
1592488000,1592488000,-0.0037646922,-0.00043223388,-0.012082505,-0.2441554,-0.19797288,-0.7859395
1592500000,1592500000,-0.0027058264,0.0031402358,0.000894013,-0.13201591,0.006753259,0.3917558
1592508000,1592508000,-0.0024444712,-0.0011608321,-0.009014918,-0.0150592625,-0.25706947,-0.4617799
1592520000,1592520000,0.008731892,-0.0024162794,0.013481436,0.81174916,-0.3091289,1.2791315
1592524000,1592524000,0.010850264,-0.013236128,0.011125757,0.7173647,-1.1105618,0.6542475
1592540000,1592540000,0.0031315929,0.0060981945,0.0071609104,-0.029176742,1.323396,0.58114165
1592548000,1592548000,0.0014546874,-0.00243499,0.017675601,-0.140634,-0.07157017,0.8753419
1592560000,1592560000,-0.0032010984,0.0009776477,-0.0020233968,-0.12702954,0.022287143,-0.6960616
1592568000,1592568000,0.010594055,-0.0011595439,0.004212853,0.8958874,0.015589833,0.023692086
1592580000,1592580000,0.007906467,-0.0047138245,0.004717958,-0.06725508,-0.650953,0.36320093
1592588000,1592588000,0.0025458203,-0.0019249396,-0.009706348,-0.38897955,0.0038632923,-0.9888003
1592600000,1592600000,-0.004938282,0.010291539,0.006512338,-0.283763,0.68803674,0.998262
1592608000,1592608000,0.009824617,0.007741027,-0.0033271348,0.8704356,0.1577441,-0.31995845
1592620000,1592620000,0.006377458,-0.0072953934,-0.0023265164,-0.24225116,-0.9228666,0.08685307
1592628000,1592628000,0.0021512366,-0.00042868793,0.0053964513,-0.39475873,0.06538921,0.5498371
1592640000,1592640000,-0.012441531,0.0075425543,-0.011718739,-0.76188,0.6096003,-0.7394049
1592648000,1592648000,-0.009390281,0.009515945,-0.009845613,-0.08951172,0.30836028,-0.15005696
1592660000,1592660000,-0.00012010774,-0.002448566,-0.0011035373,0.12569326,-0.4910194,0.3788245
1592668000,1592668000,-0.011135681,-0.006935034,0.009356934,-0.6301433,-0.5886497,0.86112165
1592680000,1592680000,0.0101908455,0.0013611127,-0.00064209464,1.1849296,0.34548342,-0.3500827
1592688000,1592688000,0.0011801196,0.0033608128,0.0011067492,-0.15257114,0.342291,-0.09638355
1592700000,1592700000,0.0016942,0.0051908502,0.0024203353,0.12233713,0.10787777,0.3460228
1592708000,1592708000,-0.0015888516,0.0054534418,-0.0009199217,-0.22222729,0.11657722,-0.17900121
1592720000,1592720000,-0.0033533396,0.009121991,-0.010320297,-0.09590894,-0.10907208,-0.34924912
1592728000,1592728000,-0.0060952813,-0.008564805,0.0054513086,-0.24486138,-1.1825063,0.85569817
1592740000,1592740000,0.003683647,-0.0042801728,0.0033304193,0.57713574,-0.09328252,0.20532314
1592748000,1592748000,0.006198722,-0.0029376445,-0.017112179,0.45811424,0.018329628,-1.3033112
1592760000,1592760000,0.0007117063,0.020008156,-0.014383959,-0.35104847,1.5361059,-0.39325792
1592768000,1592768000,-0.0051726173,0.008625232,-0.006057054,-0.5171634,-0.1758175,0.5514702
1592780000,1592780000,0.0011518875,0.0060500195,0.00018194804,0.4746936,-0.07996885,0.21501642
1592788000,1592788000,0.0042057172,0.0095596425,-0.013745787,0.24499583,0.15519466,-0.8591404
1592800000,1592800000,-0.0010788458,-0.0027768922,-0.000789364,-0.0010579824,-0.61993057,0.7153361
1592808000,1592808000,0.0035373443,-0.009986061,0.009936504,0.21841738,-0.81650984,1.052394
1592820000,1592820000,-0.010281623,-0.019572843,0.005579354,-0.6218257,-0.44803834,-0.01871235
1592828000,1592828000,0.0009718128,0.0034513767,0.007823351,0.54167634,1.2766491,0.17206824
1592840000,1592840000,-0.0014781281,0.008138743,-0.0025690503,-0.1522136,0.4842372,-0.69795376
1592848000,1592848000,-0.01278071,0.001715351,0.0006969976,-0.7452562,-0.19120532,-0.120758794
1592860000,1592860000,0.012380578,0.009871449,0.0026144704,1.1654332,0.3443183,0.09538402
1592868000,1592868000,0.0061362716,-0.0013306617,-0.0055894125,0.08245599,-0.6052903,-0.54385924
1592880000,1592880000,0.009413557,0.00042861357,0.0044894875,0.2757275,0.29725748,0.5861342
1592888000,1592888000,0.0010069751,0.012413589,-0.005227082,-0.5304221,0.82038665,-0.41603556
1592900000,1592900000,-0.0026262999,0.0052600503,-0.0019832083,-0.17756873,0.12511137,0.1513901
1592908000,1592908000,0.003273381,0.00073504355,-0.006533252,0.33483416,-0.3686745,-0.24149175
1592920000,1592920000,-0.00026964088,-0.013282312,-0.011763323,-0.43173283,-0.7051128,-0.5059074
1592928000,1592928000,-0.012564151,-0.008736167,0.0039349133,-0.97220355,-0.04856199,0.8827485
1592940000,1592940000,-0.00028368807,0.0005178251,-0.0012987296,0.37233835,0.82440114,-0.1951179
1592944000,1592944000,0.0021571722,0.0085401535,-0.0015567361,0.45191076,1.2195194,-0.15142532
1592960000,1592960000,-0.0025848025,-0.00025820947,0.011841549,-0.47622332,-0.5775702,0.55846626
1592968000,1592968000,0.0058188597,0.0013940956,0.022924235,0.39692912,-0.080556855,1.0144821
1592980000,1592980000,-0.00701386,0.00047731298,-0.016229823,-0.6105388,0.058795992,-1.9693155
1592988000,1592988000,-0.003222508,0.010605343,-0.00055742136,0.044819325,0.71961856,0.32888907
1593000000,1593000000,-0.005469116,0.0020103583,0.00082288217,-0.21102518,-0.26923412,-0.15577567
1593008000,1593008000,-0.005014609,0.01376909,0.0022949195,-0.045977265,0.7411103,0.11681183
1593020000,1593020000,0.00825754,-0.0020861747,-0.005161101,0.9200617,-1.0025966,-0.6126059
1593028000,1593028000,0.00027193694,-0.008868391,-0.004113896,-0.32846832,-0.797656,-0.15192448
1593040000,1593040000,-0.007746124,-0.00485169,0.008396948,-0.31319705,-0.055133324,0.577209
1593048000,1593048000,-0.0050482806,9.4074014e-05,-0.009639559,-4.756078e-05,0.22600588,-1.0378613
1593056000,1593056000,-0.0071922266,0.0031086833,-0.0015510959,-0.07171515,0.4013691,0.23137057
1593068000,1593068000,-0.011244052,-0.0015716783,-0.0012436686,-0.46891215,-0.32899138,-0.22440755
1593080000,1593080000,0.01649415,0.00087521627,0.005057941,1.6975787,0.023894327,0.77773273
1593088000,1593088000,0.0007938939,-0.0030416725,0.008529366,-0.51372564,-0.2623758,0.524369
1593100000,1593100000,-0.013780591,-0.0016187996,0.004607654,-0.6370951,0.11651414,-0.24133846
1593108000,1593108000,0.0014691644,0.011472866,-0.004694957,0.75503874,0.9718988,-0.7163752
1593120000,1593120000,0.00012903014,0.007902702,0.005773657,0.05487886,0.13340086,0.22319368
1593128000,1593128000,-0.0092211235,0.003395651,0.0050586304,-0.62351197,-0.31212294,0.053588726
1593140000,1593140000,0.0064637805,-0.009246375,-0.004336438,0.77004904,-0.65464985,-0.53571457
1593148000,1593148000,0.0003383563,0.0033534723,-0.0072248774,-0.112077475,0.60742635,-0.39971912
1593160000,1593160000,0.0041483757,0.008683555,-0.000387726,-0.00053316355,0.22902513,0.38648197
1593168000,1593168000,-0.00502668,-0.00012377757,-0.0031085778,-0.52513725,-0.52067566,-0.12514032
1593180000,1593180000,0.0074892086,0.00419649,0.0006018814,0.27055192,0.29962942,0.2619094
1593188000,1593188000,-0.007882899,0.0047153565,-0.0022486069,-0.9008292,0.12662975,0.009699674
1593200000,1593200000,-0.009822399,-0.0010578792,0.0022026144,-0.6398588,-0.24463555,0.020082112
1593208000,1593208000,-0.010560579,-0.0017874527,-0.007328585,-0.12233746,-0.16851375,-0.6422554
1593220000,1593220000,0.005622314,0.00166176,-0.004197365,0.28535628,0.1340267,-0.11484212
1593224000,1593224000,-0.0070408913,-0.002946801,-0.006585147,-0.8690945,-0.29621056,-0.27611107
1593240000,1593240000,0.0042738947,-0.0072432314,-0.002137044,0.4816544,-0.29953444,-0.09851051
1593248000,1593248000,0.0124085145,0.0054048193,-0.00012828261,0.72755486,0.8666136,0.09442908
1593260000,1593260000,0.008624768,0.0017677739,0.0065920795,0.1954085,-0.30469352,0.6843251
1593268000,1593268000,0.00067826576,-0.015464602,0.017819406,-0.59857464,-1.2912942,0.9840725
1593280000,1593280000,-0.0099006565,-0.0067508216,-0.0042614923,-0.4591902,0.37199536,-1.042017
1593288000,1593288000,0.0059570246,0.0013862809,-0.0071866047,0.83629143,0.6595725,-0.5821258
1593300000,1593300000,-0.008455688,0.007187578,-0.0024068584,-0.6050333,0.55752766,-0.20262094
1593304000,1593304000,-0.0067027523,0.0039250683,-0.0022932843,-0.2560487,0.09819195,-0.12534401
1593320000,1593320000,0.001161284,0.01251037,-0.004362073,0.16785473,0.97735816,0.035001833
1593328000,1593328000,-1.0365344e-05,0.01298041,0.02372674,-0.13287312,0.36523977,1.8885428
1593340000,1593340000,0.0055462914,-0.001750528,-0.00477338,0.42634654,-0.5990231,-1.1273572
1593348000,1593348000,-0.011996337,0.0067799776,0.0055494653,-1.1152406,0.3570042,0.29018027
1593360000,1593360000,-0.007436134,0.00439404,-0.0059056534,0.16246855,-0.34326726,-0.8459978
1593368000,1593368000,0.004050464,-0.0024509917,-0.005056795,0.913069,-0.5945252,-0.25197658
1593380000,1593380000,0.010468653,0.0037451223,0.0011474509,0.6483503,0.34593883,0.20494628
1593388000,1593388000,0.0037254428,0.010681216,0.011477368,-0.2767023,0.588365,0.78221506
1593400000,1593400000,0.004847442,0.008048599,0.0052331993,0.35443747,0.020287719,-0.24938524
1593404000,1593404000,0.0043146205,0.0009012063,0.0022851224,0.19131552,-0.5842194,-0.41250426
1593420000,1593420000,-0.002529805,0.0025764592,-0.005817855,0.37876642,0.34721467,-0.66572917
1593428000,1593428000,-0.0028134673,-0.0038585279,0.0030130614,0.054281473,-0.29847607,0.3992813
1593440000,1593440000,-0.020103423,0.00895734,0.008732435,-1.034729,0.5150176,0.22255988
1593448000,1593448000,-0.005446018,6.2101026e-05,-0.002330542,0.66792244,-0.40452653,-0.64594877
1593460000,1593460000,-0.009023381,-0.008432284,0.0022981914,-0.20207357,-0.6578399,0.13974981
1593468000,1593468000,-0.00860068,-0.0038146975,0.0011857633,0.029204696,0.1738838,-0.038391646
1593480000,1593480000,-0.00043411762,0.011003392,-0.0040210313,0.11817217,0.5405302,-0.47731155
1593488000,1593488000,-0.0077604903,0.011553699,-0.011885199,-0.41373283,0.36636758,-0.6998479
1593496000,1593496000,0.004516903,0.010090046,-0.00998783,0.77635443,-0.040900256,-0.13390082
1593508000,1593508000,0.004347997,0.0103644775,-0.0031680712,0.06691989,0.36326367,0.22985065
1593520000,1593520000,0.0047321417,0.0065828473,-0.00776764,-0.04847821,-0.43898013,-0.18294792
1593528000,1593528000,0.011076596,-0.012714756,0.0004068222,0.36073962,-1.4574481,0.54891324
1593540000,1593540000,0.009153641,-0.00089069287,0.0037830085,0.02660685,0.15020677,0.12687251
1593548000,1593548000,0.0046136873,-0.0042153136,0.009474931,-0.24708155,-0.13253652,0.450534
1593560000,1593560000,0.01895501,-0.0017600751,0.00038959383,0.8352158,0.2190749,-0.43381023
1593568000,1593568000,-0.0026721887,0.0002873654,0.0023342534,-1.2432462,0.18305296,-0.06631393
1593580000,1593580000,-0.004206686,-0.0026765612,-0.0008345006,-0.32556453,-0.0405045,-0.09804103
1593588000,1593588000,-0.01667507,0.001154745,-0.012529441,-1.0700774,0.24901398,-0.98273265
1593600000,1593600000,0.0016728357,0.0021407544,0.006723296,0.9179568,0.03569028,1.4014492
1593604000,1593604000,0.00097417773,-0.0008461169,0.010109521,0.5524628,-0.22603394,1.2158314
1593616000,1593616000,0.023132429,0.013381758,-0.01383092,1.6415935,1.001073,-0.82660604
1593624000,1593624000,0.013861639,0.015975494,0.008897016,-0.0044677854,0.5338558,1.2470274
1593640000,1593640000,-0.0043743197,-0.011658503,0.011019083,-0.99702597,-1.0566574,0.17017277
1593648000,1593648000,9.523063e-05,-0.0011355825,0.0081613185,-0.085096896,0.27147323,-0.16747044
1593660000,1593660000,-0.001209426,0.0021494094,-0.007305168,0.19253314,0.028517257,-0.69120467
1593668000,1593668000,0.0055744993,-0.006777393,0.011800676,0.4427341,-0.60476613,1.0033983
1593680000,1593680000,0.0147016505,-0.011908334,0.00924454,0.8995441,-0.3441016,0.033488803
1593688000,1593688000,0.008377064,-0.014950538,0.0031857197,-0.14076424,-0.37594062,-0.39669526
1593700000,1593700000,0.0026453277,-0.0018539896,0.014573036,-0.3263967,0.8223476,0.5707547
1593708000,1593708000,0.00081643707,-0.00735254,0.0067195073,-0.30625173,-0.18665665,-0.34378856
1593716000,1593716000,-0.0033561215,-0.018519701,0.0040620463,-0.364208,-0.6863756,-0.25668174
1593728000,1593728000,8.689983e-05,0.00559512,0.015364266,-0.100450546,0.96038765,0.56082994
1593740000,1593740000,0.005970856,0.0035966258,0.0010602671,0.63054144,0.21509302,-0.5776444
1593748000,1593748000,0.0063312454,0.0040760622,0.007012695,0.18686342,0.12124666,0.20897397
1593756000,1593756000,-0.0030985791,0.00023438002,0.00901938,-0.5128545,-0.29386306,0.13145113
1593768000,1593768000,-0.00421606,-0.013717242,-0.0061667855,-0.13089299,-0.27546284,-0.952607
1593780000,1593780000,0.0013592748,-0.009259417,-0.014486913,0.04514739,-0.23401089,-0.6473605
1593788000,1593788000,-0.007930672,-0.009166511,-0.00034821342,-0.6945061,-0.04691873,0.698118
1593796000,1593796000,-0.005127666,0.00041382408,0.0045768316,0.052264094,0.62519455,0.642401
1593808000,1593808000,0.011443514,0.007930027,0.0072125513,0.8075831,0.7315402,0.3465661
1593816000,1593816000,-0.0016908618,0.0027481662,-0.0153073305,-0.588198,-0.06991944,-1.4993601
1593828000,1593828000,0.00749531,0.0016134937,-0.006483366,0.29912996,0.008714358,0.25670835
1593840000,1593840000,0.0077323755,0.01129026,-0.003839135,0.09879556,0.7039714,0.16600506
1593848000,1593848000,-0.009199275,0.016437719,-0.010267127,-1.1004978,0.5729692,-0.29457733
1593860000,1593860000,0.0072280155,0.0058996,-0.000956592,0.9223517,-0.47821513,0.5810728
1593868000,1593868000,0.0045753038,0.002083322,-0.007184377,0.10763705,-0.45403838,-0.22384204
1593880000,1593880000,0.006116502,-0.0036426685,0.001738265,0.15004213,-0.48439047,0.57526827
1593888000,1593888000,0.005558355,0.0057527353,0.007395441,-0.04862854,0.44472185,0.6197662
1593900000,1593900000,0.010746666,0.013633991,0.004705583,0.6920811,0.67967355,-0.0706376
1593908000,1593908000,0.0032132133,0.0014882514,0.004957035,-0.34884453,-0.6393429,-0.06816914
1593916000,1593916000,0.0018588118,-0.013192894,0.0007784541,-0.1938875,-1.2355682,-0.18796878
1593924000,1593924000,0.007037483,0.00039960514,0.022599144,0.26545042,0.45496342,1.3572071
1593940000,1593940000,0.015398929,-0.009722443,0.004144694,0.69426435,-0.29604834,-0.72351116
1593948000,1593948000,-0.0027602157,-0.0049995747,0.0035354851,-0.92560995,0.24071725,-0.33463722
1593960000,1593960000,-0.0029838346,0.00022749402,-0.0123890275,-0.43754956,0.14406614,-1.1846875
1593968000,1593968000,-0.004574592,-0.007288299,-0.006150848,-0.21553075,-0.44138753,0.019886307
1593980000,1593980000,0.007649898,0.0044115367,-0.0026078941,0.58854276,0.5490072,-0.027417889
1593988000,1593988000,-0.0038422477,0.0030624962,-0.006215518,-0.6018448,0.21787292,-0.1949869
1594000000,1594000000,-0.011597456,-7.859112e-05,-6.923593e-05,-0.3291117,-0.36778602,0.17640245
1594008000,1594008000,-0.005075867,-0.009502707,0.004814133,0.3040101,-0.76650494,0.47382915
1594020000,1594020000,-0.009120715,0.004399576,0.00089682476,-0.27480984,0.49131712,-0.3031526
1594028000,1594028000,-0.0077218646,-0.00051535544,0.004942052,0.008020133,-0.066650756,0.22224554
1594040000,1594040000,-0.0008063329,0.013838295,-0.001849394,0.5151373,0.60555094,-0.5401481
1594048000,1594048000,-0.0009780664,-0.0015861333,0.0003782239,0.14214298,-0.808172,-0.008560046
1594060000,1594060000,0.008997157,-0.003279144,0.0093179615,0.84571004,-0.3331542,0.50496125
1594068000,1594068000,-0.00461494,0.007352478,0.0054567056,-0.674047,0.6515436,-0.078146175
1594080000,1594080000,0.0007285208,-0.0012780142,0.006586706,0.5335919,-0.5603286,0.25580823
1594088000,1594088000,-0.0006130927,0.0001386261,0.0082488945,0.031788707,-0.03891826,0.16742963
1594100000,1594100000,-0.00089935143,-0.0045696017,-0.0059157293,0.13279107,-0.6941812,-0.96253675
1594108000,1594108000,0.0034002196,-0.006788577,-0.0064887214,0.43364608,-0.4419642,-0.34361416
1594120000,1594120000,0.012429057,-0.007210661,0.0033077698,0.30665958,-0.32712394,0.20559108
1594128000,1594128000,0.0020238366,0.0025198064,-0.018368937,-0.56457925,0.6084348,-1.3801757
1594140000,1594140000,0.0005149423,-0.008824033,-0.004298316,-0.14918648,-0.44724768,0.7046433
1594148000,1594148000,-0.0020304215,-0.0061497823,-0.0030108667,-0.30945155,-0.017832939,0.26576972
1594160000,1594160000,-0.0113199325,0.006563946,-0.0032775707,-0.08019066,0.74024963,0.083810866
1594168000,1594168000,0.022416053,0.0072884546,-0.012757434,2.252331,0.29864877,-0.61456317
1594180000,1594180000,0.0017692726,-0.007822598,0.00861532,-0.75359106,-0.5413219,1.0693002
1594188000,1594188000,0.006202871,0.007089184,-0.007524737,0.0078550875,0.7263388,-0.7198275
1594196000,1594196000,0.00012214026,-0.008532311,-0.004723939,-0.4227494,-0.7930015,-0.016916348
1594208000,1594208000,0.011034847,-0.009368293,-0.00039245613,0.64847994,-0.03321302,0.026972711
1594220000,1594220000,0.005846139,-0.0017585923,-0.00298386,-0.09155737,0.24393964,0.14971596
1594224000,1594224000,0.00036924356,-0.0058593266,0.0071493303,-0.5189511,-0.18059625,0.94705063
1594240000,1594240000,-0.0045731594,0.0027385883,-0.0040491964,-0.48515427,0.5140809,-0.26646763
1594244000,1594244000,-0.0032781174,0.0022437333,0.0035168885,-0.21456325,0.30073148,0.4554037
1594260000,1594260000,-0.005737749,0.002930404,-0.00042392066,-0.30363327,-0.06446185,-0.5246346
1594268000,1594268000,-0.0072792275,-0.005428241,0.00228071,-0.1842255,-0.570051,-0.08721999
1594280000,1594280000,-0.0018204462,-0.01084784,-0.0050950893,0.27195078,-0.46925345,-0.28983092
1594288000,1594288000,-0.0018409048,-0.0054979404,0.015878424,0.046000153,0.19821703,1.3801792
1594300000,1594300000,0.003666032,0.0068449904,-0.005183615,0.42705727,0.7731291,-0.95232
1594308000,1594308000,-0.0073738433,0.0033734513,-0.0014163498,-0.67401993,0.033614997,-0.11672133
1594320000,1594320000,0.01777905,0.0030620738,0.0004911541,1.5466259,0.19890112,0.018581633
1594328000,1594328000,0.011207327,0.0170416,0.00054056075,0.11250162,1.0352597,0.006916776
1594340000,1594340000,-0.012368581,0.0060375277,-0.004771446,-1.0848422,-0.4709112,-0.109339155
1594348000,1594348000,-0.0063655213,-0.0034474859,0.0043109343,-0.034217477,-0.85981584,0.52100915
1594360000,1594360000,-0.00764338,0.0014354062,-0.006725111,-0.26797798,-0.09735214,-0.6273407
1594368000,1594368000,0.011829384,-0.013498914,-0.011206327,1.1651753,-1.0566319,-0.51386607
1594380000,1594380000,0.007792183,-0.0025617692,0.001355085,0.23207752,0.7102737,0.39354554
1594388000,1594388000,-0.009632932,0.0053270906,0.0039932285,-1.154442,0.67132676,0.4347067
1594400000,1594400000,-0.0076063904,-0.0030888678,0.010783948,-0.0838722,-0.044036366,0.33806404
1594408000,1594408000,0.002315498,-0.0041945833,0.0017799224,0.69037044,-0.0530032,-0.49377933
1594420000,1594420000,-0.0040668417,-0.0009474801,0.009798733,-0.4083327,-0.11211998,0.54103327
1594428000,1594428000,0.00402374,-0.0058987993,0.0043292167,0.46799514,-0.31569105,-0.2511418
1594440000,1594440000,0.006265564,-0.0068952483,-0.0067855637,-0.15371764,-0.14467232,-0.48431963
1594444000,1594444000,-0.00010742768,-0.006504047,0.0034120716,-0.6352565,-0.06356254,0.5304964
1594460000,1594460000,0.011573024,0.002095044,0.008205967,0.45620444,0.20266652,0.19705161
1594468000,1594468000,-0.011905355,0.0027075554,0.006972592,-1.5103867,0.17048986,-0.00651927
1594480000,1594480000,0.008746042,0.010765008,0.0043090796,1.0840673,0.5861403,-0.023664763
1594488000,1594488000,0.017450795,0.013593646,0.019010222,0.99908924,0.46840277,0.97467834
1594500000,1594500000,-0.0064310594,0.00059835723,-0.004487463,-0.90673167,-0.77473557,-1.1162391
1594508000,1594508000,0.004127239,0.007932001,0.002143217,0.2789777,0.15903029,0.017004611
1594516000,1594516000,-0.014393427,0.005080386,-0.0017851986,-1.1940633,-0.07748345,-0.3363294
1594528000,1594528000,3.927428e-05,-0.0029850537,-0.008882233,0.7045805,-0.718817,-0.54782856
1594536000,1594536000,0.0059060743,-0.015000919,0.0015494876,0.64548635,-1.0700742,0.52819836
1594548000,1594548000,-0.0015749084,0.00049994566,0.0031291451,-0.24639815,0.5318435,-0.0038236286
1594560000,1594560000,0.0010806248,0.008436739,-0.008268971,-0.06799802,0.5441342,-0.41754603
1594568000,1594568000,0.005770459,0.013064136,0.008320252,0.29327184,0.53002924,1.0099808
1594580000,1594580000,-0.0037784232,-0.004515979,0.0019289692,-0.5079726,-0.7890508,-0.31327164
1594588000,1594588000,-0.0027311938,-0.009267412,0.012373427,-0.15602574,-0.7465091,0.673946
1594600000,1594600000,0.0020804435,-0.0037040508,0.00669677,0.28128117,0.135002,-0.48121038
1594608000,1594608000,-0.016587742,-0.009896353,-0.008810383,-1.1302675,-0.2560287,-1.1658328
1594620000,1594620000,-0.011328858,-0.013235608,-0.007998197,-0.12533788,-0.47153172,-0.5211724
1594628000,1594628000,0.0008398516,-0.0014398263,-0.0021672058,0.83708286,0.6285354,0.19655503
1594640000,1594640000,-0.0027777865,0.0031477557,0.010335986,0.1580283,0.3350018,0.7943504
1594648000,1594648000,0.0048781596,0.008602872,0.0030914997,0.5015576,0.5099412,-0.23286746
1594660000,1594660000,-0.0021637678,-0.0053260685,0.008407074,-0.3251902,-0.49446374,0.44197273
1594664000,1594664000,-0.0049220766,-0.0026662115,0.0017847737,-0.4470817,-0.10662209,-0.2596804
1594680000,1594680000,0.0037666864,-0.0015298771,0.004477335,0.13404222,-0.41483188,0.7573287
1594688000,1594688000,-0.002837119,-0.0008181521,3.8745915e-05,-0.43995202,0.05355841,0.0039348016
1594700000,1594700000,-0.0038356376,0.0010003519,-0.011070382,-0.13888124,-0.18131827,-0.7449658
1594708000,1594708000,0.0042064376,-0.005122996,-0.0021500993,0.56678385,-0.5136854,0.39826068
1594720000,1594720000,-0.003394098,-0.006124743,-0.003320306,-0.4433339,-0.073054194,-0.105964884
1594728000,1594728000,-0.0070099197,0.020368584,-0.010338821,-0.416175,1.8170223,-0.60095936
1594740000,1594740000,-0.005989347,0.0018325483,-0.0040143924,-0.21616238,-0.67636657,0.19333827
1594748000,1594748000,-0.008599544,-0.0005668088,-0.010640448,-0.21049939,-0.40330347,-0.37704185
1594760000,1594760000,-0.014497689,0.001525706,0.0024732454,-0.31690383,-0.0778117,0.6751878
1594764000,1594764000,-0.0037361067,0.0031264008,-0.00254043,0.6890714,0.08207977,0.030047359
1594780000,1594780000,0.0038093736,-0.0046437336,0.0029726569,-0.08456719,-0.70957994,0.61147517
1594788000,1594788000,-0.0049223225,0.0016999419,-0.00024897087,-0.62704474,0.2024107,0.0913795
1594800000,1594800000,0.0046294117,0.008333863,-0.009657647,0.43190548,0.20351644,-0.68722534
1594808000,1594808000,0.013902545,0.011298713,0.010251965,0.795138,0.37002972,1.2054359
1594820000,1594820000,0.007806021,0.0064385585,0.008845504,-0.09460446,-0.36630896,0.049105577
1594828000,1594828000,-0.008620263,-0.0010310423,0.0013138532,-1.2252979,-0.7064153,-0.506573
1594840000,1594840000,-0.012144702,-0.008437983,-0.00302642,-0.43558195,-0.17263854,-0.33171114
1594848000,1594848000,-0.004057868,0.0033373483,0.009855851,0.36755863,0.62442535,0.7654836
1594860000,1594860000,0.0037188954,-0.015622046,-0.009197983,0.35071573,-1.1222904,-0.9988282
1594868000,1594868000,0.008800016,-0.00802608,-0.010773475,0.5344459,0.12521978,-0.4320615
1594880000,1594880000,-0.00090305804,0.020758659,-0.005196765,-0.24344483,1.7544783,0.006337703
1594888000,1594888000,0.008144734,0.008840824,0.0011018903,0.5174022,-0.15876855,0.5238842
1594900000,1594900000,-0.009088715,-0.005149472,0.008581114,-0.8410346,-0.9346709,0.51406103
1594908000,1594908000,0.0013203877,-0.010585992,0.0090352995,0.39848948,-0.6565823,0.2923665
1594920000,1594920000,0.00089152175,0.0013080152,0.0063333544,-0.24933642,0.36889654,-0.20319971
1594928000,1594928000,-0.0077305445,0.002130359,-0.0032810092,-0.6376168,0.1945363,-0.7996721
1594940000,1594940000,-0.01444865,0.0064673284,0.005843817,-0.77005833,0.19553666,0.5586133
1594948000,1594948000,-0.009692873,0.00017159726,-0.0015998248,0.15492046,-0.29933968,-0.32711393
1594960000,1594960000,-0.0027198836,0.0010818104,-0.00684844,0.18686631,-0.07276145,-0.35002804
1594968000,1594968000,0.0072225127,-0.0020206035,0.009831936,0.7249855,-0.20535807,0.9899198
1594980000,1594980000,0.0011921569,0.020974694,-0.009362921,-0.048796725,1.2689275,-0.79499495
1594988000,1594988000,0.003595136,0.0115814805,0.0064712963,0.13862671,-0.18926336,0.7021347
1595000000,1595000000,0.0005222152,0.005481993,-0.0039697946,-0.034729972,-0.22480303,-0.273515
1595008000,1595008000,0.003472177,0.014165461,0.0063748374,0.16467011,0.43119726,0.5915247
1595020000,1595020000,-0.0056286384,0.0068084677,0.001680627,-0.35306093,-0.1621822,-0.14373781
1595028000,1595028000,-0.006910098,0.009949766,0.0075865565,-0.2757741,0.1427223,0.41626862
1595040000,1595040000,0.00037537757,0.0023610303,-0.00766861,0.36729032,-0.45895103,-1.0708816
1595048000,1595048000,-0.0068562594,-0.004143628,-0.0043749176,-0.37760612,-0.6468853,-0.1806577
1595060000,1595060000,-0.001837105,-0.0030300964,0.003178528,0.25375357,-0.017460622,0.45600802
1595068000,1595068000,0.0022297518,-0.010771304,-0.005058059,0.4222636,-0.58554834,-0.4315742
1595080000,1595080000,0.0054561105,0.017569732,-0.005784287,0.04766375,1.5031978,-0.20398921
1595088000,1595088000,-0.012864507,0.0010686562,-0.0062485943,-1.2880511,-0.53342885,-0.0709944
1595100000,1595100000,0.007313285,-0.0038417007,-0.0072366823,1.0242336,-0.31651038,0.0801109
1595108000,1595108000,0.0008214522,-0.01646386,-0.0020426544,-0.07532859,-1.0062846,0.2434286
1595116000,1595116000,-0.0073757833,-0.015066011,-0.0044653537,-0.6055759,-0.3533668,0.012434074
1595128000,1595128000,-0.0019517643,-0.0077704913,0.0024552592,0.4666208,0.51022375,0.48761404
1595140000,1595140000,0.01813313,0.013238099,0.005320251,1.1541252,1.4678993,0.31608203
1595148000,1595148000,0.013585077,0.0107087055,-0.0031959198,0.124203324,0.36129534,-0.5700785
1595160000,1595160000,0.00011294894,-0.0155693535,-0.012431602,-0.6180872,-1.3710475,-0.4588754
1595168000,1595168000,-0.0019709945,-0.0033019518,-0.007320899,-0.35296717,0.36458015,0.17875189
1595180000,1595180000,-0.00032638334,-0.0021611007,-0.0035253288,0.0013346672,0.25186655,0.27429327
1595188000,1595188000,-0.0060432963,0.010578928,0.0012764959,-0.45269296,0.9589268,0.41665292
1595200000,1595200000,-0.0007010639,0.002739169,0.00015215148,0.28433493,-0.39481694,0.21951655
1595208000,1595208000,0.0037140246,-0.0016119926,0.011772413,0.4616042,-0.40825444,0.8473846
1595220000,1595220000,0.009345848,-0.0050155823,-0.0003011583,0.48821145,-0.46317214,-0.4793175
1595228000,1595228000,-0.0002040888,-0.0052654645,0.0018476393,-0.49668324,-0.1818594,-0.087139666
1595240000,1595240000,0.008602346,0.0040929765,-0.00050775136,0.4039176,0.42576635,-0.034395598
1595244000,1595244000,0.0037593287,0.0053105843,-0.0016557797,-0.13620818,0.3851686,-0.11889696
1595260000,1595260000,-0.003968007,-0.011439283,0.011417344,-0.09214744,-0.93058074,0.9001557
1595268000,1595268000,-0.0029358906,0.002744715,0.007401428,0.12890023,0.507677,-0.018727293
1595280000,1595280000,-0.0021186408,0.0025285329,-0.0075699785,-0.106641084,0.0535105,-0.5973785
1595288000,1595288000,0.010302884,0.0023070236,0.003951863,0.8392908,0.08476453,0.48144907
1595300000,1595300000,0.0092905415,0.010054393,-0.002451523,0.007186353,0.37478906,-0.35406756
1595308000,1595308000,0.0063400893,-0.0031426132,-0.0027080846,-0.14763525,-0.7576573,-0.1578822
1595320000,1595320000,-0.006333676,-0.0009881716,-0.0007893749,-0.63576174,-0.16341375,0.33767152
1595328000,1595328000,0.015557143,0.0002461088,-0.00831965,1.155864,0.038163863,-0.40983438
1595340000,1595340000,-0.00065340666,-0.002902893,0.007709717,-0.7217146,-0.1148707,0.86710274
1595348000,1595348000,-0.007798901,0.0032080386,-0.0007372665,-0.75391036,0.3686685,-0.29069555
1595360000,1595360000,0.00018563171,-0.0029346405,0.00021025098,0.31578714,-0.20165935,-0.014530861
1595368000,1595368000,-0.0050663603,0.0070143896,0.0121655585,-0.42315185,0.6078254,0.8789591
1595380000,1595380000,-0.010441374,0.0068074455,0.0076383315,-0.08267516,0.13348284,-0.08877371
1595388000,1595388000,-0.0033613301,0.007664907,0.003855586,0.43325287,-0.03537654,-0.3489253
1595400000,1595400000,-0.008793501,-0.013877936,0.0028489612,-0.0940478,-1.0701755,-0.025907774
1595408000,1595408000,-0.010055327,-0.0020679063,-0.0014047525,-0.026104629,0.36635685,-0.4183855
1595420000,1595420000,0.0044146837,0.008961169,-0.0121717965,0.22305655,0.9053557,-0.59325016
1595428000,1595428000,-0.0010125802,0.019832503,-0.0083279265,-0.13519832,1.0356576,0.04687037
1595440000,1595440000,-0.00495412,0.0035512722,0.002222176,-0.39513648,-0.6098404,0.56338084
1595444000,1595444000,-0.004279962,0.001107058,-0.0057794917,-0.20658055,-0.6102462,-0.29423803
1595460000,1595460000,-0.008772601,0.004368621,-0.003630292,0.1963737,-0.018947585,0.73109037
1595468000,1595468000,-0.0037064704,-0.007866466,0.0014156661,0.41257378,-0.8316605,0.5413494
1595480000,1595480000,-0.0031640504,0.00040098696,-0.010009139,-0.010548353,0.5576012,-0.38977337
1595488000,1595488000,-0.001459343,0.009473469,-0.001411715,0.07631235,0.72322714,0.49045646
1595496000,1595496000,-0.001232033,0.016416272,0.0028628262,0.1599463,0.90044606,0.45192274
1595508000,1595508000,0.0033253257,-0.005872092,0.0008954484,0.18388782,-1.2985033,0.18538874
1595520000,1595520000,-0.012112647,-0.0029319152,-0.0007642727,-0.94819486,-0.33540177,-0.54595155
1595528000,1595528000,-0.012441009,-0.0034954066,0.0003342302,-0.3428862,-0.18277614,0.037647184
1595540000,1595540000,-0.0022749018,-0.0060550906,-0.012912727,0.46815795,0.014491516,-1.0076623
1595548000,1595548000,-0.0062610162,-0.0010222041,-0.011958946,-0.12678546,0.2567596,-0.29154474
1595560000,1595560000,0.006171625,0.0020679994,0.006094819,0.9035392,0.47978896,0.73436034
1595568000,1595568000,0.01566029,0.003141836,0.0026934738,0.987942,0.26773715,0.14001244
1595580000,1595580000,0.010323803,-0.002018586,0.004317942,0.18261644,-0.121173725,-0.04865021
1595588000,1595588000,-0.00042727267,-0.0026988056,0.0045049787,-0.6809267,-0.21173523,0.08359608
1595600000,1595600000,0.003681515,0.006116536,-0.00013281798,-0.02361247,0.8494635,-0.31665736
1595608000,1595608000,0.0018347274,0.012388833,0.0009028375,-0.10232845,0.62881,-0.0013641904
1595620000,1595620000,0.0069351923,-0.019554328,0.013625436,0.102374315,-1.4197571,0.83189154
1595628000,1595628000,-0.0040461207,-0.0066438033,0.01401515,-0.6246405,0.32425684,0.23715156
1595640000,1595640000,-0.0020095974,-0.0056205075,-0.008630875,-0.1841289,0.16840246,-1.0376174
1595648000,1595648000,0.0033554817,0.0075004664,-0.0036548467,0.26050287,1.0150092,-0.06563465
1595660000,1595660000,-0.0045469827,0.012179381,-0.0028767416,-0.30953366,0.27361083,-0.0070123402
1595668000,1595668000,0.003711591,-0.0029085476,-0.0023434,0.4265268,-0.894853,-0.0124150375
1595680000,1595680000,-0.003234172,0.0020706698,-0.006583088,-0.33634317,-0.024702044,-0.3330155
1595688000,1595688000,-0.00840351,-0.0012391544,-0.015302018,-0.49654832,-0.2041381,-0.74542654
1595700000,1595700000,1.9147788e-05,-0.0011398187,0.006586742,0.4165258,-0.15293561,1.0748937
1595708000,1595708000,0.0025669772,-0.0019974555,-0.0066783912,0.41728598,-0.086739756,-0.45100695
1595720000,1595720000,0.0074610943,0.008348412,0.015765287,0.110274196,0.19696401,1.2158577
1595728000,1595728000,0.0050717564,0.0048064394,0.004780147,-0.09929585,-0.054860763,-0.32822597
1595740000,1595740000,-0.00622797,0.005105288,-0.0014560481,-0.5829302,-0.23679972,-0.11918623
1595748000,1595748000,-0.011913888,-0.009748135,-0.0045131757,-0.6387693,-1.0235351,-0.3568173
1595760000,1595760000,-0.0066678934,-0.00015890712,-0.013399719,-0.07378754,0.29322332,-0.54110366
1595768000,1595768000,-0.00909044,0.007823279,-0.005106615,-0.12377605,0.60625196,0.30567914
1595780000,1595780000,-0.0023895972,0.013187488,-0.0071112798,0.38040298,0.68479717,0.22923686
1595788000,1595788000,-0.0036630877,0.007890223,0.00047603226,-0.023290813,-0.17167784,0.574567
1595800000,1595800000,0.00022847232,-0.0036534271,-0.007947097,0.95169723,-0.570794,-0.48219568
1595808000,1595808000,0.0021385716,-0.0044353977,-0.008467298,0.35787666,-0.3109725,-0.16998902
1595820000,1595820000,-9.740723e-05,0.016957607,-0.0031656872,0.25923663,1.0491788,0.2682699
1595828000,1595828000,0.0075402996,0.006974337,-0.008123573,0.5251924,-0.19493106,-0.24932283
1595840000,1595840000,0.007081859,0.0090893665,0.005868844,0.17215505,-0.19703282,1.0404986
1595848000,1595848000,0.0018907674,-0.0028678747,0.00691754,-0.348001,-0.8842022,0.4741535
1595860000,1595860000,-0.0024242764,-0.0062803905,-0.00058929325,-0.15236604,-0.307734,-0.27374434
1595868000,1595868000,0.006979728,0.0015177302,-0.0016487022,0.5572678,0.38392168,-0.18823749
1595880000,1595880000,0.0076855095,-0.005998101,0.0017902465,0.44842833,-0.29388973,0.20539531
1595888000,1595888000,-0.012028556,0.0032274865,0.0015778554,-1.2559415,0.44953233,-0.017541312
1595900000,1595900000,0.0073936656,-0.0023969633,-0.013426894,1.0433146,-0.15728301,-0.88994986
1595904000,1595904000,0.019343704,-0.001901722,-0.011019294,1.6936696,-0.06325416,-0.3909094
1595920000,1595920000,0.01160634,-0.0080291005,-0.0057034297,0.3980943,-0.55981034,-0.0542477
1595928000,1595928000,0.0024138836,0.001620179,-0.0019206634,-0.57702565,0.55364096,0.26179665
1595936000,1595936000,-0.00088700745,0.010429194,0.003431226,-0.39059344,0.7970464,0.42107892
1595948000,1595948000,0.0017227028,0.002153465,-0.004157348,-0.03977494,-0.21841305,-0.19036005
1595960000,1595960000,0.0044511924,0.009329491,0.0029609024,0.093316965,0.3530215,0.26434413
1595968000,1595968000,-0.007877407,0.008974482,0.00042104686,-0.8443881,0.07250577,-0.033515677
1595980000,1595980000,0.0064431536,-0.0065851226,0.0023861784,0.53317094,-0.68824697,0.109930284
1595988000,1595988000,-0.010851742,-0.0039068284,-0.007163728,-1.0029478,-0.23072353,-0.6401197
1596000000,1596000000,0.0013332118,0.0076654144,0.009676579,0.76432604,0.5984805,1.00213
1596004000,1596004000,0.008041391,0.0011358127,0.009558398,1.0696406,-0.147774,0.6570231
1596020000,1596020000,-0.01074845,-0.0050095906,0.0007222802,-0.21894205,-0.058050267,-0.33372486
1596028000,1596028000,0.008411423,-0.01305886,-0.0031719909,1.1773806,-0.60750663,-0.41710684
1596040000,1596040000,0.00027630976,-0.0013535356,0.010649075,-0.14772478,0.41190362,0.71630204
1596048000,1596048000,-0.004902832,-0.005410977,0.014080092,-0.4145972,-0.04950287,0.5857039
1596060000,1596060000,-0.0016217772,-0.0011542673,0.003701713,0.09471379,-0.06653558,-0.66226935
1596068000,1596068000,0.006292135,-0.004439121,0.0023415037,0.65574473,-0.10474359,-0.29620126
1596080000,1596080000,-0.0008486102,-0.0031253048,-0.013938841,-0.62850857,0.0309087,-1.0175338
1596084000,1596084000,-0.0044164024,-0.0003664795,-0.008858305,-0.716632,0.25128385,-0.2522834
1596100000,1596100000,0.011315215,-0.008932317,-0.0012935062,1.1417086,-0.4233505,0.32380342
1596108000,1596108000,0.0031049221,-0.0003953859,-0.011140835,-0.24462777,0.46023738,-0.64295435
1596120000,1596120000,0.00055550924,0.014094262,-0.015290086,0.23955446,0.58259445,0.012594591
1596128000,1596128000,-0.005867282,0.0015659118,0.0005885407,-0.45689493,-0.50991046,1.0568209
1596140000,1596140000,0.012540126,0.01826684,-0.006142114,1.0069851,0.59197843,-0.19739781
1596148000,1596148000,0.0017679641,0.0009516253,-0.00095827086,-0.29298243,-0.9302486,0.43558785
1596160000,1596160000,0.010401624,-0.009070332,-0.002159513,0.23512906,-0.85367453,-0.21076076
1596168000,1596168000,0.0022206136,-0.017935876,-0.0021088792,-0.4614173,-0.9925032,-0.11446031
1596180000,1596180000,-0.0016147968,-0.00053774705,0.0014077493,-0.20236573,0.8827907,0.22883953
1596188000,1596188000,0.007881709,0.00082646235,0.0058599273,0.5645635,0.42473435,0.40425897
1596200000,1596200000,-0.005344685,0.0016397558,-0.014217532,-0.9027407,0.28305343,-1.2693588
1596208000,1596208000,0.00036527895,-0.0025744138,-0.0070562707,0.06980145,-0.23730874,0.084578864
1596220000,1596220000,0.0013872103,-0.004449065,0.0078035127,0.0729469,0.0043549417,0.69318545
1596228000,1596228000,-0.0056094155,-0.0019564128,-0.0029387227,-0.4458267,0.1713538,-0.53082764
1596240000,1596240000,0.0028121753,-0.011063349,-0.016156362,0.6122364,-0.50602174,-0.54814357
1596248000,1596248000,0.005101458,-0.008054794,-0.002882994,0.3350802,-0.0276463,0.6105005
1596260000,1596260000,-0.00032979817,0.0077880565,0.01761414,-0.23870403,1.1248229,1.16361
1596268000,1596268000,-0.0021395134,-0.0042186542,0.0036478182,-0.26016864,-0.5339293,-0.37921375
1596280000,1596280000,0.00012059626,0.011559198,0.0014232933,0.22691059,1.1532729,-0.5548937
1596288000,1596288000,0.004357351,0.0024202396,-0.012529502,0.36941442,-0.21493445,-1.1152334
1596296000,1596296000,0.0028080975,0.001330495,-0.0058635063,0.04201874,-0.14566684,-0.044370208
1596308000,1596308000,0.0019426172,-0.0014935457,-0.0044453577,0.015098944,-0.28022182,0.10053322
1596320000,1596320000,-0.00073650735,0.0042766593,-0.011064979,-0.091265425,0.6113223,-0.4255467
1596328000,1596328000,0.008176121,-0.0037228968,-0.011526017,0.63253367,-0.43075126,-0.11849219
1596340000,1596340000,0.010103019,0.0073399763,-0.017555295,-0.021865845,0.61415905,-0.45309773
1596348000,1596348000,0.008730525,0.012988549,-0.0042734523,-0.030758232,0.70112896,0.72557306
1596360000,1596360000,-0.005044542,0.011020569,-0.00039858383,-0.9076593,0.050291725,0.43715924
1596368000,1596368000,0.0040795887,0.0085185105,-0.0028038288,0.37093556,-0.16700828,0.02023634
1596380000,1596380000,0.00062589825,0.0050423327,-0.0018369574,-0.4143535,-0.31481397,-0.08144782
1596388000,1596388000,-0.009380271,-0.0011171,-0.0057791406,-0.85370594,-0.55019206,-0.25840396
1596396000,1596396000,-0.0044986443,0.010801745,-0.0054339156,0.012192547,0.63378674,-0.14533027
1596404000,1596404000,-0.005535941,-0.0013449579,-0.009909587,-0.074115366,-0.7014567,-0.35097855
1596420000,1596420000,0.004268091,0.0067067416,0.0018654927,0.46174946,0.38886476,0.2840639
1596428000,1596428000,0.0030577935,0.0060655675,0.0052391435,0.15052156,0.19133537,0.34644943
1596440000,1596440000,0.0049828785,-0.0036664368,0.010022354,-0.009203315,-0.61681485,0.49522433
1596448000,1596448000,-0.012711709,-0.007116999,-0.0063324748,-1.1797495,-0.50127256,-1.0174974
1596460000,1596460000,0.0048425295,-0.0033305483,0.011325684,0.7485491,0.10263577,0.8532554
1596468000,1596468000,0.007390325,0.0034953922,0.00083329406,0.44058913,0.5370744,-0.3155112
1596480000,1596480000,0.0062301266,-0.0049941572,0.008684952,0.06930606,-0.56546724,0.38095644
1596488000,1596488000,-0.0005369565,0.0043153963,0.0054145628,-0.46521932,0.5018313,-0.022273991
1596500000,1596500000,-0.007060194,-0.0075115543,-0.0055691325,-0.3920279,-0.9591073,-0.84504557
1596504000,1596504000,-0.008495471,-0.0118395025,-0.009126431,-0.38091928,-1.000212,-0.8598575
1596520000,1596520000,0.010147001,0.003898516,-0.009100354,1.0246048,0.49663904,0.046285637
1596528000,1596528000,-0.002352127,-0.005653006,0.00046412053,-0.44844818,-0.4408908,0.61163044
1596540000,1596540000,-0.0017441135,-0.0034479627,0.0072115334,0.04117179,0.04342413,0.76295525
1596548000,1596548000,-0.009361146,0.0030833178,-0.006778267,-0.52014846,0.44325453,-0.6735391
1596560000,1596560000,-0.008675449,0.0011661012,-0.0024369117,-0.18855986,0.28653866,0.033393696
1596568000,1596568000,0.002052275,0.01060006,0.0054925256,0.73493546,0.7350963,0.5823914
1596580000,1596580000,0.0015949311,0.008815648,-0.006456028,0.021549135,0.12671034,-0.61962235
1596588000,1596588000,0.0010091875,0.00574475,0.0030170386,-0.06317337,-0.16812566,0.3843306
1596600000,1596600000,-0.009766414,-0.0069105867,-0.0012114614,-0.4627321,-0.83597696,-0.07307648
1596608000,1596608000,0.0004495066,0.007747644,-0.00044884245,0.4894091,0.69796544,-0.014456029
1596616000,1596616000,-0.004519655,0.0028813528,-0.005108447,-0.14757738,-0.15815967,-0.3247307
1596628000,1596628000,-0.011844067,-0.0037235145,-3.7473044e-05,-0.579582,-0.3164237,0.27727535
1596640000,1596640000,0.010854768,0.0019914699,-0.0028676998,1.4935212,0.54772323,-0.27462065
1596648000,1596648000,0.017597973,-0.004519531,0.0040954445,0.9492092,-0.32198155,0.435255
1596660000,1596660000,-0.009035582,-0.007715329,-0.00010730916,-1.2390378,-0.10890189,-0.110183425
1596668000,1596668000,-0.0016688027,-0.0042697736,-0.009195325,0.03421688,0.07228179,-0.7418314
1596676000,1596676000,0.0065131793,-0.007282036,-0.0018563913,0.55703616,0.04343527,0.26836413
1596688000,1596688000,0.0069375257,0.0035033957,-0.005560655,0.097471416,-0.05744314,-0.22018306
1596700000,1596700000,0.0071059484,0.0045609213,-0.0076876986,0.012425363,0.11346703,-0.24504417
1596708000,1596708000,0.00023398326,0.0056359884,-0.0070194663,-0.39341137,0.19980042,-0.008624192
1596720000,1596720000,0.009810897,3.8648715e-05,0.0044802385,0.25028253,-0.59004545,0.8001517
1596724000,1596724000,0.004543268,-0.0021113595,0.0097939735,-0.27395993,-0.57246906,0.9768679
1596740000,1596740000,0.005971861,0.0021645331,0.010727813,0.79457265,0.3012498,0.25611585
1596748000,1596748000,0.013630711,0.0054108943,0.0077898125,0.8286623,0.3611079,-0.06149824
1596760000,1596760000,0.005505165,0.0053273896,0.01729048,-0.43433738,-0.0132535435,0.21918488
1596768000,1596768000,-0.0027625817,-0.0037511254,0.008023249,-0.7981762,-0.64923,-0.47651693
1596780000,1596780000,0.0036336146,-0.011614816,0.0040720575,0.2588835,-0.5636065,-0.49774736
1596788000,1596788000,0.004394507,0.0021128969,0.004688948,0.1393611,0.7644912,-0.09789239
1596800000,1596800000,-0.0020615149,0.0114204055,0.0038584687,-0.26192063,0.78113663,-0.35183626
1596808000,1596808000,7.3476636e-05,0.0072711534,0.0016760037,0.0010906551,0.00044853086,-0.3391115
1596820000,1596820000,0.0011571378,0.006895616,-0.0064996625,0.30013892,0.46848464,-0.42294964
1596828000,1596828000,-0.007720123,0.004670451,-0.0029672068,-0.55443364,-0.13483119,0.0039179767
1596840000,1596840000,0.0072018686,-0.009086982,-0.003957546,0.5635605,-0.72261316,-0.12012595
1596848000,1596848000,0.004339568,-0.0008601473,-0.008089674,0.119769916,0.24076709,-0.27083302
1596860000,1596860000,0.0032394358,-0.0014339987,0.0014952333,-0.04589141,-0.05911889,0.5158734
1596868000,1596868000,0.0053946404,-0.0022712,0.004360679,0.17567267,-0.05034398,0.30769557
1596880000,1596880000,-0.0007055013,0.00092629145,-0.007211429,-0.36550015,0.25823042,-0.39215043
1596888000,1596888000,0.005160077,-0.0045499345,0.0016071603,0.24015827,-0.3164426,0.42430004
1596900000,1596900000,-0.0034464344,-0.0242284,-0.0008441863,-0.39704153,-1.3739771,0.07377926
1596908000,1596908000,0.0008142113,-0.017667884,0.004068214,0.25111791,-0.06689478,0.35124928
1596920000,1596920000,0.008602619,-0.01780221,0.0061563086,0.021786332,-0.19106731,0.15603417
1596928000,1596928000,-0.010181731,-0.02520232,0.0017590125,-1.2478173,-0.54884154,-0.25630686
1596940000,1596940000,0.0012524596,-0.023815935,0.00957417,0.4962458,-0.15185538,0.6753299
1596948000,1596948000,-0.0022511063,-0.045356527,0.0033998506,-0.17998785,-1.5596192,-0.22239962
1596960000,1596960000,0.0073004863,-0.051172104,-0.0054393727,0.7458599,-0.55699676,-0.42615193
1596968000,1596968000,0.010294438,-0.049412258,0.011148047,0.4695362,-0.2215355,0.9631738
1596980000,1596980000,-0.004839632,-0.08538486,0.00458028,-0.84509015,-2.07066,-0.2354846
1596988000,1596988000,-0.0129710855,-0.080666855,0.0010308402,-0.94311017,-0.58411956,-0.3494962
1597000000,1597000000,-0.021936757,-0.084786415,0.009038269,-0.52837944,-0.3386531,0.486229
1597004000,1597004000,-0.017230975,-0.08586533,0.012129913,0.041903615,-0.31559741,0.5821274
1597020000,1597020000,-0.03918469,-0.11884288,0.0019853401,-1.484794,-1.6678443,-0.12804584
1597024000,1597024000,-0.045404464,-0.121023834,0.00056070834,-1.5082598,-1.2923203,-0.2043519
1597040000,1597040000,-0.05059827,-0.12699965,-0.0039872685,-0.59788257,-1.1240873,-0.2184621
1597048000,1597048000,-0.059732765,-0.12787864,-0.0128607415,-0.94784296,-0.43022352,-0.7319391
1597060000,1597060000,-0.10148547,-0.14222911,-0.013816657,-2.7204714,-1.1082126,0.009410243
1597068000,1597068000,-0.09853939,-0.14806335,-0.0064637954,-0.8837931,-0.85569537,0.41677186
1597080000,1597080000,-0.08901792,-0.17140093,-0.015238761,0.1304651,-1.8421166,-0.34453574
1597088000,1597088000,-0.103689365,-0.190652,-0.00658424,-1.0429497,-2.1078014,0.3684321
1597100000,1597100000,-0.122819655,-0.18999459,-0.0043854723,-1.1899409,-0.58048004,0.38065058
1597108000,1597108000,-0.12184673,-0.20009232,-0.005086309,-0.39772516,-0.91465014,0.13749236
1597116000,1597116000,-0.13057266,-0.2139334,-0.0014781817,-0.8644364,-1.4589677,0.31139985
1597128000,1597128000,-0.14328676,-0.22412774,-0.0068659517,-1.1004497,-0.77245337,-0.2437727
1597140000,1597140000,-0.15721837,-0.21912429,6.262047e-05,-0.87153494,-0.27144393,0.2938046
1597148000,1597148000,-0.17672904,-0.2427197,0.0003448713,-1.8956137,-1.6705539,0.07118964
1597160000,1597160000,-0.17683373,-0.22863105,-0.011218528,-0.17554146,0.46824887,-0.8903437
1597168000,1597168000,-0.17559594,-0.2394148,-0.015400961,0.009840235,-0.6204485,-0.6252537
1597180000,1597180000,-0.17033263,-0.21923989,-0.007658677,0.3121779,1.2155437,0.28538337
1597188000,1597188000,-0.14841913,-0.21534556,-0.00051437377,1.7034116,0.7697054,0.71016014
1597196000,1597196000,-0.14750738,-0.2015342,0.0009374001,0.7528315,1.3842797,0.29279938
1597208000,1597208000,-0.15201592,-0.17388803,-0.0014978191,-0.12878534,2.0255437,0.14530985
1597220000,1597220000,-0.121338554,-0.14457631,-0.004315052,1.8724823,2.267146,-0.46074632
1597228000,1597228000,-0.119480334,-0.14514382,-0.00086344365,0.8823377,0.9879216,0.20835991
1597236000,1597236000,-0.119800456,-0.13389744,-0.0055796476,0.42360643,1.1952057,-0.42489854
1597248000,1597248000,-0.09888616,-0.118985265,-0.012661805,1.3761992,1.2318223,-0.2506611
1597260000,1597260000,-0.08423899,-0.105994165,-0.008449676,1.6008039,1.0343652,0.09527023
1597268000,1597268000,-0.07059612,-0.10719468,0.0011439126,1.5511497,0.37749937,0.72203773
1597276000,1597276000,-0.06281073,-0.09564658,0.011899714,1.2884847,1.0375733,1.0353016
1597288000,1597288000,-0.0516007,-0.05915109,0.00056381006,0.7680492,2.3284554,-0.10148027
1597300000,1597300000,-0.045679487,-0.056126356,-4.3237218e-05,0.7309937,0.9003476,-0.59899664
1597308000,1597308000,-0.03462805,-0.048211828,-0.0109749455,1.0392544,0.9505034,-0.888753
1597320000,1597320000,-0.02651961,-0.01590632,-0.00932837,0.65733075,2.3398008,-0.16598712
1597328000,1597328000,-0.018182246,-0.0038614008,-0.00040924666,0.9318888,1.8191575,0.5735257
1597340000,1597340000,-0.021269366,0.014529159,0.0054999655,-0.16549575,1.7390398,0.5492728
1597348000,1597348000,-0.021559266,0.014172765,0.009389884,0.03970611,0.66330326,0.43620217
1597360000,1597360000,0.009588296,0.023114273,0.018217603,1.7256055,0.7433774,0.58709604
1597368000,1597368000,0.007889374,0.026780346,0.006922632,0.63914734,0.59085006,-0.5631937
1597380000,1597380000,0.0238268,0.04706388,0.0034947519,1.1624036,1.26272,-0.38849023
1597388000,1597388000,0.03028531,0.05705627,-0.0028175772,1.0307902,1.329882,-0.5777452
1597400000,1597400000,0.03799341,0.06504475,0.007584409,0.8448781,0.8145862,0.55042875
1597408000,1597408000,0.05063481,0.07256961,-0.0006110057,1.2127512,0.87615466,-0.3593639
1597420000,1597420000,0.052388724,0.09377433,-0.007745294,0.5392818,1.5496773,-0.5403088
1597428000,1597428000,0.036249295,0.09821163,-0.0034923502,-0.90442675,0.9245719,0.122130886
1597436000,1597436000,0.053874012,0.09976296,0.0016666228,0.9345319,0.5482374,0.33108175
1597448000,1597448000,0.063142814,0.10524751,0.0006342456,0.79219615,0.55322856,0.22845662
1597456000,1597456000,0.07304338,0.12273906,0.004252272,1.0781224,1.488446,0.31680366
1597464000,1597464000,0.08306552,0.11810511,0.010982912,1.0538237,0.2281395,0.6375825
1597480000,1597480000,0.07452295,0.11439588,-0.0108245695,-0.14943159,0.38798904,-1.3081355
1597488000,1597488000,0.068991795,0.12576856,-0.0028331259,-0.2876876,0.8659581,0.058666304
1597500000,1597500000,0.07039633,0.11418989,-0.0132593885,-0.19860011,-0.539622,-0.6575281
1597508000,1597508000,0.079230025,0.123185515,-0.011048891,0.51560813,0.43143368,-0.14641975
1597520000,1597520000,0.07106992,0.14724202,0.0017627262,-0.0052964687,1.7285006,0.81525517
1597528000,1597528000,0.08306506,0.15024787,-0.0058899065,0.8142882,0.8484264,-0.3041175
1597540000,1597540000,0.07931302,0.15049876,-0.0065879263,0.026410596,0.4394942,0.12974931
1597548000,1597548000,0.09858667,0.15954423,0.0014949617,1.359774,0.806888,0.5966363
1597560000,1597560000,0.10385501,0.15120599,0.00028919228,0.5492882,-0.84016395,0.054034516
1597568000,1597568000,0.09977555,0.134424,-0.0049408185,0.049467944,-1.4087269,-0.3296801
1597580000,1597580000,0.11236378,0.114547215,0.016622275,0.7098022,-1.5387278,1.3822639
1597588000,1597588000,0.094077975,0.1206444,0.0051913615,-1.088029,-0.1864388,-0.29404724
1597600000,1597600000,0.086443506,0.1308071,0.005692255,-0.393241,0.3226723,0.008090464
1597608000,1597608000,0.091717236,0.12899576,0.0051801098,0.12356128,-0.04260406,0.0331347
1597620000,1597620000,0.082458,0.13902949,0.006117229,-0.35832295,0.57805806,-0.19863991
1597628000,1597628000,0.08371558,0.14079474,0.0051288703,-0.11353031,0.38910615,-0.0047923853
1597640000,1597640000,0.08792065,0.14951172,-0.0030329889,0.28958917,0.78633976,-0.87858105
1597648000,1597648000,0.08314139,0.14077638,0.008260811,-0.13469887,-0.3356775,0.559997
1597660000,1597660000,0.086016074,0.11508686,-0.008487165,0.08133678,-1.4740757,-1.3901112
1597668000,1597668000,0.086259805,0.113447495,-0.010140861,0.029884852,-0.708321,-0.54204977
1597680000,1597680000,0.096661456,0.12156221,0.008974319,0.5662809,0.29238993,0.60604036
1597688000,1597688000,0.08404843,0.12073343,-0.0076333783,-0.6170574,0.060791865,-0.8244802
1597700000,1597700000,0.0932372,0.120026335,-0.01563853,0.4475777,0.07773629,-0.68171406
1597708000,1597708000,0.0886627,0.12976287,0.008834342,-0.11398925,0.7041965,1.4860165
1597720000,1597720000,0.08384954,0.10372235,0.0011621079,-0.46119523,-1.356799,-0.31681553
1597728000,1597728000,0.08924912,0.09556564,0.008879716,0.19387382,-1.1706128,0.47324613
1597740000,1597740000,0.08603991,0.09618801,-0.009317472,-0.12898433,-0.35871425,-0.9395662
1597748000,1597748000,0.08706428,0.10708096,-0.0020854464,-0.031099394,0.6143328,0.06962583
1597760000,1597760000,0.067772575,0.101949595,0.00091838697,-1.264863,-0.012152795,0.23968615
1597768000,1597768000,0.06847476,0.10322255,0.004669353,-0.4341249,-0.033411033,0.37209684
1597780000,1597780000,0.06503564,0.077791184,0.006921297,-0.45698628,-1.0628781,0.21766995
1597784000,1597784000,0.06645061,0.08174658,0.0070202868,-0.18578848,-0.3765527,0.15313524
1597800000,1597800000,0.065190785,0.07928022,0.0070715616,-0.23266146,-0.2693124,-0.16394487
1597808000,1597808000,0.07115441,0.09072152,0.00080207107,0.22879124,0.76396996,-0.52445906
1597820000,1597820000,0.07435174,0.07250861,-0.0041163643,0.35105458,-1.1599777,-0.5758774
1597828000,1597828000,0.06564686,0.08557235,0.001623033,-0.55640066,0.5435756,0.23566766
1597840000,1597840000,0.06301476,0.08835736,0.0037714054,-0.040740967,0.14557403,0.05634143
1597848000,1597848000,0.06951647,0.088057995,0.01139353,0.42781037,0.13209017,0.519641
1597860000,1597860000,0.056528673,0.07323018,-0.003603079,-0.5446637,-1.2324587,-0.5459573
1597868000,1597868000,0.051124644,0.067852475,0.012677042,-0.6602544,-0.80863523,0.8269837
1597880000,1597880000,0.05073085,0.07090466,-0.011519368,-0.20553166,-0.07905597,-1.2374704
1597888000,1597888000,0.047323424,0.0632907,0.00014856909,-0.38908434,-0.574042,0.37715584
1597900000,1597900000,0.05676255,0.059969947,-0.005056027,0.55639505,-0.25593472,-0.40144557
1597908000,1597908000,0.061455317,0.057696395,-0.010303828,0.5484864,-0.2666801,-0.49296653
1597920000,1597920000,0.049887575,0.05832678,0.009540182,-0.6111746,0.13076155,1.0281537
1597928000,1597928000,0.04929939,0.06741646,0.0037007718,-0.21708709,0.6145733,0.006882261
1597940000,1597940000,0.045317613,0.05012563,-0.004120123,-0.37174472,-0.9401289,-0.6070653
1597948000,1597948000,0.052127644,0.045015253,-0.0072096684,0.36805415,-0.7211628,-0.38712013
1597960000,1597960000,0.04678633,0.047468092,-0.0008049521,-0.43065646,-0.20321898,0.35795248
1597968000,1597968000,0.03264562,0.042136684,-0.0020943652,-1.159575,-0.42357093,-0.009756662
1597980000,1597980000,0.03679052,0.0404902,-0.010740669,-0.24605805,-0.2210249,-0.4780836
1597988000,1597988000,0.024869926,0.04735244,-0.0023761848,-0.91027594,0.4426446,0.41407242
1598000000,1598000000,0.02332208,0.039221145,0.0036898144,-0.30849767,-0.46702158,0.45032746
1598008000,1598008000,0.029582076,0.044420548,-0.0033488297,0.29937088,0.1914542,-0.3834247
1598020000,1598020000,0.015615556,0.04338312,-0.026287377,-0.71426237,-0.02783144,-1.5073793
1598028000,1598028000,0.032310676,0.042378645,-0.007961765,0.8731378,-0.052528273,0.72046465
1598040000,1598040000,0.043906823,0.037020564,0.0034398083,0.8389302,-0.42217922,0.6943871
1598048000,1598048000,0.037067447,0.0410702,0.0036580605,-0.13096249,-0.11272121,0.2738584
1598060000,1598060000,0.023143666,0.0064516584,-0.0016756654,-0.7599636,-1.5805484,-0.20357943
1598068000,1598068000,0.00921209,0.013271579,-0.0073877596,-1.4207091,-0.25279245,-0.48091146
1598076000,1598076000,0.004856322,0.010573359,-0.0019811844,-0.7546978,-0.33892787,0.18815419
1598084000,1598084000,0.017362405,0.008053454,-0.001556757,0.49496943,-0.23967153,0.13804668
1598100000,1598100000,0.019547235,0.03105224,0.0064554345,0.27559084,1.0737256,0.78454137
1598108000,1598108000,0.03343883,0.021132398,0.004470005,1.1115716,-0.29158777,0.0063029476
1598120000,1598120000,0.03584803,0.032539964,-0.0064102625,0.0640142,0.49992195,-0.4983593
1598128000,1598128000,0.032563616,0.034094386,0.00029044625,-0.08459252,0.37058067,0.35945037
1598140000,1598140000,0.020589584,0.022636507,0.005100029,-0.78724855,-0.4702316,0.36979544
1598148000,1598148000,0.016390136,0.02999708,0.0012562678,-0.60778534,0.308255,-0.09984616
1598160000,1598160000,0.029120872,0.031316474,0.0046413247,0.44414663,-0.032915622,-0.021526039
1598168000,1598168000,0.011187,0.023501014,-0.0026304955,-1.0775173,-0.60303295,-0.4703438
1598180000,1598180000,0.025235154,0.023964752,-0.0065160613,0.39242798,-0.09096908,-0.45494908
1598188000,1598188000,0.013793292,0.026661227,-0.009781767,-0.6694518,0.145165,-0.36588416
1598200000,1598200000,0.014784108,0.034083955,0.00765419,0.27249706,0.6869358,0.9340025
1598208000,1598208000,0.027748901,0.028956389,0.0055874954,0.9286083,-0.2127518,0.29173487
1598220000,1598220000,0.016410671,0.011341407,-0.003946603,-0.37525427,-0.90013343,-0.71083903
1598228000,1598228000,0.024541141,0.0063944445,-0.012724971,0.4705631,-0.679608,-0.95983356
1598240000,1598240000,0.014693318,0.009120566,-0.011331553,-0.633191,-0.23553215,0.08693891
1598248000,1598248000,0.0070447996,-0.0036593806,-0.014648598,-0.83819395,-1.0600953,-0.23078074
1598260000,1598260000,0.0069589163,0.0025039637,-0.0025740901,-0.07797715,0.68810296,0.6439042
1598268000,1598268000,0.005196631,0.025858458,-0.02179594,-0.17091659,1.7346601,-0.98599124
1598280000,1598280000,-0.0062446003,0.013646371,0.0058242003,-0.8520448,-0.10106025,1.3040749
1598288000,1598288000,-0.0075219814,0.0185344,0.0071363016,-0.29604965,0.26968348,0.66104245
1598300000,1598300000,0.020407474,0.0009372444,-0.005302528,1.389252,-0.9153445,-0.55336106
1598308000,1598308000,0.020783553,-0.0016703077,-0.0042972523,0.5847081,-0.49744707,-0.17585708
1598320000,1598320000,-0.0070238695,0.018084474,0.01618349,-1.5980887,0.9653925,1.2737612
1598328000,1598328000,-0.021200765,0.013832036,0.006524483,-1.587419,0.06393695,-0.1861636
1598336000,1598336000,-0.013980076,0.0063053356,0.000687086,-0.16749305,-0.4792773,-0.4900124
1598348000,1598348000,-0.013868143,0.024454927,0.0024181555,-0.15402065,1.0516022,0.042873804
1598360000,1598360000,-0.0040944256,0.018430809,0.002996316,0.60277647,-0.18327117,-0.1369041
1598368000,1598368000,0.0022272866,0.02317618,0.008763937,0.6019389,0.20815426,0.38151824
1598380000,1598380000,-0.0210814,0.016855184,-0.0013460659,-1.0596254,-0.21613641,-0.4512234
1598388000,1598388000,-0.008091801,-0.0015309303,0.009248732,0.511636,-1.4227588,0.4790061
1598400000,1598400000,-0.0018850884,0.005384712,0.0011580953,0.21475023,0.13687718,-0.3716511
1598404000,1598404000,-0.007178882,0.0074630305,-0.0017473836,-0.29979438,0.26489544,-0.49030846
1598416000,1598416000,-0.009435923,-0.0146044465,0.011966272,-0.21949057,-1.2970135,0.88408744
1598428000,1598428000,-0.010941561,0.019755622,0.008575303,-0.2092222,1.8135238,-0.11861947
1598440000,1598440000,0.011577347,0.013027171,0.0047998605,1.1877505,0.3862783,-0.21282275
1598448000,1598448000,0.003909802,0.021017283,0.0023911502,0.023419708,0.57865715,-0.30331653
1598460000,1598460000,0.005389254,-0.0025142168,-0.006348118,-0.21271211,-0.96612144,-0.5783603
1598468000,1598468000,-0.011278401,0.0050805947,0.0023474696,-1.1792644,0.1203283,0.37391394
1598476000,1598476000,-0.0040146853,-0.0068498706,-0.0010898026,0.000313282,-0.8854621,-0.13043253
1598488000,1598488000,-0.014165927,-0.010967183,0.00875022,-0.6307934,-0.20902897,0.7728501
1598500000,1598500000,-0.007959829,0.015467478,0.0023971773,0.12868765,1.4317327,-0.16996467
1598508000,1598508000,-0.012649831,0.016712587,0.00017507565,-0.24741769,0.7254627,-0.17956138
1598520000,1598520000,-0.012068992,0.019961527,-0.003724315,-0.104345046,0.51602024,-0.4441327
1598528000,1598528000,-0.0040376005,0.0152192265,-0.0025427574,0.5535381,-0.20144063,-0.1712369
1598540000,1598540000,7.0029426e-05,0.009302125,-0.0014400895,0.4319238,-0.19894221,0.15557736
1598548000,1598548000,0.0035728281,0.00800491,-0.007715346,0.4102031,-0.19272709,-0.34471744
1598560000,1598560000,0.0070582605,0.002197846,-0.0090634795,0.23955125,-0.38075316,-0.102700464
1598568000,1598568000,0.0069560674,-0.0013737332,-0.007996647,0.19162658,-0.47398192,0.040012658
1598580000,1598580000,-0.010096783,0.016311474,-0.02344372,-1.2389852,1.1049974,-0.97859836
1598588000,1598588000,0.003388183,0.0123768635,-0.007904139,0.541739,0.091377184,0.6850001
1598600000,1598600000,-0.002575023,-0.001139739,-0.0087600555,-0.28035262,-0.49909243,-0.15289707
