timestamp,data_rate,rate_multiplier,tx_rate_avg,tx_error_rate_avg,tx_message_count,tx_buffer_overruns,rx_rate_avg,rx_message_count,rx_message_lost_count,rx_buffer_overruns,rx_parse_errors,rx_packet_drop_count,rx_message_lost_rate,type,mode,flow_control,forwarding,mavlink_v2,ftp,streams,heartbeat_type_antenna_tracker,heartbeat_type_gcs,heartbeat_type_onboard_controller,heartbeat_type_gimbal,heartbeat_type_adsb,heartbeat_type_camera,heartbeat_type_parachute,heartbeat_type_open_drone_id,heartbeat_component_telemetry_radio,heartbeat_component_log,heartbeat_component_osd,heartbeat_component_vio,heartbeat_component_pairing_manager,heartbeat_component_udp_bridge,heartbeat_component_uart_bridge,open_drone_id_system_healthy,parachute_system_healthy
1592864000,4000000.0,1.0,17066.734,0.0,772171,0,20.916336,2334,0,0,0,0,0.0,0,0,0,1,1,1,61,0,1,0,0,0,0,0,0,0,0,0,0,0,0,0,0,0
1593568000,4000000.0,1.0,17645.418,0.0,772424,0,108.56574,2335,0,0,0,0,0.0,0,0,0,1,1,1,61,0,1,0,0,0,0,0,0,0,0,0,0,0,0,0,0,0
1594332000,4000000.0,1.0,17150.398,0.0,772714,0,46.81275,2337,0,0,0,0,0.0,0,0,0,1,1,1,61,0,1,0,0,0,0,0,0,0,0,0,0,0,0,0,0,0
1596104000,4000000.0,1.0,17112.55,0.0,773377,0,20.916336,2339,0,0,0,0,0.0,0,0,0,1,1,1,61,0,1,0,0,0,0,0,0,0,0,0,0,0,0,0,0,0
1596960000,4000000.0,1.0,17112.55,0.0,773695,0,20.916336,2340,0,0,0,0,0.0,0,0,0,1,1,1,61,0,1,0,0,0,0,0,0,0,0,0,0,0,0,0,0,0
1597848000,4000000.0,1.0,16927.291,0.0,774026,0,41.832672,2341,0,0,0,0,0.0,0,0,0,1,1,1,61,0,1,0,0,0,0,0,0,0,0,0,0,0,0,0,0,0
1598768000,4000000.0,1.0,17422.31,0.0,774367,0,20.916336,2342,0,0,0,0,0.0,0,0,0,1,1,1,61,0,1,0,0,0,0,0,0,0,0,0,0,0,0,0,0,0
1599584000,4000000.0,1.0,16940.24,0.0,774663,0,20.916336,2343,0,0,0,0,0.0,0,0,0,1,1,1,61,0,1,0,0,0,0,0,0,0,0,0,0,0,0,0,0,0
1601060000,4000000.0,1.0,17099.602,0.0,775217,0,20.916336,2345,0,0,0,0,0.0,0,0,0,1,1,1,61,0,1,0,0,0,0,0,0,0,0,0,0,0,0,0,0,0
1601968000,4000000.0,1.0,16927.291,0.0,775555,0,41.832672,2346,0,0,0,0,0.0,0,0,0,1,1,1,61,0,1,0,0,0,0,0,0,0,0,0,0,0,0,0,0,0
1602996000,4000000.0,1.0,17111.555,0.0,775938,0,20.916336,2347,0,0,0,0,0.0,0,0,0,1,1,1,61,0,1,0,0,0,0,0,0,0,0,0,0,0,0,0,0,0
1603780000,4000000.0,1.0,17250.0,0.0,776235,0,20.916336,2349,0,0,0,0,0.0,0,0,0,1,1,1,61,0,1,0,0,0,0,0,0,0,0,0,0,0,0,0,0,0
1604688000,4000000.0,1.0,17151.395,0.0,776568,0,46.81275,2350,0,0,0,0,0.0,0,0,0,1,1,1,61,0,1,0,0,0,0,0,0,0,0,0,0,0,0,0,0,0
1605496000,4000000.0,1.0,16940.24,0.0,776864,0,20.916336,2351,0,0,0,0,0.0,0,0,0,1,1,1,61,0,1,0,0,0,0,0,0,0,0,0,0,0,0,0,0,0
1606484000,4000000.0,1.0,17098.605,0.0,777229,0,20.916336,2352,0,0,0,0,0.0,0,0,0,1,1,1,61,0,1,0,0,0,0,0,0,0,0,0,0,0,0,0,0,0
1607428000,4000000.0,1.0,16927.291,0.0,777576,0,20.916336,2353,0,0,0,0,0.0,0,0,0,1,1,1,61,0,1,0,0,0,0,0,0,0,0,0,0,0,0,0,0,0
1608400000,4000000.0,1.0,17434.264,0.0,777943,0,20.916336,2354,0,0,0,0,0.0,0,0,0,1,1,1,61,0,1,0,0,0,0,0,0,0,0,0,0,0,0,0,0,0
1610096000,4000000.0,1.0,16927.291,0.0,778577,0,20.916336,2356,0,0,0,0,0.0,0,0,0,1,1,1,61,0,1,0,0,0,0,0,0,0,0,0,0,0,0,0,0,0
1611084000,4000000.0,1.0,17098.605,0.0,778940,0,41.832672,2357,0,0,0,0,0.0,0,0,0,1,1,1,61,0,1,0,0,0,0,0,0,0,0,0,0,0,0,0,0,0
1612084000,4000000.0,1.0,16940.24,0.0,779313,0,20.916336,2358,0,0,0,0,0.0,0,0,0,1,1,1,61,0,1,0,0,0,0,0,0,0,0,0,0,0,0,0,0,0
1613080000,4000000.0,1.0,17098.605,0.0,779683,0,20.916336,2360,0,0,0,0,0.0,0,0,0,1,1,1,61,0,1,0,0,0,0,0,0,0,0,0,0,0,0,0,0,0
1614088000,4000000.0,1.0,17271.912,0.0,780059,0,64.741035,2362,0,0,0,0,0.0,0,0,0,1,1,1,61,0,1,0,0,0,0,0,0,0,0,0,0,0,0,0,0,0
1615092000,4000000.0,1.0,17164.344,0.0,780428,0,46.81275,2363,0,0,0,0,0.0,0,0,0,1,1,1,61,0,1,0,0,0,0,0,0,0,0,0,0,0,0,0,0,0
1616108000,4000000.0,1.0,16927.291,0.0,780808,0,20.916336,2364,0,0,0,0,0.0,0,0,0,1,1,1,61,0,1,0,0,0,0,0,0,0,0,0,0,0,0,0,0,0
1617104000,4000000.0,1.0,17098.605,0.0,781178,0,20.916336,2365,0,0,0,0,0.0,0,0,0,1,1,1,61,0,1,0,0,0,0,0,0,0,0,0,0,0,0,0,0,0
1618100000,4000000.0,1.0,16940.24,0.0,781551,0,20.916336,2366,0,0,0,0,0.0,0,0,0,1,1,1,61,0,1,0,0,0,0,0,0,0,0,0,0,0,0,0,0,0
1619100000,4000000.0,1.0,17421.314,0.0,781920,0,20.916336,2367,0,0,0,0,0.0,0,0,0,1,1,1,61,0,1,0,0,0,0,0,0,0,0,0,0,0,0,0,0,0
1620120000,4000000.0,1.0,16927.291,0.0,782301,0,20.916336,2368,0,0,0,0,0.0,0,0,0,1,1,1,61,0,1,0,0,0,0,0,0,0,0,0,0,0,0,0,0,0
1621136000,4000000.0,1.0,17111.555,0.0,782677,0,20.916336,2369,0,0,0,0,0.0,0,0,0,1,1,1,61,0,1,0,0,0,0,0,0,0,0,0,0,0,0,0,0,0
1622140000,4000000.0,1.0,16927.291,0.0,783050,0,20.916336,2370,0,0,0,0,0.0,0,0,0,1,1,1,61,0,1,0,0,0,0,0,0,0,0,0,0,0,0,0,0,0
1623148000,4000000.0,1.0,17098.605,0.0,783420,0,20.916336,2371,0,0,0,0,0.0,0,0,0,1,1,1,61,0,1,0,0,0,0,0,0,0,0,0,0,0,0,0,0,0
1624172000,4000000.0,1.0,17262.95,0.0,783802,0,20.916336,2373,0,0,0,0,0.0,0,0,0,1,1,1,61,0,1,0,0,0,0,0,0,0,0,0,0,0,0,0,0,0
1625180000,4000000.0,1.0,17151.395,0.0,784178,0,46.81275,2374,0,0,0,0,0.0,0,0,0,1,1,1,61,0,1,0,0,0,0,0,0,0,0,0,0,0,0,0,0,0
1626200000,4000000.0,1.0,17111.555,0.0,784559,0,0.0,2375,0,0,0,0,0.0,0,0,0,1,1,1,61,0,1,0,0,0,0,0,0,0,0,0,0,0,0,0,0,0
1627180000,4000000.0,1.0,17111.555,0.0,784921,0,0.0,2376,0,0,0,0,0.0,0,0,0,1,1,1,61,0,1,0,0,0,0,0,0,0,0,0,0,0,0,0,0,0
1628176000,4000000.0,1.0,16927.291,0.0,785294,0,41.832672,2377,0,0,0,0,0.0,0,0,0,1,1,1,61,0,1,0,0,0,0,0,0,0,0,0,0,0,0,0,0,0
1629164000,4000000.0,1.0,17421.314,0.0,785657,0,20.916336,2378,0,0,0,0,0.0,0,0,0,1,1,1,61,0,1,0,0,0,0,0,0,0,0,0,0,0,0,0,0,0
1630160000,4000000.0,1.0,16940.24,0.0,786030,0,20.916336,2379,0,0,0,0,0.0,0,0,0,1,1,1,61,0,1,0,0,0,0,0,0,0,0,0,0,0,0,0,0,0
1631132000,4000000.0,1.0,17098.605,0.0,786385,0,20.916336,2380,0,0,0,0,0.0,0,0,0,1,1,1,61,0,1,0,0,0,0,0,0,0,0,0,0,0,0,0,0,0
1632128000,4000000.0,1.0,16927.291,0.0,786759,0,20.916336,2381,0,0,0,0,0.0,0,0,0,1,1,1,61,0,1,0,0,0,0,0,0,0,0,0,0,0,0,0,0,0
1633120000,4000000.0,1.0,17111.555,0.0,787128,0,20.916336,2382,0,0,0,0,0.0,0,0,0,1,1,1,61,0,1,0,0,0,0,0,0,0,0,0,0,0,0,0,0,0
1634108000,4000000.0,1.0,17250.0,0.0,787496,0,20.916336,2384,0,0,0,0,0.0,0,0,0,1,1,1,61,0,1,0,0,0,0,0,0,0,0,0,0,0,0,0,0,0
1635100000,4000000.0,1.0,17151.395,0.0,787866,0,46.81275,2385,0,0,0,0,0.0,0,0,0,1,1,1,61,0,1,0,0,0,0,0,0,0,0,0,0,0,0,0,0,0
1636108000,4000000.0,1.0,16971.115,0.0,788239,0,20.916336,2386,0,0,0,0,0.0,0,0,0,1,1,1,61,0,1,0,0,0,0,0,0,0,0,0,0,0,0,0,0,0
1637092000,4000000.0,1.0,17098.605,0.0,788601,0,20.916336,2387,0,0,0,0,0.0,0,0,0,1,1,1,61,0,1,0,0,0,0,0,0,0,0,0,0,0,0,0,0,0
1638108000,4000000.0,1.0,16927.291,0.0,788982,0,20.916336,2388,0,0,0,0,0.0,0,0,0,1,1,1,61,0,1,0,0,0,0,0,0,0,0,0,0,0,0,0,0,0
1639116000,4000000.0,1.0,17434.264,0.0,789362,0,20.916336,2390,0,0,0,0,0.0,0,0,0,1,1,1,61,0,1,0,0,0,0,0,0,0,0,0,0,0,0,0,0,0
1640112000,4000000.0,1.0,17077.69,0.0,789729,0,38.844624,2391,0,0,0,0,0.0,0,0,0,1,1,1,61,0,1,0,0,0,0,0,0,0,0,0,0,0,0,0,0,0
1641100000,4000000.0,1.0,17189.244,0.0,790101,0,20.916336,2392,0,0,0,0,0.0,0,0,0,1,1,1,61,0,1,0,0,0,0,0,0,0,0,0,0,0,0,0,0,0
1642100000,4000000.0,1.0,16985.06,0.0,790474,0,20.916336,2393,0,0,0,0,0.0,0,0,0,1,1,1,61,0,1,0,0,0,0,0,0,0,0,0,0,0,0,0,0,0
1643096000,4000000.0,1.0,17162.352,0.0,790843,0,20.916336,2394,0,0,0,0,0.0,0,0,0,1,1,1,61,0,1,0,0,0,0,0,0,0,0,0,0,0,0,0,0,0
1644108000,4000000.0,1.0,17250.0,0.0,791219,0,20.916336,2396,0,0,0,0,0.0,0,0,0,1,1,1,61,0,1,0,0,0,0,0,0,0,0,0,0,0,0,0,0,0
1645124000,4000000.0,1.0,17220.12,0.0,791597,0,46.81275,2397,0,0,0,0,0.0,0,0,0,1,1,1,61,0,1,0,0,0,0,0,0,0,0,0,0,0,0,0,0,0
1646136000,4000000.0,1.0,16955.18,0.0,791977,0,20.916336,2398,0,0,0,0,0.0,0,0,0,1,1,1,61,0,1,0,0,0,0,0,0,0,0,0,0,0,0,0,0,0
1647124000,4000000.0,1.0,17146.414,0.0,792342,0,20.916336,2399,0,0,0,0,0.0,0,0,0,1,1,1,61,0,1,0,0,0,0,0,0,0,0,0,0,0,0,0,0,0
