timestamp,timestamp_sample,q[0],q[1],q[2],q[3],delta_q_reset[0],delta_q_reset[1],delta_q_reset[2],delta_q_reset[3],quat_reset_counter
1592248000,1592244000,0.70824534,0.0005100395,0.0015539614,0.70596457,0.9998193,1.4551915e-10,0.0,0.019013762,2
1592252000,1592248000,0.7082406,0.000498948,0.0015633957,0.7059693,0.9998193,1.4551915e-10,0.0,0.019013762,2
1592260000,1592256000,0.70825315,0.0005125148,0.0015592634,0.70595676,0.9998193,1.4551915e-10,0.0,0.019013762,2
1592264000,1592260000,0.70826876,0.0004942396,0.0015457652,0.7059411,0.9998193,1.4551915e-10,0.0,0.019013762,2
1592268000,1592264000,0.70828104,0.00048803145,0.0015367644,0.7059288,0.9998193,1.4551915e-10,0.0,0.019013762,2
1592272000,1592268000,0.7082696,0.00049471785,0.0015345128,0.7059402,0.9998193,1.4551915e-10,0.0,0.019013762,2
1592276000,1592272000,0.7082323,0.0005048386,0.001525082,0.70597774,0.9998193,1.4551915e-10,0.0,0.019013762,2
1592280000,1592276000,0.70820546,0.00050367846,0.0015247234,0.7060046,0.9998193,1.4551915e-10,0.0,0.019013762,2
1592284000,1592280000,0.70821506,0.00049454847,0.0015360782,0.7059949,0.9998193,1.4551915e-10,0.0,0.019013762,2
1592288000,1592284000,0.7082447,0.00050799426,0.0015444062,0.7059652,0.9998193,1.4551915e-10,0.0,0.019013762,2
1592292000,1592288000,0.7082566,0.00053013815,0.0015508244,0.7059532,0.9998193,1.4551915e-10,0.0,0.019013762,2
1592296000,1592292000,0.7082501,0.000537657,0.0015553772,0.7059597,0.9998193,1.4551915e-10,0.0,0.019013762,2
1592300000,1592296000,0.7082459,0.0005406513,0.001559939,0.7059639,0.9998193,1.4551915e-10,0.0,0.019013762,2
1592304000,1592300000,0.70824313,0.0005327491,0.0015664103,0.70596665,0.9998193,1.4551915e-10,0.0,0.019013762,2
1592308000,1592304000,0.7082464,0.00050788117,0.0015702771,0.70596343,0.9998193,1.4551915e-10,0.0,0.019013762,2
1592312000,1592308000,0.7082576,0.0004916808,0.0015722598,0.70595217,0.9998193,1.4551915e-10,0.0,0.019013762,2
1592316000,1592312000,0.7082658,0.00049018976,0.0015828789,0.70594394,0.9998193,1.4551915e-10,0.0,0.019013762,2
1592320000,1592316000,0.7082628,0.0004827366,0.0015972618,0.705947,0.9998193,1.4551915e-10,0.0,0.019013762,2
1592324000,1592320000,0.7082451,0.00047003885,0.0016086301,0.7059646,0.9998193,1.4551915e-10,0.0,0.019013762,2
1592332000,1592328000,0.7082206,0.00042925114,0.0016476079,0.7059892,0.9998193,1.4551915e-10,0.0,0.019013762,2
1592340000,1592336000,0.7082011,0.00042046988,0.0016583062,0.70600873,0.9998193,1.4551915e-10,0.0,0.019013762,2
1592348000,1592344000,0.70818305,0.00040687752,0.0016957673,0.7060268,0.9998193,1.4551915e-10,0.0,0.019013762,2
1592352000,1592348000,0.7081827,0.000399121,0.001700764,0.70602715,0.9998193,1.4551915e-10,0.0,0.019013762,2
1592356000,1592352000,0.7081929,0.00039511226,0.0017102807,0.7060169,0.9998193,1.4551915e-10,0.0,0.019013762,2
1592360000,1592356000,0.708203,0.00040208563,0.0017442676,0.7060066,0.9998193,1.4551915e-10,0.0,0.019013762,2
1592364000,1592360000,0.7082125,0.0003958478,0.0017583135,0.7059971,0.9998193,1.4551915e-10,0.0,0.019013762,2
1592368000,1592364000,0.70822346,0.0003797999,0.0017497843,0.70598614,0.9998193,1.4551915e-10,0.0,0.019013762,2
1592372000,1592368000,0.70822763,0.00036828476,0.0017389845,0.7059819,0.9998193,1.4551915e-10,0.0,0.019013762,2
1592376000,1592372000,0.70822656,0.0003616868,0.0017202712,0.70598304,0.9998193,1.4551915e-10,0.0,0.019013762,2
1592384000,1592380000,0.7082,0.00038298842,0.0017743038,0.7060096,0.9998193,1.4551915e-10,0.0,0.019013762,2
1592388000,1592384000,0.70817524,0.0004032831,0.001801867,0.70603436,0.9998193,1.4551915e-10,0.0,0.019013762,2
1592396000,1592392000,0.7081623,0.0003976849,0.0018178612,0.70604724,0.9998193,1.4551915e-10,0.0,0.019013762,2
1592400000,1592396000,0.70815945,0.0003877302,0.0018078266,0.7060501,0.9998193,1.4551915e-10,0.0,0.019013762,2
1592404000,1592400000,0.7081721,0.00037846685,0.0017827344,0.7060376,0.9998193,1.4551915e-10,0.0,0.019013762,2
1592412000,1592408000,0.7081939,0.0003362415,0.0017239308,0.7060158,0.9998193,1.4551915e-10,0.0,0.019013762,2
1592416000,1592412000,0.7081911,0.0003150355,0.0017237155,0.7060187,0.9998193,1.4551915e-10,0.0,0.019013762,2
1592424000,1592420000,0.7081602,0.00027420637,0.0017225228,0.7060497,0.9998193,1.4551915e-10,0.0,0.019013762,2
1592428000,1592424000,0.7081416,0.00026059162,0.0017253063,0.70606834,0.9998193,1.4551915e-10,0.0,0.019013762,2
1592432000,1592428000,0.7081177,0.00026321886,0.0017412499,0.70609224,0.9998193,1.4551915e-10,0.0,0.019013762,2
1592436000,1592432000,0.70808595,0.00029599047,0.0017533815,0.70612407,0.9998193,1.4551915e-10,0.0,0.019013762,2
1592440000,1592436000,0.70806056,0.00031632587,0.0017613936,0.70614946,0.9998193,1.4551915e-10,0.0,0.019013762,2
1592444000,1592440000,0.7080521,0.00031063432,0.0017713316,0.7061579,0.9998193,1.4551915e-10,0.0,0.019013762,2
1592452000,1592448000,0.7080417,0.00027365037,0.001781387,0.7061684,0.9998193,1.4551915e-10,0.0,0.019013762,2
1592456000,1592452000,0.70803237,0.00025517913,0.0017845329,0.7061777,0.9998193,1.4551915e-10,0.0,0.019013762,2
1592460000,1592456000,0.7080163,0.00024383902,0.0017556539,0.7061939,0.9998193,1.4551915e-10,0.0,0.019013762,2
1592464000,1592460000,0.7080018,0.00024414924,0.0017135579,0.7062086,0.9998193,1.4551915e-10,0.0,0.019013762,2
1592468000,1592464000,0.70800346,0.0002553639,0.0016884018,0.706207,0.9998193,1.4551915e-10,0.0,0.019013762,2
1592472000,1592468000,0.7080096,0.0002677335,0.0016824566,0.70620084,0.9998193,1.4551915e-10,0.0,0.019013762,2
1592476000,1592472000,0.708001,0.00027451705,0.0016987338,0.70620936,0.9998193,1.4551915e-10,0.0,0.019013762,2
1592480000,1592476000,0.7079977,0.00026096063,0.001715042,0.70621264,0.9998193,1.4551915e-10,0.0,0.019013762,2
1592484000,1592480000,0.70800877,0.00024734857,0.0017147843,0.7062016,0.9998193,1.4551915e-10,0.0,0.019013762,2
1592492000,1592488000,0.70803946,0.00024082196,0.0017018218,0.7061708,0.9998193,1.4551915e-10,0.0,0.019013762,2
1592496000,1592492000,0.7080426,0.00023140569,0.0017124837,0.70616764,0.9998193,1.4551915e-10,0.0,0.019013762,2
1592500000,1592496000,0.70803446,0.00022200977,0.0017178692,0.7061758,0.9998193,1.4551915e-10,0.0,0.019013762,2
1592504000,1592500000,0.70803833,0.0002133306,0.0017112078,0.7061719,0.9998193,1.4551915e-10,0.0,0.019013762,2
1592508000,1592504000,0.7080532,0.00021102621,0.0017034115,0.7061571,0.9998193,1.4551915e-10,0.0,0.019013762,2
1592512000,1592508000,0.7080642,0.00020836893,0.0017005127,0.706146,0.9998193,1.4551915e-10,0.0,0.019013762,2
1592516000,1592512000,0.7080643,0.00020046819,0.0016998777,0.7061459,0.9998193,1.4551915e-10,0.0,0.019013762,2
1592520000,1592516000,0.7080498,0.00020241486,0.0017082663,0.7061604,0.9998193,1.4551915e-10,0.0,0.019013762,2
1592528000,1592524000,0.70801896,0.00026692572,0.0017012375,0.70619136,0.9998193,1.4551915e-10,0.0,0.019013762,2
1592532000,1592528000,0.7080282,0.00029852925,0.0016738178,0.7061822,0.9998193,1.4551915e-10,0.0,0.019013762,2
1592540000,1592536000,0.7080276,0.00031542082,0.0016660371,0.7061828,0.9998193,1.4551915e-10,0.0,0.019013762,2
1592544000,1592540000,0.7080103,0.000308309,0.0016826876,0.7062,0.9998193,1.4551915e-10,0.0,0.019013762,2
1592548000,1592544000,0.7079822,0.0003128761,0.001681617,0.70622826,0.9998193,1.4551915e-10,0.0,0.019013762,2
1592552000,1592548000,0.7079612,0.00032194325,0.0016730137,0.7062493,0.9998193,1.4551915e-10,0.0,0.019013762,2
1592556000,1592552000,0.7079575,0.00030837904,0.0016704716,0.706253,0.9998193,1.4551915e-10,0.0,0.019013762,2
1592560000,1592556000,0.707964,0.00028540334,0.0016698496,0.7062465,0.9998193,1.4551915e-10,0.0,0.019013762,2
1592568000,1592564000,0.7079461,0.00031411523,0.0016624978,0.7062645,0.9998193,1.4551915e-10,0.0,0.019013762,2
1592572000,1592568000,0.70794433,0.0003236032,0.0016859584,0.7062662,0.9998193,1.4551915e-10,0.0,0.019013762,2
1592576000,1592572000,0.7079549,0.00032443975,0.0017226378,0.7062555,0.9998193,1.4551915e-10,0.0,0.019013762,2
1592580000,1592576000,0.7079523,0.0003365775,0.0017344401,0.70625806,0.9998193,1.4551915e-10,0.0,0.019013762,2
1592588000,1592584000,0.7079405,0.000370296,0.0017260591,0.7062699,0.9998193,1.4551915e-10,0.0,0.019013762,2
1592592000,1592588000,0.7079651,0.00036922726,0.0017322839,0.7062453,0.9998193,1.4551915e-10,0.0,0.019013762,2
1592596000,1592592000,0.70798284,0.00035384766,0.0017257171,0.7062275,0.9998193,1.4551915e-10,0.0,0.019013762,2
1592600000,1592596000,0.7079739,0.000324249,0.0017221886,0.7062365,0.9998193,1.4551915e-10,0.0,0.019013762,2
1592604000,1592600000,0.70796007,0.00031050373,0.0017374697,0.7062503,0.9998193,1.4551915e-10,0.0,0.019013762,2
1592608000,1592604000,0.70796233,0.00031371953,0.001754595,0.7062479,0.9998193,1.4551915e-10,0.0,0.019013762,2
1592616000,1592612000,0.70798045,0.00032920818,0.0018122131,0.7062296,0.9998193,1.4551915e-10,0.0,0.019013762,2
1592620000,1592616000,0.7079836,0.0003546491,0.0018153979,0.7062265,0.9998193,1.4551915e-10,0.0,0.019013762,2
1592624000,1592620000,0.7079852,0.00036654342,0.0018065684,0.7062249,0.9998193,1.4551915e-10,0.0,0.019013762,2
1592628000,1592624000,0.7079781,0.00037207926,0.0018154437,0.706232,0.9998193,1.4551915e-10,0.0,0.019013762,2
1592636000,1592632000,0.7079802,0.00035674853,0.0017986296,0.70623,0.9998193,1.4551915e-10,0.0,0.019013762,2
1592644000,1592640000,0.70801115,0.00030373028,0.0017849335,0.70619893,0.9998193,1.4551915e-10,0.0,0.019013762,2
1592648000,1592644000,0.7080281,0.00026788726,0.0017856195,0.70618206,0.9998193,1.4551915e-10,0.0,0.019013762,2
1592652000,1592648000,0.708039,0.00024862608,0.0017825152,0.70617115,0.9998193,1.4551915e-10,0.0,0.019013762,2
1592660000,1592656000,0.7080465,0.00026858755,0.0017962287,0.7061635,0.9998193,1.4551915e-10,0.0,0.019013762,2
1592664000,1592660000,0.7080476,0.00025879816,0.001783736,0.7061624,0.9998193,1.4551915e-10,0.0,0.019013762,2
1592668000,1592664000,0.70803446,0.00024489142,0.0017633345,0.7061756,0.9998193,1.4551915e-10,0.0,0.019013762,2
1592672000,1592668000,0.70802146,0.00024533045,0.0017354081,0.7061888,0.9998193,1.4551915e-10,0.0,0.019013762,2
1592676000,1592672000,0.7080148,0.0002442648,0.0017210444,0.7061955,0.9998193,1.4551915e-10,0.0,0.019013762,2
1592684000,1592680000,0.70801723,0.00026594344,0.0017529716,0.7061929,0.9998193,1.4551915e-10,0.0,0.019013762,2
1592688000,1592684000,0.70800906,0.00026946346,0.001753709,0.7062011,0.9998193,1.4551915e-10,0.0,0.019013762,2
1592692000,1592688000,0.7080111,0.00025789798,0.001758236,0.70619905,0.9998193,1.4551915e-10,0.0,0.019013762,2
1592700000,1592696000,0.7080257,0.00023818383,0.0017737366,0.70618445,0.9998193,1.4551915e-10,0.0,0.019013762,2
1592704000,1592700000,0.70801604,0.00023649377,0.0017850709,0.7061941,0.9998193,1.4551915e-10,0.0,0.019013762,2
1592708000,1592704000,0.7080124,0.00023289611,0.0017892538,0.70619774,0.9998193,1.4551915e-10,0.0,0.019013762,2
1592712000,1592708000,0.70802045,0.00021610963,0.0017938563,0.70618963,0.9998193,1.4551915e-10,0.0,0.019013762,2
1592716000,1592712000,0.7080367,0.00018425562,0.0018127925,0.70617324,0.9998193,1.4551915e-10,0.0,0.019013762,2
1592720000,1592716000,0.7080568,0.00015768326,0.0018294848,0.70615315,0.9998193,1.4551915e-10,0.0,0.019013762,2
1592724000,1592720000,0.7080653,0.00014994909,0.0018288242,0.7061447,0.9998193,1.4551915e-10,0.0,0.019013762,2
1592728000,1592724000,0.7080554,0.00015468511,0.0018082026,0.7061547,0.9998193,1.4551915e-10,0.0,0.019013762,2
1592732000,1592728000,0.70804995,0.00015451401,0.0017879653,0.7061602,0.9998193,1.4551915e-10,0.0,0.019013762,2
1592740000,1592736000,0.70804656,0.000165148,0.0017719992,0.7061635,0.9998193,1.4551915e-10,0.0,0.019013762,2
1592744000,1592740000,0.7080427,0.00017633373,0.0017728653,0.70616746,0.9998193,1.4551915e-10,0.0,0.019013762,2
1592748000,1592744000,0.70806587,0.0001818016,0.0017733693,0.7061442,0.9998193,1.4551915e-10,0.0,0.019013762,2
1592752000,1592748000,0.7080928,0.0001982068,0.0017780215,0.70611715,0.9998193,1.4551915e-10,0.0,0.019013762,2
1592756000,1592752000,0.7081044,0.00021014188,0.0017902082,0.70610553,0.9998193,1.4551915e-10,0.0,0.019013762,2
1592760000,1592756000,0.70811814,0.00019009913,0.0018186547,0.7060917,0.9998193,1.4551915e-10,0.0,0.019013762,2
1592764000,1592760000,0.70814466,0.00015533541,0.0018475024,0.70606506,0.9998193,1.4551915e-10,0.0,0.019013762,2
1592768000,1592764000,0.7081656,0.00013412883,0.0018537508,0.706044,0.9998193,1.4551915e-10,0.0,0.019013762,2
1592772000,1592768000,0.70816433,0.00012201062,0.0018539554,0.70604527,0.9998193,1.4551915e-10,0.0,0.019013762,2
1592780000,1592776000,0.70815474,8.463439e-05,0.0018480181,0.70605487,0.9998193,1.4551915e-10,0.0,0.019013762,2
1592784000,1592780000,0.7081602,8.461518e-05,0.001870087,0.70604926,0.9998193,1.4551915e-10,0.0,0.019013762,2
1592788000,1592784000,0.7081759,8.345323e-05,0.0019015748,0.7060335,0.9998193,1.4551915e-10,0.0,0.019013762,2
1592792000,1592788000,0.7081976,6.831787e-05,0.0019086214,0.7060118,0.9998193,1.4551915e-10,0.0,0.019013762,2
1592796000,1592792000,0.70821667,5.881989e-05,0.0019032302,0.70599264,0.9998193,1.4551915e-10,0.0,0.019013762,2
1592804000,1592800000,0.7082191,6.1656516e-05,0.001893751,0.70599025,0.9998193,1.4551915e-10,0.0,0.019013762,2
1592808000,1592804000,0.70821095,7.921545e-05,0.0018957558,0.7059985,0.9998193,1.4551915e-10,0.0,0.019013762,2
1592812000,1592808000,0.70819527,9.600836e-05,0.0018766696,0.70601416,0.9998193,1.4551915e-10,0.0,0.019013762,2
1592820000,1592816000,0.70817417,0.00013967026,0.0017801395,0.70603555,0.9998193,1.4551915e-10,0.0,0.019013762,2
1592828000,1592824000,0.70815635,0.00013072141,0.0017530213,0.7060535,0.9998193,1.4551915e-10,0.0,0.019013762,2
1592832000,1592828000,0.7081433,0.00013326504,0.0017596161,0.7060666,0.9998193,1.4551915e-10,0.0,0.019013762,2
1592836000,1592832000,0.7081298,0.00012526847,0.0017692392,0.7060801,0.9998193,1.4551915e-10,0.0,0.019013762,2
1592840000,1592836000,0.7081336,0.00011009997,0.0017913193,0.7060762,0.9998193,1.4551915e-10,0.0,0.019013762,2
1592848000,1592844000,0.7081311,7.064688e-05,0.0017669406,0.70607877,0.9998193,1.4551915e-10,0.0,0.019013762,2
1592856000,1592852000,0.70813274,4.5535733e-05,0.001766654,0.70607716,0.9998193,1.4551915e-10,0.0,0.019013762,2
1592864000,1592860000,0.70812345,4.691905e-05,0.0018266154,0.70608634,0.9998193,1.4551915e-10,0.0,0.019013762,2
1592868000,1592864000,0.7081284,5.3955464e-05,0.0018309834,0.7060814,0.9998193,1.4551915e-10,0.0,0.019013762,2
1592872000,1592868000,0.7081386,6.324402e-05,0.0018346077,0.70607114,0.9998193,1.4551915e-10,0.0,0.019013762,2
1592876000,1592872000,0.7081477,8.570588e-05,0.0018303035,0.706062,0.9998193,1.4551915e-10,0.0,0.019013762,2
1592880000,1592876000,0.7081413,0.00010709886,0.0018294117,0.7060684,0.9998193,1.4551915e-10,0.0,0.019013762,2
1592884000,1592880000,0.7081331,0.00010970398,0.0018549112,0.70607656,0.9998193,1.4551915e-10,0.0,0.019013762,2
1592888000,1592884000,0.70814174,9.4196796e-05,0.001883464,0.70606786,0.9998193,1.4551915e-10,0.0,0.019013762,2
1592892000,1592888000,0.70815074,7.75262e-05,0.0018897976,0.7060588,0.9998193,1.4551915e-10,0.0,0.019013762,2
1592896000,1592892000,0.70815676,7.101293e-05,0.0018791785,0.7060527,0.9998193,1.4551915e-10,0.0,0.019013762,2
1592900000,1592896000,0.7081617,6.300404e-05,0.0018738344,0.70604783,0.9998193,1.4551915e-10,0.0,0.019013762,2
1592904000,1592900000,0.708162,4.7131787e-05,0.0018877201,0.7060474,0.9998193,1.4551915e-10,0.0,0.019013762,2
1592908000,1592904000,0.70817256,3.913417e-05,0.0018966984,0.70603687,0.9998193,1.4551915e-10,0.0,0.019013762,2
1592912000,1592908000,0.708182,5.0336846e-05,0.0018954887,0.70602745,0.9998193,1.4551915e-10,0.0,0.019013762,2
1592916000,1592912000,0.7081843,8.001286e-05,0.0018938737,0.7060251,0.9998193,1.4551915e-10,0.0,0.019013762,2
1592920000,1592916000,0.7082009,0.00010925907,0.001879842,0.70600855,0.9998193,1.4551915e-10,0.0,0.019013762,2
1592924000,1592920000,0.7082186,0.00011287644,0.0018560578,0.70599085,0.9998193,1.4551915e-10,0.0,0.019013762,2
1592928000,1592924000,0.70821476,0.000104496925,0.0018292852,0.7059947,0.9998193,1.4551915e-10,0.0,0.019013762,2
1592936000,1592932000,0.7082005,0.000113364884,0.0017726942,0.70600915,0.9998193,1.4551915e-10,0.0,0.019013762,2
1592944000,1592940000,0.70820343,0.00011060212,0.0017692451,0.7060062,0.9998193,1.4551915e-10,0.0,0.019013762,2
1592948000,1592944000,0.7082026,0.00010003056,0.0017869348,0.706007,0.9998193,1.4551915e-10,0.0,0.019013762,2
1592952000,1592948000,0.70819104,0.00010338491,0.0018102676,0.70601857,0.9998193,1.4551915e-10,0.0,0.019013762,2
1592960000,1592956000,0.7081663,8.0342e-05,0.00184006,0.7060433,0.9998193,1.4551915e-10,0.0,0.019013762,2
1592964000,1592960000,0.70814794,8.25515e-05,0.0018261378,0.7060617,0.9998193,1.4551915e-10,0.0,0.019013762,2
1592968000,1592964000,0.7081183,8.710904e-05,0.0018348384,0.70609146,0.9998193,1.4551915e-10,0.0,0.019013762,2
1592972000,1592968000,0.7080834,9.169115e-05,0.0018510709,0.70612645,0.9998193,1.4551915e-10,0.0,0.019013762,2
1592976000,1592972000,0.7080778,9.354786e-05,0.0018398468,0.70613205,0.9998193,1.4551915e-10,0.0,0.019013762,2
1592984000,1592980000,0.7081204,7.116406e-05,0.0018208602,0.7060893,0.9998193,1.4551915e-10,0.0,0.019013762,2
1592992000,1592988000,0.70811784,3.2052365e-05,0.0018392378,0.7060919,0.9998193,1.4551915e-10,0.0,0.019013762,2
1592996000,1592992000,0.708104,2.2327053e-05,0.0018435298,0.70610577,0.9998193,1.4551915e-10,0.0,0.019013762,2
1593000000,1592996000,0.7081007,1.2205978e-05,0.0018361752,0.7061091,0.9998193,1.4551915e-10,0.0,0.019013762,2
1593004000,1593000000,0.70810413,-1.6958041e-06,0.001831086,0.70610565,0.9998193,1.4551915e-10,0.0,0.019013762,2
1593008000,1593004000,0.7081042,-2.4209685e-05,0.001837713,0.70610565,0.9998193,1.4551915e-10,0.0,0.019013762,2
1593016000,1593012000,0.7080858,-8.005979e-05,0.0018702182,0.70612395,0.9998193,1.4551915e-10,0.0,0.019013762,2
1593020000,1593016000,0.70809036,-8.109293e-05,0.0018772186,0.70611936,0.9998193,1.4551915e-10,0.0,0.019013762,2
1593024000,1593020000,0.7081006,-5.5005792e-05,0.0018842075,0.7061091,0.9998193,1.4551915e-10,0.0,0.019013762,2
1593028000,1593024000,0.7081064,-2.8167153e-05,0.0018814032,0.7061033,0.9998193,1.4551915e-10,0.0,0.019013762,2
1593032000,1593028000,0.7081087,-3.37085e-05,0.0018621006,0.70610106,0.9998193,1.4551915e-10,0.0,0.019013762,2
1593040000,1593036000,0.7080882,-4.4328182e-05,0.001820887,0.70612174,0.9998193,1.4551915e-10,0.0,0.019013762,2
1593044000,1593040000,0.7080785,-4.905332e-05,0.0018068834,0.70613146,0.9998193,1.4551915e-10,0.0,0.019013762,2
1593048000,1593044000,0.7080851,-6.0893846e-05,0.0018083153,0.70612484,0.9998193,1.4551915e-10,0.0,0.019013762,2
1593052000,1593048000,0.7081038,-6.676114e-05,0.0017939195,0.7061061,0.9998193,1.4551915e-10,0.0,0.019013762,2
1593056000,1593052000,0.7081115,-8.011806e-05,0.0017735354,0.70609844,0.9998193,1.4551915e-10,0.0,0.019013762,2
1593060000,1593056000,0.70810384,-9.716817e-05,0.0017772624,0.7061061,0.9998193,1.4551915e-10,0.0,0.019013762,2
1593068000,1593064000,0.7080896,-0.00012183,0.0017693128,0.70612043,0.9998193,1.4551915e-10,0.0,0.019013762,2
1593072000,1593068000,0.7080977,-0.00013703005,0.0017440853,0.7061123,0.9998193,1.4551915e-10,0.0,0.019013762,2
1593076000,1593072000,0.708116,-0.00014431794,0.0017388061,0.70609397,0.9998193,1.4551915e-10,0.0,0.019013762,2
1593080000,1593076000,0.70811594,-0.00013266798,0.001759893,0.7060941,0.9998193,1.4551915e-10,0.0,0.019013762,2
1593084000,1593080000,0.7080981,-0.00010401765,0.0017866084,0.7061119,0.9998193,1.4551915e-10,0.0,0.019013762,2
1593088000,1593084000,0.70808774,-8.973179e-05,0.0017945117,0.7061222,0.9998193,1.4551915e-10,0.0,0.019013762,2
1593092000,1593088000,0.7080778,-9.732682e-05,0.0017768348,0.7061323,0.9998193,1.4551915e-10,0.0,0.019013762,2
1593096000,1593092000,0.7080592,-0.00011129463,0.0017482708,0.706151,0.9998193,1.4551915e-10,0.0,0.019013762,2
1593100000,1593096000,0.7080477,-0.00012866818,0.0017208398,0.7061625,0.9998193,1.4551915e-10,0.0,0.019013762,2
1593104000,1593100000,0.7080445,-0.00014262971,0.0017081159,0.70616573,0.9998193,1.4551915e-10,0.0,0.019013762,2
1593108000,1593104000,0.7080489,-0.0001550729,0.0017179862,0.7061614,0.9998193,1.4551915e-10,0.0,0.019013762,2
1593112000,1593108000,0.7080543,-0.00017124391,0.0017406908,0.7061559,0.9998193,1.4551915e-10,0.0,0.019013762,2
1593120000,1593116000,0.70803064,-0.00018505802,0.0017593662,0.70617956,0.9998193,1.4551915e-10,0.0,0.019013762,2
1593124000,1593120000,0.7080263,-0.00020157096,0.0017726809,0.70618385,0.9998193,1.4551915e-10,0.0,0.019013762,2
1593128000,1593124000,0.7080179,-0.00022221173,0.0017720896,0.70619226,0.9998193,1.4551915e-10,0.0,0.019013762,2
1593132000,1593128000,0.70800984,-0.00023797528,0.0017575567,0.70620036,0.9998193,1.4551915e-10,0.0,0.019013762,2
1593140000,1593136000,0.70801187,-0.00020810137,0.0017371122,0.70619833,0.9998193,1.4551915e-10,0.0,0.019013762,2
1593148000,1593144000,0.7080286,-0.00019062155,0.0017381889,0.7061816,0.9998193,1.4551915e-10,0.0,0.019013762,2
1593152000,1593148000,0.7080364,-0.00020181372,0.0017440465,0.7061738,0.9998193,1.4551915e-10,0.0,0.019013762,2
1593156000,1593152000,0.7080438,-0.00021071541,0.0017724987,0.7061663,0.9998193,1.4551915e-10,0.0,0.019013762,2
1593160000,1593156000,0.7080502,-0.00021017592,0.0018028043,0.70615983,0.9998193,1.4551915e-10,0.0,0.019013762,2
1593168000,1593164000,0.7080428,-0.00023735753,0.0017998279,0.7061673,0.9998193,1.4551915e-10,0.0,0.019013762,2
1593172000,1593168000,0.7080534,-0.0002376095,0.0017947485,0.7061567,0.9998193,1.4551915e-10,0.0,0.019013762,2
1593176000,1593172000,0.7080606,-0.00021709976,0.0018043489,0.70614934,0.9998193,1.4551915e-10,0.0,0.019013762,2
1593180000,1593176000,0.70805466,-0.00020294527,0.0018241311,0.70615524,0.9998193,1.4551915e-10,0.0,0.019013762,2
1593184000,1593180000,0.7080548,-0.00021064238,0.0018364257,0.7061551,0.9998193,1.4551915e-10,0.0,0.019013762,2
1593188000,1593184000,0.7080658,-0.00022818144,0.0018329119,0.7061441,0.9998193,1.4551915e-10,0.0,0.019013762,2
1593192000,1593188000,0.70806366,-0.00024416702,0.0018256507,0.7061463,0.9998193,1.4551915e-10,0.0,0.019013762,2
1593200000,1593196000,0.70804495,-0.00024682286,0.0018201887,0.7061651,0.9998193,1.4551915e-10,0.0,0.019013762,2
1593204000,1593200000,0.70804524,-0.0002704815,0.0017956677,0.70616484,0.9998193,1.4551915e-10,0.0,0.019013762,2
1593208000,1593204000,0.708052,-0.00029866942,0.0017643868,0.70615816,0.9998193,1.4551915e-10,0.0,0.019013762,2
1593212000,1593208000,0.7080628,-0.00029896497,0.0017571708,0.70614725,0.9998193,1.4551915e-10,0.0,0.019013762,2
1593216000,1593212000,0.7080647,-0.00027508033,0.0017785649,0.70614535,0.9998193,1.4551915e-10,0.0,0.019013762,2
1593220000,1593216000,0.70806503,-0.00026362113,0.0017995998,0.7061449,0.9998193,1.4551915e-10,0.0,0.019013762,2
1593224000,1593220000,0.70807445,-0.00027066295,0.0017931773,0.7061355,0.9998193,1.4551915e-10,0.0,0.019013762,2
1593232000,1593228000,0.7080839,-0.0002810417,0.0017493988,0.70612615,0.9998193,1.4551915e-10,0.0,0.019013762,2
1593236000,1593232000,0.7080768,-0.00027226005,0.0017474316,0.7061333,0.9998193,1.4551915e-10,0.0,0.019013762,2
1593244000,1593240000,0.70808405,-0.0002456986,0.0017337109,0.7061261,0.9998193,1.4551915e-10,0.0,0.019013762,2
1593248000,1593244000,0.7080819,-0.00022404814,0.0017475871,0.7061282,0.9998193,1.4551915e-10,0.0,0.019013762,2
1593252000,1593248000,0.7080812,-0.00022572732,0.0017795733,0.7061288,0.9998193,1.4551915e-10,0.0,0.019013762,2
1593256000,1593252000,0.7080869,-0.00023872347,0.0018010399,0.706123,0.9998193,1.4551915e-10,0.0,0.019013762,2
1593260000,1593256000,0.7080874,-0.00024117209,0.001814208,0.7061225,0.9998193,1.4551915e-10,0.0,0.019013762,2
1593264000,1593260000,0.7080691,-0.00021908124,0.0018262304,0.7061408,0.9998193,1.4551915e-10,0.0,0.019013762,2
1593268000,1593264000,0.7080422,-0.0001909676,0.001819416,0.7061678,0.9998193,1.4551915e-10,0.0,0.019013762,2
1593272000,1593268000,0.7080202,-0.00017720109,0.0017870195,0.70618993,0.9998193,1.4551915e-10,0.0,0.019013762,2
1593276000,1593272000,0.7080091,-0.00017251393,0.00174484,0.70620114,0.9998193,1.4551915e-10,0.0,0.019013762,2
1593280000,1593276000,0.7080105,-0.00017612592,0.0017079512,0.7061999,0.9998193,1.4551915e-10,0.0,0.019013762,2
1593284000,1593280000,0.7080178,-0.00018009587,0.0016970487,0.70619255,0.9998193,1.4551915e-10,0.0,0.019013762,2
1593288000,1593284000,0.7080296,-0.00017424904,0.0017057267,0.70618063,0.9998193,1.4551915e-10,0.0,0.019013762,2
1593292000,1593288000,0.7080351,-0.00016650715,0.0017117677,0.70617515,0.9998193,1.4551915e-10,0.0,0.019013762,2
1593300000,1593296000,0.7080246,-0.00019541605,0.0017073607,0.7061857,0.9998193,1.4551915e-10,0.0,0.019013762,2
1593304000,1593300000,0.7080342,-0.00021820763,0.0017055263,0.70617604,0.9998193,1.4551915e-10,0.0,0.019013762,2
1593312000,1593308000,0.70802754,-0.00020874412,0.0016927624,0.7061828,0.9998193,1.4551915e-10,0.0,0.019013762,2
1593316000,1593312000,0.7080402,-0.000203661,0.0016931588,0.7061701,0.9998193,1.4551915e-10,0.0,0.019013762,2
1593324000,1593320000,0.7080541,-0.00024199378,0.0017260507,0.7061561,0.9998193,1.4551915e-10,0.0,0.019013762,2
1593332000,1593328000,0.70798796,-0.00027521656,0.001760862,0.7062223,0.9998193,1.4551915e-10,0.0,0.019013762,2
1593340000,1593336000,0.7079829,-0.00027020305,0.0017639811,0.70622736,0.9998193,1.4551915e-10,0.0,0.019013762,2
1593348000,1593344000,0.70798314,-0.00027799522,0.0017671286,0.7062271,0.9998193,1.4551915e-10,0.0,0.019013762,2
1593352000,1593348000,0.7079687,-0.00031689426,0.0017536934,0.7062416,0.9998193,1.4551915e-10,0.0,0.019013762,2
1593356000,1593352000,0.7079569,-0.0003614369,0.0017504329,0.7062534,0.9998193,1.4551915e-10,0.0,0.019013762,2
1593360000,1593356000,0.7079621,-0.0003826455,0.0017524434,0.70624816,0.9998193,1.4551915e-10,0.0,0.019013762,2
1593368000,1593364000,0.70798194,-0.00039458412,0.0017372494,0.7062283,0.9998193,1.4551915e-10,0.0,0.019013762,2
1593372000,1593368000,0.7079849,-0.00038186656,0.001743774,0.70622534,0.9998193,1.4551915e-10,0.0,0.019013762,2
1593376000,1593372000,0.7079828,-0.00036917307,0.0017465785,0.7062275,0.9998193,1.4551915e-10,0.0,0.019013762,2
1593380000,1593376000,0.70798254,-0.00035986688,0.0017550356,0.7062277,0.9998193,1.4551915e-10,0.0,0.019013762,2
1593384000,1593380000,0.70798075,-0.00035315374,0.001781232,0.7062294,0.9998193,1.4551915e-10,0.0,0.019013762,2
1593388000,1593384000,0.70796394,-0.00035506455,0.0018078234,0.70624626,0.9998193,1.4551915e-10,0.0,0.019013762,2
1593396000,1593392000,0.70793253,-0.0003935544,0.0018196885,0.70627767,0.9998193,1.4551915e-10,0.0,0.019013762,2
1593400000,1593396000,0.7079195,-0.0004044938,0.0018328008,0.7062907,0.9998193,1.4551915e-10,0.0,0.019013762,2
1593404000,1593400000,0.7079155,-0.00040188507,0.0018571913,0.70629466,0.9998193,1.4551915e-10,0.0,0.019013762,2
1593408000,1593404000,0.7079119,-0.0003962816,0.0018514821,0.70629823,0.9998193,1.4551915e-10,0.0,0.019013762,2
1593412000,1593408000,0.70790684,-0.00040351474,0.0018149049,0.7063034,0.9998193,1.4551915e-10,0.0,0.019013762,2
1593420000,1593416000,0.7079072,-0.00043148486,0.001784009,0.7063031,0.9998193,1.4551915e-10,0.0,0.019013762,2
1593424000,1593420000,0.7079179,-0.0004334042,0.0017896659,0.7062924,0.9998193,1.4551915e-10,0.0,0.019013762,2
1593428000,1593424000,0.7079189,-0.00042853507,0.0017817623,0.70629144,0.9998193,1.4551915e-10,0.0,0.019013762,2
1593436000,1593432000,0.70789146,-0.00045522986,0.001760432,0.706319,0.9998193,1.4551915e-10,0.0,0.019013762,2
1593440000,1593436000,0.7078758,-0.0004962335,0.0017541631,0.70633465,0.9998193,1.4551915e-10,0.0,0.019013762,2
1593444000,1593440000,0.7078677,-0.0005353919,0.001730185,0.70634276,0.9998193,1.4551915e-10,0.0,0.019013762,2
1593448000,1593444000,0.70786864,-0.00055496,0.0017167557,0.70634186,0.9998193,1.4551915e-10,0.0,0.019013762,2
1593452000,1593448000,0.7078723,-0.0005515477,0.0017149748,0.7063382,0.9998193,1.4551915e-10,0.0,0.019013762,2
1593456000,1593452000,0.70787287,-0.0005511338,0.0017056994,0.70633763,0.9998193,1.4551915e-10,0.0,0.019013762,2
1593460000,1593456000,0.70787007,-0.0005605139,0.0016873983,0.7063405,0.9998193,1.4551915e-10,0.0,0.019013762,2
1593464000,1593460000,0.7078655,-0.00055971876,0.0016559383,0.7063452,0.9998193,1.4551915e-10,0.0,0.019013762,2
1593468000,1593464000,0.7078628,-0.00056156726,0.0016218433,0.706348,0.9998193,1.4551915e-10,0.0,0.019013762,2
1593472000,1593468000,0.70786226,-0.0005727882,0.0016182957,0.7063484,0.9998193,1.4551915e-10,0.0,0.019013762,2
1593476000,1593472000,0.70785755,-0.0005839634,0.0016486482,0.70635307,0.9998193,1.4551915e-10,0.0,0.019013762,2
1593480000,1593476000,0.7078551,-0.0005977724,0.0016718779,0.70635545,0.9998193,1.4551915e-10,0.0,0.019013762,2
1593484000,1593480000,0.70786625,-0.0006154054,0.0016709961,0.70634425,0.9998193,1.4551915e-10,0.0,0.019013762,2
1593488000,1593484000,0.7078827,-0.000636424,0.0016712752,0.70632774,0.9998193,1.4551915e-10,0.0,0.019013762,2
1593492000,1593488000,0.70789725,-0.00066834834,0.0016824906,0.7063132,0.9998193,1.4551915e-10,0.0,0.019013762,2
1593500000,1593496000,0.7079248,-0.00068732526,0.0017218833,0.7062854,0.9998193,1.4551915e-10,0.0,0.019013762,2
1593504000,1593500000,0.7079269,-0.0006732385,0.0017353813,0.7062832,0.9998193,1.4551915e-10,0.0,0.019013762,2
1593512000,1593508000,0.7079374,-0.00069629244,0.0017722823,0.70627266,0.9998193,1.4551915e-10,0.0,0.019013762,2
1593516000,1593512000,0.7079443,-0.0007066701,0.0018118504,0.7062657,0.9998193,1.4551915e-10,0.0,0.019013762,2
1593520000,1593516000,0.7079556,-0.00071669393,0.0018299761,0.70625424,0.9998193,1.4551915e-10,0.0,0.019013762,2
1593524000,1593520000,0.70796514,-0.0007131651,0.0018390483,0.7062447,0.9998193,1.4551915e-10,0.0,0.019013762,2
1593532000,1593528000,0.70796436,-0.00064654363,0.001838368,0.7062454,0.9998193,1.4551915e-10,0.0,0.019013762,2
1593536000,1593532000,0.7079499,-0.0006369004,0.0018452544,0.70626,0.9998193,1.4551915e-10,0.0,0.019013762,2
1593540000,1593536000,0.7079444,-0.0006208651,0.0018630474,0.7062655,0.9998193,1.4551915e-10,0.0,0.019013762,2
1593548000,1593544000,0.70792663,-0.000594439,0.0018636745,0.70628333,0.9998193,1.4551915e-10,0.0,0.019013762,2
1593552000,1593548000,0.70791173,-0.00058100413,0.0018675976,0.70629823,0.9998193,1.4551915e-10,0.0,0.019013762,2
1593556000,1593552000,0.7079037,-0.0005615586,0.0018737683,0.70630634,0.9998193,1.4551915e-10,0.0,0.019013762,2
1593560000,1593556000,0.70790124,-0.000529301,0.0018874782,0.7063087,0.9998193,1.4551915e-10,0.0,0.019013762,2
1593564000,1593560000,0.70790106,-0.0005030559,0.0019185179,0.70630884,0.9998193,1.4551915e-10,0.0,0.019013762,2
1593568000,1593564000,0.70789486,-0.0004994047,0.0019270146,0.7063151,0.9998193,1.4551915e-10,0.0,0.019013762,2
1593572000,1593568000,0.7078913,-0.00051160756,0.0019099165,0.70631874,0.9998193,1.4551915e-10,0.0,0.019013762,2
1593580000,1593576000,0.7078981,-0.00051077595,0.0018904186,0.70631194,0.9998193,1.4551915e-10,0.0,0.019013762,2
1593584000,1593580000,0.7078961,-0.000516541,0.0018819964,0.7063139,0.9998193,1.4551915e-10,0.0,0.019013762,2
1593588000,1593584000,0.7079013,-0.0005336332,0.0018652958,0.7063088,0.9998193,1.4551915e-10,0.0,0.019013762,2
1593596000,1593592000,0.7079579,-0.0005920278,0.0018251515,0.70625204,0.9998193,1.4551915e-10,0.0,0.019013762,2
1593600000,1593596000,0.70795727,-0.0005929961,0.0018317132,0.7062527,0.9998193,1.4551915e-10,0.0,0.019013762,2
1593604000,1593600000,0.7079359,-0.00059203163,0.0018349004,0.7062741,0.9998193,1.4551915e-10,0.0,0.019013762,2
1593608000,1593604000,0.7079281,-0.00059336494,0.0018268002,0.7062819,0.9998193,1.4551915e-10,0.0,0.019013762,2
1593612000,1593608000,0.707941,-0.00058682996,0.0018295955,0.70626897,0.9998193,1.4551915e-10,0.0,0.019013762,2
1593616000,1593612000,0.70796293,-0.0005712247,0.0018700551,0.706247,0.9998193,1.4551915e-10,0.0,0.019013762,2
1593624000,1593620000,0.7079694,-0.00056247157,0.0019759072,0.7062402,0.9998193,1.4551915e-10,0.0,0.019013762,2
1593628000,1593624000,0.70794994,-0.00056822476,0.0020055224,0.7062596,0.9998193,1.4551915e-10,0.0,0.019013762,2
1593632000,1593628000,0.7079339,-0.0005641998,0.0020238417,0.70627564,0.9998193,1.4551915e-10,0.0,0.019013762,2
1593636000,1593632000,0.70791674,-0.000545503,0.0020251968,0.70629287,0.9998193,1.4551915e-10,0.0,0.019013762,2
1593640000,1593636000,0.70789886,-0.0005294563,0.0020051042,0.70631087,0.9998193,1.4551915e-10,0.0,0.019013762,2
1593644000,1593640000,0.7078843,-0.0005277336,0.0019827653,0.7063254,0.9998193,1.4551915e-10,0.0,0.019013762,2
1593652000,1593648000,0.70785815,-0.0005232772,0.0019810512,0.70635164,0.9998193,1.4551915e-10,0.0,0.019013762,2
1593656000,1593652000,0.7078666,-0.0005463379,0.0019768595,0.70634323,0.9998193,1.4551915e-10,0.0,0.019013762,2
1593660000,1593656000,0.7078814,-0.0005682902,0.001969272,0.7063284,0.9998193,1.4551915e-10,0.0,0.019013762,2
1593664000,1593660000,0.70788455,-0.00055779825,0.0019744781,0.70632523,0.9998193,1.4551915e-10,0.0,0.019013762,2
1593668000,1593664000,0.7078704,-0.00054085493,0.0019800672,0.70633936,0.9998193,1.4551915e-10,0.0,0.019013762,2
1593672000,1593668000,0.70785075,-0.0005276705,0.0019706124,0.70635915,0.9998193,1.4551915e-10,0.0,0.019013762,2
1593676000,1593672000,0.7078337,-0.00050659187,0.0019539916,0.7063763,0.9998193,1.4551915e-10,0.0,0.019013762,2
1593684000,1593680000,0.70780784,-0.00043464729,0.0019617896,0.7064022,0.9998193,1.4551915e-10,0.0,0.019013762,2
1593688000,1593684000,0.7078009,-0.00039812754,0.0019575977,0.7064091,0.9998193,1.4551915e-10,0.0,0.019013762,2
1593696000,1593692000,0.70778495,-0.0003461882,0.0019274021,0.70642525,0.9998193,1.4551915e-10,0.0,0.019013762,2
1593700000,1593696000,0.7077641,-0.00033109155,0.0019236252,0.7064462,0.9998193,1.4551915e-10,0.0,0.019013762,2
1593704000,1593700000,0.7077433,-0.00033066905,0.0019285345,0.7064671,0.9998193,1.4551915e-10,0.0,0.019013762,2
1593708000,1593704000,0.7077296,-0.00032649972,0.0019334367,0.7064808,0.9998193,1.4551915e-10,0.0,0.019013762,2
1593716000,1593712000,0.7077212,-0.00028173448,0.0018675165,0.7064894,0.9998193,1.4551915e-10,0.0,0.019013762,2
1593720000,1593716000,0.7077109,-0.0002659113,0.0018464366,0.7064997,0.9998193,1.4551915e-10,0.0,0.019013762,2
1593728000,1593724000,0.7076762,-0.0002673078,0.0018675538,0.70653445,0.9998193,1.4551915e-10,0.0,0.019013762,2
1593732000,1593728000,0.707654,-0.00027590845,0.001864924,0.7065567,0.9998193,1.4551915e-10,0.0,0.019013762,2
1593736000,1593732000,0.7076469,-0.00028831486,0.0018562721,0.70656383,0.9998193,1.4551915e-10,0.0,0.019013762,2
1593740000,1593736000,0.70764697,-0.00029281908,0.001863053,0.7065638,0.9998193,1.4551915e-10,0.0,0.019013762,2
1593744000,1593740000,0.7076425,-0.0002829847,0.0018833905,0.7065682,0.9998193,1.4551915e-10,0.0,0.019013762,2
1593752000,1593748000,0.70762265,-0.00027948822,0.0019093999,0.706588,0.9998193,1.4551915e-10,0.0,0.019013762,2
1593756000,1593752000,0.7076042,-0.00029335322,0.001911312,0.7066064,0.9998193,1.4551915e-10,0.0,0.019013762,2
1593760000,1593756000,0.7075968,-0.00029141954,0.0019026919,0.70661384,0.9998193,1.4551915e-10,0.0,0.019013762,2
1593764000,1593760000,0.7075913,-0.00026089032,0.0018609079,0.70661944,0.9998193,1.4551915e-10,0.0,0.019013762,2
1593768000,1593764000,0.7075907,-0.00024052762,0.0018165209,0.70662016,0.9998193,1.4551915e-10,0.0,0.019013762,2
1593772000,1593768000,0.7076047,-0.00023900806,0.0018098047,0.70660615,0.9998193,1.4551915e-10,0.0,0.019013762,2
1593780000,1593776000,0.7076414,-0.00021711532,0.0018129831,0.7065694,0.9998193,1.4551915e-10,0.0,0.019013762,2
1593784000,1593780000,0.70766,-0.00020052095,0.0017912443,0.7065508,0.9998193,1.4551915e-10,0.0,0.019013762,2
1593788000,1593784000,0.7076632,-0.00018915554,0.0017755401,0.7065477,0.9998193,1.4551915e-10,0.0,0.019013762,2
1593792000,1593788000,0.7076608,-0.00019657335,0.0017478252,0.7065501,0.9998193,1.4551915e-10,0.0,0.019013762,2
1593796000,1593792000,0.7076588,-0.0002141542,0.0017287807,0.7065522,0.9998193,1.4551915e-10,0.0,0.019013762,2
1593800000,1593796000,0.7076519,-0.00021285801,0.0017323468,0.70655906,0.9998193,1.4551915e-10,0.0,0.019013762,2
1593804000,1593800000,0.70764464,-0.00019875148,0.0017411761,0.70656633,0.9998193,1.4551915e-10,0.0,0.019013762,2
1593808000,1593804000,0.7076355,-0.00019478716,0.0017617152,0.7065754,0.9998193,1.4551915e-10,0.0,0.019013762,2
1593816000,1593812000,0.70763534,-0.00019744177,0.001796042,0.7065756,0.9998193,1.4551915e-10,0.0,0.019013762,2
1593820000,1593816000,0.70766646,-0.00020563875,0.0017894864,0.70654434,0.9998193,1.4551915e-10,0.0,0.019013762,2
1593828000,1593824000,0.7076946,-0.00018385147,0.001812937,0.7065162,0.9998193,1.4551915e-10,0.0,0.019013762,2
1593836000,1593832000,0.70771474,-0.0001793449,0.0018356994,0.70649594,0.9998193,1.4551915e-10,0.0,0.019013762,2
1593840000,1593836000,0.7077139,-0.00017120417,0.0018574594,0.7064967,0.9998193,1.4551915e-10,0.0,0.019013762,2
1593844000,1593840000,0.70772356,-0.0001849285,0.0018875215,0.70648694,0.9998193,1.4551915e-10,0.0,0.019013762,2
1593848000,1593844000,0.70774275,-0.0002239884,0.0019013692,0.7064677,0.9998193,1.4551915e-10,0.0,0.019013762,2
1593852000,1593848000,0.7077541,-0.0002573867,0.0019050454,0.70645636,0.9998193,1.4551915e-10,0.0,0.019013762,2
1593856000,1593852000,0.707768,-0.00028399957,0.001910244,0.70644236,0.9998193,1.4551915e-10,0.0,0.019013762,2
1593860000,1593856000,0.7077737,-0.0002974007,0.0019233428,0.70643663,0.9998193,1.4551915e-10,0.0,0.019013762,2
1593864000,1593860000,0.70777196,-0.00028515584,0.0019469595,0.7064383,0.9998193,1.4551915e-10,0.0,0.019013762,2
1593868000,1593864000,0.70778036,-0.00027972757,0.001960786,0.7064298,0.9998193,1.4551915e-10,0.0,0.019013762,2
1593872000,1593868000,0.70779485,-0.0002844846,0.0019629672,0.7064153,0.9998193,1.4551915e-10,0.0,0.019013762,2
1593880000,1593876000,0.7078035,-0.00026341534,0.0019759927,0.70640665,0.9998193,1.4551915e-10,0.0,0.019013762,2
1593884000,1593880000,0.7077988,-0.0002504056,0.0019785631,0.70641136,0.9998193,1.4551915e-10,0.0,0.019013762,2
1593888000,1593884000,0.7077903,-0.00024338247,0.001999242,0.70641977,0.9998193,1.4551915e-10,0.0,0.019013762,2
1593892000,1593888000,0.7077807,-0.00025067522,0.0020124028,0.70642936,0.9998193,1.4551915e-10,0.0,0.019013762,2
1593896000,1593892000,0.7077677,-0.0002662467,0.0020112838,0.70644236,0.9998193,1.4551915e-10,0.0,0.019013762,2
1593900000,1593896000,0.70776033,-0.00027352668,0.002033506,0.7064497,0.9998193,1.4551915e-10,0.0,0.019013762,2
1593904000,1593900000,0.70775557,-0.00027211884,0.0020794694,0.70645434,0.9998193,1.4551915e-10,0.0,0.019013762,2
1593908000,1593904000,0.7077426,-0.00027108626,0.002100202,0.7064673,0.9998193,1.4551915e-10,0.0,0.019013762,2
1593912000,1593908000,0.707739,-0.0002700994,0.0020893174,0.70647085,0.9998193,1.4551915e-10,0.0,0.019013762,2
1593916000,1593912000,0.70774794,-0.00025107324,0.002076152,0.70646197,0.9998193,1.4551915e-10,0.0,0.019013762,2
1593920000,1593916000,0.7077403,-0.00022822122,0.002063764,0.70646966,0.9998193,1.4551915e-10,0.0,0.019013762,2
1593928000,1593924000,0.7076761,-0.00021181855,0.002084939,0.70653397,0.9998193,1.4551915e-10,0.0,0.019013762,2
1593932000,1593928000,0.7076538,-0.00021275139,0.002079693,0.7065562,0.9998193,1.4551915e-10,0.0,0.019013762,2
1593936000,1593932000,0.7076369,-0.00018544712,0.0020695478,0.7065732,0.9998193,1.4551915e-10,0.0,0.019013762,2
1593940000,1593936000,0.70762825,-0.0001404496,0.002080855,0.70658183,0.9998193,1.4551915e-10,0.0,0.019013762,2
1593944000,1593940000,0.707623,-0.00011466286,0.002089559,0.70658714,0.9998193,1.4551915e-10,0.0,0.019013762,2
1593948000,1593944000,0.70761776,-0.00010622021,0.002071912,0.70659244,0.9998193,1.4551915e-10,0.0,0.019013762,2
1593956000,1593952000,0.70761013,-0.00011076786,0.002075463,0.70660007,0.9998193,1.4551915e-10,0.0,0.019013762,2
1593960000,1593956000,0.7076221,-0.00011063132,0.0020789476,0.7065881,0.9998193,1.4551915e-10,0.0,0.019013762,2
1593964000,1593960000,0.70764387,-0.000116938645,0.002065487,0.7065663,0.9998193,1.4551915e-10,0.0,0.019013762,2
1593972000,1593968000,0.7076596,-0.000111384375,0.0020325657,0.7065506,0.9998193,1.4551915e-10,0.0,0.019013762,2
1593976000,1593972000,0.70765734,-0.0001032841,0.002034198,0.706553,0.9998193,1.4551915e-10,0.0,0.019013762,2
1593980000,1593976000,0.707658,-0.000104219755,0.0020509015,0.7065522,0.9998193,1.4551915e-10,0.0,0.019013762,2
1593984000,1593980000,0.7076666,-9.801748e-05,0.0020657317,0.70654356,0.9998193,1.4551915e-10,0.0,0.019013762,2
1593988000,1593984000,0.7076782,-9.485079e-05,0.002063239,0.70653194,0.9998193,1.4551915e-10,0.0,0.019013762,2
1593996000,1593992000,0.7076825,-0.00015059944,0.0020511826,0.7065276,0.9998193,1.4551915e-10,0.0,0.019013762,2
1594004000,1594000000,0.7076832,-0.00018209193,0.0020175325,0.706527,0.9998193,1.4551915e-10,0.0,0.019013762,2
1594012000,1594008000,0.7076701,-0.00017625294,0.0019737175,0.7065403,0.9998193,1.4551915e-10,0.0,0.019013762,2
1594020000,1594016000,0.70765156,-0.0002034999,0.0019653628,0.7065588,0.9998193,1.4551915e-10,0.0,0.019013762,2
1594028000,1594024000,0.70765114,-0.00022929594,0.001932929,0.70655936,0.9998193,1.4551915e-10,0.0,0.019013762,2
1594032000,1594028000,0.7076387,-0.00024064136,0.0019246388,0.7065718,0.9998193,1.4551915e-10,0.0,0.019013762,2
1594036000,1594032000,0.7076281,-0.00027118935,0.0019302974,0.7065825,0.9998193,1.4551915e-10,0.0,0.019013762,2
1594044000,1594040000,0.7076327,-0.0003146276,0.0019623342,0.7065777,0.9998193,1.4551915e-10,0.0,0.019013762,2
1594048000,1594044000,0.7076349,-0.00031510173,0.0019649577,0.7065755,0.9998193,1.4551915e-10,0.0,0.019013762,2
1594052000,1594048000,0.70762926,-0.00031631842,0.0019525203,0.7065812,0.9998193,1.4551915e-10,0.0,0.019013762,2
1594056000,1594052000,0.7076236,-0.0003224239,0.0019427359,0.7065869,0.9998193,1.4551915e-10,0.0,0.019013762,2
1594060000,1594056000,0.7076115,-0.00031192644,0.0019517734,0.706599,0.9998193,1.4551915e-10,0.0,0.019013762,2
1594064000,1594060000,0.7075979,-0.0002901215,0.0019600624,0.7066126,0.9998193,1.4551915e-10,0.0,0.019013762,2
1594068000,1594064000,0.7075877,-0.00029431662,0.001963472,0.70662284,0.9998193,1.4551915e-10,0.0,0.019013762,2
1594072000,1594068000,0.7075823,-0.00032640973,0.0019631186,0.70662814,0.9998193,1.4551915e-10,0.0,0.019013762,2
1594076000,1594072000,0.7075826,-0.00036191303,0.001955609,0.70662785,0.9998193,1.4551915e-10,0.0,0.019013762,2
1594080000,1594076000,0.70757693,-0.0003691454,0.0019522381,0.7066336,0.9998193,1.4551915e-10,0.0,0.019013762,2
1594084000,1594080000,0.70756257,-0.00035450642,0.0019533765,0.706648,0.9998193,1.4551915e-10,0.0,0.019013762,2
1594088000,1594084000,0.70754856,-0.00034739665,0.0019500119,0.706662,0.9998193,1.4551915e-10,0.0,0.019013762,2
1594096000,1594092000,0.7075307,-0.00039043752,0.0019561308,0.7066798,0.9998193,1.4551915e-10,0.0,0.019013762,2
1594100000,1594096000,0.7075287,-0.0003886261,0.001953529,0.7066818,0.9998193,1.4551915e-10,0.0,0.019013762,2
1594108000,1594104000,0.7075577,-0.00037605304,0.0019279866,0.70665294,0.9998193,1.4551915e-10,0.0,0.019013762,2
1594112000,1594108000,0.70755947,-0.00035804178,0.0019280303,0.70665115,0.9998193,1.4551915e-10,0.0,0.019013762,2
1594116000,1594112000,0.7075526,-0.00032982466,0.0019487863,0.70665795,0.9998193,1.4551915e-10,0.0,0.019013762,2
1594120000,1594116000,0.7075412,-0.00030422595,0.001967673,0.7066693,0.9998193,1.4551915e-10,0.0,0.019013762,2
1594124000,1594120000,0.7075435,-0.0002794345,0.0019601907,0.70666707,0.9998193,1.4551915e-10,0.0,0.019013762,2
1594132000,1594128000,0.7075938,-0.0002811693,0.0019738828,0.7066167,0.9998193,1.4551915e-10,0.0,0.019013762,2
1594136000,1594132000,0.7076182,-0.00027752173,0.0019626566,0.70659226,0.9998193,1.4551915e-10,0.0,0.019013762,2
1594140000,1594136000,0.70763206,-0.00026104276,0.0019469057,0.7065784,0.9998193,1.4551915e-10,0.0,0.019013762,2
1594144000,1594140000,0.70763075,-0.0002505334,0.0019378947,0.7065798,0.9998193,1.4551915e-10,0.0,0.019013762,2
1594152000,1594148000,0.7076416,-0.00024084843,0.0019146117,0.70656896,0.9998193,1.4551915e-10,0.0,0.019013762,2
1594156000,1594152000,0.7076485,-0.0002725569,0.0018807806,0.7065621,0.9998193,1.4551915e-10,0.0,0.019013762,2
1594160000,1594156000,0.7076479,-0.0003109929,0.0018575374,0.70656276,0.9998193,1.4551915e-10,0.0,0.019013762,2
1594164000,1594160000,0.70765483,-0.00032268467,0.0018647772,0.70655584,0.9998193,1.4551915e-10,0.0,0.019013762,2
1594168000,1594164000,0.7076711,-0.000314393,0.001902538,0.7065394,0.9998193,1.4551915e-10,0.0,0.019013762,2
1594172000,1594168000,0.7076905,-0.0002861467,0.0019421646,0.7065199,0.9998193,1.4551915e-10,0.0,0.019013762,2
1594176000,1594172000,0.7076937,-0.00025258365,0.0019532032,0.7065167,0.9998193,1.4551915e-10,0.0,0.019013762,2
1594180000,1594176000,0.7076811,-0.00023519035,0.00194204,0.7065293,0.9998193,1.4551915e-10,0.0,0.019013762,2
1594188000,1594184000,0.7076746,-0.00023314536,0.0019578403,0.70653576,0.9998193,1.4551915e-10,0.0,0.019013762,2
1594192000,1594188000,0.70769244,-0.0002312075,0.0019772525,0.7065178,0.9998193,1.4551915e-10,0.0,0.019013762,2
1594196000,1594192000,0.7077024,-0.00022287024,0.0019661556,0.70650786,0.9998193,1.4551915e-10,0.0,0.019013762,2
1594204000,1594200000,0.70769805,-0.00018688795,0.0019278232,0.70651245,0.9998193,1.4551915e-10,0.0,0.019013762,2
1594208000,1594204000,0.7076949,-0.00015737244,0.0019220505,0.7065156,0.9998193,1.4551915e-10,0.0,0.019013762,2
1594216000,1594212000,0.7077134,-0.00012672534,0.0019372635,0.706497,0.9998193,1.4551915e-10,0.0,0.019013762,2
1594220000,1594216000,0.70772463,-0.000115407645,0.0019443074,0.7064858,0.9998193,1.4551915e-10,0.0,0.019013762,2
1594228000,1594224000,0.70770377,-9.639908e-05,0.0019290921,0.7065067,0.9998193,1.4551915e-10,0.0,0.019013762,2
1594232000,1594228000,0.7076928,-7.595067e-05,0.0019181183,0.70651776,0.9998193,1.4551915e-10,0.0,0.019013762,2
1594236000,1594232000,0.70770174,-7.173979e-05,0.0019210911,0.7065088,0.9998193,1.4551915e-10,0.0,0.019013762,2
1594240000,1594236000,0.7077148,-8.8613204e-05,0.0019180872,0.70649564,0.9998193,1.4551915e-10,0.0,0.019013762,2
1594244000,1594240000,0.7077117,-9.565299e-05,0.001912064,0.70649874,0.9998193,1.4551915e-10,0.0,0.019013762,2
1594248000,1594244000,0.7077011,-0.000100372345,0.0019113581,0.7065094,0.9998193,1.4551915e-10,0.0,0.019013762,2
1594252000,1594248000,0.70768553,-0.00011298541,0.0019132958,0.70652497,0.9998193,1.4551915e-10,0.0,0.019013762,2
1594260000,1594256000,0.70767105,-0.00013670049,0.0019217497,0.7065395,0.9998193,1.4551915e-10,0.0,0.019013762,2
1594264000,1594260000,0.7076732,-0.00014970305,0.0019105653,0.70653737,0.9998193,1.4551915e-10,0.0,0.019013762,2
1594268000,1594264000,0.7076633,-0.00015552533,0.0018892089,0.7065473,0.9998193,1.4551915e-10,0.0,0.019013762,2
1594276000,1594272000,0.707673,-0.00015212777,0.001859345,0.7065377,0.9998193,1.4551915e-10,0.0,0.019013762,2
1594280000,1594276000,0.70768166,-0.0001443983,0.0018350222,0.70652914,0.9998193,1.4551915e-10,0.0,0.019013762,2
1594284000,1594280000,0.7076857,-0.00013062367,0.0018197342,0.706525,0.9998193,1.4551915e-10,0.0,0.019013762,2
1594292000,1594288000,0.70764315,-0.0001205935,0.0017979054,0.70656776,0.9998193,1.4551915e-10,0.0,0.019013762,2
1594300000,1594296000,0.7076397,-0.0001264158,0.0018040128,0.7065712,0.9998193,1.4551915e-10,0.0,0.019013762,2
1594304000,1594300000,0.7076475,-0.00013214363,0.0018212218,0.7065633,0.9998193,1.4551915e-10,0.0,0.019013762,2
1594308000,1594304000,0.70764935,-0.00014351372,0.0018275143,0.70656145,0.9998193,1.4551915e-10,0.0,0.019013762,2
1594312000,1594308000,0.7076482,-0.00016240607,0.0018089869,0.70656264,0.9998193,1.4551915e-10,0.0,0.019013762,2
1594316000,1594312000,0.7076482,-0.00016660677,0.0017983572,0.70656264,0.9998193,1.4551915e-10,0.0,0.019013762,2
1594324000,1594320000,0.7076474,-0.00012518716,0.0018584722,0.70656335,0.9998193,1.4551915e-10,0.0,0.019013762,2
1594328000,1594324000,0.7076458,-0.00012666709,0.0018987451,0.70656484,0.9998193,1.4551915e-10,0.0,0.019013762,2
1594336000,1594332000,0.7076557,-0.00017562049,0.0019416892,0.7065547,0.9998193,1.4551915e-10,0.0,0.019013762,2
1594344000,1594340000,0.70766956,-0.00022458949,0.001927442,0.70654094,0.9998193,1.4551915e-10,0.0,0.019013762,2
1594348000,1594344000,0.707662,-0.00023660032,0.001915054,0.7065486,0.9998193,1.4551915e-10,0.0,0.019013762,2
1594352000,1594348000,0.707658,-0.00023692602,0.0019023059,0.70655257,0.9998193,1.4551915e-10,0.0,0.019013762,2
1594356000,1594352000,0.70765555,-0.00023837185,0.0019072596,0.70655507,0.9998193,1.4551915e-10,0.0,0.019013762,2
1594364000,1594360000,0.7076735,-0.00027068992,0.0018871031,0.70653707,0.9998193,1.4551915e-10,0.0,0.019013762,2
1594368000,1594364000,0.70769143,-0.00023336294,0.001890939,0.7065191,0.9998193,1.4551915e-10,0.0,0.019013762,2
1594376000,1594372000,0.70770353,-0.0001722149,0.0018624982,0.7065071,0.9998193,1.4551915e-10,0.0,0.019013762,2
1594380000,1594376000,0.70769846,-0.00014385235,0.001858841,0.70651215,0.9998193,1.4551915e-10,0.0,0.019013762,2
1594384000,1594380000,0.7077017,-0.00013957763,0.0018778242,0.7065089,0.9998193,1.4551915e-10,0.0,0.019013762,2
1594388000,1594384000,0.70770293,-0.00016204763,0.0018859082,0.70650756,0.9998193,1.4551915e-10,0.0,0.019013762,2
1594396000,1594392000,0.7076748,-0.00018395112,0.0018346949,0.706536,0.9998193,1.4551915e-10,0.0,0.019013762,2
1594400000,1594396000,0.7076578,-0.00019072281,0.0018204873,0.7065529,0.9998193,1.4551915e-10,0.0,0.019013762,2
1594404000,1594400000,0.7076458,-0.00020014259,0.0018074105,0.706565,0.9998193,1.4551915e-10,0.0,0.019013762,2
1594408000,1594404000,0.7076387,-0.00019374222,0.0017913282,0.70657223,0.9998193,1.4551915e-10,0.0,0.019013762,2
1594412000,1594408000,0.7076387,-0.00018358006,0.0017933191,0.70657223,0.9998193,1.4551915e-10,0.0,0.019013762,2
1594420000,1594416000,0.7076292,-0.00019331987,0.001810171,0.70658165,0.9998193,1.4551915e-10,0.0,0.019013762,2
1594428000,1594424000,0.70759785,-0.00018492942,0.0017780933,0.7066131,0.9998193,1.4551915e-10,0.0,0.019013762,2
1594432000,1594428000,0.7075991,-0.00016869449,0.0017839039,0.7066119,0.9998193,1.4551915e-10,0.0,0.019013762,2
1594440000,1594436000,0.70762086,-0.00010951377,0.0018019227,0.70659006,0.9998193,1.4551915e-10,0.0,0.019013762,2
1594444000,1594440000,0.7076255,-0.00010270146,0.0017900553,0.7065854,0.9998193,1.4551915e-10,0.0,0.019013762,2
1594448000,1594444000,0.7076114,-9.582788e-05,0.0017782077,0.70659965,0.9998193,1.4551915e-10,0.0,0.019013762,2
1594452000,1594448000,0.70759606,-8.818689e-05,0.001782178,0.706615,0.9998193,1.4551915e-10,0.0,0.019013762,2
1594460000,1594456000,0.7075778,-7.402095e-05,0.0018168896,0.7066331,0.9998193,1.4551915e-10,0.0,0.019013762,2
1594464000,1594460000,0.70756555,-5.919888e-05,0.0018303014,0.7066454,0.9998193,1.4551915e-10,0.0,0.019013762,2
1594468000,1594464000,0.70755476,-6.812117e-05,0.0018237671,0.7066563,0.9998193,1.4551915e-10,0.0,0.019013762,2
1594472000,1594468000,0.70754546,-0.00010114897,0.0018021971,0.70666564,0.9998193,1.4551915e-10,0.0,0.019013762,2
1594476000,1594472000,0.70754176,-0.000121755234,0.0017922937,0.7066693,0.9998193,1.4551915e-10,0.0,0.019013762,2
1594480000,1594476000,0.70754,-0.00012576555,0.0018110173,0.70667106,0.9998193,1.4551915e-10,0.0,0.019013762,2
1594484000,1594480000,0.7075295,-0.00012635496,0.0018444287,0.70668143,0.9998193,1.4551915e-10,0.0,0.019013762,2
1594488000,1594484000,0.70750356,-0.00011898185,0.0018812405,0.7067073,0.9998193,1.4551915e-10,0.0,0.019013762,2
1594492000,1594488000,0.7074757,-0.00011875785,0.0019214463,0.706735,0.9998193,1.4551915e-10,0.0,0.019013762,2
1594496000,1594492000,0.707465,-0.00013854202,0.0019394507,0.7067458,0.9998193,1.4551915e-10,0.0,0.019013762,2
1594500000,1594496000,0.70747006,-0.00015461858,0.0019273198,0.7067408,0.9998193,1.4551915e-10,0.0,0.019013762,2
1594504000,1594500000,0.70747626,-0.00015750343,0.0019208424,0.7067346,0.9998193,1.4551915e-10,0.0,0.019013762,2
1594508000,1594504000,0.70747447,-0.00016298794,0.0019433686,0.7067363,0.9998193,1.4551915e-10,0.0,0.019013762,2
1594512000,1594508000,0.707467,-0.00017108761,0.0019587518,0.7067437,0.9998193,1.4551915e-10,0.0,0.019013762,2
1594516000,1594512000,0.7074656,-0.00018938925,0.0019421255,0.7067451,0.9998193,1.4551915e-10,0.0,0.019013762,2
1594520000,1594516000,0.7074729,-0.00022540768,0.0019243859,0.7067378,0.9998193,1.4551915e-10,0.0,0.019013762,2
1594528000,1594524000,0.707486,-0.00026163866,0.0019148848,0.70672476,0.9998193,1.4551915e-10,0.0,0.019013762,2
1594532000,1594528000,0.70750046,-0.00024794764,0.001907671,0.70671034,0.9998193,1.4551915e-10,0.0,0.019013762,2
1594536000,1594532000,0.7075022,-0.00021839995,0.0018929285,0.70670867,0.9998193,1.4551915e-10,0.0,0.019013762,2
1594540000,1594536000,0.7074952,-0.00019523191,0.0018778158,0.7067157,0.9998193,1.4551915e-10,0.0,0.019013762,2
1594548000,1594544000,0.70747364,-0.00018839432,0.001869851,0.7067373,0.9998193,1.4551915e-10,0.0,0.019013762,2
1594552000,1594548000,0.70747566,-0.00019159293,0.0018668175,0.70673525,0.9998193,1.4551915e-10,0.0,0.019013762,2
1594556000,1594552000,0.7074893,-0.00019292839,0.0018844943,0.70672154,0.9998193,1.4551915e-10,0.0,0.019013762,2
1594560000,1594556000,0.7075026,-0.00020027137,0.0018954445,0.70670825,0.9998193,1.4551915e-10,0.0,0.019013762,2
1594564000,1594560000,0.70750946,-0.00021400087,0.0019045168,0.70670134,0.9998193,1.4551915e-10,0.0,0.019013762,2
1594568000,1594564000,0.70750546,-0.00022540976,0.001931718,0.7067053,0.9998193,1.4551915e-10,0.0,0.019013762,2
1594572000,1594568000,0.7074879,-0.00023452308,0.0019566622,0.70672274,0.9998193,1.4551915e-10,0.0,0.019013762,2
1594580000,1594576000,0.7074672,-0.00023244212,0.0019478776,0.7067434,0.9998193,1.4551915e-10,0.0,0.019013762,2
1594584000,1594580000,0.70746785,-0.0002355584,0.0019367523,0.7067429,0.9998193,1.4551915e-10,0.0,0.019013762,2
1594588000,1594584000,0.70745605,-0.0002329895,0.0019290177,0.70675474,0.9998193,1.4551915e-10,0.0,0.019013762,2
1594592000,1594588000,0.7074315,-0.00021945141,0.0019058873,0.7067794,0.9998193,1.4551915e-10,0.0,0.019013762,2
1594596000,1594592000,0.7074065,-0.00021269091,0.0018842665,0.70680445,0.9998193,1.4551915e-10,0.0,0.019013762,2
1594604000,1594600000,0.7073874,-0.00019881931,0.0018821614,0.7068236,0.9998193,1.4551915e-10,0.0,0.019013762,2
1594608000,1594604000,0.707402,-0.00020079876,0.0018331317,0.7068091,0.9998193,1.4551915e-10,0.0,0.019013762,2
1594612000,1594608000,0.7074101,-0.00021744397,0.0017987983,0.70680106,0.9998193,1.4551915e-10,0.0,0.019013762,2
1594616000,1594612000,0.7074081,-0.00022650353,0.0017848486,0.7068031,0.9998193,1.4551915e-10,0.0,0.019013762,2
1594620000,1594616000,0.7074159,-0.00022053196,0.001749045,0.7067954,0.9998193,1.4551915e-10,0.0,0.019013762,2
1594624000,1594620000,0.707432,-0.0002194607,0.0017091433,0.7067794,0.9998193,1.4551915e-10,0.0,0.019013762,2
1594628000,1594624000,0.7074352,-0.0002213573,0.0017001304,0.7067762,0.9998193,1.4551915e-10,0.0,0.019013762,2
1594632000,1594628000,0.7074358,-0.00021681983,0.001706602,0.7067756,0.9998193,1.4551915e-10,0.0,0.019013762,2
1594636000,1594632000,0.70743376,-0.00022809926,0.0017025364,0.70677763,0.9998193,1.4551915e-10,0.0,0.019013762,2
1594640000,1594636000,0.70741993,-0.0002464896,0.0016936264,0.7067915,0.9998193,1.4551915e-10,0.0,0.019013762,2
1594644000,1594640000,0.70740575,-0.00024679524,0.001697514,0.7068057,0.9998193,1.4551915e-10,0.0,0.019013762,2
1594648000,1594644000,0.70739526,-0.00024821388,0.0017221594,0.70681614,0.9998193,1.4551915e-10,0.0,0.019013762,2
1594652000,1594648000,0.7073972,-0.00025832964,0.0017358819,0.7068141,0.9998193,1.4551915e-10,0.0,0.019013762,2
1594656000,1594652000,0.7074003,-0.00025186822,0.00172855,0.706811,0.9998193,1.4551915e-10,0.0,0.019013762,2
1594660000,1594656000,0.7073869,-0.00023707951,0.0017234802,0.7068245,0.9998193,1.4551915e-10,0.0,0.019013762,2
1594664000,1594660000,0.70737386,-0.00024186252,0.0017109292,0.70683753,0.9998193,1.4551915e-10,0.0,0.019013762,2
1594668000,1594664000,0.7073811,-0.00024819977,0.0017021382,0.70683026,0.9998193,1.4551915e-10,0.0,0.019013762,2
1594672000,1594668000,0.70740646,-0.0002413734,0.0017156003,0.70680493,0.9998193,1.4551915e-10,0.0,0.019013762,2
1594676000,1594672000,0.7074201,-0.00024769892,0.0017332147,0.7067912,0.9998193,1.4551915e-10,0.0,0.019013762,2
1594684000,1594680000,0.7074053,-0.00023650085,0.0017357679,0.706806,0.9998193,1.4551915e-10,0.0,0.019013762,2
1594688000,1594684000,0.70740736,-0.00022394712,0.001723334,0.7068039,0.9998193,1.4551915e-10,0.0,0.019013762,2
1594692000,1594688000,0.70740974,-0.00024189522,0.0017248484,0.70680153,0.9998193,1.4551915e-10,0.0,0.019013762,2
1594700000,1594696000,0.70742315,-0.00026874105,0.0017302152,0.7067882,0.9998193,1.4551915e-10,0.0,0.019013762,2
1594704000,1594700000,0.70744175,-0.0002731435,0.001721257,0.7067696,0.9998193,1.4551915e-10,0.0,0.019013762,2
1594708000,1594704000,0.7074528,-0.0002726295,0.0017164424,0.70675856,0.9998193,1.4551915e-10,0.0,0.019013762,2
1594712000,1594708000,0.70744807,-0.0002524735,0.0017184458,0.70676327,0.9998193,1.4551915e-10,0.0,0.019013762,2
1594716000,1594712000,0.70744336,-0.0002342037,0.0017140475,0.706768,0.9998193,1.4551915e-10,0.0,0.019013762,2
1594720000,1594716000,0.70745337,-0.00022462326,0.0016965077,0.706758,0.9998193,1.4551915e-10,0.0,0.019013762,2
1594724000,1594720000,0.70745766,-0.00022783203,0.0016842486,0.70675373,0.9998193,1.4551915e-10,0.0,0.019013762,2
1594728000,1594724000,0.70746416,-0.00025813695,0.0016961462,0.7067472,0.9998193,1.4551915e-10,0.0,0.019013762,2
1594736000,1594732000,0.70749444,-0.00032291005,0.001734664,0.7067167,0.9998193,1.4551915e-10,0.0,0.019013762,2
1594740000,1594736000,0.7074969,-0.00032909296,0.0017352905,0.7067143,0.9998193,1.4551915e-10,0.0,0.019013762,2
1594748000,1594744000,0.7075194,-0.0003584411,0.0017053587,0.7066918,0.9998193,1.4551915e-10,0.0,0.019013762,2
1594752000,1594748000,0.70753616,-0.0003699096,0.0016985218,0.70667505,0.9998193,1.4551915e-10,0.0,0.019013762,2
1594760000,1594756000,0.7075395,-0.0004217777,0.001660436,0.7066718,0.9998193,1.4551915e-10,0.0,0.019013762,2
1594768000,1594764000,0.70754844,-0.0004408467,0.001656667,0.7066628,0.9998193,1.4551915e-10,0.0,0.019013762,2
1594772000,1594768000,0.70756483,-0.00043645088,0.0016822772,0.7066464,0.9998193,1.4551915e-10,0.0,0.019013762,2
1594780000,1594776000,0.7075667,-0.00041665352,0.0017136123,0.7066445,0.9998193,1.4551915e-10,0.0,0.019013762,2
1594784000,1594780000,0.70756394,-0.00040656337,0.0017035144,0.7066472,0.9998193,1.4551915e-10,0.0,0.019013762,2
1594792000,1594788000,0.70756894,-0.00042405067,0.001699185,0.7066422,0.9998193,1.4551915e-10,0.0,0.019013762,2
1594796000,1594792000,0.7075665,-0.0004418058,0.001713239,0.7066446,0.9998193,1.4551915e-10,0.0,0.019013762,2
1594800000,1594796000,0.7075773,-0.0004527727,0.0017319939,0.70663375,0.9998193,1.4551915e-10,0.0,0.019013762,2
1594808000,1594804000,0.70759064,-0.00044454276,0.0017740352,0.7066202,0.9998193,1.4551915e-10,0.0,0.019013762,2
1594812000,1594808000,0.70756495,-0.0004467328,0.0018127961,0.7066459,0.9998193,1.4551915e-10,0.0,0.019013762,2
1594816000,1594812000,0.7075441,-0.00045646456,0.0018432989,0.7066667,0.9998193,1.4551915e-10,0.0,0.019013762,2
1594824000,1594820000,0.7075228,-0.0004515057,0.0018820803,0.70668787,0.9998193,1.4551915e-10,0.0,0.019013762,2
1594828000,1594824000,0.70751673,-0.00046203946,0.0018817153,0.706694,0.9998193,1.4551915e-10,0.0,0.019013762,2
1594832000,1594828000,0.7075166,-0.00047598418,0.0018583977,0.7066942,0.9998193,1.4551915e-10,0.0,0.019013762,2
1594836000,1594832000,0.70751923,-0.00046847924,0.001815858,0.7066917,0.9998193,1.4551915e-10,0.0,0.019013762,2
1594844000,1594840000,0.7075269,-0.00047905586,0.001757954,0.70668405,0.9998193,1.4551915e-10,0.0,0.019013762,2
1594848000,1594844000,0.707517,-0.0004948324,0.0017561563,0.70669395,0.9998193,1.4551915e-10,0.0,0.019013762,2
1594852000,1594848000,0.7074996,-0.00049967,0.0017509679,0.7067114,0.9998193,1.4551915e-10,0.0,0.019013762,2
