timestamp,position[0],position[1],position[2],velocity[0],velocity[1],velocity[2],acceleration[0],acceleration[1],acceleration[2],jerk[0],jerk[1],jerk[2],yaw,yawspeed
1592228000,-46.251934,-106.05631,-488.1453,-0.00051181746,-0.00051181746,0.69948816,-0.06398859,-0.06398859,-0.06398859,-4.0,-4.0,-4.0,1.5675628,-0.005585054
1592252000,-46.25222,-106.056496,-488.1397,0.0010315246,0.001032234,0.6988486,0.06501114,0.065102935,-0.09597313,0.0,0.0,-4.0,1.5674213,0.0
1592428000,-46.255947,-106.05846,-488.14484,0.0,-0.0005118637,0.6994881,0.0,-0.06399148,-0.06399148,0.0,-4.0,-4.0,1.567719,0.0
1592628000,-46.256058,-106.05981,-488.14267,3.9659807e-07,0.0,0.6994881,2.4795532e-05,0.0,-0.06399135,0.0,0.0,-4.0,1.5683438,0.0
1592828000,-46.2601,-106.06048,-488.14145,3.974106e-06,3.5083093e-07,0.69948816,0.000248909,2.193451e-05,-0.063988864,0.0,0.0,-4.0,1.5677154,0.0
1593028000,-46.259216,-106.061455,-488.13937,2.894754e-06,8.99776e-07,0.6994881,0.00018119812,5.6266785e-05,-0.06399312,0.0,0.0,-4.0,1.567999,0.0
1593228000,-46.262653,-106.062515,-488.13785,6.038674e-06,1.8747556e-06,0.69948816,0.0003786087,0.00011730194,-0.06398788,0.0,0.0,-4.0,1.5680904,0.0
1593428000,-46.26191,-106.06212,-488.1366,0.00017657937,0.000100989484,0.64325345,0.0010700226,0.00062179565,-0.5,0.0,0.0,0.0,1.5680383,0.0
1593628000,-46.261856,-106.0621,-488.1358,0.0003903309,0.0002252016,0.5433716,0.0010700226,0.00062179565,-0.5,0.0,0.0,0.0,1.5680383,0.0
1593828000,-46.26176,-106.06203,-488.13446,0.0006040384,0.00034938808,0.4435104,0.0010700226,0.00062179565,-0.5,0.0,0.0,0.0,1.5680383,0.0
1594028000,-46.26162,-106.06195,-488.13394,0.0008174273,0.0004733895,0.34379804,0.0010700226,0.00062179565,-0.5,0.0,0.0,0.0,1.5680383,0.0
1594228000,-46.261436,-106.061844,-488.13358,0.001030893,0.0005974355,0.24404986,0.0010700226,0.00062179565,-0.5,0.0,0.0,0.0,1.5680383,0.0
1594428000,-46.26121,-106.06173,-488.13483,0.001244101,0.00072133186,0.144422,0.0010700226,0.00062179565,-0.5,0.0,0.0,0.0,nan,0.0
1594628000,-46.260944,-106.06157,-488.13593,0.0014576374,0.00084541895,0.044640742,0.0010700226,0.00062179565,-0.5,0.0,0.0,0.0,nan,0.0
1594828000,-46.260635,-106.06138,-488.1375,0.0016711769,0.0009695077,-0.05514186,0.0010700226,0.00062179565,-0.5,0.0,0.0,0.0,nan,0.0
1595028000,-46.260284,-106.06119,-488.13824,0.0018847113,0.0010935937,-0.15492222,0.0010700226,0.00062179565,-0.5,0.0,0.0,0.0,nan,0.0
1595228000,-46.259888,-106.06096,-488.1403,0.0020978812,0.0012174677,-0.2545321,0.0010700226,0.00062179565,-0.5,0.0,0.0,0.0,nan,0.0
1595428000,-46.259453,-106.06069,-488.14236,0.0023110309,0.0013413302,-0.35413268,0.0010700226,0.00062179565,-0.5,0.0,0.0,0.0,nan,0.0
1595628000,-46.258976,-106.06042,-488.14423,0.0025237892,0.0014649648,-0.45355007,0.0010700226,0.00062179565,-0.5,0.0,0.0,0.0,nan,0.0
1595828000,-46.258453,-106.06011,-488.14505,0.0027361934,0.001588394,-0.5528022,0.0010700226,0.00062179565,-0.5,0.0,0.0,0.0,nan,0.0
1596028000,-46.257893,-106.05981,-488.1455,0.002905218,0.0016866844,-0.6517236,-2.0980835e-05,-8.821487e-06,-0.5,0.0,0.0,0.0,nan,0.0
1596228000,-46.25732,-106.0595,-488.1451,0.0028826753,0.0016750515,-0.7505794,-0.0001924038,-0.00010037422,-0.5,0.0,0.0,0.0,nan,0.0
1596428000,-46.25675,-106.0592,-488.1466,0.0028241004,0.0016441928,-0.8492387,-0.00038552284,-0.00020313263,-0.5,0.0,0.0,0.0,nan,0.0
1596628000,-46.256203,-106.05889,-488.14856,0.002724808,0.0015913652,-0.9478697,-0.0006008148,-0.00032234192,-0.5,0.0,0.0,0.0,nan,0.0
1596828000,-46.255676,-106.058586,-488.1505,0.0025806022,0.0015130235,-1.0462996,-0.00084495544,-0.00046265125,-0.5,0.0,0.0,0.0,nan,0.0
1597028000,-46.255184,-106.0583,-488.15335,0.002383969,0.0014037831,-1.1448271,-0.0011267662,-0.0006302595,-0.5,0.0,0.0,0.0,nan,0.0
1597228000,-46.254734,-106.05803,-488.17206,0.0021273699,0.0012598867,-1.2433809,-0.001450181,-0.00081944466,-0.5,0.0,0.0,0.0,nan,0.0
1597428000,-46.254337,-106.057785,-488.21765,0.0017975335,0.0010710541,-1.3426886,-0.0018399358,-0.0010593534,-0.5,0.0,0.0,0.0,nan,0.0
1597628000,-46.254017,-106.057594,-488.2994,0.0013749407,0.00082786125,-1.4426885,-0.0023612678,-0.0013627112,-0.5,0.0,0.0,0.0,nan,0.0
1597828000,-46.253788,-106.057465,-488.4134,0.0008593071,0.00052753626,-1.5,0.0,0.0,0.0,0.0,0.0,0.0,nan,0.0
1598028000,-46.253635,-106.05739,-488.54855,0.0008143228,0.00051111745,-1.5,0.0,0.0,0.0,0.0,0.0,0.0,nan,0.0
1598228000,-46.253487,-106.05728,-488.69122,0.0007654407,0.000478807,-1.4676222,-0.0003151968,-0.0002452582,0.22907841,0.0,0.0,-4.0,nan,0.0
1598428000,-46.253338,-106.0572,-488.84018,0.0006982058,0.00042672394,-1.4203802,-0.00034410506,-0.0002616197,0.24132752,0.0,0.0,-4.0,nan,0.0
1598628000,-46.253204,-106.05712,-488.9903,0.0006293848,0.00040056338,-1.3715174,-0.00034410506,-0.00012813509,0.25419903,0.0,0.0,-4.0,nan,0.0
1598828000,-46.253082,-106.057045,-489.14484,0.0005605639,0.00036773496,-1.3192307,-0.00034410506,-0.0001731664,0.267913,0.0,0.0,-4.0,nan,0.0
1599028000,-46.252983,-106.05697,-489.29953,0.0005197051,0.00033122118,-1.2649554,-0.0001123175,-0.00018556416,0.28022748,0.0,0.0,-4.0,nan,0.0
1599228000,-46.252888,-106.05689,-489.4553,0.00046970727,0.00028648015,-1.2077204,-0.00029984862,-0.00024469197,0.29192418,0.0,0.0,-4.0,nan,0.0
1599428000,-46.252792,-106.056816,-489.6084,0.00040708872,0.00023618572,-1.1487978,-0.00031440705,-0.00025196373,0.3011377,0.0,0.0,-4.0,nan,0.0
1599628000,-46.252716,-106.05678,-489.76047,0.00034420728,0.00018579295,-1.0874037,-0.00031440705,-0.00025196373,0.31256294,0.0,0.0,-4.0,nan,0.0
1599828000,-46.25266,-106.05674,-489.9079,0.0002971799,0.00016869028,-1.0243745,-5.853921e-05,-0.00010608137,0.3201263,0.0,0.0,-4.0,nan,0.0
1600028000,-46.2526,-106.05672,-490.05157,0.0002671473,0.00014453016,-0.9594342,-0.00017806143,-0.00012338161,0.3299532,0.0,0.0,-4.0,nan,0.0
1600228000,-46.25255,-106.05672,-490.18854,0.00022973557,0.00014248943,-0.89301664,-0.00018859655,-4.7683716e-07,0.33480275,0.0,0.0,-4.0,nan,0.0
1600428000,-46.25251,-106.05672,-490.31744,0.00019201628,0.00014242253,-0.82588404,-0.00018859655,-7.599592e-07,0.33702528,0.0,0.0,-4.0,nan,0.0
1600628000,-46.252472,-106.05672,-490.4598,0.00017049731,0.00013600518,-0.7431349,-9.910017e-05,-6.6787004e-05,0.6877288,0.0,0.0,4.0,nan,0.0
1600828000,-46.252434,-106.05672,-490.5894,0.00014763462,0.00012264776,-0.5263463,-0.00012949854,-6.6787004e-05,1.3776615,0.0,0.0,-4.0,1.6207699,0.0
1601028000,-46.252396,-106.05672,-490.67117,0.00011708533,0.00010929038,-0.31339127,-0.00017619878,-6.6787004e-05,0.7388935,0.0,0.0,-4.0,1.6207699,0.0
1601228000,-46.252377,-106.05672,-490.72284,7.882553e-05,0.00010528734,-0.22240071,-0.0001931265,2.041459e-06,0.18652192,0.0,0.0,-4.0,1.6207699,0.0
1601428000,-46.252377,-106.05672,-490.76465,7.159274e-05,0.00010549887,-0.19799344,6.92904e-07,6.2584877e-07,0.08115047,0.0,0.0,-4.0,1.6207699,0.0
1601628000,-46.252377,-106.05672,-490.8025,7.167375e-05,0.00010562849,-0.17898136,4.0978193e-07,6.482005e-07,0.07157908,0.0,0.0,-4.0,1.6207699,0.0
1601828000,-46.252377,-106.05672,-490.8367,7.175571e-05,0.00010574667,-0.16175036,4.0978193e-07,-6.7055225e-08,0.06344194,0.0,0.0,-4.0,1.6207699,0.0
1602028000,-46.252377,-106.05672,-490.86752,7.182042e-05,0.00010584305,-0.14618239,3.2037497e-07,5.2154064e-07,0.055542372,0.0,0.0,-4.0,1.6207699,0.0
1602228000,-46.252377,-106.05672,-490.89542,7.1885974e-05,0.00010594735,-0.13210289,3.2782555e-07,5.2154064e-07,0.050171286,0.0,0.0,-4.0,1.6207699,0.0
1602428000,-46.252377,-106.05672,-490.9206,7.194107e-05,0.00010602056,-0.11939886,2.3841858e-07,4.3213367e-07,0.044261396,0.0,0.0,-4.0,1.6207699,0.0
1602628000,-46.252377,-106.05672,-490.94333,7.199589e-05,0.000106094514,-0.10790478,2.7567148e-07,3.2782555e-07,0.03850761,0.0,0.0,-4.0,1.6207699,0.0
1602828000,-46.252377,-106.05672,-490.9639,7.20402e-05,0.00010616829,-0.09750632,2.4586916e-07,3.6880374e-07,0.034915894,0.0,0.0,-4.0,1.6207699,0.0
1603028000,-46.252377,-106.05672,-490.9825,7.208191e-05,0.00010622699,-0.08808628,1.6763806e-07,3.2037497e-07,0.030277736,0.0,0.0,-4.0,1.6207699,0.0
1603228000,-46.252377,-106.05672,-490.99927,7.212291e-05,0.00010628447,-0.07959832,2.0489097e-07,-9.313226e-08,0.028017603,0.0,0.0,-4.0,1.6207699,0.0
1603428000,-46.252377,-106.05672,-491.01443,7.215627e-05,0.000106338426,-0.07192301,1.899898e-07,2.8312206e-07,0.026312325,0.0,0.0,-4.0,1.6207699,0.0
1603628000,-46.252377,-106.05672,-491.02814,7.21874e-05,0.00010638426,-0.06498839,1.6018748e-07,2.644956e-07,0.025506292,0.0,0.0,-4.0,1.6207699,0.0
1603828000,-46.252377,-106.05672,-491.04056,7.221436e-05,0.000106421234,-0.058687415,1.15484e-07,1.7136335e-07,0.022644816,0.0,0.0,-4.0,1.6207699,0.0
1604028000,-46.252377,-106.05672,-491.05176,7.223952e-05,0.00010645824,-0.052989725,8.568168e-08,1.3411045e-07,0.019870743,0.0,0.0,-4.0,1.6207699,0.0
1604228000,-46.252377,-106.05672,-491.06183,7.226309e-05,0.000106493,-0.047854837,5.9604645e-08,8.568168e-08,0.013929442,0.0,0.0,-4.0,1.6207699,0.0
1604428000,-46.252377,-106.05672,-491.0709,7.2284696e-05,0.00010652489,-0.043248262,8.568168e-08,1.2665987e-07,0.0107309595,0.0,0.0,-4.0,1.6207699,0.0
1604628000,-46.252377,-106.05672,-491.07913,7.230284e-05,0.000106551546,-0.03906551,1.15484e-07,1.7508864e-07,0.007389739,0.0,0.0,-4.0,1.6207699,0.0
1604828000,-46.252377,-106.05672,-491.0866,7.2321025e-05,0.000106578365,-0.035263993,1.4901161e-07,2.1979213e-07,0.0038833842,0.0,0.0,-4.0,1.6207699,0.0
1605028000,-46.252377,-106.05672,-491.09338,7.233655e-05,0.000106601285,-0.03181326,5.9604645e-08,8.568168e-08,0.0021760687,0.0,0.0,-4.0,1.6207699,0.0
1605228000,-46.252377,-106.05672,-491.09943,7.235013e-05,0.00010662121,-0.028726578,0.0,0.0,0.0,0.0,0.0,0.0,1.6207699,0.0
1605428000,-46.252377,-106.05672,-491.10498,7.236277e-05,0.00010663987,-0.025913239,0.0,0.0,0.0,0.0,0.0,0.0,1.6207699,0.0
1605628000,-46.252377,-106.05672,-491.10995,7.2373805e-05,0.00010665613,-0.02337265,0.0,0.0,0.0,0.0,0.0,0.0,1.6207699,0.0
1605828000,-46.252377,-106.05672,-491.11447,7.2385454e-05,0.00010667331,-0.021105766,0.0,0.0,0.0,0.0,0.0,0.0,1.6207699,0.0
1606028000,-46.252377,-106.05672,-491.11853,7.23935e-05,0.00010668516,-0.01903534,0.0,0.0,0.0,0.0,0.0,0.0,1.6207699,0.0
1606228000,-46.252377,-106.05672,-491.12216,7.240441e-05,0.00010670122,-0.017163277,0.0,0.0,0.0,0.0,0.0,0.0,1.6207699,0.0
1606428000,-46.252377,-106.05672,-491.12546,7.2409995e-05,0.00010670946,-0.0155181885,0.0,0.0,0.0,0.0,0.0,0.0,1.6207699,0.0
1606628000,-46.252377,-106.05672,-491.12845,7.241743e-05,0.00010672043,-0.013979912,0.0,0.0,0.0,0.0,0.0,0.0,1.6207699,0.0
1606828000,-46.252377,-106.05672,-491.1311,7.24275e-05,0.00010673525,-0.012624741,0.0,0.0,0.0,0.0,0.0,0.0,1.6207699,0.0
1607028000,-46.252377,-106.05672,-491.1335,7.2428295e-05,0.000106736436,-0.011389732,0.0,0.0,0.0,0.0,0.0,0.0,1.6207699,0.0
1607228000,-46.252377,-106.05672,-491.1357,7.243666e-05,0.000106748754,-0.010277748,0.0,0.0,0.0,0.0,0.0,0.0,1.6207699,0.0
1607428000,-46.252377,-106.05672,-491.13773,7.24399e-05,0.00010675354,-0.009241104,0.0,0.0,0.0,0.0,0.0,0.0,1.6207699,0.0
1607628000,-46.252377,-106.05672,-491.13956,7.244455e-05,0.00010676039,-0.00832653,0.0,0.0,0.0,0.0,0.0,0.0,1.6207699,0.0
1607828000,-46.252377,-106.05672,-491.14108,7.245085e-05,0.00010676967,-0.007534027,0.0,0.0,0.0,0.0,0.0,0.0,1.6207699,0.0
1608028000,-46.252377,-106.05672,-491.14252,7.245893e-05,0.000106781576,-0.006802559,0.0,0.0,0.0,0.0,0.0,0.0,1.6207699,0.0
1608228000,-46.252377,-106.05672,-491.1439,7.2469215e-05,0.00010679674,-0.006116867,0.0,0.0,0.0,0.0,0.0,0.0,1.6207699,0.0
1608428000,-46.252377,-106.05672,-491.14523,7.246972e-05,0.00010679747,-0.0054454803,0.0,0.0,0.0,0.0,0.0,0.0,1.6207699,0.0
1608628000,-46.252377,-106.05672,-491.14645,7.24708e-05,0.00010679908,-0.00481987,0.0,0.0,0.0,0.0,0.0,0.0,1.6207699,0.0
1608828000,-46.252377,-106.05672,-491.1474,7.2488554e-05,0.00010682523,-0.004302025,0.0,0.0,0.0,0.0,0.0,0.0,1.6207699,0.0
1609028000,-46.252377,-106.05672,-491.14825,7.249251e-05,0.000106831074,-0.0038900375,0.0,0.0,0.0,0.0,0.0,0.0,1.6207699,0.0
1609228000,-46.252377,-106.05672,-491.1487,7.2496056e-05,0.0001068363,-0.0036153793,0.0,0.0,0.0,0.0,0.0,0.0,1.6207699,0.0
1609428000,-46.252377,-106.05672,-491.14917,7.249977e-05,0.00010684176,-0.0033864975,0.0,0.0,0.0,0.0,0.0,0.0,1.6207699,0.0
1609628000,-46.252377,-106.05672,-491.14963,7.250443e-05,0.00010684864,-0.0031576157,0.0,0.0,0.0,0.0,0.0,0.0,1.6207699,0.0
1609828000,-46.252377,-106.05672,-491.1501,7.251036e-05,0.00010685737,-0.0029287338,0.0,0.0,0.0,0.0,0.0,0.0,1.6207699,0.0
1610028000,-46.252377,-106.05672,-491.15054,7.254351e-05,0.00010690623,-0.0027008057,0.0,0.0,0.0,0.0,0.0,0.0,1.6207699,0.0
1610228000,-46.252377,-106.05672,-491.15097,7.255498e-05,0.00010692313,-0.0024871826,0.0,0.0,0.0,0.0,0.0,0.0,1.6207699,0.0
1610428000,-46.252377,-106.05672,-491.15134,7.256862e-05,0.00010694323,-0.0022888184,0.0,0.0,0.0,0.0,0.0,0.0,1.6207699,0.0
1610628000,-46.252377,-106.05672,-491.15164,7.2581795e-05,0.000106962645,-0.0021362305,0.0,0.0,0.0,0.0,0.0,0.0,1.6207699,0.0
1610828000,-46.252377,-106.05672,-491.15195,7.25981e-05,0.00010698667,-0.0019836426,0.0,0.0,0.0,0.0,0.0,0.0,1.6207699,0.0
1611028000,-46.252377,-106.05672,-491.15225,7.2618604e-05,0.000107016895,-0.0018310547,0.0,0.0,0.0,0.0,0.0,0.0,1.6207699,0.0
1611228000,-46.252377,-106.05672,-491.15256,7.264491e-05,0.000107055654,-0.0016784668,0.0,0.0,0.0,0.0,0.0,0.0,1.6207699,0.0
1611428000,-46.252377,-106.05672,-491.15286,7.267941e-05,0.0001071065,-0.0015258789,0.0,0.0,0.0,0.0,0.0,0.0,1.6207699,0.0
1611628000,-46.252377,-106.05672,-491.15317,7.272587e-05,0.00010717496,-0.001373291,0.0,0.0,0.0,0.0,0.0,0.0,1.6207699,0.0
1611828000,-46.252377,-106.05672,-491.1534,7.277571e-05,0.00010724841,-0.0012512207,0.0,0.0,0.0,0.0,0.0,0.0,1.6207699,0.0
1612028000,-46.252377,-106.05672,-491.15363,7.2842224e-05,0.000107346445,-0.0011291504,0.0,0.0,0.0,0.0,0.0,0.0,1.6207699,0.0
1612228000,-46.252377,-106.05672,-491.15387,7.292055e-05,0.00010746187,-0.0010223389,0.0,0.0,0.0,0.0,0.0,0.0,1.6207699,0.0
1612428000,-46.252377,-106.05672,-491.15402,7.3009585e-05,0.00010759307,-0.00093078613,0.0,0.0,0.0,0.0,0.0,0.0,1.6207699,0.0
1612628000,-46.25392,-106.055176,-491.15417,-0.034998357,0.03517905,-0.00082459603,-0.5296897,0.5296897,0.00057315826,-4.0,4.0,0.0,1.6252377,0.055850536
1612828000,-46.271725,-106.03343,-491.15433,-0.14843671,0.2138837,-0.000712693,-0.58516353,1.3077494,0.00057697296,0.0,4.0,0.0,1.6433891,0.12566371
1613028000,-46.310932,-105.96372,-491.15442,-0.26062292,0.5381136,-0.00060159044,-0.58516353,2.0746195,0.00058078766,0.0,4.0,0.0,1.6755033,0.19547692
1613228000,-46.36966,-105.823105,-491.15442,-0.3696733,0.9941967,-0.00049332564,-0.58516353,2.8200552,0.0005812645,0.0,4.0,0.0,1.72158,0.2652901
1613428000,-46.444897,-105.59873,-491.15442,-0.47403833,1.5252047,-0.00038962747,-0.58516353,3.0,0.00058174133,0.0,0.0,0.0,1.7701011,0.20828651
1613628000,-46.535164,-105.291756,-491.15442,-0.57476115,2.0415876,-0.0002893695,-0.58516353,3.0,0.00058317184,0.0,0.0,0.0,1.804777,0.1384733
1613828000,-46.63898,-104.91025,-491.15442,-0.67219263,2.5410962,-0.00019214659,-0.58516353,3.0,0.0005848408,0.0,0.0,0.0,1.8254902,0.06866013
1614028000,-46.75788,-104.44998,-491.15442,-0.76876885,3.0362208,-9.5409574e-05,-0.58516353,3.0,0.00058722496,0.0,0.0,0.0,1.832241,-0.0011530388
1614228000,-46.89262,-103.90841,-491.15442,-0.8652792,3.5310075,1.7484163e-06,-0.58516353,3.0,0.00059080124,0.0,0.0,0.0,1.8313727,0.0
1614428000,-47.045723,-103.27591,-491.15442,-0.9632724,4.009467,0.00010092152,-0.58516353,2.5624743,0.00059247017,0.0,-4.0,0.0,1.8314633,0.0
1614628000,-47.21794,-102.560524,-491.15442,-1.0627528,4.3872967,0.0002016441,-0.58516353,1.8824564,0.00059247017,0.0,-4.0,0.0,1.8318084,0.0011187394
1614828000,-47.411682,-101.772316,-491.15442,-1.1645522,4.654253,0.00030471451,-0.58516353,1.1865876,0.00059247017,0.0,-4.0,0.0,1.832242,0.0016328467
1615028000,-47.6277,-100.93088,-491.15442,-1.2680602,4.8018947,0.00040992087,-0.5285499,0.47629797,0.00059247017,4.0,-4.0,0.0,1.8326739,0.00096807326
1615228000,-47.86183,-100.058075,-491.15442,-1.2983048,4.829689,0.0005070284,0.1582087,-0.009270299,-0.0001116842,-4.0,0.0,0.0,1.8330213,0.0019019153
1615428000,-48.09995,-99.17034,-491.15442,-1.2951616,4.829343,0.00050847355,0.0,0.0,0.0,0.0,0.0,0.0,1.8334563,0.00053464435
1615628000,-48.339695,-98.27636,-491.15442,-1.2951623,4.829343,0.00051452464,0.0,0.0,0.0,0.0,0.0,0.0,1.8337488,0.0009553607
1615828000,-48.580753,-97.37744,-491.15442,-1.2951632,4.829343,0.0005207573,0.0,0.0,0.0,0.0,0.0,0.0,1.834039,0.0
1616028000,-48.82191,-96.478195,-491.15442,-1.2951639,4.829343,0.0005271504,0.0,0.0,0.0,0.0,0.0,0.0,1.8341885,0.0
1616228000,-49.063793,-95.576294,-491.15442,-1.2951638,4.829343,0.00053371675,0.0,0.0,0.0,0.0,0.0,0.0,1.8342662,0.0
1616428000,-49.306343,-94.67194,-491.15442,-1.2951629,4.829343,0.0005404693,0.0,0.0,0.0,0.0,0.0,0.0,1.8342335,0.0
1616628000,-49.549507,-93.76518,-491.15442,-1.2951633,4.829343,0.00054741325,0.0,0.0,0.0,0.0,0.0,0.0,1.8341886,0.0
1616828000,-49.79325,-92.85631,-491.15442,-1.2951636,4.829343,0.0005545551,0.0,0.0,0.0,0.0,0.0,0.0,1.8340654,0.0
1617028000,-50.037926,-91.94396,-491.15442,-1.2951641,4.8293424,0.0005619118,0.0,0.0,0.0,0.0,0.0,0.0,1.8339388,0.0
1617228000,-50.28321,-91.02939,-491.15442,-1.2951633,4.829343,0.0005694879,0.0,0.0,0.0,0.0,0.0,0.0,1.8337681,0.0
1617428000,-50.52926,-90.112,-491.15442,-1.2951629,4.829343,0.0005772944,0.0,0.0,0.0,0.0,0.0,0.0,1.8335896,0.0
1617628000,-50.77543,-89.19407,-491.15442,-1.2951626,4.829343,0.0005853276,0.0,0.0,0.0,0.0,0.0,0.0,1.8334048,0.0
1617828000,-51.021675,-88.27587,-491.15442,-1.2951628,4.829343,0.000593589,0.0,0.0,0.0,0.0,0.0,0.0,1.833255,0.0
1618028000,-51.267727,-87.35835,-491.15442,-1.2951636,4.829343,0.00060208206,0.0,0.0,0.0,0.0,0.0,0.0,1.8331012,0.0
1618228000,-51.514294,-86.43899,-491.15442,-1.2951636,4.829343,0.0006108339,0.0,0.0,0.0,0.0,0.0,0.0,1.8329585,0.0
1618428000,-51.761143,-85.51858,-491.15442,-1.2951627,4.829343,0.0006198571,0.0,0.0,0.0,0.0,0.0,0.0,1.83284,0.0
1618628000,-52.00889,-84.59476,-491.15442,-1.2951638,4.829343,0.00062918,0.0,0.0,0.0,0.0,0.0,0.0,1.8327557,0.0
1618828000,-52.25716,-83.669014,-491.15442,-1.2951638,4.829343,0.00063881266,0.0,0.0,0.0,0.0,0.0,0.0,1.8326966,0.0
1619028000,-52.506382,-82.73971,-491.15442,-1.2951639,4.829343,0.00064877875,0.0,0.0,0.0,0.0,0.0,0.0,1.8326769,0.0
1619228000,-52.7561,-81.80858,-491.15442,-1.295164,4.8293424,0.00065908657,0.0,0.0,0.0,0.0,0.0,0.0,1.832665,0.0
1619428000,-53.00683,-80.87363,-491.15442,-1.2951646,4.8293424,0.00066976517,0.0,0.0,0.0,0.0,0.0,0.0,1.8326554,0.0
1619628000,-53.25812,-79.93659,-491.15442,-1.2951654,4.829342,0.0006808275,0.0,0.0,0.0,0.0,0.0,0.0,1.8326634,0.0
1619828000,-53.510048,-78.99721,-491.1543,-1.2951658,4.829342,0.0006843613,0.0,0.0,0.0,0.0,0.0,0.0,1.8326865,0.0
1620028000,-53.76207,-78.057434,-491.15414,-1.2951667,4.829342,0.00068265194,0.0,0.0,0.0,0.0,0.0,0.0,1.8327038,0.0
1620228000,-54.014385,-77.116646,-491.15402,-1.2951665,4.829342,0.00068089226,0.0,0.0,0.0,0.0,0.0,0.0,1.8326881,0.0
1620428000,-54.266773,-76.17561,-491.15387,-1.2951654,4.8293424,0.00068186014,0.0,0.0,0.0,0.0,0.0,0.0,1.8326739,0.0
1620628000,-54.51907,-75.23488,-491.15375,-1.2951643,4.8293424,0.00068285916,0.0,0.0,0.0,0.0,0.0,0.0,1.8326306,0.0
1620828000,-54.771236,-74.29459,-491.15363,-1.2951643,4.8293424,0.0006838901,0.0,0.0,0.0,0.0,0.0,0.0,1.8326101,0.0
1621028000,-55.023197,-73.35511,-491.1535,-1.2951643,4.8293424,0.0006849488,0.0,0.0,0.0,0.0,0.0,0.0,1.8326175,0.0
1621228000,-55.275116,-72.41574,-491.15338,-1.295165,4.8293424,0.0006860429,0.0,0.0,0.0,0.0,0.0,0.0,1.8326252,0.0
1621428000,-55.52773,-71.473785,-491.15323,-1.2951659,4.829342,0.00068415445,0.0,0.0,0.0,0.0,0.0,0.0,1.8326344,0.0
1621628000,-55.78091,-70.52977,-491.15308,-1.2951657,4.8293424,0.0006822261,0.0,0.0,0.0,0.0,0.0,0.0,1.8326616,0.0
1621828000,-56.034348,-69.584755,-491.15295,-1.2951653,4.8293424,0.0006802352,0.0,0.0,0.0,0.0,0.0,0.0,1.8327482,0.0
1622028000,-56.28799,-68.63895,-491.1528,-1.2951666,4.829342,0.0006814179,0.0,0.0,0.0,0.0,0.0,0.0,1.8328465,0.0
1622228000,-56.542088,-67.691475,-491.15268,-1.2951665,4.829342,0.0006793601,0.0,0.0,0.0,0.0,0.0,0.0,1.8329763,0.0
1622428000,-56.79648,-66.742935,-491.15253,-1.295167,4.829342,0.0006806189,0.0,0.0,0.0,0.0,0.0,0.0,1.8330874,0.0
1622628000,-57.050884,-65.794304,-491.1524,-1.295166,4.829342,0.00068193825,0.0,0.0,0.0,0.0,0.0,0.0,1.8332547,0.0
1622828000,-57.305264,-64.84582,-491.15228,-1.2951655,4.8293424,0.0006833143,0.0,0.0,0.0,0.0,0.0,0.0,1.8333577,0.0
1623028000,-57.560078,-63.89566,-491.15216,-1.2951669,4.829342,0.00068475644,0.0,0.0,0.0,0.0,0.0,0.0,1.8334861,0.0
1623228000,-57.816525,-62.939434,-491.152,-1.2951664,4.829342,0.0006826903,0.0,0.0,0.0,0.0,0.0,0.0,1.8335779,8.2783634e-05
1623428000,-58.07286,-61.98367,-491.15186,-1.2951655,4.8293424,0.00068051484,0.0,0.0,0.0,0.0,0.0,0.0,1.833787,0.0
1623628000,-58.32911,-61.02821,-491.1517,-1.295165,4.8293424,0.0006782224,0.0,0.0,0.0,0.0,0.0,0.0,1.8338838,0.0
1623828000,-58.58541,-60.072575,-491.15155,-1.2951628,4.829343,0.00067581283,0.0,0.0,0.0,0.0,0.0,0.0,1.8339623,0.0
1624028000,-58.841824,-59.11647,-491.15143,-1.2951624,4.829343,0.0006773875,0.0,0.0,0.0,0.0,0.0,0.0,1.8339462,0.0
1624228000,-59.09854,-58.159214,-491.1513,-1.2951626,4.829343,0.0006790686,0.0,0.0,0.0,0.0,0.0,0.0,1.8338883,0.0
1624428000,-59.35559,-57.200733,-491.15118,-1.2951634,4.829343,0.00068086915,0.0,0.0,0.0,0.0,0.0,0.0,1.8337694,0.0
1624628000,-59.612938,-56.241093,-491.15103,-1.2951645,4.8293424,0.0006783357,0.0,0.0,0.0,0.0,0.0,0.0,1.8336773,0.0
1624828000,-59.8706,-55.280273,-491.1509,-1.2951672,4.8293414,0.0006802712,0.0,0.0,0.0,0.0,0.0,0.0,1.8335036,0.0
1625028000,-60.12871,-54.317783,-491.1508,-1.2951695,4.8293414,0.0006823612,0.0,0.0,0.0,0.0,0.0,0.0,1.8332541,0.0
1625228000,-60.38718,-53.353996,-491.15067,-1.2951714,4.8293405,0.0006797266,0.0,0.0,0.0,0.0,0.0,0.0,1.8330319,0.0
1625428000,-60.64592,-52.38927,-491.1505,-1.2951697,4.829341,0.0006819941,0.0,0.0,0.0,0.0,0.0,0.0,1.8328385,0.0
1625628000,-60.90455,-51.42487,-491.1504,-1.2951703,4.829341,0.00068441464,0.0,0.0,0.0,0.0,0.0,0.0,1.8326699,0.0
1625828000,-61.163013,-50.461063,-491.15027,-1.2951748,4.8293395,0.0006869921,0.0,0.0,0.0,0.0,0.0,0.0,1.8324218,0.0
1626028000,-61.42126,-49.498127,-491.15012,-1.2951742,4.82934,0.0006841277,0.0,0.0,0.0,0.0,0.0,0.0,1.8322521,0.0
1626228000,-61.67996,-48.533504,-491.15,-1.2951746,4.82934,0.00068689184,0.0,0.0,0.0,0.0,0.0,0.0,1.8321515,0.0
1626428000,-61.938995,-47.56763,-491.14987,-1.2951746,4.82934,0.0006899279,0.0,0.0,0.0,0.0,0.0,0.0,1.8320566,-0.0014340973
1626628000,-62.19804,-46.601753,-491.14972,-1.2951741,4.82934,0.00068691274,0.0,0.0,0.0,0.0,0.0,0.0,1.8317115,-5.3340802e-05
1626828000,-62.457092,-45.63587,-491.1496,-1.2951717,4.8293405,0.0006902113,0.0,0.0,0.0,0.0,0.0,0.0,1.8314701,-0.0002563293
1627028000,-62.71613,-44.67,-491.14948,-1.2951708,4.829341,0.0006938068,0.0,0.0,0.0,0.0,0.0,0.0,1.8312676,0.0
1627228000,-62.975174,-43.70412,-491.14932,-1.2951664,4.829342,0.0006905482,0.0,0.0,0.0,0.0,0.0,0.0,1.831174,0.0
1627428000,-63.23421,-42.738247,-491.1492,-1.2951685,4.8293414,0.000694516,0.0,0.0,0.0,0.0,0.0,0.0,1.8310426,0.0
1627628000,-63.49325,-41.772366,-491.14908,-1.2951667,4.829342,0.0006988972,0.0,0.0,0.0,0.0,0.0,0.0,1.8309877,-0.0007877955
1627828000,-63.752277,-40.806496,-491.14893,-1.295169,4.829341,0.00069538096,0.0,0.0,0.0,0.0,0.0,0.0,1.8307841,0.0
1628028000,-64.01131,-39.840614,-491.1488,-1.2951709,4.8293405,0.00070032116,0.0,0.0,0.0,0.0,0.0,0.0,1.83076,0.0
1628228000,-64.27034,-38.874737,-491.14868,-1.2951697,4.829341,0.000705871,0.0,0.0,0.0,0.0,0.0,0.0,1.8306711,0.0
1628428000,-64.529366,-37.908855,-491.14853,-1.295178,4.829339,0.00070211996,0.0,0.0,0.0,0.0,0.0,0.0,1.8306901,0.0
1628628000,-64.78808,-36.94419,-491.1484,-1.2951821,4.8293376,0.000708577,0.0,0.0,0.0,0.0,0.0,0.0,1.8305995,0.0
1628828000,-65.04683,-35.97944,-491.1483,-1.2951729,4.8293395,0.0007158809,0.0,0.0,0.0,0.0,0.0,0.0,1.830613,-0.002696033
1629028000,-65.305855,-35.01356,-491.14813,-1.2951773,4.829339,0.0007120288,0.0,0.0,0.0,0.0,0.0,0.0,1.8301934,0.0
1629228000,-65.56462,-34.048283,-491.148,-1.2877688,4.8109083,0.00071381393,0.11356464,-0.384,-6.094575e-05,0.0,-4.0,0.0,1.8298836,-0.0060967384
1629428000,-65.819,-33.099102,-491.14786,-1.2523752,4.6541076,0.00069334457,0.22414747,-1.184,-0.00012680888,0.0,-4.0,0.0,1.8286827,-0.0031184608
1629628000,-66.06431,-32.19643,-491.1477,-1.1975347,4.361068,0.0006612428,0.3119947,-1.5256691,-0.00018188357,0.0,4.0,0.0,1.8278171,-0.0063389568
1629828000,-66.29708,-31.355038,-491.14758,-1.1285785,4.053707,0.00061946607,0.36703935,-1.5037365,-0.00022539496,0.0,4.0,0.0,1.8262529,-0.006143973
1630028000,-66.5152,-30.574575,-491.14758,-1.051641,3.7522907,0.00057438714,0.3957877,-1.4670726,-0.00022539496,0.0,4.0,0.0,1.824567,-0.010562884
1630228000,-66.717514,-29.85358,-491.14758,-0.9710645,3.4593413,0.00055789785,0.40629497,-1.4196513,1.9699335e-05,0.0,4.0,0.0,1.8219889,-0.010495381
1630428000,-66.903595,-29.190159,-491.14758,-0.8896969,3.1767337,0.00056420267,0.40686843,-1.3640708,3.966689e-05,0.0,4.0,0.0,1.8196334,-0.013054249
1630628000,-67.0734,-28.582106,-491.14758,-0.80832314,2.9059098,0.000573584,0.40686843,-1.3021309,5.1885843e-05,0.0,4.0,0.0,1.8165146,-0.012641402
1630828000,-67.22694,-28.026937,-491.14758,-0.7269494,2.6479957,0.0005848217,0.40686843,-1.2352301,5.90384e-05,0.0,4.0,0.0,1.8137314,-0.020019324
1631028000,-67.364204,-27.521996,-491.14758,-0.64557564,2.4038672,0.0005970957,0.40686843,-1.164499,6.28531e-05,0.0,4.0,0.0,1.8085719,-0.02385643
1631228000,-67.48518,-27.06444,-491.14758,-0.5642019,2.1741827,0.00060985517,0.40686843,-1.0909936,6.428361e-05,0.0,4.0,0.0,1.8039521,-0.02315894
1631428000,-67.58989,-26.651339,-491.14758,-0.48282814,1.9593984,0.00062273565,0.40686843,-1.0156975,6.440282e-05,0.0,4.0,0.0,1.7989103,-0.019573381
1631628000,-67.68029,-26.279676,-491.14758,-0.4269265,1.7597748,0.00063561613,0.18286842,-0.9395402,6.440282e-05,-4.0,4.0,0.0,1.7961253,-0.013082339
1631828000,-67.76202,-25.946419,-491.14746,-0.3903528,1.5754126,0.00063264574,0.18286842,-0.86326605,-0.00012350082,0.0,4.0,0.0,1.7939875,0.0016274038
1632028000,-67.836426,-25.648506,-491.14746,-0.35377908,1.406226,0.00059864746,0.18286842,-0.7880169,-0.00016999245,0.0,4.0,0.0,1.7939875,0.0
1632228000,-67.90353,-25.382942,-491.14746,-0.31720537,1.2518872,0.000603141,0.18286842,-0.71497643,3.1143427e-05,0.0,4.0,0.0,1.7939875,0.0
1632428000,-67.96332,-25.146801,-491.14746,-0.28063166,1.1118547,0.0006103955,0.18286842,-0.64510846,3.8921833e-05,0.0,4.0,0.0,1.7939875,0.0
1632628000,-68.01631,-24.937294,-491.14746,-0.25225002,0.98541814,0.00061834627,0.11886842,-0.57913214,3.990531e-05,0.0,4.0,0.0,1.7939875,0.0
1632828000,-68.064415,-24.751781,-491.14746,-0.22847633,0.8717512,0.0006263274,0.11886842,-0.5174843,3.990531e-05,0.0,4.0,0.0,1.7939875,0.0
1633028000,-68.10775,-24.587803,-491.14746,-0.20470265,0.7699557,0.00063430856,0.11886842,-0.46049595,3.990531e-05,0.0,4.0,0.0,1.7939875,0.0
1633228000,-68.14632,-24.443077,-491.1474,-0.18092896,0.679081,0.0006148152,0.11886842,-0.40832373,-0.00022315979,0.0,4.0,0.0,1.7939875,0.0
1633428000,-68.18014,-24.315516,-491.1474,-0.15715528,0.5981743,0.0006083761,0.11886842,-0.36086482,2.0757318e-05,0.0,4.0,0.0,1.7939875,0.0
1633628000,-68.209274,-24.203209,-491.1474,-0.13645358,0.52630776,0.0006129374,0.054868415,-0.3179602,2.323091e-05,0.0,4.0,0.0,1.7939875,0.0
1633828000,-68.23538,-24.10446,-491.1474,-0.123638876,0.46261284,0.0006175835,0.076685995,-0.2792014,2.323091e-05,0.0,4.0,0.0,1.7939875,0.0
1634028000,-68.25855,-24.017693,-491.1474,-0.108021036,0.4062701,0.00062222965,0.078126416,-0.24451837,2.323091e-05,0.0,4.0,0.0,1.7939875,0.0
1634228000,-68.278595,-23.94153,-491.1474,-0.09239575,0.3565095,0.0006252348,0.078126416,-0.21349761,1.1071563e-05,0.0,4.0,0.0,1.7939875,0.0
1634428000,-68.295975,-23.87472,-491.1474,-0.082791574,0.31262034,0.0006281024,0.04792244,-0.18589455,1.4916062e-05,0.0,4.0,0.0,1.7939875,0.0
1634628000,-68.311485,-23.816156,-491.1474,-0.07236717,0.27397,0.00063108554,0.05239307,-0.16135916,1.4916062e-05,0.0,4.0,0.0,1.7939875,0.0
1634828000,-68.324905,-23.764849,-491.1474,-0.061888557,0.23996839,0.00063380535,0.05239307,-0.13968849,-1.5422702e-06,0.0,4.0,0.0,1.7939875,0.0
1635028000,-68.33667,-23.719917,-491.1474,-0.05546986,0.21008244,0.00063553295,0.03780085,-0.12046539,1.0244548e-05,0.0,4.0,0.0,1.7939875,0.0
1635228000,-68.347,-23.680593,-491.14737,-0.0479097,0.18383953,0.00061910256,0.03780085,-0.10357537,0.00012715161,0.0,4.0,0.0,1.7939875,0.0
1635428000,-68.35594,-23.646194,-491.14737,-0.0423625,0.16081607,0.00061916595,0.026059542,-0.08870638,7.7188015e-06,0.0,4.0,0.0,1.7939875,0.0
1635628000,-68.36388,-23.616112,-491.14737,-0.036774766,0.14063741,0.0006207099,0.027940895,-0.07574686,7.7188015e-06,0.0,4.0,0.0,1.7939875,0.0
1635828000,-68.37076,-23.589792,-491.14737,-0.032314684,0.12294503,0.000621863,0.021608222,-0.06449032,5.4836273e-06,0.0,4.0,0.0,1.7939875,0.0
1636028000,-68.376785,-23.566786,-491.14737,-0.027939081,0.10744688,0.000623033,0.021878105,-0.054723054,5.8487058e-06,0.0,4.0,0.0,1.7939875,0.0
1636228000,-68.382034,-23.546688,-491.14737,-0.024601772,0.093884975,0.0006239429,0.017799325,-0.046279754,4.541129e-06,0.0,4.0,0.0,1.7939875,0.0
1636428000,-68.38661,-23.52913,-491.14737,-0.02153416,0.08202032,0.0006248509,0.012598183,-0.039240297,4.541129e-06,0.0,4.0,0.0,1.7939875,0.0
1636628000,-68.39061,-23.513796,-491.14737,-0.018719757,0.07164681,0.0006255541,-0.0014251284,-0.033489987,3.8072467e-06,0.0,4.0,0.0,1.7939875,0.0
1636828000,-68.394135,-23.500406,-491.14737,-0.01621933,0.06257988,0.0006261848,0.013060071,-0.029129203,2.5182962e-06,0.0,4.0,0.0,1.7939875,0.0
1637028000,-68.397194,-23.4887,-491.14737,-0.014286804,0.05465019,0.0006267677,0.008840881,-0.026444733,-1.527369e-07,0.0,4.0,0.0,1.7939875,0.0
1637228000,-68.3999,-23.478487,-491.14737,-0.012505294,0.04772941,0.00062728097,0.006439898,-0.025531689,2.566725e-06,0.0,4.0,0.0,1.7939875,0.0
1637428000,-68.402245,-23.469564,-491.14737,-0.010900291,0.041656233,0.00062768994,0.0058243163,-0.02143143,1.3709068e-06,0.0,4.0,0.0,1.7939875,0.0
1637628000,-68.40429,-23.461775,-491.14737,-0.009505549,0.036340844,0.0006280735,0.005713664,-0.01581569,1.706183e-06,0.0,4.0,0.0,1.7939875,0.0
1637828000,-68.406075,-23.454977,-491.14737,-0.008281032,0.031701524,0.00062840385,0.005249303,-0.01054889,1.1213124e-06,0.0,4.0,0.0,1.7939875,0.0
1638028000,-68.40764,-23.449047,-491.14737,-0.0072086165,0.027658166,0.0006287052,0.004663503,-0.005630173,1.5497208e-06,0.0,4.0,0.0,1.7939875,0.0
1638228000,-68.409,-23.443884,-491.14737,-0.006289609,0.024133539,0.0006289515,0.00091570057,-0.0009156987,6.03497e-07,-4.0,4.0,0.0,1.7939875,0.0
1638428000,-68.41019,-23.439373,-491.14737,-0.0054749134,0.021062434,0.00062918523,0.0,0.0,0.0,0.0,0.0,0.0,1.7939875,0.0
1638628000,-68.41125,-23.43544,-491.14737,-0.004755771,0.01837849,0.0006293672,0.0,0.0,0.0,0.0,0.0,0.0,1.7939875,0.0
1638828000,-68.41237,-23.431477,-491.14676,-0.009075727,0.029427074,0.019061457,-0.052065015,0.1626027,0.384,0.0,0.0,4.0,1.7939875,0.0
1639028000,-68.41524,-23.422333,-491.12994,-0.01948873,0.06194761,0.17586148,-0.052065015,0.1626027,1.184,0.0,0.0,4.0,1.7939875,0.0
1639228000,-68.42018,-23.406687,-491.06644,-0.029901735,0.09446816,0.46841395,-0.052065015,0.1626027,1.361135,0.0,0.0,-4.0,1.7939875,0.0
1639428000,-68.42721,-23.384579,-490.95084,-0.039802782,0.123788714,0.66064095,0.011343807,0.002602689,0.561135,0.0,-4.0,-4.0,1.7939875,0.0
1639628000,-68.43459,-23.36178,-490.81256,-0.033278868,0.10321089,0.6999999,-0.00019590184,-0.05289507,-3.5613775e-06,0.0,4.0,0.0,1.7939875,0.0
1639828000,-68.44086,-23.342472,-490.67252,-0.028986767,0.090169385,0.7,0.022579063,-0.0440427,2.2090971e-06,0.0,4.0,0.0,1.7939875,0.0
1640028000,-68.4463,-23.325611,-490.53244,-0.025447458,0.078773476,0.7,0.019059408,-0.03735606,-2.3543835e-06,0.0,4.0,0.0,1.7939875,0.0
1640228000,-68.45104,-23.310888,-490.39236,-0.022272686,0.06881231,0.7,0.016359616,-0.031956792,2.4810433e-06,0.0,4.0,0.0,1.7939875,0.0
1640428000,-68.45519,-23.298027,-490.2523,-0.019475302,0.060104545,0.7,0.012460418,-0.028169736,-2.5890768e-06,0.0,4.0,0.0,1.7939875,0.0
1640628000,-68.45886,-23.286793,-490.1122,-0.017008912,0.052495435,0.7,0.008993454,-0.0259731,2.6486814e-06,0.0,4.0,0.0,1.7939875,0.0
1640828000,-68.46206,-23.276985,-489.97217,-0.014835679,0.0458495,0.7,0.007892266,-0.025505096,-2.6635826e-06,0.0,4.0,0.0,1.7939875,0.0
1641028000,-68.464836,-23.268412,-489.83215,-0.012934287,0.040002957,0.7,0.0073913187,-0.019758739,2.8461218e-06,0.0,4.0,0.0,1.7939875,0.0
1641228000,-68.46727,-23.26093,-489.69214,-0.011274692,0.034898162,0.7,0.007096477,-0.014198206,-3.0472875e-06,0.0,4.0,0.0,1.7939875,0.0
1641428000,-68.46939,-23.254395,-489.55215,-0.009826738,0.030442901,0.7,0.0063483473,-0.0091634095,3.259629e-06,0.0,4.0,0.0,1.7939875,0.0
1641628000,-68.471275,-23.248703,-489.41214,-0.008541198,0.02655826,0.7,0.004317725,-0.004317723,-3.490597e-06,-4.0,4.0,0.0,1.7939875,0.0
1641828000,-68.47288,-23.243748,-489.27213,-0.007436381,0.023180356,0.7,0.0,0.0,0.0,0.0,0.0,0.0,1.7939875,0.0
1642028000,-68.47431,-23.239418,-489.13205,-0.006469651,0.020228442,0.7,0.0,0.0,0.0,0.0,0.0,0.0,1.7939875,0.0
1642228000,-68.4755,-23.23564,-488.99197,-0.0056545073,0.017652571,0.7,0.0,0.0,0.0,0.0,0.0,0.0,1.7939875,0.0
1642428000,-68.47656,-23.232351,-488.8519,-0.004929936,0.015406685,0.7,0.0,0.0,0.0,0.0,0.0,0.0,1.7939875,0.0
1642628000,-68.47751,-23.229471,-488.71182,-0.004286048,0.013440875,0.7,0.0,0.0,0.0,0.0,0.0,0.0,1.7939875,0.0
1642828000,-68.478355,-23.22696,-488.57175,-0.0037129463,0.011724225,0.7,0.0,0.0,0.0,0.0,0.0,0.0,1.7939875,0.0
1643028000,-68.47906,-23.224764,-488.43167,-0.0032259051,0.010226374,0.7,0.0,0.0,0.0,0.0,0.0,0.0,1.7939875,0.0
1643228000,-68.47961,-23.222853,-488.2916,-0.0028351038,0.008918129,0.7,0.0,0.0,0.0,0.0,0.0,0.0,1.7939875,0.0
1643428000,-68.48008,-23.22119,-488.15152,-0.0025154192,0.007781284,0.7,0.0,0.0,0.0,0.0,0.0,0.0,1.7939875,0.0
1643628000,-68.4805,-23.219746,-488.01144,-0.002231109,0.0067911604,0.7,0.0,0.0,0.0,0.0,0.0,0.0,1.7939875,0.0
1643828000,-68.48089,-23.218475,-487.87137,-0.0019669584,0.0059262877,0.7,0.0,0.0,0.0,0.0,0.0,0.0,1.7939875,0.0
1644028000,-68.48123,-23.217371,-487.7313,-0.0017283247,0.005168453,0.7,0.0,0.0,0.0,0.0,0.0,0.0,1.7939875,0.0
1644228000,-68.48153,-23.216406,-487.59122,-0.00153024,0.004508108,0.7,0.0,0.0,0.0,0.0,0.0,0.0,1.7939875,0.0
1644428000,-68.4818,-23.215563,-487.45114,-0.0013471734,0.003932221,0.7,0.0,0.0,0.0,0.0,0.0,0.0,1.7939875,0.0
1644628000,-68.52316,-23.077047,-488.10574,1.5250406e-05,-3.812532e-05,0.7,0.0,0.0,0.0,0.0,0.0,0.0,1.7956443,-0.005585054
1644828000,-68.52401,-23.072527,-488.10535,0.0,-0.0005118307,0.7,0.0,-0.063989416,0.0,0.0,-4.0,0.0,1.7954615,-0.005585054
1645028000,-68.52503,-23.07381,-488.10516,4.593845e-05,-0.00051193713,0.7,0.002938807,-0.06399607,0.0,0.0,-4.0,0.0,1.795757,-0.005585054
1645228000,-68.525345,-23.071985,-488.10504,3.2359054e-05,-0.0005118474,0.7,0.0020557642,-0.06399046,0.0,0.0,-4.0,0.0,1.7961838,-0.005585054
1645428000,-68.52671,-23.072735,-488.10623,0.000104795756,-0.0005119506,0.7,0.006924689,-0.06399691,0.0,0.0,-4.0,0.0,1.7954599,-0.005585054
1645628000,-68.526405,-23.07096,-488.10715,7.3572526e-05,-0.0005116906,0.7,0.004778087,-0.06398066,0.0,0.0,-4.0,0.0,1.7953985,-0.005585054
1645828000,-68.52706,-23.074831,-488.1057,0.00013593618,-0.00051193056,0.7,0.009150833,-0.06399566,0.0,0.0,-4.0,0.0,1.7951703,-0.005585054
1646028000,-68.525276,-23.074648,-488.10498,5.2238527e-05,-0.0005117657,0.7,0.0033535361,-0.063985355,0.0,0.0,-4.0,0.0,1.7952046,-0.005585054
1646228000,-68.52773,-23.076393,-488.10464,0.00016443586,-0.00051198277,0.7,0.011269659,-0.06399892,0.0,0.0,-4.0,0.0,1.7951305,-0.005585054
1646428000,-68.527664,-23.07554,-488.10483,0.00015217361,-0.00051182974,0.7,0.010349363,-0.063989356,0.0,0.0,-4.0,0.0,1.7949156,-0.005585054
1646628000,-68.52856,-23.07758,-488.10574,-0.00051198754,0.00051198754,0.699488,-0.06399922,0.06399922,-0.06399922,-4.0,4.0,-4.0,1.7954445,-0.0047038067
1646828000,-68.52737,-23.076626,-488.10602,-0.0005117878,0.0005117878,0.6994882,-0.06398673,0.06398673,-0.06398673,-4.0,4.0,-4.0,1.7956789,-0.005585054
1647028000,-68.53027,-23.076632,-488.10538,-0.0005119342,0.0005119342,0.69948804,-0.06399589,0.06399589,-0.06399589,-4.0,4.0,-4.0,1.7953676,0.0054831626
1647228000,-68.529976,-23.075228,-488.10574,-0.0005119242,0.0005119242,0.69948804,-0.063995264,0.063995264,-0.063995264,-4.0,4.0,-4.0,1.7955127,0.005585054
1647428000,-68.53027,-23.074762,-488.10635,-0.00051190244,0.00051190244,0.6994881,-0.0639939,0.0639939,-0.0639939,-4.0,4.0,-4.0,1.7953911,0.0028157656
