timestamp,timestamp_sample,xyz[0],xyz[1],xyz[2]
1592248000,1592248000,-0.00022635632,-0.003711933,-6.0119917e-05
1592252000,1592252000,-0.0015097384,0.00010067981,-6.345585e-05
1592268000,1592268000,-0.0015051801,5.2144867e-05,0.00018374537
1592288000,1592288000,-0.005005607,0.00037237085,2.8585157e-05
1592308000,1592308000,0.0009056206,-0.0035252338,5.8203455e-05
1592328000,1592328000,-0.001293314,-0.004745703,-0.00014605356
1592348000,1592348000,-0.00199583,-0.0018235759,-0.0003624507
1592368000,1592368000,0.0020480796,-0.00013456994,1.0312127e-05
1592388000,1592388000,-0.00509503,-0.0013243555,-0.00036998937
1592408000,1592408000,0.0034610813,4.2168947e-05,-0.00010722444
1592424000,1592424000,-0.0022323509,-0.0025619117,-0.00036326866
1592444000,1592444000,1.1664932e-05,-0.0033593352,-0.0009028402
1592468000,1592468000,-0.003329914,0.0017674881,-0.0009014491
1592488000,1592488000,-0.00036616868,-0.00058852514,-0.00049924356
1592508000,1592508000,-0.0012195013,-0.0003278074,-0.00020597337
1592524000,1592524000,-0.0053991824,0.0040371707,-0.00039903037
1592548000,1592548000,-0.0014842134,-0.00058841717,-0.0006315984
1592568000,1592568000,-0.0059355004,-0.0010397404,-0.00062278745
1592588000,1592588000,-0.0009835445,-0.0008845605,-0.00041773333
1592608000,1592608000,-0.005821283,-0.0028473285,-0.00024055995
1592628000,1592628000,-0.0009808355,-0.0013560575,-0.00014986767
1592648000,1592648000,-9.362382e-05,-0.003611553,0.00028043616
1592668000,1592668000,0.0018293591,0.0015099444,0.00014888137
1592688000,1592688000,-0.0014307841,-0.0027949857,8.013474e-06
1592708000,1592708000,-0.00080864463,-0.0024839765,3.0059131e-05
1592728000,1592728000,-2.8256036e-05,0.0034054162,0.00023785286
1592748000,1592748000,-0.003956301,-0.00097123877,0.00035075488
1592768000,1592768000,0.00062999787,-0.0022046412,0.00080670946
1592788000,1592788000,-0.0030222074,-0.0034170216,0.0007677399
1592808000,1592808000,-0.0028426233,0.0023902452,0.0006645935
1592828000,1592828000,-0.0033734762,-0.0057135867,0.00018605997
1592848000,1592848000,0.0025561815,-0.0011218423,6.0549348e-05
1592868000,1592868000,-0.002765051,0.00050530175,6.907509e-05
1592888000,1592888000,-0.0002246449,-0.0058064912,0.00013620859
1592908000,1592908000,-0.0031349505,-0.0005684758,0.0003181558
1592928000,1592928000,0.0031626662,-9.996846e-06,0.00045772592
1592944000,1592944000,-0.0032722284,-0.0063494574,0.00032612678
1592968000,1592968000,-0.0036809822,-0.001449342,-0.00040528175
1592988000,1592988000,-0.0012544018,-0.005236608,-0.00011119892
1593008000,1593008000,-0.00065996795,-0.0058460524,-0.00022628676
1593028000,1593028000,-0.0006256278,0.0021006921,-8.700618e-05
1593048000,1593048000,-0.0007319944,-0.0022690143,-0.00012904432
1593068000,1593068000,0.0016735863,-0.00038483785,-8.717125e-05
1593088000,1593088000,-3.3632386e-06,-0.00036288844,-0.00014078428
1593108000,1593108000,-0.0038117606,-0.006208801,-0.0002611754
1593128000,1593128000,0.001922772,-0.0012499344,-0.00042163493
1593148000,1593148000,-0.001024402,-0.003963234,-0.00016450467
1593168000,1593168000,0.0009841691,-0.00014175905,-1.6234742e-05
1593188000,1593188000,0.0025256292,-0.002837927,9.63645e-05
1593208000,1593208000,0.0006592719,-0.0009812486,6.768661e-05
1593224000,1593224000,0.0023624706,-0.00042181497,0.00021990898
1593248000,1593248000,-0.0053042434,-0.005091889,0.00019594759
1593268000,1593268000,-0.006105705,0.0027220342,-0.00018606105
1593288000,1593288000,-0.011153075,-0.006058896,-0.00010774487
1593304000,1593304000,-0.005706992,-0.0044133184,-9.37315e-05
1593328000,1593328000,-0.0074137617,-0.006294426,-0.00028130633
1593348000,1593348000,-0.0024968325,-0.0055986624,-0.00040888312
1593368000,1593368000,-0.010846379,-0.0011201764,-0.0002811285
1593388000,1593388000,-0.006658769,-0.0066510276,-0.00044229277
1593404000,1593404000,-0.008083425,-0.0016477638,-0.00065635756
1593428000,1593428000,-0.006616061,-0.0015444052,-0.0005267638
1593448000,1593448000,-0.007862812,-0.0023016403,-0.000729119
1593468000,1593468000,-0.0054553216,-0.0026047183,-0.0006791273
1593488000,1593488000,-0.00420067,-0.0057131187,-0.0003989903
1593508000,1593508000,-0.0074878526,-0.0056449994,-9.585015e-05
1593528000,1593528000,-0.009165181,0.0025341334,8.729095e-05
1593548000,1593548000,-0.006721534,-0.0030116239,-0.0002802824
1593568000,1593568000,-0.0031625594,-0.004922277,-0.0004154006
1593588000,1593588000,-0.0016696237,-0.005585769,-0.00022136627
1593604000,1593604000,-0.009245748,-0.0037258922,-0.00012373005
1593624000,1593624000,-0.00973231,-0.008574609,2.4948778e-05
1593648000,1593648000,-0.0072427597,-0.005176229,-0.00063986855
1593668000,1593668000,-0.009778724,-0.0016084624,-0.0005711723
1593688000,1593688000,-0.008309032,-0.0009401997,-0.00090940454
1593708000,1593708000,-0.006092493,-0.0022220532,-0.0012598177
1593728000,1593728000,-0.006140581,-0.007775248,-0.0014989449
1593748000,1593748000,-0.008482485,-0.0049780454,-0.0015215328
1593768000,1593768000,-0.005817358,-0.0013474768,-0.0015238058
1593788000,1593788000,-0.0033585934,-0.003042271,-0.00094678055
1593808000,1593808000,-0.010724609,-0.007770581,-0.0011221729
1593828000,1593828000,-0.00897841,-0.00406669,-0.00056014693
1593848000,1593848000,-0.0024643934,-0.008068701,-0.00028128707
1593868000,1593868000,-0.008278322,-0.0027276692,-0.00010161318
1593888000,1593888000,-0.008357397,-0.0058447313,-0.00023203844
1593908000,1593908000,-0.0066913334,-0.0024290304,-0.0005739382
1593924000,1593924000,-0.008638886,-0.005434403,-0.0009122676
1593948000,1593948000,-0.0043689553,-0.003964182,-0.0012993361
1593968000,1593968000,-0.005864681,-0.00128078,-0.00087265926
1593988000,1593988000,-0.00480231,-0.0051713,-0.0006990808
1594008000,1594008000,-0.007569282,-0.0004214854,-0.0007291909
1594028000,1594028000,-0.005496796,-0.0043804334,-0.00089566887
1594048000,1594048000,-0.006688137,-0.0018881087,-0.0009122759
1594068000,1594068000,-0.0042866683,-0.007596132,-0.0011712069
1594088000,1594088000,-0.006948568,-0.0039432137,-0.001340367
1594108000,1594108000,-0.008711703,-0.0011026381,-0.0011078359
1594128000,1594128000,-0.005824071,-0.0061958544,-0.0008888949
1594148000,1594148000,-0.005686948,-0.0033665285,-0.00052221154
1594168000,1594168000,-0.017233402,-0.006524821,-0.00027299445
1594188000,1594188000,-0.008502665,-0.0081774425,-0.00034860687
1594208000,1594208000,-0.011361252,-0.0037200274,-0.00032664504
1594224000,1594224000,-0.0060679857,-0.0040517626,-0.00028337893
1594244000,1594244000,-0.006823436,-0.0066739777,-0.00037586386
1594268000,1594268000,-0.006773894,-0.0033240998,-0.00070210674
1594288000,1594288000,-0.008451502,-0.005454122,-0.0007595635
1594308000,1594308000,-0.0051396694,-0.006695232,-0.00069276895
1594328000,1594328000,-0.010915619,-0.011341187,-0.00058263907
1594348000,1594348000,-0.008609158,-0.002320384,-0.0003832162
1594368000,1594368000,-0.0150329955,-0.00076176296,-6.480398e-05
1594388000,1594388000,-0.00537101,-0.00864094,-9.190713e-05
1594408000,1594408000,-0.012774117,-0.005248585,-0.00044773234
1594428000,1594428000,-0.012402205,-0.00413409,-0.00061324605
1594444000,1594444000,-0.008640265,-0.004425877,-0.00037676573
1594468000,1594468000,-0.0042869626,-0.007080344,-0.0007263731
1594488000,1594488000,-0.015723137,-0.009789695,-0.00097632245
1594508000,1594508000,-0.012120915,-0.007846759,-0.00087613234
1594528000,1594528000,-0.012968164,-0.0036375814,-0.0005445589
1594548000,1594548000,-0.010073669,-0.007965448,-0.00058687245
1594568000,1594568000,-0.012728314,-0.010253012,-0.0003424488
1594588000,1594588000,-0.010415128,-0.003642722,-0.00063664984
1594608000,1594608000,-0.0058096643,-0.005115483,-0.0007304742
1594628000,1594628000,-0.014257743,-0.009234405,-0.00039417477
1594648000,1594648000,-0.013763624,-0.010432634,-0.00060640083
1594664000,1594664000,-0.009444508,-0.0071099466,-0.00063710206
1594688000,1594688000,-0.010243387,-0.008679403,-0.00035700985
1594708000,1594708000,-0.014566975,-0.0060816347,-3.621995e-05
1594728000,1594728000,-0.010329865,-0.016637765,0.000102280734
1594748000,1594748000,-0.011264216,-0.0069735297,0.00038450756
1594768000,1594768000,-0.018869482,-0.01044162,0.00044667337
1594788000,1594788000,-0.01097396,-0.009585923,0.00038755234
1594808000,1594808000,-0.017805325,-0.011995348,0.00033279014
1594828000,1594828000,-0.008602635,-0.0077580037,-0.0001403017
1594848000,1594848000,-0.01419085,-0.012208187,-0.00018808592
1594868000,1594868000,-0.016603272,-0.008974035,9.8051074e-05
1594888000,1594888000,-0.01656996,-0.010683606,0.00020292713
1594908000,1594908000,-0.015924037,-0.0063299937,-0.00020231208
1594928000,1594928000,-0.011419056,-0.010793916,-0.00041050036
1594948000,1594948000,-0.013655372,-0.009125919,-0.0003479493
1594968000,1594968000,-0.018504122,-0.009370559,-0.00026216573
1594988000,1594988000,-0.016134555,-0.012434034,-0.00020713643
1595008000,1595008000,-0.016419066,-0.0145294145,-0.00020271078
1595028000,1595028000,-0.013659169,-0.013392455,-0.00037466313
1595048000,1595048000,-0.013411149,-0.009380108,-0.0002437281
1595068000,1595068000,-0.017407509,-0.008784481,-0.00017397499
1595088000,1595088000,-0.009983361,-0.010740041,0.00010289089
1595108000,1595108000,-0.015561324,-0.007962463,0.00029307525
1595128000,1595128000,-0.017770791,-0.013665985,0.00031659967
1595148000,1595148000,-0.019369373,-0.015629113,9.76493e-05
1595168000,1595168000,-0.015918931,-0.01380578,0.0005547227
1595188000,1595188000,-0.01566122,-0.017449906,0.0005217693
1595208000,1595208000,-0.019782562,-0.011647182,0.00024660805
1595228000,1595228000,-0.016910903,-0.01164221,3.777571e-05
1595244000,1595244000,-0.018468073,-0.015127788,7.1303024e-05
1595268000,1595268000,-0.018494813,-0.015684472,-0.00027547506
1595288000,1595288000,-0.02262612,-0.014909849,-0.00010983294
1595308000,1595308000,-0.019220144,-0.012312624,-8.4813524e-05
1595328000,1595328000,-0.024325293,-0.015139446,0.00015524204
1595348000,1595348000,-0.0153054455,-0.017006028,4.935364e-06
1595368000,1595368000,-0.016813511,-0.018082147,-0.0001613581
1595388000,1595388000,-0.019306239,-0.017051464,-0.0005176089
1595408000,1595408000,-0.017473347,-0.017190553,-0.0004938922
1595428000,1595428000,-0.019108482,-0.022553828,5.480968e-05
1595444000,1595444000,-0.018413229,-0.015015276,9.317243e-05
1595468000,1595468000,-0.020610908,-0.013070345,0.00042736088
1595488000,1595488000,-0.020229058,-0.020641627,0.0006086685
1595508000,1595508000,-0.021827217,-0.013147984,0.00043116222
1595528000,1595528000,-0.017997926,-0.01711313,0.00021607733
1595548000,1595548000,-0.01959296,-0.01913232,0.0005390278
1595568000,1595568000,-0.02684681,-0.019729812,0.00027340394
1595588000,1595588000,-0.020623928,-0.018414682,-1.6352766e-05
1595608000,1595608000,-0.022443347,-0.024068927,-8.561559e-05
1595628000,1595628000,-0.019523755,-0.019703357,-0.00061481574
1595648000,1595648000,-0.022863178,-0.023836736,-0.0002907585
1595668000,1595668000,-0.024061713,-0.017146938,-0.0001536971
1595688000,1595688000,-0.020164482,-0.020226778,0.00021268491
1595708000,1595708000,-0.024429264,-0.020541921,0.00023396543
1595728000,1595728000,-0.023287361,-0.021882273,-0.0002078274
1595748000,1595748000,-0.019594507,-0.01749866,-3.6411435e-05
1595768000,1595768000,-0.021897107,-0.025362508,0.00037224463
1595788000,1595788000,-0.022791727,-0.023887193,0.0005353531
1595808000,1595808000,-0.024747003,-0.022233833,0.00066438265
1595828000,1595828000,-0.025688622,-0.024590189,0.0007587708
1595848000,1595848000,-0.022440415,-0.021817977,0.00051284593
1595868000,1595868000,-0.026489476,-0.026181502,0.00037914378
1595888000,1595888000,-0.017671926,-0.026846077,0.00022895838
1595904000,1595904000,-0.031670365,-0.024703031,0.00051229727
1595928000,1595928000,-0.023131413,-0.028583486,0.0005700194
1595948000,1595948000,-0.024911173,-0.027109055,0.00048142165
1595968000,1595968000,-0.021252915,-0.029252728,0.00030961647
1595988000,1595988000,-0.020360291,-0.026054787,0.00027446105
1596004000,1596004000,-0.029033804,-0.027437994,9.561065e-05
1596028000,1596028000,-0.030140769,-0.024194315,-2.5129051e-05
1596048000,1596048000,-0.023376672,-0.026865672,-0.000411633
1596068000,1596068000,-0.027650421,-0.027247805,-0.00061727676
1596084000,1596084000,-0.02216269,-0.029379725,-0.00020400282
1596108000,1596108000,-0.024719829,-0.030714156,9.175754e-05
1596128000,1596128000,-0.022676604,-0.028797058,0.0006215015
1596148000,1596148000,-0.02458719,-0.028166842,0.00063918496
1596168000,1596168000,-0.024189731,-0.025272932,0.00047527775
1596188000,1596188000,-0.02913374,-0.032329824,0.00029195944
1596208000,1596208000,-0.026421651,-0.030354805,0.0005597085
1596228000,1596228000,-0.023729416,-0.032478154,0.00026712942
1596248000,1596248000,-0.028087582,-0.031319387,0.00073402043
1596268000,1596268000,-0.025263743,-0.03024576,0.00012214812
1596288000,1596288000,-0.028356917,-0.03272372,0.00013356705
1596308000,1596308000,-0.027206222,-0.032612935,0.0003715469
1596328000,1596328000,-0.030494599,-0.0323253,0.0007427458
1596348000,1596348000,-0.02892618,-0.03858902,0.0010964923
1596368000,1596368000,-0.029929524,-0.036034282,0.00094679056
1596388000,1596388000,-0.024712535,-0.034167845,0.00086146774
1596404000,1596404000,-0.027561711,-0.034243926,0.00096904737
1596428000,1596428000,-0.02928935,-0.037991177,0.00063903315
1596448000,1596448000,-0.022860063,-0.034488473,0.00034701117
1596468000,1596468000,-0.031153522,-0.040038843,0.00013952395
1596488000,1596488000,-0.027231378,-0.040310703,-0.00013656252
1596504000,1596504000,-0.026252637,-0.03337684,-4.2305248e-05
1596528000,1596528000,-0.02702779,-0.036721665,0.00037289286
1596548000,1596548000,-0.025860853,-0.041203342,0.0002933236
1596568000,1596568000,-0.031687673,-0.043185398,0.00026978494
1596588000,1596588000,-0.029417548,-0.041169707,0.00023589347
1596608000,1596608000,-0.03158487,-0.044414148,0.00020818744
1596628000,1596628000,-0.02608098,-0.039850026,0.00031537397
1596648000,1596648000,-0.03505607,-0.040280983,0.0002189271
1596668000,1596668000,-0.029865347,-0.041742332,0.00025866175
1596688000,1596688000,-0.031651225,-0.04300761,0.00038180035
1596708000,1596708000,-0.029472593,-0.045002323,0.00062212115
1596724000,1596724000,-0.03022817,-0.04192843,0.0004557806
1596748000,1596748000,-0.03531349,-0.046737604,-0.00012686648
1596768000,1596768000,-0.028472682,-0.043236732,-0.0007343023
1596788000,1596788000,-0.032713953,-0.049078636,-0.0008145417
1596808000,1596808000,-0.03195653,-0.048201192,-0.00089801394
1596828000,1596828000,-0.029211823,-0.04718896,-0.00050441665
1596848000,1596848000,-0.03290073,-0.047368422,-0.00016819232
1596868000,1596868000,-0.03419339,-0.04669102,-0.00018774197
1596888000,1596888000,-0.034412038,-0.046240658,1.3581723e-05
1596908000,1596908000,-0.0335781,-0.045255244,-1.700079e-05
1596928000,1596928000,-0.027698297,-0.042799547,-0.00023532473
1596948000,1596948000,-0.03245981,-0.036659535,-0.00038239162
1596968000,1596968000,-0.036282673,-0.039302178,-0.00031655942
1596988000,1596988000,-0.028643398,-0.032590818,-0.0005065904
1597004000,1597004000,-0.030176904,-0.03132928,-0.00066174485
1597024000,1597024000,-0.021105517,-0.021650702,-0.00060971617
1597048000,1597048000,-0.019773858,-0.02085403,-0.0001648927
1597068000,1597068000,-0.013426549,-0.01435739,0.0004350877
1597088000,1597088000,-0.011087035,-0.0014583734,0.00081456493
1597108000,1597108000,-0.008074034,0.00031970092,0.0009333385
1597128000,1597128000,-0.0011029071,0.0068437275,0.000920117
1597148000,1597148000,0.009739255,0.017149568,0.0007575599
1597168000,1597168000,0.0073240255,0.018368123,0.0010292404
1597188000,1597188000,0.0018681521,0.01654567,0.0011980142
1597208000,1597208000,0.010864128,0.011307889,0.0010624045
1597228000,1597228000,0.006904184,0.015211681,0.0009732116
1597248000,1597248000,0.0055855755,0.014013798,0.0012796624
1597268000,1597268000,0.004034656,0.019569091,0.0013560693
1597288000,1597288000,0.0062622116,0.009668285,0.0009889255
1597308000,1597308000,0.0057917954,0.0152229015,0.000899636
1597328000,1597328000,0.0058299974,0.008513074,0.0011308314
1597348000,1597348000,0.010839535,0.011850067,0.000742772
1597368000,1597368000,0.005726736,0.012439574,0.00010016703
1597388000,1597388000,0.002564397,0.007879453,0.00010679102
1597408000,1597408000,-0.00029727165,0.0083141625,9.4145005e-05
1597428000,1597428000,0.009792801,0.0050464286,0.00041628082
1597448000,1597448000,0.00061604613,0.0057626124,0.0004422245
1597464000,1597464000,-0.002321542,0.00491995,0.0001983291
1597488000,1597488000,0.0038048443,0.0021829891,0.00030526196
1597508000,1597508000,0.0007956978,0.003172813,0.00074125495
1597528000,1597528000,-0.0006569233,-0.002415829,0.000771365
1597548000,1597548000,-0.0047398196,-0.0045024008,0.00091137475
1597568000,1597568000,-0.0015149092,0.0051024975,0.00079382677
1597588000,1597588000,0.0025990892,0.0031230054,0.0003027699
1597608000,1597608000,-0.00051308493,0.0006760445,6.1810235e-05
1597628000,1597628000,0.00096380594,-0.0032884,-0.00023329351
1597648000,1597648000,0.00075946044,-0.0027329172,-0.00036646536
1597668000,1597668000,-0.00077428005,0.0019735196,-0.00017879838
1597688000,1597688000,0.00083979405,-0.002678075,-0.00025372233
1597708000,1597708000,-0.0020120572,-0.006620369,0.00010214665
1597728000,1597728000,-0.0039112754,0.003135274,-0.00024634178
1597748000,1597748000,-0.0030316638,-0.004339096,-7.655607e-05
1597768000,1597768000,0.00060186454,-0.0029303664,-0.00013705275
1597784000,1597784000,0.000109332264,0.0010964117,-0.0003776641
1597808000,1597808000,-0.0028195071,-0.0042783762,-0.0006867385
1597828000,1597828000,-0.0007036766,-0.004404353,-0.0005293125
1597848000,1597848000,-0.0044531208,-0.004355883,-0.00076950423
1597868000,1597868000,0.00092414883,0.00069312286,-0.000800382
1597888000,1597888000,0.00022747542,0.00046589202,-0.0005103022
1597908000,1597908000,-0.00533495,0.00017979712,-0.00024191895
1597928000,1597928000,-0.0017699562,-0.004476778,-0.00040735657
1597948000,1597948000,-0.004522113,0.0018594153,-0.00021293084
1597968000,1597968000,0.0023749485,-4.503969e-05,-8.421016e-05
1597988000,1597988000,0.0026453687,-0.003207697,0.00021389166
1598008000,1598008000,-0.0016568537,-0.0024317328,8.598717e-05
1598028000,1598028000,-0.003938187,-0.0018276313,0.0007729639
1598048000,1598048000,-0.0020392707,-0.0013372535,0.0004422934
1598068000,1598068000,0.0050334483,0.003909708,0.00044666952
1598084000,1598084000,-0.0018685084,0.004675158,0.00045342193
1598108000,1598108000,-0.0064163115,0.0028854571,0.00015408575
1598128000,1598128000,-0.0029056973,-0.0016070096,0.0002897792
1598148000,1598148000,0.001068764,-0.0013520818,6.983041e-05
1598168000,1598168000,0.003105347,0.0015863181,-8.7018314e-05
1598188000,1598188000,0.00062214583,-0.0012542072,0.00020867685
1598208000,1598208000,-0.0061770827,-0.00064410124,2.5999761e-06
1598228000,1598228000,-0.0048702965,0.0043983874,0.00010982661
1598248000,1598248000,0.0013966768,0.0070789643,0.0007271125
1598268000,1598268000,-0.0009837445,-0.00561776,0.0010817165
1598288000,1598288000,0.00091141014,-0.0004563111,0.00079539814
1598308000,1598308000,-0.00630735,0.004623484,0.00073187356
1598328000,1598328000,0.00643291,0.00016728758,0.00019029359
1598348000,1598348000,0.0012026287,-0.0039463127,9.695378e-05
1598368000,1598368000,-0.0034524116,-0.0020773115,-0.00018310301
1598388000,1598388000,-0.0013678675,0.0059379875,-0.00032893088
1598404000,1598404000,0.00096857717,0.00012302451,-0.0003674378
1598428000,1598428000,0.0014096963,-0.005913011,-0.0007198088
1598448000,1598448000,-0.0012477877,-0.0019944315,-0.00077879976
1598468000,1598468000,0.004949634,0.0023120546,-0.0005186473
1598488000,1598488000,0.003899995,0.0058252728,-0.00048600577
1598508000,1598508000,0.002428572,-0.0011637167,-0.00051258056
1598528000,1598528000,-0.0011925297,0.0013432733,-0.00037341146
1598548000,1598548000,-0.0021692277,0.0024198147,-7.598306e-05
1598568000,1598568000,-0.002215655,0.004205237,0.0003433072
1598588000,1598588000,-0.0027502212,0.0006080703,0.00093657617
1598608000,1598608000,-0.0027439736,-0.0007843763,0.0011717896
1598628000,1598628000,0.0015213483,0.0012621181,0.0009319788
1598644000,1598644000,-0.0037782115,-0.002472279,0.0007177217
1598668000,1598668000,-0.007031255,0.00044656504,0.000648895
1598688000,1598688000,-0.002540519,0.0023351018,9.022082e-05
1598708000,1598708000,-0.0034033507,0.0031729578,-4.072398e-05
1598728000,1598728000,0.0021114987,0.003398477,7.3771385e-05
1598748000,1598748000,-0.0003805034,-0.000886151,0.00032294003
1598768000,1598768000,0.0017160055,-0.0017680525,0.00022881682
1598788000,1598788000,0.0028961091,0.0009017746,5.1649244e-05
1598808000,1598808000,-0.0020546874,0.0013244956,0.000118313605
1598828000,1598828000,-0.0033568838,0.0020359014,-9.418139e-05
1598848000,1598848000,-7.4987474e-05,0.0037477422,-1.8416296e-05
1598868000,1598868000,-0.00046407426,0.0043287156,-2.3287816e-05
1598888000,1598888000,-4.834897e-05,0.0014398271,-0.00088352885
1598908000,1598908000,0.002872587,0.0044525294,-0.000759057
1598928000,1598928000,0.0006551639,0.0053101997,-0.0010716859
1598948000,1598948000,-0.0012150318,0.0028040903,-0.0009290227
1598968000,1598968000,0.004733726,0.0046715736,-0.0007473328
1598988000,1598988000,-0.0004996095,0.0071778474,-0.00063805823
1599008000,1599008000,0.0014910095,0.002028698,-0.000533222
1599028000,1599028000,-0.0032110387,0.005314444,-9.499816e-05
1599048000,1599048000,0.00058177236,0.0015693568,0.00024189011
1599068000,1599068000,-0.0034176516,0.0022132236,0.00042775698
1599088000,1599088000,0.0064026257,0.0009356716,-5.7664816e-05
1599104000,1599104000,0.006116459,0.0032843044,-0.0006709962
1599128000,1599128000,0.0002575717,0.00051541004,-0.00053203653
1599148000,1599148000,-0.00389378,0.006737774,-1.665204e-05
1599168000,1599168000,-0.0040410175,0.0020762044,-0.00013990239
1599188000,1599188000,-0.0037651407,0.0028741537,-0.00037039336
1599208000,1599208000,-0.0019491093,0.0038769695,-0.0005159884
1599228000,1599228000,0.0028659506,0.0049140365,-0.00053889194
1599248000,1599248000,-0.00048711954,0.0018453912,-3.4207405e-05
1599268000,1599268000,0.0028479726,0.0035698414,-0.00010193043
1599284000,1599284000,-0.001529175,0.0027943533,2.3487337e-05
1599308000,1599308000,0.0005582662,0.0031623042,0.00028070546
1599328000,1599328000,0.0031644923,-0.0034564466,0.0003633549
1599348000,1599348000,-0.005270645,0.006148779,0.00021070069
1599368000,1599368000,-0.0024561945,0.00013662444,0.00042103673
1599388000,1599388000,0.0051794704,0.001401741,0.0004513805
1599408000,1599408000,-0.003114114,0.004446068,0.00047600348
1599428000,1599428000,-0.0010698324,0.005164597,0.00012889
1599448000,1599448000,-0.0013513399,-0.0021105038,0.00065642584
1599468000,1599468000,0.00066543766,0.0037317974,0.0005478788
1599484000,1599484000,-0.00076837506,-0.0016227248,0.00048468114
1599508000,1599508000,0.0034911053,-0.0011684585,0.00062671193
1599528000,1599528000,0.0037847892,0.0027277814,0.0004947899
1599548000,1599548000,0.0020309275,9.396195e-05,0.0005405592
1599564000,1599564000,-0.0028564045,0.0032428931,-2.6321432e-05
1599584000,1599584000,0.00061950576,0.00348047,-0.00012051747
1599608000,1599608000,-0.00071454194,-0.0015318631,-0.00053258426
1599628000,1599628000,-0.0008598666,0.0035643808,-0.00037989742
1599648000,1599648000,0.0033611038,0.004080247,4.0813713e-05
1599668000,1599668000,0.0014395098,0.0044442676,0.000108371125
1599688000,1599688000,0.0033064836,0.0014500087,0.0004522554
1599708000,1599708000,0.00033696275,0.0043936903,0.00038143338
1599728000,1599728000,0.0004388091,-0.0012355078,0.0011462288
1599748000,1599748000,-0.0024048106,-0.0013330458,0.00070199976
1599768000,1599768000,-0.00014137558,0.00031331758,0.0003376873
1599788000,1599788000,-0.0047327722,0.0075477185,0.00013826377
1599808000,1599808000,0.0006558498,-0.00031035906,0.00022898144
1599824000,1599824000,-0.0013229768,0.0035239842,-0.00019321666
1599848000,1599848000,0.00045371492,0.0042578727,-0.00016993083
1599868000,1599868000,0.0006303141,0.0015282851,-0.00033446914
1599888000,1599888000,0.00079871144,0.0011563726,-0.0004354435
1599908000,1599908000,0.0007288386,0.007058055,-0.00060752867
1599928000,1599928000,-0.00049789663,0.0035943687,-0.0008559759
1599948000,1599948000,0.0024418067,0.004965691,-0.0007404169
1599968000,1599968000,-0.0025395893,0.004142961,-0.0005819802
1599988000,1599988000,-0.0014522623,0.00036442885,-0.0006185317
1600008000,1600008000,0.0038381102,0.0060429387,-0.00076586194
1600028000,1600028000,-0.0011333048,0.003994519,-0.0005377434
1600048000,1600048000,-0.00027672577,-0.0010453186,-0.0005013865
1600068000,1600068000,0.00036812737,0.001521187,-0.00021187356
1600088000,1600088000,-0.00221496,-0.0013947994,-0.00013417471
1600108000,1600108000,0.00014557474,0.0064385296,2.6050555e-05
1600128000,1600128000,0.0010277925,0.0036914288,0.0005955844
1600148000,1600148000,-0.003961987,-0.00018366659,0.0008980275
1600168000,1600168000,0.00039803542,0.0012123145,0.0012141521
1600188000,1600188000,0.0010414973,0.003639978,0.0010625559
1600208000,1600208000,0.0027511958,-9.149045e-05,0.00059834064
1600228000,1600228000,-0.0015487049,0.0038113233,0.0005772738
1600248000,1600248000,-7.1178394e-05,0.0041266973,0.0005354163
1600268000,1600268000,0.00086944574,0.0033497582,0.00065181084
1600288000,1600288000,-0.003338247,0.0034654988,0.00068539305
1600308000,1600308000,-0.0003216337,-0.0017570849,0.0007109049
1600328000,1600328000,-2.3626431e-05,0.0026482106,0.0005124995
1600348000,1600348000,0.00069409783,0.0063274214,0.0003688075
1600368000,1600368000,-0.006408819,0.005466162,0.00024946211
1600388000,1600388000,0.0069816085,-0.0031261381,-0.0002495948
1600408000,1600408000,-0.003680519,0.002435953,-0.00026387238
1600428000,1600428000,-5.566451e-05,0.00064872997,-0.00015905157
1600448000,1600448000,-0.0003972972,0.0018521871,-0.0006268359
1600468000,1600468000,-0.0026666373,0.0030172223,-0.00041894894
1600488000,1600488000,-0.0018593264,0.0047354717,-0.00062165165
1600508000,1600508000,0.0013701742,0.007832865,-0.00051650254
1600528000,1600528000,0.00075159036,0.00019948231,-0.00044833278
1600548000,1600548000,-0.0024955394,0.0075282906,-0.00019495035
1600564000,1600564000,0.0066936845,0.004105842,-0.00018415188
1600588000,1600588000,0.00023489376,0.006328717,-0.00016876667
1600608000,1600608000,0.001879072,0.0010801973,8.177958e-07
1600628000,1600628000,-0.0033527403,0.0028237181,-0.00023163049
1600648000,1600648000,-0.0021855186,-0.000307623,-7.3632065e-05
1600668000,1600668000,-0.0036141633,0.0034260699,-0.00037114884
1600688000,1600688000,-0.0023455087,-0.005106582,-0.0005538308
1600708000,1600708000,-0.003480629,0.0026449086,-0.00049962866
1600728000,1600728000,0.00053615065,0.0034145524,-0.00044272956
1600748000,1600748000,4.1767256e-05,-0.003348177,-0.00012096371
1600768000,1600768000,-0.0013891236,0.0023484626,9.017812e-05
1600788000,1600788000,0.0015384995,0.0034767468,0.00021107003
1600808000,1600808000,-0.001935228,0.004240299,-8.265379e-05
1600828000,1600828000,0.0025954717,0.0032791677,-0.00051939295
1600848000,1600848000,-0.00050175015,0.0020794184,-0.00045964698
1600868000,1600868000,-0.0006829179,-0.0012542054,-0.00074253697
1600888000,1600888000,0.0073088673,0.0033354652,-0.0004599587
1600908000,1600908000,0.0032415858,0.0015886427,-0.00011106868
1600924000,1600924000,0.0023271048,0.0030148996,-0.0001654662
1600948000,1600948000,-0.003638006,0.003875123,-0.00045331137
1600968000,1600968000,0.0034483674,-0.0011468392,-0.00013367513
1600988000,1600988000,0.002701959,0.0012374604,0.00031907868
1601008000,1601008000,8.472013e-05,0.0023637791,0.00062926917
1601028000,1601028000,-0.001630498,0.0046114377,0.0007114605
1601048000,1601048000,0.0008033026,0.0073183365,0.0006481537
1601068000,1601068000,0.0007385069,-0.0020863698,0.0005793604
1601088000,1601088000,-0.0004390704,-0.0048281522,0.00046990858
1601108000,1601108000,-2.9654897e-05,0.0017383373,0.00012160024
1601128000,1601128000,0.0022996366,0.00545205,-5.2699244e-05
1601148000,1601148000,0.0012045907,0.0038161846,0.0002665564
1601168000,1601168000,-0.00013014063,0.0023670692,0.0002827298
1601188000,1601188000,0.00051648065,0.0018428229,0.00054894853
1601208000,1601208000,0.0002555336,0.0015386909,0.00026070123
1601228000,1601228000,0.0006658088,0.0042324313,0.00027414036
1601248000,1601248000,-0.0013654975,0.0009913236,0.0003856143
1601268000,1601268000,-0.0019930284,0.003978338,0.00036800542
1601288000,1601288000,0.0018405677,0.0026077349,-1.2880955e-05
1601308000,1601308000,0.0027276417,0.0011027781,-0.0004031447
1601328000,1601328000,-0.0036203933,0.00034331286,-0.00014899927
1601348000,1601348000,0.006536786,0.0045702863,-0.0004768794
1601364000,1601364000,0.0010262474,-0.002205151,-0.00026344458
1601388000,1601388000,0.0017029614,0.00074472826,-0.00083998
1601408000,1601408000,-0.003439237,0.0044901255,-0.0011144009
1601428000,1601428000,0.0028264862,0.002197718,-0.0008374892
1601448000,1601448000,-0.0019236262,0.0020880557,-0.0011763261
1601464000,1601464000,0.0022987144,0.0019710844,-0.0012327792
1601484000,1601484000,0.0041369717,0.00046995492,-0.0013370003
1601508000,1601508000,-0.00043258804,0.0018624797,-0.0012439009
1601528000,1601528000,0.0010242077,0.0020844387,-0.0010709874
1601548000,1601548000,0.0037433757,0.0034862668,-0.0011711201
1601568000,1601568000,-0.0035840638,0.0017092923,-0.0008691249
1601588000,1601588000,-0.0004956394,0.0027842533,-0.00071005087
1601608000,1601608000,0.0046442775,0.004018105,-0.00036365914
1601628000,1601628000,0.00047817748,0.0038307945,-0.00031723338
1601648000,1601648000,-0.0031064777,0.0049116546,0.00011619103
1601668000,1601668000,0.0010067499,0.0010812335,0.00046517065
1601688000,1601688000,0.002910551,0.0038372055,0.00060010806
1601708000,1601708000,0.00023861113,0.0036782038,0.0007249454
1601728000,1601728000,0.0005707864,0.00024677394,0.0008884312
1601748000,1601748000,-0.007708609,0.004175594,0.00066783495
1601768000,1601768000,0.0021168832,0.0006575342,0.00046862348
1601788000,1601788000,-0.0008238273,0.0029727637,0.00044611085
1601808000,1601808000,-0.0016464479,0.0015681047,0.0007246043
1601828000,1601828000,6.7336485e-05,-0.0027557958,0.0009876906
1601848000,1601848000,-0.0022358252,0.0032966514,0.0011055808
1601868000,1601868000,0.0011997968,-0.0036125544,0.0011218272
1601888000,1601888000,-0.0052598338,0.0067513576,0.0008762407
1601908000,1601908000,0.0038894843,-0.0020808713,0.00045612777
1601928000,1601928000,0.0009192527,0.00031516503,0.0005204452
1601948000,1601948000,0.003935797,0.0070604337,-7.448092e-06
1601968000,1601968000,-0.0006709767,-0.0029238372,-6.4655316e-05
1601988000,1601988000,-0.000990303,-0.0023708893,-0.0003294173
1602008000,1602008000,-0.0015235103,0.004527649,-0.00013058688
1602028000,1602028000,-0.00013746085,-0.006859022,-0.0002934614
1602048000,1602048000,-3.0866533e-05,0.007455666,-0.00039001048
1602068000,1602068000,-0.00021768326,0.008385619,-0.0005548375
1602088000,1602088000,-0.0013081057,-0.0011779137,-5.350053e-05
1602108000,1602108000,-0.0003710771,0.008802196,-4.2065425e-05
1602128000,1602128000,-0.0026688334,-0.00043012027,-0.00033969898
1602148000,1602148000,-0.0015546691,0.0008798037,-0.00029329472
1602168000,1602168000,0.00292317,0.001976729,-0.0004011295
1602184000,1602184000,0.003199431,0.0042448444,-0.0006154706
1602208000,1602208000,-0.0024635056,0.002156197,-0.00016867572
1602228000,1602228000,0.0003077152,0.0033840712,-0.00050841784
1602248000,1602248000,-0.0023341621,0.0048367875,-0.00066166784
1602268000,1602268000,-0.0036503153,0.0028326,-0.00029851205
1602288000,1602288000,0.0021754962,0.00063889835,2.157129e-05
1602308000,1602308000,0.0028950644,0.0019584866,3.8604772e-05
1602328000,1602328000,-0.0015630485,0.0029188988,0.000119440214
1602348000,1602348000,-0.003379466,-0.00093837583,-0.00012039562
1602364000,1602364000,-0.00040104118,0.0044750134,0.00012111588
1602388000,1602388000,0.005287731,3.4912868e-05,-7.2974755e-05
1602408000,1602408000,-0.0011316382,0.00058964774,-0.0003377252
1602428000,1602428000,-0.0004788221,0.0030990853,-0.00029328212
1602448000,1602448000,-0.0010031179,-0.0003510652,-0.00022725893
1602468000,1602468000,0.0008973596,0.0034587018,7.0430266e-05
1602488000,1602488000,2.5517395e-05,-0.0015012122,0.00011682761
1602508000,1602508000,-0.004106291,0.0059657907,0.0005031799
1602528000,1602528000,-0.0032120151,0.0035776244,0.00056952506
1602548000,1602548000,0.0018418627,0.001018893,0.0010150019
1602568000,1602568000,0.003335867,0.0029659579,0.0009965199
1602588000,1602588000,0.0027552824,0.0028974842,0.00059834344
1602608000,1602608000,-0.00048828125,0.0053681377,0.0003237749
1602628000,1602628000,0.0002450599,0.0023377913,0.0003503603
1602648000,1602648000,-0.0006231296,0.0025781775,0.00010055351
1602668000,1602668000,0.0016844841,-0.000101786456,-4.9624985e-05
1602688000,1602688000,0.002329117,0.005034605,0.00015266833
1602708000,1602708000,-0.003843895,-0.0014717929,0.00024803463
1602728000,1602728000,-0.0017256513,0.0049311537,0.0005484561
1602748000,1602748000,0.00075295183,0.005452136,0.00058405404
1602768000,1602768000,-0.0022133032,0.0017099187,0.0004950778
1602788000,1602788000,-0.0003520822,-0.0001346562,-4.0146937e-05
1602808000,1602808000,-0.0035410402,0.0076830965,1.6516347e-05
1602828000,1602828000,0.002540108,0.005808681,-0.00026065347
1602848000,1602848000,0.00056190375,0.0050452356,-0.00045635607
1602868000,1602868000,-0.00014666701,0.0033604675,-0.000251294
1602888000,1602888000,-0.002949954,0.0044675325,-0.00050609244
1602908000,1602908000,0.0012283453,0.0042072465,-0.0005536622
1602928000,1602928000,0.00054954964,0.0037977193,-0.00057111005
1602948000,1602948000,-0.0010105041,0.0060670557,-0.000620467
1602968000,1602968000,-0.0041046576,0.0029174248,-0.00058453873
1602988000,1602988000,0.0021754259,0.001800148,-0.000107618034
1603008000,1603008000,-0.00045506543,0.006091586,-7.792525e-05
1603028000,1603028000,-0.0013284696,0.0021974994,-0.00019870288
1603048000,1603048000,-0.0040610433,-0.0021651369,-0.00024343102
1603064000,1603064000,-0.00072245795,0.0028602434,-0.0002905144
1603088000,1603088000,0.0036358417,-0.00084372377,-0.00015222514
1603108000,1603108000,-0.002786665,0.0065836785,5.1498107e-05
1603128000,1603128000,0.0010746492,0.0005194996,8.332415e-05
1603148000,1603148000,0.0011851217,-0.0027290902,-8.319686e-05
1603164000,1603164000,0.00096653274,-0.0010872638,-5.1294337e-06
1603188000,1603188000,0.0028341587,0.000844695,-0.0001317648
1603208000,1603208000,-0.004347598,0.0012024253,0.00066527183
1603224000,1603224000,-0.00082950236,0.003973048,0.00032962998
1603248000,1603248000,0.0023075484,0.005424256,-4.703209e-05
1603268000,1603268000,0.0016875898,0.0006399666,-0.000360219
1603288000,1603288000,0.00015184551,0.0039923615,-0.0005320134
1603308000,1603308000,0.0032133409,-0.00021735544,-0.0007355567
1603328000,1603328000,-0.00073547487,0.0041741272,-0.00054302457
1603348000,1603348000,-0.0020768233,0.0054780347,-0.0004308047
1603368000,1603368000,-0.0010030068,0.0020141627,-0.00051873305
1603388000,1603388000,0.00050979044,0.003435106,-0.0004824169
1603408000,1603408000,0.00083423394,-0.0007479442,-0.00019998614
1603428000,1603428000,6.779493e-05,0.008385753,3.5323697e-05
1603448000,1603448000,-0.0030354112,0.0055588065,4.0919265e-05
1603468000,1603468000,-0.00063892914,0.0029655977,0.00041225922
1603488000,1603488000,-0.00166653,0.002649296,0.00034592426
1603504000,1603504000,0.0048882887,0.004920975,0.00031493502
1603528000,1603528000,-0.003477097,0.004823533,0.00017959547
1603548000,1603548000,-0.009716196,0.00022178877,0.00054921646
1603568000,1603568000,0.0038770575,0.0006957403,0.0007514531
1603588000,1603588000,-0.0020558918,-0.0002440433,0.00088351074
1603608000,1603608000,-0.0010956655,-0.00047111628,0.000881974
1603628000,1603628000,0.002388913,-0.0012799922,0.0008484457
1603644000,1603644000,0.0010605685,0.005488499,0.00071697147
1603664000,1603664000,0.0043392214,0.0025530476,0.0006776144
1603688000,1603688000,-0.0020254059,-0.0033646408,0.00041973183
1603708000,1603708000,-0.0014220296,0.004607117,0.0007023875
1603728000,1603728000,0.002502298,0.0038396341,0.00060042134
1603748000,1603748000,0.00010939996,-0.0021924449,0.0005216521
1603768000,1603768000,0.004483691,0.0049648825,0.0003935024
1603788000,1603788000,-0.0018593863,0.0027478244,0.0001250351
1603808000,1603808000,0.0017404186,0.0019453632,0.00019978026
1603828000,1603828000,-0.0044858074,0.0012413858,0.000111162095
1603848000,1603848000,0.0015068455,-0.0028243242,4.235655e-05
1603868000,1603868000,0.0001569473,0.0045148376,-0.00013707345
1603888000,1603888000,0.0031143166,2.515153e-06,-0.00040199034
1603908000,1603908000,6.3831554e-05,0.0035811178,-0.00050151435
1603928000,1603928000,-0.0022134872,-0.00020643044,-8.971394e-06
1603948000,1603948000,-0.0011476446,0.0027520733,0.0001147523
1603968000,1603968000,0.0004961198,-0.00025097956,6.4721076e-05
1603988000,1603988000,-0.00047764968,0.00070939364,0.00013940665
1604008000,1604008000,0.0014907382,-0.0016780652,-0.00019406786
1604024000,1604024000,0.00090917514,0.0052663716,-0.0005800354
1604048000,1604048000,0.00067820906,0.0030371589,-0.00048038212
1604068000,1604068000,-0.005309741,-0.0018433097,-0.00092983915
1604084000,1604084000,0.001953699,-0.0010490718,-0.00075517263
1604108000,1604108000,-0.00071484665,0.0061144615,-0.000750299
1604128000,1604128000,0.007088746,0.002439386,-0.0008633118
1604148000,1604148000,0.00086229073,0.0070701456,-0.00088202563
1604168000,1604168000,-0.0020681764,0.00048693595,-0.00017349627
1604188000,1604188000,-0.004053107,-0.00050866196,0.00016496684
1604208000,1604208000,0.0043962374,0.0013212,-0.00021961037
1604228000,1604228000,-0.0006433165,-0.0013226824,-0.00081958715
1604248000,1604248000,0.0031513167,0.0039873556,-0.0009460253
1604268000,1604268000,0.00075070583,9.0564834e-05,-0.0009805966
1604288000,1604288000,0.0021687527,0.00040524715,-0.0005786385
1604308000,1604308000,8.888876e-05,-0.0026900456,0.00035246523
1604328000,1604328000,-0.0019236663,0.005071964,0.00095707586
1604348000,1604348000,-0.0013479239,0.00067861675,0.0011043083
1604368000,1604368000,0.007232532,-0.0010255686,0.0005035753
1604388000,1604388000,-0.0006874793,0.0061485646,0.0004794347
1604408000,1604408000,-0.00279665,-0.00058369606,3.0983265e-05
1604428000,1604428000,-0.001805769,-0.0006267533,0.00028371782
1604448000,1604448000,-0.0014224098,0.0018621332,-4.0499355e-05
1604468000,1604468000,-0.0029789465,0.0012975055,-0.00011917519
1604488000,1604488000,-0.0027997103,0.002899536,0.00010248474
1604504000,1604504000,0.0027007242,0.007962234,0.0003570633
1604528000,1604528000,0.0015333161,0.0028430633,8.231011e-05
1604548000,1604548000,-0.0035248552,0.0022222,0.00020376481
1604568000,1604568000,-0.0012152381,0.005485351,3.4687986e-05
1604588000,1604588000,0.0011510701,-0.003141039,-0.00012311667
1604604000,1604604000,0.0033307164,0.0013149128,0.00045142707
1604628000,1604628000,-0.001074035,0.0028256536,0.0005822494
1604648000,1604648000,0.00042241564,-0.0006101201,0.00024146831
1604668000,1604668000,-0.0012420465,0.007279976,0.00026619408
1604684000,1604684000,0.0032289126,-0.00075255276,0.00012739452
1604708000,1604708000,0.0048271967,0.004266916,0.0005192333
1604728000,1604728000,-0.005953161,0.0028545393,0.00012642946
1604748000,1604748000,0.003034243,-0.0012609058,0.00037312938
1604768000,1604768000,-0.0025455914,0.0046375403,0.00011725667
1604788000,1604788000,-0.0018635383,0.004403844,9.3304625e-06
1604808000,1604808000,0.003793559,-0.00029162667,-0.00043807237
1604828000,1604828000,-0.00046154705,0.0032024304,-0.0003918673
1604848000,1604848000,0.00020125286,0.002389152,-0.0004733848
1604868000,1604868000,-0.00082005636,-0.002786843,-0.0007131418
1604888000,1604888000,0.00093318615,0.0048563946,-0.0006174908
1604908000,1604908000,0.001433585,0.004604228,-0.0009159861
1604928000,1604928000,-0.0030204328,0.001712194,-0.0010618262
1604948000,1604948000,-0.0046731355,0.0030933265,-0.0007600048
1604964000,1604964000,0.0017145579,0.0018407812,-0.0007484649
1604988000,1604988000,6.1942e-05,0.010381775,-0.00050550373
1605008000,1605008000,0.003313588,-0.0046330793,-0.00040082115
1605028000,1605028000,0.0010269266,0.0018135185,-2.187804e-05
1605044000,1605044000,-0.003402268,0.003399365,-1.5354788e-05
1605068000,1605068000,0.0019437653,0.0044003045,0.0005066842
1605088000,1605088000,-0.0014870713,0.0017700071,0.0006916497
1605108000,1605108000,0.002546248,0.0035197828,0.00024339373
1605128000,1605128000,0.005904564,0.00065642834,8.633627e-05
1605148000,1605148000,-0.0019624433,0.0030289297,0.00025611225
1605168000,1605168000,-0.0015650877,0.0043339957,0.0001812822
1605188000,1605188000,-0.0019163075,-0.0052633258,0.00040321355
1605208000,1605208000,-0.0038101852,0.003069682,0.00027572745
1605228000,1605228000,0.0022194043,0.0067716436,-0.0002257107
1605244000,1605244000,-0.004117581,0.0015695384,1.9956278e-06
1605268000,1605268000,0.0007065926,0.0009151797,0.00018836754
1605288000,1605288000,-0.0005548148,0.0032132128,0.00032458943
1605308000,1605308000,-0.0030102397,0.00013767183,0.00022212436
1605328000,1605328000,0.006743147,0.0033588582,0.0005653174
1605348000,1605348000,0.0021418992,0.0006272452,0.0005259284
1605368000,1605368000,-0.0018917201,0.003510321,0.0006862456
1605388000,1605388000,0.0011648664,0.006131709,0.00076283957
1605408000,1605408000,0.0006316229,-0.00023270515,0.0005064046
1605428000,1605428000,-0.0021752291,0.004093235,-4.9312162e-05
1605448000,1605448000,-0.0021041832,0.0047626602,-0.00016083888
1605468000,1605468000,-0.00056363386,0.00442514,-0.00041837367
1605488000,1605488000,-0.0033550388,0.0008101576,-0.00017828461
1605508000,1605508000,0.0018905436,0.0030594356,-0.00041070225
1605528000,1605528000,0.0009349631,0.0006542507,-0.0005571942
1605548000,1605548000,0.005335911,0.003382362,-0.0008917526
1605564000,1605564000,-2.7284259e-05,0.0018503001,-0.0010457624
1605588000,1605588000,0.00093280326,0.00473373,-0.0009390728
1605608000,1605608000,-0.0026811087,0.0020265388,-0.00035438454
1605628000,1605628000,-0.0022289103,0.00080250844,-0.00033429544
1605648000,1605648000,0.007167955,0.0022775303,-0.00024033147
1605664000,1605664000,-0.0021101006,0.0010286656,-0.00025882627
1605688000,1605688000,0.0014243863,0.0038991203,-0.00024449304
1605708000,1605708000,-0.0043018092,0.0011141342,0.00012509794
1605728000,1605728000,-0.0011170097,0.0034019223,0.0003782869
1605748000,1605748000,-0.00013486943,0.0022743996,0.0006680144
1605768000,1605768000,0.0029935539,0.005575696,0.0007076275
1605788000,1605788000,0.00036015207,0.0003355589,0.0002046728
1605808000,1605808000,-0.0037176516,0.002749987,0.00024682074
1605828000,1605828000,-0.0016024819,0.0011643774,0.0004096998
1605848000,1605848000,0.001620143,0.006426587,0.00041257418
1605868000,1605868000,0.0019467787,0.0034219536,0.00014002393
1605888000,1605888000,0.00077338616,0.0029014244,0.00020197415
1605908000,1605908000,0.001362217,-0.0007191981,0.0002575354
1605928000,1605928000,0.00015799445,0.00374524,0.00021510043
1605948000,1605948000,0.0014448046,0.0046204543,0.00034455722
1605968000,1605968000,-0.00049504713,0.008452457,0.0004495997
1605988000,1605988000,0.00040308584,0.005258343,0.00031030382
1606008000,1606008000,-0.0028179004,0.0052208183,0.000101362384
1606028000,1606028000,-0.00093756977,0.00096968235,2.0082116e-05
1606048000,1606048000,-0.0015952,0.0038633058,9.188065e-05
1606068000,1606068000,-0.00016907758,0.0017050181,-0.00011028676
1606088000,1606088000,-0.0012552788,0.0057314727,2.303906e-05
1606108000,1606108000,0.004439762,-0.00082975416,-0.00052821555
1606128000,1606128000,-0.0035186175,0.0044603962,-0.00043182616
1606148000,1606148000,0.00462116,0.0032949583,-0.00014827066
1606168000,1606168000,0.002555218,0.0026594854,-0.0002734022
1606184000,1606184000,0.0005718128,0.0013059878,-1.034388e-05
1606208000,1606208000,-0.0026516735,0.0010287715,7.129599e-05
1606228000,1606228000,-0.0006978521,0.0036533158,8.462294e-05
1606248000,1606248000,0.0058850665,0.0048525506,0.0002555698
1606268000,1606268000,0.00066797197,0.0011624566,-6.109874e-05
1606288000,1606288000,-0.0038406195,0.0009266103,7.5979595e-05
1606308000,1606308000,-0.003741698,-0.0002113179,-0.0005789598
1606324000,1606324000,-0.0017168418,0.0034172952,-0.00048082767
1606348000,1606348000,-0.004003052,0.0018790222,-0.00024439674
1606368000,1606368000,-0.0020293226,-0.00019936229,2.2047148e-05
1606388000,1606388000,-0.0011822152,0.002338972,-0.00042795532
1606408000,1606408000,-0.001530285,0.0039214757,-2.852604e-05
1606424000,1606424000,0.00060134963,0.002086113,0.0001557706
1606448000,1606448000,-9.90472e-05,0.0029639862,6.758419e-05
1606468000,1606468000,-0.0005990489,0.0036606432,-0.00026785486
1606488000,1606488000,0.0014484222,-0.00037924654,-0.0008345175
1606508000,1606508000,-0.00069391506,-0.0018876642,-0.0008760003
1606528000,1606528000,0.0039949366,0.0014186241,-0.00076550676
1606548000,1606548000,-0.0010267518,0.0057395287,-0.0009530785
1606568000,1606568000,0.0010863583,0.0034137277,-0.00073683774
1606588000,1606588000,0.0020055813,0.0023641135,-0.00023508832
1606608000,1606608000,-5.6928693e-05,0.0054639895,0.00016215167
1606628000,1606628000,-0.0026229713,-0.0006046975,0.00049238274
1606648000,1606648000,-0.0028911256,0.00060154556,0.00083399966
1606668000,1606668000,0.008060083,0.007172145,0.00083983166
1606688000,1606688000,-0.0025564707,-0.00083246373,0.0008573493
1606704000,1606704000,0.0022395896,-0.002112735,0.00073141593
1606728000,1606728000,-0.0002048178,0.0072486294,0.0011592426
1606748000,1606748000,0.0015248628,0.005390668,0.0011962358
1606768000,1606768000,-0.0011971007,0.0019980755,0.0014357413
1606788000,1606788000,-0.0025178685,0.002775355,0.0018344015
1606808000,1606808000,-0.006284043,0.00094133796,0.001531324
1606828000,1606828000,0.0009591262,0.005720951,0.0013405598
1606848000,1606848000,0.005068948,-0.002340123,0.0010245715
1606868000,1606868000,-0.00068461883,0.0030059884,0.0011343234
1606884000,1606884000,-0.0031187693,0.002883186,0.0010470658
1606904000,1606904000,-0.0009275443,0.0070949825,0.0006100579
1606928000,1606928000,-0.0037112348,-0.0054905936,0.00064295833
1606948000,1606948000,0.004008287,0.0014604585,0.0004839327
1606968000,1606968000,-5.0353556e-05,0.0022918778,5.29792e-05
1606988000,1606988000,0.0022946263,-0.0021820155,-0.000504857
1607008000,1607008000,-0.0056167888,0.005712991,-0.0006742547
1607028000,1607028000,0.0013287057,-0.0005091373,-0.0010155377
1607048000,1607048000,-0.0006970589,-0.00061424414,-0.00092325534
1607068000,1607068000,0.0025634412,0.0013355999,-0.00073398114
1607084000,1607084000,-0.0008555177,0.005680311,-0.00079610816
1607108000,1607108000,0.00085156714,0.003159225,-0.0010032478
1607128000,1607128000,0.0005464449,0.005229825,-0.0009779967
1607148000,1607148000,-0.0014452679,0.0024111092,-0.0013205631
1607168000,1607168000,0.0020703333,0.0012078227,-0.0012955284
1607188000,1607188000,0.0059923176,0.0007676154,-0.001115865
1607208000,1607208000,-0.003951992,0.0041278447,-0.00087950967
1607228000,1607228000,0.002371707,0.0020975405,-0.00034668154
1607248000,1607248000,-0.0008047028,-0.0020441199,-0.00021476811
1607268000,1607268000,-0.0029725416,0.002390931,0.0004210766
1607288000,1607288000,-0.0064498014,0.0018903095,0.00037880536
1607308000,1607308000,0.0032269547,0.0046063047,8.028495e-05
1607328000,1607328000,-0.003523463,0.0023735794,-7.555007e-05
1607348000,1607348000,0.0048026517,0.0033477747,0.00047213392
1607368000,1607368000,-0.0061366223,0.0025675655,0.00055749726
1607388000,1607388000,-0.0012207103,0.0049168295,0.00047717447
1607408000,1607408000,-0.0007892814,0.0054132445,0.00042015157
1607428000,1607428000,-0.00135909,-0.0036050081,0.0008197332
1607448000,1607448000,-0.0016936901,0.00074755325,0.00025558617
1607468000,1607468000,0.0014694405,0.00011815148,0.00025060412
1607488000,1607488000,-0.00035214738,-0.0009991673,0.00042268215
1607508000,1607508000,-0.004183642,0.0010895395,0.000557199
1607528000,1607528000,-0.004450939,-0.0012203995,0.0007399552
1607548000,1607548000,0.0013563093,0.004843892,0.00076066086
1607568000,1607568000,-0.00089601777,0.00052252156,0.000497002
1607588000,1607588000,-0.0022434182,0.002237344,0.00010139582
1607608000,1607608000,-0.00085281744,0.0025184872,0.0002662834
1607628000,1607628000,0.0033327735,0.0036129598,0.0004882159
1607648000,1607648000,-0.0019503067,0.002259361,0.0004359068
1607668000,1607668000,-0.004553642,0.002453486,-4.2921325e-05
1607688000,1607688000,0.0034389026,0.0025438513,-0.00042689987
1607708000,1607708000,0.003390368,0.0038882764,-0.0005546676
1607728000,1607728000,-0.0017771593,0.0023359654,-0.00059057376
1607744000,1607744000,-0.00062245276,-0.0020747045,-0.0005139347
1607764000,1607764000,-0.0012975407,0.003699691,-0.00073360803
1607788000,1607788000,-0.0018202106,0.0029859305,-0.00043785808
1607808000,1607808000,-0.0009813376,0.005763362,-0.0005710365
1607828000,1607828000,-0.0025369932,0.0031155725,-0.0003670424
1607848000,1607848000,-0.0011897606,0.005849969,-0.00010702894
1607868000,1607868000,0.0016083915,0.0036531603,0.00016842093
1607888000,1607888000,0.00010394538,0.0029881047,0.00031926448
1607908000,1607908000,-0.0008003,0.0028147614,0.00011736933
1607928000,1607928000,-0.0019603635,0.002436148,0.00020873985
1607948000,1607948000,0.001713366,0.005854714,-6.1321654e-05
1607968000,1607968000,0.00173713,0.00084499735,0.00059689936
1607988000,1607988000,-0.0013796478,-0.0012935526,0.00046369055
1608008000,1608008000,-0.00019033963,0.00039724138,0.0006571128
1608028000,1608028000,-0.0017354068,0.0012626441,0.00060366624
1608048000,1608048000,0.002520462,0.0023101242,0.0005611372
1608068000,1608068000,-0.0003911439,0.006219362,0.00067738775
1608088000,1608088000,0.0046596713,-0.0023304662,0.000515486
1608108000,1608108000,-0.0006011902,0.0055668326,0.00050130225
1608128000,1608128000,-0.002508107,0.0005527809,0.00052132877
1608148000,1608148000,-0.006495386,0.00022506667,1.2142722e-05
1608168000,1608168000,-0.0012983008,0.001967899,-0.000288291
1608188000,1608188000,0.0012264771,0.0067762025,-4.0704268e-05
1608208000,1608208000,0.004355274,0.0019413182,-0.00020998184
1608228000,1608228000,-0.0017547541,0.004049353,-0.00021309004
1608248000,1608248000,-0.0013239684,-0.0016512037,-0.0006998311
1608268000,1608268000,0.00061752566,0.0024227193,-0.00079477974
1608288000,1608288000,0.0026805475,0.0029583338,-0.0005464497
1608308000,1608308000,0.001094226,0.005461503,-0.0003344042
1608328000,1608328000,-0.003579816,0.001316361,-0.00038694544
1608348000,1608348000,0.0009545538,0.006543166,-0.0001884655
1608364000,1608364000,-0.002921931,0.0017548294,-0.0006242039
1608388000,1608388000,-0.002887919,-0.00094587624,-0.00055994774
1608408000,1608408000,0.0036615299,0.0011090173,-0.00083285035
1608428000,1608428000,0.0013050006,0.0076412586,-0.00049182645
1608448000,1608448000,-0.00041821843,0.005222576,-0.0004179338
1608468000,1608468000,0.00076836336,0.0013122892,-0.00036218224
1608484000,1608484000,-0.002547915,0.0014963406,-0.0006051683
1608504000,1608504000,0.0040987753,0.0039630164,-0.00041096384
1608528000,1608528000,5.8982998e-05,0.00023268163,-0.00040560242
1608548000,1608548000,0.0019355277,-0.0039598085,-0.00018530461
1608568000,1608568000,-0.00023366534,0.0051886896,0.0003264336
1608588000,1608588000,-0.0018144978,0.00069630146,0.00014871081
1608608000,1608608000,0.0034950445,0.0061043845,0.0002755038
1608628000,1608628000,0.0044072336,0.0050250324,0.00051112974
1608648000,1608648000,-0.004065566,0.0011944275,0.000534125
1608668000,1608668000,-0.0037650915,0.0012308555,0.0010380988
1608688000,1608688000,-0.0014539107,0.0005113989,0.0009728818
1608708000,1608708000,0.0054133423,0.0021708491,0.0011504223
1608728000,1608728000,-0.0015259096,0.0030668739,0.0015992924
1608748000,1608748000,-0.005279018,-0.0004997201,0.0013863663
1608768000,1608768000,-0.0015805386,0.003441258,0.0010637386
1608788000,1608788000,-0.0020625077,0.0009986649,0.0007972922
1608808000,1608808000,0.0034079908,-0.0021662496,0.00037844246
1608828000,1608828000,-4.4314773e-05,-0.0009328157,2.322063e-05
1608848000,1608848000,-0.003192921,0.008366729,0.00027547698
1608868000,1608868000,0.003466176,0.0033066617,0.00017932004
1608888000,1608888000,8.788484e-06,-0.0024194578,-7.19298e-05
1608908000,1608908000,0.0020241663,0.0004882383,-0.000511681
1608928000,1608928000,-0.0010682802,0.0012455417,-0.00041797096
1608948000,1608948000,0.00016159163,-0.00048733375,-0.00028012792
1608968000,1608968000,-0.0006143709,0.006208657,-0.00031234862
1608988000,1608988000,0.004100669,0.00061317394,-0.0002821486
1609008000,1609008000,0.0006046127,0.00033381896,-0.0005419237
1609028000,1609028000,0.0023183434,0.0025905133,-0.00024856633
1609048000,1609048000,0.0028981355,0.0011309911,-0.0005633219
1609068000,1609068000,0.00011383556,-0.00023398711,-0.0009392872
1609088000,1609088000,-0.0017362561,0.0032694817,-0.000707768
1609108000,1609108000,-0.0025424152,0.00014420506,-0.00094027224
1609128000,1609128000,0.0028097122,-0.0016588843,-0.00056317134
1609148000,1609148000,0.00033220724,-0.0014567261,0.00021294341
1609168000,1609168000,-0.0033531128,0.0037415586,0.00028805164
1609188000,1609188000,0.0030799012,0.0029854001,0.00038964718
1609208000,1609208000,0.00083243905,0.004965884,0.00019515588
1609228000,1609228000,0.0044149803,0.0013554044,-0.00019782432
1609244000,1609244000,0.00015225675,0.0009284668,-0.00037407453
1609268000,1609268000,-0.0013473507,0.0042111343,-0.00047735864
1609288000,1609288000,-0.0015924003,0.0009877151,-0.00063387083
1609304000,1609304000,0.0005420294,0.004907522,-0.00045165012
1609324000,1609324000,0.0005824266,0.0019909083,-0.00092247705
1609348000,1609348000,-0.00027293857,0.0044510346,-0.00042080932
1609368000,1609368000,0.0034112004,0.006529669,-0.00081242557
1609388000,1609388000,-0.0026841331,0.0024481374,-0.00015852017
1609408000,1609408000,0.0045786034,0.006752516,-0.00017632445
1609428000,1609428000,-0.0043150717,0.0010103219,-0.0005343086
1609448000,1609448000,0.00080443977,0.0027713503,-0.00042237778
1609468000,1609468000,0.00072519854,0.0040768352,-2.7742102e-05
1609488000,1609488000,-0.0054418324,0.00045515492,-3.363305e-05
1609508000,1609508000,0.0005568998,0.003505425,-2.1933876e-05
1609524000,1609524000,-0.0004732813,0.0015646238,6.739973e-05
1609548000,1609548000,0.0010265851,0.0043411427,0.00018098048
1609564000,1609564000,0.005654386,0.0060012583,0.00050361414
1609588000,1609588000,-0.0043510874,0.003959442,0.00071229984
1609608000,1609608000,-0.0022603124,0.0016442233,0.0006569888
1609628000,1609628000,0.0032803847,0.0024460526,0.0010707849
1609648000,1609648000,0.00071657804,0.0023717936,0.0011831537
1609668000,1609668000,0.0007174058,0.00047274452,0.0010920939
1609688000,1609688000,-0.0018272488,0.008703211,0.0010934856
1609708000,1609708000,-0.0013281222,0.00467512,0.00083810126
1609728000,1609728000,0.00069578824,0.0005492936,0.00094798324
1609748000,1609748000,-0.0016066699,-0.00026030454,0.0005925304
1609768000,1609768000,0.0030382862,-0.004038573,0.0007428641
1609788000,1609788000,-0.0018271732,0.006040114,0.00077690056
1609804000,1609804000,0.0064319167,0.0073983353,0.0009439314
1609828000,1609828000,-0.0077731553,0.0016790703,0.00041653225
1609848000,1609848000,-0.00030098693,0.0077222907,8.347885e-05
1609868000,1609868000,0.0014882236,0.0012223558,0.00012731887
1609888000,1609888000,0.0052211042,0.0041735116,0.00014362083
1609908000,1609908000,-0.006514616,0.00398552,-3.051835e-06
1609928000,1609928000,-0.002863544,0.0011066166,-0.00011075449
1609948000,1609948000,0.004748145,-0.002108698,-0.0007889197
1609968000,1609968000,0.0017666705,0.0016561069,-0.0009371233
1609988000,1609988000,-0.0008156828,0.0010530578,-0.0010438729
1610004000,1610004000,-0.0011429575,0.0026882016,-0.0010646709
1610024000,1610024000,0.0033713386,-0.0013531024,-0.0010667946
1610048000,1610048000,0.0026816842,0.0057146247,-0.0011797049
1610068000,1610068000,-0.00020348997,-0.0010403376,-0.001075527
1610088000,1610088000,0.0014408232,0.00059785997,-0.0010133918
1610108000,1610108000,-0.0004239396,0.002703138,-0.0013224387
1610128000,1610128000,0.00015562636,0.0053856317,-0.0014959137
1610148000,1610148000,0.0018738094,0.001672646,-0.0014402746
1610168000,1610168000,0.0008843412,-0.0030514162,-0.00070262566
1610188000,1610188000,-0.0035969415,0.003359559,-0.00057150103
1610208000,1610208000,0.0010187302,-0.0014001689,-0.00040114697
1610228000,1610228000,0.0031899991,0.003831646,-0.00042037189
1610248000,1610248000,0.0028031943,0.0027768821,-0.0005222912
1610268000,1610268000,0.004305203,0.0051675322,-0.000439348
1610288000,1610288000,-0.0032801135,0.0020681582,-2.7966022e-05
1610308000,1610308000,8.98796e-05,0.004488902,0.00025489496
1610328000,1610328000,-0.00052510295,0.0013161146,0.00034472797
1610348000,1610348000,0.0027897211,0.00745882,0.0007787201
1610368000,1610368000,0.00037992364,0.0014439443,0.0007815406
1610388000,1610388000,0.00085604435,-0.0024269968,0.00064166036
1610408000,1610408000,-0.0005185049,0.0049586706,0.00060133677
1610428000,1610428000,0.00052950473,-0.00051937066,0.0007027391
1610448000,1610448000,0.0008773735,0.0048170458,0.00057385385
1610468000,1610468000,-0.0027541493,0.0055633797,0.0006462077
1610484000,1610484000,0.0026865716,-0.0020437718,0.001005836
1610508000,1610508000,-0.0007793073,-0.00012567104,0.00072511815
1610528000,1610528000,0.0020305181,2.1771179e-05,0.00073419
1610548000,1610548000,-0.0024746158,0.0007231621,0.0008345871
1610568000,1610568000,0.0027948585,0.008207379,0.0009089323
1610588000,1610588000,-0.00046611694,0.0042810477,0.0007314469
1610608000,1610608000,0.0054061553,0.0026583588,0.00029645345
1610628000,1610628000,-0.0012054126,0.0028649694,0.00012540686
1610648000,1610648000,-0.00360223,0.0031733918,0.00012921059
1610664000,1610664000,-0.00013679703,0.0033272454,7.869549e-05
1610688000,1610688000,-0.002754684,0.0003835063,-5.5807053e-05
1610708000,1610708000,-0.0019071364,-0.002348955,-7.417456e-05
1610728000,1610728000,-0.0015055436,0.0024688016,-0.00012096596
1610748000,1610748000,-0.007876132,0.002522137,-0.0006017168
1610768000,1610768000,0.0004031835,0.007926505,-0.0005209054
1610784000,1610784000,0.006017077,0.002669834,-0.0005337515
1610808000,1610808000,0.0038046702,-0.002330135,-0.00054188335
1610828000,1610828000,0.00040152273,0.0029675758,-0.0003746442
1610848000,1610848000,-0.0017252815,-0.0020601754,-8.1948325e-05
1610868000,1610868000,0.0017263035,0.0038074008,0.0005789142
1610888000,1610888000,0.0009258767,0.0013773501,0.0009257199
1610908000,1610908000,0.003812992,0.0026547285,0.00042538857
1610928000,1610928000,7.555238e-06,0.0019803203,0.00026888694
1610948000,1610948000,-0.00079519255,-0.0003982226,0.00064692897
1610968000,1610968000,-0.0044578537,0.0033873715,0.00044847862
1610988000,1610988000,-0.0022728366,0.00044997293,0.000199809
1611008000,1611008000,0.0046661007,0.0022981083,0.00021705801
1611028000,1611028000,0.0021371914,0.006746782,0.00041731156
1611048000,1611048000,-0.0034493273,0.002872459,-7.417882e-05
1611064000,1611064000,0.0056824493,0.002788114,0.00020422542
1611088000,1611088000,0.002056619,-0.0015617278,-0.00022592177
1611108000,1611108000,-0.0018934838,-0.001049604,-0.0005956157
1611128000,1611128000,-0.0041144406,-0.0012335529,-0.0005955212
1611148000,1611148000,0.004276646,0.0051466934,-0.00060512224
1611168000,1611168000,0.0041088164,0.01077586,-0.00043356308
1611188000,1611188000,0.006759649,0.0047363057,-0.00053600786
1611208000,1611208000,-0.0023861914,-0.0005162824,-0.00030870532
1611228000,1611228000,-0.0031459355,0.0037719253,-0.0005646297
1611248000,1611248000,3.159023e-05,0.006400455,-0.00044459268
1611268000,1611268000,0.0014229112,0.008139061,-0.00073126977
1611284000,1611284000,-0.00089872733,0.0011792153,-0.0006903417
1611308000,1611308000,-0.0021913438,0.004280712,-0.00022087
1611328000,1611328000,0.0012080235,-0.0031377338,-0.00012320837
1611344000,1611344000,-0.0021918593,0.003464818,-9.2166214e-05
1611368000,1611368000,-0.000737161,0.0023195965,9.389686e-05
