timestamp,timestamp_sample,gps_hvel[0],gps_hvel[1],gps_vvel,gps_hpos[0],gps_hpos[1],gps_vpos,ev_hvel[0],ev_hvel[1],ev_vvel,ev_hpos[0],ev_hpos[1],ev_vpos,rng_vpos,baro_vpos,aux_hvel[0],aux_hvel[1],flow[0],flow[1],heading,mag_field[0],mag_field[1],mag_field[2],gravity[0],gravity[1],gravity[2],drag[0],drag[1],airspeed,beta,hagl,hagl_rate
1592244000,1592088000,0.104766406,0.10495723,0.20775364,1.1189144,1.1193776,1.0839912,0.0,0.0,0.0,0.0,0.0,0.0,0.0,12.452657,0.0,0.0,0.0,0.0,0.0025113393,0.0025113393,0.0025035578,0.0025017667,1.0000428,1.0000426,1.0,0.0,0.0,0.0,0.0,0.0,0.0
1592252000,1592096000,0.104766406,0.10495723,0.20775364,1.1189144,1.1193776,1.0839912,0.0,0.0,0.0,0.0,0.0,0.0,0.0,12.452657,0.0,0.0,0.0,0.0,0.0025113393,0.0025113393,0.0025035578,0.0025017667,1.0000428,1.0000426,1.0,0.0,0.0,0.0,0.0,0.0,0.0
1592260000,1592104000,0.104766406,0.10495723,0.20775364,1.1189144,1.1193776,1.0839912,0.0,0.0,0.0,0.0,0.0,0.0,0.0,12.452657,0.0,0.0,0.0,0.0,0.0025113393,0.0025113393,0.0025035578,0.0025017667,1.0000428,1.0000426,1.0,0.0,0.0,0.0,0.0,0.0,0.0
1592268000,1592112000,0.104766406,0.10495723,0.20775364,1.1189144,1.1193776,1.0839912,0.0,0.0,0.0,0.0,0.0,0.0,0.0,12.452657,0.0,0.0,0.0,0.0,0.0025113393,0.0025113393,0.0025035578,0.0025017667,1.0000428,1.0000426,1.0,0.0,0.0,0.0,0.0,0.0,0.0
1592276000,1592120000,0.104766406,0.10495723,0.20775364,1.1189144,1.1193776,1.0839912,0.0,0.0,0.0,0.0,0.0,0.0,0.0,12.452657,0.0,0.0,0.0,0.0,0.0025113393,0.0025113393,0.0025035578,0.0025017667,1.0000429,1.0000427,1.0,0.0,0.0,0.0,0.0,0.0,0.0
1592284000,1592128000,0.104766406,0.10495723,0.20775364,1.1189144,1.1193776,1.0839912,0.0,0.0,0.0,0.0,0.0,0.0,0.0,12.45419,0.0,0.0,0.0,0.0,0.0025113393,0.0025113393,0.0025035578,0.0025017667,1.0000429,1.0000427,1.0,0.0,0.0,0.0,0.0,0.0,0.0
1592300000,1592144000,0.104766406,0.10495723,0.20775364,1.1189144,1.1193776,1.0839912,0.0,0.0,0.0,0.0,0.0,0.0,0.0,12.45419,0.0,0.0,0.0,0.0,0.0025113393,0.0025113393,0.0025035578,0.0025017667,1.0000429,1.0000427,1.0,0.0,0.0,0.0,0.0,0.0,0.0
1592308000,1592152000,0.104766406,0.10495723,0.20775364,1.1189144,1.1193776,1.0839912,0.0,0.0,0.0,0.0,0.0,0.0,0.0,12.45419,0.0,0.0,0.0,0.0,0.0025113393,0.0025113393,0.0025035578,0.0025017667,1.0000429,1.0000427,1.0,0.0,0.0,0.0,0.0,0.0,0.0
1592316000,1592160000,0.104766406,0.10495723,0.20775364,1.1189144,1.1193776,1.0839912,0.0,0.0,0.0,0.0,0.0,0.0,0.0,12.45419,0.0,0.0,0.0,0.0,0.002511362,0.002511362,0.0025035962,0.0025017764,1.000043,1.0000427,1.0,0.0,0.0,0.0,0.0,0.0,0.0
1592324000,1592168000,0.104766406,0.10495723,0.20775364,1.1189144,1.1193776,1.0839912,0.0,0.0,0.0,0.0,0.0,0.0,0.0,12.45419,0.0,0.0,0.0,0.0,0.002511362,0.002511362,0.0025035962,0.0025017764,1.000043,1.0000428,1.0,0.0,0.0,0.0,0.0,0.0,0.0
1592340000,1592184000,0.104766406,0.10495723,0.20775364,1.1189144,1.1193776,1.0839912,0.0,0.0,0.0,0.0,0.0,0.0,0.0,12.45419,0.0,0.0,0.0,0.0,0.002511362,0.002511362,0.0025035962,0.0025017764,1.000043,1.0000428,1.0,0.0,0.0,0.0,0.0,0.0,0.0
1592348000,1592192000,0.104766406,0.10495723,0.20775364,1.1189144,1.1193776,1.0839912,0.0,0.0,0.0,0.0,0.0,0.0,0.0,12.45419,0.0,0.0,0.0,0.0,0.002511362,0.002511362,0.0025035962,0.0025017764,1.000043,1.0000428,1.0,0.0,0.0,0.0,0.0,0.0,0.0
1592356000,1592200000,0.104766406,0.10495723,0.20775364,1.1189144,1.1193776,1.0839912,0.0,0.0,0.0,0.0,0.0,0.0,0.0,12.455743,0.0,0.0,0.0,0.0,0.002511362,0.002511362,0.0025035962,0.0025017764,1.0000432,1.0000429,1.0,0.0,0.0,0.0,0.0,0.0,0.0
1592364000,1592208000,0.104766406,0.10495723,0.20775364,1.1189144,1.1193776,1.0839912,0.0,0.0,0.0,0.0,0.0,0.0,0.0,12.455743,0.0,0.0,0.0,0.0,0.002511362,0.002511362,0.0025035962,0.0025017764,1.0000432,1.0000429,1.0,0.0,0.0,0.0,0.0,0.0,0.0
1592380000,1592224000,0.104766406,0.10495723,0.20775364,1.1189144,1.1193776,1.0839912,0.0,0.0,0.0,0.0,0.0,0.0,0.0,12.455743,0.0,0.0,0.0,0.0,0.002511362,0.002511362,0.0025035962,0.0025017764,1.0000432,1.0000429,1.0,0.0,0.0,0.0,0.0,0.0,0.0
1592388000,1592232000,0.104766406,0.10495723,0.20775364,1.1189144,1.1193776,1.0839912,0.0,0.0,0.0,0.0,0.0,0.0,0.0,12.455743,0.0,0.0,0.0,0.0,0.0025113889,0.0025113889,0.0025036328,0.0025017858,1.0000432,1.0000429,1.0,0.0,0.0,0.0,0.0,0.0,0.0
1592396000,1592240000,0.10492761,0.10512415,0.20776875,1.1199572,1.1204379,1.0848043,0.0,0.0,0.0,0.0,0.0,0.0,0.0,12.455743,0.0,0.0,0.0,0.0,0.0025113889,0.0025113889,0.0025036328,0.0025017858,1.0000421,1.0000418,1.0,0.0,0.0,0.0,0.0,0.0,0.0
1592404000,1592248000,0.10492761,0.10512415,0.20776875,1.1199572,1.1204379,1.0848043,0.0,0.0,0.0,0.0,0.0,0.0,0.0,12.455743,0.0,0.0,0.0,0.0,0.0025113889,0.0025113889,0.0025036328,0.0025017858,1.0000421,1.0000418,1.0,0.0,0.0,0.0,0.0,0.0,0.0
1592420000,1592264000,0.10492761,0.10512415,0.20776875,1.1199572,1.1204379,1.0848043,0.0,0.0,0.0,0.0,0.0,0.0,0.0,12.455743,0.0,0.0,0.0,0.0,0.0025113889,0.0025113889,0.0025036328,0.0025017858,1.0000421,1.000042,1.0,0.0,0.0,0.0,0.0,0.0,0.0
1592428000,1592272000,0.10492761,0.10512415,0.20776875,1.1199572,1.1204379,1.0848043,0.0,0.0,0.0,0.0,0.0,0.0,0.0,12.449558,0.0,0.0,0.0,0.0,0.0025113889,0.0025113889,0.0025036328,0.0025017858,1.0000422,1.000042,1.0,0.0,0.0,0.0,0.0,0.0,0.0
1592436000,1592280000,0.10492761,0.10512415,0.20776875,1.1199572,1.1204379,1.0848043,0.0,0.0,0.0,0.0,0.0,0.0,0.0,12.449558,0.0,0.0,0.0,0.0,0.0025113889,0.0025113889,0.0025036328,0.0025017858,1.0000422,1.000042,1.0,0.0,0.0,0.0,0.0,0.0,0.0
1592444000,1592288000,0.10492761,0.10512415,0.20776875,1.1199572,1.1204379,1.0848043,0.0,0.0,0.0,0.0,0.0,0.0,0.0,12.449558,0.0,0.0,0.0,0.0,0.0025113889,0.0025113889,0.0025036328,0.0025017858,1.0000422,1.000042,1.0,0.0,0.0,0.0,0.0,0.0,0.0
1592460000,1592304000,0.10492761,0.10512415,0.20776875,1.1199572,1.1204379,1.0848043,0.0,0.0,0.0,0.0,0.0,0.0,0.0,12.449558,0.0,0.0,0.0,0.0,0.0025112783,0.0025112783,0.0025034717,0.002501745,1.0000422,1.000042,1.0,0.0,0.0,0.0,0.0,0.0,0.0
1592468000,1592312000,0.10492761,0.10512415,0.20776875,1.1199572,1.1204379,1.0848043,0.0,0.0,0.0,0.0,0.0,0.0,0.0,12.449558,0.0,0.0,0.0,0.0,0.0025112783,0.0025112783,0.0025034717,0.002501745,1.0000423,1.0000421,1.0,0.0,0.0,0.0,0.0,0.0,0.0
1592476000,1592320000,0.10492761,0.10512415,0.20776875,1.1199572,1.1204379,1.0848043,0.0,0.0,0.0,0.0,0.0,0.0,0.0,12.449558,0.0,0.0,0.0,0.0,0.0025112783,0.0025112783,0.0025034717,0.002501745,1.0000423,1.0000421,1.0,0.0,0.0,0.0,0.0,0.0,0.0
1592484000,1592328000,0.10492761,0.10512415,0.20776875,1.1199572,1.1204379,1.0848043,0.0,0.0,0.0,0.0,0.0,0.0,0.0,12.449558,0.0,0.0,0.0,0.0,0.0025112783,0.0025112783,0.0025034717,0.002501745,1.0000423,1.0000421,1.0,0.0,0.0,0.0,0.0,0.0,0.0
1592500000,1592344000,0.10492761,0.10512415,0.20776875,1.1199572,1.1204379,1.0848043,0.0,0.0,0.0,0.0,0.0,0.0,0.0,12.451039,0.0,0.0,0.0,0.0,0.0025112783,0.0025112783,0.0025034717,0.002501745,1.0000423,1.0000422,1.0,0.0,0.0,0.0,0.0,0.0,0.0
1592508000,1592352000,0.10492761,0.10512415,0.20776875,1.1199572,1.1204379,1.0848043,0.0,0.0,0.0,0.0,0.0,0.0,0.0,12.451039,0.0,0.0,0.0,0.0,0.0025112783,0.0025112783,0.0025034717,0.002501745,1.0000424,1.0000422,1.0,0.0,0.0,0.0,0.0,0.0,0.0
1592516000,1592360000,0.10492761,0.10512415,0.20776875,1.1199572,1.1204379,1.0848043,0.0,0.0,0.0,0.0,0.0,0.0,0.0,12.451039,0.0,0.0,0.0,0.0,0.0025112783,0.0025112783,0.0025034717,0.002501745,1.0000424,1.0000422,1.0,0.0,0.0,0.0,0.0,0.0,0.0
1592524000,1592368000,0.10492761,0.10512415,0.20776875,1.1199572,1.1204379,1.0848043,0.0,0.0,0.0,0.0,0.0,0.0,0.0,12.451039,0.0,0.0,0.0,0.0,0.0025112783,0.0025112783,0.0025034717,0.002501745,1.0000424,1.0000422,1.0,0.0,0.0,0.0,0.0,0.0,0.0
1592540000,1592384000,0.10492761,0.10512415,0.20776875,1.1199572,1.1204379,1.0848043,0.0,0.0,0.0,0.0,0.0,0.0,0.0,12.451039,0.0,0.0,0.0,0.0,0.002511305,0.002511305,0.0025035087,0.0025017548,1.0000424,1.0000422,1.0,0.0,0.0,0.0,0.0,0.0,0.0
1592548000,1592392000,0.10492761,0.10512415,0.20776875,1.1199572,1.1204379,1.0848043,0.0,0.0,0.0,0.0,0.0,0.0,0.0,12.451039,0.0,0.0,0.0,0.0,0.002511305,0.002511305,0.0025035087,0.0025017548,1.0000426,1.0000423,1.0,0.0,0.0,0.0,0.0,0.0,0.0
1592556000,1592400000,0.10492761,0.10512415,0.20776875,1.1199572,1.1204379,1.0848043,0.0,0.0,0.0,0.0,0.0,0.0,0.0,12.451039,0.0,0.0,0.0,0.0,0.002511305,0.002511305,0.0025035087,0.0025017548,1.0000426,1.0000423,1.0,0.0,0.0,0.0,0.0,0.0,0.0
1592564000,1592408000,0.10492761,0.10512415,0.20776875,1.1199572,1.1204379,1.0848043,0.0,0.0,0.0,0.0,0.0,0.0,0.0,12.451039,0.0,0.0,0.0,0.0,0.002511305,0.002511305,0.0025035087,0.0025017548,1.0000426,1.0000423,1.0,0.0,0.0,0.0,0.0,0.0,0.0
1592580000,1592424000,0.10492761,0.10512415,0.20776875,1.1199572,1.1204379,1.0848043,0.0,0.0,0.0,0.0,0.0,0.0,0.0,12.45254,0.0,0.0,0.0,0.0,0.002511305,0.002511305,0.0025035087,0.0025017548,1.0000426,1.0000424,1.0,0.0,0.0,0.0,0.0,0.0,0.0
1592588000,1592432000,0.10492761,0.10512415,0.20776875,1.1199572,1.1204379,1.0848043,0.0,0.0,0.0,0.0,0.0,0.0,0.0,12.45254,0.0,0.0,0.0,0.0,0.002511305,0.002511305,0.0025035087,0.0025017548,1.0000427,1.0000424,1.0,0.0,0.0,0.0,0.0,0.0,0.0
1592596000,1592440000,0.10492761,0.10512415,0.20776875,1.1199572,1.1204379,1.0848043,0.0,0.0,0.0,0.0,0.0,0.0,0.0,12.45254,0.0,0.0,0.0,0.0,0.002511305,0.002511305,0.0025035087,0.0025017548,1.0000427,1.0000424,1.0,0.0,0.0,0.0,0.0,0.0,0.0
1592604000,1592448000,0.10492761,0.10512415,0.20776875,1.1199572,1.1204379,1.0848043,0.0,0.0,0.0,0.0,0.0,0.0,0.0,12.45254,0.0,0.0,0.0,0.0,0.0025113309,0.0025113309,0.002503545,0.0025017643,1.0000427,1.0000424,1.0,0.0,0.0,0.0,0.0,0.0,0.0
1592620000,1592464000,0.10492761,0.10512415,0.20776875,1.1199572,1.1204379,1.0848043,0.0,0.0,0.0,0.0,0.0,0.0,0.0,12.45254,0.0,0.0,0.0,0.0,0.0025113309,0.0025113309,0.002503545,0.0025017643,1.0000427,1.0000424,1.0,0.0,0.0,0.0,0.0,0.0,0.0
1592628000,1592472000,0.10492761,0.10512415,0.20776875,1.1199572,1.1204379,1.0848043,0.0,0.0,0.0,0.0,0.0,0.0,0.0,12.45254,0.0,0.0,0.0,0.0,0.0025113309,0.0025113309,0.002503545,0.0025017643,1.0000428,1.0000426,1.0,0.0,0.0,0.0,0.0,0.0,0.0
1592636000,1592480000,0.10492761,0.10512415,0.20776875,1.1199572,1.1204379,1.0848043,0.0,0.0,0.0,0.0,0.0,0.0,0.0,12.45254,0.0,0.0,0.0,0.0,0.0025113309,0.0025113309,0.002503545,0.0025017643,1.0000428,1.0000426,1.0,0.0,0.0,0.0,0.0,0.0,0.0
1592644000,1592488000,0.10492761,0.10512415,0.20776875,1.1199572,1.1204379,1.0848043,0.0,0.0,0.0,0.0,0.0,0.0,0.0,12.454062,0.0,0.0,0.0,0.0,0.0025113309,0.0025113309,0.002503545,0.0025017643,1.0000428,1.0000426,1.0,0.0,0.0,0.0,0.0,0.0,0.0
1592660000,1592504000,0.10492761,0.10512415,0.20776875,1.1199572,1.1204379,1.0848043,0.0,0.0,0.0,0.0,0.0,0.0,0.0,12.454062,0.0,0.0,0.0,0.0,0.0025113309,0.0025113309,0.002503545,0.0025017643,1.0000429,1.0000427,1.0,0.0,0.0,0.0,0.0,0.0,0.0
1592668000,1592512000,0.10492761,0.10512415,0.20776875,1.1199572,1.1204379,1.0848043,0.0,0.0,0.0,0.0,0.0,0.0,0.0,12.454062,0.0,0.0,0.0,0.0,0.0025113444,0.0025113444,0.002503576,0.0025017725,1.0000429,1.0000427,1.0,0.0,0.0,0.0,0.0,0.0,0.0
1592676000,1592520000,0.10492761,0.10512415,0.20776875,1.1199572,1.1204379,1.0848043,0.0,0.0,0.0,0.0,0.0,0.0,0.0,12.454062,0.0,0.0,0.0,0.0,0.0025113444,0.0025113444,0.002503576,0.0025017725,1.0000429,1.0000427,1.0,0.0,0.0,0.0,0.0,0.0,0.0
1592684000,1592528000,0.10492761,0.10512415,0.20776875,1.1199572,1.1204379,1.0848043,0.0,0.0,0.0,0.0,0.0,0.0,0.0,12.454062,0.0,0.0,0.0,0.0,0.0025113444,0.0025113444,0.002503576,0.0025017725,1.0000429,1.0000427,1.0,0.0,0.0,0.0,0.0,0.0,0.0
1592700000,1592544000,0.10492761,0.10512415,0.20776875,1.1199572,1.1204379,1.0848043,0.0,0.0,0.0,0.0,0.0,0.0,0.0,12.454062,0.0,0.0,0.0,0.0,0.0025113444,0.0025113444,0.002503576,0.0025017725,1.000043,1.0000428,1.0,0.0,0.0,0.0,0.0,0.0,0.0
1592708000,1592552000,0.10492761,0.10512415,0.20776875,1.1199572,1.1204379,1.0848043,0.0,0.0,0.0,0.0,0.0,0.0,0.0,12.454062,0.0,0.0,0.0,0.0,0.0025113444,0.0025113444,0.002503576,0.0025017725,1.000043,1.0000428,1.0,0.0,0.0,0.0,0.0,0.0,0.0
1592716000,1592560000,0.10492761,0.10512415,0.20776875,1.1199572,1.1204379,1.0848043,0.0,0.0,0.0,0.0,0.0,0.0,0.0,12.455606,0.0,0.0,0.0,0.0,0.0025113444,0.0025113444,0.002503576,0.0025017725,1.000043,1.0000428,1.0,0.0,0.0,0.0,0.0,0.0,0.0
1592724000,1592568000,0.10492761,0.10512415,0.20776875,1.1199572,1.1204379,1.0848043,0.0,0.0,0.0,0.0,0.0,0.0,0.0,12.455606,0.0,0.0,0.0,0.0,0.0025113444,0.0025113444,0.002503576,0.0025017725,1.000043,1.0000428,1.0,0.0,0.0,0.0,0.0,0.0,0.0
1592740000,1592584000,0.10492761,0.10512415,0.20776875,1.1199572,1.1204379,1.0848043,0.0,0.0,0.0,0.0,0.0,0.0,0.0,12.455606,0.0,0.0,0.0,0.0,0.0025113695,0.0025113695,0.0025036149,0.002501782,1.0000432,1.0000428,1.0,0.0,0.0,0.0,0.0,0.0,0.0
1592748000,1592592000,0.10492761,0.10512415,0.20776875,1.1199572,1.1204379,1.0848043,0.0,0.0,0.0,0.0,0.0,0.0,0.0,12.455606,0.0,0.0,0.0,0.0,0.0025113695,0.0025113695,0.0025036149,0.002501782,1.0000432,1.0000429,1.0,0.0,0.0,0.0,0.0,0.0,0.0
1592756000,1592600000,0.10492761,0.10512415,0.20776875,1.1199572,1.1204379,1.0848043,0.0,0.0,0.0,0.0,0.0,0.0,0.0,12.455606,0.0,0.0,0.0,0.0,0.0025113695,0.0025113695,0.0025036149,0.002501782,1.0000432,1.0000429,1.0,0.0,0.0,0.0,0.0,0.0,0.0
1592764000,1592608000,0.10492761,0.10512415,0.20776875,1.1199572,1.1204379,1.0848043,0.0,0.0,0.0,0.0,0.0,0.0,0.0,12.455606,0.0,0.0,0.0,0.0,0.0025113695,0.0025113695,0.0025036149,0.002501782,1.0000432,1.0000429,1.0,0.0,0.0,0.0,0.0,0.0,0.0
1592780000,1592624000,0.10492761,0.10512415,0.20776875,1.1199572,1.1204379,1.0848043,0.0,0.0,0.0,0.0,0.0,0.0,0.0,12.455606,0.0,0.0,0.0,0.0,0.0025113695,0.0025113695,0.0025036149,0.002501782,1.0000433,1.000043,1.0,0.0,0.0,0.0,0.0,0.0,0.0
1592788000,1592632000,0.10492761,0.10512415,0.20776875,1.1199572,1.1204379,1.0848043,0.0,0.0,0.0,0.0,0.0,0.0,0.0,12.45717,0.0,0.0,0.0,0.0,0.0025113695,0.0025113695,0.0025036149,0.002501782,1.0000433,1.000043,1.0,0.0,0.0,0.0,0.0,0.0,0.0
1592796000,1592640000,0.10506224,0.10526024,0.2077788,1.1208857,1.1213734,1.0849892,0.0,0.0,0.0,0.0,0.0,0.0,0.0,12.45717,0.0,0.0,0.0,0.0,0.0025113695,0.0025113695,0.0025036149,0.002501782,1.0000421,1.0000418,1.0,0.0,0.0,0.0,0.0,0.0,0.0
1592804000,1592648000,0.10506224,0.10526024,0.2077788,1.1208857,1.1213734,1.0849892,0.0,0.0,0.0,0.0,0.0,0.0,0.0,12.45717,0.0,0.0,0.0,0.0,0.002511255,0.002511255,0.0025034465,0.0025017394,1.0000421,1.0000418,1.0,0.0,0.0,0.0,0.0,0.0,0.0
1592820000,1592664000,0.10506224,0.10526024,0.2077788,1.1208857,1.1213734,1.0849892,0.0,0.0,0.0,0.0,0.0,0.0,0.0,12.45717,0.0,0.0,0.0,0.0,0.002511255,0.002511255,0.0025034465,0.0025017394,1.0000422,1.000042,1.0,0.0,0.0,0.0,0.0,0.0,0.0
1592828000,1592672000,0.10506224,0.10526024,0.2077788,1.1208857,1.1213734,1.0849892,0.0,0.0,0.0,0.0,0.0,0.0,0.0,12.45717,0.0,0.0,0.0,0.0,0.002511255,0.002511255,0.0025034465,0.0025017394,1.0000422,1.000042,1.0,0.0,0.0,0.0,0.0,0.0,0.0
1592836000,1592680000,0.10506224,0.10526024,0.2077788,1.1208857,1.1213734,1.0849892,0.0,0.0,0.0,0.0,0.0,0.0,0.0,12.45717,0.0,0.0,0.0,0.0,0.002511255,0.002511255,0.0025034465,0.0025017394,1.0000422,1.000042,1.0,0.0,0.0,0.0,0.0,0.0,0.0
1592844000,1592688000,0.10506224,0.10526024,0.2077788,1.1208857,1.1213734,1.0849892,0.0,0.0,0.0,0.0,0.0,0.0,0.0,12.45717,0.0,0.0,0.0,0.0,0.002511255,0.002511255,0.0025034465,0.0025017394,1.0000422,1.000042,1.0,0.0,0.0,0.0,0.0,0.0,0.0
1592860000,1592704000,0.10506224,0.10526024,0.2077788,1.1208857,1.1213734,1.0849892,0.0,0.0,0.0,0.0,0.0,0.0,0.0,12.450865,0.0,0.0,0.0,0.0,0.002511255,0.002511255,0.0025034465,0.0025017394,1.0000423,1.0000421,1.0,0.0,0.0,0.0,0.0,0.0,0.0
1592868000,1592712000,0.10506224,0.10526024,0.2077788,1.1208857,1.1213734,1.0849892,0.0,0.0,0.0,0.0,0.0,0.0,0.0,12.450865,0.0,0.0,0.0,0.0,0.002511255,0.002511255,0.0025034465,0.0025017394,1.0000423,1.0000421,1.0,0.0,0.0,0.0,0.0,0.0,0.0
1592876000,1592720000,0.10506224,0.10526024,0.2077788,1.1208857,1.1213734,1.0849892,0.0,0.0,0.0,0.0,0.0,0.0,0.0,12.450865,0.0,0.0,0.0,0.0,0.0025112776,0.0025112776,0.0025034824,0.002501749,1.0000423,1.0000421,1.0,0.0,0.0,0.0,0.0,0.0,0.0
1592884000,1592728000,0.10506224,0.10526024,0.2077788,1.1208857,1.1213734,1.0849892,0.0,0.0,0.0,0.0,0.0,0.0,0.0,12.450865,0.0,0.0,0.0,0.0,0.0025112776,0.0025112776,0.0025034824,0.002501749,1.0000423,1.0000421,1.0,0.0,0.0,0.0,0.0,0.0,0.0
1592900000,1592744000,0.10506224,0.10526024,0.2077788,1.1208857,1.1213734,1.0849892,0.0,0.0,0.0,0.0,0.0,0.0,0.0,12.450865,0.0,0.0,0.0,0.0,0.0025112776,0.0025112776,0.0025034824,0.002501749,1.0000424,1.0000422,1.0,0.0,0.0,0.0,0.0,0.0,0.0
1592908000,1592752000,0.10506224,0.10526024,0.2077788,1.1208857,1.1213734,1.0849892,0.0,0.0,0.0,0.0,0.0,0.0,0.0,12.450865,0.0,0.0,0.0,0.0,0.0025112776,0.0025112776,0.0025034824,0.002501749,1.0000424,1.0000422,1.0,0.0,0.0,0.0,0.0,0.0,0.0
1592916000,1592760000,0.10506224,0.10526024,0.2077788,1.1208857,1.1213734,1.0849892,0.0,0.0,0.0,0.0,0.0,0.0,0.0,12.450865,0.0,0.0,0.0,0.0,0.0025112776,0.0025112776,0.0025034824,0.002501749,1.0000424,1.0000422,1.0,0.0,0.0,0.0,0.0,0.0,0.0
1592924000,1592768000,0.10506224,0.10526024,0.2077788,1.1208857,1.1213734,1.0849892,0.0,0.0,0.0,0.0,0.0,0.0,0.0,12.450865,0.0,0.0,0.0,0.0,0.0025112776,0.0025112776,0.0025034824,0.002501749,1.0000424,1.0000422,1.0,0.0,0.0,0.0,0.0,0.0,0.0
1592940000,1592784000,0.10506224,0.10526024,0.2077788,1.1208857,1.1213734,1.0849892,0.0,0.0,0.0,0.0,0.0,0.0,0.0,12.452354,0.0,0.0,0.0,0.0,0.0025112776,0.0025112776,0.0025034824,0.002501749,1.0000426,1.0000423,1.0,0.0,0.0,0.0,0.0,0.0,0.0
1592948000,1592792000,0.10506224,0.10526024,0.2077788,1.1208857,1.1213734,1.0849892,0.0,0.0,0.0,0.0,0.0,0.0,0.0,12.452354,0.0,0.0,0.0,0.0,0.0025113055,0.0025113055,0.0025035194,0.002501759,1.0000426,1.0000423,1.0,0.0,0.0,0.0,0.0,0.0,0.0
1592956000,1592800000,0.10506224,0.10526024,0.2077788,1.1208857,1.1213734,1.0849892,0.0,0.0,0.0,0.0,0.0,0.0,0.0,12.452354,0.0,0.0,0.0,0.0,0.0025113055,0.0025113055,0.0025035194,0.002501759,1.0000426,1.0000423,1.0,0.0,0.0,0.0,0.0,0.0,0.0
1592964000,1592808000,0.10506224,0.10526024,0.2077788,1.1208857,1.1213734,1.0849892,0.0,0.0,0.0,0.0,0.0,0.0,0.0,12.452354,0.0,0.0,0.0,0.0,0.0025113055,0.0025113055,0.0025035194,0.002501759,1.0000426,1.0000423,1.0,0.0,0.0,0.0,0.0,0.0,0.0
1592980000,1592824000,0.10506224,0.10526024,0.2077788,1.1208857,1.1213734,1.0849892,0.0,0.0,0.0,0.0,0.0,0.0,0.0,12.452354,0.0,0.0,0.0,0.0,0.0025113055,0.0025113055,0.0025035194,0.002501759,1.0000427,1.0000424,1.0,0.0,0.0,0.0,0.0,0.0,0.0
1592988000,1592832000,0.10506224,0.10526024,0.2077788,1.1208857,1.1213734,1.0849892,0.0,0.0,0.0,0.0,0.0,0.0,0.0,12.452354,0.0,0.0,0.0,0.0,0.0025113055,0.0025113055,0.0025035194,0.002501759,1.0000427,1.0000424,1.0,0.0,0.0,0.0,0.0,0.0,0.0
1592996000,1592840000,0.10506224,0.10526024,0.2077788,1.1208857,1.1213734,1.0849892,0.0,0.0,0.0,0.0,0.0,0.0,0.0,12.452354,0.0,0.0,0.0,0.0,0.0025113055,0.0025113055,0.0025035194,0.002501759,1.0000427,1.0000424,1.0,0.0,0.0,0.0,0.0,0.0,0.0
1593004000,1592848000,0.10506224,0.10526024,0.2077788,1.1208857,1.1213734,1.0849892,0.0,0.0,0.0,0.0,0.0,0.0,0.0,12.453867,0.0,0.0,0.0,0.0,0.0025113055,0.0025113055,0.0025035194,0.002501759,1.0000427,1.0000424,1.0,0.0,0.0,0.0,0.0,0.0,0.0
1593020000,1592864000,0.10506224,0.10526024,0.2077788,1.1208857,1.1213734,1.0849892,0.0,0.0,0.0,0.0,0.0,0.0,0.0,12.453867,0.0,0.0,0.0,0.0,0.0025113309,0.0025113309,0.0025035553,0.0025017678,1.0000428,1.0000426,1.0,0.0,0.0,0.0,0.0,0.0,0.0
1593028000,1592872000,0.10506224,0.10526024,0.2077788,1.1208857,1.1213734,1.0849892,0.0,0.0,0.0,0.0,0.0,0.0,0.0,12.453867,0.0,0.0,0.0,0.0,0.0025113309,0.0025113309,0.0025035553,0.0025017678,1.0000428,1.0000426,1.0,0.0,0.0,0.0,0.0,0.0,0.0
1593036000,1592880000,0.10506224,0.10526024,0.2077788,1.1208857,1.1213734,1.0849892,0.0,0.0,0.0,0.0,0.0,0.0,0.0,12.453867,0.0,0.0,0.0,0.0,0.0025113309,0.0025113309,0.0025035553,0.0025017678,1.0000428,1.0000426,1.0,0.0,0.0,0.0,0.0,0.0,0.0
1593044000,1592888000,0.10506224,0.10526024,0.2077788,1.1208857,1.1213734,1.0849892,0.0,0.0,0.0,0.0,0.0,0.0,0.0,12.453867,0.0,0.0,0.0,0.0,0.0025113309,0.0025113309,0.0025035553,0.0025017678,1.0000428,1.0000426,1.0,0.0,0.0,0.0,0.0,0.0,0.0
1593060000,1592904000,0.10506224,0.10526024,0.2077788,1.1208857,1.1213734,1.0849892,0.0,0.0,0.0,0.0,0.0,0.0,0.0,12.45467,0.0,0.0,0.0,0.0,0.0025113309,0.0025113309,0.0025035553,0.0025017678,1.0000429,1.0000427,1.0,0.0,0.0,0.0,0.0,0.0,0.0
1593068000,1592912000,0.10506224,0.10526024,0.2077788,1.1208857,1.1213734,1.0849892,0.0,0.0,0.0,0.0,0.0,0.0,0.0,12.45467,0.0,0.0,0.0,0.0,0.0025113309,0.0025113309,0.0025035553,0.0025017678,1.0000429,1.0000427,1.0,0.0,0.0,0.0,0.0,0.0,0.0
1593076000,1592920000,0.10506224,0.10526024,0.2077788,1.1208857,1.1213734,1.0849892,0.0,0.0,0.0,0.0,0.0,0.0,0.0,12.45467,0.0,0.0,0.0,0.0,0.0025113309,0.0025113309,0.0025035553,0.0025017678,1.0000429,1.0000427,1.0,0.0,0.0,0.0,0.0,0.0,0.0
1593084000,1592928000,0.10506224,0.10526024,0.2077788,1.1208857,1.1213734,1.0849892,0.0,0.0,0.0,0.0,0.0,0.0,0.0,12.45467,0.0,0.0,0.0,0.0,0.002511344,0.002511344,0.0025035879,0.0025017757,1.0000429,1.0000427,1.0,0.0,0.0,0.0,0.0,0.0,0.0
1593100000,1592944000,0.10506224,0.10526024,0.2077788,1.1208857,1.1213734,1.0849892,0.0,0.0,0.0,0.0,0.0,0.0,0.0,12.45467,0.0,0.0,0.0,0.0,0.002511344,0.002511344,0.0025035879,0.0025017757,1.000043,1.0000428,1.0,0.0,0.0,0.0,0.0,0.0,0.0
1593108000,1592952000,0.10506224,0.10526024,0.2077788,1.1208857,1.1213734,1.0849892,0.0,0.0,0.0,0.0,0.0,0.0,0.0,12.45467,0.0,0.0,0.0,0.0,0.002511344,0.002511344,0.0025035879,0.0025017757,1.000043,1.0000428,1.0,0.0,0.0,0.0,0.0,0.0,0.0
1593116000,1592960000,0.10506224,0.10526024,0.2077788,1.1208857,1.1213734,1.0849892,0.0,0.0,0.0,0.0,0.0,0.0,0.0,12.45467,0.0,0.0,0.0,0.0,0.002511344,0.002511344,0.0025035879,0.0025017757,1.000043,1.0000428,1.0,0.0,0.0,0.0,0.0,0.0,0.0
1593124000,1592968000,0.10506224,0.10526024,0.2077788,1.1208857,1.1213734,1.0849892,0.0,0.0,0.0,0.0,0.0,0.0,0.0,12.455854,0.0,0.0,0.0,0.0,0.002511344,0.002511344,0.0025035879,0.0025017757,1.0000432,1.0000428,1.0,0.0,0.0,0.0,0.0,0.0,0.0
1593140000,1592984000,0.10506224,0.10526024,0.2077788,1.1208857,1.1213734,1.0849892,0.0,0.0,0.0,0.0,0.0,0.0,0.0,12.455854,0.0,0.0,0.0,0.0,0.002511344,0.002511344,0.0025035879,0.0025017757,1.0000432,1.0000429,1.0,0.0,0.0,0.0,0.0,0.0,0.0
1593148000,1592992000,0.10506224,0.10526024,0.2077788,1.1208857,1.1213734,1.0849892,0.0,0.0,0.0,0.0,0.0,0.0,0.0,12.455854,0.0,0.0,0.0,0.0,0.002511344,0.002511344,0.0025035879,0.0025017757,1.0000432,1.0000429,1.0,0.0,0.0,0.0,0.0,0.0,0.0
1593156000,1593000000,0.10506224,0.10526024,0.2077788,1.1208857,1.1213734,1.0849892,0.0,0.0,0.0,0.0,0.0,0.0,0.0,12.455854,0.0,0.0,0.0,0.0,0.0025113707,0.0025113707,0.0025036247,0.0025017853,1.0000432,1.0000429,1.0,0.0,0.0,0.0,0.0,0.0,0.0
1593164000,1593008000,0.10506224,0.10526024,0.2077788,1.1208857,1.1213734,1.0849892,0.0,0.0,0.0,0.0,0.0,0.0,0.0,12.455854,0.0,0.0,0.0,0.0,0.0025113707,0.0025113707,0.0025036247,0.0025017853,1.0000433,1.0000429,1.0,0.0,0.0,0.0,0.0,0.0,0.0
1593180000,1593024000,0.10506224,0.10526024,0.2077788,1.1208857,1.1213734,1.0849892,0.0,0.0,0.0,0.0,0.0,0.0,0.0,12.455854,0.0,0.0,0.0,0.0,0.0025113707,0.0025113707,0.0025036247,0.0025017853,1.0000433,1.000043,1.0,0.0,0.0,0.0,0.0,0.0,0.0
1593188000,1593032000,0.10506224,0.10526024,0.2077788,1.1208857,1.1213734,1.0849892,0.0,0.0,0.0,0.0,0.0,0.0,0.0,12.455854,0.0,0.0,0.0,0.0,0.0025113707,0.0025113707,0.0025036247,0.0025017853,1.0000433,1.000043,1.0,0.0,0.0,0.0,0.0,0.0,0.0
1593196000,1593040000,0.10514976,0.10534709,0.20780297,1.1216786,1.1221786,1.0851338,0.0,0.0,0.0,0.0,0.0,0.0,0.0,12.456369,0.0,0.0,0.0,0.0,0.0025113707,0.0025113707,0.0025036247,0.0025017853,1.0000421,1.0000418,1.0,0.0,0.0,0.0,0.0,0.0,0.0
1593204000,1593048000,0.10514976,0.10534709,0.20780297,1.1216786,1.1221786,1.0851338,0.0,0.0,0.0,0.0,0.0,0.0,0.0,12.456369,0.0,0.0,0.0,0.0,0.0025113707,0.0025113707,0.0025036247,0.0025017853,1.0000421,1.000042,1.0,0.0,0.0,0.0,0.0,0.0,0.0
1593220000,1593064000,0.10514976,0.10534709,0.20780297,1.1216786,1.1221786,1.0851338,0.0,0.0,0.0,0.0,0.0,0.0,0.0,12.456369,0.0,0.0,0.0,0.0,0.0025113707,0.0025113707,0.0025036247,0.0025017853,1.0000422,1.000042,1.0,0.0,0.0,0.0,0.0,0.0,0.0
1593228000,1593072000,0.10514976,0.10534709,0.20780297,1.1216786,1.1221786,1.0851338,0.0,0.0,0.0,0.0,0.0,0.0,0.0,12.456369,0.0,0.0,0.0,0.0,0.0025112638,0.0025112638,0.0025034575,0.0025017431,1.0000422,1.000042,1.0,0.0,0.0,0.0,0.0,0.0,0.0
1593236000,1593080000,0.10514976,0.10534709,0.20780297,1.1216786,1.1221786,1.0851338,0.0,0.0,0.0,0.0,0.0,0.0,0.0,12.456369,0.0,0.0,0.0,0.0,0.0025112638,0.0025112638,0.0025034575,0.0025017431,1.0000422,1.000042,1.0,0.0,0.0,0.0,0.0,0.0,0.0
1593244000,1593088000,0.10514976,0.10534709,0.20780297,1.1216786,1.1221786,1.0851338,0.0,0.0,0.0,0.0,0.0,0.0,0.0,12.456369,0.0,0.0,0.0,0.0,0.0025112638,0.0025112638,0.0025034575,0.0025017431,1.0000422,1.000042,1.0,0.0,0.0,0.0,0.0,0.0,0.0
1593260000,1593104000,0.10514976,0.10534709,0.20780297,1.1216786,1.1221786,1.0851338,0.0,0.0,0.0,0.0,0.0,0.0,0.0,12.456369,0.0,0.0,0.0,0.0,0.0025112638,0.0025112638,0.0025034575,0.0025017431,1.0000423,1.0000421,1.0,0.0,0.0,0.0,0.0,0.0,0.0
1593268000,1593112000,0.10514976,0.10534709,0.20780297,1.1216786,1.1221786,1.0851338,0.0,0.0,0.0,0.0,0.0,0.0,0.0,12.451077,0.0,0.0,0.0,0.0,0.0025112638,0.0025112638,0.0025034575,0.0025017431,1.0000423,1.0000421,1.0,0.0,0.0,0.0,0.0,0.0,0.0
1593276000,1593120000,0.10514976,0.10534709,0.20780297,1.1216786,1.1221786,1.0851338,0.0,0.0,0.0,0.0,0.0,0.0,0.0,12.451077,0.0,0.0,0.0,0.0,0.0025112638,0.0025112638,0.0025034575,0.0025017431,1.0000423,1.0000421,1.0,0.0,0.0,0.0,0.0,0.0,0.0
1593284000,1593128000,0.10514976,0.10534709,0.20780297,1.1216786,1.1221786,1.0851338,0.0,0.0,0.0,0.0,0.0,0.0,0.0,12.451077,0.0,0.0,0.0,0.0,0.0025112638,0.0025112638,0.0025034575,0.0025017431,1.0000424,1.0000422,1.0,0.0,0.0,0.0,0.0,0.0,0.0
1593300000,1593144000,0.10514976,0.10534709,0.20780297,1.1216786,1.1221786,1.0851338,0.0,0.0,0.0,0.0,0.0,0.0,0.0,12.451077,0.0,0.0,0.0,0.0,0.0025112855,0.0025112855,0.0025034936,0.0025017527,1.0000424,1.0000422,1.0,0.0,0.0,0.0,0.0,0.0,0.0
1593308000,1593152000,0.10514976,0.10534709,0.20780297,1.1216786,1.1221786,1.0851338,0.0,0.0,0.0,0.0,0.0,0.0,0.0,12.451077,0.0,0.0,0.0,0.0,0.0025112855,0.0025112855,0.0025034936,0.0025017527,1.0000424,1.0000422,1.0,0.0,0.0,0.0,0.0,0.0,0.0
1593316000,1593160000,0.10514976,0.10534709,0.20780297,1.1216786,1.1221786,1.0851338,0.0,0.0,0.0,0.0,0.0,0.0,0.0,12.451077,0.0,0.0,0.0,0.0,0.0025112855,0.0025112855,0.0025034936,0.0025017527,1.0000424,1.0000422,1.0,0.0,0.0,0.0,0.0,0.0,0.0
1593324000,1593168000,0.10514976,0.10534709,0.20780297,1.1216786,1.1221786,1.0851338,0.0,0.0,0.0,0.0,0.0,0.0,0.0,12.451863,0.0,0.0,0.0,0.0,0.0025112855,0.0025112855,0.0025034936,0.0025017527,1.0000426,1.0000422,1.0,0.0,0.0,0.0,0.0,0.0,0.0
1593340000,1593184000,0.10514976,0.10534709,0.20780297,1.1216786,1.1221786,1.0851338,0.0,0.0,0.0,0.0,0.0,0.0,0.0,12.451863,0.0,0.0,0.0,0.0,0.0025112855,0.0025112855,0.0025034936,0.0025017527,1.0000426,1.0000423,1.0,0.0,0.0,0.0,0.0,0.0,0.0
1593348000,1593192000,0.10514976,0.10534709,0.20780297,1.1216786,1.1221786,1.0851338,0.0,0.0,0.0,0.0,0.0,0.0,0.0,12.451863,0.0,0.0,0.0,0.0,0.0025112855,0.0025112855,0.0025034936,0.0025017527,1.0000426,1.0000423,1.0,0.0,0.0,0.0,0.0,0.0,0.0
1593356000,1593200000,0.10514976,0.10534709,0.20780297,1.1216786,1.1221786,1.0851338,0.0,0.0,0.0,0.0,0.0,0.0,0.0,12.451863,0.0,0.0,0.0,0.0,0.0025112855,0.0025112855,0.0025034936,0.0025017527,1.0000426,1.0000423,1.0,0.0,0.0,0.0,0.0,0.0,0.0
1593364000,1593208000,0.10514976,0.10534709,0.20780297,1.1216786,1.1221786,1.0851338,0.0,0.0,0.0,0.0,0.0,0.0,0.0,12.451863,0.0,0.0,0.0,0.0,0.0025112855,0.0025112855,0.0025034936,0.0025017527,1.0000427,1.0000424,1.0,0.0,0.0,0.0,0.0,0.0,0.0
1593380000,1593224000,0.10514976,0.10534709,0.20780297,1.1216786,1.1221786,1.0851338,0.0,0.0,0.0,0.0,0.0,0.0,0.0,12.451863,0.0,0.0,0.0,0.0,0.002511313,0.002511313,0.0025035301,0.0025017622,1.0000427,1.0000424,1.0,0.0,0.0,0.0,0.0,0.0,0.0
1593388000,1593232000,0.10514976,0.10534709,0.20780297,1.1216786,1.1221786,1.0851338,0.0,0.0,0.0,0.0,0.0,0.0,0.0,12.453022,0.0,0.0,0.0,0.0,0.002511313,0.002511313,0.0025035301,0.0025017622,1.0000427,1.0000424,1.0,0.0,0.0,0.0,0.0,0.0,0.0
1593396000,1593240000,0.10514976,0.10534709,0.20780297,1.1216786,1.1221786,1.0851338,0.0,0.0,0.0,0.0,0.0,0.0,0.0,12.453022,0.0,0.0,0.0,0.0,0.002511313,0.002511313,0.0025035301,0.0025017622,1.0000427,1.0000424,1.0,0.0,0.0,0.0,0.0,0.0,0.0
1593404000,1593248000,0.10514976,0.10534709,0.20780297,1.1216786,1.1221786,1.0851338,0.0,0.0,0.0,0.0,0.0,0.0,0.0,12.453022,0.0,0.0,0.0,0.0,0.002511313,0.002511313,0.0025035301,0.0025017622,1.0000428,1.0000426,1.0,0.0,0.0,0.0,0.0,0.0,0.0
1593420000,1593264000,0.10514976,0.10534709,0.20780297,1.1216786,1.1221786,1.0851338,0.0,0.0,0.0,0.0,0.0,0.0,0.0,12.453022,0.0,0.0,0.0,0.0,0.002511313,0.002511313,0.0025035301,0.0025017622,1.0000428,1.0000426,1.0,0.0,0.0,0.0,0.0,0.0,0.0
1593428000,1593272000,0.10514976,0.10534709,0.20780297,1.1216786,1.1221786,1.0851338,0.0,0.0,0.0,0.0,0.0,0.0,0.0,12.453022,0.0,0.0,0.0,0.0,0.002511313,0.002511313,0.0025035301,0.0025017622,1.0000428,1.0000426,1.0,0.0,0.0,0.0,0.0,0.0,0.0
1593436000,1593280000,0.10514976,0.10534709,0.20780297,1.1216786,1.1221786,1.0851338,0.0,0.0,0.0,0.0,0.0,0.0,0.0,12.453022,0.0,0.0,0.0,0.0,0.002511313,0.002511313,0.0025035301,0.0025017622,1.0000429,1.0000426,1.0,0.0,0.0,0.0,0.0,0.0,0.0
1593444000,1593288000,0.10514976,0.10534709,0.20780297,1.1216786,1.1221786,1.0851338,0.0,0.0,0.0,0.0,0.0,0.0,0.0,12.453834,0.0,0.0,0.0,0.0,0.0025113386,0.0025113386,0.0025035674,0.0025017716,1.0000429,1.0000426,1.0,0.0,0.0,0.0,0.0,0.0,0.0
1593460000,1593304000,0.10514976,0.10534709,0.20780297,1.1216786,1.1221786,1.0851338,0.0,0.0,0.0,0.0,0.0,0.0,0.0,12.453834,0.0,0.0,0.0,0.0,0.0025113386,0.0025113386,0.0025035674,0.0025017716,1.0000429,1.0000427,1.0,0.0,0.0,0.0,0.0,0.0,0.0
1593468000,1593312000,0.10514976,0.10534709,0.20780297,1.1216786,1.1221786,1.0851338,0.0,0.0,0.0,0.0,0.0,0.0,0.0,12.453834,0.0,0.0,0.0,0.0,0.0025113386,0.0025113386,0.0025035674,0.0025017716,1.0000429,1.0000427,1.0,0.0,0.0,0.0,0.0,0.0,0.0
1593476000,1593320000,0.10514976,0.10534709,0.20780297,1.1216786,1.1221786,1.0851338,0.0,0.0,0.0,0.0,0.0,0.0,0.0,12.453834,0.0,0.0,0.0,0.0,0.0025113386,0.0025113386,0.0025035674,0.0025017716,1.000043,1.0000427,1.0,0.0,0.0,0.0,0.0,0.0,0.0
1593484000,1593328000,0.10514976,0.10534709,0.20780297,1.1216786,1.1221786,1.0851338,0.0,0.0,0.0,0.0,0.0,0.0,0.0,12.453834,0.0,0.0,0.0,0.0,0.0025113386,0.0025113386,0.0025035674,0.0025017716,1.000043,1.0000428,1.0,0.0,0.0,0.0,0.0,0.0,0.0
1593500000,1593344000,0.10514976,0.10534709,0.20780297,1.1216786,1.1221786,1.0851338,0.0,0.0,0.0,0.0,0.0,0.0,0.0,12.453834,0.0,0.0,0.0,0.0,0.0025113386,0.0025113386,0.0025035674,0.0025017716,1.000043,1.0000428,1.0,0.0,0.0,0.0,0.0,0.0,0.0
1593508000,1593352000,0.10514976,0.10534709,0.20780297,1.1216786,1.1221786,1.0851338,0.0,0.0,0.0,0.0,0.0,0.0,0.0,12.455024,0.0,0.0,0.0,0.0,0.0025113523,0.0025113523,0.002503598,0.00250178,1.000043,1.0000428,1.0,0.0,0.0,0.0,0.0,0.0,0.0
1593516000,1593360000,0.10514976,0.10534709,0.20780297,1.1216786,1.1221786,1.0851338,0.0,0.0,0.0,0.0,0.0,0.0,0.0,12.455024,0.0,0.0,0.0,0.0,0.0025113523,0.0025113523,0.002503598,0.00250178,1.0000432,1.0000428,1.0,0.0,0.0,0.0,0.0,0.0,0.0
1593524000,1593368000,0.10514976,0.10534709,0.20780297,1.1216786,1.1221786,1.0851338,0.0,0.0,0.0,0.0,0.0,0.0,0.0,12.455024,0.0,0.0,0.0,0.0,0.0025113523,0.0025113523,0.002503598,0.00250178,1.0000432,1.0000428,1.0,0.0,0.0,0.0,0.0,0.0,0.0
1593540000,1593384000,0.10514976,0.10534709,0.20780297,1.1216786,1.1221786,1.0851338,0.0,0.0,0.0,0.0,0.0,0.0,0.0,12.455024,0.0,0.0,0.0,0.0,0.0025113523,0.0025113523,0.002503598,0.00250178,1.0000432,1.0000429,1.0,0.0,0.0,0.0,0.0,0.0,0.0
1593548000,1593392000,0.10514976,0.10534709,0.20780297,1.1216786,1.1221786,1.0851338,0.0,0.0,0.0,0.0,0.0,0.0,0.0,12.455024,0.0,0.0,0.0,0.0,0.0025113523,0.0025113523,0.002503598,0.00250178,1.0000432,1.0000429,1.0,0.0,0.0,0.0,0.0,0.0,0.0
1593556000,1593400000,0.10514976,0.10534709,0.20780297,1.1216786,1.1221786,1.0851338,0.0,0.0,0.0,0.0,0.0,0.0,0.0,12.455024,0.0,0.0,0.0,0.0,0.0025113523,0.0025113523,0.002503598,0.00250178,1.0000433,1.0000429,1.0,0.0,0.0,0.0,0.0,0.0,0.0
1593564000,1593408000,0.10514976,0.10534709,0.20780297,1.1216786,1.1221786,1.0851338,0.0,0.0,0.0,0.0,0.0,0.0,0.0,12.455024,0.0,0.0,0.0,0.0,0.0025113523,0.0025113523,0.002503598,0.00250178,1.0000433,1.000043,1.0,0.0,0.0,0.0,0.0,0.0,0.0
1593580000,1593424000,0.10514976,0.10534709,0.20780297,1.1216786,1.1221786,1.0851338,0.0,0.0,0.0,0.0,0.0,0.0,0.0,12.456602,0.0,0.0,0.0,0.0,0.002511379,0.002511379,0.0025036351,0.0025017897,1.0000433,1.000043,1.0,0.0,0.0,0.0,0.0,0.0,0.0
1593588000,1593432000,0.10514976,0.10534709,0.20780297,1.1216786,1.1221786,1.0851338,0.0,0.0,0.0,0.0,0.0,0.0,0.0,12.456602,0.0,0.0,0.0,0.0,0.002511379,0.002511379,0.0025036351,0.0025017897,1.0000433,1.000043,1.0,0.0,0.0,0.0,0.0,0.0,0.0
1593596000,1593440000,0.10521475,0.10541347,0.20779122,1.122359,1.1228691,1.085276,0.0,0.0,0.0,0.0,0.0,0.0,0.0,12.456602,0.0,0.0,0.0,0.0,0.002511379,0.002511379,0.0025036351,0.0025017897,1.0000421,1.0000418,1.0,0.0,0.0,0.0,0.0,0.0,0.0
1593604000,1593448000,0.10521475,0.10541347,0.20779122,1.122359,1.1228691,1.085276,0.0,0.0,0.0,0.0,0.0,0.0,0.0,12.456602,0.0,0.0,0.0,0.0,0.002511379,0.002511379,0.0025036351,0.0025017897,1.0000422,1.000042,1.0,0.0,0.0,0.0,0.0,0.0,0.0
1593620000,1593464000,0.10521475,0.10541347,0.20779122,1.122359,1.1228691,1.085276,0.0,0.0,0.0,0.0,0.0,0.0,0.0,12.456602,0.0,0.0,0.0,0.0,0.002511379,0.002511379,0.0025036351,0.0025017897,1.0000422,1.000042,1.0,0.0,0.0,0.0,0.0,0.0,0.0
1593628000,1593472000,0.10521475,0.10541347,0.20779122,1.122359,1.1228691,1.085276,0.0,0.0,0.0,0.0,0.0,0.0,0.0,12.456602,0.0,0.0,0.0,0.0,0.002511379,0.002511379,0.0025036351,0.0025017897,1.0000422,1.000042,1.0,0.0,0.0,0.0,0.0,0.0,0.0
1593636000,1593480000,0.10521475,0.10541347,0.20779122,1.122359,1.1228691,1.085276,0.0,0.0,0.0,0.0,0.0,0.0,0.0,12.456602,0.0,0.0,0.0,0.0,0.002511379,0.002511379,0.0025036351,0.0025017897,1.0000422,1.000042,1.0,0.0,0.0,0.0,0.0,0.0,0.0
1593644000,1593488000,0.10521475,0.10541347,0.20779122,1.122359,1.1228691,1.085276,0.0,0.0,0.0,0.0,0.0,0.0,0.0,12.456602,0.0,0.0,0.0,0.0,0.002511379,0.002511379,0.0025036351,0.0025017897,1.0000423,1.0000421,1.0,0.0,0.0,0.0,0.0,0.0,0.0
1593660000,1593504000,0.10521475,0.10541347,0.20779122,1.122359,1.1228691,1.085276,0.0,0.0,0.0,0.0,0.0,0.0,0.0,12.450282,0.0,0.0,0.0,0.0,0.0025112678,0.0025112678,0.0025034668,0.002501748,1.0000423,1.0000421,1.0,0.0,0.0,0.0,0.0,0.0,0.0
1593668000,1593512000,0.10521475,0.10541347,0.20779122,1.122359,1.1228691,1.085276,0.0,0.0,0.0,0.0,0.0,0.0,0.0,12.450282,0.0,0.0,0.0,0.0,0.0025112678,0.0025112678,0.0025034668,0.002501748,1.0000423,1.0000421,1.0,0.0,0.0,0.0,0.0,0.0,0.0
1593676000,1593520000,0.10521475,0.10541347,0.20779122,1.122359,1.1228691,1.085276,0.0,0.0,0.0,0.0,0.0,0.0,0.0,12.450282,0.0,0.0,0.0,0.0,0.0025112678,0.0025112678,0.0025034668,0.002501748,1.0000423,1.0000421,1.0,0.0,0.0,0.0,0.0,0.0,0.0
1593684000,1593528000,0.10521475,0.10541347,0.20779122,1.122359,1.1228691,1.085276,0.0,0.0,0.0,0.0,0.0,0.0,0.0,12.450282,0.0,0.0,0.0,0.0,0.0025112678,0.0025112678,0.0025034668,0.002501748,1.0000424,1.0000422,1.0,0.0,0.0,0.0,0.0,0.0,0.0
1593700000,1593544000,0.10521475,0.10541347,0.20779122,1.122359,1.1228691,1.085276,0.0,0.0,0.0,0.0,0.0,0.0,0.0,12.450282,0.0,0.0,0.0,0.0,0.0025112678,0.0025112678,0.0025034668,0.002501748,1.0000424,1.0000422,1.0,0.0,0.0,0.0,0.0,0.0,0.0
1593708000,1593552000,0.10521475,0.10541347,0.20779122,1.122359,1.1228691,1.085276,0.0,0.0,0.0,0.0,0.0,0.0,0.0,12.450282,0.0,0.0,0.0,0.0,0.0025112678,0.0025112678,0.0025034668,0.002501748,1.0000424,1.0000422,1.0,0.0,0.0,0.0,0.0,0.0,0.0
1593716000,1593560000,0.10521475,0.10541347,0.20779122,1.122359,1.1228691,1.085276,0.0,0.0,0.0,0.0,0.0,0.0,0.0,12.450282,0.0,0.0,0.0,0.0,0.0025112678,0.0025112678,0.0025034668,0.002501748,1.0000426,1.0000422,1.0,0.0,0.0,0.0,0.0,0.0,0.0
1593724000,1593568000,0.10521475,0.10541347,0.20779122,1.122359,1.1228691,1.085276,0.0,0.0,0.0,0.0,0.0,0.0,0.0,12.451786,0.0,0.0,0.0,0.0,0.002511294,0.002511294,0.0025035061,0.0025017573,1.0000426,1.0000423,1.0,0.0,0.0,0.0,0.0,0.0,0.0
1593740000,1593584000,0.10521475,0.10541347,0.20779122,1.122359,1.1228691,1.085276,0.0,0.0,0.0,0.0,0.0,0.0,0.0,12.451786,0.0,0.0,0.0,0.0,0.002511294,0.002511294,0.0025035061,0.0025017573,1.0000426,1.0000423,1.0,0.0,0.0,0.0,0.0,0.0,0.0
1593748000,1593592000,0.10521475,0.10541347,0.20779122,1.122359,1.1228691,1.085276,0.0,0.0,0.0,0.0,0.0,0.0,0.0,12.451786,0.0,0.0,0.0,0.0,0.002511294,0.002511294,0.0025035061,0.0025017573,1.0000426,1.0000423,1.0,0.0,0.0,0.0,0.0,0.0,0.0
1593756000,1593600000,0.10521475,0.10541347,0.20779122,1.122359,1.1228691,1.085276,0.0,0.0,0.0,0.0,0.0,0.0,0.0,12.451786,0.0,0.0,0.0,0.0,0.002511294,0.002511294,0.0025035061,0.0025017573,1.0000427,1.0000423,1.0,0.0,0.0,0.0,0.0,0.0,0.0
1593764000,1593608000,0.10521475,0.10541347,0.20779122,1.122359,1.1228691,1.085276,0.0,0.0,0.0,0.0,0.0,0.0,0.0,12.451786,0.0,0.0,0.0,0.0,0.002511294,0.002511294,0.0025035061,0.0025017573,1.0000427,1.0000424,1.0,0.0,0.0,0.0,0.0,0.0,0.0
1593780000,1593624000,0.10521475,0.10541347,0.20779122,1.122359,1.1228691,1.085276,0.0,0.0,0.0,0.0,0.0,0.0,0.0,12.451786,0.0,0.0,0.0,0.0,0.002511294,0.002511294,0.0025035061,0.0025017573,1.0000427,1.0000424,1.0,0.0,0.0,0.0,0.0,0.0,0.0
1593788000,1593632000,0.10521475,0.10541347,0.20779122,1.122359,1.1228691,1.085276,0.0,0.0,0.0,0.0,0.0,0.0,0.0,12.451786,0.0,0.0,0.0,0.0,0.002511313,0.002511313,0.002503539,0.002501766,1.0000427,1.0000424,1.0,0.0,0.0,0.0,0.0,0.0,0.0
1593796000,1593640000,0.10521475,0.10541347,0.20779122,1.122359,1.1228691,1.085276,0.0,0.0,0.0,0.0,0.0,0.0,0.0,12.45331,0.0,0.0,0.0,0.0,0.002511313,0.002511313,0.002503539,0.002501766,1.0000428,1.0000424,1.0,0.0,0.0,0.0,0.0,0.0,0.0
1593804000,1593648000,0.10521475,0.10541347,0.20779122,1.122359,1.1228691,1.085276,0.0,0.0,0.0,0.0,0.0,0.0,0.0,12.45331,0.0,0.0,0.0,0.0,0.002511313,0.002511313,0.002503539,0.002501766,1.0000428,1.0000426,1.0,0.0,0.0,0.0,0.0,0.0,0.0
1593820000,1593664000,0.10521475,0.10541347,0.20779122,1.122359,1.1228691,1.085276,0.0,0.0,0.0,0.0,0.0,0.0,0.0,12.45331,0.0,0.0,0.0,0.0,0.002511313,0.002511313,0.002503539,0.002501766,1.0000428,1.0000426,1.0,0.0,0.0,0.0,0.0,0.0,0.0
1593828000,1593672000,0.10521475,0.10541347,0.20779122,1.122359,1.1228691,1.085276,0.0,0.0,0.0,0.0,0.0,0.0,0.0,12.45331,0.0,0.0,0.0,0.0,0.002511313,0.002511313,0.002503539,0.002501766,1.0000428,1.0000426,1.0,0.0,0.0,0.0,0.0,0.0,0.0
1593836000,1593680000,0.10521475,0.10541347,0.20779122,1.122359,1.1228691,1.085276,0.0,0.0,0.0,0.0,0.0,0.0,0.0,12.45331,0.0,0.0,0.0,0.0,0.002511313,0.002511313,0.002503539,0.002501766,1.0000429,1.0000426,1.0,0.0,0.0,0.0,0.0,0.0,0.0
1593844000,1593688000,0.10521475,0.10541347,0.20779122,1.122359,1.1228691,1.085276,0.0,0.0,0.0,0.0,0.0,0.0,0.0,12.45331,0.0,0.0,0.0,0.0,0.002511313,0.002511313,0.002503539,0.002501766,1.0000429,1.0000427,1.0,0.0,0.0,0.0,0.0,0.0,0.0
1593860000,1593704000,0.10521475,0.10541347,0.20779122,1.122359,1.1228691,1.085276,0.0,0.0,0.0,0.0,0.0,0.0,0.0,12.45331,0.0,0.0,0.0,0.0,0.0025113325,0.0025113325,0.0025035767,0.0025017748,1.0000429,1.0000427,1.0,0.0,0.0,0.0,0.0,0.0,0.0
1593868000,1593712000,0.10521475,0.10541347,0.20779122,1.122359,1.1228691,1.085276,0.0,0.0,0.0,0.0,0.0,0.0,0.0,12.454855,0.0,0.0,0.0,0.0,0.0025113325,0.0025113325,0.0025035767,0.0025017748,1.0000429,1.0000427,1.0,0.0,0.0,0.0,0.0,0.0,0.0
1593876000,1593720000,0.10521475,0.10541347,0.20779122,1.122359,1.1228691,1.085276,0.0,0.0,0.0,0.0,0.0,0.0,0.0,12.454855,0.0,0.0,0.0,0.0,0.0025113325,0.0025113325,0.0025035767,0.0025017748,1.000043,1.0000427,1.0,0.0,0.0,0.0,0.0,0.0,0.0
1593884000,1593728000,0.10521475,0.10541347,0.20779122,1.122359,1.1228691,1.085276,0.0,0.0,0.0,0.0,0.0,0.0,0.0,12.454855,0.0,0.0,0.0,0.0,0.0025113325,0.0025113325,0.0025035767,0.0025017748,1.000043,1.0000428,1.0,0.0,0.0,0.0,0.0,0.0,0.0
1593900000,1593744000,0.10521475,0.10541347,0.20779122,1.122359,1.1228691,1.085276,0.0,0.0,0.0,0.0,0.0,0.0,0.0,12.454855,0.0,0.0,0.0,0.0,0.0025113325,0.0025113325,0.0025035767,0.0025017748,1.000043,1.0000428,1.0,0.0,0.0,0.0,0.0,0.0,0.0
1593908000,1593752000,0.10521475,0.10541347,0.20779122,1.122359,1.1228691,1.085276,0.0,0.0,0.0,0.0,0.0,0.0,0.0,12.454855,0.0,0.0,0.0,0.0,0.0025113325,0.0025113325,0.0025035767,0.0025017748,1.0000432,1.0000428,1.0,0.0,0.0,0.0,0.0,0.0,0.0
1593916000,1593760000,0.10521475,0.10541347,0.20779122,1.122359,1.1228691,1.085276,0.0,0.0,0.0,0.0,0.0,0.0,0.0,12.454855,0.0,0.0,0.0,0.0,0.0025113325,0.0025113325,0.0025035767,0.0025017748,1.0000432,1.0000428,1.0,0.0,0.0,0.0,0.0,0.0,0.0
1593924000,1593768000,0.10521475,0.10541347,0.20779122,1.122359,1.1228691,1.085276,0.0,0.0,0.0,0.0,0.0,0.0,0.0,12.454855,0.0,0.0,0.0,0.0,0.0025113488,0.0025113488,0.0025036093,0.0025017825,1.0000432,1.0000429,1.0,0.0,0.0,0.0,0.0,0.0,0.0
1593940000,1593784000,0.10521475,0.10541347,0.20779122,1.122359,1.1228691,1.085276,0.0,0.0,0.0,0.0,0.0,0.0,0.0,12.45642,0.0,0.0,0.0,0.0,0.0025113488,0.0025113488,0.0025036093,0.0025017825,1.0000432,1.0000429,1.0,0.0,0.0,0.0,0.0,0.0,0.0
1593948000,1593792000,0.10521475,0.10541347,0.20779122,1.122359,1.1228691,1.085276,0.0,0.0,0.0,0.0,0.0,0.0,0.0,12.45642,0.0,0.0,0.0,0.0,0.0025113488,0.0025113488,0.0025036093,0.0025017825,1.0000433,1.0000429,1.0,0.0,0.0,0.0,0.0,0.0,0.0
1593956000,1593800000,0.10521475,0.10541347,0.20779122,1.122359,1.1228691,1.085276,0.0,0.0,0.0,0.0,0.0,0.0,0.0,12.45642,0.0,0.0,0.0,0.0,0.0025113488,0.0025113488,0.0025036093,0.0025017825,1.0000433,1.0000429,1.0,0.0,0.0,0.0,0.0,0.0,0.0
1593964000,1593808000,0.10521475,0.10541347,0.20779122,1.122359,1.1228691,1.085276,0.0,0.0,0.0,0.0,0.0,0.0,0.0,12.45642,0.0,0.0,0.0,0.0,0.0025113488,0.0025113488,0.0025036093,0.0025017825,1.0000433,1.000043,1.0,0.0,0.0,0.0,0.0,0.0,0.0
1593980000,1593824000,0.10521475,0.10541347,0.20779122,1.122359,1.1228691,1.085276,0.0,0.0,0.0,0.0,0.0,0.0,0.0,12.45642,0.0,0.0,0.0,0.0,0.0025113488,0.0025113488,0.0025036093,0.0025017825,1.0000433,1.000043,1.0,0.0,0.0,0.0,0.0,0.0,0.0
1593988000,1593832000,0.10521475,0.10541347,0.20779122,1.122359,1.1228691,1.085276,0.0,0.0,0.0,0.0,0.0,0.0,0.0,12.45642,0.0,0.0,0.0,0.0,0.0025113488,0.0025113488,0.0025036093,0.0025017825,1.0000434,1.000043,1.0,0.0,0.0,0.0,0.0,0.0,0.0
1593996000,1593840000,0.10526089,0.10545643,0.20781271,1.1229364,1.1234547,1.0853903,0.0,0.0,0.0,0.0,0.0,0.0,0.0,12.456193,0.0,0.0,0.0,0.0,0.0025113751,0.0025113751,0.0025036472,0.0025017923,1.0000422,1.0000418,1.0,0.0,0.0,0.0,0.0,0.0,0.0
1594004000,1593848000,0.10526089,0.10545643,0.20781271,1.1229364,1.1234547,1.0853903,0.0,0.0,0.0,0.0,0.0,0.0,0.0,12.456193,0.0,0.0,0.0,0.0,0.0025113751,0.0025113751,0.0025036472,0.0025017923,1.0000422,1.000042,1.0,0.0,0.0,0.0,0.0,0.0,0.0
1594020000,1593864000,0.10526089,0.10545643,0.20781271,1.1229364,1.1234547,1.0853903,0.0,0.0,0.0,0.0,0.0,0.0,0.0,12.456193,0.0,0.0,0.0,0.0,0.0025113751,0.0025113751,0.0025036472,0.0025017923,1.0000422,1.000042,1.0,0.0,0.0,0.0,0.0,0.0,0.0
1594028000,1593872000,0.10526089,0.10545643,0.20781271,1.1229364,1.1234547,1.0853903,0.0,0.0,0.0,0.0,0.0,0.0,0.0,12.456193,0.0,0.0,0.0,0.0,0.0025113751,0.0025113751,0.0025036472,0.0025017923,1.0000422,1.000042,1.0,0.0,0.0,0.0,0.0,0.0,0.0
1594036000,1593880000,0.10526089,0.10545643,0.20781271,1.1229364,1.1234547,1.0853903,0.0,0.0,0.0,0.0,0.0,0.0,0.0,12.456193,0.0,0.0,0.0,0.0,0.0025113751,0.0025113751,0.0025036472,0.0025017923,1.0000423,1.000042,1.0,0.0,0.0,0.0,0.0,0.0,0.0
1594044000,1593888000,0.10526089,0.10545643,0.20781271,1.1229364,1.1234547,1.0853903,0.0,0.0,0.0,0.0,0.0,0.0,0.0,12.456193,0.0,0.0,0.0,0.0,0.0025113751,0.0025113751,0.0025036472,0.0025017923,1.0000423,1.0000421,1.0,0.0,0.0,0.0,0.0,0.0,0.0
1594060000,1593904000,0.10526089,0.10545643,0.20781271,1.1229364,1.1234547,1.0853903,0.0,0.0,0.0,0.0,0.0,0.0,0.0,12.450521,0.0,0.0,0.0,0.0,0.0025113751,0.0025113751,0.0025036472,0.0025017923,1.0000423,1.0000421,1.0,0.0,0.0,0.0,0.0,0.0,0.0
1594068000,1593912000,0.10526089,0.10545643,0.20781271,1.1229364,1.1234547,1.0853903,0.0,0.0,0.0,0.0,0.0,0.0,0.0,12.450521,0.0,0.0,0.0,0.0,0.002511264,0.002511264,0.0025034805,0.0025017504,1.0000423,1.0000421,1.0,0.0,0.0,0.0,0.0,0.0,0.0
1594076000,1593920000,0.10526089,0.10545643,0.20781271,1.1229364,1.1234547,1.0853903,0.0,0.0,0.0,0.0,0.0,0.0,0.0,12.450521,0.0,0.0,0.0,0.0,0.002511264,0.002511264,0.0025034805,0.0025017504,1.0000424,1.0000421,1.0,0.0,0.0,0.0,0.0,0.0,0.0
1594084000,1593928000,0.10526089,0.10545643,0.20781271,1.1229364,1.1234547,1.0853903,0.0,0.0,0.0,0.0,0.0,0.0,0.0,12.450521,0.0,0.0,0.0,0.0,0.002511264,0.002511264,0.0025034805,0.0025017504,1.0000424,1.0000422,1.0,0.0,0.0,0.0,0.0,0.0,0.0
1594100000,1593944000,0.10526089,0.10545643,0.20781271,1.1229364,1.1234547,1.0853903,0.0,0.0,0.0,0.0,0.0,0.0,0.0,12.450521,0.0,0.0,0.0,0.0,0.002511264,0.002511264,0.0025034805,0.0025017504,1.0000424,1.0000422,1.0,0.0,0.0,0.0,0.0,0.0,0.0
1594108000,1593952000,0.10526089,0.10545643,0.20781271,1.1229364,1.1234547,1.0853903,0.0,0.0,0.0,0.0,0.0,0.0,0.0,12.450521,0.0,0.0,0.0,0.0,0.002511264,0.002511264,0.0025034805,0.0025017504,1.0000424,1.0000422,1.0,0.0,0.0,0.0,0.0,0.0,0.0
1594116000,1593960000,0.10526089,0.10545643,0.20781271,1.1229364,1.1234547,1.0853903,0.0,0.0,0.0,0.0,0.0,0.0,0.0,12.451318,0.0,0.0,0.0,0.0,0.002511264,0.002511264,0.0025034805,0.0025017504,1.0000426,1.0000422,1.0,0.0,0.0,0.0,0.0,0.0,0.0
1594124000,1593968000,0.10526089,0.10545643,0.20781271,1.1229364,1.1234547,1.0853903,0.0,0.0,0.0,0.0,0.0,0.0,0.0,12.451318,0.0,0.0,0.0,0.0,0.002511264,0.002511264,0.0025034805,0.0025017504,1.0000426,1.0000423,1.0,0.0,0.0,0.0,0.0,0.0,0.0
1594140000,1593984000,0.10526089,0.10545643,0.20781271,1.1229364,1.1234547,1.0853903,0.0,0.0,0.0,0.0,0.0,0.0,0.0,12.451318,0.0,0.0,0.0,0.0,0.00251129,0.00251129,0.002503519,0.0025017601,1.0000426,1.0000423,1.0,0.0,0.0,0.0,0.0,0.0,0.0
1594148000,1593992000,0.10526089,0.10545643,0.20781271,1.1229364,1.1234547,1.0853903,0.0,0.0,0.0,0.0,0.0,0.0,0.0,12.451318,0.0,0.0,0.0,0.0,0.00251129,0.00251129,0.002503519,0.0025017601,1.0000426,1.0000423,1.0,0.0,0.0,0.0,0.0,0.0,0.0
1594156000,1594000000,0.10526089,0.10545643,0.20781271,1.1229364,1.1234547,1.0853903,0.0,0.0,0.0,0.0,0.0,0.0,0.0,12.451318,0.0,0.0,0.0,0.0,0.00251129,0.00251129,0.002503519,0.0025017601,1.0000427,1.0000423,1.0,0.0,0.0,0.0,0.0,0.0,0.0
1594164000,1594008000,0.10526089,0.10545643,0.20781271,1.1229364,1.1234547,1.0853903,0.0,0.0,0.0,0.0,0.0,0.0,0.0,12.451318,0.0,0.0,0.0,0.0,0.00251129,0.00251129,0.002503519,0.0025017601,1.0000427,1.0000424,1.0,0.0,0.0,0.0,0.0,0.0,0.0
1594180000,1594024000,0.10526089,0.10545643,0.20781271,1.1229364,1.1234547,1.0853903,0.0,0.0,0.0,0.0,0.0,0.0,0.0,12.452486,0.0,0.0,0.0,0.0,0.00251129,0.00251129,0.002503519,0.0025017601,1.0000427,1.0000424,1.0,0.0,0.0,0.0,0.0,0.0,0.0
1594188000,1594032000,0.10526089,0.10545643,0.20781271,1.1229364,1.1234547,1.0853903,0.0,0.0,0.0,0.0,0.0,0.0,0.0,12.452486,0.0,0.0,0.0,0.0,0.00251129,0.00251129,0.002503519,0.0025017601,1.0000428,1.0000424,1.0,0.0,0.0,0.0,0.0,0.0,0.0
1594196000,1594040000,0.10526089,0.10545643,0.20781271,1.1229364,1.1234547,1.0853903,0.0,0.0,0.0,0.0,0.0,0.0,0.0,12.452486,0.0,0.0,0.0,0.0,0.00251129,0.00251129,0.002503519,0.0025017601,1.0000428,1.0000426,1.0,0.0,0.0,0.0,0.0,0.0,0.0
1594204000,1594048000,0.10526089,0.10545643,0.20781271,1.1229364,1.1234547,1.0853903,0.0,0.0,0.0,0.0,0.0,0.0,0.0,12.452486,0.0,0.0,0.0,0.0,0.00251129,0.00251129,0.002503519,0.0025017601,1.0000428,1.0000426,1.0,0.0,0.0,0.0,0.0,0.0,0.0
1594220000,1594064000,0.10526089,0.10545643,0.20781271,1.1229364,1.1234547,1.0853903,0.0,0.0,0.0,0.0,0.0,0.0,0.0,12.452486,0.0,0.0,0.0,0.0,0.002511317,0.002511317,0.0025035534,0.002501769,1.0000428,1.0000426,1.0,0.0,0.0,0.0,0.0,0.0,0.0
1594228000,1594072000,0.10526089,0.10545643,0.20781271,1.1229364,1.1234547,1.0853903,0.0,0.0,0.0,0.0,0.0,0.0,0.0,12.452486,0.0,0.0,0.0,0.0,0.002511317,0.002511317,0.0025035534,0.002501769,1.0000429,1.0000426,1.0,0.0,0.0,0.0,0.0,0.0,0.0
1594236000,1594080000,0.10526089,0.10545643,0.20781271,1.1229364,1.1234547,1.0853903,0.0,0.0,0.0,0.0,0.0,0.0,0.0,12.452486,0.0,0.0,0.0,0.0,0.002511317,0.002511317,0.0025035534,0.002501769,1.0000429,1.0000426,1.0,0.0,0.0,0.0,0.0,0.0,0.0
1594244000,1594088000,0.10526089,0.10545643,0.20781271,1.1229364,1.1234547,1.0853903,0.0,0.0,0.0,0.0,0.0,0.0,0.0,12.452486,0.0,0.0,0.0,0.0,0.002511317,0.002511317,0.0025035534,0.002501769,1.0000429,1.0000427,1.0,0.0,0.0,0.0,0.0,0.0,0.0
1594260000,1594104000,0.10526089,0.10545643,0.20781271,1.1229364,1.1234547,1.0853903,0.0,0.0,0.0,0.0,0.0,0.0,0.0,12.454035,0.0,0.0,0.0,0.0,0.002511317,0.002511317,0.0025035534,0.002501769,1.0000429,1.0000427,1.0,0.0,0.0,0.0,0.0,0.0,0.0
1594268000,1594112000,0.10526089,0.10545643,0.20781271,1.1229364,1.1234547,1.0853903,0.0,0.0,0.0,0.0,0.0,0.0,0.0,12.454035,0.0,0.0,0.0,0.0,0.002511317,0.002511317,0.0025035534,0.002501769,1.000043,1.0000427,1.0,0.0,0.0,0.0,0.0,0.0,0.0
1594276000,1594120000,0.10526089,0.10545643,0.20781271,1.1229364,1.1234547,1.0853903,0.0,0.0,0.0,0.0,0.0,0.0,0.0,12.454035,0.0,0.0,0.0,0.0,0.002511317,0.002511317,0.0025035534,0.002501769,1.000043,1.0000428,1.0,0.0,0.0,0.0,0.0,0.0,0.0
1594284000,1594128000,0.10526089,0.10545643,0.20781271,1.1229364,1.1234547,1.0853903,0.0,0.0,0.0,0.0,0.0,0.0,0.0,12.454035,0.0,0.0,0.0,0.0,0.002511339,0.002511339,0.0025035907,0.0025017792,1.000043,1.0000428,1.0,0.0,0.0,0.0,0.0,0.0,0.0
1594300000,1594144000,0.10526089,0.10545643,0.20781271,1.1229364,1.1234547,1.0853903,0.0,0.0,0.0,0.0,0.0,0.0,0.0,12.454035,0.0,0.0,0.0,0.0,0.002511339,0.002511339,0.0025035907,0.0025017792,1.0000432,1.0000428,1.0,0.0,0.0,0.0,0.0,0.0,0.0
1594308000,1594152000,0.10526089,0.10545643,0.20781271,1.1229364,1.1234547,1.0853903,0.0,0.0,0.0,0.0,0.0,0.0,0.0,12.454035,0.0,0.0,0.0,0.0,0.002511339,0.002511339,0.0025035907,0.0025017792,1.0000432,1.0000428,1.0,0.0,0.0,0.0,0.0,0.0,0.0
1594316000,1594160000,0.10526089,0.10545643,0.20781271,1.1229364,1.1234547,1.0853903,0.0,0.0,0.0,0.0,0.0,0.0,0.0,12.454035,0.0,0.0,0.0,0.0,0.002511339,0.002511339,0.0025035907,0.0025017792,1.0000432,1.0000429,1.0,0.0,0.0,0.0,0.0,0.0,0.0
1594324000,1594168000,0.10526089,0.10545643,0.20781271,1.1229364,1.1234547,1.0853903,0.0,0.0,0.0,0.0,0.0,0.0,0.0,12.4556055,0.0,0.0,0.0,0.0,0.002511339,0.002511339,0.0025035907,0.0025017792,1.0000432,1.0000429,1.0,0.0,0.0,0.0,0.0,0.0,0.0
1594340000,1594184000,0.10526089,0.10545643,0.20781271,1.1229364,1.1234547,1.0853903,0.0,0.0,0.0,0.0,0.0,0.0,0.0,12.4556055,0.0,0.0,0.0,0.0,0.002511339,0.002511339,0.0025035907,0.0025017792,1.0000433,1.0000429,1.0,0.0,0.0,0.0,0.0,0.0,0.0
1594348000,1594192000,0.10526089,0.10545643,0.20781271,1.1229364,1.1234547,1.0853903,0.0,0.0,0.0,0.0,0.0,0.0,0.0,12.4556055,0.0,0.0,0.0,0.0,0.0025113584,0.0025113584,0.0025036263,0.002501788,1.0000433,1.000043,1.0,0.0,0.0,0.0,0.0,0.0,0.0
1594356000,1594200000,0.10526089,0.10545643,0.20781271,1.1229364,1.1234547,1.0853903,0.0,0.0,0.0,0.0,0.0,0.0,0.0,12.4556055,0.0,0.0,0.0,0.0,0.0025113584,0.0025113584,0.0025036263,0.002501788,1.0000433,1.000043,1.0,0.0,0.0,0.0,0.0,0.0,0.0
1594364000,1594208000,0.10526089,0.10545643,0.20781271,1.1229364,1.1234547,1.0853903,0.0,0.0,0.0,0.0,0.0,0.0,0.0,12.4556055,0.0,0.0,0.0,0.0,0.0025113584,0.0025113584,0.0025036263,0.002501788,1.0000433,1.000043,1.0,0.0,0.0,0.0,0.0,0.0,0.0
1594380000,1594224000,0.10526089,0.10545643,0.20781271,1.1229364,1.1234547,1.0853903,0.0,0.0,0.0,0.0,0.0,0.0,0.0,12.4556055,0.0,0.0,0.0,0.0,0.0025113584,0.0025113584,0.0025036263,0.002501788,1.0000434,1.000043,1.0,0.0,0.0,0.0,0.0,0.0,0.0
1594388000,1594232000,0.10526089,0.10545643,0.20781271,1.1229364,1.1234547,1.0853903,0.0,0.0,0.0,0.0,0.0,0.0,0.0,12.4556055,0.0,0.0,0.0,0.0,0.0025113584,0.0025113584,0.0025036263,0.002501788,1.0000434,1.0000432,1.0,0.0,0.0,0.0,0.0,0.0,0.0
1594396000,1594240000,0.10530545,0.10549618,0.20781612,1.1234376,1.1239544,1.0855001,0.0,0.0,0.0,0.0,0.0,0.0,0.0,12.456126,0.0,0.0,0.0,0.0,0.0025113584,0.0025113584,0.0025036263,0.002501788,1.0000422,1.000042,1.0,0.0,0.0,0.0,0.0,0.0,0.0
1594404000,1594248000,0.10530545,0.10549618,0.20781612,1.1234376,1.1239544,1.0855001,0.0,0.0,0.0,0.0,0.0,0.0,0.0,12.456126,0.0,0.0,0.0,0.0,0.0025113584,0.0025113584,0.0025036263,0.002501788,1.0000422,1.000042,1.0,0.0,0.0,0.0,0.0,0.0,0.0
1594420000,1594264000,0.10530545,0.10549618,0.20781612,1.1234376,1.1239544,1.0855001,0.0,0.0,0.0,0.0,0.0,0.0,0.0,12.456126,0.0,0.0,0.0,0.0,0.0025112515,0.0025112515,0.0025034621,0.002501746,1.0000422,1.000042,1.0,0.0,0.0,0.0,0.0,0.0,0.0
1594428000,1594272000,0.10530545,0.10549618,0.20781612,1.1234376,1.1239544,1.0855001,0.0,0.0,0.0,0.0,0.0,0.0,0.0,12.456126,0.0,0.0,0.0,0.0,0.0025112515,0.0025112515,0.0025034621,0.002501746,1.0000423,1.0000421,1.0,0.0,0.0,0.0,0.0,0.0,0.0
1594436000,1594280000,0.10530545,0.10549618,0.20781612,1.1234376,1.1239544,1.0855001,0.0,0.0,0.0,0.0,0.0,0.0,0.0,12.456126,0.0,0.0,0.0,0.0,0.0025112515,0.0025112515,0.0025034621,0.002501746,1.0000423,1.0000421,1.0,0.0,0.0,0.0,0.0,0.0,0.0
1594444000,1594288000,0.10530545,0.10549618,0.20781612,1.1234376,1.1239544,1.0855001,0.0,0.0,0.0,0.0,0.0,0.0,0.0,12.456126,0.0,0.0,0.0,0.0,0.0025112515,0.0025112515,0.0025034621,0.002501746,1.0000423,1.0000421,1.0,0.0,0.0,0.0,0.0,0.0,0.0
1594460000,1594304000,0.10530545,0.10549618,0.20781612,1.1234376,1.1239544,1.0855001,0.0,0.0,0.0,0.0,0.0,0.0,0.0,12.456126,0.0,0.0,0.0,0.0,0.0025112515,0.0025112515,0.0025034621,0.002501746,1.0000424,1.0000422,1.0,0.0,0.0,0.0,0.0,0.0,0.0
1594468000,1594312000,0.10530545,0.10549618,0.20781612,1.1234376,1.1239544,1.0855001,0.0,0.0,0.0,0.0,0.0,0.0,0.0,12.450795,0.0,0.0,0.0,0.0,0.0025112515,0.0025112515,0.0025034621,0.002501746,1.0000424,1.0000422,1.0,0.0,0.0,0.0,0.0,0.0,0.0
1594476000,1594320000,0.10530545,0.10549618,0.20781612,1.1234376,1.1239544,1.0855001,0.0,0.0,0.0,0.0,0.0,0.0,0.0,12.450795,0.0,0.0,0.0,0.0,0.0025112515,0.0025112515,0.0025034621,0.002501746,1.0000424,1.0000422,1.0,0.0,0.0,0.0,0.0,0.0,0.0
1594484000,1594328000,0.10530545,0.10549618,0.20781612,1.1234376,1.1239544,1.0855001,0.0,0.0,0.0,0.0,0.0,0.0,0.0,12.450795,0.0,0.0,0.0,0.0,0.0025112515,0.0025112515,0.0025034621,0.002501746,1.0000424,1.0000422,1.0,0.0,0.0,0.0,0.0,0.0,0.0
1594500000,1594344000,0.10530545,0.10549618,0.20781612,1.1234376,1.1239544,1.0855001,0.0,0.0,0.0,0.0,0.0,0.0,0.0,12.450795,0.0,0.0,0.0,0.0,0.0025112801,0.0025112801,0.0025035013,0.0025017564,1.0000426,1.0000423,1.0,0.0,0.0,0.0,0.0,0.0,0.0
1594508000,1594352000,0.10530545,0.10549618,0.20781612,1.1234376,1.1239544,1.0855001,0.0,0.0,0.0,0.0,0.0,0.0,0.0,12.450795,0.0,0.0,0.0,0.0,0.0025112801,0.0025112801,0.0025035013,0.0025017564,1.0000426,1.0000423,1.0,0.0,0.0,0.0,0.0,0.0,0.0
1594516000,1594360000,0.10530545,0.10549618,0.20781612,1.1234376,1.1239544,1.0855001,0.0,0.0,0.0,0.0,0.0,0.0,0.0,12.450795,0.0,0.0,0.0,0.0,0.0025112801,0.0025112801,0.0025035013,0.0025017564,1.0000426,1.0000423,1.0,0.0,0.0,0.0,0.0,0.0,0.0
1594524000,1594368000,0.10530545,0.10549618,0.20781612,1.1234376,1.1239544,1.0855001,0.0,0.0,0.0,0.0,0.0,0.0,0.0,12.450795,0.0,0.0,0.0,0.0,0.0025112801,0.0025112801,0.0025035013,0.0025017564,1.0000426,1.0000423,1.0,0.0,0.0,0.0,0.0,0.0,0.0
1594540000,1594384000,0.10530545,0.10549618,0.20781612,1.1234376,1.1239544,1.0855001,0.0,0.0,0.0,0.0,0.0,0.0,0.0,12.452309,0.0,0.0,0.0,0.0,0.0025112801,0.0025112801,0.0025035013,0.0025017564,1.0000427,1.0000424,1.0,0.0,0.0,0.0,0.0,0.0,0.0
1594548000,1594392000,0.10530545,0.10549618,0.20781612,1.1234376,1.1239544,1.0855001,0.0,0.0,0.0,0.0,0.0,0.0,0.0,12.452309,0.0,0.0,0.0,0.0,0.0025112801,0.0025112801,0.0025035013,0.0025017564,1.0000427,1.0000424,1.0,0.0,0.0,0.0,0.0,0.0,0.0
1594556000,1594400000,0.10530545,0.10549618,0.20781612,1.1234376,1.1239544,1.0855001,0.0,0.0,0.0,0.0,0.0,0.0,0.0,12.452309,0.0,0.0,0.0,0.0,0.0025112801,0.0025112801,0.0025035013,0.0025017564,1.0000427,1.0000424,1.0,0.0,0.0,0.0,0.0,0.0,0.0
1594564000,1594408000,0.10530545,0.10549618,0.20781612,1.1234376,1.1239544,1.0855001,0.0,0.0,0.0,0.0,0.0,0.0,0.0,12.452309,0.0,0.0,0.0,0.0,0.0025113074,0.0025113074,0.0025035404,0.0025017655,1.0000427,1.0000424,1.0,0.0,0.0,0.0,0.0,0.0,0.0
1594580000,1594424000,0.10530545,0.10549618,0.20781612,1.1234376,1.1239544,1.0855001,0.0,0.0,0.0,0.0,0.0,0.0,0.0,12.452309,0.0,0.0,0.0,0.0,0.0025113074,0.0025113074,0.0025035404,0.0025017655,1.0000428,1.0000426,1.0,0.0,0.0,0.0,0.0,0.0,0.0
1594588000,1594432000,0.10530545,0.10549618,0.20781612,1.1234376,1.1239544,1.0855001,0.0,0.0,0.0,0.0,0.0,0.0,0.0,12.452309,0.0,0.0,0.0,0.0,0.0025113074,0.0025113074,0.0025035404,0.0025017655,1.0000428,1.0000426,1.0,0.0,0.0,0.0,0.0,0.0,0.0
1594596000,1594440000,0.10530545,0.10549618,0.20781612,1.1234376,1.1239544,1.0855001,0.0,0.0,0.0,0.0,0.0,0.0,0.0,12.452309,0.0,0.0,0.0,0.0,0.0025113074,0.0025113074,0.0025035404,0.0025017655,1.0000428,1.0000426,1.0,0.0,0.0,0.0,0.0,0.0,0.0
1594604000,1594448000,0.10530545,0.10549618,0.20781612,1.1234376,1.1239544,1.0855001,0.0,0.0,0.0,0.0,0.0,0.0,0.0,12.452309,0.0,0.0,0.0,0.0,0.0025113074,0.0025113074,0.0025035404,0.0025017655,1.0000428,1.0000426,1.0,0.0,0.0,0.0,0.0,0.0,0.0
1594620000,1594464000,0.10530545,0.10549618,0.20781612,1.1234376,1.1239544,1.0855001,0.0,0.0,0.0,0.0,0.0,0.0,0.0,12.453845,0.0,0.0,0.0,0.0,0.0025113074,0.0025113074,0.0025035404,0.0025017655,1.0000429,1.0000427,1.0,0.0,0.0,0.0,0.0,0.0,0.0
1594628000,1594472000,0.10530545,0.10549618,0.20781612,1.1234376,1.1239544,1.0855001,0.0,0.0,0.0,0.0,0.0,0.0,0.0,12.453845,0.0,0.0,0.0,0.0,0.0025113074,0.0025113074,0.0025035404,0.0025017655,1.0000429,1.0000427,1.0,0.0,0.0,0.0,0.0,0.0,0.0
1594636000,1594480000,0.10530545,0.10549618,0.20781612,1.1234376,1.1239544,1.0855001,0.0,0.0,0.0,0.0,0.0,0.0,0.0,12.453845,0.0,0.0,0.0,0.0,0.0025113362,0.0025113362,0.0025035816,0.0025017762,1.0000429,1.0000427,1.0,0.0,0.0,0.0,0.0,0.0,0.0
1594644000,1594488000,0.10530545,0.10549618,0.20781612,1.1234376,1.1239544,1.0855001,0.0,0.0,0.0,0.0,0.0,0.0,0.0,12.453845,0.0,0.0,0.0,0.0,0.0025113362,0.0025113362,0.0025035816,0.0025017762,1.000043,1.0000428,1.0,0.0,0.0,0.0,0.0,0.0,0.0
1594660000,1594504000,0.10530545,0.10549618,0.20781612,1.1234376,1.1239544,1.0855001,0.0,0.0,0.0,0.0,0.0,0.0,0.0,12.453845,0.0,0.0,0.0,0.0,0.0025113362,0.0025113362,0.0025035816,0.0025017762,1.000043,1.0000428,1.0,0.0,0.0,0.0,0.0,0.0,0.0
1594668000,1594512000,0.10530545,0.10549618,0.20781612,1.1234376,1.1239544,1.0855001,0.0,0.0,0.0,0.0,0.0,0.0,0.0,12.453845,0.0,0.0,0.0,0.0,0.0025113362,0.0025113362,0.0025035816,0.0025017762,1.000043,1.0000428,1.0,0.0,0.0,0.0,0.0,0.0,0.0
1594676000,1594520000,0.10530545,0.10549618,0.20781612,1.1234376,1.1239544,1.0855001,0.0,0.0,0.0,0.0,0.0,0.0,0.0,12.453845,0.0,0.0,0.0,0.0,0.0025113362,0.0025113362,0.0025035816,0.0025017762,1.000043,1.0000428,1.0,0.0,0.0,0.0,0.0,0.0,0.0
1594684000,1594528000,0.10530545,0.10549618,0.20781612,1.1234376,1.1239544,1.0855001,0.0,0.0,0.0,0.0,0.0,0.0,0.0,12.4553995,0.0,0.0,0.0,0.0,0.0025113362,0.0025113362,0.0025035816,0.0025017762,1.0000432,1.0000429,1.0,0.0,0.0,0.0,0.0,0.0,0.0
1594700000,1594544000,0.10530545,0.10549618,0.20781612,1.1234376,1.1239544,1.0855001,0.0,0.0,0.0,0.0,0.0,0.0,0.0,12.4553995,0.0,0.0,0.0,0.0,0.0025113362,0.0025113362,0.0025035816,0.0025017762,1.0000432,1.0000429,1.0,0.0,0.0,0.0,0.0,0.0,0.0
1594708000,1594552000,0.10530545,0.10549618,0.20781612,1.1234376,1.1239544,1.0855001,0.0,0.0,0.0,0.0,0.0,0.0,0.0,12.4553995,0.0,0.0,0.0,0.0,0.0025113646,0.0025113646,0.0025036219,0.0025017865,1.0000432,1.0000429,1.0,0.0,0.0,0.0,0.0,0.0,0.0
1594716000,1594560000,0.10530545,0.10549618,0.20781612,1.1234376,1.1239544,1.0855001,0.0,0.0,0.0,0.0,0.0,0.0,0.0,12.4553995,0.0,0.0,0.0,0.0,0.0025113646,0.0025113646,0.0025036219,0.0025017865,1.0000433,1.0000429,1.0,0.0,0.0,0.0,0.0,0.0,0.0
1594724000,1594568000,0.10530545,0.10549618,0.20781612,1.1234376,1.1239544,1.0855001,0.0,0.0,0.0,0.0,0.0,0.0,0.0,12.4553995,0.0,0.0,0.0,0.0,0.0025113646,0.0025113646,0.0025036219,0.0025017865,1.0000433,1.000043,1.0,0.0,0.0,0.0,0.0,0.0,0.0
1594740000,1594584000,0.10530545,0.10549618,0.20781612,1.1234376,1.1239544,1.0855001,0.0,0.0,0.0,0.0,0.0,0.0,0.0,12.456233,0.0,0.0,0.0,0.0,0.0025113646,0.0025113646,0.0025036219,0.0025017865,1.0000433,1.000043,1.0,0.0,0.0,0.0,0.0,0.0,0.0
