timestamp,timestamp_sample,time_last_fuse,device_id,observation,observation_variance,innovation,innovation_filtered,innovation_variance,test_ratio,test_ratio_filtered,estimator_instance,innovation_rejected,fused
2043264000,2043112000,2043112000,0,-488.09375,12.37076,-0.012359619,-0.026832117,12.451303,4.907444e-07,-8.738713e-06,0,0,1
2043336000,2043184000,2043184000,0,-488.10797,12.370806,0.0013427734,-0.023285627,12.452785,5.791606e-09,-7.6380065e-06,0,0,1
2043408000,2043256000,2043256000,0,-488.17838,12.370851,0.07098389,-0.011419536,12.454288,1.6183061e-05,-4.6395508e-06,0,0,1
2043480000,2043328000,2043328000,0,-488.0838,12.370894,-0.024719238,-0.013093624,12.4558115,1.962267e-06,-4.30255e-06,0,0,1
2043552000,2043400000,2043400000,0,-488.14508,12.370937,0.036071777,-0.0069049727,12.457355,4.1780077e-06,-3.2350677e-06,0,0,1
2043624000,2043470666,2043472000,0,-488.1306,12.37098,0.02053833,-0.003506648,12.458919,1.3542844e-06,-2.6667647e-06,0,0,1
2043688000,2043532000,2043536000,0,-488.0647,12.370887,-0.04397583,-0.007928502,12.451949,6.212276e-06,-3.054164e-06,0,0,1
2043744000,2043592000,2043592000,0,-488.1168,12.37066,0.007659912,-0.0062583145,12.4527235,1.8847044e-07,-2.7067388e-06,0,0,1
2043816000,2043662666,2043664000,0,-488.0979,12.3707075,-0.012359619,-0.0070138434,12.454231,4.90629e-07,-2.4323163e-06,0,0,1
2043888000,2043733333,2043736000,0,-488.15906,12.370754,0.047790527,-0.00022729347,12.455759,7.334549e-06,-1.222863e-06,0,0,1
2043952000,2043796000,2043800000,0,-488.1633,12.370666,0.050872803,0.0054639764,12.456938,8.310364e-06,-1.611005e-07,0,0,1
2044008000,2043856000,2043856000,0,-488.11118,12.370443,-0.0024719238,0.0046137013,12.45776,1.9619602e-08,-1.4594184e-07,0,0,1
2044080000,2043928000,2043928000,0,-488.12997,12.370495,0.017608643,0.006249428,12.451221,9.960927e-07,-2.1892532e-09,0,0,1
2044152000,2043998666,2044000000,0,-488.15796,12.370546,0.04458618,0.0109966975,12.452713,6.385525e-06,7.888062e-07,0,0,1
2044224000,2044072000,2044072000,0,-488.08243,12.370596,-0.032348633,0.005452483,12.454224,3.360897e-06,2.5802598e-07,0,0,1
2044296000,2044144000,2044144000,0,-488.0123,12.370645,-0.10336304,-0.008244575,12.455755,3.430998e-05,-4.0931914e-06,0,0,1
2044368000,2044214666,2044216000,0,-488.0931,12.370693,-0.022949219,-0.010065462,12.457308,1.691109e-06,-3.7957398e-06,0,0,1
2044440000,2044286666,2044288000,0,-488.15436,12.370741,0.037353516,-0.0040966403,12.458879,4.479649e-06,-2.7540825e-06,0,0,1
2044512000,2044358666,2044360000,0,-488.09766,12.370788,-0.019866943,-0.0060817134,12.452271,1.2678664e-06,-2.5670063e-06,0,0,1
2044576000,2044420000,2044424000,0,-488.05563,12.370697,-0.06274414,-0.012272917,12.453408,1.26449795e-05,-3.6681731e-06,0,0,1
2044632000,2044478666,2044480000,0,-488.05154,12.370474,-0.06729126,-0.01805044,12.454202,1.4543248e-05,-4.8101742e-06,0,0,1
2044704000,2044552000,2044552000,0,-488.01462,12.370525,-0.1048584,-0.029153872,12.455737,3.5309942e-05,-8.7113385e-06,0,0,1
2044776000,2044624000,2044624000,0,-488.08606,12.370576,-0.03375244,-0.029732713,12.4572935,3.658025e-06,-8.075257e-06,0,0,1
2044848000,2044696000,2044696000,0,-488.03943,12.3706255,-0.080963135,-0.036181297,12.458869,2.1045344e-05,-9.7078555e-06,0,0,1
2044920000,2044768000,2044768000,0,-488.12006,12.370674,0.0012512207,-0.031469513,12.452263,5.028976e-09,-8.4852545e-06,0,0,1
2044992000,2044840000,2044840000,0,-488.0496,12.370722,-0.07019043,-0.036343474,12.453763,1.582396e-05,-9.409007e-06,0,0,1
2045064000,2044912000,2044912000,0,-488.17236,12.370769,0.051940918,-0.025230754,12.455284,8.664142e-06,-7.1340655e-06,0,0,1
2045136000,2044981333,2044984000,0,-488.13898,12.370814,0.017089844,-0.020076979,12.456825,9.378401e-07,-6.151074e-06,0,0,1
2045208000,2045056000,2045056000,0,-488.01675,12.370859,-0.1065979,-0.03131872,12.458386,3.6483416e-05,-1.00921825e-05,0,0,1
2045280000,2045128000,2045128000,0,-488.0976,12.370903,-0.018615723,-0.029719742,12.451806,1.1132364e-06,-8.961965e-06,0,0,1
2045352000,2045200000,2045200000,0,-488.09308,12.370946,-0.024108887,-0.029013481,12.453291,1.8669392e-06,-8.068885e-06,0,0,1
2045424000,2045272000,2045272000,0,-488.0229,12.370989,-0.0,-0.0373542,12.454798,2.9153403e-05,-1.072288e-05,0,0,1
2045496000,2045342666,2045344000,0,-488.04257,12.37103,-0.0,-0.042225264,12.456324,1.8886663e-05,-1.1733808e-05,0,0,1
2045568000,2045416000,2045416000,0,-488.095,12.371071,-0.0,-0.040068075,12.4578705,2.0649918e-06,-1.0497089e-05,0,0,1
2045640000,2045488000,2045488000,0,-488.1281,12.371111,0.006652832,-0.034187123,12.459436,1.4209367e-07,-9.157891e-06,0,0,1
2045712000,2045560000,2045560000,0,-488.0858,12.37115,-0.0,-0.033763636,12.452789,3.0516605e-06,-8.389275e-06,0,0,1
2045784000,2045632000,2045632000,0,-488.0016,12.371188,-0.0,-0.04409552,12.45428,4.3101652e-05,-1.27586645e-05,0,0,1
2045856000,2045702666,2045704000,0,-488.04965,12.371226,-0.0,-0.047130365,12.455792,1.5114068e-05,-1.3050336e-05,0,0,1
2045920000,2045764000,2045768000,0,-488.02682,12.371128,-0.0,-0.05205085,12.456956,2.7274833e-05,-1.4604571e-05,0,0,1
2045976000,2045824000,2045824000,0,-488.18738,12.370896,0.06774902,-0.03921515,12.457765,1.4737572e-05,-1.146077e-05,0,0,1
2046048000,2045896000,2045896000,0,-488.10217,12.37094,-0.0,-0.036637582,12.459335,1.1272026e-06,-1.0160042e-05,0,0,1
2046120000,2045964000,2045968000,0,-488.0883,12.370983,-0.0,-0.035977975,12.452699,3.1124112e-06,-9.316312e-06,0,0,1
2046184000,2046028000,2046032000,0,-488.14023,12.370889,0.020324707,-0.029589018,12.453835,1.3268001e-06,-8.108583e-06,0,0,1
2046240000,2046086666,2046088000,0,-488.079,12.370662,-0.0,-0.03084662,12.454625,5.5486034e-06,-7.839757e-06,0,0,1
2046304000,2046146000,2046152000,0,-488.0043,12.370575,-0.0,-0.039973266,12.455794,4.3871878e-05,-1.1662035e-05,0,0,1
2046360000,2046208000,2046208000,0,-488.05237,12.370354,-0.0,-0.043226033,12.45661,1.5491903e-05,-1.2084547e-05,0,0,1
2046432000,2046277333,2046280000,0,-488.10468,12.370408,-0.0,-0.040124945,12.458184,1.0128645e-06,-1.0736245e-05,0,0,1
2046504000,2046352000,2046352000,0,-488.06262,12.3704605,-0.0,-0.042457204,12.451623,1.0834571e-05,-1.07490205e-05,0,0,1
2046576000,2046424000,2046424000,0,-488.10074,12.370512,-0.0,-0.03968282,12.453121,1.3388568e-06,-9.564525e-06,0,0,1
2046648000,2046496000,2046496000,0,-487.96475,12.370563,-0.0,-0.054409392,12.45464,7.883892e-05,-1.828438e-05,0,0,1
2046720000,2046568000,2046568000,0,-488.15878,12.370612,0.037078857,-0.042893387,12.45618,4.4149706e-06,-1.5427118e-05,0,0,1
2046792000,2046640000,2046640000,0,-488.10208,12.370662,-0.0,-0.040025685,12.45774,1.2986488e-06,-1.364871e-05,0,0,1
2046864000,2046712000,2046712000,0,-488.12106,12.370709,0.0008544922,-0.03487993,12.451202,2.345659e-09,-1.1930395e-05,0,0,1
2046936000,2046784000,2046784000,0,-488.0788,12.370756,-0.0,-0.03568683,12.452685,5.476369e-06,-1.1118e-05,0,0,1
2047008000,2046854666,2046856000,0,-488.06512,12.370802,-0.0,-0.038039695,12.454189,9.6055155e-06,-1.09307075e-05,0,0,1
2047080000,2046928000,2046928000,0,-488.15485,12.370847,0.035308838,-0.028657831,12.455713,4.00367e-06,-9.020481e-06,0,0,1
2047152000,2047000000,2047000000,0,-488.08878,12.370892,-0.0,-0.02893418,12.457258,3.0566096e-06,-8.269784e-06,0,0,1
2047224000,2047072000,2047072000,0,-488.04214,12.3709345,-0.0,-0.035045363,12.458822,1.9275629e-05,-9.655136e-06,0,0,1
2047296000,2047144000,2047144000,0,-488.0992,12.370977,-0.0,-0.033050284,12.452216,1.1836268e-06,-8.588792e-06,0,0,1
2047368000,2047216000,2047216000,0,-488.03836,12.371019,-0.0,-0.03895835,12.453705,2.0549232e-05,-1.00943025e-05,0,0,1
2047440000,2047288000,2047288000,0,-488.1988,12.371059,0.080444336,-0.023928642,12.455214,2.0782594e-05,-6.2077e-06,0,0,1
2047512000,2047360000,2047360000,0,-488.1041,12.3711,-0.0,-0.02277971,12.456744,7.034594e-07,-5.514859e-06,0,0,1
2047584000,2047430666,2047432000,0,-488.13242,12.37114,0.013519287,-0.018284779,12.458294,5.8682554e-07,-4.759283e-06,0,0,1
2047656000,2047504000,2047504000,0,-488.07596,12.371179,-0.0,-0.021340568,12.458773,5.7108523e-06,-4.880996e-06,0,0,1
2047728000,2047576000,2047576000,0,-488.18903,12.371217,0.07211304,-0.009577178,12.453192,1.6703476e-05,-2.1640697e-06,0,0,1
2047800000,2047648000,2047648000,0,-488.1132,12.371253,-0.0,-0.0089709135,12.454685,7.279081e-08,-1.9008318e-06,0,0,1
2047872000,2047720000,2047720000,0,-488.11325,12.371289,-0.0,-0.008498582,12.456201,8.745139e-08,-1.6725742e-06,0,0,1
2047944000,2047792000,2047792000,0,-488.07104,12.3713255,-0.0,-0.013448263,12.457737,7.3427536e-06,-2.386303e-06,0,0,1
2048016000,2047864000,2047864000,0,-488.11847,12.371361,-0.0,-0.011847667,12.459292,1.7222225e-09,-2.0861462e-06,0,0,1
2048088000,2047934666,2047936000,0,-488.06683,12.371395,-0.0,-0.01663861,12.452653,8.203872e-06,-2.843709e-06,0,0,1
2048160000,2048008000,2048008000,0,-488.13776,12.3714285,0.020019531,-0.011949741,12.454132,1.2872246e-06,-2.3153295e-06,0,0,1
2048232000,2048080000,2048080000,0,-488.1657,12.371462,0.04647827,-0.004595167,12.455633,6.937358e-06,-1.1506556e-06,0,0,1
2048304000,2048150666,2048152000,0,-488.06668,12.371494,-0.0,-0.01094174,12.457154,1.0014827e-05,-2.2483127e-06,0,0,1
2048376000,2048224000,2048224000,0,-488.10477,12.371526,-0.0,-0.012426848,12.458695,1.6329634e-06,-2.1696046e-06,0,0,1
2048448000,2048296000,2048296000,0,-488.06274,12.371557,-0.0,-0.019970525,12.460257,1.6807235e-05,-4.012103e-06,0,0,1
2048520000,2048368000,2048368000,0,-488.11038,12.371588,-0.0,-0.02136727,12.453556,3.1000043e-06,-3.8972935e-06,0,0,1
2048592000,2048440000,2048440000,0,-488.1154,12.371617,-0.0,-0.023940366,12.455042,5.6137887e-06,-4.1133558e-06,0,0,1
2048664000,2048512000,2048512000,0,-488.24255,12.371647,0.06518555,-0.01272172,12.456549,1.3644728e-05,-1.8780727e-06,0,0,1
2048736000,2048584000,2048584000,0,-488.27948,12.3716755,0.076934814,-0.0014362838,12.458076,1.900443e-05,7.504939e-07,0,0,1
2048808000,2048656000,2048656000,0,-488.2036,12.371704,-0.0,-0.00493937,12.459623,2.7497451e-06,3.0990438e-07,0,0,1
2048880000,2048728000,2048728000,0,-488.35413,12.371732,0.09963989,0.008224453,12.452961,3.188995e-05,4.2850147e-06,0,0,1
2048952000,2048798666,2048800000,0,-488.3156,12.371759,0.021240234,0.009836207,12.4544325,1.4489542e-06,3.9338233e-06,0,0,1
2049016000,2048860000,2048864000,0,-488.32947,12.37165,-0.0,0.008327972,12.455563,5.0545612e-08,3.4984723e-06,0,0,1
2049072000,2048920000,2048920000,0,-488.3624,12.371408,-0.0,0.006608445,12.456345,1.9143023e-07,3.1031257e-06,0,0,1
2049144000,2048990666,2048992000,0,-488.36716,12.371442,-0.0,-0.00063798716,12.457877,8.652163e-06,1.6474594e-06,0,0,1
2049216000,2049064000,2049064000,0,-488.49445,12.371475,0.025299072,0.00267957,12.45943,2.0548068e-06,1.6995624e-06,0,0,1
2049288000,2049136000,2049136000,0,-488.5787,12.371508,0.06466675,0.010482151,12.452784,1.3432462e-05,3.1764307e-06,0,0,1
2049360000,2049206666,2049208000,0,-488.6485,12.371538,0.08126831,0.019247655,12.454259,2.1212143e-05,5.4098064e-06,0,0,1
2049432000,2049280000,2049280000,0,-488.7181,12.37157,0.096832275,0.029171348,12.455757,3.0111345e-05,8.56933e-06,0,0,1
2049504000,2049350666,2049352000,0,-488.72186,12.371599,0.045837402,0.031235117,12.457274,6.7464757e-06,8.343604e-06,0,0,1
2049576000,2049422666,2049424000,0,-488.75427,12.37163,0.023376465,0.030245917,12.458814,1.75445e-06,7.5142e-06,0,0,1
2049648000,2049496000,2049496000,0,-488.7353,12.371658,-0.0,0.01989751,12.460371,8.238447e-06,5.4993106e-06,0,0,1
2049720000,2049566666,2049568000,0,-488.85315,12.371688,0.01864624,0.019742563,12.453668,1.1167225e-06,4.9566115e-06,0,0,1
2049792000,2049638666,2049640000,0,-488.88113,12.371716,-0.0,0.016131964,12.455151,2.5677124e-07,4.3003815e-06,0,0,1
2049856000,2049700000,2049704000,0,-488.94226,12.371608,0.0026245117,0.014656076,12.45629,2.2119144e-08,3.8329185e-06,0,0,1
2049912000,2049760000,2049760000,0,-489.00327,12.3713665,0.020050049,0.015234002,12.457079,1.2908466e-06,3.5605538e-06,0,0,1
2049984000,2049829333,2049832000,0,-489.11575,12.371401,0.07611084,0.022647543,12.458622,1.859872e-05,5.3918916e-06,0,0,1
2050048000,2049892000,2049896000,0,-489.1385,12.3713,0.048065186,0.02547843,12.459809,7.416685e-06,5.6174026e-06,0,0,1
2050104000,2049952000,2049952000,0,-489.2554,12.371065,0.12161255,0.035778515,12.452438,4.7507518e-05,1.01056285e-05,0,0,1
2050176000,2050024000,2050024000,0,-489.18848,12.371105,-0.0,0.030871581,12.453925,3.2978622e-08,8.82944e-06,0,0,1
2050248000,2050096000,2050096000,0,-489.2777,12.371144,0.028900146,0.030623429,12.455433,2.6822622e-06,8.055669e-06,0,0,1
2050320000,2050166666,2050168000,0,-489.25397,12.371182,-0.0,0.02037297,12.456961,8.7343815e-06,5.9765443e-06,0,0,1
2050384000,2050228000,2050232000,0,-489.45166,12.371085,0.09475708,0.028500527,12.4581375,2.8829043e-05,8.473516e-06,0,0,1
2050440000,2050286666,2050288000,0,-489.4132,12.370854,0.011413574,0.026706211,12.458955,4.1823628e-07,7.6276237e-06,0,0,1
2050512000,2050358666,2050360000,0,-489.46942,12.370899,0.013763428,0.02507705,12.452351,6.0850175e-07,6.744098e-06,0,0,1
2050584000,2050432000,2050432000,0,-489.56787,12.370942,0.055908203,0.029020602,12.453842,1.0039398e-05,7.165593e-06,0,0,1
2050656000,2050504000,2050504000,0,-489.6096,12.370984,0.04159546,0.030603452,12.455355,5.5564283e-06,6.963041e-06,0,0,1
2050728000,2050574666,2050576000,0,-489.69836,12.371026,0.075042725,0.0361064,12.456888,1.8082881e-05,8.340019e-06,0,0,1
2050800000,2050648000,2050648000,0,-489.7681,12.371067,0.08969116,0.04296032,12.458442,2.5828285e-05,1.0576909e-05,0,0,1
2050872000,2050720000,2050720000,0,-489.80945,12.371107,0.077819824,0.04734823,12.451865,1.9453873e-05,1.1694288e-05,0,0,1
2050944000,2050790666,2050792000,0,-489.89792,12.371146,0.11218262,0.055376723,12.453342,4.042269e-05,1.5251748e-05,0,0,1
2051016000,2050862666,2050864000,0,-489.86862,12.371184,0.029174805,0.05207858,12.45484,2.7336175e-06,1.3676039e-05,0,0,1
2051088000,2050933333,2050936000,0,-489.99042,12.3712225,0.09844971,0.05782082,12.45636,3.1124164e-05,1.583668e-05,0,0,1
2051152000,2050996000,2051000000,0,-489.98947,12.371124,0.050842285,0.057043586,12.457529,8.300002e-06,1.4997283e-05,0,0,1
2051208000,2051054666,2051056000,0,-490.01248,12.370893,0.03375244,0.05459776,12.458342,3.6577176e-06,1.3806505e-05,0,0,1
2051280000,2051126666,2051128000,0,-490.08725,12.370936,0.056396484,0.054824173,12.451774,1.0217223e-05,1.3354707e-05,0,0,1
2051352000,2051200000,2051200000,0,-490.15244,12.370978,0.0718689,0.05700433,12.453256,1.6590484e-05,1.3768589e-05,0,0,1
2051424000,2051272000,2051272000,0,-490.16583,12.37102,0.03640747,0.054411717,12.454759,4.25702e-06,1.2571329e-05,0,0,1
2051496000,2051344000,2051344000,0,-490.24527,12.371061,0.068115234,0.056136634,12.456283,1.48991e-05,1.2864335e-05,0,0,1
2051568000,2051414666,2051416000,0,-490.22116,12.371101,-0.0,0.048829965,12.457827,2.6422477e-08,1.1268063e-05,0,0,1
2051640000,2051488000,2051488000,0,-490.32446,12.3711405,0.055114746,0.04963384,12.45939,9.752116e-06,1.1074161e-05,0,0,1
2051712000,2051560000,2051560000,0,-490.44598,12.37118,0.1308899,0.059861872,12.452755,5.5030916e-05,1.6607179e-05,0,0,1
2051784000,2051632000,2051632000,0,-490.3696,12.371218,0.010314941,0.053625196,12.454245,3.4172453e-07,1.4559779e-05,0,0,1
2051856000,2051704000,2051704000,0,-490.3648,12.371254,-0.0,0.042261682,12.455753,4.3139603e-06,1.2184064e-05,0,0,1
2051928000,2051774666,2051776000,0,-490.59055,12.37129,0.14904785,0.055485092,12.457283,7.133261e-05,1.9508472e-05,0,0,1
2052000000,2051846666,2051848000,0,-490.50455,12.371326,0.025421143,0.05170082,12.458833,2.0747834e-06,1.7314022e-05,0,0,1
2052072000,2051918666,2051920000,0,-490.55127,12.371362,0.032592773,0.04929561,12.4522295,3.4123655e-06,1.5564163e-05,0,0,1
2052144000,2051992000,2051992000,0,-490.58383,12.371396,0.040283203,0.048142854,12.453704,5.212061e-06,1.4240046e-05,0,0,1
2052216000,2052062666,2052064000,0,-490.57874,12.371429,0.01638794,0.04421062,12.455198,8.624979e-07,1.2583494e-05,0,0,1
2052288000,2052136000,2052136000,0,-490.59735,12.371462,0.020385742,0.04116323,12.456714,1.3344722e-06,1.1144654e-05,0,0,1
2052360000,2052206666,2052208000,0,-490.5549,12.371494,-0.0,0.031829678,12.45825,3.7576326e-06,9.299293e-06,0,0,1
2052432000,2052280000,2052280000,0,-490.55994,12.371527,-0.0,0.022551216,12.459806,5.3205986e-06,7.429292e-06,0,0,1
2052504000,2052352000,2052352000,0,-490.6636,12.371558,0.049346924,0.025924101,12.453141,7.821702e-06,7.4786863e-06,0,0,1
2052576000,2052424000,2052424000,0,-490.59268,12.371589,-0.0,0.018147314,12.454621,4.129575e-06,6.0175066e-06,0,0,1
2052648000,2052496000,2052496000,0,-490.70575,12.371618,0.061828613,0.023645658,12.456122,1.2275979e-05,6.8052864e-06,0,0,1
2052720000,2052566666,2052568000,0,-490.70514,12.371647,0.044647217,0.026246296,12.457644,6.4004844e-06,6.7551596e-06,0,0,1
2052792000,2052640000,2052640000,0,-490.62958,12.371676,-0.0,0.016834946,12.459187,7.1927343e-06,4.9711125e-06,0,0,1
2052864000,2052712000,2052712000,0,-490.73804,12.371705,0.04550171,0.02044335,12.4525585,6.6505386e-06,5.1825086e-06,0,0,1
2052936000,2052784000,2052784000,0,-490.6906,12.371732,-0.0,0.015665114,12.454023,9.855399e-07,4.4061107e-06,0,0,1
2053008000,2052854666,2052856000,0,-490.71426,12.371759,-0.0,0.012644493,12.455511,2.4464177e-07,3.8302046e-06,0,0,1
2053072000,2052916000,2052920000,0,-490.73315,12.371651,-0.0,0.010982798,12.456655,2.1101693e-08,3.4093928e-06,0,0,1
2053128000,2052974666,2052976000,0,-490.76132,12.371408,0.014862061,0.011390163,12.457444,7.092333e-07,3.1258467e-06,0,0,1
2053192000,2053036000,2053040000,0,-490.78467,12.371307,0.026123047,0.012999947,12.45862,2.1909764e-06,3.0236984e-06,0,0,1
2053248000,2053096000,2053096000,0,-490.8032,12.371072,0.03439331,0.015292093,12.4594345,3.7976035e-06,3.1066168e-06,0,0,1
2053320000,2053168000,2053168000,0,-490.80753,12.371113,0.024841309,0.016494092,12.452801,1.9821746e-06,2.9650787e-06,0,0,1
2053392000,2053240000,2053240000,0,-490.8918,12.371151,0.096710205,0.026591223,12.454291,3.003901e-05,6.372986e-06,0,0,1
2053464000,2053312000,2053312000,0,-490.75943,12.37119,-0.0,0.017190073,12.455804,7.428494e-06,4.635737e-06,0,0,1
2053536000,2053384000,2053384000,0,-490.8397,12.371227,0.020935059,0.017661469,12.457336,1.4072886e-06,4.2293586e-06,0,0,1
2053608000,2053456000,2053456000,0,-490.8958,12.371264,0.066101074,0.023758762,12.458889,1.4028063e-05,5.4627617e-06,0,0,1
2053680000,2053525333,2053528000,0,-490.84354,12.371301,0.0,0.020865435,12.452284,0.0,4.79751e-06,0,0,1
2053752000,2053600000,2053600000,0,-490.8811,12.371336,0.027679443,0.021750785,12.453761,2.4607878e-06,4.4938974e-06,0,0,1
2053824000,2053670666,2053672000,0,-490.95126,12.37137,0.08816528,0.029974941,12.455258,2.4963327e-05,7.0286424e-06,0,0,1
2053896000,2053744000,2053744000,0,-490.9316,12.371405,0.058776855,0.033658937,12.456777,1.109346e-05,7.548565e-06,0,0,1
2053968000,2053814666,2053816000,0,-490.93103,12.371438,0.04901123,0.035560023,12.458315,7.712441e-06,7.568858e-06,0,0,1
2054032000,2053876000,2053880000,0,-490.893,12.371336,0.0032348633,0.032028023,12.459499,3.3594738e-08,6.74552e-06,0,0,1
2054088000,2053936000,2053936000,0,-490.81317,12.371101,-0.0,0.019365974,12.452151,2.3841716e-05,3.4683164e-06,0,0,1
2054160000,2054006666,2054008000,0,-490.94077,12.3711405,0.033477783,0.02111345,12.453633,3.5997912e-06,3.484597e-06,0,0,1
2054232000,2054080000,2054080000,0,-490.98273,12.371179,0.06762695,0.027062899,12.455135,1.4687612e-05,4.9175524e-06,0,0,1
2054304000,2054152000,2054152000,0,-490.91162,12.371216,-0.0,0.022238914,12.456658,4.072033e-07,4.2473034e-06,0,0,1
2054376000,2054224000,2054224000,0,-490.88828,12.371253,-0.0,0.014230709,12.458202,5.4982456e-06,3.020591e-06,0,0,1
2054448000,2054296000,2054296000,0,-490.87927,12.37129,-0.0,0.0052675875,12.459766,1.0421707e-05,1.3285537e-06,0,0,1
2054520000,2054368000,2054368000,0,-490.94086,12.371326,-0.0,0.003663398,12.453109,1.7956202e-07,1.138721e-06,0,0,1
2054592000,2054440000,2054440000,0,-490.95032,12.371361,-0.0,0.002687527,12.4545965,5.3708135e-08,9.886251e-07,0,0,1
2054664000,2054512000,2054512000,0,-490.97385,12.371395,0.013671875,0.004070172,12.456106,6.0025235e-07,9.39739e-07,0,0,1
2054736000,2054584000,2054584000,0,-490.99716,12.3714285,0.031402588,0.0075106155,12.457636,3.1663233e-06,1.2200082e-06,0,0,1
2054808000,2054656000,2054656000,0,-490.94992,12.371462,-0.0,0.0038724209,12.459186,1.4692865e-06,8.814956e-07,0,0,1
2054880000,2054726666,2054728000,0,-491.00647,12.371494,0.024536133,0.006431224,12.45256,1.9338088e-06,1.0118043e-06,0,0,1
2054952000,2054798666,2054800000,0,-490.9499,12.371526,-0.0,0.000954431,12.454035,4.415731e-06,3.286181e-07,0,0,1
2055016000,2054860000,2054864000,0,-491.0113,12.371422,0.02029419,0.0030675842,12.455169,1.322677e-06,4.3723367e-07,0,0,1
2055072000,2054918666,2054920000,0,-490.9172,12.371184,-0.0,-0.005362379,12.455954,1.9143625e-05,-1.6189692e-06,0,0,1
2055144000,2054992000,2054992000,0,-490.91324,12.3712225,-0.0,-0.015586609,12.457489,2.3361097e-05,-4.399961e-06,0,0,1
2055216000,2055062666,2055064000,0,-490.98917,12.37126,-0.0,-0.015300379,12.459044,5.6578824e-07,-3.9251727e-06,0,0,1
2055288000,2055134666,2055136000,0,-491.09262,12.371296,0.08480835,-0.002699281,12.452431,2.3103783e-05,-5.229267e-07,0,0,1
2055360000,2055206666,2055208000,0,-490.95096,12.371331,-0.0,-0.010026893,12.45391,1.1917235e-05,-1.9571753e-06,0,0,1
2055432000,2055280000,2055280000,0,-491.01724,12.3713665,0.0020751953,-0.008478939,12.45541,1.3829927e-08,-1.7050679e-06,0,0,1
2055504000,2055350666,2055352000,0,-491.0219,12.3714,0.0037231445,-0.0069679455,12.45693,4.4511143e-08,-1.4884163e-06,0,0,1
2055576000,2055422666,2055424000,0,-491.05475,12.371434,0.0335083,-0.0018730336,12.458472,3.6049564e-06,-8.472925e-07,0,0,1
2055648000,2055496000,2055496000,0,-491.0591,12.371467,0.034820557,0.0028203698,12.460032,3.892353e-06,-2.4105395e-07,0,0,1
2055720000,2055566666,2055568000,0,-491.10574,12.3715,0.074798584,0.011733485,12.453357,1.7970506e-05,2.0140974e-06,0,0,1
2055792000,2055640000,2055640000,0,-491.02518,12.3715315,-0.0,0.009096777,12.454843,2.5328407e-07,1.7240811e-06,0,0,1
2055864000,2055712000,2055712000,0,-490.94547,12.371562,-0.0,-0.0035109296,12.456349,2.6629745e-05,-1.8449318e-06,0,0,1
2055936000,2055784000,2055784000,0,-491.05902,12.3715925,0.020141602,-0.0005336881,12.457877,1.3025787e-06,-1.4487417e-06,0,0,1
2056008000,2055856000,2055856000,0,-491.02127,12.371622,-0.0,-0.0029595618,12.459423,1.2593649e-06,-1.4249041e-06,0,0,1
2056080000,2055926666,2055928000,0,-491.03555,12.371652,-0.0,-0.0037494556,12.452783,2.8011513e-07,-1.283144e-06,0,0,1
2056152000,2056000000,2056000000,0,-491.10608,12.37168,0.05911255,0.0042910967,12.454254,1.1222811e-05,3.1646755e-07,0,0,1
2056224000,2056072000,2056072000,0,-491.07263,12.371708,0.023223877,0.0066742436,12.455747,1.7320469e-06,4.9465234e-07,0,0,1
2056296000,2056142666,2056144000,0,-491.0771,12.371736,0.025543213,0.009010802,12.45726,2.0950215e-06,6.9282726e-07,0,0,1
2056368000,2056216000,2056216000,0,-491.0299,12.371763,-0.0,0.004829177,12.458794,1.8005599e-06,3.7390313e-07,0,0,1
2056440000,2056288000,2056288000,0,-491.18036,12.37179,0.12512207,0.019970939,12.460347,5.0257135e-05,6.652911e-06,0,0,1
2056512000,2056360000,2056360000,0,-490.98196,12.371817,-0.0,0.00726211,12.4536495,2.1070038e-05,3.1633094e-06,0,0,1
2056584000,2056430666,2056432000,0,-491.07663,12.371841,0.011779785,0.007821537,12.455127,4.4564246e-07,2.8267787e-06,0,0,1
2056656000,2056502666,2056504000,0,-491.11407,12.371866,0.0473938,0.01280266,12.456626,7.2127787e-06,3.3788624e-06,0,0,1
2056728000,2056574666,2056576000,0,-491.0432,12.371891,-0.0,0.007987432,12.458146,2.0798825e-06,2.6917478e-06,0,0,1
2056800000,2056646666,2056648000,0,-491.05283,12.371915,-0.0,0.0047809146,12.459686,9.816627e-07,2.2293605e-06,0,0,1
2056872000,2056717333,2056720000,0,-491.02014,12.371939,-0.0,-0.0028288336,12.453027,1.0315945e-05,6.7584676e-07,0,0,1
2056944000,2056790666,2056792000,0,-491.01132,12.371962,-0.0,-0.011007637,12.454491,1.431953e-05,-1.2421589e-06,0,0,1
2057016000,2056862666,2056864000,0,-491.11057,12.3719845,0.031555176,-0.0056500803,12.4559765,3.1975947e-06,-6.833088e-07,0,0,1
2057080000,2056924000,2056928000,0,-491.0586,12.371871,-0.0,-0.007366872,12.457117,1.4653409e-06,-7.6875733e-07,0,0,1
2057136000,2056984000,2056984000,0,-491.10107,12.371625,0.020568848,-0.004373759,12.457905,1.3584225e-06,-5.4084524e-07,0,0,1
2057208000,2057056000,2057056000,0,-491.05392,12.3716545,-0.0,-0.007291976,12.459451,2.438017e-06,-7.7965007e-07,0,0,1
2057280000,2057126666,2057128000,0,-491.07767,12.371683,-0.0,-0.0070276586,12.452809,8.544098e-08,-6.9368565e-07,0,0,1
2057352000,2057200000,2057200000,0,-491.19977,12.371712,0.116363525,0.008755059,12.45428,4.348857e-05,4.957578e-06,0,0,1
2057424000,2057270666,2057272000,0,-490.9639,12.371738,-0.12081909,-0.007290206,12.4557705,4.6877078e-05,-1.4611464e-06,0,0,1
2057496000,2057342666,2057344000,0,-491.0496,12.371765,-0.03479004,-0.010751723,12.457282,3.8863914e-06,-1.766422e-06,0,0,1
2057560000,2057402000,2057408000,0,-491.0969,12.371657,0.011993408,-0.008338925,12.458445,4.618292e-07,-1.5300496e-06,0,0,1
2057616000,2057464000,2057464000,0,-491.09677,12.371415,0.01071167,-0.006237258,12.459248,3.6836852e-07,-1.3206156e-06,0,0,1
2057688000,2057536000,2057536000,0,-491.21405,12.3714485,0.12915039,0.010804542,12.452623,5.3578504e-05,5.5897626e-06,0,0,1
2057760000,2057606666,2057608000,0,-491.086,12.371481,-0.0025024414,0.009156728,12.454099,2.0112937e-08,4.8950874e-06,0,0,1
2057832000,2057678666,2057680000,0,-491.08133,12.371513,-0.010406494,0.0066942247,12.455597,3.4777977e-07,4.235146e-06,0,0,1
2057904000,2057752000,2057752000,0,-491.0345,12.371545,-0.06100464,-0.0019650012,12.457114,1.195001e-05,2.1649353e-06,0,0,1
2057976000,2057824000,2057824000,0,-491.09613,12.371575,-0.003479004,-0.002155575,12.458652,3.8859643e-08,1.8875345e-06,0,0,1
2058048000,2057894666,2057896000,0,-491.12433,12.371606,0.01953125,0.0005299209,12.460209,1.2246014e-06,1.8054429e-06,0,0,1
2058120000,2057968000,2057968000,0,-491.11945,12.371635,0.0069274902,0.0013482212,12.453524,1.5414149e-07,1.5942283e-06,0,0,1
2058192000,2058040000,2058040000,0,-491.16165,12.371664,0.04345703,0.006648631,12.455007,6.0650746e-06,2.1569922e-06,0,0,1
2058264000,2058110666,2058112000,0,-491.16122,12.371693,0.037628174,0.010484851,12.456511,4.546633e-06,2.4529031e-06,0,0,1
2058328000,2058172000,2058176000,0,-491.15146,12.371586,0.023803711,0.011940133,12.457667,1.8193347e-06,2.3836765e-06,0,0,1
2058384000,2058232000,2058232000,0,-491.09018,12.3713455,-0.04043579,0.006328427,12.458468,5.2496125e-06,1.565824e-06,0,0,1
2058456000,2058302666,2058304000,0,-491.09528,12.37138,-0.039611816,0.0006396123,12.458942,5.037654e-06,7.481104e-07,0,0,1
2058528000,2058376000,2058376000,0,-491.1567,12.371414,0.01889038,0.0029740315,12.4533615,1.1461852e-06,7.9902736e-07,0,0,1
2058600000,2058448000,2058448000,0,-491.21283,12.371448,0.072906494,0.011776718,12.454852,1.7070799e-05,2.8472223e-06,0,0,1
2058672000,2058520000,2058520000,0,-491.07596,12.37148,-0.06585693,0.0020046514,12.456364,1.3927453e-05,7.357246e-07,0,0,1
2058744000,2058590666,2058592000,0,-491.1001,12.371512,-0.042144775,-0.0034624054,12.457897,5.702992e-06,-6.158655e-08,0,0,1
2058816000,2058661333,2058664000,0,-491.016,12.371544,-0.12658691,-0.018709194,12.459453,5.1444462e-05,-6.424445e-06,0,0,1
2058888000,2058734666,2058736000,0,-491.09235,12.371574,-0.052947998,-0.02308856,12.452811,9.005165e-06,-6.7545357e-06,0,0,1
2058960000,2058808000,2058808000,0,-491.10696,12.371605,-0.03817749,-0.025018554,12.454291,4.6811842e-06,-6.4893375e-06,0,0,1
2059032000,2058878666,2058880000,0,-491.1355,12.371634,-0.009094238,-0.023046635,12.455792,2.6559584e-07,-5.7186467e-06,0,0,1
2059104000,2058952000,2058952000,0,-491.1121,12.371663,-0.031188965,-0.024088103,12.457318,3.1234702e-06,-5.386703e-06,0,0,1
2059176000,2059022666,2059024000,0,-491.1359,12.371692,-0.0048217773,-0.02170234,12.458865,7.4644156e-08,-4.728907e-06,0,0,1
2059248000,2059094666,2059096000,0,-491.0092,12.371719,-0.12802124,-0.035085138,12.460434,5.261273e-05,-1.0756241e-05,0,0,1
2059312000,2059156000,2059160000,0,-491.08554,12.371613,-0.048706055,-0.036573425,12.453368,7.619721e-06,-1.041353e-05,0,0,1
2059368000,2059216000,2059216000,0,-491.21747,12.371371,0.08709717,-0.023323005,12.454142,2.4364317e-05,-6.6873317e-06,0,0,1
2059440000,2059286666,2059288000,0,-491.09457,12.371405,-0.03149414,-0.024334842,12.455656,3.185319e-06,-6.2536747e-06,0,0,1
2059504000,2059348000,2059352000,0,-491.17,12.371304,0.048553467,-0.016370723,12.456826,7.5699513e-06,-4.74324e-06,0,0,1
2059560000,2059406666,2059408000,0,-491.05682,12.371068,-0.06100464,-0.02105777,12.45764,1.1949506e-05,-5.4999764e-06,0,0,1
2059632000,2059478666,2059480000,0,-491.095,12.371109,-0.017181396,-0.020569835,12.459221,9.4773304e-07,-4.9269665e-06,0,0,1
2059704000,2059552000,2059552000,0,-491.17496,12.371148,0.07070923,-0.008894513,12.452582,1.6060269e-05,-2.2425315e-06,0,0,1
2059776000,2059622666,2059624000,0,-491.06628,12.371186,-0.03265381,-0.011836644,12.454085,3.424647e-06,-2.3889138e-06,0,0,1
2059848000,2059693333,2059696000,0,-491.03845,12.371223,-0.054504395,-0.017120289,12.45561,9.540212e-06,-3.2744754e-06,0,0,1
2059912000,2059756000,2059760000,0,-490.98734,12.371125,-0.10040283,-0.026395876,12.456789,3.237023e-05,-6.515013e-06,0,0,1
2059968000,2059816000,2059816000,0,-491.06342,12.370894,-0.019836426,-0.025693078,12.457613,1.2634323e-06,-5.9523436e-06,0,0,1
2060040000,2059888000,2059888000,0,-491.05893,12.370938,-0.02029419,-0.025013497,12.459203,1.3222487e-06,-5.3695344e-06,0,0,1
2060112000,2059958666,2059960000,0,-491.04974,12.370981,-0.020812988,-0.024493344,12.452554,1.3914591e-06,-4.876926e-06,0,0,1
2060184000,2060032000,2060032000,0,-491.06873,12.371022,0.00079345703,-0.02125896,12.454063,2.0220678e-09,-4.2528695e-06,0,0,1
2060256000,2060104000,2060104000,0,-491.11563,12.371063,0.049621582,-0.012336934,12.455597,7.907453e-06,-2.7221997e-06,0,0,1
2060328000,2060176000,2060176000,0,-490.9931,12.371103,-0.071624756,-0.019799735,12.45715,1.6472806e-05,-4.453045e-06,0,0,1
2060400000,2060248000,2060248000,0,-490.975,12.371142,-0.08798218,-0.02838214,12.458725,2.4852827e-05,-7.02085e-06,0,0,1
2060472000,2060320000,2060320000,0,-491.07446,12.3711815,0.014770508,-0.022950338,12.452093,7.008232e-07,-6.048891e-06,0,0,1
2060544000,2060390666,2060392000,0,-491.1119,12.371219,0.052886963,-0.013559349,12.453588,8.983856e-06,-4.1873745e-06,0,0,1
2060616000,2060464000,2060464000,0,-491.07852,12.371256,0.01953125,-0.009326797,12.455106,1.2251031e-06,-3.4950754e-06,0,0,1
2060688000,2060534666,2060536000,0,-491.083,12.371292,0.023895264,-0.0052128844,12.456645,1.8335069e-06,-2.835233e-06,0,0,1
2060760000,2060608000,2060608000,0,-491.0546,12.371327,-0.0046691895,-0.0051433416,12.458204,6.999831e-08,-2.4815374e-06,0,0,1
2060832000,2060678666,2060680000,0,-490.9936,12.371363,-0.06564331,-0.012635099,12.459785,1.3833446e-05,-3.887253e-06,0,0,1
2060904000,2060750666,2060752000,0,-491.1163,12.371398,0.061584473,-0.0032927757,12.453078,1.21821995e-05,-1.8645248e-06,0,0,1
2060976000,2060824000,2060824000,0,-491.09225,12.371431,0.037139893,0.001878886,12.45458,4.4300864e-06,-1.0593938e-06,0,0,1
2061048000,2060896000,2060896000,0,-491.0825,12.371464,0.026977539,0.005038157,12.456104,2.3371274e-06,-6.318596e-07,0,0,1
2061120000,2060966666,2060968000,0,-491.0916,12.371496,0.035888672,0.0088583995,12.45765,4.135601e-06,-4.150138e-08,0,0,1
2061192000,2061038666,2061040000,0,-491.00208,12.371528,-0.054138184,0.0009287605,12.459217,9.409718e-06,-1.2207173e-06,0,0,1
2061256000,2061100000,2061104000,0,-491.0073,12.371425,-0.04949951,-0.00458127,12.459281,7.86627e-06,-1.9468416e-06,0,0,1
2061312000,2061160000,2061160000,0,-491.07822,12.371187,0.021820068,-0.0017525554,12.452958,1.5293247e-06,-1.5743952e-06,0,0,1
2061384000,2061229333,2061232000,0,-491.08737,12.371224,0.030303955,0.0021512655,12.454466,2.949399e-06,-1.0234905e-06,0,0,1
2061456000,2061304000,2061304000,0,-491.00726,12.371262,-0.050048828,-0.0046311393,12.4559965,8.0439495e-06,-1.935665e-06,0,0,1
2061528000,2061376000,2061376000,0,-491.0547,12.371298,-0.0018615723,-0.0042825225,12.457548,1.1127234e-08,-1.6934156e-06,0,0,1
2061600000,2061448000,2061448000,0,-491.05472,12.371333,-0.0013122559,-0.0039086426,12.45912,5.52853e-09,-1.4809543e-06,0,0,1
2061672000,2061520000,2061520000,0,-491.11108,12.371368,0.059570312,0.004081715,12.452447,1.13989545e-05,1.4029285e-07,0,0,1
2061744000,2061592000,2061592000,0,-491.0964,12.371403,0.045318604,0.009272372,12.453939,6.5963895e-06,9.529483e-07,0,0,1
2061816000,2061664000,2061664000,0,-491.01147,12.371436,-0.03933716,0.0031536906,12.455454,4.9694277e-06,2.074745e-07,0,0,1
2061888000,2061734666,2061736000,0,-491.09164,12.371469,0.041259766,0.007872395,12.456989,5.4663874e-06,8.5868965e-07,0,0,1
2061952000,2061796000,2061800000,0,-491.049,12.371366,-0.0018310547,0.0068121506,12.458173,1.07648574e-08,7.6368894e-07,0,0,1
2062008000,2061854666,2061856000,0,-491.0772,12.37113,0.026153564,0.00884321,12.458998,2.196032e-06,9.1410055e-07,0,0,1
2062072000,2061916000,2061920000,0,-491.13327,12.371034,0.084228516,0.017080162,12.451981,2.2789767e-05,3.304339e-06,0,0,1
2062128000,2061976000,2061976000,0,-491.001,12.370804,-0.048950195,0.010005482,12.452761,7.696675e-06,2.1256592e-06,0,0,1
2062200000,2062048000,2062048000,0,-491.0672,12.370849,0.016967773,0.010881854,12.454277,9.246794e-07,1.9744868e-06,0,0,1
2062272000,2062120000,2062120000,0,-491.06705,12.370893,0.016143799,0.011544197,12.455814,8.3694965e-07,1.8313003e-06,0,0,1
2062344000,2062190666,2062192000,0,-491.11853,12.370936,0.06695557,0.018405829,12.457373,1.4394842e-05,3.387053e-06,0,0,1
2062408000,2062252000,2062256000,0,-491.12726,12.370844,0.07467651,0.024554228,12.458575,1.7904396e-05,4.973286e-06,0,0,1
2062464000,2062312000,2062312000,0,-491.0984,12.370618,0.045318604,0.026778983,12.451238,6.5978206e-06,5.1473435e-06,0,0,1
2062536000,2062382666,2062384000,0,-490.99933,12.3706665,-0.054595947,0.016702265,12.452737,9.574497e-06,3.3243268e-06,0,0,1
2062608000,2062454666,2062456000,0,-491.0562,12.370714,0.002105713,0.0148649365,12.454257,1.4241e-08,2.9076728e-06,0,0,1
2062680000,2062528000,2062528000,0,-491.07028,12.370761,0.0154418945,0.0149387345,12.455798,7.657546e-07,2.6337043e-06,0,0,1
2062752000,2062600000,2062600000,0,-490.98563,12.370807,-0.069732666,0.0042807963,12.45736,1.5613723e-05,3.3682545e-07,0,0,1
2062824000,2062672000,2062672000,0,-491.0708,12.3708515,0.015563965,0.0057010553,12.458943,7.7771284e-07,3.9232177e-07,0,0,1
2062896000,2062744000,2062744000,0,-491.01898,12.370896,-0.036315918,0.00041220617,12.452293,4.2364754e-06,-1.9032402e-07,0,0,1
2062968000,2062816000,2062816000,0,-491.11795,12.370939,0.06262207,0.008242818,12.453798,1.2595429e-05,1.4190713e-06,0,0,1
2063040000,2062885333,2062888000,0,-490.9718,12.370982,-0.08416748,-0.0030108476,12.455326,2.2750637e-05,-1.5243e-06,0,0,1
2063104000,2062948000,2062952000,0,-491.12756,12.370888,0.07217407,0.0053628674,12.456505,1.6727314e-05,5.084722e-07,0,0,1
2063160000,2063008000,2063008000,0,-491.07053,12.370662,0.0146484375,0.00635775,12.45733,6.8899743e-07,5.278142e-07,0,0,1
2063232000,2063078666,2063080000,0,-491.09854,12.370709,0.04257202,0.01084219,12.458918,5.81873e-06,1.1829923e-06,0,0,1
2063304000,2063152000,2063152000,0,-491.05115,12.370757,-0.005493164,0.008752768,12.452273,9.692962e-08,1.01928e-06,0,0,1
2063376000,2063224000,2063224000,0,-490.99487,12.370803,-0.06210327,-0.00016617402,12.453786,1.2387612e-05,-6.683006e-07,0,0,1
2063448000,2063296000,2063296000,0,-491.02365,12.370848,-0.033447266,-0.004355402,12.455319,3.5927446e-06,-1.0364124e-06,0,0,1
2063520000,2063368000,2063368000,0,-491.05215,12.370892,-0.005279541,-0.004471727,12.456874,8.950417e-08,-9.172212e-07,0,0,1
2063592000,2063440000,2063440000,0,-491.04282,12.370935,-0.015136719,-0.0058141737,12.458449,7.3563007e-07,-8.9436355e-07,0,0,1
2063664000,2063510666,2063512000,0,-491.0148,12.370978,-0.04815674,-0.011057485,12.451831,7.449736e-06,-1.7061202e-06,0,0,1
2063728000,2063572000,2063576000,0,-491.13263,12.370884,0.069488525,-0.0022566486,12.4529705,1.5510052e-05,1.7499974e-07,0,0,1
2063784000,2063630666,2063632000,0,-490.93945,12.370657,-0.12472534,-0.015117193,12.453767,4.9965318e-05,-5.090279e-06,0,0,1
2063856000,2063704000,2063704000,0,-491.0158,12.370705,-0.04837036,-0.01937054,12.455307,7.513879e-06,-5.4002767e-06,0,0,1
2063928000,2063774666,2063776000,0,-491.0632,12.370752,-0.0012817383,-0.01713059,12.45687,5.2753317e-09,-4.7322096e-06,0,0,1
2064000000,2063846666,2063848000,0,-491.03506,12.370798,-0.029724121,-0.01871579,12.458452,2.8367035e-06,-4.4936146e-06,0,0,1
2064072000,2063920000,2063920000,0,-491.10577,12.370844,0.040496826,-0.011142023,12.451833,5.268278e-06,-3.2449907e-06,0,0,1
2064144000,2063992000,2063992000,0,-491.09598,12.370888,0.030426025,-0.0059096813,12.453338,2.9734776e-06,-2.4622466e-06,0,0,1
2064216000,2064064000,2064064000,0,-491.03937,12.370932,-0.026519775,-0.008503959,12.454866,2.2587105e-06,-2.4366266e-06,0,0,1
2064288000,2064134666,2064136000,0,-491.1241,12.370974,0.058135986,-0.00025188457,12.456414,1.085318e-05,-7.909398e-07,0,0,1
2064352000,2064196000,2064200000,0,-491.00616,12.37088,-0.060455322,-0.0068299957,12.457612,1.1735302e-05,-1.9867725e-06,0,0,1
2064408000,2064256000,2064256000,0,-491.04904,12.370654,-0.017303467,-0.007952154,12.458449,9.613073e-07,-1.8769013e-06,0,0,1
2064480000,2064328000,2064328000,0,-491.06326,12.370702,-0.0033569336,-0.0073737344,12.451827,3.620032e-08,-1.6452046e-06,0,0,1
2064552000,2064398666,2064400000,0,-491.03513,12.3707485,-0.03173828,-0.010390814,12.453339,3.235497e-06,-1.8421317e-06,0,0,1
2064624000,2064472000,2064472000,0,-491.1622,12.370795,0.09527588,0.0031248005,12.454873,2.9153225e-05,2.122422e-06,0,0,1
2064696000,2064541333,2064544000,0,-491.0439,12.37084,-0.023925781,-0.00016940152,12.456429,1.8382252e-06,1.640097e-06,0,0,1
2064768000,2064614666,2064616000,0,-491.02536,12.370885,-0.0423584,-0.0055656475,12.458005,5.7609027e-06,6.934613e-07,0,0,1
2064840000,2064688000,2064688000,0,-491.05392,12.370929,-0.0134887695,-0.0065790783,12.459602,5.8411786e-07,5.3004874e-07,0,0,1
2064912000,2064760000,2064760000,0,-491.11508,12.370972,0.04852295,0.0003568409,12.4529,7.562822e-06,1.4152929e-06,0,0,1
2064984000,2064832000,2064832000,0,-491.0583,12.371014,-0.008850098,-0.0008020743,12.454419,2.515548e-07,1.2054799e-06,0,0,1
2065056000,2064902666,2064904000,0,-491.01144,12.371055,-0.056243896,-0.0076674772,12.45596,1.0158593e-05,-2.0174173e-07,0,0,1
2065120000,2064964000,2064968000,0,-491.11526,12.370959,0.046875,-0.0017079092,12.457151,7.0554356e-06,5.9121163e-07,0,0,1
2065176000,2065024000,2065024000,0,-491.08194,12.370731,0.01171875,-0.0002693386,12.457984,4.4093525e-07,5.751106e-07,0,0,1
2065248000,2065096000,2065096000,0,-491.07245,12.370778,-0.0004272461,-0.00028921507,12.459586,5.860202e-10,5.026453e-07,0,0,1
2065320000,2065166666,2065168000,0,-491.0114,12.370824,-0.06365967,-0.008136425,12.452882,1.3017238e-05,-1.171532e-06,0,0,1
2065384000,2065228000,2065232000,0,-490.92752,12.370733,-0.15093994,-0.023739811,12.454044,7.31742e-05,-9.038882e-06,0,0,1
2065440000,2065288000,2065288000,0,-491.17313,12.370509,0.092315674,-0.011305295,12.454858,2.736983e-05,-5.1379493e-06,0,0,1
2065512000,2065358666,2065360000,0,-491.15814,12.37056,0.07312012,-0.000850833,12.456425,1.7168815e-05,-2.3756859e-06,0,0,1
2065584000,2065430666,2065432000,0,-491.0917,12.37061,0.0040893555,-0.00022899115,12.4580145,5.36934e-08,-2.06989e-06,0,0,1
2065648000,2065492000,2065496000,0,-491.1527,12.370523,0.06448364,0.006841816,12.459244,1.3349575e-05,-3.8508665e-07,0,0,1
2065704000,2065550666,2065552000,0,-491.0394,12.370304,-0.04727173,0.0011593057,12.451841,7.178429e-06,-1.0984614e-06,0,0,1
2065776000,2065624000,2065624000,0,-491.1009,12.370358,0.015350342,0.0029744525,12.453371,7.568488e-07,-8.6115244e-07,0,0,1
2065848000,2065694666,2065696000,0,-491.05847,12.370413,-0.02645874,-0.00067028194,12.454924,2.2483155e-06,-1.0329259e-06,0,0,1
2065920000,2065768000,2065768000,0,-491.04468,12.370465,-0.040008545,-0.00570196,12.456497,5.1400766e-06,-1.5582632e-06,0,0,1
2065992000,2065840000,2065840000,0,-491.12015,12.370517,0.034576416,-0.000631955,12.458093,3.83856e-06,-8.7894284e-07,0,0,1
2066064000,2065912000,2065912000,0,-491.07758,12.370567,-0.01361084,-0.0022656606,12.451466,5.951266e-07,-8.432177e-07,0,0,1
2066136000,2065984000,2065984000,0,-491.0871,12.370617,-0.0073547363,-0.0029062435,12.452982,1.737484e-07,-7.589489e-07,0,0,1
2066208000,2066056000,2066056000,0,-491.12943,12.370666,0.031280518,0.001396985,12.45452,3.1425402e-06,-2.6785239e-07,0,0,1
2066280000,2066128000,2066128000,0,-491.1479,12.370713,0.045837402,0.0069908835,12.456081,6.747122e-06,6.1515135e-07,0,0,1
2066352000,2066200000,2066200000,0,-491.16156,12.37076,0.056152344,0.01317904,12.4576645,1.0124163e-05,1.8120897e-06,0,0,1
2066424000,2066272000,2066272000,0,-491.12344,12.370807,0.015380859,0.013456192,12.45927,7.595014e-07,1.6795962e-06,0,0,1
2066496000,2066344000,2066344000,0,-491.09512,12.3708515,-0.01675415,0.009653492,12.452556,9.0166725e-07,1.3546819e-06,0,0,1
2066568000,2066414666,2066416000,0,-491.053,12.370895,-0.059661865,0.0010701185,12.454082,1.14325185e-05,-2.287668e-07,0,0,1
2066632000,2066476000,2066480000,0,-491.01605,12.370804,-0.096710205,-0.00961382,12.455264,3.0036663e-05,-3.4857178e-06,0,0,1
2066688000,2066536000,2066536000,0,-491.07803,12.370579,-0.03427124,-0.012255687,12.456095,3.771705e-06,-3.5163594e-06,0,0,1
2066760000,2066606666,2066608000,0,-491.2333,12.370628,0.12097168,0.0042419564,12.457688,4.6988323e-05,2.7376736e-06,0,0,1
2066832000,2066680000,2066680000,0,-491.1241,12.370677,0.010681152,0.005065581,12.459305,3.662709e-07,2.4343522e-06,0,0,1
2066904000,2066752000,2066752000,0,-491.04422,12.370725,-0.06893921,-0.004249707,12.452576,1.5266285e-05,2.0630023e-07,0,0,1
2066976000,2066824000,2066824000,0,-491.16696,12.370771,0.05429077,0.003119024,12.454113,9.466714e-06,1.3719466e-06,0,0,1
2067048000,2066896000,2066896000,0,-491.15704,12.370817,0.044067383,0.008273362,12.455675,6.2363033e-06,1.9842432e-06,0,0,1
2067120000,2066966666,2066968000,0,-491.0674,12.370862,-0.045562744,0.0016067964,12.45726,6.6658754e-06,9.1309255e-07,0,0,1
2067192000,2067040000,2067040000,0,-491.11478,12.370906,0.0032653809,0.0018189426,12.458869,3.4233324e-08,8.0067946e-07,0,0,1
2067264000,2067110666,2067112000,0,-491.11475,12.37095,0.0024414062,0.0018960227,12.452147,1.9146785e-08,7.0390166e-07,0,0,1
2067336000,2067182666,2067184000,0,-491.10535,12.370992,-0.0045166016,0.0010888393,12.453674,6.552183e-08,6.0705116e-07,0,0,1
2067408000,2067256000,2067256000,0,-491.05844,12.371033,-0.04849243,-0.005253001,12.455227,7.5519006e-06,-4.3654398e-07,0,0,1
2067480000,2067326666,2067328000,0,-491.18097,12.371073,0.07757568,0.0050037373,12.456803,1.9324338e-05,2.0104608e-06,0,0,1
2067544000,2067388000,2067392000,0,-491.07224,12.370978,-0.028625488,0.0013292499,12.458028,2.6309738e-06,1.5033158e-06,0,0,1
2067600000,2067448000,2067448000,0,-491.16174,12.370749,0.063934326,0.008036937,12.458889,1.3123476e-05,2.748333e-06,0,0,1
2067672000,2067520000,2067520000,0,-491.03433,12.370796,-0.055480957,4.1678548e-05,12.452144,9.887893e-06,1.1577591e-06,0,0,1
2067744000,2067592000,2067592000,0,-491.14285,12.370841,0.057495117,0.0072735795,12.453682,1.0617546e-05,2.3485013e-06,0,0,1
2067816000,2067664000,2067664000,0,-491.08597,12.370885,0.0045776367,0.00693423,12.455243,6.7296185e-08,2.0613566e-06,0,0,1
2067888000,2067736000,2067736000,0,-491.0812,12.370929,0.004333496,0.006606865,12.456828,6.0301666e-08,1.8094755e-06,0,0,1
2067960000,2067808000,2067808000,0,-490.9873,12.370972,-0.084869385,-0.004907626,12.458435,2.3125898e-05,-1.3292428e-06,0,0,1
2068032000,2067878666,2067880000,0,-491.06323,12.371014,-0.003692627,-0.004757172,12.460064,4.3773433e-08,-1.1700621e-06,0,0,1
2068104000,2067952000,2067952000,0,-491.07736,12.371056,0.024291992,-0.0010415518,12.453218,1.8954164e-06,-7.779629e-07,0,0,1
2068176000,2068022666,2068024000,0,-491.00668,12.371096,-0.042999268,-0.006237208,12.454761,5.938089e-06,-1.4169452e-06,0,0,1
2068248000,2068096000,2068096000,0,-490.97894,12.371135,-0.06756592,-0.01408164,12.456325,1.4659712e-05,-3.110801e-06,0,0,1
2068320000,2068166666,2068168000,0,-491.02652,12.371174,-0.017303467,-0.014480601,12.457911,9.61349e-07,-2.8446327e-06,0,0,1
2068392000,2068238666,2068240000,0,-491.05487,12.371212,0.012908936,-0.011032967,12.4595175,5.349826e-07,-2.4192266e-06,0,0,1
2068464000,2068310666,2068312000,0,-491.05475,12.371249,0.015686035,-0.007669736,12.452694,7.903565e-07,-2.0152231e-06,0,0,1
2068536000,2068384000,2068384000,0,-491.11563,12.371285,0.077178955,0.0031830897,12.454214,1.9131166e-05,6.895691e-07,0,0,1
2068608000,2068454666,2068456000,0,-491.11487,12.371321,0.07601929,0.012202451,12.455756,1.855827e-05,2.9022638e-06,0,0,1
2068680000,2068528000,2068528000,0,-491.04373,12.371356,0.004180908,0.011176432,12.45732,5.6127618e-08,2.53822e-06,0,0,1
2068752000,2068598666,2068600000,0,-491.0437,12.37139,0.0037841797,0.010261044,12.458905,4.59752e-08,2.2296035e-06,0,0,1
2068816000,2068660000,2068664000,0,-491.08118,12.371289,0.040771484,0.013594758,12.460131,5.3364256e-06,2.5690695e-06,0,0,1
2068872000,2068720000,2068720000,0,-491.08078,12.371056,0.039245605,0.016343063,12.452551,4.947476e-06,2.8238987e-06,0,0,1
2068944000,2068790666,2068792000,0,-491.13208,12.371096,0.089782715,0.02543715,12.45407,2.5890125e-05,5.680207e-06,0,0,1
2069016000,2068864000,2068864000,0,-491.05136,12.371135,0.0079956055,0.023206238,12.455612,2.0530409e-07,4.979923e-06,0,0,1
2069088000,2068936000,2068936000,0,-491.03253,12.371173,-0.011688232,0.018813927,12.457176,4.3867013e-07,4.2978622e-06,0,0,1
2069160000,2069006666,2069008000,0,-491.08896,12.371211,0.044036865,0.021937301,12.458761,6.2261265e-06,4.5366405e-06,0,0,1
2069224000,2069068000,2069072000,0,-491.0181,12.371114,-0.027923584,0.016489265,12.459987,2.5031377e-06,3.7674413e-06,0,0,1
2069280000,2069128000,2069128000,0,-491.12167,12.370883,0.073638916,0.022612441,12.452425,1.7418903e-05,5.2300975e-06,0,0,1
2069352000,2069198666,2069200000,0,-491.0881,12.370926,0.038909912,0.024630569,12.453945,4.8626557e-06,5.184597e-06,0,0,1
2069424000,2069272000,2069272000,0,-491.16287,12.370969,0.11328125,0.0359697,12.455489,4.12112e-05,9.792688e-06,0,0,1
2069496000,2069342666,2069344000,0,-491.04904,12.371011,-0.0009460449,0.031398397,12.457054,2.8738767e-09,8.579696e-06,0,0,1
2069568000,2069416000,2069416000,0,-491.09604,12.371052,0.04675293,0.033362366,12.45864,7.017897e-06,8.37993e-06,0,0,1
2069640000,2069488000,2069488000,0,-491.0533,12.371093,0.0045776367,0.029739114,12.460246,6.726916e-08,7.3335805e-06,0,0,1
2069712000,2069558666,2069560000,0,-491.06735,12.371133,0.018585205,0.028357917,12.453393,1.1094481e-06,6.5628415e-06,0,0,1
2069784000,2069632000,2069632000,0,-491.11884,12.371171,0.070617676,0.03376328,12.454916,1.6015703e-05,7.771938e-06,0,0,1
2069856000,2069704000,2069704000,0,-491.02893,12.371209,-0.019500732,0.027058717,12.45646,1.2211449e-06,6.6399416e-06,0,0,1
2069928000,2069774666,2069776000,0,-491.11362,12.371246,0.065338135,0.031798884,12.458024,1.370706e-05,7.5150683e-06,0,0,1
2070000000,2069848000,2069848000,0,-491.0754,12.371284,0.026367188,0.031104127,12.459608,2.2319437e-06,6.8393147e-06,0,0,1
2070072000,2069918666,2069920000,0,-491.07516,12.37132,0.025665283,0.030430632,12.452808,2.1158496e-06,6.2544045e-06,0,0,1
2070136000,2069980000,2069984000,0,-491.13596,12.371219,0.08609009,0.03651225,12.453949,2.3804509e-05,8.172012e-06,0,0,1
2070192000,2070038666,2070040000,0,-490.94733,12.370986,-0.10321045,0.021839846,12.454743,3.4211535e-05,3.721279e-06,0,0,1
2070264000,2070112000,2070112000,0,-491.0704,12.371027,0.020690918,0.021692889,12.4562845,1.374773e-06,3.421142e-06,0,0,1
2070336000,2070182666,2070184000,0,-491.089,12.371068,0.03930664,0.023874013,12.457846,4.960768e-06,3.6117951e-06,0,0,1
2070408000,2070256000,2070256000,0,-491.02286,12.371108,-0.026824951,0.01738921,12.459426,2.3101481e-06,2.8543313e-06,0,0,1
2070480000,2070326666,2070328000,0,-491.11234,12.371148,0.060150146,0.022684328,12.45266,1.16217425e-05,3.9400065e-06,0,0,1
2070552000,2070400000,2070400000,0,-491.03192,12.371186,-0.0206604,0.017140191,12.45416,1.3709545e-06,3.2606922e-06,0,0,1
2070624000,2070470666,2070472000,0,-491.08847,12.371223,0.03616333,0.019495841,12.45568,4.1998073e-06,3.3769836e-06,0,0,1
2070696000,2070544000,2070544000,0,-491.06934,12.371261,0.017150879,0.019195901,12.457222,9.445209e-07,3.0658523e-06,0,0,1
2070768000,2070614666,2070616000,0,-491.11612,12.371297,0.06436157,0.0247888,12.458783,1.3299572e-05,4.3331015e-06,0,0,1
2070840000,2070686666,2070688000,0,-491.0779,12.371333,0.026245117,0.024972113,12.460364,2.2111913e-06,4.066008e-06,0,0,1
2070912000,2070758666,2070760000,0,-491.0589,12.371368,0.0051574707,0.022477962,12.453558,8.5435836e-08,3.5649568e-06,0,0,1
2070976000,2070820000,2070824000,0,-490.95084,12.371267,-0.10269165,0.008801342,12.4546995,3.3868582e-05,-5.252082e-07,0,0,1
2071032000,2070880000,2070880000,0,-491.14905,12.371033,0.09640503,0.018187452,12.455492,2.984685e-05,2.7289407e-06,0,0,1
2071104000,2070952000,2070952000,0,-491.04483,12.371073,-0.008300781,0.014853269,12.457035,2.2124999e-07,2.357588e-06,0,0,1
2071176000,2071024000,2071024000,0,-491.1435,12.371113,0.09075928,0.024407871,12.458598,2.6446784e-05,5.3897943e-06,0,0,1
2071248000,2071094666,2071096000,0,-491.10974,12.371153,0.056640625,0.028399277,12.460182,1.029892e-05,5.997695e-06,0,0,1
2071320000,2071168000,2071168000,0,-491.15146,12.371191,0.09338379,0.036711317,12.453407,2.8010109e-05,8.813258e-06,0,0,1
2071392000,2071240000,2071240000,0,-491.0754,12.371229,0.016998291,0.034229957,12.454914,9.279611e-07,7.820703e-06,0,0,1
2071464000,2071312000,2071312000,0,-491.02832,12.371265,-0.030059814,0.026137538,12.45644,2.9016073e-06,6.4710416e-06,0,0,1
2071536000,2071384000,2071384000,0,-491.08966,12.371302,0.03161621,0.026827162,12.457988,3.209458e-06,6.0604925e-06,0,0,1
2071608000,2071456000,2071456000,0,-491.15976,12.371338,0.101501465,0.036226723,12.459557,3.3075165e-05,9.46094e-06,0,0,1
2071680000,2071528000,2071528000,0,-491.12592,12.371373,0.06604004,0.039979447,12.452833,1.4008978e-05,1.0033421e-05,0,0,1
2071752000,2071598666,2071600000,0,-491.0877,12.371407,0.027404785,0.038422316,12.454323,2.4120855e-06,9.089666e-06,0,0,1
2071824000,2071672000,2071672000,0,-491.1015,12.37144,0.041015625,0.03875402,12.455835,5.4023885e-06,8.6180335e-06,0,0,1
2071896000,2071742666,2071744000,0,-491.06357,12.371472,0.0029907227,0.034325425,12.457368,2.8720102e-08,7.554412e-06,0,0,1
2071968000,2071814666,2071816000,0,-491.10107,12.371505,0.040740967,0.035132974,12.458921,5.3289573e-06,7.274285e-06,0,0,1
2072040000,2071886666,2071888000,0,-491.0725,12.371536,0.012176514,0.03224335,12.460495,4.7596015e-07,6.418552e-06,0,0,1
2072104000,2071948000,2071952000,0,-491.12872,12.371433,0.065979004,0.035929464,12.453366,1.3982497e-05,7.2450243e-06,0,0,1
2072160000,2072005333,2072008000,0,-491.05768,12.371195,-0.005340576,0.031684004,12.454142,9.1605685e-08,6.4903033e-06,0,0,1
2072232000,2072080000,2072080000,0,-491.0718,12.371233,0.009094238,0.028748896,12.45566,2.6559866e-07,5.681522e-06,0,0,1
2072304000,2072152000,2072152000,0,-491.07172,12.371269,0.009338379,0.026305614,12.457197,2.8001585e-07,5.0016124e-06,0,0,1
2072376000,2072222666,2072224000,0,-491.0106,12.371305,-0.05130005,0.016695647,12.458756,8.449302e-06,3.3359756e-06,0,0,1
2072448000,2072294666,2072296000,0,-490.9829,12.371342,-0.078063965,0.004767864,12.460336,1.956282e-05,4.5361003e-07,0,0,1
2072520000,2072368000,2072368000,0,-490.98367,12.371376,-0.07928467,-0.0059831263,12.453582,2.0190364e-05,-2.1869193e-06,0,0,1
2072592000,2072438666,2072440000,0,-491.01263,12.37141,-0.04925537,-0.011341561,12.455085,7.79149e-06,-2.8809377e-06,0,0,1
2072656000,2072500000,2072504000,0,-491.0225,12.371308,-0.03857422,-0.014317129,12.456243,4.778232e-06,-3.088245e-06,0,0,1
2072712000,2072560000,2072560000,0,-490.98062,12.371074,-0.07980347,-0.021333523,12.457048,2.0449766e-05,-4.948408e-06,0,0,1
2072784000,2072632000,2072632000,0,-491.0706,12.371114,0.011169434,-0.017242242,12.458612,4.005462e-07,-4.275113e-06,0,0,1
2072856000,2072704000,2072704000,0,-491.13623,12.371153,0.07357788,-0.005810339,12.459078,1.7380755e-05,-1.5491999e-06,0,0,1
2072928000,2072776000,2072776000,0,-491.06976,12.371191,0.0057373047,-0.0043567894,12.453458,1.0572698e-07,-1.3408874e-06,0,0,1
2073000000,2072846666,2072848000,0,-491.04153,12.371229,-0.022521973,-0.0066061975,12.454967,1.6290344e-06,-1.3765688e-06,0,0,1
2073072000,2072918666,2072920000,0,-491.05115,12.371265,-0.012817383,-0.007388025,12.456494,5.275491e-07,-1.2696992e-06,0,0,1
2073144000,2072992000,2072992000,0,-491.07947,12.371302,0.01550293,-0.004460089,12.458044,7.7168073e-07,-1.0085903e-06,0,0,1
2073216000,2073064000,2073064000,0,-491.0934,12.371338,0.029510498,-0.00018407125,12.459615,2.7958154e-06,-5.297141e-07,0,0,1
2073288000,2073133333,2073136000,0,-490.9992,12.371373,-0.06674194,-0.008289445,12.452912,1.4308258e-05,-2.207656e-06,0,0,1
2073352000,2073196000,2073200000,0,-491.00455,12.371271,-0.060699463,-0.014126607,12.454044,1.1833666e-05,-3.2797523e-06,0,0,1
2073408000,2073254666,2073256000,0,-491.11783,12.371037,0.05319214,-0.0070574074,12.454832,9.086927e-06,-1.9811164e-06,0,0,1
2073480000,2073328000,2073328000,0,-491.0328,12.371078,-0.031921387,-0.010237709,12.456367,3.2721418e-06,-2.1462488e-06,0,0,1
2073552000,2073400000,2073400000,0,-490.98145,12.371118,-0.08279419,-0.019370692,12.45792,2.2009703e-05,-4.6465434e-06,0,0,1
2073624000,2073470666,2073472000,0,-491.13718,12.371157,0.073913574,-0.007819232,12.459495,1.7539127e-05,-1.8992753e-06,0,0,1
2073696000,2073544000,2073544000,0,-491.14117,12.371195,0.07800293,0.0031581093,12.452803,1.9544057e-05,8.4349836e-07,0,0,1
2073768000,2073616000,2073616000,0,-491.10284,12.371233,0.03942871,0.0077236393,12.454301,4.9930486e-06,1.3658193e-06,0,0,1
2073840000,2073686666,2073688000,0,-491.10245,12.371269,0.039031982,0.0116005745,12.455818,4.892479e-06,1.8025282e-06,0,0,1
2073912000,2073758666,2073760000,0,-491.01758,12.371305,-0.045837402,0.0043706195,12.457357,6.7464307e-06,7.264356e-07,0,0,1
2073984000,2073830666,2073832000,0,-491.03214,12.371341,-0.030548096,-2.4742913e-05,12.458916,2.996043e-06,2.5787187e-07,0,0,1
2074048000,2073892000,2073896000,0,-491.18735,12.371241,0.12536621,0.013676062,12.460117,5.045438e-05,5.7425787e-06,0,0,1
2074104000,2073952000,2073952000,0,-490.98422,12.371007,-0.07608032,0.0040593073,12.452676,1.859268e-05,3.1352297e-06,0,0,1
2074176000,2074022666,2074024000,0,-491.12585,12.371048,0.0663147,0.011768439,12.454177,1.4124222e-05,4.4960047e-06,0,0,1
2074240000,2074082000,2074088000,0,-491.05945,12.370954,-0.00021362305,0.010497385,12.455336,1.4655505e-10,4.0190544e-06,0,0,1
2074296000,2074142666,2074144000,0,-491.0219,12.370725,-0.037353516,0.0053197523,12.456141,4.4806334e-06,3.0993588e-06,0,0,1
2074360000,2074204000,2074208000,0,-490.90018,12.370637,-0.15863037,-0.012594212,12.457333,8.07993e-05,-6.067804e-06,0,0,1
2074416000,2074264000,2074264000,0,-491.06137,12.370415,0.0036621094,-0.010852464,12.458163,4.305946e-08,-5.4130687e-06,0,0,1
2074488000,2074334666,2074336000,0,-491.04724,12.370468,-0.007537842,-0.010442011,12.451567,1.8252823e-07,-4.765367e-06,0,0,1
2074560000,2074408000,2074408000,0,-491.00507,12.370519,-0.050354004,-0.015547074,12.453069,8.1442595e-06,-5.1975544e-06,0,0,1
2074632000,2074480000,2074480000,0,-491.02902,12.370569,-0.027160645,-0.017008923,12.454594,2.3692483e-06,-4.841544e-06,0,0,1
2074704000,2074550666,2074552000,0,-491.0199,12.370619,-0.03692627,-0.019475304,12.456139,4.3787227e-06,-4.7842327e-06,0,0,1
2074776000,2074624000,2074624000,0,-490.93573,12.370667,-0.12121582,-0.03248873,12.457705,4.7178113e-05,-1.0206749e-05,0,0,1
2074848000,2074694666,2074696000,0,-491.00735,12.370716,-0.04901123,-0.034534723,12.4592905,7.7118375e-06,-9.897802e-06,0,0,1
2074920000,2074766666,2074768000,0,-490.95145,12.370763,-0.105773926,-0.043501895,12.4526205,3.5938214e-05,-1.3175615e-05,0,0,1
2074992000,2074840000,2074840000,0,-491.01822,12.370809,-0.039215088,-0.042953577,12.45413,4.9391588e-06,-1.2122106e-05,0,0,1
2075064000,2074910666,2074912000,0,-491.04208,12.370853,-0.01675415,-0.03970928,12.45566,9.0144255e-07,-1.0732643e-05,0,0,1
2075136000,2074984000,2074984000,0,-491.0094,12.370897,-0.051879883,-0.041265998,12.457211,8.642455e-06,-1.0465292e-05,0,0,1
2075208000,2075056000,2075056000,0,-491.11786,12.370941,0.053253174,-0.029368483,12.458782,9.104905e-06,-8.001911e-06,0,0,1
2075280000,2075128000,2075128000,0,-491.02344,12.370984,-0.04348755,-0.031145707,12.45214,6.074994e-06,-7.759362e-06,0,0,1
2075352000,2075200000,2075200000,0,-491.0004,12.371025,-0.07168579,-0.036248654,12.453633,1.6505554e-05,-8.860281e-06,0,0,1
2075424000,2075272000,2075272000,0,-491.02927,12.371066,-0.048095703,-0.03773989,12.455149,7.4288846e-06,-8.680106e-06,0,0,1
2075496000,2075344000,2075344000,0,-491.03912,12.371106,-0.0435791,-0.0384749,12.456685,6.0983743e-06,-8.355132e-06,0,0,1
2075568000,2075414666,2075416000,0,-491.0771,12.371145,-0.010192871,-0.034972712,12.458241,3.3357716e-07,-7.361817e-06,0,0,1
2075640000,2075486666,2075488000,0,-491.04434,12.371184,-0.04711914,-0.036501635,12.45982,7.127594e-06,-7.3323345e-06,0,0,1
2075712000,2075560000,2075560000,0,-491.18094,12.3712225,0.087677,-0.020618195,12.45311,2.4691844e-05,-3.2361863e-06,0,0,1
2075784000,2075629333,2075632000,0,-491.13782,12.371259,0.041137695,-0.013097603,12.454611,5.4351276e-06,-2.1801993e-06,0,0,1
2075848000,2075692000,2075696000,0,-491.07172,12.37116,-0.027252197,-0.014674069,12.455769,2.3850225e-06,-2.2030115e-06,0,0,1
2075904000,2075752000,2075752000,0,-491.1424,12.370928,0.042236328,-0.008576527,12.456575,5.7284037e-06,-1.3532172e-06,0,0,1
2075976000,2075822666,2075824000,0,-491.142,12.370971,0.040100098,-0.002548864,12.45814,5.1629463e-06,-5.4631573e-07,0,0,1
2076048000,2075896000,2075896000,0,-491.1416,12.371013,0.03842163,0.0026915898,12.459726,4.7391786e-06,1.2974124e-07,0,0,1
2076120000,2075968000,2075968000,0,-491.13187,12.371055,0.026794434,0.005725514,12.453023,2.30608e-06,4.0368596e-07,0,0,1
2076192000,2076040000,2076040000,0,-491.08932,12.371095,-0.015472412,0.003057244,12.454534,7.688623e-07,2.5609248e-07,0,0,1
2076264000,2076112000,2076112000,0,-491.03784,12.371134,-0.06549072,-0.00557117,12.456066,1.3773321e-05,-1.5098477e-06,0,0,1
2076336000,2076182666,2076184000,0,-491.123,12.371172,0.022064209,-0.0021490601,12.457621,1.5631534e-06,-1.1293157e-06,0,0,1
2076408000,2076256000,2076256000,0,-491.12747,12.371211,0.028900146,0.0018223815,12.459199,2.6814514e-06,-6.4188816e-07,0,0,1
2076480000,2076328000,2076328000,0,-491.17883,12.371248,0.08111572,0.011803361,12.452518,2.1135518e-05,2.0993236e-06,0,0,1
2076552000,2076398666,2076400000,0,-491.1123,12.3712845,0.017578125,0.012518454,12.454018,9.924203e-07,1.962255e-06,0,0,1
2076624000,2076472000,2076472000,0,-491.08395,12.37132,-0.0067443848,0.010054583,12.455539,1.4607711e-07,1.6925825e-06,0,0,1
2076696000,2076544000,2076544000,0,-490.97134,12.371355,-0.11456299,-0.0056315437,12.457084,4.2143663e-05,-3.8252665e-06,0,0,1
2076768000,2076614666,2076616000,0,-491.0147,12.371389,-0.065460205,-0.013040172,12.45865,1.37576335e-05,-5.055199e-06,0,0,1
2076840000,2076688000,2076688000,0,-491.03885,12.371424,-0.035949707,-0.015970485,12.460238,4.148818e-06,-4.9392656e-06,0,0,1
2076912000,2076760000,2076760000,0,-491.1096,12.371457,0.04144287,-0.00874363,12.453482,5.516567e-06,-3.6231468e-06,0,0,1
2076984000,2076830666,2076832000,0,-491.04816,12.37149,-0.015777588,-0.00961465,12.45499,7.99462e-07,-3.2734877e-06,0,0,1
2077056000,2076902666,2076904000,0,-491.0483,12.371521,-0.011627197,-0.009867977,12.456521,4.341235e-07,-2.9160851e-06,0,0,1
2077128000,2076974666,2076976000,0,-491.0954,12.371552,0.03869629,-0.003754993,12.458074,4.807815e-06,-1.943846e-06,0,0,1
