timestamp,timestamp_sample,yaw_composite,yaw_variance,yaw[0],yaw[1],yaw[2],yaw[3],yaw[4],innov_vn[0],innov_vn[1],innov_vn[2],innov_vn[3],innov_vn[4],innov_ve[0],innov_ve[1],innov_ve[2],innov_ve[3],innov_ve[4],weight[0],weight[1],weight[2],weight[3],weight[4],yaw_composite_valid
625256000,625104000,1.7959164,0.0199608,1.8157313,1.6805434,1.8155024,1.8155665,1.8155968,-0.010696255,-0.010626758,-0.010696168,-0.010696199,-0.0106962,-0.016950728,-0.01669601,-0.016950296,-0.016950414,-0.016950475,0.0634666,0.14898431,0.041924074,0.61924183,0.12638324,1
625264000,625112000,1.7959164,0.0199608,1.8158236,1.6806355,1.8155946,1.8156588,1.8156888,-0.010696255,-0.010626758,-0.010696168,-0.010696199,-0.0106962,-0.016950728,-0.01669601,-0.016950296,-0.016950414,-0.016950475,0.0634666,0.14898431,0.041924074,0.61924183,0.12638324,1
625272000,625120000,1.7959164,0.0199608,1.8157645,1.6805764,1.8155357,1.8155998,1.8156301,-0.010696255,-0.010626758,-0.010696168,-0.010696199,-0.0106962,-0.016950728,-0.01669601,-0.016950296,-0.016950414,-0.016950475,0.0634666,0.14898431,0.041924074,0.61924183,0.12638324,1
625280000,625128000,1.7959164,0.0199608,1.8157161,1.6805282,1.815487,1.8155512,1.8155814,-0.010696255,-0.010626758,-0.010696168,-0.010696199,-0.0106962,-0.016950728,-0.01669601,-0.016950296,-0.016950414,-0.016950475,0.0634666,0.14898431,0.041924074,0.61924183,0.12638324,1
625288000,625136000,1.7959164,0.0199608,1.815693,1.6805053,1.8154641,1.8155283,1.8155586,-0.010696255,-0.010626758,-0.010696168,-0.010696199,-0.0106962,-0.016950728,-0.01669601,-0.016950296,-0.016950414,-0.016950475,0.0634666,0.14898431,0.041924074,0.61924183,0.12638324,1
625296000,625144000,1.7959164,0.0199608,1.8157179,1.6805302,1.815489,1.8155532,1.8155835,-0.010696255,-0.010626758,-0.010696168,-0.010696199,-0.0106962,-0.016950728,-0.01669601,-0.016950296,-0.016950414,-0.016950475,0.0634666,0.14898431,0.041924074,0.61924183,0.12638324,1
625304000,625152000,1.7959164,0.0199608,1.8158327,1.6806445,1.8156035,1.8156675,1.815698,-0.010696255,-0.010626758,-0.010696168,-0.010696199,-0.0106962,-0.016950728,-0.01669601,-0.016950296,-0.016950414,-0.016950475,0.0634666,0.14898431,0.041924074,0.61924183,0.12638324,1
625312000,625160000,1.7959164,0.0199608,1.8158268,1.6806388,1.8155978,1.8156619,1.8156923,-0.010696255,-0.010626758,-0.010696168,-0.010696199,-0.0106962,-0.016950728,-0.01669601,-0.016950296,-0.016950414,-0.016950475,0.0634666,0.14898431,0.041924074,0.61924183,0.12638324,1
625320000,625168000,1.7959164,0.0199608,1.8158393,1.6806511,1.8156099,1.8156741,1.8157046,-0.010696255,-0.010626758,-0.010696168,-0.010696199,-0.0106962,-0.016950728,-0.01669601,-0.016950296,-0.016950414,-0.016950475,0.0634666,0.14898431,0.041924074,0.61924183,0.12638324,1
625328000,625176000,1.7959164,0.0199608,1.8156968,1.6805089,1.8154678,1.815532,1.8155624,-0.010696255,-0.010626758,-0.010696168,-0.010696199,-0.0106962,-0.016950728,-0.01669601,-0.016950296,-0.016950414,-0.016950475,0.0634666,0.14898431,0.041924074,0.61924183,0.12638324,1
625336000,625184000,1.7959164,0.0199608,1.8155696,1.6803813,1.8153408,1.8154049,1.8154348,-0.010696255,-0.010626758,-0.010696168,-0.010696199,-0.0106962,-0.016950728,-0.01669601,-0.016950296,-0.016950414,-0.016950475,0.0634666,0.14898431,0.041924074,0.61924183,0.12638324,1
625344000,625192000,1.7959164,0.0199608,1.8154391,1.6802509,1.8152097,1.8152742,1.8153044,-0.010696255,-0.010626758,-0.010696168,-0.010696199,-0.0106962,-0.016950728,-0.01669601,-0.016950296,-0.016950414,-0.016950475,0.0634666,0.14898431,0.041924074,0.61924183,0.12638324,1
625352000,625200000,1.7959164,0.0199608,1.8153384,1.6801502,1.8151091,1.8151733,1.8152037,-0.010696255,-0.010626758,-0.010696168,-0.010696199,-0.0106962,-0.016950728,-0.01669601,-0.016950296,-0.016950414,-0.016950475,0.0634666,0.14898431,0.041924074,0.61924183,0.12638324,1
625360000,625208000,1.7959164,0.0199608,1.8152833,1.6800952,1.8150543,1.8151186,1.8151488,-0.010696255,-0.010626758,-0.010696168,-0.010696199,-0.0106962,-0.016950728,-0.01669601,-0.016950296,-0.016950414,-0.016950475,0.0634666,0.14898431,0.041924074,0.61924183,0.12638324,1
625368000,625216000,1.7959164,0.0199608,1.8152628,1.6800745,1.8150336,1.8150977,1.8151281,-0.010696255,-0.010626758,-0.010696168,-0.010696199,-0.0106962,-0.016950728,-0.01669601,-0.016950296,-0.016950414,-0.016950475,0.0634666,0.14898431,0.041924074,0.61924183,0.12638324,1
625376000,625224000,1.7959164,0.0199608,1.8153291,1.6801411,1.8151002,1.8151643,1.8151947,-0.010696255,-0.010626758,-0.010696168,-0.010696199,-0.0106962,-0.016950728,-0.01669601,-0.016950296,-0.016950414,-0.016950475,0.0634666,0.14898431,0.041924074,0.61924183,0.12638324,1
625384000,625232000,1.7959164,0.0199608,1.815363,1.6801747,1.815134,1.8151982,1.8152286,-0.010696255,-0.010626758,-0.010696168,-0.010696199,-0.0106962,-0.016950728,-0.01669601,-0.016950296,-0.016950414,-0.016950475,0.0634666,0.14898431,0.041924074,0.61924183,0.12638324,1
625392000,625240000,1.7959164,0.0199608,1.8153614,1.680173,1.8151321,1.8151963,1.8152267,-0.010696255,-0.010626758,-0.010696168,-0.010696199,-0.0106962,-0.016950728,-0.01669601,-0.016950296,-0.016950414,-0.016950475,0.0634666,0.14898431,0.041924074,0.61924183,0.12638324,1
625400000,625248000,1.7959164,0.0199608,1.8153659,1.6801778,1.8151369,1.8152014,1.8152314,-0.010696255,-0.010626758,-0.010696168,-0.010696199,-0.0106962,-0.016950728,-0.01669601,-0.016950296,-0.016950414,-0.016950475,0.0634666,0.14898431,0.041924074,0.61924183,0.12638324,1
625408000,625256000,1.7959164,0.0199608,1.8153528,1.6801645,1.8151238,1.815188,1.8152183,-0.010696255,-0.010626758,-0.010696168,-0.010696199,-0.0106962,-0.016950728,-0.01669601,-0.016950296,-0.016950414,-0.016950475,0.0634666,0.14898431,0.041924074,0.61924183,0.12638324,1
625416000,625264000,1.7959164,0.0199608,1.8154566,1.6802684,1.8152276,1.8152918,1.8153218,-0.010696255,-0.010626758,-0.010696168,-0.010696199,-0.0106962,-0.016950728,-0.01669601,-0.016950296,-0.016950414,-0.016950475,0.0634666,0.14898431,0.041924074,0.61924183,0.12638324,1
625424000,625272000,1.7959164,0.0199608,1.8154402,1.6802521,1.8152113,1.8152754,1.8153057,-0.010696255,-0.010626758,-0.010696168,-0.010696199,-0.0106962,-0.016950728,-0.01669601,-0.016950296,-0.016950414,-0.016950475,0.0634666,0.14898431,0.041924074,0.61924183,0.12638324,1
625432000,625280000,1.7959164,0.0199608,1.8153908,1.6802028,1.8151616,1.8152261,1.8152562,-0.010696255,-0.010626758,-0.010696168,-0.010696199,-0.0106962,-0.016950728,-0.01669601,-0.016950296,-0.016950414,-0.016950475,0.0634666,0.14898431,0.041924074,0.61924183,0.12638324,1
625440000,625288000,1.7959164,0.0199608,1.8153487,1.6801605,1.81512,1.815184,1.8152144,-0.010696255,-0.010626758,-0.010696168,-0.010696199,-0.0106962,-0.016950728,-0.01669601,-0.016950296,-0.016950414,-0.016950475,0.0634666,0.14898431,0.041924074,0.61924183,0.12638324,1
625448000,625296000,1.7959164,0.0199608,1.8154484,1.6802601,1.815219,1.8152835,1.8153137,-0.010696255,-0.010626758,-0.010696168,-0.010696199,-0.0106962,-0.016950728,-0.01669601,-0.016950296,-0.016950414,-0.016950475,0.0634666,0.14898431,0.041924074,0.61924183,0.12638324,1
625456000,625304000,1.7959164,0.0199608,1.8154967,1.6803083,1.8152674,1.8153316,1.8153619,-0.010696255,-0.010626758,-0.010696168,-0.010696199,-0.0106962,-0.016950728,-0.01669601,-0.016950296,-0.016950414,-0.016950475,0.0634666,0.14898431,0.041924074,0.61924183,0.12638324,1
625464000,625312000,1.7959164,0.0199608,1.8155037,1.6803153,1.8152745,1.8153389,1.8153689,-0.010696255,-0.010626758,-0.010696168,-0.010696199,-0.0106962,-0.016950728,-0.01669601,-0.016950296,-0.016950414,-0.016950475,0.0634666,0.14898431,0.041924074,0.61924183,0.12638324,1
625472000,625320000,1.7959164,0.0199608,1.815482,1.6802938,1.8152528,1.8153168,1.8153472,-0.010696255,-0.010626758,-0.010696168,-0.010696199,-0.0106962,-0.016950728,-0.01669601,-0.016950296,-0.016950414,-0.016950475,0.0634666,0.14898431,0.041924074,0.61924183,0.12638324,1
625480000,625328000,1.7959164,0.0199608,1.8154889,1.6803007,1.8152597,1.8153238,1.8153542,-0.010696255,-0.010626758,-0.010696168,-0.010696199,-0.0106962,-0.016950728,-0.01669601,-0.016950296,-0.016950414,-0.016950475,0.0634666,0.14898431,0.041924074,0.61924183,0.12638324,1
625488000,625336000,1.7959164,0.0199608,1.8154961,1.6803077,1.8152668,1.815331,1.8153614,-0.010696255,-0.010626758,-0.010696168,-0.010696199,-0.0106962,-0.016950728,-0.01669601,-0.016950296,-0.016950414,-0.016950475,0.0634666,0.14898431,0.041924074,0.61924183,0.12638324,1
625496000,625344000,1.7959164,0.0199608,1.8155148,1.6803266,1.8152856,1.81535,1.81538,-0.010696255,-0.010626758,-0.010696168,-0.010696199,-0.0106962,-0.016950728,-0.01669601,-0.016950296,-0.016950414,-0.016950475,0.0634666,0.14898431,0.041924074,0.61924183,0.12638324,1
625504000,625352000,1.7959164,0.0199608,1.8154825,1.6802943,1.8152533,1.8153175,1.8153478,-0.010696255,-0.010626758,-0.010696168,-0.010696199,-0.0106962,-0.016950728,-0.01669601,-0.016950296,-0.016950414,-0.016950475,0.0634666,0.14898431,0.041924074,0.61924183,0.12638324,1
625512000,625360000,1.7959164,0.0199608,1.815411,1.6802226,1.8151817,1.8152457,1.8152761,-0.010696255,-0.010626758,-0.010696168,-0.010696199,-0.0106962,-0.016950728,-0.01669601,-0.016950296,-0.016950414,-0.016950475,0.0634666,0.14898431,0.041924074,0.61924183,0.12638324,1
625520000,625368000,1.7959164,0.0199608,1.8154114,1.6802231,1.8151824,1.8152465,1.8152766,-0.010696255,-0.010626758,-0.010696168,-0.010696199,-0.0106962,-0.016950728,-0.01669601,-0.016950296,-0.016950414,-0.016950475,0.0634666,0.14898431,0.041924074,0.61924183,0.12638324,1
625528000,625376000,1.7959164,0.0199608,1.815461,1.6802725,1.8152317,1.8152958,1.8153263,-0.010696255,-0.010626758,-0.010696168,-0.010696199,-0.0106962,-0.016950728,-0.01669601,-0.016950296,-0.016950414,-0.016950475,0.0634666,0.14898431,0.041924074,0.61924183,0.12638324,1
625536000,625384000,1.7959164,0.0199608,1.8155096,1.6803212,1.8152806,1.8153447,1.8153751,-0.010696255,-0.010626758,-0.010696168,-0.010696199,-0.0106962,-0.016950728,-0.01669601,-0.016950296,-0.016950414,-0.016950475,0.0634666,0.14898431,0.041924074,0.61924183,0.12638324,1
625544000,625392000,1.7959164,0.0199608,1.8155612,1.6803728,1.8153323,1.8153963,1.8154268,-0.010696255,-0.010626758,-0.010696168,-0.010696199,-0.0106962,-0.016950728,-0.01669601,-0.016950296,-0.016950414,-0.016950475,0.0634666,0.14898431,0.041924074,0.61924183,0.12638324,1
625552000,625400000,1.7959164,0.0199608,1.8155758,1.6803874,1.8153466,1.8154107,1.815441,-0.010696255,-0.010626758,-0.010696168,-0.010696199,-0.0106962,-0.016950728,-0.01669601,-0.016950296,-0.016950414,-0.016950475,0.0634666,0.14898431,0.041924074,0.61924183,0.12638324,1
625560000,625408000,1.7959164,0.0199608,1.8155061,1.6803178,1.8152772,1.8153414,1.8153714,-0.010696255,-0.010626758,-0.010696168,-0.010696199,-0.0106962,-0.016950728,-0.01669601,-0.016950296,-0.016950414,-0.016950475,0.0634666,0.14898431,0.041924074,0.61924183,0.12638324,1
625568000,625416000,1.7959164,0.0199608,1.8155248,1.6803365,1.8152959,1.8153601,1.8153903,-0.010696255,-0.010626758,-0.010696168,-0.010696199,-0.0106962,-0.016950728,-0.01669601,-0.016950296,-0.016950414,-0.016950475,0.0634666,0.14898431,0.041924074,0.61924183,0.12638324,1
625576000,625424000,1.7959164,0.0199608,1.8155789,1.6803905,1.8153499,1.8154141,1.8154441,-0.010696255,-0.010626758,-0.010696168,-0.010696199,-0.0106962,-0.016950728,-0.01669601,-0.016950296,-0.016950414,-0.016950475,0.0634666,0.14898431,0.041924074,0.61924183,0.12638324,1
625584000,625432000,1.7959164,0.0199608,1.8156277,1.6804392,1.8153988,1.815463,1.8154932,-0.010696255,-0.010626758,-0.010696168,-0.010696199,-0.0106962,-0.016950728,-0.01669601,-0.016950296,-0.016950414,-0.016950475,0.0634666,0.14898431,0.041924074,0.61924183,0.12638324,1
625592000,625440000,1.7959164,0.0199608,1.8156509,1.6804622,1.8154219,1.815486,1.8155161,-0.010696255,-0.010626758,-0.010696168,-0.010696199,-0.0106962,-0.016950728,-0.01669601,-0.016950296,-0.016950414,-0.016950475,0.0634666,0.14898431,0.041924074,0.61924183,0.12638324,1
625600000,625448000,1.7959164,0.0199608,1.8155833,1.6803948,1.8153545,1.8154186,1.8154489,-0.010696255,-0.010626758,-0.010696168,-0.010696199,-0.0106962,-0.016950728,-0.01669601,-0.016950296,-0.016950414,-0.016950475,0.0634666,0.14898431,0.041924074,0.61924183,0.12638324,1
625608000,625456000,1.7959164,0.0199608,1.8155392,1.6803507,1.8153104,1.8153745,1.8154045,-0.010696255,-0.010626758,-0.010696168,-0.010696199,-0.0106962,-0.016950728,-0.01669601,-0.016950296,-0.016950414,-0.016950475,0.0634666,0.14898431,0.041924074,0.61924183,0.12638324,1
625616000,625464000,1.7953765,0.019992827,1.8156097,1.6804214,1.8153805,1.8154445,1.8154749,-0.010935269,-0.011038764,-0.010935449,-0.010935403,-0.010935373,0.0071264403,0.0071150544,0.007126411,0.007126422,0.0071264226,0.063466765,0.14898232,0.041924175,0.6192433,0.12638356,1
625624000,625472000,1.7953765,0.019992827,1.8156785,1.6804901,1.8154496,1.8155137,1.815544,-0.010935269,-0.011038764,-0.010935449,-0.010935403,-0.010935373,0.0071264403,0.0071150544,0.007126411,0.007126422,0.0071264226,0.063466765,0.14898232,0.041924175,0.6192433,0.12638356,1
625632000,625480000,1.7953765,0.019992827,1.8157004,1.680512,1.8154712,1.8155353,1.8155656,-0.010935269,-0.011038764,-0.010935449,-0.010935403,-0.010935373,0.0071264403,0.0071150544,0.007126411,0.007126422,0.0071264226,0.063466765,0.14898232,0.041924175,0.6192433,0.12638356,1
625640000,625488000,1.7953765,0.019992827,1.8156114,1.6804229,1.8153821,1.8154463,1.8154765,-0.010935269,-0.011038764,-0.010935449,-0.010935403,-0.010935373,0.0071264403,0.0071150544,0.007126411,0.007126422,0.0071264226,0.063466765,0.14898232,0.041924175,0.6192433,0.12638356,1
625648000,625496000,1.7953765,0.019992827,1.8155693,1.6803806,1.8153404,1.8154045,1.8154346,-0.010935269,-0.011038764,-0.010935449,-0.010935403,-0.010935373,0.0071264403,0.0071150544,0.007126411,0.007126422,0.0071264226,0.063466765,0.14898232,0.041924175,0.6192433,0.12638356,1
625656000,625504000,1.7953765,0.019992827,1.8155684,1.6803801,1.8153394,1.8154036,1.8154339,-0.010935269,-0.011038764,-0.010935449,-0.010935403,-0.010935373,0.0071264403,0.0071150544,0.007126411,0.007126422,0.0071264226,0.063466765,0.14898232,0.041924175,0.6192433,0.12638356,1
625664000,625512000,1.7953765,0.019992827,1.815612,1.6804234,1.8153827,1.8154467,1.8154771,-0.010935269,-0.011038764,-0.010935449,-0.010935403,-0.010935373,0.0071264403,0.0071150544,0.007126411,0.007126422,0.0071264226,0.063466765,0.14898232,0.041924175,0.6192433,0.12638356,1
625672000,625520000,1.7953765,0.019992827,1.815571,1.6803827,1.8153421,1.8154061,1.8154365,-0.010935269,-0.011038764,-0.010935449,-0.010935403,-0.010935373,0.0071264403,0.0071150544,0.007126411,0.007126422,0.0071264226,0.063466765,0.14898232,0.041924175,0.6192433,0.12638356,1
625680000,625528000,1.7953765,0.019992827,1.8155417,1.6803534,1.8153127,1.8153769,1.8154069,-0.010935269,-0.011038764,-0.010935449,-0.010935403,-0.010935373,0.0071264403,0.0071150544,0.007126411,0.007126422,0.0071264226,0.063466765,0.14898232,0.041924175,0.6192433,0.12638356,1
625688000,625536000,1.7953765,0.019992827,1.815541,1.6803529,1.815312,1.8153762,1.8154066,-0.010935269,-0.011038764,-0.010935449,-0.010935403,-0.010935373,0.0071264403,0.0071150544,0.007126411,0.007126422,0.0071264226,0.063466765,0.14898232,0.041924175,0.6192433,0.12638356,1
625696000,625544000,1.7953765,0.019992827,1.8156075,1.6804196,1.8153787,1.8154428,1.8154731,-0.010935269,-0.011038764,-0.010935449,-0.010935403,-0.010935373,0.0071264403,0.0071150544,0.007126411,0.007126422,0.0071264226,0.063466765,0.14898232,0.041924175,0.6192433,0.12638356,1
625704000,625552000,1.7953765,0.019992827,1.8156146,1.6804265,1.8153857,1.8154498,1.8154799,-0.010935269,-0.011038764,-0.010935449,-0.010935403,-0.010935373,0.0071264403,0.0071150544,0.007126411,0.007126422,0.0071264226,0.063466765,0.14898232,0.041924175,0.6192433,0.12638356,1
625712000,625560000,1.7953765,0.019992827,1.8155459,1.6803579,1.8153168,1.815381,1.8154114,-0.010935269,-0.011038764,-0.010935449,-0.010935403,-0.010935373,0.0071264403,0.0071150544,0.007126411,0.007126422,0.0071264226,0.063466765,0.14898232,0.041924175,0.6192433,0.12638356,1
625720000,625568000,1.7953765,0.019992827,1.8155708,1.6803827,1.815342,1.815406,1.8154364,-0.010935269,-0.011038764,-0.010935449,-0.010935403,-0.010935373,0.0071264403,0.0071150544,0.007126411,0.007126422,0.0071264226,0.063466765,0.14898232,0.041924175,0.6192433,0.12638356,1
625728000,625576000,1.7953765,0.019992827,1.8156141,1.6804258,1.8153851,1.8154492,1.8154794,-0.010935269,-0.011038764,-0.010935449,-0.010935403,-0.010935373,0.0071264403,0.0071150544,0.007126411,0.007126422,0.0071264226,0.063466765,0.14898232,0.041924175,0.6192433,0.12638356,1
625736000,625584000,1.7953765,0.019992827,1.8156528,1.6804644,1.8154237,1.8154879,1.815518,-0.010935269,-0.011038764,-0.010935449,-0.010935403,-0.010935373,0.0071264403,0.0071150544,0.007126411,0.007126422,0.0071264226,0.063466765,0.14898232,0.041924175,0.6192433,0.12638356,1
625744000,625592000,1.7953765,0.019992827,1.8156964,1.6805081,1.8154671,1.8155313,1.8155615,-0.010935269,-0.011038764,-0.010935449,-0.010935403,-0.010935373,0.0071264403,0.0071150544,0.007126411,0.007126422,0.0071264226,0.063466765,0.14898232,0.041924175,0.6192433,0.12638356,1
625752000,625600000,1.7953765,0.019992827,1.8157204,1.6805321,1.8154912,1.8155553,1.8155856,-0.010935269,-0.011038764,-0.010935449,-0.010935403,-0.010935373,0.0071264403,0.0071150544,0.007126411,0.007126422,0.0071264226,0.063466765,0.14898232,0.041924175,0.6192433,0.12638356,1
625760000,625608000,1.7953765,0.019992827,1.8156483,1.68046,1.8154191,1.8154833,1.8155136,-0.010935269,-0.011038764,-0.010935449,-0.010935403,-0.010935373,0.0071264403,0.0071150544,0.007126411,0.007126422,0.0071264226,0.063466765,0.14898232,0.041924175,0.6192433,0.12638356,1
625768000,625616000,1.7953765,0.019992827,1.8156818,1.6804936,1.8154528,1.815517,1.815547,-0.010935269,-0.011038764,-0.010935449,-0.010935403,-0.010935373,0.0071264403,0.0071150544,0.007126411,0.007126422,0.0071264226,0.063466765,0.14898232,0.041924175,0.6192433,0.12638356,1
625776000,625624000,1.7953765,0.019992827,1.8157473,1.6805592,1.815518,1.8155824,1.8156126,-0.010935269,-0.011038764,-0.010935449,-0.010935403,-0.010935373,0.0071264403,0.0071150544,0.007126411,0.007126422,0.0071264226,0.063466765,0.14898232,0.041924175,0.6192433,0.12638356,1
625784000,625632000,1.7953765,0.019992827,1.8157884,1.6806,1.8155593,1.8156232,1.8156534,-0.010935269,-0.011038764,-0.010935449,-0.010935403,-0.010935373,0.0071264403,0.0071150544,0.007126411,0.007126422,0.0071264226,0.063466765,0.14898232,0.041924175,0.6192433,0.12638356,1
625792000,625640000,1.7953765,0.019992827,1.8158369,1.6806486,1.8156078,1.8156719,1.8157021,-0.010935269,-0.011038764,-0.010935449,-0.010935403,-0.010935373,0.0071264403,0.0071150544,0.007126411,0.007126422,0.0071264226,0.063466765,0.14898232,0.041924175,0.6192433,0.12638356,1
625800000,625648000,1.7953765,0.019992827,1.8157798,1.6805916,1.8155508,1.8156149,1.8156455,-0.010935269,-0.011038764,-0.010935449,-0.010935403,-0.010935373,0.0071264403,0.0071150544,0.007126411,0.007126422,0.0071264226,0.063466765,0.14898232,0.041924175,0.6192433,0.12638356,1
625808000,625656000,1.7953765,0.019992827,1.8158156,1.6806273,1.8155864,1.8156506,1.8156807,-0.010935269,-0.011038764,-0.010935449,-0.010935403,-0.010935373,0.0071264403,0.0071150544,0.007126411,0.007126422,0.0071264226,0.063466765,0.14898232,0.041924175,0.6192433,0.12638356,1
625816000,625664000,1.7953765,0.019992827,1.8157711,1.6805831,1.8155421,1.8156062,1.8156368,-0.010935269,-0.011038764,-0.010935449,-0.010935403,-0.010935373,0.0071264403,0.0071150544,0.007126411,0.007126422,0.0071264226,0.063466765,0.14898232,0.041924175,0.6192433,0.12638356,1
625824000,625672000,1.7953765,0.019992827,1.8157588,1.6805705,1.81553,1.815594,1.8156244,-0.010935269,-0.011038764,-0.010935449,-0.010935403,-0.010935373,0.0071264403,0.0071150544,0.007126411,0.007126422,0.0071264226,0.063466765,0.14898232,0.041924175,0.6192433,0.12638356,1
625832000,625680000,1.7953765,0.019992827,1.8157989,1.6806105,1.8155695,1.8156338,1.8156642,-0.010935269,-0.011038764,-0.010935449,-0.010935403,-0.010935373,0.0071264403,0.0071150544,0.007126411,0.007126422,0.0071264226,0.063466765,0.14898232,0.041924175,0.6192433,0.12638356,1
625840000,625688000,1.7953765,0.019992827,1.81573,1.680542,1.815501,1.8155651,1.8155955,-0.010935269,-0.011038764,-0.010935449,-0.010935403,-0.010935373,0.0071264403,0.0071150544,0.007126411,0.007126422,0.0071264226,0.063466765,0.14898232,0.041924175,0.6192433,0.12638356,1
625848000,625696000,1.7953765,0.019992827,1.8156849,1.6804968,1.8154557,1.8155198,1.8155502,-0.010935269,-0.011038764,-0.010935449,-0.010935403,-0.010935373,0.0071264403,0.0071150544,0.007126411,0.007126422,0.0071264226,0.063466765,0.14898232,0.041924175,0.6192433,0.12638356,1
625856000,625704000,1.7953765,0.019992827,1.81571,1.6805216,1.815481,1.815545,1.8155751,-0.010935269,-0.011038764,-0.010935449,-0.010935403,-0.010935373,0.0071264403,0.0071150544,0.007126411,0.007126422,0.0071264226,0.063466765,0.14898232,0.041924175,0.6192433,0.12638356,1
625864000,625712000,1.7953765,0.019992827,1.8156862,1.6804979,1.815457,1.8155211,1.8155515,-0.010935269,-0.011038764,-0.010935449,-0.010935403,-0.010935373,0.0071264403,0.0071150544,0.007126411,0.007126422,0.0071264226,0.063466765,0.14898232,0.041924175,0.6192433,0.12638356,1
625872000,625720000,1.7953765,0.019992827,1.8156804,1.6804922,1.8154514,1.8155155,1.8155456,-0.010935269,-0.011038764,-0.010935449,-0.010935403,-0.010935373,0.0071264403,0.0071150544,0.007126411,0.007126422,0.0071264226,0.063466765,0.14898232,0.041924175,0.6192433,0.12638356,1
625880000,625728000,1.7953765,0.019992827,1.8156533,1.6804651,1.8154241,1.8154882,1.8155185,-0.010935269,-0.011038764,-0.010935449,-0.010935403,-0.010935373,0.0071264403,0.0071150544,0.007126411,0.007126422,0.0071264226,0.063466765,0.14898232,0.041924175,0.6192433,0.12638356,1
625888000,625736000,1.7953765,0.019992827,1.8157297,1.6805414,1.8155005,1.8155648,1.8155949,-0.010935269,-0.011038764,-0.010935449,-0.010935403,-0.010935373,0.0071264403,0.0071150544,0.007126411,0.007126422,0.0071264226,0.063466765,0.14898232,0.041924175,0.6192433,0.12638356,1
625896000,625744000,1.7953765,0.019992827,1.8158062,1.680618,1.8155771,1.8156413,1.8156717,-0.010935269,-0.011038764,-0.010935449,-0.010935403,-0.010935373,0.0071264403,0.0071150544,0.007126411,0.007126422,0.0071264226,0.063466765,0.14898232,0.041924175,0.6192433,0.12638356,1
625904000,625752000,1.7953765,0.019992827,1.8158678,1.6806792,1.8156385,1.8157027,1.8157331,-0.010935269,-0.011038764,-0.010935449,-0.010935403,-0.010935373,0.0071264403,0.0071150544,0.007126411,0.007126422,0.0071264226,0.063466765,0.14898232,0.041924175,0.6192433,0.12638356,1
625912000,625760000,1.7953765,0.019992827,1.8159906,1.6808022,1.8157614,1.8158256,1.8158559,-0.010935269,-0.011038764,-0.010935449,-0.010935403,-0.010935373,0.0071264403,0.0071150544,0.007126411,0.007126422,0.0071264226,0.063466765,0.14898232,0.041924175,0.6192433,0.12638356,1
625920000,625768000,1.7953765,0.019992827,1.815994,1.6808059,1.8157651,1.8158293,1.8158596,-0.010935269,-0.011038764,-0.010935449,-0.010935403,-0.010935373,0.0071264403,0.0071150544,0.007126411,0.007126422,0.0071264226,0.063466765,0.14898232,0.041924175,0.6192433,0.12638356,1
625928000,625776000,1.7953765,0.019992827,1.8160546,1.6808662,1.8158253,1.8158894,1.8159198,-0.010935269,-0.011038764,-0.010935449,-0.010935403,-0.010935373,0.0071264403,0.0071150544,0.007126411,0.007126422,0.0071264226,0.063466765,0.14898232,0.041924175,0.6192433,0.12638356,1
625936000,625784000,1.7953765,0.019992827,1.8161287,1.6809406,1.8158998,1.8159639,1.8159943,-0.010935269,-0.011038764,-0.010935449,-0.010935403,-0.010935373,0.0071264403,0.0071150544,0.007126411,0.007126422,0.0071264226,0.063466765,0.14898232,0.041924175,0.6192433,0.12638356,1
625944000,625792000,1.7953765,0.019992827,1.8162049,1.6810166,1.8159759,1.81604,1.8160704,-0.010935269,-0.011038764,-0.010935449,-0.010935403,-0.010935373,0.0071264403,0.0071150544,0.007126411,0.007126422,0.0071264226,0.063466765,0.14898232,0.041924175,0.6192433,0.12638356,1
625952000,625800000,1.7953765,0.019992827,1.8161834,1.6809949,1.8159541,1.8160182,1.8160485,-0.010935269,-0.011038764,-0.010935449,-0.010935403,-0.010935373,0.0071264403,0.0071150544,0.007126411,0.007126422,0.0071264226,0.063466765,0.14898232,0.041924175,0.6192433,0.12638356,1
625960000,625808000,1.7953765,0.019992827,1.81619,1.6810018,1.815961,1.8160251,1.8160555,-0.010935269,-0.011038764,-0.010935449,-0.010935403,-0.010935373,0.0071264403,0.0071150544,0.007126411,0.007126422,0.0071264226,0.063466765,0.14898232,0.041924175,0.6192433,0.12638356,1
625968000,625816000,1.7953765,0.019992827,1.816193,1.6810044,1.8159637,1.8160279,1.8160582,-0.010935269,-0.011038764,-0.010935449,-0.010935403,-0.010935373,0.0071264403,0.0071150544,0.007126411,0.007126422,0.0071264226,0.063466765,0.14898232,0.041924175,0.6192433,0.12638356,1
625976000,625824000,1.7953765,0.019992827,1.8162081,1.6810199,1.8159792,1.8160434,1.8160737,-0.010935269,-0.011038764,-0.010935449,-0.010935403,-0.010935373,0.0071264403,0.0071150544,0.007126411,0.007126422,0.0071264226,0.063466765,0.14898232,0.041924175,0.6192433,0.12638356,1
625984000,625832000,1.7953765,0.019992827,1.8161757,1.6809875,1.8159467,1.8160108,1.8160409,-0.010935269,-0.011038764,-0.010935449,-0.010935403,-0.010935373,0.0071264403,0.0071150544,0.007126411,0.007126422,0.0071264226,0.063466765,0.14898232,0.041924175,0.6192433,0.12638356,1
625992000,625840000,1.7953765,0.019992827,1.8160955,1.6809072,1.8158664,1.8159302,1.8159606,-0.010935269,-0.011038764,-0.010935449,-0.010935403,-0.010935373,0.0071264403,0.0071150544,0.007126411,0.007126422,0.0071264226,0.063466765,0.14898232,0.041924175,0.6192433,0.12638356,1
626000000,625848000,1.7953765,0.019992827,1.8160332,1.6808451,1.8158041,1.8158683,1.8158984,-0.010935269,-0.011038764,-0.010935449,-0.010935403,-0.010935373,0.0071264403,0.0071150544,0.007126411,0.007126422,0.0071264226,0.063466765,0.14898232,0.041924175,0.6192433,0.12638356,1
626008000,625856000,1.7953765,0.019992827,1.8160347,1.6808468,1.8158058,1.8158699,1.8159002,-0.010935269,-0.011038764,-0.010935449,-0.010935403,-0.010935373,0.0071264403,0.0071150544,0.007126411,0.007126422,0.0071264226,0.063466765,0.14898232,0.041924175,0.6192433,0.12638356,1
626016000,625864000,1.7956843,0.020024812,1.815917,1.68073,1.8156881,1.8157523,1.8157823,0.00680923,0.007019268,0.0068095536,0.0068094614,0.0068094213,-0.0076043066,-0.0073693697,-0.00760388,-0.0076039974,-0.0076040584,0.06346672,0.14898288,0.04192415,0.6192429,0.12638347,1
626024000,625872000,1.7956843,0.020024812,1.8159423,1.6807549,1.815713,1.8157772,1.8158075,0.00680923,0.007019268,0.0068095536,0.0068094614,0.0068094213,-0.0076043066,-0.0073693697,-0.00760388,-0.0076039974,-0.0076040584,0.06346672,0.14898288,0.04192415,0.6192429,0.12638347,1
626032000,625880000,1.7956843,0.020024812,1.8158892,1.6807022,1.8156604,1.8157245,1.8157548,0.00680923,0.007019268,0.0068095536,0.0068094614,0.0068094213,-0.0076043066,-0.0073693697,-0.00760388,-0.0076039974,-0.0076040584,0.06346672,0.14898288,0.04192415,0.6192429,0.12638347,1
626040000,625888000,1.7956843,0.020024812,1.8157526,1.6805655,1.8155237,1.8155879,1.8156179,0.00680923,0.007019268,0.0068095536,0.0068094614,0.0068094213,-0.0076043066,-0.0073693697,-0.00760388,-0.0076039974,-0.0076040584,0.06346672,0.14898288,0.04192415,0.6192429,0.12638347,1
626048000,625896000,1.7956843,0.020024812,1.8157663,1.6805791,1.8155371,1.8156012,1.8156316,0.00680923,0.007019268,0.0068095536,0.0068094614,0.0068094213,-0.0076043066,-0.0073693697,-0.00760388,-0.0076039974,-0.0076040584,0.06346672,0.14898288,0.04192415,0.6192429,0.12638347,1
626056000,625904000,1.7956843,0.020024812,1.8159052,1.6807181,1.8156761,1.8157402,1.8157707,0.00680923,0.007019268,0.0068095536,0.0068094614,0.0068094213,-0.0076043066,-0.0073693697,-0.00760388,-0.0076039974,-0.0076040584,0.06346672,0.14898288,0.04192415,0.6192429,0.12638347,1
626064000,625912000,1.7956843,0.020024812,1.8159952,1.6808082,1.8157662,1.8158303,1.8158607,0.00680923,0.007019268,0.0068095536,0.0068094614,0.0068094213,-0.0076043066,-0.0073693697,-0.00760388,-0.0076039974,-0.0076040584,0.06346672,0.14898288,0.04192415,0.6192429,0.12638347,1
626072000,625920000,1.7956843,0.020024812,1.8159914,1.6808045,1.8157624,1.8158265,1.8158567,0.00680923,0.007019268,0.0068095536,0.0068094614,0.0068094213,-0.0076043066,-0.0073693697,-0.00760388,-0.0076039974,-0.0076040584,0.06346672,0.14898288,0.04192415,0.6192429,0.12638347,1
626080000,625928000,1.7956843,0.020024812,1.815945,1.6807584,1.8157161,1.8157802,1.8158106,0.00680923,0.007019268,0.0068095536,0.0068094614,0.0068094213,-0.0076043066,-0.0073693697,-0.00760388,-0.0076039974,-0.0076040584,0.06346672,0.14898288,0.04192415,0.6192429,0.12638347,1
626088000,625936000,1.7956843,0.020024812,1.8159115,1.6807246,1.8156825,1.8157467,1.8157767,0.00680923,0.007019268,0.0068095536,0.0068094614,0.0068094213,-0.0076043066,-0.0073693697,-0.00760388,-0.0076039974,-0.0076040584,0.06346672,0.14898288,0.04192415,0.6192429,0.12638347,1
626096000,625944000,1.7956843,0.020024812,1.8159442,1.680757,1.815715,1.815779,1.8158094,0.00680923,0.007019268,0.0068095536,0.0068094614,0.0068094213,-0.0076043066,-0.0073693697,-0.00760388,-0.0076039974,-0.0076040584,0.06346672,0.14898288,0.04192415,0.6192429,0.12638347,1
626104000,625952000,1.7956843,0.020024812,1.8160127,1.6808257,1.8157839,1.815848,1.815878,0.00680923,0.007019268,0.0068095536,0.0068094614,0.0068094213,-0.0076043066,-0.0073693697,-0.00760388,-0.0076039974,-0.0076040584,0.06346672,0.14898288,0.04192415,0.6192429,0.12638347,1
626112000,625960000,1.7956843,0.020024812,1.8159441,1.680757,1.8157147,1.8157789,1.8158092,0.00680923,0.007019268,0.0068095536,0.0068094614,0.0068094213,-0.0076043066,-0.0073693697,-0.00760388,-0.0076039974,-0.0076040584,0.06346672,0.14898288,0.04192415,0.6192429,0.12638347,1
626120000,625968000,1.7956843,0.020024812,1.8159413,1.6807544,1.8157123,1.8157765,1.8158065,0.00680923,0.007019268,0.0068095536,0.0068094614,0.0068094213,-0.0076043066,-0.0073693697,-0.00760388,-0.0076039974,-0.0076040584,0.06346672,0.14898288,0.04192415,0.6192429,0.12638347,1
626128000,625976000,1.7956843,0.020024812,1.8159556,1.6807688,1.8157264,1.8157905,1.8158209,0.00680923,0.007019268,0.0068095536,0.0068094614,0.0068094213,-0.0076043066,-0.0073693697,-0.00760388,-0.0076039974,-0.0076040584,0.06346672,0.14898288,0.04192415,0.6192429,0.12638347,1
626136000,625984000,1.7956843,0.020024812,1.8160307,1.6808438,1.8158017,1.8158659,1.815896,0.00680923,0.007019268,0.0068095536,0.0068094614,0.0068094213,-0.0076043066,-0.0073693697,-0.00760388,-0.0076039974,-0.0076040584,0.06346672,0.14898288,0.04192415,0.6192429,0.12638347,1
626144000,625992000,1.7956843,0.020024812,1.8159952,1.6808082,1.8157662,1.8158303,1.8158605,0.00680923,0.007019268,0.0068095536,0.0068094614,0.0068094213,-0.0076043066,-0.0073693697,-0.00760388,-0.0076039974,-0.0076040584,0.06346672,0.14898288,0.04192415,0.6192429,0.12638347,1
626152000,626000000,1.7956843,0.020024812,1.8158818,1.6806947,1.8156527,1.8157169,1.8157473,0.00680923,0.007019268,0.0068095536,0.0068094614,0.0068094213,-0.0076043066,-0.0073693697,-0.00760388,-0.0076039974,-0.0076040584,0.06346672,0.14898288,0.04192415,0.6192429,0.12638347,1
626160000,626008000,1.7956843,0.020024812,1.8157728,1.6805856,1.8155437,1.8156078,1.8156381,0.00680923,0.007019268,0.0068095536,0.0068094614,0.0068094213,-0.0076043066,-0.0073693697,-0.00760388,-0.0076039974,-0.0076040584,0.06346672,0.14898288,0.04192415,0.6192429,0.12638347,1
626168000,626016000,1.7956843,0.020024812,1.8157222,1.6805353,1.8154931,1.8155572,1.8155876,0.00680923,0.007019268,0.0068095536,0.0068094614,0.0068094213,-0.0076043066,-0.0073693697,-0.00760388,-0.0076039974,-0.0076040584,0.06346672,0.14898288,0.04192415,0.6192429,0.12638347,1
626176000,626024000,1.7956843,0.020024812,1.8157046,1.6805177,1.8154755,1.8155396,1.81557,0.00680923,0.007019268,0.0068095536,0.0068094614,0.0068094213,-0.0076043066,-0.0073693697,-0.00760388,-0.0076039974,-0.0076040584,0.06346672,0.14898288,0.04192415,0.6192429,0.12638347,1
626184000,626032000,1.7956843,0.020024812,1.8157645,1.6805776,1.8155354,1.8155996,1.81563,0.00680923,0.007019268,0.0068095536,0.0068094614,0.0068094213,-0.0076043066,-0.0073693697,-0.00760388,-0.0076039974,-0.0076040584,0.06346672,0.14898288,0.04192415,0.6192429,0.12638347,1
626192000,626040000,1.7956843,0.020024812,1.815766,1.6805791,1.8155371,1.815601,1.8156313,0.00680923,0.007019268,0.0068095536,0.0068094614,0.0068094213,-0.0076043066,-0.0073693697,-0.00760388,-0.0076039974,-0.0076040584,0.06346672,0.14898288,0.04192415,0.6192429,0.12638347,1
626200000,626048000,1.7956843,0.020024812,1.8157465,1.6805594,1.8155171,1.8155814,1.8156115,0.00680923,0.007019268,0.0068095536,0.0068094614,0.0068094213,-0.0076043066,-0.0073693697,-0.00760388,-0.0076039974,-0.0076040584,0.06346672,0.14898288,0.04192415,0.6192429,0.12638347,1
626208000,626056000,1.7956843,0.020024812,1.8157005,1.6805134,1.8154714,1.8155354,1.815566,0.00680923,0.007019268,0.0068095536,0.0068094614,0.0068094213,-0.0076043066,-0.0073693697,-0.00760388,-0.0076039974,-0.0076040584,0.06346672,0.14898288,0.04192415,0.6192429,0.12638347,1
626216000,626064000,1.7956843,0.020024812,1.8156103,1.6804233,1.8153812,1.8154453,1.8154753,0.00680923,0.007019268,0.0068095536,0.0068094614,0.0068094213,-0.0076043066,-0.0073693697,-0.00760388,-0.0076039974,-0.0076040584,0.06346672,0.14898288,0.04192415,0.6192429,0.12638347,1
626224000,626072000,1.7956843,0.020024812,1.8156557,1.6804686,1.8154266,1.8154907,1.815521,0.00680923,0.007019268,0.0068095536,0.0068094614,0.0068094213,-0.0076043066,-0.0073693697,-0.00760388,-0.0076039974,-0.0076040584,0.06346672,0.14898288,0.04192415,0.6192429,0.12638347,1
626232000,626080000,1.7956843,0.020024812,1.8157061,1.6805191,1.815477,1.8155411,1.8155715,0.00680923,0.007019268,0.0068095536,0.0068094614,0.0068094213,-0.0076043066,-0.0073693697,-0.00760388,-0.0076039974,-0.0076040584,0.06346672,0.14898288,0.04192415,0.6192429,0.12638347,1
626240000,626088000,1.7956843,0.020024812,1.8157588,1.6805718,1.8155297,1.8155938,1.8156242,0.00680923,0.007019268,0.0068095536,0.0068094614,0.0068094213,-0.0076043066,-0.0073693697,-0.00760388,-0.0076039974,-0.0076040584,0.06346672,0.14898288,0.04192415,0.6192429,0.12638347,1
626248000,626096000,1.7956843,0.020024812,1.8157662,1.6805788,1.8155369,1.8156009,1.8156313,0.00680923,0.007019268,0.0068095536,0.0068094614,0.0068094213,-0.0076043066,-0.0073693697,-0.00760388,-0.0076039974,-0.0076040584,0.06346672,0.14898288,0.04192415,0.6192429,0.12638347,1
626256000,626104000,1.7956843,0.020024812,1.815856,1.6806687,1.8156265,1.8156906,1.815721,0.00680923,0.007019268,0.0068095536,0.0068094614,0.0068094213,-0.0076043066,-0.0073693697,-0.00760388,-0.0076039974,-0.0076040584,0.06346672,0.14898288,0.04192415,0.6192429,0.12638347,1
626264000,626112000,1.7956843,0.020024812,1.815831,1.6806436,1.8156018,1.8156658,1.8156961,0.00680923,0.007019268,0.0068095536,0.0068094614,0.0068094213,-0.0076043066,-0.0073693697,-0.00760388,-0.0076039974,-0.0076040584,0.06346672,0.14898288,0.04192415,0.6192429,0.12638347,1
626272000,626120000,1.7956843,0.020024812,1.8157817,1.6805942,1.8155522,1.8156164,1.8156468,0.00680923,0.007019268,0.0068095536,0.0068094614,0.0068094213,-0.0076043066,-0.0073693697,-0.00760388,-0.0076039974,-0.0076040584,0.06346672,0.14898288,0.04192415,0.6192429,0.12638347,1
626280000,626128000,1.7956843,0.020024812,1.8157716,1.6805841,1.8155421,1.8156064,1.8156366,0.00680923,0.007019268,0.0068095536,0.0068094614,0.0068094213,-0.0076043066,-0.0073693697,-0.00760388,-0.0076039974,-0.0076040584,0.06346672,0.14898288,0.04192415,0.6192429,0.12638347,1
626288000,626136000,1.7956843,0.020024812,1.815688,1.6805006,1.8154584,1.8155224,1.815553,0.00680923,0.007019268,0.0068095536,0.0068094614,0.0068094213,-0.0076043066,-0.0073693697,-0.00760388,-0.0076039974,-0.0076040584,0.06346672,0.14898288,0.04192415,0.6192429,0.12638347,1
626296000,626144000,1.7956843,0.020024812,1.8156288,1.6804415,1.8153993,1.8154634,1.8154938,0.00680923,0.007019268,0.0068095536,0.0068094614,0.0068094213,-0.0076043066,-0.0073693697,-0.00760388,-0.0076039974,-0.0076040584,0.06346672,0.14898288,0.04192415,0.6192429,0.12638347,1
626304000,626152000,1.7956843,0.020024812,1.8156275,1.6804401,1.815398,1.815462,1.8154924,0.00680923,0.007019268,0.0068095536,0.0068094614,0.0068094213,-0.0076043066,-0.0073693697,-0.00760388,-0.0076039974,-0.0076040584,0.06346672,0.14898288,0.04192415,0.6192429,0.12638347,1
626312000,626160000,1.7956843,0.020024812,1.8157293,1.6805419,1.8154999,1.815564,1.8155942,0.00680923,0.007019268,0.0068095536,0.0068094614,0.0068094213,-0.0076043066,-0.0073693697,-0.00760388,-0.0076039974,-0.0076040584,0.06346672,0.14898288,0.04192415,0.6192429,0.12638347,1
626320000,626168000,1.7956843,0.020024812,1.8157767,1.6805894,1.8155473,1.8156114,1.8156419,0.00680923,0.007019268,0.0068095536,0.0068094614,0.0068094213,-0.0076043066,-0.0073693697,-0.00760388,-0.0076039974,-0.0076040584,0.06346672,0.14898288,0.04192415,0.6192429,0.12638347,1
626328000,626176000,1.7956843,0.020024812,1.8157955,1.6806084,1.8155662,1.8156302,1.8156606,0.00680923,0.007019268,0.0068095536,0.0068094614,0.0068094213,-0.0076043066,-0.0073693697,-0.00760388,-0.0076039974,-0.0076040584,0.06346672,0.14898288,0.04192415,0.6192429,0.12638347,1
626336000,626184000,1.7956843,0.020024812,1.8157961,1.6806089,1.815567,1.8156308,1.8156613,0.00680923,0.007019268,0.0068095536,0.0068094614,0.0068094213,-0.0076043066,-0.0073693697,-0.00760388,-0.0076039974,-0.0076040584,0.06346672,0.14898288,0.04192415,0.6192429,0.12638347,1
626344000,626192000,1.7956843,0.020024812,1.8158035,1.6806158,1.8155738,1.815638,1.8156682,0.00680923,0.007019268,0.0068095536,0.0068094614,0.0068094213,-0.0076043066,-0.0073693697,-0.00760388,-0.0076039974,-0.0076040584,0.06346672,0.14898288,0.04192415,0.6192429,0.12638347,1
626352000,626200000,1.7956843,0.020024812,1.8158698,1.6806825,1.8156407,1.8157045,1.815735,0.00680923,0.007019268,0.0068095536,0.0068094614,0.0068094213,-0.0076043066,-0.0073693697,-0.00760388,-0.0076039974,-0.0076040584,0.06346672,0.14898288,0.04192415,0.6192429,0.12638347,1
626360000,626208000,1.7956843,0.020024812,1.8159219,1.6807343,1.8156924,1.8157566,1.8157871,0.00680923,0.007019268,0.0068095536,0.0068094614,0.0068094213,-0.0076043066,-0.0073693697,-0.00760388,-0.0076039974,-0.0076040584,0.06346672,0.14898288,0.04192415,0.6192429,0.12638347,1
626368000,626216000,1.7956843,0.020024812,1.8157548,1.6805676,1.8155255,1.8155895,1.81562,0.00680923,0.007019268,0.0068095536,0.0068094614,0.0068094213,-0.0076043066,-0.0073693697,-0.00760388,-0.0076039974,-0.0076040584,0.06346672,0.14898288,0.04192415,0.6192429,0.12638347,1
626376000,626224000,1.7956843,0.020024812,1.8157133,1.6805257,1.8154839,1.8155477,1.8155781,0.00680923,0.007019268,0.0068095536,0.0068094614,0.0068094213,-0.0076043066,-0.0073693697,-0.00760388,-0.0076039974,-0.0076040584,0.06346672,0.14898288,0.04192415,0.6192429,0.12638347,1
626384000,626232000,1.7956843,0.020024812,1.8158008,1.6806135,1.8155715,1.8156356,1.815666,0.00680923,0.007019268,0.0068095536,0.0068094614,0.0068094213,-0.0076043066,-0.0073693697,-0.00760388,-0.0076039974,-0.0076040584,0.06346672,0.14898288,0.04192415,0.6192429,0.12638347,1
626392000,626240000,1.7956843,0.020024812,1.815893,1.6807058,1.8156637,1.8157278,1.8157581,0.00680923,0.007019268,0.0068095536,0.0068094614,0.0068094213,-0.0076043066,-0.0073693697,-0.00760388,-0.0076039974,-0.0076040584,0.06346672,0.14898288,0.04192415,0.6192429,0.12638347,1
626400000,626248000,1.7956843,0.020024812,1.8159479,1.6807606,1.8157188,1.8157827,1.815813,0.00680923,0.007019268,0.0068095536,0.0068094614,0.0068094213,-0.0076043066,-0.0073693697,-0.00760388,-0.0076039974,-0.0076040584,0.06346672,0.14898288,0.04192415,0.6192429,0.12638347,1
626408000,626256000,1.7956843,0.020024812,1.8159804,1.680793,1.8157513,1.8158152,1.8158456,0.00680923,0.007019268,0.0068095536,0.0068094614,0.0068094213,-0.0076043066,-0.0073693697,-0.00760388,-0.0076039974,-0.0076040584,0.06346672,0.14898288,0.04192415,0.6192429,0.12638347,1
626416000,626264000,1.7958665,0.020056643,1.8160981,1.6809117,1.815869,1.8159329,1.8159634,-0.0057563465,-0.0057891984,-0.005756358,-0.005756355,-0.0057563516,-0.0111304335,-0.011559918,-0.01113116,-0.011130957,-0.011130857,0.06346743,0.1489732,0.04192461,0.6192498,0.12638488,1
626424000,626272000,1.7958665,0.020056643,1.8161243,1.6809376,1.8158951,1.8159591,1.8159894,-0.0057563465,-0.0057891984,-0.005756358,-0.005756355,-0.0057563516,-0.0111304335,-0.011559918,-0.01113116,-0.011130957,-0.011130857,0.06346743,0.1489732,0.04192461,0.6192498,0.12638488,1
626432000,626280000,1.7958665,0.020056643,1.8159668,1.6807804,1.8157377,1.8158016,1.8158321,-0.0057563465,-0.0057891984,-0.005756358,-0.005756355,-0.0057563516,-0.0111304335,-0.011559918,-0.01113116,-0.011130957,-0.011130857,0.06346743,0.1489732,0.04192461,0.6192498,0.12638488,1
626440000,626288000,1.7958665,0.020056643,1.815952,1.6807653,1.8157227,1.8157866,1.815817,-0.0057563465,-0.0057891984,-0.005756358,-0.005756355,-0.0057563516,-0.0111304335,-0.011559918,-0.01113116,-0.011130957,-0.011130857,0.06346743,0.1489732,0.04192461,0.6192498,0.12638488,1
626448000,626296000,1.7958665,0.020056643,1.815914,1.6807274,1.8156846,1.8157487,1.8157787,-0.0057563465,-0.0057891984,-0.005756358,-0.005756355,-0.0057563516,-0.0111304335,-0.011559918,-0.01113116,-0.011130957,-0.011130857,0.06346743,0.1489732,0.04192461,0.6192498,0.12638488,1
626456000,626304000,1.7958665,0.020056643,1.8157909,1.6806043,1.8155617,1.8156255,1.8156561,-0.0057563465,-0.0057891984,-0.005756358,-0.005756355,-0.0057563516,-0.0111304335,-0.011559918,-0.01113116,-0.011130957,-0.011130857,0.06346743,0.1489732,0.04192461,0.6192498,0.12638488,1
626464000,626312000,1.7958665,0.020056643,1.8158075,1.6806209,1.8155782,1.8156422,1.8156726,-0.0057563465,-0.0057891984,-0.005756358,-0.005756355,-0.0057563516,-0.0111304335,-0.011559918,-0.01113116,-0.011130957,-0.011130857,0.06346743,0.1489732,0.04192461,0.6192498,0.12638488,1
626472000,626320000,1.7958665,0.020056643,1.8158046,1.680618,1.8155755,1.8156394,1.8156698,-0.0057563465,-0.0057891984,-0.005756358,-0.005756355,-0.0057563516,-0.0111304335,-0.011559918,-0.01113116,-0.011130957,-0.011130857,0.06346743,0.1489732,0.04192461,0.6192498,0.12638488,1
626480000,626328000,1.7958665,0.020056643,1.8158045,1.6806177,1.815575,1.8156389,1.8156693,-0.0057563465,-0.0057891984,-0.005756358,-0.005756355,-0.0057563516,-0.0111304335,-0.011559918,-0.01113116,-0.011130957,-0.011130857,0.06346743,0.1489732,0.04192461,0.6192498,0.12638488,1
626488000,626336000,1.7958665,0.020056643,1.8157517,1.680565,1.8155224,1.8155863,1.8156168,-0.0057563465,-0.0057891984,-0.005756358,-0.005756355,-0.0057563516,-0.0111304335,-0.011559918,-0.01113116,-0.011130957,-0.011130857,0.06346743,0.1489732,0.04192461,0.6192498,0.12638488,1
626496000,626344000,1.7958665,0.020056643,1.815816,1.6806294,1.8155866,1.8156507,1.8156811,-0.0057563465,-0.0057891984,-0.005756358,-0.005756355,-0.0057563516,-0.0111304335,-0.011559918,-0.01113116,-0.011130957,-0.011130857,0.06346743,0.1489732,0.04192461,0.6192498,0.12638488,1
626504000,626352000,1.7958665,0.020056643,1.8158739,1.6806874,1.8156447,1.8157086,1.8157393,-0.0057563465,-0.0057891984,-0.005756358,-0.005756355,-0.0057563516,-0.0111304335,-0.011559918,-0.01113116,-0.011130957,-0.011130857,0.06346743,0.1489732,0.04192461,0.6192498,0.12638488,1
626512000,626360000,1.7958665,0.020056643,1.815961,1.6807743,1.8157315,1.8157958,1.8158258,-0.0057563465,-0.0057891984,-0.005756358,-0.005756355,-0.0057563516,-0.0111304335,-0.011559918,-0.01113116,-0.011130957,-0.011130857,0.06346743,0.1489732,0.04192461,0.6192498,0.12638488,1
626520000,626368000,1.7958665,0.020056643,1.8159636,1.6807771,1.8157344,1.8157983,1.8158288,-0.0057563465,-0.0057891984,-0.005756358,-0.005756355,-0.0057563516,-0.0111304335,-0.011559918,-0.01113116,-0.011130957,-0.011130857,0.06346743,0.1489732,0.04192461,0.6192498,0.12638488,1
626528000,626376000,1.7958665,0.020056643,1.8159469,1.6807605,1.8157175,1.8157815,1.8158119,-0.0057563465,-0.0057891984,-0.005756358,-0.005756355,-0.0057563516,-0.0111304335,-0.011559918,-0.01113116,-0.011130957,-0.011130857,0.06346743,0.1489732,0.04192461,0.6192498,0.12638488,1
626536000,626384000,1.7958665,0.020056643,1.8160304,1.6808443,1.8158016,1.8158652,1.8158958,-0.0057563465,-0.0057891984,-0.005756358,-0.005756355,-0.0057563516,-0.0111304335,-0.011559918,-0.01113116,-0.011130957,-0.011130857,0.06346743,0.1489732,0.04192461,0.6192498,0.12638488,1
626544000,626392000,1.7958665,0.020056643,1.8159548,1.6807683,1.8157256,1.8157895,1.81582,-0.0057563465,-0.0057891984,-0.005756358,-0.005756355,-0.0057563516,-0.0111304335,-0.011559918,-0.01113116,-0.011130957,-0.011130857,0.06346743,0.1489732,0.04192461,0.6192498,0.12638488,1
626552000,626400000,1.7958665,0.020056643,1.815938,1.6807516,1.8157089,1.8157728,1.8158032,-0.0057563465,-0.0057891984,-0.005756358,-0.005756355,-0.0057563516,-0.0111304335,-0.011559918,-0.01113116,-0.011130957,-0.011130857,0.06346743,0.1489732,0.04192461,0.6192498,0.12638488,1
626560000,626408000,1.7958665,0.020056643,1.8158422,1.6806554,1.8156127,1.8156768,1.815707,-0.0057563465,-0.0057891984,-0.005756358,-0.005756355,-0.0057563516,-0.0111304335,-0.011559918,-0.01113116,-0.011130957,-0.011130857,0.06346743,0.1489732,0.04192461,0.6192498,0.12638488,1
626568000,626416000,1.7958665,0.020056643,1.8158253,1.6806389,1.8155961,1.8156598,1.8156905,-0.0057563465,-0.0057891984,-0.005756358,-0.005756355,-0.0057563516,-0.0111304335,-0.011559918,-0.01113116,-0.011130957,-0.011130857,0.06346743,0.1489732,0.04192461,0.6192498,0.12638488,1
626576000,626424000,1.7958665,0.020056643,1.815778,1.6805916,1.8155487,1.8156128,1.8156432,-0.0057563465,-0.0057891984,-0.005756358,-0.005756355,-0.0057563516,-0.0111304335,-0.011559918,-0.01113116,-0.011130957,-0.011130857,0.06346743,0.1489732,0.04192461,0.6192498,0.12638488,1
626584000,626432000,1.7958665,0.020056643,1.8156809,1.6804943,1.8154517,1.8155155,1.8155459,-0.0057563465,-0.0057891984,-0.005756358,-0.005756355,-0.0057563516,-0.0111304335,-0.011559918,-0.01113116,-0.011130957,-0.011130857,0.06346743,0.1489732,0.04192461,0.6192498,0.12638488,1
626592000,626440000,1.7958665,0.020056643,1.8156334,1.6804471,1.8154043,1.8154684,1.8154988,-0.0057563465,-0.0057891984,-0.005756358,-0.005756355,-0.0057563516,-0.0111304335,-0.011559918,-0.01113116,-0.011130957,-0.011130857,0.06346743,0.1489732,0.04192461,0.6192498,0.12638488,1
626600000,626448000,1.7958665,0.020056643,1.8156422,1.6804556,1.8154128,1.8154768,1.815507,-0.0057563465,-0.0057891984,-0.005756358,-0.005756355,-0.0057563516,-0.0111304335,-0.011559918,-0.01113116,-0.011130957,-0.011130857,0.06346743,0.1489732,0.04192461,0.6192498,0.12638488,1
626608000,626456000,1.7958665,0.020056643,1.8156542,1.680468,1.815425,1.8154892,1.8155195,-0.0057563465,-0.0057891984,-0.005756358,-0.005756355,-0.0057563516,-0.0111304335,-0.011559918,-0.01113116,-0.011130957,-0.011130857,0.06346743,0.1489732,0.04192461,0.6192498,0.12638488,1
626616000,626464000,1.7958665,0.020056643,1.8157238,1.6805372,1.8154942,1.8155583,1.8155887,-0.0057563465,-0.0057891984,-0.005756358,-0.005756355,-0.0057563516,-0.0111304335,-0.011559918,-0.01113116,-0.011130957,-0.011130857,0.06346743,0.1489732,0.04192461,0.6192498,0.12638488,1
626624000,626472000,1.7958665,0.020056643,1.8157083,1.6805218,1.8154788,1.8155427,1.8155732,-0.0057563465,-0.0057891984,-0.005756358,-0.005756355,-0.0057563516,-0.0111304335,-0.011559918,-0.01113116,-0.011130957,-0.011130857,0.06346743,0.1489732,0.04192461,0.6192498,0.12638488,1
626632000,626480000,1.7958665,0.020056643,1.8156744,1.6804883,1.8154452,1.815509,1.8155397,-0.0057563465,-0.0057891984,-0.005756358,-0.005756355,-0.0057563516,-0.0111304335,-0.011559918,-0.01113116,-0.011130957,-0.011130857,0.06346743,0.1489732,0.04192461,0.6192498,0.12638488,1
626640000,626488000,1.7958665,0.020056643,1.8155893,1.6804034,1.8153602,1.815424,1.8154544,-0.0057563465,-0.0057891984,-0.005756358,-0.005756355,-0.0057563516,-0.0111304335,-0.011559918,-0.01113116,-0.011130957,-0.011130857,0.06346743,0.1489732,0.04192461,0.6192498,0.12638488,1
626648000,626496000,1.7958665,0.020056643,1.8155298,1.6803435,1.8153006,1.8153647,1.8153951,-0.0057563465,-0.0057891984,-0.005756358,-0.005756355,-0.0057563516,-0.0111304335,-0.011559918,-0.01113116,-0.011130957,-0.011130857,0.06346743,0.1489732,0.04192461,0.6192498,0.12638488,1
626656000,626504000,1.7958665,0.020056643,1.8154868,1.6803007,1.8152573,1.8153214,1.8153518,-0.0057563465,-0.0057891984,-0.005756358,-0.005756355,-0.0057563516,-0.0111304335,-0.011559918,-0.01113116,-0.011130957,-0.011130857,0.06346743,0.1489732,0.04192461,0.6192498,0.12638488,1
626664000,626512000,1.7958665,0.020056643,1.8154311,1.6802447,1.8152019,1.8152658,1.8152962,-0.0057563465,-0.0057891984,-0.005756358,-0.005756355,-0.0057563516,-0.0111304335,-0.011559918,-0.01113116,-0.011130957,-0.011130857,0.06346743,0.1489732,0.04192461,0.6192498,0.12638488,1
626672000,626520000,1.7958665,0.020056643,1.8154432,1.6802571,1.8152138,1.815278,1.8153085,-0.0057563465,-0.0057891984,-0.005756358,-0.005756355,-0.0057563516,-0.0111304335,-0.011559918,-0.01113116,-0.011130957,-0.011130857,0.06346743,0.1489732,0.04192461,0.6192498,0.12638488,1
626680000,626528000,1.7958665,0.020056643,1.8154384,1.6802523,1.8152092,1.8152734,1.8153037,-0.0057563465,-0.0057891984,-0.005756358,-0.005756355,-0.0057563516,-0.0111304335,-0.011559918,-0.01113116,-0.011130957,-0.011130857,0.06346743,0.1489732,0.04192461,0.6192498,0.12638488,1
626688000,626536000,1.7958665,0.020056643,1.8155701,1.6803838,1.8153408,1.8154048,1.8154352,-0.0057563465,-0.0057891984,-0.005756358,-0.005756355,-0.0057563516,-0.0111304335,-0.011559918,-0.01113116,-0.011130957,-0.011130857,0.06346743,0.1489732,0.04192461,0.6192498,0.12638488,1
626696000,626544000,1.7958665,0.020056643,1.8156676,1.6804813,1.8154384,1.8155026,1.815533,-0.0057563465,-0.0057891984,-0.005756358,-0.005756355,-0.0057563516,-0.0111304335,-0.011559918,-0.01113116,-0.011130957,-0.011130857,0.06346743,0.1489732,0.04192461,0.6192498,0.12638488,1
626704000,626552000,1.7958665,0.020056643,1.8157718,1.6805854,1.8155426,1.8156065,1.815637,-0.0057563465,-0.0057891984,-0.005756358,-0.005756355,-0.0057563516,-0.0111304335,-0.011559918,-0.01113116,-0.011130957,-0.011130857,0.06346743,0.1489732,0.04192461,0.6192498,0.12638488,1
626712000,626560000,1.7958665,0.020056643,1.8158695,1.680683,1.8156402,1.8157042,1.8157346,-0.0057563465,-0.0057891984,-0.005756358,-0.005756355,-0.0057563516,-0.0111304335,-0.011559918,-0.01113116,-0.011130957,-0.011130857,0.06346743,0.1489732,0.04192461,0.6192498,0.12638488,1
626720000,626568000,1.7958665,0.020056643,1.8159403,1.6807541,1.8157111,1.8157755,1.8158056,-0.0057563465,-0.0057891984,-0.005756358,-0.005756355,-0.0057563516,-0.0111304335,-0.011559918,-0.01113116,-0.011130957,-0.011130857,0.06346743,0.1489732,0.04192461,0.6192498,0.12638488,1
626728000,626576000,1.7958665,0.020056643,1.8159698,1.6807833,1.8157402,1.8158045,1.815835,-0.0057563465,-0.0057891984,-0.005756358,-0.005756355,-0.0057563516,-0.0111304335,-0.011559918,-0.01113116,-0.011130957,-0.011130857,0.06346743,0.1489732,0.04192461,0.6192498,0.12638488,1
626736000,626584000,1.7958665,0.020056643,1.8159192,1.6807326,1.81569,1.815754,1.8157843,-0.0057563465,-0.0057891984,-0.005756358,-0.005756355,-0.0057563516,-0.0111304335,-0.011559918,-0.01113116,-0.011130957,-0.011130857,0.06346743,0.1489732,0.04192461,0.6192498,0.12638488,1
626744000,626592000,1.7958665,0.020056643,1.815875,1.6806885,1.8156458,1.8157098,1.8157402,-0.0057563465,-0.0057891984,-0.005756358,-0.005756355,-0.0057563516,-0.0111304335,-0.011559918,-0.01113116,-0.011130957,-0.011130857,0.06346743,0.1489732,0.04192461,0.6192498,0.12638488,1
626752000,626600000,1.7958665,0.020056643,1.8159279,1.6807412,1.8156984,1.8157628,1.815793,-0.0057563465,-0.0057891984,-0.005756358,-0.005756355,-0.0057563516,-0.0111304335,-0.011559918,-0.01113116,-0.011130957,-0.011130857,0.06346743,0.1489732,0.04192461,0.6192498,0.12638488,1
626760000,626608000,1.7958665,0.020056643,1.8159379,1.6807516,1.8157088,1.8157729,1.8158029,-0.0057563465,-0.0057891984,-0.005756358,-0.005756355,-0.0057563516,-0.0111304335,-0.011559918,-0.01113116,-0.011130957,-0.011130857,0.06346743,0.1489732,0.04192461,0.6192498,0.12638488,1
626768000,626616000,1.7958665,0.020056643,1.8158258,1.6806391,1.8155967,1.8156606,1.815691,-0.0057563465,-0.0057891984,-0.005756358,-0.005756355,-0.0057563516,-0.0111304335,-0.011559918,-0.01113116,-0.011130957,-0.011130857,0.06346743,0.1489732,0.04192461,0.6192498,0.12638488,1
626776000,626624000,1.7958665,0.020056643,1.8157349,1.6805483,1.8155054,1.8155695,1.8155999,-0.0057563465,-0.0057891984,-0.005756358,-0.005756355,-0.0057563516,-0.0111304335,-0.011559918,-0.01113116,-0.011130957,-0.011130857,0.06346743,0.1489732,0.04192461,0.6192498,0.12638488,1
626784000,626632000,1.7958665,0.020056643,1.8157179,1.6805316,1.8154889,1.8155531,1.8155835,-0.0057563465,-0.0057891984,-0.005756358,-0.005756355,-0.0057563516,-0.0111304335,-0.011559918,-0.01113116,-0.011130957,-0.011130857,0.06346743,0.1489732,0.04192461,0.6192498,0.12638488,1
626792000,626640000,1.7958665,0.020056643,1.8156345,1.680448,1.8154054,1.8154693,1.8154997,-0.0057563465,-0.0057891984,-0.005756358,-0.005756355,-0.0057563516,-0.0111304335,-0.011559918,-0.01113116,-0.011130957,-0.011130857,0.06346743,0.1489732,0.04192461,0.6192498,0.12638488,1
626800000,626648000,1.7958665,0.020056643,1.8155915,1.6804049,1.8153623,1.8154263,1.815457,-0.0057563465,-0.0057891984,-0.005756358,-0.005756355,-0.0057563516,-0.0111304335,-0.011559918,-0.01113116,-0.011130957,-0.011130857,0.06346743,0.1489732,0.04192461,0.6192498,0.12638488,1
626808000,626656000,1.7958665,0.020056643,1.8156134,1.6804271,1.8153843,1.8154485,1.8154786,-0.0057563465,-0.0057891984,-0.005756358,-0.005756355,-0.0057563516,-0.0111304335,-0.011559918,-0.01113116,-0.011130957,-0.011130857,0.06346743,0.1489732,0.04192461,0.6192498,0.12638488,1
626816000,626664000,1.79539,0.020087775,1.8156179,1.6804343,1.8153887,1.8154527,1.8154831,-0.0012568085,-0.00113408,-0.0012567613,-0.0012567781,-0.0012567805,0.008868087,0.0102361385,0.008870423,0.008869774,0.008869464,0.063469276,0.14894858,0.041925818,0.6192677,0.12638853,1
626824000,626672000,1.79539,0.020087775,1.8154551,1.680272,1.8152262,1.8152902,1.8153206,-0.0012568085,-0.00113408,-0.0012567613,-0.0012567781,-0.0012567805,0.008868087,0.0102361385,0.008870423,0.008869774,0.008869464,0.063469276,0.14894858,0.041925818,0.6192677,0.12638853,1
626832000,626680000,1.79539,0.020087775,1.8153849,1.680201,1.8151555,1.8152195,1.81525,-0.0012568085,-0.00113408,-0.0012567613,-0.0012567781,-0.0012567805,0.008868087,0.0102361385,0.008870423,0.008869774,0.008869464,0.063469276,0.14894858,0.041925818,0.6192677,0.12638853,1
626840000,626688000,1.79539,0.020087775,1.815365,1.6801815,1.8151357,1.8151999,1.8152303,-0.0012568085,-0.00113408,-0.0012567613,-0.0012567781,-0.0012567805,0.008868087,0.0102361385,0.008870423,0.008869774,0.008869464,0.063469276,0.14894858,0.041925818,0.6192677,0.12638853,1
626848000,626696000,1.79539,0.020087775,1.8153807,1.680197,1.8151512,1.8152153,1.8152459,-0.0012568085,-0.00113408,-0.0012567613,-0.0012567781,-0.0012567805,0.008868087,0.0102361385,0.008870423,0.008869774,0.008869464,0.063469276,0.14894858,0.041925818,0.6192677,0.12638853,1
626856000,626704000,1.79539,0.020087775,1.815331,1.6801475,1.815102,1.815166,1.8151964,-0.0012568085,-0.00113408,-0.0012567613,-0.0012567781,-0.0012567805,0.008868087,0.0102361385,0.008870423,0.008869774,0.008869464,0.063469276,0.14894858,0.041925818,0.6192677,0.12638853,1
626864000,626712000,1.79539,0.020087775,1.8154309,1.6802472,1.8152016,1.8152658,1.8152962,-0.0012568085,-0.00113408,-0.0012567613,-0.0012567781,-0.0012567805,0.008868087,0.0102361385,0.008870423,0.008869774,0.008869464,0.063469276,0.14894858,0.041925818,0.6192677,0.12638853,1
626872000,626720000,1.79539,0.020087775,1.8154889,1.6803052,1.8152595,1.8153237,1.815354,-0.0012568085,-0.00113408,-0.0012567613,-0.0012567781,-0.0012567805,0.008868087,0.0102361385,0.008870423,0.008869774,0.008869464,0.063469276,0.14894858,0.041925818,0.6192677,0.12638853,1
626880000,626728000,1.79539,0.020087775,1.8154904,1.6803068,1.8152612,1.8153254,1.8153557,-0.0012568085,-0.00113408,-0.0012567613,-0.0012567781,-0.0012567805,0.008868087,0.0102361385,0.008870423,0.008869774,0.008869464,0.063469276,0.14894858,0.041925818,0.6192677,0.12638853,1
626888000,626736000,1.79539,0.020087775,1.8154634,1.6802797,1.815234,1.8152981,1.8153286,-0.0012568085,-0.00113408,-0.0012567613,-0.0012567781,-0.0012567805,0.008868087,0.0102361385,0.008870423,0.008869774,0.008869464,0.063469276,0.14894858,0.041925818,0.6192677,0.12638853,1
626896000,626744000,1.79539,0.020087775,1.8153818,1.6801983,1.8151526,1.8152168,1.8152472,-0.0012568085,-0.00113408,-0.0012567613,-0.0012567781,-0.0012567805,0.008868087,0.0102361385,0.008870423,0.008869774,0.008869464,0.063469276,0.14894858,0.041925818,0.6192677,0.12638853,1
626904000,626752000,1.79539,0.020087775,1.8152632,1.6800795,1.8150339,1.815098,1.8151284,-0.0012568085,-0.00113408,-0.0012567613,-0.0012567781,-0.0012567805,0.008868087,0.0102361385,0.008870423,0.008869774,0.008869464,0.063469276,0.14894858,0.041925818,0.6192677,0.12638853,1
626912000,626760000,1.79539,0.020087775,1.8151711,1.6799873,1.8149418,1.8150059,1.8150363,-0.0012568085,-0.00113408,-0.0012567613,-0.0012567781,-0.0012567805,0.008868087,0.0102361385,0.008870423,0.008869774,0.008869464,0.063469276,0.14894858,0.041925818,0.6192677,0.12638853,1
626920000,626768000,1.79539,0.020087775,1.8151923,1.6800083,1.8149626,1.8150269,1.8150573,-0.0012568085,-0.00113408,-0.0012567613,-0.0012567781,-0.0012567805,0.008868087,0.0102361385,0.008870423,0.008869774,0.008869464,0.063469276,0.14894858,0.041925818,0.6192677,0.12638853,1
626928000,626776000,1.79539,0.020087775,1.815132,1.6799482,1.8149027,1.8149668,1.8149972,-0.0012568085,-0.00113408,-0.0012567613,-0.0012567781,-0.0012567805,0.008868087,0.0102361385,0.008870423,0.008869774,0.008869464,0.063469276,0.14894858,0.041925818,0.6192677,0.12638853,1
626936000,626784000,1.79539,0.020087775,1.8150707,1.679887,1.8148415,1.8149056,1.814936,-0.0012568085,-0.00113408,-0.0012567613,-0.0012567781,-0.0012567805,0.008868087,0.0102361385,0.008870423,0.008869774,0.008869464,0.063469276,0.14894858,0.041925818,0.6192677,0.12638853,1
626944000,626792000,1.79539,0.020087775,1.8151186,1.6799346,1.8148893,1.8149534,1.8149837,-0.0012568085,-0.00113408,-0.0012567613,-0.0012567781,-0.0012567805,0.008868087,0.0102361385,0.008870423,0.008869774,0.008869464,0.063469276,0.14894858,0.041925818,0.6192677,0.12638853,1
626952000,626800000,1.79539,0.020087775,1.815215,1.6800312,1.8149858,1.8150499,1.8150802,-0.0012568085,-0.00113408,-0.0012567613,-0.0012567781,-0.0012567805,0.008868087,0.0102361385,0.008870423,0.008869774,0.008869464,0.063469276,0.14894858,0.041925818,0.6192677,0.12638853,1
626960000,626808000,1.79539,0.020087775,1.8151784,1.6799945,1.8149492,1.8150133,1.8150436,-0.0012568085,-0.00113408,-0.0012567613,-0.0012567781,-0.0012567805,0.008868087,0.0102361385,0.008870423,0.008869774,0.008869464,0.063469276,0.14894858,0.041925818,0.6192677,0.12638853,1
626968000,626816000,1.79539,0.020087775,1.8151482,1.6799643,1.8149189,1.814983,1.8150134,-0.0012568085,-0.00113408,-0.0012567613,-0.0012567781,-0.0012567805,0.008868087,0.0102361385,0.008870423,0.008869774,0.008869464,0.063469276,0.14894858,0.041925818,0.6192677,0.12638853,1
