timestamp,timestamp_sample,time_last_fuse,observation[0],observation[1],device_id,observation_variance[0],observation_variance[1],innovation[0],innovation[1],innovation_filtered[0],innovation_filtered[1],innovation_variance[0],innovation_variance[1],test_ratio[0],test_ratio[1],test_ratio_filtered[0],test_ratio_filtered[1],estimator_instance,innovation_rejected,fused
625216000,625062000,625064000,47.398146499999996,8.5457545,0,1.0,1.0,0.029674534,-0.0027903349,0.0284003,-0.007484505,1.1222415,1.1227769,3.1386397e-05,2.7738258e-07,2.9577344e-05,-3.9913316e-06,0,0,1
625616000,625462000,625464000,47.398146499999996,8.5457546,0,1.0,1.0,0.029409088,-0.009863774,0.02884865,-0.008541958,1.1228654,1.1233994,3.081026e-05,3.4642726e-06,3.0125308e-05,-3.757083e-06,0,0,1
626016000,625858000,625864000,47.398146499999996,8.5457546,0,1.0,1.0,0.032319132,-0.011967225,0.030382479,-0.010055804,1.1233742,1.1239132,3.719246e-05,5.0969943e-06,3.3248736e-05,-4.349276e-06,0,0,1
626416000,626262000,626264000,47.398146499999996,8.5457545,0,1.0,1.0,0.031208143,-0.004033145,0.03075147,-0.007364262,1.1237967,1.124339,3.4666347e-05,5.7869585e-07,3.3882272e-05,-2.6641937e-06,0,0,1
626816000,626662000,626664000,47.398146499999996,8.5457545,0,1.0,1.0,0.030668506,-0.00085485354,0.030714598,-0.004471191,1.1241591,1.1246936,3.346705e-05,2.5990174e-08,3.369773e-05,-1.4916587e-06,0,0,1
627216000,627058000,627064000,47.398146499999996,8.5457546,0,1.0,1.0,0.028901732,-0.008256854,0.029913375,-0.0061443187,1.1244425,1.124978,2.9714642e-05,2.4240699e-06,3.1937347e-05,-1.9037511e-06,0,0,1
627616000,627462000,627464000,47.398146499999996,8.5457546,0,1.0,1.0,0.02804269,-0.0071676336,0.029077362,-0.006601641,1.1246862,1.1252145,2.796842e-05,1.8263175e-06,3.0163623e-05,-1.8691459e-06,0,0,1
628016000,627862000,627864000,47.398146499999996,8.5457546,0,1.0,1.0,0.028534357,-0.010480493,0.028836027,-0.008325576,1.1248722,1.1254026,2.895296e-05,3.9040515e-06,2.9625551e-05,-2.7735484e-06,0,0,1
628416000,628262000,628264000,47.398146499999996,8.5457546,0,1.0,1.0,0.026377441,-0.00970824,0.027743323,-0.008940093,1.1250194,1.1255505,2.473804e-05,3.3494691e-06,2.7453323e-05,-3.0295132e-06,0,0,1
628816000,628662000,628664000,47.3981466,8.5457546,0,1.0,1.0,0.013011159,-0.009280113,0.021195695,-0.009091213,1.1251503,1.1256738,6.0184057e-06,3.0602291e-06,1.7926694e-05,-3.0431647e-06,0,0,1
629216000,629058000,629064000,47.398146499999996,8.5457545,0,1.0,1.0,0.022895075,-0.001646271,0.02194676,-0.005800815,1.1252412,1.1257647,1.8633677e-05,9.62975e-08,1.8239154e-05,-1.7407547e-06,0,0,1
629616000,629462000,629464000,47.398146499999996,8.5457545,0,1.0,1.0,0.023497932,-0.006977488,0.022639982,-0.006326673,1.1253117,1.1258348,1.9626661e-05,1.7297506e-06,1.8859235e-05,-1.7358369e-06,0,0,1
630016000,629862000,629864000,47.398146499999996,8.5457546,0,1.0,1.0,0.02359354,-0.013683994,0.023063786,-0.009596594,1.1253837,1.1258976,1.9785433e-05,6.65253e-06,1.927088e-05,-3.921034e-06,0,0,1
630416000,630258000,630264000,47.398146499999996,8.5457545,0,1.0,1.0,0.019657742,-0.0005620493,0.021558437,-0.005603648,1.1254482,1.1259611,1.37341485e-05,1.1222392e-08,1.6823842e-05,-2.1930368e-06,0,0,1
630816000,630662000,630664000,47.398146499999996,8.5457548,0,1.0,1.0,0.012682084,-0.014522012,0.017591571,-0.009589288,1.1255727,1.1260765,5.7156776e-06,7.491102e-06,1.1859574e-05,-4.560756e-06,0,0,1
631216000,631062000,631064000,47.3981466,8.5457551,0,1.0,1.0,0.010711825,-0.014699207,0.014533906,-0.011860363,1.1256675,1.1261715,4.0773393e-06,7.674379e-06,8.4008025e-06,-5.944589e-06,0,0,1
631616000,631462000,631464000,47.3981468,8.5457555,0,1.0,1.0,-0.002141549,-0.021482663,0.007122592,-0.01613694,1.125723,1.1262267,1.629613e-07,1.6391188e-05,4.594685e-06,-1.0587522e-05,0,0,1
632016000,631862000,631864000,47.398147,8.5457558,0,1.0,1.0,-0.0015448203,-0.026684675,0.0032704086,-0.020824824,1.1257615,1.1262637,8.4794856e-08,2.5289703e-05,2.5149159e-06,-1.7121825e-05,0,0,1
632416000,632262000,632264000,47.3981472,8.545755999999999,0,1.0,1.0,-0.00533342,-0.020824915,-0.0005535153,-0.020824865,1.1257974,1.1262877,1.0106744e-06,1.5402e-05,9.479868e-07,-1.6357459e-05,0,0,1
632816000,632662000,632664000,47.3981473,8.545756299999999,0,1.0,1.0,0.0046978393,-0.0267134,0.0017804203,-0.02344199,1.1258376,1.1263037,7.841164e-07,2.5343279e-05,8.7515554e-07,-2.0351157e-05,0,0,1
633216000,633062000,633064000,47.398147599999994,8.5457564,0,1.0,1.0,-0.013458071,-0.025352335,-0.004992243,-0.024291033,1.1259143,1.1263266,6.4345813e-06,2.2826092e-05,-2.3736166e-06,-2.145113e-05,0,0,1
633616000,633462000,633464000,47.398147699999996,8.545756599999999,0,1.0,1.0,-0.006713982,-0.025536733,-0.0057574604,-0.024844678,1.1259816,1.1263402,1.6013604e-06,2.3159067e-05,-2.0303914e-06,-2.2210214e-05,0,0,1
634016000,633862000,633864000,47.3981479,8.545756599999999,0,1.0,1.0,-0.013442213,-0.020228008,-0.009172906,-0.022792824,1.1260237,1.1263301,6.4188025e-06,1.4531168e-05,-3.9807965e-06,-1.8797304e-05,0,0,1
634416000,634262000,634264000,47.3981481,8.5457567,0,1.0,1.0,-0.025360929,-0.020467952,-0.016367583,-0.021759547,1.1260376,1.1262956,2.2847433e-05,1.4878407e-05,-1.2365968e-05,-1.7055572e-05,0,0,1
634816000,634662000,634664000,47.3981482,8.545756899999999,0,1.0,1.0,-0.016323388,-0.027509553,-0.016347941,-0.024315106,1.1260997,1.1263132,9.464632e-06,2.6876203e-05,-1.1076485e-05,-2.1420297e-05,0,0,1
635024000,634866000,634872000,47.3981482,8.5457568,0,1.0,1.0,-0.005532528,-0.013491159,-0.013213929,-0.021178622,1.1154746,1.115638,1.0976087e-06,6.525822e-06,-8.184879e-06,-1.7104285e-05,0,0,1
635424000,635266000,635272000,47.3981482,8.545756899999999,0,1.0,1.0,-0.009959147,-0.016960371,-0.011767359,-0.019303843,1.1169657,1.1171036,3.5519308e-06,1.0300001e-05,-6.1257906e-06,-1.40801585e-05,0,0,1
635824000,635666000,635672000,47.398148299999995,8.5457571,0,1.0,1.0,-0.030105222,-0.030279597,-0.019917522,-0.024181956,1.1183437,1.1184627,3.241667e-05,3.2789794e-05,-1.7810627e-05,-2.2395554e-05,0,0,1
636224000,636066000,636072000,47.398147699999996,8.5457574,0,1.0,1.0,-0.06145532,-0.041254546,-0.038378768,-0.031769775,1.1196004,1.1201243,0.00013493228,6.077674e-05,-6.9864705e-05,-3.945386e-05,0,0,1
636624000,636466000,636472000,47.3981446,8.5457576,0,1.0,1.0,-0.09524333,-0.041591696,-0.063651904,-0.036135074,1.1207172,1.1244713,0.00032376737,6.153538e-05,-0.00018271034,-4.9267866e-05,0,0,1
637016000,636862000,636864000,47.398137399999996,8.545757799999999,0,1.0,1.0,-0.0772183,-0.024008624,-0.06964777,-0.030775616,1.1212231,1.1279253,0.00021272007,2.0441568e-05,-0.00019597357,-3.6527672e-05,0,0,1
637424000,637266000,637272000,47.3981261,8.5457583,0,1.0,1.0,-0.076479144,-0.018490473,-0.072700724,-0.025285352,1.1225753,1.1299679,0.00020841576,1.2102913e-05,-0.00020153401,-2.5612182e-05,0,0,1
637824000,637666000,637672000,47.398111799999995,8.54576,0,1.0,1.0,-0.054362748,-0.013451982,-0.06455051,-0.020026077,1.1232765,1.1292434,0.00010523886,6.409808e-06,-0.00015873616,-1.7077793e-05,0,0,1
638224000,638066000,638072000,47.3980957,8.545764199999999,0,1.0,1.0,-0.045953076,-0.004311655,-0.056284986,-0.013041888,1.1239212,1.128534,7.515422e-05,6.5892107e-07,-0.00012158863,-9.780517e-06,0,0,1
638624000,638466000,638472000,47.398078500000004,8.5457719,0,1.0,1.0,0.021071345,-0.013222115,-0.021904394,-0.01312199,1.1245562,1.1278108,1.5792953e-05,6.2004838e-06,-6.0530147e-05,-8.18939e-06,0,0,1
639024000,638866000,638872000,47.3980622,8.5457832,0,1.0,1.0,0.014027545,-0.027596153,-0.0059346426,-0.019554952,1.1251851,1.1272135,6.9951875e-06,2.702408e-05,-3.0518888e-05,-1.6560363e-05,0,0,1
639424000,639266000,639272000,47.398046099999995,8.545797799999999,0,1.0,1.0,0.059331924,-0.060797505,0.023072721,-0.03788498,1.1257105,1.1267297,0.00012508642,0.00013122354,3.863903e-05,-6.7521774e-05,0,0,1
639824000,639666000,639672000,47.3980307,8.5458144,0,1.0,1.0,0.08154449,-0.08487699,0.049060177,-0.05877032,1.1261014,1.1263653,0.00023619556,0.00025583545,0.00012644194,-0.00015121675,0,0,1
640224000,640066000,640072000,47.398016899999995,8.5458316,0,1.0,1.0,0.09831476,-0.077936076,0.070951104,-0.067288436,1.1263561,1.1260127,0.00034325884,0.00021577135,0.00022280501,-0.00017990769,0,0,1
640624000,640466000,640472000,47.3980056,8.5458492,0,1.0,1.0,0.11368124,-0.11266216,0.08994228,-0.087454535,1.1264205,1.1258479,0.00045892008,0.0004509583,0.00032774505,-0.00030037464,0,0,1
641024000,640866000,640872000,47.3979973,8.5458654,0,1.0,1.0,0.10881123,-0.10591086,0.09832848,-0.09565735,1.1263498,1.1259955,0.00042046915,0.00039847798,0.00036895578,-0.00034397613,0,0,1
641424000,641266000,641272000,47.3979918,8.545880100000002,0,1.0,1.0,0.12792282,-0.08868654,0.11148152,-0.09255921,1.1262664,1.1264837,0.0005811857,0.00027928685,0.0004632802,-0.00031522533,0,0,1
641824000,641666000,641672000,47.397990500000006,8.5458944,0,1.0,1.0,0.13062038,-0.08646579,0.119987674,-0.08985102,1.1262047,1.1273502,0.00060598867,0.000265271,0.00052670616,-0.00029302342,0,0,1
642224000,642066000,642072000,47.3979941,8.5459087,0,1.0,1.0,0.111128,-0.067416824,0.11605004,-0.07988027,1.1261095,1.1283906,0.00043865835,0.00016111543,0.0004875738,-0.00023439764,0,0,1
642624000,642466000,642472000,47.3980021,8.5459227,0,1.0,1.0,0.07467101,-0.07295729,0.09765936,-0.076803386,1.1260061,1.129241,0.00019807207,0.00018854316,0.00035890634,-0.00021401787,0,0,1
643024000,642866000,642872000,47.3980132,8.5459361,0,1.0,1.0,0.03929785,-0.059266027,0.071720906,-0.069009006,1.1258861,1.1297019,5.4865977e-05,0.00012436775,0.00022377729,-0.00017417337,0,0,1
643424000,643266000,643272000,47.398026099999996,8.545948899999999,0,1.0,1.0,-0.042416673,-0.09562939,0.020993091,-0.08084029,1.1257682,1.1296842,6.3926986e-05,0.00032380657,9.5908705e-05,-0.00024067702,0,0,1
643824000,643666000,643672000,47.398038,8.5459573,0,1.0,1.0,-0.078243956,-0.1138088,-0.023112267,-0.09549297,1.1256716,1.1292905,0.00021754538,0.00045878167,-4.340423e-05,-0.00033761244,0,0,1
644224000,644066000,644072000,47.3980482,8.5459592,0,1.0,1.0,-0.06399717,-0.08077303,-0.04128334,-0.088950776,1.1256871,1.1288123,0.0001455338,0.00023119106,-8.879516e-05,-0.00029031406,0,0,1
644624000,644466000,644472000,47.398057200000004,8.5459555,0,1.0,1.0,-0.079475455,-0.050656985,-0.058257613,-0.07193131,1.1257858,1.1282189,0.0002244245,9.097986e-05,-0.00014907487,-0.00020172106,0,0,1
645024000,644866000,644872000,47.398064299999994,8.5459477,0,1.0,1.0,-0.08159964,-0.027942117,-0.06863185,-0.052380554,1.1259209,1.1275675,0.00023655307,2.7697213e-05,-0.00018795408,-0.00012437713,0,0,1
645424000,645266000,645272000,47.398069299999996,8.5459376,0,1.0,1.0,-0.09685773,0.00252092,-0.08117668,-0.027979897,1.1260085,1.1269444,0.0003332628,2.2556704e-07,-0.00025253574,-6.8998146e-05,0,0,1
645816000,645662000,645664000,47.398071699999996,8.5459269,0,1.0,1.0,-0.08677314,0.04221139,-0.08365012,0.0030421428,1.1255604,1.1259546,0.00026758504,6.329923e-05,-0.00025918699,-1.0527438e-05,0,0,1
646224000,646066000,646072000,47.3980721,8.545916799999999,0,1.0,1.0,-0.051196758,0.02358746,-0.069146626,0.012223899,1.1260667,1.1260989,9.310667e-05,1.976268e-05,-0.00018496526,3.0092951e-06,0,0,1
646616000,646462000,646464000,47.3980725,8.545907,0,1.0,1.0,-0.0060424507,0.062154643,-0.041256838,0.034291506,1.1255212,1.1254762,1.2975753e-06,0.00013730009,-0.000103790706,6.2361025e-05,0,0,1
646824000,646666000,646672000,47.3980736,8.5459024,0,1.0,1.0,-0.03363976,0.047286324,-0.039049614,0.03805705,1.1150202,1.1150873,4.059598e-05,8.020885e-05,-8.54786e-05,6.7532834e-05,0,0,1
647224000,647070000,647072000,47.398078299999995,8.5458942,0,1.0,1.0,-0.0365472,0.060746077,-0.03793128,0.048196837,1.1163628,1.1165166,4.785891e-05,0.00013219994,-6.866626e-05,9.6432734e-05,0,0,1
647624000,647466000,647472000,47.3980854,8.5458874,0,1.0,1.0,-0.06397957,0.0805286,-0.049443692,0.06248632,1.117573,1.1178482,0.00014650983,0.00023204784,-0.00010307034,0.00015636976,0,0,1
648024000,647870000,647872000,47.3980932,8.545883,0,1.0,1.0,-0.101970114,0.078282416,-0.072917886,0.069545634,1.1186928,1.1190174,0.00037178767,0.00021905421,-0.00022316082,0.0001843836,0,0,1
648424000,648270000,648272000,47.39810000000001,8.5458806,0,1.0,1.0,-0.11286774,0.07164528,-0.09067338,0.07047881,1.119744,1.1200383,0.00045507288,0.00018331682,-0.00032623287,0.00018390948,0,0,1
648824000,648670000,648672000,47.3981061,8.5458793,0,1.0,1.0,-0.11482071,0.049272068,-0.10140553,0.061053593,1.1207294,1.1209621,0.0004705434,8.663046e-05,-0.0003903709,0.00014067435,0,0,1
649224000,649070000,649072000,47.398111799999995,8.5458781,0,1.0,1.0,-0.105791405,0.03211403,-0.10335481,0.048191562,1.121618,1.1217766,0.0003991313,3.67742e-05,-0.0003942644,9.449651e-05,0,0,1
649624000,649470000,649472000,47.398117299999996,8.5458763,0,1.0,1.0,-0.11568472,0.027924621,-0.10883477,0.039184034,1.1224098,1.1224937,0.00047693643,2.7787575e-05,-0.00043100753,6.484809e-05,0,0,1
650024000,649870000,649872000,47.398122199999996,8.545873799999999,0,1.0,1.0,-0.10262146,0.021582041,-0.1060733,0.031360924,1.1230894,1.123106,0.00037507835,1.6589154e-05,-0.00040615012,4.3399676e-05,0,0,1
650424000,650270000,650272000,47.3981266,8.5458707,0,1.0,1.0,-0.10473824,0.013969275,-0.10547994,0.023631303,1.1236668,1.1236268,0.0003905108,6.9468133e-06,-0.0003991993,2.7198403e-05,0,0,1
650824000,650670000,650672000,47.398130099999996,8.545867099999999,0,1.0,1.0,-0.09465509,0.010296759,-0.10066889,0.017704839,1.1241591,1.1240686,0.00031880135,3.7728391e-06,-0.00036346688,1.678704e-05,0,0,1
651224000,651070000,651072000,47.3981327,8.545863299999999,0,1.0,1.0,-0.08102735,0.016712941,-0.091939315,0.017263995,1.1245624,1.1244336,0.00023352841,9.936465e-06,-0.00030571644,1.374234e-05,0,0,1
651624000,651470000,651472000,47.398134399999996,8.545859499999999,0,1.0,1.0,-0.07425011,0.019648533,-0.08407745,0.01832379,1.1248925,1.1247368,0.0001960393,1.3729963e-05,-0.00025697105,1.373684e-05,0,0,1
652024000,651870000,651872000,47.3981353,8.5458558,0,1.0,1.0,-0.05389433,0.019285593,-0.07066273,0.018751258,1.1251674,1.1249919,0.00010325926,1.32244195e-05,-0.0001886547,1.3509098e-05,0,0,1
652424000,652270000,652272000,47.398135599999996,8.5458527,0,1.0,1.0,-0.034086965,0.010449928,-0.054406833,0.015061778,1.125392,1.1251968,4.1298365e-05,3.882023e-06,-0.00012316299,9.230398e-06,0,0,1
652824000,652670000,652672000,47.398135499999995,8.5458502,0,1.0,1.0,-0.024970463,0.012917767,-0.041324,0.014108884,1.1255803,1.1253631,2.2158312e-05,5.9311956e-06,-7.8272016e-05,7.764085e-06,0,0,1
653224000,653070000,653072000,47.3981351,8.545848699999999,0,1.0,1.0,-0.008551676,0.0011601166,-0.026758522,0.008353876,1.1257445,1.125505,2.5984993e-06,4.7831705e-08,-4.463934e-05,4.334639e-06,0,0,1
653624000,653470000,653472000,47.3981346,8.545847700000001,0,1.0,1.0,0.0060705324,0.0040404154,-0.01216783,0.006436782,1.1258755,1.1256151,1.3092518e-06,5.8012574e-07,-2.4217741e-05,2.6659663e-06,0,0,1
654024000,653870000,653872000,47.398134399999996,8.545847300000002,0,1.0,1.0,-0.005714035,0.003809078,-0.009299477,0.005268913,1.1259772,1.1257066,1.1598885e-06,5.155544e-07,-1.3969806e-05,1.7102276e-06,0,0,1
654424000,654270000,654272000,47.398134,8.545847300000002,0,1.0,1.0,0.02062178,0.005003785,0.0039988607,0.0051510786,1.1260697,1.1257901,1.5105916e-05,8.896103e-07,-1.0472622e-06,1.3455087e-06,0,0,1
654824000,654670000,654672000,47.3981339,8.545848,0,1.0,1.0,0.028977217,-0.0007229059,0.015100353,0.0025404184,1.1261381,1.1258599,2.9825085e-05,1.8566894e-08,1.2673781e-05,7.3925287e-07,0,0,1
655232000,655074000,655080000,47.398134,8.545848699999999,0,1.0,1.0,0.028817115,-0.0055181086,0.02123041,-0.0010609587,1.1266558,1.1263999,2.9482868e-05,1.0813042e-06,2.0185806e-05,-7.4358866e-08,0,0,1
655632000,655474000,655480000,47.3981342,8.5458491,0,1.0,1.0,0.027993066,-0.009237888,0.024236036,-0.00469515,1.1266042,1.1263938,2.7822076e-05,3.030506e-06,2.3579703e-05,-1.388202e-06,0,0,1
656032000,655874000,655880000,47.3981346,8.5458491,0,1.0,1.0,0.02338491,-0.0034037894,0.023857757,-0.004121212,1.126549,1.1263893,1.9416964e-05,4.1143085e-07,2.1729596e-05,-9.540814e-07,0,0,1
656432000,656274000,656280000,47.3981351,8.5458489,0,1.0,1.0,0.016683979,0.0023695189,0.020669412,-0.0012364425,1.1264951,1.1263883,9.883936e-06,1.9938487e-07,1.6464859e-05,-4.4142968e-07,0,0,1
656832000,656674000,656680000,47.398135499999995,8.5458488,0,1.0,1.0,0.017124565,0.00079753896,0.019093925,-0.0003324506,1.1264545,1.1263983,1.04132305e-05,2.2587688e-08,1.3775246e-05,-2.3519972e-07,0,0,1
657232000,657074000,657080000,47.3981358,8.5458485,0,1.0,1.0,0.018573804,0.0053866035,0.01886276,0.0022093514,1.1264098,1.1264043,1.2250824e-05,1.030376e-06,1.3097725e-05,3.2727843e-07,0,0,1
657632000,657474000,657480000,47.3981359,8.545848,0,1.0,1.0,0.029924616,0.021523347,0.02377914,0.01079335,1.1263766,1.1264163,3.180047e-05,1.645056e-05,2.1410058e-05,7.4931822e-06,0,0,1
658024000,657870000,657872000,47.3981359,8.545847700000001,0,1.0,1.0,0.032473285,0.025240464,0.027621642,0.017178457,1.1258662,1.1259472,3.7464994e-05,2.2632714e-05,2.8505765e-05,1.4184314e-05,0,0,1
658432000,658274000,658280000,47.3981359,8.545847199999999,0,1.0,1.0,0.023249354,0.030930549,0.025667654,0.023324303,1.1263785,1.1265035,1.919541e-05,3.3970562e-05,2.4344943e-05,2.3026842e-05,0,0,1
658832000,658674000,658680000,47.398135599999996,8.5458467,0,1.0,1.0,0.036142256,0.03551658,0.030323032,0.028743092,1.126348,1.1265072,4.638931e-05,4.4790744e-05,3.414244e-05,3.269969e-05,0,0,1
659224000,659070000,659072000,47.3981354,8.5458463,0,1.0,1.0,0.039432324,0.03545317,0.034349013,0.031708706,1.1258384,1.1260277,5.5244454e-05,4.4649958e-05,4.3468775e-05,3.798128e-05,0,0,1
659632000,659474000,659480000,47.3981351,8.5458457,0,1.0,1.0,0.050444726,0.022409009,0.04154223,0.027552648,1.1262995,1.1265285,9.037278e-05,1.7830484e-05,6.44303e-05,2.8975835e-05,0,0,1
660024000,659870000,659872000,47.3981347,8.5458432,0,1.0,1.0,0.061783724,0.017105633,0.050488245,0.02293544,1.1257459,1.1260142,0.00013563375,1.039428e-05,9.589968e-05,2.0763451e-05,0,0,1
660424000,660270000,660272000,47.3981342,8.5458368,0,1.0,1.0,0.060665213,0.027817823,0.055011343,0.025105389,1.1257131,1.1260067,0.00013077108,2.7489403e-05,0.00011139808,2.3752764e-05,0,0,1
660832000,660674000,660680000,47.3981332,8.5458275,0,1.0,1.0,0.06658275,0.0646659,0.060182635,0.042785086,1.1261873,1.1264757,0.00015746092,0.00014848713,0.00013198369,7.949688e-05,0,0,1
661232000,661074000,661080000,47.3981317,8.5458195,0,1.0,1.0,0.060575336,0.07628638,0.06035717,0.057674553,1.1261321,1.1264149,0.00013033538,0.00020665964,0.0001312511,0.00013601367,0,0,1
661632000,661474000,661480000,47.3981296,8.5458138,0,1.0,1.0,0.061094597,0.09749908,0.060684916,0.07537434,1.126094,1.1263697,0.00013258395,0.00033758263,0.00013184348,0.00022559988,0,0,1
662032000,661874000,661880000,47.398127099999996,8.5458109,0,1.0,1.0,0.059105184,0.081674226,0.059982814,0.07817429,1.1260647,1.1263363,0.00012409315,0.0002368983,0.00012839888,0.0002306214,0,0,1
662432000,662274000,662280000,47.3981244,8.5458102,0,1.0,1.0,0.07024501,0.08465596,0.06454379,0.08105504,1.1260633,1.1263243,0.0001752783,0.000254514,0.00014923418,0.00024124033,0,0,1
662832000,662674000,662680000,47.398122,8.5458113,0,1.0,1.0,0.068037555,0.075670324,0.066096574,0.07866183,1.1260709,1.1263247,0.00016443402,0.0002033516,0.00015598966,0.0002244009,0,0,1
663232000,663074000,663080000,47.3981202,8.5458137,0,1.0,1.0,0.058921475,0.06061297,0.06290764,0.07064012,1.1260874,1.1263452,0.00012332045,0.00013047269,0.00014147001,0.00018265503,0,0,1
663632000,663474000,663480000,47.3981192,8.5458161,0,1.0,1.0,0.07753132,-0.016423358,0.06940706,0.031945236,1.1261837,1.1265084,0.00021350356,9.577441e-06,0.00017348492,9.721837e-05,0,0,1
664032000,663874000,663880000,47.3981192,8.545816,0,1.0,1.0,0.06993217,-0.0069915624,0.06964044,0.014639992,1.1262175,1.1265744,0.00017369677,1.7355958e-06,0.00017357907,5.323883e-05,0,0,1
664432000,664274000,664280000,47.3981192,8.5458161,0,1.0,1.0,0.060145523,-0.009634772,0.06542048,0.003851207,1.1262354,1.1266185,0.00012848056,3.2958392e-06,0.0001535353,2.8112308e-05,0,0,1
664832000,664674000,664680000,47.398119099999995,8.5458161,0,1.0,1.0,0.06321759,-0.010451827,0.06444141,-0.0025056978,1.1262494,1.1266491,0.00014193884,3.878428e-06,0.00014838131,1.3894201e-05,0,0,1
665232000,665074000,665080000,47.3981192,8.545816,0,1.0,1.0,0.0424305,0.005131529,0.054658785,0.0008886256,1.1262408,1.1266558,6.394183e-05,9.348939e-07,0.00011085265,8.134509e-06,0,0,1
665632000,665474000,665480000,47.3981192,8.5458161,0,1.0,1.0,0.038519263,-0.0051120133,0.047485664,-0.0017783253,1.1262205,1.1266453,5.2697804e-05,9.2780505e-07,8.5006046e-05,4.106814e-06,0,0,1
666024000,665870000,665872000,47.3981192,8.5458161,0,1.0,1.0,0.03213133,-0.0002942457,0.040699597,-0.0011224151,1.1257304,1.1261501,3.668453e-05,3.0752747e-09,6.364966e-05,2.2903896e-06,0,0,1
666424000,666270000,666272000,47.3981192,8.5458161,0,1.0,1.0,0.022608595,0.010908851,0.03265915,0.004224815,1.1257712,1.1261944,1.8161723e-05,4.2267316e-06,4.3432796e-05,3.1509862e-06,0,0,1
666832000,666674000,666680000,47.398119099999995,8.5458161,0,1.0,1.0,0.02825058,0.010481125,0.030688949,0.007020776,1.1262822,1.1267055,2.8344417e-05,3.9000065e-06,3.668976e-05,3.4857253e-06,0,0,1
667232000,667074000,667080000,47.3981192,8.5458161,0,1.0,1.0,0.011996788,0.01456875,0.02238132,0.010375431,1.1262283,1.126648,5.111678e-06,7.535574e-06,2.2655055e-05,5.285658e-06,0,0,1
