timestamp,timestamp_sample,q[0],q[1],q[2],q[3],delta_q_reset[0],delta_q_reset[1],delta_q_reset[2],delta_q_reset[3],quat_reset_counter
625256000,0,-0.624598,0.000558992,-0.00044805612,-0.7809519,0.0,0.0,0.0,0.0,0
625260000,0,-0.624598,0.000559004,-0.0004481793,-0.7809519,0.0,0.0,0.0,0.0,0
625268000,0,-0.624598,0.0005593408,-0.000447611,-0.7809519,0.0,0.0,0.0,0.0,0
625276000,0,-0.624598,0.0005593632,-0.000447858,-0.7809519,0.0,0.0,0.0,0.0,0
625288000,0,-0.624598,0.0005596741,-0.00044732552,-0.7809519,0.0,0.0,0.0,0.0,0
625296000,0,-0.624598,0.00055969495,-0.00044756816,-0.7809519,0.0,0.0,0.0,0.0,0
625308000,0,-0.624598,0.00055999315,-0.0004470716,-0.7809519,0.0,0.0,0.0,0.0,0
625316000,0,-0.624598,0.00055973564,-0.0004473669,-0.7809519,0.0,0.0,0.0,0.0,0
625328000,0,-0.624598,0.0005597323,-0.00044624667,-0.7809519,0.0,0.0,0.0,0.0,0
625332000,0,-0.624598,0.00055904646,-0.0004470503,-0.7809519,0.0,0.0,0.0,0.0,0
625344000,0,-0.624598,0.00055906916,-0.00044740937,-0.7809519,0.0,0.0,0.0,0.0,0
625356000,0,-0.624598,0.00055935915,-0.00044686286,-0.7809519,0.0,0.0,0.0,0.0,0
625368000,0,-0.624598,0.00055900146,-0.0004473831,-0.7809519,0.0,0.0,0.0,0.0,0
625376000,0,-0.624598,0.00055930443,-0.00044663867,-0.7809519,0.0,0.0,0.0,0.0,0
625388000,0,-0.624598,0.0005590971,-0.00044708638,-0.7809519,0.0,0.0,0.0,0.0,0
625396000,0,-0.624598,0.0005591201,-0.00044733094,-0.7809519,0.0,0.0,0.0,0.0,0
625408000,0,-0.62459797,0.00055921293,-0.00044697322,-0.7809519,0.0,0.0,0.0,0.0,0
625416000,0,-0.62459797,0.00055896695,-0.0004472642,-0.780952,0.0,0.0,0.0,0.0,0
625428000,0,-0.62459797,0.00055854424,-0.00044687276,-0.780952,0.0,0.0,0.0,0.0,0
625436000,0,-0.62459797,0.0005585657,-0.00044711115,-0.780952,0.0,0.0,0.0,0.0,0
625448000,0,-0.62459797,0.00055859826,-0.00044666423,-0.780952,0.0,0.0,0.0,0.0,0
625456000,0,-0.62459797,0.0005586306,-0.00044690547,-0.780952,0.0,0.0,0.0,0.0,0
625468000,0,-0.62459797,0.0005587094,-0.00044650835,-0.780952,0.0,0.0,0.0,0.0,0
625476000,0,-0.62459797,0.0005584729,-0.00044679403,-0.780952,0.0,0.0,0.0,0.0,0
625488000,0,-0.62459797,0.0005580638,-0.0004463511,-0.780952,0.0,0.0,0.0,0.0,0
625496000,0,-0.62459797,0.0005580906,-0.00044659604,-0.780952,0.0,0.0,0.0,0.0,0
625508000,0,-0.62459797,0.0005577346,-0.00044679907,-0.780952,0.0,0.0,0.0,0.0,0
625516000,0,-0.62459797,0.0005581793,-0.00044640282,-0.780952,0.0,0.0,0.0,0.0,0
625528000,0,-0.62459797,0.00055778807,-0.00044659383,-0.780952,0.0,0.0,0.0,0.0,0
625536000,0,-0.6245979,0.00055753393,-0.0004468836,-0.780952,0.0,0.0,0.0,0.0,0
625548000,0,-0.6245979,0.0005575213,-0.0004458706,-0.780952,0.0,0.0,0.0,0.0,0
625556000,0,-0.6245979,0.0005575381,-0.0004461147,-0.780952,0.0,0.0,0.0,0.0,0
625568000,0,-0.6245979,0.00055716216,-0.0004463175,-0.78095204,0.0,0.0,0.0,0.0,0
625576000,0,-0.6245979,0.0005576065,-0.00044592348,-0.780952,0.0,0.0,0.0,0.0,0
625588000,0,-0.6245979,0.0005578974,-0.00044539425,-0.780952,0.0,0.0,0.0,0.0,0
625596000,0,-0.6245979,0.00055763306,-0.00044570104,-0.78095204,0.0,0.0,0.0,0.0,0
625608000,0,-0.6245979,0.00055765006,-0.0004445175,-0.78095204,0.0,0.0,0.0,0.0,0
625616000,0,-0.6245979,0.0005569895,-0.00044544617,-0.78095204,0.0,0.0,0.0,0.0,0
625628000,0,-0.6245979,0.0005570244,-0.00044580732,-0.78095204,0.0,0.0,0.0,0.0,0
625636000,0,-0.6245979,0.0005566386,-0.00044589848,-0.78095204,0.0,0.0,0.0,0.0,0
625648000,0,-0.6245979,0.0005570863,-0.00044561407,-0.78095204,0.0,0.0,0.0,0.0,0
625656000,0,-0.6245979,0.00055739813,-0.00044500502,-0.78095204,0.0,0.0,0.0,0.0,0
625664000,0,-0.6245979,0.0005571371,-0.00044530063,-0.78095204,0.0,0.0,0.0,0.0,0
625676000,0,-0.6245979,0.000557111,-0.00044414995,-0.78095204,0.0,0.0,0.0,0.0,0
625688000,0,-0.62459785,0.0005564563,-0.0004451919,-0.78095204,0.0,0.0,0.0,0.0,0
625696000,0,-0.62459785,0.0005564791,-0.00044543287,-0.78095204,0.0,0.0,0.0,0.0,0
625708000,0,-0.62459785,0.00055649475,-0.0004449756,-0.78095204,0.0,0.0,0.0,0.0,0
625716000,0,-0.62459785,0.0005565251,-0.00044521518,-0.78095204,0.0,0.0,0.0,0.0,0
625728000,0,-0.62459785,0.0005565629,-0.00044478336,-0.78095204,0.0,0.0,0.0,0.0,0
625736000,0,-0.62459785,0.0005563092,-0.00044507827,-0.78095204,0.0,0.0,0.0,0.0,0
625748000,0,-0.62459785,0.0005558861,-0.0004447124,-0.7809521,0.0,0.0,0.0,0.0,0
625756000,0,-0.62459785,0.0005559125,-0.00044495598,-0.7809521,0.0,0.0,0.0,0.0,0
625764000,0,-0.62459785,0.0005562347,-0.00044435821,-0.78095204,0.0,0.0,0.0,0.0,0
625776000,0,-0.62459785,0.0005559875,-0.00044476532,-0.7809521,0.0,0.0,0.0,0.0,0
625788000,0,-0.62459785,0.0005556151,-0.0004449216,-0.7809521,0.0,0.0,0.0,0.0,0
625796000,0,-0.62459785,0.0005553821,-0.0004452107,-0.7809521,0.0,0.0,0.0,0.0,0
625808000,0,-0.6245978,0.0005553511,-0.00044422984,-0.7809521,0.0,0.0,0.0,0.0,0
625816000,0,-0.6245978,0.00055537076,-0.00044447792,-0.7809521,0.0,0.0,0.0,0.0,0
625828000,0,-0.6245978,0.00055501366,-0.00044465257,-0.7809521,0.0,0.0,0.0,0.0,0
625836000,0,-0.6245978,0.00055544777,-0.00044425073,-0.7809521,0.0,0.0,0.0,0.0,0
625844000,0,-0.6245978,0.0005554715,-0.00044449486,-0.7809521,0.0,0.0,0.0,0.0,0
625856000,0,-0.6245978,0.00055551244,-0.00044406022,-0.7809521,0.0,0.0,0.0,0.0,0
625868000,0,-0.6245978,0.0005555137,-0.000443043,-0.7809521,0.0,0.0,0.0,0.0,0
625876000,0,-0.6245978,0.00055483443,-0.00044397791,-0.7809521,0.0,0.0,0.0,0.0,0
625888000,0,-0.6245978,0.0005551397,-0.0004434555,-0.7809521,0.0,0.0,0.0,0.0,0
625896000,0,-0.6245978,0.00055444683,-0.00044448412,-0.7809521,0.0,0.0,0.0,0.0,0
625908000,0,-0.6245978,0.0005551407,-0.0004433143,-0.7809521,0.0,0.0,0.0,0.0,0
625916000,0,-0.6245978,0.00055489317,-0.00044361287,-0.7809521,0.0,0.0,0.0,0.0,0
625928000,0,-0.6245978,0.00055493065,-0.000443969,-0.7809521,0.0,0.0,0.0,0.0,0
625936000,0,-0.6245978,0.0005545155,-0.00044401883,-0.78095216,0.0,0.0,0.0,0.0,0
625948000,0,-0.6245978,0.0005546823,-0.0004438046,-0.78095216,0.0,0.0,0.0,0.0,0
625956000,0,-0.6245977,0.0005542417,-0.00044316344,-0.78095216,0.0,0.0,0.0,0.0,0
625968000,0,-0.6245977,0.0005542624,-0.00044352098,-0.78095216,0.0,0.0,0.0,0.0,0
625976000,0,-0.6245978,0.00055454223,-0.00044285125,-0.78095216,0.0,0.0,0.0,0.0,0
625988000,0,-0.6245977,0.00055429095,-0.0004432832,-0.78095216,0.0,0.0,0.0,0.0,0
625992000,0,-0.6245977,0.0005542992,-0.00044340288,-0.78095216,0.0,0.0,0.0,0.0,0
626008000,0,-0.6245977,0.0005543445,-0.00044296336,-0.78095216,0.0,0.0,0.0,0.0,0
626016000,0,-0.6245977,0.00055409415,-0.00044325943,-0.78095216,0.0,0.0,0.0,0.0,0
626028000,0,-0.6245977,0.00055373297,-0.00044345635,-0.78095216,0.0,0.0,0.0,0.0,0
626036000,0,-0.6245977,0.00055348285,-0.000443752,-0.78095216,0.0,0.0,0.0,0.0,0
626048000,0,-0.6245977,0.0005534746,-0.00044266623,-0.78095216,0.0,0.0,0.0,0.0,0
626056000,0,-0.6245977,0.00055349164,-0.00044291056,-0.78095216,0.0,0.0,0.0,0.0,0
626068000,0,-0.6245977,0.0005531032,-0.00044308192,-0.78095216,0.0,0.0,0.0,0.0,0
626076000,0,-0.6245977,0.0005535482,-0.00044268632,-0.78095216,0.0,0.0,0.0,0.0,0
626088000,0,-0.6245977,0.00055382896,-0.00044213064,-0.78095216,0.0,0.0,0.0,0.0,0
626096000,0,-0.6245977,0.0005535928,-0.00044241973,-0.78095216,0.0,0.0,0.0,0.0,0
626108000,0,-0.6245977,0.00055359583,-0.0004413454,-0.7809522,0.0,0.0,0.0,0.0,0
626116000,0,-0.62459767,0.00055293675,-0.00044228358,-0.7809522,0.0,0.0,0.0,0.0,0
626128000,0,-0.62459767,0.0005529725,-0.00044264708,-0.7809522,0.0,0.0,0.0,0.0,0
626136000,0,-0.62459767,0.000552624,-0.00044273952,-0.7809522,0.0,0.0,0.0,0.0,0
626148000,0,-0.62459767,0.00055308174,-0.0004424623,-0.7809522,0.0,0.0,0.0,0.0,0
626156000,0,-0.62459767,0.00055345264,-0.00044196527,-0.7809522,0.0,0.0,0.0,0.0,0
626168000,0,-0.62459767,0.00055252796,-0.00044305113,-0.7809522,0.0,0.0,0.0,0.0,0
626176000,0,-0.62459767,0.0005532044,-0.00044122912,-0.7809522,0.0,0.0,0.0,0.0,0
626188000,0,-0.62459767,0.000552545,-0.00044228288,-0.7809522,0.0,0.0,0.0,0.0,0
626196000,0,-0.62459767,0.0005521439,-0.00044233215,-0.7809522,0.0,0.0,0.0,0.0,0
626208000,0,-0.62459767,0.0005525993,-0.00044206058,-0.7809522,0.0,0.0,0.0,0.0,0
626216000,0,-0.62459767,0.00055287825,-0.0004414165,-0.7809522,0.0,0.0,0.0,0.0,0
626228000,0,-0.62459767,0.0005519538,-0.00044251836,-0.7809522,0.0,0.0,0.0,0.0,0
626236000,0,-0.62459767,0.00055264315,-0.00044055996,-0.7809522,0.0,0.0,0.0,0.0,0
626248000,0,-0.6245976,0.00055199856,-0.0004416036,-0.7809522,0.0,0.0,0.0,0.0,0
626256000,0,-0.6245976,0.00055202295,-0.00044184484,-0.7809522,0.0,0.0,0.0,0.0,0
626268000,0,-0.6245976,0.0005520491,-0.0004413617,-0.7809522,0.0,0.0,0.0,0.0,0
626276000,0,-0.6245976,0.0005520699,-0.00044159207,-0.7809522,0.0,0.0,0.0,0.0,0
626288000,0,-0.6245976,0.0005516923,-0.00044181693,-0.7809523,0.0,0.0,0.0,0.0,0
626296000,0,-0.6245976,0.0005512852,-0.00044221146,-0.7809523,0.0,0.0,0.0,0.0,0
626308000,0,-0.6245976,0.0005512838,-0.00044075027,-0.7809523,0.0,0.0,0.0,0.0,0
626316000,0,-0.6245976,0.00055130187,-0.00044099573,-0.7809523,0.0,0.0,0.0,0.0,0
626328000,0,-0.6245976,0.0005513384,-0.00044135962,-0.7809523,0.0,0.0,0.0,0.0,0
626336000,0,-0.6245976,0.00055169314,-0.00044084247,-0.7809523,0.0,0.0,0.0,0.0,0
626348000,0,-0.6245976,0.00055173424,-0.0004412022,-0.7809523,0.0,0.0,0.0,0.0,0
626356000,0,-0.6245976,0.0005520384,-0.0004405935,-0.7809523,0.0,0.0,0.0,0.0,0
626368000,0,-0.6245976,0.0005511299,-0.00044185563,-0.7809523,0.0,0.0,0.0,0.0,0
626376000,0,-0.6245976,0.00055179524,-0.00044021948,-0.7809523,0.0,0.0,0.0,0.0,0
626388000,0,-0.6245976,0.00055133493,-0.0004407145,-0.7809523,0.0,0.0,0.0,0.0,0
626396000,0,-0.6245976,0.0005513546,-0.00044095423,-0.7809523,0.0,0.0,0.0,0.0,0
626408000,0,-0.6245976,0.00055099407,-0.00044147024,-0.7809523,0.0,0.0,0.0,0.0,0
626416000,0,-0.6245979,0.00037189093,-0.00029620313,-0.78095216,0.0,0.0,0.0,0.0,0
626428000,0,-0.6245979,0.00037198007,-0.0002965993,-0.78095216,0.0,0.0,0.0,0.0,0
626436000,0,-0.6245979,0.00037200644,-0.00029684213,-0.78095216,0.0,0.0,0.0,0.0,0
626448000,0,-0.6245979,0.00037204288,-0.0002972039,-0.78095216,0.0,0.0,0.0,0.0,0
626456000,0,-0.6245979,0.0003720647,-0.00029744217,-0.78095216,0.0,0.0,0.0,0.0,0
626468000,0,-0.6245979,0.0003721011,-0.00029780326,-0.78095216,0.0,0.0,0.0,0.0,0
626476000,0,-0.6245979,0.00037212588,-0.00029804453,-0.78095216,0.0,0.0,0.0,0.0,0
626484000,0,-0.6245979,0.00037214992,-0.00029828507,-0.78095216,0.0,0.0,0.0,0.0,0
626492000,0,-0.6245979,0.00037217216,-0.00029852398,-0.78095216,0.0,0.0,0.0,0.0,0
626508000,0,-0.6245979,0.0003722163,-0.00029900047,-0.78095216,0.0,0.0,0.0,0.0,0
626516000,0,-0.6245979,0.00037224073,-0.00029924035,-0.78095216,0.0,0.0,0.0,0.0,0
626528000,0,-0.6245979,0.00037226587,-0.00029958962,-0.78095216,0.0,0.0,0.0,0.0,0
626536000,0,-0.6245979,0.000372287,-0.00029982624,-0.78095216,0.0,0.0,0.0,0.0,0
626548000,0,-0.6245979,0.00037232472,-0.00030018642,-0.78095216,0.0,0.0,0.0,0.0,0
626556000,0,-0.6245979,0.000372346,-0.0003004225,-0.78095216,0.0,0.0,0.0,0.0,0
626568000,0,-0.6245979,0.00037238176,-0.00030078113,-0.78095216,0.0,0.0,0.0,0.0,0
626576000,0,-0.6245979,0.00037240714,-0.0003010215,-0.78095216,0.0,0.0,0.0,0.0,0
626588000,0,-0.6245979,0.0003724449,-0.0003013815,-0.78095216,0.0,0.0,0.0,0.0,0
626596000,0,-0.6245979,0.00037246832,-0.0003016197,-0.78095216,0.0,0.0,0.0,0.0,0
626608000,0,-0.6245979,0.0003725013,-0.000301975,-0.78095216,0.0,0.0,0.0,0.0,0
626616000,0,-0.6245979,0.00037252795,-0.00030221575,-0.78095216,0.0,0.0,0.0,0.0,0
626628000,0,-0.6245979,0.00037256168,-0.00030257128,-0.78095216,0.0,0.0,0.0,0.0,0
626636000,0,-0.6245979,0.000372583,-0.0003028072,-0.78095216,0.0,0.0,0.0,0.0,0
626648000,0,-0.6245979,0.0003726138,-0.00030315938,-0.78095216,0.0,0.0,0.0,0.0,0
626656000,0,-0.6245979,0.00037264082,-0.0003033999,-0.78095216,0.0,0.0,0.0,0.0,0
626668000,0,-0.6245979,0.0003726763,-0.00030375566,-0.78095216,0.0,0.0,0.0,0.0,0
626676000,0,-0.6245979,0.0003726996,-0.00030399213,-0.78095216,0.0,0.0,0.0,0.0,0
626688000,0,-0.6245979,0.00037273642,-0.00030434824,-0.78095216,0.0,0.0,0.0,0.0,0
626696000,0,-0.6245979,0.00037275933,-0.00030458413,-0.78095216,0.0,0.0,0.0,0.0,0
626708000,0,-0.6245979,0.0003727932,-0.00030493733,-0.78095216,0.0,0.0,0.0,0.0,0
626716000,0,-0.6245979,0.0003728187,-0.00030517473,-0.78095216,0.0,0.0,0.0,0.0,0
626728000,0,-0.6245979,0.00037284536,-0.00030552055,-0.78095216,0.0,0.0,0.0,0.0,0
626736000,0,-0.6245979,0.00037286914,-0.00030575626,-0.78095216,0.0,0.0,0.0,0.0,0
626748000,0,-0.6245979,0.00037290656,-0.0003061105,-0.78095216,0.0,0.0,0.0,0.0,0
626756000,0,-0.6245979,0.00037293,-0.0003063455,-0.78095216,0.0,0.0,0.0,0.0,0
626768000,0,-0.6245979,0.0003729688,-0.00030670146,-0.78095216,0.0,0.0,0.0,0.0,0
626776000,0,-0.6245979,0.00037299478,-0.0003069384,-0.78095216,0.0,0.0,0.0,0.0,0
626788000,0,-0.6245979,0.00037303005,-0.0003072898,-0.78095216,0.0,0.0,0.0,0.0,0
626796000,0,-0.6245979,0.0003730544,-0.00030752437,-0.78095216,0.0,0.0,0.0,0.0,0
626808000,0,-0.6245979,0.00037309164,-0.0003078765,-0.78095216,0.0,0.0,0.0,0.0,0
626816000,0,-0.6245979,0.0003731131,-0.00030810846,-0.78095216,0.0,0.0,0.0,0.0,0
626828000,0,-0.6245979,0.0003731472,-0.00030845753,-0.78095216,0.0,0.0,0.0,0.0,0
626836000,0,-0.6245979,0.0003731747,-0.00030869426,-0.78095216,0.0,0.0,0.0,0.0,0
626848000,0,-0.6245979,0.00037320855,-0.0003090418,-0.78095216,0.0,0.0,0.0,0.0,0
626856000,0,-0.6245979,0.0003732331,-0.00030927517,-0.78095216,0.0,0.0,0.0,0.0,0
626868000,0,-0.6245979,0.00037326617,-0.00030962157,-0.78095216,0.0,0.0,0.0,0.0,0
626876000,0,-0.6245979,0.00037329175,-0.00030985556,-0.78095216,0.0,0.0,0.0,0.0,0
626888000,0,-0.6245979,0.00037332292,-0.0003101993,-0.78095216,0.0,0.0,0.0,0.0,0
626896000,0,-0.6245979,0.0003733459,-0.00031042987,-0.78095216,0.0,0.0,0.0,0.0,0
626908000,0,-0.6245979,0.00037338445,-0.0003107786,-0.78095216,0.0,0.0,0.0,0.0,0
626916000,0,-0.6245979,0.000373409,-0.00031101028,-0.78095216,0.0,0.0,0.0,0.0,0
626928000,0,-0.6245979,0.0003734489,-0.00031136026,-0.78095216,0.0,0.0,0.0,0.0,0
626936000,0,-0.6245979,0.00037347485,-0.00031159294,-0.78095216,0.0,0.0,0.0,0.0,0
626948000,0,-0.6245979,0.00037351088,-0.00031193814,-0.78095216,0.0,0.0,0.0,0.0,0
626956000,0,-0.6245979,0.00037353847,-0.00031217095,-0.78095216,0.0,0.0,0.0,0.0,0
626968000,0,-0.6245979,0.00037357034,-0.00031251178,-0.78095216,0.0,0.0,0.0,0.0,0
626976000,0,-0.6245979,0.00037359475,-0.00031274115,-0.78095216,0.0,0.0,0.0,0.0,0
626988000,0,-0.6245979,0.00037363116,-0.00031308352,-0.78095216,0.0,0.0,0.0,0.0,0
626996000,0,-0.6245979,0.0003736555,-0.00031331167,-0.78095216,0.0,0.0,0.0,0.0,0
627008000,0,-0.6245979,0.00037369065,-0.00031365218,-0.78095216,0.0,0.0,0.0,0.0,0
627016000,0,-0.6245979,0.0003737179,-0.00031388257,-0.78095216,0.0,0.0,0.0,0.0,0
627028000,0,-0.6245979,0.00037375017,-0.00031422035,-0.78095216,0.0,0.0,0.0,0.0,0
627036000,0,-0.6245979,0.00037377464,-0.00031444736,-0.78095216,0.0,0.0,0.0,0.0,0
627048000,0,-0.6245979,0.00037381236,-0.00031478758,-0.78095216,0.0,0.0,0.0,0.0,0
627056000,0,-0.6245979,0.00037383914,-0.00031501614,-0.78095216,0.0,0.0,0.0,0.0,0
627068000,0,-0.6245979,0.0003738796,-0.00031535866,-0.78095216,0.0,0.0,0.0,0.0,0
627076000,0,-0.6245979,0.00037390273,-0.00031558232,-0.78095216,0.0,0.0,0.0,0.0,0
627084000,0,-0.6245979,0.0003739305,-0.00031581096,-0.78095216,0.0,0.0,0.0,0.0,0
627096000,0,-0.6245979,0.0003739637,-0.00031614536,-0.78095216,0.0,0.0,0.0,0.0,0
627108000,0,-0.6245979,0.0003740022,-0.0003164837,-0.78095216,0.0,0.0,0.0,0.0,0
627116000,0,-0.6245979,0.00037402535,-0.00031670585,-0.78095216,0.0,0.0,0.0,0.0,0
627128000,0,-0.6245979,0.00037406097,-0.00031703885,-0.78095216,0.0,0.0,0.0,0.0,0
627136000,0,-0.6245979,0.00037408812,-0.00031726374,-0.78095216,0.0,0.0,0.0,0.0,0
627148000,0,-0.6245979,0.00037412293,-0.00031759584,-0.78095216,0.0,0.0,0.0,0.0,0
627156000,0,-0.6245979,0.00037414784,-0.00031781825,-0.78095216,0.0,0.0,0.0,0.0,0
627168000,0,-0.6245979,0.0003741868,-0.00031815184,-0.78095216,0.0,0.0,0.0,0.0,0
627176000,0,-0.6245979,0.0003742145,-0.00031837577,-0.78095216,0.0,0.0,0.0,0.0,0
627188000,0,-0.6245979,0.00037425454,-0.00031870924,-0.78095216,0.0,0.0,0.0,0.0,0
627196000,0,-0.6245979,0.00037427945,-0.00031892917,-0.78095216,0.0,0.0,0.0,0.0,0
627208000,0,-0.6245979,0.00037431618,-0.00031925805,-0.78095216,0.0,0.0,0.0,0.0,0
627216000,0,-0.6245979,0.0003743407,-0.0003194767,-0.78095216,0.0,0.0,0.0,0.0,0
627228000,0,-0.6245979,0.00037437901,-0.00031980494,-0.78095216,0.0,0.0,0.0,0.0,0
627236000,0,-0.6245979,0.0003744031,-0.00032002156,-0.78095216,0.0,0.0,0.0,0.0,0
627248000,0,-0.6245979,0.0003744426,-0.00032034967,-0.78095216,0.0,0.0,0.0,0.0,0
627256000,0,-0.6245979,0.00037446732,-0.00032056653,-0.78095216,0.0,0.0,0.0,0.0,0
627268000,0,-0.6245979,0.0003745078,-0.00032089266,-0.78095216,0.0,0.0,0.0,0.0,0
627276000,0,-0.6245979,0.00037453457,-0.0003211101,-0.78095216,0.0,0.0,0.0,0.0,0
627288000,0,-0.6245979,0.00037457704,-0.00032143772,-0.78095216,0.0,0.0,0.0,0.0,0
627296000,0,-0.6245979,0.00037460256,-0.00032165242,-0.78095216,0.0,0.0,0.0,0.0,0
627308000,0,-0.6245979,0.00037464141,-0.0003219747,-0.78095216,0.0,0.0,0.0,0.0,0
627316000,0,-0.6245979,0.00037466708,-0.00032218912,-0.78095216,0.0,0.0,0.0,0.0,0
627328000,0,-0.6245979,0.00037470635,-0.00032250976,-0.78095216,0.0,0.0,0.0,0.0,0
627336000,0,-0.6245979,0.0003747328,-0.00032272324,-0.78095216,0.0,0.0,0.0,0.0,0
627348000,0,-0.6245979,0.0003747733,-0.00032304414,-0.78095216,0.0,0.0,0.0,0.0,0
627356000,0,-0.6245979,0.0003747985,-0.00032325514,-0.78095216,0.0,0.0,0.0,0.0,0
627368000,0,-0.6245979,0.00037484025,-0.00032357365,-0.78095216,0.0,0.0,0.0,0.0,0
627376000,0,-0.6245979,0.00037486933,-0.0003237873,-0.78095216,0.0,0.0,0.0,0.0,0
627388000,0,-0.6245979,0.00037491063,-0.0003241039,-0.78095216,0.0,0.0,0.0,0.0,0
627396000,0,-0.6245979,0.00037494052,-0.00032431632,-0.78095216,0.0,0.0,0.0,0.0,0
627408000,0,-0.6245979,0.00037497884,-0.00032462846,-0.78095216,0.0,0.0,0.0,0.0,0
627416000,0,-0.6245979,0.0003750063,-0.00032483728,-0.78095216,0.0,0.0,0.0,0.0,0
627428000,0,-0.6245979,0.00037504715,-0.00032514884,-0.78095216,0.0,0.0,0.0,0.0,0
627436000,0,-0.6245979,0.00037507355,-0.00032535582,-0.78095216,0.0,0.0,0.0,0.0,0
627448000,0,-0.6245979,0.00037511435,-0.0003256655,-0.78095216,0.0,0.0,0.0,0.0,0
627456000,0,-0.6245979,0.0003751426,-0.00032587178,-0.78095216,0.0,0.0,0.0,0.0,0
627468000,0,-0.6245979,0.00037518737,-0.00032618368,-0.78095216,0.0,0.0,0.0,0.0,0
627476000,0,-0.6245979,0.00037521447,-0.00032638738,-0.78095216,0.0,0.0,0.0,0.0,0
627488000,0,-0.6245979,0.00037525417,-0.00032669105,-0.78095216,0.0,0.0,0.0,0.0,0
627492000,0,-0.6245979,0.00037526916,-0.00032679352,-0.78095216,0.0,0.0,0.0,0.0,0
627504000,0,-0.6245979,0.00037531025,-0.00032709615,-0.78095216,0.0,0.0,0.0,0.0,0
627512000,0,-0.6245979,0.0003753411,-0.00032730098,-0.78095216,0.0,0.0,0.0,0.0,0
627528000,0,-0.6245979,0.00037539733,-0.0003277037,-0.78095216,0.0,0.0,0.0,0.0,0
627536000,0,-0.6245979,0.00037542518,-0.00032790285,-0.78095216,0.0,0.0,0.0,0.0,0
627548000,0,-0.6245979,0.00037547096,-0.00032820465,-0.78095216,0.0,0.0,0.0,0.0,0
627556000,0,-0.6245979,0.0003754996,-0.0003284027,-0.78095216,0.0,0.0,0.0,0.0,0
627568000,0,-0.6245979,0.00037554154,-0.0003286986,-0.78095216,0.0,0.0,0.0,0.0,0
627576000,0,-0.6245979,0.00037557096,-0.00032889642,-0.78095216,0.0,0.0,0.0,0.0,0
627588000,0,-0.6245979,0.00037561308,-0.00032918976,-0.78095216,0.0,0.0,0.0,0.0,0
627596000,0,-0.6245979,0.0003756418,-0.00032938665,-0.78095216,0.0,0.0,0.0,0.0,0
627608000,0,-0.6245979,0.000375686,-0.00032968135,-0.78095216,0.0,0.0,0.0,0.0,0
627612000,0,-0.6245979,0.0003756994,-0.00032977786,-0.78095216,0.0,0.0,0.0,0.0,0
627628000,0,-0.6245979,0.00037576148,-0.00033017268,-0.78095216,0.0,0.0,0.0,0.0,0
627636000,0,-0.6245979,0.00037579125,-0.000330368,-0.78095216,0.0,0.0,0.0,0.0,0
627648000,0,-0.6245979,0.0003758335,-0.00033065904,-0.78095216,0.0,0.0,0.0,0.0,0
627656000,0,-0.6245979,0.0003758599,-0.00033085098,-0.78095216,0.0,0.0,0.0,0.0,0
627668000,0,-0.6245979,0.00037590516,-0.00033114513,-0.78095216,0.0,0.0,0.0,0.0,0
627676000,0,-0.6245979,0.00037593502,-0.00033134097,-0.78095216,0.0,0.0,0.0,0.0,0
627688000,0,-0.6245979,0.0003759795,-0.0003316325,-0.78095216,0.0,0.0,0.0,0.0,0
627696000,0,-0.6245979,0.0003760108,-0.00033182823,-0.78095216,0.0,0.0,0.0,0.0,0
627704000,0,-0.6245979,0.00037604186,-0.00033202337,-0.78095216,0.0,0.0,0.0,0.0,0
627716000,0,-0.6245979,0.0003760831,-0.0003323106,-0.78095216,0.0,0.0,0.0,0.0,0
627728000,0,-0.6245979,0.00037612746,-0.00033260102,-0.78095216,0.0,0.0,0.0,0.0,0
627736000,0,-0.6245979,0.00037615883,-0.0003327959,-0.78095216,0.0,0.0,0.0,0.0,0
627748000,0,-0.6245979,0.00037620423,-0.000333087,-0.78095216,0.0,0.0,0.0,0.0,0
627756000,0,-0.6245979,0.00037623438,-0.00033327957,-0.78095216,0.0,0.0,0.0,0.0,0
627768000,0,-0.6245979,0.00037627932,-0.00033356843,-0.78095216,0.0,0.0,0.0,0.0,0
627776000,0,-0.6245979,0.00037631113,-0.00033376267,-0.78095216,0.0,0.0,0.0,0.0,0
627788000,0,-0.6245979,0.0003763564,-0.000334051,-0.78095216,0.0,0.0,0.0,0.0,0
627796000,0,-0.6245979,0.00037638677,-0.00033424332,-0.78095216,0.0,0.0,0.0,0.0,0
627804000,0,-0.6245979,0.0003764161,-0.00033443392,-0.78095216,0.0,0.0,0.0,0.0,0
627816000,0,-0.6245979,0.00037646302,-0.00033472298,-0.78095216,0.0,0.0,0.0,0.0,0
627828000,0,-0.6245979,0.00037650825,-0.00033501023,-0.78095216,0.0,0.0,0.0,0.0,0
627836000,0,-0.6245979,0.0003765378,-0.00033520054,-0.78095216,0.0,0.0,0.0,0.0,0
627848000,0,-0.6245979,0.0003765862,-0.000335489,-0.78095216,0.0,0.0,0.0,0.0,0
627856000,0,-0.6245979,0.00037661672,-0.0003356793,-0.78095216,0.0,0.0,0.0,0.0,0
627868000,0,-0.6245979,0.000376661,-0.00033596402,-0.78095216,0.0,0.0,0.0,0.0,0
627876000,0,-0.6245979,0.00037668986,-0.00033615206,-0.78095216,0.0,0.0,0.0,0.0,0
627888000,0,-0.6245979,0.00037673526,-0.00033643722,-0.78095216,0.0,0.0,0.0,0.0,0
627896000,0,-0.6245979,0.00037676474,-0.00033662576,-0.78095216,0.0,0.0,0.0,0.0,0
627908000,0,-0.6245979,0.00037681087,-0.00033690943,-0.78095216,0.0,0.0,0.0,0.0,0
627916000,0,-0.6245979,0.00037684344,-0.00033710006,-0.78095216,0.0,0.0,0.0,0.0,0
627928000,0,-0.6245979,0.00037688957,-0.00033738295,-0.78095216,0.0,0.0,0.0,0.0,0
627936000,0,-0.6245979,0.0003769169,-0.00033756855,-0.78095216,0.0,0.0,0.0,0.0,0
627948000,0,-0.6245979,0.00037696166,-0.0003378499,-0.78095216,0.0,0.0,0.0,0.0,0
627956000,0,-0.6245979,0.0003769932,-0.0003380393,-0.78095216,0.0,0.0,0.0,0.0,0
627968000,0,-0.6245979,0.00037704103,-0.0003383232,-0.78095216,0.0,0.0,0.0,0.0,0
627976000,0,-0.6245979,0.00037707217,-0.000338511,-0.78095216,0.0,0.0,0.0,0.0,0
627984000,0,-0.6245979,0.00037710526,-0.00033869987,-0.78095216,0.0,0.0,0.0,0.0,0
627996000,0,-0.6245979,0.00037715113,-0.00033897845,-0.78095216,0.0,0.0,0.0,0.0,0
628004000,0,-0.6245979,0.0003771798,-0.0003391625,-0.78095216,0.0,0.0,0.0,0.0,0
628016000,0,-0.6245979,0.00037722447,-0.00033944042,-0.78095216,0.0,0.0,0.0,0.0,0
628028000,0,-0.6245979,0.00037727287,-0.0003397222,-0.78095216,0.0,0.0,0.0,0.0,0
628036000,0,-0.6245979,0.00037730494,-0.00033990917,-0.78095216,0.0,0.0,0.0,0.0,0
628048000,0,-0.6245979,0.0003773536,-0.00034018914,-0.78095216,0.0,0.0,0.0,0.0,0
628056000,0,-0.6245979,0.00037738695,-0.00034037573,-0.78095216,0.0,0.0,0.0,0.0,0
628068000,0,-0.6245979,0.00037743154,-0.00034064965,-0.78095216,0.0,0.0,0.0,0.0,0
628076000,0,-0.6245979,0.00037745805,-0.0003408288,-0.78095216,0.0,0.0,0.0,0.0,0
628088000,0,-0.6245979,0.00037750392,-0.00034110306,-0.78095216,0.0,0.0,0.0,0.0,0
628096000,0,-0.6245979,0.00037753693,-0.00034128843,-0.78095216,0.0,0.0,0.0,0.0,0
628108000,0,-0.6245979,0.00037758567,-0.00034156512,-0.78095216,0.0,0.0,0.0,0.0,0
628116000,0,-0.6245979,0.0003776185,-0.00034174972,-0.78095216,0.0,0.0,0.0,0.0,0
628128000,0,-0.6245979,0.00037766792,-0.00034202603,-0.78095216,0.0,0.0,0.0,0.0,0
628136000,0,-0.6245979,0.00037769746,-0.0003422061,-0.78095216,0.0,0.0,0.0,0.0,0
628148000,0,-0.6245979,0.00037774272,-0.0003424774,-0.78095216,0.0,0.0,0.0,0.0,0
628156000,0,-0.6245979,0.00037777517,-0.00034266026,-0.78095216,0.0,0.0,0.0,0.0,0
628168000,0,-0.6245979,0.00037782287,-0.00034293332,-0.78095216,0.0,0.0,0.0,0.0,0
628176000,0,-0.6245979,0.00037785483,-0.00034311487,-0.78095216,0.0,0.0,0.0,0.0,0
628188000,0,-0.6245979,0.00037790538,-0.00034338873,-0.78095216,0.0,0.0,0.0,0.0,0
628196000,0,-0.6245979,0.0003779373,-0.00034356874,-0.78095216,0.0,0.0,0.0,0.0,0
628208000,0,-0.6245979,0.00037798093,-0.00034383344,-0.78095216,0.0,0.0,0.0,0.0,0
628212000,0,-0.6245979,0.00037799732,-0.00034392366,-0.78095216,0.0,0.0,0.0,0.0,0
628228000,0,-0.6245979,0.00037806347,-0.00034428565,-0.78095216,0.0,0.0,0.0,0.0,0
628236000,0,-0.6245979,0.00037809674,-0.0003444665,-0.78095216,0.0,0.0,0.0,0.0,0
628248000,0,-0.6245979,0.00037814566,-0.00034473516,-0.78095216,0.0,0.0,0.0,0.0,0
628256000,0,-0.6245979,0.0003781795,-0.00034491532,-0.78095216,0.0,0.0,0.0,0.0,0
628268000,0,-0.6245979,0.00037822517,-0.0003451799,-0.78095216,0.0,0.0,0.0,0.0,0
628276000,0,-0.6245979,0.00037825428,-0.00034535516,-0.78095216,0.0,0.0,0.0,0.0,0
628288000,0,-0.6245979,0.00037830425,-0.00034562332,-0.78095216,0.0,0.0,0.0,0.0,0
628296000,0,-0.6245979,0.00037833682,-0.0003458005,-0.78095216,0.0,0.0,0.0,0.0,0
628308000,0,-0.6245979,0.0003783867,-0.00034606684,-0.78095216,0.0,0.0,0.0,0.0,0
628316000,0,-0.6245979,0.00037842122,-0.00034624522,-0.78095216,0.0,0.0,0.0,0.0,0
628328000,0,-0.6245979,0.00037846816,-0.00034650633,-0.78095216,0.0,0.0,0.0,0.0,0
628336000,0,-0.6245979,0.00037849828,-0.00034667997,-0.78095216,0.0,0.0,0.0,0.0,0
628348000,0,-0.6245979,0.00037854674,-0.00034694307,-0.78095216,0.0,0.0,0.0,0.0,0
628356000,0,-0.6245979,0.00037858065,-0.0003471198,-0.78095216,0.0,0.0,0.0,0.0,0
628368000,0,-0.6245979,0.00037862867,-0.00034738195,-0.78095216,0.0,0.0,0.0,0.0,0
628376000,0,-0.6245979,0.00037866304,-0.0003475579,-0.78095216,0.0,0.0,0.0,0.0,0
628388000,0,-0.6245979,0.0003787129,-0.0003478193,-0.78095216,0.0,0.0,0.0,0.0,0
628396000,0,-0.6245979,0.00037874372,-0.0003479899,-0.78095216,0.0,0.0,0.0,0.0,0
628408000,0,-0.6245979,0.0003787929,-0.0003482495,-0.78095216,0.0,0.0,0.0,0.0,0
628412000,0,-0.6245979,0.00037881028,-0.00034833697,-0.78095216,0.0,0.0,0.0,0.0,0
628424000,0,-0.6245979,0.0003788612,-0.00034859838,-0.78095216,0.0,0.0,0.0,0.0,0
628436000,0,-0.6245979,0.00037891357,-0.0003488594,-0.78095216,0.0,0.0,0.0,0.0,0
628448000,0,-0.6245979,0.00037896523,-0.00034911808,-0.78095216,0.0,0.0,0.0,0.0,0
628456000,0,-0.6245979,0.0003789952,-0.00034928534,-0.78095216,0.0,0.0,0.0,0.0,0
628464000,0,-0.6245979,0.00037902585,-0.00034945438,-0.78095216,0.0,0.0,0.0,0.0,0
628476000,0,-0.6245979,0.00037907826,-0.00034971317,-0.78095216,0.0,0.0,0.0,0.0,0
628488000,0,-0.6245979,0.00037912873,-0.00034996987,-0.78095216,0.0,0.0,0.0,0.0,0
628496000,0,-0.6245979,0.00037916284,-0.00035014012,-0.78095216,0.0,0.0,0.0,0.0,0
628508000,0,-0.6245979,0.0003792152,-0.0003503961,-0.78095216,0.0,0.0,0.0,0.0,0
628516000,0,-0.6245979,0.00037924727,-0.00035056338,-0.78095216,0.0,0.0,0.0,0.0,0
628528000,0,-0.6245979,0.00037929695,-0.0003508158,-0.78095216,0.0,0.0,0.0,0.0,0
628536000,0,-0.6245979,0.0003793324,-0.00035098585,-0.78095216,0.0,0.0,0.0,0.0,0
628548000,0,-0.6245979,0.0003793833,-0.00035123905,-0.78095216,0.0,0.0,0.0,0.0,0
628556000,0,-0.6245979,0.0003794176,-0.0003514068,-0.78095216,0.0,0.0,0.0,0.0,0
628568000,0,-0.6245979,0.0003794703,-0.00035165786,-0.78095216,0.0,0.0,0.0,0.0,0
628576000,0,-0.6245979,0.00037950318,-0.00035182192,-0.78095216,0.0,0.0,0.0,0.0,0
628588000,0,-0.6245979,0.00037955274,-0.00035206927,-0.78095216,0.0,0.0,0.0,0.0,0
628596000,0,-0.6245979,0.00037958863,-0.0003522361,-0.78095216,0.0,0.0,0.0,0.0,0
628608000,0,-0.6245979,0.00037964166,-0.0003524847,-0.78095216,0.0,0.0,0.0,0.0,0
628616000,0,-0.6245979,0.00037967687,-0.00035264902,-0.78095216,0.0,0.0,0.0,0.0,0
628628000,0,-0.6245979,0.00037972935,-0.00035289515,-0.78095216,0.0,0.0,0.0,0.0,0
628636000,0,-0.6245979,0.00037976107,-0.00035305592,-0.78095216,0.0,0.0,0.0,0.0,0
628648000,0,-0.6245979,0.00037981194,-0.00035329978,-0.78095216,0.0,0.0,0.0,0.0,0
628656000,0,-0.6245979,0.00037984797,-0.0003534642,-0.78095216,0.0,0.0,0.0,0.0,0
628668000,0,-0.6245979,0.00037989925,-0.00035370825,-0.78095216,0.0,0.0,0.0,0.0,0
628676000,0,-0.6245979,0.00037993546,-0.00035387138,-0.78095216,0.0,0.0,0.0,0.0,0
628688000,0,-0.6245979,0.00037998738,-0.00035411207,-0.78095216,0.0,0.0,0.0,0.0,0
628692000,0,-0.6245979,0.00038000237,-0.00035418943,-0.78095216,0.0,0.0,0.0,0.0,0
628708000,0,-0.6245979,0.00038007327,-0.0003545125,-0.78095216,0.0,0.0,0.0,0.0,0
628716000,0,-0.6245979,0.00038010924,-0.00035467427,-0.78095216,0.0,0.0,0.0,0.0,0
628728000,0,-0.6245979,0.00038016346,-0.0003549145,-0.78095216,0.0,0.0,0.0,0.0,0
628736000,0,-0.6245979,0.00038020016,-0.00035507468,-0.78095216,0.0,0.0,0.0,0.0,0
628748000,0,-0.6245979,0.00038025092,-0.00035530998,-0.78095216,0.0,0.0,0.0,0.0,0
628756000,0,-0.6245979,0.00038028436,-0.00035546639,-0.78095216,0.0,0.0,0.0,0.0,0
628764000,0,-0.6245979,0.00038032088,-0.0003556252,-0.78095216,0.0,0.0,0.0,0.0,0
628776000,0,-0.6245979,0.00038037484,-0.00035586164,-0.78095216,0.0,0.0,0.0,0.0,0
628788000,0,-0.6245979,0.00038043055,-0.00035609776,-0.78095216,0.0,0.0,0.0,0.0,0
628796000,0,-0.6245979,0.00038046754,-0.00035625484,-0.78095216,0.0,0.0,0.0,0.0,0
628808000,0,-0.6245979,0.0003805182,-0.00035648508,-0.78095216,0.0,0.0,0.0,0.0,0
628816000,0,-0.6245979,0.00038055357,-0.0003566403,-0.78095216,0.0,0.0,0.0,0.0,0
628828000,0,-0.6245979,0.00038060904,-0.0003568748,-0.78095216,0.0,0.0,0.0,0.0,0
628836000,0,-0.6245979,0.00038064586,-0.0003570294,-0.78095216,0.0,0.0,0.0,0.0,0
628848000,0,-0.6245979,0.00038070214,-0.00035726072,-0.78095216,0.0,0.0,0.0,0.0,0
628856000,0,-0.6245979,0.00038073867,-0.00035741378,-0.78095216,0.0,0.0,0.0,0.0,0
628868000,0,-0.6245979,0.00038078986,-0.00035763954,-0.78095216,0.0,0.0,0.0,0.0,0
628876000,0,-0.6245979,0.0003808274,-0.000357793,-0.78095216,0.0,0.0,0.0,0.0,0
628888000,0,-0.6245979,0.000380884,-0.00035802345,-0.78095216,0.0,0.0,0.0,0.0,0
628896000,0,-0.6245979,0.00038092004,-0.00035817354,-0.78095216,0.0,0.0,0.0,0.0,0
628908000,0,-0.6245979,0.0003809757,-0.00035840017,-0.78095216,0.0,0.0,0.0,0.0,0
628916000,0,-0.6245979,0.0003810108,-0.0003585485,-0.78095216,0.0,0.0,0.0,0.0,0
628928000,0,-0.6245979,0.00038106713,-0.0003587743,-0.78095216,0.0,0.0,0.0,0.0,0
628936000,0,-0.6245979,0.0003811048,-0.00035892442,-0.78095216,0.0,0.0,0.0,0.0,0
628948000,0,-0.6245979,0.00038116128,-0.00035914878,-0.78095216,0.0,0.0,0.0,0.0,0
628956000,0,-0.6245979,0.00038119973,-0.00035929773,-0.78095216,0.0,0.0,0.0,0.0,0
628968000,0,-0.6245979,0.000381253,-0.00035951502,-0.78095216,0.0,0.0,0.0,0.0,0
628976000,0,-0.6245979,0.00038129004,-0.00035966173,-0.78095216,0.0,0.0,0.0,0.0,0
628988000,0,-0.6245979,0.00038134755,-0.0003598834,-0.78095216,0.0,0.0,0.0,0.0,0
628996000,0,-0.6245979,0.00038138547,-0.00036002952,-0.78095216,0.0,0.0,0.0,0.0,0
629008000,0,-0.6245979,0.00038144278,-0.00036024713,-0.78095216,0.0,0.0,0.0,0.0,0
629016000,0,-0.6245979,0.00038147916,-0.00036039003,-0.78095216,0.0,0.0,0.0,0.0,0
629028000,0,-0.6245979,0.00038153533,-0.00036060612,-0.78095216,0.0,0.0,0.0,0.0,0
629036000,0,-0.6245979,0.00038157412,-0.00036075007,-0.78095216,0.0,0.0,0.0,0.0,0
629048000,0,-0.6245979,0.0003816326,-0.00036096553,-0.78095216,0.0,0.0,0.0,0.0,0
629056000,0,-0.6245979,0.0003816706,-0.00036110732,-0.78095216,0.0,0.0,0.0,0.0,0
629068000,0,-0.6245979,0.0003817283,-0.00036132045,-0.78095216,0.0,0.0,0.0,0.0,0
629076000,0,-0.6245979,0.0003817672,-0.00036146253,-0.78095216,0.0,0.0,0.0,0.0,0
629088000,0,-0.6245979,0.00038182476,-0.00036167304,-0.78095216,0.0,0.0,0.0,0.0,0
629096000,0,-0.6245979,0.00038186385,-0.00036181393,-0.78095216,0.0,0.0,0.0,0.0,0
629108000,0,-0.6245979,0.0003819228,-0.00036202447,-0.78095216,0.0,0.0,0.0,0.0,0
629116000,0,-0.6245979,0.00038196234,-0.0003621636,-0.78095216,0.0,0.0,0.0,0.0,0
629128000,0,-0.6245979,0.00038201947,-0.0003623694,-0.78095216,0.0,0.0,0.0,0.0,0
629136000,0,-0.6245979,0.0003820581,-0.00036250608,-0.78095216,0.0,0.0,0.0,0.0,0
629148000,0,-0.6245979,0.00038211746,-0.00036271222,-0.78095216,0.0,0.0,0.0,0.0,0
629156000,0,-0.6245979,0.00038215792,-0.00036284968,-0.78095216,0.0,0.0,0.0,0.0,0
629164000,0,-0.6245979,0.00038219802,-0.00036298638,-0.78095216,0.0,0.0,0.0,0.0,0
629176000,0,-0.6245979,0.0003822563,-0.00036318885,-0.78095216,0.0,0.0,0.0,0.0,0
629188000,0,-0.6245979,0.00038231642,-0.0003633919,-0.78095216,0.0,0.0,0.0,0.0,0
629196000,0,-0.6245979,0.00038235652,-0.00036352576,-0.78095216,0.0,0.0,0.0,0.0,0
629208000,0,-0.6245979,0.00038241656,-0.00036372506,-0.78095216,0.0,0.0,0.0,0.0,0
629216000,0,-0.6245979,0.00038245684,-0.00036385754,-0.78095216,0.0,0.0,0.0,0.0,0
629228000,0,-0.6245979,0.00038251732,-0.0003640567,-0.78095216,0.0,0.0,0.0,0.0,0
629236000,0,-0.6245979,0.0003825564,-0.00036418758,-0.78095216,0.0,0.0,0.0,0.0,0
629248000,0,-0.6245979,0.0003826167,-0.00036438418,-0.78095216,0.0,0.0,0.0,0.0,0
629256000,0,-0.6245979,0.00038265804,-0.0003645152,-0.78095216,0.0,0.0,0.0,0.0,0
629264000,0,-0.6245979,0.00038269864,-0.00036464538,-0.78095216,0.0,0.0,0.0,0.0,0
629276000,0,-0.6245979,0.00038275903,-0.00036483884,-0.78095216,0.0,0.0,0.0,0.0,0
629288000,0,-0.6245979,0.00038281977,-0.00036503025,-0.78095216,0.0,0.0,0.0,0.0,0
629296000,0,-0.6245979,0.00038286136,-0.00036515362,-0.78095216,0.0,0.0,0.0,0.0,0
629308000,0,-0.6245979,0.00038292655,-0.00036533587,-0.78095216,0.0,0.0,0.0,0.0,0
629316000,0,-0.6245979,0.00038296837,-0.0003654527,-0.78095216,0.0,0.0,0.0,0.0,0
629328000,0,-0.6245979,0.00038303123,-0.00036562595,-0.78095216,0.0,0.0,0.0,0.0,0
629336000,0,-0.6245979,0.0003830744,-0.00036574263,-0.78095216,0.0,0.0,0.0,0.0,0
629348000,0,-0.6245979,0.00038313837,-0.00036591577,-0.78095216,0.0,0.0,0.0,0.0,0
629356000,0,-0.6245979,0.00038318185,-0.00036603113,-0.78095216,0.0,0.0,0.0,0.0,0
629368000,0,-0.6245979,0.0003832468,-0.00036620194,-0.78095216,0.0,0.0,0.0,0.0,0
629376000,0,-0.6245979,0.000383289,-0.0003663139,-0.78095216,0.0,0.0,0.0,0.0,0
629388000,0,-0.6245979,0.00038335385,-0.00036648204,-0.78095216,0.0,0.0,0.0,0.0,0
629396000,0,-0.6245979,0.00038339794,-0.00036659415,-0.78095216,0.0,0.0,0.0,0.0,0
629408000,0,-0.6245979,0.00038346314,-0.0003667607,-0.78095216,0.0,0.0,0.0,0.0,0
629416000,0,-0.6245979,0.00038350665,-0.00036687075,-0.78095216,0.0,0.0,0.0,0.0,0
629428000,0,-0.6245979,0.00038357129,-0.00036703504,-0.78095216,0.0,0.0,0.0,0.0,0
629436000,0,-0.6245979,0.00038361558,-0.00036714444,-0.78095216,0.0,0.0,0.0,0.0,0
629448000,0,-0.6245979,0.0003836825,-0.00036730582,-0.78095216,0.0,0.0,0.0,0.0,0
629456000,0,-0.6245979,0.0003837269,-0.00036741237,-0.78095216,0.0,0.0,0.0,0.0,0
629468000,0,-0.6245979,0.0003837918,-0.00036757087,-0.78095216,0.0,0.0,0.0,0.0,0
629476000,0,-0.6245979,0.00038383697,-0.00036767812,-0.78095216,0.0,0.0,0.0,0.0,0
629488000,0,-0.6245979,0.0003839051,-0.0003678369,-0.78095216,0.0,0.0,0.0,0.0,0
629496000,0,-0.6245979,0.0003839504,-0.00036794186,-0.78095216,0.0,0.0,0.0,0.0,0
629508000,0,-0.6245979,0.00038401646,-0.0003680973,-0.78095216,0.0,0.0,0.0,0.0,0
629516000,0,-0.6245979,0.00038406122,-0.00036820103,-0.78095216,0.0,0.0,0.0,0.0,0
629528000,0,-0.6245979,0.00038412944,-0.0003683561,-0.78095216,0.0,0.0,0.0,0.0,0
629536000,0,-0.6245979,0.0003841746,-0.00036845822,-0.78095216,0.0,0.0,0.0,0.0,0
629548000,0,-0.6245979,0.00038424227,-0.0003686083,-0.78095216,0.0,0.0,0.0,0.0,0
629556000,0,-0.6245979,0.00038428712,-0.00036870706,-0.78095216,0.0,0.0,0.0,0.0,0
629568000,0,-0.6245979,0.00038435587,-0.00036885566,-0.78095216,0.0,0.0,0.0,0.0,0
629576000,0,-0.6245979,0.00038440267,-0.00036895514,-0.78095216,0.0,0.0,0.0,0.0,0
629588000,0,-0.6245979,0.00038447217,-0.00036910348,-0.78095216,0.0,0.0,0.0,0.0,0
629596000,0,-0.6245979,0.00038451725,-0.00036919993,-0.78095216,0.0,0.0,0.0,0.0,0
629608000,0,-0.6245979,0.0003845862,-0.0003693404,-0.78095216,0.0,0.0,0.0,0.0,0
629616000,0,-0.6245979,0.00038463267,-0.0003694345,-0.78095216,0.0,0.0,0.0,0.0,0
629628000,0,-0.6245979,0.00038470243,-0.00036957383,-0.78095216,0.0,0.0,0.0,0.0,0
629636000,0,-0.6245979,0.0003847474,-0.00036966146,-0.78095216,0.0,0.0,0.0,0.0,0
629648000,0,-0.6245979,0.00038481632,-0.00036979356,-0.78095216,0.0,0.0,0.0,0.0,0
629656000,0,-0.6245979,0.00038486486,-0.00036988352,-0.78095216,0.0,0.0,0.0,0.0,0
629668000,0,-0.6245979,0.00038493512,-0.00037001588,-0.78095216,0.0,0.0,0.0,0.0,0
629676000,0,-0.6245979,0.00038498102,-0.00037010113,-0.78095216,0.0,0.0,0.0,0.0,0
629688000,0,-0.6245979,0.00038505028,-0.00037022863,-0.78095216,0.0,0.0,0.0,0.0,0
629696000,0,-0.6245979,0.0003850971,-0.00037031324,-0.78095216,0.0,0.0,0.0,0.0,0
629708000,0,-0.6245979,0.00038517115,-0.00037044226,-0.78095216,0.0,0.0,0.0,0.0,0
629716000,0,-0.6245979,0.00038521894,-0.00037052395,-0.78095216,0.0,0.0,0.0,0.0,0
629728000,0,-0.6245979,0.00038529042,-0.00037064418,-0.78095216,0.0,0.0,0.0,0.0,0
629736000,0,-0.6245979,0.00038534016,-0.00037072334,-0.78095216,0.0,0.0,0.0,0.0,0
629748000,0,-0.6245979,0.00038541792,-0.00037084808,-0.78095216,0.0,0.0,0.0,0.0,0
629756000,0,-0.6245979,0.00038546688,-0.00037092713,-0.78095216,0.0,0.0,0.0,0.0,0
629768000,0,-0.6245979,0.00038553917,-0.0003710449,-0.78095216,0.0,0.0,0.0,0.0,0
629776000,0,-0.6245979,0.0003855891,-0.00037112486,-0.78095216,0.0,0.0,0.0,0.0,0
629788000,0,-0.6245979,0.00038566763,-0.00037124494,-0.78095216,0.0,0.0,0.0,0.0,0
629796000,0,-0.6245979,0.00038571676,-0.0003713192,-0.78095216,0.0,0.0,0.0,0.0,0
629808000,0,-0.6245979,0.00038579103,-0.0003714292,-0.78095216,0.0,0.0,0.0,0.0,0
629816000,0,-0.6245979,0.00038584202,-0.00037150213,-0.78095216,0.0,0.0,0.0,0.0,0
629828000,0,-0.6245979,0.00038592258,-0.00037161345,-0.78095216,0.0,0.0,0.0,0.0,0
629836000,0,-0.6245979,0.000385973,-0.0003716805,-0.78095216,0.0,0.0,0.0,0.0,0
629848000,0,-0.6245979,0.0003860477,-0.00037177777,-0.78095216,0.0,0.0,0.0,0.0,0
629856000,0,-0.6245979,0.00038609895,-0.00037184343,-0.78095216,0.0,0.0,0.0,0.0,0
629864000,0,-0.6245979,0.00038615405,-0.0003719116,-0.78095216,0.0,0.0,0.0,0.0,0
629876000,0,-0.6245979,0.0003862327,-0.0003720073,-0.78095216,0.0,0.0,0.0,0.0,0
629888000,0,-0.6245979,0.00038630608,-0.000372095,-0.78095216,0.0,0.0,0.0,0.0,0
629896000,0,-0.6245979,0.00038635154,-0.00037215353,-0.78095216,0.0,0.0,0.0,0.0,0
629908000,0,-0.6245979,0.00038642352,-0.0003722448,-0.78095216,0.0,0.0,0.0,0.0,0
629916000,0,-0.6245979,0.00038621182,-0.00037211672,-0.78095216,0.0,0.0,0.0,0.0,0
629928000,0,-0.6245979,0.00037926532,-0.00036661324,-0.78095216,0.0,0.0,0.0,0.0,0
629936000,0,-0.62459785,0.00036616353,-0.00035614788,-0.7809522,0.0,0.0,0.0,0.0,0
629948000,0,-0.62459755,0.0003280182,-0.00032577335,-0.7809525,0.0,0.0,0.0,0.0,0
629956000,0,-0.62459695,0.00028479114,-0.00029142547,-0.780953,0.0,0.0,0.0,0.0,0
629968000,0,-0.6245952,0.00018162566,-0.0002093628,-0.7809544,0.0,0.0,0.0,0.0,0
629972000,0,-0.6245942,0.00013531635,-0.00017261323,-0.7809553,0.0,0.0,0.0,0.0,0
629988000,0,-0.62458664,-0.00011009023,2.8157798e-05,-0.78096133,0.0,0.0,0.0,0.0,0
629996000,0,-0.62458247,-0.00025738683,0.00016596008,-0.7809647,0.0,0.0,0.0,0.0,0
630008000,0,-0.62457764,-0.0004951307,0.0004238286,-0.78096825,0.0,0.0,0.0,0.0,0
630016000,0,-0.62457526,-0.00065831153,0.0006209147,-0.7809699,0.0,0.0,0.0,0.0,0
630028000,0,-0.6245726,-0.0009165399,0.0009598208,-0.78097147,0.0,0.0,0.0,0.0,0
630036000,0,-0.6245713,-0.0010918885,0.0012075723,-0.7809719,0.0,0.0,0.0,0.0,0
630048000,0,-0.62457013,-0.001361518,0.0015969254,-0.78097177,0.0,0.0,0.0,0.0,0
630056000,0,-0.6245698,-0.0015398135,0.0018597272,-0.7809711,0.0,0.0,0.0,0.0,0
630068000,0,-0.6245701,-0.0017941751,0.002254455,-0.78096926,0.0,0.0,0.0,0.0,0
630076000,0,-0.6245705,-0.00195342,0.002518766,-0.7809678,0.0,0.0,0.0,0.0,0
630088000,0,-0.62457097,-0.002178836,0.0029024372,-0.78096545,0.0,0.0,0.0,0.0,0
630096000,0,-0.6245713,-0.0023267139,0.0031505458,-0.7809638,0.0,0.0,0.0,0.0,0
630108000,0,-0.62457234,-0.0025516385,0.003509479,-0.78096074,0.0,0.0,0.0,0.0,0
630116000,0,-0.62457323,-0.0026964617,0.0037317413,-0.7809585,0.0,0.0,0.0,0.0,0
630128000,0,-0.6245748,-0.002895041,0.004044236,-0.780955,0.0,0.0,0.0,0.0,0
630136000,0,-0.62457573,-0.0030214617,0.004243787,-0.7809527,0.0,0.0,0.0,0.0,0
630148000,0,-0.62457716,-0.003211512,0.0045296224,-0.7809492,0.0,0.0,0.0,0.0,0
630156000,0,-0.62457806,-0.0033344063,0.0047174753,-0.78094685,0.0,0.0,0.0,0.0,0
630168000,0,-0.62457967,-0.003506326,0.0049799555,-0.78094316,0.0,0.0,0.0,0.0,0
630176000,0,-0.62458116,-0.0036104198,0.0051386068,-0.7809405,0.0,0.0,0.0,0.0,0
630188000,0,-0.6245842,-0.0037523792,0.0053548855,-0.78093594,0.0,0.0,0.0,0.0,0
630196000,0,-0.62458664,-0.003828615,0.005491626,-0.7809326,0.0,0.0,0.0,0.0,0
630208000,0,-0.62459105,-0.0039126463,0.0056893853,-0.7809273,0.0,0.0,0.0,0.0,0
630216000,0,-0.6245942,-0.003954646,0.005822371,-0.7809236,0.0,0.0,0.0,0.0,0
630228000,0,-0.6245995,-0.0039906013,0.0060036858,-0.7809178,0.0,0.0,0.0,0.0,0
630236000,0,-0.62460303,-0.003998106,0.006107167,-0.7809141,0.0,0.0,0.0,0.0,0
630248000,0,-0.62460846,-0.0040015276,0.0062383665,-0.78090876,0.0,0.0,0.0,0.0,0
630256000,0,-0.6246125,-0.003999397,0.0062974268,-0.78090507,0.0,0.0,0.0,0.0,0
630264000,0,-0.62461686,-0.003993661,0.006336511,-0.78090125,0.0,0.0,0.0,0.0,0
630276000,0,-0.62462395,-0.0039708335,0.006373348,-0.7808954,0.0,0.0,0.0,0.0,0
630288000,0,-0.6246313,-0.0039360044,0.0063876486,-0.7808896,0.0,0.0,0.0,0.0,0
630296000,0,-0.6246365,-0.0039024132,0.006391358,-0.7808856,0.0,0.0,0.0,0.0,0
630308000,0,-0.6246447,-0.0038373212,0.006399446,-0.78087926,0.0,0.0,0.0,0.0,0
630316000,0,-0.6246506,-0.0037800192,0.006407338,-0.7808748,0.0,0.0,0.0,0.0,0
630328000,0,-0.62465984,-0.0036841142,0.006427659,-0.7808677,0.0,0.0,0.0,0.0,0
630336000,0,-0.62466645,-0.0036189863,0.0064394907,-0.78086257,0.0,0.0,0.0,0.0,0
630348000,0,-0.62467784,-0.0035161688,0.006436911,-0.7808539,0.0,0.0,0.0,0.0,0
630356000,0,-0.6246865,-0.0034429522,0.0064223604,-0.7808475,0.0,0.0,0.0,0.0,0
630368000,0,-0.6247009,-0.0033246616,0.0063783512,-0.7808368,0.0,0.0,0.0,0.0,0
630376000,0,-0.62471133,-0.0032324132,0.0063347165,-0.78082925,0.0,0.0,0.0,0.0,0
630388000,0,-0.624728,-0.0030719626,0.006254088,-0.78081715,0.0,0.0,0.0,0.0,0
630396000,0,-0.62473965,-0.0029573268,0.0061978716,-0.78080875,0.0,0.0,0.0,0.0,0
630408000,0,-0.62475735,-0.002788768,0.006115146,-0.7807959,0.0,0.0,0.0,0.0,0
630416000,0,-0.6247692,-0.0026791773,0.0060631633,-0.78078717,0.0,0.0,0.0,0.0,0
630428000,0,-0.6247875,-0.0025115954,0.005982862,-0.7807737,0.0,0.0,0.0,0.0,0
630436000,0,-0.6248002,-0.0023967493,0.0059272866,-0.78076434,0.0,0.0,0.0,0.0,0
630448000,0,-0.62482023,-0.002217404,0.0058409395,-0.7807495,0.0,0.0,0.0,0.0,0
630456000,0,-0.6248346,-0.002092262,0.0057667135,-0.7807389,0.0,0.0,0.0,0.0,0
630468000,0,-0.6248576,-0.0019007885,0.005629374,-0.78072196,0.0,0.0,0.0,0.0,0
630476000,0,-0.62487364,-0.0017689654,0.005531485,-0.7807101,0.0,0.0,0.0,0.0,0
630488000,0,-0.6248985,-0.0015790134,0.0053928657,-0.7806916,0.0,0.0,0.0,0.0,0
630496000,0,-0.62491554,-0.0014559616,0.0053121806,-0.78067875,0.0,0.0,0.0,0.0,0
630508000,0,-0.62494165,-0.0012731637,0.005203709,-0.7806589,0.0,0.0,0.0,0.0,0
630516000,0,-0.6249592,-0.0011556154,0.0051339916,-0.78064555,0.0,0.0,0.0,0.0,0
630528000,0,-0.6249856,-0.0009711592,0.0050211544,-0.7806254,0.0,0.0,0.0,0.0,0
630536000,0,-0.62500346,-0.00083833496,0.004933288,-0.78061175,0.0,0.0,0.0,0.0,0
630548000,0,-0.6250307,-0.00062915427,0.0047911867,-0.7805911,0.0,0.0,0.0,0.0,0
630556000,0,-0.62504905,-0.0004894403,0.0046950914,-0.78057706,0.0,0.0,0.0,0.0,0
630568000,0,-0.6250766,-0.0002847495,0.004540984,-0.78055596,0.0,0.0,0.0,0.0,0
630576000,0,-0.62509507,-0.00015196754,0.0044312715,-0.78054184,0.0,0.0,0.0,0.0,0
630588000,0,-0.62512267,3.690959e-05,0.0042656558,-0.78052074,0.0,0.0,0.0,0.0,0
630596000,0,-0.62514067,0.00015429482,0.0041584964,-0.78050685,0.0,0.0,0.0,0.0,0
630608000,0,-0.6251671,0.0003119838,0.004007874,-0.7804864,0.0,0.0,0.0,0.0,0
630616000,0,-0.62518406,0.0004094669,0.0039169216,-0.7804733,0.0,0.0,0.0,0.0,0
630628000,0,-0.62520814,0.0005463072,0.00379696,-0.78045446,0.0,0.0,0.0,0.0,0
630636000,0,-0.62522316,0.00063357607,0.0037367835,-0.78044266,0.0,0.0,0.0,0.0,0
630648000,0,-0.62524444,0.0007703938,0.0036685523,-0.7804258,0.0,0.0,0.0,0.0,0
630656000,0,-0.62525755,0.0008637794,0.0036328034,-0.78041536,0.0,0.0,0.0,0.0,0
630668000,0,-0.6252752,0.0010028621,0.0035811132,-0.78040135,0.0,0.0,0.0,0.0,0
630676000,0,-0.6252856,0.001089865,0.0035371727,-0.78039306,0.0,0.0,0.0,0.0,0
630688000,0,-0.6252993,0.001203231,0.003442924,-0.78038234,0.0,0.0,0.0,0.0,0
630696000,0,-0.6253071,0.0012720379,0.0033661562,-0.7803763,0.0,0.0,0.0,0.0,0
630708000,0,-0.62531686,0.0013683715,0.0032365727,-0.7803689,0.0,0.0,0.0,0.0,0
630716000,0,-0.62532216,0.0014340032,0.003151126,-0.7803648,0.0,0.0,0.0,0.0,0
630728000,0,-0.6253289,0.0015285559,0.0030250067,-0.7803598,0.0,0.0,0.0,0.0,0
630736000,0,-0.62533253,0.0015803615,0.0029408194,-0.78035706,0.0,0.0,0.0,0.0,0
630748000,0,-0.625337,0.0016430928,0.0028152931,-0.78035384,0.0,0.0,0.0,0.0,0
630756000,0,-0.6253394,0.0016837015,0.002736798,-0.7803521,0.0,0.0,0.0,0.0,0
630768000,0,-0.62534225,0.0017525831,0.0026357756,-0.78035,0.0,0.0,0.0,0.0,0
630776000,0,-0.6253436,0.0018055821,0.0025724215,-0.780349,0.0,0.0,0.0,0.0,0
630788000,0,-0.62534475,0.0018911746,0.0024782184,-0.7803482,0.0,0.0,0.0,0.0,0
630796000,0,-0.62534493,0.0019500597,0.0024244417,-0.7803481,0.0,0.0,0.0,0.0,0
630808000,0,-0.6253441,0.002036854,0.002365096,-0.7803487,0.0,0.0,0.0,0.0,0
630816000,0,-0.6253429,0.0020924744,0.0023393256,-0.7803496,0.0,0.0,0.0,0.0,0
630828000,0,-0.62534046,0.0021687383,0.0023141564,-0.7803514,0.0,0.0,0.0,0.0,0
630836000,0,-0.6253386,0.0022092592,0.0023019316,-0.78035283,0.0,0.0,0.0,0.0,0
630848000,0,-0.6253359,0.0022519953,0.0022784914,-0.780355,0.0,0.0,0.0,0.0,0
630856000,0,-0.6253342,0.0022738494,0.002265838,-0.7803563,0.0,0.0,0.0,0.0,0
630868000,0,-0.6253321,0.002302601,0.0022575043,-0.7803579,0.0,0.0,0.0,0.0,0
630876000,0,-0.6253311,0.002318873,0.0022586335,-0.7803587,0.0,0.0,0.0,0.0,0
630888000,0,-0.6253303,0.0023424008,0.0022693828,-0.78035915,0.0,0.0,0.0,0.0,0
630896000,0,-0.62533015,0.0023578766,0.002283813,-0.7803592,0.0,0.0,0.0,0.0,0
630908000,0,-0.6253303,0.0023776952,0.0023187427,-0.7803589,0.0,0.0,0.0,0.0,0
630916000,0,-0.6253308,0.0023906406,0.0023404816,-0.78035843,0.0,0.0,0.0,0.0,0
630924000,0,-0.6253315,0.00239828,0.0023555623,-0.78035784,0.0,0.0,0.0,0.0,0
630936000,0,-0.62533283,0.0023997272,0.0023674471,-0.7803567,0.0,0.0,0.0,0.0,0
630948000,0,-0.6253344,0.0023986557,0.0023721918,-0.78035545,0.0,0.0,0.0,0.0,0
630956000,0,-0.62533563,0.0023987559,0.0023700024,-0.78035444,0.0,0.0,0.0,0.0,0
630968000,0,-0.6253379,0.0023978946,0.0023481855,-0.7803527,0.0,0.0,0.0,0.0,0
630976000,0,-0.6253395,0.0023942539,0.0023214845,-0.7803515,0.0,0.0,0.0,0.0,0
630988000,0,-0.6253419,0.002381881,0.0022694683,-0.7803498,0.0,0.0,0.0,0.0,0
630996000,0,-0.6253434,0.0023732625,0.0022341793,-0.7803487,0.0,0.0,0.0,0.0,0
631008000,0,-0.6253453,0.0023609805,0.0021886772,-0.78034735,0.0,0.0,0.0,0.0,0
631016000,0,-0.62534636,0.002354651,0.0021638079,-0.7803466,0.0,0.0,0.0,0.0,0
631028000,0,-0.6253478,0.0023469129,0.0021387623,-0.78034556,0.0,0.0,0.0,0.0,0
631036000,0,-0.6253486,0.0023427724,0.0021293587,-0.7803449,0.0,0.0,0.0,0.0,0
631048000,0,-0.6253497,0.0023373764,0.0021236555,-0.78034407,0.0,0.0,0.0,0.0,0
631056000,0,-0.62535024,0.002333505,0.0021263787,-0.78034365,0.0,0.0,0.0,0.0,0
631068000,0,-0.6253506,0.002327036,0.0021413844,-0.78034335,0.0,0.0,0.0,0.0,0
631076000,0,-0.62535053,0.0023173965,0.0021577466,-0.78034335,0.0,0.0,0.0,0.0,0
631088000,0,-0.62535,0.002298203,0.002185761,-0.78034383,0.0,0.0,0.0,0.0,0
631096000,0,-0.6253493,0.002282884,0.0022032908,-0.78034437,0.0,0.0,0.0,0.0,0
631104000,0,-0.6253485,0.0022619609,0.0022150548,-0.780345,0.0,0.0,0.0,0.0,0
631116000,0,-0.6253473,0.0022229617,0.0022295862,-0.78034604,0.0,0.0,0.0,0.0,0
631128000,0,-0.6253464,0.0021694435,0.0022521259,-0.7803468,0.0,0.0,0.0,0.0,0
631136000,0,-0.625346,0.0021288411,0.0022689977,-0.7803472,0.0,0.0,0.0,0.0,0
631148000,0,-0.6253455,0.002069292,0.0022892365,-0.7803477,0.0,0.0,0.0,0.0,0
631156000,0,-0.6253454,0.002029756,0.0022989414,-0.7803479,0.0,0.0,0.0,0.0,0
631168000,0,-0.6253454,0.0019760118,0.0023155238,-0.78034794,0.0,0.0,0.0,0.0,0
631176000,0,-0.6253455,0.0019468743,0.002330949,-0.7803479,0.0,0.0,0.0,0.0,0
631188000,0,-0.6253457,0.0019105194,0.0023529702,-0.78034776,0.0,0.0,0.0,0.0,0
631196000,0,-0.6253457,0.0018858959,0.002365142,-0.7803478,0.0,0.0,0.0,0.0,0
631208000,0,-0.6253453,0.0018492242,0.0023732458,-0.78034824,0.0,0.0,0.0,0.0,0
631216000,0,-0.62534446,0.001829266,0.0023704267,-0.7803489,0.0,0.0,0.0,0.0,0
631228000,0,-0.6253425,0.0018052484,0.002350347,-0.7803506,0.0,0.0,0.0,0.0,0
631236000,0,-0.6253406,0.0017863525,0.0023325472,-0.78035223,0.0,0.0,0.0,0.0,0
631248000,0,-0.6253368,0.0017505094,0.00229862,-0.7803554,0.0,0.0,0.0,0.0,0
631256000,0,-0.6253337,0.0017284288,0.0022668946,-0.7803581,0.0,0.0,0.0,0.0,0
631268000,0,-0.62532824,0.0016998884,0.0022024822,-0.7803627,0.0,0.0,0.0,0.0,0
631276000,0,-0.6253241,0.0016895862,0.0021487577,-0.78036624,0.0,0.0,0.0,0.0,0
631288000,0,-0.62531734,0.0016973817,0.0020558145,-0.78037184,0.0,0.0,0.0,0.0,0
631296000,0,-0.6253125,0.0017120875,0.001989793,-0.78037584,0.0,0.0,0.0,0.0,0
631308000,0,-0.6253047,0.0017332647,0.0018864153,-0.78038234,0.0,0.0,0.0,0.0,0
631316000,0,-0.62529904,0.0017413327,0.0018197667,-0.78038704,0.0,0.0,0.0,0.0,0
631328000,0,-0.6252901,0.0017474617,0.0017337966,-0.7803944,0.0,0.0,0.0,0.0,0
631336000,0,-0.62528396,0.001747556,0.0016818857,-0.7803994,0.0,0.0,0.0,0.0,0
631348000,0,-0.6252745,0.0017481752,0.0016086788,-0.78040713,0.0,0.0,0.0,0.0,0
631356000,0,-0.6252679,0.0017485995,0.0015619311,-0.7804125,0.0,0.0,0.0,0.0,0
631368000,0,-0.62525773,0.0017502854,0.0014830846,-0.7804208,0.0,0.0,0.0,0.0,0
631376000,0,-0.625251,0.0017570214,0.0014314278,-0.78042626,0.0,0.0,0.0,0.0,0
631388000,0,-0.6252411,0.0017699329,0.001363144,-0.7804343,0.0,0.0,0.0,0.0,0
631396000,0,-0.62523466,0.0017773664,0.0013239039,-0.7804395,0.0,0.0,0.0,0.0,0
631408000,0,-0.6252255,0.00178706,0.0012779814,-0.7804469,0.0,0.0,0.0,0.0,0
631416000,0,-0.62521994,0.001793955,0.0012497202,-0.78045136,0.0,0.0,0.0,0.0,0
631428000,0,-0.62521255,0.0017972868,0.0012047789,-0.7804574,0.0,0.0,0.0,0.0,0
631436000,0,-0.62520826,0.0017999492,0.001170784,-0.78046083,0.0,0.0,0.0,0.0,0
631448000,0,-0.6252027,0.001804776,0.0011189649,-0.78046536,0.0,0.0,0.0,0.0,0
631456000,0,-0.6251997,0.0017995293,0.001087164,-0.78046787,0.0,0.0,0.0,0.0,0
631468000,0,-0.6251961,0.0017844613,0.0010539826,-0.7804708,0.0,0.0,0.0,0.0,0
631476000,0,-0.6251944,0.0017771194,0.0010395041,-0.7804722,0.0,0.0,0.0,0.0,0
631488000,0,-0.6251929,0.0017731369,0.0010168875,-0.7804735,0.0,0.0,0.0,0.0,0
631496000,0,-0.62519246,0.0017715222,0.0009996215,-0.78047377,0.0,0.0,0.0,0.0,0
631508000,0,-0.6251927,0.0017711199,0.0009724508,-0.78047365,0.0,0.0,0.0,0.0,0
631516000,0,-0.6251933,0.0017666583,0.0009537749,-0.78047323,0.0,0.0,0.0,0.0,0
631528000,0,-0.6251945,0.0017573063,0.000924181,-0.7804723,0.0,0.0,0.0,0.0,0
631536000,0,-0.6251953,0.0017549061,0.00090744713,-0.7804716,0.0,0.0,0.0,0.0,0
631548000,0,-0.6251964,0.0017460685,0.0009006609,-0.78047085,0.0,0.0,0.0,0.0,0
631556000,0,-0.6251968,0.0017403589,0.0009056237,-0.7804705,0.0,0.0,0.0,0.0,0
631568000,0,-0.625197,0.0017286594,0.0009138164,-0.7804704,0.0,0.0,0.0,0.0,0
631576000,0,-0.62519675,0.0017149316,0.00092203665,-0.78047055,0.0,0.0,0.0,0.0,0
631588000,0,-0.62519604,0.0016893805,0.0009392707,-0.7804712,0.0,0.0,0.0,0.0,0
631596000,0,-0.6251952,0.0016672609,0.0009504558,-0.7804719,0.0,0.0,0.0,0.0,0
631608000,0,-0.62519294,0.0016351935,0.0009672201,-0.78047377,0.0,0.0,0.0,0.0,0
631616000,0,-0.62519085,0.0016255323,0.0009712518,-0.78047544,0.0,0.0,0.0,0.0,0
631628000,0,-0.6251869,0.0016250397,0.0009660658,-0.7804786,0.0,0.0,0.0,0.0,0
631636000,0,-0.62518376,0.0016220256,0.0009610291,-0.78048116,0.0,0.0,0.0,0.0,0
631648000,0,-0.6251779,0.0016182187,0.00094754575,-0.7804858,0.0,0.0,0.0,0.0,0
631656000,0,-0.62517345,0.001618936,0.0009350581,-0.78048944,0.0,0.0,0.0,0.0,0
631668000,0,-0.62516606,0.0016162541,0.00091577537,-0.78049535,0.0,0.0,0.0,0.0,0
631676000,0,-0.62516093,0.0016068371,0.0008954504,-0.7804995,0.0,0.0,0.0,0.0,0
631688000,0,-0.6251534,0.0015904049,0.000859302,-0.78050566,0.0,0.0,0.0,0.0,0
631696000,0,-0.6251487,0.0015794464,0.0008394288,-0.7805095,0.0,0.0,0.0,0.0,0
631708000,0,-0.62514246,0.001563768,0.0008105367,-0.78051454,0.0,0.0,0.0,0.0,0
631716000,0,-0.6251389,0.0015524693,0.00079601526,-0.7805174,0.0,0.0,0.0,0.0,0
631728000,0,-0.62513465,0.0015325597,0.0007803399,-0.78052086,0.0,0.0,0.0,0.0,0
631736000,0,-0.6251325,0.0015187113,0.00077146926,-0.78052264,0.0,0.0,0.0,0.0,0
631748000,0,-0.6251303,0.0014984283,0.00076057785,-0.78052443,0.0,0.0,0.0,0.0,0
631756000,0,-0.6251296,0.0014880634,0.000754646,-0.780525,0.0,0.0,0.0,0.0,0
631768000,0,-0.6251297,0.001474041,0.00073980424,-0.78052497,0.0,0.0,0.0,0.0,0
631776000,0,-0.6251307,0.0014633603,0.00072834076,-0.7805242,0.0,0.0,0.0,0.0,0
631788000,0,-0.6251334,0.0014465414,0.00071100274,-0.7805221,0.0,0.0,0.0,0.0,0
631796000,0,-0.62513596,0.0014357271,0.0006949896,-0.7805201,0.0,0.0,0.0,0.0,0
631808000,0,-0.6251409,0.0014210709,0.0006615627,-0.78051615,0.0,0.0,0.0,0.0,0
631816000,0,-0.625145,0.0014088961,0.00064408977,-0.7805129,0.0,0.0,0.0,0.0,0
631828000,0,-0.6251518,0.0013827588,0.0006278937,-0.7805075,0.0,0.0,0.0,0.0,0
631836000,0,-0.62515646,0.0013562232,0.0006284599,-0.78050387,0.0,0.0,0.0,0.0,0
631848000,0,-0.62516326,0.0013019776,0.0006459898,-0.78049845,0.0,0.0,0.0,0.0,0
631856000,0,-0.6251676,0.0012599768,0.0006648799,-0.78049505,0.0,0.0,0.0,0.0,0
631868000,0,-0.62517387,0.0011861016,0.00068560126,-0.7804901,0.0,0.0,0.0,0.0,0
631876000,0,-0.6251777,0.0011331526,0.0006886196,-0.7804871,0.0,0.0,0.0,0.0,0
631884000,0,-0.6251811,0.0010873285,0.00068079727,-0.78048456,0.0,0.0,0.0,0.0,0
631896000,0,-0.62518513,0.001034355,0.00065982045,-0.78048134,0.0,0.0,0.0,0.0,0
631908000,0,-0.625188,0.000987631,0.0006286097,-0.78047913,0.0,0.0,0.0,0.0,0
631916000,0,-0.6251891,0.0009533089,0.00060409727,-0.7804783,0.0,0.0,0.0,0.0,0
631928000,0,-0.62518954,0.00090603787,0.0005543398,-0.78047806,0.0,0.0,0.0,0.0,0
631932000,0,-0.62518936,0.00089243584,0.0005338484,-0.78047824,0.0,0.0,0.0,0.0,0
631948000,0,-0.6251873,0.0008442655,0.00044709264,-0.78048,0.0,0.0,0.0,0.0,0
631956000,0,-0.6251856,0.0008247303,0.00040672306,-0.7804814,0.0,0.0,0.0,0.0,0
631968000,0,-0.6251825,0.0007999532,0.00036864175,-0.7804839,0.0,0.0,0.0,0.0,0
631976000,0,-0.62518,0.0007846382,0.00036311522,-0.7804859,0.0,0.0,0.0,0.0,0
631988000,0,-0.62517565,0.000759692,0.00037720185,-0.78048944,0.0,0.0,0.0,0.0,0
631996000,0,-0.6251725,0.00073886645,0.00039784628,-0.780492,0.0,0.0,0.0,0.0,0
632008000,0,-0.62516767,0.00069737725,0.00043514182,-0.7804959,0.0,0.0,0.0,0.0,0
632016000,0,-0.6251644,0.00065813947,0.00046095904,-0.78049856,0.0,0.0,0.0,0.0,0
632028000,0,-0.6251593,0.00058533874,0.000497722,-0.7805026,0.0,0.0,0.0,0.0,0
632036000,0,-0.62515604,0.00053642504,0.0005125746,-0.78050524,0.0,0.0,0.0,0.0,0
632048000,0,-0.6251513,0.00046938632,0.00051271386,-0.7805092,0.0,0.0,0.0,0.0,0
632056000,0,-0.6251482,0.0004302981,0.0005026864,-0.7805117,0.0,0.0,0.0,0.0,0
632068000,0,-0.62514377,0.00038135797,0.00047560345,-0.7805152,0.0,0.0,0.0,0.0,0
632072000,0,-0.62514246,0.0003671364,0.00046462595,-0.78051627,0.0,0.0,0.0,0.0,0
632088000,0,-0.62513834,0.00031819908,0.00042967993,-0.7805196,0.0,0.0,0.0,0.0,0
632096000,0,-0.625137,0.00030224735,0.00041959743,-0.7805207,0.0,0.0,0.0,0.0,0
632108000,0,-0.6251357,0.00028633807,0.00040048195,-0.78052175,0.0,0.0,0.0,0.0,0
632116000,0,-0.62513536,0.00027602774,0.00038817135,-0.780522,0.0,0.0,0.0,0.0,0
632128000,0,-0.62513566,0.000258054,0.00038047307,-0.7805218,0.0,0.0,0.0,0.0,0
632136000,0,-0.6251363,0.00024713788,0.00038370801,-0.7805213,0.0,0.0,0.0,0.0,0
632148000,0,-0.6251381,0.00023525525,0.00039919268,-0.78051984,0.0,0.0,0.0,0.0,0
632156000,0,-0.6251398,0.00022910873,0.0004124313,-0.7805185,0.0,0.0,0.0,0.0,0
632168000,0,-0.6251429,0.00020717253,0.00042472468,-0.780516,0.0,0.0,0.0,0.0,0
632176000,0,-0.6251452,0.00018205008,0.00042664516,-0.7805142,0.0,0.0,0.0,0.0,0
632188000,0,-0.6251493,0.00013177359,0.00042075512,-0.7805109,0.0,0.0,0.0,0.0,0
632196000,0,-0.62515235,9.944505e-05,0.000414653,-0.78050846,0.0,0.0,0.0,0.0,0
632208000,0,-0.62515706,7.1624054e-05,0.00041707754,-0.7805047,0.0,0.0,0.0,0.0,0
632216000,0,-0.62516016,7.030598e-05,0.00042380582,-0.7805022,0.0,0.0,0.0,0.0,0
632228000,0,-0.62516487,9.052384e-05,0.00043975638,-0.78049845,0.0,0.0,0.0,0.0,0
632236000,0,-0.62516785,0.000112347356,0.0004588047,-0.780496,0.0,0.0,0.0,0.0,0
632248000,0,-0.625172,0.00014056041,0.0004972261,-0.78049266,0.0,0.0,0.0,0.0,0
632256000,0,-0.62517446,0.00015473778,0.00052257976,-0.7804907,0.0,0.0,0.0,0.0,0
632268000,0,-0.6251775,0.0001648807,0.0005537269,-0.7804882,0.0,0.0,0.0,0.0,0
632272000,0,-0.6251783,0.00016574742,0.0005613305,-0.7804876,0.0,0.0,0.0,0.0,0
632288000,0,-0.6251793,0.00017452634,0.0005738589,-0.78048676,0.0,0.0,0.0,0.0,0
632296000,0,-0.62517846,0.00018324362,0.0005686905,-0.7804874,0.0,0.0,0.0,0.0,0
632308000,0,-0.62517565,0.00020281629,0.0005465506,-0.7804897,0.0,0.0,0.0,0.0,0
632316000,0,-0.6251728,0.00022292828,0.000527174,-0.78049195,0.0,0.0,0.0,0.0,0
632328000,0,-0.6251669,0.0002551469,0.00049824646,-0.7804967,0.0,0.0,0.0,0.0,0
632336000,0,-0.62516177,0.00027127634,0.00048051274,-0.7805008,0.0,0.0,0.0,0.0,0
632348000,0,-0.6251529,0.0002922195,0.00045485498,-0.780508,0.0,0.0,0.0,0.0,0
632356000,0,-0.6251464,0.00030226077,0.00042964774,-0.78051317,0.0,0.0,0.0,0.0,0
632368000,0,-0.6251359,0.00030790622,0.0003773674,-0.78052163,0.0,0.0,0.0,0.0,0
632376000,0,-0.6251285,0.00030678938,0.00033822563,-0.78052753,0.0,0.0,0.0,0.0,0
632388000,0,-0.62511724,0.00029970284,0.00028107033,-0.7805366,0.0,0.0,0.0,0.0,0
632396000,0,-0.6251099,0.00029135696,0.00024262104,-0.7805425,0.0,0.0,0.0,0.0,0
632408000,0,-0.6250993,0.00027000016,0.00018164619,-0.780551,0.0,0.0,0.0,0.0,0
632416000,0,-0.6250923,0.00025620483,0.00014056111,-0.78055656,0.0,0.0,0.0,0.0,0
632428000,0,-0.62508214,0.00025165375,8.3067716e-05,-0.7805648,0.0,0.0,0.0,0.0,0
632436000,0,-0.62507564,0.00025308432,5.652524e-05,-0.78057,0.0,0.0,0.0,0.0,0
632448000,0,-0.6250668,0.00026628576,2.5348563e-05,-0.780577,0.0,0.0,0.0,0.0,0
632456000,0,-0.6250616,0.00028232826,4.571194e-06,-0.78058124,0.0,0.0,0.0,0.0,0
632468000,0,-0.6250549,0.0003148058,-2.9888373e-05,-0.78058654,0.0,0.0,0.0,0.0,0
632476000,0,-0.62505126,0.00034063237,-6.0231665e-05,-0.78058946,0.0,0.0,0.0,0.0,0
632488000,0,-0.6250467,0.00038101507,-0.00011497855,-0.78059316,0.0,0.0,0.0,0.0,0
632496000,0,-0.6250442,0.0004009171,-0.00015167646,-0.78059506,0.0,0.0,0.0,0.0,0
632508000,0,-0.62504166,0.0004118455,-0.00019703148,-0.7805971,0.0,0.0,0.0,0.0,0
632516000,0,-0.6250406,0.0004094623,-0.0002153321,-0.7805979,0.0,0.0,0.0,0.0,0
632528000,0,-0.62503976,0.00039924917,-0.00022268546,-0.78059864,0.0,0.0,0.0,0.0,0
632536000,0,-0.62503976,0.00039169803,-0.00021521887,-0.78059864,0.0,0.0,0.0,0.0,0
632548000,0,-0.6250409,0.00037736713,-0.00019437626,-0.78059775,0.0,0.0,0.0,0.0,0
632556000,0,-0.62504256,0.00036705902,-0.00018175038,-0.78059644,0.0,0.0,0.0,0.0,0
632568000,0,-0.6250463,0.00035871894,-0.00015270869,-0.7805934,0.0,0.0,0.0,0.0,0
632576000,0,-0.62504953,0.0003617353,-0.0001283948,-0.78059083,0.0,0.0,0.0,0.0,0
632588000,0,-0.6250552,0.00037542888,-9.201403e-05,-0.7805863,0.0,0.0,0.0,0.0,0
632596000,0,-0.62505937,0.00037825378,-7.43131e-05,-0.78058296,0.0,0.0,0.0,0.0,0
632608000,0,-0.62506604,0.00037110373,-5.451048e-05,-0.7805776,0.0,0.0,0.0,0.0,0
632616000,0,-0.6250709,0.00036728187,-4.0555802e-05,-0.7805737,0.0,0.0,0.0,0.0,0
632628000,0,-0.6250785,0.00036423086,-1.7951783e-05,-0.78056765,0.0,0.0,0.0,0.0,0
632632000,0,-0.6250811,0.00036234743,-1.1550021e-05,-0.78056556,0.0,0.0,0.0,0.0,0
632648000,0,-0.62509185,0.00035368282,8.8636983e-07,-0.780557,0.0,0.0,0.0,0.0,0
632656000,0,-0.62509733,0.00035203362,-2.1514709e-06,-0.78055257,0.0,0.0,0.0,0.0,0
632668000,0,-0.62510556,0.00035880564,-1.718345e-05,-0.780546,0.0,0.0,0.0,0.0,0
632676000,0,-0.6251109,0.00036756325,-2.8564478e-05,-0.7805417,0.0,0.0,0.0,0.0,0
