timestamp,timestamp_sample,q[0],q[1],q[2],q[3],delta_q_reset[0],delta_q_reset[1],delta_q_reset[2],delta_q_reset[3],quat_reset_counter
625256000,625256000,-0.62330574,0.0017349771,-0.00032376198,-0.78197634,0.999981,1.1641534e-10,2.9103834e-11,0.0061826417,3
625260000,625260000,-0.62328535,0.0017304111,-0.00031134405,-0.7819926,0.999981,1.1641534e-10,2.9103834e-11,0.0061826417,3
625264000,625264000,-0.6232637,0.0017369153,-0.00030298493,-0.78200984,0.999981,1.1641534e-10,2.9103834e-11,0.0061826417,3
625268000,625268000,-0.6232603,0.0017466623,-0.00028623833,-0.78201246,0.999981,1.1641534e-10,2.9103834e-11,0.0061826417,3
625272000,625272000,-0.6232686,0.0017637888,-0.00025422958,-0.7820058,0.999981,1.1641534e-10,2.9103834e-11,0.0061826417,3
625276000,625276000,-0.623279,0.0017922282,-0.00021826474,-0.7819975,0.999981,1.1641534e-10,2.9103834e-11,0.0061826417,3
625280000,625280000,-0.6232864,0.0018210297,-0.00019894258,-0.78199154,0.999981,1.1641534e-10,2.9103834e-11,0.0061826417,3
625284000,625284000,-0.6232954,0.0018264779,-0.0002038327,-0.7819844,0.999981,1.1641534e-10,2.9103834e-11,0.0061826417,3
625288000,625288000,-0.6233011,0.0018174745,-0.00022173302,-0.78197974,0.999981,1.1641534e-10,2.9103834e-11,0.0061826417,3
625292000,625292000,-0.6232881,0.0018131258,-0.00023723747,-0.7819903,0.999981,1.1641534e-10,2.9103834e-11,0.0061826417,3
625296000,625296000,-0.6232604,0.0018058567,-0.00025045182,-0.7820122,0.999981,1.1641534e-10,2.9103834e-11,0.0061826417,3
625300000,625300000,-0.62324363,0.0018132713,-0.00028281184,-0.7820256,0.999981,1.1641534e-10,2.9103834e-11,0.0061826417,3
625304000,625304000,-0.62323976,0.0018331148,-0.00033117324,-0.7820286,0.999981,1.1641534e-10,2.9103834e-11,0.0061826417,3
625308000,625308000,-0.6232334,0.001833202,-0.0003556038,-0.78203374,0.999981,1.1641534e-10,2.9103834e-11,0.0061826417,3
625312000,625312000,-0.6232353,0.0018408053,-0.00034922297,-0.7820322,0.999981,1.1641534e-10,2.9103834e-11,0.0061826417,3
625316000,625316000,-0.623243,0.0018699456,-0.00033545238,-0.782026,0.999981,1.1641534e-10,2.9103834e-11,0.0061826417,3
625320000,625320000,-0.62324196,0.0018853745,-0.00033121105,-0.78202677,0.999981,1.1641534e-10,2.9103834e-11,0.0061826417,3
625324000,625324000,-0.62323844,0.0018920901,-0.00033704238,-0.78202945,0.999981,1.1641534e-10,2.9103834e-11,0.0061826417,3
625328000,625328000,-0.62323743,0.0019132441,-0.00032304323,-0.78203034,0.999981,1.1641534e-10,2.9103834e-11,0.0061826417,3
625332000,625332000,-0.62323594,0.0019365364,-0.00029438725,-0.78203136,0.999981,1.1641534e-10,2.9103834e-11,0.0061826417,3
625336000,625336000,-0.6232329,0.0019478,-0.00028339273,-0.7820339,0.999981,1.1641534e-10,2.9103834e-11,0.0061826417,3
625344000,625344000,-0.6232238,0.0019902533,-0.0002833918,-0.78204095,0.999981,1.1641534e-10,2.9103834e-11,0.0061826417,3
625348000,625348000,-0.6232236,0.002018895,-0.00026509588,-0.7820411,0.999981,1.1641534e-10,2.9103834e-11,0.0061826417,3
625352000,625352000,-0.6232346,0.0020482107,-0.0002493483,-0.78203225,0.999981,1.1641534e-10,2.9103834e-11,0.0061826417,3
625356000,625356000,-0.62325144,0.0020839616,-0.00024272251,-0.7820187,0.999981,1.1641534e-10,2.9103834e-11,0.0061826417,3
625360000,625360000,-0.62326,0.0021107467,-0.00024736527,-0.78201187,0.999981,1.1641534e-10,2.9103834e-11,0.0061826417,3
625364000,625364000,-0.62326235,0.0021088484,-0.00025980358,-0.78201,0.999981,1.1641534e-10,2.9103834e-11,0.0061826417,3
625368000,625368000,-0.62325716,0.0020935342,-0.00026089058,-0.78201413,0.999981,1.1641534e-10,2.9103834e-11,0.0061826417,3
625376000,625376000,-0.6232351,0.0020584993,-0.0002173306,-0.78203183,0.999981,1.1641534e-10,2.9103834e-11,0.0061826417,3
625380000,625380000,-0.6232153,0.002047473,-0.00018570917,-0.7820476,0.999981,1.1641534e-10,2.9103834e-11,0.0061826417,3
625384000,625384000,-0.62321347,0.0020328127,-0.00016544393,-0.7820492,0.999981,1.1641534e-10,2.9103834e-11,0.0061826417,3
625388000,625388000,-0.62320995,0.0020006348,-0.00015091979,-0.78205204,0.999981,1.1641534e-10,2.9103834e-11,0.0061826417,3
625392000,625392000,-0.62319064,0.0019835995,-0.00013965143,-0.78206754,0.999981,1.1641534e-10,2.9103834e-11,0.0061826417,3
625396000,625396000,-0.6231771,0.0019902166,-0.00012945328,-0.78207815,0.999981,1.1641534e-10,2.9103834e-11,0.0061826417,3
625400000,625400000,-0.6231824,0.0019937651,-0.00012220809,-0.7820741,0.999981,1.1641534e-10,2.9103834e-11,0.0061826417,3
625404000,625404000,-0.6231992,0.0020132272,-0.0001146195,-0.7820605,0.999981,1.1641534e-10,2.9103834e-11,0.0061826417,3
625408000,625408000,-0.623207,0.0020415077,-0.00010795274,-0.78205436,0.999981,1.1641534e-10,2.9103834e-11,0.0061826417,3
625412000,625412000,-0.6232022,0.0020574904,-9.623516e-05,-0.7820581,0.999981,1.1641534e-10,2.9103834e-11,0.0061826417,3
625416000,625416000,-0.623197,0.0020775213,-7.0037015e-05,-0.7820622,0.999981,1.1641534e-10,2.9103834e-11,0.0061826417,3
625420000,625420000,-0.6231885,0.0020991778,-5.462625e-05,-0.7820689,0.999981,1.1641534e-10,2.9103834e-11,0.0061826417,3
625424000,625424000,-0.6231734,0.0021158028,-6.178572e-05,-0.7820809,0.999981,1.1641534e-10,2.9103834e-11,0.0061826417,3
625428000,625428000,-0.6231602,0.0021204897,-6.4202315e-05,-0.78209144,0.999981,1.1641534e-10,2.9103834e-11,0.0061826417,3
625436000,625436000,-0.6231447,0.0021017652,-4.5299803e-05,-0.7821038,0.999981,1.1641534e-10,2.9103834e-11,0.0061826417,3
625444000,625444000,-0.6231439,0.0020766063,-9.650113e-06,-0.78210455,0.999981,1.1641534e-10,2.9103834e-11,0.0061826417,3
625448000,625448000,-0.6231633,0.0020644856,-7.436818e-06,-0.7820891,0.999981,1.1641534e-10,2.9103834e-11,0.0061826417,3
625456000,625456000,-0.623178,0.002059887,-2.8846316e-05,-0.78207743,0.999981,1.1641534e-10,2.9103834e-11,0.0061826417,3
625464000,625464000,-0.6231485,0.0020894296,-4.683655e-05,-0.78210074,0.999981,1.1641534e-10,2.9103834e-11,0.0061826417,3
625468000,625468000,-0.62314206,0.002109845,-1.6673735e-05,-0.7821058,0.999981,1.1641534e-10,2.9103834e-11,0.0061826417,3
625472000,625472000,-0.62311906,0.0021131637,-6.3043417e-06,-0.78212416,0.999981,1.1641534e-10,2.9103834e-11,0.0061826417,3
625476000,625476000,-0.62310064,0.0021186078,-7.785017e-06,-0.7821388,0.999981,1.1641534e-10,2.9103834e-11,0.0061826417,3
625480000,625480000,-0.62310797,0.00214126,-3.8368476e-06,-0.78213286,0.999981,1.1641534e-10,2.9103834e-11,0.0061826417,3
625484000,625484000,-0.62312496,0.0021662717,-3.7394152e-06,-0.7821194,0.999981,1.1641534e-10,2.9103834e-11,0.0061826417,3
625488000,625488000,-0.6231402,0.0021780576,-4.0058735e-06,-0.78210706,0.999981,1.1641534e-10,2.9103834e-11,0.0061826417,3
625492000,625492000,-0.62314975,0.0021857643,8.54105e-06,-0.7820996,0.999981,1.1641534e-10,2.9103834e-11,0.0061826417,3
625496000,625496000,-0.6231542,0.0021866364,2.7881528e-05,-0.78209597,0.999981,1.1641534e-10,2.9103834e-11,0.0061826417,3
625504000,625504000,-0.6231514,0.002200004,2.9755178e-05,-0.7820982,0.999981,1.1641534e-10,2.9103834e-11,0.0061826417,3
625508000,625508000,-0.6231428,0.0022067942,2.9950008e-05,-0.7821051,0.999981,1.1641534e-10,2.9103834e-11,0.0061826417,3
625512000,625512000,-0.6231316,0.0021854334,4.77999e-05,-0.7821139,0.999981,1.1641534e-10,2.9103834e-11,0.0061826417,3
625516000,625516000,-0.6231346,0.0021530432,9.9716184e-05,-0.7821117,0.999981,1.1641534e-10,2.9103834e-11,0.0061826417,3
625520000,625520000,-0.6231446,0.0021503437,0.00015387393,-0.7821036,0.999981,1.1641534e-10,2.9103834e-11,0.0061826417,3
625528000,625528000,-0.62315327,0.0021424626,0.00015049076,-0.78209674,0.999981,1.1641534e-10,2.9103834e-11,0.0061826417,3
625536000,625536000,-0.6231509,0.0021122177,7.7127654e-05,-0.78209877,0.999981,1.1641534e-10,2.9103834e-11,0.0061826417,3
625540000,625540000,-0.62314034,0.0020979848,6.29072e-05,-0.78210723,0.999981,1.1641534e-10,2.9103834e-11,0.0061826417,3
625544000,625544000,-0.6231223,0.002084877,6.888239e-05,-0.7821218,0.999981,1.1641534e-10,2.9103834e-11,0.0061826417,3
625548000,625548000,-0.6231117,0.0020821095,7.0763286e-05,-0.7821302,0.999981,1.1641534e-10,2.9103834e-11,0.0061826417,3
625552000,625552000,-0.6231169,0.0020835837,7.202943e-05,-0.7821259,0.999981,1.1641534e-10,2.9103834e-11,0.0061826417,3
625556000,625556000,-0.62313306,0.0020795881,7.159e-05,-0.7821132,0.999981,1.1641534e-10,2.9103834e-11,0.0061826417,3
625560000,625560000,-0.6231413,0.0020668786,6.104697e-05,-0.7821065,0.999981,1.1641534e-10,2.9103834e-11,0.0061826417,3
625564000,625564000,-0.6231375,0.002065648,5.9750786e-05,-0.7821097,0.999981,1.1641534e-10,2.9103834e-11,0.0061826417,3
625572000,625572000,-0.62311906,0.0020806063,9.092117e-05,-0.78212416,0.999981,1.1641534e-10,2.9103834e-11,0.0061826417,3
625576000,625576000,-0.6231092,0.0020922811,9.2946e-05,-0.782132,0.999981,1.1641534e-10,2.9103834e-11,0.0061826417,3
625580000,625580000,-0.62309945,0.0021045918,7.611049e-05,-0.7821399,0.999981,1.1641534e-10,2.9103834e-11,0.0061826417,3
625584000,625584000,-0.62309134,0.0021025813,2.5061936e-05,-0.78214633,0.999981,1.1641534e-10,2.9103834e-11,0.0061826417,3
625588000,625588000,-0.6230842,0.00209289,-4.5028803e-05,-0.78215206,0.999981,1.1641534e-10,2.9103834e-11,0.0061826417,3
625596000,625596000,-0.62306094,0.0021182979,-0.000115329276,-0.7821705,0.999981,1.1641534e-10,2.9103834e-11,0.0061826417,3
625600000,625600000,-0.62306076,0.0021394603,-0.00013299359,-0.78217053,0.999981,1.1641534e-10,2.9103834e-11,0.0061826417,3
625604000,625604000,-0.62307274,0.0021277082,-0.00015433352,-0.782161,0.999981,1.1641534e-10,2.9103834e-11,0.0061826417,3
625608000,625608000,-0.62308645,0.0021087967,-0.00017268925,-0.78215027,0.999981,1.1641534e-10,2.9103834e-11,0.0061826417,3
625616000,625616000,-0.62307084,0.0021003832,-0.00018113444,-0.7821627,0.999981,1.1641534e-10,2.9103834e-11,0.0061826417,3
625620000,625620000,-0.6230504,0.002100392,-0.00017357655,-0.7821788,0.999981,1.1641534e-10,2.9103834e-11,0.0061826417,3
625624000,625624000,-0.62304294,0.0020908995,-0.00015568931,-0.78218484,0.999981,1.1641534e-10,2.9103834e-11,0.0061826417,3
625628000,625628000,-0.6230326,0.0020678632,-0.00013856933,-0.7821931,0.999981,1.1641534e-10,2.9103834e-11,0.0061826417,3
625632000,625632000,-0.62302476,0.0020504275,-0.00013407468,-0.78219944,0.999981,1.1641534e-10,2.9103834e-11,0.0061826417,3
625636000,625636000,-0.6230159,0.0020549977,-0.0001403892,-0.78220654,0.999981,1.1641534e-10,2.9103834e-11,0.0061826417,3
625640000,625640000,-0.623004,0.002070455,-0.00014244566,-0.78221583,0.999981,1.1641534e-10,2.9103834e-11,0.0061826417,3
625644000,625644000,-0.6230105,0.002086521,-0.0001436047,-0.78221065,0.999981,1.1641534e-10,2.9103834e-11,0.0061826417,3
625648000,625648000,-0.6230254,0.0020952108,-0.00015656945,-0.7821989,0.999981,1.1641534e-10,2.9103834e-11,0.0061826417,3
625656000,625656000,-0.6230106,0.002078944,-0.00015645668,-0.78221077,0.999981,1.1641534e-10,2.9103834e-11,0.0061826417,3
625660000,625660000,-0.6230142,0.002096322,-0.00017563818,-0.7822078,0.999981,1.1641534e-10,2.9103834e-11,0.0061826417,3
625664000,625664000,-0.623027,0.0020943186,-0.00019433763,-0.7821975,0.999981,1.1641534e-10,2.9103834e-11,0.0061826417,3
625672000,625672000,-0.62303114,0.002024107,-0.00022599415,-0.78219444,0.999981,1.1641534e-10,2.9103834e-11,0.0061826417,3
625676000,625676000,-0.6230149,0.00199997,-0.00023322107,-0.7822074,0.999981,1.1641534e-10,2.9103834e-11,0.0061826417,3
625684000,625684000,-0.6230268,0.002026756,-0.00021061684,-0.7821978,0.999981,1.1641534e-10,2.9103834e-11,0.0061826417,3
625688000,625688000,-0.623041,0.0020322467,-0.00021477477,-0.7821865,0.999981,1.1641534e-10,2.9103834e-11,0.0061826417,3
625692000,625692000,-0.6230518,0.002033589,-0.00021901824,-0.78217787,0.999981,1.1641534e-10,2.9103834e-11,0.0061826417,3
625696000,625696000,-0.62305814,0.0020275514,-0.00023510115,-0.78217286,0.999981,1.1641534e-10,2.9103834e-11,0.0061826417,3
625700000,625700000,-0.62305576,0.0020082823,-0.00024473158,-0.7821748,0.999981,1.1641534e-10,2.9103834e-11,0.0061826417,3
625708000,625708000,-0.6230492,0.0020244275,-0.00023467078,-0.78218,0.999981,1.1641534e-10,2.9103834e-11,0.0061826417,3
625712000,625712000,-0.62305677,0.0020358239,-0.00022373414,-0.78217405,0.999981,1.1641534e-10,2.9103834e-11,0.0061826417,3
625716000,625716000,-0.62305796,0.0020435383,-0.00020035487,-0.78217304,0.999981,1.1641534e-10,2.9103834e-11,0.0061826417,3
625720000,625720000,-0.6230584,0.0020366146,-0.00017825616,-0.78217274,0.999981,1.1641534e-10,2.9103834e-11,0.0061826417,3
625724000,625724000,-0.6230651,0.0020122398,-0.00015924283,-0.78216743,0.999981,1.1641534e-10,2.9103834e-11,0.0061826417,3
625728000,625728000,-0.62306845,0.002015494,-0.0001465856,-0.78216463,0.999981,1.1641534e-10,2.9103834e-11,0.0061826417,3
625732000,625732000,-0.6230565,0.0020352355,-0.00013891172,-0.7821743,0.999981,1.1641534e-10,2.9103834e-11,0.0061826417,3
625736000,625736000,-0.6230381,0.0020519816,-0.0001315931,-0.7821887,0.999981,1.1641534e-10,2.9103834e-11,0.0061826417,3
625740000,625740000,-0.6230236,0.0020757914,-0.00011625148,-0.78220034,0.999981,1.1641534e-10,2.9103834e-11,0.0061826417,3
625744000,625744000,-0.6230066,0.0021033352,-9.70821e-05,-0.78221375,0.999981,1.1641534e-10,2.9103834e-11,0.0061826417,3
625748000,625748000,-0.6229942,0.0021279936,-8.579701e-05,-0.7822236,0.999981,1.1641534e-10,2.9103834e-11,0.0061826417,3
625752000,625752000,-0.62298226,0.0021414326,-7.919348e-05,-0.78223306,0.999981,1.1641534e-10,2.9103834e-11,0.0061826417,3
625756000,625756000,-0.62295413,0.0021554942,-8.8093715e-05,-0.7822554,0.999981,1.1641534e-10,2.9103834e-11,0.0061826417,3
625760000,625760000,-0.6229352,0.0021754052,-0.000108434855,-0.7822705,0.999981,1.1641534e-10,2.9103834e-11,0.0061826417,3
625764000,625764000,-0.62293583,0.0021744159,-0.000114782975,-0.78226995,0.999981,1.1641534e-10,2.9103834e-11,0.0061826417,3
625768000,625768000,-0.6229323,0.0021682256,-0.00010202224,-0.78227276,0.999981,1.1641534e-10,2.9103834e-11,0.0061826417,3
625772000,625772000,-0.6229225,0.0021811388,-7.383645e-05,-0.7822805,0.999981,1.1641534e-10,2.9103834e-11,0.0061826417,3
625780000,625780000,-0.6228938,0.0021791228,1.3298946e-06,-0.7823034,0.999981,1.1641534e-10,2.9103834e-11,0.0061826417,3
625784000,625784000,-0.62287873,0.0021613475,1.994886e-05,-0.7823155,0.999981,1.1641534e-10,2.9103834e-11,0.0061826417,3
625788000,625788000,-0.62285984,0.0021641692,2.424663e-05,-0.7823304,0.999981,1.1641534e-10,2.9103834e-11,0.0061826417,3
625792000,625792000,-0.62284815,0.0021678326,2.4489931e-05,-0.7823399,0.999981,1.1641534e-10,2.9103834e-11,0.0061826417,3
625800000,625800000,-0.622856,0.0021427006,-2.2528442e-05,-0.78233355,0.999981,1.1641534e-10,2.9103834e-11,0.0061826417,3
625804000,625804000,-0.6228577,0.0021398081,-4.7569003e-05,-0.78233224,0.999981,1.1641534e-10,2.9103834e-11,0.0061826417,3
625808000,625808000,-0.62285274,0.0021164974,-5.6371846e-05,-0.78233635,0.999981,1.1641534e-10,2.9103834e-11,0.0061826417,3
625816000,625816000,-0.622851,0.0020879647,-7.2600415e-05,-0.7823378,0.999981,1.1641534e-10,2.9103834e-11,0.0061826417,3
625820000,625820000,-0.6228472,0.0021002188,-8.374765e-05,-0.78234065,0.999981,1.1641534e-10,2.9103834e-11,0.0061826417,3
625824000,625824000,-0.6228443,0.0021046088,-7.5695905e-05,-0.782343,0.999981,1.1641534e-10,2.9103834e-11,0.0061826417,3
625828000,625828000,-0.6228452,0.0021079225,-6.128354e-05,-0.78234243,0.999981,1.1641534e-10,2.9103834e-11,0.0061826417,3
625836000,625836000,-0.62287307,0.0021038346,-5.438848e-05,-0.7823202,0.999981,1.1641534e-10,2.9103834e-11,0.0061826417,3
625844000,625844000,-0.6229027,0.002065565,-2.2847647e-05,-0.78229666,0.999981,1.1641534e-10,2.9103834e-11,0.0061826417,3
625852000,625852000,-0.6229064,0.002082621,-7.4149457e-06,-0.7822937,0.999981,1.1641534e-10,2.9103834e-11,0.0061826417,3
625856000,625856000,-0.62290967,0.0020932117,-2.6724547e-06,-0.78229105,0.999981,1.1641534e-10,2.9103834e-11,0.0061826417,3
625864000,625864000,-0.62295455,0.002082894,1.0978725e-05,-0.78225523,0.999981,1.1641534e-10,2.9103834e-11,0.0061826417,3
625872000,625872000,-0.6229442,0.0020336688,-4.317364e-05,-0.7822637,0.999981,1.1641534e-10,2.9103834e-11,0.0061826417,3
625876000,625876000,-0.6229492,0.0020169371,-7.100809e-05,-0.78225976,0.999981,1.1641534e-10,2.9103834e-11,0.0061826417,3
625880000,625880000,-0.6229642,0.0020032777,-9.5815296e-05,-0.78224784,0.999981,1.1641534e-10,2.9103834e-11,0.0061826417,3
625888000,625888000,-0.6230171,0.001977983,-0.000102634665,-0.7822057,0.999981,1.1641534e-10,2.9103834e-11,0.0061826417,3
625896000,625896000,-0.6230112,0.0018971971,-5.4429267e-05,-0.7822106,0.999981,1.1641534e-10,2.9103834e-11,0.0061826417,3
625904000,625904000,-0.62295616,0.0018929257,-6.243647e-05,-0.7822546,0.999981,1.1641534e-10,2.9103834e-11,0.0061826417,3
625908000,625908000,-0.6229299,0.0018891392,-8.346551e-05,-0.7822754,0.999981,1.1641534e-10,2.9103834e-11,0.0061826417,3
625912000,625912000,-0.62292033,0.0018791123,-0.0001028879,-0.782283,0.999981,1.1641534e-10,2.9103834e-11,0.0061826417,3
625916000,625916000,-0.6229191,0.0018753149,-0.000110186535,-0.782284,0.999981,1.1641534e-10,2.9103834e-11,0.0061826417,3
625920000,625920000,-0.62292117,0.0018588636,-0.00011284767,-0.78228253,0.999981,1.1641534e-10,2.9103834e-11,0.0061826417,3
625928000,625928000,-0.6229381,0.0018310813,-0.00013577152,-0.782269,0.999981,1.1641534e-10,2.9103834e-11,0.0061826417,3
625936000,625936000,-0.62295,0.0018502533,-0.00012452468,-0.7822595,0.999981,1.1641534e-10,2.9103834e-11,0.0061826417,3
625940000,625940000,-0.62294424,0.001866029,-0.000109862274,-0.78226405,0.999981,1.1641534e-10,2.9103834e-11,0.0061826417,3
625944000,625944000,-0.62293595,0.0018892268,-0.00010384025,-0.7822706,0.999981,1.1641534e-10,2.9103834e-11,0.0061826417,3
625948000,625948000,-0.6229189,0.0019194441,-0.00010611543,-0.7822841,0.999981,1.1641534e-10,2.9103834e-11,0.0061826417,3
625952000,625952000,-0.62290776,0.001944909,-0.00010322971,-0.782293,0.999981,1.1641534e-10,2.9103834e-11,0.0061826417,3
625956000,625956000,-0.6229199,0.0019613241,-0.00010053047,-0.7822832,0.999981,1.1641534e-10,2.9103834e-11,0.0061826417,3
625960000,625960000,-0.6229334,0.0019731717,-0.00010099955,-0.78227246,0.999981,1.1641534e-10,2.9103834e-11,0.0061826417,3
625964000,625964000,-0.6229327,0.001975463,-0.00010066931,-0.782273,0.999981,1.1641534e-10,2.9103834e-11,0.0061826417,3
625968000,625968000,-0.6229332,0.0019712728,-0.00010334511,-0.7822726,0.999981,1.1641534e-10,2.9103834e-11,0.0061826417,3
625972000,625972000,-0.62293625,0.001976409,-0.000104555584,-0.78227013,0.999981,1.1641534e-10,2.9103834e-11,0.0061826417,3
625976000,625976000,-0.6229264,0.0019828705,-0.00010413205,-0.782278,0.999981,1.1641534e-10,2.9103834e-11,0.0061826417,3
625980000,625980000,-0.6229078,0.001971149,-0.000113730704,-0.7822928,0.999981,1.1641534e-10,2.9103834e-11,0.0061826417,3
625984000,625984000,-0.6228959,0.0019599143,-0.00011757177,-0.78230226,0.999981,1.1641534e-10,2.9103834e-11,0.0061826417,3
625988000,625988000,-0.6228985,0.001966735,-9.69755e-05,-0.7823003,0.999981,1.1641534e-10,2.9103834e-11,0.0061826417,3
625992000,625992000,-0.62290853,0.0019788032,-7.917652e-05,-0.7822921,0.999981,1.1641534e-10,2.9103834e-11,0.0061826417,3
626000000,626000000,-0.62295175,0.0019796614,-7.530842e-05,-0.78225774,0.999981,1.1641534e-10,2.9103834e-11,0.0061826417,3
626004000,626004000,-0.6229799,0.0019536968,-7.61424e-05,-0.78223544,0.999981,1.1641534e-10,2.9103834e-11,0.0061826417,3
626008000,626008000,-0.62299335,0.0019311262,-7.01844e-05,-0.7822248,0.999981,1.1641534e-10,2.9103834e-11,0.0061826417,3
626012000,626012000,-0.6229985,0.0019258263,-4.5973233e-05,-0.7822207,0.999981,1.1641534e-10,2.9103834e-11,0.0061826417,3
626016000,626016000,-0.62301195,0.0019306182,-3.386442e-05,-0.78221,0.999981,1.1641534e-10,2.9103834e-11,0.0061826417,3
626020000,626020000,-0.623023,0.0019356426,-4.354398e-05,-0.78220123,0.999981,1.1641534e-10,2.9103834e-11,0.0061826417,3
626024000,626024000,-0.6230177,0.0019310208,-5.5114393e-05,-0.7822054,0.999981,1.1641534e-10,2.9103834e-11,0.0061826417,3
626028000,626028000,-0.62300587,0.0019181251,-8.392075e-05,-0.7822149,0.999981,1.1641534e-10,2.9103834e-11,0.0061826417,3
626032000,626032000,-0.6229932,0.0019281217,-0.0001207484,-0.78222483,0.999981,1.1641534e-10,2.9103834e-11,0.0061826417,3
626036000,626036000,-0.6229872,0.001960357,-0.00012966698,-0.78222966,0.999981,1.1641534e-10,2.9103834e-11,0.0061826417,3
626040000,626040000,-0.62299156,0.0019727643,-0.00012412886,-0.782226,0.999981,1.1641534e-10,2.9103834e-11,0.0061826417,3
626044000,626044000,-0.6229973,0.001976467,-0.00012865626,-0.7822216,0.999981,1.1641534e-10,2.9103834e-11,0.0061826417,3
626048000,626048000,-0.62299836,0.001991086,-0.00014257128,-0.78222066,0.999981,1.1641534e-10,2.9103834e-11,0.0061826417,3
626056000,626056000,-0.62301636,0.0020031326,-0.00017569223,-0.78220624,0.999981,1.1641534e-10,2.9103834e-11,0.0061826417,3
626060000,626060000,-0.6230399,0.001997749,-0.0002001457,-0.7821875,0.999981,1.1641534e-10,2.9103834e-11,0.0061826417,3
626064000,626064000,-0.6230505,0.0019841148,-0.00021874359,-0.7821791,0.999981,1.1641534e-10,2.9103834e-11,0.0061826417,3
626068000,626068000,-0.6230411,0.0019691945,-0.00021933076,-0.7821866,0.999981,1.1641534e-10,2.9103834e-11,0.0061826417,3
626072000,626072000,-0.6230317,0.0019397628,-0.00020223067,-0.7821942,0.999981,1.1641534e-10,2.9103834e-11,0.0061826417,3
626076000,626076000,-0.62302434,0.0019244173,-0.00019564708,-0.7822001,0.999981,1.1641534e-10,2.9103834e-11,0.0061826417,3
626080000,626080000,-0.62301075,0.0019234051,-0.00020185843,-0.7822109,0.999981,1.1641534e-10,2.9103834e-11,0.0061826417,3
626088000,626088000,-0.622989,0.001924233,-0.00018246003,-0.7822283,0.999981,1.1641534e-10,2.9103834e-11,0.0061826417,3
626092000,626092000,-0.62298334,0.0019558936,-0.0001758289,-0.7822327,0.999981,1.1641534e-10,2.9103834e-11,0.0061826417,3
626100000,626100000,-0.6229704,0.0019750255,-0.00019068936,-0.78224295,0.999981,1.1641534e-10,2.9103834e-11,0.0061826417,3
626104000,626104000,-0.6229481,0.0019624955,-0.00017545182,-0.7822608,0.999981,1.1641534e-10,2.9103834e-11,0.0061826417,3
626108000,626108000,-0.6229437,0.0019494705,-0.00015907832,-0.7822642,0.999981,1.1641534e-10,2.9103834e-11,0.0061826417,3
626112000,626112000,-0.62295693,0.0019370194,-0.00017443593,-0.7822537,0.999981,1.1641534e-10,2.9103834e-11,0.0061826417,3
626116000,626116000,-0.62297267,0.0019432511,-0.00021078128,-0.78224117,0.999981,1.1641534e-10,2.9103834e-11,0.0061826417,3
626120000,626120000,-0.62297624,0.001959434,-0.0002346572,-0.78223825,0.999981,1.1641534e-10,2.9103834e-11,0.0061826417,3
626124000,626124000,-0.62297446,0.001958867,-0.0002445162,-0.7822398,0.999981,1.1641534e-10,2.9103834e-11,0.0061826417,3
626128000,626128000,-0.6229793,0.0019496072,-0.00023449685,-0.7822359,0.999981,1.1641534e-10,2.9103834e-11,0.0061826417,3
626132000,626132000,-0.62299514,0.0019447567,-0.00021297311,-0.7822232,0.999981,1.1641534e-10,2.9103834e-11,0.0061826417,3
626136000,626136000,-0.62301064,0.0019391653,-0.00019494571,-0.78221095,0.999981,1.1641534e-10,2.9103834e-11,0.0061826417,3
626140000,626140000,-0.6230207,0.0019294998,-0.00017776426,-0.78220296,0.999981,1.1641534e-10,2.9103834e-11,0.0061826417,3
626144000,626144000,-0.6230317,0.0019181899,-0.0001694849,-0.7821944,0.999981,1.1641534e-10,2.9103834e-11,0.0061826417,3
626148000,626148000,-0.62303585,0.0018895806,-0.00016241477,-0.7821909,0.999981,1.1641534e-10,2.9103834e-11,0.0061826417,3
626152000,626152000,-0.6230311,0.0018443341,-0.0001557348,-0.78219503,0.999981,1.1641534e-10,2.9103834e-11,0.0061826417,3
626156000,626156000,-0.6230149,0.001803282,-0.00016603395,-0.78220785,0.999981,1.1641534e-10,2.9103834e-11,0.0061826417,3
626160000,626160000,-0.6229901,0.0017764638,-0.00018156321,-0.7822277,0.999981,1.1641534e-10,2.9103834e-11,0.0061826417,3
626164000,626164000,-0.622974,0.0017563704,-0.0001894812,-0.78224057,0.999981,1.1641534e-10,2.9103834e-11,0.0061826417,3
626168000,626168000,-0.6229704,0.0017279546,-0.00019414537,-0.7822435,0.999981,1.1641534e-10,2.9103834e-11,0.0061826417,3
626172000,626172000,-0.62296724,0.001697866,-0.00019406398,-0.7822461,0.999981,1.1641534e-10,2.9103834e-11,0.0061826417,3
626176000,626176000,-0.62296194,0.0016795902,-0.00019454326,-0.78225034,0.999981,1.1641534e-10,2.9103834e-11,0.0061826417,3
626184000,626184000,-0.62296057,0.0016592967,-0.00019473265,-0.78225154,0.999981,1.1641534e-10,2.9103834e-11,0.0061826417,3
626192000,626192000,-0.62295663,0.0016810633,-0.00012757468,-0.78225464,0.999981,1.1641534e-10,2.9103834e-11,0.0061826417,3
626196000,626196000,-0.6229478,0.0016856575,-0.00010193733,-0.7822616,0.999981,1.1641534e-10,2.9103834e-11,0.0061826417,3
626200000,626200000,-0.62292904,0.0016801648,-0.00010437683,-0.7822766,0.999981,1.1641534e-10,2.9103834e-11,0.0061826417,3
626204000,626204000,-0.6229032,0.0016728754,-0.000114215094,-0.78229713,0.999981,1.1641534e-10,2.9103834e-11,0.0061826417,3
626208000,626208000,-0.62290746,0.0016542017,-0.00012717636,-0.7822938,0.999981,1.1641534e-10,2.9103834e-11,0.0061826417,3
626212000,626212000,-0.62294376,0.0016264152,-0.0001463892,-0.78226495,0.999981,1.1641534e-10,2.9103834e-11,0.0061826417,3
626216000,626216000,-0.62297136,0.0016019449,-0.0001614535,-0.782243,0.999981,1.1641534e-10,2.9103834e-11,0.0061826417,3
626220000,626220000,-0.62298226,0.0015641708,-0.00017273126,-0.78223443,0.999981,1.1641534e-10,2.9103834e-11,0.0061826417,3
626224000,626224000,-0.6229865,0.0015190654,-0.00017954661,-0.78223115,0.999981,1.1641534e-10,2.9103834e-11,0.0061826417,3
626228000,626228000,-0.6229753,0.001513712,-0.00017580086,-0.7822401,0.999981,1.1641534e-10,2.9103834e-11,0.0061826417,3
626232000,626232000,-0.6229507,0.0015442969,-0.0001748301,-0.7822596,0.999981,1.1641534e-10,2.9103834e-11,0.0061826417,3
626236000,626236000,-0.62292564,0.0015751744,-0.00017947453,-0.7822795,0.999981,1.1641534e-10,2.9103834e-11,0.0061826417,3
626240000,626240000,-0.62291306,0.0015967955,-0.00017263541,-0.7822895,0.999981,1.1641534e-10,2.9103834e-11,0.0061826417,3
626244000,626244000,-0.62290716,0.0016058654,-0.00016187922,-0.78229415,0.999981,1.1641534e-10,2.9103834e-11,0.0061826417,3
626248000,626248000,-0.62289006,0.0016069012,-0.0001672189,-0.7823078,0.999981,1.1641534e-10,2.9103834e-11,0.0061826417,3
626252000,626252000,-0.6228783,0.0016072297,-0.0001828415,-0.782317,0.999981,1.1641534e-10,2.9103834e-11,0.0061826417,3
626256000,626256000,-0.62287587,0.001603702,-0.00018447949,-0.7823191,0.999981,1.1641534e-10,2.9103834e-11,0.0061826417,3
626260000,626260000,-0.6228583,0.001615788,-0.00016995241,-0.7823331,0.999981,1.1641534e-10,2.9103834e-11,0.0061826417,3
626264000,626264000,-0.62283194,0.0016498399,-0.00015863593,-0.78235394,0.999981,1.1641534e-10,2.9103834e-11,0.0061826417,3
626268000,626268000,-0.62281597,0.0016705137,-0.00015642261,-0.78236663,0.999981,1.1641534e-10,2.9103834e-11,0.0061826417,3
626272000,626272000,-0.62282,0.0016823718,-0.0001532727,-0.7823634,0.999981,1.1641534e-10,2.9103834e-11,0.0061826417,3
626280000,626280000,-0.62287974,0.0017189605,-0.00018971077,-0.78231573,0.999981,1.1641534e-10,2.9103834e-11,0.0061826417,3
626284000,626284000,-0.6228901,0.0017161494,-0.0002306267,-0.78230745,0.999981,1.1641534e-10,2.9103834e-11,0.0061826417,3
626288000,626288000,-0.62288463,0.0016935879,-0.00025789771,-0.78231186,0.999981,1.1641534e-10,2.9103834e-11,0.0061826417,3
626296000,626296000,-0.62289786,0.0016521628,-0.0003111723,-0.7823014,0.999981,1.1641534e-10,2.9103834e-11,0.0061826417,3
626300000,626300000,-0.62292737,0.0016393291,-0.0003167596,-0.78227794,0.999981,1.1641534e-10,2.9103834e-11,0.0061826417,3
626304000,626304000,-0.62294436,0.0016450166,-0.0003119333,-0.7822644,0.999981,1.1641534e-10,2.9103834e-11,0.0061826417,3
626308000,626308000,-0.6229418,0.0016482502,-0.000322189,-0.78226644,0.999981,1.1641534e-10,2.9103834e-11,0.0061826417,3
626316000,626316000,-0.6229354,0.0016463377,-0.00034552938,-0.7822715,0.999981,1.1641534e-10,2.9103834e-11,0.0061826417,3
626320000,626320000,-0.62293583,0.001622312,-0.0003592301,-0.7822712,0.999981,1.1641534e-10,2.9103834e-11,0.0061826417,3
626324000,626324000,-0.62293535,0.0016161026,-0.0003727888,-0.78227156,0.999981,1.1641534e-10,2.9103834e-11,0.0061826417,3
626328000,626328000,-0.62293446,0.0016484658,-0.00037553094,-0.7822722,0.999981,1.1641534e-10,2.9103834e-11,0.0061826417,3
626336000,626336000,-0.6229536,0.0016598612,-0.0004317089,-0.78225696,0.999981,1.1641534e-10,2.9103834e-11,0.0061826417,3
626340000,626340000,-0.6229509,0.0016463187,-0.00042715846,-0.7822592,0.999981,1.1641534e-10,2.9103834e-11,0.0061826417,3
626344000,626344000,-0.6229265,0.001634323,-0.00041300073,-0.7822786,0.999981,1.1641534e-10,2.9103834e-11,0.0061826417,3
626348000,626348000,-0.6229075,0.0016313728,-0.00041825706,-0.7822937,0.999981,1.1641534e-10,2.9103834e-11,0.0061826417,3
626352000,626352000,-0.6229019,0.001644479,-0.00042128612,-0.78229815,0.999981,1.1641534e-10,2.9103834e-11,0.0061826417,3
626360000,626360000,-0.6228661,0.0016695026,-0.00041005816,-0.78232664,0.999981,1.1641534e-10,2.9103834e-11,0.0061826417,3
626364000,626364000,-0.6228555,0.0016628429,-0.00041568436,-0.78233504,0.999981,1.1641534e-10,2.9103834e-11,0.0061826417,3
626368000,626368000,-0.6228633,0.0016329141,-0.00042656693,-0.7823289,0.999981,1.1641534e-10,2.9103834e-11,0.0061826417,3
626372000,626372000,-0.62287694,0.0015915895,-0.00043037542,-0.7823181,0.999981,1.1641534e-10,2.9103834e-11,0.0061826417,3
626376000,626376000,-0.62286806,0.0015603831,-0.00042663628,-0.78232527,0.999981,1.1641534e-10,2.9103834e-11,0.0061826417,3
626380000,626380000,-0.6228429,0.0015452381,-0.00042412244,-0.7823453,0.999981,1.1641534e-10,2.9103834e-11,0.0061826417,3
626388000,626388000,-0.622848,0.0015572262,-0.00034026004,-0.78234124,0.999981,1.1641534e-10,2.9103834e-11,0.0061826417,3
626392000,626392000,-0.6228616,0.0015683135,-0.00030132267,-0.7823305,0.999981,1.1641534e-10,2.9103834e-11,0.0061826417,3
626396000,626396000,-0.62286055,0.0015844548,-0.0002868426,-0.78233117,0.999981,1.1641534e-10,2.9103834e-11,0.0061826417,3
626400000,626400000,-0.62286633,0.0015943116,-0.00028708723,-0.7823267,0.999981,1.1641534e-10,2.9103834e-11,0.0061826417,3
626404000,626404000,-0.62288785,0.0016074574,-0.0002994213,-0.7823094,0.999981,1.1641534e-10,2.9103834e-11,0.0061826417,3
626408000,626408000,-0.62290233,0.0016432636,-0.0003277722,-0.7822978,0.999981,1.1641534e-10,2.9103834e-11,0.0061826417,3
626412000,626412000,-0.62290466,0.001663966,-0.00035975548,-0.782296,0.999981,1.1641534e-10,2.9103834e-11,0.0061826417,3
626416000,626416000,-0.622907,0.0016565275,-0.0003809061,-0.78229415,0.999981,1.1641534e-10,2.9103834e-11,0.0061826417,3
626420000,626420000,-0.6229113,0.0016088753,-0.00035375057,-0.7822907,0.999981,1.1641534e-10,2.9103834e-11,0.0061826417,3
626424000,626424000,-0.6229236,0.0015154702,-0.00028742076,-0.7822812,0.999981,1.1641534e-10,2.9103834e-11,0.0061826417,3
626428000,626428000,-0.6229438,0.001444794,-0.00026093752,-0.78226525,0.999981,1.1641534e-10,2.9103834e-11,0.0061826417,3
626432000,626432000,-0.62295943,0.0014290926,-0.00026802882,-0.78225285,0.999981,1.1641534e-10,2.9103834e-11,0.0061826417,3
626436000,626436000,-0.62297267,0.0014296534,-0.00027101263,-0.7822423,0.999981,1.1641534e-10,2.9103834e-11,0.0061826417,3
626440000,626440000,-0.62297636,0.0014162596,-0.00028469204,-0.7822394,0.999981,1.1641534e-10,2.9103834e-11,0.0061826417,3
626444000,626444000,-0.6229672,0.0014075836,-0.00032324283,-0.7822467,0.999981,1.1641534e-10,2.9103834e-11,0.0061826417,3
626448000,626448000,-0.6229718,0.0014201249,-0.00036163884,-0.782243,0.999981,1.1641534e-10,2.9103834e-11,0.0061826417,3
626452000,626452000,-0.62298214,0.0014262138,-0.00037307423,-0.7822347,0.999981,1.1641534e-10,2.9103834e-11,0.0061826417,3
626456000,626456000,-0.62296546,0.0014110408,-0.00036763615,-0.782248,0.999981,1.1641534e-10,2.9103834e-11,0.0061826417,3
626460000,626460000,-0.6229404,0.0013895775,-0.00033676063,-0.782268,0.999981,1.1641534e-10,2.9103834e-11,0.0061826417,3
626464000,626464000,-0.6229366,0.0013791423,-0.00028602505,-0.782271,0.999981,1.1641534e-10,2.9103834e-11,0.0061826417,3
626468000,626468000,-0.6229416,0.0013802464,-0.00025669753,-0.78226715,0.999981,1.1641534e-10,2.9103834e-11,0.0061826417,3
626476000,626476000,-0.62294203,0.001386833,-0.00025668248,-0.7822668,0.999981,1.1641534e-10,2.9103834e-11,0.0061826417,3
626484000,626484000,-0.622971,0.0014067236,-0.00029716498,-0.78224367,0.999981,1.1641534e-10,2.9103834e-11,0.0061826417,3
626488000,626488000,-0.62298536,0.0013974839,-0.00030043582,-0.7822322,0.999981,1.1641534e-10,2.9103834e-11,0.0061826417,3
626492000,626492000,-0.6229943,0.0013674023,-0.00028029399,-0.78222513,0.999981,1.1641534e-10,2.9103834e-11,0.0061826417,3
626496000,626496000,-0.6230074,0.0013283256,-0.0002543417,-0.78221476,0.999981,1.1641534e-10,2.9103834e-11,0.0061826417,3
626500000,626500000,-0.62301934,0.0013104114,-0.00024114527,-0.7822054,0.999981,1.1641534e-10,2.9103834e-11,0.0061826417,3
626504000,626504000,-0.6230233,0.001308135,-0.0002288435,-0.7822021,0.999981,1.1641534e-10,2.9103834e-11,0.0061826417,3
626508000,626508000,-0.6230319,0.0012996872,-0.00020547352,-0.7821954,0.999981,1.1641534e-10,2.9103834e-11,0.0061826417,3
626516000,626516000,-0.6230441,0.0012911089,-0.00019531482,-0.7821857,0.999981,1.1641534e-10,2.9103834e-11,0.0061826417,3
626520000,626520000,-0.62303853,0.0012944569,-0.00020246157,-0.7821901,0.999981,1.1641534e-10,2.9103834e-11,0.0061826417,3
626524000,626524000,-0.62304133,0.0012999101,-0.00021806544,-0.7821879,0.999981,1.1641534e-10,2.9103834e-11,0.0061826417,3
626528000,626528000,-0.62303954,0.0013159399,-0.0002400597,-0.78218925,0.999981,1.1641534e-10,2.9103834e-11,0.0061826417,3
626532000,626532000,-0.6230182,0.0013237773,-0.00024329606,-0.78220624,0.999981,1.1641534e-10,2.9103834e-11,0.0061826417,3
626536000,626536000,-0.6229873,0.0013159493,-0.00023543567,-0.78223085,0.999981,1.1641534e-10,2.9103834e-11,0.0061826417,3
626540000,626540000,-0.62296385,0.0013179657,-0.00023743138,-0.7822495,0.999981,1.1641534e-10,2.9103834e-11,0.0061826417,3
626544000,626544000,-0.62294835,0.0013057486,-0.00023420484,-0.78226185,0.999981,1.1641534e-10,2.9103834e-11,0.0061826417,3
626548000,626548000,-0.62293124,0.0012619077,-0.00022280868,-0.7822757,0.999981,1.1641534e-10,2.9103834e-11,0.0061826417,3
626552000,626552000,-0.6229069,0.0012220616,-0.00021324473,-0.7822949,0.999981,1.1641534e-10,2.9103834e-11,0.0061826417,3
626556000,626556000,-0.62288356,0.0012066502,-0.00019522954,-0.7823137,0.999981,1.1641534e-10,2.9103834e-11,0.0061826417,3
626564000,626564000,-0.6228538,0.001196986,-0.00016851662,-0.78233737,0.999981,1.1641534e-10,2.9103834e-11,0.0061826417,3
626568000,626568000,-0.62283957,0.0011718221,-0.00017471002,-0.7823487,0.999981,1.1641534e-10,2.9103834e-11,0.0061826417,3
626572000,626572000,-0.6228287,0.0011571848,-0.00016339784,-0.78235745,0.999981,1.1641534e-10,2.9103834e-11,0.0061826417,3
626576000,626576000,-0.62282735,0.0011707193,-0.00013977624,-0.78235847,0.999981,1.1641534e-10,2.9103834e-11,0.0061826417,3
626580000,626580000,-0.6228373,0.0011787441,-0.00013418781,-0.78235054,0.999981,1.1641534e-10,2.9103834e-11,0.0061826417,3
626584000,626584000,-0.6228464,0.0011662777,-0.00015177428,-0.78234327,0.999981,1.1641534e-10,2.9103834e-11,0.0061826417,3
626592000,626592000,-0.6228631,0.0011512331,-0.0001668522,-0.78233004,0.999981,1.1641534e-10,2.9103834e-11,0.0061826417,3
626596000,626596000,-0.6228539,0.0011654077,-0.0001450302,-0.7823373,0.999981,1.1641534e-10,2.9103834e-11,0.0061826417,3
626600000,626600000,-0.6228418,0.0011722433,-0.0001153274,-0.782347,0.999981,1.1641534e-10,2.9103834e-11,0.0061826417,3
626604000,626604000,-0.6228364,0.0011582046,-0.000115264,-0.7823513,0.999981,1.1641534e-10,2.9103834e-11,0.0061826417,3
626608000,626608000,-0.6228373,0.0011258522,-0.0001441827,-0.7823506,0.999981,1.1641534e-10,2.9103834e-11,0.0061826417,3
626612000,626612000,-0.6228545,0.0011044063,-0.00016879682,-0.78233695,0.999981,1.1641534e-10,2.9103834e-11,0.0061826417,3
626616000,626616000,-0.62288076,0.0010979074,-0.00018146756,-0.782316,0.999981,1.1641534e-10,2.9103834e-11,0.0061826417,3
626624000,626624000,-0.6229159,0.0010852143,-0.00018251782,-0.7822881,0.999981,1.1641534e-10,2.9103834e-11,0.0061826417,3
626628000,626628000,-0.6229206,0.0010936675,-0.00016620365,-0.7822844,0.999981,1.1641534e-10,2.9103834e-11,0.0061826417,3
626636000,626636000,-0.6229359,0.0011213275,-0.00014407722,-0.78227204,0.999981,1.1641534e-10,2.9103834e-11,0.0061826417,3
626640000,626640000,-0.6229538,0.0011135145,-0.00014397236,-0.782258,0.999981,1.1641534e-10,2.9103834e-11,0.0061826417,3
626644000,626644000,-0.6229657,0.0011053612,-0.00017081601,-0.7822483,0.999981,1.1641534e-10,2.9103834e-11,0.0061826417,3
626648000,626648000,-0.62296975,0.0011079467,-0.00020213902,-0.7822451,0.999981,1.1641534e-10,2.9103834e-11,0.0061826417,3
626652000,626652000,-0.6229672,0.0011091222,-0.0001907899,-0.7822472,0.999981,1.1641534e-10,2.9103834e-11,0.0061826417,3
626656000,626656000,-0.62296045,0.0011029213,-0.00015450799,-0.7822526,0.999981,1.1641534e-10,2.9103834e-11,0.0061826417,3
626660000,626660000,-0.6229541,0.0010866901,-0.00012655465,-0.7822576,0.999981,1.1641534e-10,2.9103834e-11,0.0061826417,3
626664000,626664000,-0.62296736,0.0010635095,-0.000114144954,-0.7822472,0.999981,1.1641534e-10,2.9103834e-11,0.0061826417,3
626668000,626668000,-0.62299687,0.00105625,-0.00010823835,-0.7822237,0.999981,1.1641534e-10,2.9103834e-11,0.0061826417,3
626676000,626676000,-0.62305623,0.0010903759,-8.0669386e-05,-0.78217626,0.999981,1.1641534e-10,2.9103834e-11,0.0061826417,3
626680000,626680000,-0.623057,0.00108762,-7.42814e-05,-0.78217566,0.999981,1.1641534e-10,2.9103834e-11,0.0061826417,3
626684000,626684000,-0.6230549,0.0010894983,-8.858974e-05,-0.78217745,0.999981,1.1641534e-10,2.9103834e-11,0.0061826417,3
626688000,626688000,-0.623064,0.0011036147,-0.00010718223,-0.78217006,0.999981,1.1641534e-10,2.9103834e-11,0.0061826417,3
626696000,626696000,-0.62305725,0.0010963725,-0.0001521917,-0.7821754,0.999981,1.1641534e-10,2.9103834e-11,0.0061826417,3
626700000,626700000,-0.6230627,0.0010965851,-0.0001480908,-0.78217125,0.999981,1.1641534e-10,2.9103834e-11,0.0061826417,3
626704000,626704000,-0.6230759,0.0011076658,-0.00012948216,-0.7821606,0.999981,1.1641534e-10,2.9103834e-11,0.0061826417,3
626708000,626708000,-0.6230658,0.0011149383,-0.000113982314,-0.78216857,0.999981,1.1641534e-10,2.9103834e-11,0.0061826417,3
626712000,626712000,-0.62303627,0.0011149633,-9.478225e-05,-0.7821923,0.999981,1.1641534e-10,2.9103834e-11,0.0061826417,3
626716000,626716000,-0.6230162,0.0011286612,-8.235018e-05,-0.78220814,0.999981,1.1641534e-10,2.9103834e-11,0.0061826417,3
626724000,626724000,-0.6230115,0.0012195376,-9.230867e-05,-0.78221184,0.999981,1.1641534e-10,2.9103834e-11,0.0061826417,3
626728000,626728000,-0.6230114,0.0012311994,-9.182052e-05,-0.7822117,0.999981,1.1641534e-10,2.9103834e-11,0.0061826417,3
626736000,626736000,-0.62302136,0.0012468824,-0.00012010598,-0.7822039,0.999981,1.1641534e-10,2.9103834e-11,0.0061826417,3
626740000,626740000,-0.6230284,0.0012674581,-0.00011100043,-0.7821983,0.999981,1.1641534e-10,2.9103834e-11,0.0061826417,3
626744000,626744000,-0.6230525,0.0012778045,-0.000101888916,-0.78217894,0.999981,1.1641534e-10,2.9103834e-11,0.0061826417,3
626748000,626748000,-0.6230796,0.0012772434,-0.00012015383,-0.7821575,0.999981,1.1641534e-10,2.9103834e-11,0.0061826417,3
626752000,626752000,-0.62309825,0.0012762006,-0.00014758356,-0.78214246,0.999981,1.1641534e-10,2.9103834e-11,0.0061826417,3
626756000,626756000,-0.6231166,0.0012751651,-0.00017159469,-0.782128,0.999981,1.1641534e-10,2.9103834e-11,0.0061826417,3
626760000,626760000,-0.6231337,0.0012450095,-0.00019283827,-0.7821144,0.999981,1.1641534e-10,2.9103834e-11,0.0061826417,3
626764000,626764000,-0.62313247,0.0012026837,-0.00019690796,-0.78211534,0.999981,1.1641534e-10,2.9103834e-11,0.0061826417,3
626768000,626768000,-0.623125,0.0011924935,-0.00017347268,-0.7821214,0.999981,1.1641534e-10,2.9103834e-11,0.0061826417,3
626772000,626772000,-0.6231325,0.0012011449,-0.00014259454,-0.7821154,0.999981,1.1641534e-10,2.9103834e-11,0.0061826417,3
626776000,626776000,-0.62314796,0.0012047617,-0.00013084643,-0.78210306,0.999981,1.1641534e-10,2.9103834e-11,0.0061826417,3
626780000,626780000,-0.62316215,0.0011947184,-0.00014565504,-0.78209174,0.999981,1.1641534e-10,2.9103834e-11,0.0061826417,3
626784000,626784000,-0.62317145,0.0011772163,-0.0001749598,-0.7820844,0.999981,1.1641534e-10,2.9103834e-11,0.0061826417,3
626792000,626792000,-0.6231524,0.0011437151,-0.00018644333,-0.7820996,0.999981,1.1641534e-10,2.9103834e-11,0.0061826417,3
626796000,626796000,-0.6231287,0.001123803,-0.00016754193,-0.78211856,0.999981,1.1641534e-10,2.9103834e-11,0.0061826417,3
626804000,626804000,-0.6231155,0.0011224833,-0.00015830515,-0.78212905,0.999981,1.1641534e-10,2.9103834e-11,0.0061826417,3
626808000,626808000,-0.62312806,0.0010947781,-0.00014402001,-0.7821191,0.999981,1.1641534e-10,2.9103834e-11,0.0061826417,3
626812000,626812000,-0.6231377,0.0010680398,-0.00015160842,-0.7821114,0.999981,1.1641534e-10,2.9103834e-11,0.0061826417,3
626816000,626816000,-0.62313944,0.0010603,-0.00017638874,-0.78211004,0.999981,1.1641534e-10,2.9103834e-11,0.0061826417,3
626820000,626820000,-0.6231383,0.0010738134,-0.00019834882,-0.7821109,0.999981,1.1641534e-10,2.9103834e-11,0.0061826417,3
626824000,626824000,-0.6231401,0.0010879845,-0.00021606123,-0.7821095,0.999981,1.1641534e-10,2.9103834e-11,0.0061826417,3
626828000,626828000,-0.62313604,0.0010835208,-0.00022982106,-0.7821127,0.999981,1.1641534e-10,2.9103834e-11,0.0061826417,3
626832000,626832000,-0.6231178,0.00107993,-0.00022454976,-0.78212726,0.999981,1.1641534e-10,2.9103834e-11,0.0061826417,3
626836000,626836000,-0.623103,0.0010838741,-0.00019117152,-0.782139,0.999981,1.1641534e-10,2.9103834e-11,0.0061826417,3
626840000,626840000,-0.62309575,0.0010931443,-0.00015793844,-0.7821449,0.999981,1.1641534e-10,2.9103834e-11,0.0061826417,3
626844000,626844000,-0.62309974,0.0011243827,-0.0001646514,-0.7821416,0.999981,1.1641534e-10,2.9103834e-11,0.0061826417,3
626848000,626848000,-0.6231096,0.0011615743,-0.00019380335,-0.78213376,0.999981,1.1641534e-10,2.9103834e-11,0.0061826417,3
626856000,626856000,-0.6231493,0.0011550648,-0.00022370071,-0.78210217,0.999981,1.1641534e-10,2.9103834e-11,0.0061826417,3
626864000,626864000,-0.62321484,0.0011110042,-0.0002263436,-0.78204995,0.999981,1.1641534e-10,2.9103834e-11,0.0061826417,3
626868000,626868000,-0.6232322,0.0011208118,-0.00023772966,-0.7820361,0.999981,1.1641534e-10,2.9103834e-11,0.0061826417,3
626872000,626872000,-0.6232386,0.001128709,-0.00025237884,-0.7820308,0.999981,1.1641534e-10,2.9103834e-11,0.0061826417,3
626880000,626880000,-0.62326753,0.0011203923,-0.00027944666,-0.7820078,0.999981,1.1641534e-10,2.9103834e-11,0.0061826417,3
626884000,626884000,-0.62329906,0.001129962,-0.00028856064,-0.78198266,0.999981,1.1641534e-10,2.9103834e-11,0.0061826417,3
626892000,626892000,-0.6233442,0.0011555521,-0.00033375167,-0.78194666,0.999981,1.1641534e-10,2.9103834e-11,0.0061826417,3
626896000,626896000,-0.62334657,0.0011661113,-0.00034165592,-0.78194475,0.999981,1.1641534e-10,2.9103834e-11,0.0061826417,3
626900000,626900000,-0.6233269,0.0011699717,-0.00032722572,-0.7819604,0.999981,1.1641534e-10,2.9103834e-11,0.0061826417,3
626904000,626904000,-0.62331474,0.0011619318,-0.0003080637,-0.78197026,0.999981,1.1641534e-10,2.9103834e-11,0.0061826417,3
626908000,626908000,-0.6233184,0.0011530934,-0.0002924201,-0.7819672,0.999981,1.1641534e-10,2.9103834e-11,0.0061826417,3
626912000,626912000,-0.623335,0.0011756426,-0.00028951245,-0.781954,0.999981,1.1641534e-10,2.9103834e-11,0.0061826417,3
626916000,626916000,-0.62336403,0.0012205038,-0.00029278387,-0.78193074,0.999981,1.1641534e-10,2.9103834e-11,0.0061826417,3
626920000,626920000,-0.6233872,0.0012525306,-0.00028310958,-0.7819122,0.999981,1.1641534e-10,2.9103834e-11,0.0061826417,3
626924000,626924000,-0.6233984,0.0012746225,-0.00025259051,-0.7819034,0.999981,1.1641534e-10,2.9103834e-11,0.0061826417,3
626928000,626928000,-0.6234195,0.0012930591,-0.00022322561,-0.7818864,0.999981,1.1641534e-10,2.9103834e-11,0.0061826417,3
626932000,626932000,-0.6234507,0.0013002291,-0.00021823279,-0.78186154,0.999981,1.1641534e-10,2.9103834e-11,0.0061826417,3
626936000,626936000,-0.6234694,0.0013213125,-0.0002291268,-0.7818466,0.999981,1.1641534e-10,2.9103834e-11,0.0061826417,3
626940000,626940000,-0.62347394,0.0013567752,-0.00023311579,-0.7818429,0.999981,1.1641534e-10,2.9103834e-11,0.0061826417,3
626944000,626944000,-0.6234706,0.0013774127,-0.00022666054,-0.7818457,0.999981,1.1641534e-10,2.9103834e-11,0.0061826417,3
626948000,626948000,-0.6234647,0.0013821648,-0.00022048199,-0.7818502,0.999981,1.1641534e-10,2.9103834e-11,0.0061826417,3
626952000,626952000,-0.62346095,0.0013815146,-0.00021680376,-0.78185326,0.999981,1.1641534e-10,2.9103834e-11,0.0061826417,3
626956000,626956000,-0.62345886,0.0013729553,-0.00020681124,-0.7818549,0.999981,1.1641534e-10,2.9103834e-11,0.0061826417,3
626960000,626960000,-0.6234547,0.0013555873,-0.00020274232,-0.78185827,0.999981,1.1641534e-10,2.9103834e-11,0.0061826417,3
626964000,626964000,-0.62343806,0.0013427315,-0.00021182912,-0.7818717,0.999981,1.1641534e-10,2.9103834e-11,0.0061826417,3
626968000,626968000,-0.62341803,0.0013310856,-0.0001980443,-0.78188765,0.999981,1.1641534e-10,2.9103834e-11,0.0061826417,3
626972000,626972000,-0.62340504,0.0013159888,-0.0001569675,-0.781898,0.999981,1.1641534e-10,2.9103834e-11,0.0061826417,3
626976000,626976000,-0.6233929,0.0013086475,-0.00012752206,-0.7819076,0.999981,1.1641534e-10,2.9103834e-11,0.0061826417,3
626980000,626980000,-0.6233961,0.0012999744,-0.0001194193,-0.78190523,0.999981,1.1641534e-10,2.9103834e-11,0.0061826417,3
626988000,626988000,-0.62344575,0.0012791181,-0.00013233388,-0.78186554,0.999981,1.1641534e-10,2.9103834e-11,0.0061826417,3
626992000,626992000,-0.6234652,0.0012913778,-0.00014836557,-0.78185004,0.999981,1.1641534e-10,2.9103834e-11,0.0061826417,3
627000000,627000000,-0.6234641,0.0013102044,-0.00020385398,-0.78185093,0.999981,1.1641534e-10,2.9103834e-11,0.0061826417,3
627004000,627004000,-0.6234665,0.0013273921,-0.00022312568,-0.78184897,0.999981,1.1641534e-10,2.9103834e-11,0.0061826417,3
627008000,627008000,-0.62348217,0.0013448312,-0.00024120977,-0.7818364,0.999981,1.1641534e-10,2.9103834e-11,0.0061826417,3
627012000,627012000,-0.6234987,0.0013537189,-0.0002640352,-0.7818232,0.999981,1.1641534e-10,2.9103834e-11,0.0061826417,3
627016000,627016000,-0.6234877,0.0013501784,-0.0002708729,-0.781832,0.999981,1.1641534e-10,2.9103834e-11,0.0061826417,3
627024000,627024000,-0.62342376,0.0013123793,-0.00026759217,-0.781883,0.999981,1.1641534e-10,2.9103834e-11,0.0061826417,3
627032000,627032000,-0.6234448,0.0013153667,-0.00025235003,-0.78186625,0.999981,1.1641534e-10,2.9103834e-11,0.0061826417,3
627036000,627036000,-0.6234468,0.0013080374,-0.00027239588,-0.78186464,0.999981,1.1641534e-10,2.9103834e-11,0.0061826417,3
627040000,627040000,-0.62345093,0.0012985994,-0.0002737254,-0.78186136,0.999981,1.1641534e-10,2.9103834e-11,0.0061826417,3
627044000,627044000,-0.6234547,0.0012705355,-0.00027449126,-0.7818584,0.999981,1.1641534e-10,2.9103834e-11,0.0061826417,3
627048000,627048000,-0.6234606,0.0012455941,-0.0003029488,-0.78185374,0.999981,1.1641534e-10,2.9103834e-11,0.0061826417,3
627056000,627056000,-0.6234826,0.0012667775,-0.00034911593,-0.7818362,0.999981,1.1641534e-10,2.9103834e-11,0.0061826417,3
627060000,627060000,-0.62348217,0.0012591726,-0.00038392184,-0.78183645,0.999981,1.1641534e-10,2.9103834e-11,0.0061826417,3
627068000,627068000,-0.6234622,0.0012861018,-0.00043061058,-0.7818524,0.999981,1.1641534e-10,2.9103834e-11,0.0061826417,3
627076000,627076000,-0.62350005,0.001331314,-0.00043381148,-0.78182214,0.999981,1.1641534e-10,2.9103834e-11,0.0061826417,3
627084000,627084000,-0.6235333,0.0012882177,-0.00039312543,-0.7817957,0.999981,1.1641534e-10,2.9103834e-11,0.0061826417,3
627088000,627088000,-0.6235516,0.0012936445,-0.0003850865,-0.7817811,0.999981,1.1641534e-10,2.9103834e-11,0.0061826417,3
627092000,627092000,-0.6235695,0.0013270538,-0.0003932154,-0.7817667,0.999981,1.1641534e-10,2.9103834e-11,0.0061826417,3
627096000,627096000,-0.6235699,0.0013444726,-0.00039407684,-0.78176636,0.999981,1.1641534e-10,2.9103834e-11,0.0061826417,3
627104000,627104000,-0.6235728,0.0013434108,-0.00034940624,-0.7817641,0.999981,1.1641534e-10,2.9103834e-11,0.0061826417,3
627108000,627108000,-0.6235575,0.0013127861,-0.00036780714,-0.78177637,0.999981,1.1641534e-10,2.9103834e-11,0.0061826417,3
627112000,627112000,-0.6235251,0.0012918841,-0.00038514106,-0.78180224,0.999981,1.1641534e-10,2.9103834e-11,0.0061826417,3
627116000,627116000,-0.6235005,0.0012902778,-0.00039193957,-0.7818218,0.999981,1.1641534e-10,2.9103834e-11,0.0061826417,3
627120000,627120000,-0.62348765,0.0013008432,-0.0004125087,-0.78183204,0.999981,1.1641534e-10,2.9103834e-11,0.0061826417,3
627124000,627124000,-0.6234897,0.0013049102,-0.00042242897,-0.78183043,0.999981,1.1641534e-10,2.9103834e-11,0.0061826417,3
627128000,627128000,-0.6235029,0.0013171695,-0.00040070826,-0.7818198,0.999981,1.1641534e-10,2.9103834e-11,0.0061826417,3
627132000,627132000,-0.6235099,0.0013439042,-0.00037621864,-0.7818142,0.999981,1.1641534e-10,2.9103834e-11,0.0061826417,3
627136000,627136000,-0.62350816,0.0013676664,-0.00036913384,-0.7818156,0.999981,1.1641534e-10,2.9103834e-11,0.0061826417,3
627140000,627140000,-0.62350893,0.0013820388,-0.00036271234,-0.78181493,0.999981,1.1641534e-10,2.9103834e-11,0.0061826417,3
627144000,627144000,-0.62351096,0.0013728548,-0.0003456769,-0.7818133,0.999981,1.1641534e-10,2.9103834e-11,0.0061826417,3
627148000,627148000,-0.62351096,0.0013588645,-0.00033637672,-0.7818133,0.999981,1.1641534e-10,2.9103834e-11,0.0061826417,3
627152000,627152000,-0.62351054,0.0013729323,-0.00034400416,-0.7818137,0.999981,1.1641534e-10,2.9103834e-11,0.0061826417,3
627156000,627156000,-0.6235051,0.001396741,-0.00035394332,-0.781818,0.999981,1.1641534e-10,2.9103834e-11,0.0061826417,3
627160000,627160000,-0.6234926,0.0013992507,-0.0003632621,-0.7818279,0.999981,1.1641534e-10,2.9103834e-11,0.0061826417,3
627164000,627164000,-0.6234755,0.0013882921,-0.00037409598,-0.7818416,0.999981,1.1641534e-10,2.9103834e-11,0.0061826417,3
627168000,627168000,-0.6234622,0.00138579,-0.00036577784,-0.7818523,0.999981,1.1641534e-10,2.9103834e-11,0.0061826417,3
627172000,627172000,-0.62346715,0.0014002497,-0.00034299894,-0.7818483,0.999981,1.1641534e-10,2.9103834e-11,0.0061826417,3
627176000,627176000,-0.6234867,0.0014118168,-0.0003281009,-0.7818327,0.999981,1.1641534e-10,2.9103834e-11,0.0061826417,3
627180000,627180000,-0.6235067,0.0014034389,-0.00032112483,-0.7818167,0.999981,1.1641534e-10,2.9103834e-11,0.0061826417,3
627188000,627188000,-0.6234993,0.001405419,-0.0003290134,-0.7818227,0.999981,1.1641534e-10,2.9103834e-11,0.0061826417,3
627192000,627192000,-0.6234826,0.0014168412,-0.0003297157,-0.78183585,0.999981,1.1641534e-10,2.9103834e-11,0.0061826417,3
627196000,627196000,-0.62345725,0.0014246181,-0.00032474526,-0.78185606,0.999981,1.1641534e-10,2.9103834e-11,0.0061826417,3
627204000,627204000,-0.62339914,0.0014068864,-0.00030529685,-0.78190255,0.999981,1.1641534e-10,2.9103834e-11,0.0061826417,3
627208000,627208000,-0.62339216,0.0014010911,-0.00028400272,-0.7819081,0.999981,1.1641534e-10,2.9103834e-11,0.0061826417,3
627216000,627216000,-0.62339365,0.0013835451,-0.00024886825,-0.78190696,0.999981,1.1641534e-10,2.9103834e-11,0.0061826417,3
627224000,627224000,-0.6233951,0.0013816622,-0.00026881255,-0.78190583,0.999981,1.1641534e-10,2.9103834e-11,0.0061826417,3
627228000,627228000,-0.6233943,0.0013759746,-0.00027192573,-0.7819063,0.999981,1.1641534e-10,2.9103834e-11,0.0061826417,3
627232000,627232000,-0.623382,0.0013616275,-0.00027224567,-0.7819163,0.999981,1.1641534e-10,2.9103834e-11,0.0061826417,3
627236000,627236000,-0.6233542,0.0013596849,-0.0002586421,-0.7819385,0.999981,1.1641534e-10,2.9103834e-11,0.0061826417,3
627240000,627240000,-0.62333053,0.0013567475,-0.0002462808,-0.7819572,0.999981,1.1641534e-10,2.9103834e-11,0.0061826417,3
627248000,627248000,-0.62330747,0.0013273463,-0.00021771892,-0.7819758,0.999981,1.1641534e-10,2.9103834e-11,0.0061826417,3
627252000,627252000,-0.62329215,0.001329586,-0.00020740108,-0.78198797,0.999981,1.1641534e-10,2.9103834e-11,0.0061826417,3
627256000,627256000,-0.6232698,0.00133183,-0.00020050583,-0.7820058,0.999981,1.1641534e-10,2.9103834e-11,0.0061826417,3
627260000,627260000,-0.6232691,0.0013315206,-0.00020105935,-0.7820063,0.999981,1.1641534e-10,2.9103834e-11,0.0061826417,3
627264000,627264000,-0.6232784,0.0013144934,-0.00020121041,-0.78199893,0.999981,1.1641534e-10,2.9103834e-11,0.0061826417,3
627272000,627272000,-0.6232635,0.0012921685,-0.00018091167,-0.78201085,0.999981,1.1641534e-10,2.9103834e-11,0.0061826417,3
627276000,627276000,-0.6232768,0.0013123485,-0.00017798584,-0.7820002,0.999981,1.1641534e-10,2.9103834e-11,0.0061826417,3
627284000,627284000,-0.6232999,0.0013338517,-0.00022998168,-0.78198177,0.999981,1.1641534e-10,2.9103834e-11,0.0061826417,3
627288000,627288000,-0.6233129,0.001317157,-0.00025623155,-0.78197145,0.999981,1.1641534e-10,2.9103834e-11,0.0061826417,3
627292000,627292000,-0.6233213,0.0013108427,-0.00027032112,-0.7819648,0.999981,1.1641534e-10,2.9103834e-11,0.0061826417,3
627296000,627296000,-0.62331384,0.001314465,-0.0002617107,-0.78197074,0.999981,1.1641534e-10,2.9103834e-11,0.0061826417,3
627304000,627304000,-0.62328315,0.0012965678,-0.00022991176,-0.78199524,0.999981,1.1641534e-10,2.9103834e-11,0.0061826417,3
627312000,627312000,-0.62330157,0.0013028053,-0.00023699217,-0.78198045,0.999981,1.1641534e-10,2.9103834e-11,0.0061826417,3
627316000,627316000,-0.62331665,0.0013139833,-0.0002547701,-0.7819685,0.999981,1.1641534e-10,2.9103834e-11,0.0061826417,3
627320000,627320000,-0.62332046,0.0013181558,-0.00026426092,-0.78196543,0.999981,1.1641534e-10,2.9103834e-11,0.0061826417,3
627328000,627328000,-0.62332225,0.0013231947,-0.00024382204,-0.781964,0.999981,1.1641534e-10,2.9103834e-11,0.0061826417,3
627336000,627336000,-0.62334156,0.0013143527,-0.0002211254,-0.7819486,0.999981,1.1641534e-10,2.9103834e-11,0.0061826417,3
627340000,627340000,-0.62335366,0.001324572,-0.00020679132,-0.78193897,0.999981,1.1641534e-10,2.9103834e-11,0.0061826417,3
627344000,627344000,-0.62336737,0.001332683,-0.00022415078,-0.7819279,0.999981,1.1641534e-10,2.9103834e-11,0.0061826417,3
627348000,627348000,-0.62337625,0.0013379282,-0.00026647575,-0.78192097,0.999981,1.1641534e-10,2.9103834e-11,0.0061826417,3
627352000,627352000,-0.62338704,0.0013462065,-0.00028192383,-0.7819122,0.999981,1.1641534e-10,2.9103834e-11,0.0061826417,3
627356000,627356000,-0.62339956,0.0013721315,-0.0002521692,-0.7819023,0.999981,1.1641534e-10,2.9103834e-11,0.0061826417,3
627360000,627360000,-0.6234132,0.0014018723,-0.0002159177,-0.7818912,0.999981,1.1641534e-10,2.9103834e-11,0.0061826417,3
627364000,627364000,-0.6234274,0.0014030944,-0.00018553337,-0.78188,0.999981,1.1641534e-10,2.9103834e-11,0.0061826417,3
627368000,627368000,-0.62342405,0.0013999845,-0.0001537734,-0.7818827,0.999981,1.1641534e-10,2.9103834e-11,0.0061826417,3
627372000,627372000,-0.6234136,0.0014107826,-0.00013106907,-0.781891,0.999981,1.1641534e-10,2.9103834e-11,0.0061826417,3
627376000,627376000,-0.62340826,0.0014111303,-0.00012658999,-0.7818953,0.999981,1.1641534e-10,2.9103834e-11,0.0061826417,3
627384000,627384000,-0.62342083,0.0014077974,-0.00012864504,-0.78188527,0.999981,1.1641534e-10,2.9103834e-11,0.0061826417,3
627388000,627388000,-0.6234171,0.001409358,-0.00013803797,-0.7818881,0.999981,1.1641534e-10,2.9103834e-11,0.0061826417,3
627392000,627392000,-0.62342054,0.0014099572,-0.00016913054,-0.78188545,0.999981,1.1641534e-10,2.9103834e-11,0.0061826417,3
627396000,627396000,-0.6234381,0.0014191335,-0.00019543593,-0.7818715,0.999981,1.1641534e-10,2.9103834e-11,0.0061826417,3
627400000,627400000,-0.62345433,0.0014290303,-0.00020460662,-0.7818584,0.999981,1.1641534e-10,2.9103834e-11,0.0061826417,3
627408000,627408000,-0.62347454,0.0013995713,-0.00020273986,-0.78184247,0.999981,1.1641534e-10,2.9103834e-11,0.0061826417,3
627412000,627412000,-0.6234711,0.0014092367,-0.00020968857,-0.7818452,0.999981,1.1641534e-10,2.9103834e-11,0.0061826417,3
627416000,627416000,-0.6234689,0.0014358705,-0.0002158598,-0.7818469,0.999981,1.1641534e-10,2.9103834e-11,0.0061826417,3
627420000,627420000,-0.6234675,0.001439393,-0.00022197686,-0.78184795,0.999981,1.1641534e-10,2.9103834e-11,0.0061826417,3
627424000,627424000,-0.62346154,0.0014217924,-0.00023237788,-0.78185266,0.999981,1.1641534e-10,2.9103834e-11,0.0061826417,3
627428000,627428000,-0.62344736,0.0014037908,-0.00024586674,-0.78186405,0.999981,1.1641534e-10,2.9103834e-11,0.0061826417,3
627432000,627432000,-0.6234306,0.0014004265,-0.00025808896,-0.7818774,0.999981,1.1641534e-10,2.9103834e-11,0.0061826417,3
627436000,627436000,-0.6234264,0.0014150322,-0.00026143668,-0.7818808,0.999981,1.1641534e-10,2.9103834e-11,0.0061826417,3
627444000,627444000,-0.6234698,0.0014774849,-0.00022979752,-0.78184605,0.999981,1.1641534e-10,2.9103834e-11,0.0061826417,3
627448000,627448000,-0.6234847,0.0015003263,-0.00022194542,-0.7818341,0.999981,1.1641534e-10,2.9103834e-11,0.0061826417,3
627452000,627452000,-0.6234888,0.0014957243,-0.00021265395,-0.78183085,0.999981,1.1641534e-10,2.9103834e-11,0.0061826417,3
627456000,627456000,-0.62348455,0.0014937556,-0.000186405,-0.7818342,0.999981,1.1641534e-10,2.9103834e-11,0.0061826417,3
627460000,627460000,-0.6234733,0.0015034678,-0.00017628387,-0.7818432,0.999981,1.1641534e-10,2.9103834e-11,0.0061826417,3
627464000,627464000,-0.62345576,0.001513216,-0.00019004829,-0.78185713,0.999981,1.1641534e-10,2.9103834e-11,0.0061826417,3
627468000,627468000,-0.62344617,0.0015149076,-0.0002028069,-0.78186476,0.999981,1.1641534e-10,2.9103834e-11,0.0061826417,3
627472000,627472000,-0.6234524,0.0014966142,-0.00019959566,-0.78185993,0.999981,1.1641534e-10,2.9103834e-11,0.0061826417,3
627476000,627476000,-0.6234553,0.0014751629,-0.00019181563,-0.78185755,0.999981,1.1641534e-10,2.9103834e-11,0.0061826417,3
627480000,627480000,-0.62344116,0.0014553899,-0.00019562762,-0.78186893,0.999981,1.1641534e-10,2.9103834e-11,0.0061826417,3
627484000,627484000,-0.623421,0.0014457006,-0.0002047529,-0.78188497,0.999981,1.1641534e-10,2.9103834e-11,0.0061826417,3
627488000,627488000,-0.62341005,0.0014647328,-0.00022654141,-0.7818937,0.999981,1.1641534e-10,2.9103834e-11,0.0061826417,3
627496000,627496000,-0.6234202,0.0015047146,-0.0003035685,-0.7818855,0.999981,1.1641534e-10,2.9103834e-11,0.0061826417,3
627500000,627500000,-0.62342006,0.0015097818,-0.00031553474,-0.7818856,0.999981,1.1641534e-10,2.9103834e-11,0.0061826417,3
627504000,627504000,-0.62343407,0.0015051018,-0.00031492888,-0.7818744,0.999981,1.1641534e-10,2.9103834e-11,0.0061826417,3
627508000,627508000,-0.62346935,0.0015062665,-0.0003155159,-0.7818463,0.999981,1.1641534e-10,2.9103834e-11,0.0061826417,3
627512000,627512000,-0.62349755,0.0015068699,-0.00033133992,-0.7818238,0.999981,1.1641534e-10,2.9103834e-11,0.0061826417,3
627516000,627516000,-0.6235117,0.001489588,-0.00034313783,-0.7818126,0.999981,1.1641534e-10,2.9103834e-11,0.0061826417,3
627520000,627520000,-0.6235274,0.0014576323,-0.00033232901,-0.78180015,0.999981,1.1641534e-10,2.9103834e-11,0.0061826417,3
627524000,627524000,-0.62354857,0.0014281629,-0.00030644584,-0.78178334,0.999981,1.1641534e-10,2.9103834e-11,0.0061826417,3
627528000,627528000,-0.62357014,0.0014060154,-0.00028163253,-0.7817662,0.999981,1.1641534e-10,2.9103834e-11,0.0061826417,3
627532000,627532000,-0.62358046,0.0013799928,-0.00027622204,-0.7817579,0.999981,1.1641534e-10,2.9103834e-11,0.0061826417,3
627540000,627540000,-0.62357503,0.0013561683,-0.000337689,-0.78176224,0.999981,1.1641534e-10,2.9103834e-11,0.0061826417,3
