timestamp,timestamp_sample,q[0],q[1],q[2],q[3],delta_q_reset[0],delta_q_reset[1],delta_q_reset[2],delta_q_reset[3],quat_reset_counter
625256000,625256000,-0.62330574,0.0017349771,-0.00032376198,-0.78197634,0.999981,1.1641534e-10,2.9103834e-11,0.0061826417,3
625260000,625260000,-0.62328535,0.0017304111,-0.00031134405,-0.7819926,0.999981,1.1641534e-10,2.9103834e-11,0.0061826417,3
625268000,625268000,-0.6232603,0.0017466623,-0.00028623833,-0.78201246,0.999981,1.1641534e-10,2.9103834e-11,0.0061826417,3
625276000,625276000,-0.623279,0.0017922282,-0.00021826474,-0.7819975,0.999981,1.1641534e-10,2.9103834e-11,0.0061826417,3
625288000,625288000,-0.6233011,0.0018174745,-0.00022173302,-0.78197974,0.999981,1.1641534e-10,2.9103834e-11,0.0061826417,3
625296000,625296000,-0.6232604,0.0018058567,-0.00025045182,-0.7820122,0.999981,1.1641534e-10,2.9103834e-11,0.0061826417,3
625308000,625308000,-0.6232334,0.001833202,-0.0003556038,-0.78203374,0.999981,1.1641534e-10,2.9103834e-11,0.0061826417,3
625316000,625316000,-0.623243,0.0018699456,-0.00033545238,-0.782026,0.999981,1.1641534e-10,2.9103834e-11,0.0061826417,3
625328000,625328000,-0.62323743,0.0019132441,-0.00032304323,-0.78203034,0.999981,1.1641534e-10,2.9103834e-11,0.0061826417,3
625336000,625336000,-0.6232329,0.0019478,-0.00028339273,-0.7820339,0.999981,1.1641534e-10,2.9103834e-11,0.0061826417,3
625348000,625348000,-0.6232236,0.002018895,-0.00026509588,-0.7820411,0.999981,1.1641534e-10,2.9103834e-11,0.0061826417,3
625356000,625356000,-0.62325144,0.0020839616,-0.00024272251,-0.7820187,0.999981,1.1641534e-10,2.9103834e-11,0.0061826417,3
625368000,625368000,-0.62325716,0.0020935342,-0.00026089058,-0.78201413,0.999981,1.1641534e-10,2.9103834e-11,0.0061826417,3
625376000,625376000,-0.6232351,0.0020584993,-0.0002173306,-0.78203183,0.999981,1.1641534e-10,2.9103834e-11,0.0061826417,3
625388000,625388000,-0.62320995,0.0020006348,-0.00015091979,-0.78205204,0.999981,1.1641534e-10,2.9103834e-11,0.0061826417,3
625396000,625396000,-0.6231771,0.0019902166,-0.00012945328,-0.78207815,0.999981,1.1641534e-10,2.9103834e-11,0.0061826417,3
625408000,625408000,-0.623207,0.0020415077,-0.00010795274,-0.78205436,0.999981,1.1641534e-10,2.9103834e-11,0.0061826417,3
625416000,625416000,-0.623197,0.0020775213,-7.0037015e-05,-0.7820622,0.999981,1.1641534e-10,2.9103834e-11,0.0061826417,3
625428000,625428000,-0.6231602,0.0021204897,-6.4202315e-05,-0.78209144,0.999981,1.1641534e-10,2.9103834e-11,0.0061826417,3
625436000,625436000,-0.6231447,0.0021017652,-4.5299803e-05,-0.7821038,0.999981,1.1641534e-10,2.9103834e-11,0.0061826417,3
625448000,625448000,-0.6231633,0.0020644856,-7.436818e-06,-0.7820891,0.999981,1.1641534e-10,2.9103834e-11,0.0061826417,3
625456000,625456000,-0.623178,0.002059887,-2.8846316e-05,-0.78207743,0.999981,1.1641534e-10,2.9103834e-11,0.0061826417,3
625468000,625468000,-0.62314206,0.002109845,-1.6673735e-05,-0.7821058,0.999981,1.1641534e-10,2.9103834e-11,0.0061826417,3
625476000,625476000,-0.62310064,0.0021186078,-7.785017e-06,-0.7821388,0.999981,1.1641534e-10,2.9103834e-11,0.0061826417,3
625488000,625488000,-0.6231402,0.0021780576,-4.0058735e-06,-0.78210706,0.999981,1.1641534e-10,2.9103834e-11,0.0061826417,3
625496000,625496000,-0.6231542,0.0021866364,2.7881528e-05,-0.78209597,0.999981,1.1641534e-10,2.9103834e-11,0.0061826417,3
625508000,625508000,-0.6231428,0.0022067942,2.9950008e-05,-0.7821051,0.999981,1.1641534e-10,2.9103834e-11,0.0061826417,3
625516000,625516000,-0.6231346,0.0021530432,9.9716184e-05,-0.7821117,0.999981,1.1641534e-10,2.9103834e-11,0.0061826417,3
625528000,625528000,-0.62315327,0.0021424626,0.00015049076,-0.78209674,0.999981,1.1641534e-10,2.9103834e-11,0.0061826417,3
625536000,625536000,-0.6231509,0.0021122177,7.7127654e-05,-0.78209877,0.999981,1.1641534e-10,2.9103834e-11,0.0061826417,3
625548000,625548000,-0.6231117,0.0020821095,7.0763286e-05,-0.7821302,0.999981,1.1641534e-10,2.9103834e-11,0.0061826417,3
625556000,625556000,-0.62313306,0.0020795881,7.159e-05,-0.7821132,0.999981,1.1641534e-10,2.9103834e-11,0.0061826417,3
625568000,625568000,-0.623129,0.0020756957,7.601659e-05,-0.7821164,0.999981,1.1641534e-10,2.9103834e-11,0.0061826417,3
625576000,625576000,-0.6231092,0.0020922811,9.2946e-05,-0.782132,0.999981,1.1641534e-10,2.9103834e-11,0.0061826417,3
625588000,625588000,-0.6230842,0.00209289,-4.5028803e-05,-0.78215206,0.999981,1.1641534e-10,2.9103834e-11,0.0061826417,3
625596000,625596000,-0.62306094,0.0021182979,-0.000115329276,-0.7821705,0.999981,1.1641534e-10,2.9103834e-11,0.0061826417,3
625608000,625608000,-0.62308645,0.0021087967,-0.00017268925,-0.78215027,0.999981,1.1641534e-10,2.9103834e-11,0.0061826417,3
625616000,625616000,-0.62307084,0.0021003832,-0.00018113444,-0.7821627,0.999981,1.1641534e-10,2.9103834e-11,0.0061826417,3
625628000,625628000,-0.6230326,0.0020678632,-0.00013856933,-0.7821931,0.999981,1.1641534e-10,2.9103834e-11,0.0061826417,3
625636000,625636000,-0.6230159,0.0020549977,-0.0001403892,-0.78220654,0.999981,1.1641534e-10,2.9103834e-11,0.0061826417,3
625648000,625648000,-0.6230254,0.0020952108,-0.00015656945,-0.7821989,0.999981,1.1641534e-10,2.9103834e-11,0.0061826417,3
625656000,625656000,-0.6230106,0.002078944,-0.00015645668,-0.78221077,0.999981,1.1641534e-10,2.9103834e-11,0.0061826417,3
625668000,625668000,-0.62303907,0.0020634483,-0.00020568028,-0.782188,0.999981,1.1641534e-10,2.9103834e-11,0.0061826417,3
625676000,625676000,-0.6230149,0.00199997,-0.00023322107,-0.7822074,0.999981,1.1641534e-10,2.9103834e-11,0.0061826417,3
625688000,625688000,-0.623041,0.0020322467,-0.00021477477,-0.7821865,0.999981,1.1641534e-10,2.9103834e-11,0.0061826417,3
625696000,625696000,-0.62305814,0.0020275514,-0.00023510115,-0.78217286,0.999981,1.1641534e-10,2.9103834e-11,0.0061826417,3
625708000,625708000,-0.6230492,0.0020244275,-0.00023467078,-0.78218,0.999981,1.1641534e-10,2.9103834e-11,0.0061826417,3
625716000,625716000,-0.62305796,0.0020435383,-0.00020035487,-0.78217304,0.999981,1.1641534e-10,2.9103834e-11,0.0061826417,3
625728000,625728000,-0.62306845,0.002015494,-0.0001465856,-0.78216463,0.999981,1.1641534e-10,2.9103834e-11,0.0061826417,3
625736000,625736000,-0.6230381,0.0020519816,-0.0001315931,-0.7821887,0.999981,1.1641534e-10,2.9103834e-11,0.0061826417,3
625748000,625748000,-0.6229942,0.0021279936,-8.579701e-05,-0.7822236,0.999981,1.1641534e-10,2.9103834e-11,0.0061826417,3
625756000,625756000,-0.62295413,0.0021554942,-8.8093715e-05,-0.7822554,0.999981,1.1641534e-10,2.9103834e-11,0.0061826417,3
625768000,625768000,-0.6229323,0.0021682256,-0.00010202224,-0.78227276,0.999981,1.1641534e-10,2.9103834e-11,0.0061826417,3
625776000,625776000,-0.62290853,0.0021913664,-3.5353674e-05,-0.78229165,0.999981,1.1641534e-10,2.9103834e-11,0.0061826417,3
625788000,625788000,-0.62285984,0.0021641692,2.424663e-05,-0.7823304,0.999981,1.1641534e-10,2.9103834e-11,0.0061826417,3
625796000,625796000,-0.6228489,0.0021525035,8.618475e-06,-0.78233916,0.999981,1.1641534e-10,2.9103834e-11,0.0061826417,3
625808000,625808000,-0.62285274,0.0021164974,-5.6371846e-05,-0.78233635,0.999981,1.1641534e-10,2.9103834e-11,0.0061826417,3
625816000,625816000,-0.622851,0.0020879647,-7.2600415e-05,-0.7823378,0.999981,1.1641534e-10,2.9103834e-11,0.0061826417,3
625828000,625828000,-0.6228452,0.0021079225,-6.128354e-05,-0.78234243,0.999981,1.1641534e-10,2.9103834e-11,0.0061826417,3
625836000,625836000,-0.62287307,0.0021038346,-5.438848e-05,-0.7823202,0.999981,1.1641534e-10,2.9103834e-11,0.0061826417,3
625848000,625848000,-0.6229111,0.0020630488,-1.3155036e-05,-0.78229,0.999981,1.1641534e-10,2.9103834e-11,0.0061826417,3
625856000,625856000,-0.62290967,0.0020932117,-2.6724547e-06,-0.78229105,0.999981,1.1641534e-10,2.9103834e-11,0.0061826417,3
625868000,625868000,-0.62295127,0.0020575563,-8.025322e-06,-0.78225803,0.999981,1.1641534e-10,2.9103834e-11,0.0061826417,3
625876000,625876000,-0.6229492,0.0020169371,-7.100809e-05,-0.78225976,0.999981,1.1641534e-10,2.9103834e-11,0.0061826417,3
625888000,625888000,-0.6230171,0.001977983,-0.000102634665,-0.7822057,0.999981,1.1641534e-10,2.9103834e-11,0.0061826417,3
625896000,625896000,-0.6230112,0.0018971971,-5.4429267e-05,-0.7822106,0.999981,1.1641534e-10,2.9103834e-11,0.0061826417,3
625908000,625908000,-0.6229299,0.0018891392,-8.346551e-05,-0.7822754,0.999981,1.1641534e-10,2.9103834e-11,0.0061826417,3
625916000,625916000,-0.6229191,0.0018753149,-0.000110186535,-0.782284,0.999981,1.1641534e-10,2.9103834e-11,0.0061826417,3
625928000,625928000,-0.6229381,0.0018310813,-0.00013577152,-0.782269,0.999981,1.1641534e-10,2.9103834e-11,0.0061826417,3
625936000,625936000,-0.62295,0.0018502533,-0.00012452468,-0.7822595,0.999981,1.1641534e-10,2.9103834e-11,0.0061826417,3
625948000,625948000,-0.6229189,0.0019194441,-0.00010611543,-0.7822841,0.999981,1.1641534e-10,2.9103834e-11,0.0061826417,3
625956000,625956000,-0.6229199,0.0019613241,-0.00010053047,-0.7822832,0.999981,1.1641534e-10,2.9103834e-11,0.0061826417,3
625968000,625968000,-0.6229332,0.0019712728,-0.00010334511,-0.7822726,0.999981,1.1641534e-10,2.9103834e-11,0.0061826417,3
625976000,625976000,-0.6229264,0.0019828705,-0.00010413205,-0.782278,0.999981,1.1641534e-10,2.9103834e-11,0.0061826417,3
625988000,625988000,-0.6228985,0.001966735,-9.69755e-05,-0.7823003,0.999981,1.1641534e-10,2.9103834e-11,0.0061826417,3
625996000,625996000,-0.6229241,0.0019865928,-7.699162e-05,-0.78227973,0.999981,1.1641534e-10,2.9103834e-11,0.0061826417,3
626008000,626008000,-0.62299335,0.0019311262,-7.01844e-05,-0.7822248,0.999981,1.1641534e-10,2.9103834e-11,0.0061826417,3
626016000,626016000,-0.62301195,0.0019306182,-3.386442e-05,-0.78221,0.999981,1.1641534e-10,2.9103834e-11,0.0061826417,3
626028000,626028000,-0.62300587,0.0019181251,-8.392075e-05,-0.7822149,0.999981,1.1641534e-10,2.9103834e-11,0.0061826417,3
626036000,626036000,-0.6229872,0.001960357,-0.00012966698,-0.78222966,0.999981,1.1641534e-10,2.9103834e-11,0.0061826417,3
626048000,626048000,-0.62299836,0.001991086,-0.00014257128,-0.78222066,0.999981,1.1641534e-10,2.9103834e-11,0.0061826417,3
626056000,626056000,-0.62301636,0.0020031326,-0.00017569223,-0.78220624,0.999981,1.1641534e-10,2.9103834e-11,0.0061826417,3
626068000,626068000,-0.6230411,0.0019691945,-0.00021933076,-0.7821866,0.999981,1.1641534e-10,2.9103834e-11,0.0061826417,3
626076000,626076000,-0.62302434,0.0019244173,-0.00019564708,-0.7822001,0.999981,1.1641534e-10,2.9103834e-11,0.0061826417,3
626088000,626088000,-0.622989,0.001924233,-0.00018246003,-0.7822283,0.999981,1.1641534e-10,2.9103834e-11,0.0061826417,3
626096000,626096000,-0.6229852,0.0019749468,-0.00018501145,-0.78223115,0.999981,1.1641534e-10,2.9103834e-11,0.0061826417,3
626108000,626108000,-0.6229437,0.0019494705,-0.00015907832,-0.7822642,0.999981,1.1641534e-10,2.9103834e-11,0.0061826417,3
626116000,626116000,-0.62297267,0.0019432511,-0.00021078128,-0.78224117,0.999981,1.1641534e-10,2.9103834e-11,0.0061826417,3
626128000,626128000,-0.6229793,0.0019496072,-0.00023449685,-0.7822359,0.999981,1.1641534e-10,2.9103834e-11,0.0061826417,3
626136000,626136000,-0.62301064,0.0019391653,-0.00019494571,-0.78221095,0.999981,1.1641534e-10,2.9103834e-11,0.0061826417,3
626148000,626148000,-0.62303585,0.0018895806,-0.00016241477,-0.7821909,0.999981,1.1641534e-10,2.9103834e-11,0.0061826417,3
626156000,626156000,-0.6230149,0.001803282,-0.00016603395,-0.78220785,0.999981,1.1641534e-10,2.9103834e-11,0.0061826417,3
626168000,626168000,-0.6229704,0.0017279546,-0.00019414537,-0.7822435,0.999981,1.1641534e-10,2.9103834e-11,0.0061826417,3
626176000,626176000,-0.62296194,0.0016795902,-0.00019454326,-0.78225034,0.999981,1.1641534e-10,2.9103834e-11,0.0061826417,3
626188000,626188000,-0.6229607,0.0016669547,-0.0001694747,-0.7822514,0.999981,1.1641534e-10,2.9103834e-11,0.0061826417,3
626196000,626196000,-0.6229478,0.0016856575,-0.00010193733,-0.7822616,0.999981,1.1641534e-10,2.9103834e-11,0.0061826417,3
626208000,626208000,-0.62290746,0.0016542017,-0.00012717636,-0.7822938,0.999981,1.1641534e-10,2.9103834e-11,0.0061826417,3
626216000,626216000,-0.62297136,0.0016019449,-0.0001614535,-0.782243,0.999981,1.1641534e-10,2.9103834e-11,0.0061826417,3
626228000,626228000,-0.6229753,0.001513712,-0.00017580086,-0.7822401,0.999981,1.1641534e-10,2.9103834e-11,0.0061826417,3
626236000,626236000,-0.62292564,0.0015751744,-0.00017947453,-0.7822795,0.999981,1.1641534e-10,2.9103834e-11,0.0061826417,3
626248000,626248000,-0.62289006,0.0016069012,-0.0001672189,-0.7823078,0.999981,1.1641534e-10,2.9103834e-11,0.0061826417,3
626256000,626256000,-0.62287587,0.001603702,-0.00018447949,-0.7823191,0.999981,1.1641534e-10,2.9103834e-11,0.0061826417,3
626268000,626268000,-0.62281597,0.0016705137,-0.00015642261,-0.78236663,0.999981,1.1641534e-10,2.9103834e-11,0.0061826417,3
626276000,626276000,-0.62284863,0.0017015905,-0.00015793338,-0.7823406,0.999981,1.1641534e-10,2.9103834e-11,0.0061826417,3
626288000,626288000,-0.62288463,0.0016935879,-0.00025789771,-0.78231186,0.999981,1.1641534e-10,2.9103834e-11,0.0061826417,3
626296000,626296000,-0.62289786,0.0016521628,-0.0003111723,-0.7823014,0.999981,1.1641534e-10,2.9103834e-11,0.0061826417,3
626308000,626308000,-0.6229418,0.0016482502,-0.000322189,-0.78226644,0.999981,1.1641534e-10,2.9103834e-11,0.0061826417,3
626316000,626316000,-0.6229354,0.0016463377,-0.00034552938,-0.7822715,0.999981,1.1641534e-10,2.9103834e-11,0.0061826417,3
626328000,626328000,-0.62293446,0.0016484658,-0.00037553094,-0.7822722,0.999981,1.1641534e-10,2.9103834e-11,0.0061826417,3
626336000,626336000,-0.6229536,0.0016598612,-0.0004317089,-0.78225696,0.999981,1.1641534e-10,2.9103834e-11,0.0061826417,3
626348000,626348000,-0.6229075,0.0016313728,-0.00041825706,-0.7822937,0.999981,1.1641534e-10,2.9103834e-11,0.0061826417,3
626356000,626356000,-0.6228867,0.0016604797,-0.00041299645,-0.78231025,0.999981,1.1641534e-10,2.9103834e-11,0.0061826417,3
626368000,626368000,-0.6228633,0.0016329141,-0.00042656693,-0.7823289,0.999981,1.1641534e-10,2.9103834e-11,0.0061826417,3
626376000,626376000,-0.62286806,0.0015603831,-0.00042663628,-0.78232527,0.999981,1.1641534e-10,2.9103834e-11,0.0061826417,3
626388000,626388000,-0.622848,0.0015572262,-0.00034026004,-0.78234124,0.999981,1.1641534e-10,2.9103834e-11,0.0061826417,3
626396000,626396000,-0.62286055,0.0015844548,-0.0002868426,-0.78233117,0.999981,1.1641534e-10,2.9103834e-11,0.0061826417,3
626408000,626408000,-0.62290233,0.0016432636,-0.0003277722,-0.7822978,0.999981,1.1641534e-10,2.9103834e-11,0.0061826417,3
626416000,626416000,-0.622907,0.0016565275,-0.0003809061,-0.78229415,0.999981,1.1641534e-10,2.9103834e-11,0.0061826417,3
626428000,626428000,-0.6229438,0.001444794,-0.00026093752,-0.78226525,0.999981,1.1641534e-10,2.9103834e-11,0.0061826417,3
626436000,626436000,-0.62297267,0.0014296534,-0.00027101263,-0.7822423,0.999981,1.1641534e-10,2.9103834e-11,0.0061826417,3
626448000,626448000,-0.6229718,0.0014201249,-0.00036163884,-0.782243,0.999981,1.1641534e-10,2.9103834e-11,0.0061826417,3
626456000,626456000,-0.62296546,0.0014110408,-0.00036763615,-0.782248,0.999981,1.1641534e-10,2.9103834e-11,0.0061826417,3
626468000,626468000,-0.6229416,0.0013802464,-0.00025669753,-0.78226715,0.999981,1.1641534e-10,2.9103834e-11,0.0061826417,3
626476000,626476000,-0.62294203,0.001386833,-0.00025668248,-0.7822668,0.999981,1.1641534e-10,2.9103834e-11,0.0061826417,3
626488000,626488000,-0.62298536,0.0013974839,-0.00030043582,-0.7822322,0.999981,1.1641534e-10,2.9103834e-11,0.0061826417,3
626496000,626496000,-0.6230074,0.0013283256,-0.0002543417,-0.78221476,0.999981,1.1641534e-10,2.9103834e-11,0.0061826417,3
626508000,626508000,-0.6230319,0.0012996872,-0.00020547352,-0.7821954,0.999981,1.1641534e-10,2.9103834e-11,0.0061826417,3
626516000,626516000,-0.6230441,0.0012911089,-0.00019531482,-0.7821857,0.999981,1.1641534e-10,2.9103834e-11,0.0061826417,3
626528000,626528000,-0.62303954,0.0013159399,-0.0002400597,-0.78218925,0.999981,1.1641534e-10,2.9103834e-11,0.0061826417,3
626536000,626536000,-0.6229873,0.0013159493,-0.00023543567,-0.78223085,0.999981,1.1641534e-10,2.9103834e-11,0.0061826417,3
626548000,626548000,-0.62293124,0.0012619077,-0.00022280868,-0.7822757,0.999981,1.1641534e-10,2.9103834e-11,0.0061826417,3
626556000,626556000,-0.62288356,0.0012066502,-0.00019522954,-0.7823137,0.999981,1.1641534e-10,2.9103834e-11,0.0061826417,3
626568000,626568000,-0.62283957,0.0011718221,-0.00017471002,-0.7823487,0.999981,1.1641534e-10,2.9103834e-11,0.0061826417,3
626576000,626576000,-0.62282735,0.0011707193,-0.00013977624,-0.78235847,0.999981,1.1641534e-10,2.9103834e-11,0.0061826417,3
626588000,626588000,-0.62285644,0.0011506663,-0.00016818882,-0.78233534,0.999981,1.1641534e-10,2.9103834e-11,0.0061826417,3
626596000,626596000,-0.6228539,0.0011654077,-0.0001450302,-0.7823373,0.999981,1.1641534e-10,2.9103834e-11,0.0061826417,3
626608000,626608000,-0.6228373,0.0011258522,-0.0001441827,-0.7823506,0.999981,1.1641534e-10,2.9103834e-11,0.0061826417,3
626616000,626616000,-0.62288076,0.0010979074,-0.00018146756,-0.782316,0.999981,1.1641534e-10,2.9103834e-11,0.0061826417,3
626628000,626628000,-0.6229206,0.0010936675,-0.00016620365,-0.7822844,0.999981,1.1641534e-10,2.9103834e-11,0.0061826417,3
626636000,626636000,-0.6229359,0.0011213275,-0.00014407722,-0.78227204,0.999981,1.1641534e-10,2.9103834e-11,0.0061826417,3
626648000,626648000,-0.62296975,0.0011079467,-0.00020213902,-0.7822451,0.999981,1.1641534e-10,2.9103834e-11,0.0061826417,3
626656000,626656000,-0.62296045,0.0011029213,-0.00015450799,-0.7822526,0.999981,1.1641534e-10,2.9103834e-11,0.0061826417,3
626668000,626668000,-0.62299687,0.00105625,-0.00010823835,-0.7822237,0.999981,1.1641534e-10,2.9103834e-11,0.0061826417,3
626676000,626676000,-0.62305623,0.0010903759,-8.0669386e-05,-0.78217626,0.999981,1.1641534e-10,2.9103834e-11,0.0061826417,3
626688000,626688000,-0.623064,0.0011036147,-0.00010718223,-0.78217006,0.999981,1.1641534e-10,2.9103834e-11,0.0061826417,3
626696000,626696000,-0.62305725,0.0010963725,-0.0001521917,-0.7821754,0.999981,1.1641534e-10,2.9103834e-11,0.0061826417,3
626708000,626708000,-0.6230658,0.0011149383,-0.000113982314,-0.78216857,0.999981,1.1641534e-10,2.9103834e-11,0.0061826417,3
626716000,626716000,-0.6230162,0.0011286612,-8.235018e-05,-0.78220814,0.999981,1.1641534e-10,2.9103834e-11,0.0061826417,3
626728000,626728000,-0.6230114,0.0012311994,-9.182052e-05,-0.7822117,0.999981,1.1641534e-10,2.9103834e-11,0.0061826417,3
626736000,626736000,-0.62302136,0.0012468824,-0.00012010598,-0.7822039,0.999981,1.1641534e-10,2.9103834e-11,0.0061826417,3
626748000,626748000,-0.6230796,0.0012772434,-0.00012015383,-0.7821575,0.999981,1.1641534e-10,2.9103834e-11,0.0061826417,3
626756000,626756000,-0.6231166,0.0012751651,-0.00017159469,-0.782128,0.999981,1.1641534e-10,2.9103834e-11,0.0061826417,3
626768000,626768000,-0.623125,0.0011924935,-0.00017347268,-0.7821214,0.999981,1.1641534e-10,2.9103834e-11,0.0061826417,3
626776000,626776000,-0.62314796,0.0012047617,-0.00013084643,-0.78210306,0.999981,1.1641534e-10,2.9103834e-11,0.0061826417,3
626788000,626788000,-0.6231694,0.0011647802,-0.00019536383,-0.782086,0.999981,1.1641534e-10,2.9103834e-11,0.0061826417,3
626796000,626796000,-0.6231287,0.001123803,-0.00016754193,-0.78211856,0.999981,1.1641534e-10,2.9103834e-11,0.0061826417,3
626808000,626808000,-0.62312806,0.0010947781,-0.00014402001,-0.7821191,0.999981,1.1641534e-10,2.9103834e-11,0.0061826417,3
626816000,626816000,-0.62313944,0.0010603,-0.00017638874,-0.78211004,0.999981,1.1641534e-10,2.9103834e-11,0.0061826417,3
626828000,626828000,-0.62313604,0.0010835208,-0.00022982106,-0.7821127,0.999981,1.1641534e-10,2.9103834e-11,0.0061826417,3
626836000,626836000,-0.623103,0.0010838741,-0.00019117152,-0.782139,0.999981,1.1641534e-10,2.9103834e-11,0.0061826417,3
626848000,626848000,-0.6231096,0.0011615743,-0.00019380335,-0.78213376,0.999981,1.1641534e-10,2.9103834e-11,0.0061826417,3
626856000,626856000,-0.6231493,0.0011550648,-0.00022370071,-0.78210217,0.999981,1.1641534e-10,2.9103834e-11,0.0061826417,3
626868000,626868000,-0.6232322,0.0011208118,-0.00023772966,-0.7820361,0.999981,1.1641534e-10,2.9103834e-11,0.0061826417,3
626876000,626876000,-0.623246,0.0011202295,-0.00026963252,-0.782025,0.999981,1.1641534e-10,2.9103834e-11,0.0061826417,3
626888000,626888000,-0.6233239,0.0011402115,-0.00030708272,-0.7819629,0.999981,1.1641534e-10,2.9103834e-11,0.0061826417,3
626896000,626896000,-0.62334657,0.0011661113,-0.00034165592,-0.78194475,0.999981,1.1641534e-10,2.9103834e-11,0.0061826417,3
626908000,626908000,-0.6233184,0.0011530934,-0.0002924201,-0.7819672,0.999981,1.1641534e-10,2.9103834e-11,0.0061826417,3
626916000,626916000,-0.62336403,0.0012205038,-0.00029278387,-0.78193074,0.999981,1.1641534e-10,2.9103834e-11,0.0061826417,3
626928000,626928000,-0.6234195,0.0012930591,-0.00022322561,-0.7818864,0.999981,1.1641534e-10,2.9103834e-11,0.0061826417,3
626936000,626936000,-0.6234694,0.0013213125,-0.0002291268,-0.7818466,0.999981,1.1641534e-10,2.9103834e-11,0.0061826417,3
626948000,626948000,-0.6234647,0.0013821648,-0.00022048199,-0.7818502,0.999981,1.1641534e-10,2.9103834e-11,0.0061826417,3
626956000,626956000,-0.62345886,0.0013729553,-0.00020681124,-0.7818549,0.999981,1.1641534e-10,2.9103834e-11,0.0061826417,3
626968000,626968000,-0.62341803,0.0013310856,-0.0001980443,-0.78188765,0.999981,1.1641534e-10,2.9103834e-11,0.0061826417,3
626976000,626976000,-0.6233929,0.0013086475,-0.00012752206,-0.7819076,0.999981,1.1641534e-10,2.9103834e-11,0.0061826417,3
626988000,626988000,-0.62344575,0.0012791181,-0.00013233388,-0.78186554,0.999981,1.1641534e-10,2.9103834e-11,0.0061826417,3
626996000,626996000,-0.6234696,0.0013029901,-0.0001720636,-0.78184646,0.999981,1.1641534e-10,2.9103834e-11,0.0061826417,3
627008000,627008000,-0.62348217,0.0013448312,-0.00024120977,-0.7818364,0.999981,1.1641534e-10,2.9103834e-11,0.0061826417,3
627016000,627016000,-0.6234877,0.0013501784,-0.0002708729,-0.781832,0.999981,1.1641534e-10,2.9103834e-11,0.0061826417,3
627028000,627028000,-0.6234328,0.0013174802,-0.00025331308,-0.7818758,0.999981,1.1641534e-10,2.9103834e-11,0.0061826417,3
627036000,627036000,-0.6234468,0.0013080374,-0.00027239588,-0.78186464,0.999981,1.1641534e-10,2.9103834e-11,0.0061826417,3
627048000,627048000,-0.6234606,0.0012455941,-0.0003029488,-0.78185374,0.999981,1.1641534e-10,2.9103834e-11,0.0061826417,3
627056000,627056000,-0.6234826,0.0012667775,-0.00034911593,-0.7818362,0.999981,1.1641534e-10,2.9103834e-11,0.0061826417,3
627068000,627068000,-0.6234622,0.0012861018,-0.00043061058,-0.7818524,0.999981,1.1641534e-10,2.9103834e-11,0.0061826417,3
627076000,627076000,-0.62350005,0.001331314,-0.00043381148,-0.78182214,0.999981,1.1641534e-10,2.9103834e-11,0.0061826417,3
627088000,627088000,-0.6235516,0.0012936445,-0.0003850865,-0.7817811,0.999981,1.1641534e-10,2.9103834e-11,0.0061826417,3
627096000,627096000,-0.6235699,0.0013444726,-0.00039407684,-0.78176636,0.999981,1.1641534e-10,2.9103834e-11,0.0061826417,3
627108000,627108000,-0.6235575,0.0013127861,-0.00036780714,-0.78177637,0.999981,1.1641534e-10,2.9103834e-11,0.0061826417,3
627116000,627116000,-0.6235005,0.0012902778,-0.00039193957,-0.7818218,0.999981,1.1641534e-10,2.9103834e-11,0.0061826417,3
627128000,627128000,-0.6235029,0.0013171695,-0.00040070826,-0.7818198,0.999981,1.1641534e-10,2.9103834e-11,0.0061826417,3
627136000,627136000,-0.62350816,0.0013676664,-0.00036913384,-0.7818156,0.999981,1.1641534e-10,2.9103834e-11,0.0061826417,3
627148000,627148000,-0.62351096,0.0013588645,-0.00033637672,-0.7818133,0.999981,1.1641534e-10,2.9103834e-11,0.0061826417,3
627156000,627156000,-0.6235051,0.001396741,-0.00035394332,-0.781818,0.999981,1.1641534e-10,2.9103834e-11,0.0061826417,3
627168000,627168000,-0.6234622,0.00138579,-0.00036577784,-0.7818523,0.999981,1.1641534e-10,2.9103834e-11,0.0061826417,3
627176000,627176000,-0.6234867,0.0014118168,-0.0003281009,-0.7818327,0.999981,1.1641534e-10,2.9103834e-11,0.0061826417,3
627188000,627188000,-0.6234993,0.001405419,-0.0003290134,-0.7818227,0.999981,1.1641534e-10,2.9103834e-11,0.0061826417,3
627196000,627196000,-0.62345725,0.0014246181,-0.00032474526,-0.78185606,0.999981,1.1641534e-10,2.9103834e-11,0.0061826417,3
627208000,627208000,-0.62339216,0.0014010911,-0.00028400272,-0.7819081,0.999981,1.1641534e-10,2.9103834e-11,0.0061826417,3
627216000,627216000,-0.62339365,0.0013835451,-0.00024886825,-0.78190696,0.999981,1.1641534e-10,2.9103834e-11,0.0061826417,3
627228000,627228000,-0.6233943,0.0013759746,-0.00027192573,-0.7819063,0.999981,1.1641534e-10,2.9103834e-11,0.0061826417,3
627236000,627236000,-0.6233542,0.0013596849,-0.0002586421,-0.7819385,0.999981,1.1641534e-10,2.9103834e-11,0.0061826417,3
627248000,627248000,-0.62330747,0.0013273463,-0.00021771892,-0.7819758,0.999981,1.1641534e-10,2.9103834e-11,0.0061826417,3
627256000,627256000,-0.6232698,0.00133183,-0.00020050583,-0.7820058,0.999981,1.1641534e-10,2.9103834e-11,0.0061826417,3
627268000,627268000,-0.6232701,0.0012927281,-0.00019282856,-0.78200555,0.999981,1.1641534e-10,2.9103834e-11,0.0061826417,3
627276000,627276000,-0.6232768,0.0013123485,-0.00017798584,-0.7820002,0.999981,1.1641534e-10,2.9103834e-11,0.0061826417,3
627288000,627288000,-0.6233129,0.001317157,-0.00025623155,-0.78197145,0.999981,1.1641534e-10,2.9103834e-11,0.0061826417,3
627296000,627296000,-0.62331384,0.001314465,-0.0002617107,-0.78197074,0.999981,1.1641534e-10,2.9103834e-11,0.0061826417,3
627308000,627308000,-0.6232865,0.0012899905,-0.00023152423,-0.78199244,0.999981,1.1641534e-10,2.9103834e-11,0.0061826417,3
627316000,627316000,-0.62331665,0.0013139833,-0.0002547701,-0.7819685,0.999981,1.1641534e-10,2.9103834e-11,0.0061826417,3
627328000,627328000,-0.62332225,0.0013231947,-0.00024382204,-0.781964,0.999981,1.1641534e-10,2.9103834e-11,0.0061826417,3
627336000,627336000,-0.62334156,0.0013143527,-0.0002211254,-0.7819486,0.999981,1.1641534e-10,2.9103834e-11,0.0061826417,3
627348000,627348000,-0.62337625,0.0013379282,-0.00026647575,-0.78192097,0.999981,1.1641534e-10,2.9103834e-11,0.0061826417,3
627356000,627356000,-0.62339956,0.0013721315,-0.0002521692,-0.7819023,0.999981,1.1641534e-10,2.9103834e-11,0.0061826417,3
627368000,627368000,-0.62342405,0.0013999845,-0.0001537734,-0.7818827,0.999981,1.1641534e-10,2.9103834e-11,0.0061826417,3
627376000,627376000,-0.62340826,0.0014111303,-0.00012658999,-0.7818953,0.999981,1.1641534e-10,2.9103834e-11,0.0061826417,3
627388000,627388000,-0.6234171,0.001409358,-0.00013803797,-0.7818881,0.999981,1.1641534e-10,2.9103834e-11,0.0061826417,3
627396000,627396000,-0.6234381,0.0014191335,-0.00019543593,-0.7818715,0.999981,1.1641534e-10,2.9103834e-11,0.0061826417,3
627408000,627408000,-0.62347454,0.0013995713,-0.00020273986,-0.78184247,0.999981,1.1641534e-10,2.9103834e-11,0.0061826417,3
627416000,627416000,-0.6234689,0.0014358705,-0.0002158598,-0.7818469,0.999981,1.1641534e-10,2.9103834e-11,0.0061826417,3
627428000,627428000,-0.62344736,0.0014037908,-0.00024586674,-0.78186405,0.999981,1.1641534e-10,2.9103834e-11,0.0061826417,3
627436000,627436000,-0.6234264,0.0014150322,-0.00026143668,-0.7818808,0.999981,1.1641534e-10,2.9103834e-11,0.0061826417,3
627448000,627448000,-0.6234847,0.0015003263,-0.00022194542,-0.7818341,0.999981,1.1641534e-10,2.9103834e-11,0.0061826417,3
627456000,627456000,-0.62348455,0.0014937556,-0.000186405,-0.7818342,0.999981,1.1641534e-10,2.9103834e-11,0.0061826417,3
627468000,627468000,-0.62344617,0.0015149076,-0.0002028069,-0.78186476,0.999981,1.1641534e-10,2.9103834e-11,0.0061826417,3
627476000,627476000,-0.6234553,0.0014751629,-0.00019181563,-0.78185755,0.999981,1.1641534e-10,2.9103834e-11,0.0061826417,3
627488000,627488000,-0.62341005,0.0014647328,-0.00022654141,-0.7818937,0.999981,1.1641534e-10,2.9103834e-11,0.0061826417,3
627496000,627496000,-0.6234202,0.0015047146,-0.0003035685,-0.7818855,0.999981,1.1641534e-10,2.9103834e-11,0.0061826417,3
627508000,627508000,-0.62346935,0.0015062665,-0.0003155159,-0.7818463,0.999981,1.1641534e-10,2.9103834e-11,0.0061826417,3
627516000,627516000,-0.6235117,0.001489588,-0.00034313783,-0.7818126,0.999981,1.1641534e-10,2.9103834e-11,0.0061826417,3
627528000,627528000,-0.62357014,0.0014060154,-0.00028163253,-0.7817662,0.999981,1.1641534e-10,2.9103834e-11,0.0061826417,3
627536000,627536000,-0.6235796,0.0013593292,-0.00029827424,-0.7817586,0.999981,1.1641534e-10,2.9103834e-11,0.0061826417,3
627548000,627548000,-0.6235591,0.0013654897,-0.00035677815,-0.78177494,0.999981,1.1641534e-10,2.9103834e-11,0.0061826417,3
627556000,627556000,-0.62353975,0.001331728,-0.00030946426,-0.7817904,0.999981,1.1641534e-10,2.9103834e-11,0.0061826417,3
627568000,627568000,-0.6234902,0.001300797,-0.00033085796,-0.78183,0.999981,1.1641534e-10,2.9103834e-11,0.0061826417,3
627576000,627576000,-0.623465,0.0013203386,-0.00035257812,-0.7818501,0.999981,1.1641534e-10,2.9103834e-11,0.0061826417,3
627588000,627588000,-0.6234926,0.0013625071,-0.00039932126,-0.78182805,0.999981,1.1641534e-10,2.9103834e-11,0.0061826417,3
627596000,627596000,-0.62346,0.0013766612,-0.00040990216,-0.78185403,0.999981,1.1641534e-10,2.9103834e-11,0.0061826417,3
627608000,627608000,-0.62344867,0.0013012991,-0.0004358329,-0.78186315,0.999981,1.1641534e-10,2.9103834e-11,0.0061826417,3
627616000,627616000,-0.623437,0.0012721256,-0.00042130807,-0.7818726,0.999981,1.1641534e-10,2.9103834e-11,0.0061826417,3
627628000,627628000,-0.6234133,0.0012844277,-0.00040381995,-0.7818914,0.999981,1.1641534e-10,2.9103834e-11,0.0061826417,3
627636000,627636000,-0.62340164,0.0012653803,-0.000385624,-0.7819007,0.999981,1.1641534e-10,2.9103834e-11,0.0061826417,3
627648000,627648000,-0.6234259,0.0013129383,-0.0004178979,-0.78188133,0.999981,1.1641534e-10,2.9103834e-11,0.0061826417,3
627656000,627656000,-0.6233801,0.0013398934,-0.00044459332,-0.78191775,0.999981,1.1641534e-10,2.9103834e-11,0.0061826417,3
627668000,627668000,-0.62333494,0.0012968458,-0.00040948964,-0.7819539,0.999981,1.1641534e-10,2.9103834e-11,0.0061826417,3
627676000,627676000,-0.62330806,0.0012629504,-0.00038691875,-0.7819754,0.999981,1.1641534e-10,2.9103834e-11,0.0061826417,3
627688000,627688000,-0.62326217,0.0012555816,-0.00037544814,-0.7820119,0.999981,1.1641534e-10,2.9103834e-11,0.0061826417,3
627696000,627696000,-0.6232441,0.0012578702,-0.0003374021,-0.78202635,0.999981,1.1641534e-10,2.9103834e-11,0.0061826417,3
627708000,627708000,-0.62321305,0.0012617026,-0.0003307011,-0.78205115,0.999981,1.1641534e-10,2.9103834e-11,0.0061826417,3
627716000,627716000,-0.62325215,0.0012643313,-0.00036226376,-0.7820198,0.999981,1.1641534e-10,2.9103834e-11,0.0061826417,3
627728000,627728000,-0.62327343,0.0012598116,-0.00044549102,-0.782003,0.999981,1.1641534e-10,2.9103834e-11,0.0061826417,3
627736000,627736000,-0.6233023,0.001236487,-0.0004686282,-0.78198,0.999981,1.1641534e-10,2.9103834e-11,0.0061826417,3
627748000,627748000,-0.62329024,0.0012370676,-0.0004728681,-0.7819895,0.999981,1.1641534e-10,2.9103834e-11,0.0061826417,3
627756000,627756000,-0.62334037,0.0012840242,-0.0004300438,-0.7819495,0.999981,1.1641534e-10,2.9103834e-11,0.0061826417,3
627768000,627768000,-0.6233797,0.0012915608,-0.00038793316,-0.78191817,0.999981,1.1641534e-10,2.9103834e-11,0.0061826417,3
627776000,627776000,-0.623362,0.0012851056,-0.00040279093,-0.7819323,0.999981,1.1641534e-10,2.9103834e-11,0.0061826417,3
627788000,627788000,-0.6233819,0.0012337735,-0.00040975813,-0.78191644,0.999981,1.1641534e-10,2.9103834e-11,0.0061826417,3
627796000,627796000,-0.6233705,0.0012278117,-0.00044874704,-0.78192556,0.999981,1.1641534e-10,2.9103834e-11,0.0061826417,3
627808000,627808000,-0.62333703,0.0012627734,-0.00051495765,-0.781952,0.999981,1.1641534e-10,2.9103834e-11,0.0061826417,3
627816000,627816000,-0.6233173,0.001253905,-0.0005413432,-0.7819679,0.999981,1.1641534e-10,2.9103834e-11,0.0061826417,3
627828000,627828000,-0.623249,0.0011870733,-0.0005113615,-0.7820224,0.999981,1.1641534e-10,2.9103834e-11,0.0061826417,3
627836000,627836000,-0.62324715,0.0012024454,-0.00048678706,-0.78202385,0.999981,1.1641534e-10,2.9103834e-11,0.0061826417,3
627848000,627848000,-0.6232628,0.0012145148,-0.00047308407,-0.78201133,0.999981,1.1641534e-10,2.9103834e-11,0.0061826417,3
627856000,627856000,-0.62326133,0.0011956481,-0.0004504252,-0.7820126,0.999981,1.1641534e-10,2.9103834e-11,0.0061826417,3
627868000,627868000,-0.62317926,0.0011917964,-0.00047041028,-0.782078,0.999981,1.1641534e-10,2.9103834e-11,0.0061826417,3
627876000,627876000,-0.62316185,0.0011412941,-0.0004694906,-0.7820919,0.999981,1.1641534e-10,2.9103834e-11,0.0061826417,3
627888000,627888000,-0.62317604,0.0010888187,-0.0004606408,-0.7820807,0.999981,1.1641534e-10,2.9103834e-11,0.0061826417,3
627896000,627896000,-0.6231787,0.0010531102,-0.0004761541,-0.7820787,0.999981,1.1641534e-10,2.9103834e-11,0.0061826417,3
627908000,627908000,-0.62318367,0.0010415321,-0.0005202131,-0.78207463,0.999981,1.1641534e-10,2.9103834e-11,0.0061826417,3
627916000,627916000,-0.6232146,0.0010747992,-0.00052177074,-0.78204995,0.999981,1.1641534e-10,2.9103834e-11,0.0061826417,3
627928000,627928000,-0.6232688,0.0010844257,-0.00048445578,-0.78200674,0.999981,1.1641534e-10,2.9103834e-11,0.0061826417,3
627936000,627936000,-0.6232731,0.0011485679,-0.00049084617,-0.7820032,0.999981,1.1641534e-10,2.9103834e-11,0.0061826417,3
627948000,627948000,-0.6233155,0.0012002764,-0.00047674688,-0.78196937,0.999981,1.1641534e-10,2.9103834e-11,0.0061826417,3
627956000,627956000,-0.6233069,0.0011998875,-0.00043846402,-0.7819764,0.999981,1.1641534e-10,2.9103834e-11,0.0061826417,3
627968000,627968000,-0.6233339,0.0011615044,-0.00041174403,-0.7819549,0.999981,1.1641534e-10,2.9103834e-11,0.0061826417,3
627976000,627976000,-0.6233481,0.0011329333,-0.00041218626,-0.78194356,0.999981,1.1641534e-10,2.9103834e-11,0.0061826417,3
627988000,627988000,-0.6233834,0.0012058041,-0.00048425447,-0.7819152,0.999981,1.1641534e-10,2.9103834e-11,0.0061826417,3
627996000,627996000,-0.6233806,0.0012384681,-0.00048648138,-0.78191745,0.999981,1.1641534e-10,2.9103834e-11,0.0061826417,3
628008000,628008000,-0.62338763,0.0013202146,-0.0005397137,-0.7819117,0.999981,1.1641534e-10,2.9103834e-11,0.0061826417,3
628016000,628016000,-0.62334776,0.0013411231,-0.00053191424,-0.7819435,0.999981,1.1641534e-10,2.9103834e-11,0.0061826417,3
628028000,628028000,-0.62333286,0.0013615141,-0.0004917368,-0.78195536,0.999981,1.1641534e-10,2.9103834e-11,0.0061826417,3
628036000,628036000,-0.62330776,0.0013481823,-0.00048164334,-0.7819753,0.999981,1.1641534e-10,2.9103834e-11,0.0061826417,3
628048000,628048000,-0.6233386,0.0013599512,-0.0004786969,-0.7819507,0.999981,1.1641534e-10,2.9103834e-11,0.0061826417,3
628056000,628056000,-0.6233332,0.001346125,-0.0004572208,-0.781955,0.999981,1.1641534e-10,2.9103834e-11,0.0061826417,3
628068000,628068000,-0.6233381,0.0013047564,-0.00046367323,-0.7819513,0.999981,1.1641534e-10,2.9103834e-11,0.0061826417,3
628076000,628076000,-0.6233255,0.0013062602,-0.0005007104,-0.7819612,0.999981,1.1641534e-10,2.9103834e-11,0.0061826417,3
628088000,628088000,-0.62333316,0.0012648226,-0.0005063696,-0.7819553,0.999981,1.1641534e-10,2.9103834e-11,0.0061826417,3
628096000,628096000,-0.6233426,0.0013308049,-0.000536825,-0.7819477,0.999981,1.1641534e-10,2.9103834e-11,0.0061826417,3
628108000,628108000,-0.62339866,0.0013864723,-0.00053253846,-0.78190285,0.999981,1.1641534e-10,2.9103834e-11,0.0061826417,3
628116000,628116000,-0.62342,0.0013983214,-0.0005163761,-0.7818857,0.999981,1.1641534e-10,2.9103834e-11,0.0061826417,3
628128000,628128000,-0.6234195,0.0013884112,-0.00046194103,-0.7818862,0.999981,1.1641534e-10,2.9103834e-11,0.0061826417,3
628136000,628136000,-0.6234489,0.0013637793,-0.00041119798,-0.78186285,0.999981,1.1641534e-10,2.9103834e-11,0.0061826417,3
628148000,628148000,-0.6234722,0.0013655534,-0.000365987,-0.7818442,0.999981,1.1641534e-10,2.9103834e-11,0.0061826417,3
628156000,628156000,-0.6235151,0.0013763702,-0.00031689298,-0.78181,0.999981,1.1641534e-10,2.9103834e-11,0.0061826417,3
628168000,628168000,-0.62352836,0.0013612818,-0.00034066118,-0.7817995,0.999981,1.1641534e-10,2.9103834e-11,0.0061826417,3
628176000,628176000,-0.62354714,0.0013235467,-0.00036869524,-0.7817846,0.999981,1.1641534e-10,2.9103834e-11,0.0061826417,3
628188000,628188000,-0.6235435,0.0012312686,-0.0003056333,-0.7817877,0.999981,1.1641534e-10,2.9103834e-11,0.0061826417,3
628196000,628196000,-0.6235127,0.0012239123,-0.00031361345,-0.7818123,0.999981,1.1641534e-10,2.9103834e-11,0.0061826417,3
628208000,628208000,-0.62351096,0.0012303906,-0.00036597086,-0.7818136,0.999981,1.1641534e-10,2.9103834e-11,0.0061826417,3
628216000,628216000,-0.62353384,0.0012351958,-0.00038004763,-0.7817953,0.999981,1.1641534e-10,2.9103834e-11,0.0061826417,3
628228000,628228000,-0.6234837,0.0011986257,-0.000406195,-0.78183544,0.999981,1.1641534e-10,2.9103834e-11,0.0061826417,3
628236000,628236000,-0.62346107,0.0012365726,-0.00036086075,-0.7818535,0.999981,1.1641534e-10,2.9103834e-11,0.0061826417,3
628248000,628248000,-0.62346935,0.0012235424,-0.00030880724,-0.78184676,0.999981,1.1641534e-10,2.9103834e-11,0.0061826417,3
628256000,628256000,-0.6234487,0.001252365,-0.00028948477,-0.78186315,0.999981,1.1641534e-10,2.9103834e-11,0.0061826417,3
628268000,628268000,-0.62340647,0.0012493107,-0.0002848562,-0.78189695,0.999981,1.1641534e-10,2.9103834e-11,0.0061826417,3
628276000,628276000,-0.62340605,0.0011716515,-0.00026838604,-0.7818973,0.999981,1.1641534e-10,2.9103834e-11,0.0061826417,3
628288000,628288000,-0.6233777,0.0011983134,-0.0002675449,-0.78191996,0.999981,1.1641534e-10,2.9103834e-11,0.0061826417,3
628296000,628296000,-0.6233476,0.0012257781,-0.00030556467,-0.78194386,0.999981,1.1641534e-10,2.9103834e-11,0.0061826417,3
628308000,628308000,-0.62335175,0.001163627,-0.0003999345,-0.7819407,0.999981,1.1641534e-10,2.9103834e-11,0.0061826417,3
628316000,628316000,-0.6233195,0.0011204846,-0.00041292308,-0.7819663,0.999981,1.1641534e-10,2.9103834e-11,0.0061826417,3
628328000,628328000,-0.62328637,0.0011252426,-0.00043457194,-0.78199273,0.999981,1.1641534e-10,2.9103834e-11,0.0061826417,3
628336000,628336000,-0.6232818,0.0011255847,-0.00039217932,-0.78199637,0.999981,1.1641534e-10,2.9103834e-11,0.0061826417,3
628348000,628348000,-0.6232329,0.001186032,-0.00033550727,-0.78203535,0.999981,1.1641534e-10,2.9103834e-11,0.0061826417,3
628356000,628356000,-0.6232066,0.0011920455,-0.00031939533,-0.78205633,0.999981,1.1641534e-10,2.9103834e-11,0.0061826417,3
628368000,628368000,-0.6231806,0.0011959168,-0.00034144873,-0.78207695,0.999981,1.1641534e-10,2.9103834e-11,0.0061826417,3
628376000,628376000,-0.6231751,0.0011383917,-0.0002991171,-0.7820815,0.999981,1.1641534e-10,2.9103834e-11,0.0061826417,3
628388000,628388000,-0.6231521,0.0011064257,-0.0003251879,-0.78209996,0.999981,1.1641534e-10,2.9103834e-11,0.0061826417,3
628396000,628396000,-0.62317604,0.001116336,-0.00032217184,-0.7820807,0.999981,1.1641534e-10,2.9103834e-11,0.0061826417,3
628408000,628408000,-0.6231324,0.0011530833,-0.00040567212,-0.7821154,0.999981,1.1641534e-10,2.9103834e-11,0.0061826417,3
628416000,628416000,-0.6231247,0.0011189893,-0.0003852993,-0.7821217,0.999981,1.1641534e-10,2.9103834e-11,0.0061826417,3
628428000,628428000,-0.62310255,0.0010850517,-0.00041315999,-0.78213936,0.999981,1.1641534e-10,2.9103834e-11,0.0061826417,3
628436000,628436000,-0.623088,0.0010634254,-0.00040912486,-0.7821509,0.999981,1.1641534e-10,2.9103834e-11,0.0061826417,3
628448000,628448000,-0.62309664,0.0010489709,-0.00045102087,-0.782144,0.999981,1.1641534e-10,2.9103834e-11,0.0061826417,3
628456000,628456000,-0.6230917,0.0010460421,-0.00049790967,-0.782148,0.999981,1.1641534e-10,2.9103834e-11,0.0061826417,3
628468000,628468000,-0.6230911,0.0010690999,-0.0005526112,-0.78214836,0.999981,1.1641534e-10,2.9103834e-11,0.0061826417,3
628476000,628476000,-0.62307966,0.0010743134,-0.00062094076,-0.7821575,0.999981,1.1641534e-10,2.9103834e-11,0.0061826417,3
628488000,628488000,-0.6230982,0.0011327737,-0.0006295285,-0.7821426,0.999981,1.1641534e-10,2.9103834e-11,0.0061826417,3
628496000,628496000,-0.6231026,0.0011666273,-0.0006089258,-0.782139,0.999981,1.1641534e-10,2.9103834e-11,0.0061826417,3
628508000,628508000,-0.62307245,0.0011889109,-0.0006193863,-0.7821631,0.999981,1.1641534e-10,2.9103834e-11,0.0061826417,3
628516000,628516000,-0.6230369,0.0012049854,-0.00065277366,-0.7821913,0.999981,1.1641534e-10,2.9103834e-11,0.0061826417,3
628528000,628528000,-0.62300104,0.0012356781,-0.0006535632,-0.7822198,0.999981,1.1641534e-10,2.9103834e-11,0.0061826417,3
628536000,628536000,-0.62303513,0.0012239498,-0.0006782424,-0.7821927,0.999981,1.1641534e-10,2.9103834e-11,0.0061826417,3
628548000,628548000,-0.62305325,0.0011760182,-0.0006734457,-0.7821783,0.999981,1.1641534e-10,2.9103834e-11,0.0061826417,3
628556000,628556000,-0.6230317,0.0011114844,-0.000680679,-0.78219557,0.999981,1.1641534e-10,2.9103834e-11,0.0061826417,3
628568000,628568000,-0.62302655,0.0010760766,-0.00069609727,-0.7821997,0.999981,1.1641534e-10,2.9103834e-11,0.0061826417,3
628576000,628576000,-0.623012,0.0010406771,-0.00070267124,-0.78221124,0.999981,1.1641534e-10,2.9103834e-11,0.0061826417,3
628588000,628588000,-0.6230537,0.0009318197,-0.00074793893,-0.7821782,0.999981,1.1641534e-10,2.9103834e-11,0.0061826417,3
628596000,628596000,-0.623073,0.00088237604,-0.0007166193,-0.78216296,0.999981,1.1641534e-10,2.9103834e-11,0.0061826417,3
628608000,628608000,-0.62309754,0.0008449436,-0.00071588357,-0.78214335,0.999981,1.1641534e-10,2.9103834e-11,0.0061826417,3
628616000,628616000,-0.62311316,0.0008292636,-0.0007747229,-0.782131,0.999981,1.1641534e-10,2.9103834e-11,0.0061826417,3
628628000,628628000,-0.62313676,0.0008143416,-0.00083470147,-0.782112,0.999981,1.1641534e-10,2.9103834e-11,0.0061826417,3
628636000,628636000,-0.62313825,0.0008492572,-0.00084118743,-0.7821108,0.999981,1.1641534e-10,2.9103834e-11,0.0061826417,3
628648000,628648000,-0.62316823,0.0008855332,-0.0008369668,-0.7820869,0.999981,1.1641534e-10,2.9103834e-11,0.0061826417,3
628656000,628656000,-0.6231202,0.00091959717,-0.0008325877,-0.7821252,0.999981,1.1641534e-10,2.9103834e-11,0.0061826417,3
628668000,628668000,-0.6231265,0.0008600807,-0.0008153141,-0.7821203,0.999981,1.1641534e-10,2.9103834e-11,0.0061826417,3
628676000,628676000,-0.6231243,0.0008546817,-0.00082632224,-0.78212196,0.999981,1.1641534e-10,2.9103834e-11,0.0061826417,3
628688000,628688000,-0.62308353,0.0009177973,-0.0008910861,-0.78215426,0.999981,1.1641534e-10,2.9103834e-11,0.0061826417,3
628696000,628696000,-0.6230581,0.0009397219,-0.0009088607,-0.7821745,0.999981,1.1641534e-10,2.9103834e-11,0.0061826417,3
628708000,628708000,-0.6230958,0.00091108395,-0.00088800053,-0.7821446,0.999981,1.1641534e-10,2.9103834e-11,0.0061826417,3
628716000,628716000,-0.6230903,0.00093658466,-0.00082952355,-0.7821489,0.999981,1.1641534e-10,2.9103834e-11,0.0061826417,3
628728000,628728000,-0.6231214,0.0009172672,-0.0007833285,-0.7821243,0.999981,1.1641534e-10,2.9103834e-11,0.0061826417,3
628736000,628736000,-0.6231188,0.0009327558,-0.0006827537,-0.7821264,0.999981,1.1641534e-10,2.9103834e-11,0.0061826417,3
628748000,628748000,-0.62313503,0.00088918867,-0.0005858453,-0.7821136,0.999981,1.1641534e-10,2.9103834e-11,0.0061826417,3
628756000,628756000,-0.6231616,0.0008294834,-0.00057711505,-0.78209245,0.999981,1.1641534e-10,2.9103834e-11,0.0061826417,3
628768000,628768000,-0.6231402,0.00076058286,-0.00056419394,-0.7821097,0.999981,1.1641534e-10,2.9103834e-11,0.0061826417,3
628776000,628776000,-0.6231216,0.0007607384,-0.00061883935,-0.7821244,0.999981,1.1641534e-10,2.9103834e-11,0.0061826417,3
628788000,628788000,-0.62307817,0.00078039616,-0.0006512325,-0.782159,0.999981,1.1641534e-10,2.9103834e-11,0.0061826417,3
628796000,628796000,-0.6230467,0.00079630734,-0.00066732545,-0.782184,0.999981,1.1641534e-10,2.9103834e-11,0.0061826417,3
628808000,628808000,-0.6229742,0.0007917757,-0.0006565992,-0.78224176,0.999981,1.1641534e-10,2.9103834e-11,0.0061826417,3
628816000,628816000,-0.62297994,0.00075226,-0.0006679322,-0.78223723,0.999981,1.1641534e-10,2.9103834e-11,0.0061826417,3
628828000,628828000,-0.62303233,0.0007470785,-0.00077249197,-0.78219545,0.999981,1.1641534e-10,2.9103834e-11,0.0061826417,3
628836000,628836000,-0.6230033,0.0007605412,-0.0007756401,-0.7822186,0.999981,1.1641534e-10,2.9103834e-11,0.0061826417,3
628848000,628848000,-0.6230048,0.0007603278,-0.0007568518,-0.7822174,0.999981,1.1641534e-10,2.9103834e-11,0.0061826417,3
628856000,628856000,-0.6229841,0.00076684327,-0.00076190435,-0.7822337,0.999981,1.1641534e-10,2.9103834e-11,0.0061826417,3
628868000,628868000,-0.62296486,0.00077269325,-0.00080648763,-0.78224903,0.999981,1.1641534e-10,2.9103834e-11,0.0061826417,3
628876000,628876000,-0.6229543,0.0007563558,-0.0008069106,-0.78225756,0.999981,1.1641534e-10,2.9103834e-11,0.0061826417,3
628888000,628888000,-0.6229605,0.00075513613,-0.0007885812,-0.78225255,0.999981,1.1641534e-10,2.9103834e-11,0.0061826417,3
628896000,628896000,-0.6229496,0.0007546892,-0.0008186544,-0.78226125,0.999981,1.1641534e-10,2.9103834e-11,0.0061826417,3
628908000,628908000,-0.62302935,0.0007877686,-0.00080090883,-0.7821978,0.999981,1.1641534e-10,2.9103834e-11,0.0061826417,3
628916000,628916000,-0.6230534,0.0007939287,-0.00078508887,-0.7821785,0.999981,1.1641534e-10,2.9103834e-11,0.0061826417,3
628928000,628928000,-0.6230137,0.00083088153,-0.00075904414,-0.7822101,0.999981,1.1641534e-10,2.9103834e-11,0.0061826417,3
628936000,628936000,-0.62302035,0.00084113795,-0.0007158577,-0.7822049,0.999981,1.1641534e-10,2.9103834e-11,0.0061826417,3
628948000,628948000,-0.62300915,0.00080644834,-0.0006558185,-0.782214,0.999981,1.1641534e-10,2.9103834e-11,0.0061826417,3
628956000,628956000,-0.62299955,0.0008561125,-0.00064266875,-0.78222156,0.999981,1.1641534e-10,2.9103834e-11,0.0061826417,3
628968000,628968000,-0.6229988,0.0009178975,-0.0006410465,-0.78222203,0.999981,1.1641534e-10,2.9103834e-11,0.0061826417,3
628976000,628976000,-0.6229734,0.0009161395,-0.0006223649,-0.7822423,0.999981,1.1641534e-10,2.9103834e-11,0.0061826417,3
628988000,628988000,-0.62296784,0.0009064197,-0.00061481463,-0.78224677,0.999981,1.1641534e-10,2.9103834e-11,0.0061826417,3
628996000,628996000,-0.62293494,0.0009209073,-0.0006621394,-0.7822728,0.999981,1.1641534e-10,2.9103834e-11,0.0061826417,3
629008000,629008000,-0.622914,0.000923187,-0.00074988964,-0.78228945,0.999981,1.1641534e-10,2.9103834e-11,0.0061826417,3
629016000,629016000,-0.62296385,0.00085574004,-0.00081550825,-0.78224975,0.999981,1.1641534e-10,2.9103834e-11,0.0061826417,3
629028000,629028000,-0.6230056,0.0008067385,-0.0008240915,-0.78221655,0.999981,1.1641534e-10,2.9103834e-11,0.0061826417,3
629036000,629036000,-0.62302375,0.0007817946,-0.0008064543,-0.7822021,0.999981,1.1641534e-10,2.9103834e-11,0.0061826417,3
629048000,629048000,-0.62303054,0.0007928066,-0.0008192501,-0.7821967,0.999981,1.1641534e-10,2.9103834e-11,0.0061826417,3
629056000,629056000,-0.62301666,0.0007951291,-0.00082469743,-0.7822078,0.999981,1.1641534e-10,2.9103834e-11,0.0061826417,3
629068000,629068000,-0.62300324,0.00072315236,-0.0009041349,-0.7822185,0.999981,1.1641534e-10,2.9103834e-11,0.0061826417,3
629076000,629076000,-0.6229751,0.0007544365,-0.0009809743,-0.7822407,0.999981,1.1641534e-10,2.9103834e-11,0.0061826417,3
629088000,629088000,-0.62295955,0.00080665783,-0.0010353405,-0.78225297,0.999981,1.1641534e-10,2.9103834e-11,0.0061826417,3
629096000,629096000,-0.6229675,0.0008089058,-0.0010691927,-0.78224665,0.999981,1.1641534e-10,2.9103834e-11,0.0061826417,3
629108000,629108000,-0.62299544,0.0008211149,-0.0011037887,-0.78222424,0.999981,1.1641534e-10,2.9103834e-11,0.0061826417,3
629116000,629116000,-0.622984,0.0007754819,-0.0011464896,-0.7822334,0.999981,1.1641534e-10,2.9103834e-11,0.0061826417,3
629128000,629128000,-0.62296945,0.00071224326,-0.0012578929,-0.782245,0.999981,1.1641534e-10,2.9103834e-11,0.0061826417,3
629136000,629136000,-0.622972,0.0007365963,-0.0013222104,-0.7822427,0.999981,1.1641534e-10,2.9103834e-11,0.0061826417,3
629148000,629148000,-0.6229727,0.0008046642,-0.0013372196,-0.78224194,0.999981,1.1641534e-10,2.9103834e-11,0.0061826417,3
629156000,629156000,-0.6229397,0.00084227184,-0.0013113662,-0.7822683,0.999981,1.1641534e-10,2.9103834e-11,0.0061826417,3
629168000,629168000,-0.6229044,0.0008388133,-0.0013708964,-0.78229624,0.999981,1.1641534e-10,2.9103834e-11,0.0061826417,3
629176000,629176000,-0.6228728,0.0008096358,-0.0013708057,-0.78232145,0.999981,1.1641534e-10,2.9103834e-11,0.0061826417,3
629188000,629188000,-0.6228232,0.0007965794,-0.001402245,-0.7823611,0.999981,1.1641534e-10,2.9103834e-11,0.0061826417,3
629196000,629196000,-0.62281376,0.0007836044,-0.0014340301,-0.7823684,0.999981,1.1641534e-10,2.9103834e-11,0.0061826417,3
629208000,629208000,-0.6227989,0.0008064247,-0.0014666715,-0.7823802,0.999981,1.1641534e-10,2.9103834e-11,0.0061826417,3
629216000,629216000,-0.62277174,0.0008183744,-0.0014876781,-0.7824018,0.999981,1.1641534e-10,2.9103834e-11,0.0061826417,3
629228000,629228000,-0.6227578,0.0008071778,-0.0014266394,-0.782413,0.999981,1.1641534e-10,2.9103834e-11,0.0061826417,3
629236000,629236000,-0.6227334,0.00079518935,-0.0014463621,-0.7824324,0.999981,1.1641534e-10,2.9103834e-11,0.0061826417,3
629248000,629248000,-0.6226971,0.0008027214,-0.001493513,-0.7824611,0.999981,1.1641534e-10,2.9103834e-11,0.0061826417,3
629256000,629256000,-0.6226663,0.0007875799,-0.0015120825,-0.78248566,0.999981,1.1641534e-10,2.9103834e-11,0.0061826417,3
629268000,629268000,-0.6226919,0.00082620204,-0.0014578499,-0.7824654,0.999981,1.1641534e-10,2.9103834e-11,0.0061826417,3
629276000,629276000,-0.62269443,0.00082574826,-0.0014614537,-0.78246325,0.999981,1.1641534e-10,2.9103834e-11,0.0061826417,3
629288000,629288000,-0.62269735,0.0008459399,-0.0014919689,-0.7824609,0.999981,1.1641534e-10,2.9103834e-11,0.0061826417,3
629296000,629296000,-0.62269855,0.0007936384,-0.0014794836,-0.7824601,0.999981,1.1641534e-10,2.9103834e-11,0.0061826417,3
629308000,629308000,-0.62269014,0.0007601245,-0.0014543261,-0.7824668,0.999981,1.1641534e-10,2.9103834e-11,0.0061826417,3
629316000,629316000,-0.62266886,0.0007302849,-0.0014529492,-0.78248376,0.999981,1.1641534e-10,2.9103834e-11,0.0061826417,3
629328000,629328000,-0.62264925,0.0007790451,-0.0014946328,-0.78249925,0.999981,1.1641534e-10,2.9103834e-11,0.0061826417,3
629336000,629336000,-0.6226363,0.0007972435,-0.0015287226,-0.7825095,0.999981,1.1641534e-10,2.9103834e-11,0.0061826417,3
629348000,629348000,-0.6225985,0.0007945836,-0.0015383627,-0.78253955,0.999981,1.1641534e-10,2.9103834e-11,0.0061826417,3
629356000,629356000,-0.62259287,0.00078980235,-0.0015235096,-0.7825441,0.999981,1.1641534e-10,2.9103834e-11,0.0061826417,3
629368000,629368000,-0.6225473,0.0007617329,-0.0015496934,-0.7825802,0.999981,1.1641534e-10,2.9103834e-11,0.0061826417,3
629376000,629376000,-0.6225226,0.00079070264,-0.0015984834,-0.7825998,0.999981,1.1641534e-10,2.9103834e-11,0.0061826417,3
629388000,629388000,-0.6224814,0.00083900586,-0.0016227805,-0.78263247,0.999981,1.1641534e-10,2.9103834e-11,0.0061826417,3
629396000,629396000,-0.62245226,0.0008363739,-0.0016171685,-0.78265566,0.999981,1.1641534e-10,2.9103834e-11,0.0061826417,3
629408000,629408000,-0.62242603,0.0008864151,-0.0016264538,-0.7826765,0.999981,1.1641534e-10,2.9103834e-11,0.0061826417,3
629416000,629416000,-0.62239546,0.0008816065,-0.001588483,-0.7827009,0.999981,1.1641534e-10,2.9103834e-11,0.0061826417,3
629428000,629428000,-0.6224447,0.0007907377,-0.0015174738,-0.78266203,0.999981,1.1641534e-10,2.9103834e-11,0.0061826417,3
629436000,629436000,-0.6224639,0.00074732973,-0.0014724777,-0.7826467,0.999981,1.1641534e-10,2.9103834e-11,0.0061826417,3
629448000,629448000,-0.622444,0.0007628189,-0.0014943815,-0.7826627,0.999981,1.1641534e-10,2.9103834e-11,0.0061826417,3
629456000,629456000,-0.62245697,0.0007806868,-0.0015015277,-0.7826522,0.999981,1.1641534e-10,2.9103834e-11,0.0061826417,3
629468000,629468000,-0.6224154,0.0007727788,-0.0015613532,-0.78268516,0.999981,1.1641534e-10,2.9103834e-11,0.0061826417,3
629476000,629476000,-0.62239414,0.00077113305,-0.0015176687,-0.78270215,0.999981,1.1641534e-10,2.9103834e-11,0.0061826417,3
629488000,629488000,-0.6223649,0.0007957537,-0.0015100703,-0.78272545,0.999981,1.1641534e-10,2.9103834e-11,0.0061826417,3
629496000,629496000,-0.62234735,0.0008213225,-0.0014689509,-0.7827394,0.999981,1.1641534e-10,2.9103834e-11,0.0061826417,3
629508000,629508000,-0.6223745,0.0008849302,-0.001446604,-0.7827179,0.999981,1.1641534e-10,2.9103834e-11,0.0061826417,3
629516000,629516000,-0.6223733,0.00091920624,-0.0014150823,-0.78271884,0.999981,1.1641534e-10,2.9103834e-11,0.0061826417,3
629528000,629528000,-0.62234074,0.00082864205,-0.0014213616,-0.78274477,0.999981,1.1641534e-10,2.9103834e-11,0.0061826417,3
629536000,629536000,-0.62231886,0.0007850174,-0.0014184504,-0.7827621,0.999981,1.1641534e-10,2.9103834e-11,0.0061826417,3
629548000,629548000,-0.62234855,0.00073944964,-0.0014426521,-0.7827386,0.999981,1.1641534e-10,2.9103834e-11,0.0061826417,3
629556000,629556000,-0.6223756,0.00071419147,-0.001433804,-0.78271717,0.999981,1.1641534e-10,2.9103834e-11,0.0061826417,3
629568000,629568000,-0.62240994,0.00075927214,-0.0013953295,-0.78268987,0.999981,1.1641534e-10,2.9103834e-11,0.0061826417,3
629576000,629576000,-0.62245405,0.00078671466,-0.0014229008,-0.7826546,0.999981,1.1641534e-10,2.9103834e-11,0.0061826417,3
629588000,629588000,-0.6224368,0.00082378695,-0.0014115251,-0.78266835,0.999981,1.1641534e-10,2.9103834e-11,0.0061826417,3
629596000,629596000,-0.6224436,0.000777915,-0.0014251131,-0.78266305,0.999981,1.1641534e-10,2.9103834e-11,0.0061826417,3
629608000,629608000,-0.6224942,0.0007027854,-0.0014359424,-0.7826229,0.999981,1.1641534e-10,2.9103834e-11,0.0061826417,3
629616000,629616000,-0.6225034,0.00073603564,-0.00148523,-0.7826153,0.999981,1.1641534e-10,2.9103834e-11,0.0061826417,3
629628000,629628000,-0.6224756,0.0007675065,-0.0015559535,-0.7826374,0.999981,1.1641534e-10,2.9103834e-11,0.0061826417,3
629636000,629636000,-0.6224472,0.00076591026,-0.00154048,-0.78266,0.999981,1.1641534e-10,2.9103834e-11,0.0061826417,3
629648000,629648000,-0.622418,0.00073853496,-0.0015439834,-0.78268313,0.999981,1.1641534e-10,2.9103834e-11,0.0061826417,3
629656000,629656000,-0.62238395,0.00071911013,-0.0015252319,-0.78271025,0.999981,1.1641534e-10,2.9103834e-11,0.0061826417,3
629668000,629668000,-0.62232137,0.0007260897,-0.00146835,-0.7827602,0.999981,1.1641534e-10,2.9103834e-11,0.0061826417,3
629676000,629676000,-0.622267,0.00072713365,-0.001493138,-0.78280324,0.999981,1.1641534e-10,2.9103834e-11,0.0061826417,3
629688000,629688000,-0.6222601,0.00069098786,-0.0014760069,-0.7828089,0.999981,1.1641534e-10,2.9103834e-11,0.0061826417,3
629696000,629696000,-0.6222271,0.0006903484,-0.0014558565,-0.7828352,0.999981,1.1641534e-10,2.9103834e-11,0.0061826417,3
629708000,629708000,-0.6221576,0.0007516043,-0.0014496127,-0.7828903,0.999981,1.1641534e-10,2.9103834e-11,0.0061826417,3
629716000,629716000,-0.6221192,0.00078048604,-0.0015087277,-0.7829207,0.999981,1.1641534e-10,2.9103834e-11,0.0061826417,3
629728000,629728000,-0.62204504,0.0007323135,-0.0015468524,-0.7829796,0.999981,1.1641534e-10,2.9103834e-11,0.0061826417,3
629736000,629736000,-0.6220454,0.0006578234,-0.001566594,-0.7829794,0.999981,1.1641534e-10,2.9103834e-11,0.0061826417,3
629748000,629748000,-0.62198967,0.00070814905,-0.0016237345,-0.7830236,0.999981,1.1641534e-10,2.9103834e-11,0.0061826417,3
629756000,629756000,-0.6219599,0.0007574044,-0.0016289358,-0.78304714,0.999981,1.1641534e-10,2.9103834e-11,0.0061826417,3
629768000,629768000,-0.621986,0.00075530616,-0.0016340236,-0.7830263,0.999981,1.1641534e-10,2.9103834e-11,0.0061826417,3
629776000,629776000,-0.621973,0.000767118,-0.0015801964,-0.7830367,0.999981,1.1641534e-10,2.9103834e-11,0.0061826417,3
629788000,629788000,-0.6219401,0.0008094363,-0.0016431905,-0.78306276,0.999981,1.1641534e-10,2.9103834e-11,0.0061826417,3
629796000,629796000,-0.6219233,0.00083896314,-0.0016844147,-0.7830759,0.999981,1.1641534e-10,2.9103834e-11,0.0061826417,3
629808000,629808000,-0.6218991,0.000856935,-0.0017001979,-0.7830952,0.999981,1.1641534e-10,2.9103834e-11,0.0061826417,3
629816000,629816000,-0.6218885,0.000825634,-0.0017298517,-0.7831036,0.999981,1.1641534e-10,2.9103834e-11,0.0061826417,3
629828000,629828000,-0.6218492,0.00079037587,-0.0016850831,-0.7831348,0.999981,1.1641534e-10,2.9103834e-11,0.0061826417,3
629836000,629836000,-0.6218536,0.000815475,-0.0017037356,-0.7831312,0.999981,1.1641534e-10,2.9103834e-11,0.0061826417,3
629848000,629848000,-0.6218677,0.0008228183,-0.0017416553,-0.78312,0.999981,1.1641534e-10,2.9103834e-11,0.0061826417,3
629856000,629856000,-0.6218431,0.00083740696,-0.0017221441,-0.7831396,0.999981,1.1641534e-10,2.9103834e-11,0.0061826417,3
629868000,629868000,-0.621822,0.00085100275,-0.0017127983,-0.78315634,0.999981,1.1641534e-10,2.9103834e-11,0.0061826417,3
629876000,629876000,-0.62178457,0.0008267096,-0.0017345696,-0.78318596,0.999981,1.1641534e-10,2.9103834e-11,0.0061826417,3
629888000,629888000,-0.62179834,0.00078819913,-0.0016933177,-0.7831753,0.999981,1.1641534e-10,2.9103834e-11,0.0061826417,3
629896000,629896000,-0.62182146,0.0007735757,-0.0016824976,-0.7831568,0.999981,1.1641534e-10,2.9103834e-11,0.0061826417,3
629908000,629908000,-0.6218187,0.00075011194,-0.0016668778,-0.783159,0.999981,1.1641534e-10,2.9103834e-11,0.0061826417,3
629916000,629916000,-0.62182283,0.00072398357,-0.0016585655,-0.7831559,0.999981,1.1641534e-10,2.9103834e-11,0.0061826417,3
629928000,629928000,-0.6217972,0.0006785626,-0.0016997411,-0.7831761,0.999981,1.1641534e-10,2.9103834e-11,0.0061826417,3
629936000,629936000,-0.62176913,0.0006864552,-0.0017076683,-0.78319836,0.999981,1.1641534e-10,2.9103834e-11,0.0061826417,3
629948000,629948000,-0.62177104,0.00073624996,-0.0016761498,-0.783197,0.999981,1.1641534e-10,2.9103834e-11,0.0061826417,3
629956000,629956000,-0.6217392,0.0007739789,-0.0016765163,-0.7832222,0.999981,1.1641534e-10,2.9103834e-11,0.0061826417,3
629968000,629968000,-0.62174916,0.0007332825,-0.0016194197,-0.7832144,0.999981,1.1641534e-10,2.9103834e-11,0.0061826417,3
629976000,629976000,-0.62176126,0.00065231434,-0.0015723901,-0.783205,0.999981,1.1641534e-10,2.9103834e-11,0.0061826417,3
629988000,629988000,-0.6217915,0.00046898797,-0.0013986536,-0.78318155,0.999981,1.1641534e-10,2.9103834e-11,0.0061826417,3
629996000,629996000,-0.6218265,0.00033973242,-0.0012608978,-0.783154,0.999981,1.1641534e-10,2.9103834e-11,0.0061826417,3
630008000,630008000,-0.6218028,0.00013936893,-0.0010648995,-0.7831731,0.999981,1.1641534e-10,2.9103834e-11,0.0061826417,3
630016000,630016000,-0.6217899,-3.2924185e-05,-0.00089307834,-0.7831837,0.999981,1.1641534e-10,2.9103834e-11,0.0061826417,3
630028000,630028000,-0.6217996,-0.00026573637,-0.000623899,-0.78317624,0.999981,1.1641534e-10,2.9103834e-11,0.0061826417,3
630036000,630036000,-0.6218542,-0.00044843619,-0.00037750188,-0.78313285,0.999981,1.1641534e-10,2.9103834e-11,0.0061826417,3
630048000,630048000,-0.6218619,-0.00077700044,-7.1150807e-06,-0.78312653,0.999981,1.1641534e-10,2.9103834e-11,0.0061826417,3
630056000,630056000,-0.6218743,-0.0009632592,0.00020741347,-0.78311646,0.999981,1.1641534e-10,2.9103834e-11,0.0061826417,3
630068000,630068000,-0.6218566,-0.0012593645,0.0006220854,-0.78313,0.999981,1.1641534e-10,2.9103834e-11,0.0061826417,3
630076000,630076000,-0.6218522,-0.0013733107,0.00085401075,-0.78313303,0.999981,1.1641534e-10,2.9103834e-11,0.0061826417,3
630088000,630088000,-0.62185836,-0.0015827578,0.0012929745,-0.783127,0.999981,1.1641534e-10,2.9103834e-11,0.0061826417,3
630096000,630096000,-0.6218603,-0.0017502927,0.0015524613,-0.7831246,0.999981,1.1641534e-10,2.9103834e-11,0.0061826417,3
630108000,630108000,-0.62190825,-0.0020029955,0.0019249369,-0.7830853,0.999981,1.1641534e-10,2.9103834e-11,0.0061826417,3
630116000,630116000,-0.62190056,-0.0021173898,0.0021776464,-0.78309035,0.999981,1.1641534e-10,2.9103834e-11,0.0061826417,3
630128000,630128000,-0.6218966,-0.0023025943,0.002485178,-0.78309196,0.999981,1.1641534e-10,2.9103834e-11,0.0061826417,3
630136000,630136000,-0.62188023,-0.002397994,0.0026453028,-0.7831042,0.999981,1.1641534e-10,2.9103834e-11,0.0061826417,3
