timestamp,timestamp_sample,hover_thrust,hover_thrust_var,accel_innov,accel_innov_var,accel_innov_test_ratio,accel_noise_var,valid
631832000,631832000,0.5931659,0.003866579,-4.277865,12.931328,0.15724199,5.1826096,0
631840000,631840000,0.6169723,0.0029787377,-2.0722802,6.7273374,0.070926934,5.33034,0
631928000,631928000,0.6748419,0.0011692003,-0.7259316,6.6131716,0.008853991,6.3946753,0
632032000,632032000,0.68918544,0.0007722561,-0.4567008,7.260443,0.0031919635,7.132217,0
632128000,632128000,0.695687,0.0006073449,-0.36585286,7.6634293,0.0019406503,7.562008,0
632232000,632232000,0.7,0.00050037535,-0.25235286,7.9211726,0.0008932736,7.830582,0
632328000,632328000,0.7,0.00043287894,-0.2093792,8.025137,0.0006069768,7.940307,0
632432000,632432000,0.7,0.00037814458,-0.32411367,8.049512,0.0014500488,7.9714456,0
632528000,632528000,0.7,0.0003387201,-0.25083417,8.003116,0.0008735178,7.9268775,0
632632000,632632000,0.7,0.00030405202,-0.21925667,7.893215,0.00067672017,7.8191767,0
632728000,632728000,0.7,0.0002775343,-0.37311465,7.7428503,0.0019977505,7.674283,0
632832000,632832000,0.7,0.00025310353,-0.2532892,7.5553603,0.00094348635,7.48721,0
632928000,632928000,0.7,0.00023367898,-0.23950836,7.351216,0.00086704106,7.2855463,0
633032000,633032000,0.7,0.00021526433,-0.2549827,7.1113534,0.0010158431,7.0484643,0
633128000,633128000,0.7,0.00020026878,-0.33014166,6.873664,0.0017618537,6.8143573,0
633224000,633224000,0.7,0.00018681114,-0.43001705,6.641963,0.0030933737,6.585513,0
633328000,633328000,0.7,0.00017372787,-0.27621347,6.381159,0.0013284574,6.3260527,0
633424000,633424000,0.7,0.00016278453,-0.34347403,6.1382513,0.0021355052,6.085749,0
633528000,633528000,0.7,0.00015201655,-0.18037856,5.8793955,0.00061488606,5.828278,0
633624000,633624000,0.7,0.00014320228,-0.30871403,5.6323547,0.001880097,5.586061,0
633728000,633728000,0.7,0.00013488877,-0.5147886,5.383455,0.005469584,5.3419895,0
633832000,633828000,0.7,0.00012757415,-0.7892213,5.1579437,0.013417712,5.120814,0
633928000,633928000,0.7,0.00012098237,-0.68265903,4.9740324,0.010410139,4.9355416,0
634032000,634032000,0.7,0.000113899776,-0.40196422,4.7548537,0.0037756795,4.7148294,1
634128000,634128000,0.7,0.000107477084,-0.2254007,4.5451303,0.0012420001,4.5055895,1
634232000,634232000,0.6999814,0.00010080955,0.0123761,4.3201637,3.9393526e-06,4.281902,1
634328000,634328000,0.6996926,9.5125775e-05,0.06373513,4.118553,0.0001095899,4.0827484,1
634432000,634432000,0.69985574,8.951632e-05,-0.057804823,3.9118097,9.490911e-05,3.8784106,1
634528000,634528000,0.7,8.474196e-05,-0.212985,3.7310772,0.0013508939,3.6997812,1
634624000,634624000,0.7,8.027056e-05,-0.205572,3.5601773,0.0013189057,3.5303648,1
634728000,634728000,0.7,7.5725984e-05,-0.07431579,3.3833513,0.00018137296,3.3549452,1
634832000,634832000,0.7,7.146379e-05,-0.22487204,3.216135,0.0017470049,3.1893418,1
634928000,634924000,0.7,6.776598e-05,-0.13762964,3.0674486,0.00068612647,3.0418756,1
635032000,635032000,0.7,6.3999905e-05,-0.21820217,2.9143841,0.0018152182,2.8902447,1
635128000,635128000,0.7,6.072964e-05,-0.15351155,2.7796257,0.00094200525,2.7565916,1
635232000,635232000,0.7,5.7394216e-05,-0.22773334,2.6407669,0.0021821302,2.6189911,1
635328000,635328000,0.7,5.448632e-05,-0.2294532,2.5186553,0.002322614,2.497923,1
635432000,635432000,0.7,5.152597e-05,-0.17312832,2.3920588,0.0013922649,2.3723738,1
635528000,635528000,0.7,4.8939946e-05,-0.16582459,2.2812574,0.0013393098,2.2624702,1
635632000,635632000,0.7,4.6279627e-05,-0.15330157,2.1666844,0.0012051886,2.1488054,1
635728000,635728000,0.7,4.395781e-05,-0.02326855,2.0658114,2.9120945e-05,2.0488245,1
635832000,635832000,0.7,4.1580388e-05,-0.1532138,1.9619579,0.0013294241,1.9458082,1
635928000,635928000,0.7,3.9514274e-05,-0.07404243,1.8706938,0.00032562378,1.855425,1
636032000,636032000,0.7,3.7416372e-05,-0.08858392,1.7766197,0.00049076404,1.7621229,1
636128000,636128000,0.6998648,3.5602032e-05,0.04834015,1.6941911,0.00015325374,1.6806229,1
636224000,636224000,0.69958645,3.3929162e-05,0.0059094876,1.6161667,2.4008827e-06,1.6033719,1
636328000,636328000,0.69956726,3.2232154e-05,0.18122096,1.534974,0.0023772416,1.5230836,1
636432000,636432000,0.699498,3.0630887e-05,0.005768761,1.4581403,2.5358484e-06,1.4466332,1
636528000,636528000,0.69922847,2.9226168e-05,0.11943941,1.390912,0.0011396017,1.3800651,1
636632000,636632000,0.6988933,2.777872e-05,0.057206348,1.321673,0.00027511982,1.3112587,1
636728000,636728000,0.69849515,2.6502115e-05,0.13232602,1.2608666,0.001543046,1.2510026,1
636832000,636832000,0.69818693,2.517732e-05,0.10293271,1.1980513,0.0009826273,1.1885977,1
636928000,636928000,0.69774055,2.4020123e-05,0.12966777,1.1429158,0.0016345844,1.1339616,1
637032000,637032000,0.69752795,2.2816863e-05,0.13009581,1.0857248,0.0017320656,1.0771524,1
637128000,637128000,0.6971674,2.1758831e-05,0.08737465,1.0357264,0.0008189989,1.0274917,1
637232000,637232000,0.6968251,2.0667556e-05,0.18662857,1.0039413,0.0038548312,1.0,1
637328000,637328000,0.6967296,1.974307e-05,0.108211346,1.0037855,0.0012961708,1.0,1
637432000,637432000,0.6966005,1.8819363e-05,-0.018181875,1.003703,3.6595662e-05,1.0,1
637528000,637528000,0.6962602,1.80358e-05,0.034638703,1.0034992,0.00013285066,1.0,1
637632000,637632000,0.6960503,1.7260241e-05,0.042508475,1.0033531,0.00020010352,1.0,1
637728000,637728000,0.6959363,1.6605658e-05,0.11271957,1.0032358,0.0014071913,1.0,1
637832000,637832000,0.69586354,1.5951444e-05,0.080936745,1.003079,0.0007256276,1.0,1
637928000,637928000,0.6958168,1.5388869e-05,0.18405706,1.0029907,0.0037528872,1.0,1
638024000,638020000,0.6957834,1.48674935e-05,-0.043731757,1.0029227,0.00021187702,1.0,1
638128000,638128000,0.69581383,1.4338559e-05,0.022939943,1.0027866,5.8308735e-05,1.0,1
638224000,638224000,0.69588757,1.3881283e-05,0.008327965,1.0027392,7.68506e-06,1.0,1
638328000,638328000,0.69571126,1.3412602e-05,0.0928592,1.0026399,0.00095556985,1.0,1
638432000,638432000,0.69570506,1.29717955e-05,0.018381238,1.002634,3.7442478e-05,1.0,1
638528000,638528000,0.6955174,1.2590984e-05,0.03770309,1.002511,0.00015755137,1.0,1
638624000,638624000,0.69543785,1.2235257e-05,0.015554367,1.0024165,2.6817232e-05,1.0,1
638728000,638728000,0.6954774,1.1869818e-05,0.11890501,1.0023869,0.0015671926,1.0,1
638832000,638832000,0.6953625,1.1526084e-05,0.020527478,1.0022919,4.671265e-05,1.0,1
638928000,638928000,0.6953507,1.1229249e-05,-0.0005985163,1.0022192,3.9714283e-08,1.0,1
639032000,639032000,0.6954155,1.0924795e-05,-0.103445075,1.0021714,0.0011864109,1.0,1
639128000,639128000,0.695459,1.0657265e-05,-0.022261465,1.0021238,5.4946948e-05,1.0,1
639232000,639232000,0.6954691,1.0380625e-05,0.04717122,1.0020798,0.00024672286,1.0,1
639328000,639328000,0.6954403,1.0139421e-05,0.03649334,1.0020158,0.00014767607,1.0,1
639432000,639432000,0.6955522,9.890819e-06,-0.16919114,1.0019803,0.0031743408,1.0,1
639528000,639528000,0.6956902,9.669621e-06,-0.03673132,1.0019629,0.00014961632,1.0,1
639632000,639632000,0.6957494,9.438644e-06,0.0006066412,1.0019325,4.081152e-08,1.0,1
639728000,639728000,0.69574493,9.234894e-06,0.09249814,1.0018721,0.00094887987,1.0,1
639832000,639832000,0.6958244,9.026838e-06,-0.1690109,1.0018306,0.0031680544,1.0,1
639928000,639928000,0.6958849,8.842001e-06,-0.033521518,1.0018052,0.0001246297,1.0,1
640024000,640020000,0.69593453,8.66461e-06,-0.081628546,1.0017681,0.000739051,1.0,1
640128000,640128000,0.69604796,8.481614e-06,-0.10399172,1.0017254,0.0011995167,1.0,1
640232000,640232000,0.6962521,8.30589e-06,-0.07242476,1.001699,0.0005818277,1.0,1
640328000,640328000,0.6964673,8.149404e-06,-0.14210494,1.0016744,0.0022400063,1.0,1
640432000,640432000,0.69672424,7.98631e-06,-0.2021551,1.0016501,0.0045332625,1.0,1
640528000,640528000,0.69693553,7.841066e-06,-0.14237617,1.0016216,0.002248684,1.0,1
640632000,640628000,0.6971403,7.6902e-06,-0.20606624,1.0015883,0.0047106617,1.0,1
640728000,640728000,0.6973183,7.5562093e-06,-0.08964445,1.0015677,0.0008915054,1.0,1
640824000,640824000,0.69749385,7.425881e-06,-0.16872472,1.0015569,0.0031581977,1.0,1
640928000,640928000,0.6976338,7.288694e-06,0.041637927,1.0015306,0.00019234083,1.0,1
641024000,641024000,0.69765455,7.1667823e-06,-0.03352025,1.0015085,0.0001246572,1.0,1
641128000,641124000,0.6975517,7.0412107e-06,0.06759283,1.0014551,0.0005069058,1.0,1
641224000,641224000,0.69736606,6.9327875e-06,0.19585453,1.001366,0.004256297,1.0,1
641328000,641328000,0.69718117,6.8245636e-06,0.11142604,1.001308,0.001377727,1.0,1
641424000,641424000,0.6971065,6.730384e-06,0.083575964,1.001275,0.0007751164,1.0,1
641528000,641528000,0.69699514,6.631502e-06,0.1088165,1.0012548,0.0013140211,1.0,1
641632000,641632000,0.69688004,6.535296e-06,0.12222371,1.0012472,0.0016577808,1.0,1
641728000,641728000,0.69673544,6.449212e-06,0.22619417,1.0012233,0.0056779208,1.0,1
641832000,641832000,0.6965751,6.359776e-06,0.0975188,1.0011904,0.001055401,1.0,1
641928000,641928000,0.69645673,6.2806266e-06,0.022174925,1.0011694,5.4572545e-05,1.0,1
642032000,642028000,0.6963947,6.19646e-06,-0.05257587,1.0011834,0.00030677277,1.0,1
642128000,642128000,0.6963059,6.1180504e-06,0.26000476,1.0011971,0.0075024054,1.0,1
642224000,642224000,0.696157,6.0399616e-06,0.17849618,1.001204,0.0035358416,1.0,1
642328000,642328000,0.69595736,5.9577983e-06,0.20385814,1.0011702,0.004612174,1.0,1
642432000,642432000,0.69576126,5.8810565e-06,0.16010365,1.0011168,0.002844954,1.0,1
642528000,642528000,0.6957645,5.8130904e-06,-0.124260515,1.0011064,0.0017137346,1.0,1
642632000,642632000,0.6957637,5.7411285e-06,-0.062940985,1.0010976,0.0004396916,1.0,1
642728000,642728000,0.6957733,5.6754475e-06,-0.0015335083,1.0011102,2.6100443e-07,1.0,1
642832000,642832000,0.69582677,5.6046024e-06,-0.18052159,1.0011218,0.0036168369,1.0,1
642928000,642928000,0.69590086,5.538956e-06,0.023441136,1.0011358,6.0984825e-05,1.0,1
643032000,643032000,0.6959111,5.468313e-06,-0.030630961,1.0011431,0.0001041316,1.0,1
643128000,643128000,0.69590515,5.4042157e-06,-0.041939035,1.0011259,0.0001952116,1.0,1
643232000,643232000,0.69593716,5.336544e-06,-0.078877434,1.0011281,0.00069051544,1.0,1
643328000,643328000,0.69607246,5.275817e-06,-0.053430513,1.0010968,0.00031685465,1.0,1
643432000,643432000,0.6962123,5.2132164e-06,-0.047200568,1.0010539,0.0002472831,1.0,1
643528000,643528000,0.696344,5.1577094e-06,-0.06269233,1.0010386,0.00043625003,1.0,1
643624000,643624000,0.696408,5.103565e-06,-0.07253819,1.0010412,0.0005840351,1.0,1
643728000,643728000,0.6963368,5.0476056e-06,-0.015325569,1.0009874,2.6071264e-05,1.0,1
643832000,643832000,0.69626886,4.9937294e-06,0.03468589,1.0009747,0.00013354883,1.0,1
643928000,643928000,0.69622505,4.945172e-06,0.07333145,1.0009732,0.00059691933,1.0,1
644032000,644032000,0.69619334,4.893915e-06,0.0587632,1.0009718,0.0003833068,1.0,1
644128000,644128000,0.6961633,4.8478564e-06,-0.043498613,1.0009494,0.00021003718,1.0,1
644232000,644232000,0.6961877,4.798904e-06,0.027500752,1.0009582,8.395193e-05,1.0,1
644328000,644328000,0.6961796,4.7543876e-06,0.116325475,1.0009435,0.0015020956,1.0,1
644432000,644432000,0.69620216,4.7076273e-06,-0.1394891,1.0009326,0.0021598977,1.0,1
644528000,644528000,0.69621545,4.665317e-06,-0.0039708796,1.0009264,1.7503658e-06,1.0,1
644624000,644620000,0.69625133,4.6237756e-06,-0.095487535,1.0009224,0.001012163,1.0,1
644728000,644728000,0.6963117,4.5792767e-06,-0.021313582,1.0009243,5.0427698e-05,1.0,1
644832000,644832000,0.6963768,4.535445e-06,-0.1309717,1.0009196,0.0019042029,1.0,1
644928000,644928000,0.6964197,4.495851e-06,-0.022026777,1.0009114,5.3859683e-05,1.0,1
645032000,645032000,0.696481,4.4539925e-06,-0.08552317,1.0009013,0.0008119585,1.0,1
645128000,645128000,0.6965127,4.4161934e-06,-0.07006756,1.0008929,0.00054500933,1.0,1
645232000,645232000,0.6964958,4.376645e-06,-0.019038554,1.0008733,4.023892e-05,1.0,1
645328000,645328000,0.6965468,4.341065e-06,-0.17532983,1.0008684,0.003412653,1.0,1
645432000,645432000,0.6966366,4.303201e-06,-0.06043936,1.0008638,0.00040552925,1.0,1
645528000,645528000,0.6966775,4.269048e-06,-0.033548947,1.0008527,0.00012495255,1.0,1
645632000,645632000,0.6967373,4.233108e-06,-0.15733689,1.0008413,0.002748232,1.0,1
645728000,645728000,0.6968254,4.200462e-06,-0.180162,1.0008428,0.0036034458,1.0,1
645832000,645832000,0.69690555,4.165548e-06,-0.13834229,1.0008405,0.0021247242,1.0,1
645928000,645928000,0.6970067,4.1335234e-06,-0.13054655,1.0008451,0.0018920014,1.0,1
646024000,646024000,0.6970765,4.1017497e-06,-0.084195435,1.0008445,0.0007869877,1.0,1
646128000,646128000,0.6971486,4.067766e-06,-0.103226095,1.0008384,0.0011829667,1.0,1
646232000,646232000,0.69716686,4.0343693e-06,-0.031082109,1.0008384,0.00010725424,1.0,1
646328000,646324000,0.69713056,4.004563e-06,0.042924836,1.000812,0.00020456073,1.0,1
646432000,646432000,0.6971349,3.973955e-06,0.069035605,1.0007857,0.00052913034,1.0,1
646528000,646528000,0.6970992,3.9474994e-06,0.13898815,1.0007521,0.0021447986,1.0,1
646624000,646624000,0.697131,3.922204e-06,0.07330768,1.0007437,0.0005966691,1.0,1
646728000,646728000,0.6971816,3.8951857e-06,-0.05103451,1.0007434,0.00028917624,1.0,1
646832000,646832000,0.6971955,3.8683297e-06,-0.097636014,1.0007483,0.001058407,1.0,1
646928000,646928000,0.69721395,3.8435837e-06,-0.039590538,1.000751,0.00017402603,1.0,1
647032000,647032000,0.69720656,3.816985e-06,-0.06796379,1.0007489,0.0005128467,1.0,1
647128000,647124000,0.69721067,3.7925731e-06,0.007218195,1.0007536,5.784789e-06,1.0,1
647232000,647232000,0.6972383,3.76651e-06,-0.046304755,1.0007493,0.00023805832,1.0,1
647328000,647328000,0.69727457,3.7427415e-06,-0.0135998875,1.0007486,2.0535397e-05,1.0,1
647432000,647432000,0.69732654,3.717208e-06,-0.112503424,1.0007491,0.0014052828,1.0,1
647528000,647528000,0.6973505,3.6938636e-06,-0.045015797,1.0007476,0.0002249898,1.0,1
647632000,647632000,0.6974347,3.6688677e-06,-0.14159203,1.0007433,0.0022259348,1.0,1
647728000,647728000,0.697487,3.6462814e-06,-0.13230054,1.0007411,0.0019433856,1.0,1
647832000,647832000,0.6975798,3.6221043e-06,-0.09888515,1.0007396,0.0010856717,1.0,1
647928000,647928000,0.6976713,3.6000679e-06,-0.14019707,1.0007373,0.0021823042,1.0,1
648024000,648024000,0.6977604,3.5783473e-06,-0.21956956,1.0007335,0.0053528287,1.0,1
648128000,648128000,0.6978088,3.5552807e-06,-0.13774115,1.0007261,0.00210654,1.0,1
648232000,648232000,0.69782984,3.5328778e-06,0.0117124915,1.0007149,1.5231606e-05,1.0,1
648328000,648328000,0.6978794,3.5127623e-06,-0.09293555,1.0007097,0.00095898786,1.0,1
648432000,648428000,0.6979578,3.4913128e-06,-0.08517064,1.0007062,0.00080543547,1.0,1
648528000,648524000,0.6980164,3.4718535e-06,-0.0362249,1.0007023,0.00014570252,1.0,1
648624000,648624000,0.69807523,3.4527081e-06,-0.03508322,1.0006995,0.00013666354,1.0,1
648728000,648728000,0.69812876,3.4324235e-06,-0.20601666,1.0006921,0.004712612,1.0,1
648824000,648824000,0.69818485,3.4140444e-06,-0.07359052,1.0006874,0.00060131605,1.0,1
648928000,648928000,0.6982626,3.394493e-06,0.014826089,1.0006846,2.4406949e-05,1.0,1
649032000,649032000,0.6983144,3.3752326e-06,-0.050261244,1.0006822,0.00028049672,1.0,1
649128000,649128000,0.6983674,3.357773e-06,-0.09793113,1.0006766,0.0010648912,1.0,1
649232000,649232000,0.6984053,3.3392553e-06,-0.050583355,1.0006703,0.00028410688,1.0,1
649328000,649328000,0.69842345,3.3225488e-06,-0.124695756,1.0006644,0.001726523,1.0,1
649432000,649432000,0.69848883,3.3047654e-06,-0.023200668,1.0006624,5.9768296e-05,1.0,1
649528000,649528000,0.69853526,3.2885246e-06,-0.07693566,1.0006618,0.00065724226,1.0,1
649632000,649632000,0.6985912,3.2712153e-06,-0.076033495,1.000656,0.00064192247,1.0,1
649728000,649728000,0.6986474,3.2555379e-06,-0.030944448,1.000653,0.00010632599,1.0,1
649832000,649832000,0.69870526,3.2388518e-06,-0.11202292,1.0006495,0.0013934433,1.0,1
649928000,649928000,0.6987759,3.2236424e-06,-0.072043866,1.0006484,0.00057632837,1.0,1
650032000,650032000,0.6988154,3.2074365e-06,-0.014055684,1.000644,2.1937236e-05,1.0,1
650128000,650128000,0.69889194,3.1926688e-06,-0.1578534,1.0006442,0.0027668502,1.0,1
650232000,650232000,0.69893295,3.176873e-06,-0.081250735,1.0006397,0.0007330513,1.0,1
650328000,650328000,0.6989657,3.1625957e-06,-0.06690076,1.0006355,0.0004969855,1.0,1
650432000,650432000,0.6990295,3.1473987e-06,-0.10877709,1.0006325,0.0013138863,1.0,1
650528000,650528000,0.69908,3.1335696e-06,-0.0799773,1.0006298,0.0007102603,1.0,1
650632000,650632000,0.69912684,3.1188756e-06,-0.16182742,1.0006254,0.0029079716,1.0,1
650728000,650728000,0.6991763,3.1055306e-06,-0.114733174,1.0006229,0.0014617231,1.0,1
650832000,650832000,0.69922197,3.091318e-06,-0.011047237,1.0006194,1.3551765e-05,1.0,1
650928000,650928000,0.69927514,3.0783597e-06,-0.026884146,1.0006183,8.0256745e-05,1.0,1
651032000,651032000,0.6993046,3.064559e-06,-0.03300362,1.0006139,0.000120952296,1.0,1
651128000,651128000,0.69937813,3.0520198e-06,-0.18872876,1.0006132,0.003955191,1.0,1
651232000,651232000,0.6994234,3.038603e-06,-0.11730289,1.0006094,0.0015279541,1.0,1
651328000,651328000,0.699466,3.0264355e-06,-0.11268778,1.0006073,0.0014100921,1.0,1
651432000,651432000,0.6995104,3.0134477e-06,-0.10153996,1.0006037,0.0011449049,1.0,1
651528000,651528000,0.6995116,3.0017409e-06,-0.09663981,1.0005978,0.0010370748,1.0,1
651632000,651632000,0.699562,2.9892738e-06,-0.13373375,1.0005958,0.0019860074,1.0,1
651728000,651728000,0.6996192,2.9778935e-06,-0.059893794,1.0005956,0.00039834797,1.0,1
651832000,651832000,0.69966733,2.9657137e-06,-0.0375967,1.0005933,0.00015696374,1.0,1
651928000,651928000,0.69971174,2.9546447e-06,-0.09557723,1.0005908,0.0010144014,1.0,1
652032000,652032000,0.69976443,2.9428154e-06,-0.044751544,1.0005895,0.0002223912,1.0,1
652128000,652128000,0.69979256,2.9320474e-06,-0.05057054,1.0005865,0.0002839867,1.0,1
652232000,652232000,0.6998469,2.920572e-06,-0.026002444,1.0005847,7.5081334e-05,1.0,1
652328000,652328000,0.6998896,2.9101225e-06,-0.10155816,1.0005821,0.0011453399,1.0,1
652432000,652432000,0.6999392,2.898975e-06,-0.09679017,1.0005795,0.0010403235,1.0,1
652528000,652528000,0.6999764,2.8888148e-06,0.03199035,1.0005783,0.000113643444,1.0,1
652632000,652632000,0.7,2.8779589e-06,-0.022730835,1.0005778,5.737694e-05,1.0,1
652728000,652728000,0.7,2.8680809e-06,-0.067032516,1.0005728,0.00049897615,1.0,1
652832000,652832000,0.7,2.857644e-06,-0.08249809,1.0005687,0.00075578515,1.0,1
652928000,652928000,0.7,2.8481695e-06,-0.08783016,1.0005672,0.00085664046,1.0,1
653032000,653032000,0.7,2.837997e-06,-0.029275905,1.0005666,9.5177034e-05,1.0,1
653128000,653128000,0.7,2.8287125e-06,-0.11330956,1.0005647,0.0014257567,1.0,1
653232000,653232000,0.7,2.8187674e-06,-0.12778611,1.0005647,0.0018133416,1.0,1
653328000,653328000,0.69999796,2.8096817e-06,0.027227871,1.0005621,8.2326726e-05,1.0,1
653432000,653432000,0.7,2.8000445e-06,-0.13992667,1.000559,0.0021742817,1.0,1
653528000,653528000,0.7,2.791264e-06,-0.096154645,1.0005573,0.0010267296,1.0,1
653624000,653624000,0.7,2.782604e-06,-0.046320204,1.0005556,0.00023826328,1.0,1
653728000,653724000,0.7,2.7733179e-06,-0.04280931,1.0005561,0.00020351318,1.0,1
653832000,653832000,0.7,2.764156e-06,-0.091204904,1.000553,0.0009237486,1.0,1
653928000,653924000,0.7,2.7558442e-06,-0.20380463,1.000551,0.004612606,1.0,1
654032000,654032000,0.7,2.7469566e-06,-0.07444378,1.0005484,0.0006154266,1.0,1
654128000,654128000,0.7,2.738886e-06,-0.03993309,1.0005475,0.00017708655,1.0,1
654232000,654232000,0.7,2.730256e-06,-0.062917545,1.0005456,0.00043960652,1.0,1
654328000,654328000,0.6999987,2.722402e-06,-0.054271773,1.0005435,0.0003270917,1.0,1
654424000,654424000,0.7,2.714685e-06,-0.0772323,1.0005407,0.0006624005,1.0,1
654528000,654528000,0.7,2.7064063e-06,-0.1277798,1.0005409,0.0018132057,1.0,1
654632000,654632000,0.7,2.6981832e-06,-0.08455335,1.0005403,0.00079393445,1.0,1
654728000,654728000,0.7,2.690722e-06,-0.0090733245,1.0005374,9.1423335e-06,1.0,1
654824000,654824000,0.7,2.6833802e-06,-0.07385996,1.000536,0.00060581905,1.0,1
654928000,654928000,0.7,2.6755326e-06,-0.14004774,1.0005338,0.0021781006,1.0,1
655032000,655032000,0.7,2.667806e-06,-0.020922206,1.0005317,4.8611786e-05,1.0,1
655128000,655128000,0.7,2.6607947e-06,-0.11177604,1.0005301,0.0013874737,1.0,1
655224000,655224000,0.7,2.6538626e-06,-0.029085286,1.0005289,9.394518e-05,1.0,1
655328000,655328000,0.7,2.6464543e-06,-0.058112033,1.0005268,0.0003750256,1.0,1
655432000,655432000,0.7,2.639159e-06,-0.091110595,1.0005268,0.00092186336,1.0,1
655528000,655528000,0.7,2.6324637e-06,-0.13305609,1.0005258,0.0019660688,1.0,1
655632000,655632000,0.7,2.625311e-06,-0.07371197,1.0005245,0.00060340064,1.0,1
655728000,655728000,0.7,2.6188081e-06,-0.0991011,1.000522,0.001090656,1.0,1
655832000,655832000,0.7,2.6118662e-06,-0.10242982,1.0005207,0.0011651565,1.0,1
655928000,655928000,0.7,2.6055388e-06,-0.1430727,1.0005202,0.002273239,1.0,1
656032000,656032000,0.7,2.598723e-06,-0.18658245,1.0005202,0.0038661007,1.0,1
656128000,656128000,0.7,2.5924846e-06,-0.10588752,1.0005195,0.0012451494,1.0,1
656224000,656224000,0.7,2.5863094e-06,-0.10251719,1.0005183,0.0011671477,1.0,1
656328000,656328000,0.7,2.57971e-06,-0.07371561,1.0005167,0.000603465,1.0,1
656432000,656432000,0.7,2.5732397e-06,-0.14387584,1.0005137,0.0022988475,1.0,1
656528000,656528000,0.7,2.5673523e-06,-0.025449872,1.0005138,7.192926e-05,1.0,1
656632000,656632000,0.7,2.561047e-06,-0.15166646,1.0005124,0.0025545484,1.0,1
656728000,656728000,0.7,2.5552977e-06,-0.12297692,1.0005108,0.0016795113,1.0,1
656832000,656832000,0.7,2.5491627e-06,-0.09825038,1.0005088,0.0010720253,1.0,1
656928000,656928000,0.7,2.543598e-06,-0.050832443,1.000507,0.00028695865,1.0,1
657024000,657024000,0.7,2.5381096e-06,-0.15300232,1.0005068,0.0025997616,1.0,1
657128000,657124000,0.7,2.5322042e-06,-0.06805296,1.0005056,0.00051431835,1.0,1
657232000,657232000,0.7,2.5263837e-06,-0.14489543,1.0005052,0.0023315651,1.0,1
657328000,657328000,0.7,2.5210586e-06,-0.075267434,1.0005037,0.00062914833,1.0,1
657432000,657432000,0.7,2.5153768e-06,-0.05227922,1.0005022,0.0003035272,1.0,1
657528000,657528000,0.7,2.5101976e-06,-0.09052466,1.0005016,0.00091006723,1.0,1
657632000,657632000,0.7,2.5046643e-06,-0.16866882,1.0004996,0.0031594406,1.0,1
657728000,657728000,0.7,2.4996311e-06,-0.13612103,1.0004987,0.0020577447,1.0,1
657832000,657832000,0.69999915,2.494267e-06,0.016391098,1.0004963,2.9837207e-05,1.0,1
657928000,657928000,0.6999979,2.4893916e-06,0.058580518,1.0004969,0.0003811081,1.0,1
658032000,658032000,0.7,2.4841536e-06,-0.15859407,1.0004951,0.0027932927,1.0,1
658128000,658128000,0.7,2.4793508e-06,-0.12737702,1.0004948,0.0018018754,1.0,1
658232000,658232000,0.7,2.474193e-06,-0.057582267,1.0004951,0.00036823074,1.0,1
658328000,658328000,0.7,2.4694868e-06,-0.046507414,1.0004936,0.00024020804,1.0,1
658432000,658432000,0.7,2.4644573e-06,-0.1619528,1.0004928,0.0029128653,1.0,1
658528000,658528000,0.7,2.4598667e-06,-0.08686182,1.0004922,0.0008379182,1.0,1
658632000,658632000,0.7,2.4549465e-06,-0.008522555,1.0004909,8.066479e-06,1.0,1
658728000,658728000,0.7,2.4504932e-06,-0.009682849,1.0004888,1.0412419e-05,1.0,1
658832000,658832000,0.7,2.4457506e-06,-0.049789563,1.0004866,0.00027531054,1.0,1
658928000,658928000,0.7,2.4414348e-06,-0.17039856,1.0004866,0.0032246166,1.0,1
659032000,659032000,0.69998956,2.4371857e-06,-0.07696822,1.0004518,0.0006579369,1.0,1
659128000,659128000,0.7,2.43422e-06,-0.51434124,1.0004426,0.029381096,1.0,1
659232000,659232000,0.7,2.4307633e-06,-0.46865332,1.0004572,0.024392841,1.0,1
659328000,659328000,0.7,2.4272763e-06,-0.3586951,1.0004612,0.014289206,1.0,1
659432000,659432000,0.7,2.423491e-06,-0.3911174,1.0004646,0.016989088,1.0,1
659528000,659528000,0.7,2.419858e-06,-0.2936643,1.0004702,0.009577578,1.0,1
659632000,659632000,0.7,2.4159199e-06,-0.23573649,1.000466,0.0061717564,1.0,1
659728000,659728000,0.7,2.4124245e-06,-0.21870074,1.0004618,0.0053119925,1.0,1
659832000,659832000,0.6999869,2.4093172e-06,0.026695788,1.0004276,7.915117e-05,1.0,1
659928000,659928000,0.7,2.4071721e-06,-0.12219125,1.0004119,0.0016582839,1.0,1
660032000,660032000,0.7,2.405118e-06,-0.2779883,1.000413,0.008582845,1.0,1
660128000,660128000,0.7,2.4028789e-06,-0.3650837,1.000431,0.014803188,1.0,1
660232000,660232000,0.7,2.4002459e-06,-0.30174637,1.0004332,0.0101123825,1.0,1
660328000,660328000,0.7,2.3974396e-06,-0.43913597,1.0004525,0.02141702,1.0,1
660432000,660432000,0.7,2.3936811e-06,-0.43037343,1.0004902,0.02057006,1.0,1
660528000,660528000,0.7,2.3890773e-06,-0.1218856,1.0005131,0.0016498312,1.0,1
660632000,660632000,0.7,2.384295e-06,-0.160363,1.0004942,0.0028559545,1.0,1
660728000,660728000,0.7,2.3801122e-06,-0.22740509,1.0004965,0.0057430454,1.0,1
660832000,660832000,0.7,2.3757366e-06,-0.29661348,1.0004871,0.009770747,1.0,1
660928000,660928000,0.7,2.3716955e-06,-0.20762327,1.0004927,0.0047873547,1.0,1
661032000,661032000,0.7,2.3674459e-06,-0.27413598,1.0004876,0.00834599,1.0,1
661128000,661128000,0.7,2.3635635e-06,-0.25584814,1.0004883,0.007269591,1.0,1
661232000,661228000,0.7,2.3594705e-06,-0.2743894,1.0004883,0.008361421,1.0,1
661328000,661324000,0.7,2.355654e-06,-0.17705879,1.0004853,0.0034816233,1.0,1
661424000,661424000,0.7,2.3519572e-06,-0.24766925,1.0004826,0.0068122745,1.0,1
661528000,661528000,0.7,2.3479001e-06,-0.2588831,1.0004867,0.0074430946,1.0,1
661624000,661620000,0.7,2.3442735e-06,-0.1873553,1.0004797,0.0038983529,1.0,1
661728000,661728000,0.7,2.3403773e-06,-0.19287884,1.0004861,0.004131574,1.0,1
661824000,661824000,0.7,2.3368536e-06,-0.18913789,1.000479,0.003972891,1.0,1
661928000,661928000,0.7,2.3331554e-06,-0.19161274,1.0004791,0.00407754,1.0,1
662024000,662024000,0.7,2.329783e-06,-0.36068606,1.0004772,0.014448044,1.0,1
662128000,662128000,0.7,2.325994e-06,-0.12074217,1.0004827,0.001619071,1.0,1
662232000,662232000,0.7,2.3223463e-06,-0.12196333,1.0004741,0.0016520006,1.0,1
662328000,662328000,0.7,2.3190892e-06,-0.21085154,1.0004764,0.0049374667,1.0,1
662424000,662420000,0.7,2.3158782e-06,-0.26084352,1.0004724,0.0075563574,1.0,1
662528000,662528000,0.7,2.3123735e-06,-0.2686611,1.0004783,0.008016032,1.0,1
662624000,662624000,0.7,2.3091336e-06,-0.14300482,1.0004764,0.0022711821,1.0,1
662728000,662728000,0.7,2.3056496e-06,-0.2576819,1.0004778,0.0073742503,1.0,1
662832000,662832000,0.7,2.3022028e-06,-0.24764381,1.0004741,0.006810933,1.0,1
662928000,662928000,0.7,2.2990553e-06,-0.34649336,1.0004764,0.013333387,1.0,1
663032000,663032000,0.7,2.295703e-06,-0.261576,1.0004716,0.0075988616,1.0,1
663128000,663128000,0.7,2.2926538e-06,-0.256122,1.0004736,0.0072852685,1.0,1
663232000,663232000,0.7,2.2893892e-06,-0.3333294,1.000471,0.012339576,1.0,1
663328000,663328000,0.6999185,2.293552e-06,3.9398725,14.312454,0.120505735,14.301116,1
663432000,663432000,0.69986653,2.3038344e-06,2.9054992,13.972682,0.0671304,13.935688,1
663528000,663528000,0.69980615,2.3133728e-06,3.2593532,13.570299,0.0869823,13.537263,1
663632000,663632000,0.6997334,2.3237517e-06,3.9008358,13.213114,0.12795806,13.188954,1
663728000,663728000,0.6996611,2.333377e-06,4.2394447,12.9609995,0.1540767,12.939374,1
663832000,663832000,0.6995795,2.3438558e-06,4.911099,12.752615,0.21014333,12.7402525,1
663928000,663928000,0.6995349,2.3537625e-06,8.224866,13.662748,0.5501449,13.745536,1
664032000,664032000,0.6994925,2.364516e-06,8.237405,14.498169,0.5200261,14.552932,1
664128000,664128000,0.69945484,2.3744433e-06,8.188591,14.996174,0.4968158,15.027782,1
664232000,664232000,0.69941485,2.3851997e-06,8.106067,15.276143,0.47792983,15.286876,1
664328000,664328000,0.6993782,2.3951286e-06,8.129245,15.34826,0.47840834,15.346827,1
664424000,664424000,0.6993414,2.4050576e-06,8.162853,15.275565,0.4846678,15.264946,1
664528000,0,nan,nan,nan,nan,nan,nan,0
