timestamp,timestamp_sample,states[0],states[1],states[2],states[3],states[4],states[5],states[6],states[7],states[8],states[9],states[10],states[11],states[12],states[13],states[14],states[15],states[16],states[17],states[18],states[19],states[20],states[21],states[22],states[23],states[24],covariances[0],covariances[1],covariances[2],covariances[3],covariances[4],covariances[5],covariances[6],covariances[7],covariances[8],covariances[9],covariances[10],covariances[11],covariances[12],covariances[13],covariances[14],covariances[15],covariances[16],covariances[17],covariances[18],covariances[19],covariances[20],covariances[21],covariances[22],covariances[23],n_states
625256000,625104000,-0.62311375,0.0016216916,-0.00057396083,-0.7821294,0.046555996,0.012589523,0.011969185,0.0,0.0,-488.06647,-2.9029565e-05,0.00013650938,-6.1287275e-05,-0.013152529,-0.0048363456,0.0032495393,0.21572784,0.012471729,0.4301477,-0.0004937168,0.00015385142,-0.00090571604,0.0,0.0,-487.96646,1.528267e-05,1.5333262e-05,0.00039049616,0.012717866,0.012861859,0.004995094,0.104439676,0.104755506,0.079104334,1.5619966e-07,1.564961e-07,2.9252521e-07,0.0002036309,0.00021922607,8.752286e-06,2.9115974e-06,3.809528e-06,9.114872e-05,5.5253345e-06,2.753013e-06,9.0568865e-05,1.0,1.0,0.010000001,25
625264000,625112000,-0.62307745,0.0016844426,-0.0005827137,-0.7821582,0.04742062,0.013444189,0.0117645785,0.0,0.0,-488.06638,-2.9029565e-05,0.00013650938,-6.1287275e-05,-0.013152529,-0.0048363456,0.0032495393,0.21572784,0.012471729,0.4301477,-0.0004937168,0.00015385142,-0.00090571604,0.0,0.0,-487.96637,1.5308317e-05,1.5358803e-05,0.00039059043,0.012771288,0.012916192,0.0050036064,0.10480331,0.105122454,0.0793189,1.5626367e-07,1.565601e-07,2.9258922e-07,0.00020363148,0.00021922665,8.7528615e-06,2.9116613e-06,3.8095918e-06,9.114879e-05,5.525335e-06,2.7530136e-06,9.0568865e-05,1.0,1.0,0.010000001,25
625272000,625120000,-0.62310034,0.0017117128,-0.0005487383,-0.7821399,0.046754234,0.014209806,0.011863738,0.0,0.0,-488.06628,-2.9029565e-05,0.00013650938,-6.1287275e-05,-0.013152529,-0.0048363456,0.0032495393,0.21572784,0.012471729,0.4301477,-0.0004937168,0.00015385142,-0.00090571604,0.0,0.0,-487.96628,1.5333986e-05,1.5384367e-05,0.00039068479,0.01282471,0.012970096,0.005012118,0.10516895,0.105491444,0.07953413,1.5632767e-07,1.5662411e-07,2.9265323e-07,0.00020363207,0.00021922724,8.753437e-06,2.9117252e-06,3.8096557e-06,9.114885e-05,5.5253354e-06,2.7530143e-06,9.0568865e-05,1.0,1.0,0.010000001,25
625280000,625128000,-0.6231049,0.0017425625,-0.00053324294,-0.7821362,0.046435993,0.013550903,0.012053841,0.0,0.0,-488.0662,-2.8688726e-05,0.00013622479,-6.21317e-05,-0.0131526785,-0.0048370655,0.0032495395,0.21572879,0.012471835,0.43014762,-0.0004937838,0.00015343571,-0.0009060875,0.0,0.0,-487.9662,1.535005e-05,1.5394395e-05,0.0003900224,0.012870835,0.013020321,0.0050206287,0.105528906,0.105859496,0.07975001,1.5634839e-07,1.5665852e-07,2.9230455e-07,0.00020363239,0.00021922735,8.754013e-06,2.911484e-06,3.8090961e-06,9.114856e-05,5.525333e-06,2.7529547e-06,9.05688e-05,1.0,1.0,0.010000001,25
625288000,625136000,-0.6231137,0.0017381563,-0.0005108421,-0.7821292,0.047020596,0.012978399,0.011589713,0.0,0.0,-488.0661,-2.8688726e-05,0.00013622479,-6.21317e-05,-0.0131526785,-0.0048370655,0.0032495395,0.21572879,0.012471835,0.43014762,-0.0004937838,0.00015343571,-0.0009060875,0.0,0.0,-487.9661,1.5375746e-05,1.5419979e-05,0.0003901164,0.012924865,0.013075247,0.0050291424,0.10589847,0.10623252,0.079966545,1.564124e-07,1.5672252e-07,2.9236855e-07,0.00020363297,0.00021922794,8.754589e-06,2.9115479e-06,3.80916e-06,9.114863e-05,5.5253336e-06,2.7529554e-06,9.05688e-05,1.0,1.0,0.010000001,25
625296000,625144000,-0.6231038,0.0016644746,-0.0005027641,-0.78213716,0.04760027,0.012266643,0.011518575,0.0,0.0,-488.066,-2.8688726e-05,0.00013622479,-6.21317e-05,-0.0131526785,-0.0048370655,0.0032495395,0.21572879,0.012471835,0.43014762,-0.0004937838,0.00015343571,-0.0009060875,0.0,0.0,-487.966,1.5401465e-05,1.5445587e-05,0.0003902105,0.012978842,0.013130125,0.005037657,0.10627008,0.10660761,0.08018374,1.564764e-07,1.5678653e-07,2.9243256e-07,0.00020363355,0.00021922852,8.755164e-06,2.9116118e-06,3.809224e-06,9.114869e-05,5.525334e-06,2.752956e-06,9.05688e-05,1.0,1.0,0.010000001,25
625304000,625152000,-0.6230589,0.001644393,-0.00047959457,-0.78217316,0.048056208,0.011991232,0.011455484,0.0,0.0,-488.06592,-2.8688726e-05,0.00013622479,-6.21317e-05,-0.0131526785,-0.0048370655,0.0032495395,0.21572879,0.012471835,0.43014762,-0.0004937838,0.00015343571,-0.0009060875,0.0,0.0,-487.9659,1.5427193e-05,1.5471203e-05,0.00039030446,0.013033003,0.013185143,0.005046173,0.10664374,0.10698478,0.080401585,1.5654041e-07,1.5685053e-07,2.9249657e-07,0.00020363413,0.0002192291,8.75574e-06,2.9116757e-06,3.8092878e-06,9.114876e-05,5.5253345e-06,2.7529568e-06,9.05688e-05,1.0,1.0,0.010000001,25
625312000,625160000,-0.623061,0.0016933198,-0.00046633044,-0.78217137,0.047874738,0.010682927,0.010915168,0.0,0.0,-488.06583,-2.8688726e-05,0.00013622479,-6.21317e-05,-0.0131526785,-0.0048370655,0.0032495395,0.21572879,0.012471835,0.43014762,-0.0004937838,0.00015343571,-0.0009060875,0.0,0.0,-487.96582,1.545295e-05,1.5496853e-05,0.00039039867,0.013087607,0.0132404445,0.005054688,0.10701945,0.107364036,0.080620095,1.5660441e-07,1.5691454e-07,2.9256057e-07,0.00020363471,0.00021922968,8.756316e-06,2.9117396e-06,3.8093517e-06,9.1148824e-05,5.525335e-06,2.7529575e-06,9.05688e-05,1.0,1.0,0.010000001,25
625328000,625176000,-0.6231115,0.0017037763,-0.00044088298,-0.78213114,0.048003543,0.011409141,0.011218445,0.0,0.0,-488.06546,-2.86886e-05,0.0001362248,-6.213171e-05,-0.013152655,-0.0048370603,0.0032492753,0.21572879,0.012471835,0.43014762,-0.00049378496,0.00015343558,-0.0009060875,0.0,0.0,-487.96545,1.5504527e-05,1.5548207e-05,0.00039058708,0.013196622,0.013350928,0.0050565186,0.10777708,0.108128846,0.08053137,1.5673243e-07,1.5704255e-07,2.9268858e-07,0.00020363586,0.00021923085,8.756457e-06,2.9118673e-06,3.8094795e-06,9.1148955e-05,5.525336e-06,2.7529588e-06,9.05688e-05,1.0,1.0,0.010000001,25
625336000,625184000,-0.6231611,0.0017259617,-0.00043547567,-0.7820916,0.047535457,0.011969108,0.010787122,0.0,0.0,-488.06537,-2.86886e-05,0.0001362248,-6.213171e-05,-0.013152655,-0.0048370603,0.0032492753,0.21572879,0.012471835,0.43014762,-0.00049378496,0.00015343558,-0.0009060875,0.0,0.0,-487.96536,1.5530346e-05,1.5573914e-05,0.0003906814,0.013251744,0.013406634,0.005065037,0.10815903,0.10851442,0.080750436,1.5679643e-07,1.5710656e-07,2.927526e-07,0.00020363645,0.00021923143,8.757032e-06,2.9119312e-06,3.8095434e-06,9.114902e-05,5.5253363e-06,2.7529595e-06,9.05688e-05,1.0,1.0,0.010000001,25
625344000,625192000,-0.6232119,0.0017431894,-0.00044654557,-0.7820509,0.047526952,0.012240305,0.011008821,0.0,0.0,-488.06528,-2.86886e-05,0.0001362248,-6.213171e-05,-0.013152655,-0.0048370603,0.0032492753,0.21572879,0.012471835,0.43014762,-0.00049378496,0.00015343558,-0.0009060875,0.0,0.0,-487.96527,1.5556187e-05,1.5599644e-05,0.00039077576,0.013306651,0.01346226,0.0050735567,0.108543076,0.10890213,0.08097016,1.5686044e-07,1.5717056e-07,2.928166e-07,0.00020363703,0.00021923201,8.757608e-06,2.9119951e-06,3.8096073e-06,9.1149086e-05,5.5253367e-06,2.7529602e-06,9.05688e-05,1.0,1.0,0.010000001,25
625352000,625200000,-0.62321573,0.001753352,-0.0004493822,-0.78204787,0.047769256,0.012227314,0.011652603,0.0,0.0,-488.0652,-2.8304532e-05,0.00013558062,-6.425768e-05,-0.013152733,-0.004837585,0.003249275,0.21573034,0.012471937,0.4301484,-0.000493918,0.00015272804,-0.0009063625,0.0,0.0,-487.96518,1.5572132e-05,1.5609337e-05,0.00039011418,0.013353574,0.013513692,0.0050820773,0.10892035,0.109288484,0.08119055,1.5687988e-07,1.5720418e-07,2.924681e-07,0.00020363735,0.00021923213,8.758184e-06,2.9117546e-06,3.8090477e-06,9.114879e-05,5.5253345e-06,2.7529004e-06,9.0568734e-05,1.0,1.0,0.010000001,25
625368000,625216000,-0.62324506,0.0017370716,-0.0004489881,-0.78202456,0.048490793,0.013317303,0.010817453,0.0,0.0,-488.065,-2.8304532e-05,0.00013558062,-6.425768e-05,-0.013152733,-0.004837585,0.003249275,0.21573034,0.012471937,0.4301484,-0.000493918,0.00015272804,-0.0009063625,0.0,0.0,-487.965,1.5623886e-05,1.5660858e-05,0.00039030227,0.0134649705,0.0136268055,0.0050991243,0.10969874,0.110074475,0.081633314,1.5700789e-07,1.573322e-07,2.925961e-07,0.00020363851,0.00021923329,8.759335e-06,2.9118823e-06,3.8091755e-06,9.114892e-05,5.5253354e-06,2.7529018e-06,9.0568734e-05,1.0,1.0,0.010000001,25
625376000,625224000,-0.6232189,0.0017349157,-0.00043664238,-0.7820454,0.048660476,0.012769771,0.010831177,0.0,0.0,-488.0649,-2.8304532e-05,0.00013558062,-6.425768e-05,-0.013152733,-0.004837585,0.003249275,0.21573034,0.012471937,0.4301484,-0.000493918,0.00015272804,-0.0009063625,0.0,0.0,-487.9649,1.5649797e-05,1.5686652e-05,0.0003903965,0.01352066,0.013683318,0.0051076477,0.11009114,0.11047072,0.0818557,1.570719e-07,1.573962e-07,2.926601e-07,0.0002036391,0.00021923387,8.759911e-06,2.9119462e-06,3.8092394e-06,9.1148984e-05,5.525336e-06,2.7529024e-06,9.0568734e-05,1.0,1.0,0.010000001,25
625384000,625232000,-0.6232056,0.0017280871,-0.0004130476,-0.7820561,0.047941923,0.012420841,0.010555096,0.0,0.0,-488.06482,-2.8304532e-05,0.00013558062,-6.425768e-05,-0.013152733,-0.004837585,0.003249275,0.21573034,0.012471937,0.4301484,-0.000493918,0.00015272804,-0.0009063625,0.0,0.0,-487.9648,1.5675725e-05,1.5712463e-05,0.00039049066,0.013576715,0.013739933,0.005116171,0.110485695,0.11086915,0.082078755,1.571359e-07,1.574602e-07,2.927241e-07,0.00020363968,0.00021923445,8.760487e-06,2.9120101e-06,3.8093033e-06,9.114905e-05,5.5253363e-06,2.7529031e-06,9.0568734e-05,1.0,1.0,0.010000001,25
625392000,625240000,-0.623206,0.0017302475,-0.00038840692,-0.78205574,0.047772504,0.012170989,0.010969445,0.0,0.0,-488.06473,-2.8304532e-05,0.00013558062,-6.425768e-05,-0.013152733,-0.004837585,0.003249275,0.21573034,0.012471937,0.4301484,-0.000493918,0.00015272804,-0.0009063625,0.0,0.0,-487.96472,1.5701678e-05,1.5738298e-05,0.00039058496,0.013632533,0.0137964655,0.005124697,0.1108824,0.11126976,0.082302466,1.571999e-07,1.5752421e-07,2.9278812e-07,0.00020364026,0.00021923504,8.761062e-06,2.912074e-06,3.8093672e-06,9.1149115e-05,5.5253367e-06,2.7529038e-06,9.0568734e-05,1.0,1.0,0.010000001,25
625408000,625256000,-0.62320906,0.0016932475,-0.00039269013,-0.7820534,0.047446262,0.010890284,0.010596499,0.0,0.0,-488.06494,-2.8304807e-05,0.00013558059,-6.4257656e-05,-0.013152784,-0.004837596,0.0032498376,0.21573034,0.012471938,0.4301484,-0.0004939156,0.00015272832,-0.00090636255,0.0,0.0,-487.96494,1.5753634e-05,1.5790021e-05,0.00039077346,0.013745402,0.013910804,0.005125906,0.11168232,0.11207757,0.08220348,1.5732792e-07,1.5765222e-07,2.9291613e-07,0.00020364141,0.0002192362,8.761161e-06,2.9122018e-06,3.809495e-06,9.1149246e-05,5.5253377e-06,2.7529052e-06,9.0568734e-05,1.0,1.0,0.010000001,25
625416000,625264000,-0.62316823,0.0016970539,-0.00036946614,-0.7820859,0.047180865,0.011102505,0.010161847,0.0,0.0,-488.06485,-2.8304807e-05,0.00013558059,-6.4257656e-05,-0.013152784,-0.004837596,0.0032498376,0.21573034,0.012471938,0.4301484,-0.0004939156,0.00015272832,-0.00090636255,0.0,0.0,-487.96484,1.5779648e-05,1.5815918e-05,0.00039086788,0.013802307,0.013968402,0.005134433,0.11208556,0.112484805,0.08242771,1.5739192e-07,1.5771623e-07,2.9298013e-07,0.00020364199,0.00021923678,8.761736e-06,2.9122657e-06,3.8095588e-06,9.114931e-05,5.525338e-06,2.7529059e-06,9.0568734e-05,1.0,1.0,0.010000001,25
625424000,625272000,-0.62318975,0.0017214125,-0.0003191824,-0.7820688,0.046363883,0.010744969,0.009631941,0.0,0.0,-488.06476,-2.866385e-05,0.00013589591,-6.333575e-05,-0.013152712,-0.004836954,0.0032498373,0.21572934,0.012471951,0.43014842,-0.0004938477,0.000153169,-0.00090599345,0.0,0.0,-487.96475,1.5795471e-05,1.5825266e-05,0.000390207,0.013850994,0.014021711,0.00514296,0.11248084,0.11289023,0.08265262,1.5741007e-07,1.5774906e-07,2.926318e-07,0.00020364231,0.0002192369,8.762312e-06,2.9120263e-06,3.8089993e-06,9.114901e-05,5.525336e-06,2.752846e-06,9.056867e-05,1.0,1.0,0.010000001,25
625432000,625280000,-0.62318426,0.0017773457,-0.0002658643,-0.78207296,0.045384817,0.009942777,0.009494937,0.0,0.0,-488.06467,-3.105356e-05,0.0001356001,-6.706689e-05,-0.013152591,-0.004836895,0.003249837,0.21572939,0.012472311,0.43014842,-0.0004938968,0.00015316004,-0.0009060337,0.0,0.0,-487.96466,1.5819125e-05,1.5848884e-05,0.00039019095,0.013906987,0.014078211,0.005151488,0.11288742,0.11330077,0.08287821,1.5736394e-07,1.5770237e-07,2.923155e-07,0.00020364289,0.00021923748,8.762888e-06,2.9120902e-06,3.8090595e-06,9.114908e-05,5.5253363e-06,2.7528467e-06,9.056867e-05,1.0,1.0,0.010000001,25
625448000,625296000,-0.62316155,0.0017656066,-0.00031284403,-0.78209114,0.045738302,0.0092931045,0.009497166,0.0,0.0,-488.06454,-3.105356e-05,0.0001356001,-6.706689e-05,-0.013152591,-0.004836895,0.003249837,0.21572939,0.012472311,0.43014842,-0.0004938968,0.00015316004,-0.0009060337,0.0,0.0,-487.96454,1.5871248e-05,1.5900767e-05,0.00039037905,0.014021408,0.014194359,0.00516855,0.11370907,0.11413077,0.0833314,1.5749195e-07,1.5783039e-07,2.924435e-07,0.00020364406,0.00021923865,8.764039e-06,2.912218e-06,3.8091873e-06,9.114921e-05,5.525337e-06,2.752848e-06,9.056867e-05,1.0,1.0,0.010000001,25
625456000,625304000,-0.6231425,0.0017945729,-0.00039135004,-0.7821063,0.04534189,0.009275621,0.008890353,0.0,0.0,-488.06448,-3.105356e-05,0.0001356001,-6.706689e-05,-0.013152591,-0.004836895,0.003249837,0.21572939,0.012472311,0.43014842,-0.0004938968,0.00015316004,-0.0009060337,0.0,0.0,-487.96448,1.5897342e-05,1.5926738e-05,0.00039047314,0.014079289,0.014252934,0.0051770825,0.11412325,0.11454917,0.08355901,1.5755596e-07,1.5789439e-07,2.925075e-07,0.00020364464,0.00021923923,8.764615e-06,2.9122818e-06,3.8092512e-06,9.1149275e-05,5.5253377e-06,2.7528488e-06,9.056867e-05,1.0,1.0,0.010000001,25
625464000,625312000,-0.6231396,0.0018039572,-0.0004072212,-0.7821085,0.044929847,0.008657536,0.008586921,0.0,0.0,-488.06442,-3.105356e-05,0.0001356001,-6.706689e-05,-0.013152591,-0.004836895,0.003249837,0.21572939,0.012472311,0.43014842,-0.0004938968,0.00015316004,-0.0009060337,0.0,0.0,-487.96442,1.5923457e-05,1.5952732e-05,0.00039056738,0.014137156,0.014311499,0.0051856157,0.11453968,0.11496986,0.08378729,1.5761997e-07,1.579584e-07,2.925715e-07,0.00020364522,0.00021923981,8.765191e-06,2.9123457e-06,3.809315e-06,9.114934e-05,5.525338e-06,2.7528495e-06,9.056867e-05,1.0,1.0,0.010000001,25
625472000,625320000,-0.6231479,0.0018502087,-0.00038705705,-0.78210175,0.044655543,0.008011712,0.009057499,0.0,0.0,-488.06424,-3.1053474e-05,0.00013560012,-6.7066896e-05,-0.013152575,-0.004836892,0.003249659,0.21572939,0.012472311,0.43014842,-0.00049389753,0.00015315996,-0.0009060337,0.0,0.0,-487.96423,1.5949592e-05,1.5978747e-05,0.00039066168,0.014194732,0.014369805,0.005177657,0.11495838,0.115392834,0.08344947,1.5768397e-07,1.580224e-07,2.9263552e-07,0.00020364579,0.00021924039,8.7646695e-06,2.9124096e-06,3.809379e-06,9.1149406e-05,5.5253386e-06,2.7528502e-06,9.056867e-05,1.0,1.0,0.010000001,25
625488000,625336000,-0.62314206,0.0019159764,-0.0003350247,-0.78210634,0.044818915,0.007789622,0.008617535,0.0,0.0,-488.06412,-3.1053474e-05,0.00013560012,-6.7066896e-05,-0.013152575,-0.004836892,0.003249659,0.21572939,0.012472311,0.43014842,-0.00049389753,0.00015315996,-0.0009060337,0.0,0.0,-487.9641,1.6001923e-05,1.6030835e-05,0.0003908503,0.014311318,0.014488075,0.005194727,0.11580261,0.1162457,0.08390633,1.5781198e-07,1.5815041e-07,2.9276353e-07,0.00020364695,0.00021924156,8.765821e-06,2.9125374e-06,3.8095068e-06,9.114954e-05,5.5253395e-06,2.7528515e-06,9.056867e-05,1.0,1.0,0.010000001,25
625496000,625344000,-0.6231109,0.0019548994,-0.00034240627,-0.782131,0.04394074,0.007388719,0.008579745,0.0,0.0,-488.06406,-3.2180782e-05,0.00013539157,-6.849287e-05,-0.013152286,-0.0048348363,0.003249657,0.21572706,0.012472145,0.4301492,-0.0004937541,0.00015415622,-0.0009048671,0.0,0.0,-487.96405,1.6017617e-05,1.603983e-05,0.0003901914,0.0143607585,0.014542492,0.005203263,0.11621656,0.11667095,0.08413578,1.5782886e-07,1.5818249e-07,2.9241647e-07,0.00020364727,0.00021924167,8.766397e-06,2.9122994e-06,3.8089472e-06,9.114923e-05,5.525337e-06,2.7527915e-06,9.0568596e-05,1.0,1.0,0.010000001,25
625504000,625352000,-0.6231233,0.0020145096,-0.0003063178,-0.782121,0.04343137,0.0074305953,0.008273877,0.0,0.0,-488.064,-3.2180782e-05,0.00013539157,-6.849287e-05,-0.013152286,-0.0048348363,0.003249657,0.21572706,0.012472145,0.4301492,-0.0004937541,0.00015415622,-0.0009048671,0.0,0.0,-487.964,1.6043821e-05,1.6065907e-05,0.00039028542,0.014419522,0.014601943,0.0052118,0.11664425,0.11710314,0.084365904,1.5789287e-07,1.582465e-07,2.9248048e-07,0.00020364785,0.00021924225,8.766972e-06,2.9123632e-06,3.809011e-06,9.11493e-05,5.5253377e-06,2.7527922e-06,9.0568596e-05,1.0,1.0,0.010000001,25
625512000,625360000,-0.6231512,0.0020785157,-0.00030229017,-0.7820986,0.043421783,0.0072950283,0.008975416,0.0,0.0,-488.06393,-3.2180782e-05,0.00013539157,-6.849287e-05,-0.013152286,-0.0048348363,0.003249657,0.21572706,0.012472145,0.4301492,-0.0004937541,0.00015415622,-0.0009048671,0.0,0.0,-487.96393,1.6070046e-05,1.6092004e-05,0.00039037952,0.014477819,0.014661077,0.0052203387,0.11707425,0.11753767,0.084596716,1.5795688e-07,1.583105e-07,2.9254448e-07,0.00020364844,0.00021924284,8.767548e-06,2.9124271e-06,3.809075e-06,9.114936e-05,5.525338e-06,2.7527929e-06,9.0568596e-05,1.0,1.0,0.010000001,25
625528000,625376000,-0.6231313,0.0020291836,-0.0002682499,-0.78211457,0.044719096,0.006935376,0.009319462,0.0,0.0,-488.0638,-3.2180782e-05,0.00013539157,-6.849287e-05,-0.013152286,-0.0048348363,0.003249657,0.21572706,0.012472145,0.4301492,-0.0004937541,0.00015415622,-0.0009048671,0.0,0.0,-487.9638,1.6122554e-05,1.6144259e-05,0.0003905678,0.014595664,0.014781035,0.00523742,0.11794124,0.11841381,0.085060395,1.5808489e-07,1.5843851e-07,2.926725e-07,0.0002036496,0.000219244,8.768699e-06,2.912555e-06,3.8092028e-06,9.114949e-05,5.525339e-06,2.7527942e-06,9.0568596e-05,1.0,1.0,0.010000001,25
625536000,625384000,-0.6231121,0.002004898,-0.0002144449,-0.78212994,0.044765648,0.006671653,0.008963317,0.0,0.0,-488.06375,-3.2180782e-05,0.00013539157,-6.849287e-05,-0.013152286,-0.0048348363,0.003249657,0.21572706,0.012472145,0.4301492,-0.0004937541,0.00015415622,-0.0009048671,0.0,0.0,-487.96375,1.614884e-05,1.6170416e-05,0.00039066197,0.014655216,0.014841464,0.0052459617,0.118378244,0.11885545,0.08529326,1.581489e-07,1.5850252e-07,2.927365e-07,0.00020365018,0.00021924458,8.769275e-06,2.9126188e-06,3.8092667e-06,9.114956e-05,5.5253395e-06,2.752795e-06,9.0568596e-05,1.0,1.0,0.010000001,25
625544000,625392000,-0.6230917,0.0019570426,-0.00018681366,-0.7821463,0.044911012,0.006745892,0.009021086,0.0,0.0,-488.06418,-3.2181124e-05,0.00013539154,-6.8492845e-05,-0.013152347,-0.004834849,0.0032503374,0.21572706,0.012472146,0.4301492,-0.00049375114,0.00015415656,-0.00090486713,0.0,0.0,-487.96417,1.6175145e-05,1.6196593e-05,0.0003907562,0.014714638,0.014901789,0.0052373474,0.118817605,0.11929948,0.08493954,1.582129e-07,1.5856652e-07,2.928005e-07,0.00020365075,0.00021924516,8.768709e-06,2.9126827e-06,3.8093306e-06,9.1149624e-05,5.52534e-06,2.7527956e-06,9.0568596e-05,1.0,1.0,0.010000001,25
625552000,625400000,-0.6230859,0.0019685163,-0.00016758834,-0.782151,0.045512754,0.007362382,0.0095116645,0.0,0.0,-488.06412,-3.2181124e-05,0.00013539154,-6.8492845e-05,-0.013152347,-0.004834849,0.0032503374,0.21572706,0.012472146,0.4301492,-0.00049375114,0.00015415656,-0.00090486713,0.0,0.0,-487.9641,1.6201468e-05,1.6222786e-05,0.00039085036,0.014774027,0.014962213,0.005245891,0.119259335,0.11974592,0.08517217,1.582769e-07,1.5863053e-07,2.928645e-07,0.00020365133,0.00021924575,8.769285e-06,2.9127466e-06,3.8093945e-06,9.114969e-05,5.5253404e-06,2.7527963e-06,9.0568596e-05,1.0,1.0,0.010000001,25
625568000,625416000,-0.62309057,0.0020549025,-0.00011492092,-0.7821471,0.045762625,0.007881461,0.010185186,0.0,0.0,-488.06393,-3.2409855e-05,0.00013517846,-6.9381116e-05,-0.013152307,-0.004834423,0.0032503372,0.21572675,0.012472152,0.43014959,-0.0004937401,0.00015428082,-0.0009046015,0.0,0.0,-487.96393,1.624337e-05,1.625763e-05,0.00039028638,0.014883958,0.015078526,0.00526298,0.12013677,0.120640665,0.085639484,1.5835646e-07,1.5872578e-07,2.9258166e-07,0.00020365223,0.00021924645,8.770437e-06,2.9125742e-06,3.8088988e-06,9.1149435e-05,5.525338e-06,2.7527367e-06,9.0568516e-05,1.0,1.0,0.010000001,25
625576000,625424000,-0.6230692,0.0020943438,-0.00010508083,-0.78216386,0.04611604,0.0072772442,0.009984091,0.0,0.0,-488.06384,-3.2409855e-05,0.00013517846,-6.9381116e-05,-0.013152307,-0.004834423,0.0032503372,0.21572675,0.012472152,0.43014959,-0.0004937401,0.00015428082,-0.0009046015,0.0,0.0,-487.96384,1.6269756e-05,1.6283884e-05,0.00039038065,0.014944295,0.015139883,0.005271525,0.12058549,0.121094294,0.08587418,1.5842046e-07,1.5878979e-07,2.9264567e-07,0.00020365282,0.00021924703,8.771012e-06,2.9126381e-06,3.8089627e-06,9.11495e-05,5.5253386e-06,2.7527374e-06,9.0568516e-05,1.0,1.0,0.010000001,25
625584000,625432000,-0.6230489,0.0020900345,-9.715947e-05,-0.7821802,0.045930095,0.007590783,0.010482654,0.0,0.0,-488.06375,-3.2409855e-05,0.00013517846,-6.9381116e-05,-0.013152307,-0.004834423,0.0032503372,0.21572675,0.012472152,0.43014959,-0.0004937401,0.00015428082,-0.0009046015,0.0,0.0,-487.96375,1.6296153e-05,1.631015e-05,0.0003904748,0.015004373,0.015200787,0.0052800714,0.12103662,0.121550374,0.08610956,1.5848447e-07,1.588538e-07,2.9270967e-07,0.0002036534,0.00021924761,8.771588e-06,2.912702e-06,3.8090266e-06,9.1149566e-05,5.525339e-06,2.752738e-06,9.0568516e-05,1.0,1.0,0.010000001,25
625592000,625440000,-0.6230398,0.0020736158,-6.594201e-05,-0.7821875,0.04586875,0.0076462296,0.010819539,0.0,0.0,-488.06366,-3.2409855e-05,0.00013517846,-6.9381116e-05,-0.013152307,-0.004834423,0.0032503372,0.21572675,0.012472152,0.43014959,-0.0004937401,0.00015428082,-0.0009046015,0.0,0.0,-487.96365,1.6322578e-05,1.633644e-05,0.0003905691,0.015064745,0.015262036,0.005288619,0.12149017,0.122008905,0.086345635,1.5854847e-07,1.589178e-07,2.9277368e-07,0.00020365398,0.00021924819,8.772164e-06,2.912766e-06,3.8090905e-06,9.114963e-05,5.5253395e-06,2.7527387e-06,9.0568516e-05,1.0,1.0,0.010000001,25
625608000,625456000,-0.62308323,0.0020433266,-6.597604e-05,-0.782153,0.047116004,0.009120908,0.011225931,0.0,0.0,-488.06348,-3.2409855e-05,0.00013517846,-6.9381116e-05,-0.013152307,-0.004834423,0.0032503372,0.21572675,0.012472152,0.43014959,-0.0004937401,0.00015428082,-0.0009046015,0.0,0.0,-487.96347,1.6375476e-05,1.6389075e-05,0.0003907576,0.01518627,0.015385745,0.005305721,0.12240459,0.122933395,0.08681986,1.5867649e-07,1.5904581e-07,2.929017e-07,0.00020365515,0.00021924936,8.773315e-06,2.9128937e-06,3.8092182e-06,9.114976e-05,5.5253404e-06,2.75274e-06,9.0568516e-05,1.0,1.0,0.010000001,25
625616000,625464000,-0.6230655,0.0020419292,-0.00014677552,-0.7821671,0.041530713,0.006675047,0.009635229,0.0,0.0,-488.06973,-3.9134855e-05,0.00013371116,-6.888268e-05,-0.013153729,-0.0048358017,0.0032637676,0.21572809,0.012472236,0.4301495,-0.0004938675,0.0001537018,-0.0009054763,0.0,0.0,-487.96973,1.5167771e-05,1.522271e-05,0.00039054407,0.012490792,0.012627279,0.0049697147,0.10308382,0.10338347,0.07867652,1.5602028e-07,1.5630967e-07,2.9283245e-07,0.00020365554,0.00021924985,8.750516e-06,2.9128307e-06,3.80928e-06,9.114982e-05,5.525336e-06,2.7527155e-06,9.0568465e-05,1.0,1.0,0.010000001,25
625624000,625472000,-0.62303835,0.0020667328,-0.00010489587,-0.7821887,0.042009465,0.007044938,0.009886622,0.0,0.0,-488.06964,-3.9134855e-05,0.00013371116,-6.888268e-05,-0.013153729,-0.0048358017,0.0032637676,0.21572809,0.012472236,0.4301495,-0.0004938675,0.0001537018,-0.0009054763,0.0,0.0,-487.96964,1.5193334e-05,1.524817e-05,0.00039063842,0.01254316,0.012680423,0.0049782223,0.10343925,0.10374203,0.07888948,1.5608428e-07,1.5637367e-07,2.9289646e-07,0.00020365612,0.00021925043,8.751092e-06,2.9128946e-06,3.809344e-06,9.114989e-05,5.5253363e-06,2.7527162e-06,9.0568465e-05,1.0,1.0,0.010000001,25
625632000,625480000,-0.6230431,0.0020906148,-0.000105150306,-0.7821847,0.04111902,0.0066660335,0.009877438,0.0,0.0,-488.06955,-4.1992713e-05,0.0001345399,-6.687323e-05,-0.013153808,-0.004835685,0.0032637666,0.21572816,0.01247202,0.4301495,-0.0004938868,0.0001536741,-0.0009055416,0.0,0.0,-487.96954,1.5216718e-05,1.5271522e-05,0.00039062218,0.012594983,0.012732684,0.004986729,0.103796035,0.104101874,0.0791031,1.5604e-07,1.5632892e-07,2.9257944e-07,0.0002036567,0.00021925101,8.751667e-06,2.9129585e-06,3.8094042e-06,9.114995e-05,5.5253367e-06,2.752717e-06,9.0568465e-05,1.0,1.0,0.010000001,25
625648000,625496000,-0.6231194,0.0021325392,-7.099506e-05,-0.78212386,0.041289218,0.006108859,0.010554343,0.0,0.0,-488.06937,-4.2338204e-05,0.00013500727,-6.5342036e-05,-0.013153563,-0.004834524,0.0032637662,0.2157276,0.01247207,0.4301506,-0.0004938838,0.00015389705,-0.0009047948,0.0,0.0,-487.96936,1.5258433e-05,1.5307223e-05,0.0003900527,0.012693267,0.012835799,0.0050037475,0.104509465,0.10482619,0.07953227,1.561254e-07,1.5642775e-07,2.9229446e-07,0.0002036576,0.00021925171,8.752819e-06,2.9127837e-06,3.8089086e-06,9.11497e-05,5.5253345e-06,2.7526567e-06,9.0568385e-05,1.0,1.0,0.010000001,25
625656000,625504000,-0.6231195,0.0021469346,-6.7753645e-05,-0.7821238,0.04044976,0.0056710998,0.010827653,0.0,0.0,-488.06927,-4.2338204e-05,0.00013500727,-6.5342036e-05,-0.013153563,-0.004834524,0.0032637662,0.2157276,0.01247207,0.4301506,-0.0004938838,0.00015389705,-0.0009047948,0.0,0.0,-487.96927,1.5284058e-05,1.5332742e-05,0.00039014683,0.012746257,0.012889249,0.0050122575,0.10487269,0.10519271,0.07974784,1.561894e-07,1.5649175e-07,2.9235846e-07,0.00020365819,0.0002192523,8.7533945e-06,2.9128475e-06,3.8089725e-06,9.114976e-05,5.525335e-06,2.7526573e-06,9.0568385e-05,1.0,1.0,0.010000001,25
625664000,625512000,-0.62310237,0.0021333462,-4.839508e-05,-0.78213733,0.040710572,0.006082282,0.0106089935,0.0,0.0,-488.06918,-4.2338204e-05,0.00013500727,-6.5342036e-05,-0.013153563,-0.004834524,0.0032637662,0.2157276,0.01247207,0.4301506,-0.0004938838,0.00015389705,-0.0009047948,0.0,0.0,-487.96918,1.5309704e-05,1.535828e-05,0.00039024098,0.01279972,0.012943469,0.0050207702,0.105237916,0.105561264,0.079964064,1.562534e-07,1.5655576e-07,2.9242247e-07,0.00020365877,0.00021925288,8.75397e-06,2.9129114e-06,3.8090363e-06,9.114983e-05,5.5253354e-06,2.752658e-06,9.0568385e-05,1.0,1.0,0.010000001,25
625672000,625520000,-0.62311816,0.0020992006,5.893571e-05,-0.782125,0.04101997,0.005856543,0.009985253,0.0,0.0,-488.0691,-4.2338204e-05,0.00013500727,-6.5342036e-05,-0.013153563,-0.004834524,0.0032637662,0.2157276,0.01247207,0.4301506,-0.0004938838,0.00015389705,-0.0009047948,0.0,0.0,-487.9691,1.5335363e-05,1.5383832e-05,0.00039033493,0.01285359,0.012998122,0.005029284,0.105605155,0.105931856,0.08018094,1.5631741e-07,1.5661976e-07,2.9248648e-07,0.00020365935,0.00021925346,8.754546e-06,2.9129753e-06,3.8091002e-06,9.1149894e-05,5.525336e-06,2.7526587e-06,9.0568385e-05,1.0,1.0,0.010000001,25
625688000,625536000,-0.62312967,0.0020628532,-1.5454034e-05,-0.7821159,0.042122282,0.0062167705,0.010235056,0.0,0.0,-488.06906,-4.2338295e-05,0.00013500726,-6.534203e-05,-0.013153581,-0.0048345276,0.0032639697,0.2157276,0.01247207,0.4301506,-0.0004938829,0.00015389716,-0.0009047948,0.0,0.0,-487.96906,1.5386755e-05,1.5435005e-05,0.0003905233,0.012960992,0.013107213,0.005031333,0.10634572,0.10667921,0.080094695,1.5644542e-07,1.5674777e-07,2.926145e-07,0.0002036605,0.00021925462,8.754701e-06,2.9131031e-06,3.809228e-06,9.1150025e-05,5.5253367e-06,2.75266e-06,9.0568385e-05,1.0,1.0,0.010000001,25
625696000,625544000,-0.6231035,0.0020363422,-2.2595252e-05,-0.7821368,0.042780288,0.0060924334,0.010248996,0.0,0.0,-488.06897,-4.2338295e-05,0.00013500726,-6.534203e-05,-0.013153581,-0.0048345276,0.0032639697,0.2157276,0.01247207,0.4301506,-0.0004938829,0.00015389716,-0.0009047948,0.0,0.0,-487.96896,1.5412477e-05,1.546062e-05,0.00039061747,0.01301503,0.013162134,0.0050398484,0.10671907,0.107055984,0.08031214,1.5650943e-07,1.5681178e-07,2.926785e-07,0.00020366108,0.0002192552,8.755277e-06,2.913167e-06,3.809292e-06,9.115009e-05,5.525337e-06,2.7526607e-06,9.0568385e-05,1.0,1.0,0.010000001,25
625704000,625552000,-0.62310064,0.0020358455,-1.8393248e-05,-0.78213906,0.04265245,0.006338455,0.011183657,0.0,0.0,-488.06888,-4.2338295e-05,0.00013500726,-6.534203e-05,-0.013153581,-0.0048345276,0.0032639697,0.2157276,0.01247207,0.4301506,-0.0004938829,0.00015389716,-0.0009047948,0.0,0.0,-487.96887,1.5438223e-05,1.548626e-05,0.0003907118,0.013068709,0.013216464,0.0050483644,0.107094474,0.10743485,0.08053024,1.5657344e-07,1.5687579e-07,2.927425e-07,0.00020366166,0.00021925579,8.755853e-06,2.913231e-06,3.8093558e-06,9.1150156e-05,5.5253377e-06,2.7526614e-06,9.0568385e-05,1.0,1.0,0.010000001,25
625712000,625560000,-0.6231195,0.0020195944,-3.017067e-05,-0.78212404,0.041939806,0.0065618777,0.010478795,0.0,0.0,-488.0688,-4.2509942e-05,0.00013490883,-6.581325e-05,-0.013153586,-0.0048342883,0.0032639697,0.21572722,0.012472087,0.43015063,-0.00049385574,0.00015406439,-0.0009046136,0.0,0.0,-487.96878,1.5454214e-05,1.5496133e-05,0.000390049,0.013115892,0.013267794,0.005056881,0.107463665,0.107812576,0.080749005,1.5659354e-07,1.569098e-07,2.9239368e-07,0.00020366198,0.0002192559,8.7564285e-06,2.9129924e-06,3.8087962e-06,9.1149835e-05,5.525335e-06,2.7526007e-06,9.0568305e-05,1.0,1.0,0.010000001,25
625728000,625576000,-0.62309235,0.0020464153,3.6872227e-06,-0.78214556,0.04291927,0.0069049145,0.011552736,0.0,0.0,-488.0686,-4.2509942e-05,0.00013490883,-6.581325e-05,-0.013153586,-0.0048342883,0.0032639697,0.21572722,0.012472087,0.43015063,-0.00049385574,0.00015406439,-0.0009046136,0.0,0.0,-487.9686,1.5505784e-05,1.5547479e-05,0.0003902371,0.013224505,0.013378122,0.00507392,0.10822456,0.10858067,0.08118851,1.5672155e-07,1.5703782e-07,2.925217e-07,0.00020366315,0.00021925707,8.75758e-06,2.9131202e-06,3.808924e-06,9.114997e-05,5.525336e-06,2.752602e-06,9.0568305e-05,1.0,1.0,0.010000001,25
625736000,625584000,-0.62307715,0.002057378,-6.3242616e-05,-0.7821578,0.042575017,0.007341428,0.011624269,0.0,0.0,-488.0685,-4.2509942e-05,0.00013490883,-6.581325e-05,-0.013153586,-0.0048342883,0.0032639697,0.21572722,0.012472087,0.43015063,-0.00049385574,0.00015406439,-0.0009046136,0.0,0.0,-487.9685,1.5531596e-05,1.5573176e-05,0.00039033114,0.013279363,0.013433607,0.0050824406,0.10860814,0.108967885,0.08140925,1.5678556e-07,1.5710182e-07,2.925857e-07,0.00020366373,0.00021925765,8.758156e-06,2.913184e-06,3.808988e-06,9.115003e-05,5.5253363e-06,2.7526028e-06,9.0568305e-05,1.0,1.0,0.010000001,25
625744000,625592000,-0.62306106,0.0020483136,-0.00018095752,-0.7821705,0.04203182,0.0071882317,0.012108631,0.0,0.0,-488.06842,-4.2509942e-05,0.00013490883,-6.581325e-05,-0.013153586,-0.0048342883,0.0032639697,0.21572722,0.012472087,0.43015063,-0.00049385574,0.00015406439,-0.0009046136,0.0,0.0,-487.9684,1.5557436e-05,1.5598906e-05,0.00039042544,0.013334144,0.013488969,0.0050909617,0.10899383,0.10935723,0.08163067,1.5684957e-07,1.5716583e-07,2.926497e-07,0.00020366431,0.00021925823,8.758731e-06,2.913248e-06,3.8090518e-06,9.11501e-05,5.5253367e-06,2.7526035e-06,9.0568305e-05,1.0,1.0,0.010000001,25
625752000,625600000,-0.6230515,0.0020954853,-0.00021951448,-0.7821779,0.041381236,0.007795392,0.012382678,0.0,0.0,-488.06848,-4.251004e-05,0.00013490881,-6.581324e-05,-0.013153604,-0.0048342925,0.0032641802,0.21572722,0.012472087,0.43015063,-0.0004938548,0.00015406449,-0.0009046136,0.0,0.0,-487.96848,1.558329e-05,1.5624646e-05,0.00039051953,0.013389229,0.013544591,0.0050839656,0.109381616,0.10974871,0.08131469,1.5691357e-07,1.5722983e-07,2.927137e-07,0.00020366488,0.00021925881,8.758276e-06,2.9133118e-06,3.8091157e-06,9.115016e-05,5.525337e-06,2.7526041e-06,9.0568305e-05,1.0,1.0,0.010000001,25
625768000,625616000,-0.6230663,0.0020575107,-0.00026603538,-0.78216624,0.041796632,0.007814894,0.012449965,0.0,0.0,-488.0683,-4.251004e-05,0.00013490881,-6.581324e-05,-0.013153604,-0.0048342925,0.0032641802,0.21572722,0.012472087,0.43015063,-0.0004938548,0.00015406449,-0.0009046136,0.0,0.0,-487.9683,1.5635065e-05,1.5676198e-05,0.00039070807,0.013500247,0.013657206,0.0051010107,0.11016358,0.11053814,0.08175792,1.5704158e-07,1.5735785e-07,2.9284172e-07,0.00020366604,0.00021925998,8.759427e-06,2.9134396e-06,3.8092435e-06,9.1150294e-05,5.525338e-06,2.7526055e-06,9.0568305e-05,1.0,1.0,0.010000001,25
625776000,625624000,-0.62301135,0.002053074,-0.0002405214,-0.78221005,0.041286528,0.0077459756,0.012200947,0.0,0.0,-488.0682,-4.2471995e-05,0.00013442476,-6.7557965e-05,-0.0131537765,-0.004834758,0.0032641804,0.21572725,0.012472104,0.43015012,-0.00049383874,0.00015406258,-0.0009049065,0.0,0.0,-487.9682,1.5650954e-05,1.5685768e-05,0.0003900468,0.0135480985,0.0137094725,0.0051095346,0.110548414,0.11093242,0.08198053,1.5706057e-07,1.573912e-07,2.9249347e-07,0.00020366636,0.0002192601,8.760003e-06,2.9132011e-06,3.808684e-06,9.114998e-05,5.5253354e-06,2.7525452e-06,9.0568225e-05,1.0,1.0,0.010000001,25
625784000,625632000,-0.62299514,0.002013934,-0.00021647567,-0.7822231,0.041021276,0.007224603,0.012155749,0.0,0.0,-488.0681,-4.2471995e-05,0.00013442476,-6.7557965e-05,-0.0131537765,-0.004834758,0.0032641804,0.21572725,0.012472104,0.43015012,-0.00049383874,0.00015406258,-0.0009049065,0.0,0.0,-487.9681,1.567688e-05,1.5711577e-05,0.00039014083,0.01360405,0.013766123,0.005118059,0.11094462,0.1113325,0.082203805,1.5712457e-07,1.574552e-07,2.9255747e-07,0.00020366695,0.00021926068,8.760579e-06,2.913265e-06,3.8087478e-06,9.115005e-05,5.525336e-06,2.752546e-06,9.0568225e-05,1.0,1.0,0.010000001,25
625792000,625640000,-0.622976,0.0020354153,-0.0002223347,-0.7822383,0.041247014,0.0070239888,0.0120918825,0.0,0.0,-488.06802,-4.2471995e-05,0.00013442476,-6.7557965e-05,-0.0131537765,-0.004834758,0.0032641804,0.21572725,0.012472104,0.43015012,-0.00049383874,0.00015406258,-0.0009049065,0.0,0.0,-487.96802,1.5702828e-05,1.5737405e-05,0.0003902349,0.013660202,0.0138231125,0.0051265853,0.11134299,0.11173477,0.082427755,1.5718858e-07,1.5751921e-07,2.9262148e-07,0.00020366753,0.00021926126,8.761154e-06,2.913329e-06,3.8088117e-06,9.115011e-05,5.5253363e-06,2.7525466e-06,9.0568225e-05,1.0,1.0,0.010000001,25
625808000,625656000,-0.622984,0.0020470256,-0.00023142461,-0.78223187,0.04172599,0.007564144,0.0122112,0.0,0.0,-488.06808,-4.2472155e-05,0.00013442474,-6.755795e-05,-0.013153807,-0.0048347646,0.0032645261,0.21572725,0.012472105,0.43015012,-0.00049383723,0.00015406276,-0.00090490654,0.0,0.0,-487.96808,1.5754787e-05,1.5789128e-05,0.00039042326,0.013772894,0.013937479,0.0051276716,0.11214624,0.112545945,0.082326084,1.5731659e-07,1.5764722e-07,2.927495e-07,0.00020366868,0.00021926242,8.761244e-06,2.9134567e-06,3.8089395e-06,9.115024e-05,5.525337e-06,2.752548e-06,9.0568225e-05,1.0,1.0,0.010000001,25
625816000,625664000,-0.62300116,0.0020639242,-0.00026689545,-0.78221816,0.041410238,0.0074495873,0.012677029,0.0,0.0,-488.068,-4.2472155e-05,0.00013442474,-6.755795e-05,-0.013153807,-0.0048347646,0.0032645261,0.21572725,0.012472105,0.43015012,-0.00049383723,0.00015406276,-0.00090490654,0.0,0.0,-487.968,1.5780795e-05,1.5815018e-05,0.00039051744,0.01382927,0.013994536,0.005136199,0.11255116,0.11295486,0.08255054,1.573806e-07,1.5771123e-07,2.928135e-07,0.00020366926,0.000219263,8.76182e-06,2.9135206e-06,3.8090034e-06,9.115031e-05,5.5253377e-06,2.7525487e-06,9.0568225e-05,1.0,1.0,0.010000001,25
625824000,625672000,-0.6230059,0.001995209,-0.00029617883,-0.7822145,0.040714726,0.0068646665,0.012980409,0.0,0.0,-488.0679,-4.2472155e-05,0.00013442474,-6.755795e-05,-0.013153807,-0.0048347646,0.0032645261,0.21572725,0.012472105,0.43015012,-0.00049383723,0.00015406276,-0.00090490654,0.0,0.0,-487.9679,1.5806823e-05,1.5840926e-05,0.00039061165,0.0138859255,0.0140517745,0.0051447265,0.11295828,0.113366015,0.082775675,1.574446e-07,1.5777523e-07,2.928775e-07,0.00020366984,0.00021926359,8.762396e-06,2.9135845e-06,3.8090673e-06,9.1150374e-05,5.525338e-06,2.7525493e-06,9.0568225e-05,1.0,1.0,0.010000001,25
625832000,625680000,-0.62299407,0.0019839345,-0.00028204249,-0.78222406,0.040663917,0.007061144,0.013556343,0.0,0.0,-488.0678,-4.1058855e-05,0.00013456549,-6.6944296e-05,-0.013153812,-0.004834804,0.0032645264,0.21572722,0.0124720475,0.43015012,-0.0004938231,0.00015407272,-0.000904882,0.0,0.0,-487.9678,1.5830481e-05,1.5864543e-05,0.00039059517,0.013941579,0.014108072,0.005153256,0.11336667,0.113778315,0.08300149,1.5739842e-07,1.5772852e-07,2.9256054e-07,0.00020367042,0.00021926417,8.762971e-06,2.9136484e-06,3.8091275e-06,9.115044e-05,5.5253386e-06,2.75255e-06,9.0568225e-05,1.0,1.0,0.010000001,25
625848000,625696000,-0.6230302,0.0020060914,-0.000296116,-0.78219527,0.041693714,0.006196405,0.014245471,0.0,0.0,-488.06757,-4.1012092e-05,0.00013442396,-6.742602e-05,-0.013153824,-0.004834812,0.0032645261,0.21572754,0.012472113,0.4301505,-0.00049385964,0.00015392194,-0.0009048883,0.0,0.0,-487.96756,1.5872303e-05,1.5899712e-05,0.00039002986,0.014047096,0.014219544,0.0051703188,0.11418129,0.11460755,0.08345512,1.5748017e-07,1.5782513e-07,2.9227755e-07,0.00020367133,0.00021926487,8.764123e-06,2.913474e-06,3.8086318e-06,9.115019e-05,5.5253363e-06,2.752491e-06,9.056815e-05,1.0,1.0,0.010000001,25
625856000,625704000,-0.62302023,0.0019838128,-0.0002970498,-0.78220326,0.04249106,0.0065506343,0.01430127,0.0,0.0,-488.06744,-4.1012092e-05,0.00013442396,-6.742602e-05,-0.013153824,-0.004834812,0.0032645261,0.21572754,0.012472113,0.4301505,-0.00049385964,0.00015392194,-0.0009048883,0.0,0.0,-487.96744,1.58984e-05,1.5925685e-05,0.000390124,0.014104594,0.014278087,0.005178853,0.11459715,0.115027644,0.083682954,1.5754418e-07,1.5788913e-07,2.9234155e-07,0.00020367191,0.00021926545,8.764699e-06,2.9135379e-06,3.8086957e-06,9.115026e-05,5.5253367e-06,2.7524916e-06,9.056815e-05,1.0,1.0,0.010000001,25
625864000,625712000,-0.62302935,0.0020171532,-0.0002802642,-0.78219587,0.04260189,0.0061381,0.0144723505,0.0,0.0,-488.06732,-4.1012092e-05,0.00013442396,-6.742602e-05,-0.013153824,-0.004834812,0.0032645261,0.21572754,0.012472113,0.4301505,-0.00049385964,0.00015392194,-0.0009048883,0.0,0.0,-487.96732,1.5924516e-05,1.5951677e-05,0.00039021813,0.014162194,0.014336538,0.005187387,0.11501527,0.11545003,0.08391146,1.5760818e-07,1.5795314e-07,2.9240556e-07,0.00020367249,0.00021926603,8.765274e-06,2.9136017e-06,3.8087596e-06,9.115032e-05,5.525337e-06,2.7524923e-06,9.056815e-05,1.0,1.0,0.010000001,25
625872000,625720000,-0.6230314,0.0020193143,-0.00023253617,-0.78219414,0.042790927,0.005670316,0.0144905895,0.0,0.0,-488.0672,-4.1012092e-05,0.00013442396,-6.742602e-05,-0.013153824,-0.004834812,0.0032645261,0.21572754,0.012472113,0.4301505,-0.00049385964,0.00015392194,-0.0009048883,0.0,0.0,-487.9672,1.5950649e-05,1.5977685e-05,0.0003903122,0.014220078,0.014395299,0.005195922,0.11543565,0.11587472,0.08414065,1.5767219e-07,1.5801714e-07,2.9246957e-07,0.00020367307,0.00021926661,8.76585e-06,2.9136656e-06,3.8088235e-06,9.115039e-05,5.5253377e-06,2.752493e-06,9.056815e-05,1.0,1.0,0.010000001,25
625888000,625736000,-0.6230118,0.0020373682,-0.00018144998,-0.78220975,0.04231994,0.0047266595,0.013440087,0.0,0.0,-488.06705,-4.1012157e-05,0.00013442396,-6.7426015e-05,-0.013153836,-0.004834815,0.0032646619,0.21572754,0.012472113,0.4301505,-0.00049385906,0.00015392201,-0.0009048883,0.0,0.0,-487.96704,1.6002972e-05,1.602976e-05,0.0003905004,0.014337096,0.014513839,0.0051963697,0.11628326,0.11673103,0.08402794,1.578002e-07,1.5814516e-07,2.9259758e-07,0.00020367422,0.00021926778,8.765896e-06,2.9137934e-06,3.8089513e-06,9.115052e-05,5.5253386e-06,2.7524943e-06,9.056815e-05,1.0,1.0,0.010000001,25
625896000,625744000,-0.6229805,0.0020900364,-0.00014476333,-0.78223455,0.04318626,0.0048728026,0.012735546,0.0,0.0,-488.06696,-4.1012157e-05,0.00013442396,-6.7426015e-05,-0.013153836,-0.004834815,0.0032646619,0.21572754,0.012472113,0.4301505,-0.00049385906,0.00015392201,-0.0009048883,0.0,0.0,-487.96695,1.6029164e-05,1.6055828e-05,0.0003905946,0.014396022,0.014573853,0.0052049076,0.116710514,0.11716268,0.0842576,1.578642e-07,1.5820916e-07,2.9266158e-07,0.0002036748,0.00021926836,8.766472e-06,2.9138573e-06,3.8090152e-06,9.1150585e-05,5.525339e-06,2.752495e-06,9.056815e-05,1.0,1.0,0.010000001,25
625904000,625752000,-0.62295634,0.0021294332,-0.00012472367,-0.7822538,0.043175153,0.0048305024,0.012454987,0.0,0.0,-488.06686,-4.1012157e-05,0.00013442396,-6.7426015e-05,-0.013153836,-0.004834815,0.0032646619,0.21572754,0.012472113,0.4301505,-0.00049385906,0.00015392201,-0.0009048883,0.0,0.0,-487.96686,1.605538e-05,1.6081918e-05,0.0003906888,0.014454863,0.014633519,0.0052134455,0.117140085,0.117596686,0.08448795,1.5792821e-07,1.5827317e-07,2.927256e-07,0.00020367539,0.00021926894,8.767048e-06,2.9139212e-06,3.809079e-06,9.115065e-05,5.5253395e-06,2.7524957e-06,9.056815e-05,1.0,1.0,0.010000001,25
625912000,625760000,-0.62290925,0.002164689,-0.00015183666,-0.78229105,0.042967483,0.00548563,0.012214884,0.0,0.0,-488.06677,-4.1012157e-05,0.00013442396,-6.7426015e-05,-0.013153836,-0.004834815,0.0032646619,0.21572754,0.012472113,0.4301505,-0.00049385906,0.00015392201,-0.0009048883,0.0,0.0,-487.96677,1.608162e-05,1.6108035e-05,0.0003907832,0.014513877,0.014693292,0.005221985,0.11757197,0.11803304,0.08471898,1.5799222e-07,1.5833717e-07,2.927896e-07,0.00020367597,0.00021926952,8.7676235e-06,2.913985e-06,3.809143e-06,9.1150716e-05,5.52534e-06,2.7524964e-06,9.056815e-05,1.0,1.0,0.010000001,25
625928000,625776000,-0.6228615,0.002185209,-7.7001525e-05,-0.7823292,0.042633116,0.005009894,0.011581592,0.0,0.0,-488.0666,-4.108088e-05,0.00013407969,-6.869202e-05,-0.013153743,-0.0048343935,0.0032646612,0.21572797,0.012472154,0.43015167,-0.0004939271,0.00015370181,-0.0009046958,0.0,0.0,-487.96658,1.612351e-05,1.6143027e-05,0.00039021843,0.01462326,0.014808636,0.0052390653,0.11843041,0.11890783,0.085183084,1.5807265e-07,1.5843297e-07,2.925068e-07,0.00020367687,0.00021927022,8.768775e-06,2.9138125e-06,3.8086473e-06,9.115046e-05,5.5253377e-06,2.752437e-06,9.056807e-05,1.0,1.0,0.010000001,25
625936000,625784000,-0.62283224,0.0021563072,-1.9618312e-05,-0.7823524,0.042598184,0.0051456313,0.011372268,0.0,0.0,-488.0665,-4.108088e-05,0.00013407969,-6.869202e-05,-0.013153743,-0.0048343935,0.0032646612,0.21572797,0.012472154,0.43015167,-0.0004939271,0.00015370181,-0.0009046958,0.0,0.0,-487.9665,1.6149801e-05,1.6169191e-05,0.00039031266,0.014682759,0.014868985,0.005247608,0.11886916,0.11935124,0.08541616,1.5813666e-07,1.5849697e-07,2.925708e-07,0.00020367745,0.0002192708,8.769351e-06,2.9138764e-06,3.8087112e-06,9.115053e-05,5.525338e-06,2.7524377e-06,9.056807e-05,1.0,1.0,0.010000001,25
625944000,625792000,-0.62280226,0.0021638782,-1.3062438e-05,-0.7823762,0.042579297,0.0047970964,0.010798829,0.0,0.0,-488.06686,-4.1081184e-05,0.00013407966,-6.8691996e-05,-0.0131538,-0.0048344056,0.003265299,0.21572797,0.012472155,0.43015167,-0.0004939243,0.00015370213,-0.00090469583,0.0,0.0,-487.96686,1.6176102e-05,1.6195363e-05,0.00039040667,0.0147426305,0.014929725,0.005238961,0.11931028,0.11979704,0.085060954,1.5820066e-07,1.5856098e-07,2.926348e-07,0.00020367802,0.00021927139,8.768783e-06,2.9139403e-06,3.808775e-06,9.115059e-05,5.5253386e-06,2.7524384e-06,9.056807e-05,1.0,1.0,0.010000001,25
625952000,625800000,-0.6228108,0.0021397988,-5.8130183e-05,-0.7823697,0.04224082,0.00477784,0.010402188,0.0,0.0,-488.06677,-4.1081184e-05,0.00013407966,-6.8691996e-05,-0.0131538,-0.0048344056,0.003265299,0.21572797,0.012472155,0.43015167,-0.0004939243,0.00015370213,-0.00090469583,0.0,0.0,-487.96677,1.6202424e-05,1.6221557e-05,0.00039050076,0.014802635,0.014990497,0.0052475026,0.11975377,0.120245256,0.08529379,1.5826467e-07,1.5862499e-07,2.9269881e-07,0.0002036786,0.00021927197,8.769359e-06,2.9140042e-06,3.808839e-06,9.115066e-05,5.525339e-06,2.752439e-06,9.056807e-05,1.0,1.0,0.010000001,25
625968000,625816000,-0.62280685,0.0020870399,-0.00010449582,-0.78237295,0.040991284,0.005375235,0.01036682,0.0,0.0,-488.0666,-4.1081184e-05,0.00013407966,-6.8691996e-05,-0.0131538,-0.0048344056,0.003265299,0.21572797,0.012472155,0.43015167,-0.0004939243,0.00015370213,-0.00090469583,0.0,0.0,-487.96658,1.6255137e-05,1.6274013e-05,0.00039068924,0.014922728,0.015111935,0.00526459,0.12064792,0.12114895,0.08576155,1.5839268e-07,1.58753e-07,2.9282683e-07,0.00020367977,0.00021927313,8.77051e-06,2.914132e-06,3.8089668e-06,9.115079e-05,5.52534e-06,2.7524404e-06,9.056807e-05,1.0,1.0,0.010000001,25
625976000,625824000,-0.6228006,0.0021046104,-0.00010583126,-0.7823777,0.041039273,0.005535849,0.009631,0.0,0.0,-488.0665,-4.1081184e-05,0.00013407966,-6.8691996e-05,-0.0131538,-0.0048344056,0.003265299,0.21572797,0.012472155,0.43015167,-0.0004939243,0.00015370213,-0.00090469583,0.0,0.0,-487.9665,1.628153e-05,1.6300275e-05,0.00039078368,0.014983541,0.015173642,0.005273136,0.12109861,0.12160445,0.08599646,1.5845669e-07,1.58817e-07,2.9289083e-07,0.00020368035,0.00021927372,8.771086e-06,2.9141959e-06,3.8090307e-06,9.1150854e-05,5.5253404e-06,2.752441e-06,9.056807e-05,1.0,1.0,0.010000001,25
625984000,625832000,-0.62281185,0.002108343,-8.86945e-05,-0.78236884,0.04113175,0.0055536292,0.009034746,0.0,0.0,-488.06644,-4.1481537e-05,0.00013412788,-6.876066e-05,-0.013153702,-0.0048336308,0.0032652982,0.21572718,0.012472148,0.430152,-0.0004938737,0.000154044,-0.00090418133,0.0,0.0,-487.96643,1.6297048e-05,1.6308812e-05,0.00039012622,0.015034687,0.015230365,0.005281683,0.121538095,0.12205683,0.08623205,1.5847195e-07,1.588481e-07,2.925446e-07,0.00020368067,0.00021927383,8.771662e-06,2.9139599e-06,3.8084713e-06,9.115053e-05,5.5253377e-06,2.7523813e-06,9.056799e-05,1.0,1.0,0.010000001,25
625992000,625840000,-0.62284315,0.002085521,-6.7983645e-05,-0.782344,0.04121749,0.005759746,0.008236699,0.0,0.0,-488.06638,-4.1481537e-05,0.00013412788,-6.876066e-05,-0.013153702,-0.0048336308,0.0032652982,0.21572718,0.012472148,0.430152,-0.0004938737,0.000154044,-0.00090418133,0.0,0.0,-487.96637,1.6323469e-05,1.6335098e-05,0.0003902204,0.01509587,0.015292488,0.005290231,0.12199345,0.122517176,0.08646834,1.5853595e-07,1.589121e-07,2.926086e-07,0.00020368125,0.00021927441,8.772237e-06,2.9140238e-06,3.8085352e-06,9.115059e-05,5.525338e-06,2.752382e-06,9.056799e-05,1.0,1.0,0.010000001,25
626008000,625856000,-0.6228665,0.0020936157,-2.9286995e-05,-0.7823254,0.040271387,0.0062646875,0.0085773915,0.0,0.0,-488.06638,-4.1481628e-05,0.00013412788,-6.876065e-05,-0.013153719,-0.0048336345,0.0032654835,0.21572718,0.012472148,0.430152,-0.0004938729,0.00015404409,-0.00090418133,0.0,0.0,-487.96637,1.6376363e-05,1.6387721e-05,0.00039040862,0.0152175,0.015415619,0.0052896636,0.122911505,0.123445325,0.086337805,1.5866397e-07,1.5904011e-07,2.9273662e-07,0.0002036824,0.00021927558,8.772214e-06,2.9141515e-06,3.808663e-06,9.115072e-05,5.525339e-06,2.7523834e-06,9.056799e-05,1.0,1.0,0.010000001,25
626016000,625864000,-0.6229135,0.0020350097,-6.4725034e-05,-0.7822882,0.03366357,0.0058520255,0.0072751925,0.0,0.0,-488.0713,-4.817369e-05,0.00013475037,-6.8689325e-05,-0.013154979,-0.0048350673,0.0032767006,0.21572861,0.012472254,0.43015185,-0.0004939636,0.00015342436,-0.0009050267,0.0,0.0,-487.97128,1.5166367e-05,1.5219279e-05,0.00039020748,0.012509852,0.012645097,0.0049710646,0.10344422,0.103747144,0.07878085,1.5600516e-07,1.5630057e-07,2.9266963e-07,0.00020368281,0.00021927607,8.750573e-06,2.9140863e-06,3.808726e-06,9.115079e-05,5.5253363e-06,2.752359e-06,9.056795e-05,1.0,1.0,0.010000001,25
626024000,625872000,-0.62290365,0.001986381,-0.00011756727,-0.7822961,0.033948276,0.0062344573,0.007042296,0.0,0.0,-488.07123,-4.817369e-05,0.00013475037,-6.8689325e-05,-0.013154979,-0.0048350673,0.0032767006,0.21572861,0.012472254,0.43015185,-0.0004939636,0.00015342436,-0.0009050267,0.0,0.0,-487.97122,1.5191928e-05,1.5244736e-05,0.00039030172,0.012562514,0.012698495,0.004979572,0.10380081,0.104106866,0.07899399,1.5606916e-07,1.5636458e-07,2.9273363e-07,0.00020368339,0.00021927666,8.751149e-06,2.9141502e-06,3.8087899e-06,9.1150854e-05,5.5253367e-06,2.7523597e-06,9.056795e-05,1.0,1.0,0.010000001,25
626032000,625880000,-0.62292856,0.0019563523,-0.00017170247,-0.78227633,0.03322571,0.005925482,0.0068942937,0.0,0.0,-488.07117,-4.918821e-05,0.00013408999,-6.8058325e-05,-0.01315505,-0.0048350464,0.0032767004,0.21572863,0.012472202,0.43015185,-0.00049395184,0.00015341424,-0.0009050358,0.0,0.0,-487.97116,1.5215307e-05,1.5268082e-05,0.00039028563,0.012614441,0.012750862,0.004988079,0.10415877,0.10446786,0.079207785,1.560249e-07,1.5631984e-07,2.9241704e-07,0.00020368397,0.00021927724,8.751725e-06,2.914214e-06,3.8088501e-06,9.115092e-05,5.525337e-06,2.7523604e-06,9.056795e-05,1.0,1.0,0.010000001,25
626048000,625896000,-0.62297654,0.0018512859,-0.00012800307,-0.78223825,0.0332551,0.005833017,0.0068984777,0.0,0.0,-488.07104,-4.918821e-05,0.00013408999,-6.8058325e-05,-0.01315505,-0.0048350464,0.0032767004,0.21572863,0.012472202,0.43015185,-0.00049395184,0.00015341424,-0.0009050358,0.0,0.0,-487.97104,1.5266509e-05,1.5319074e-05,0.00039047396,0.01272036,0.012858123,0.0050050984,0.10488182,0.10519729,0.07963732,1.5615291e-07,1.5644785e-07,2.9254505e-07,0.00020368514,0.0002192784,8.752876e-06,2.9143418e-06,3.808978e-06,9.115105e-05,5.525338e-06,2.7523618e-06,9.056795e-05,1.0,1.0,0.010000001,25
626056000,625904000,-0.6229134,0.0018478215,-0.00013624622,-0.78228855,0.033129476,0.005959238,0.007871698,0.0,0.0,-488.07098,-4.9276947e-05,0.00013396838,-6.856875e-05,-0.013155193,-0.004835307,0.0032767009,0.21572809,0.012472216,0.43015102,-0.00049388583,0.00015367482,-0.0009051435,0.0,0.0,-487.97098,1.5282589e-05,1.53292e-05,0.00038981112,0.012765764,0.012907566,0.0050136102,0.10523891,0.10556219,0.079853065,1.5617402e-07,1.5648254e-07,2.9219677e-07,0.00020368546,0.00021927852,8.753452e-06,2.9141015e-06,3.8084186e-06,9.1150745e-05,5.5253354e-06,2.7523017e-06,9.0567875e-05,1.0,1.0,0.010000001,25
626064000,625912000,-0.6228781,0.0018344271,-0.00017568044,-0.78231674,0.033092115,0.0057673533,0.008059307,0.0,0.0,-488.07104,-4.9277016e-05,0.00013396838,-6.856874e-05,-0.013155208,-0.0048353104,0.0032768692,0.21572809,0.012472216,0.43015102,-0.0004938851,0.0001536749,-0.0009051435,0.0,0.0,-487.97104,1.5308224e-05,1.5354726e-05,0.00038990498,0.012818993,0.012961478,0.0050073834,0.10560531,0.10593191,0.079554506,1.5623803e-07,1.5654655e-07,2.9226078e-07,0.00020368602,0.0002192791,8.753048e-06,2.9141654e-06,3.8084825e-06,9.115081e-05,5.525336e-06,2.7523024e-06,9.0567875e-05,1.0,1.0,0.010000001,25
626072000,625920000,-0.62287945,0.0018145646,-0.00018468052,-0.78231573,0.03306863,0.005949515,0.0076489523,0.0,0.0,-488.07098,-4.9277016e-05,0.00013396838,-6.856874e-05,-0.013155208,-0.0048353104,0.0032768692,0.21572809,0.012472216,0.43015102,-0.0004938851,0.0001536749,-0.0009051435,0.0,0.0,-487.97098,1.533388e-05,1.5380272e-05,0.00038999887,0.012872764,0.01301594,0.0050158952,0.10597373,0.10630367,0.07977018,1.5630204e-07,1.5661055e-07,2.9232478e-07,0.0002036866,0.00021927968,8.753624e-06,2.9142293e-06,3.8085464e-06,9.1150876e-05,5.5253363e-06,2.752303e-06,9.0567875e-05,1.0,1.0,0.010000001,25
626088000,625936000,-0.6229104,0.0018065211,-0.00019447407,-0.78229123,0.03284999,0.00584621,0.008332603,0.0,0.0,-488.07086,-4.9277016e-05,0.00013396838,-6.856874e-05,-0.013155208,-0.0048353104,0.0032768692,0.21572809,0.012472216,0.43015102,-0.0004938851,0.0001536749,-0.0009051435,0.0,0.0,-487.97086,1.5385263e-05,1.5431435e-05,0.00039018688,0.012979959,0.013124465,0.0050329217,0.106716655,0.10705338,0.08020349,1.5643005e-07,1.5673857e-07,2.924528e-07,0.00020368777,0.00021928085,8.754775e-06,2.914357e-06,3.8086741e-06,9.115101e-05,5.525337e-06,2.7523045e-06,9.0567875e-05,1.0,1.0,0.010000001,25
626096000,625944000,-0.6228974,0.0018457281,-0.00017292616,-0.7823013,0.03249828,0.0052915784,0.008402109,0.0,0.0,-488.0708,-4.9277016e-05,0.00013396838,-6.856874e-05,-0.013155208,-0.0048353104,0.0032768692,0.21572809,0.012472216,0.43015102,-0.0004938851,0.0001536749,-0.0009051435,0.0,0.0,-487.9708,1.5410991e-05,1.5457052e-05,0.00039028111,0.013033979,0.013179094,0.005041436,0.10709118,0.10743133,0.08042113,1.5649405e-07,1.5680257e-07,2.925168e-07,0.00020368835,0.00021928143,8.755351e-06,2.914421e-06,3.808738e-06,9.115107e-05,5.5253377e-06,2.7523051e-06,9.0567875e-05,1.0,1.0,0.010000001,25
626104000,625952000,-0.6228703,0.0019016152,-0.00017150358,-0.7823229,0.032492403,0.0045919484,0.0076301172,0.0,0.0,-488.07074,-4.9277016e-05,0.00013396838,-6.856874e-05,-0.013155208,-0.0048353104,0.0032768692,0.21572809,0.012472216,0.43015102,-0.0004938851,0.0001536749,-0.0009051435,0.0,0.0,-487.97073,1.5436728e-05,1.5482678e-05,0.0003903751,0.013088674,0.013234503,0.0050499514,0.10746776,0.10781136,0.08063942,1.5655806e-07,1.5686658e-07,2.925808e-07,0.00020368893,0.00021928201,8.7559265e-06,2.9144849e-06,3.808802e-06,9.115114e-05,5.525338e-06,2.7523058e-06,9.0567875e-05,1.0,1.0,0.010000001,25
626112000,625960000,-0.62289697,0.0019300599,-0.00016851696,-0.78230155,0.03232175,0.004111774,0.007417351,0.0,0.0,-488.07068,-4.9277016e-05,0.00013396838,-6.856874e-05,-0.013155208,-0.0048353104,0.0032768692,0.21572809,0.012472216,0.43015102,-0.0004938851,0.0001536749,-0.0009051435,0.0,0.0,-487.97067,1.5462498e-05,1.5508336e-05,0.0003904694,0.013143224,0.013289716,0.005058468,0.10784642,0.108193494,0.08085838,1.5662206e-07,1.5693058e-07,2.926448e-07,0.00020368952,0.00021928259,8.756502e-06,2.9145488e-06,3.8088658e-06,9.11512e-05,5.5253386e-06,2.7523065e-06,9.0567875e-05,1.0,1.0,0.010000001,25
626128000,625976000,-0.6228765,0.0019416265,-0.00017187085,-0.78231776,0.03193164,0.003993247,0.0066073136,0.0,0.0,-488.07043,-4.930482e-05,0.00013372059,-6.949953e-05,-0.013155146,-0.00483506,0.0032767025,0.21572845,0.012472266,0.4301518,-0.0004939352,0.00015349932,-0.0009049965,0.0,0.0,-487.97043,1.5504243e-05,1.5543805e-05,0.0003899018,0.013245349,0.013396795,0.005060325,0.1086014,0.10896074,0.08076885,1.5670592e-07,1.570285e-07,2.9236068e-07,0.0002036904,0.00021928329,8.756645e-06,2.9143735e-06,3.8083704e-06,9.1150956e-05,5.5253363e-06,2.7522474e-06,9.0567795e-05,1.0,1.0,0.010000001,25
626136000,625984000,-0.622847,0.001918772,-0.0001846983,-0.7823413,0.032606836,0.0037479624,0.006070696,0.0,0.0,-488.07037,-4.930482e-05,0.00013372059,-6.949953e-05,-0.013155146,-0.00483506,0.0032767025,0.21572845,0.012472266,0.4301518,-0.0004939352,0.00015349932,-0.0009049965,0.0,0.0,-487.97037,1.5530055e-05,1.5569502e-05,0.00038999578,0.0133005865,0.01345296,0.005068844,0.10898619,0.10934916,0.08098836,1.5676993e-07,1.570925e-07,2.924247e-07,0.00020369099,0.00021928387,8.757221e-06,2.9144373e-06,3.8084343e-06,9.115102e-05,5.5253367e-06,2.752248e-06,9.0567795e-05,1.0,1.0,0.010000001,25
626144000,625992000,-0.6228607,0.0019378127,-0.00014566348,-0.78233033,0.033481307,0.003476685,0.005515553,0.0,0.0,-488.0703,-4.930482e-05,0.00013372059,-6.949953e-05,-0.013155146,-0.00483506,0.0032767025,0.21572845,0.012472266,0.4301518,-0.0004939352,0.00015349932,-0.0009049965,0.0,0.0,-487.9703,1.5555888e-05,1.5595222e-05,0.0003900898,0.01335602,0.013509377,0.0050773644,0.10937309,0.10973972,0.081208535,1.5683393e-07,1.571565e-07,2.924887e-07,0.00020369157,0.00021928445,8.757796e-06,2.9145012e-06,3.8084981e-06,9.115109e-05,5.525337e-06,2.7522487e-06,9.0567795e-05,1.0,1.0,0.010000001,25
626152000,626000000,-0.62290496,0.0019388066,-0.00014119942,-0.78229517,0.033768553,0.0033647616,0.0047667995,0.0,0.0,-488.07028,-4.930482e-05,0.00013372059,-6.949953e-05,-0.013155146,-0.00483506,0.0032767025,0.21572845,0.012472266,0.4301518,-0.0004939352,0.00015349932,-0.0009049965,0.0,0.0,-487.97028,1.5581742e-05,1.562096e-05,0.00039018382,0.013411756,0.013565939,0.0050858855,0.10976211,0.110132426,0.08142937,1.5689794e-07,1.5722051e-07,2.925527e-07,0.00020369215,0.00021928504,8.758372e-06,2.9145651e-06,3.808562e-06,9.115115e-05,5.5253377e-06,2.7522494e-06,9.0567795e-05,1.0,1.0,0.010000001,25
626168000,626016000,-0.6229671,0.0018899727,-9.868212e-05,-0.7822458,0.03390318,0.0039216555,0.005832672,0.0,0.0,-488.07022,-4.930482e-05,0.00013372059,-6.949953e-05,-0.013155146,-0.00483506,0.0032767025,0.21572845,0.012472266,0.4301518,-0.0004939352,0.00015349932,-0.0009049965,0.0,0.0,-487.9702,1.5633514e-05,1.5672505e-05,0.00039037227,0.013522231,0.013677917,0.0051029315,0.110546544,0.110924326,0.08187303,1.5702595e-07,1.5734852e-07,2.926807e-07,0.00020369331,0.0002192862,8.759524e-06,2.914693e-06,3.8086898e-06,9.115128e-05,5.5253386e-06,2.7522508e-06,9.0567795e-05,1.0,1.0,0.010000001,25
626176000,626024000,-0.6229738,0.0018917607,-0.000118100616,-0.7822405,0.034359735,0.003740324,0.0065977275,0.0,0.0,-488.07016,-4.930482e-05,0.00013372059,-6.949953e-05,-0.013155146,-0.00483506,0.0032767025,0.21572845,0.012472266,0.4301518,-0.0004939352,0.00015349932,-0.0009049965,0.0,0.0,-487.97015,1.5659432e-05,1.569831e-05,0.00039046654,0.0135775935,0.013734145,0.005111456,0.11094198,0.11132353,0.08209586,1.5708996e-07,1.5741253e-07,2.9274472e-07,0.0002036939,0.00021928678,8.760099e-06,2.9147568e-06,3.8087537e-06,9.115135e-05,5.525339e-06,2.7522515e-06,9.0567795e-05,1.0,1.0,0.010000001,25
626184000,626032000,-0.62295014,0.0018902314,-0.00018193625,-0.7822592,0.034751147,0.0038000583,0.0069310144,0.0,0.0,-488.0701,-4.930482e-05,0.00013372059,-6.949953e-05,-0.013155146,-0.00483506,0.0032767025,0.21572845,0.012472266,0.4301518,-0.0004939352,0.00015349932,-0.0009049965,0.0,0.0,-487.9701,1.5685371e-05,1.5724132e-05,0.00039056083,0.013633404,0.01379081,0.0051199817,0.11133956,0.11172492,0.082319364,1.5715396e-07,1.5747653e-07,2.9280872e-07,0.00020369448,0.00021928737,8.760675e-06,2.9148207e-06,3.8088176e-06,9.1151414e-05,5.5253395e-06,2.7522522e-06,9.0567795e-05,1.0,1.0,0.010000001,25
626192000,626040000,-0.6229364,0.0019361174,-0.0001861073,-0.7822701,0.0347381,0.0037916198,0.007307028,0.0,0.0,-488.06992,-4.9533697e-05,0.0001335479,-7.026969e-05,-0.013155166,-0.004834849,0.00327654,0.21572785,0.012472261,0.43015155,-0.0004938837,0.000153765,-0.0009048435,0.0,0.0,-487.9699,1.5701236e-05,1.5733629e-05,0.00038990052,0.013681143,0.013843181,0.005112696,0.11172963,0.11212467,0.08199636,1.5717269e-07,1.5750976e-07,2.9246115e-07,0.00020369478,0.00021928748,8.760199e-06,2.9145817e-06,3.8082583e-06,9.11511e-05,5.5253367e-06,2.7521924e-06,9.056772e-05,1.0,1.0,0.010000001,25
626208000,626056000,-0.6229628,0.001969168,-0.00023408036,-0.782249,0.035039943,0.0036969236,0.007503502,0.0,0.0,-488.0698,-4.9533697e-05,0.0001335479,-7.026969e-05,-0.013155166,-0.004834849,0.00327654,0.21572785,0.012472261,0.43015155,-0.0004938837,0.000153765,-0.0009048435,0.0,0.0,-487.9698,1.5753189e-05,1.5785341e-05,0.00039008853,0.013793852,0.0139575275,0.0051297485,0.11253538,0.11293833,0.08244374,1.573007e-07,1.5763777e-07,2.9258916e-07,0.00020369595,0.00021928865,8.761351e-06,2.9147095e-06,3.808386e-06,9.115123e-05,5.5253377e-06,2.7521937e-06,9.056772e-05,1.0,1.0,0.010000001,25
626216000,626064000,-0.6229979,0.0019514664,-0.00027534793,-0.7822211,0.034460977,0.003359961,0.00751435,0.0,0.0,-488.06973,-4.9533697e-05,0.0001335479,-7.026969e-05,-0.013155166,-0.004834849,0.00327654,0.21572785,0.012472261,0.43015155,-0.0004938837,0.000153765,-0.0009048435,0.0,0.0,-487.96973,1.5779195e-05,1.5811227e-05,0.0003901826,0.013850534,0.01401483,0.0051382757,0.11294154,0.1133485,0.08266843,1.5736471e-07,1.5770178e-07,2.9265317e-07,0.00020369653,0.00021928923,8.761926e-06,2.9147734e-06,3.80845e-06,9.11513e-05,5.525338e-06,2.7521944e-06,9.056772e-05,1.0,1.0,0.010000001,25
626224000,626072000,-0.62298,0.0019084122,-0.00025707748,-0.7822354,0.033717178,0.0031001945,0.007481493,0.0,0.0,-488.06967,-4.9533697e-05,0.0001335479,-7.026969e-05,-0.013155166,-0.004834849,0.00327654,0.21572785,0.012472261,0.43015155,-0.0004938837,0.000153765,-0.0009048435,0.0,0.0,-487.96967,1.5805224e-05,1.5837135e-05,0.0003902768,0.01390743,0.014072298,0.005146804,0.113349915,0.1137609,0.082893796,1.5742872e-07,1.5776578e-07,2.9271717e-07,0.00020369711,0.00021928981,8.762502e-06,2.9148373e-06,3.8085138e-06,9.115136e-05,5.5253386e-06,2.752195e-06,9.056772e-05,1.0,1.0,0.010000001,25
