timestamp,timestamp_sample,lat,lon,alt,alt_ellipsoid,delta_alt,delta_terrain,eph,epv,terrain_alt,lat_lon_valid,alt_valid,lat_lon_reset_counter,alt_reset_counter,terrain_reset_counter,terrain_alt_valid,dead_reckoning
625256000,625256000,47.398146794254636,8.545754481689691,488.0604,488.0604,-488.101,-488.101,0.4573786,0.28125492,487.96646,1,1,5,4,4,0,0
625264000,625264000,47.39814679173678,8.545754480724575,488.06055,488.06055,-488.101,-488.101,0.45817658,0.28163612,487.96637,1,1,5,4,4,0,0
625272000,625272000,47.39814678933599,8.54575447982546,488.0607,488.0607,-488.101,-488.101,0.45897755,0.28201795,487.96628,1,1,5,4,4,0,0
625280000,625280000,47.39814678706847,8.545754478865335,488.06082,488.06082,-488.101,-488.101,0.45976996,0.28240043,487.9662,1,1,5,4,4,0,0
625288000,625288000,47.398146784919874,8.545754477902213,488.06097,488.06097,-488.101,-488.101,0.4605768,0.28278357,487.9661,1,1,5,4,4,0,0
625296000,625296000,47.398146782931406,8.545754476943134,488.0611,488.0611,-488.101,-488.101,0.4613867,0.28316733,487.966,1,1,5,4,4,0,0
625304000,625304000,47.398146781058244,8.54575447602989,488.06122,488.06122,-488.101,-488.101,0.46219966,0.28355172,487.9659,1,1,5,4,4,0,0
625312000,625312000,47.39814677929098,8.545754475134881,488.06134,488.06134,-488.101,-488.101,0.46301565,0.28393677,487.96582,1,1,5,4,4,0,0
625328000,625328000,47.398146776060756,8.545754473272213,488.06155,488.06155,-488.101,-488.101,0.4646568,0.28378052,487.96545,1,1,5,4,4,0,0
625336000,625336000,47.39814677462689,8.545754472372233,488.06168,488.06168,-488.101,-488.101,0.46548197,0.28416622,487.96536,1,1,5,4,4,0,0
625344000,625344000,47.39814677330235,8.545754471504868,488.06177,488.06177,-488.101,-488.101,0.4663102,0.28455257,487.96527,1,1,5,4,4,0,0
625352000,625352000,47.39814677211721,8.5457544706037,488.06186,488.06186,-488.101,-488.101,0.46712828,0.28493956,487.96518,1,1,5,4,4,0,0
625368000,625368000,47.398146770066255,8.545754468904596,488.062,488.062,-488.101,-488.101,0.46879977,0.28571543,487.965,1,1,5,4,4,0,0
625376000,625376000,47.398146769259,8.545754468105319,488.0621,488.0621,-488.101,-488.101,0.46964014,0.28610435,487.9649,1,1,5,4,4,0,0
625384000,625384000,47.39814676857524,8.545754467289505,488.06216,488.06216,-488.101,-488.101,0.47048363,0.2864939,487.9648,1,1,5,4,4,0,0
625392000,625392000,47.39814676799319,8.545754466503396,488.06223,488.06223,-488.101,-488.101,0.4713302,0.28688407,487.96472,1,1,5,4,4,0,0
625408000,625408000,47.39814676722338,8.54575446518227,488.06238,488.06238,-488.101,-488.101,0.47303265,0.28671148,487.96494,1,1,5,4,4,0,0
625416000,625416000,47.398146767009315,8.545754464642807,488.06244,488.06244,-488.101,-488.101,0.47388855,0.28710225,487.96484,1,1,5,4,4,0,0
625424000,625424000,47.39814676683515,8.545754464143796,488.0625,488.0625,-488.101,-488.101,0.4747326,0.28749368,487.96475,1,1,5,4,4,0,0
625432000,625432000,47.398146766699,8.545754463648164,488.06253,488.06253,-488.101,-488.101,0.47559246,0.28788576,487.96466,1,1,5,4,4,0,0
625448000,625448000,47.39814676668648,8.545754462834198,488.06262,488.06262,-488.101,-488.101,0.4773257,0.2886718,487.96454,1,1,5,4,4,0,0
625456000,625456000,47.39814676685474,8.5457544625625,488.06265,488.06265,-488.101,-488.101,0.47819704,0.28906575,487.96448,1,1,5,4,4,0,0
625464000,625464000,47.39814676716184,8.5457544623977,488.06268,488.06268,-488.101,-488.101,0.47907153,0.28946036,487.96442,1,1,5,4,4,0,0
625472000,625472000,47.39814676758819,8.54575446228147,488.0627,488.0627,-488.101,-488.101,0.47994918,0.2888762,487.96423,1,1,5,4,4,0,0
625488000,625488000,47.398146768649475,8.545754462132345,488.06274,488.06274,-488.101,-488.101,0.48171392,0.2896659,487.9641,1,1,5,4,4,0,0
625496000,625496000,47.398146769151786,8.545754461989745,488.06274,488.06274,-488.101,-488.101,0.4825842,0.29006168,487.96405,1,1,5,4,4,0,0
625504000,625504000,47.39814676970417,8.545754461785496,488.06274,488.06274,-488.101,-488.101,0.48347428,0.29045808,487.964,1,1,5,4,4,0,0
625512000,625512000,47.39814677031164,8.545754461633534,488.06274,488.06274,-488.101,-488.101,0.48436755,0.29085514,487.96393,1,1,5,4,4,0,0
625528000,625528000,47.39814677182027,8.54575446139419,488.06274,488.06274,-488.101,-488.101,0.48616362,0.29165116,487.9638,1,1,5,4,4,0,0
625536000,625536000,47.39814677273926,8.54575446133604,488.06274,488.06274,-488.101,-488.101,0.48706642,0.2920501,487.96375,1,1,5,4,4,0,0
625544000,625544000,47.3981467737715,8.545754461317271,488.06274,488.06274,-488.101,-488.101,0.4879724,0.29144388,487.96417,1,1,5,4,4,0,0
625552000,625552000,47.398146774892346,8.545754461324993,488.06274,488.06274,-488.101,-488.101,0.48888165,0.2918427,487.9641,1,1,5,4,4,0,0
625568000,625568000,47.39814677722882,8.545754461449706,488.06274,488.06274,-488.101,-488.101,0.49069077,0.29264224,487.96393,1,1,5,4,4,0,0
625576000,625576000,47.398146778521095,8.545754461550132,488.0627,488.0627,-488.101,-488.101,0.4916094,0.29304296,487.96384,1,1,5,4,4,0,0
625584000,625584000,47.398146779873585,8.545754461718307,488.0627,488.0627,-488.101,-488.101,0.4925312,0.2934443,487.96375,1,1,5,4,4,0,0
625592000,625592000,47.398146781260756,8.54575446192734,488.06268,488.06268,-488.101,-488.101,0.49345624,0.29384628,487.96365,1,1,5,4,4,0,0
625608000,625608000,47.39814678410776,8.545754462476218,488.06262,488.06262,-488.101,-488.101,0.49531606,0.2946521,487.96347,1,1,5,4,4,0,0
625616000,625616000,47.398146781801444,8.545754460953082,488.06277,488.06277,-488.101,-488.101,0.4543867,0.28049335,487.96973,1,1,5,4,4,0,0
625624000,625624000,47.39814677959636,8.545754459508736,488.06296,488.06296,-488.101,-488.101,0.4551717,0.2808727,487.96964,1,1,5,4,4,0,0
625632000,625632000,47.398146777436374,8.545754458101392,488.0631,488.0631,-488.101,-488.101,0.45595822,0.28125274,487.96954,1,1,5,4,4,0,0
625648000,625648000,47.39814677341983,8.545754455458603,488.0634,488.0634,-488.101,-488.101,0.45753214,0.28201467,487.96936,1,1,5,4,4,0,0
625656000,625656000,47.3981467716315,8.54575445425597,488.06354,488.06354,-488.101,-488.101,0.4583289,0.2823966,487.96927,1,1,5,4,4,0,0
625664000,625664000,47.39814676997038,8.545754453105257,488.06366,488.06366,-488.101,-488.101,0.45912874,0.2827792,487.96918,1,1,5,4,4,0,0
625672000,625672000,47.39814676837363,8.545754451958162,488.06375,488.06375,-488.101,-488.101,0.45993152,0.2831624,487.9691,1,1,5,4,4,0,0
625688000,625688000,47.39814676547828,8.545754449751406,488.06396,488.06396,-488.101,-488.101,0.46154624,0.28301007,487.96906,1,1,5,4,4,0,0
625696000,625696000,47.39814676423272,8.545754448652923,488.06406,488.06406,-488.101,-488.101,0.46235815,0.28339398,487.96896,1,1,5,4,4,0,0
625704000,625704000,47.39814676315805,8.545754447608756,488.06415,488.06415,-488.101,-488.101,0.4631731,0.28377852,487.96887,1,1,5,4,4,0,0
625712000,625712000,47.39814676219834,8.545754446591653,488.0642,488.0642,-488.101,-488.101,0.4639787,0.28416368,487.96878,1,1,5,4,4,0,0
625728000,625728000,47.39814676060523,8.545754444539735,488.06436,488.06436,-488.101,-488.101,0.4656235,0.28493598,487.9686,1,1,5,4,4,0,0
625736000,625736000,47.39814675993318,8.54575444351054,488.06442,488.06442,-488.101,-488.101,0.46645045,0.28532305,487.9685,1,1,5,4,4,0,0
625744000,625744000,47.39814675937243,8.545754442476838,488.06448,488.06448,-488.101,-488.101,0.4672805,0.2857108,487.9684,1,1,5,4,4,0,0
625752000,625752000,47.39814675894994,8.54575444149406,488.06458,488.06458,-488.101,-488.101,0.4681136,0.28515732,487.96848,1,1,5,4,4,0,0
625768000,625768000,47.39814675830686,8.545754439745398,488.0647,488.0647,-488.101,-488.101,0.46978903,0.2859334,487.9683,1,1,5,4,4,0,0
625776000,625776000,47.39814675810375,8.545754438855159,488.06476,488.06476,-488.101,-488.101,0.4706175,0.2863224,487.9682,1,1,5,4,4,0,0
625784000,625784000,47.3981467579958,8.545754437981554,488.06482,488.06482,-488.101,-488.101,0.47146276,0.28671205,487.9681,1,1,5,4,4,0,0
625792000,625792000,47.39814675795851,8.545754437139347,488.06488,488.06488,-488.101,-488.101,0.47231108,0.28710234,487.96802,1,1,5,4,4,0,0
625808000,625808000,47.398146758070105,8.545754435517638,488.065,488.065,-488.101,-488.101,0.47401708,0.28692523,487.96808,1,1,5,4,4,0,0
625816000,625816000,47.39814675817958,8.545754434804529,488.06506,488.06506,-488.101,-488.101,0.47487473,0.28731608,487.968,1,1,5,4,4,0,0
625824000,625824000,47.39814675833535,8.545754434139042,488.06512,488.06512,-488.101,-488.101,0.47573552,0.28770763,487.9679,1,1,5,4,4,0,0
625832000,625832000,47.39814675861628,8.545754433533135,488.0652,488.0652,-488.101,-488.101,0.4765973,0.2880998,487.9678,1,1,5,4,4,0,0
625848000,625848000,47.39814675941021,8.545754432423381,488.06534,488.06534,-488.101,-488.101,0.47831875,0.288886,487.96756,1,1,5,4,4,0,0
625856000,625856000,47.39814675986903,8.54575443192968,488.0654,488.0654,-488.101,-488.101,0.4791918,0.28928006,487.96744,1,1,5,4,4,0,0
625864000,625864000,47.398146760373876,8.545754431517027,488.06543,488.06543,-488.101,-488.101,0.480068,0.28967476,487.96732,1,1,5,4,4,0,0
625872000,625872000,47.398146760962696,8.545754431159065,488.0655,488.0655,-488.101,-488.101,0.48094738,0.2900701,487.9672,1,1,5,4,4,0,0
625888000,625888000,47.39814676226118,8.545754430535684,488.06558,488.06558,-488.101,-488.101,0.48271555,0.28987572,487.96704,1,1,5,4,4,0,0
625896000,625896000,47.398146762987636,8.545754430255345,488.06564,488.06564,-488.101,-488.101,0.48360437,0.2902716,487.96695,1,1,5,4,4,0,0
625904000,625904000,47.398146763780964,8.54575442999876,488.06567,488.06567,-488.101,-488.101,0.4844964,0.2906681,487.96686,1,1,5,4,4,0,0
625912000,625912000,47.398146764633715,8.54575442978088,488.0657,488.0657,-488.101,-488.101,0.4853916,0.29106525,487.96677,1,1,5,4,4,0,0
625928000,625928000,47.398146766493554,8.545754429297125,488.06577,488.06577,-488.101,-488.101,0.48717374,0.29186141,487.96658,1,1,5,4,4,0,0
625936000,625936000,47.398146767496605,8.545754429097038,488.06577,488.06577,-488.101,-488.101,0.48807827,0.29226044,487.9665,1,1,5,4,4,0,0
625944000,625944000,47.39814676853465,8.545754428884342,488.0658,488.0658,-488.101,-488.101,0.48898602,0.2916521,487.96686,1,1,5,4,4,0,0
625952000,625952000,47.39814676961344,8.545754428628085,488.06583,488.06583,-488.101,-488.101,0.48989695,0.29205102,487.96677,1,1,5,4,4,0,0
625968000,625968000,47.39814677189092,8.545754428014542,488.0659,488.0659,-488.101,-488.101,0.49172845,0.29285073,487.96658,1,1,5,4,4,0,0
625976000,625976000,47.39814677307168,8.545754427735739,488.06592,488.06592,-488.101,-488.101,0.49264902,0.2932515,487.9665,1,1,5,4,4,0,0
625984000,625984000,47.39814677427111,8.545754427455835,488.06595,488.06595,-488.101,-488.101,0.49355337,0.29365295,487.96643,1,1,5,4,4,0,0
625992000,625992000,47.39814677557882,8.545754427169124,488.06598,488.06598,-488.101,-488.101,0.49448016,0.29405499,487.96637,1,1,5,4,4,0,0
626008000,626008000,47.39814677843283,8.545754426633337,488.06604,488.06604,-488.101,-488.101,0.49634346,0.29383296,487.96637,1,1,5,4,4,0,0
626016000,626016000,47.398146775793656,8.545754426197993,488.06625,488.06625,-488.101,-488.101,0.4551828,0.28067926,487.97128,1,1,5,4,4,0,0
626024000,626024000,47.39814677330452,8.545754425775796,488.0664,488.0664,-488.101,-488.101,0.45596895,0.2810587,487.97122,1,1,5,4,4,0,0
626032000,626032000,47.398146770956615,8.54575442533461,488.0666,488.0666,-488.101,-488.101,0.45675665,0.28143877,487.97116,1,1,5,4,4,0,0
626048000,626048000,47.398146766674756,8.545754424537163,488.0669,488.0669,-488.101,-488.101,0.45834386,0.28220084,487.97104,1,1,5,4,4,0,0
626056000,626056000,47.39814676472458,8.545754424149798,488.06705,488.06705,-488.101,-488.101,0.4591308,0.28258285,487.97098,1,1,5,4,4,0,0
626064000,626064000,47.398146762881325,8.54575442375866,488.06717,488.06717,-488.101,-488.101,0.45993176,0.2820541,487.97104,1,1,5,4,4,0,0
626072000,626072000,47.3981467610953,8.545754423352864,488.06732,488.06732,-488.101,-488.101,0.4607357,0.28243616,487.97098,1,1,5,4,4,0,0
626088000,626088000,47.39814675784683,8.545754422542048,488.0676,488.0676,-488.101,-488.101,0.46235272,0.2832022,487.97086,1,1,5,4,4,0,0
626096000,626096000,47.398146756428105,8.545754422072747,488.06772,488.06772,-488.101,-488.101,0.46316576,0.2835862,487.9708,1,1,5,4,4,0,0
626104000,626104000,47.398146755114844,8.545754421617413,488.06784,488.06784,-488.101,-488.101,0.46398184,0.2839708,487.97073,1,1,5,4,4,0,0
626112000,626112000,47.39814675390345,8.545754421165647,488.06793,488.06793,-488.101,-488.101,0.46480092,0.2843561,487.97067,1,1,5,4,4,0,0
626128000,626128000,47.39814675176674,8.545754420318184,488.06815,488.06815,-488.101,-488.101,0.46643558,0.2841986,487.97043,1,1,5,4,4,0,0
626136000,626136000,47.39814675077607,8.54575441996975,488.06827,488.06827,-488.101,-488.101,0.4672637,0.28458455,487.97037,1,1,5,4,4,0,0
626144000,626144000,47.39814674982743,8.545754419662797,488.06836,488.06836,-488.101,-488.101,0.4680949,0.28497112,487.9703,1,1,5,4,4,0,0
626152000,626152000,47.398146748975805,8.54575441931559,488.06845,488.06845,-488.101,-488.101,0.46892914,0.2853583,487.97028,1,1,5,4,4,0,0
626168000,626168000,47.39814674759933,8.545754418576754,488.0686,488.0686,-488.101,-488.101,0.47060692,0.28613463,487.9702,1,1,5,4,4,0,0
626176000,626176000,47.39814674707717,8.545754418263744,488.0687,488.0687,-488.101,-488.101,0.47145045,0.28652376,487.97015,1,1,5,4,4,0,0
626184000,626184000,47.39814674668064,8.545754417999884,488.06876,488.06876,-488.101,-488.101,0.472297,0.2869135,487.9701,1,1,5,4,4,0,0
626192000,626192000,47.39814674633453,8.54575441769821,488.06882,488.06882,-488.101,-488.101,0.47313243,0.28635007,487.9699,1,1,5,4,4,0,0
626208000,626208000,47.398146745886194,8.54575441716445,488.06894,488.06894,-488.101,-488.101,0.4748407,0.28713018,487.9698,1,1,5,4,4,0,0
626216000,626216000,47.39814674581113,8.545754416938118,488.069,488.069,-488.101,-488.101,0.47569954,0.28752118,487.96973,1,1,5,4,4,0,0
626224000,626224000,47.39814674580673,8.545754416765613,488.06906,488.06906,-488.101,-488.101,0.47656146,0.28791282,487.96967,1,1,5,4,4,0,0
626232000,626232000,47.3981467459127,8.545754416647654,488.0691,488.0691,-488.101,-488.101,0.47742435,0.2883051,487.9696,1,1,5,4,4,0,0
626248000,626248000,47.39814674646524,8.545754416580207,488.06918,488.06918,-488.101,-488.101,0.47916377,0.28909156,487.96948,1,1,5,4,4,0,0
626256000,626256000,47.398146746866516,8.545754416598903,488.0692,488.0692,-488.101,-488.101,0.4800382,0.28948572,487.96942,1,1,5,4,4,0,0
626264000,626264000,47.39814674726446,8.545754416567465,488.06918,488.06918,-488.101,-488.101,0.48089966,0.2889009,487.96854,1,1,5,4,4,0,0
626272000,626272000,47.398146747704615,8.545754416506401,488.06918,488.06918,-488.101,-488.101,0.48178014,0.289295,487.96848,1,1,5,4,4,0,0
626288000,626288000,47.39814674862219,8.54575441648252,488.06915,488.06915,-488.101,-488.101,0.48355064,0.2900851,487.96835,1,1,5,4,4,0,0
626296000,626296000,47.398146749126916,8.54575441643993,488.06912,488.06912,-488.101,-488.101,0.48444062,0.2904811,487.9683,1,1,5,4,4,0,0
626304000,626304000,47.39814674960393,8.54575441635577,488.06912,488.06912,-488.101,-488.101,0.4853337,0.29087773,487.96823,1,1,5,4,4,0,0
626312000,626312000,47.398146750096785,8.545754416226547,488.0691,488.0691,-488.101,-488.101,0.48623005,0.29127502,487.96817,1,1,5,4,4,0,0
626328000,626328000,47.3981467511507,8.545754415922877,488.06903,488.06903,-488.101,-488.101,0.48803222,0.29207143,487.96805,1,1,5,4,4,0,0
626336000,626336000,47.39814675167558,8.545754415656784,488.069,488.069,-488.101,-488.101,0.48892,0.29146457,487.9677,1,1,5,4,4,0,0
626344000,626344000,47.398146752236286,8.545754415397173,488.06894,488.06894,-488.101,-488.101,0.48982882,0.291863,487.96765,1,1,5,4,4,0,0
626352000,626352000,47.398146752854245,8.545754415163808,488.0689,488.0689,-488.101,-488.101,0.49074087,0.29226202,487.9676,1,1,5,4,4,0,0
626368000,626368000,47.39814675415448,8.545754414797232,488.06885,488.06885,-488.101,-488.101,0.49257454,0.293062,487.96747,1,1,5,4,4,0,0
626376000,626376000,47.39814675483357,8.545754414569501,488.06882,488.06882,-488.101,-488.101,0.4934962,0.2934629,487.9674,1,1,5,4,4,0,0
626384000,626384000,47.398146755563594,8.545754414352453,488.0688,488.0688,-488.101,-488.101,0.49442106,0.29386446,487.96735,1,1,5,4,4,0,0
626392000,626392000,47.39814675630957,8.545754414197159,488.06873,488.06873,-488.101,-488.101,0.49534914,0.29426664,487.9673,1,1,5,4,4,0,0
626408000,626408000,47.398146757917175,8.545754413832848,488.06866,488.06866,-488.101,-488.101,0.49719477,0.29403985,487.96704,1,1,5,4,4,0,0
626416000,626416000,47.398146755711615,8.545754414709727,488.0687,488.0687,-488.101,-488.101,0.45585337,0.28086025,487.96988,1,1,5,4,4,0,0
626424000,626424000,47.39814675362071,8.545754415864453,488.0687,488.0687,-488.101,-488.101,0.45664018,0.28123978,487.96982,1,1,5,4,4,0,0
626432000,626432000,47.39814675167863,8.54575441697384,488.0687,488.0687,-488.101,-488.101,0.4574285,0.28161994,487.96976,1,1,5,4,4,0,0
626448000,626448000,47.39814674815362,8.545754418672674,488.06876,488.06876,-488.101,-488.101,0.45901698,0.2823822,487.9696,1,1,5,4,4,0,0
626456000,626456000,47.39814674648901,8.545754419496712,488.0688,488.0688,-488.101,-488.101,0.45981568,0.2827643,487.96954,1,1,5,4,4,0,0
626464000,626464000,47.39814674490336,8.545754420317689,488.06882,488.06882,-488.101,-488.101,0.46061742,0.283147,487.96948,1,1,5,4,4,0,0
626472000,626472000,47.39814674337346,8.545754421130066,488.06888,488.06888,-488.101,-488.101,0.46142218,0.28261355,487.96964,1,1,5,4,4,0,0
626488000,626488000,47.39814674054817,8.545754422801393,488.06894,488.06894,-488.101,-488.101,0.46302885,0.28337973,487.96948,1,1,5,4,4,0,0
626496000,626496000,47.39814673926512,8.545754423594607,488.06897,488.06897,-488.101,-488.101,0.46384248,0.2837638,487.9694,1,1,5,4,4,0,0
626504000,626504000,47.39814673801694,8.545754424298938,488.06903,488.06903,-488.101,-488.101,0.46465912,0.2841485,487.96933,1,1,5,4,4,0,0
626512000,626512000,47.398146736835415,8.545754425016291,488.06906,488.06906,-488.101,-488.101,0.46547887,0.28453383,487.96927,1,1,5,4,4,0,0
626528000,626528000,47.39814673463181,8.545754426464894,488.06915,488.06915,-488.101,-488.101,0.46712744,0.28437227,487.96912,1,1,5,4,4,0,0
626536000,626536000,47.39814673367449,8.54575442711591,488.06918,488.06918,-488.101,-488.101,0.46795633,0.28475827,487.96906,1,1,5,4,4,0,0
626544000,626544000,47.39814673275976,8.545754427760826,488.06924,488.06924,-488.101,-488.101,0.46878827,0.2851449,487.969,1,1,5,4,4,0,0
626552000,626552000,47.3981467318638,8.545754428367434,488.0693,488.0693,-488.101,-488.101,0.46960995,0.28553218,487.96893,1,1,5,4,4,0,0
626568000,626568000,47.39814673025939,8.545754429473686,488.0694,488.0694,-488.101,-488.101,0.4712888,0.28630865,487.9688,1,1,5,4,4,0,0
626576000,626576000,47.3981467295335,8.545754429994096,488.06946,488.06946,-488.101,-488.101,0.47213283,0.2866978,487.9687,1,1,5,4,4,0,0
626584000,626584000,47.39814672884865,8.545754430514835,488.06952,488.06952,-488.101,-488.101,0.47297984,0.28708762,487.96857,1,1,5,4,4,0,0
626592000,626592000,47.398146728197794,8.545754431056961,488.06958,488.06958,-488.101,-488.101,0.47383007,0.28652248,487.96866,1,1,5,4,4,0,0
626608000,626608000,47.398146727046154,8.545754432006103,488.0697,488.0697,-488.101,-488.101,0.47553986,0.2873027,487.96854,1,1,5,4,4,0,0
626616000,626616000,47.39814672656382,8.545754432523614,488.06973,488.06973,-488.101,-488.101,0.47639942,0.28769377,487.96848,1,1,5,4,4,0,0
626624000,626624000,47.39814672620862,8.545754433114771,488.0698,488.0698,-488.101,-488.101,0.47724697,0.28808546,487.9684,1,1,5,4,4,0,0
626632000,626632000,47.39814672598663,8.545754433758324,488.06982,488.06982,-488.101,-488.101,0.47811043,0.2884778,487.96835,1,1,5,4,4,0,0
626648000,626648000,47.39814672565392,8.545754435033524,488.06992,488.06992,-488.101,-488.101,0.47985095,0.28829092,487.96854,1,1,5,4,4,0,0
626656000,626656000,47.39814672552527,8.54575443561652,488.06998,488.06998,-488.101,-488.101,0.4807259,0.28868383,487.9685,1,1,5,4,4,0,0
626664000,626664000,47.398146725414605,8.545754436237072,488.07004,488.07004,-488.101,-488.101,0.48160404,0.28907737,487.96848,1,1,5,4,4,0,0
626672000,626672000,47.39814672537923,8.545754436886186,488.07007,488.07007,-488.101,-488.101,0.4824853,0.28947157,487.96844,1,1,5,4,4,0,0
626688000,626688000,47.39814672547005,8.545754438279259,488.07016,488.07016,-488.101,-488.101,0.48425728,0.29026183,487.96838,1,1,5,4,4,0,0
626696000,626696000,47.398146725586194,8.545754439011366,488.07022,488.07022,-488.101,-488.101,0.48513103,0.2906579,487.96835,1,1,5,4,4,0,0
626704000,626704000,47.398146725752,8.545754439732407,488.07028,488.07028,-488.101,-488.101,0.4860247,0.2910546,487.96832,1,1,5,4,4,0,0
626712000,626712000,47.39814672596336,8.545754440416571,488.07034,488.07034,-488.101,-488.101,0.4869216,0.29145193,487.9683,1,1,5,4,4,0,0
626728000,626728000,47.39814672659675,8.545754441725771,488.07043,488.07043,-488.101,-488.101,0.4887249,0.29124746,487.96814,1,1,5,4,4,0,0
626736000,626736000,47.39814672693529,8.545754442434825,488.07047,488.07047,-488.101,-488.101,0.48963133,0.29164532,487.96814,1,1,5,4,4,0,0
626744000,626744000,47.39814672729139,8.545754443155712,488.0705,488.0705,-488.101,-488.101,0.49054095,0.2920438,487.96814,1,1,5,4,4,0,0
626752000,626752000,47.39814672770758,8.545754443863837,488.07053,488.07053,-488.101,-488.101,0.49145377,0.29244295,487.96814,1,1,5,4,4,0,0
626768000,626768000,47.39814672860392,8.545754445339854,488.0706,488.0706,-488.101,-488.101,0.49326995,0.29324308,487.96814,1,1,5,4,4,0,0
626776000,626776000,47.398146729115176,8.545754446024477,488.07062,488.07062,-488.101,-488.101,0.49419215,0.2936441,487.96814,1,1,5,4,4,0,0
626784000,626784000,47.398146729690396,8.54575444670288,488.07065,488.07065,-488.101,-488.101,0.49511755,0.29404575,487.96814,1,1,5,4,4,0,0
626792000,626792000,47.3981467303353,8.545754447406239,488.07068,488.07068,-488.101,-488.101,0.4960462,0.29342145,487.96857,1,1,5,4,4,0,0
626808000,626808000,47.39814673184473,8.545754448715599,488.07077,488.07077,-488.101,-488.101,0.49791312,0.29422504,487.96857,1,1,5,4,4,0,0
626816000,626816000,47.39814672998844,8.545754449032913,488.07092,488.07092,-488.101,-488.101,0.4564216,0.2810223,487.97186,1,1,5,4,4,0,0
626824000,626824000,47.3981467281978,8.545754449367326,488.07108,488.07108,-488.101,-488.101,0.45720884,0.28140187,487.97186,1,1,5,4,4,0,0
626832000,626832000,47.39814672656251,8.545754449631945,488.07123,488.07123,-488.101,-488.101,0.4579869,0.28178212,487.97186,1,1,5,4,4,0,0
626848000,626848000,47.39814672356391,8.545754450178206,488.0715,488.0715,-488.101,-488.101,0.45957595,0.2825445,487.97186,1,1,5,4,4,0,0
626856000,626856000,47.398146722223764,8.545754450437455,488.07162,488.07162,-488.101,-488.101,0.46037498,0.28292668,487.97186,1,1,5,4,4,0,0
626864000,626864000,47.3981467209316,8.545754450618421,488.07178,488.07178,-488.101,-488.101,0.461177,0.28239474,487.97238,1,1,5,4,4,0,0
626872000,626872000,47.398146719718916,8.54575445069201,488.0719,488.0719,-488.101,-488.101,0.46198207,0.28277695,487.97238,1,1,5,4,4,0,0
626888000,626888000,47.39814671749542,8.545754450846658,488.07217,488.07217,-488.101,-488.101,0.4636012,0.2835433,487.97238,1,1,5,4,4,0,0
626896000,626896000,47.398146716454875,8.545754450892025,488.0723,488.0723,-488.101,-488.101,0.4644153,0.2839274,487.97238,1,1,5,4,4,0,0
626904000,626904000,47.398146715379774,8.545754450896865,488.0724,488.0724,-488.101,-488.101,0.4652202,0.2843122,487.97238,1,1,5,4,4,0,0
626912000,626912000,47.39814671438753,8.545754450898102,488.0725,488.0725,-488.101,-488.101,0.46604022,0.28469762,487.97238,1,1,5,4,4,0,0
626928000,626928000,47.39814671251233,8.545754450963399,488.07272,488.07272,-488.101,-488.101,0.46768937,0.28547034,487.97238,1,1,5,4,4,0,0
626936000,626936000,47.398146711589675,8.545754450974542,488.0728,488.0728,-488.101,-488.101,0.4685185,0.2849181,487.97247,1,1,5,4,4,0,0
626944000,626944000,47.3981467107383,8.545754451037903,488.0729,488.0729,-488.101,-488.101,0.46935073,0.2853048,487.97247,1,1,5,4,4,0,0
626952000,626952000,47.398146709957565,8.545754451135569,488.073,488.073,-488.101,-488.101,0.470186,0.28569213,487.97247,1,1,5,4,4,0,0
626968000,626968000,47.398146708659716,8.545754451414618,488.07315,488.07315,-488.101,-488.101,0.47186577,0.2864687,487.97247,1,1,5,4,4,0,0
626976000,626976000,47.398146708087864,8.545754451638478,488.07324,488.07324,-488.101,-488.101,0.4726964,0.28685796,487.97247,1,1,5,4,4,0,0
626984000,626984000,47.3981467075551,8.545754451865761,488.0733,488.0733,-488.101,-488.101,0.4735438,0.28724784,487.97247,1,1,5,4,4,0,0
626992000,626992000,47.3981467070508,8.545754451969225,488.07336,488.07336,-488.101,-488.101,0.4743943,0.28763834,487.97247,1,1,5,4,4,0,0
627008000,627008000,47.39814670607917,8.54575445202223,488.0735,488.0735,-488.101,-488.101,0.47610462,0.2874563,487.9724,1,1,5,4,4,0,0
627016000,627016000,47.3981467056487,8.545754452078397,488.07355,488.07355,-488.101,-488.101,0.47696447,0.2878474,487.9724,1,1,5,4,4,0,0
627024000,627024000,47.39814670529334,8.545754452119654,488.0736,488.0736,-488.101,-488.101,0.4778274,0.28823915,487.9724,1,1,5,4,4,0,0
627032000,627032000,47.39814670499998,8.545754452227035,488.07364,488.07364,-488.101,-488.101,0.47869128,0.28863153,487.9724,1,1,5,4,4,0,0
627048000,627048000,47.39814670452806,8.545754452359589,488.07373,488.07373,-488.101,-488.101,0.48041695,0.2894182,487.9724,1,1,5,4,4,0,0
627056000,627056000,47.39814670436253,8.5457544523973,488.0738,488.0738,-488.101,-488.101,0.48129213,0.28981248,487.9724,1,1,5,4,4,0,0
627064000,627064000,47.39814670423942,8.54575445236607,488.07382,488.07382,-488.101,-488.101,0.48217046,0.2902074,487.9724,1,1,5,4,4,0,0
627072000,627072000,47.398146704129495,8.54575445230827,488.07385,488.07385,-488.101,-488.101,0.48305193,0.28961596,487.97256,1,1,5,4,4,0,0
627088000,627088000,47.39814670399145,8.545754452121454,488.0739,488.0739,-488.101,-488.101,0.48482427,0.2904063,487.97256,1,1,5,4,4,0,0
627096000,627096000,47.39814670394653,8.545754451940875,488.07394,488.07394,-488.101,-488.101,0.4857152,0.29080236,487.97256,1,1,5,4,4,0,0
627104000,627104000,47.398146703957195,8.545754451804303,488.07397,488.07397,-488.101,-488.101,0.48660925,0.29119912,487.97256,1,1,5,4,4,0,0
627112000,627112000,47.398146703995934,8.545754451723173,488.074,488.074,-488.101,-488.101,0.4875065,0.29159647,487.97256,1,1,5,4,4,0,0
627128000,627128000,47.39814670412419,8.545754451477455,488.074,488.074,-488.101,-488.101,0.48929256,0.29138777,487.97226,1,1,5,4,4,0,0
627136000,627136000,47.39814670431474,8.545754451371925,488.074,488.074,-488.101,-488.101,0.49019912,0.29178566,487.97223,1,1,5,4,4,0,0
627144000,627144000,47.39814670455314,8.545754451345218,488.074,488.074,-488.101,-488.101,0.49110883,0.29218417,487.97223,1,1,5,4,4,0,0
627152000,627152000,47.39814670480567,8.54575445135578,488.074,488.074,-488.101,-488.101,0.49202174,0.29258332,487.97223,1,1,5,4,4,0,0
627168000,627168000,47.3981467053759,8.54575445121186,488.07397,488.07397,-488.101,-488.101,0.4938572,0.29338348,487.9722,1,1,5,4,4,0,0
627176000,627176000,47.398146705747564,8.545754451162518,488.07397,488.07397,-488.101,-488.101,0.4947797,0.29378447,487.97217,1,1,5,4,4,0,0
627184000,627184000,47.398146706187404,8.545754451198192,488.07394,488.07394,-488.101,-488.101,0.49570543,0.29418612,487.97214,1,1,5,4,4,0,0
627192000,627192000,47.39814670669862,8.545754451256629,488.07394,488.07394,-488.101,-488.101,0.49661458,0.2945884,487.9721,1,1,5,4,4,0,0
627208000,627208000,47.398146707698814,8.54575445125476,488.07394,488.07394,-488.101,-488.101,0.4984817,0.29436117,487.97272,1,1,5,4,4,0,0
627216000,627216000,47.39814670591327,8.54575445173232,488.07413,488.07413,-488.101,-488.101,0.45688605,0.2811419,487.9779,1,1,5,4,4,0,0
627224000,627224000,47.398146704247026,8.545754452122974,488.07428,488.07428,-488.101,-488.101,0.4576732,0.28152147,487.9779,1,1,5,4,4,0,0
627232000,627232000,47.39814670267685,8.545754452571549,488.07443,488.07443,-488.101,-488.101,0.4584619,0.2819017,487.9779,1,1,5,4,4,0,0
627248000,627248000,47.39814669990969,8.545754453455928,488.07474,488.07474,-488.101,-488.101,0.4600511,0.28266403,487.97787,1,1,5,4,4,0,0
627256000,627256000,47.39814669864408,8.545754453911188,488.07486,488.07486,-488.101,-488.101,0.46085018,0.2830462,487.97784,1,1,5,4,4,0,0
627264000,627264000,47.398146697480506,8.545754454352997,488.075,488.075,-488.101,-488.101,0.4616409,0.28342897,487.9778,1,1,5,4,4,0,0
627272000,627272000,47.39814669640866,8.54575445477098,488.07513,488.07513,-488.101,-488.101,0.46244583,0.28289276,487.9779,1,1,5,4,4,0,0
627288000,627288000,47.39814669449881,8.5457544554994,488.0754,488.0754,-488.101,-488.101,0.46406472,0.28365907,487.97787,1,1,5,4,4,0,0
627296000,627296000,47.398146693684225,8.545754455931178,488.07556,488.07556,-488.101,-488.101,0.46487868,0.28404316,487.97787,1,1,5,4,4,0,0
627304000,627304000,47.39814669291325,8.545754456367845,488.07568,488.07568,-488.101,-488.101,0.46569568,0.2844279,487.97787,1,1,5,4,4,0,0
627312000,627312000,47.39814669217377,8.5457544568231,488.0758,488.0758,-488.101,-488.101,0.46651572,0.2848133,487.97787,1,1,5,4,4,0,0
627328000,627328000,47.398146690939704,8.545754457637665,488.07605,488.07605,-488.101,-488.101,0.4681649,0.285586,487.97787,1,1,5,4,4,0,0
627336000,627336000,47.39814669039397,8.54575445801472,488.07617,488.07617,-488.101,-488.101,0.46898115,0.28597328,487.97787,1,1,5,4,4,0,0
627344000,627344000,47.39814668991862,8.545754458446394,488.0763,488.0763,-488.101,-488.101,0.4698132,0.2854167,487.97787,1,1,5,4,4,0,0
627352000,627352000,47.39814668949626,8.545754458916884,488.07642,488.07642,-488.101,-488.101,0.47064832,0.285804,487.97787,1,1,5,4,4,0,0
627368000,627368000,47.39814668888519,8.54575445998591,488.07666,488.07666,-488.101,-488.101,0.47232777,0.2865805,487.97787,1,1,5,4,4,0,0
627376000,627376000,47.39814668871652,8.545754460604085,488.07678,488.07678,-488.101,-488.101,0.4731721,0.28696972,487.97787,1,1,5,4,4,0,0
627384000,627384000,47.398146688573334,8.545754461284277,488.0769,488.0769,-488.101,-488.101,0.4740195,0.2873596,487.97787,1,1,5,4,4,0,0
627392000,627392000,47.39814668843084,8.545754461997527,488.07703,488.07703,-488.101,-488.101,0.47487,0.28775007,487.97787,1,1,5,4,4,0,0
627408000,627408000,47.39814668831475,8.545754463440437,488.07727,488.07727,-488.101,-488.101,0.4765656,0.28853297,487.97787,1,1,5,4,4,0,0
627416000,627416000,47.39814668833082,8.545754464084991,488.0774,488.0774,-488.101,-488.101,0.47742522,0.2879553,487.97787,1,1,5,4,4,0,0
627424000,627424000,47.398146688368236,8.545754464708176,488.0775,488.0775,-488.101,-488.101,0.47828797,0.288347,487.97787,1,1,5,4,4,0,0
627432000,627432000,47.39814668844778,8.545754465320645,488.07764,488.07764,-488.101,-488.101,0.4791538,0.28873935,487.97787,1,1,5,4,4,0,0
627448000,627448000,47.39814668863828,8.5457544665308,488.07788,488.07788,-488.101,-488.101,0.4808949,0.28952593,487.97787,1,1,5,4,4,0,0
627456000,627456000,47.398146688755084,8.54575446709282,488.07797,488.07797,-488.101,-488.101,0.48177016,0.28992015,487.97787,1,1,5,4,4,0,0
627464000,627464000,47.39814668888344,8.54575446763021,488.0781,488.0781,-488.101,-488.101,0.48264855,0.29031503,487.97787,1,1,5,4,4,0,0
627472000,627472000,47.39814668908153,8.545754468167429,488.07822,488.07822,-488.101,-488.101,0.48353007,0.29071054,487.97787,1,1,5,4,4,0,0
627488000,627488000,47.39814668995685,8.545754468957751,488.07843,488.07843,-488.101,-488.101,0.48528582,0.2905073,487.97787,1,1,5,4,4,0,0
627496000,627496000,47.398146690463065,8.545754469264224,488.07855,488.07855,-488.101,-488.101,0.4861766,0.29090333,487.97787,1,1,5,4,4,0,0
627504000,627504000,47.398146691007476,8.545754469500634,488.07864,488.07864,-488.101,-488.101,0.48707056,0.29130003,487.97787,1,1,5,4,4,0,0
627512000,627512000,47.398146691638644,8.545754469774929,488.07877,488.07877,-488.101,-488.101,0.48796767,0.29169732,487.97787,1,1,5,4,4,0,0
627528000,627528000,47.39814669307783,8.54575447044525,488.07898,488.07898,-488.101,-488.101,0.4897715,0.2924938,487.97787,1,1,5,4,4,0,0
627536000,627536000,47.398146693863566,8.545754470806514,488.07907,488.07907,-488.101,-488.101,0.49067816,0.29289296,487.97787,1,1,5,4,4,0,0
627544000,627544000,47.3981466946908,8.54575447117205,488.0792,488.0792,-488.101,-488.101,0.49158803,0.29329276,487.97787,1,1,5,4,4,0,0
627552000,627552000,47.398146695576365,8.545754471478528,488.07928,488.07928,-488.101,-488.101,0.49248248,0.2936932,487.97787,1,1,5,4,4,0,0
627568000,627568000,47.398146697573864,8.545754472108596,488.07947,488.07947,-488.101,-488.101,0.49431777,0.29347175,487.97787,1,1,5,4,4,0,0
627576000,627576000,47.39814669869988,8.545754472440676,488.07956,488.07956,-488.101,-488.101,0.4952402,0.29387268,487.97787,1,1,5,4,4,0,0
627584000,627584000,47.39814669988374,8.545754472735783,488.07965,488.07965,-488.101,-488.101,0.49616587,0.29427424,487.97787,1,1,5,4,4,0,0
627592000,627592000,47.398146701120204,8.545754472988458,488.07974,488.07974,-488.101,-488.101,0.49709475,0.29467642,487.97787,1,1,5,4,4,0,0
627608000,627608000,47.39814670367241,8.545754473388266,488.07993,488.07993,-488.101,-488.101,0.49896216,0.29548267,487.97787,1,1,5,4,4,0,0
627616000,627616000,47.398146702725846,8.54575447244337,488.08008,488.08008,-488.101,-488.101,0.45727646,0.28211737,487.97787,1,1,5,4,4,0,0
627624000,627624000,47.3981467018776,8.54575447160294,488.08026,488.08026,-488.101,-488.101,0.45805305,0.28249803,487.97787,1,1,5,4,4,0,0
627632000,627632000,47.39814670111702,8.545754470756584,488.08044,488.08044,-488.101,-488.101,0.45884302,0.28196877,487.97787,1,1,5,4,4,0,0
627648000,627648000,47.398146699836666,8.545754469070657,488.08078,488.08078,-488.101,-488.101,0.46043193,0.28273088,487.97787,1,1,5,4,4,0,0
627656000,627656000,47.39814669930747,8.545754468245644,488.08093,488.08093,-488.101,-488.101,0.46123087,0.2831129,487.97787,1,1,5,4,4,0,0
627664000,627664000,47.39814669881922,8.545754467421656,488.0811,488.0811,-488.101,-488.101,0.46203285,0.28349558,487.97787,1,1,5,4,4,0,0
627672000,627672000,47.398146698359085,8.545754466576893,488.08124,488.08124,-488.101,-488.101,0.46283782,0.28387886,487.97787,1,1,5,4,4,0,0
627688000,627688000,47.39814669753219,8.54575446470796,488.08154,488.08154,-488.101,-488.101,0.4644568,0.28464738,487.97787,1,1,5,4,4,0,0
627696000,627696000,47.39814669717262,8.545754463758628,488.08167,488.08167,-488.101,-488.101,0.46525878,0.28410113,487.97787,1,1,5,4,4,0,0
627704000,627704000,47.398146696828825,8.545754462805768,488.0818,488.0818,-488.101,-488.101,0.46607563,0.28448576,487.97787,1,1,5,4,4,0,0
627712000,627712000,47.39814669650455,8.54575446185655,488.08194,488.08194,-488.101,-488.101,0.46689558,0.28487098,487.97787,1,1,5,4,4,0,0
627728000,627728000,47.39814669592737,8.545754459942284,488.08218,488.08218,-488.101,-488.101,0.46854454,0.28564337,487.97787,1,1,5,4,4,0,0
627736000,627736000,47.39814669570136,8.545754459019916,488.0823,488.0823,-488.101,-488.101,0.4693736,0.28603053,487.97787,1,1,5,4,4,0,0
627744000,627744000,47.39814669554022,8.545754458066712,488.08243,488.08243,-488.101,-488.101,0.47020575,0.28641832,487.97787,1,1,5,4,4,0,0
627752000,627752000,47.39814669543471,8.545754457067227,488.08252,488.08252,-488.101,-488.101,0.47104093,0.28585783,487.97787,1,1,5,4,4,0,0
627768000,627768000,47.39814669532044,8.54575445495544,488.08276,488.08276,-488.101,-488.101,0.47270685,0.28663403,487.97787,1,1,5,4,4,0,0
627776000,627776000,47.398146695321714,8.54575445391644,488.0829,488.0829,-488.101,-488.101,0.4735511,0.2870231,487.97787,1,1,5,4,4,0,0
627784000,627784000,47.398146695397955,8.545754452913668,488.08298,488.08298,-488.101,-488.101,0.4743984,0.28741282,487.97787,1,1,5,4,4,0,0
627792000,627792000,47.39814669555256,8.545754451920276,488.0831,488.0831,-488.101,-488.101,0.4752488,0.28780314,487.97787,1,1,5,4,4,0,0
627808000,627808000,47.39814669596129,8.545754449797343,488.08328,488.08328,-488.101,-488.101,0.47695893,0.28858572,487.97787,1,1,5,4,4,0,0
627816000,627816000,47.39814669620447,8.545754448759189,488.0834,488.0834,-488.101,-488.101,0.47781867,0.28897798,487.97787,1,1,5,4,4,0,0
627824000,627824000,47.39814669650572,8.545754447740682,488.0835,488.0835,-488.101,-488.101,0.47868147,0.28839633,487.97787,1,1,5,4,4,0,0
627832000,627832000,47.39814669688644,8.545754446808905,488.08362,488.08362,-488.101,-488.101,0.47954744,0.28878853,487.97787,1,1,5,4,4,0,0
627848000,627848000,47.39814669773061,8.545754445169539,488.08383,488.08383,-488.101,-488.101,0.48127297,0.28957477,487.97787,1,1,5,4,4,0,0
627856000,627856000,47.3981466981951,8.545754444310212,488.08395,488.08395,-488.101,-488.101,0.48214805,0.28996885,487.97787,1,1,5,4,4,0,0
627864000,627864000,47.3981466986985,8.545754443473832,488.08408,488.08408,-488.101,-488.101,0.4830263,0.29036355,487.97787,1,1,5,4,4,0,0
627872000,627872000,47.39814669926162,8.545754442685388,488.08417,488.08417,-488.101,-488.101,0.48390767,0.29075888,487.97787,1,1,5,4,4,0,0
627888000,627888000,47.39814670051227,8.54575444123678,488.0844,488.0844,-488.101,-488.101,0.48567986,0.29155147,487.97787,1,1,5,4,4,0,0
627896000,627896000,47.398146701193504,8.545754440540634,488.0845,488.0845,-488.101,-488.101,0.48657072,0.290948,487.97787,1,1,5,4,4,0,0
627904000,627904000,47.398146701859496,8.545754439785314,488.0846,488.0846,-488.101,-488.101,0.4874647,0.2913445,487.97787,1,1,5,4,4,0,0
627912000,627912000,47.398146702687164,8.545754439035422,488.0847,488.0847,-488.101,-488.101,0.48834443,0.2917416,487.97787,1,1,5,4,4,0,0
627928000,627928000,47.398146704388076,8.54575443757198,488.08487,488.08487,-488.101,-488.101,0.49014783,0.29253778,487.97787,1,1,5,4,4,0,0
627936000,627936000,47.39814670525283,8.545754436911508,488.08496,488.08496,-488.101,-488.101,0.4910543,0.29293677,487.97787,1,1,5,4,4,0,0
627944000,627944000,47.39814670614722,8.545754436245376,488.08505,488.08505,-488.101,-488.101,0.49196395,0.29333642,487.97787,1,1,5,4,4,0,0
627952000,627952000,47.39814670707917,8.545754435579548,488.08514,488.08514,-488.101,-488.101,0.4928768,0.2937367,487.97787,1,1,5,4,4,0,0
627968000,627968000,47.39814670901247,8.545754434283248,488.0853,488.0853,-488.101,-488.101,0.4947121,0.29351166,487.97787,1,1,5,4,4,0,0
627976000,627976000,47.39814671004069,8.545754433703298,488.0854,488.0854,-488.101,-488.101,0.4956346,0.2939124,487.97787,1,1,5,4,4,0,0
627984000,627984000,47.39814671108876,8.54575443312776,488.08545,488.08545,-488.101,-488.101,0.4965407,0.2943138,487.97787,1,1,5,4,4,0,0
627992000,627992000,47.39814671218945,8.54575443251841,488.0855,488.0855,-488.101,-488.101,0.49746937,0.29471582,487.97787,1,1,5,4,4,0,0
628008000,628008000,47.398146714425245,8.545754431336333,488.08563,488.08563,-488.101,-488.101,0.49933636,0.2955217,487.97787,1,1,5,4,4,0,0
628016000,628016000,47.398146712994,8.545754431878796,488.0857,488.0857,-488.101,-488.101,0.45758972,0.28215286,487.97787,1,1,5,4,4,0,0
628024000,628024000,47.39814671157453,8.545754432408636,488.0858,488.0858,-488.101,-488.101,0.45837656,0.28253338,487.97787,1,1,5,4,4,0,0
628032000,628032000,47.3981467101754,8.545754432891698,488.08585,488.08585,-488.101,-488.101,0.4591664,0.28291452,487.97787,1,1,5,4,4,0,0
628048000,628048000,47.39814670757198,8.545754433857246,488.086,488.086,-488.101,-488.101,0.46074402,0.28276294,487.97787,1,1,5,4,4,0,0
628056000,628056000,47.39814670639516,8.54575443439578,488.0861,488.0861,-488.101,-488.101,0.46154264,0.28314477,487.97787,1,1,5,4,4,0,0
628064000,628064000,47.39814670529421,8.545754434900738,488.08618,488.08618,-488.101,-488.101,0.46234426,0.28352726,487.97787,1,1,5,4,4,0,0
628072000,628072000,47.398146704242,8.545754435340797,488.08627,488.08627,-488.101,-488.101,0.4631489,0.2839104,487.97787,1,1,5,4,4,0,0
628088000,628088000,47.39814670241922,8.545754436012496,488.08646,488.08646,-488.101,-488.101,0.46476722,0.28467855,487.97787,1,1,5,4,4,0,0
628096000,628096000,47.39814670161399,8.545754436244664,488.08652,488.08652,-488.101,-488.101,0.4655809,0.2850636,487.97787,1,1,5,4,4,0,0
628104000,628104000,47.39814670087171,8.545754436412095,488.0866,488.0866,-488.101,-488.101,0.46639764,0.2854493,487.97787,1,1,5,4,4,0,0
628112000,628112000,47.39814670021199,8.545754436549805,488.08667,488.08667,-488.101,-488.101,0.4672174,0.28489628,487.97787,1,1,5,4,4,0,0
628128000,628128000,47.3981466991296,8.545754436802744,488.08682,488.08682,-488.101,-488.101,0.46885327,0.2856683,487.97787,1,1,5,4,4,0,0
628136000,628136000,47.39814669860242,8.545754436937118,488.08688,488.08688,-488.101,-488.101,0.46968198,0.28605527,487.97787,1,1,5,4,4,0,0
628144000,628144000,47.39814669810793,8.545754437080339,488.08698,488.08698,-488.101,-488.101,0.47051373,0.28644288,487.97787,1,1,5,4,4,0,0
628152000,628152000,47.39814669770944,8.54575443715861,488.08704,488.08704,-488.101,-488.101,0.47134855,0.28683114,487.97787,1,1,5,4,4,0,0
628168000,628168000,47.39814669713816,8.545754437205698,488.0872,488.0872,-488.101,-488.101,0.47302738,0.28760952,487.97787,1,1,5,4,4,0,0
628176000,628176000,47.398146696878605,8.545754437272468,488.08728,488.08728,-488.101,-488.101,0.4738714,0.28799966,487.97787,1,1,5,4,4,0,0
628184000,628184000,47.398146696612244,8.545754437345371,488.08734,488.08734,-488.101,-488.101,0.4747185,0.28742582,487.97787,1,1,5,4,4,0,0
628192000,628192000,47.398146696365075,8.545754437487352,488.08743,488.08743,-488.101,-488.101,0.4755544,0.28781593,487.97787,1,1,5,4,4,0,0
628208000,628208000,47.39814669593483,8.545754437882634,488.0876,488.0876,-488.101,-488.101,0.47726372,0.28859806,487.97787,1,1,5,4,4,0,0
628216000,628216000,47.39814669586206,8.545754438158886,488.08768,488.08768,-488.101,-488.101,0.47812304,0.28899008,487.97787,1,1,5,4,4,0,0
628224000,628224000,47.398146695860575,8.545754438462248,488.08774,488.08774,-488.101,-488.101,0.47898546,0.28938273,487.97787,1,1,5,4,4,0,0
628232000,628232000,47.39814669591423,8.54575443872996,488.08783,488.08783,-488.101,-488.101,0.47985098,0.289776,487.97787,1,1,5,4,4,0,0
628248000,628248000,47.39814669615634,8.545754439204382,488.08792,488.08792,-488.101,-488.101,0.48159146,0.29056448,487.97787,1,1,5,4,4,0,0
628256000,628256000,47.398146696272754,8.545754439404034,488.08798,488.08798,-488.101,-488.101,0.4824664,0.2899691,487.97787,1,1,5,4,4,0,0
628264000,628264000,47.3981466964086,8.545754439607256,488.08804,488.08804,-488.101,-488.101,0.48332837,0.29036355,487.97787,1,1,5,4,4,0,0
628272000,628272000,47.398146696535704,8.545754439791601,488.0881,488.0881,-488.101,-488.101,0.48420933,0.29075864,487.97787,1,1,5,4,4,0,0
628288000,628288000,47.398146696814784,8.545754440091523,488.0882,488.0882,-488.101,-488.101,0.48598078,0.29155073,487.97787,1,1,5,4,4,0,0
628296000,628296000,47.39814669697303,8.545754440270501,488.08826,488.08826,-488.101,-488.101,0.48687124,0.29194772,487.97787,1,1,5,4,4,0,0
628304000,628304000,47.3981466971718,8.545754440436175,488.08832,488.08832,-488.101,-488.101,0.48776487,0.29234535,487.97787,1,1,5,4,4,0,0
628312000,628312000,47.39814669745539,8.545754440619332,488.08838,488.08838,-488.101,-488.101,0.48866168,0.29274356,487.97787,1,1,5,4,4,0,0
628328000,628328000,47.398146698154456,8.545754440836381,488.0885,488.0885,-488.101,-488.101,0.49044693,0.29252487,487.97787,1,1,5,4,4,0,0
628336000,628336000,47.39814669853479,8.54575444086708,488.0886,488.0886,-488.101,-488.101,0.49135303,0.29292363,487.97787,1,1,5,4,4,0,0
628344000,628344000,47.39814669894146,8.545754440920057,488.08865,488.08865,-488.101,-488.101,0.49226233,0.293323,487.97787,1,1,5,4,4,0,0
628352000,628352000,47.39814669932838,8.54575444097347,488.0887,488.0887,-488.101,-488.101,0.49317482,0.293723,487.97787,1,1,5,4,4,0,0
628368000,628368000,47.39814670004727,8.54575444089518,488.08884,488.08884,-488.101,-488.101,0.4950094,0.29452488,487.97787,1,1,5,4,4,0,0
628376000,628376000,47.3981467004339,8.545754440852022,488.0889,488.0889,-488.101,-488.101,0.4959315,0.29492676,487.97787,1,1,5,4,4,0,0
628384000,628384000,47.398146700833045,8.54575444077643,488.08896,488.08896,-488.101,-488.101,0.4968568,0.29532927,487.97787,1,1,5,4,4,0,0
628392000,628392000,47.39814670128011,8.54575444067704,488.08902,488.08902,-488.101,-488.101,0.49778533,0.2957324,487.97787,1,1,5,4,4,0,0
628408000,628408000,47.39814670233478,8.545754440458458,488.0891,488.0891,-488.101,-488.101,0.49963173,0.29549494,487.97787,1,1,5,4,4,0,0
628416000,628416000,47.39814670082226,8.54575444108441,488.08923,488.08923,-488.101,-488.101,0.45784461,0.2821315,487.97787,1,1,5,4,4,0,0
628424000,628424000,47.398146699393784,8.545754441672827,488.08932,488.08932,-488.101,-488.101,0.458631,0.2825117,487.97787,1,1,5,4,4,0,0
628432000,628432000,47.39814669804909,8.545754442233113,488.08945,488.08945,-488.101,-488.101,0.4594204,0.28289258,487.97787,1,1,5,4,4,0,0
628448000,628448000,47.39814669558296,8.545754443506574,488.08963,488.08963,-488.101,-488.101,0.46100813,0.28365624,487.97787,1,1,5,4,4,0,0
628456000,628456000,47.3981466944783,8.54575444420811,488.08972,488.08972,-488.101,-488.101,0.4618065,0.28403905,487.97787,1,1,5,4,4,0,0
628464000,628464000,47.39814669345435,8.545754444854222,488.0898,488.0898,-488.101,-488.101,0.46260786,0.2844225,487.97787,1,1,5,4,4,0,0
628472000,628472000,47.39814669247998,8.545754445485102,488.08987,488.08987,-488.101,-488.101,0.46340075,0.2838773,487.97787,1,1,5,4,4,0,0
628488000,628488000,47.39814669069093,8.545754446682777,488.09006,488.09006,-488.101,-488.101,0.4650182,0.2846449,487.97787,1,1,5,4,4,0,0
628496000,628496000,47.39814668985973,8.545754447242818,488.09012,488.09012,-488.101,-488.101,0.46583146,0.28502962,487.97787,1,1,5,4,4,0,0
628504000,628504000,47.39814668906355,8.54575444782624,488.0902,488.0902,-488.101,-488.101,0.46664774,0.28541502,487.97787,1,1,5,4,4,0,0
628512000,628512000,47.39814668831388,8.545754448369983,488.0903,488.0903,-488.101,-488.101,0.46746704,0.28580102,487.97787,1,1,5,4,4,0,0
628528000,628528000,47.39814668692374,8.545754449301725,488.09045,488.09045,-488.101,-488.101,0.4691148,0.286575,487.97787,1,1,5,4,4,0,0
628536000,628536000,47.398146686298155,8.545754449676469,488.0905,488.0905,-488.101,-488.101,0.46994326,0.2869629,487.97787,1,1,5,4,4,0,0
628544000,628544000,47.39814668571732,8.545754449956839,488.09058,488.09058,-488.101,-488.101,0.47076166,0.28639722,487.97787,1,1,5,4,4,0,0
628552000,628552000,47.398146685153435,8.54575445023955,488.09064,488.09064,-488.101,-488.101,0.47159606,0.28678513,487.97787,1,1,5,4,4,0,0
628568000,628568000,47.398146684100084,8.545754450711485,488.09076,488.09076,-488.101,-488.101,0.47327405,0.28756285,487.97787,1,1,5,4,4,0,0
628576000,628576000,47.398146683610825,8.545754450925454,488.09082,488.09082,-488.101,-488.101,0.4741177,0.2879527,487.97787,1,1,5,4,4,0,0
628584000,628584000,47.39814668318431,8.545754451143317,488.09085,488.09085,-488.101,-488.101,0.4749644,0.28834313,487.97787,1,1,5,4,4,0,0
628592000,628592000,47.398146682805375,8.545754451377016,488.0909,488.0909,-488.101,-488.101,0.4758142,0.28873423,487.97787,1,1,5,4,4,0,0
628608000,628608000,47.398146682136534,8.545754451855313,488.091,488.091,-488.101,-488.101,0.47750843,0.28951833,487.97787,1,1,5,4,4,0,0
628616000,628616000,47.39814668181386,8.545754452095347,488.09106,488.09106,-488.101,-488.101,0.4783673,0.2889314,487.97787,1,1,5,4,4,0,0
628624000,628624000,47.398146681525475,8.545754452290964,488.09113,488.09113,-488.101,-488.101,0.4792293,0.2893237,487.97787,1,1,5,4,4,0,0
628632000,628632000,47.398146681269736,8.54575445242639,488.0912,488.0912,-488.101,-488.101,0.48009443,0.2897166,487.97787,1,1,5,4,4,0,0
628648000,628648000,47.39814668075446,8.545754452526175,488.0913,488.0913,-488.101,-488.101,0.48183405,0.29050437,487.97787,1,1,5,4,4,0,0
628656000,628656000,47.39814668054012,8.545754452488662,488.09134,488.09134,-488.101,-488.101,0.48270854,0.2908992,487.97787,1,1,5,4,4,0,0
628664000,628664000,47.39814668036718,8.545754452365182,488.0914,488.0914,-488.101,-488.101,0.48358622,0.29129463,487.97787,1,1,5,4,4,0,0
628672000,628672000,47.39814668024937,8.545754452185838,488.09146,488.09146,-488.101,-488.101,0.484467,0.2916907,487.97787,1,1,5,4,4,0,0
628688000,628688000,47.39814668006949,8.545754451823116,488.09152,488.09152,-488.101,-488.101,0.48622125,0.29147863,487.97787,1,1,5,4,4,0,0
628696000,628696000,47.398146680040526,8.545754451688836,488.09158,488.09158,-488.101,-488.101,0.48711127,0.29187524,487.97787,1,1,5,4,4,0,0
628704000,628704000,47.39814668006064,8.545754451517071,488.0916,488.0916,-488.101,-488.101,0.48800445,0.29227248,487.97787,1,1,5,4,4,0,0
628712000,628712000,47.398146680081,8.545754451260546,488.09164,488.09164,-488.101,-488.101,0.48890075,0.2926703,487.97787,1,1,5,4,4,0,0
628728000,628728000,47.39814668014642,8.54575445069802,488.09174,488.09174,-488.101,-488.101,0.490703,0.2934679,487.97787,1,1,5,4,4,0,0
628736000,628736000,47.39814668015438,8.545754450395737,488.0918,488.0918,-488.101,-488.101,0.49160886,0.29386765,487.97787,1,1,5,4,4,0,0
628744000,628744000,47.39814668017943,8.545754450084958,488.09183,488.09183,-488.101,-488.101,0.49251792,0.294268,487.97787,1,1,5,4,4,0,0
628752000,628752000,47.39814668024165,8.545754449753812,488.09186,488.09186,-488.101,-488.101,0.49341163,0.294669,487.97787,1,1,5,4,4,0,0
628768000,628768000,47.39814668050257,8.54575444915841,488.09195,488.09195,-488.101,-488.101,0.49524525,0.29443854,487.97787,1,1,5,4,4,0,0
628776000,628776000,47.39814668068198,8.545754448804615,488.09198,488.09198,-488.101,-488.101,0.49616688,0.29484,487.97787,1,1,5,4,4,0,0
628784000,628784000,47.39814668084596,8.545754448454398,488.09204,488.09204,-488.101,-488.101,0.49709177,0.29524207,487.97787,1,1,5,4,4,0,0
628792000,628792000,47.39814668098385,8.545754448137762,488.09204,488.09204,-488.101,-488.101,0.49801984,0.2956448,487.97787,1,1,5,4,4,0,0
628808000,628808000,47.398146681222784,8.545754447424871,488.0921,488.0921,-488.101,-488.101,0.49988565,0.2964521,487.97787,1,1,5,4,4,0,0
628816000,628816000,47.39814667993759,8.54575444820158,488.0921,488.0921,-488.101,-488.101,0.45805967,0.28296405,487.97787,1,1,5,4,4,0,0
628824000,628824000,47.39814667872479,8.545754449009653,488.09207,488.09207,-488.101,-488.101,0.45883533,0.28334513,487.97787,1,1,5,4,4,0,0
628832000,628832000,47.39814667756485,8.545754449779368,488.09207,488.09207,-488.101,-488.101,0.45962423,0.28280815,487.97787,1,1,5,4,4,0,0
628848000,628848000,47.39814667542344,8.54575445112163,488.09204,488.09204,-488.101,-488.101,0.461211,0.283571,487.97787,1,1,5,4,4,0,0
628856000,628856000,47.398146674454615,8.54575445174372,488.09204,488.09204,-488.101,-488.101,0.46200886,0.28395337,487.97787,1,1,5,4,4,0,0
628864000,628864000,47.398146673553626,8.545754452371233,488.09204,488.09204,-488.101,-488.101,0.46280974,0.2843364,487.97787,1,1,5,4,4,0,0
628872000,628872000,47.398146672688235,8.54575445298115,488.09204,488.09204,-488.101,-488.101,0.46361363,0.28472006,487.97787,1,1,5,4,4,0,0
628888000,628888000,47.39814667112531,8.545754454097453,488.092,488.092,-488.101,-488.101,0.46523046,0.28548935,487.97787,1,1,5,4,4,0,0
628896000,628896000,47.398146670368995,8.545754454507223,488.092,488.092,-488.101,-488.101,0.46603143,0.28587493,487.97787,1,1,5,4,4,0,0
628904000,628904000,47.39814666962661,8.545754454901662,488.09198,488.09198,-488.101,-488.101,0.46684724,0.28531772,487.97787,1,1,5,4,4,0,0
628912000,628912000,47.39814666890097,8.545754455327364,488.09195,488.09195,-488.101,-488.101,0.4676661,0.2857033,487.97787,1,1,5,4,4,0,0
628928000,628928000,47.39814666754169,8.545754456256596,488.09192,488.09192,-488.101,-488.101,0.4693129,0.2864764,487.97787,1,1,5,4,4,0,0
628936000,628936000,47.39814666693,8.545754456760955,488.09192,488.09192,-488.101,-488.101,0.4701409,0.28686392,487.97787,1,1,5,4,4,0,0
628944000,628944000,47.398146666370174,8.54575445726106,488.0919,488.0919,-488.101,-488.101,0.47097194,0.28725204,487.97787,1,1,5,4,4,0,0
628952000,628952000,47.39814666580541,8.545754457682657,488.09186,488.09186,-488.101,-488.101,0.47180605,0.28764084,487.97787,1,1,5,4,4,0,0
628968000,628968000,47.39814666471345,8.545754458346408,488.09183,488.09183,-488.101,-488.101,0.47346982,0.2884203,487.97787,1,1,5,4,4,0,0
628976000,628976000,47.398146664177986,8.545754458654379,488.09183,488.09183,-488.101,-488.101,0.47431293,0.28784218,487.97787,1,1,5,4,4,0,0
628984000,628984000,47.398146663700004,8.545754458946973,488.09183,488.09183,-488.101,-488.101,0.47515917,0.28823218,487.97787,1,1,5,4,4,0,0
628992000,628992000,47.39814666326336,8.545754459163362,488.0918,488.0918,-488.101,-488.101,0.47600845,0.2886228,487.97787,1,1,5,4,4,0,0
629008000,629008000,47.398146662503386,8.545754459412368,488.0918,488.0918,-488.101,-488.101,0.4777164,0.289406,487.97787,1,1,5,4,4,0,0
629016000,629016000,47.39814666218458,8.545754459503053,488.09177,488.09177,-488.101,-488.101,0.478575,0.28979853,487.97787,1,1,5,4,4,0,0
629024000,629024000,47.398146661930454,8.545754459546618,488.09177,488.09177,-488.101,-488.101,0.47943676,0.2901917,487.97787,1,1,5,4,4,0,0
629032000,629032000,47.39814666171045,8.545754459569203,488.09174,488.09174,-488.101,-488.101,0.48030162,0.2905855,487.97787,1,1,5,4,4,0,0
629048000,629048000,47.39814666128597,8.545754459074367,488.0917,488.0917,-488.101,-488.101,0.48202503,0.29038027,487.97787,1,1,5,4,4,0,0
629056000,629056000,47.39814666114727,8.54575445877809,488.09167,488.09167,-488.101,-488.101,0.48289904,0.2907746,487.97787,1,1,5,4,4,0,0
629064000,629064000,47.39814666102801,8.545754458527766,488.09164,488.09164,-488.101,-488.101,0.4837762,0.29116958,487.97787,1,1,5,4,4,0,0
629072000,629072000,47.39814666092422,8.545754458328073,488.0916,488.0916,-488.101,-488.101,0.4846565,0.2915652,487.97787,1,1,5,4,4,0,0
629088000,629088000,47.39814666072651,8.545754457922298,488.09155,488.09155,-488.101,-488.101,0.48642656,0.2923583,487.97787,1,1,5,4,4,0,0
629096000,629096000,47.39814666063128,8.545754457695015,488.0915,488.0915,-488.101,-488.101,0.48731634,0.2927558,487.97787,1,1,5,4,4,0,0
629104000,629104000,47.398146660493396,8.545754457359205,488.09143,488.09143,-488.101,-488.101,0.48820928,0.29315394,487.97787,1,1,5,4,4,0,0
629112000,629112000,47.39814666036163,8.545754457012537,488.09137,488.09137,-488.101,-488.101,0.48908797,0.2935527,487.97787,1,1,5,4,4,0,0
629128000,629128000,47.398146660256366,8.545754456382552,488.09128,488.09128,-488.101,-488.101,0.49088925,0.29332945,487.97787,1,1,5,4,4,0,0
629136000,629136000,47.398146660279636,8.545754456100813,488.09122,488.09122,-488.101,-488.101,0.49179468,0.2937287,487.97787,1,1,5,4,4,0,0
629144000,629144000,47.39814666026996,8.545754455740937,488.0912,488.0912,-488.101,-488.101,0.49270332,0.29412857,487.97787,1,1,5,4,4,0,0
629152000,629152000,47.39814666020624,8.545754455329321,488.09113,488.09113,-488.101,-488.101,0.49361512,0.29452908,487.97787,1,1,5,4,4,0,0
629168000,629168000,47.39814666004596,8.545754454298146,488.09103,488.09103,-488.101,-488.101,0.49544838,0.29533195,487.97787,1,1,5,4,4,0,0
629176000,629176000,47.3981466599749,8.545754453683102,488.09097,488.09097,-488.101,-488.101,0.4963698,0.29573432,487.97787,1,1,5,4,4,0,0
629184000,629184000,47.39814665989756,8.545754453052973,488.0909,488.0909,-488.101,-488.101,0.49727494,0.29613733,487.97787,1,1,5,4,4,0,0
629192000,629192000,47.398146659839796,8.54575445244199,488.09088,488.09088,-488.101,-488.101,0.49820256,0.29549256,487.97787,1,1,5,4,4,0,0
629208000,629208000,47.39814665992839,8.54575445125232,488.09076,488.09076,-488.101,-488.101,0.5000675,0.29629883,487.97787,1,1,5,4,4,0,0
629216000,629216000,47.398146659439384,8.545754450225491,488.0908,488.0908,-488.101,-488.101,0.45822284,0.2828333,487.97787,1,1,5,4,4,0,0
629224000,629224000,47.39814665898499,8.545754449151383,488.09082,488.09082,-488.101,-488.101,0.45900846,0.2832139,487.97787,1,1,5,4,4,0,0
629232000,629232000,47.398146658586015,8.545754448047154,488.09085,488.09085,-488.101,-488.101,0.45979702,0.28359514,487.97787,1,1,5,4,4,0,0
629248000,629248000,47.39814665779742,8.545754445794879,488.0909,488.0909,-488.101,-488.101,0.46138307,0.28435954,487.97787,1,1,5,4,4,0,0
629256000,629256000,47.39814665739065,8.54575444473095,488.09094,488.09094,-488.101,-488.101,0.46216953,0.2847427,487.97787,1,1,5,4,4,0,0
629264000,629264000,47.39814665697224,8.545754443662862,488.09097,488.09097,-488.101,-488.101,0.46296987,0.2841942,487.97787,1,1,5,4,4,0,0
629272000,629272000,47.39814665656826,8.5457544425874,488.091,488.091,-488.101,-488.101,0.46377322,0.28457737,487.97787,1,1,5,4,4,0,0
629288000,629288000,47.398146655836186,8.545754440354282,488.09103,488.09103,-488.101,-488.101,0.465389,0.28534564,487.97787,1,1,5,4,4,0,0
629296000,629296000,47.39814665549049,8.545754439162131,488.09106,488.09106,-488.101,-488.101,0.46620145,0.28573075,487.97787,1,1,5,4,4,0,0
629304000,629304000,47.39814665519265,8.54575443787829,488.0911,488.0911,-488.101,-488.101,0.4670169,0.28611648,487.97787,1,1,5,4,4,0,0
629312000,629312000,47.39814665494446,8.545754436528346,488.0911,488.0911,-488.101,-488.101,0.46783543,0.28650287,487.97787,1,1,5,4,4,0,0
629328000,629328000,47.39814665464429,8.545754433714299,488.09113,488.09113,-488.101,-488.101,0.46946886,0.28727752,487.97787,1,1,5,4,4,0,0
629336000,629336000,47.398146654553315,8.54575443228309,488.09116,488.09116,-488.101,-488.101,0.47029632,0.28670847,487.97787,1,1,5,4,4,0,0
629344000,629344000,47.39814665445728,8.545754430915881,488.0912,488.0912,-488.101,-488.101,0.47112685,0.28709608,487.97787,1,1,5,4,4,0,0
629352000,629352000,47.39814665434364,8.545754429614611,488.09122,488.09122,-488.101,-488.101,0.47196046,0.28748435,487.97787,1,1,5,4,4,0,0
629368000,629368000,47.398146654109496,8.545754427082493,488.09125,488.09125,-488.101,-488.101,0.47363687,0.28826278,487.97787,1,1,5,4,4,0,0
629376000,629376000,47.398146654005195,8.545754425886313,488.09125,488.09125,-488.101,-488.101,0.47447973,0.28865296,487.97787,1,1,5,4,4,0,0
629384000,629384000,47.398146653890265,8.545754424642794,488.09128,488.09128,-488.101,-488.101,0.47532564,0.28904375,487.97787,1,1,5,4,4,0,0
629392000,629392000,47.398146653783925,8.545754423425304,488.0913,488.0913,-488.101,-488.101,0.47617468,0.2894352,487.97787,1,1,5,4,4,0,0
629408000,629408000,47.39814665355288,8.545754421088343,488.09137,488.09137,-488.101,-488.101,0.4778674,0.289237,487.97787,1,1,5,4,4,0,0
629416000,629416000,47.39814665340103,8.545754419937033,488.0914,488.0914,-488.101,-488.101,0.47872555,0.28962898,487.97787,1,1,5,4,4,0,0
629424000,629424000,47.398146653235905,8.545754418816248,488.09143,488.09143,-488.101,-488.101,0.4795868,0.29002163,487.97787,1,1,5,4,4,0,0
629432000,629432000,47.398146653068814,8.54575441766519,488.09146,488.09146,-488.101,-488.101,0.48045123,0.2904149,487.97787,1,1,5,4,4,0,0
629448000,629448000,47.39814665280699,8.545754415361165,488.09155,488.09155,-488.101,-488.101,0.4821894,0.29120332,487.97787,1,1,5,4,4,0,0
629456000,629456000,47.398146652708284,8.54575441423387,488.09158,488.09158,-488.101,-488.101,0.4830632,0.2915985,487.97787,1,1,5,4,4,0,0
629464000,629464000,47.39814665267733,8.545754413105453,488.09164,488.09164,-488.101,-488.101,0.48394012,0.29199427,487.97787,1,1,5,4,4,0,0
629472000,629472000,47.39814665274737,8.54575441174715,488.09167,488.09167,-488.101,-488.101,0.4848039,0.2923907,487.97787,1,1,5,4,4,0,0
629488000,629488000,47.398146652794985,8.545754408931634,488.09177,488.09177,-488.101,-488.101,0.48657307,0.29217485,487.97787,1,1,5,4,4,0,0
629496000,629496000,47.39814665277803,8.545754407470703,488.09183,488.09183,-488.101,-488.101,0.48746246,0.29257178,487.97787,1,1,5,4,4,0,0
629504000,629504000,47.3981466527601,8.545754406020327,488.0919,488.0919,-488.101,-488.101,0.48835498,0.29296935,487.97787,1,1,5,4,4,0,0
629512000,629512000,47.39814665275869,8.545754404568418,488.09192,488.09192,-488.101,-488.101,0.48925066,0.29336756,487.97787,1,1,5,4,4,0,0
629528000,629528000,47.39814665281982,8.545754401656282,488.09204,488.09204,-488.101,-488.101,0.4910516,0.29416585,487.97787,1,1,5,4,4,0,0
629536000,629536000,47.39814665289301,8.545754400288407,488.09207,488.09207,-488.101,-488.101,0.49195686,0.29456592,487.97787,1,1,5,4,4,0,0
629544000,629544000,47.39814665302768,8.545754398980844,488.09213,488.09213,-488.101,-488.101,0.49284697,0.2949666,487.97787,1,1,5,4,4,0,0
