timestamp,timestamp_sample,control_mode_flags,output_tracking_error[0],output_tracking_error[1],output_tracking_error[2],filter_fault_flags,pos_horiz_accuracy,pos_vert_accuracy,hdg_test_ratio,vel_test_ratio,pos_test_ratio,hgt_test_ratio,tas_test_ratio,hagl_test_ratio,beta_test_ratio,time_slip,accel_device_id,gyro_device_id,baro_device_id,mag_device_id,mag_inclination_deg,mag_inclination_ref_deg,mag_strength_gs,mag_strength_ref_gs,gps_check_fail_flags,solution_status_flags,reset_count_vel_ne,reset_count_vel_d,reset_count_pos_ne,reset_count_pod_d,reset_count_quat,pre_flt_fail_innov_heading,pre_flt_fail_innov_height,pre_flt_fail_innov_pos_horiz,pre_flt_fail_innov_vel_horiz,pre_flt_fail_innov_vel_vert,pre_flt_fail_mag_field_disturbed,health_flags,timeout_flags
625256000,625104000,17764060236391,0.00027580903,0.005631931,0.012768325,0,0.4573786,0.28125492,0.012701323,0.038912933,0.0054385057,0.0051042037,nan,nan,nan,0.004,1310988,1310988,6620172,197388,63.9208,63.157204,0.48220628,0.48238713,0,959,3,1,5,4,3,0,0,0,0,0,0,0,0
625264000,625112000,17764060236391,0.0002728957,0.0053009163,0.0120656565,0,0.45817658,0.28163612,0.012701323,0.038912933,0.0054385057,0.0051042037,nan,nan,nan,0.004,1310988,1310988,6620172,197388,63.9208,63.157204,0.48220628,0.48238713,0,959,3,1,5,4,3,0,0,0,0,0,0,0,0
625272000,625120000,17764060236391,0.00027007214,0.0049801515,0.011383944,0,0.45897755,0.28201795,0.012701323,0.038912933,0.0054385057,0.0051042037,nan,nan,nan,0.004,1310988,1310988,6620172,197388,63.9208,63.157204,0.48220628,0.48238713,0,959,3,1,5,4,3,0,0,0,0,0,0,0,0
625280000,625128000,17764060236391,0.00028327436,0.0045238417,0.010579758,0,0.45976996,0.28240043,0.013133554,0.038912933,0.0054385057,0.0051042037,nan,nan,nan,0.004,1310988,1310988,6620172,197388,62.942184,63.157204,0.48094955,0.48238713,0,959,3,1,5,4,3,0,0,0,0,0,0,0,0
625288000,625136000,17764060236391,0.00028106282,0.0042246226,0.009939491,0,0.4605768,0.28278357,0.013133554,0.038912933,0.0054385057,0.0051042037,nan,nan,nan,0.004,1310988,1310988,6620172,197388,62.942184,63.157204,0.48094955,0.48238713,0,959,3,1,5,4,3,0,0,0,0,0,0,0,0
625296000,625144000,17764060236391,0.00027846714,0.003932305,0.009316807,0,0.4613867,0.28316733,0.013133554,0.038912933,0.0054385057,0.0051042037,nan,nan,nan,0.004,1310988,1310988,6620172,197388,62.942184,63.157204,0.48094955,0.48238713,0,959,3,1,5,4,3,0,0,0,0,0,0,0,0
625304000,625152000,17764060236391,0.0002760347,0.0036509777,0.008712674,0,0.46219966,0.28355172,0.013133554,0.038912933,0.0054385057,0.0051042037,nan,nan,nan,0.004,1310988,1310988,6620172,197388,62.942184,63.157204,0.48094955,0.48238713,0,959,3,1,5,4,3,0,0,0,0,0,0,0,0
625312000,625160000,17764060236391,0.00027367912,0.003379962,0.008125242,0,0.46301565,0.28393677,0.013133554,0.038912933,0.0054385057,0.0051042037,nan,nan,nan,0.004,1310988,1310988,6620172,197388,62.942184,63.157204,0.48094955,0.48238713,0,959,3,1,5,4,3,0,0,0,0,0,0,0,0
625328000,625176000,17764060236391,0.00026981332,0.0028552145,0.006936612,0,0.4646568,0.28378052,0.013133554,0.038912933,0.0054385057,0.0049915714,nan,nan,nan,0.004,1310988,1310988,6620172,197388,62.942184,63.157204,0.48094955,0.48238713,0,959,3,1,5,4,3,0,0,0,0,0,0,0,0
625336000,625184000,17764060236391,0.00026801633,0.0026093463,0.0064008576,0,0.46548197,0.28416622,0.013133554,0.038912933,0.0054385057,0.0049915714,nan,nan,nan,0.004,1310988,1310988,6620172,197388,62.942184,63.157204,0.48094955,0.48238713,0,959,3,1,5,4,3,0,0,0,0,0,0,0,0
625344000,625192000,17764060236391,0.00026621448,0.002371066,0.0058814334,0,0.4663102,0.28455257,0.013133554,0.038912933,0.0054385057,0.0049915714,nan,nan,nan,0.004,1310988,1310988,6620172,197388,62.942184,63.157204,0.48094955,0.48238713,0,959,3,1,5,4,3,0,0,0,0,0,0,0,0
625352000,625200000,17764060236391,0.00032635513,0.0019536333,0.0051941746,0,0.46712828,0.28493956,0.018603718,0.038912933,0.0054385057,0.0049915714,nan,nan,nan,0.004,1310988,1310988,6620172,197388,62.856834,63.157204,0.48340544,0.48238713,0,959,3,1,5,4,3,0,0,0,0,0,0,0,0
625368000,625216000,17764060236391,0.00032307013,0.0015188113,0.00423881,0,0.46879977,0.28571543,0.018603718,0.038912933,0.0054385057,0.0049915714,nan,nan,nan,0.004,1310988,1310988,6620172,197388,62.856834,63.157204,0.48340544,0.48238713,0,959,3,1,5,4,3,0,0,0,0,0,0,0,0
625376000,625224000,17764060236391,0.00031840653,0.0013129357,0.0037813962,0,0.46964014,0.28610435,0.018603718,0.038912933,0.0054385057,0.0049915714,nan,nan,nan,0.004,1310988,1310988,6620172,197388,62.856834,63.157204,0.48340544,0.48238713,0,959,3,1,5,4,3,0,0,0,0,0,0,0,0
625384000,625232000,17764060236391,0.0003139355,0.0011151505,0.0033350824,0,0.47048363,0.2864939,0.018603718,0.038912933,0.0054385057,0.0049915714,nan,nan,nan,0.004,1310988,1310988,6620172,197388,62.856834,63.157204,0.48340544,0.48238713,0,959,3,1,5,4,3,0,0,0,0,0,0,0,0
625392000,625240000,17764060236391,0.00030759154,0.00092621264,0.002901823,0,0.4713302,0.28688407,0.018603718,0.038912933,0.0054385057,0.0049915714,nan,nan,nan,0.004,1310988,1310988,6620172,197388,62.856834,63.157204,0.48340544,0.48238713,0,959,3,1,5,4,3,0,0,0,0,0,0,0,0
625408000,625256000,17764060236391,0.00029514983,0.00060501666,0.0022606272,0,0.47303265,0.28671148,0.018603718,0.038912933,0.0054385057,0.0051393197,nan,nan,nan,0.004,1310988,1310988,6620172,197388,62.856834,63.157204,0.48340544,0.48238713,0,959,3,1,5,4,3,0,0,0,0,0,0,0,0
625416000,625264000,17764060236391,0.00028924126,0.00046530797,0.001875173,0,0.47388855,0.28710225,0.018603718,0.038912933,0.0054385057,0.0051393197,nan,nan,nan,0.004,1310988,1310988,6620172,197388,62.856834,63.157204,0.48340544,0.48238713,0,959,3,1,5,4,3,0,0,0,0,0,0,0,0
625424000,625272000,17764060236391,0.00025457732,0.00053516217,0.0016781056,0,0.4747326,0.28749368,0.01621167,0.038912933,0.0054385057,0.0051393197,nan,nan,nan,0.004,1310988,1310988,6620172,197388,63.637417,63.157204,0.48000064,0.48238713,0,959,3,1,5,4,3,0,0,0,0,0,0,0,0
625432000,625280000,17764060236391,0.00030624444,0.0005703321,0.0014986357,0,0.47559246,0.28788576,0.01621167,0.038912933,0.0054385057,0.0051393197,nan,nan,nan,0.004,1310988,1310988,6620172,197388,63.637417,63.157204,0.48000064,0.48238713,0,959,3,1,5,4,3,0,0,0,0,0,0,0,0
625448000,625296000,17764060236391,0.00029321946,0.00045703343,0.0009613843,0,0.4773257,0.2886718,0.01621167,0.038912933,0.0054385057,0.0051393197,nan,nan,nan,0.004,1310988,1310988,6620172,197388,63.637417,63.157204,0.48000064,0.48238713,0,959,3,1,5,4,3,0,0,0,0,0,0,0,0
625456000,625304000,17764060236391,0.00028701744,0.0004929638,0.0008342561,0,0.47819704,0.28906575,0.01621167,0.038912933,0.0054385057,0.0051393197,nan,nan,nan,0.004,1310988,1310988,6620172,197388,63.637417,63.157204,0.48000064,0.48238713,0,959,3,1,5,4,3,0,0,0,0,0,0,0,0
625464000,625312000,17764060236391,0.00028057763,0.0005725694,0.00085207133,0,0.47907153,0.28946036,0.01621167,0.038912933,0.0054385057,0.0051393197,nan,nan,nan,0.004,1310988,1310988,6620172,197388,63.637417,63.157204,0.48000064,0.48238713,0,959,3,1,5,4,3,0,0,0,0,0,0,0,0
625472000,625320000,17764060236391,0.0002743474,0.0006776425,0.0009786485,0,0.47994918,0.2888762,0.01621167,0.038912933,0.0054385057,0.005053434,nan,nan,nan,0.004,1310988,1310988,6620172,197388,63.637417,63.157204,0.48000064,0.48238713,0,959,3,1,5,4,3,0,0,0,0,0,0,0,0
625488000,625336000,17764060236391,0.0002620634,0.00092005474,0.0014876075,0,0.48171392,0.2896659,0.01621167,0.038912933,0.0054385057,0.005053434,nan,nan,nan,0.004,1310988,1310988,6620172,197388,63.637417,63.157204,0.48000064,0.48238713,0,959,3,1,5,4,3,0,0,0,0,0,0,0,0
625496000,625344000,17764060236391,0.00031992528,0.0006106226,0.0012562862,0,0.4825842,0.29006168,0.01835949,0.038912933,0.0054385057,0.005053434,nan,nan,nan,0.004,1310988,1310988,6620172,197388,64.21555,63.157204,0.48109376,0.48238713,0,959,3,1,5,4,3,0,0,0,0,0,0,0,0
625504000,625352000,17764060236391,0.00031404576,0.0007310014,0.0015424982,0,0.48347428,0.29045808,0.01835949,0.038912933,0.0054385057,0.005053434,nan,nan,nan,0.004,1310988,1310988,6620172,197388,64.21555,63.157204,0.48109376,0.48238713,0,959,3,1,5,4,3,0,0,0,0,0,0,0,0
625512000,625360000,17764060236391,0.0003060474,0.0008585712,0.0018333416,0,0.48436755,0.29085514,0.01835949,0.038912933,0.0054385057,0.005053434,nan,nan,nan,0.004,1310988,1310988,6620172,197388,64.21555,63.157204,0.48109376,0.48238713,0,959,3,1,5,4,3,0,0,0,0,0,0,0,0
625528000,625376000,17764060236391,0.0002903389,0.0011168187,0.002407191,0,0.48616362,0.29165116,0.01835949,0.038912933,0.0054385057,0.005053434,nan,nan,nan,0.004,1310988,1310988,6620172,197388,64.21555,63.157204,0.48109376,0.48238713,0,959,3,1,5,4,3,0,0,0,0,0,0,0,0
625536000,625384000,17764060236391,0.0002827233,0.0012428005,0.002687401,0,0.48706642,0.2920501,0.01835949,0.038912933,0.0054385057,0.005053434,nan,nan,nan,0.004,1310988,1310988,6620172,197388,64.21555,63.157204,0.48109376,0.48238713,0,959,3,1,5,4,3,0,0,0,0,0,0,0,0
625544000,625392000,17764060236391,0.00027513676,0.0013575094,0.00289404,0,0.4879724,0.29144388,0.01835949,0.038912933,0.0054385057,0.005246247,nan,nan,nan,0.004,1310988,1310988,6620172,197388,64.21555,63.157204,0.48109376,0.48238713,0,959,3,1,5,4,3,0,0,0,0,0,0,0,0
625552000,625400000,17764060236391,0.00026772317,0.0014795255,0.0031580585,0,0.48888165,0.2918427,0.01835949,0.038912933,0.0054385057,0.005246247,nan,nan,nan,0.004,1310988,1310988,6620172,197388,64.21555,63.157204,0.48109376,0.48238713,0,959,3,1,5,4,3,0,0,0,0,0,0,0,0
625568000,625416000,17764060236391,0.0002902839,0.0015938241,0.003546447,0,0.49069077,0.29264224,0.017454127,0.038912933,0.0054385057,0.005246247,nan,nan,nan,0.004,1310988,1310988,6620172,197388,63.448956,63.157204,0.48125097,0.48238713,0,959,3,1,5,4,3,0,0,0,0,0,0,0,0
625576000,625424000,17764060236391,0.00028341272,0.0017110148,0.0038018944,0,0.4916094,0.29304296,0.017454127,0.038912933,0.0054385057,0.005246247,nan,nan,nan,0.004,1310988,1310988,6620172,197388,63.448956,63.157204,0.48125097,0.48238713,0,959,3,1,5,4,3,0,0,0,0,0,0,0,0
625584000,625432000,17764060236391,0.00027746233,0.0018253882,0.0040513645,0,0.4925312,0.2934443,0.017454127,0.038912933,0.0054385057,0.005246247,nan,nan,nan,0.004,1310988,1310988,6620172,197388,63.448956,63.157204,0.48125097,0.48238713,0,959,3,1,5,4,3,0,0,0,0,0,0,0,0
625592000,625440000,17764060236391,0.0002701345,0.0019358738,0.0042939982,0,0.49345624,0.29384628,0.017454127,0.038912933,0.0054385057,0.005246247,nan,nan,nan,0.004,1310988,1310988,6620172,197388,63.448956,63.157204,0.48125097,0.48238713,0,959,3,1,5,4,3,0,0,0,0,0,0,0,0
625608000,625456000,17764060236391,0.0002557097,0.0021490396,0.0047616665,0,0.49531606,0.2946521,0.017454127,0.038912933,0.0054385057,0.005246247,nan,nan,nan,0.004,1310988,1310988,6620172,197388,63.448956,63.157204,0.48125097,0.48238713,0,959,3,1,5,4,3,0,0,0,0,0,0,0,0
625616000,625464000,17764060236391,0.000306801,0.0046063536,0.010604457,0,0.4543867,0.28049335,0.017454127,0.032870445,0.0054886527,0.0051287743,nan,nan,nan,0.004,1310988,1310988,6620172,197388,63.448956,63.157204,0.48125097,0.48238713,0,959,3,1,5,4,3,0,0,0,0,0,0,0,0
625624000,625472000,17764060236391,0.00030034757,0.0043019364,0.009942181,0,0.4551717,0.2808727,0.017454127,0.032870445,0.0054886527,0.0051287743,nan,nan,nan,0.004,1310988,1310988,6620172,197388,63.448956,63.157204,0.48125097,0.48238713,0,959,3,1,5,4,3,0,0,0,0,0,0,0,0
625632000,625480000,17764060236391,0.00028090438,0.0042400537,0.009485541,0,0.45595822,0.28125274,0.017454127,0.032870445,0.0054886527,0.0051287743,nan,nan,nan,0.004,1310988,1310988,6620172,197388,63.448956,63.157204,0.48125097,0.48238713,0,959,3,1,5,4,3,0,0,0,0,0,0,0,0
625648000,625496000,17764060236391,0.00024240732,0.0037727728,0.008364748,0,0.45753214,0.28201467,0.016493747,0.032870445,0.0054886527,0.0051287743,nan,nan,nan,0.004,1310988,1310988,6620172,197388,63.655514,63.157204,0.48303765,0.48238713,0,959,3,1,5,4,3,0,0,0,0,0,0,0,0
625656000,625504000,17764060236391,0.00023662888,0.0034921395,0.0077733407,0,0.4583289,0.2823966,0.016493747,0.032870445,0.0054886527,0.0051287743,nan,nan,nan,0.004,1310988,1310988,6620172,197388,63.655514,63.157204,0.48303765,0.48238713,0,959,3,1,5,4,3,0,0,0,0,0,0,0,0
625664000,625512000,17764060236391,0.00023125758,0.0032201933,0.0071999906,0,0.45912874,0.2827792,0.016493747,0.032870445,0.0054886527,0.0051287743,nan,nan,nan,0.004,1310988,1310988,6620172,197388,63.655514,63.157204,0.48303765,0.48238713,0,959,3,1,5,4,3,0,0,0,0,0,0,0,0
625672000,625520000,17764060236391,0.00022615113,0.0029589166,0.0066416985,0,0.45993152,0.2831624,0.016493747,0.032870445,0.0054886527,0.0051287743,nan,nan,nan,0.004,1310988,1310988,6620172,197388,63.655514,63.157204,0.48303765,0.48238713,0,959,3,1,5,4,3,0,0,0,0,0,0,0,0
625688000,625536000,17764060236391,0.00021679029,0.0024603382,0.005663495,0,0.46154624,0.28301007,0.016493747,0.032870445,0.0054886527,0.005085674,nan,nan,nan,0.004,1310988,1310988,6620172,197388,63.655514,63.157204,0.48303765,0.48238713,0,959,3,1,5,4,3,0,0,0,0,0,0,0,0
625696000,625544000,17764060236391,0.00021262004,0.002219629,0.005156598,0,0.46235815,0.28339398,0.016493747,0.032870445,0.0054886527,0.005085674,nan,nan,nan,0.004,1310988,1310988,6620172,197388,63.655514,63.157204,0.48303765,0.48238713,0,959,3,1,5,4,3,0,0,0,0,0,0,0,0
625704000,625552000,17764060236391,0.00020872371,0.00198742,0.004669213,0,0.4631731,0.28377852,0.016493747,0.032870445,0.0054886527,0.005085674,nan,nan,nan,0.004,1310988,1310988,6620172,197388,63.655514,63.157204,0.48303765,0.48238713,0,959,3,1,5,4,3,0,0,0,0,0,0,0,0
625712000,625560000,17764060236391,0.00021295554,0.0018304292,0.004256617,0,0.4639787,0.28416368,0.015720965,0.032870445,0.0054886527,0.005085674,nan,nan,nan,0.004,1310988,1310988,6620172,197388,63.42381,63.157204,0.4803887,0.48238713,0,959,3,1,5,4,3,0,0,0,0,0,0,0,0
625728000,625576000,17764060236391,0.00020531703,0.00140076,0.0033648638,0,0.4656235,0.28493598,0.015720965,0.032870445,0.0054886527,0.005085674,nan,nan,nan,0.004,1310988,1310988,6620172,197388,63.42381,63.157204,0.4803887,0.48238713,0,959,3,1,5,4,3,0,0,0,0,0,0,0,0
625736000,625584000,17764060236391,0.00020171682,0.0011953405,0.002953166,0,0.46645045,0.28532305,0.015720965,0.032870445,0.0054886527,0.005085674,nan,nan,nan,0.004,1310988,1310988,6620172,197388,63.42381,63.157204,0.4803887,0.48238713,0,959,3,1,5,4,3,0,0,0,0,0,0,0,0
625744000,625592000,17764060236391,0.00019849662,0.0009967881,0.0025651685,0,0.4672805,0.2857108,0.015720965,0.032870445,0.0054886527,0.005085674,nan,nan,nan,0.004,1310988,1310988,6620172,197388,63.42381,63.157204,0.4803887,0.48238713,0,959,3,1,5,4,3,0,0,0,0,0,0,0,0
625752000,625600000,17764060236391,0.00019555843,0.00082639745,0.0023329812,0,0.4681136,0.28515732,0.015720965,0.032870445,0.0054886527,0.005051812,nan,nan,nan,0.004,1310988,1310988,6620172,197388,63.42381,63.157204,0.4803887,0.48238713,0,959,3,1,5,4,3,0,0,0,0,0,0,0,0
625768000,625616000,17764060236391,0.00019056947,0.00050268567,0.0017357016,0,0.46978903,0.2859334,0.015720965,0.032870445,0.0054886527,0.005051812,nan,nan,nan,0.004,1310988,1310988,6620172,197388,63.42381,63.157204,0.4803887,0.48238713,0,959,3,1,5,4,3,0,0,0,0,0,0,0,0
625776000,625624000,17764060236391,0.0002026075,0.00039543805,0.0015105881,0,0.4706175,0.2863224,0.014788178,0.032870445,0.0054886527,0.005051812,nan,nan,nan,0.004,1310988,1310988,6620172,197388,63.18198,63.157204,0.4791829,0.48238713,0,959,3,1,5,4,3,0,0,0,0,0,0,0,0
625784000,625632000,17764060236391,0.00019554178,0.00033777533,0.0013696213,0,0.47146276,0.28671205,0.014788178,0.032870445,0.0054886527,0.005051812,nan,nan,nan,0.004,1310988,1310988,6620172,197388,63.18198,63.157204,0.4791829,0.48238713,0,959,3,1,5,4,3,0,0,0,0,0,0,0,0
625792000,625640000,17764060236391,0.00018866014,0.00036142574,0.0013226387,0,0.47231108,0.28710234,0.014788178,0.032870445,0.0054886527,0.005051812,nan,nan,nan,0.004,1310988,1310988,6620172,197388,63.18198,63.157204,0.4791829,0.48238713,0,959,3,1,5,4,3,0,0,0,0,0,0,0,0
625808000,625656000,17764060236391,0.00017652668,0.0005846168,0.001665155,0,0.47401708,0.28692523,0.014788178,0.032870445,0.0054886527,0.0050589372,nan,nan,nan,0.004,1310988,1310988,6620172,197388,63.18198,63.157204,0.4791829,0.48238713,0,959,3,1,5,4,3,0,0,0,0,0,0,0,0
625816000,625664000,17764060236391,0.00017071795,0.0007105504,0.0018132516,0,0.47487473,0.28731608,0.014788178,0.032870445,0.0054886527,0.0050589372,nan,nan,nan,0.004,1310988,1310988,6620172,197388,63.18198,63.157204,0.4791829,0.48238713,0,959,3,1,5,4,3,0,0,0,0,0,0,0,0
625824000,625672000,17764060236391,0.00016491067,0.000844192,0.0020057643,0,0.47573552,0.28770763,0.014788178,0.032870445,0.0054886527,0.0050589372,nan,nan,nan,0.004,1310988,1310988,6620172,197388,63.18198,63.157204,0.4791829,0.48238713,0,959,3,1,5,4,3,0,0,0,0,0,0,0,0
625832000,625680000,17764060236391,0.0001497449,0.0011110957,0.0023459592,0,0.4765973,0.2880998,0.014788178,0.032870445,0.0054886527,0.0050589372,nan,nan,nan,0.004,1310988,1310988,6620172,197388,63.18198,63.157204,0.4791829,0.48238713,0,959,3,1,5,4,3,0,0,0,0,0,0,0,0
625848000,625696000,17764060236391,0.00014786368,0.0013845856,0.0028351683,0,0.47831875,0.288886,0.013792041,0.032870445,0.0054886527,0.0050589372,nan,nan,nan,0.004,1310988,1310988,6620172,197388,63.226505,63.157204,0.48159045,0.48238713,0,959,3,1,5,4,3,0,0,0,0,0,0,0,0
625856000,625704000,17764060236391,0.00014297239,0.0015080919,0.0030798165,0,0.4791918,0.28928006,0.013792041,0.032870445,0.0054886527,0.0050589372,nan,nan,nan,0.004,1310988,1310988,6620172,197388,63.226505,63.157204,0.48159045,0.48238713,0,959,3,1,5,4,3,0,0,0,0,0,0,0,0
625864000,625712000,17764060236391,0.00013810703,0.0016270292,0.0033269154,0,0.480068,0.28967476,0.013792041,0.032870445,0.0054886527,0.0050589372,nan,nan,nan,0.004,1310988,1310988,6620172,197388,63.226505,63.157204,0.48159045,0.48238713,0,959,3,1,5,4,3,0,0,0,0,0,0,0,0
625872000,625720000,17764060236391,0.0001331909,0.0017428246,0.0035742018,0,0.48094738,0.2900701,0.013792041,0.032870445,0.0054886527,0.0050589372,nan,nan,nan,0.004,1310988,1310988,6620172,197388,63.226505,63.157204,0.48159045,0.48238713,0,959,3,1,5,4,3,0,0,0,0,0,0,0,0
625888000,625736000,17764060236391,0.00012381232,0.0019660455,0.0040606475,0,0.48271555,0.28987572,0.013792041,0.032870445,0.0054886527,0.005004956,nan,nan,nan,0.004,1310988,1310988,6620172,197388,63.226505,63.157204,0.48159045,0.48238713,0,959,3,1,5,4,3,0,0,0,0,0,0,0,0
625896000,625744000,17764060236391,0.00011939308,0.0020718023,0.004297876,0,0.48360437,0.2902716,0.013792041,0.032870445,0.0054886527,0.005004956,nan,nan,nan,0.004,1310988,1310988,6620172,197388,63.226505,63.157204,0.48159045,0.48238713,0,959,3,1,5,4,3,0,0,0,0,0,0,0,0
625904000,625752000,17764060236391,0.000115214985,0.0021755428,0.0045287744,0,0.4844964,0.2906681,0.013792041,0.032870445,0.0054886527,0.005004956,nan,nan,nan,0.004,1310988,1310988,6620172,197388,63.226505,63.157204,0.48159045,0.48238713,0,959,3,1,5,4,3,0,0,0,0,0,0,0,0
625912000,625760000,17764060236391,0.000111291025,0.0022779643,0.004756242,0,0.4853916,0.29106525,0.013792041,0.032870445,0.0054886527,0.005004956,nan,nan,nan,0.004,1310988,1310988,6620172,197388,63.226505,63.157204,0.48159045,0.48238713,0,959,3,1,5,4,3,0,0,0,0,0,0,0,0
625928000,625776000,17764060236391,0.00014682201,0.002435011,0.0051611993,0,0.48717374,0.29186141,0.014975653,0.032870445,0.0054886527,0.005004956,nan,nan,nan,0.004,1310988,1310988,6620172,197388,63.296303,63.157204,0.4834125,0.48238713,0,959,3,1,5,4,3,0,0,0,0,0,0,0,0
625936000,625784000,17764060236391,0.00014300013,0.0025281156,0.005374613,0,0.48807827,0.29226044,0.014975653,0.032870445,0.0054886527,0.005004956,nan,nan,nan,0.004,1310988,1310988,6620172,197388,63.296303,63.157204,0.4834125,0.48238713,0,959,3,1,5,4,3,0,0,0,0,0,0,0,0
625944000,625792000,17764060236391,0.00013942354,0.0026143298,0.0055451295,0,0.48898602,0.2916521,0.014975653,0.032870445,0.0054886527,0.005146356,nan,nan,nan,0.004,1310988,1310988,6620172,197388,63.296303,63.157204,0.4834125,0.48238713,0,959,3,1,5,4,3,0,0,0,0,0,0,0,0
625952000,625800000,17764060236391,0.00013599447,0.0027048572,0.0057438095,0,0.48989695,0.29205102,0.014975653,0.032870445,0.0054886527,0.005146356,nan,nan,nan,0.004,1310988,1310988,6620172,197388,63.296303,63.157204,0.4834125,0.48238713,0,959,3,1,5,4,3,0,0,0,0,0,0,0,0
625968000,625816000,17764060236391,0.00012966887,0.0028766533,0.0061296974,0,0.49172845,0.29285073,0.014975653,0.032870445,0.0054886527,0.005146356,nan,nan,nan,0.004,1310988,1310988,6620172,197388,63.296303,63.157204,0.4834125,0.48238713,0,959,3,1,5,4,3,0,0,0,0,0,0,0,0
625976000,625824000,17764060236391,0.00012691581,0.0029570044,0.006317509,0,0.49264902,0.2932515,0.014975653,0.032870445,0.0054886527,0.005146356,nan,nan,nan,0.004,1310988,1310988,6620172,197388,63.296303,63.157204,0.4834125,0.48238713,0,959,3,1,5,4,3,0,0,0,0,0,0,0,0
625984000,625832000,17764060236391,0.0001296829,0.0028587864,0.0062898183,0,0.49355337,0.29365295,0.014045705,0.032870445,0.0054886527,0.005146356,nan,nan,nan,0.004,1310988,1310988,6620172,197388,63.62769,63.157204,0.48101923,0.48238713,0,959,3,1,5,4,3,0,0,0,0,0,0,0,0
625992000,625840000,17764060236391,0.0001272908,0.0029396703,0.0064709685,0,0.49448016,0.29405499,0.014045705,0.032870445,0.0054886527,0.005146356,nan,nan,nan,0.004,1310988,1310988,6620172,197388,63.62769,63.157204,0.48101923,0.48238713,0,959,3,1,5,4,3,0,0,0,0,0,0,0,0
626008000,625856000,17764060236391,0.00012245377,0.0030908135,0.0068043894,0,0.49634346,0.29383296,0.014045705,0.032870445,0.0054886527,0.005101953,nan,nan,nan,0.004,1310988,1310988,6620172,197388,63.62769,63.157204,0.48101923,0.48238713,0,959,3,1,5,4,3,0,0,0,0,0,0,0,0
626016000,625864000,17764060236391,0.0002078107,0.0037253792,0.008842073,0,0.4551828,0.28067926,0.014045705,0.029572686,0.0057661715,0.004559239,nan,nan,nan,0.004,1310988,1310988,6620172,197388,63.62769,63.157204,0.48101923,0.48238713,0,959,3,1,5,4,3,0,0,0,0,0,0,0,0
626024000,625872000,17764060236391,0.00020457049,0.00345761,0.0082581565,0,0.45596895,0.2810587,0.014045705,0.029572686,0.0057661715,0.004559239,nan,nan,nan,0.004,1310988,1310988,6620172,197388,63.62769,63.157204,0.48101923,0.48238713,0,959,3,1,5,4,3,0,0,0,0,0,0,0,0
626032000,625880000,17764060236391,0.00020044718,0.0032621226,0.0077339564,0,0.45675665,0.28143877,0.014045705,0.029572686,0.0057661715,0.004559239,nan,nan,nan,0.004,1310988,1310988,6620172,197388,63.62769,63.157204,0.48101923,0.48238713,0,959,3,1,5,4,3,0,0,0,0,0,0,0,0
626048000,625896000,17764060236391,0.00019481387,0.002769262,0.0066573913,0,0.45834386,0.28220084,0.014045705,0.029572686,0.0057661715,0.004559239,nan,nan,nan,0.004,1310988,1310988,6620172,197388,63.62769,63.157204,0.48101923,0.48238713,0,959,3,1,5,4,3,0,0,0,0,0,0,0,0
626056000,625904000,17764060236391,0.00020458634,0.0025540253,0.0061641056,0,0.4591308,0.28258285,0.013334125,0.029572686,0.0057661715,0.004559239,nan,nan,nan,0.004,1310988,1310988,6620172,197388,63.347954,63.157204,0.47819078,0.48238713,0,959,3,1,5,4,3,0,0,0,0,0,0,0,0
626064000,625912000,17764060236391,0.00020221018,0.0023364343,0.0057404824,0,0.45993176,0.2820541,0.013334125,0.029572686,0.0057661715,0.0045156265,nan,nan,nan,0.004,1310988,1310988,6620172,197388,63.347954,63.157204,0.47819078,0.48238713,0,959,3,1,5,4,3,0,0,0,0,0,0,0,0
626072000,625920000,17764060236391,0.00019966079,0.0021227032,0.005275948,0,0.4607357,0.28243616,0.013334125,0.029572686,0.0057661715,0.0045156265,nan,nan,nan,0.004,1310988,1310988,6620172,197388,63.347954,63.157204,0.47819078,0.48238713,0,959,3,1,5,4,3,0,0,0,0,0,0,0,0
626088000,625936000,17764060236391,0.0001936983,0.0017291975,0.004417403,0,0.46235272,0.2832022,0.013334125,0.029572686,0.0057661715,0.0045156265,nan,nan,nan,0.004,1310988,1310988,6620172,197388,63.347954,63.157204,0.47819078,0.48238713,0,959,3,1,5,4,3,0,0,0,0,0,0,0,0
626096000,625944000,17764060236391,0.00019074763,0.0015526749,0.004026934,0,0.46316576,0.2835862,0.013334125,0.029572686,0.0057661715,0.0045156265,nan,nan,nan,0.004,1310988,1310988,6620172,197388,63.347954,63.157204,0.47819078,0.48238713,0,959,3,1,5,4,3,0,0,0,0,0,0,0,0
626104000,625952000,17764060236391,0.00018785012,0.0013910286,0.0036623685,0,0.46398184,0.2839708,0.013334125,0.029572686,0.0057661715,0.0045156265,nan,nan,nan,0.004,1310988,1310988,6620172,197388,63.347954,63.157204,0.47819078,0.48238713,0,959,3,1,5,4,3,0,0,0,0,0,0,0,0
626112000,625960000,17764060236391,0.00018531407,0.0012449791,0.0033268195,0,0.46480092,0.2843561,0.013334125,0.029572686,0.0057661715,0.0045156265,nan,nan,nan,0.004,1310988,1310988,6620172,197388,63.347954,63.157204,0.47819078,0.48238713,0,959,3,1,5,4,3,0,0,0,0,0,0,0,0
626128000,625976000,17764060236391,0.00020351543,0.000935473,0.002642901,0,0.46643558,0.2841986,0.013727051,0.029572686,0.0057661715,0.0044448692,nan,nan,nan,0.004,1310988,1310988,6620172,197388,63.275265,63.157204,0.48259214,0.48238713,0,959,3,1,5,4,3,0,0,0,0,0,0,0,0
626136000,625984000,17764060236391,0.00020109359,0.0008540112,0.002424736,0,0.4672637,0.28458455,0.013727051,0.029572686,0.0057661715,0.0044448692,nan,nan,nan,0.004,1310988,1310988,6620172,197388,63.275265,63.157204,0.48259214,0.48238713,0,959,3,1,5,4,3,0,0,0,0,0,0,0,0
626144000,625992000,17764060236391,0.00019845406,0.0008070783,0.002260348,0,0.4680949,0.28497112,0.013727051,0.029572686,0.0057661715,0.0044448692,nan,nan,nan,0.004,1310988,1310988,6620172,197388,63.275265,63.157204,0.48259214,0.48238713,0,959,3,1,5,4,3,0,0,0,0,0,0,0,0
626152000,626000000,17764060236391,0.00019593256,0.0007960362,0.002166781,0,0.46892914,0.2853583,0.013727051,0.029572686,0.0057661715,0.0044448692,nan,nan,nan,0.004,1310988,1310988,6620172,197388,63.275265,63.157204,0.48259214,0.48238713,0,959,3,1,5,4,3,0,0,0,0,0,0,0,0
626168000,626016000,17764060236391,0.00019121097,0.00086918887,0.002161039,0,0.47060692,0.28613463,0.013727051,0.029572686,0.0057661715,0.0044448692,nan,nan,nan,0.004,1310988,1310988,6620172,197388,63.275265,63.157204,0.48259214,0.48238713,0,959,3,1,5,4,3,0,0,0,0,0,0,0,0
626176000,626024000,17764060236391,0.00018623327,0.0009436855,0.0022330037,0,0.47145045,0.28652376,0.013727051,0.029572686,0.0057661715,0.0044448692,nan,nan,nan,0.004,1310988,1310988,6620172,197388,63.275265,63.157204,0.48259214,0.48238713,0,959,3,1,5,4,3,0,0,0,0,0,0,0,0
626184000,626032000,17764060236391,0.00018131823,0.0010347051,0.0023516926,0,0.472297,0.2869135,0.013727051,0.029572686,0.0057661715,0.0044448692,nan,nan,nan,0.004,1310988,1310988,6620172,197388,63.275265,63.157204,0.48259214,0.48238713,0,959,3,1,5,4,3,0,0,0,0,0,0,0,0
626192000,626040000,17764060236391,0.00020162988,0.0010168198,0.0023857257,0,0.47313243,0.28635007,0.013392538,0.029572686,0.0057661715,0.0043659788,nan,nan,nan,0.004,1310988,1310988,6620172,197388,63.46097,63.157204,0.4796727,0.48238713,0,959,3,1,5,4,3,0,0,0,0,0,0,0,0
626208000,626056000,17764060236391,0.00019246548,0.0012359237,0.002775082,0,0.4748407,0.28713018,0.013392538,0.029572686,0.0057661715,0.0043659788,nan,nan,nan,0.004,1310988,1310988,6620172,197388,63.46097,63.157204,0.4796727,0.48238713,0,959,3,1,5,4,3,0,0,0,0,0,0,0,0
626216000,626064000,17764060236391,0.00018755665,0.0013496823,0.0029905976,0,0.47569954,0.28752118,0.013392538,0.029572686,0.0057661715,0.0043659788,nan,nan,nan,0.004,1310988,1310988,6620172,197388,63.46097,63.157204,0.4796727,0.48238713,0,959,3,1,5,4,3,0,0,0,0,0,0,0,0
626224000,626072000,17764060236391,0.00018283741,0.0014615322,0.0032142971,0,0.47656146,0.28791282,0.013392538,0.029572686,0.0057661715,0.0043659788,nan,nan,nan,0.004,1310988,1310988,6620172,197388,63.46097,63.157204,0.4796727,0.48238713,0,959,3,1,5,4,3,0,0,0,0,0,0,0,0
626232000,626080000,17764060236391,0.0001916467,0.0016399449,0.0035097566,0,0.47742435,0.2883051,0.013392538,0.029572686,0.0057661715,0.0043659788,nan,nan,nan,0.004,1310988,1310988,6620172,197388,63.46097,63.157204,0.4796727,0.48238713,0,959,3,1,5,4,3,0,0,0,0,0,0,0,0
626248000,626096000,17764060236391,0.00018291331,0.0018545135,0.0039670146,0,0.47916377,0.28909156,0.013392538,0.029572686,0.0057661715,0.0043659788,nan,nan,nan,0.004,1310988,1310988,6620172,197388,63.46097,63.157204,0.4796727,0.48238713,0,959,3,1,5,4,3,0,0,0,0,0,0,0,0
626256000,626104000,17764060236391,0.00017877294,0.0019589453,0.004193655,0,0.4800382,0.28948572,0.013392538,0.029572686,0.0057661715,0.0043659788,nan,nan,nan,0.004,1310988,1310988,6620172,197388,63.46097,63.157204,0.4796727,0.48238713,0,959,3,1,5,4,3,0,0,0,0,0,0,0,0
626264000,626112000,17764060236391,0.00019886598,0.0018970916,0.004464571,0,0.48089966,0.2889009,0.013066671,0.029572686,0.0057661715,0.004424272,nan,nan,nan,0.004,1310988,1310988,6620172,197388,63.64008,63.157204,0.48091736,0.48238713,0,959,3,1,5,4,3,0,0,0,0,0,0,0,0
626272000,626120000,17764060236391,0.0001950971,0.0020034132,0.0046843034,0,0.48178014,0.289295,0.013066671,0.029572686,0.0057661715,0.004424272,nan,nan,nan,0.004,1310988,1310988,6620172,197388,63.64008,63.157204,0.48091736,0.48238713,0,959,3,1,5,4,3,0,0,0,0,0,0,0,0
626288000,626136000,17764060236391,0.00018675314,0.0022028403,0.0051155956,0,0.48355064,0.2900851,0.013066671,0.029572686,0.0057661715,0.004424272,nan,nan,nan,0.004,1310988,1310988,6620172,197388,63.64008,63.157204,0.48091736,0.48238713,0,959,3,1,5,4,3,0,0,0,0,0,0,0,0
626296000,626144000,17764060236391,0.00018220415,0.0022987903,0.0053241253,0,0.48444062,0.2904811,0.013066671,0.029572686,0.0057661715,0.004424272,nan,nan,nan,0.004,1310988,1310988,6620172,197388,63.64008,63.157204,0.48091736,0.48238713,0,959,3,1,5,4,3,0,0,0,0,0,0,0,0
626304000,626152000,17764060236391,0.00017780351,0.0023933777,0.0055274125,0,0.4853337,0.29087773,0.013066671,0.029572686,0.0057661715,0.004424272,nan,nan,nan,0.004,1310988,1310988,6620172,197388,63.64008,63.157204,0.48091736,0.48238713,0,959,3,1,5,4,3,0,0,0,0,0,0,0,0
626312000,626160000,17764060236391,0.00017354291,0.0024865232,0.0057267966,0,0.48623005,0.29127502,0.013066671,0.029572686,0.0057661715,0.004424272,nan,nan,nan,0.004,1310988,1310988,6620172,197388,63.64008,63.157204,0.48091736,0.48238713,0,959,3,1,5,4,3,0,0,0,0,0,0,0,0
626328000,626176000,17764060236391,0.0001650905,0.0026628727,0.0061092037,0,0.48803222,0.29207143,0.013066671,0.029572686,0.0057661715,0.004424272,nan,nan,nan,0.004,1310988,1310988,6620172,197388,63.64008,63.157204,0.48091736,0.48238713,0,959,3,1,5,4,3,0,0,0,0,0,0,0,0
626336000,626184000,17764060236391,0.00019925773,0.002616113,0.0062508564,0,0.48892,0.29146457,0.0128908325,0.029572686,0.0057661715,0.004445557,nan,nan,nan,0.004,1310988,1310988,6620172,197388,63.498394,63.157204,0.4810632,0.48238713,0,959,3,1,5,4,3,0,0,0,0,0,0,0,0
626344000,626192000,17764060236391,0.0001957683,0.002698248,0.0064306473,0,0.48982882,0.291863,0.0128908325,0.029572686,0.0057661715,0.004445557,nan,nan,nan,0.004,1310988,1310988,6620172,197388,63.498394,63.157204,0.4810632,0.48238713,0,959,3,1,5,4,3,0,0,0,0,0,0,0,0
626352000,626200000,17764060236391,0.00019131655,0.0027796242,0.0066046575,0,0.49074087,0.29226202,0.0128908325,0.029572686,0.0057661715,0.004445557,nan,nan,nan,0.004,1310988,1310988,6620172,197388,63.498394,63.157204,0.4810632,0.48238713,0,959,3,1,5,4,3,0,0,0,0,0,0,0,0
626368000,626216000,17764060236391,0.00018284077,0.0029398187,0.0069401423,0,0.49257454,0.293062,0.0128908325,0.029572686,0.0057661715,0.004445557,nan,nan,nan,0.004,1310988,1310988,6620172,197388,63.498394,63.157204,0.4810632,0.48238713,0,959,3,1,5,4,3,0,0,0,0,0,0,0,0
626376000,626224000,17764060236391,0.00017870583,0.00301646,0.007100553,0,0.4934962,0.2934629,0.0128908325,0.029572686,0.0057661715,0.004445557,nan,nan,nan,0.004,1310988,1310988,6620172,197388,63.498394,63.157204,0.4810632,0.48238713,0,959,3,1,5,4,3,0,0,0,0,0,0,0,0
626384000,626232000,17764060236391,0.00017490002,0.0030880377,0.0072555337,0,0.49442106,0.29386446,0.0128908325,0.029572686,0.0057661715,0.004445557,nan,nan,nan,0.004,1310988,1310988,6620172,197388,63.498394,63.157204,0.4810632,0.48238713,0,959,3,1,5,4,3,0,0,0,0,0,0,0,0
626392000,626240000,17764060236391,0.00017062236,0.0031568438,0.0074050226,0,0.49534914,0.29426664,0.0128908325,0.029572686,0.0057661715,0.004445557,nan,nan,nan,0.004,1310988,1310988,6620172,197388,63.498394,63.157204,0.4810632,0.48238713,0,959,3,1,5,4,3,0,0,0,0,0,0,0,0
626408000,626256000,17764060236391,0.00018868949,0.0033002454,0.0077432184,0,0.49719477,0.29403985,0.0126240775,0.029572686,0.0057661715,0.0044026584,nan,nan,nan,0.004,1310988,1310988,6620172,197388,63.226517,63.157204,0.48108643,0.48238713,0,959,3,1,5,4,3,0,0,0,0,0,0,0,0
626416000,626264000,17764060236391,0.00023347599,0.0027519136,0.00621819,0,0.45585337,0.28086025,0.0126240775,0.024689646,0.005820848,0.0044208113,nan,nan,nan,0.004,1310988,1310988,6620172,197388,63.226517,63.157204,0.48108643,0.48238713,0,959,3,1,5,4,3,0,0,0,0,0,0,0,0
626424000,626272000,17764060236391,0.00022890983,0.002631802,0.005915889,0,0.45664018,0.28123978,0.0126240775,0.024689646,0.005820848,0.0044208113,nan,nan,nan,0.004,1310988,1310988,6620172,197388,63.226517,63.157204,0.48108643,0.48238713,0,959,3,1,5,4,3,0,0,0,0,0,0,0,0
626432000,626280000,17764060236391,0.00019984164,0.0023957146,0.005520138,0,0.4574285,0.28161994,0.0126240775,0.024689646,0.005820848,0.0044208113,nan,nan,nan,0.004,1310988,1310988,6620172,197388,63.226517,63.157204,0.48108643,0.48238713,0,959,3,1,5,4,3,0,0,0,0,0,0,0,0
626448000,626296000,17764060236391,0.00019077165,0.0022312338,0.0050675934,0,0.45901698,0.2823822,0.0126240775,0.024689646,0.005820848,0.0044208113,nan,nan,nan,0.004,1310988,1310988,6620172,197388,63.226517,63.157204,0.48108643,0.48238713,0,959,3,1,5,4,3,0,0,0,0,0,0,0,0
626456000,626304000,17764060236391,0.00018652879,0.0021703672,0.0048865164,0,0.45981568,0.2827643,0.0126240775,0.024689646,0.005820848,0.0044208113,nan,nan,nan,0.004,1310988,1310988,6620172,197388,63.226517,63.157204,0.48108643,0.48238713,0,959,3,1,5,4,3,0,0,0,0,0,0,0,0
626464000,626312000,17764060236391,0.00018239635,0.0021248518,0.004737907,0,0.46061742,0.283147,0.0126240775,0.024689646,0.005820848,0.0044208113,nan,nan,nan,0.004,1310988,1310988,6620172,197388,63.226517,63.157204,0.48108643,0.48238713,0,959,3,1,5,4,3,0,0,0,0,0,0,0,0
626472000,626320000,17764060236391,0.00017843042,0.0020878548,0.004592629,0,0.46142218,0.28261355,0.0126240775,0.024689646,0.005820848,0.004316482,nan,nan,nan,0.004,1310988,1310988,6620172,197388,63.226517,63.157204,0.48108643,0.48238713,0,959,3,1,5,4,3,0,0,0,0,0,0,0,0
626488000,626336000,17764060236391,0.00015477494,0.0021166266,0.004500722,0,0.46302885,0.28337973,0.011329432,0.024689646,0.005820848,0.004316482,nan,nan,nan,0.004,1310988,1310988,6620172,197388,63.513958,63.157204,0.4837527,0.48238713,0,959,3,1,5,4,3,0,0,0,0,0,0,0,0
626496000,626344000,17764060236391,0.00015046081,0.0021101132,0.004464794,0,0.46384248,0.2837638,0.011329432,0.024689646,0.005820848,0.004316482,nan,nan,nan,0.004,1310988,1310988,6620172,197388,63.513958,63.157204,0.4837527,0.48238713,0,959,3,1,5,4,3,0,0,0,0,0,0,0,0
626504000,626352000,17764060236391,0.00014636156,0.0021160136,0.0044513545,0,0.46465912,0.2841485,0.011329432,0.024689646,0.005820848,0.004316482,nan,nan,nan,0.004,1310988,1310988,6620172,197388,63.513958,63.157204,0.4837527,0.48238713,0,959,3,1,5,4,3,0,0,0,0,0,0,0,0
626512000,626360000,17764060236391,0.00014251958,0.0021310663,0.0044640712,0,0.46547887,0.28453383,0.011329432,0.024689646,0.005820848,0.004316482,nan,nan,nan,0.004,1310988,1310988,6620172,197388,63.513958,63.157204,0.4837527,0.48238713,0,959,3,1,5,4,3,0,0,0,0,0,0,0,0
626528000,626376000,17764060236391,0.00013513288,0.0021857375,0.004564158,0,0.46712744,0.28437227,0.011329432,0.024689646,0.005820848,0.004276176,nan,nan,nan,0.004,1310988,1310988,6620172,197388,63.513958,63.157204,0.4837527,0.48238713,0,959,3,1,5,4,3,0,0,0,0,0,0,0,0
626536000,626384000,17764060236391,0.00013166091,0.0022219114,0.004639036,0,0.46795633,0.28475827,0.011329432,0.024689646,0.005820848,0.004276176,nan,nan,nan,0.004,1310988,1310988,6620172,197388,63.513958,63.157204,0.4837527,0.48238713,0,959,3,1,5,4,3,0,0,0,0,0,0,0,0
626544000,626392000,17764060236391,0.00012844092,0.0022615863,0.004725993,0,0.46878827,0.2851449,0.011329432,0.024689646,0.005820848,0.004276176,nan,nan,nan,0.004,1310988,1310988,6620172,197388,63.513958,63.157204,0.4837527,0.48238713,0,959,3,1,5,4,3,0,0,0,0,0,0,0,0
626552000,626400000,17764060236391,0.00013231022,0.0022649744,0.0047859093,0,0.46960995,0.28553218,0.01072437,0.024689646,0.005820848,0.004276176,nan,nan,nan,0.004,1310988,1310988,6620172,197388,63.39157,63.157204,0.48064768,0.48238713,0,959,3,1,5,4,3,0,0,0,0,0,0,0,0
626568000,626416000,17764060236391,0.00012581065,0.002373114,0.0050141546,0,0.4712888,0.28630865,0.01072437,0.024689646,0.005820848,0.004276176,nan,nan,nan,0.004,1310988,1310988,6620172,197388,63.39157,63.157204,0.48064768,0.48238713,0,959,3,1,5,4,3,0,0,0,0,0,0,0,0
626576000,626424000,17764060236391,0.000120378805,0.0024263123,0.005140258,0,0.47213283,0.2866978,0.01072437,0.024689646,0.005820848,0.004276176,nan,nan,nan,0.004,1310988,1310988,6620172,197388,63.39157,63.157204,0.48064768,0.48238713,0,959,3,1,5,4,3,0,0,0,0,0,0,0,0
626584000,626432000,17764060236391,0.00011502635,0.0024827123,0.0052738576,0,0.47297984,0.28708762,0.01072437,0.024689646,0.005820848,0.004276176,nan,nan,nan,0.004,1310988,1310988,6620172,197388,63.39157,63.157204,0.48064768,0.48238713,0,959,3,1,5,4,3,0,0,0,0,0,0,0,0
626592000,626440000,17764060236391,0.000110324145,0.0025381243,0.005364725,0,0.47383007,0.28652248,0.01072437,0.024689646,0.005820848,0.0042004627,nan,nan,nan,0.004,1310988,1310988,6620172,197388,63.39157,63.157204,0.48064768,0.48238713,0,959,3,1,5,4,3,0,0,0,0,0,0,0,0
626608000,626456000,17764060236391,0.000101248734,0.0026623947,0.0056462325,0,0.47553986,0.2873027,0.01072437,0.024689646,0.005820848,0.0042004627,nan,nan,nan,0.004,1310988,1310988,6620172,197388,63.39157,63.157204,0.48064768,0.48238713,0,959,3,1,5,4,3,0,0,0,0,0,0,0,0
626616000,626464000,17764060236391,9.685723e-05,0.002720193,0.005789922,0,0.47639942,0.28769377,0.01072437,0.024689646,0.005820848,0.0042004627,nan,nan,nan,0.004,1310988,1310988,6620172,197388,63.39157,63.157204,0.48064768,0.48238713,0,959,3,1,5,4,3,0,0,0,0,0,0,0,0
626624000,626472000,17764060236391,9.4344396e-05,0.0028157153,0.0059758294,0,0.47724697,0.28808546,0.009982332,0.024689646,0.005820848,0.0042004627,nan,nan,nan,0.004,1310988,1310988,6620172,197388,63.15537,63.157204,0.4797343,0.48238713,0,959,3,1,5,4,3,0,0,0,0,0,0,0,0
626632000,626480000,17764060236391,0.00010472148,0.0029704573,0.006211557,0,0.47811043,0.2884778,0.009982332,0.024689646,0.005820848,0.0042004627,nan,nan,nan,0.004,1310988,1310988,6620172,197388,63.15537,63.157204,0.4797343,0.48238713,0,959,3,1,5,4,3,0,0,0,0,0,0,0,0
626648000,626496000,17764060236391,9.73848e-05,0.0030817355,0.006422236,0,0.47985095,0.28829092,0.009982332,0.024689646,0.005820848,0.003992961,nan,nan,nan,0.004,1310988,1310988,6620172,197388,63.15537,63.157204,0.4797343,0.48238713,0,959,3,1,5,4,3,0,0,0,0,0,0,0,0
626656000,626504000,17764060236391,9.3898605e-05,0.0031394502,0.006564749,0,0.4807259,0.28868383,0.009982332,0.024689646,0.005820848,0.003992961,nan,nan,nan,0.004,1310988,1310988,6620172,197388,63.15537,63.157204,0.4797343,0.48238713,0,959,3,1,5,4,3,0,0,0,0,0,0,0,0
626664000,626512000,17764060236391,9.05054e-05,0.0031954069,0.006703788,0,0.48160404,0.28907737,0.009982332,0.024689646,0.005820848,0.003992961,nan,nan,nan,0.004,1310988,1310988,6620172,197388,63.15537,63.157204,0.4797343,0.48238713,0,959,3,1,5,4,3,0,0,0,0,0,0,0,0
626672000,626520000,17764060236391,8.739199e-05,0.0032515647,0.0068414747,0,0.4824853,0.28947157,0.009982332,0.024689646,0.005820848,0.003992961,nan,nan,nan,0.004,1310988,1310988,6620172,197388,63.15537,63.157204,0.4797343,0.48238713,0,959,3,1,5,4,3,0,0,0,0,0,0,0,0
626688000,626536000,17764060236391,8.1362574e-05,0.0033599248,0.0071121114,0,0.48425728,0.29026183,0.009982332,0.024689646,0.005820848,0.003992961,nan,nan,nan,0.004,1310988,1310988,6620172,197388,63.15537,63.157204,0.4797343,0.48238713,0,959,3,1,5,4,3,0,0,0,0,0,0,0,0
626696000,626544000,17764060236391,8.282263e-05,0.0034103203,0.0072454596,0,0.48513103,0.2906579,0.009382907,0.024689646,0.005820848,0.003992961,nan,nan,nan,0.004,1310988,1310988,6620172,197388,63.275887,63.157204,0.4818525,0.48238713,0,959,3,1,5,4,3,0,0,0,0,0,0,0,0
626704000,626552000,17764060236391,8.0076265e-05,0.0034610315,0.0073793647,0,0.4860247,0.2910546,0.009382907,0.024689646,0.005820848,0.003992961,nan,nan,nan,0.004,1310988,1310988,6620172,197388,63.275887,63.157204,0.4818525,0.48238713,0,959,3,1,5,4,3,0,0,0,0,0,0,0,0
626712000,626560000,17764060236391,7.740142e-05,0.0035087434,0.0075103096,0,0.4869216,0.29145193,0.009382907,0.024689646,0.005820848,0.003992961,nan,nan,nan,0.004,1310988,1310988,6620172,197388,63.275887,63.157204,0.4818525,0.48238713,0,959,3,1,5,4,3,0,0,0,0,0,0,0,0
626728000,626576000,17764060236391,7.244232e-05,0.0036060533,0.0077916486,0,0.4887249,0.29124746,0.009382907,0.024689646,0.005820848,0.004028221,nan,nan,nan,0.004,1310988,1310988,6620172,197388,63.275887,63.157204,0.4818525,0.48238713,0,959,3,1,5,4,3,0,0,0,0,0,0,0,0
626736000,626584000,17764060236391,7.013975e-05,0.0036510744,0.007907341,0,0.48963133,0.29164532,0.009382907,0.024689646,0.005820848,0.004028221,nan,nan,nan,0.004,1310988,1310988,6620172,197388,63.275887,63.157204,0.4818525,0.48238713,0,959,3,1,5,4,3,0,0,0,0,0,0,0,0
626744000,626592000,17764060236391,6.819798e-05,0.0036949872,0.008021022,0,0.49054095,0.2920438,0.009382907,0.024689646,0.005820848,0.004028221,nan,nan,nan,0.004,1310988,1310988,6620172,197388,63.275887,63.157204,0.4818525,0.48238713,0,959,3,1,5,4,3,0,0,0,0,0,0,0,0
626752000,626600000,17764060236391,6.618744e-05,0.0037346429,0.008131367,0,0.49145377,0.29244295,0.009382907,0.024689646,0.005820848,0.004028221,nan,nan,nan,0.004,1310988,1310988,6620172,197388,63.275887,63.157204,0.4818525,0.48238713,0,959,3,1,5,4,3,0,0,0,0,0,0,0,0
626768000,626616000,17764060236391,5.857426e-05,0.003662698,0.008162774,0,0.49326995,0.29324308,0.01480925,0.024689646,0.005820848,0.004028221,nan,nan,nan,0.004,1310988,1310988,6620172,197388,63.637264,63.157204,0.47466794,0.48238713,0,959,3,1,5,4,3,0,0,0,0,0,0,0,0
626776000,626624000,17764060236391,5.6924386e-05,0.003704396,0.008265127,0,0.49419215,0.2936441,0.01480925,0.024689646,0.005820848,0.004028221,nan,nan,nan,0.004,1310988,1310988,6620172,197388,63.637264,63.157204,0.47466794,0.48238713,0,959,3,1,5,4,3,0,0,0,0,0,0,0,0
626784000,626632000,17764060236391,5.5597426e-05,0.003742948,0.008363999,0,0.49511755,0.29404575,0.01480925,0.024689646,0.005820848,0.004028221,nan,nan,nan,0.004,1310988,1310988,6620172,197388,63.637264,63.157204,0.47466794,0.48238713,0,959,3,1,5,4,3,0,0,0,0,0,0,0,0
626792000,626640000,17764060236391,5.3474316e-05,0.0037699484,0.0083451,0,0.4960462,0.29342145,0.01480925,0.024689646,0.005820848,0.003920058,nan,nan,nan,0.004,1310988,1310988,6620172,197388,63.637264,63.157204,0.47466794,0.48238713,0,959,3,1,5,4,3,0,0,0,0,0,0,0,0
626808000,626656000,17764060236391,4.9495677e-05,0.0038448197,0.008538458,0,0.49791312,0.29422504,0.01480925,0.024689646,0.005820848,0.003920058,nan,nan,nan,0.004,1310988,1310988,6620172,197388,63.637264,63.157204,0.47466794,0.48238713,0,959,3,1,5,4,3,0,0,0,0,0,0,0,0
626816000,626664000,17764060236391,0.00010677048,0.0012777275,0.0032220953,0,0.4564216,0.2810223,0.01480925,0.020500232,0.0058049746,0.0037086748,nan,nan,nan,0.004,1310988,1310988,6620172,197388,63.637264,63.157204,0.47466794,0.48238713,0,959,3,1,5,4,3,0,0,0,0,0,0,0,0
626824000,626672000,17764060236391,0.00010498968,0.0012403004,0.0030120395,0,0.45720884,0.28140187,0.01480925,0.020500232,0.0058049746,0.0037086748,nan,nan,nan,0.004,1310988,1310988,6620172,197388,63.637264,63.157204,0.47466794,0.48238713,0,959,3,1,5,4,3,0,0,0,0,0,0,0,0
626832000,626680000,17764060236391,0.00012972101,0.000977433,0.0026267506,0,0.4579869,0.28178212,0.013425866,0.020500232,0.0058049746,0.0037086748,nan,nan,nan,0.004,1310988,1310988,6620172,197388,63.03838,63.157204,0.4802514,0.48238713,0,959,3,1,5,4,3,0,0,0,0,0,0,0,0
626848000,626696000,17764060236391,0.00012633289,0.0010602268,0.0024591882,0,0.45957595,0.2825445,0.013425866,0.020500232,0.0058049746,0.0037086748,nan,nan,nan,0.004,1310988,1310988,6620172,197388,63.03838,63.157204,0.4802514,0.48238713,0,959,3,1,5,4,3,0,0,0,0,0,0,0,0
626856000,626704000,17764060236391,0.00012465549,0.0011217862,0.0024493039,0,0.46037498,0.28292668,0.013425866,0.020500232,0.0058049746,0.0037086748,nan,nan,nan,0.004,1310988,1310988,6620172,197388,63.03838,63.157204,0.4802514,0.48238713,0,959,3,1,5,4,3,0,0,0,0,0,0,0,0
626864000,626712000,17764060236391,0.00012315574,0.0011938806,0.0026077216,0,0.461177,0.28239474,0.013425866,0.020500232,0.0058049746,0.0042009903,nan,nan,nan,0.004,1310988,1310988,6620172,197388,63.03838,63.157204,0.4802514,0.48238713,0,959,3,1,5,4,3,0,0,0,0,0,0,0,0
626872000,626720000,17764060236391,0.00012169429,0.0012712973,0.0026536447,0,0.46198207,0.28277695,0.013425866,0.020500232,0.0058049746,0.0042009903,nan,nan,nan,0.004,1310988,1310988,6620172,197388,63.03838,63.157204,0.4802514,0.48238713,0,959,3,1,5,4,3,0,0,0,0,0,0,0,0
626888000,626736000,17764060236391,0.00011888062,0.0014400969,0.0028474948,0,0.4636012,0.2835433,0.013425866,0.020500232,0.0058049746,0.0042009903,nan,nan,nan,0.004,1310988,1310988,6620172,197388,63.03838,63.157204,0.4802514,0.48238713,0,959,3,1,5,4,3,0,0,0,0,0,0,0,0
626896000,626744000,17764060236391,0.000117770476,0.0015264316,0.0029832062,0,0.4644153,0.2839274,0.013425866,0.020500232,0.0058049746,0.0042009903,nan,nan,nan,0.004,1310988,1310988,6620172,197388,63.03838,63.157204,0.4802514,0.48238713,0,959,3,1,5,4,3,0,0,0,0,0,0,0,0
626904000,626752000,17764060236391,0.00011884014,0.0014335157,0.0029700329,0,0.4652202,0.2843122,0.017006675,0.020500232,0.0058049746,0.0042009903,nan,nan,nan,0.004,1310988,1310988,6620172,197388,63.85728,63.157204,0.48659712,0.48238713,0,959,3,1,5,4,3,0,0,0,0,0,0,0,0
626912000,626760000,17764060236391,0.00011772359,0.0015199382,0.0031257211,0,0.46604022,0.28469762,0.017006675,0.020500232,0.0058049746,0.0042009903,nan,nan,nan,0.004,1310988,1310988,6620172,197388,63.85728,63.157204,0.48659712,0.48238713,0,959,3,1,5,4,3,0,0,0,0,0,0,0,0
626928000,626776000,17764060236391,0.000115799456,0.0016894878,0.0034692402,0,0.46768937,0.28547034,0.017006675,0.020500232,0.0058049746,0.0042009903,nan,nan,nan,0.004,1310988,1310988,6620172,197388,63.85728,63.157204,0.48659712,0.48238713,0,959,3,1,5,4,3,0,0,0,0,0,0,0,0
626936000,626784000,17764060236391,0.000114810726,0.0017759207,0.003645618,0,0.4685185,0.2849181,0.017006675,0.020500232,0.0058049746,0.004153616,nan,nan,nan,0.004,1310988,1310988,6620172,197388,63.85728,63.157204,0.48659712,0.48238713,0,959,3,1,5,4,3,0,0,0,0,0,0,0,0
626944000,626792000,17764060236391,0.00011383184,0.0018613021,0.003826587,0,0.46935073,0.2853048,0.017006675,0.020500232,0.0058049746,0.004153616,nan,nan,nan,0.004,1310988,1310988,6620172,197388,63.85728,63.157204,0.48659712,0.48238713,0,959,3,1,5,4,3,0,0,0,0,0,0,0,0
626952000,626800000,17764060236391,0.0001129895,0.0019441613,0.004009689,0,0.470186,0.28569213,0.017006675,0.020500232,0.0058049746,0.004153616,nan,nan,nan,0.004,1310988,1310988,6620172,197388,63.85728,63.157204,0.48659712,0.48238713,0,959,3,1,5,4,3,0,0,0,0,0,0,0,0
626968000,626816000,17764060236391,0.00011147334,0.002107716,0.004374613,0,0.47186577,0.2864687,0.017006675,0.020500232,0.0058049746,0.004153616,nan,nan,nan,0.004,1310988,1310988,6620172,197388,63.85728,63.157204,0.48659712,0.48238713,0,959,3,1,5,4,3,0,0,0,0,0,0,0,0
626976000,626824000,17764060236391,0.00012536178,0.0022272076,0.004602311,0,0.4726964,0.28685796,0.014631826,0.020500232,0.0058049746,0.004153616,nan,nan,nan,0.004,1310988,1310988,6620172,197388,63.118507,63.157204,0.478268,0.48238713,0,959,3,1,5,4,3,0,0,0,0,0,0,0,0
626984000,626832000,17764060236391,0.00012336073,0.002304758,0.0047834986,0,0.4735438,0.28724784,0.014631826,0.020500232,0.0058049746,0.004153616,nan,nan,nan,0.004,1310988,1310988,6620172,197388,63.118507,63.157204,0.478268,0.48238713,0,959,3,1,5,4,3,0,0,0,0,0,0,0,0
626992000,626840000,17764060236391,0.00012025787,0.0023772449,0.0049620084,0,0.4743943,0.28763834,0.014631826,0.020500232,0.0058049746,0.004153616,nan,nan,nan,0.004,1310988,1310988,6620172,197388,63.118507,63.157204,0.478268,0.48238713,0,959,3,1,5,4,3,0,0,0,0,0,0,0,0
627008000,626856000,17764060236391,0.00011444458,0.0025248535,0.005324583,0,0.47610462,0.2874563,0.014631826,0.020500232,0.0058049746,0.0040832264,nan,nan,nan,0.004,1310988,1310988,6620172,197388,63.118507,63.157204,0.478268,0.48238713,0,959,3,1,5,4,3,0,0,0,0,0,0,0,0
627016000,626864000,17764060236391,0.00011170703,0.002594764,0.005495436,0,0.47696447,0.2878474,0.014631826,0.020500232,0.0058049746,0.0040832264,nan,nan,nan,0.004,1310988,1310988,6620172,197388,63.118507,63.157204,0.478268,0.48238713,0,959,3,1,5,4,3,0,0,0,0,0,0,0,0
627024000,626872000,17764060236391,0.00010889447,0.0026622922,0.0056608506,0,0.4778274,0.28823915,0.014631826,0.020500232,0.0058049746,0.0040832264,nan,nan,nan,0.004,1310988,1310988,6620172,197388,63.118507,63.157204,0.478268,0.48238713,0,959,3,1,5,4,3,0,0,0,0,0,0,0,0
627032000,626880000,17764060236391,0.00015771341,0.002848079,0.005942757,0,0.47869128,0.28863153,0.014631826,0.020500232,0.0058049746,0.0040832264,nan,nan,nan,0.004,1310988,1310988,6620172,197388,63.118507,63.157204,0.478268,0.48238713,0,959,3,1,5,4,3,0,0,0,0,0,0,0,0
627048000,626896000,17764060236391,9.130436e-05,0.0029178294,0.006171061,0,0.48041695,0.2894182,0.013504181,0.020500232,0.0058049746,0.0040832264,nan,nan,nan,0.004,1310988,1310988,6620172,197388,63.570568,63.157204,0.47683114,0.48238713,0,959,3,1,5,4,3,0,0,0,0,0,0,0,0
627056000,626904000,17764060236391,8.866e-05,0.0029704352,0.0063150707,0,0.48129213,0.28981248,0.013504181,0.020500232,0.0058049746,0.0040832264,nan,nan,nan,0.004,1310988,1310988,6620172,197388,63.570568,63.157204,0.47683114,0.48238713,0,959,3,1,5,4,3,0,0,0,0,0,0,0,0
627064000,626912000,17764060236391,8.597229e-05,0.0030219315,0.0064549143,0,0.48217046,0.2902074,0.013504181,0.020500232,0.0058049746,0.0040832264,nan,nan,nan,0.004,1310988,1310988,6620172,197388,63.570568,63.157204,0.47683114,0.48238713,0,959,3,1,5,4,3,0,0,0,0,0,0,0,0
627072000,626920000,17764060236391,8.3213024e-05,0.0030680585,0.0065551093,0,0.48305193,0.28961596,0.013504181,0.020500232,0.0058049746,0.00406957,nan,nan,nan,0.004,1310988,1310988,6620172,197388,63.570568,63.157204,0.47683114,0.48238713,0,959,3,1,5,4,3,0,0,0,0,0,0,0,0
627088000,626936000,17764060236391,7.8131554e-05,0.0031629677,0.0068210773,0,0.48482427,0.2904063,0.013504181,0.020500232,0.0058049746,0.00406957,nan,nan,nan,0.004,1310988,1310988,6620172,197388,63.570568,63.157204,0.47683114,0.48238713,0,959,3,1,5,4,3,0,0,0,0,0,0,0,0
627096000,626944000,17764060236391,7.5597054e-05,0.0032089013,0.006946594,0,0.4857152,0.29080236,0.013504181,0.020500232,0.0058049746,0.00406957,nan,nan,nan,0.004,1310988,1310988,6620172,197388,63.570568,63.157204,0.47683114,0.48238713,0,959,3,1,5,4,3,0,0,0,0,0,0,0,0
627104000,626952000,17764060236391,7.317353e-05,0.0032540231,0.007068167,0,0.48660925,0.29119912,0.013504181,0.020500232,0.0058049746,0.00406957,nan,nan,nan,0.004,1310988,1310988,6620172,197388,63.570568,63.157204,0.47683114,0.48238713,0,959,3,1,5,4,3,0,0,0,0,0,0,0,0
627112000,626960000,17764060236391,7.086221e-05,0.0032980945,0.0071845576,0,0.4875065,0.29159647,0.013504181,0.020500232,0.0058049746,0.00406957,nan,nan,nan,0.004,1310988,1310988,6620172,197388,63.570568,63.157204,0.47683114,0.48238713,0,959,3,1,5,4,3,0,0,0,0,0,0,0,0
627128000,626976000,17764060236391,8.069855e-05,0.0032939636,0.007385357,0,0.48929256,0.29138777,0.012987308,0.020500232,0.0058049746,0.003953821,nan,nan,nan,0.004,1310988,1310988,6620172,197388,63.45798,63.157204,0.48086703,0.48238713,0,959,3,1,5,4,3,0,0,0,0,0,0,0,0
627136000,626984000,17764060236391,7.803992e-05,0.0033368918,0.007500069,0,0.49019912,0.29178566,0.012987308,0.020500232,0.0058049746,0.003953821,nan,nan,nan,0.004,1310988,1310988,6620172,197388,63.45798,63.157204,0.48086703,0.48238713,0,959,3,1,5,4,3,0,0,0,0,0,0,0,0
627144000,626992000,17764060236391,7.532332e-05,0.003379125,0.0076038777,0,0.49110883,0.29218417,0.012987308,0.020500232,0.0058049746,0.003953821,nan,nan,nan,0.004,1310988,1310988,6620172,197388,63.45798,63.157204,0.48086703,0.48238713,0,959,3,1,5,4,3,0,0,0,0,0,0,0,0
627152000,627000000,17764060236391,7.2645234e-05,0.0034205972,0.0077061425,0,0.49202174,0.29258332,0.012987308,0.020500232,0.0058049746,0.003953821,nan,nan,nan,0.004,1310988,1310988,6620172,197388,63.45798,63.157204,0.48086703,0.48238713,0,959,3,1,5,4,3,0,0,0,0,0,0,0,0
627168000,627016000,17764060236391,6.7507804e-05,0.0034978203,0.007907124,0,0.4938572,0.29338348,0.012987308,0.020500232,0.0058049746,0.003953821,nan,nan,nan,0.004,1310988,1310988,6620172,197388,63.45798,63.157204,0.48086703,0.48238713,0,959,3,1,5,4,3,0,0,0,0,0,0,0,0
627176000,627024000,17764060236391,6.505044e-05,0.0035342108,0.008004431,0,0.4947797,0.29378447,0.012987308,0.020500232,0.0058049746,0.003953821,nan,nan,nan,0.004,1310988,1310988,6620172,197388,63.45798,63.157204,0.48086703,0.48238713,0,959,3,1,5,4,3,0,0,0,0,0,0,0,0
627184000,627032000,17764060236391,6.288319e-05,0.0035681534,0.008099551,0,0.49570543,0.29418612,0.012987308,0.020500232,0.0058049746,0.003953821,nan,nan,nan,0.004,1310988,1310988,6620172,197388,63.45798,63.157204,0.48086703,0.48238713,0,959,3,1,5,4,3,0,0,0,0,0,0,0,0
627192000,627040000,17764060236391,4.803377e-05,0.0037263408,0.0083344085,0,0.49661458,0.2945884,0.011241952,0.020500232,0.0058049746,0.003953821,nan,nan,nan,0.004,1310988,1310988,6620172,197388,63.05204,63.157204,0.48074156,0.48238713,0,959,3,1,5,4,3,0,0,0,0,0,0,0,0
627208000,627056000,17764060236391,4.2595828e-05,0.0037697956,0.008336072,0,0.4984817,0.29436117,0.011241952,0.020500232,0.0058049746,0.0044735996,nan,nan,nan,0.004,1310988,1310988,6620172,197388,63.05204,63.157204,0.48074156,0.48238713,0,959,3,1,5,4,3,0,0,0,0,0,0,0,0
627216000,627064000,17764060236391,9.353694e-05,0.0021536048,0.0050940034,0,0.45688605,0.2811419,0.011241952,0.01709114,0.005651314,0.0039010793,nan,nan,nan,0.004,1310988,1310988,6620172,197388,63.05204,63.157204,0.48074156,0.48238713,0,959,3,1,5,4,3,0,0,0,0,0,0,0,0
627224000,627072000,17764060236391,9.1687674e-05,0.0021305482,0.0049383417,0,0.4576732,0.28152147,0.011241952,0.01709114,0.005651314,0.0039010793,nan,nan,nan,0.004,1310988,1310988,6620172,197388,63.05204,63.157204,0.48074156,0.48238713,0,959,3,1,5,4,3,0,0,0,0,0,0,0,0
627232000,627080000,17764060236391,0.00014329335,0.002251954,0.004949342,0,0.4584619,0.2819017,0.011241952,0.01709114,0.005651314,0.0039010793,nan,nan,nan,0.004,1310988,1310988,6620172,197388,63.05204,63.157204,0.48074156,0.48238713,0,959,3,1,5,4,3,0,0,0,0,0,0,0,0
627248000,627096000,17764060236391,0.00014003323,0.0022300773,0.004742797,0,0.4600511,0.28266403,0.011241952,0.01709114,0.005651314,0.0039010793,nan,nan,nan,0.004,1310988,1310988,6620172,197388,63.05204,63.157204,0.48074156,0.48238713,0,959,3,1,5,4,3,0,0,0,0,0,0,0,0
627256000,627104000,17764060236391,0.00013853474,0.0022289278,0.0046706013,0,0.46085018,0.2830462,0.011241952,0.01709114,0.005651314,0.0039010793,nan,nan,nan,0.004,1310988,1310988,6620172,197388,63.05204,63.157204,0.48074156,0.48238713,0,959,3,1,5,4,3,0,0,0,0,0,0,0,0
627264000,627112000,17764060236391,0.00015118805,0.0022213818,0.004608241,0,0.4616409,0.28342897,0.010379264,0.01709114,0.005651314,0.0039010793,nan,nan,nan,0.004,1310988,1310988,6620172,197388,63.203884,63.157204,0.48127028,0.48238713,0,959,3,1,5,4,3,0,0,0,0,0,0,0,0
627272000,627120000,17764060236391,0.00014968147,0.002245649,0.0046411613,0,0.46244583,0.28289276,0.010379264,0.01709114,0.005651314,0.0038467096,nan,nan,nan,0.004,1310988,1310988,6620172,197388,63.203884,63.157204,0.48127028,0.48238713,0,959,3,1,5,4,3,0,0,0,0,0,0,0,0
627288000,627136000,17763985787623,0.00014626086,0.0022884882,0.004644281,0,0.46406472,0.28365907,0.010379264,0.01709114,0.005651314,0.0038467096,nan,nan,nan,0.004,1310988,1310988,6620172,197388,63.203884,63.157204,0.48127028,0.48238713,0,831,3,1,5,4,3,0,0,0,0,0,0,0,0
627296000,627144000,17763985787623,0.00014454368,0.0023154847,0.0046728863,0,0.46487868,0.28404316,0.010379264,0.01709114,0.005651314,0.0038467096,nan,nan,nan,0.004,1310988,1310988,6620172,197388,63.203884,63.157204,0.48127028,0.48238713,0,831,3,1,5,4,3,0,0,0,0,0,0,0,0
627304000,627152000,17763985787623,0.00014310797,0.0023466314,0.004714804,0,0.46569568,0.2844279,0.010379264,0.01709114,0.005651314,0.0038467096,nan,nan,nan,0.004,1310988,1310988,6620172,197388,63.203884,63.157204,0.48127028,0.48238713,0,831,3,1,5,4,3,0,0,0,0,0,0,0,0
627312000,627160000,17763985787623,0.00014164246,0.0023812605,0.004770902,0,0.46651572,0.2848133,0.010379264,0.01709114,0.005651314,0.0038467096,nan,nan,nan,0.004,1310988,1310988,6620172,197388,63.203884,63.157204,0.48127028,0.48238713,0,831,3,1,5,4,3,0,0,0,0,0,0,0,0
627328000,627176000,17763985787623,0.00013884662,0.0024537893,0.0049133715,0,0.4681649,0.285586,0.010379264,0.01709114,0.005651314,0.0038467096,nan,nan,nan,0.004,1310988,1310988,6620172,197388,63.203884,63.157204,0.48127028,0.48238713,0,831,3,1,5,4,3,0,0,0,0,0,0,0,0
627336000,627184000,17763985787543,0.0001485272,0.0024041054,0.0049048676,0,0.46898115,0.28597328,0.010885857,0.01709114,0.005651314,0.0038467096,nan,nan,nan,0.004,1310988,1310988,6620172,197388,63.48465,63.157204,0.4793986,0.48238713,0,831,3,1,5,4,3,0,0,0,0,0,0,0,0
627344000,627192000,17763985787543,0.00014742676,0.0024465432,0.0049939374,0,0.4698132,0.2854167,0.010885857,0.01709114,0.005651314,0.0037754746,nan,nan,nan,0.004,1310988,1310988,6620172,197388,63.48465,63.157204,0.4793986,0.48238713,0,831,3,1,5,4,3,0,0,0,0,0,0,0,0
627352000,627200000,17763985787543,0.00014646338,0.002488904,0.0050897105,0,0.47064832,0.285804,0.010885857,0.01709114,0.005651314,0.0037754746,nan,nan,nan,0.004,1310988,1310988,6620172,197388,63.48465,63.157204,0.4793986,0.48238713,0,831,3,1,5,4,3,0,0,0,0,0,0,0,0
627368000,627216000,17763985787543,0.00014512947,0.002573789,0.0052925125,0,0.47232777,0.2865805,0.010885857,0.01709114,0.005651314,0.0037754746,nan,nan,nan,0.004,1310988,1310988,6620172,197388,63.48465,63.157204,0.4793986,0.48238713,0,831,3,1,5,4,3,0,0,0,0,0,0,0,0
627376000,627224000,17763985787543,0.00014358624,0.002618609,0.005397626,0,0.4731721,0.28696972,0.010885857,0.01709114,0.005651314,0.0037754746,nan,nan,nan,0.004,1310988,1310988,6620172,197388,63.48465,63.157204,0.4793986,0.48238713,0,831,3,1,5,4,3,0,0,0,0,0,0,0,0
627384000,627232000,17763985787543,0.00014219158,0.0026629185,0.0055059562,0,0.4740195,0.2873596,0.010885857,0.01709114,0.005651314,0.0037754746,nan,nan,nan,0.004,1310988,1310988,6620172,197388,63.48465,63.157204,0.4793986,0.48238713,0,831,3,1,5,4,3,0,0,0,0,0,0,0,0
627392000,627240000,17763985787543,0.00013901647,0.0027057333,0.0056141336,0,0.47487,0.28775007,0.010885857,0.01709114,0.005651314,0.0037754746,nan,nan,nan,0.004,1310988,1310988,6620172,197388,63.48465,63.157204,0.4793986,0.48238713,0,831,3,1,5,4,3,0,0,0,0,0,0,0,0
627408000,627256000,17763985787543,0.00016884015,0.0028055552,0.005859176,0,0.4765656,0.28853297,0.010183658,0.01709114,0.005651314,0.0037754746,nan,nan,nan,0.004,1310988,1310988,6620172,197388,63.140438,63.157204,0.47911692,0.48238713,0,831,3,1,5,4,3,0,0,0,0,0,0,0,0
627416000,627264000,17763985787543,0.00016589365,0.0028504673,0.0059697162,0,0.47742522,0.2879553,0.010183658,0.01709114,0.005651314,0.003741727,nan,nan,nan,0.004,1310988,1310988,6620172,197388,63.140438,63.157204,0.47911692,0.48238713,0,831,3,1,5,4,3,0,0,0,0,0,0,0,0
627424000,627272000,17763985787543,0.00016253298,0.0028925797,0.00607606,0,0.47828797,0.288347,0.010183658,0.01709114,0.005651314,0.003741727,nan,nan,nan,0.004,1310988,1310988,6620172,197388,63.140438,63.157204,0.47911692,0.48238713,0,831,3,1,5,4,3,0,0,0,0,0,0,0,0
627432000,627280000,17763985787543,0.0001589565,0.0029342226,0.006184753,0,0.4791538,0.28873935,0.010183658,0.01709114,0.005651314,0.003741727,nan,nan,nan,0.004,1310988,1310988,6620172,197388,63.140438,63.157204,0.47911692,0.48238713,0,831,3,1,5,4,3,0,0,0,0,0,0,0,0
