timestamp,timestamp_sample,xyz[0],xyz[1],xyz[2],xyz_derivative[0],xyz_derivative[1],xyz_derivative[2]
625256000,0,4.4324526e-05,4.3161013e-05,5.8933608e-08,0.0,0.0,0.0
625260000,0,4.432645e-05,4.3175794e-05,5.8944824e-08,0.0,0.0,0.0
625268000,0,4.0581985e-05,4.4344746e-05,5.5968357e-08,0.0,0.0,0.0
625276000,0,4.429617e-05,4.3142918e-05,5.8933093e-08,0.0,0.0,0.0
625288000,0,4.008011e-05,4.373477e-05,5.5326737e-08,0.0,0.0,0.0
625296000,0,4.3699063e-05,4.1974126e-05,5.8065616e-08,0.0,0.0,0.0
625308000,0,-0.0003744955,-0.00012128703,-1.7095169e-06,0.0,0.0,0.0
625316000,0,-0.00033166245,2.142874e-06,-1.0530752e-06,0.0,0.0,0.0
625328000,0,-0.00063034066,-0.00034551937,-1.8444802e-06,0.0,0.0,0.0
625332000,0,0.00052631175,-1.6149217e-05,6.3860716e-06,0.0,0.0,0.0
625344000,0,4.327691e-05,4.0851886e-05,5.7245163e-08,0.0,0.0,0.0
625356000,0,-0.00039132015,-0.00014010047,-1.7387463e-06,0.0,0.0,0.0
625368000,0,-0.0003307309,2.5605286e-06,-9.3354384e-07,0.0,0.0,0.0
625376000,0,-0.0004241823,-0.00015729046,-1.9245065e-06,0.0,0.0,0.0
625388000,0,3.9796872e-05,4.423329e-05,5.5110146e-08,0.0,0.0,0.0
625396000,0,4.383762e-05,4.291598e-05,5.8359536e-08,0.0,0.0,0.0
625408000,0,-0.00033344774,8.3174905e-07,-6.9990375e-07,0.0,0.0,0.0
625416000,0,-0.00033318065,3.8770927e-06,-1.1277451e-06,0.0,0.0,0.0
625428000,0,4.6953108e-05,4.1161464e-05,6.073785e-08,0.0,0.0,0.0
625436000,0,4.3311724e-05,4.137692e-05,5.7398378e-08,0.0,0.0,0.0
625448000,0,-0.00033393918,4.163563e-06,-1.1285268e-06,0.0,0.0,0.0
625456000,0,4.455455e-05,4.326117e-05,5.895375e-08,0.0,0.0,0.0
625468000,0,-0.00033342518,-7.740703e-07,-6.737787e-07,0.0,0.0,0.0
625476000,0,-0.00033362987,5.6559097e-06,-1.1270669e-06,0.0,0.0,0.0
625488000,0,4.7295605e-05,4.2767846e-05,6.1424224e-08,0.0,0.0,0.0
625496000,0,4.376041e-05,4.338154e-05,5.8307087e-08,0.0,0.0,0.0
625508000,0,0.00052239315,-4.4987646e-06,6.3418333e-06,0.0,0.0,0.0
625516000,0,3.9637256e-05,4.295254e-05,5.454275e-08,0.0,0.0,0.0
625528000,0,0.000526288,-1.1853407e-05,6.4348737e-06,0.0,0.0,0.0
625536000,0,0.00052322494,-9.5511805e-06,6.338512e-06,0.0,0.0,0.0
625548000,0,0.00052600214,-1.5372947e-05,6.386563e-06,0.0,0.0,0.0
625556000,0,4.3154007e-05,4.2057218e-05,5.7339875e-08,0.0,0.0,0.0
625568000,0,0.00052888703,-1.4127011e-05,6.415329e-06,0.0,0.0,0.0
625576000,0,3.9682887e-05,4.446204e-05,5.494858e-08,0.0,0.0,0.0
625588000,0,-0.0003860739,-0.00013733094,-1.713138e-06,0.0,0.0,0.0
625596000,0,-0.00032421367,3.5514759e-06,-1.1178715e-06,0.0,0.0,0.0
625608000,0,-0.0006615855,-0.00036524824,-1.925112e-06,0.0,0.0,0.0
625616000,0,4.693532e-05,4.0955278e-05,6.0527434e-08,0.0,0.0,0.0
625628000,0,4.3632288e-05,4.3084874e-05,5.799434e-08,0.0,0.0,0.0
625636000,0,0.0005293834,-1.4241961e-05,6.424038e-06,0.0,0.0,0.0
625648000,0,4.401664e-05,3.9213603e-05,5.7248876e-08,0.0,0.0,0.0
625656000,0,-0.00037915862,-0.0001078898,-1.6510094e-06,0.0,0.0,0.0
625664000,0,-0.00033150095,3.6635745e-06,-1.1029451e-06,0.0,0.0,0.0
625676000,0,-0.00064065534,-0.00036361106,-1.7640933e-06,0.0,0.0,0.0
625688000,0,4.312976e-05,4.1785217e-05,5.7154658e-08,0.0,0.0,0.0
625696000,0,4.3556753e-05,4.2255266e-05,5.7701925e-08,0.0,0.0,0.0
625708000,0,-0.00033161446,1.360354e-06,-9.419346e-07,0.0,0.0,0.0
625716000,0,4.4393993e-05,4.238453e-05,5.842243e-08,0.0,0.0,0.0
625728000,0,-0.00033252,5.6628614e-06,-1.1986156e-06,0.0,0.0,0.0
625736000,0,-0.00033343234,4.6395708e-06,-1.155125e-06,0.0,0.0,0.0
625748000,0,4.689191e-05,4.070087e-05,6.030111e-08,0.0,0.0,0.0
625756000,0,4.3623237e-05,4.3612406e-05,5.803357e-08,0.0,0.0,0.0
625764000,0,-0.0003780971,-0.000103546896,-1.7468201e-06,0.0,0.0,0.0
625776000,0,3.972916e-05,4.3520093e-05,5.4574183e-08,0.0,0.0,0.0
625788000,0,0.00052314287,-3.0221784e-06,6.3374077e-06,0.0,0.0,0.0
625796000,0,0.00051553897,-6.5574477e-06,6.2609097e-06,0.0,0.0,0.0
625808000,0,0.0005222898,-4.4910316e-06,6.3349585e-06,0.0,0.0,0.0
625816000,0,4.3402502e-05,4.261096e-05,5.7520708e-08,0.0,0.0,0.0
625828000,0,0.0005191302,-4.4319927e-06,6.300917e-06,0.0,0.0,0.0
625836000,0,3.9951305e-05,4.4977078e-05,5.511648e-08,0.0,0.0,0.0
625844000,0,4.3607466e-05,4.265734e-05,5.77912e-08,0.0,0.0,0.0
625856000,0,-0.00033506812,2.7764925e-06,-1.0418254e-06,0.0,0.0,0.0
625868000,0,-0.0005893566,-0.0003084094,-1.8624812e-06,0.0,0.0,0.0
625876000,0,4.711228e-05,4.2262658e-05,6.083658e-08,0.0,0.0,0.0
625888000,0,-0.0003864707,-0.00013001125,-1.8007161e-06,0.0,0.0,0.0
625896000,0,0.0005774568,4.4641324e-06,6.757964e-06,0.0,0.0,0.0
625908000,0,-0.0003832625,-0.00014040539,-1.638684e-06,0.0,0.0,0.0
625916000,0,-0.00032995714,8.321579e-06,-1.2474281e-06,0.0,0.0,0.0
625928000,0,4.3514112e-05,4.117079e-05,5.724245e-08,0.0,0.0,0.0
625936000,0,0.00052778044,-1.1002476e-05,6.4297565e-06,0.0,0.0,0.0
625948000,0,-0.00033325035,4.6543837e-06,-1.1502942e-06,0.0,0.0,0.0
625956000,0,0.0005216466,-1.729823e-05,6.3522657e-06,0.0,0.0,0.0
625968000,0,4.3376876e-05,4.1565287e-05,5.712111e-08,0.0,0.0,0.0
625976000,0,-0.00039308504,-0.00014161893,-1.7400605e-06,0.0,0.0,0.0
625988000,0,3.967681e-05,4.387404e-05,5.4480175e-08,0.0,0.0,0.0
625992000,0,4.4129007e-05,4.061318e-05,5.751403e-08,0.0,0.0,0.0
626008000,0,-0.0003281759,2.1046724e-06,-1.0516064e-06,0.0,0.0,0.0
626016000,0,-0.00033091998,3.4938155e-06,-1.1008115e-06,0.0,0.0,0.0
626028000,0,0.0005256666,-1.1953734e-05,6.3812713e-06,0.0,0.0,0.0
626036000,0,0.0005241735,-1.0498807e-05,6.3395532e-06,0.0,0.0,0.0
626048000,0,0.00052681006,-1.4306128e-05,6.375329e-06,0.0,0.0,0.0
626056000,0,4.309928e-05,4.1589392e-05,5.681658e-08,0.0,0.0,0.0
626068000,0,0.00052900106,-1.4206381e-05,6.4081405e-06,0.0,0.0,0.0
626076000,0,3.9569863e-05,4.488607e-05,5.4627584e-08,0.0,0.0,0.0
626088000,0,-0.00039432608,-0.00014966338,-1.5016931e-06,0.0,0.0,0.0
626096000,0,-0.00033353435,8.21648e-06,-1.2196138e-06,0.0,0.0,0.0
626108000,0,-0.00060903863,-0.00033337806,-1.7517204e-06,0.0,0.0,0.0
626116000,0,4.7361355e-05,4.2778698e-05,6.100986e-08,0.0,0.0,0.0
626128000,0,4.3664382e-05,4.1847637e-05,5.7375622e-08,0.0,0.0,0.0
626136000,0,0.0005205705,-3.6837838e-07,6.325123e-06,0.0,0.0,0.0
626148000,0,4.4282406e-05,4.233404e-05,5.8024664e-08,0.0,0.0,0.0
626156000,0,-0.00035432086,-5.4392855e-05,-1.6910337e-06,0.0,0.0,0.0
626168000,0,0.00052148383,-1.0036969e-05,6.3166735e-06,0.0,0.0,0.0
626176000,0,-0.0005881905,-0.0003074994,-1.8578722e-06,0.0,0.0,0.0
626188000,0,4.329643e-05,4.3121574e-05,5.7321124e-08,0.0,0.0,0.0
626196000,0,0.00052773906,-1.33429485e-05,6.409793e-06,0.0,0.0,0.0
626208000,0,4.445113e-05,4.269544e-05,5.8209174e-08,0.0,0.0,0.0
626216000,0,-0.00038290452,-0.00013522562,-1.6699811e-06,0.0,0.0,0.0
626228000,0,0.00051984173,-1.0287042e-05,6.2865606e-06,0.0,0.0,0.0
626236000,0,-0.0006506459,-0.00035466097,-1.9173447e-06,0.0,0.0,0.0
626248000,0,4.3395117e-05,4.3620177e-05,5.746179e-08,0.0,0.0,0.0
626256000,0,4.3326385e-05,4.2318377e-05,5.713797e-08,0.0,0.0,0.0
626268000,0,-0.00033943215,1.8702185e-06,-6.947437e-07,0.0,0.0,0.0
626276000,0,4.407136e-05,3.933462e-05,5.691457e-08,0.0,0.0,0.0
626288000,0,0.00054372597,1.2031215e-05,6.544637e-06,0.0,0.0,0.0
626296000,0,0.0006060867,-4.084578e-05,6.3330663e-06,0.0,0.0,0.0
626308000,0,0.00054696016,1.5676209e-05,6.3859316e-06,0.0,0.0,0.0
626316000,0,4.3256103e-05,4.248642e-05,5.6995095e-08,0.0,0.0,0.0
626328000,0,4.3578606e-05,4.2698757e-05,5.737434e-08,0.0,0.0,0.0
626336000,0,-0.00035816885,-6.4915046e-05,-1.7658709e-06,0.0,0.0,0.0
626348000,0,4.3553147e-05,4.241856e-05,5.7322097e-08,0.0,0.0,0.0
626356000,0,-0.0003777722,-0.00011207688,-1.791732e-06,0.0,0.0,0.0
626368000,0,0.0005479636,2.5016523e-05,6.5476324e-06,0.0,0.0,0.0
626376000,0,-0.0005127394,-0.00024978124,-1.7451553e-06,0.0,0.0,0.0
626388000,0,3.959848e-05,4.468335e-05,5.4349684e-08,0.0,0.0,0.0
626396000,0,4.3418066e-05,4.1266507e-05,5.6841134e-08,0.0,0.0,0.0
626408000,0,0.0005964622,-2.8667884e-05,6.388799e-06,0.0,0.0,0.0
626416000,0,-0.00046094804,-0.11529192,-0.00016100639,0.0,0.0,0.0
626428000,0,4.332686e-05,4.357964e-05,4.1682533e-08,0.0,0.0,0.0
626436000,0,4.325367e-05,4.315977e-05,4.1698584e-08,0.0,0.0,0.0
626448000,0,4.310354e-05,4.1491126e-05,4.1277623e-08,0.0,0.0,0.0
626456000,0,4.3137425e-05,4.1705396e-05,4.1372132e-08,0.0,0.0,0.0
626468000,0,4.3234282e-05,4.2497082e-05,4.1583935e-08,0.0,0.0,0.0
626476000,0,4.322972e-05,4.2488326e-05,4.158063e-08,0.0,0.0,0.0
626484000,0,4.3196953e-05,4.215257e-05,4.1498712e-08,0.0,0.0,0.0
626492000,0,4.31606e-05,4.14346e-05,4.135334e-08,0.0,0.0,0.0
626508000,0,4.3204167e-05,4.240949e-05,4.1540765e-08,0.0,0.0,0.0
626516000,0,4.3106025e-05,4.2229258e-05,4.143769e-08,0.0,0.0,0.0
626528000,0,4.2816744e-05,3.9251398e-05,4.075866e-08,0.0,0.0,0.0
626536000,0,4.2981126e-05,4.2257845e-05,4.1367272e-08,0.0,0.0,0.0
626548000,0,4.305996e-05,4.2951327e-05,4.1553946e-08,0.0,0.0,0.0
626556000,0,4.2751784e-05,4.0851577e-05,4.1022087e-08,0.0,0.0,0.0
626568000,0,4.298874e-05,4.234159e-05,4.1422478e-08,0.0,0.0,0.0
626576000,0,4.2960466e-05,4.2512518e-05,4.1439282e-08,0.0,0.0,0.0
626588000,0,4.2900803e-05,4.2248193e-05,4.1362714e-08,0.0,0.0,0.0
626596000,0,4.2832165e-05,4.15607e-05,4.120228e-08,0.0,0.0,0.0
626608000,0,4.2902993e-05,4.216849e-05,4.13125e-08,0.0,0.0,0.0
626616000,0,4.2695287e-05,4.2649128e-05,4.131669e-08,0.0,0.0,0.0
626628000,0,4.270194e-05,4.057109e-05,4.0940872e-08,0.0,0.0,0.0
626636000,0,4.2748718e-05,4.107492e-05,4.106552e-08,0.0,0.0,0.0
626648000,0,4.2584776e-05,4.1011055e-05,4.0936175e-08,0.0,0.0,0.0
626656000,0,4.268946e-05,4.283836e-05,4.1344656e-08,0.0,0.0,0.0
626668000,0,4.245975e-05,4.0690324e-05,4.082391e-08,0.0,0.0,0.0
626676000,0,4.25346e-05,4.167603e-05,4.1047663e-08,0.0,0.0,0.0
626688000,0,4.251196e-05,4.181203e-05,4.1057888e-08,0.0,0.0,0.0
626696000,0,4.2459502e-05,4.10642e-05,4.0898286e-08,0.0,0.0,0.0
626708000,0,4.253284e-05,4.2396416e-05,4.1156415e-08,0.0,0.0,0.0
626716000,0,4.2448155e-05,4.1964544e-05,4.102308e-08,0.0,0.0,0.0
626728000,0,4.218421e-05,3.930409e-05,4.0410328e-08,0.0,0.0,0.0
626736000,0,4.241493e-05,4.239434e-05,4.1080163e-08,0.0,0.0,0.0
626748000,0,4.2070566e-05,4.0401737e-05,4.0535532e-08,0.0,0.0,0.0
626756000,0,4.2308566e-05,4.1656076e-05,4.0912862e-08,0.0,0.0,0.0
626768000,0,4.2257587e-05,4.2176544e-05,4.0966764e-08,0.0,0.0,0.0
626776000,0,4.217619e-05,4.1993913e-05,4.08821e-08,0.0,0.0,0.0
626788000,0,4.2021875e-05,4.0568342e-05,4.0527592e-08,0.0,0.0,0.0
626796000,0,4.2099025e-05,4.2432777e-05,4.0882917e-08,0.0,0.0,0.0
626808000,0,4.1850577e-05,3.9949e-05,4.0300492e-08,0.0,0.0,0.0
626816000,0,4.1968404e-05,4.055385e-05,4.0491678e-08,0.0,0.0,0.0
626828000,0,4.1963696e-05,4.2268588e-05,4.076276e-08,0.0,0.0,0.0
626836000,0,4.198698e-05,4.2373722e-05,4.0794355e-08,0.0,0.0,0.0
626848000,0,4.1744832e-05,4.1094947e-05,4.0456936e-08,0.0,0.0,0.0
626856000,0,4.172013e-05,4.119216e-05,4.0454708e-08,0.0,0.0,0.0
626868000,0,4.1626296e-05,4.017509e-05,4.0196028e-08,0.0,0.0,0.0
626876000,0,4.1462776e-05,4.086955e-05,4.025184e-08,0.0,0.0,0.0
626888000,0,4.1478e-05,3.947604e-05,3.9993257e-08,0.0,0.0,0.0
626896000,0,4.148843e-05,4.171554e-05,4.0357296e-08,0.0,0.0,0.0
626908000,0,4.121503e-05,3.9885603e-05,3.9896335e-08,0.0,0.0,0.0
626916000,0,4.147964e-05,4.134787e-05,4.0319208e-08,0.0,0.0,0.0
626928000,0,4.1372277e-05,4.1637242e-05,4.0294008e-08,0.0,0.0,0.0
626936000,0,4.1376676e-05,4.1273925e-05,4.0238525e-08,0.0,0.0,0.0
626948000,0,4.1205087e-05,4.1533356e-05,4.013689e-08,0.0,0.0,0.0
626956000,0,4.1181025e-05,4.1674946e-05,4.0148002e-08,0.0,0.0,0.0
626968000,0,4.1022915e-05,3.966415e-05,3.9723787e-08,0.0,0.0,0.0
626976000,0,4.1061754e-05,4.172516e-05,4.0073406e-08,0.0,0.0,0.0
626988000,0,4.0699244e-05,3.963009e-05,3.9497248e-08,0.0,0.0,0.0
626996000,0,4.073955e-05,4.0442916e-05,3.9663277e-08,0.0,0.0,0.0
627008000,0,4.072178e-05,4.0632694e-05,3.964262e-08,0.0,0.0,0.0
627016000,0,4.0766958e-05,4.129865e-05,3.9799204e-08,0.0,0.0,0.0
627028000,0,4.0544764e-05,3.926241e-05,3.9329773e-08,0.0,0.0,0.0
627036000,0,4.0575156e-05,4.0904637e-05,3.9615127e-08,0.0,0.0,0.0
627048000,0,4.0312214e-05,4.006866e-05,3.931225e-08,0.0,0.0,0.0
627056000,0,4.042252e-05,4.101962e-05,3.9534854e-08,0.0,0.0,0.0
627068000,0,4.0369214e-05,4.074857e-05,3.9448228e-08,0.0,0.0,0.0
627076000,0,3.997666e-05,3.899875e-05,3.890358e-08,0.0,0.0,0.0
627084000,0,4.026998e-05,4.0747713e-05,3.9375365e-08,0.0,0.0,0.0
627096000,0,4.006948e-05,3.9119008e-05,3.897152e-08,0.0,0.0,0.0
627108000,0,4.0081257e-05,4.113721e-05,3.928369e-08,0.0,0.0,0.0
627116000,0,3.9796265e-05,3.9597388e-05,3.88721e-08,0.0,0.0,0.0
627128000,0,3.9536717e-05,3.9106184e-05,3.8574488e-08,0.0,0.0,0.0
627136000,0,3.981385e-05,4.0865238e-05,3.9039826e-08,0.0,0.0,0.0
627148000,0,3.9578368e-05,3.9090613e-05,3.8617546e-08,0.0,0.0,0.0
627156000,0,3.9631937e-05,4.0467745e-05,3.8874774e-08,0.0,0.0,0.0
627168000,0,3.939362e-05,3.9844363e-05,3.8611454e-08,0.0,0.0,0.0
627176000,0,3.938911e-05,4.044325e-05,3.8708098e-08,0.0,0.0,0.0
627188000,0,3.9044822e-05,3.9222483e-05,3.8277282e-08,0.0,0.0,0.0
627196000,0,3.9096703e-05,3.9651466e-05,3.8375003e-08,0.0,0.0,0.0
627208000,0,3.8974773e-05,3.8594975e-05,3.8096623e-08,0.0,0.0,0.0
627216000,0,3.888883e-05,3.947534e-05,3.820352e-08,0.0,0.0,0.0
627228000,0,3.8646747e-05,3.8879578e-05,3.792314e-08,0.0,0.0,0.0
627236000,0,3.8516402e-05,3.8617898e-05,3.7760145e-08,0.0,0.0,0.0
627248000,0,3.8558377e-05,3.866405e-05,3.7813006e-08,0.0,0.0,0.0
627256000,0,3.841203e-05,3.8353974e-05,3.765398e-08,0.0,0.0,0.0
627268000,0,3.8127848e-05,3.8545582e-05,3.7472518e-08,0.0,0.0,0.0
627276000,0,3.8312377e-05,3.954181e-05,3.7778317e-08,0.0,0.0,0.0
627288000,0,3.8073496e-05,3.9343387e-05,3.7582915e-08,0.0,0.0,0.0
627296000,0,3.7911665e-05,3.8522223e-05,3.7309288e-08,0.0,0.0,0.0
627308000,0,3.7916838e-05,3.7901664e-05,3.7220538e-08,0.0,0.0,0.0
627316000,0,3.797803e-05,3.9605504e-05,3.751971e-08,0.0,0.0,0.0
627328000,0,3.753701e-05,3.813977e-05,3.6996262e-08,0.0,0.0,0.0
627336000,0,3.7688806e-05,3.957584e-05,3.730299e-08,0.0,0.0,0.0
627348000,0,3.745378e-05,3.8541468e-05,3.698473e-08,0.0,0.0,0.0
627356000,0,3.7152182e-05,3.755197e-05,3.659428e-08,0.0,0.0,0.0
627368000,0,3.7125395e-05,3.825798e-05,3.6709515e-08,0.0,0.0,0.0
627376000,0,3.7186852e-05,3.914823e-05,3.6882454e-08,0.0,0.0,0.0
627388000,0,3.6741807e-05,3.7524627e-05,3.630401e-08,0.0,0.0,0.0
627396000,0,3.6784844e-05,3.8909686e-05,3.653511e-08,0.0,0.0,0.0
627408000,0,3.6728714e-05,3.895423e-05,3.649398e-08,0.0,0.0,0.0
627416000,0,3.6340865e-05,3.7138278e-05,3.595353e-08,0.0,0.0,0.0
627428000,0,3.6362697e-05,3.81038e-05,3.609701e-08,0.0,0.0,0.0
627436000,0,3.6299e-05,3.795901e-05,3.603759e-08,0.0,0.0,0.0
627448000,0,3.6029985e-05,3.8210164e-05,3.5872574e-08,0.0,0.0,0.0
627456000,0,3.5885223e-05,3.7445996e-05,3.5655905e-08,0.0,0.0,0.0
627468000,0,3.5792196e-05,3.818713e-05,3.5711864e-08,0.0,0.0,0.0
627476000,0,3.5389003e-05,3.64191e-05,3.51229e-08,0.0,0.0,0.0
627488000,0,3.5388548e-05,3.6230907e-05,3.507297e-08,0.0,0.0,0.0
627492000,0,3.5331e-05,3.7867e-05,3.52796e-08,0.0,0.0,0.0
627504000,0,3.4966804e-05,3.625487e-05,3.478314e-08,0.0,0.0,0.0
627512000,0,3.51672e-05,3.8045528e-05,3.518487e-08,0.0,0.0,0.0
627528000,0,3.4667766e-05,3.6575595e-05,3.4584183e-08,0.0,0.0,0.0
627536000,0,3.4454926e-05,3.587888e-05,3.433977e-08,0.0,0.0,0.0
627548000,0,3.4395973e-05,3.7392343e-05,3.45279e-08,0.0,0.0,0.0
627556000,0,3.4048597e-05,3.5852707e-05,3.4031615e-08,0.0,0.0,0.0
627568000,0,3.405724e-05,3.535086e-05,3.3934374e-08,0.0,0.0,0.0
627576000,0,3.389217e-05,3.6187303e-05,3.3917345e-08,0.0,0.0,0.0
627588000,0,3.3918586e-05,3.6578618e-05,3.402645e-08,0.0,0.0,0.0
627596000,0,3.4026816e-05,3.688519e-05,3.414864e-08,0.0,0.0,0.0
627608000,0,3.3666784e-05,3.727393e-05,3.3982293e-08,0.0,0.0,0.0
627612000,0,3.3503806e-05,3.537245e-05,3.3541074e-08,0.0,0.0,0.0
627628000,0,3.361233e-05,3.686224e-05,3.3853624e-08,0.0,0.0,0.0
627636000,0,3.3613265e-05,3.7102396e-05,3.3875143e-08,0.0,0.0,0.0
627648000,0,3.3464887e-05,3.6645153e-05,3.3735873e-08,0.0,0.0,0.0
627656000,0,3.3347715e-05,3.5213274e-05,3.341245e-08,0.0,0.0,0.0
627668000,0,3.363233e-05,3.639887e-05,3.3801e-08,0.0,0.0,0.0
627676000,0,3.3472992e-05,3.603483e-05,3.3633977e-08,0.0,0.0,0.0
627688000,0,3.3185628e-05,3.5379002e-05,3.3316326e-08,0.0,0.0,0.0
627696000,0,3.3287957e-05,3.6775633e-05,3.3619497e-08,0.0,0.0,0.0
627704000,0,3.320803e-05,3.6301746e-05,3.3492757e-08,0.0,0.0,0.0
627716000,0,3.3115914e-05,3.4293542e-05,3.3081303e-08,0.0,0.0,0.0
627728000,0,3.302269e-05,3.5005833e-05,3.3155995e-08,0.0,0.0,0.0
627736000,0,3.317002e-05,3.677835e-05,3.3521122e-08,0.0,0.0,0.0
627748000,0,3.310363e-05,3.6209964e-05,3.3404707e-08,0.0,0.0,0.0
627756000,0,3.283313e-05,3.672099e-05,3.3311114e-08,0.0,0.0,0.0
627768000,0,3.30202e-05,3.6626036e-05,3.3414107e-08,0.0,0.0,0.0
627776000,0,3.2941018e-05,3.6448062e-05,3.3334864e-08,0.0,0.0,0.0
627788000,0,3.281041e-05,3.5783843e-05,3.3098566e-08,0.0,0.0,0.0
627796000,0,3.2878885e-05,3.6415044e-05,3.3247908e-08,0.0,0.0,0.0
627804000,0,3.2701413e-05,3.62653e-05,3.3101443e-08,0.0,0.0,0.0
627816000,0,3.2801094e-05,3.6376183e-05,3.3210938e-08,0.0,0.0,0.0
627828000,0,3.264295e-05,3.61014e-05,3.3082046e-08,0.0,0.0,0.0
627836000,0,3.2624244e-05,3.5968093e-05,3.3018882e-08,0.0,0.0,0.0
627848000,0,3.244117e-05,3.6146357e-05,3.2926735e-08,0.0,0.0,0.0
627856000,0,3.2443462e-05,3.6112462e-05,3.2897148e-08,0.0,0.0,0.0
627868000,0,3.242816e-05,3.5126384e-05,3.27252e-08,0.0,0.0,0.0
627876000,0,3.2187174e-05,3.5715326e-05,3.2697915e-08,0.0,0.0,0.0
627888000,0,3.2440483e-05,3.6148496e-05,3.2913846e-08,0.0,0.0,0.0
627896000,0,3.2112825e-05,3.471448e-05,3.244187e-08,0.0,0.0,0.0
627908000,0,3.2316602e-05,3.5990688e-05,3.279846e-08,0.0,0.0,0.0
627916000,0,3.214503e-05,3.624691e-05,3.2726863e-08,0.0,0.0,0.0
627928000,0,3.211207e-05,3.585842e-05,3.2627305e-08,0.0,0.0,0.0
627936000,0,3.2023738e-05,3.4645047e-05,3.2394784e-08,0.0,0.0,0.0
627948000,0,3.1991243e-05,3.5683297e-05,3.250743e-08,0.0,0.0,0.0
627956000,0,3.2057098e-05,3.5964684e-05,3.2619955e-08,0.0,0.0,0.0
627968000,0,3.1983276e-05,3.649906e-05,3.2634464e-08,0.0,0.0,0.0
627976000,0,3.1836924e-05,3.5416757e-05,3.236026e-08,0.0,0.0,0.0
627984000,0,3.1741205e-05,3.6103425e-05,3.2410117e-08,0.0,0.0,0.0
627996000,0,3.1337757e-05,3.4052737e-05,3.1791103e-08,0.0,0.0,0.0
628004000,0,3.1366973e-05,3.4316716e-05,3.188528e-08,0.0,0.0,0.0
628016000,0,3.153101e-05,3.5255187e-05,3.211073e-08,0.0,0.0,0.0
628028000,0,3.1664735e-05,3.5757825e-05,3.230617e-08,0.0,0.0,0.0
628036000,0,3.1493404e-05,3.592324e-05,3.217575e-08,0.0,0.0,0.0
628048000,0,3.126346e-05,3.543281e-05,3.196976e-08,0.0,0.0,0.0
628056000,0,3.1174415e-05,3.553379e-05,3.1917075e-08,0.0,0.0,0.0
628068000,0,3.098423e-05,3.4264616e-05,3.1578406e-08,0.0,0.0,0.0
628076000,0,3.0870804e-05,3.2821135e-05,3.1256192e-08,0.0,0.0,0.0
628088000,0,3.101711e-05,3.517271e-05,3.173139e-08,0.0,0.0,0.0
628096000,0,3.104255e-05,3.5347537e-05,3.1777073e-08,0.0,0.0,0.0
628108000,0,3.0911415e-05,3.506287e-05,3.16115e-08,0.0,0.0,0.0
628116000,0,3.0997053e-05,3.562334e-05,3.1808813e-08,0.0,0.0,0.0
628128000,0,3.071816e-05,3.4728364e-05,3.146699e-08,0.0,0.0,0.0
628136000,0,3.0569983e-05,3.4590274e-05,3.1324102e-08,0.0,0.0,0.0
628148000,0,3.0650746e-05,3.4920886e-05,3.140444e-08,0.0,0.0,0.0
628156000,0,3.0637493e-05,3.5148056e-05,3.144889e-08,0.0,0.0,0.0
628168000,0,3.043653e-05,3.3789587e-05,3.1089197e-08,0.0,0.0,0.0
628176000,0,3.0409248e-05,3.3767734e-05,3.1073316e-08,0.0,0.0,0.0
628188000,0,3.032815e-05,3.513322e-05,3.124018e-08,0.0,0.0,0.0
628196000,0,3.0084804e-05,3.384106e-05,3.085784e-08,0.0,0.0,0.0
628208000,0,2.9905881e-05,3.2242253e-05,3.0439598e-08,0.0,0.0,0.0
628212000,0,3.011478e-05,3.4572473e-05,3.0958283e-08,0.0,0.0,0.0
628228000,0,3.0203371e-05,3.4861037e-05,3.1092117e-08,0.0,0.0,0.0
628236000,0,3.0123138e-05,3.542358e-05,3.109165e-08,0.0,0.0,0.0
628248000,0,2.9903302e-05,3.4863322e-05,3.0873775e-08,0.0,0.0,0.0
628256000,0,2.9877736e-05,3.4643555e-05,3.0825618e-08,0.0,0.0,0.0
628268000,0,2.9735107e-05,3.4255474e-05,3.0644003e-08,0.0,0.0,0.0
628276000,0,2.9767409e-05,3.4176377e-05,3.0637914e-08,0.0,0.0,0.0
628288000,0,2.9631134e-05,3.4636876e-05,3.0619326e-08,0.0,0.0,0.0
628296000,0,2.9483948e-05,3.3647528e-05,3.0339738e-08,0.0,0.0,0.0
628308000,0,2.9519484e-05,3.434072e-05,3.0510382e-08,0.0,0.0,0.0
628316000,0,2.9408804e-05,3.4587636e-05,3.0470762e-08,0.0,0.0,0.0
628328000,0,2.8838116e-05,3.1825886e-05,2.9592238e-08,0.0,0.0,0.0
628336000,0,2.9186416e-05,3.245987e-05,2.9926564e-08,0.0,0.0,0.0
628348000,0,2.925251e-05,3.4368826e-05,3.0298278e-08,0.0,0.0,0.0
628356000,0,2.920385e-05,3.407782e-05,3.021016e-08,0.0,0.0,0.0
628368000,0,2.8860846e-05,3.2711592e-05,2.9766277e-08,0.0,0.0,0.0
628376000,0,2.8949778e-05,3.4230623e-05,3.0062637e-08,0.0,0.0,0.0
628388000,0,2.8710136e-05,3.2929573e-05,2.9683633e-08,0.0,0.0,0.0
628396000,0,2.8374492e-05,3.2134187e-05,2.9261175e-08,0.0,0.0,0.0
628408000,0,2.8703738e-05,3.395851e-05,2.9819105e-08,0.0,0.0,0.0
628412000,0,2.8716666e-05,3.4100303e-05,2.985275e-08,0.0,0.0,0.0
628424000,0,2.8733766e-05,3.3957564e-05,2.9821567e-08,0.0,0.0,0.0
628436000,0,2.8402597e-05,3.3893568e-05,2.9595357e-08,0.0,0.0,0.0
628448000,0,2.820374e-05,3.3236425e-05,2.9344715e-08,0.0,0.0,0.0
628456000,0,2.7925053e-05,3.189609e-05,2.8926012e-08,0.0,0.0,0.0
628464000,0,2.8222115e-05,3.2758526e-05,2.9272318e-08,0.0,0.0,0.0
628476000,0,2.8168157e-05,3.3759672e-05,2.9388929e-08,0.0,0.0,0.0
628488000,0,2.8172706e-05,3.3823813e-05,2.9391597e-08,0.0,0.0,0.0
628496000,0,2.7866326e-05,3.3519602e-05,2.913699e-08,0.0,0.0,0.0
628508000,0,2.7864815e-05,3.3161465e-05,2.9084262e-08,0.0,0.0,0.0
628516000,0,2.761971e-05,3.2511296e-05,2.8743948e-08,0.0,0.0,0.0
628528000,0,2.7705473e-05,3.3329547e-05,2.8969422e-08,0.0,0.0,0.0
628536000,0,2.7648484e-05,3.3449025e-05,2.8946912e-08,0.0,0.0,0.0
628548000,0,2.7640837e-05,3.3426546e-05,2.8928348e-08,0.0,0.0,0.0
628556000,0,2.7367054e-05,3.3190157e-05,2.8704443e-08,0.0,0.0,0.0
628568000,0,2.7055119e-05,3.2576645e-05,2.836532e-08,0.0,0.0,0.0
628576000,0,2.6873746e-05,3.1932363e-05,2.8087706e-08,0.0,0.0,0.0
628588000,0,2.7093549e-05,3.3055192e-05,2.8460061e-08,0.0,0.0,0.0
628596000,0,2.69173e-05,3.297458e-05,2.8307783e-08,0.0,0.0,0.0
628608000,0,2.6744525e-05,3.3203778e-05,2.820127e-08,0.0,0.0,0.0
628616000,0,2.6593052e-05,3.27568e-05,2.8036188e-08,0.0,0.0,0.0
628628000,0,2.652001e-05,3.1818432e-05,2.7847364e-08,0.0,0.0,0.0
628636000,0,2.6526219e-05,3.2075033e-05,2.7852115e-08,0.0,0.0,0.0
628648000,0,2.648913e-05,3.2807413e-05,2.7963763e-08,0.0,0.0,0.0
628656000,0,2.6442742e-05,3.258158e-05,2.7890223e-08,0.0,0.0,0.0
628668000,0,2.6264894e-05,3.1577565e-05,2.760657e-08,0.0,0.0,0.0
628676000,0,2.616161e-05,3.262031e-05,2.7694032e-08,0.0,0.0,0.0
628688000,0,2.5791163e-05,3.0939285e-05,2.7147989e-08,0.0,0.0,0.0
628692000,0,2.5529835e-05,3.0009134e-05,2.6819865e-08,0.0,0.0,0.0
628708000,0,2.6023366e-05,3.2586504e-05,2.7575915e-08,0.0,0.0,0.0
628716000,0,2.599956e-05,3.2156328e-05,2.7461851e-08,0.0,0.0,0.0
628728000,0,2.5486768e-05,3.1818832e-05,2.7043457e-08,0.0,0.0,0.0
628736000,0,2.5549238e-05,3.219275e-05,2.7147392e-08,0.0,0.0,0.0
628748000,0,2.5127198e-05,2.9998186e-05,2.6513277e-08,0.0,0.0,0.0
628756000,0,2.5329267e-05,3.083806e-05,2.6748115e-08,0.0,0.0,0.0
628764000,0,2.5276517e-05,3.2009484e-05,2.689024e-08,0.0,0.0,0.0
628776000,0,2.498318e-05,3.1201293e-05,2.6534066e-08,0.0,0.0,0.0
628788000,0,2.4919389e-05,3.1849737e-05,2.6613684e-08,0.0,0.0,0.0
628796000,0,2.4872588e-05,3.157584e-05,2.654359e-08,0.0,0.0,0.0
628808000,0,2.4684634e-05,3.1001346e-05,2.6321542e-08,0.0,0.0,0.0
628816000,0,2.4785575e-05,3.1636995e-05,2.6462631e-08,0.0,0.0,0.0
628828000,0,2.4825742e-05,3.154898e-05,2.6453735e-08,0.0,0.0,0.0
628836000,0,2.4290915e-05,3.11487e-05,2.5988411e-08,0.0,0.0,0.0
628848000,0,2.4282788e-05,3.1537056e-05,2.607616e-08,0.0,0.0,0.0
628856000,0,2.4180406e-05,3.124061e-05,2.5917977e-08,0.0,0.0,0.0
628868000,0,2.4135517e-05,3.0550254e-05,2.5784901e-08,0.0,0.0,0.0
628876000,0,2.4081788e-05,3.1326093e-05,2.586762e-08,0.0,0.0,0.0
628888000,0,2.4146848e-05,3.1867115e-05,2.5955835e-08,0.0,0.0,0.0
628896000,0,2.3694332e-05,3.096112e-05,2.5518961e-08,0.0,0.0,0.0
628908000,0,2.3703353e-05,3.035702e-05,2.54177e-08,0.0,0.0,0.0
628916000,0,2.3438053e-05,2.9892273e-05,2.5150468e-08,0.0,0.0,0.0
628928000,0,2.3484872e-05,3.0944055e-05,2.5338975e-08,0.0,0.0,0.0
628936000,0,2.3413015e-05,3.075154e-05,2.5255591e-08,0.0,0.0,0.0
628948000,0,2.3187347e-05,3.0471767e-05,2.5045638e-08,0.0,0.0,0.0
628956000,0,2.3046265e-05,3.0767427e-05,2.4975712e-08,0.0,0.0,0.0
628968000,0,2.2704713e-05,2.9317978e-05,2.4488791e-08,0.0,0.0,0.0
628976000,0,2.286316e-05,2.9873801e-05,2.4689822e-08,0.0,0.0,0.0
628988000,0,2.2796088e-05,3.054813e-05,2.473411e-08,0.0,0.0,0.0
628996000,0,2.2497934e-05,3.0421132e-05,2.449991e-08,0.0,0.0,0.0
629008000,0,2.2331758e-05,3.0409845e-05,2.4362423e-08,0.0,0.0,0.0
629016000,0,2.2178343e-05,2.9076646e-05,2.4053868e-08,0.0,0.0,0.0
629028000,0,2.2180682e-05,2.925193e-05,2.4060984e-08,0.0,0.0,0.0
629036000,0,2.1987911e-05,3.0025525e-05,2.4024752e-08,0.0,0.0,0.0
629048000,0,2.1858732e-05,3.0116476e-05,2.3936472e-08,0.0,0.0,0.0
629056000,0,2.1775808e-05,2.9964354e-05,2.3857512e-08,0.0,0.0,0.0
629068000,0,2.1685095e-05,2.9353845e-05,2.3692628e-08,0.0,0.0,0.0
629076000,0,2.1665632e-05,3.0097417e-05,2.376911e-08,0.0,0.0,0.0
629088000,0,2.1397878e-05,2.9726256e-05,2.35114e-08,0.0,0.0,0.0
629096000,0,2.1429025e-05,2.9448129e-05,2.349535e-08,0.0,0.0,0.0
629108000,0,2.1227299e-05,2.9740364e-05,2.3398414e-08,0.0,0.0,0.0
629116000,0,2.087338e-05,2.914306e-05,2.3041144e-08,0.0,0.0,0.0
629128000,0,2.0800693e-05,2.8973167e-05,2.2930612e-08,0.0,0.0,0.0
629136000,0,2.0637834e-05,2.9180052e-05,2.283079e-08,0.0,0.0,0.0
629148000,0,2.0518897e-05,2.8585533e-05,2.2648985e-08,0.0,0.0,0.0
629156000,0,2.0459487e-05,2.9065419e-05,2.2691651e-08,0.0,0.0,0.0
629164000,0,2.0400583e-05,2.892135e-05,2.2614573e-08,0.0,0.0,0.0
629176000,0,2.0165515e-05,2.8303803e-05,2.2336422e-08,0.0,0.0,0.0
629188000,0,2.0094663e-05,2.894656e-05,2.2350639e-08,0.0,0.0,0.0
629196000,0,1.985154e-05,2.8666604e-05,2.2115966e-08,0.0,0.0,0.0
629208000,0,1.9660974e-05,2.8796478e-05,2.2009992e-08,0.0,0.0,0.0
629216000,0,1.951266e-05,2.8287075e-05,2.1817566e-08,0.0,0.0,0.0
629228000,0,1.9704465e-05,2.8972447e-05,2.2045045e-08,0.0,0.0,0.0
629236000,0,1.9429912e-05,2.833934e-05,2.1738073e-08,0.0,0.0,0.0
629248000,0,1.915439e-05,2.7731263e-05,2.1419995e-08,0.0,0.0,0.0
629256000,0,1.9088395e-05,2.8407954e-05,2.1489472e-08,0.0,0.0,0.0
629264000,0,1.904738e-05,2.7762639e-05,2.1363599e-08,0.0,0.0,0.0
629276000,0,1.8745495e-05,2.7604297e-05,2.109069e-08,0.0,0.0,0.0
629288000,0,1.8230116e-05,2.785627e-05,2.0704345e-08,0.0,0.0,0.0
629296000,0,1.7344308e-05,2.6869791e-05,1.9834756e-08,0.0,0.0,0.0
629308000,0,1.6727938e-05,2.7473065e-05,1.9437309e-08,0.0,0.0,0.0
629316000,0,1.6172042e-05,2.6687407e-05,1.8864446e-08,0.0,0.0,0.0
629328000,0,1.5926536e-05,2.5708721e-05,1.8513136e-08,0.0,0.0,0.0
629336000,0,1.5946367e-05,2.6642689e-05,1.8683362e-08,0.0,0.0,0.0
629348000,0,1.5794338e-05,2.608495e-05,1.8483256e-08,0.0,0.0,0.0
629356000,0,1.5654632e-05,2.5766252e-05,1.8318786e-08,0.0,0.0,0.0
629368000,0,1.5369294e-05,2.5929714e-05,1.8105192e-08,0.0,0.0,0.0
629376000,0,1.5260393e-05,2.5616708e-05,1.7957438e-08,0.0,0.0,0.0
629388000,0,1.5046543e-05,2.573521e-05,1.7813147e-08,0.0,0.0,0.0
629396000,0,1.50098995e-05,2.6398957e-05,1.7897733e-08,0.0,0.0,0.0
629408000,0,1.4775109e-05,2.5913947e-05,1.7625526e-08,0.0,0.0,0.0
629416000,0,1.4659944e-05,2.5614605e-05,1.7472804e-08,0.0,0.0,0.0
629428000,0,1.4763173e-05,2.6088224e-05,1.7623083e-08,0.0,0.0,0.0
629436000,0,1.4366648e-05,2.585013e-05,1.7262696e-08,0.0,0.0,0.0
629448000,0,1.3920197e-05,2.5400526e-05,1.6839262e-08,0.0,0.0,0.0
629456000,0,1.3866997e-05,2.5245698e-05,1.6787192e-08,0.0,0.0,0.0
629468000,0,1.3956253e-05,2.5226396e-05,1.686306e-08,0.0,0.0,0.0
629476000,0,1.37847865e-05,2.537436e-05,1.6744092e-08,0.0,0.0,0.0
629488000,0,1.3555531e-05,2.564498e-05,1.6588181e-08,0.0,0.0,0.0
629496000,0,1.3396123e-05,2.5205618e-05,1.6405647e-08,0.0,0.0,0.0
629508000,0,1.3347485e-05,2.473455e-05,1.6288682e-08,0.0,0.0,0.0
629516000,0,1.330372e-05,2.5239484e-05,1.6317957e-08,0.0,0.0,0.0
629528000,0,1.3055658e-05,2.5432984e-05,1.6156598e-08,0.0,0.0,0.0
629536000,0,1.2851993e-05,2.507225e-05,1.5947055e-08,0.0,0.0,0.0
629548000,0,1.2379711e-05,2.4048924e-05,1.5422243e-08,0.0,0.0,0.0
629556000,0,1.2128993e-05,2.394817e-05,1.521619e-08,0.0,0.0,0.0
629568000,0,1.2139143e-05,2.4297342e-05,1.525149e-08,0.0,0.0,0.0
629576000,0,1.2067765e-05,2.4080482e-05,1.516039e-08,0.0,0.0,0.0
629588000,0,1.2031614e-05,2.4241746e-05,1.5163835e-08,0.0,0.0,0.0
629596000,0,1.16415995e-05,2.3960283e-05,1.4750475e-08,0.0,0.0,0.0
629608000,0,1.11818335e-05,2.3583387e-05,1.43334224e-08,0.0,0.0,0.0
629616000,0,1.1072003e-05,2.3652292e-05,1.4248516e-08,0.0,0.0,0.0
629628000,0,1.0569195e-05,2.3187347e-05,1.3778941e-08,0.0,0.0,0.0
629636000,0,9.933756e-06,2.2079663e-05,1.3083531e-08,0.0,0.0,0.0
629648000,0,9.946686e-06,2.285648e-05,1.3193229e-08,0.0,0.0,0.0
629656000,0,1.0053937e-05,2.411944e-05,1.3448273e-08,0.0,0.0,0.0
629668000,0,9.821769e-06,2.2763905e-05,1.3083498e-08,0.0,0.0,0.0
629676000,0,9.345972e-06,2.2112798e-05,1.2594178e-08,0.0,0.0,0.0
629688000,0,9.327139e-06,2.218383e-05,1.2556142e-08,0.0,0.0,0.0
629696000,0,9.168821e-06,2.2540558e-05,1.2467407e-08,0.0,0.0,0.0
629708000,0,8.823166e-06,2.260826e-05,1.2270653e-08,0.0,0.0,0.0
629716000,0,8.428641e-06,2.1978249e-05,1.1858394e-08,0.0,0.0,0.0
629728000,0,8.062912e-06,2.2049744e-05,1.1553135e-08,0.0,0.0,0.0
629736000,0,7.593548e-06,2.2233144e-05,1.1212089e-08,0.0,0.0,0.0
629748000,0,8.194095e-06,2.2898173e-05,1.1840624e-08,0.0,0.0,0.0
629756000,0,7.786897e-06,2.1802181e-05,1.1344714e-08,0.0,0.0,0.0
629768000,0,7.997287e-06,2.2386506e-05,1.1572505e-08,0.0,0.0,0.0
629776000,0,7.770648e-06,2.2357939e-05,1.1396552e-08,0.0,0.0,0.0
629788000,0,7.261735e-06,2.2659935e-05,1.1015916e-08,0.0,0.0,0.0
629796000,0,6.7446476e-06,2.1024855e-05,1.034943e-08,0.0,0.0,0.0
629808000,0,6.6863004e-06,2.1803733e-05,1.0402155e-08,0.0,0.0,0.0
629816000,0,6.178633e-06,2.1410555e-05,9.954146e-09,0.0,0.0,0.0
629828000,0,6.010449e-06,2.2208525e-05,9.92246e-09,0.0,0.0,0.0
629836000,0,5.01329e-06,2.0019796e-05,8.786864e-09,0.0,0.0,0.0
629848000,0,5.141334e-06,2.0534726e-05,8.912805e-09,0.0,0.0,0.0
629856000,0,4.7517497e-06,2.0392828e-05,8.613282e-09,0.0,0.0,0.0
629864000,0,4.5582774e-06,2.0526737e-05,8.51804e-09,0.0,0.0,0.0
629876000,0,3.9875204e-06,1.9325465e-05,7.831896e-09,0.0,0.0,0.0
629888000,0,4.14803e-06,1.8961497e-05,7.728046e-09,0.0,0.0,0.0
629896000,0,4.2221295e-06,1.811721e-05,7.501444e-09,0.0,0.0,0.0
629908000,0,4.2089673e-06,1.863976e-05,7.518476e-09,0.0,0.0,0.0
629916000,0,1.1653371e-05,-0.00013538475,-1.0446365e-06,0.0,0.0,0.0
629928000,0,4.802376e-06,-0.0023909078,1.7930231e-06,0.0,0.0,0.0
629936000,0,3.1337067e-06,-0.004849459,2.701438e-06,0.0,0.0,0.0
629948000,0,2.1982485e-05,-0.009952153,0.00010642116,0.0,0.0,0.0
629956000,0,4.5419398e-05,-0.015239534,0.00022864877,0.0,0.0,0.0
629968000,0,7.1188144e-05,-0.025592595,0.00049216737,0.0,0.0,0.0
629972000,0,0.000109611865,-0.029559784,0.0006648945,0.0,0.0,0.0
629988000,0,-0.001428926,-0.04518945,0.0014373242,0.0,0.0,0.0
629996000,0,-0.0048197405,-0.05199644,0.0012841932,0.0,0.0,0.0
630008000,0,-0.010661627,-0.05984911,0.0008915417,0.0,0.0,0.0
630016000,0,-0.013773385,-0.063764535,0.0006918304,0.0,0.0,0.0
630028000,0,-0.019069325,-0.07092974,0.00044364115,0.0,0.0,0.0
630036000,0,-0.021468906,-0.0735878,0.00028263414,0.0,0.0,0.0
630048000,0,-0.023125613,-0.07618286,9.559668e-05,0.0,0.0,0.0
630056000,0,-0.023532052,-0.075666666,-7.295098e-05,0.0,0.0,0.0
630068000,0,-0.025825392,-0.07325593,-0.0002520935,0.0,0.0,0.0
630076000,0,-0.026926644,-0.07201569,-0.00028593198,0.0,0.0,0.0
630088000,0,-0.026018474,-0.06787819,-0.00028120805,0.0,0.0,0.0
630096000,0,-0.025130486,-0.067713395,-0.00031800434,0.0,0.0,0.0
630108000,0,-0.022060476,-0.06546256,-0.00047356173,0.0,0.0,0.0
630116000,0,-0.020448055,-0.062040545,-0.0005182322,0.0,0.0,0.0
630128000,0,-0.020065578,-0.05678344,-0.00055917003,0.0,0.0,0.0
630136000,0,-0.018729268,-0.05570587,-0.0005341557,0.0,0.0,0.0
630148000,0,-0.017342439,-0.053844642,-0.00053789426,0.0,0.0,0.0
630156000,0,-0.017408175,-0.053122334,-0.0005233267,0.0,0.0,0.0
630168000,0,-0.015604822,-0.047441293,-0.00062494,0.0,0.0,0.0
630176000,0,-0.014378325,-0.044379715,-0.0007372865,0.0,0.0,0.0
630188000,0,-0.013436573,-0.03923508,-0.0009099313,0.0,0.0,0.0
630196000,0,-0.015270366,-0.03517119,-0.000999892,0.0,0.0,0.0
630208000,0,-0.017989421,-0.03029282,-0.0011004052,0.0,0.0,0.0
630216000,0,-0.019766027,-0.028358098,-0.0011461712,0.0,0.0,0.0
630228000,0,-0.019699208,-0.020504462,-0.001217525,0.0,0.0,0.0
630236000,0,-0.01874624,-0.016958369,-0.0011623271,0.0,0.0,0.0
630248000,0,-0.01517383,-0.012206935,-0.0012207367,0.0,0.0,0.0
630256000,0,-0.010781946,-0.0077682603,-0.001331965,0.0,0.0,0.0
630264000,0,-0.0080287075,-0.0040218956,-0.001424856,0.0,0.0,0.0
630276000,0,-0.00667213,0.00048551493,-0.0014943327,0.0,0.0,0.0
630288000,0,-0.0051349443,0.0043458394,-0.0015329954,0.0,0.0,0.0
630296000,0,-0.0063854065,0.0063787242,-0.0015959288,0.0,0.0,0.0
630308000,0,-0.0086423345,0.008456615,-0.0016839209,0.0,0.0,0.0
630316000,0,-0.011137634,0.010377017,-0.0017669669,0.0,0.0,0.0
630328000,0,-0.013054283,0.010182245,-0.0018523667,0.0,0.0,0.0
630336000,0,-0.012148278,0.011250723,-0.0020237644,0.0,0.0,0.0
630348000,0,-0.00958052,0.014884172,-0.0024042998,0.0,0.0,0.0
630356000,0,-0.008272004,0.017146949,-0.002657998,0.0,0.0,0.0
630368000,0,-0.0059095654,0.021599198,-0.002986418,0.0,0.0,0.0
630376000,0,-0.006027067,0.025976114,-0.0031456102,0.0,0.0,0.0
630388000,0,-0.0063192337,0.030428793,-0.00337504,0.0,0.0,0.0
630396000,0,-0.00711006,0.031284228,-0.003473727,0.0,0.0,0.0
630408000,0,-0.0065622046,0.02986483,-0.003529578,0.0,0.0,0.0
630416000,0,-0.0072402405,0.029549748,-0.0035485714,0.0,0.0,0.0
630428000,0,-0.0066626365,0.030602727,-0.0037146625,0.0,0.0,0.0
630436000,0,-0.0073041474,0.031209057,-0.0038348716,0.0,0.0,0.0
630448000,0,-0.0070662755,0.0334678,-0.004118374,0.0,0.0,0.0
630456000,0,-0.0042568156,0.03688588,-0.0043892087,0.0,0.0,0.0
630468000,0,-0.0016531446,0.040202897,-0.0047241603,0.0,0.0,0.0
630476000,0,-0.0014490734,0.041106105,-0.0048744814,0.0,0.0,0.0
630488000,0,-0.0023135906,0.038039465,-0.0050929203,0.0,0.0,0.0
630496000,0,-0.0039029834,0.036274184,-0.005239167,0.0,0.0,0.0
630508000,0,-0.005167119,0.034353085,-0.0053564613,0.0,0.0,0.0
630516000,0,-0.004661756,0.033834778,-0.005379823,0.0,0.0,0.0
630528000,0,-0.00437695,0.037293926,-0.0054260474,0.0,0.0,0.0
630536000,0,-0.0033954594,0.040387552,-0.0054891496,0.0,0.0,0.0
630548000,0,-0.0034679403,0.042576473,-0.005580801,0.0,0.0,0.0
630556000,0,-0.0027935875,0.042186935,-0.005616066,0.0,0.0,0.0
630568000,0,-0.00046822688,0.04316254,-0.005646264,0.0,0.0,0.0
630576000,0,0.0009373197,0.042926047,-0.005670673,0.0,0.0,0.0
630588000,0,0.0022405894,0.04124949,-0.005628466,0.0,0.0,0.0
630596000,0,0.0027388907,0.03897516,-0.005538754,0.0,0.0,0.0
630608000,0,0.0032102175,0.034845043,-0.0053940797,0.0,0.0,0.0
630616000,0,0.0022121638,0.032794792,-0.005215751,0.0,0.0,0.0
630628000,0,0.0006276917,0.028699359,-0.0048794216,0.0,0.0,0.0
630636000,0,-0.0028135856,0.025862815,-0.004640076,0.0,0.0,0.0
630648000,0,-0.00653246,0.024510214,-0.004314792,0.0,0.0,0.0
630656000,0,-0.0078926915,0.023605604,-0.004009015,0.0,0.0,0.0
630668000,0,-0.00737712,0.023564085,-0.0034983994,0.0,0.0,0.0
630676000,0,-0.004051741,0.02399381,-0.0031509346,0.0,0.0,0.0
630688000,0,0.00229906,0.024918612,-0.002633156,0.0,0.0,0.0
630696000,0,0.0048400303,0.025639644,-0.002289762,0.0,0.0,0.0
630708000,0,0.0073016025,0.02609346,-0.0018010903,0.0,0.0,0.0
630716000,0,0.006159566,0.026183525,-0.00153508,0.0,0.0,0.0
630728000,0,0.0070924815,0.02479193,-0.0012126575,0.0,0.0,0.0
630736000,0,0.0087237,0.02275273,-0.0010214366,0.0,0.0,0.0
630748000,0,0.009978051,0.02074272,-0.00077194587,0.0,0.0,0.0
630756000,0,0.0084300265,0.019965269,-0.00065423915,0.0,0.0,0.0
630768000,0,0.004924159,0.019559197,-0.00046596577,0.0,0.0,0.0
630776000,0,0.0038933891,0.020511005,-0.00031889896,0.0,0.0,0.0
630788000,0,0.0027144982,0.020801708,-9.457594e-05,0.0,0.0,0.0
630796000,0,0.00073249626,0.019511303,6.045717e-05,0.0,0.0,0.0
630808000,0,-0.0023244352,0.01640087,0.00030682687,0.0,0.0,0.0
630816000,0,-0.004021381,0.01437889,0.00045096176,0.0,0.0,0.0
630828000,0,-0.0047516953,0.011614602,0.0005752761,0.0,0.0,0.0
630836000,0,-0.0035367627,0.00923573,0.0006159129,0.0,0.0,0.0
630848000,0,-0.00068989425,0.007485893,0.0005938769,0.0,0.0,0.0
630856000,0,-0.0010922006,0.0058279647,0.000534754,0.0,0.0,0.0
630868000,0,-0.0022785938,0.004194891,0.00042116793,0.0,0.0,0.0
630876000,0,-0.0029340948,0.0025917315,0.00027748483,0.0,0.0,0.0
630888000,0,-0.004362617,0.001825059,0.000110578956,0.0,0.0,0.0
630896000,0,-0.0055441116,0.00029442535,1.9415616e-05,0.0,0.0,0.0
630908000,0,-0.0069150436,-0.0013605795,-0.00010257553,0.0,0.0,0.0
630916000,0,-0.005847514,-0.0007181356,-0.00019801773,0.0,0.0,0.0
630924000,0,-0.003540191,-0.00093973905,-0.00025458794,0.0,0.0,0.0
630936000,0,-0.0010468177,-0.00096253015,-0.0002992974,0.0,0.0,0.0
630948000,0,-0.00044016348,-0.0005435394,-0.0003628874,0.0,0.0,0.0
630956000,0,0.0008799341,0.0007845955,-0.00043033517,0.0,0.0,0.0
630968000,0,0.003958489,0.0027679536,-0.00047479715,0.0,0.0,0.0
630976000,0,0.0063804174,0.003636608,-0.000490997,0.0,0.0,0.0
630988000,0,0.008597735,0.0038262939,-0.0004712799,0.0,0.0,0.0
630996000,0,0.008013286,0.0037947518,-0.00042637155,0.0,0.0,0.0
631008000,0,0.006745571,0.0028127278,-0.0003485548,0.0,0.0,0.0
631016000,0,0.0055090617,0.002589736,-0.00031206867,0.0,0.0,0.0
631028000,0,0.0033697705,0.0010149622,-0.00027721495,0.0,0.0,0.0
631036000,0,0.0021965548,0.00062844175,-0.00026196762,0.0,0.0,0.0
631048000,0,0.0009569037,-0.00071490987,-0.00020590147,0.0,0.0,0.0
631056000,0,-0.0002530283,-0.0013052813,-0.00014668271,0.0,0.0,0.0
631068000,0,-0.0017075955,-0.0031324525,-5.404235e-05,0.0,0.0,0.0
631076000,0,-0.001602033,-0.004907429,1.996833e-05,0.0,0.0,0.0
631088000,0,-0.0016816525,-0.005473119,0.00013972186,0.0,0.0,0.0
631096000,0,-0.00067233376,-0.0058302614,0.00021478516,0.0,0.0,0.0
631104000,0,0.0016048012,-0.005917816,0.00025763552,0.0,0.0,0.0
631116000,0,0.002195028,-0.0071572866,0.00021753463,0.0,0.0,0.0
631128000,0,0.0028732396,-0.010334121,0.00014013729,0.0,0.0,0.0
631136000,0,0.0031544494,-0.010510363,0.000111974354,0.0,0.0,0.0
631148000,0,0.003741251,-0.009501452,5.924227e-05,0.0,0.0,0.0
631156000,0,0.0044585937,-0.009167637,2.2056656e-05,0.0,0.0,0.0
631168000,0,0.0025132308,-0.008442285,-4.6142122e-05,0.0,0.0,0.0
631176000,0,0.0013365239,-0.007949763,-5.734379e-05,0.0,0.0,0.0
631188000,0,0.0008447827,-0.006581427,-4.9485723e-05,0.0,0.0,0.0
631196000,0,0.001774201,-0.006827756,-7.2108255e-06,0.0,0.0,0.0
631208000,0,0.0031236573,-0.0047868327,0.00014309285,0.0,0.0,0.0
631216000,0,0.0039560585,-0.0029519713,0.00028807018,0.0,0.0,0.0
631228000,0,0.0056205783,-0.0004109991,0.0005061005,0.0,0.0,0.0
631236000,0,0.0067189094,-0.0011441449,0.00065534515,0.0,0.0,0.0
631248000,0,0.008761094,-0.00069248374,0.00090749335,0.0,0.0,0.0
631256000,0,0.009979765,0.0011313225,0.0010629133,0.0,0.0,0.0
631268000,0,0.011948336,0.004096092,0.001279086,0.0,0.0,0.0
631276000,0,0.012052159,0.007265205,0.0014070404,0.0,0.0,0.0
631288000,0,0.010814293,0.012095518,0.0015312448,0.0,0.0,0.0
631296000,0,0.010555386,0.013438048,0.0016191279,0.0,0.0,0.0
631308000,0,0.011729339,0.013340669,0.0017908514,0.0,0.0,0.0
631316000,0,0.011614566,0.011466192,0.0018890483,0.0,0.0,0.0
631328000,0,0.010139503,0.009038176,0.0019830642,0.0,0.0,0.0
631336000,0,0.010109822,0.007881841,0.0020046022,0.0,0.0,0.0
631348000,0,0.008954199,0.0075959614,0.0020989375,0.0,0.0,0.0
631356000,0,0.00927207,0.0073917503,0.002156812,0.0,0.0,0.0
631368000,0,0.010142302,0.009069883,0.0022319043,0.0,0.0,0.0
631376000,0,0.008608692,0.009379316,0.0021895685,0.0,0.0,0.0
631388000,0,0.007106397,0.008415576,0.0021294667,0.0,0.0,0.0
631396000,0,0.0062500606,0.0072116726,0.0020734519,0.0,0.0,0.0
631408000,0,0.0045232535,0.005755084,0.0019163296,0.0,0.0,0.0
631416000,0,0.0044809883,0.005700449,0.0017526543,0.0,0.0,0.0
631428000,0,0.006074023,0.0049361144,0.0015190309,0.0,0.0,0.0
631436000,0,0.0061530727,0.0061684716,0.0013709244,0.0,0.0,0.0
631448000,0,0.006608582,0.005508682,0.001123077,0.0,0.0,0.0
631456000,0,0.007042773,0.0033713623,0.00095232384,0.0,0.0,0.0
631468000,0,0.0050270637,0.00074317557,0.00069203414,0.0,0.0,0.0
631476000,0,0.003727957,0.0010332307,0.00051307195,0.0,0.0,0.0
631488000,0,0.0034165569,0.0020426547,0.00025284078,0.0,0.0,0.0
631496000,0,0.0036911094,0.0025148902,9.494465e-05,0.0,0.0,0.0
631508000,0,0.003648335,0.002761455,-9.513564e-05,0.0,0.0,0.0
631516000,0,0.004553311,0.0017794673,-0.00020057498,0.0,0.0,0.0
631528000,0,0.004655626,0.0022540013,-0.000256157,0.0,0.0,0.0
631536000,0,0.0032599007,0.0018848864,-0.00025871865,0.0,0.0,0.0
631548000,0,0.001068844,-0.0014244299,-0.00019084678,0.0,0.0,0.0
631556000,0,-0.0003390926,-0.001960031,-0.00011536895,0.0,0.0,0.0
631568000,0,0.00053937646,-0.0028476433,1.240122e-06,0.0,0.0,0.0
631576000,0,0.0004969826,-0.0043142047,8.01197e-05,0.0,0.0,0.0
631588000,0,0.00048402432,-0.0053424197,0.00018706529,0.0,0.0,0.0
631596000,0,0.0015938053,-0.0064150277,0.00029268645,0.0,0.0,0.0
631608000,0,0.000734376,-0.0049353973,0.0005733257,0.0,0.0,0.0
631616000,0,0.00073257484,-0.0016866783,0.0007054385,0.0,0.0,0.0
631628000,0,0.000887164,0.00079598225,0.00090251,0.0,0.0,0.0
631636000,0,0.0016039712,0.00010026083,0.0010752479,0.0,0.0,0.0
631648000,0,0.0023827923,0.0014672349,0.001329168,0.0,0.0,0.0
631656000,0,0.002218213,0.0021737705,0.001475056,0.0,0.0,0.0
631668000,0,0.003593919,0.0012828975,0.0016233197,0.0,0.0,0.0
631676000,0,0.006031677,0.0014889978,0.0016694255,0.0,0.0,0.0
631688000,0,0.006130621,0.0014153899,0.001585427,0.0,0.0,0.0
631696000,0,0.0054866797,0.00083689904,0.0014941416,0.0,0.0,0.0
631708000,0,0.005251027,0.00095973694,0.0012677457,0.0,0.0,0.0
631716000,0,0.004355551,-0.00033030176,0.0011052446,0.0,0.0,0.0
631728000,0,0.004060556,-0.0010897466,0.00082039286,0.0,0.0,0.0
631736000,0,0.0038551847,-0.001396724,0.00064896146,0.0,0.0,0.0
631748000,0,0.003257779,-0.0015335386,0.00038730842,0.0,0.0,0.0
631756000,0,0.0027091939,-0.0008845914,0.00018916593,0.0,0.0,0.0
631768000,0,0.003792514,-0.000115181945,-0.00013611994,0.0,0.0,0.0
631776000,0,0.0039115376,-0.00036651324,-0.00036069294,0.0,0.0,0.0
631788000,0,0.004099883,-0.0003208008,-0.0006674447,0.0,0.0,0.0
631796000,0,0.005120459,0.0007544638,-0.00085846055,0.0,0.0,0.0
631808000,0,0.0058878916,0.0014914558,-0.0011551898,0.0,0.0,0.0
631816000,0,0.005167937,-2.1091484e-05,-0.0013442059,0.0,0.0,0.0
631828000,0,0.004631343,-0.0027682786,-0.001474688,0.0,0.0,0.0
631836000,0,0.0038349158,-0.0061425897,-0.0014848838,0.0,0.0,0.0
631848000,0,0.0031227532,-0.010018998,-0.001439115,0.0,0.0,0.0
631856000,0,0.0029088596,-0.011409291,-0.0013856048,0.0,0.0,0.0
631868000,0,0.006298764,-0.011845675,-0.0013054255,0.0,0.0,0.0
631876000,0,0.008077184,-0.010232291,-0.0011882061,0.0,0.0,0.0
631884000,0,0.008793548,-0.006868966,-0.0010244804,0.0,0.0,0.0
631896000,0,0.008054065,-0.0037657043,-0.000791848,0.0,0.0,0.0
631908000,0,0.009434323,-0.002608766,-0.00049389363,0.0,0.0,0.0
631916000,0,0.010418886,-0.002837717,-0.0003001918,0.0,0.0,0.0
631928000,0,0.011909353,0.00014563705,4.0335093e-05,0.0,0.0,0.0
631932000,0,0.012248289,0.0010972918,0.00014579024,0.0,0.0,0.0
631948000,0,0.012018929,0.0023316334,0.0004579734,0.0,0.0,0.0
631956000,0,0.010453103,0.0024648444,0.0005734189,0.0,0.0,0.0
631968000,0,0.0057959165,-0.00048175082,0.00071766303,0.0,0.0,0.0
631976000,0,0.002752331,-0.0026525678,0.0008264465,0.0,0.0,0.0
631988000,0,1.8608683e-06,-0.0057831286,0.0009798149,0.0,0.0,0.0
631996000,0,-0.00093841023,-0.007681825,0.001013624,0.0,0.0,0.0
632008000,0,-4.7619265e-05,-0.010195037,0.0010334693,0.0,0.0,0.0
632016000,0,0.0014615062,-0.012216626,0.0010526502,0.0,0.0,0.0
632028000,0,0.0034599572,-0.013225097,0.0010697966,0.0,0.0,0.0
632036000,0,0.0052760583,-0.011301091,0.0010440348,0.0,0.0,0.0
632048000,0,0.0075208433,-0.007551555,0.00101543,0.0,0.0,0.0
632056000,0,0.008225132,-0.005606372,0.0009818766,0.0,0.0,0.0
632068000,0,0.008788185,-0.0025402242,0.0009078787,0.0,0.0,0.0
632072000,0,0.008729245,-0.0021193135,0.00084898615,0.0,0.0,0.0
632088000,0,0.0057454444,-0.0020019324,0.0005491999,0.0,0.0,0.0
632096000,0,0.004155651,-0.0013035861,0.00040220917,0.0,0.0,0.0
632108000,0,0.004352309,0.00042130984,0.0002163106,0.0,0.0,0.0
632116000,0,0.003819202,-0.00035333916,6.540158e-05,0.0,0.0,0.0
632128000,0,0.0023649505,-0.001962243,-0.000114839604,0.0,0.0,0.0
632136000,0,0.0006239875,-0.002872644,-0.00024345773,0.0,0.0,0.0
632148000,0,-0.0014104979,-0.0030547997,-0.00045777275,0.0,0.0,0.0
632156000,0,-0.0014838598,-0.0034262154,-0.00057097594,0.0,0.0,0.0
632168000,0,0.001938452,-0.00445131,-0.0006944316,0.0,0.0,0.0
632176000,0,0.0040591178,-0.005461074,-0.00077788776,0.0,0.0,0.0
632188000,0,0.006915822,-0.0058072163,-0.00093105505,0.0,0.0,0.0
632196000,0,0.005749639,-0.005185636,-0.0009926397,0.0,0.0,0.0
632208000,0,0.0009162807,-0.0029809258,-0.0010007872,0.0,0.0,0.0
632216000,0,-0.0017673689,-0.0007636615,-0.0009984445,0.0,0.0,0.0
632228000,0,-0.005418286,0.0016476412,-0.0009955044,0.0,0.0,0.0
632236000,0,-0.0076019317,0.0009798487,-0.0009571219,0.0,0.0,0.0
632248000,0,-0.0078082145,-0.0008093644,-0.0008519386,0.0,0.0,0.0
632256000,0,-0.0068915407,-0.0013523966,-0.0007707096,0.0,0.0,0.0
632268000,0,-0.004107854,-0.0020867211,-0.0005792127,0.0,0.0,0.0
632272000,0,-0.0032382696,-0.0020382926,-0.00048334777,0.0,0.0,0.0
632288000,0,-0.0012144967,0.0013263548,4.438333e-05,0.0,0.0,0.0
632296000,0,-7.3985786e-05,0.002911827,0.00033642488,0.0,0.0,0.0
632308000,0,0.0010718195,0.0058006076,0.0007271274,0.0,0.0,0.0
632316000,0,0.0003536869,0.007270089,0.00098052,0.0,0.0,0.0
632328000,0,0.00068280706,0.0067799827,0.0014252242,0.0,0.0,0.0
632336000,0,0.0010105757,0.0056354706,0.0016995774,0.0,0.0,0.0
632348000,0,0.0015104634,0.00560552,0.001986349,0.0,0.0,0.0
632356000,0,0.0040505463,0.005974765,0.002124646,0.0,0.0,0.0
632368000,0,0.0069671967,0.006210558,0.0023036313,0.0,0.0,0.0
632376000,0,0.008081017,0.005742203,0.0023896797,0.0,0.0,0.0
632388000,0,0.008149491,0.0047110007,0.0023974183,0.0,0.0,0.0
632396000,0,0.009105872,0.0042940634,0.002342131,0.0,0.0,0.0
632408000,0,0.010515498,0.0031491865,0.002237722,0.0,0.0,0.0
632416000,0,0.009948473,0.0041185915,0.0022247562,0.0,0.0,0.0
632428000,0,0.0067456826,0.00553641,0.0021496147,0.0,0.0,0.0
632436000,0,0.0044015073,0.0041898913,0.002047736,0.0,0.0,0.0
632448000,0,0.0019844705,0.0055479426,0.0018068464,0.0,0.0,0.0
632456000,0,0.0014134278,0.006636034,0.0016261894,0.0,0.0,0.0
632468000,0,0.0011198965,0.0085309055,0.0013197524,0.0,0.0,0.0
632476000,0,0.002120633,0.010173325,0.0011401073,0.0,0.0,0.0
632488000,0,0.0032893047,0.010947979,0.0008966452,0.0,0.0,0.0
632496000,0,0.00431295,0.009029033,0.0007253708,0.0,0.0,0.0
632508000,0,0.004849113,0.004605009,0.00046681703,0.0,0.0,0.0
632516000,0,0.0035788154,0.0017004324,0.0003124865,0.0,0.0,0.0
632528000,0,0.0012638841,-0.0014646557,0.00011978723,0.0,0.0,0.0
632536000,0,-0.0007723422,-0.0030358448,-4.257109e-05,0.0,0.0,0.0
632548000,0,-0.0010398526,-0.0041996855,-0.00035932523,0.0,0.0,0.0
632556000,0,-0.000983146,-0.0039460086,-0.0005868042,0.0,0.0,0.0
632568000,0,-0.0039858804,-0.004055221,-0.00089861365,0.0,0.0,0.0
632576000,0,-0.00560897,-0.0028643461,-0.001073181,0.0,0.0,0.0
632588000,0,-0.0058334554,-0.001908506,-0.0012707398,0.0,0.0,0.0
632596000,0,-0.0032872877,-0.0023390278,-0.0013470299,0.0,0.0,0.0
632608000,0,-0.0016446182,-0.0032732515,-0.0014904505,0.0,0.0,0.0
632616000,0,-0.0023188712,-0.0027840745,-0.0015641241,0.0,0.0,0.0
632628000,0,-0.0024447879,-0.0028499088,-0.0016424203,0.0,0.0,0.0
632632000,0,-0.0019093476,-0.0027354902,-0.0016758664,0.0,0.0,0.0
632648000,0,0.00022089209,-0.0010744818,-0.0017401936,0.0,0.0,0.0
632656000,0,0.0010278248,0.00061055896,-0.0017618192,0.0,0.0,0.0
632668000,0,0.001224537,0.0032197472,-0.001740041,0.0,0.0,0.0
632676000,0,0.00068124424,0.003511736,-0.0017061492,0.0,0.0,0.0
632688000,0,-0.0016770782,0.004035656,-0.0016038793,0.0,0.0,0.0
632696000,0,-0.0029646158,0.0047268257,-0.0014990229,0.0,0.0,0.0
632708000,0,-0.003891479,0.0060005514,-0.0012951327,0.0,0.0,0.0
632716000,0,-0.0043908814,0.006419833,-0.0011599137,0.0,0.0,0.0
632728000,0,-0.0055092,0.0050881593,-0.0010151877,0.0,0.0,0.0
632736000,0,-0.0066016265,0.0039058733,-0.0009591937,0.0,0.0,0.0
632748000,0,-0.0067094048,0.0025513952,-0.0009169788,0.0,0.0,0.0
632756000,0,-0.0060300697,0.0026203007,-0.00089837855,0.0,0.0,0.0
632768000,0,-0.005048007,0.004084425,-0.0009011673,0.0,0.0,0.0
632776000,0,-0.004173152,0.0030005386,-0.00092674705,0.0,0.0,0.0
632788000,0,-0.0031588092,0.0025637262,-0.00096151605,0.0,0.0,0.0
632796000,0,-0.0018256162,0.003136983,-0.00094755826,0.0,0.0,0.0
632808000,0,-0.0004048122,0.004378578,-0.0009247275,0.0,0.0,0.0
632816000,0,-0.0001873178,0.0047213463,-0.00087151333,0.0,0.0,0.0
632828000,0,0.00034144882,0.0041524614,-0.0007715005,0.0,0.0,0.0
632836000,0,0.0011679216,0.0028722854,-0.00069458655,0.0,0.0,0.0
632848000,0,0.0028678284,0.0014597567,-0.0006743834,0.0,0.0,0.0
632856000,0,0.003709936,5.2386757e-05,-0.0006826046,0.0,0.0,0.0
632868000,0,0.0029384757,-0.000644481,-0.0006602194,0.0,0.0,0.0
632876000,0,0.0005689465,0.0004622466,-0.00062728685,0.0,0.0,0.0
632888000,0,-0.003730576,0.00032173627,-0.00065435213,0.0,0.0,0.0
632896000,0,-0.005049593,-0.0005332425,-0.0006513946,0.0,0.0,0.0
632908000,0,-0.004526929,0.0011611128,-0.0007355296,0.0,0.0,0.0
632916000,0,-0.0055472697,0.0017289552,-0.00076682033,0.0,0.0,0.0
632928000,0,-0.0069582574,0.00014992688,-0.0007507871,0.0,0.0,0.0
632936000,0,-0.0065023866,-0.0001344496,-0.00070097897,0.0,0.0,0.0
632948000,0,-0.005819788,0.00050851324,-0.0005602149,0.0,0.0,0.0
632956000,0,-0.0043817186,-0.00045734705,-0.00042102486,0.0,0.0,0.0
632968000,0,-0.0007555064,-0.0009191164,-0.00027091027,0.0,0.0,0.0
632976000,0,0.0022839543,-0.0015867841,-0.00015293037,0.0,0.0,0.0
632988000,0,0.008159226,-0.00022278416,1.7606893e-05,0.0,0.0,0.0
632996000,0,0.008839429,0.0009269304,0.0001716372,0.0,0.0,0.0
633008000,0,0.008322493,0.0016260258,0.00039168826,0.0,0.0,0.0
633016000,0,0.006485903,0.0021930363,0.00057090516,0.0,0.0,0.0
633028000,0,0.00429259,0.0025509465,0.00082842895,0.0,0.0,0.0
633036000,0,0.0015508753,0.0027472372,0.0009883896,0.0,0.0,0.0
633048000,0,-0.0037144958,0.0019250995,0.0012710013,0.0,0.0,0.0
633056000,0,-0.007852639,0.0011682505,0.0014846191,0.0,0.0,0.0
633068000,0,-0.010642098,0.00087951246,0.0017683936,0.0,0.0,0.0
633076000,0,-0.008885144,0.0018173865,0.0018794945,0.0,0.0,0.0
633088000,0,-0.0062714987,0.0016443172,0.002053609,0.0,0.0,0.0
633096000,0,-0.005720778,0.0017216393,0.0021918425,0.0,0.0,0.0
633108000,0,-0.0049111214,0.0015951431,0.0024268508,0.0,0.0,0.0
633116000,0,-0.004394235,0.0017319126,0.0025718054,0.0,0.0,0.0
633128000,0,-0.0037533,0.0024836985,0.0026780295,0.0,0.0,0.0
633132000,0,-0.0032691578,0.0023876298,0.0026975838,0.0,0.0,0.0
633148000,0,-0.0010792027,0.0013702309,0.0027246515,0.0,0.0,0.0
633156000,0,-0.0012744996,-7.1959206e-05,0.0026999724,0.0,0.0,0.0
633168000,0,-0.001208901,-0.002059065,0.0026125468,0.0,0.0,0.0
633176000,0,-0.00037806501,-0.0027930108,0.0025081614,0.0,0.0,0.0
633188000,0,0.0017329793,-0.0043717334,0.0022339197,0.0,0.0,0.0
633196000,0,0.0017125789,-0.0067877574,0.0019723296,0.0,0.0,0.0
633208000,0,0.0009000285,-0.0076280674,0.0015451525,0.0,0.0,0.0
633216000,0,0.0010936204,-0.0066078217,0.0012497008,0.0,0.0,0.0
633228000,0,0.001945197,-0.0044193496,0.00084104243,0.0,0.0,0.0
633236000,0,0.0021237622,-0.0032899273,0.0006309839,0.0,0.0,0.0
633248000,0,0.0029241096,-0.0038535672,0.000381294,0.0,0.0,0.0
633256000,0,0.0038119012,-0.0042436053,0.00020100074,0.0,0.0,0.0
633268000,0,0.0065411497,-0.0035738626,-0.0001221554,0.0,0.0,0.0
633276000,0,0.008244812,-0.0037028824,-0.0003401703,0.0,0.0,0.0
633288000,0,0.0077719986,-0.0036182106,-0.00066871085,0.0,0.0,0.0
633296000,0,0.005998366,-0.004128102,-0.0009279135,0.0,0.0,0.0
633308000,0,0.0036998664,-0.0038650294,-0.0013586121,0.0,0.0,0.0
633316000,0,0.0027393478,-0.0025983672,-0.0016956871,0.0,0.0,0.0
633328000,0,0.0009490555,-0.0025973988,-0.002218362,0.0,0.0,0.0
633336000,0,-6.85975e-05,-0.0036467102,-0.0025825014,0.0,0.0,0.0
633348000,0,-0.0011536216,-0.0041180267,-0.0031382716,0.0,0.0,0.0
633356000,0,-0.00059918343,-0.00399976,-0.0034925197,0.0,0.0,0.0
633368000,0,0.0014866475,-0.0046962276,-0.0039805775,0.0,0.0,0.0
633376000,0,0.0039298306,-0.0040908037,-0.0043136645,0.0,0.0,0.0
633388000,0,0.008318764,-0.0013749389,-0.00486497,0.0,0.0,0.0
633396000,0,0.008217616,0.00031124454,-0.005238974,0.0,0.0,0.0
633408000,0,0.0059547652,0.0027355517,-0.005722591,0.0,0.0,0.0
633416000,0,0.0035951135,0.0037213766,-0.0059669646,0.0,0.0,0.0
633428000,0,0.0014230228,0.0045488924,-0.0062039895,0.0,0.0,0.0
633436000,0,0.0022909641,0.005013819,-0.0063013346,0.0,0.0,0.0
633448000,0,0.00216976,0.0051711183,-0.0064121285,0.0,0.0,0.0
633456000,0,0.002218242,0.0036086405,-0.006439508,0.0,0.0,0.0
633468000,0,0.001716033,-0.00016611924,-0.00647231,0.0,0.0,0.0
633476000,0,0.0022792048,-0.0025011885,-0.0065149595,0.0,0.0,0.0
633488000,0,0.0025618242,-0.0040880777,-0.006511629,0.0,0.0,0.0
633496000,0,0.0014060893,-0.0045618415,-0.006485917,0.0,0.0,0.0
633508000,0,0.0021012546,-0.005120999,-0.006500057,0.0,0.0,0.0
633516000,0,0.004815734,-0.0041355058,-0.006550094,0.0,0.0,0.0
633528000,0,0.0071911244,-0.0031627002,-0.006552845,0.0,0.0,0.0
633536000,0,0.006874841,-0.0022462336,-0.0064745164,0.0,0.0,0.0
633548000,0,0.005303364,-0.00071018183,-0.0063351695,0.0,0.0,0.0
633556000,0,0.0048992964,-0.00039348088,-0.0062363623,0.0,0.0,0.0
633568000,0,0.0056365486,0.00063702936,-0.006058164,0.0,0.0,0.0
633576000,0,0.0052677603,0.00032012482,-0.0059357774,0.0,0.0,0.0
633588000,0,0.004576897,-6.6063236e-05,-0.0057571256,0.0,0.0,0.0
633596000,0,0.0047587696,7.523679e-05,-0.005646141,0.0,0.0,0.0
633608000,0,0.006558371,1.1168856e-05,-0.0053710504,0.0,0.0,0.0
633616000,0,0.008356251,-0.00029219547,-0.0051460927,0.0,0.0,0.0
633628000,0,0.011118681,-0.0010983682,-0.0048186593,0.0,0.0,0.0
633636000,0,0.013379271,-0.0004144902,-0.0046259062,0.0,0.0,0.0
633648000,0,0.015956908,-6.494965e-06,-0.0043308507,0.0,0.0,0.0
633656000,0,0.014331848,0.00014193403,-0.0041327695,0.0,0.0,0.0
633668000,0,0.011235465,0.0001177512,-0.0038144116,0.0,0.0,0.0
633676000,0,0.010060452,0.00072205625,-0.003590573,0.0,0.0,0.0
633688000,0,0.0072741676,0.00037863984,-0.003225091,0.0,0.0,0.0
633696000,0,0.0053875432,-0.00014899271,-0.003016557,0.0,0.0,0.0
633708000,0,0.0041099396,-6.0486538e-05,-0.0026944473,0.0,0.0,0.0
633716000,0,0.0033955644,-0.00036234048,-0.0024935252,0.0,0.0,0.0
633728000,0,0.0018934857,-0.0009994931,-0.002175279,0.0,0.0,0.0
633736000,0,0.00083860377,-0.0009606717,-0.0019716225,0.0,0.0,0.0
633748000,0,0.00023266205,-0.0011255008,-0.0016435256,0.0,0.0,0.0
633756000,0,-0.0012057045,-0.0010671228,-0.0014335058,0.0,0.0,0.0
633768000,0,-0.0024518105,-0.0014087026,-0.0011421649,0.0,0.0,0.0
633776000,0,-0.0021491537,-0.0013083927,-0.00095953344,0.0,0.0,0.0
633788000,0,-0.0010183363,-7.5421114e-05,-0.0006953892,0.0,0.0,0.0
633796000,0,-0.0011064636,0.000726808,-0.0005421819,0.0,0.0,0.0
633808000,0,-0.002624944,0.0024215174,-0.00032606337,0.0,0.0,0.0
633816000,0,-0.0036613748,0.0016198698,-0.00016704078,0.0,0.0,0.0
633828000,0,-0.0031746689,-1.9668756e-05,6.280703e-05,0.0,0.0,0.0
633836000,0,-0.0033587,-0.0012217277,0.00017534333,0.0,0.0,0.0
633848000,0,-0.0034607586,-0.00077867677,0.0003018176,0.0,0.0,0.0
633856000,0,-0.0041485066,0.00020228731,0.00040531118,0.0,0.0,0.0
633868000,0,-0.006145776,0.00029244,0.0005946229,0.0,0.0,0.0
633876000,0,-0.0065314136,0.0007122339,0.0007141405,0.0,0.0,0.0
633888000,0,-0.0053538615,-0.000182025,0.0009004813,0.0,0.0,0.0
633896000,0,-0.004670672,0.0009777655,0.0010116025,0.0,0.0,0.0
633908000,0,-0.0031553498,0.00016218393,0.0012145378,0.0,0.0,0.0
633916000,0,-0.0013237373,-0.0011683711,0.0013594822,0.0,0.0,0.0
633928000,0,-0.0011223828,-0.0016405007,0.00157383,0.0,0.0,0.0
633936000,0,-0.0028336372,-0.0017431002,0.0017207831,0.0,0.0,0.0
633948000,0,-0.0044778017,-0.0018108794,0.0018996525,0.0,0.0,0.0
633956000,0,-0.0032812734,-0.0016617342,0.0020012285,0.0,0.0,0.0
633968000,0,-0.0017110533,-0.0002454808,0.0021320714,0.0,0.0,0.0
633976000,0,-0.0008829414,-0.002325413,0.0021904989,0.0,0.0,0.0
633988000,0,0.000732403,-0.005436763,0.0022583683,0.0,0.0,0.0
633996000,0,-0.0007475141,-0.008619334,0.0022692287,0.0,0.0,0.0
634008000,0,-0.0014917036,-0.011458437,0.0022309404,0.0,0.0,0.0
634016000,0,0.00010453167,-0.010376679,0.0021467542,0.0,0.0,0.0
634028000,0,-0.00096667884,-0.009661386,0.0020440829,0.0,0.0,0.0
634032000,0,-0.0017464047,-0.009177813,0.0020492945,0.0,0.0,0.0
634048000,0,-0.00013545906,-0.0063141203,0.0020719168,0.0,0.0,0.0
634056000,0,0.0003087075,-0.0047485377,0.002098128,0.0,0.0,0.0
634068000,0,-0.0013874403,-0.0023856733,0.0021525715,0.0,0.0,0.0
634076000,0,-0.0018844772,-0.0016698086,0.002147538,0.0,0.0,0.0
634088000,0,0.0015328991,-0.0042817974,0.0021543694,0.0,0.0,0.0
634096000,0,0.003368028,-0.0073804916,0.002132044,0.0,0.0,0.0
634108000,0,0.0073101735,-0.011155815,0.0021438587,0.0,0.0,0.0
634116000,0,0.009442218,-0.012395917,0.0021863268,0.0,0.0,0.0
634128000,0,0.009473668,-0.01182274,0.0022791123,0.0,0.0,0.0
634136000,0,0.009057238,-0.009870806,0.0023395922,0.0,0.0,0.0
634148000,0,0.0068191383,-0.01063278,0.0022688897,0.0,0.0,0.0
634156000,0,0.0056053507,-0.010699129,0.0021791393,0.0,0.0,0.0
634168000,0,0.0043684808,-0.009307672,0.0020416037,0.0,0.0,0.0
634176000,0,0.0016216972,-0.009932452,0.0019294195,0.0,0.0,0.0
634188000,0,-0.0030566885,-0.008971517,0.0017604147,0.0,0.0,0.0
634196000,0,-0.0036661397,-0.009079885,0.0016386345,0.0,0.0,0.0
634208000,0,-0.0025171707,-0.009923954,0.001393874,0.0,0.0,0.0
634216000,0,-0.0015047072,-0.009270536,0.0012188273,0.0,0.0,0.0
634228000,0,-0.000300129,-0.0074417675,0.0010019017,0.0,0.0,0.0
634236000,0,0.0012971491,-0.0072213383,0.0008857188,0.0,0.0,0.0
634248000,0,0.004462945,-0.0073034456,0.0006895097,0.0,0.0,0.0
634256000,0,0.0059444867,-0.0074452194,0.0005352024,0.0,0.0,0.0
634268000,0,0.007564245,-0.006539903,0.00028013127,0.0,0.0,0.0
634276000,0,0.008428176,-0.0059577785,0.00010490811,0.0,0.0,0.0
634288000,0,0.009933692,-0.0056975014,-0.00014499399,0.0,0.0,0.0
634296000,0,0.00968972,-0.0055250456,-0.00031137484,0.0,0.0,0.0
634308000,0,0.0078000254,-0.0063999197,-0.0005578053,0.0,0.0,0.0
634316000,0,0.0073273093,-0.0063232537,-0.0006897157,0.0,0.0,0.0
634328000,0,0.006009166,-0.0057705296,-0.0007860419,0.0,0.0,0.0
634336000,0,0.0043337895,-0.0049519814,-0.0008069147,0.0,0.0,0.0
634348000,0,0.0024895768,-0.0022127084,-0.0008540961,0.0,0.0,0.0
634356000,0,0.003159713,0.0001509775,-0.0009088382,0.0,0.0,0.0
634368000,0,0.0027147818,0.0011600133,-0.0010083587,0.0,0.0,0.0
634376000,0,0.0025707614,0.0015858981,-0.0010642179,0.0,0.0,0.0
634388000,0,0.0038980248,0.0006506099,-0.0010638783,0.0,0.0,0.0
634396000,0,0.0046946486,-0.0004729986,-0.0010675716,0.0,0.0,0.0
634408000,0,0.0047637853,-0.0026945337,-0.0010281698,0.0,0.0,0.0
634416000,0,0.0038768917,-0.003515409,-0.0009895042,0.0,0.0,0.0
634428000,0,0.0005757713,-0.004150535,-0.00090002484,0.0,0.0,0.0
634436000,0,-0.00046279593,-0.0041630426,-0.0008919778,0.0,0.0,0.0
634448000,0,-0.00040596738,-0.0033323218,-0.0009396758,0.0,0.0,0.0
634456000,0,-0.0023491723,-0.0012086532,-0.00090713747,0.0,0.0,0.0
634468000,0,-0.003245889,0.0020036753,-0.00086183473,0.0,0.0,0.0
634476000,0,-0.0017422495,0.0027083745,-0.0007991314,0.0,0.0,0.0
634488000,0,-0.0002843936,0.002760886,-0.0007410013,0.0,0.0,0.0
634496000,0,-0.00011700668,0.0033058836,-0.00071502983,0.0,0.0,0.0
634508000,0,-0.0011462326,0.0027859118,-0.0007841703,0.0,0.0,0.0
