timestamp,timestamp_sample,gps_hvel[0],gps_hvel[1],gps_vvel,gps_hpos[0],gps_hpos[1],gps_vpos,ev_hvel[0],ev_hvel[1],ev_vvel,ev_hpos[0],ev_hpos[1],ev_vpos,rng_vpos,baro_vpos,aux_hvel[0],aux_hvel[1],flow[0],flow[1],heading,mag_field[0],mag_field[1],mag_field[2],gravity[0],gravity[1],gravity[2],drag[0],drag[1],airspeed,beta,hagl,hagl_rate
625256000,625104000,0.0011588993,6.710031e-05,0.00023054048,3.1386397e-05,2.7738258e-07,6.026521e-05,0.0,0.0,0.0,0.0,0.0,0.0,0.0,3.1622637e-06,0.0,0.0,0.0,0.0,0.0007964965,3.0718114e-05,0.0007964965,0.0006659659,2.1281248e-05,4.892348e-05,3.637979e-12,0.0,0.0,0.0,0.0,0.0,0.0
625264000,625112000,0.0011588993,6.710031e-05,0.00023054048,3.1386397e-05,2.7738258e-07,6.026521e-05,0.0,0.0,0.0,0.0,0.0,0.0,0.0,3.1622637e-06,0.0,0.0,0.0,0.0,0.0007964965,3.0718114e-05,0.0007964965,0.0006659659,0.001057882,0.0027631915,2.756226e-07,0.0,0.0,0.0,0.0,0.0,0.0
625272000,625120000,0.0011588993,6.710031e-05,0.00023054048,3.1386397e-05,2.7738258e-07,6.026521e-05,0.0,0.0,0.0,0.0,0.0,0.0,0.0,3.1622637e-06,0.0,0.0,0.0,0.0,0.0007964965,3.0718114e-05,0.0007964965,0.0006659659,0.0020876774,0.0005963816,2.7138327e-07,0.0,0.0,0.0,0.0,0.0,0.0
625280000,625128000,0.0011588993,6.710031e-05,0.00023054048,3.1386397e-05,2.7738258e-07,6.026521e-05,0.0,0.0,0.0,0.0,0.0,0.0,0.0,3.1622637e-06,0.0,0.0,0.0,0.0,0.00027754286,0.00027754286,0.0002464004,3.97756e-05,0.00056578015,0.00093130214,2.1709866e-08,0.0,0.0,0.0,0.0,0.0,0.0
625288000,625136000,0.0011588993,6.710031e-05,0.00023054048,3.1386397e-05,2.7738258e-07,6.026521e-05,0.0,0.0,0.0,0.0,0.0,0.0,0.0,3.1622637e-06,0.0,0.0,0.0,0.0,0.00027754286,0.00027754286,0.0002464004,3.97756e-05,0.001218449,0.0005015989,4.584763e-09,0.0,0.0,0.0,0.0,0.0,0.0
625296000,625144000,0.0011588993,6.710031e-05,0.00023054048,3.1386397e-05,2.7738258e-07,6.026521e-05,0.0,0.0,0.0,0.0,0.0,0.0,0.0,3.1622637e-06,0.0,0.0,0.0,0.0,0.00027754286,0.00027754286,0.0002464004,3.97756e-05,0.0017588482,0.00042756196,1.23438895e-08,0.0,0.0,0.0,0.0,0.0,0.0
625304000,625152000,0.0011588993,6.710031e-05,0.00023054048,3.1386397e-05,2.7738258e-07,6.026521e-05,0.0,0.0,0.0,0.0,0.0,0.0,0.0,3.1622637e-06,0.0,0.0,0.0,0.0,0.00027754286,0.00027754286,0.0002464004,3.97756e-05,0.0003561264,0.0003803205,4.456524e-11,0.0,0.0,0.0,0.0,0.0,0.0
625312000,625160000,0.0011588993,6.710031e-05,0.00023054048,3.1386397e-05,2.7738258e-07,6.026521e-05,0.0,0.0,0.0,0.0,0.0,0.0,0.0,3.1622637e-06,0.0,0.0,0.0,0.0,0.00027754286,0.00027754286,0.0002464004,3.97756e-05,0.0039077364,0.00056475936,1.5214118e-07,0.0,0.0,0.0,0.0,0.0,0.0
625328000,625176000,0.0011588993,6.710031e-05,0.00023054048,3.1386397e-05,2.7738258e-07,6.026521e-05,0.0,0.0,0.0,0.0,0.0,0.0,0.0,2.7631593e-06,0.0,0.0,0.0,0.0,0.00027754286,0.00027754286,0.0002464004,3.97756e-05,0.0011471595,6.583563e-05,6.195569e-08,0.0,0.0,0.0,0.0,0.0,0.0
625336000,625184000,0.0011588993,6.710031e-05,0.00023054048,3.1386397e-05,2.7738258e-07,6.026521e-05,0.0,0.0,0.0,0.0,0.0,0.0,0.0,2.7631593e-06,0.0,0.0,0.0,0.0,0.00027754286,0.00027754286,0.0002464004,3.97756e-05,0.0010872169,0.00028200453,9.182719e-08,0.0,0.0,0.0,0.0,0.0,0.0
625344000,625192000,0.0011588993,6.710031e-05,0.00023054048,3.1386397e-05,2.7738258e-07,6.026521e-05,0.0,0.0,0.0,0.0,0.0,0.0,0.0,2.7631593e-06,0.0,0.0,0.0,0.0,0.00027754286,0.00027754286,0.0002464004,3.97756e-05,0.00018524937,7.13604e-06,4.1438852e-09,0.0,0.0,0.0,0.0,0.0,0.0
625352000,625200000,0.0011588993,6.710031e-05,0.00023054048,3.1386397e-05,2.7738258e-07,6.026521e-05,0.0,0.0,0.0,0.0,0.0,0.0,0.0,2.7631593e-06,0.0,0.0,0.0,0.0,0.0015456456,0.0015456456,0.00054572657,3.5984973e-05,8.064614e-05,1.3858309e-05,1.3133103e-09,0.0,0.0,0.0,0.0,0.0,0.0
625368000,625216000,0.0011588993,6.710031e-05,0.00023054048,3.1386397e-05,2.7738258e-07,6.026521e-05,0.0,0.0,0.0,0.0,0.0,0.0,0.0,2.7631593e-06,0.0,0.0,0.0,0.0,0.0015456456,0.0015456456,0.00054572657,3.5984973e-05,0.0006766596,0.0022457202,1.4551915e-07,0.0,0.0,0.0,0.0,0.0,0.0
625376000,625224000,0.0011588993,6.710031e-05,0.00023054048,3.1386397e-05,2.7738258e-07,6.026521e-05,0.0,0.0,0.0,0.0,0.0,0.0,0.0,2.7631593e-06,0.0,0.0,0.0,0.0,0.0015456456,0.0015456456,0.00054572657,3.5984973e-05,0.00084972236,4.8520005e-06,7.781864e-11,0.0,0.0,0.0,0.0,0.0,0.0
625384000,625232000,0.0011588993,6.710031e-05,0.00023054048,3.1386397e-05,2.7738258e-07,6.026521e-05,0.0,0.0,0.0,0.0,0.0,0.0,0.0,2.7631593e-06,0.0,0.0,0.0,0.0,0.0015456456,0.0015456456,0.00054572657,3.5984973e-05,8.343175e-05,0.0015634894,5.559974e-08,0.0,0.0,0.0,0.0,0.0,0.0
625392000,625240000,0.0011588993,6.710031e-05,0.00023054048,3.1386397e-05,2.7738258e-07,6.026521e-05,0.0,0.0,0.0,0.0,0.0,0.0,0.0,2.7631593e-06,0.0,0.0,0.0,0.0,0.0015456456,0.0015456456,0.00054572657,3.5984973e-05,0.000111247966,0.00012821578,2.0463631e-10,0.0,0.0,0.0,0.0,0.0,0.0
625408000,625256000,0.0011588993,6.710031e-05,0.00023054048,3.1386397e-05,2.7738258e-07,6.026521e-05,0.0,0.0,0.0,0.0,0.0,0.0,0.0,1.2014375e-05,0.0,0.0,0.0,0.0,0.0015456456,0.0015456456,0.00054572657,3.5984973e-05,0.001230107,1.0424463e-05,2.4829774e-09,0.0,0.0,0.0,0.0,0.0,0.0
625416000,625264000,0.0011588993,6.710031e-05,0.00023054048,3.1386397e-05,2.7738258e-07,6.026521e-05,0.0,0.0,0.0,0.0,0.0,0.0,0.0,1.2014375e-05,0.0,0.0,0.0,0.0,0.0015456456,0.0015456456,0.00054572657,3.5984973e-05,0.00018200961,0.00011478439,9.049529e-09,0.0,0.0,0.0,0.0,0.0,0.0
625424000,625272000,0.0011588993,6.710031e-05,0.00023054048,3.1386397e-05,2.7738258e-07,6.026521e-05,0.0,0.0,0.0,0.0,0.0,0.0,0.0,1.2014375e-05,0.0,0.0,0.0,0.0,0.00032744373,0.00032744373,0.0002699303,3.2138647e-05,0.00021299228,0.0013410944,4.4019544e-08,0.0,0.0,0.0,0.0,0.0,0.0
625432000,625280000,0.0011588993,6.710031e-05,0.00023054048,3.1386397e-05,2.7738258e-07,6.026521e-05,0.0,0.0,0.0,0.0,0.0,0.0,0.0,1.2014375e-05,0.0,0.0,0.0,0.0,0.00032744373,0.00032744373,0.0002699303,3.2138647e-05,0.00083857786,0.002134977,1.335871e-07,0.0,0.0,0.0,0.0,0.0,0.0
625448000,625296000,0.0011588993,6.710031e-05,0.00023054048,3.1386397e-05,2.7738258e-07,6.026521e-05,0.0,0.0,0.0,0.0,0.0,0.0,0.0,1.2014375e-05,0.0,0.0,0.0,0.0,0.00032744373,0.00032744373,0.0002699303,3.2138647e-05,0.00016458594,5.147981e-05,6.7535666e-10,0.0,0.0,0.0,0.0,0.0,0.0
625456000,625304000,0.0011588993,6.710031e-05,0.00023054048,3.1386397e-05,2.7738258e-07,6.026521e-05,0.0,0.0,0.0,0.0,0.0,0.0,0.0,1.2014375e-05,0.0,0.0,0.0,0.0,0.00032744373,0.00032744373,0.0002699303,3.2138647e-05,1.3070644e-05,0.0003899281,9.004225e-09,0.0,0.0,0.0,0.0,0.0,0.0
625464000,625312000,0.0011588993,6.710031e-05,0.00023054048,3.1386397e-05,2.7738258e-07,6.026521e-05,0.0,0.0,0.0,0.0,0.0,0.0,0.0,1.2014375e-05,0.0,0.0,0.0,0.0,0.00032744373,0.00032744373,0.0002699303,3.2138647e-05,0.0006721234,0.0007512897,1.8339051e-08,0.0,0.0,0.0,0.0,0.0,0.0
625472000,625320000,0.0011588993,6.710031e-05,0.00023054048,3.1386397e-05,2.7738258e-07,6.026521e-05,0.0,0.0,0.0,0.0,0.0,0.0,0.0,1.157264e-06,0.0,0.0,0.0,0.0,0.00032744373,0.00032744373,0.0002699303,3.2138647e-05,0.000849164,0.00044563133,9.837095e-09,0.0,0.0,0.0,0.0,0.0,0.0
625488000,625336000,0.0011588993,6.710031e-05,0.00023054048,3.1386397e-05,2.7738258e-07,6.026521e-05,0.0,0.0,0.0,0.0,0.0,0.0,0.0,1.157264e-06,0.0,0.0,0.0,0.0,0.00032744373,0.00032744373,0.0002699303,3.2138647e-05,3.375308e-05,0.00019788914,5.0226845e-10,0.0,0.0,0.0,0.0,0.0,0.0
625496000,625344000,0.0011588993,6.710031e-05,0.00023054048,3.1386397e-05,2.7738258e-07,6.026521e-05,0.0,0.0,0.0,0.0,0.0,0.0,0.0,1.157264e-06,0.0,0.0,0.0,0.0,0.002351139,0.00024690278,0.002351139,0.0006952042,3.8895316e-05,0.00054320524,9.094947e-09,0.0,0.0,0.0,0.0,0.0,0.0
625504000,625352000,0.0011588993,6.710031e-05,0.00023054048,3.1386397e-05,2.7738258e-07,6.026521e-05,0.0,0.0,0.0,0.0,0.0,0.0,0.0,1.157264e-06,0.0,0.0,0.0,0.0,0.002351139,0.00024690278,0.002351139,0.0006952042,6.162595e-05,0.00061205553,2.636176e-08,0.0,0.0,0.0,0.0,0.0,0.0
625512000,625360000,0.0011588993,6.710031e-05,0.00023054048,3.1386397e-05,2.7738258e-07,6.026521e-05,0.0,0.0,0.0,0.0,0.0,0.0,0.0,1.157264e-06,0.0,0.0,0.0,0.0,0.002351139,0.00024690278,0.002351139,0.0006952042,4.475825e-05,4.156943e-06,1.8468427e-10,0.0,0.0,0.0,0.0,0.0,0.0
625528000,625376000,0.0011588993,6.710031e-05,0.00023054048,3.1386397e-05,2.7738258e-07,6.026521e-05,0.0,0.0,0.0,0.0,0.0,0.0,0.0,1.157264e-06,0.0,0.0,0.0,0.0,0.002351139,0.00024690278,0.002351139,0.0006952042,0.0011765701,0.00042210528,1.3133103e-09,0.0,0.0,0.0,0.0,0.0,0.0
625536000,625384000,0.0011588993,6.710031e-05,0.00023054048,3.1386397e-05,2.7738258e-07,6.026521e-05,0.0,0.0,0.0,0.0,0.0,0.0,0.0,1.157264e-06,0.0,0.0,0.0,0.0,0.002351139,0.00024690278,0.002351139,0.0006952042,0.00018433551,4.7370372e-07,4.811227e-10,0.0,0.0,0.0,0.0,0.0,0.0
625544000,625392000,0.0011588993,6.710031e-05,0.00023054048,3.1386397e-05,2.7738258e-07,6.026521e-05,0.0,0.0,0.0,0.0,0.0,0.0,0.0,1.6223174e-05,0.0,0.0,0.0,0.0,0.002351139,0.00024690278,0.002351139,0.0006952042,4.143805e-06,6.555414e-05,4.604317e-12,0.0,0.0,0.0,0.0,0.0,0.0
625552000,625400000,0.0011588993,6.710031e-05,0.00023054048,3.1386397e-05,2.7738258e-07,6.026521e-05,0.0,0.0,0.0,0.0,0.0,0.0,0.0,1.6223174e-05,0.0,0.0,0.0,0.0,0.002351139,0.00024690278,0.002351139,0.0006952042,0.00057235535,0.0013808705,5.8446176e-08,0.0,0.0,0.0,0.0,0.0,0.0
625568000,625416000,0.0011588993,6.710031e-05,0.00023054048,3.1386397e-05,2.7738258e-07,6.026521e-05,0.0,0.0,0.0,0.0,0.0,0.0,0.0,1.6223174e-05,0.0,0.0,0.0,0.0,0.00017984437,0.00017984437,7.17132e-05,6.908062e-05,9.259082e-05,0.00012307738,7.28528e-09,0.0,0.0,0.0,0.0,0.0,0.0
625576000,625424000,0.0011588993,6.710031e-05,0.00023054048,3.1386397e-05,2.7738258e-07,6.026521e-05,0.0,0.0,0.0,0.0,0.0,0.0,0.0,1.6223174e-05,0.0,0.0,0.0,0.0,0.00017984437,0.00017984437,7.17132e-05,6.908062e-05,0.0011539075,0.000113377995,3.0291858e-10,0.0,0.0,0.0,0.0,0.0,0.0
625584000,625432000,0.0011588993,6.710031e-05,0.00023054048,3.1386397e-05,2.7738258e-07,6.026521e-05,0.0,0.0,0.0,0.0,0.0,0.0,0.0,1.6223174e-05,0.0,0.0,0.0,0.0,0.00017984437,0.00017984437,7.17132e-05,6.908062e-05,0.000317245,3.251098e-05,1.3871841e-08,0.0,0.0,0.0,0.0,0.0,0.0
625592000,625440000,0.0011588993,6.710031e-05,0.00023054048,3.1386397e-05,2.7738258e-07,6.026521e-05,0.0,0.0,0.0,0.0,0.0,0.0,0.0,1.6223174e-05,0.0,0.0,0.0,0.0,0.00017984437,0.00017984437,7.17132e-05,6.908062e-05,1.2021734e-05,5.8890196e-06,4.0108716e-10,0.0,0.0,0.0,0.0,0.0,0.0
625608000,625456000,0.0011588993,6.710031e-05,0.00023054048,3.1386397e-05,2.7738258e-07,6.026521e-05,0.0,0.0,0.0,0.0,0.0,0.0,0.0,1.6223174e-05,0.0,0.0,0.0,0.0,0.00017984437,0.00017984437,7.17132e-05,6.908062e-05,0.0019286737,0.002487304,3.2987833e-07,0.0,0.0,0.0,0.0,0.0,0.0
625616000,625464000,0.00053827855,0.00014096868,0.00032786978,3.081026e-05,3.4642726e-06,6.357531e-05,0.0,0.0,0.0,0.0,0.0,0.0,0.0,8.306152e-07,0.0,0.0,0.0,0.0,0.00017984437,0.00017984437,7.17132e-05,6.908062e-05,3.0852602e-06,0.00072764757,1.2116743e-09,0.0,0.0,0.0,0.0,0.0,0.0
625624000,625472000,0.00053827855,0.00014096868,0.00032786978,3.081026e-05,3.4642726e-06,6.357531e-05,0.0,0.0,0.0,0.0,0.0,0.0,0.0,8.306152e-07,0.0,0.0,0.0,0.0,0.00017984437,0.00017984437,7.17132e-05,6.908062e-05,0.00016798572,0.0007895034,9.186124e-09,0.0,0.0,0.0,0.0,0.0,0.0
625632000,625480000,0.00053827855,0.00014096868,0.00032786978,3.081026e-05,3.4642726e-06,6.357531e-05,0.0,0.0,0.0,0.0,0.0,0.0,0.0,8.306152e-07,0.0,0.0,0.0,0.0,0.00017984437,0.00017984437,7.17132e-05,6.908062e-05,0.0001338423,0.0012588139,4.9375558e-08,0.0,0.0,0.0,0.0,0.0,0.0
625648000,625496000,0.00053827855,0.00014096868,0.00032786978,3.081026e-05,3.4642726e-06,6.357531e-05,0.0,0.0,0.0,0.0,0.0,0.0,0.0,8.306152e-07,0.0,0.0,0.0,0.0,0.00070474664,0.00070474664,4.688544e-05,0.0005889224,0.0017843336,7.002539e-05,1.1716338e-08,0.0,0.0,0.0,0.0,0.0,0.0
625656000,625504000,0.00053827855,0.00014096868,0.00032786978,3.081026e-05,3.4642726e-06,6.357531e-05,0.0,0.0,0.0,0.0,0.0,0.0,0.0,8.306152e-07,0.0,0.0,0.0,0.0,0.00070474664,0.00070474664,4.688544e-05,0.0005889224,0.00014974135,0.002196255,1.3797967e-07,0.0,0.0,0.0,0.0,0.0,0.0
625664000,625512000,0.00053827855,0.00014096868,0.00032786978,3.081026e-05,3.4642726e-06,6.357531e-05,0.0,0.0,0.0,0.0,0.0,0.0,0.0,8.306152e-07,0.0,0.0,0.0,0.0,0.00070474664,0.00070474664,4.688544e-05,0.0005889224,0.00030314137,0.00030964913,8.20819e-09,0.0,0.0,0.0,0.0,0.0,0.0
625672000,625520000,0.00053827855,0.00014096868,0.00032786978,3.081026e-05,3.4642726e-06,6.357531e-05,0.0,0.0,0.0,0.0,0.0,0.0,0.0,8.306152e-07,0.0,0.0,0.0,0.0,0.00070474664,0.00070474664,4.688544e-05,0.0005889224,0.0002140056,0.00016136133,1.1623911e-09,0.0,0.0,0.0,0.0,0.0,0.0
625688000,625536000,0.00053827855,0.00014096868,0.00032786978,3.081026e-05,3.4642726e-06,6.357531e-05,0.0,0.0,0.0,0.0,0.0,0.0,0.0,1.665105e-06,0.0,0.0,0.0,0.0,0.00070474664,0.00070474664,4.688544e-05,0.0005889224,0.00015827845,0.00064444676,5.784443e-09,0.0,0.0,0.0,0.0,0.0,0.0
625696000,625544000,0.00053827855,0.00014096868,0.00032786978,3.081026e-05,3.4642726e-06,6.357531e-05,0.0,0.0,0.0,0.0,0.0,0.0,0.0,1.665105e-06,0.0,0.0,0.0,0.0,0.00070474664,0.00070474664,4.688544e-05,0.0005889224,0.00018716947,0.0009789233,5.459242e-10,0.0,0.0,0.0,0.0,0.0,0.0
625704000,625552000,0.00053827855,0.00014096868,0.00032786978,3.081026e-05,3.4642726e-06,6.357531e-05,0.0,0.0,0.0,0.0,0.0,0.0,0.0,1.665105e-06,0.0,0.0,0.0,0.0,0.00070474664,0.00070474664,4.688544e-05,0.0005889224,0.00019169293,1.2907046e-05,6.227822e-09,0.0,0.0,0.0,0.0,0.0,0.0
625712000,625560000,0.00053827855,0.00014096868,0.00032786978,3.081026e-05,3.4642726e-06,6.357531e-05,0.0,0.0,0.0,0.0,0.0,0.0,0.0,1.665105e-06,0.0,0.0,0.0,0.0,7.3301635e-05,4.098281e-05,7.3301635e-05,6.550596e-06,0.00043319585,0.00084093626,8.825032e-08,0.0,0.0,0.0,0.0,0.0,0.0
625728000,625576000,0.00053827855,0.00014096868,0.00032786978,3.081026e-05,3.4642726e-06,6.357531e-05,0.0,0.0,0.0,0.0,0.0,0.0,0.0,1.665105e-06,0.0,0.0,0.0,0.0,7.3301635e-05,4.098281e-05,7.3301635e-05,6.550596e-06,0.000104515726,0.0004938963,2.5547706e-09,0.0,0.0,0.0,0.0,0.0,0.0
625736000,625584000,0.00053827855,0.00014096868,0.00032786978,3.081026e-05,3.4642726e-06,6.357531e-05,0.0,0.0,0.0,0.0,0.0,0.0,0.0,1.665105e-06,0.0,0.0,0.0,0.0,7.3301635e-05,4.098281e-05,7.3301635e-05,6.550596e-06,0.00065720966,0.00014745326,4.604317e-08,0.0,0.0,0.0,0.0,0.0,0.0
625744000,625592000,0.00053827855,0.00014096868,0.00032786978,3.081026e-05,3.4642726e-06,6.357531e-05,0.0,0.0,0.0,0.0,0.0,0.0,0.0,1.665105e-06,0.0,0.0,0.0,0.0,7.3301635e-05,4.098281e-05,7.3301635e-05,6.550596e-06,2.051893e-06,0.0008362441,2.7377837e-08,0.0,0.0,0.0,0.0,0.0,0.0
625752000,625600000,0.00053827855,0.00014096868,0.00032786978,3.081026e-05,3.4642726e-06,6.357531e-05,0.0,0.0,0.0,0.0,0.0,0.0,0.0,1.7189449e-06,0.0,0.0,0.0,0.0,7.3301635e-05,4.098281e-05,7.3301635e-05,6.550596e-06,0.00142342,0.0006502482,2.0369549e-07,0.0,0.0,0.0,0.0,0.0,0.0
625768000,625616000,0.00053827855,0.00014096868,0.00032786978,3.081026e-05,3.4642726e-06,6.357531e-05,0.0,0.0,0.0,0.0,0.0,0.0,0.0,1.7189449e-06,0.0,0.0,0.0,0.0,7.3301635e-05,4.098281e-05,7.3301635e-05,6.550596e-06,0.00023062593,4.3498745e-05,1.0510348e-08,0.0,0.0,0.0,0.0,0.0,0.0
625776000,625624000,0.00053827855,0.00014096868,0.00032786978,3.081026e-05,3.4642726e-06,6.357531e-05,0.0,0.0,0.0,0.0,0.0,0.0,0.0,1.7189449e-06,0.0,0.0,0.0,0.0,0.00080200617,0.00080200617,1.6569653e-05,0.000116135,0.00013511283,0.0007232745,4.2925933e-08,0.0,0.0,0.0,0.0,0.0,0.0
625784000,625632000,0.00053827855,0.00014096868,0.00032786978,3.081026e-05,3.4642726e-06,6.357531e-05,0.0,0.0,0.0,0.0,0.0,0.0,0.0,1.7189449e-06,0.0,0.0,0.0,0.0,0.00080200617,0.00080200617,1.6569653e-05,0.000116135,0.00052309467,0.0003654735,5.4979523e-09,0.0,0.0,0.0,0.0,0.0,0.0
625792000,625640000,0.00053827855,0.00014096868,0.00032786978,3.081026e-05,3.4642726e-06,6.357531e-05,0.0,0.0,0.0,0.0,0.0,0.0,0.0,1.7189449e-06,0.0,0.0,0.0,0.0,0.00080200617,0.00080200617,1.6569653e-05,0.000116135,0.00015717032,7.9581965e-05,1.114131e-09,0.0,0.0,0.0,0.0,0.0,0.0
625808000,625656000,0.00053827855,0.00014096868,0.00032786978,3.081026e-05,3.4642726e-06,6.357531e-05,0.0,0.0,0.0,0.0,0.0,0.0,0.0,4.503854e-06,0.0,0.0,0.0,0.0,0.00080200617,0.00080200617,1.6569653e-05,0.000116135,1.7382928e-07,0.00019959337,2.0520474e-11,0.0,0.0,0.0,0.0,0.0,0.0
625816000,625664000,0.00053827855,0.00014096868,0.00032786978,3.081026e-05,3.4642726e-06,6.357531e-05,0.0,0.0,0.0,0.0,0.0,0.0,0.0,4.503854e-06,0.0,0.0,0.0,0.0,0.00080200617,0.00080200617,1.6569653e-05,0.000116135,4.4345643e-06,0.00029236852,4.488413e-09,0.0,0.0,0.0,0.0,0.0,0.0
625824000,625672000,0.00053827855,0.00014096868,0.00032786978,3.081026e-05,3.4642726e-06,6.357531e-05,0.0,0.0,0.0,0.0,0.0,0.0,0.0,4.503854e-06,0.0,0.0,0.0,0.0,0.00080200617,0.00080200617,1.6569653e-05,0.000116135,0.00045015934,0.0017132121,7.8613084e-08,0.0,0.0,0.0,0.0,0.0,0.0
625832000,625680000,0.00053827855,0.00014096868,0.00032786978,3.081026e-05,3.4642726e-06,6.357531e-05,0.0,0.0,0.0,0.0,0.0,0.0,0.0,4.503854e-06,0.0,0.0,0.0,0.0,0.00080200617,0.00080200617,1.6569653e-05,0.000116135,9.966467e-05,5.2613304e-05,4.6171067e-09,0.0,0.0,0.0,0.0,0.0,0.0
625848000,625696000,0.00053827855,0.00014096868,0.00032786978,3.081026e-05,3.4642726e-06,6.357531e-05,0.0,0.0,0.0,0.0,0.0,0.0,0.0,4.503854e-06,0.0,0.0,0.0,0.0,7.797357e-05,7.797357e-05,2.1889406e-05,2.2289834e-05,0.0005898021,0.0015281345,9.884445e-09,0.0,0.0,0.0,0.0,0.0,0.0
625856000,625704000,0.00053827855,0.00014096868,0.00032786978,3.081026e-05,3.4642726e-06,6.357531e-05,0.0,0.0,0.0,0.0,0.0,0.0,0.0,4.503854e-06,0.0,0.0,0.0,0.0,7.797357e-05,7.797357e-05,2.1889406e-05,2.2289834e-05,7.244848e-05,0.0019089229,3.60169e-08,0.0,0.0,0.0,0.0,0.0,0.0
625864000,625712000,0.00053827855,0.00014096868,0.00032786978,3.081026e-05,3.4642726e-06,6.357531e-05,0.0,0.0,0.0,0.0,0.0,0.0,0.0,4.503854e-06,0.0,0.0,0.0,0.0,7.797357e-05,7.797357e-05,2.1889406e-05,2.2289834e-05,0.00047585144,6.475819e-07,3.3702463e-10,0.0,0.0,0.0,0.0,0.0,0.0
625872000,625720000,0.00053827855,0.00014096868,0.00032786978,3.081026e-05,3.4642726e-06,6.357531e-05,0.0,0.0,0.0,0.0,0.0,0.0,0.0,4.503854e-06,0.0,0.0,0.0,0.0,7.797357e-05,7.797357e-05,2.1889406e-05,2.2289834e-05,0.00064564496,1.6485232e-05,1.8468427e-10,0.0,0.0,0.0,0.0,0.0,0.0
625888000,625736000,0.00053827855,0.00014096868,0.00032786978,3.081026e-05,3.4642726e-06,6.357531e-05,0.0,0.0,0.0,0.0,0.0,0.0,0.0,6.663846e-07,0.0,0.0,0.0,0.0,7.797357e-05,7.797357e-05,2.1889406e-05,2.2289834e-05,0.0011572388,0.0004964414,1.9854326e-08,0.0,0.0,0.0,0.0,0.0,0.0
625896000,625744000,0.00053827855,0.00014096868,0.00032786978,3.081026e-05,3.4642726e-06,6.357531e-05,0.0,0.0,0.0,0.0,0.0,0.0,0.0,6.663846e-07,0.0,0.0,0.0,0.0,7.797357e-05,7.797357e-05,2.1889406e-05,2.2289834e-05,6.7700466e-06,0.001963939,1.7320417e-08,0.0,0.0,0.0,0.0,0.0,0.0
625904000,625752000,0.00053827855,0.00014096868,0.00032786978,3.081026e-05,3.4642726e-06,6.357531e-05,0.0,0.0,0.0,0.0,0.0,0.0,0.0,6.663846e-07,0.0,0.0,0.0,0.0,7.797357e-05,7.797357e-05,2.1889406e-05,2.2289834e-05,3.8830162e-06,1.0635127e-06,1.6427748e-11,0.0,0.0,0.0,0.0,0.0,0.0
625912000,625760000,0.00053827855,0.00014096868,0.00032786978,3.081026e-05,3.4642726e-06,6.357531e-05,0.0,0.0,0.0,0.0,0.0,0.0,0.0,6.663846e-07,0.0,0.0,0.0,0.0,7.797357e-05,7.797357e-05,2.1889406e-05,2.2289834e-05,0.0012119984,8.004974e-06,8.0495965e-08,0.0,0.0,0.0,0.0,0.0,0.0
625928000,625776000,0.00053827855,0.00014096868,0.00032786978,3.081026e-05,3.4642726e-06,6.357531e-05,0.0,0.0,0.0,0.0,0.0,0.0,0.0,6.663846e-07,0.0,0.0,0.0,0.0,0.0004795854,0.0004795854,1.8647235e-05,0.00029851048,0.00054884295,2.9946312e-05,5.798597e-10,0.0,0.0,0.0,0.0,0.0,0.0
625936000,625784000,0.00053827855,0.00014096868,0.00032786978,3.081026e-05,3.4642726e-06,6.357531e-05,0.0,0.0,0.0,0.0,0.0,0.0,0.0,6.663846e-07,0.0,0.0,0.0,0.0,0.0004795854,0.0004795854,1.8647235e-05,0.00029851048,5.0727827e-05,3.3898477e-08,9.606538e-10,0.0,0.0,0.0,0.0,0.0,0.0
625944000,625792000,0.00053827855,0.00014096868,0.00032786978,3.081026e-05,3.4642726e-06,6.357531e-05,0.0,0.0,0.0,0.0,0.0,0.0,0.0,1.4226897e-05,0.0,0.0,0.0,0.0,0.0004795854,0.0004795854,1.8647235e-05,0.00029851048,0.0002888447,2.3825041e-05,3.274181e-11,0.0,0.0,0.0,0.0,0.0,0.0
625952000,625800000,0.00053827855,0.00014096868,0.00032786978,3.081026e-05,3.4642726e-06,6.357531e-05,0.0,0.0,0.0,0.0,0.0,0.0,0.0,1.4226897e-05,0.0,0.0,0.0,0.0,0.0004795854,0.0004795854,1.8647235e-05,0.00029851048,8.382714e-06,0.00028738374,8.1650455e-09,0.0,0.0,0.0,0.0,0.0,0.0
625968000,625816000,0.00053827855,0.00014096868,0.00032786978,3.081026e-05,3.4642726e-06,6.357531e-05,0.0,0.0,0.0,0.0,0.0,0.0,0.0,1.4226897e-05,0.0,0.0,0.0,0.0,0.0004795854,0.0004795854,1.8647235e-05,0.00029851048,0.00034678917,0.0007281381,6.9030875e-08,0.0,0.0,0.0,0.0,0.0,0.0
625976000,625824000,0.00053827855,0.00014096868,0.00032786978,3.081026e-05,3.4642726e-06,6.357531e-05,0.0,0.0,0.0,0.0,0.0,0.0,0.0,1.4226897e-05,0.0,0.0,0.0,0.0,0.0004795854,0.0004795854,1.8647235e-05,0.00029851048,5.4176766e-05,1.7482715e-05,5.798597e-10,0.0,0.0,0.0,0.0,0.0,0.0
625984000,625832000,0.00053827855,0.00014096868,0.00032786978,3.081026e-05,3.4642726e-06,6.357531e-05,0.0,0.0,0.0,0.0,0.0,0.0,0.0,1.4226897e-05,0.0,0.0,0.0,0.0,0.00024392779,2.138395e-06,0.00024392779,0.00013080871,1.696028e-06,0.0001889842,2.0463631e-10,0.0,0.0,0.0,0.0,0.0,0.0
625992000,625840000,0.00053827855,0.00014096868,0.00032786978,3.081026e-05,3.4642726e-06,6.357531e-05,0.0,0.0,0.0,0.0,0.0,0.0,0.0,1.4226897e-05,0.0,0.0,0.0,0.0,0.00024392779,2.138395e-06,0.00024392779,0.00013080871,8.4020554e-05,4.288711e-05,9.168275e-10,0.0,0.0,0.0,0.0,0.0,0.0
626008000,625856000,0.00053827855,0.00014096868,0.00032786978,3.081026e-05,3.4642726e-06,6.357531e-05,0.0,0.0,0.0,0.0,0.0,0.0,0.0,1.1682325e-06,0.0,0.0,0.0,0.0,0.00024392779,2.138395e-06,0.00024392779,0.00013080871,0.0008300317,0.00012375067,5.9139893e-08,0.0,0.0,0.0,0.0,0.0,0.0
626016000,625864000,0.0006145407,1.623158e-05,0.00028741336,3.719246e-05,5.0969943e-06,2.8669194e-05,0.0,0.0,0.0,0.0,0.0,0.0,0.0,1.1682325e-06,0.0,0.0,0.0,0.0,0.00024392779,2.138395e-06,0.00024392779,0.00013080871,0.00020950085,4.299573e-09,5.392394e-09,0.0,0.0,0.0,0.0,0.0,0.0
626024000,625872000,0.0006145407,1.623158e-05,0.00028741336,3.719246e-05,5.0969943e-06,2.8669194e-05,0.0,0.0,0.0,0.0,0.0,0.0,0.0,1.1682325e-06,0.0,0.0,0.0,0.0,0.00024392779,2.138395e-06,0.00024392779,0.00013080871,0.00024658217,0.00034073598,6.765788e-09,0.0,0.0,0.0,0.0,0.0,0.0
626032000,625880000,0.0006145407,1.623158e-05,0.00028741336,3.719246e-05,5.0969943e-06,2.8669194e-05,0.0,0.0,0.0,0.0,0.0,0.0,0.0,1.1682325e-06,0.0,0.0,0.0,0.0,0.00024392779,2.138395e-06,0.00024392779,0.00013080871,1.44124315e-05,0.0012053289,4.6659125e-08,0.0,0.0,0.0,0.0,0.0,0.0
626048000,625896000,0.0006145407,1.623158e-05,0.00028741336,3.719246e-05,5.0969943e-06,2.8669194e-05,0.0,0.0,0.0,0.0,0.0,0.0,0.0,1.1682325e-06,0.0,0.0,0.0,0.0,0.00024392779,2.138395e-06,0.00024392779,0.00013080871,1.6150196e-05,0.00021975147,1.9787194e-10,0.0,0.0,0.0,0.0,0.0,0.0
626056000,625904000,0.0006145407,1.623158e-05,0.00028741336,3.719246e-05,5.0969943e-06,2.8669194e-05,0.0,0.0,0.0,0.0,0.0,0.0,0.0,1.1682325e-06,0.0,0.0,0.0,0.0,0.00015459865,4.2500764e-05,0.00013133962,0.00015459865,0.00010110725,9.015217e-06,2.578929e-09,0.0,0.0,0.0,0.0,0.0,0.0
626064000,625912000,0.0006145407,1.623158e-05,0.00028741336,3.719246e-05,5.0969943e-06,2.8669194e-05,0.0,0.0,0.0,0.0,0.0,0.0,0.0,1.1576674e-06,0.0,0.0,0.0,0.0,0.00015459865,4.2500764e-05,0.00013133962,0.00015459865,8.3421655e-05,1.6456432e-05,5.820766e-11,0.0,0.0,0.0,0.0,0.0,0.0
626072000,625920000,0.0006145407,1.623158e-05,0.00028741336,3.719246e-05,5.0969943e-06,2.8669194e-05,0.0,0.0,0.0,0.0,0.0,0.0,0.0,1.1576674e-06,0.0,0.0,0.0,0.0,0.00015459865,4.2500764e-05,0.00013133962,0.00015459865,8.5921274e-05,8.263491e-07,1.4551915e-09,0.0,0.0,0.0,0.0,0.0,0.0
626088000,625936000,0.0006145407,1.623158e-05,0.00028741336,3.719246e-05,5.0969943e-06,2.8669194e-05,0.0,0.0,0.0,0.0,0.0,0.0,0.0,1.1576674e-06,0.0,0.0,0.0,0.0,0.00015459865,4.2500764e-05,0.00013133962,0.00015459865,2.651842e-05,0.00012039742,5.684342e-10,0.0,0.0,0.0,0.0,0.0,0.0
626096000,625944000,0.0006145407,1.623158e-05,0.00028741336,3.719246e-05,5.0969943e-06,2.8669194e-05,0.0,0.0,0.0,0.0,0.0,0.0,0.0,1.1576674e-06,0.0,0.0,0.0,0.0,0.00015459865,4.2500764e-05,0.00013133962,0.00015459865,0.0005553158,0.0005679042,1.3370993e-08,0.0,0.0,0.0,0.0,0.0,0.0
626104000,625952000,0.0006145407,1.623158e-05,0.00028741336,3.719246e-05,5.0969943e-06,2.8669194e-05,0.0,0.0,0.0,0.0,0.0,0.0,0.0,1.1576674e-06,0.0,0.0,0.0,0.0,0.00015459865,4.2500764e-05,0.00013133962,0.00015459865,0.0011805726,6.729927e-05,4.0827217e-09,0.0,0.0,0.0,0.0,0.0,0.0
626112000,625960000,0.0006145407,1.623158e-05,0.00028741336,3.719246e-05,5.0969943e-06,2.8669194e-05,0.0,0.0,0.0,0.0,0.0,0.0,0.0,1.1576674e-06,0.0,0.0,0.0,0.0,0.00015459865,4.2500764e-05,0.00013133962,0.00015459865,0.00047755844,0.00019391862,1.8622472e-09,0.0,0.0,0.0,0.0,0.0,0.0
626128000,625976000,0.0006145407,1.623158e-05,0.00028741336,3.719246e-05,5.0969943e-06,2.8669194e-05,0.0,0.0,0.0,0.0,0.0,0.0,0.0,1.0951804e-06,0.0,0.0,0.0,0.0,0.00026227234,0.00026227234,1.5412532e-05,0.00014135016,3.0931817e-05,4.3836484e-05,1.8468427e-10,0.0,0.0,0.0,0.0,0.0,0.0
626136000,625984000,0.0006145407,1.623158e-05,0.00028741336,3.719246e-05,5.0969943e-06,2.8669194e-05,0.0,0.0,0.0,0.0,0.0,0.0,0.0,1.0951804e-06,0.0,0.0,0.0,0.0,0.00026227234,0.00026227234,1.5412532e-05,0.00014135016,0.0003908192,0.00093247835,1.4190391e-09,0.0,0.0,0.0,0.0,0.0,0.0
626144000,625992000,0.0006145407,1.623158e-05,0.00028741336,3.719246e-05,5.0969943e-06,2.8669194e-05,0.0,0.0,0.0,0.0,0.0,0.0,0.0,1.0951804e-06,0.0,0.0,0.0,0.0,0.00026227234,0.00026227234,1.5412532e-05,0.00014135016,0.00054317905,0.0016052946,1.13070655e-08,0.0,0.0,0.0,0.0,0.0,0.0
626152000,626000000,0.0006145407,1.623158e-05,0.00028741336,3.719246e-05,5.0969943e-06,2.8669194e-05,0.0,0.0,0.0,0.0,0.0,0.0,0.0,1.0951804e-06,0.0,0.0,0.0,0.0,0.00026227234,0.00026227234,1.5412532e-05,0.00014135016,7.673241e-05,0.00016568911,6.8780537e-10,0.0,0.0,0.0,0.0,0.0,0.0
626168000,626016000,0.0006145407,1.623158e-05,0.00028741336,3.719246e-05,5.0969943e-06,2.8669194e-05,0.0,0.0,0.0,0.0,0.0,0.0,0.0,1.0951804e-06,0.0,0.0,0.0,0.0,0.00026227234,0.00026227234,1.5412532e-05,0.00014135016,5.2481122e-05,9.637887e-06,1.3656631e-09,0.0,0.0,0.0,0.0,0.0,0.0
626176000,626024000,0.0006145407,1.623158e-05,0.00028741336,3.719246e-05,5.0969943e-06,2.8669194e-05,0.0,0.0,0.0,0.0,0.0,0.0,0.0,1.0951804e-06,0.0,0.0,0.0,0.0,0.00026227234,0.00026227234,1.5412532e-05,0.00014135016,0.00020626602,0.0004334899,9.094947e-11,0.0,0.0,0.0,0.0,0.0,0.0
626184000,626032000,0.0006145407,1.623158e-05,0.00028741336,3.719246e-05,5.0969943e-06,2.8669194e-05,0.0,0.0,0.0,0.0,0.0,0.0,0.0,1.0951804e-06,0.0,0.0,0.0,0.0,0.00026227234,0.00026227234,1.5412532e-05,0.00014135016,2.2724257e-06,0.00040873248,2.7512215e-11,0.0,0.0,0.0,0.0,0.0,0.0
626192000,626040000,0.0006145407,1.623158e-05,0.00028741336,3.719246e-05,5.0969943e-06,2.8669194e-05,0.0,0.0,0.0,0.0,0.0,0.0,0.0,1.0064153e-06,0.0,0.0,0.0,0.0,0.00017911664,0.0001116596,0.00017911664,6.3185263e-07,8.954211e-06,1.7528731e-05,1.8417268e-11,0.0,0.0,0.0,0.0,0.0,0.0
626208000,626056000,0.0006145407,1.623158e-05,0.00028741336,3.719246e-05,5.0969943e-06,2.8669194e-05,0.0,0.0,0.0,0.0,0.0,0.0,0.0,1.0064153e-06,0.0,0.0,0.0,0.0,0.00017911664,0.0001116596,0.00017911664,6.3185263e-07,5.249459e-05,0.00010247657,6.8780537e-10,0.0,0.0,0.0,0.0,0.0,0.0
626216000,626064000,0.0006145407,1.623158e-05,0.00028741336,3.719246e-05,5.0969943e-06,2.8669194e-05,0.0,0.0,0.0,0.0,0.0,0.0,0.0,1.0064153e-06,0.0,0.0,0.0,0.0,0.00017911664,0.0001116596,0.00017911664,6.3185263e-07,0.00010288775,0.0010639105,3.1043385e-08,0.0,0.0,0.0,0.0,0.0,0.0
626224000,626072000,0.0006145407,1.623158e-05,0.00028741336,3.719246e-05,5.0969943e-06,2.8669194e-05,0.0,0.0,0.0,0.0,0.0,0.0,0.0,1.0064153e-06,0.0,0.0,0.0,0.0,0.00017911664,0.0001116596,0.00017911664,6.3185263e-07,1.9555708e-05,0.0015924899,7.066916e-08,0.0,0.0,0.0,0.0,0.0,0.0
626232000,626080000,0.0006145407,1.623158e-05,0.00028741336,3.719246e-05,5.0969943e-06,2.8669194e-05,0.0,0.0,0.0,0.0,0.0,0.0,0.0,1.0064153e-06,0.0,0.0,0.0,0.0,0.00017911664,0.0001116596,0.00017911664,6.3185263e-07,2.9171999e-05,0.00017350321,3.1974423e-10,0.0,0.0,0.0,0.0,0.0,0.0
626248000,626096000,0.0006145407,1.623158e-05,0.00028741336,3.719246e-05,5.0969943e-06,2.8669194e-05,0.0,0.0,0.0,0.0,0.0,0.0,0.0,1.0064153e-06,0.0,0.0,0.0,0.0,0.00017911664,0.0001116596,0.00017911664,6.3185263e-07,0.0005052261,0.00014522306,3.5475978e-10,0.0,0.0,0.0,0.0,0.0,0.0
626256000,626104000,0.0006145407,1.623158e-05,0.00028741336,3.719246e-05,5.0969943e-06,2.8669194e-05,0.0,0.0,0.0,0.0,0.0,0.0,0.0,1.0064153e-06,0.0,0.0,0.0,0.0,0.00017911664,0.0001116596,0.00017911664,6.3185263e-07,1.4786775e-08,5.190167e-05,4.811227e-10,0.0,0.0,0.0,0.0,0.0,0.0
626264000,626112000,0.0006145407,1.623158e-05,0.00028741336,3.719246e-05,5.0969943e-06,2.8669194e-05,0.0,0.0,0.0,0.0,0.0,0.0,0.0,4.6365803e-05,0.0,0.0,0.0,0.0,0.0003206425,3.8506267e-05,0.0003206425,0.000123454,4.5729088e-05,0.00025696272,2.7853275e-10,0.0,0.0,0.0,0.0,0.0,0.0
626272000,626120000,0.0006145407,1.623158e-05,0.00028741336,3.719246e-05,5.0969943e-06,2.8669194e-05,0.0,0.0,0.0,0.0,0.0,0.0,0.0,4.6365803e-05,0.0,0.0,0.0,0.0,0.0003206425,3.8506267e-05,0.0003206425,0.000123454,0.00014994974,5.0840055e-05,6.4556502e-09,0.0,0.0,0.0,0.0,0.0,0.0
626288000,626136000,0.0006145407,1.623158e-05,0.00028741336,3.719246e-05,5.0969943e-06,2.8669194e-05,0.0,0.0,0.0,0.0,0.0,0.0,0.0,4.6365803e-05,0.0,0.0,0.0,0.0,0.0003206425,3.8506267e-05,0.0003206425,0.000123454,0.0019314974,0.0006853734,2.748721e-07,0.0,0.0,0.0,0.0,0.0,0.0
626296000,626144000,0.0006145407,1.623158e-05,0.00028741336,3.719246e-05,5.0969943e-06,2.8669194e-05,0.0,0.0,0.0,0.0,0.0,0.0,0.0,4.6365803e-05,0.0,0.0,0.0,0.0,0.0003206425,3.8506267e-05,0.0003206425,0.000123454,5.4577773e-05,0.0008758671,2.3283064e-08,0.0,0.0,0.0,0.0,0.0,0.0
626304000,626152000,0.0006145407,1.623158e-05,0.00028741336,3.719246e-05,5.0969943e-06,2.8669194e-05,0.0,0.0,0.0,0.0,0.0,0.0,0.0,4.6365803e-05,0.0,0.0,0.0,0.0,0.0003206425,3.8506267e-05,0.0003206425,0.000123454,0.002162212,0.0009827344,3.5117637e-08,0.0,0.0,0.0,0.0,0.0,0.0
626312000,626160000,0.0006145407,1.623158e-05,0.00028741336,3.719246e-05,5.0969943e-06,2.8669194e-05,0.0,0.0,0.0,0.0,0.0,0.0,0.0,4.6365803e-05,0.0,0.0,0.0,0.0,0.0003206425,3.8506267e-05,0.0003206425,0.000123454,4.707033e-05,2.1777487e-05,4.2041393e-10,0.0,0.0,0.0,0.0,0.0,0.0
626328000,626176000,0.0006145407,1.623158e-05,0.00028741336,3.719246e-05,5.0969943e-06,2.8669194e-05,0.0,0.0,0.0,0.0,0.0,0.0,0.0,4.6365803e-05,0.0,0.0,0.0,0.0,0.0003206425,3.8506267e-05,0.0003206425,0.000123454,1.9136904e-05,0.0023579947,5.1409245e-08,0.0,0.0,0.0,0.0,0.0,0.0
626336000,626184000,0.0006145407,1.623158e-05,0.00028741336,3.719246e-05,5.0969943e-06,2.8669194e-05,0.0,0.0,0.0,0.0,0.0,0.0,0.0,4.5914994e-06,0.0,0.0,0.0,0.0,0.00018345412,0.00018345412,0.0001342798,7.077687e-05,1.9078852e-06,0.00043488832,5.5712235e-10,0.0,0.0,0.0,0.0,0.0,0.0
626344000,626192000,0.0006145407,1.623158e-05,0.00028741336,3.719246e-05,5.0969943e-06,2.8669194e-05,0.0,0.0,0.0,0.0,0.0,0.0,0.0,4.5914994e-06,0.0,0.0,0.0,0.0,0.00018345412,0.00018345412,0.0001342798,7.077687e-05,0.0001710758,0.000221139,1.5288606e-09,0.0,0.0,0.0,0.0,0.0,0.0
626352000,626200000,0.0006145407,1.623158e-05,0.00028741336,3.719246e-05,5.0969943e-06,2.8669194e-05,0.0,0.0,0.0,0.0,0.0,0.0,0.0,4.5914994e-06,0.0,0.0,0.0,0.0,0.00018345412,0.00018345412,0.0001342798,7.077687e-05,0.000104396146,6.212916e-05,1.1951329e-09,0.0,0.0,0.0,0.0,0.0,0.0
626368000,626216000,0.0006145407,1.623158e-05,0.00028741336,3.719246e-05,5.0969943e-06,2.8669194e-05,0.0,0.0,0.0,0.0,0.0,0.0,0.0,4.5914994e-06,0.0,0.0,0.0,0.0,0.00018345412,0.00018345412,0.0001342798,7.077687e-05,2.6062877e-05,7.893588e-05,2.4760993e-10,0.0,0.0,0.0,0.0,0.0,0.0
626376000,626224000,0.0006145407,1.623158e-05,0.00028741336,3.719246e-05,5.0969943e-06,2.8669194e-05,0.0,0.0,0.0,0.0,0.0,0.0,0.0,4.5914994e-06,0.0,0.0,0.0,0.0,0.00018345412,0.00018345412,0.0001342798,7.077687e-05,0.00069405924,0.00010205626,2.3428811e-08,0.0,0.0,0.0,0.0,0.0,0.0
626384000,626232000,0.0006145407,1.623158e-05,0.00028741336,3.719246e-05,5.0969943e-06,2.8669194e-05,0.0,0.0,0.0,0.0,0.0,0.0,0.0,4.5914994e-06,0.0,0.0,0.0,0.0,0.00018345412,0.00018345412,0.0001342798,7.077687e-05,2.87122e-07,0.000559214,1.1623911e-09,0.0,0.0,0.0,0.0,0.0,0.0
626392000,626240000,0.0006145407,1.623158e-05,0.00028741336,3.719246e-05,5.0969943e-06,2.8669194e-05,0.0,0.0,0.0,0.0,0.0,0.0,0.0,4.5914994e-06,0.0,0.0,0.0,0.0,0.00018345412,0.00018345412,0.0001342798,7.077687e-05,0.00029463542,0.0023252585,8.6278305e-08,0.0,0.0,0.0,0.0,0.0,0.0
626408000,626256000,0.0006145407,1.623158e-05,0.00028741336,3.719246e-05,5.0969943e-06,2.8669194e-05,0.0,0.0,0.0,0.0,0.0,0.0,0.0,1.0234531e-06,0.0,0.0,0.0,0.0,0.00012373505,0.00012373505,7.4214213e-06,2.9256173e-06,8.7216635e-05,9.980286e-05,1.9787194e-10,0.0,0.0,0.0,0.0,0.0,0.0
626416000,626264000,0.00028165136,1.6331836e-05,1.52309e-08,3.4666347e-05,5.7869585e-07,5.057228e-05,0.0,0.0,0.0,0.0,0.0,0.0,0.0,1.0234531e-06,0.0,0.0,0.0,0.0,0.00012373505,0.00012373505,7.4214213e-06,2.9256173e-06,0.0004973275,0.00012898054,1.2619807e-09,0.0,0.0,0.0,0.0,0.0,0.0
626424000,626272000,0.00028165136,1.6331836e-05,1.52309e-08,3.4666347e-05,5.7869585e-07,5.057228e-05,0.0,0.0,0.0,0.0,0.0,0.0,0.0,1.0234531e-06,0.0,0.0,0.0,0.0,0.00012373505,0.00012373505,7.4214213e-06,2.9256173e-06,4.43166e-07,0.0010864639,3.6470794e-08,0.0,0.0,0.0,0.0,0.0,0.0
626432000,626280000,0.00028165136,1.6331836e-05,1.52309e-08,3.4666347e-05,5.7869585e-07,5.057228e-05,0.0,0.0,0.0,0.0,0.0,0.0,0.0,1.0234531e-06,0.0,0.0,0.0,0.0,0.00012373505,0.00012373505,7.4214213e-06,2.9256173e-06,0.00096687366,0.0007606454,1.250151e-07,0.0,0.0,0.0,0.0,0.0,0.0
626448000,626296000,0.00028165136,1.6331836e-05,1.52309e-08,3.4666347e-05,5.7869585e-07,5.057228e-05,0.0,0.0,0.0,0.0,0.0,0.0,0.0,1.0234531e-06,0.0,0.0,0.0,0.0,0.00012373505,0.00012373505,7.4214213e-06,2.9256173e-06,0.0004057001,0.0012394914,3.897094e-08,0.0,0.0,0.0,0.0,0.0,0.0
626456000,626304000,0.00028165136,1.6331836e-05,1.52309e-08,3.4666347e-05,5.7869585e-07,5.057228e-05,0.0,0.0,0.0,0.0,0.0,0.0,0.0,1.0234531e-06,0.0,0.0,0.0,0.0,0.00012373505,0.00012373505,7.4214213e-06,2.9256173e-06,0.00016319893,0.005722006,6.5170957e-07,0.0,0.0,0.0,0.0,0.0,0.0
626464000,626312000,0.00028165136,1.6331836e-05,1.52309e-08,3.4666347e-05,5.7869585e-07,5.057228e-05,0.0,0.0,0.0,0.0,0.0,0.0,0.0,1.0234531e-06,0.0,0.0,0.0,0.0,0.00012373505,0.00012373505,7.4214213e-06,2.9256173e-06,0.00047922187,1.8650268e-05,5.684342e-12,0.0,0.0,0.0,0.0,0.0,0.0
626472000,626320000,0.00028165136,1.6331836e-05,1.52309e-08,3.4666347e-05,5.7869585e-07,5.057228e-05,0.0,0.0,0.0,0.0,0.0,0.0,0.0,3.2301493e-06,0.0,0.0,0.0,0.0,0.00012373505,0.00012373505,7.4214213e-06,2.9256173e-06,4.9056453e-05,0.0010646667,4.165122e-08,0.0,0.0,0.0,0.0,0.0,0.0
626488000,626336000,0.00028165136,1.6331836e-05,1.52309e-08,3.4666347e-05,5.7869585e-07,5.057228e-05,0.0,0.0,0.0,0.0,0.0,0.0,0.0,3.2301493e-06,0.0,0.0,0.0,0.0,0.00061969465,0.000113094036,1.1402645e-09,0.00061969465,0.00043644625,0.0005214522,7.0832016e-09,0.0,0.0,0.0,0.0,0.0,0.0
626496000,626344000,0.00028165136,1.6331836e-05,1.52309e-08,3.4666347e-05,5.7869585e-07,5.057228e-05,0.0,0.0,0.0,0.0,0.0,0.0,0.0,3.2301493e-06,0.0,0.0,0.0,0.0,0.00061969465,0.000113094036,1.1402645e-09,0.00061969465,0.00036338792,4.923735e-05,1.0122903e-08,0.0,0.0,0.0,0.0,0.0,0.0
626504000,626352000,0.00028165136,1.6331836e-05,1.52309e-08,3.4666347e-05,5.7869585e-07,5.057228e-05,0.0,0.0,0.0,0.0,0.0,0.0,0.0,3.2301493e-06,0.0,0.0,0.0,0.0,0.00061969465,0.000113094036,1.1402645e-09,0.00061969465,6.22157e-05,2.3708848e-05,5.820766e-11,0.0,0.0,0.0,0.0,0.0,0.0
626512000,626360000,0.00028165136,1.6331836e-05,1.52309e-08,3.4666347e-05,5.7869585e-07,5.057228e-05,0.0,0.0,0.0,0.0,0.0,0.0,0.0,3.2301493e-06,0.0,0.0,0.0,0.0,0.00061969465,0.000113094036,1.1402645e-09,0.00061969465,0.0010681541,0.00018734614,7.662044e-08,0.0,0.0,0.0,0.0,0.0,0.0
626528000,626376000,0.00028165136,1.6331836e-05,1.52309e-08,3.4666347e-05,5.7869585e-07,5.057228e-05,0.0,0.0,0.0,0.0,0.0,0.0,0.0,1.1029752e-07,0.0,0.0,0.0,0.0,0.00061969465,0.000113094036,1.1402645e-09,0.00061969465,0.001699672,3.3430595e-05,7.823985e-09,0.0,0.0,0.0,0.0,0.0,0.0
626536000,626384000,0.00028165136,1.6331836e-05,1.52309e-08,3.4666347e-05,5.7869585e-07,5.057228e-05,0.0,0.0,0.0,0.0,0.0,0.0,0.0,1.1029752e-07,0.0,0.0,0.0,0.0,0.00061969465,0.000113094036,1.1402645e-09,0.00061969465,0.0015268928,0.00010612142,1.0856661e-07,0.0,0.0,0.0,0.0,0.0,0.0
626544000,626392000,0.00028165136,1.6331836e-05,1.52309e-08,3.4666347e-05,5.7869585e-07,5.057228e-05,0.0,0.0,0.0,0.0,0.0,0.0,0.0,1.1029752e-07,0.0,0.0,0.0,0.0,0.00061969465,0.000113094036,1.1402645e-09,0.00061969465,1.062226e-05,0.00010712279,4.0108716e-10,0.0,0.0,0.0,0.0,0.0,0.0
626552000,626400000,0.00028165136,1.6331836e-05,1.52309e-08,3.4666347e-05,5.7869585e-07,5.057228e-05,0.0,0.0,0.0,0.0,0.0,0.0,0.0,1.1029752e-07,0.0,0.0,0.0,0.0,2.9974506e-05,6.7693404e-06,2.9974506e-05,1.06998095e-05,5.4721648e-05,0.00014070208,4.3024784e-10,0.0,0.0,0.0,0.0,0.0,0.0
626568000,626416000,0.00028165136,1.6331836e-05,1.52309e-08,3.4666347e-05,5.7869585e-07,5.057228e-05,0.0,0.0,0.0,0.0,0.0,0.0,0.0,1.1029752e-07,0.0,0.0,0.0,0.0,2.9974506e-05,6.7693404e-06,2.9974506e-05,1.06998095e-05,0.0018873826,0.0009848137,2.0112117e-07,0.0,0.0,0.0,0.0,0.0,0.0
626576000,626424000,0.00028165136,1.6331836e-05,1.52309e-08,3.4666347e-05,5.7869585e-07,5.057228e-05,0.0,0.0,0.0,0.0,0.0,0.0,0.0,1.1029752e-07,0.0,0.0,0.0,0.0,2.9974506e-05,6.7693404e-06,2.9974506e-05,1.06998095e-05,0.07097183,0.002113545,9.620746e-05,0.0,0.0,0.0,0.0,0.0,0.0
626584000,626432000,0.00028165136,1.6331836e-05,1.52309e-08,3.4666347e-05,5.7869585e-07,5.057228e-05,0.0,0.0,0.0,0.0,0.0,0.0,0.0,1.1029752e-07,0.0,0.0,0.0,0.0,2.9974506e-05,6.7693404e-06,2.9974506e-05,1.06998095e-05,0.03168021,2.6235477e-06,1.2316741e-05,0.0,0.0,0.0,0.0,0.0,0.0
626592000,626440000,0.00028165136,1.6331836e-05,1.52309e-08,3.4666347e-05,5.7869585e-07,5.057228e-05,0.0,0.0,0.0,0.0,0.0,0.0,0.0,1.7008454e-06,0.0,0.0,0.0,0.0,2.9974506e-05,6.7693404e-06,2.9974506e-05,1.06998095e-05,0.00059794396,1.2913524e-06,1.8468427e-10,0.0,0.0,0.0,0.0,0.0,0.0
626608000,626456000,0.00028165136,1.6331836e-05,1.52309e-08,3.4666347e-05,5.7869585e-07,5.057228e-05,0.0,0.0,0.0,0.0,0.0,0.0,0.0,1.7008454e-06,0.0,0.0,0.0,0.0,2.9974506e-05,6.7693404e-06,2.9974506e-05,1.06998095e-05,2.4311115e-05,0.00059361866,1.3815736e-08,0.0,0.0,0.0,0.0,0.0,0.0
626616000,626464000,0.00028165136,1.6331836e-05,1.52309e-08,3.4666347e-05,5.7869585e-07,5.057228e-05,0.0,0.0,0.0,0.0,0.0,0.0,0.0,1.7008454e-06,0.0,0.0,0.0,0.0,2.9974506e-05,6.7693404e-06,2.9974506e-05,1.06998095e-05,1.799872e-05,0.00012148604,1.6816557e-09,0.0,0.0,0.0,0.0,0.0,0.0
626624000,626472000,0.00028165136,1.6331836e-05,1.52309e-08,3.4666347e-05,5.7869585e-07,5.057228e-05,0.0,0.0,0.0,0.0,0.0,0.0,0.0,1.7008454e-06,0.0,0.0,0.0,0.0,6.581292e-05,1.3431262e-05,1.2269662e-05,6.581292e-05,5.5397173e-05,0.0005958813,1.6883916e-08,0.0,0.0,0.0,0.0,0.0,0.0
626632000,626480000,0.00028165136,1.6331836e-05,1.52309e-08,3.4666347e-05,5.7869585e-07,5.057228e-05,0.0,0.0,0.0,0.0,0.0,0.0,0.0,1.7008454e-06,0.0,0.0,0.0,0.0,6.581292e-05,1.3431262e-05,1.2269662e-05,6.581292e-05,2.3266698e-06,0.0005412932,1.8417268e-09,0.0,0.0,0.0,0.0,0.0,0.0
626648000,626496000,0.00028165136,1.6331836e-05,1.52309e-08,3.4666347e-05,5.7869585e-07,5.057228e-05,0.0,0.0,0.0,0.0,0.0,0.0,0.0,6.9480516e-06,0.0,0.0,0.0,0.0,6.581292e-05,1.3431262e-05,1.2269662e-05,6.581292e-05,0.0012089254,0.0013124236,7.569929e-08,0.0,0.0,0.0,0.0,0.0,0.0
626656000,626504000,0.00028165136,1.6331836e-05,1.52309e-08,3.4666347e-05,5.7869585e-07,5.057228e-05,0.0,0.0,0.0,0.0,0.0,0.0,0.0,6.9480516e-06,0.0,0.0,0.0,0.0,6.581292e-05,1.3431262e-05,1.2269662e-05,6.581292e-05,0.00012364324,0.0007332412,1.3042211e-08,0.0,0.0,0.0,0.0,0.0,0.0
626664000,626512000,0.00028165136,1.6331836e-05,1.52309e-08,3.4666347e-05,5.7869585e-07,5.057228e-05,0.0,0.0,0.0,0.0,0.0,0.0,0.0,6.9480516e-06,0.0,0.0,0.0,0.0,6.581292e-05,1.3431262e-05,1.2269662e-05,6.581292e-05,0.0007848266,5.329602e-05,3.129594e-08,0.0,0.0,0.0,0.0,0.0,0.0
626672000,626520000,0.00028165136,1.6331836e-05,1.52309e-08,3.4666347e-05,5.7869585e-07,5.057228e-05,0.0,0.0,0.0,0.0,0.0,0.0,0.0,6.9480516e-06,0.0,0.0,0.0,0.0,6.581292e-05,1.3431262e-05,1.2269662e-05,6.581292e-05,0.00010712573,0.00058263104,1.9519803e-08,0.0,0.0,0.0,0.0,0.0,0.0
626688000,626536000,0.00028165136,1.6331836e-05,1.52309e-08,3.4666347e-05,5.7869585e-07,5.057228e-05,0.0,0.0,0.0,0.0,0.0,0.0,0.0,6.9480516e-06,0.0,0.0,0.0,0.0,6.581292e-05,1.3431262e-05,1.2269662e-05,6.581292e-05,1.9300054e-05,3.3916247e-05,1.2028067e-10,0.0,0.0,0.0,0.0,0.0,0.0
626696000,626544000,0.00028165136,1.6331836e-05,1.52309e-08,3.4666347e-05,5.7869585e-07,5.057228e-05,0.0,0.0,0.0,0.0,0.0,0.0,0.0,6.9480516e-06,0.0,0.0,0.0,0.0,5.6735244e-05,6.9776142e-06,1.6448594e-05,5.6735244e-05,2.7782453e-05,0.0017286491,7.982095e-08,0.0,0.0,0.0,0.0,0.0,0.0
626704000,626552000,0.00028165136,1.6331836e-05,1.52309e-08,3.4666347e-05,5.7869585e-07,5.057228e-05,0.0,0.0,0.0,0.0,0.0,0.0,0.0,6.9480516e-06,0.0,0.0,0.0,0.0,5.6735244e-05,6.9776142e-06,1.6448594e-05,5.6735244e-05,4.0497795e-05,4.1431886e-05,1.4551915e-11,0.0,0.0,0.0,0.0,0.0,0.0
626712000,626560000,0.00028165136,1.6331836e-05,1.52309e-08,3.4666347e-05,5.7869585e-07,5.057228e-05,0.0,0.0,0.0,0.0,0.0,0.0,0.0,6.9480516e-06,0.0,0.0,0.0,0.0,5.6735244e-05,6.9776142e-06,1.6448594e-05,5.6735244e-05,0.00051549094,0.00024380695,4.2987836e-09,0.0,0.0,0.0,0.0,0.0,0.0
626728000,626576000,0.00028165136,1.6331836e-05,1.52309e-08,3.4666347e-05,5.7869585e-07,5.057228e-05,0.0,0.0,0.0,0.0,0.0,0.0,0.0,1.914335e-06,0.0,0.0,0.0,0.0,5.6735244e-05,6.9776142e-06,1.6448594e-05,5.6735244e-05,1.2711033e-05,0.0006266596,1.3759745e-08,0.0,0.0,0.0,0.0,0.0,0.0
626736000,626584000,0.00028165136,1.6331836e-05,1.52309e-08,3.4666347e-05,5.7869585e-07,5.057228e-05,0.0,0.0,0.0,0.0,0.0,0.0,0.0,1.914335e-06,0.0,0.0,0.0,0.0,5.6735244e-05,6.9776142e-06,1.6448594e-05,5.6735244e-05,0.00028367032,5.644701e-05,7.28528e-09,0.0,0.0,0.0,0.0,0.0,0.0
626744000,626592000,0.00028165136,1.6331836e-05,1.52309e-08,3.4666347e-05,5.7869585e-07,5.057228e-05,0.0,0.0,0.0,0.0,0.0,0.0,0.0,1.914335e-06,0.0,0.0,0.0,0.0,5.6735244e-05,6.9776142e-06,1.6448594e-05,5.6735244e-05,4.320122e-08,0.0008004866,1.7635614e-08,0.0,0.0,0.0,0.0,0.0,0.0
626752000,626600000,0.00028165136,1.6331836e-05,1.52309e-08,3.4666347e-05,5.7869585e-07,5.057228e-05,0.0,0.0,0.0,0.0,0.0,0.0,0.0,1.914335e-06,0.0,0.0,0.0,0.0,5.6735244e-05,6.9776142e-06,1.6448594e-05,5.6735244e-05,0.0008809745,3.5029302e-06,2.9290845e-09,0.0,0.0,0.0,0.0,0.0,0.0
626768000,626616000,0.00028165136,1.6331836e-05,1.52309e-08,3.4666347e-05,5.7869585e-07,5.057228e-05,0.0,0.0,0.0,0.0,0.0,0.0,0.0,1.914335e-06,0.0,0.0,0.0,0.0,0.0011506085,8.218343e-05,0.0011506085,0.00068928744,0.00056316535,0.00082495593,3.5926462e-08,0.0,0.0,0.0,0.0,0.0,0.0
626776000,626624000,0.00028165136,1.6331836e-05,1.52309e-08,3.4666347e-05,5.7869585e-07,5.057228e-05,0.0,0.0,0.0,0.0,0.0,0.0,0.0,1.914335e-06,0.0,0.0,0.0,0.0,0.0011506085,8.218343e-05,0.0011506085,0.00068928744,0.0019422896,0.002387281,3.312491e-07,0.0,0.0,0.0,0.0,0.0,0.0
626784000,626632000,0.00028165136,1.6331836e-05,1.52309e-08,3.4666347e-05,5.7869585e-07,5.057228e-05,0.0,0.0,0.0,0.0,0.0,0.0,0.0,1.914335e-06,0.0,0.0,0.0,0.0,0.0011506085,8.218343e-05,0.0011506085,0.00068928744,0.00022203305,2.7758824e-05,2.9290845e-09,0.0,0.0,0.0,0.0,0.0,0.0
626792000,626640000,0.00028165136,1.6331836e-05,1.52309e-08,3.4666347e-05,5.7869585e-07,5.057228e-05,0.0,0.0,0.0,0.0,0.0,0.0,0.0,1.1760551e-05,0.0,0.0,0.0,0.0,0.0011506085,8.218343e-05,0.0011506085,0.00068928744,0.00019433194,0.0003287364,1.2825296e-08,0.0,0.0,0.0,0.0,0.0,0.0
626808000,626656000,0.00028165136,1.6331836e-05,1.52309e-08,3.4666347e-05,5.7869585e-07,5.057228e-05,0.0,0.0,0.0,0.0,0.0,0.0,0.0,1.1760551e-05,0.0,0.0,0.0,0.0,0.0011506085,8.218343e-05,0.0011506085,0.00068928744,0.00040997277,0.00064259383,3.9443023e-08,0.0,0.0,0.0,0.0,0.0,0.0
626816000,626664000,0.00018361058,3.7431817e-06,2.4556764e-05,3.346705e-05,2.5990174e-08,3.689689e-05,0.0,0.0,0.0,0.0,0.0,0.0,0.0,1.1760551e-05,0.0,0.0,0.0,0.0,0.0011506085,8.218343e-05,0.0011506085,0.00068928744,0.00046626234,4.9210685e-06,9.094947e-09,0.0,0.0,0.0,0.0,0.0,0.0
626824000,626672000,0.00018361058,3.7431817e-06,2.4556764e-05,3.346705e-05,2.5990174e-08,3.689689e-05,0.0,0.0,0.0,0.0,0.0,0.0,0.0,1.1760551e-05,0.0,0.0,0.0,0.0,0.0011506085,8.218343e-05,0.0011506085,0.00068928744,3.2822036e-06,0.00043155966,1.2116743e-09,0.0,0.0,0.0,0.0,0.0,0.0
626832000,626680000,0.00018361058,3.7431817e-06,2.4556764e-05,3.346705e-05,2.5990174e-08,3.689689e-05,0.0,0.0,0.0,0.0,0.0,0.0,0.0,1.1760551e-05,0.0,0.0,0.0,0.0,9.874622e-05,9.509331e-05,9.874622e-05,6.384748e-05,0.00046304511,3.2694068e-05,8.868994e-09,0.0,0.0,0.0,0.0,0.0,0.0
626848000,626696000,0.00018361058,3.7431817e-06,2.4556764e-05,3.346705e-05,2.5990174e-08,3.689689e-05,0.0,0.0,0.0,0.0,0.0,0.0,0.0,1.1760551e-05,0.0,0.0,0.0,0.0,9.874622e-05,9.509331e-05,9.874622e-05,6.384748e-05,3.4243058e-06,1.9914314e-06,1.4551915e-11,0.0,0.0,0.0,0.0,0.0,0.0
626856000,626704000,0.00018361058,3.7431817e-06,2.4556764e-05,3.346705e-05,2.5990174e-08,3.689689e-05,0.0,0.0,0.0,0.0,0.0,0.0,0.0,1.1760551e-05,0.0,0.0,0.0,0.0,9.874622e-05,9.509331e-05,9.874622e-05,6.384748e-05,8.352899e-05,3.0102913e-09,5.820766e-11,0.0,0.0,0.0,0.0,0.0,0.0
626864000,626712000,0.00018361058,3.7431817e-06,2.4556764e-05,3.346705e-05,2.5990174e-08,3.689689e-05,0.0,0.0,0.0,0.0,0.0,0.0,0.0,2.039942e-05,0.0,0.0,0.0,0.0,9.874622e-05,9.509331e-05,9.874622e-05,6.384748e-05,0.0003955442,4.7581472e-07,1.6575541e-10,0.0,0.0,0.0,0.0,0.0,0.0
626872000,626720000,0.00018361058,3.7431817e-06,2.4556764e-05,3.346705e-05,2.5990174e-08,3.689689e-05,0.0,0.0,0.0,0.0,0.0,0.0,0.0,2.039942e-05,0.0,0.0,0.0,0.0,9.874622e-05,9.509331e-05,9.874622e-05,6.384748e-05,0.0002698367,0.001195106,1.1613338e-08,0.0,0.0,0.0,0.0,0.0,0.0
626888000,626736000,0.00018361058,3.7431817e-06,2.4556764e-05,3.346705e-05,2.5990174e-08,3.689689e-05,0.0,0.0,0.0,0.0,0.0,0.0,0.0,2.039942e-05,0.0,0.0,0.0,0.0,9.874622e-05,9.509331e-05,9.874622e-05,6.384748e-05,0.0014674821,0.00097340846,1.8131891e-07,0.0,0.0,0.0,0.0,0.0,0.0
626896000,626744000,0.00018361058,3.7431817e-06,2.4556764e-05,3.346705e-05,2.5990174e-08,3.689689e-05,0.0,0.0,0.0,0.0,0.0,0.0,0.0,2.039942e-05,0.0,0.0,0.0,0.0,9.874622e-05,9.509331e-05,9.874622e-05,6.384748e-05,0.00024467398,1.0873805e-05,3.007017e-11,0.0,0.0,0.0,0.0,0.0,0.0
626904000,626752000,0.00018361058,3.7431817e-06,2.4556764e-05,3.346705e-05,2.5990174e-08,3.689689e-05,0.0,0.0,0.0,0.0,0.0,0.0,0.0,2.039942e-05,0.0,0.0,0.0,0.0,0.0025477426,2.761869e-05,9.953533e-05,0.0025477426,0.0001210687,0.00021526086,2.2737368e-09,0.0,0.0,0.0,0.0,0.0,0.0
626912000,626760000,0.00018361058,3.7431817e-06,2.4556764e-05,3.346705e-05,2.5990174e-08,3.689689e-05,0.0,0.0,0.0,0.0,0.0,0.0,0.0,2.039942e-05,0.0,0.0,0.0,0.0,0.0025477426,2.761869e-05,9.953533e-05,0.0025477426,0.00033884053,3.26228e-05,8.779409e-09,0.0,0.0,0.0,0.0,0.0,0.0
626928000,626776000,0.00018361058,3.7431817e-06,2.4556764e-05,3.346705e-05,2.5990174e-08,3.689689e-05,0.0,0.0,0.0,0.0,0.0,0.0,0.0,2.039942e-05,0.0,0.0,0.0,0.0,0.0025477426,2.761869e-05,9.953533e-05,0.0025477426,6.127812e-05,5.768155e-05,1.1004886e-10,0.0,0.0,0.0,0.0,0.0,0.0
626936000,626784000,0.00018361058,3.7431817e-06,2.4556764e-05,3.346705e-05,2.5990174e-08,3.689689e-05,0.0,0.0,0.0,0.0,0.0,0.0,0.0,5.1528457e-07,0.0,0.0,0.0,0.0,0.0025477426,2.761869e-05,9.953533e-05,0.0025477426,2.7090184e-05,0.0011927832,1.5607839e-08,0.0,0.0,0.0,0.0,0.0,0.0
626944000,626792000,0.00018361058,3.7431817e-06,2.4556764e-05,3.346705e-05,2.5990174e-08,3.689689e-05,0.0,0.0,0.0,0.0,0.0,0.0,0.0,5.1528457e-07,0.0,0.0,0.0,0.0,0.0025477426,2.761869e-05,9.953533e-05,0.0025477426,5.7167323e-05,0.00016160328,1.4210855e-12,0.0,0.0,0.0,0.0,0.0,0.0
626952000,626800000,0.00018361058,3.7431817e-06,2.4556764e-05,3.346705e-05,2.5990174e-08,3.689689e-05,0.0,0.0,0.0,0.0,0.0,0.0,0.0,5.1528457e-07,0.0,0.0,0.0,0.0,0.0025477426,2.761869e-05,9.953533e-05,0.0025477426,0.0006277395,0.001409392,2.7298995e-08,0.0,0.0,0.0,0.0,0.0,0.0
626968000,626816000,0.00018361058,3.7431817e-06,2.4556764e-05,3.346705e-05,2.5990174e-08,3.689689e-05,0.0,0.0,0.0,0.0,0.0,0.0,0.0,5.1528457e-07,0.0,0.0,0.0,0.0,0.0025477426,2.761869e-05,9.953533e-05,0.0025477426,0.000101938385,0.00018702722,4.6821356e-09,0.0,0.0,0.0,0.0,0.0,0.0
626976000,626824000,0.00018361058,3.7431817e-06,2.4556764e-05,3.346705e-05,2.5990174e-08,3.689689e-05,0.0,0.0,0.0,0.0,0.0,0.0,0.0,5.1528457e-07,0.0,0.0,0.0,0.0,0.00031571984,0.00011254618,1.1839362e-07,0.00031571984,0.0001141156,6.269876e-05,2.6032012e-09,0.0,0.0,0.0,0.0,0.0,0.0
626984000,626832000,0.00018361058,3.7431817e-06,2.4556764e-05,3.346705e-05,2.5990174e-08,3.689689e-05,0.0,0.0,0.0,0.0,0.0,0.0,0.0,5.1528457e-07,0.0,0.0,0.0,0.0,0.00031571984,0.00011254618,1.1839362e-07,0.00031571984,4.9308845e-05,0.00068140187,2.8521754e-09,0.0,0.0,0.0,0.0,0.0,0.0
626992000,626840000,0.00018361058,3.7431817e-06,2.4556764e-05,3.346705e-05,2.5990174e-08,3.689689e-05,0.0,0.0,0.0,0.0,0.0,0.0,0.0,5.1528457e-07,0.0,0.0,0.0,0.0,0.00031571984,0.00011254618,1.1839362e-07,0.00031571984,2.3936927e-05,0.00017614741,2.3194389e-09,0.0,0.0,0.0,0.0,0.0,0.0
627008000,626856000,0.00018361058,3.7431817e-06,2.4556764e-05,3.346705e-05,2.5990174e-08,3.689689e-05,0.0,0.0,0.0,0.0,0.0,0.0,0.0,7.9651966e-07,0.0,0.0,0.0,0.0,0.00031571984,0.00011254618,1.1839362e-07,0.00031571984,0.0004046573,4.8834127e-06,4.456524e-11,0.0,0.0,0.0,0.0,0.0,0.0
627016000,626864000,0.00018361058,3.7431817e-06,2.4556764e-05,3.346705e-05,2.5990174e-08,3.689689e-05,0.0,0.0,0.0,0.0,0.0,0.0,0.0,7.9651966e-07,0.0,0.0,0.0,0.0,0.00031571984,0.00011254618,1.1839362e-07,0.00031571984,0.002560676,0.0017759909,2.296531e-07,0.0,0.0,0.0,0.0,0.0,0.0
627024000,626872000,0.00018361058,3.7431817e-06,2.4556764e-05,3.346705e-05,2.5990174e-08,3.689689e-05,0.0,0.0,0.0,0.0,0.0,0.0,0.0,7.9651966e-07,0.0,0.0,0.0,0.0,0.00031571984,0.00011254618,1.1839362e-07,0.00031571984,0.0014415011,0.00020533113,1.2663804e-08,0.0,0.0,0.0,0.0,0.0,0.0
627032000,626880000,0.00018361058,3.7431817e-06,2.4556764e-05,3.346705e-05,2.5990174e-08,3.689689e-05,0.0,0.0,0.0,0.0,0.0,0.0,0.0,7.9651966e-07,0.0,0.0,0.0,0.0,0.00031571984,0.00011254618,1.1839362e-07,0.00031571984,0.00020978371,0.0003922308,1.5252454e-08,0.0,0.0,0.0,0.0,0.0,0.0
627048000,626896000,0.00018361058,3.7431817e-06,2.4556764e-05,3.346705e-05,2.5990174e-08,3.689689e-05,0.0,0.0,0.0,0.0,0.0,0.0,0.0,7.9651966e-07,0.0,0.0,0.0,0.0,0.0011090225,0.0011090225,0.0004077379,0.00022318031,0.0008023132,0.0011545876,4.3919556e-08,0.0,0.0,0.0,0.0,0.0,0.0
627056000,626904000,0.00018361058,3.7431817e-06,2.4556764e-05,3.346705e-05,2.5990174e-08,3.689689e-05,0.0,0.0,0.0,0.0,0.0,0.0,0.0,7.9651966e-07,0.0,0.0,0.0,0.0,0.0011090225,0.0011090225,0.0004077379,0.00022318031,0.00012988351,1.1212168e-06,9.555379e-11,0.0,0.0,0.0,0.0,0.0,0.0
627064000,626912000,0.00018361058,3.7431817e-06,2.4556764e-05,3.346705e-05,2.5990174e-08,3.689689e-05,0.0,0.0,0.0,0.0,0.0,0.0,0.0,7.9651966e-07,0.0,0.0,0.0,0.0,0.0011090225,0.0011090225,0.0004077379,0.00022318031,7.86609e-05,5.3941792e-05,8.4605745e-10,0.0,0.0,0.0,0.0,0.0,0.0
627072000,626920000,0.00018361058,3.7431817e-06,2.4556764e-05,3.346705e-05,2.5990174e-08,3.689689e-05,0.0,0.0,0.0,0.0,0.0,0.0,0.0,1.5636226e-06,0.0,0.0,0.0,0.0,0.0011090225,0.0011090225,0.0004077379,0.00022318031,0.00017682182,0.0007770146,3.240217e-08,0.0,0.0,0.0,0.0,0.0,0.0
627088000,626936000,0.00018361058,3.7431817e-06,2.4556764e-05,3.346705e-05,2.5990174e-08,3.689689e-05,0.0,0.0,0.0,0.0,0.0,0.0,0.0,1.5636226e-06,0.0,0.0,0.0,0.0,0.0011090225,0.0011090225,0.0004077379,0.00022318031,7.5927474e-06,0.00026473365,3.6962433e-09,0.0,0.0,0.0,0.0,0.0,0.0
627096000,626944000,0.00018361058,3.7431817e-06,2.4556764e-05,3.346705e-05,2.5990174e-08,3.689689e-05,0.0,0.0,0.0,0.0,0.0,0.0,0.0,1.5636226e-06,0.0,0.0,0.0,0.0,0.0011090225,0.0011090225,0.0004077379,0.00022318031,0.0010625338,0.0005805573,6.42313e-08,0.0,0.0,0.0,0.0,0.0,0.0
627104000,626952000,0.00018361058,3.7431817e-06,2.4556764e-05,3.346705e-05,2.5990174e-08,3.689689e-05,0.0,0.0,0.0,0.0,0.0,0.0,0.0,1.5636226e-06,0.0,0.0,0.0,0.0,0.0011090225,0.0011090225,0.0004077379,0.00022318031,5.7047862e-05,0.000109112196,1.3648105e-10,0.0,0.0,0.0,0.0,0.0,0.0
627112000,626960000,0.00018361058,3.7431817e-06,2.4556764e-05,3.346705e-05,2.5990174e-08,3.689689e-05,0.0,0.0,0.0,0.0,0.0,0.0,0.0,1.5636226e-06,0.0,0.0,0.0,0.0,0.0011090225,0.0011090225,0.0004077379,0.00022318031,7.244952e-05,0.0011406768,1.6088052e-08,0.0,0.0,0.0,0.0,0.0,0.0
627128000,626976000,0.00018361058,3.7431817e-06,2.4556764e-05,3.346705e-05,2.5990174e-08,3.689689e-05,0.0,0.0,0.0,0.0,0.0,0.0,0.0,3.846378e-06,0.0,0.0,0.0,0.0,7.211876e-05,2.1095784e-05,7.211876e-05,3.90972e-05,0.00081625086,0.00019444923,4.3719922e-08,0.0,0.0,0.0,0.0,0.0,0.0
627136000,626984000,0.00018361058,3.7431817e-06,2.4556764e-05,3.346705e-05,2.5990174e-08,3.689689e-05,0.0,0.0,0.0,0.0,0.0,0.0,0.0,3.846378e-06,0.0,0.0,0.0,0.0,7.211876e-05,2.1095784e-05,7.211876e-05,3.90972e-05,0.0010026598,0.00048509098,2.1780181e-08,0.0,0.0,0.0,0.0,0.0,0.0
627144000,626992000,0.00018361058,3.7431817e-06,2.4556764e-05,3.346705e-05,2.5990174e-08,3.689689e-05,0.0,0.0,0.0,0.0,0.0,0.0,0.0,3.846378e-06,0.0,0.0,0.0,0.0,7.211876e-05,2.1095784e-05,7.211876e-05,3.90972e-05,0.0036592076,0.0010272125,2.4474645e-07,0.0,0.0,0.0,0.0,0.0,0.0
627152000,627000000,0.00018361058,3.7431817e-06,2.4556764e-05,3.346705e-05,2.5990174e-08,3.689689e-05,0.0,0.0,0.0,0.0,0.0,0.0,0.0,3.846378e-06,0.0,0.0,0.0,0.0,7.211876e-05,2.1095784e-05,7.211876e-05,3.90972e-05,7.735064e-05,0.001712649,6.556752e-08,0.0,0.0,0.0,0.0,0.0,0.0
627168000,627016000,0.00018361058,3.7431817e-06,2.4556764e-05,3.346705e-05,2.5990174e-08,3.689689e-05,0.0,0.0,0.0,0.0,0.0,0.0,0.0,3.846378e-06,0.0,0.0,0.0,0.0,7.211876e-05,2.1095784e-05,7.211876e-05,3.90972e-05,5.3357347e-05,0.00010745696,1.1004886e-10,0.0,0.0,0.0,0.0,0.0,0.0
627176000,627024000,0.00018361058,3.7431817e-06,2.4556764e-05,3.346705e-05,2.5990174e-08,3.689689e-05,0.0,0.0,0.0,0.0,0.0,0.0,0.0,3.846378e-06,0.0,0.0,0.0,0.0,7.211876e-05,2.1095784e-05,7.211876e-05,3.90972e-05,0.00016553253,7.5721306e-05,1.1510792e-10,0.0,0.0,0.0,0.0,0.0,0.0
627184000,627032000,0.00018361058,3.7431817e-06,2.4556764e-05,3.346705e-05,2.5990174e-08,3.689689e-05,0.0,0.0,0.0,0.0,0.0,0.0,0.0,3.846378e-06,0.0,0.0,0.0,0.0,7.211876e-05,2.1095784e-05,7.211876e-05,3.90972e-05,4.380154e-05,2.9090205e-07,8.645884e-11,0.0,0.0,0.0,0.0,0.0,0.0
627192000,627040000,0.00018361058,3.7431817e-06,2.4556764e-05,3.346705e-05,2.5990174e-08,3.689689e-05,0.0,0.0,0.0,0.0,0.0,0.0,0.0,3.846378e-06,0.0,0.0,0.0,0.0,0.00016290646,3.0734243e-06,0.00016290646,2.2318754e-05,0.0017031472,5.552999e-06,1.3928059e-08,0.0,0.0,0.0,0.0,0.0,0.0
627208000,627056000,0.00018361058,3.7431817e-06,2.4556764e-05,3.346705e-05,2.5990174e-08,3.689689e-05,0.0,0.0,0.0,0.0,0.0,0.0,0.0,3.05863e-05,0.0,0.0,0.0,0.0,0.00016290646,3.0734243e-06,0.00016290646,2.2318754e-05,0.0012226307,0.00013665746,5.4626526e-09,0.0,0.0,0.0,0.0,0.0,0.0
627216000,627064000,0.00011930229,8.923923e-07,0.0005315529,2.9714642e-05,2.4240699e-06,1.2682583e-05,0.0,0.0,0.0,0.0,0.0,0.0,0.0,3.05863e-05,0.0,0.0,0.0,0.0,0.00016290646,3.0734243e-06,0.00016290646,2.2318754e-05,0.0007086427,0.000512341,1.1054965e-08,0.0,0.0,0.0,0.0,0.0,0.0
627224000,627072000,0.00011930229,8.923923e-07,0.0005315529,2.9714642e-05,2.4240699e-06,1.2682583e-05,0.0,0.0,0.0,0.0,0.0,0.0,0.0,3.05863e-05,0.0,0.0,0.0,0.0,0.00016290646,3.0734243e-06,0.00016290646,2.2318754e-05,1.8858995e-05,0.0004893107,8.779409e-09,0.0,0.0,0.0,0.0,0.0,0.0
627232000,627080000,0.00011930229,8.923923e-07,0.0005315529,2.9714642e-05,2.4240699e-06,1.2682583e-05,0.0,0.0,0.0,0.0,0.0,0.0,0.0,3.05863e-05,0.0,0.0,0.0,0.0,0.00016290646,3.0734243e-06,0.00016290646,2.2318754e-05,7.463712e-05,7.898825e-06,8.645884e-11,0.0,0.0,0.0,0.0,0.0,0.0
627248000,627096000,0.00011930229,8.923923e-07,0.0005315529,2.9714642e-05,2.4240699e-06,1.2682583e-05,0.0,0.0,0.0,0.0,0.0,0.0,0.0,3.05863e-05,0.0,0.0,0.0,0.0,0.00016290646,3.0734243e-06,0.00016290646,2.2318754e-05,8.826928e-05,3.0376856e-05,1.6427748e-11,0.0,0.0,0.0,0.0,0.0,0.0
627256000,627104000,0.00011930229,8.923923e-07,0.0005315529,2.9714642e-05,2.4240699e-06,1.2682583e-05,0.0,0.0,0.0,0.0,0.0,0.0,0.0,3.05863e-05,0.0,0.0,0.0,0.0,0.00016290646,3.0734243e-06,0.00016290646,2.2318754e-05,0.001552773,0.00052858953,1.1237012e-07,0.0,0.0,0.0,0.0,0.0,0.0
627264000,627112000,0.00011930229,8.923923e-07,0.0005315529,2.9714642e-05,2.4240699e-06,1.2682583e-05,0.0,0.0,0.0,0.0,0.0,0.0,0.0,3.05863e-05,0.0,0.0,0.0,0.0,6.0368362e-05,6.0368362e-05,2.5545163e-05,5.0629615e-06,1.9620506e-05,0.0008994038,2.3575012e-08,0.0,0.0,0.0,0.0,0.0,0.0
627272000,627120000,0.00011930229,8.923923e-07,0.0005315529,2.9714642e-05,2.4240699e-06,1.2682583e-05,0.0,0.0,0.0,0.0,0.0,0.0,0.0,1.3552619e-06,0.0,0.0,0.0,0.0,6.0368362e-05,6.0368362e-05,2.5545163e-05,5.0629615e-06,3.1163192e-05,0.00015500387,2.7853275e-12,0.0,0.0,0.0,0.0,0.0,0.0
627288000,627136000,0.00011930229,8.923923e-07,0.0005315529,2.9714642e-05,2.4240699e-06,1.2682583e-05,0.0,0.0,0.0,0.0,0.0,0.0,0.0,1.3552619e-06,0.0,0.0,0.0,0.0,6.0368362e-05,6.0368362e-05,2.5545163e-05,5.0629615e-06,0.0006917003,0.0009858786,5.972112e-08,0.0,0.0,0.0,0.0,0.0,0.0
627296000,627144000,0.00011930229,8.923923e-07,0.0005315529,2.9714642e-05,2.4240699e-06,1.2682583e-05,0.0,0.0,0.0,0.0,0.0,0.0,0.0,1.3552619e-06,0.0,0.0,0.0,0.0,6.0368362e-05,6.0368362e-05,2.5545163e-05,5.0629615e-06,0.0015717704,1.28218035e-05,8.7261526e-08,0.0,0.0,0.0,0.0,0.0,0.0
627304000,627152000,0.00011930229,8.923923e-07,0.0005315529,2.9714642e-05,2.4240699e-06,1.2682583e-05,0.0,0.0,0.0,0.0,0.0,0.0,0.0,1.3552619e-06,0.0,0.0,0.0,0.0,6.0368362e-05,6.0368362e-05,2.5545163e-05,5.0629615e-06,0.00011872956,0.00046638848,4.747619e-09,0.0,0.0,0.0,0.0,0.0,0.0
627312000,627160000,0.00011930229,8.923923e-07,0.0005315529,2.9714642e-05,2.4240699e-06,1.2682583e-05,0.0,0.0,0.0,0.0,0.0,0.0,0.0,1.3552619e-06,0.0,0.0,0.0,0.0,6.0368362e-05,6.0368362e-05,2.5545163e-05,5.0629615e-06,0.0007558471,0.00025907796,5.287859e-09,0.0,0.0,0.0,0.0,0.0,0.0
627328000,627176000,0.00011930229,8.923923e-07,0.0005315529,2.9714642e-05,2.4240699e-06,1.2682583e-05,0.0,0.0,0.0,0.0,0.0,0.0,0.0,1.3552619e-06,0.0,0.0,0.0,0.0,6.0368362e-05,6.0368362e-05,2.5545163e-05,5.0629615e-06,0.0019961277,0.0014010012,2.4663728e-07,0.0,0.0,0.0,0.0,0.0,0.0
627336000,627184000,0.00011930229,8.923923e-07,0.0005315529,2.9714642e-05,2.4240699e-06,1.2682583e-05,0.0,0.0,0.0,0.0,0.0,0.0,0.0,1.3552619e-06,0.0,0.0,0.0,0.0,0.00019464034,6.6253583e-06,0.00019464034,3.3400322e-06,0.00013965082,0.0007865388,1.2771352e-08,0.0,0.0,0.0,0.0,0.0,0.0
627344000,627192000,0.00011930229,8.923923e-07,0.0005315529,2.9714642e-05,2.4240699e-06,1.2682583e-05,0.0,0.0,0.0,0.0,0.0,0.0,0.0,9.382444e-09,0.0,0.0,0.0,0.0,0.00019464034,6.6253583e-06,0.00019464034,3.3400322e-06,4.2879353e-08,0.0010494954,2.9059777e-08,0.0,0.0,0.0,0.0,0.0,0.0
627352000,627200000,0.00011930229,8.923923e-07,0.0005315529,2.9714642e-05,2.4240699e-06,1.2682583e-05,0.0,0.0,0.0,0.0,0.0,0.0,0.0,9.382444e-09,0.0,0.0,0.0,0.0,0.00019464034,6.6253583e-06,0.00019464034,3.3400322e-06,0.00082736753,0.00037747138,9.884445e-09,0.0,0.0,0.0,0.0,0.0,0.0
627368000,627216000,0.00011930229,8.923923e-07,0.0005315529,2.9714642e-05,2.4240699e-06,1.2682583e-05,0.0,0.0,0.0,0.0,0.0,0.0,0.0,9.382444e-09,0.0,0.0,0.0,0.0,0.00019464034,6.6253583e-06,0.00019464034,3.3400322e-06,0.0025380217,8.279135e-05,4.655618e-08,0.0,0.0,0.0,0.0,0.0,0.0
627376000,627224000,0.00011930229,8.923923e-07,0.0005315529,2.9714642e-05,2.4240699e-06,1.2682583e-05,0.0,0.0,0.0,0.0,0.0,0.0,0.0,9.382444e-09,0.0,0.0,0.0,0.0,0.00019464034,6.6253583e-06,0.00019464034,3.3400322e-06,0.00035010162,0.00078834844,3.7252903e-09,0.0,0.0,0.0,0.0,0.0,0.0
