timestamp,timestamp_sample,device_id,bias,bias_var,innov,innov_var,innov_test_ratio
625256000,625104000,6620172,0.04774316,0.11863017,0.031385724,12.449396,8.791712e-06
625328000,625176000,6620172,0.047460735,0.11869336,-0.02934106,12.450907,7.682598e-06
625400000,625248000,6620172,0.048049588,0.118755475,0.061151326,12.452437,3.3366825e-05
625472000,625320000,6620172,0.047866587,0.11881654,-0.018996853,12.453988,3.2196774e-06
625544000,625392000,6620172,0.04855139,0.11887657,0.07106042,12.45556,4.504533e-05
625616000,625464000,6620172,0.048706472,0.118935496,0.016084839,12.456082,2.3078596e-06
625688000,625534666,6620172,0.048926163,0.11899279,0.022765696,12.450769,4.625122e-06
625752000,625596000,6620172,0.049149167,0.1189165,0.023125838,12.451927,4.77217e-06
625808000,625653333,6620172,0.049509734,0.118709154,0.03745972,12.452741,1.2520497e-05
625880000,625725333,6620172,0.049648337,0.118771136,0.014394075,12.454296,1.8484418e-06
625944000,625786000,6620172,0.050288834,0.11869944,0.0665626,12.4555025,3.9523627e-05
626000000,625845333,6620172,0.050472077,0.118496604,0.019077621,12.456351,3.2464977e-06
626064000,625908000,6620172,0.050654437,0.118429646,0.01898593,12.449648,3.2170976e-06
626120000,625968000,6620172,0.050477456,0.118231446,-0.018458392,12.450454,3.0406054e-06
626192000,626040000,6620172,0.05030765,0.1183024,-0.017701577,12.451992,2.7960348e-06
626264000,626112000,6620172,0.049154427,0.118372135,-0.12016238,12.45355,0.00012882536
626336000,626181333,6620172,0.04879147,0.11844067,-0.037801888,12.455128,1.2747831e-05
626408000,626254666,6620172,0.048620038,0.11850805,-0.017846644,12.456725,2.8409704e-06
626472000,626316000,6620172,0.048924558,0.1184409,0.031702228,12.449979,8.969504e-06
626528000,626374666,6620172,0.04886833,0.11824252,-0.005864255,12.450788,3.068926e-07
626592000,626436000,6620172,0.04908874,0.11818065,0.023000568,12.451967,4.720594e-06
626648000,626496000,6620172,0.049533788,0.11798743,0.046522833,12.452801,1.9311801e-05
626720000,626568000,6620172,0.04930008,0.11806328,-0.024417821,12.454381,5.3192343e-06
626792000,626638666,6620172,0.049879454,0.11813782,0.060502168,12.455979,3.265288e-05
626864000,626710666,6620172,0.050643228,0.11821035,0.079667665,12.449618,5.6645527e-05
626936000,626782666,6620172,0.050764564,0.11828163,0.012650229,12.451141,1.4280556e-06
627008000,626854666,6620172,0.05061332,0.11835168,-0.015760902,12.452685,2.2164436e-06
627072000,626916000,6620172,0.050824773,0.1182879,0.022049032,12.453883,4.337423e-06
627128000,626974666,6620172,0.05049334,0.118092805,-0.03461994,12.454728,1.0692415e-05
627200000,627048000,6620172,0.05142826,0.11816681,0.09760846,12.456329,8.498502e-05
627272000,627118666,6620172,0.051625144,0.118238814,0.02053219,12.449933,3.7623658e-06
627344000,627190666,6620172,0.05164164,0.11830958,0.0017195828,12.451458,2.6386601e-08
627416000,627264000,6620172,0.051885873,0.11837912,0.025445763,12.453004,5.777159e-06
627488000,627334666,6620172,0.051271297,0.11844748,-0.06400135,12.45457,3.6543242e-05
627560000,627406666,6620172,0.051023252,0.11851467,-0.025819637,12.456156,5.9466684e-06
627632000,627478666,6620172,0.051156227,0.118579976,0.013826601,12.449753,1.7061909e-06
627696000,627538000,6620172,0.051103935,0.118511535,-0.0054408945,12.450905,2.641783e-07
627752000,627600000,6620172,0.050825045,0.11831188,-0.029070243,12.451716,7.540942e-06
627824000,627672000,6620172,0.05113013,0.11838141,0.03178604,12.453264,9.014614e-06
627896000,627744000,6620172,0.050435483,0.11844975,-0.07233985,12.454832,4.6684723e-05
627968000,627816000,6620172,0.050466362,0.118516915,0.003214419,12.456419,9.216568e-08
628040000,627886666,6620172,0.049490593,0.1185822,-0.10146123,12.44999,9.187318e-05
628112000,627960000,6620172,0.049060825,0.11864637,-0.044668816,12.451501,1.780511e-05
628184000,628032000,6620172,0.048180602,0.118709445,-0.09144974,12.4530325,7.461863e-05
628256000,628102666,6620172,0.047757514,0.11877145,-0.04393866,12.454584,1.7223518e-05
628328000,628176000,6620172,0.048375465,0.1188324,0.064150445,12.456156,3.6709025e-05
628400000,628248000,6620172,0.047982816,0.118892334,-0.04074607,12.4577465,1.4807762e-05
628472000,628318666,6620172,0.047845542,0.1189505,-0.014230374,12.451224,1.8070829e-06
628544000,628392000,6620172,0.04775107,0.119007684,-0.0097901225,12.452739,8.552023e-07
628616000,628462666,6620172,0.04715578,0.11906391,-0.061667085,12.454272,3.392704e-05
628688000,628536000,6620172,0.047152773,0.11911919,-0.00031129643,12.455828,8.644367e-10
628760000,628606666,6620172,0.046512157,0.11917355,-0.06631781,12.457402,3.9227474e-05
628832000,628677333,6620172,0.046702746,0.119226255,0.019710988,12.450891,3.4671598e-06
628904000,628752000,6620172,0.04507121,0.11927808,-0.1686815,12.452389,0.00025388657
628976000,628824000,6620172,0.045452725,0.11932904,0.039431963,12.453907,1.3872307e-05
629048000,628896000,6620172,0.04532797,0.11937916,-0.012890469,12.455444,1.4822987e-06
629120000,628968000,6620172,0.045522574,0.11942846,0.020101719,12.457004,3.6042118e-06
629192000,629040000,6620172,0.044986587,0.11947695,-0.055349234,12.458582,2.7321976e-05
629264000,629112000,6620172,0.044339344,0.11952388,-0.06677614,12.451991,3.9788847e-05
629336000,629184000,6620172,0.043291073,0.11957005,-0.10812108,12.453492,0.00010430068
629408000,629256000,6620172,0.042346515,0.11961546,-0.09739874,12.455014,8.4629144e-05
629480000,629328000,6620172,0.04168678,0.11966013,-0.0680118,12.456557,4.125988e-05
629552000,629397333,6620172,0.04226596,0.11970409,0.059692614,12.458119,3.1779437e-05
629624000,629469333,6620172,0.041270178,0.11974657,-0.102538176,12.4515505,9.382212e-05
629688000,629532000,6620172,0.03946261,0.119655766,-0.18628971,12.45268,0.00030965096
629744000,629590666,6620172,0.039037887,0.119434215,-0.043857142,12.453465,1.7161212e-05
629816000,629662666,6620172,0.03934232,0.11948226,0.0314272,12.45499,8.811006e-06
629888000,629734666,6620172,0.039274555,0.119529516,-0.0069936886,12.456536,4.362875e-07
629952000,629796000,6620172,0.039884694,0.11944339,0.06302036,12.457728,3.54226e-05
630008000,629856000,6620172,0.03984431,0.11922642,-0.0041791275,12.458561,1.5576177e-07
630080000,629928000,6620172,0.0401033,0.1192782,0.026775561,12.451972,6.397297e-06
630152000,630000000,6620172,0.039667737,0.119329125,-0.04501663,12.453479,1.8080598e-05
630224000,630070666,6620172,0.040122945,0.11937921,0.047032703,12.455008,1.973392e-05
630296000,630144000,6620172,0.040247995,0.11942846,0.012916606,12.456555,1.488183e-06
630368000,630216000,6620172,0.04014815,0.119476914,-0.010310251,12.458123,9.480765e-07
630440000,630288000,6620172,0.03953122,0.11952381,-0.06364669,12.451555,3.6148107e-05
630512000,630360000,6620172,0.0401584,0.119569935,0.06468631,12.453047,3.7334183e-05
630584000,630432000,6620172,0.04037211,0.11961531,0.022036426,12.454558,4.3322293e-06
630656000,630504000,6620172,0.040360294,0.119659945,-0.0012180582,12.456091,1.3234629e-08
630728000,630576000,6620172,0.040808454,0.11970386,0.046187557,12.457643,1.9027057e-05
630800000,630646666,6620172,0.04097751,0.11974707,0.017419085,12.459214,2.705936e-06
630864000,630706000,6620172,0.041753724,0.11965621,0.07999417,12.452223,5.709884e-05
630920000,630766666,6620172,0.041809823,0.11943461,0.0057926625,12.453002,2.993918e-07
630984000,630828000,6620172,0.041859724,0.11934999,0.0051567294,12.454156,2.3724216e-07
631040000,630886666,6620172,0.04244344,0.11913449,0.0604352,12.454962,3.2583295e-05
631112000,630958666,6620172,0.042619236,0.11918848,0.018194988,12.456515,2.9530072e-06
631176000,631020000,6620172,0.042979695,0.119108945,0.03733682,12.457717,1.2433507e-05
631232000,631078666,6620172,0.04219948,0.118897684,-0.080913045,12.450476,5.8426333e-05
631304000,631152000,6620172,0.043497756,0.11895582,0.13458885,12.451972,0.00016163579
631376000,631224000,6620172,0.04267457,0.119012974,-0.08530684,12.453489,6.492832e-05
631448000,631294666,6620172,0.043196183,0.11906917,0.054035634,12.455027,2.6047937e-05
631520000,631366666,6620172,0.0434097,0.11912442,0.022111434,12.456584,4.361063e-06
631584000,631428000,6620172,0.044733193,0.11904613,0.1371628,12.4577875,0.00016779896
631640000,631488000,6620172,0.04395296,0.11883608,-0.08095756,12.4505415,5.8490332e-05
631712000,631558666,6620172,0.044772603,0.11889541,0.08501433,12.452042,6.449131e-05
631776000,631620000,6620172,0.04451325,0.118821114,-0.02691982,12.453201,6.465778e-06
631832000,631678666,6620172,0.044831205,0.118615724,0.033062432,12.454014,9.75254e-06
631904000,631750666,6620172,0.044964198,0.11867963,0.01382358,12.455573,1.7046485e-06
631968000,631812000,6620172,0.044747554,0.118609816,-0.022533778,12.456781,4.529181e-06
632024000,631872000,6620172,0.04540716,0.11840808,0.068686284,12.449604,4.2105807e-05
632096000,631942666,6620172,0.045603048,0.11847556,0.020388737,12.451105,3.709627e-06
632160000,632004000,6620172,0.04603631,0.118409246,0.04512571,12.452269,1.8170093e-05
632216000,632064000,6620172,0.046085883,0.11821168,0.0051721856,12.453085,2.38687e-07
632288000,632136000,6620172,0.04663073,0.11828326,0.05681939,12.454647,2.880177e-05
632360000,632208000,6620172,0.047306743,0.118353605,0.07046522,12.456227,4.4291522e-05
632432000,632278666,6620172,0.046729885,0.11842201,-0.06006309,12.449788,3.2196665e-05
632496000,632340000,6620172,0.047037657,0.11835661,0.0320665,12.450937,9.17611e-06
632552000,632398666,6620172,0.047288146,0.11815993,0.026143495,12.451744,6.0989432e-06
632624000,632472000,6620172,0.047325432,0.11823237,0.0038898326,12.453289,1.3500045e-07
632696000,632542666,6620172,0.047562283,0.11830357,0.024696052,12.454852,5.4409406e-06
632768000,632614666,6620172,0.047730792,0.11837354,0.01756223,12.456434,2.7512053e-06
632840000,632686666,6620172,0.04750711,0.11844158,-0.023286212,12.449982,4.8393435e-06
632912000,632760000,6620172,0.04763917,0.11850845,0.013741668,12.4514885,1.6850591e-06
632984000,632830666,6620172,0.047950163,0.11857418,0.032347403,12.453015,9.336021e-06
633056000,632902666,6620172,0.048760813,0.11863878,0.0842825,12.454563,6.3372936e-05
633128000,632974666,6620172,0.049212795,0.11870229,0.04697283,12.456131,1.9681935e-05
633200000,633048000,6620172,0.049092468,0.11876473,-0.012500148,12.457717,1.393636e-06
633272000,633120000,6620172,0.04995626,0.11882535,0.08964044,12.451181,7.17059e-05
633344000,633190666,6620172,0.051025335,0.11888495,0.11090189,12.452692,0.00010974182
633416000,633262666,6620172,0.050812855,0.11894354,-0.022033636,12.454224,4.331249e-06
633488000,633336000,6620172,0.05115818,0.11900114,0.03579603,12.455775,1.143027e-05
633560000,633408000,6620172,0.050252177,0.11905778,-0.093882784,12.457348,7.861471e-05
633632000,633478666,6620172,0.050547957,0.119112715,0.030619405,12.450828,8.366673e-06
633704000,633550666,6620172,0.050656375,0.11916673,0.011219621,12.452323,1.1232164e-06
633776000,633622666,6620172,0.05036495,0.11921984,-0.030148562,12.453837,8.109378e-06
633848000,633696000,6620172,0.050700948,0.11927207,0.034748577,12.455374,1.0771464e-05
633920000,633766666,6620172,0.051151283,0.11932343,0.046558574,12.45693,1.9335072e-05
633992000,633838666,6620172,0.05154395,0.11937395,0.040584557,12.458506,1.4689708e-05
634064000,633912000,6620172,0.05176266,0.11942287,0.022583246,12.451912,4.5508673e-06
634136000,633984000,6620172,0.05204169,0.119470984,0.028803747,12.453411,7.402308e-06
634208000,634056000,6620172,0.05263924,0.11951831,0.061666805,12.454931,3.3924938e-05
634280000,634126666,6620172,0.052834496,0.11956486,0.020145185,12.456472,3.61997e-06
634352000,634198666,6620172,0.053543024,0.11961066,0.07308103,12.458033,4.7634032e-05
634416000,634260000,6620172,0.054126486,0.119523,0.060226507,12.458146,3.2350385e-05
634472000,634318666,6620172,0.05442185,0.119303875,0.030529276,12.451887,8.3167815e-06
634544000,634392000,6620172,0.05496371,0.11935429,0.055990748,12.45339,2.7970642e-05
634616000,634464000,6620172,0.05442572,0.11940388,-0.055574063,12.454914,2.7552505e-05
634688000,634536000,6620172,0.05454912,0.11945265,0.012743469,12.456458,1.448566e-06
634760000,634608000,6620172,0.054330833,0.119500615,-0.02253618,12.458021,4.529696e-06
634832000,634680000,6620172,0.053791076,0.11954704,-0.055673607,12.451456,2.7658974e-05
634904000,634752000,6620172,0.052927613,0.119592704,-0.08903888,12.452944,7.07367e-05
634976000,634824000,6620172,0.053071678,0.11963762,0.014851928,12.454452,1.9678796e-06
635048000,634894666,6620172,0.052949302,0.11968111,-0.012605369,12.448503,1.4182458e-06
635120000,634966666,6620172,0.052788965,0.11972389,-0.016511314,12.449943,2.4330632e-06
635184000,635028000,6620172,0.052838773,0.11963337,0.005133398,12.451053,2.3515884e-07
635240000,635088000,6620172,0.05224908,0.1194121,-0.060895413,12.451826,3.3089756e-05
635312000,635160000,6620172,0.05214027,0.11946042,-0.011233456,12.45333,1.1258974e-06
635384000,635232000,6620172,0.052149277,0.11950794,0.00092979893,12.454853,7.712532e-09
635456000,635302666,6620172,0.05153819,0.119553976,-0.06301354,12.448838,3.544022e-05
635528000,635376000,6620172,0.051972225,0.11959925,0.044744767,12.450293,1.7867444e-05
635600000,635448000,6620172,0.05207467,0.11964379,0.010558292,12.45177,9.947496e-07
635672000,635520000,6620172,0.05089844,0.11968761,-0.121196985,12.453268,0.00013105627
635744000,635592000,6620172,0.05146847,0.11973072,0.0587207,12.454785,3.0761228e-05
635816000,635664000,6620172,0.05139542,0.119773135,-0.0075231567,12.456326,5.0485625e-07
635888000,635734666,6620172,0.05101281,0.11981415,-0.039371494,12.45018,1.3833933e-05
635960000,635808000,6620172,0.050953604,0.1198545,-0.0060909353,12.45165,3.310538e-07
636032000,635878666,6620172,0.049662784,0.119894214,-0.13277122,12.45314,0.00015728472
636104000,635952000,6620172,0.049749926,0.11993329,0.008961484,12.454653,7.1644973e-07
636176000,636024000,6620172,0.049098648,0.11997176,-0.06696184,12.456186,3.9996976e-05
636248000,636094666,6620172,0.048616264,0.12000889,-0.04955641,12.450007,2.1917329e-05
636320000,636168000,6620172,0.048449565,0.12004544,-0.017122123,12.451468,2.6160867e-06
636392000,636240000,6620172,0.048415214,0.12008142,-0.0035276897,12.452952,1.1103655e-07
636464000,636309333,6620172,0.04811042,0.12011684,-0.031294852,12.454456,8.7373255e-06
636536000,636382666,6620172,0.04786711,0.12015171,-0.024978098,12.455983,5.5654227e-06
636608000,636456000,6620172,0.047878854,0.12018605,0.0012051538,12.457529,1.2954198e-08
636680000,636528000,6620172,0.046855595,0.12021913,-0.104946725,12.451233,9.828402e-05
636752000,636600000,6620172,0.046753112,0.12025169,-0.010509159,12.452707,9.854389e-07
636824000,636670666,6620172,0.047204934,0.12028377,0.0463255,12.454205,1.9146162e-05
636896000,636741333,6620172,0.047385387,0.120315365,0.018499412,12.455724,3.052842e-06
636960000,636802000,6620172,0.047356024,0.120213896,-0.0030128285,12.456895,8.096485e-08
637016000,636862666,6620172,0.047560018,0.11998181,0.020972833,12.456657,3.9234683e-06
637080000,636924000,6620172,0.045594957,0.11988628,-0.20210104,12.451037,0.00036449288
637136000,636982666,6620172,0.04523868,0.1196601,-0.03671434,12.451814,1.2028081e-05
637208000,637054666,6620172,0.04515444,0.119703606,-0.008678623,12.453324,6.72007e-07
637272000,637116000,6620172,0.042567242,0.119613804,-0.2667731,12.454492,0.00063491496
637328000,637176000,6620172,0.042241175,0.11939324,-0.033686627,12.45531,1.0123204e-05
637400000,637248000,6620172,0.04247426,0.119442254,0.024073523,12.456884,5.1692477e-06
637472000,637318666,6620172,0.04292977,0.11948972,0.04700328,12.450563,1.9716274e-05
637544000,637392000,6620172,0.04267248,0.119536415,-0.02654183,12.452064,6.2860504e-06
637616000,637464000,6620172,0.042762056,0.11958235,0.009237919,12.453588,7.6139725e-07
637688000,637536000,6620172,0.043147653,0.119627535,0.039757475,12.455133,1.4100896e-05
637760000,637606666,6620172,0.042549957,0.11967199,-0.061610788,12.456701,3.385852e-05
637832000,637680000,6620172,0.042322602,0.11971499,-0.023415435,12.450355,4.8930565e-06
637904000,637752000,6620172,0.041536342,0.11975729,-0.08095786,12.451847,5.8484635e-05
637976000,637824000,6620172,0.041478813,0.119798906,-0.0059223287,12.453362,3.1293624e-07
638048000,637896000,6620172,0.04114577,0.11983986,-0.034276664,12.454901,1.048128e-05
638120000,637968000,6620172,0.040497664,0.11988017,-0.066688985,12.456461,3.9670806e-05
638192000,638038666,6620172,0.040273692,0.119919844,-0.02304161,12.458043,4.735145e-06
638256000,638100000,6620172,0.040177103,0.119825535,-0.00993922,12.451222,8.815564e-07
638312000,638158666,6620172,0.04053983,0.11960056,0.03739858,12.452012,1.2480391e-05
638384000,638232000,6620172,0.040371843,0.11964524,-0.017315954,12.453537,2.6752084e-06
638456000,638302666,6620172,0.040272962,0.1196892,-0.010189958,12.455085,9.2630836e-07
638528000,638374666,6620172,0.040149245,0.11973245,-0.012746107,12.456654,1.4491429e-06
638592000,638436000,6620172,0.04008425,0.1196424,-0.00670198,12.45787,4.0060831e-07
638648000,638494666,6620172,0.04040687,0.11942085,0.033310525,12.450677,9.9021045e-06
638712000,638556000,6620172,0.041092325,0.11933628,0.070829704,12.451828,4.4766715e-05
638768000,638616000,6620172,0.040584274,0.11912083,-0.052597452,12.452638,2.4684568e-05
638840000,638688000,6620172,0.040001348,0.11917486,-0.060329147,12.454188,3.2471056e-05
638912000,638758666,6620172,0.039707627,0.119228,-0.03038831,12.455762,8.237592e-06
638984000,638832000,6620172,0.03910625,0.11928026,-0.062199082,12.457356,3.4506393e-05
639056000,638904000,6620172,0.038901154,0.1193309,-0.021192431,12.45088,4.00792e-06
639128000,638974666,6620172,0.038706254,0.1193807,-0.020132843,12.4523945,3.6167196e-06
639200000,639046666,6620172,0.038571108,0.11942968,-0.013956498,12.453931,1.7378167e-06
639272000,639120000,6620172,0.038270514,0.11947785,-0.031033266,12.455489,8.591157e-06
639344000,639190666,6620172,0.03798842,0.11952525,-0.029115241,12.457069,7.5610546e-06
639416000,639264000,6620172,0.038362317,0.11957187,0.038580183,12.458669,1.3274385e-05
639488000,639336000,6620172,0.0387723,0.11961697,0.042265125,12.452086,1.5939682e-05
639560000,639406666,6620172,0.038006727,0.11966134,-0.078902915,12.453608,5.5545443e-05
639632000,639480000,6620172,0.036817167,0.11970499,-0.12257093,12.455151,0.00013402427
639704000,639552000,6620172,0.03575826,0.119747944,-0.10908279,12.456715,0.00010613692
639776000,639622666,6620172,0.035326317,0.11979021,-0.044486288,12.458299,1.7650258e-05
639840000,639684000,6620172,0.03512618,0.119698435,-0.020616844,12.451366,3.7930174e-06
639896000,639744000,6620172,0.03506231,0.11947594,-0.006592244,12.452154,3.8777475e-07
639968000,639814666,6620172,0.034273256,0.11952305,-0.081418514,12.453677,5.9143393e-05
640040000,639888000,6620172,0.033409398,0.11956939,-0.08911334,12.455222,7.084211e-05
640112000,639958666,6620172,0.033696502,0.11961498,0.0296094,12.456786,7.820072e-06
640184000,640032000,6620172,0.033016574,0.11965983,-0.07010397,12.45837,4.3831013e-05
640256000,640102666,6620172,0.032315675,0.119703196,-0.07220115,12.451779,4.6517278e-05
640320000,640164000,6620172,0.031933565,0.11961325,-0.039395753,12.452925,1.3847932e-05
640376000,640224000,6620172,0.032542918,0.11939255,0.06294559,12.453725,3.534995e-05
640448000,640293333,6620172,0.032588616,0.11944143,0.004719045,12.455268,1.9866101e-07
640520000,640368000,6620172,0.03189696,0.119489506,-0.071406975,12.456831,4.5481123e-05
640592000,640440000,6620172,0.03234426,0.1195368,0.046167005,12.458414,1.900895e-05
640664000,640512000,6620172,0.032362945,0.119582556,0.0019269809,12.451818,3.313443e-08
640736000,640581333,6620172,0.032779314,0.119627565,0.04292392,12.453321,1.6438835e-05
640808000,640654666,6620172,0.03185308,0.119671844,-0.09546242,12.454846,8.129877e-05
640872000,640716000,6620172,0.031558484,0.1195828,-0.030388236,12.456024,8.237378e-06
640928000,640774666,6620172,0.03106002,0.11936298,-0.05151698,12.456846,2.367283e-05
641000000,640848000,6620172,0.03072396,0.11941273,-0.034722127,12.458429,1.0752435e-05
641072000,640920000,6620172,0.02972268,0.11946089,-0.103355795,12.451836,9.532214e-05
641144000,640992000,6620172,0.028916245,0.11950826,-0.08321999,12.4533415,6.179124e-05
641216000,641064000,6620172,0.02855905,0.119554855,-0.036850818,12.454868,1.2114699e-05
641288000,641134666,6620172,0.028354941,0.11960069,-0.021051725,12.456415,3.9531183e-06
641360000,641206666,6620172,0.029652387,0.11964579,0.13378495,12.457983,0.00015963358
641432000,641278666,6620172,0.029759131,0.11968939,0.010997027,12.451417,1.0791687e-06
641504000,641352000,6620172,0.029391382,0.11973229,-0.037876807,12.452906,1.2800694e-05
641576000,641422666,6620172,0.029109508,0.1197745,-0.029025171,12.454418,7.515945e-06
641648000,641493333,6620172,0.028693654,0.11981603,-0.0428119,12.455953,1.634969e-05
641712000,641554000,6620172,0.02756397,0.11972429,-0.11640117,12.457137,0.000120852026
641768000,641616000,6620172,0.027609428,0.11950183,0.0046931095,12.457964,1.9644085e-07
641840000,641686666,6620172,0.027307725,0.119548224,-0.03111895,12.451401,8.6415e-06
641904000,641748000,6620172,0.02725752,0.119461246,-0.0051824804,12.452542,2.3964856e-07
641960000,641806666,6620172,0.025871547,0.11924345,-0.14334638,12.4533415,0.00018333487
642032000,641880000,6620172,0.026167367,0.11929518,0.030585973,12.454885,8.345693e-06
642104000,641952000,6620172,0.025811756,0.11934605,-0.036756966,12.45645,1.2051539e-05
642176000,642024000,6620172,0.025961844,0.11939609,0.015509045,12.458038,2.1452502e-06
642248000,642096000,6620172,0.026174769,0.11944454,0.021981271,12.451466,4.311641e-06
642320000,642166666,6620172,0.02566301,0.119492196,-0.052816615,12.452978,2.4890027e-05
642384000,642228000,6620172,0.024796763,0.119406454,-0.08947527,12.45415,7.142486e-05
642440000,642288000,6620172,0.024031654,0.119189866,-0.079179086,12.454974,5.592882e-05
642512000,642358666,6620172,0.023445081,0.11924279,-0.060683265,12.456556,3.2847125e-05
642584000,642432000,6620172,0.023302484,0.11929483,-0.014747571,12.458161,1.9397446e-06
642656000,642504000,6620172,0.023220794,0.11934525,-0.008440424,12.451568,6.357143e-07
642728000,642576000,6620172,0.02236727,0.11939484,-0.0881622,12.4530945,6.934977e-05
642800000,642648000,6620172,0.021718593,0.11944361,-0.06698397,12.454647,4.0028357e-05
642872000,642720000,6620172,0.021007437,0.119491585,-0.07341537,12.456224,4.807785e-05
642944000,642792000,6620172,0.020330776,0.119538784,-0.06983556,12.457826,4.349792e-05
643016000,642862666,6620172,0.01923754,0.119585216,-0.11279903,12.459449,0.00011346696
643088000,642936000,6620172,0.018546458,0.11963012,-0.071239494,12.452749,4.5282864e-05
643160000,643008000,6620172,0.018117461,0.1196743,-0.04421174,12.454293,1.743868e-05
643232000,643080000,6620172,0.017069342,0.11971777,-0.107991725,12.45586,0.000104031475
643304000,643150666,6620172,0.01617484,0.11976054,-0.09214258,12.45745,7.5726704e-05
643376000,643224000,6620172,0.016286254,0.11980264,0.011474086,12.459063,1.1741088e-06
643448000,643296000,6620172,0.015650468,0.11984328,-0.065419555,12.45236,3.8187478e-05
643520000,643368000,6620172,0.015415273,0.119883284,-0.02419539,12.453889,5.222973e-06
643592000,643437333,6620172,0.015572196,0.11992265,0.016139902,12.455439,2.3238083e-06
643664000,643510666,6620172,0.015020121,0.1199614,-0.05677093,12.45701,2.8747208e-05
643736000,643584000,6620172,0.014548111,0.11999955,-0.04852842,12.458604,2.1002958e-05
643808000,643656000,6620172,0.014151857,0.12003711,-0.040732194,12.460218,1.4794743e-05
643880000,643726666,6620172,0.013382353,0.120073296,-0.07903223,12.453422,5.5728487e-05
643952000,643800000,6620172,0.012414849,0.12010892,-0.09935037,12.454953,8.8055065e-05
644024000,643872000,6620172,0.012070702,0.120143995,-0.03533355,12.456508,1.1136169e-05
644096000,643944000,6620172,0.012247727,0.12017854,0.018172218,12.458084,2.9452494e-06
644168000,644014666,6620172,0.012158427,0.12021257,-0.009165452,12.459682,7.4913186e-07
644240000,644085333,6620172,0.012280016,0.120245285,0.012469258,12.4529085,1.3872921e-06
644304000,644148000,6620172,0.010358445,0.12014491,-0.19724706,12.4540615,0.00034711036
644360000,644206666,6620172,0.010458308,0.119914,0.0102714375,12.454868,9.411976e-07
644432000,644280000,6620172,0.009478187,0.119952865,-0.10079034,12.456429,9.061534e-05
644504000,644350666,6620172,0.009124501,0.11999112,-0.036364175,12.458011,1.1793869e-05
644576000,644424000,6620172,0.008747767,0.12002879,-0.038726553,12.459615,1.3374284e-05
644648000,644496000,6620172,0.008085865,0.12006508,-0.06798238,12.452839,4.123651e-05
644720000,644566666,6620172,0.0075500556,0.1201008,-0.0550219,12.45436,2.7008922e-05
644792000,644640000,6620172,0.0072307074,0.120135985,-0.032788094,12.455905,9.58991e-06
644864000,644712000,6620172,0.006577299,0.12017063,-0.06707568,12.457472,4.012894e-05
644936000,644784000,6620172,0.0063270885,0.12020475,-0.025681302,12.459061,5.8817463e-06
645008000,644856000,6620172,0.0066080107,0.12023836,0.028829161,12.460671,7.4110553e-06
645080000,644928000,6620172,0.0064218394,0.120270655,-0.0190897,12.453819,3.2512708e-06
645152000,644998666,6620172,0.006809864,0.12030247,0.039781775,12.455347,1.4117897e-05
645224000,645072000,6620172,0.0066178013,0.12033381,-0.019688282,12.456897,3.4575087e-06
645296000,645144000,6620172,0.0069974684,0.120364696,0.038914427,12.458469,1.3505606e-05
645368000,645214666,6620172,0.007201659,0.120395124,0.020926116,12.460062,3.904942e-06
645432000,645276000,6620172,0.008410607,0.12029172,0.12393238,12.45289,0.00013704301
645488000,645334666,6620172,0.007837635,0.120057836,-0.058856163,12.453676,3.0906074e-05
645560000,645406666,6620172,0.007476062,0.120093785,-0.03713451,12.455207,1.230161e-05
645632000,645478666,6620172,0.0076445797,0.12012918,0.017304212,12.4567585,2.6708906e-06
645704000,645550666,6620172,0.007649188,0.12016404,0.00047309604,12.458332,1.996164e-09
645776000,645622666,6620172,0.007540186,0.12019837,-0.011189227,12.459927,1.1164574e-06
645840000,645684000,6620172,0.0060528927,0.120098785,-0.1527123,12.452784,0.0002080842
645896000,645744000,6620172,0.0058608768,0.11986865,-0.019755285,12.453573,3.482011e-06
645968000,645816000,6620172,0.0055241254,0.11990827,-0.034638952,12.455105,1.07038395e-05
646040000,645888000,6620172,0.0051843487,0.11994727,-0.03494307,12.456659,1.0891257e-05
646112000,645958666,6620172,0.0047964635,0.119985655,-0.039882835,12.458235,1.4186427e-05
646184000,646032000,6620172,0.0042208047,0.120023444,-0.05917879,12.45983,3.1230396e-05
646256000,646104000,6620172,0.0036496622,0.120059855,-0.058664165,12.453038,3.0706335e-05
646328000,646174666,6620172,0.0028830953,0.12009571,-0.0787229,12.454552,5.528809e-05
646392000,646236000,6620172,0.0032897005,0.1199984,0.04179464,12.455722,1.5582236e-05
646448000,646296000,6620172,0.0019703116,0.1197705,-0.13588858,12.456538,0.0001647123
646520000,646368000,6620172,0.001169347,0.11981231,-0.082475685,12.458115,6.066763e-05
646592000,646440000,6620172,0.0008754843,0.11985346,-0.030252598,12.459712,8.161592e-06
646664000,646510666,6620172,-0.00025247037,0.11989317,-0.11601831,12.452952,0.00012009869
646736000,646584000,6620172,-0.00081356167,0.11993226,-0.05770041,12.454469,2.97023e-05
646808000,646654666,6620172,-0.0016254621,0.119970724,-0.08347599,12.456006,6.215869e-05
646872000,646716000,6620172,-0.002796302,0.11987527,-0.12041433,12.449551,0.00012940771
646928000,646774666,6620172,-0.0023136842,0.119649164,0.04973234,12.450314,2.2072674e-05
647000000,646846666,6620172,-0.0028442782,0.119692735,-0.054662634,12.451799,2.6662845e-05
647064000,646908000,6620172,-0.0034083435,0.119603,-0.05816036,12.452949,3.0181407e-05
647120000,646968000,6620172,-0.0039109173,0.1193825,-0.051920027,12.4537525,2.4050665e-05
647192000,647040000,6620172,-0.004578676,0.11943158,-0.06896506,12.455302,4.242887e-05
647264000,647112000,6620172,-0.0052234093,0.11947913,-0.06652728,12.449197,3.950169e-05
647336000,647182666,6620172,-0.005574518,0.119525895,-0.036219463,12.450672,1.1707083e-05
647408000,647253333,6620172,-0.005998958,0.119571894,-0.043772407,12.45217,1.709674e-05
647472000,647316000,6620172,-0.006631814,0.11948454,-0.065320626,12.453328,3.806911e-05
647528000,647376000,6620172,-0.0074223042,0.11926636,-0.08174709,12.45414,5.961951e-05
647600000,647446666,6620172,-0.008138973,0.11931772,-0.074090146,12.4557,4.8967762e-05
647672000,647520000,6620172,-0.0089634145,0.1193675,-0.08515327,12.449533,6.4715314e-05
647744000,647592000,6620172,-0.00871553,0.11941647,0.025595494,12.451018,5.8462806e-06
647816000,647662666,6620172,-0.0090512,0.11946462,-0.03464995,12.452525,1.0712857e-05
647888000,647736000,6620172,-0.009690667,0.119511984,-0.06599152,12.454055,3.8852857e-05
647960000,647808000,6620172,-0.010038069,0.11955858,-0.03584156,12.455603,1.1459524e-05
648032000,647880000,6620172,-0.0109925885,0.119603686,-0.098390885,12.449407,8.640096e-05
648104000,647952000,6620172,-0.010511012,0.119648054,0.04962784,12.450881,2.1979013e-05
648176000,648024000,6620172,-0.010394476,0.11969171,0.012006373,12.452377,1.2862603e-06
648248000,648096000,6620172,-0.010960191,0.11973465,-0.058270074,12.453896,3.029308e-05
648320000,648168000,6620172,-0.011426896,0.11977691,-0.048060805,12.455435,2.0605381e-05
648392000,648238666,6620172,-0.01212097,0.11981849,-0.07145885,12.456995,4.5546625e-05
648456000,648300000,6620172,-0.013623083,0.11972607,-0.15468812,12.450332,0.00021354554
648512000,648360000,6620172,-0.014331918,0.11950293,-0.07313839,12.451108,4.773537e-05
648584000,648430666,6620172,-0.014673436,0.119549416,-0.03522863,12.452614,1.107359e-05
648648000,648492000,6620172,-0.014925934,0.119462535,-0.02606753,12.453779,6.062561e-06
648704000,648550666,6620172,-0.015772078,0.11924483,-0.087521575,12.454595,6.833735e-05
648776000,648622666,6620172,-0.016161408,0.11929665,-0.040258195,12.456162,1.4457121e-05
648848000,648696000,6620172,-0.016443055,0.11934687,-0.02909616,12.449878,7.55551e-06
648920000,648768000,6620172,-0.016642276,0.11939627,-0.020574767,12.451371,3.7775494e-06
648992000,648840000,6620172,-0.017987065,0.11944485,-0.13884479,12.452886,0.0001720072
649064000,648910666,6620172,-0.01841211,0.11949263,-0.043872066,12.454421,1.7171575e-05
649136000,648984000,6620172,-0.019113809,0.11953963,-0.0724082,12.455978,4.6768684e-05
649208000,649056000,6620172,-0.019497393,0.11958587,-0.039571494,12.457555,1.39665635e-05
649280000,649128000,6620172,-0.01951075,0.11963061,-0.0013766307,12.4511595,1.691152e-08
649352000,649200000,6620172,-0.018671634,0.11967463,0.08646631,12.452662,6.670973e-05
649424000,649272000,6620172,-0.0183168,0.11971793,0.036554933,12.4541855,1.1921589e-05
649496000,649342666,6620172,-0.018121181,0.11976054,0.020147854,12.45573,3.6211447e-06
649568000,649416000,6620172,-0.018993746,0.119802475,-0.08985001,12.457296,7.200621e-05
649640000,649488000,6620172,-0.018924816,0.119842984,0.007091891,12.450891,4.488293e-07
649712000,649560000,6620172,-0.019646319,0.119882844,-0.07421483,12.452379,4.914582e-05
649784000,649632000,6620172,-0.020049963,0.11992207,-0.04151091,12.453891,1.537365e-05
649856000,649704000,6620172,-0.020323323,0.11996069,-0.028106775,12.455422,7.047273e-06
649928000,649774666,6620172,-0.020194793,0.11999869,0.013212727,12.456976,1.5571477e-06
649992000,649836000,6620172,-0.021677269,0.119903505,-0.1525347,12.458176,0.00020751062
650048000,649896000,6620172,-0.021885406,0.11967692,-0.02144407,12.450988,4.103629e-06
650120000,649968000,6620172,-0.02273716,0.11972002,-0.08773373,12.452483,6.8680696e-05
650192000,650038666,6620172,-0.022993188,0.11976243,-0.026365623,12.454,6.201899e-06
650264000,650110666,6620172,-0.023574324,0.11980416,-0.05983152,12.45554,3.1934123e-05
650328000,650172000,6620172,-0.02292234,0.11971261,0.06718394,12.456728,4.026099e-05
650384000,650232000,6620172,-0.02288122,0.11949035,0.004245583,12.457559,1.6076785e-07
650456000,650304000,6620172,-0.023766477,0.11953694,-0.09131556,12.451101,7.441137e-05
650528000,650374666,6620172,-0.023467356,0.119582765,0.030846555,12.452601,8.490059e-06
650592000,650436000,6620172,-0.023731112,0.119495235,-0.02722234,12.453763,6.6116186e-06
650648000,650496000,6620172,-0.025271747,0.119276896,-0.15931332,12.454576,0.00022642936
650720000,650568000,6620172,-0.026165022,0.11932809,-0.092343,12.456139,7.6064505e-05
650792000,650638666,6620172,-0.026604313,0.11937844,-0.045398697,12.457721,1.8382549e-05
650856000,650700000,6620172,-0.027227659,0.1192946,-0.064429626,12.450884,3.704491e-05
650912000,650760000,6620172,-0.027396167,0.119079866,-0.017450076,12.451676,2.7172168e-06
650984000,650830666,6620172,-0.026169306,0.1191346,0.12700555,12.453202,0.00014392022
651048000,650892000,6620172,-0.026015976,0.11905579,0.015884882,12.454384,2.2511438e-06
651104000,650952000,6620172,-0.025965553,0.118846,0.0052335057,12.455213,2.443384e-07
651176000,651022666,6620172,-0.02647299,0.11890558,-0.05264773,12.4567995,2.472352e-05
651240000,651084000,6620172,-0.02805136,0.11883079,-0.1637736,12.450011,0.00023937318
651296000,651144000,6620172,-0.028030166,0.11862492,0.002202971,12.450808,4.3308937e-08
651368000,651214666,6620172,-0.028155139,0.118688345,-0.012985459,12.452336,1.5046006e-06
651440000,651288000,6620172,-0.028336547,0.11875069,-0.018841932,12.453885,3.1674042e-06
651512000,651360000,6620172,-0.028754368,0.11881198,-0.04337976,12.455454,1.6786968e-05
651584000,651432000,6620172,-0.028635802,0.11887224,0.012305394,12.457043,1.3506212e-06
651656000,651502666,6620172,-0.028661016,0.118930735,-0.0026141983,12.450579,6.0988086e-08
651728000,651576000,6620172,-0.029065259,0.11898824,-0.041895624,12.452091,1.5662192e-05
651800000,651648000,6620172,-0.029252479,0.11904478,-0.019396655,12.453624,3.3567226e-06
651872000,651720000,6620172,-0.028906677,0.11910038,0.035813756,12.455177,1.1442142e-05
651944000,651790666,6620172,-0.029940052,0.11915504,-0.1069881,12.456752,0.000102099504
652008000,651850000,6620172,-0.0303783,0.11907618,-0.045407847,12.457969,1.838959e-05
652064000,651910666,6620172,-0.030881815,0.11886557,-0.052232783,12.450728,2.4347202e-05
652136000,651982666,6620172,-0.030619029,0.11892435,0.027250223,12.452243,6.6259786e-06
652200000,652044000,6620172,-0.031863183,0.11884951,-0.12910998,12.453416,0.0001487266
652256000,652104000,6620172,-0.031017452,0.1186436,0.087923974,12.454241,6.8969144e-05
652328000,652176000,6620172,-0.030695483,0.11870699,0.03345886,12.455816,9.986367e-06
652400000,652248000,6620172,-0.03070846,0.1187693,-0.001347974,12.457411,1.6206629e-08
652472000,652320000,6620172,-0.030379593,0.11882982,0.03412643,12.450907,1.0392936e-05
652544000,652390666,6620172,-0.030518904,0.1188893,-0.014450729,12.452424,1.8633013e-06
652608000,652452000,6620172,-0.030575043,0.118815154,-0.005827531,12.4536,3.0299245e-07
652664000,652512000,6620172,-0.029961165,0.11860992,0.063839205,12.454426,3.635873e-05
652736000,652584000,6620172,-0.030724833,0.11867397,-0.07938331,12.456003,5.621306e-05
652808000,652656000,6620172,-0.029952468,0.11873694,0.08025486,12.457601,5.744679e-05
652880000,652728000,6620172,-0.030372167,0.118798085,-0.04356438,12.451077,1.6936106e-05
652952000,652798666,6620172,-0.030620335,0.118858196,-0.02574966,12.452598,5.916168e-06
653016000,652860000,6620172,-0.03038069,0.118784666,0.02488303,12.453775,5.5241185e-06
653072000,652920000,6620172,-0.03133167,0.11858003,-0.09892229,12.454602,8.7300345e-05
653144000,652992000,6620172,-0.031921703,0.11864467,-0.061350215,12.456182,3.3574128e-05
653216000,653061333,6620172,-0.03165891,0.118708216,0.02731355,12.457781,6.653851e-06
653280000,653124000,6620172,-0.031945355,0.11863731,-0.029772975,12.450887,7.910458e-06
653336000,653184000,6620172,-0.03160573,0.118435234,0.035363324,12.451693,1.1159257e-05
653408000,653254666,6620172,-0.031689107,0.118502386,-0.008677471,12.453233,6.718337e-07
653472000,653316000,6620172,-0.03295455,0.11843576,-0.13179356,12.454429,0.00015496087
653528000,653374666,6620172,-0.032589544,0.11823789,0.038081504,12.45527,1.293697e-05
653600000,653448000,6620172,-0.032921728,0.11830917,-0.03464068,12.456869,1.0703392e-05
653672000,653518666,6620172,-0.03316965,0.11837848,-0.02582461,12.450385,5.9517165e-06
653736000,653580000,6620172,-0.032704443,0.11831397,0.048489474,12.4515505,2.0981135e-05
653792000,653640000,6620172,-0.032392684,0.11811816,0.032551855,12.452371,9.4549e-06
653864000,653712000,6620172,-0.032143705,0.118191466,0.025983993,12.453933,6.023692e-06
653936000,653782666,6620172,-0.032364216,0.11826351,-0.02300156,12.455514,4.7196563e-06
654008000,653856000,6620172,-0.032146588,0.11833432,0.022690143,12.457114,4.592134e-06
654080000,653926666,6620172,-0.033279918,0.118403174,-0.118030414,12.450611,0.00012432392
654152000,654000000,6620172,-0.03292035,0.11847084,0.03743031,12.452136,1.2501452e-05
654224000,654070666,6620172,-0.033123385,0.11853735,-0.021126281,12.45368,3.9820425e-06
654296000,654142666,6620172,-0.032706324,0.11860273,0.04337729,12.455244,1.6785338e-05
654368000,654214666,6620172,-0.03316991,0.118667,-0.048195776,12.456829,2.0718959e-05
654440000,654286666,6620172,-0.0332913,0.11872943,-0.012606457,12.450335,1.418282e-06
654512000,654360000,6620172,-0.033334546,0.11879079,-0.004489463,12.451841,1.7985091e-07
654584000,654432000,6620172,-0.032985967,0.11885112,0.03617268,12.453368,1.1674332e-05
654656000,654504000,6620172,-0.032883916,0.118910424,0.010586064,12.454916,9.997369e-07
654728000,654576000,6620172,-0.03266097,0.11896873,0.023118291,12.456485,4.767311e-06
654800000,654648000,6620172,-0.031594843,0.119026065,0.11051131,12.458072,0.00010892313
654872000,654720000,6620172,-0.030807301,0.119081676,0.08155212,12.451495,5.934805e-05
654944000,654790666,6620172,-0.030501736,0.119136356,0.031631276,12.453005,8.927231e-06
655008000,654852000,6620172,-0.031121982,0.1190575,-0.06425534,12.454173,3.6835034e-05
655064000,654912000,6620172,-0.032330826,0.118847646,-0.12546371,12.45499,0.00014042691
655136000,654982666,6620172,-0.032313056,0.11890717,0.0018437654,12.45656,3.0322898e-08
655200000,655044000,6620172,-0.03217231,0.118833065,0.014612861,12.457774,1.9045289e-06
655256000,655102666,6620172,-0.03137191,0.118627116,0.0831977,12.450495,6.177226e-05
655328000,655176000,6620172,-0.030823251,0.11869047,0.057006676,12.452004,2.8998109e-05
655400000,655246666,6620172,-0.030567316,0.11875274,0.026581308,12.453536,6.304019e-06
655464000,655308000,6620172,-0.030597962,0.11868133,-0.003185125,12.4547205,9.0505814e-08
655520000,655368000,6620172,-0.030547949,0.11847877,0.0052073374,12.455553,2.4189447e-07
655592000,655440000,6620172,-0.030375237,0.11854544,0.017974706,12.457142,2.8817924e-06
655664000,655510666,6620172,-0.031307448,0.11861023,-0.09691358,12.450613,8.3817766e-05
655728000,655572000,6620172,-0.031238252,0.118541285,0.007198561,12.451768,4.624e-07
655784000,655630666,6620172,-0.03239299,0.11834114,-0.12034256,12.452579,0.00012922207
655856000,655704000,6620172,-0.03254725,0.118410185,-0.016068924,12.45413,2.3036562e-06
655928000,655776000,6620172,-0.033249654,0.118478045,-0.07313512,12.455701,4.7713504e-05
656000000,655848000,6620172,-0.03413123,0.11854475,-0.091750346,12.457291,7.508433e-05
656072000,655920000,6620172,-0.03416046,0.11860957,-0.0030391812,12.450755,8.2428045e-08
656144000,655992000,6620172,-0.03419618,0.11867328,-0.0037118532,12.452269,1.2293926e-07
656216000,656062666,6620172,-0.03432705,0.11873591,-0.013594348,12.453803,1.6488162e-06
656288000,656136000,6620172,-0.03473239,0.11879747,-0.042088967,12.455357,1.580294e-05
656360000,656208000,6620172,-0.034548596,0.118858,0.019076873,12.45693,3.2460919e-06
656432000,656280000,6620172,-0.0337773,0.118917406,0.08001979,12.457433,5.711152e-05
656504000,656350666,6620172,-0.033307444,0.118975155,0.048700396,12.451911,2.116345e-05
656576000,656422666,6620172,-0.032626063,0.11903193,0.07059993,12.453427,4.4471024e-05
656648000,656494666,6620172,-0.032326683,0.11908775,0.031008631,12.454965,8.577885e-06
656720000,656568000,6620172,-0.03181346,0.11914264,0.05313967,12.456522,2.5188276e-05
656792000,656640000,6620172,-0.031634655,0.11919661,0.018507797,12.458098,3.055028e-06
656864000,656712000,6620172,-0.03156601,0.11924893,0.007098522,12.45151,4.4964662e-07
656936000,656784000,6620172,-0.03168842,0.11930037,-0.012653962,12.453009,1.4286842e-06
657008000,656856000,6620172,-0.031316817,0.11935096,0.038402285,12.45453,1.3156619e-05
657080000,656928000,6620172,-0.03023385,0.11940072,0.11188322,12.456071,0.000111662244
657152000,657000000,6620172,-0.030951655,0.11944966,-0.074136265,12.457632,4.902114e-05
657224000,657072000,6620172,-0.03125631,0.1194978,-0.03145679,12.459212,8.824614e-06
657296000,657142666,6620172,-0.030760428,0.11954438,0.05115377,12.452555,2.3348251e-05
657368000,657216000,6620172,-0.030962551,0.1195902,-0.020844797,12.454059,3.8765193e-06
657440000,657288000,6620172,-0.03084783,0.11963528,0.0118280295,12.455584,1.2480104e-06
657512000,657358666,6620172,-0.030831896,0.11967962,0.0016425084,12.4571295,2.4063274e-08
657576000,657420000,6620172,-0.03004938,0.11959064,0.080728136,12.45832,5.812298e-05
657632000,657480000,6620172,-0.029015148,0.11937078,0.106892645,12.458058,0.000101906706
657704000,657550666,6620172,-0.028563948,0.11941982,0.04659327,12.452501,1.937079e-05
657776000,657624000,6620172,-0.028535575,0.11946805,0.0029291827,12.454009,7.65493e-08
657848000,657696000,6620172,-0.028697303,0.119515486,-0.016691476,12.455537,2.4853327e-06
657920000,657768000,6620172,-0.02790808,0.11956215,0.08143168,12.457085,5.9146336e-05
657992000,657840000,6620172,-0.027321856,0.11960806,0.060470335,12.4586525,3.261153e-05
658064000,657910666,6620172,-0.026590953,0.11965246,0.07532601,12.452051,5.062984e-05
658136000,657984000,6620172,-0.026788117,0.11969613,-0.020314565,12.453543,3.6819647e-06
658208000,658056000,6620172,-0.027169174,0.1197391,-0.039251924,12.455054,1.3744652e-05
658280000,658128000,6620172,-0.02754721,0.11978138,-0.0389319,12.456587,1.351978e-05
658352000,658200000,6620172,-0.027010236,0.11982299,0.05528769,12.45814,2.7262216e-05
658424000,658272000,6620172,-0.027170304,0.11986393,-0.016477313,12.459712,2.421153e-06
658496000,658344000,6620172,-0.026688926,0.119903445,0.04950917,12.453027,2.1870257e-05
658568000,658414666,6620172,-0.026083624,0.11994234,0.062241904,12.454524,3.456178e-05
658640000,658488000,6620172,-0.02499133,0.11998061,0.112295784,12.456041,0.00011248753
658712000,658560000,6620172,-0.024744334,0.12001829,0.025388058,12.457579,5.7488746e-06
658784000,658632000,6620172,-0.025557745,0.12005538,-0.08359307,12.459135,6.2317515e-05
658856000,658704000,6620172,-0.026655775,0.12009112,-0.11274792,12.452485,0.00011342755
658928000,658776000,6620172,-0.025866423,0.1201263,0.0810381,12.453967,5.859065e-05
659000000,658848000,6620172,-0.025965845,0.12016094,-0.010205355,12.455467,9.290811e-07
659072000,658918666,6620172,-0.025566839,0.120195046,0.040949978,12.45699,1.4957248e-05
659144000,658992000,6620172,-0.025042288,0.12022864,0.053826116,12.458533,2.5839056e-05
659216000,659062666,6620172,-0.024619441,0.12026173,0.043383352,12.460094,1.6783493e-05
659280000,659124000,6620172,-0.024385495,0.12016094,0.02400909,12.453051,5.1431966e-06
659336000,659184000,6620172,-0.02447688,0.11992961,-0.009397464,12.453819,7.8790936e-07
659408000,659256000,6620172,-0.024337651,0.11996807,0.014314527,12.455326,1.8279167e-06
659480000,659328000,6620172,-0.024400147,0.12000593,-0.0064240675,12.456854,3.6810295e-07
659552000,659400000,6620172,-0.024819564,0.12004319,-0.043104738,12.4584,1.6570868e-05
659624000,659470666,6620172,-0.02437636,0.120079875,0.045541,12.459967,1.8494635e-05
659696000,659542666,6620172,-0.023815528,0.12011521,0.057579488,12.453272,2.9580779e-05
659760000,659604000,6620172,-0.023859067,0.1200174,-0.0044742674,12.454403,1.7859875e-07
659816000,659664000,6620172,-0.023781173,0.119789,0.008020444,12.455189,5.738574e-07
659888000,659734666,6620172,-0.024164703,0.11983032,-0.039481767,12.456719,1.390423e-05
659960000,659808000,6620172,-0.024716865,0.11987098,-0.05682895,12.45827,2.8803086e-05
660032000,659880000,6620172,-0.024764964,0.11991024,-0.0049462207,12.451702,2.1831104e-07
660104000,659952000,6620172,-0.024570094,0.11994887,0.02003474,12.4531765,3.5813334e-06
660176000,660022666,6620172,-0.02569528,0.11998689,-0.11565818,12.454672,0.00011933776
660248000,660096000,6620172,-0.025572348,0.120024316,0.012633756,12.456189,1.4237614e-06
660320000,660168000,6620172,-0.025684629,0.12006116,-0.011537027,12.457727,1.1871523e-06
660392000,660240000,6620172,-0.025309853,0.12009743,0.03850201,12.459284,1.3219994e-05
660464000,660312000,6620172,-0.025993546,0.120132364,-0.07017965,12.452651,4.3945867e-05
660536000,660384000,6620172,-0.026029004,0.12016676,-0.003639022,12.454134,1.1814444e-07
660608000,660456000,6620172,-0.025995718,0.120200634,0.0034154784,12.455637,1.0406259e-07
660680000,660526666,6620172,-0.026259309,0.12023399,-0.027043832,12.457161,6.5234135e-06
660744000,660588000,6620172,-0.026476996,0.12013424,-0.022355193,12.458335,4.45712e-06
660800000,660648000,6620172,-0.026577655,0.119903944,-0.010357721,12.459148,9.567478e-07
660872000,660718666,6620172,-0.02695882,0.119942635,-0.039187726,12.452509,1.370253e-05
660936000,660780000,6620172,-0.026714332,0.11984811,0.025158282,12.453638,5.647071e-06
660992000,660838666,6620172,-0.026911054,0.11962292,-0.020282738,12.454423,3.6701772e-06
661056000,660900000,6620172,-0.025985442,0.11953479,0.095514566,12.4555855,8.138279e-05
661112000,660958666,6620172,-0.026284898,0.119315855,-0.030960359,12.456396,8.550215e-06
661184000,661032000,6620172,-0.026819527,0.11936647,-0.055258073,12.457963,2.7233404e-05
661256000,661104000,6620172,-0.027200533,0.119415484,-0.039342582,12.451404,1.3812266e-05
661328000,661176000,6620172,-0.027407086,0.11946369,-0.021322416,12.452893,4.05658e-06
661400000,661246666,6620172,-0.028532235,0.119511105,-0.11611708,12.454404,0.00012028924
661472000,661320000,6620172,-0.029338866,0.119557746,-0.083223134,12.455935,6.1783045e-05
661544000,661390666,6620172,-0.028876908,0.11960363,0.047649413,12.457485,2.0250802e-05
661616000,661464000,6620172,-0.028434109,0.11964877,0.045661576,12.459056,1.8594057e-05
661688000,661536000,6620172,-0.029041123,0.11969241,-0.06253879,12.452429,3.4898145e-05
661760000,661608000,6620172,-0.029336924,0.119735345,-0.030468155,12.453923,8.28216e-06
661832000,661680000,6620172,-0.02900492,0.11977759,0.034189217,12.455439,1.0427418e-05
661904000,661752000,6620172,-0.029787036,0.11981916,-0.08052267,12.456975,5.7833735e-05
661976000,661824000,6620172,-0.03003043,0.11986006,-0.025053052,12.45853,5.5977303e-06
662048000,661896000,6620172,-0.030401638,0.11989955,-0.038176358,12.451934,1.3004979e-05
662120000,661968000,6620172,-0.03142346,0.11993841,-0.10506589,12.453414,9.849009e-05
662192000,662038666,6620172,-0.03153369,0.119976655,-0.011331666,12.454913,1.1455245e-06
662264000,662110666,6620172,-0.03201728,0.1200143,-0.049704105,12.456435,2.2036784e-05
662336000,662184000,6620172,-0.032874893,0.12005136,-0.08813043,12.457976,6.9272646e-05
662408000,662256000,6620172,-0.033648573,0.12008785,-0.079490826,12.4595375,5.634944e-05
662480000,662326666,6620172,-0.03375274,0.12012299,-0.010693468,12.452879,1.0202929e-06
662552000,662400000,6620172,-0.03414491,0.12015759,-0.040252388,12.454365,1.4455038e-05
662624000,662470666,6620172,-0.034500908,0.12019166,-0.036533803,12.455871,1.19062e-05
662688000,662532000,6620172,-0.03391309,0.120092615,0.060379814,12.457031,3.25182e-05
662744000,662592000,6620172,-0.034003742,0.119863,-0.009330317,12.457836,7.7643966e-07
662816000,662664000,6620172,-0.0337854,0.11990314,0.022468098,12.459402,4.5018696e-06
662888000,662734666,6620172,-0.03420004,0.11994187,-0.042630617,12.452756,1.6215683e-05
662960000,662808000,6620172,-0.03507951,0.119979985,-0.09040323,12.454247,7.291349e-05
663032000,662878666,6620172,-0.035049077,0.120017506,0.0031276047,12.45576,8.725915e-08
663096000,662940000,6620172,-0.03577371,0.11992183,-0.07453954,12.456924,4.9558723e-05
663152000,663000000,6620172,-0.03615826,0.11969553,-0.039635226,12.457734,1.4011387e-05
663224000,663072000,6620172,-0.036464244,0.11973891,-0.03152973,12.459306,8.865518e-06
663296000,663144000,6620172,-0.037326586,0.119780816,-0.0887799,12.452668,7.032736e-05
663368000,663216000,6620172,-0.037968453,0.119822055,-0.066066965,12.4541645,3.8941405e-05
663440000,663286666,6620172,-0.03758615,0.11986264,0.039341744,12.455682,1.3806933e-05
663504000,663348000,6620172,-0.037649963,0.11976997,-0.0065727867,12.456851,3.8534375e-07
663560000,663408000,6620172,-0.038487524,0.1195466,-0.08643451,12.457664,6.6633904e-05
663632000,663478666,6620172,-0.03940719,0.11959276,-0.09487429,12.458154,8.0278805e-05
663696000,663540000,6620172,-0.03979867,0.1195049,-0.040396277,12.452254,1.4561033e-05
663752000,663600000,6620172,-0.0397762,0.11928623,0.0023230836,12.453037,4.815173e-08
663824000,663670666,6620172,-0.04107173,0.1193371,-0.13389933,12.454558,0.00015995064
663896000,663744000,6620172,-0.040949207,0.11938713,0.012659866,12.456098,1.4296631e-06
663968000,663814666,6620172,-0.04133127,0.11943633,-0.03946461,12.457658,1.3891104e-05
664040000,663888000,6620172,-0.041016817,0.11948397,0.032450654,12.451126,9.397141e-06
664112000,663957333,6620172,-0.041576758,0.11953083,-0.057768583,12.452609,2.9776975e-05
664176000,664020000,6620172,-0.041862745,0.1194443,-0.029529199,12.453754,7.7796585e-06
664232000,664080000,6620172,-0.04260355,0.11922695,-0.076637015,12.454554,5.239701e-05
664304000,664152000,6620172,-0.04239019,0.11927911,0.022065219,12.456098,4.3430214e-06
664376000,664224000,6620172,-0.043231733,0.119330406,-0.08700434,12.457662,6.751539e-05
664448000,664296000,6620172,-0.043966655,0.119380094,-0.07590889,12.451131,5.1420226e-05
664520000,664368000,6620172,-0.04443075,0.11942896,-0.047921773,12.452619,2.0490972e-05
664592000,664438666,6620172,-0.043172874,0.119477026,0.12984945,12.454128,0.00015042651
664656000,664498000,6620172,-0.04358119,0.11939169,-0.042184792,12.455294,1.5875059e-05
664712000,664558666,6620172,-0.0434028,0.11917549,0.018465225,12.456107,3.0414758e-06
664784000,664629333,6620172,-0.043644868,0.119228795,-0.02504813,12.457675,5.595915e-06
664848000,664692000,6620172,-0.04416795,0.11914784,-0.054133452,12.450792,2.6151221e-05
664904000,664752000,6620172,-0.04414461,0.11893593,0.0024199039,12.451574,5.2255192e-08
664976000,664822666,6620172,-0.044037867,0.118993424,0.011063557,12.453086,1.0921193e-06
665040000,664884000,6620172,-0.04430178,0.11891733,-0.027373265,12.454256,6.6848693e-06
665096000,664942666,6620172,-0.04375179,0.11871019,0.057149682,12.455074,2.9136594e-05
665168000,665014666,6620172,-0.044256657,0.11877237,-0.052439615,12.456647,2.4528743e-05
665240000,665086666,6620172,-0.044443067,0.11883276,-0.019341975,12.450182,3.3387466e-06
665312000,665160000,6620172,-0.044541247,0.11889212,-0.010183398,12.451677,9.2536925e-07
665384000,665232000,6620172,-0.044869866,0.11895047,-0.034072034,12.453193,1.0357928e-05
665456000,665304000,6620172,-0.04519867,0.11900784,-0.03407911,12.454729,1.0360953e-05
665528000,665374666,6620172,-0.045617793,0.11906425,-0.043424375,12.456286,1.6820391e-05
665600000,665448000,6620172,-0.046443455,0.11911972,-0.085516244,12.457863,6.5224565e-05
665672000,665520000,6620172,-0.04633968,0.119173504,0.0107378885,12.451319,1.028916e-06
665744000,665592000,6620172,-0.046242774,0.11922639,0.010023762,12.452819,8.96502e-07
665816000,665664000,6620172,-0.046061777,0.11927839,0.018715918,12.45434,3.125065e-06
665888000,665736000,6620172,-0.04629608,0.119329534,-0.024220206,12.455881,5.232855e-06
665960000,665808000,6620172,-0.04689525,0.11937983,-0.061919253,12.457443,3.419637e-05
666032000,665878666,6620172,-0.0467112,0.11942855,0.019002184,12.450938,3.2222742e-06
666104000,665952000,6620172,-0.046077687,0.11947647,0.06538796,12.452423,3.8150407e-05
666176000,666024000,6620172,-0.044638008,0.11952359,0.14855571,12.453929,0.00019689278
666248000,666094666,6620172,-0.044453204,0.11956995,0.019064277,12.455456,3.2421908e-06
666320000,666168000,6620172,-0.04354576,0.11961555,0.093586504,12.457004,7.812146e-05
666392000,666238666,6620172,-0.04347623,0.119660415,0.007168807,12.4585705,4.5833502e-07
666464000,666310666,6620172,-0.04331311,0.119703785,0.016803868,12.45199,2.519633e-06
666536000,666384000,6620172,-0.04247355,0.119746454,0.086464964,12.453481,6.670326e-05
666608000,666456000,6620172,-0.042927388,0.11978844,-0.04672933,12.454993,1.9480187e-05
666680000,666528000,6620172,-0.04287502,0.11982975,0.005390767,12.456526,2.5921594e-07
666752000,666598666,6620172,-0.04232589,0.11987041,0.05651638,12.458078,2.848755e-05
666816000,666660000,6620172,-0.041150656,0.11977782,0.12106124,12.459275,0.00013069982
666872000,666718666,6620172,-0.040871818,0.11955376,0.028760519,12.451923,7.3809883e-06
666936000,666780000,6620172,-0.040782157,0.11946673,0.009255607,12.45306,7.6434804e-07
666992000,666838666,6620172,-0.04060413,0.119248874,0.018412773,12.453854,3.0247681e-06
667064000,666912000,6620172,-0.041157696,0.119300544,-0.057235226,12.455389,2.9223147e-05
667136000,666984000,6620172,-0.04124962,0.11935136,-0.009501483,12.456944,8.052463e-07
667208000,667056000,6620172,-0.041206602,0.119401336,0.0044454224,12.458519,1.7624514e-07
667280000,667126666,6620172,-0.041451886,0.11944973,-0.025321718,12.451926,5.7214656e-06
667352000,667200000,6620172,-0.041786823,0.11949732,-0.0345674,12.453425,1.0661103e-05
