timestamp,timestamp_sample,time_last_fuse,device_id,observation[0],observation[1],observation[2],observation_variance[0],observation_variance[1],observation_variance[2],innovation[0],innovation[1],innovation[2],innovation_filtered[0],innovation_filtered[1],innovation_filtered[2],innovation_variance[0],innovation_variance[1],innovation_variance[2],test_ratio[0],test_ratio[1],test_ratio[2],test_ratio_filtered[0],test_ratio_filtered[1],test_ratio_filtered[2],estimator_instance,innovation_rejected,fused
625256000,625104000,625104000,0,0.002098732,0.0028718198,-0.9999936,1.0,1.0,1.0,0.0011532989,-0.0017486464,-4.7683716e-07,-0.0003037068,0.0015479453,-3.1263236e-05,1.0000153,1.0000153,1.0,2.1281248e-05,4.892348e-05,3.637979e-12,-2.5942081e-05,0.00024568668,-3.9386478e-08,0,0,1
625264000,625112000,625112000,0,0.011492489,-0.01195409,-0.99986243,1.0,1.0,1.0,-0.008131336,0.013141617,-0.00013124943,-0.00042697653,0.0017305228,-3.2837823e-05,1.0000153,1.0000153,1.0,0.001057882,0.0027631915,2.756226e-07,-4.2193104e-05,0.00028533244,-4.310673e-08,0,0,1
625272000,625120000,625120000,0,0.014784302,0.0073800357,-0.9998634,1.0,1.0,1.0,-0.011422865,-0.0061052786,-0.00013023615,-0.00060014013,0.0016071243,-3.4371653e-05,1.0000154,1.0000154,1.0,0.0020876774,0.0005963816,2.7138327e-07,-7.4405456e-05,0.00027144718,-4.6701636e-08,0,0,1
625280000,625128000,625128000,0,-0.0025562039,0.008966831,-0.9999565,1.0,1.0,1.0,0.005946579,-0.0076293694,-3.683567e-05,-0.0004970422,0.0014616677,-3.4410456e-05,1.0000154,1.0000154,1.0,0.00056578015,0.00093130214,2.1709866e-08,-6.4323795e-05,0.00025250623,-4.6308067e-08,0,0,1
625288000,625136000,625136000,0,-0.0053710886,-0.0042320946,-0.9999766,1.0,1.0,1.0,0.00872664,0.005599144,-1.692772e-05,-0.00035178737,0.0015268248,-3.4135137e-05,1.0000155,1.0000154,1.0,0.001218449,0.0005015989,4.584763e-09,-4.412265e-05,0.00025642896,-4.5651007e-08,0,0,1
625296000,625144000,625144000,0,-0.0072544934,-0.003881612,-0.9999662,1.0,1.0,1.0,0.010484737,0.0051694326,-2.7775764e-05,-0.00018113344,0.0015841887,-3.403499e-05,1.0000155,1.0000154,1.0,0.0017588482,0.00042756196,1.23438895e-08,-1.5729409e-05,0.00025912398,-4.5126484e-08,0,0,1
625304000,625152000,625152000,0,-0.001547834,-0.0035766345,-0.99999243,1.0,1.0,1.0,0.0047178646,0.0048754895,-1.66893e-06,-0.00010398386,0.0016360201,-3.3525288e-05,1.0000155,1.0000154,1.0,0.0003561264,0.0003803205,4.456524e-11,-9.873413e-06,0.00026103258,-4.441653e-08,0,0,1
625312000,625160000,625160000,0,-0.012398058,0.007321794,-0.99989635,1.0,1.0,1.0,0.015628094,-0.005941212,-9.75132e-05,0.00014376541,0.0015166936,-3.453297e-05,1.0000155,1.0000154,1.0,0.0039077364,0.00056475936,1.5214118e-07,5.182123e-05,0.00024802797,-4.6112984e-08,0,0,1
625328000,625176000,625176000,0,0.011682093,-0.00059486635,-0.9999316,1.0,1.0,1.0,-0.008467502,0.0020284946,-6.222725e-05,2.843677e-06,0.0015267489,-3.4425524e-05,1.0000156,1.0000155,1.0,0.0011471595,6.583563e-05,6.195569e-08,3.21266e-05,0.00024198579,-4.5647653e-08,0,0,1
625336000,625184000,625184000,0,0.01148577,0.0056682206,-0.999918,1.0,1.0,1.0,-0.0082433075,-0.00419828,-7.57575e-05,-0.00012701696,0.0014365909,-3.507642e-05,1.0000156,1.0000155,1.0,0.0010872169,0.00028200453,9.182719e-08,1.4499146e-05,0.00023373397,-4.637489e-08,0,0,1
625344000,625192000,625192000,0,0.006685796,0.0008064706,-0.99997735,1.0,1.0,1.0,-0.0034026853,0.00066783937,-1.6093254e-05,-0.00017860229,0.0014244845,-3.4777473e-05,1.0000156,1.0000155,1.0,0.00018524937,7.13604e-06,4.1438852e-09,1.1353501e-05,0.0002301655,-4.5709836e-08,0,0,1
625352000,625200000,625200000,0,0.005547632,0.0005518804,-0.9999844,1.0,1.0,1.0,-0.0022450974,0.00093067595,-9.059906e-06,-0.00021114553,0.001416708,-3.437247e-05,1.0000156,1.0000155,1.0,8.064614e-05,1.3858309e-05,1.3133103e-09,9.904687e-06,0.00022675909,-4.501068e-08,0,0,1
625368000,625216000,625216000,0,0.009779746,-0.010384348,-0.99989825,1.0,1.0,1.0,-0.0065032216,0.011847351,-9.536743e-05,-0.0003833467,0.0015617757,-3.5237237e-05,1.0000157,1.0000156,1.0,0.0006766596,0.0022457202,1.4551915e-07,-7.0838223e-06,0.00025504688,-4.6092946e-08,0,0,1
625376000,625224000,625224000,0,-0.0040297434,0.0009288303,-0.9999914,1.0,1.0,1.0,0.007287557,0.00055068574,-2.2053719e-06,-0.00026254507,0.001545853,-3.471705e-05,1.0000157,1.0000156,1.0,0.00084972236,4.8520005e-06,7.781864e-11,6.4091882e-06,0.0002511068,-4.53683e-08,0,0,1
625384000,625232000,625232000,0,0.00093420653,0.011393177,-0.99993473,1.0,1.0,1.0,0.0022835424,-0.009885323,-5.8948994e-05,-0.0002224492,0.0013658345,-3.5098656e-05,1.0000157,1.0000156,1.0,8.343175e-05,0.0015634894,5.559974e-08,7.622142e-06,0.00022253048,-4.5529426e-08,0,0,1
625392000,625240000,625240000,0,0.0005535404,0.004379922,-0.9999902,1.0,1.0,1.0,0.0026368746,-0.0028308325,-3.5762787e-06,-0.00017742049,0.0012997453,-3.460224e-05,1.0000157,1.0000157,1.0,0.000111247966,0.00012821578,2.0463631e-10,9.254045e-06,0.00021700692,-4.481565e-08,0,0,1
625408000,625256000,625256000,0,-0.0056304154,0.0023034648,-0.99998146,1.0,1.0,1.0,0.00876829,-0.00080717984,-1.2457371e-05,6.207172e-05,0.0011397924,-3.4239154e-05,1.0000159,1.0000159,1.0,0.001230107,1.0424463e-05,2.4829774e-09,3.782299e-05,0.0001983259,-4.373561e-08,0,0,1
625416000,625264000,625264000,0,0.006487763,0.00421565,-0.99997014,1.0,1.0,1.0,-0.0033728,-0.002678458,-2.3782253e-05,7.979248e-06,0.0010796625,-3.4074477e-05,1.0000159,1.0000159,1.0,0.00018200961,0.00011478439,9.049529e-09,3.436106e-05,0.00019339503,-4.3189374e-08,0,0,1
625424000,625272000,625272000,0,-0.00055824424,0.010801599,-0.9999415,1.0,1.0,1.0,0.0036485926,-0.009155312,-5.2452087e-05,6.5311746e-05,0.0009184818,-3.436389e-05,1.0000159,1.0000159,1.0,0.00021299228,0.0013410944,4.4019544e-08,3.7174148e-05,0.00016922984,-4.3202448e-08,0,0,1
625432000,625280000,625280000,0,-0.004128744,0.013361718,-0.99990225,1.0,1.0,1.0,0.0072396095,-0.011551544,-9.137392e-05,0.0001782928,0.0007221034,-3.5261684e-05,1.0000159,1.0000159,1.0,0.00083857786,0.002134977,1.335871e-07,4.979468e-05,0.00013294313,-4.462583e-08,0,0,1
625448000,625296000,625296000,0,-5.5667137e-05,-8.257914e-05,-1.0,1.0,1.0,1.0,0.003207302,0.0017937501,6.4969063e-06,0.0003141771,0.00073942693,-3.4023327e-05,1.000016,1.000016,1.0,0.00016458594,5.147981e-05,6.7535666e-10,5.9368605e-05,0.00012973948,-4.3219515e-08,0,0,1
625456000,625304000,625304000,0,0.0041986676,0.006561083,-0.9999696,1.0,1.0,1.0,-0.0009038409,-0.0049366886,-2.3722649e-05,0.00029499573,0.0006500393,-3.3861113e-05,1.000016,1.000016,1.0,1.3070644e-05,0.0003899281,9.004225e-09,5.822783e-05,0.000121555735,-4.2680693e-08,0,0,1
625464000,625312000,625312000,0,-0.003152096,0.008463723,-0.99995923,1.0,1.0,1.0,0.006481387,-0.006852471,-3.385544e-05,0.00039241923,0.0005318895,-3.3861023e-05,1.000016,1.000016,1.0,0.0006721234,0.0007512897,1.8339051e-08,6.7895475e-05,0.000107810134,-4.229736e-08,0,0,1
625472000,625320000,625320000,0,-0.003908672,0.006978009,-0.99996805,1.0,1.0,1.0,0.007285163,-0.0052775377,-2.4795532e-05,0.0005009664,0.00044040245,-3.3718257e-05,1.000016,1.000016,1.0,0.000849164,0.00044563133,9.837095e-09,8.0198915e-05,9.909452e-05,-4.1786173e-08,0,0,1
625488000,625336000,625336000,0,0.0048669768,-0.001653054,-0.9999868,1.0,1.0,1.0,-0.0014524467,0.0035168552,-5.6028366e-06,0.0005348888,0.00044904,-3.2767643e-05,1.0000161,1.0000161,1.0,3.375308e-05,0.00019788914,5.0226845e-10,8.2579514e-05,9.799134e-05,-4.0488572e-08,0,0,1
625496000,625344000,625344000,0,0.0019255236,0.0077273627,-0.9999683,1.0,1.0,1.0,0.0015591653,-0.0058267377,-2.3841858e-05,0.00055101915,0.00035020887,-3.262708e-05,1.0000161,1.0000161,1.0,3.8895316e-05,0.00054320524,9.094947e-09,8.189157e-05,8.789376e-05,-3.9994184e-08,0,0,1
625504000,625352000,625352000,0,0.005495499,0.008216409,-0.9999512,1.0,1.0,1.0,-0.0019625707,-0.0061849887,-4.0590763e-05,0.0005114351,0.00024729237,-3.275249e-05,1.0000161,1.0000161,1.0,6.162595e-05,0.00061205553,2.636176e-08,7.9631456e-05,7.6870936e-05,-3.97795e-08,0,0,1
625512000,625360000,625360000,0,0.0019553998,0.0026273364,-0.9999946,1.0,1.0,1.0,0.0016725536,-0.00050971867,3.3974648e-06,0.00052972045,0.00023537093,-3.21832e-05,1.0000161,1.0000161,1.0,4.475825e-05,4.156943e-06,1.8468427e-10,7.9082274e-05,7.559491e-05,-3.9150144e-08,0,0,1
625528000,625376000,625376000,0,-0.005066944,-0.0030270508,-0.9999826,1.0,1.0,1.0,0.008575361,0.005136342,-9.059906e-06,0.00064182386,0.0004639021,-3.179693e-05,1.0000162,1.0000162,1.0,0.0011765701,0.00042210528,1.3133103e-09,9.509763e-05,0.00010467921,-3.818205e-08,0,0,1
625536000,625384000,625384000,0,9.145017e-06,0.0023351714,-0.9999973,1.0,1.0,1.0,0.003394283,-0.00017206674,5.4836273e-06,0.00068516965,0.00045388684,-3.1209835e-05,1.0000162,1.0000162,1.0,0.00018433551,4.7370372e-07,4.811227e-10,9.6502954e-05,0.00010302326,-3.7573184e-08,0,0,1
625544000,625392000,625392000,0,0.0038031044,0.00012244887,-0.9999928,1.0,1.0,1.0,-0.0005089126,0.0020241542,5.364418e-07,0.0006663652,0.00047861546,-3.0709893e-05,1.0000162,1.0000162,1.0,4.143805e-06,6.555414e-05,4.604317e-12,9.491797e-05,0.000102433194,-3.6981408e-08,0,0,1
625552000,625400000,625400000,0,0.009269233,-0.0070991414,-0.99993175,1.0,1.0,1.0,-0.0059810355,0.009290092,-6.043911e-05,0.00056168175,0.00061737886,-3.1178068e-05,1.0000162,1.0000162,1.0,0.00057235535,0.0013808705,5.8446176e-08,8.440972e-05,0.00012256607,-3.7319435e-08,0,0,1
625568000,625416000,625416000,0,0.0057633063,0.005154539,-0.99997014,1.0,1.0,1.0,-0.0024056227,-0.0027735287,-2.1338463e-05,0.0004379201,0.0006886642,-3.1195803e-05,1.0000163,1.0000163,1.0,9.259082e-05,0.00012307738,7.28528e-09,7.549496e-05,0.00013540334,-3.671215e-08,0,0,1
625576000,625424000,625424000,0,-0.005085187,-0.00021653764,-0.99998695,1.0,1.0,1.0,0.008492373,0.0026619993,-4.351139e-06,0.00056476187,0.00071974035,-3.077305e-05,1.0000163,1.0000163,1.0,0.0011539075,0.000113377995,3.0291858e-10,9.247783e-05,0.00013505649,-3.613878e-08,0,0,1
625584000,625432000,625432000,0,0.007843516,0.003877866,-0.99996173,1.0,1.0,1.0,-0.0044528795,-0.0014254716,-2.9444695e-05,0.0004857439,0.0006859575,-3.0752133e-05,1.0000163,1.0000163,1.0,0.000317245,3.251098e-05,1.3871841e-08,8.60255e-05,0.00013241763,-3.578812e-08,0,0,1
625592000,625440000,625440000,0,0.0041928976,0.0030874196,-0.99998647,1.0,1.0,1.0,-0.0008668164,-0.0006066875,-5.00679e-06,0.00046444373,0.0006656009,-3.0346695e-05,1.0000163,1.0000163,1.0,1.2021734e-05,5.8890196e-06,4.0108716e-10,8.448145e-05,0.00013023957,-3.5230844e-08,0,0,1
625608000,625456000,625456000,0,0.014257862,-0.010025204,-0.99984807,1.0,1.0,1.0,-0.0109792575,0.012468322,-0.00014358759,0.0002173959,0.0009542502,-3.2099404e-05,1.0000165,1.0000165,1.0,0.0019286737,0.002487304,3.2987833e-07,4.7797992e-05,0.00017854317,-3.952451e-08,0,0,1
625616000,625464000,625464000,0,0.0038162866,-0.004428882,-0.99998283,1.0,1.0,1.0,-0.00043912604,0.006743787,-8.702278e-06,0.00020705696,0.001045424,-3.1730946e-05,1.0000151,1.0000151,1.0,3.0852602e-06,0.00072764757,1.2116743e-09,4.699668e-05,0.00018719048,-3.892116e-08,0,0,1
625624000,625472000,625472000,0,0.006604115,-0.0046133683,-0.9999675,1.0,1.0,1.0,-0.0032402573,0.0070245788,-2.3961067e-05,0.00015276855,0.001139584,-3.1608586e-05,1.0000151,1.0000151,1.0,0.00016798572,0.0007895034,9.186124e-09,4.361113e-05,0.00019667573,-3.8452892e-08,0,0,1
625632000,625480000,625480000,0,0.0005124928,0.011323356,-0.99993575,1.0,1.0,1.0,0.0028922777,-0.008870009,-5.555153e-05,0.00019591043,0.0009819526,-3.198564e-05,1.0000151,1.0000153,1.0,0.0001338423,0.0012588139,4.9375558e-08,4.503209e-05,0.00017375463,-3.8624904e-08,0,0,1
625648000,625496000,625496000,0,-0.0071361284,0.0046386444,-0.99996376,1.0,1.0,1.0,0.010560424,-0.0020920453,-2.7060509e-05,0.0003418283,0.0009867962,-3.1449257e-05,1.0000153,1.0000153,1.0,0.0017843336,7.002539e-05,1.1716338e-08,7.151458e-05,0.00017206212,-3.760387e-08,0,0,1
625656000,625504000,625504000,0,0.00038352952,0.014285754,-0.99989784,1.0,1.0,1.0,0.0030592445,-0.011716144,-9.286404e-05,0.00038462225,0.00078674994,-3.2416418e-05,1.0000153,1.0000153,1.0,0.00014974135,0.002196255,1.3797967e-07,7.2746494e-05,0.0001347658,-3.9184588e-08,0,0,1
625664000,625512000,625512000,0,0.007750222,-0.0018163626,-0.9999683,1.0,1.0,1.0,-0.004352772,0.004399246,-2.2649765e-05,0.0003100176,0.00084363966,-3.226261e-05,1.0000153,1.0000153,1.0,0.00030314137,0.00030964913,8.20819e-09,6.6827e-05,0.00013751986,-3.8696772e-08,0,0,1
625672000,625520000,625520000,0,-0.00044703437,-0.00046743645,-0.99999976,1.0,1.0,1.0,0.0036572607,0.0031757264,8.523464e-06,0.0003627301,0.00088036543,-3.162031e-05,1.0000154,1.0000154,1.0,0.0002140056,0.00016136133,1.1623911e-09,6.914477e-05,0.00013789532,-3.8069068e-08,0,0,1
625688000,625536000,625536000,0,0.006391283,-0.0037998615,-0.9999724,1.0,1.0,1.0,-0.0031452435,0.0063465377,-1.9013882e-05,0.00032981747,0.0010829876,-3.106286e-05,1.0000155,1.0000154,1.0,0.00015827845,0.00064444676,5.784443e-09,6.529814e-05,0.00016123005,-3.6988343e-08,0,0,1
625696000,625544000,625544000,0,-0.00020671966,-0.0053196396,-0.9999858,1.0,1.0,1.0,0.0034202738,0.007821998,-5.841255e-06,0.00037848606,0.0011891138,-3.066567e-05,1.0000155,1.0000154,1.0,0.00018716947,0.0009789233,5.459242e-10,6.721737e-05,0.00017410712,-3.641445e-08,0,0,1
625704000,625552000,625552000,0,0.006668907,0.0034064671,-0.9999719,1.0,1.0,1.0,-0.0034613572,-0.0008981663,-1.9729137e-05,0.0003180161,0.0011562433,-3.049344e-05,1.0000155,1.0000154,1.0,0.00019169293,1.2907046e-05,6.227822e-09,6.314004e-05,0.00017116201,-3.5939067e-08,0,0,1
625712000,625560000,625560000,0,0.008400126,0.009719484,-0.9999175,1.0,1.0,1.0,-0.00520338,-0.007249781,-7.426739e-05,0.00023106499,0.001023865,-3.1182793e-05,1.0000155,1.0000154,1.0,0.00043319585,0.00084093626,8.825032e-08,5.5323726e-05,0.00015522346,-3.6762867e-08,0,0,1
625728000,625576000,625576000,0,0.0057524377,-0.0030000082,-0.9999789,1.0,1.0,1.0,-0.0025558432,0.0055559874,-1.2636185e-05,0.00019997386,0.0011982473,-3.052287e-05,1.0000156,1.0000155,1.0,0.000104515726,0.0004938963,2.5547706e-09,5.222596e-05,0.00017273908,-3.5668098e-08,0,0,1
625736000,625584000,625584000,0,0.009706273,0.0055006603,-0.99993783,1.0,1.0,1.0,-0.006409075,-0.003035782,-5.364418e-05,9.589435e-05,0.0011315697,-3.0886986e-05,1.0000156,1.0000155,1.0,0.00065720966,0.00014745326,4.604317e-08,4.1053747e-05,0.00016769668,-3.5831484e-08,0,0,1
625744000,625592000,625592000,0,0.0030716425,0.009498897,-0.9999502,1.0,1.0,1.0,0.00035811355,-0.0072295275,-4.1365623e-05,0.00010002378,0.0009998989,-3.1052004e-05,1.0000156,1.0000155,1.0,2.051893e-06,0.0008362441,2.7377837e-08,4.0439543e-05,0.00015188659,-3.5698356e-08,0,0,1
625752000,625600000,625600000,0,0.012983756,0.008642833,-0.99987835,1.0,1.0,1.0,-0.009432133,-0.0063750404,-0.00011283159,-5.008893e-05,0.0008837581,-3.233987e-05,1.0000156,1.0000155,1.0,0.00142342,0.0006502482,2.0369549e-07,1.7386637e-05,0.00013925455,-3.834398e-08,0,0,1
625768000,625616000,625616000,0,0.00734677,0.0037966159,-0.99996585,1.0,1.0,1.0,-0.003796623,-0.0016488524,-2.5629997e-05,-3.5254998e-05,0.00093621813,-3.1778203e-05,1.0000157,1.0000156,1.0,0.00023062593,4.3498745e-05,1.0510348e-08,1.8720997e-05,0.00014582553,-3.731344e-08,0,0,1
625776000,625624000,625624000,0,0.0064175394,0.008905394,-0.9999397,1.0,1.0,1.0,-0.002905974,-0.006723494,-5.1796436e-05,-8.046317e-05,0.00081559276,-3.2093452e-05,1.0000157,1.0000157,1.0,0.00013511283,0.0007232745,4.2925933e-08,1.6298418e-05,0.00013213891,-3.7401826e-08,0,0,1
625784000,625632000,625632000,0,-0.0022974426,0.0069500552,-0.99997324,1.0,1.0,1.0,0.0057178605,-0.004779378,-1.8537045e-05,1.0849013e-05,0.000727483,-3.1879965e-05,1.0000157,1.0000157,1.0,0.00052309467,0.0003654735,5.4979523e-09,2.4279461e-05,0.0001243025,-3.68994e-08,0,0,1
625792000,625640000,625640000,0,0.00032716358,-4.204315e-05,-1.0,1.0,1.0,1.0,0.0031342143,0.0022302356,8.34465e-06,6.003587e-05,0.0007511484,-3.1246505e-05,1.0000157,1.0000157,1.0,0.00015717032,7.9581965e-05,1.114131e-09,2.637223e-05,0.00012359825,-3.630076e-08,0,0,1
625808000,625656000,625656000,0,0.003595078,-0.001343493,-0.9999926,1.0,1.0,1.0,-0.000104232924,0.003531966,1.1324883e-06,-2.4704515e-05,0.00084479654,-3.0738236e-05,1.0000159,1.0000159,1.0,1.7382928e-07,0.00019959337,2.0520474e-11,1.8735558e-05,0.00012678326,-3.5409883e-08,0,0,1
625816000,625664000,625664000,0,0.0030349658,0.006428844,-0.9999746,1.0,1.0,1.0,0.0005264643,-0.0042747306,-1.6748905e-05,-1.6024693e-05,0.00076417404,-3.051793e-05,1.0000159,1.0000159,1.0,4.4345643e-06,0.00029236852,4.488413e-09,1.8510345e-05,0.00012018244,-3.492293e-08,0,0,1
625824000,625672000,625672000,0,-0.0018138766,0.012370527,-0.9999218,1.0,1.0,1.0,0.0053042816,-0.010347824,-7.009506e-05,6.775966e-05,0.00058918196,-3.1141193e-05,1.0000159,1.0000159,1.0,0.00045015934,0.0017132121,7.8613084e-08,2.5307967e-05,9.131009e-05,-3.5610963e-08,0,0,1
625832000,625680000,625680000,0,0.0059515303,0.0038376565,-0.9999749,1.0,1.0,1.0,-0.0024958246,-0.0018133901,-1.6987324e-05,2.7388254e-05,0.00055134617,-3.0918298e-05,1.0000159,1.0000159,1.0,9.966467e-05,5.2613304e-05,4.6171067e-09,2.3339893e-05,8.904358e-05,-3.512287e-08,0,0,1
625848000,625696000,625696000,0,-0.0025642207,-0.007736448,-0.99996686,1.0,1.0,1.0,0.006071509,0.009772918,-2.4855137e-05,0.0002301904,0.0006932059,-3.0332494e-05,1.000016,1.000016,1.0,0.0005898021,0.0015281345,9.884445e-09,4.394857e-05,0.00011035398,-3.4180882e-08,0,0,1
625856000,625704000,625704000,0,0.005601559,-0.008915689,-0.99994457,1.0,1.0,1.0,-0.0021279338,0.010922893,-4.7445297e-05,0.00019305458,0.00085430336,-3.0601987e-05,1.000016,1.000016,1.0,7.244848e-05,0.0019089229,3.60169e-08,4.2115546e-05,0.0001386779,-3.4209794e-08,0,0,1
625864000,625712000,625712000,0,-0.0019487056,0.0018738654,-0.99999624,1.0,1.0,1.0,0.0054535484,0.00020118279,4.5895576e-06,0.000275897,0.000844018,-3.004779e-05,1.000016,1.000016,1.0,0.00047585144,6.475819e-07,3.3702463e-10,4.8946033e-05,0.0001365042,-3.366575e-08,0,0,1
625872000,625720000,625720000,0,-0.0029036903,0.0011373573,-0.9999952,1.0,1.0,1.0,0.0063524367,0.0010150584,3.3974648e-06,0.00037159055,0.00084671157,-2.9521092e-05,1.000016,1.000016,1.0,0.00064564496,1.6485232e-05,1.8468427e-10,5.8342866e-05,0.00013461414,-3.313267e-08,0,0,1
625888000,625736000,625736000,0,-0.005091232,0.007825031,-0.9999564,1.0,1.0,1.0,0.008504622,-0.005570286,-3.5226345e-05,0.00052225357,0.00068722985,-2.924852e-05,1.0000161,1.0000161,1.0,0.0011572388,0.0004964414,1.9854326e-08,7.557325e-05,0.00012047124,-3.2419354e-08,0,0,1
625896000,625744000,625744000,0,0.0027996788,-0.008701551,-0.9999583,1.0,1.0,1.0,0.0006504881,0.011079177,-3.2901764e-05,0.000524273,0.00085088256,-2.9306051e-05,1.0000161,1.0000161,1.0,6.7700466e-06,0.001963939,1.7320417e-08,7.448973e-05,0.00014950223,-3.2181575e-08,0,0,1
625904000,625752000,625752000,0,0.00299427,0.002715775,-0.99999183,1.0,1.0,1.0,0.0004926382,-0.00025781896,1.013279e-06,0.0005237748,0.0008334227,-2.8828581e-05,1.0000161,1.0000161,1.0,3.8830162e-06,1.0635127e-06,1.6427748e-11,7.3377814e-05,0.00014713111,-3.167452e-08,0,0,1
625912000,625760000,625760000,0,0.012279507,0.0031665813,-0.99991965,1.0,1.0,1.0,-0.008703512,-0.0007073323,-7.092953e-05,0.0003784632,0.00080915884,-2.9491588e-05,1.0000161,1.0000161,1.0,0.0012119984,8.004974e-06,8.0495965e-08,5.313567e-05,0.00014468802,-3.2443364e-08,0,0,1
625928000,625776000,625776000,0,-0.0023418698,0.0012335919,-0.9999965,1.0,1.0,1.0,0.0058568968,0.0013680917,6.020069e-06,0.00041839315,0.00070505694,-2.9244817e-05,1.0000162,1.0000162,1.0,0.00054884295,2.9946312e-05,5.798597e-10,5.8427155e-05,0.00013024113,-3.2031807e-08,0,0,1
625936000,625784000,625784000,0,0.005179024,0.002701368,-0.99998295,1.0,1.0,1.0,-0.0017806012,-4.602922e-05,-7.748604e-06,0.0003837633,0.0006932288,-2.8906294e-05,1.0000162,1.0000162,1.0,5.0727827e-05,3.3898477e-08,9.606538e-10,5.6708177e-05,0.00012818955,-3.15425e-08,0,0,1
625944000,625792000,625792000,0,-0.0008466877,0.0038951798,-0.9999921,1.0,1.0,1.0,0.0042488924,-0.0012202824,1.4305115e-06,0.0004446315,0.00066309475,-2.8428549e-05,1.0000162,1.0000162,1.0,0.0002888447,2.3825041e-05,3.274181e-11,6.036387e-05,0.00012579562,-3.104525e-08,0,0,1
625952000,625800000,625800000,0,0.0041444637,0.006812554,-0.9999682,1.0,1.0,1.0,-0.0007238288,-0.0042381333,-2.259016e-05,0.00042623054,0.00058591005,-2.8336606e-05,1.0000162,1.0000162,1.0,8.382714e-06,0.00028738374,8.1650455e-09,5.9281247e-05,0.00011928886,-3.068493e-08,0,0,1
625968000,625816000,625816000,0,0.008051455,0.009182199,-0.9999255,1.0,1.0,1.0,-0.004655607,-0.0067460635,-6.568432e-05,0.00024124002,0.00035182486,-2.9795594e-05,1.0000163,1.0000163,1.0,0.00034678917,0.0007281381,6.9030875e-08,4.198199e-05,9.170886e-05,-3.2584786e-08,0,0,1
625976000,625824000,625824000,0,0.0052651614,0.0014105886,-0.99998516,1.0,1.0,1.0,-0.0018401367,0.0010453169,-6.020069e-06,0.00020846244,0.00036274598,-2.9421177e-05,1.0000163,1.0000163,1.0,5.4176766e-05,1.7482715e-05,5.798597e-10,4.046768e-05,9.053994e-05,-3.208077e-08,0,0,1
625984000,625832000,625832000,0,0.003083902,-0.0009493979,-0.99999475,1.0,1.0,1.0,0.00032558176,0.0034368162,3.5762787e-06,0.00021030684,0.00041115654,-2.8901532e-05,1.0000163,1.0000163,1.0,1.696028e-06,0.0001889842,2.0463631e-10,3.9857103e-05,9.2090246e-05,-3.1572338e-08,0,0,1
625992000,625840000,625840000,0,0.0056394627,0.0008543118,-0.9999837,1.0,1.0,1.0,-0.002291587,0.0016372197,-7.56979e-06,0.00017090693,0.00043046463,-2.8565599e-05,1.0000163,1.0000163,1.0,8.4020554e-05,4.288711e-05,9.168275e-10,3.7906273e-05,9.131539e-05,-3.1089574e-08,0,0,1
626008000,625856000,625856000,0,0.010514888,0.005343367,-0.9999304,1.0,1.0,1.0,-0.007202627,-0.0027811048,-6.0796738e-05,2.355942e-05,0.00025687303,-2.9479448e-05,1.0000165,1.0000165,1.0,0.0008300317,0.00012375067,5.9139893e-08,2.2807273e-05,7.254094e-05,-3.1793544e-08,0,0,1
626016000,625864000,625864000,0,0.006883127,0.002450395,-0.9999733,1.0,1.0,1.0,-0.0036185635,-1.6392907e-05,-1.835823e-05,-3.379685e-05,0.00025256962,-2.930431e-05,1.0000151,1.0000151,1.0,0.00020950085,4.299573e-09,5.392394e-09,1.9148878e-05,7.13985e-05,-3.1377777e-08,0,0,1
626024000,625872000,625872000,0,0.0071801054,-0.0023240906,-0.99997157,1.0,1.0,1.0,-0.0039257635,0.0046147937,-2.0563602e-05,-9.508766e-05,0.00032126607,-2.9166662e-05,1.0000151,1.0000151,1.0,0.00024658217,0.00034073598,6.765788e-09,1.4964137e-05,7.564003e-05,-3.0990186e-08,0,0,1
626032000,625880000,625880000,0,0.0023225418,0.01085275,-0.99993837,1.0,1.0,1.0,0.0009490999,-0.008679528,-5.4001808e-05,-7.864376e-05,0.00017952127,-2.9557767e-05,1.0000151,1.0000153,1.0,1.44124315e-05,0.0012053289,4.6659125e-08,1.4955449e-05,5.5467295e-05,-3.123694e-08,0,0,1
626048000,625896000,625896000,0,0.0020510892,-0.0015996743,-0.9999966,1.0,1.0,1.0,0.0010046903,0.0037060324,3.516674e-06,-5.677216e-05,0.00017682853,-2.8785711e-05,1.0000153,1.0000153,1.0,1.6150196e-05,0.00021975147,1.9787194e-10,1.4755774e-05,5.4021355e-05,-3.030194e-08,0,0,1
626056000,625904000,625904000,0,0.0055746203,0.0028395376,-0.9999804,1.0,1.0,1.0,-0.002513822,-0.0007506395,-1.2695789e-05,-9.546586e-05,0.00016222273,-2.8532326e-05,1.0000154,1.0000153,1.0,0.00010110725,9.015217e-06,2.578929e-09,1.2931159e-05,5.3028652e-05,-2.9865358e-08,0,0,1
626064000,625912000,625912000,0,0.0008056571,0.003024544,-0.9999951,1.0,1.0,1.0,0.0022834039,-0.0010141709,1.9073486e-06,-5.8003345e-05,0.00014369685,-2.805296e-05,1.0000154,1.0000153,1.0,8.3421655e-05,1.6456432e-05,5.820766e-11,1.4041246e-05,5.19344e-05,-2.9394121e-08,0,0,1
626072000,625920000,625920000,0,0.0053865532,0.001744292,-0.9999839,1.0,1.0,1.0,-0.002317361,0.0002272611,-9.536743e-06,-9.358378e-05,0.00014501282,-2.7761367e-05,1.0000154,1.0000153,1.0,8.5921274e-05,8.263491e-07,1.4551915e-09,1.2467033e-05,5.1129548e-05,-2.8954139e-08,0,0,1
626088000,625936000,625936000,0,0.0017813193,0.0046894955,-0.9999874,1.0,1.0,1.0,0.001287411,-0.002743165,-5.9604645e-06,-8.007556e-05,9.2939e-05,-2.703024e-05,1.0000155,1.0000154,1.0,2.651842e-05,0.00012039742,5.684342e-10,1.2398146e-05,4.761636e-05,-2.8060194e-08,0,0,1
626096000,625944000,625944000,0,-0.0027880687,0.007986569,-0.9999643,1.0,1.0,1.0,0.0058913305,-0.005957731,-2.8908253e-05,1.396233e-05,-2.347144e-06,-2.7059816e-05,1.0000155,1.0000154,1.0,0.0005553158,0.0005679042,1.3370993e-08,2.0948031e-05,3.792312e-05,-2.7828868e-08,0,0,1
626104000,625952000,625952000,0,-0.005400929,0.0041514956,-0.9999768,1.0,1.0,1.0,0.008589932,-0.002050919,-1.5974045e-05,0.00014901697,-3.4608118e-05,-2.6885236e-05,1.0000155,1.0000154,1.0,0.0011805726,6.729927e-05,4.0827217e-09,3.9209837e-05,3.6266076e-05,-2.7454913e-08,0,0,1
626112000,625960000,625960000,0,-0.0022336051,0.005622188,-0.9999817,1.0,1.0,1.0,0.00546332,-0.0034813937,-1.0788441e-05,0.00023270678,-8.8888206e-05,-2.6631744e-05,1.0000155,1.0000155,1.0,0.00047755844,0.00019391862,1.8622472e-09,4.6112964e-05,3.264112e-05,-2.7051879e-08,0,0,1
626128000,625976000,625976000,0,0.004642467,0.00049463095,-0.9999891,1.0,1.0,1.0,-0.0013904204,0.001655241,-3.3974648e-06,0.00021281016,-0.00016458961,-2.6403686e-05,1.0000156,1.0000155,1.0,3.0931817e-05,4.3836484e-05,1.8468427e-10,4.427364e-05,2.102929e-05,-2.6522441e-08,0,0,1
626136000,625984000,625984000,0,-0.0017099787,-0.005532977,-0.9999832,1.0,1.0,1.0,0.0049423254,0.007634186,-9.417534e-06,0.00028729072,-4.177424e-05,-2.6136187e-05,1.0000156,1.0000155,1.0,0.0003908192,0.00093247835,1.4190391e-09,4.9731047e-05,3.5382818e-05,-2.6127111e-08,0,0,1
626144000,625992000,625992000,0,-0.0026131205,-0.007830549,-0.9999659,1.0,1.0,1.0,0.005826596,0.01001661,-2.6583672e-05,0.00037452386,0.00011662551,-2.6143234e-05,1.0000156,1.0000155,1.0,0.00054317905,0.0016052946,1.13070655e-08,5.7501882e-05,6.0105842e-05,-2.5893724e-08,0,0,1
626152000,626000000,626000000,0,0.0010194018,-0.0010235669,-0.9999989,1.0,1.0,1.0,0.002189943,0.003218032,6.556511e-06,0.00040311314,0.00016546655,-2.5628278e-05,1.0000156,1.0000155,1.0,7.673241e-05,0.00016568911,6.8780537e-10,5.7804726e-05,6.176857e-05,-2.5475117e-08,0,0,1
626168000,626016000,626016000,0,0.004890908,0.0029765242,-0.9999836,1.0,1.0,1.0,-0.0018111106,-0.0007761298,-9.23872e-06,0.00028803118,0.00021113548,-2.5372974e-05,1.0000157,1.0000157,1.0,5.2481122e-05,9.637887e-06,1.3656631e-09,4.952492e-05,6.379167e-05,-2.4865768e-08,0,0,1
626176000,626024000,626024000,0,-0.00048374876,-0.0030328778,-0.9999953,1.0,1.0,1.0,0.0035905193,0.005205146,2.3841858e-06,0.00034003885,0.0002897813,-2.4935853e-05,1.0000157,1.0000157,1.0,0.00020626602,0.0004334899,9.094947e-11,5.1993284e-05,6.9613685e-05,-2.447275e-08,0,0,1
626184000,626032000,626032000,0,0.0028071096,-0.0029839254,-0.9999916,1.0,1.0,1.0,0.00037686713,0.005054323,-1.3113022e-06,0.00034061883,0.00036481346,-2.4563813e-05,1.0000157,1.0000157,1.0,2.2724257e-06,0.00040873248,2.7512215e-11,5.1210278e-05,7.4954136e-05,-2.4087784e-08,0,0,1
626192000,626040000,626040000,0,0.004009095,0.0010742923,-0.9999914,1.0,1.0,1.0,-0.00074809557,0.0010466914,-1.0728836e-06,0.0003234737,0.0003755517,-2.4193878e-05,1.0000157,1.0000157,1.0,8.954211e-06,1.7528731e-05,1.8417268e-11,5.0262806e-05,7.40498e-05,-2.370874e-08,0,0,1
626208000,626056000,626056000,0,0.0015610628,-0.0004435697,-0.9999987,1.0,1.0,1.0,0.0018113431,0.0025307878,6.556511e-06,0.0003455311,0.00041852286,-2.3298584e-05,1.0000159,1.0000159,1.0,5.249459e-05,0.00010247657,6.8780537e-10,4.9532555e-05,7.357737e-05,-2.2955716e-08,0,0,1
626216000,626064000,626064000,0,0.000860178,0.010155228,-0.9999481,1.0,1.0,1.0,0.00253586,-0.008154475,-4.4047832e-05,0.00038002446,0.00028351502,-2.3625344e-05,1.0000159,1.0000159,1.0,0.00010288775,0.0010639105,3.1043385e-08,5.0372793e-05,5.5664175e-05,-2.308308e-08,0,0,1
626224000,626072000,626072000,0,0.0022004086,0.011952197,-0.99992615,1.0,1.0,1.0,0.0011055546,-0.009976583,-6.645918e-05,0.00039145013,0.000121938676,-2.4299892e-05,1.0000159,1.0000159,1.0,1.9555708e-05,0.0015924899,7.066916e-08,4.9887483e-05,2.9708992e-05,-2.3832467e-08,0,0,1
626232000,626080000,626080000,0,0.0019295252,-0.0013329907,-0.9999972,1.0,1.0,1.0,0.0013502884,0.0032930416,4.4703484e-06,0.00040654995,0.0001718773,-2.3846818e-05,1.0000159,1.0000159,1.0,2.9171999e-05,0.00017350321,3.1974423e-10,4.9561255e-05,3.1973468e-05,-2.3452117e-08,0,0,1
626248000,626096000,626096000,0,-0.0022802034,-0.00095042645,-0.999997,1.0,1.0,1.0,0.0056193536,0.0030127373,4.708767e-06,0.00063798716,0.00026901602,-2.3289876e-05,1.000016,1.000016,1.0,0.0005052261,0.00014522306,3.5475978e-10,8.097601e-05,3.639123e-05,-2.278476e-08,0,0,1
626256000,626104000,626104000,0,0.003338165,0.0038668702,-0.99998695,1.0,1.0,1.0,-3.0400464e-05,-0.0018010847,-5.4836273e-06,0.00062746136,0.000236416,-2.3009463e-05,1.000016,1.000016,1.0,1.4786775e-08,5.190167e-05,4.811227e-10,7.970056e-05,3.500079e-05,-2.2433522e-08,0,0,1
626264000,626112000,626112000,0,0.0015773915,-0.0019757883,-0.9999968,1.0,1.0,1.0,0.0016905956,0.004007546,4.172325e-06,0.0006442036,0.00029580388,-2.2581404e-05,1.000016,1.000016,1.0,4.5729088e-05,0.00025696272,2.7853275e-10,7.916558e-05,3.8496255e-05,-2.2075852e-08,0,0,1
626272000,626120000,626120000,0,0.0064393617,0.0037522307,-0.9999723,1.0,1.0,1.0,-0.0030613737,-0.0017825696,-2.0086765e-05,0.00058584806,0.0002630736,-2.2542117e-05,1.000016,1.000016,1.0,0.00014994974,5.0840055e-05,6.4556502e-09,7.555746e-05,3.7089383e-05,-2.1829864e-08,0,0,1
626288000,626136000,626136000,0,0.014283831,0.008559776,-0.9998614,1.0,1.0,1.0,-0.010987289,-0.0065449616,-0.00013107061,0.00033117036,5.3176605e-05,-2.4750863e-05,1.0000161,1.0000161,1.0,0.0019314974,0.0006853734,2.748721e-07,3.8637474e-05,1.5100477e-05,-2.6220539e-08,0,0,1
626296000,626144000,626144000,0,0.0013848945,0.009431449,-0.9999546,1.0,1.0,1.0,0.0018469341,-0.0073988223,-3.8146973e-05,0.00035504065,-6.417771e-05,-2.4961826e-05,1.0000161,1.0000161,1.0,5.4577773e-05,0.0008758671,2.3283064e-08,3.8888502e-05,1.0694921e-06,-2.6174279e-08,0,0,1
626304000,626152000,626152000,0,-0.008525941,-0.005871108,-0.9999464,1.0,1.0,1.0,0.011624991,0.007837212,-4.684925e-05,0.0005325202,6.0253624e-05,-2.530651e-05,1.0000161,1.0000161,1.0,0.002162212,0.0009827344,3.5117637e-08,7.232667e-05,1.6528782e-05,-2.6315119e-08,0,0,1
626312000,626160000,626160000,0,0.0013098486,0.00067826925,-0.9999989,1.0,1.0,1.0,0.0017152093,0.0011666683,5.1259995e-06,0.0005511452,7.7677476e-05,-2.4827257e-05,1.0000161,1.0000161,1.0,4.707033e-05,2.1777487e-05,4.2041393e-10,7.192893e-05,1.6611439e-05,-2.5894087e-08,0,0,1
626328000,626176000,626176000,0,0.0039832415,-0.010428212,-0.99993765,1.0,1.0,1.0,-0.0010936526,0.012139895,-5.6684017e-05,0.0004688811,0.00030390645,-2.5139052e-05,1.0000162,1.0000162,1.0,1.9136904e-05,0.0023579947,5.1409245e-08,6.701955e-05,5.467593e-05,-2.5933769e-08,0,0,1
626336000,626184000,626184000,0,0.0032072098,-0.003529077,-0.99998856,1.0,1.0,1.0,-0.00034531835,0.0052135363,-5.90086e-06,0.00045605906,0.00038122345,-2.4836088e-05,1.0000162,1.0000162,1.0,1.9078852e-06,0.00043488832,5.5712235e-10,6.593408e-05,6.0663526e-05,-2.5534137e-08,0,0,1
626344000,626192000,626192000,0,-0.0004577039,0.0055380235,-0.99998456,1.0,1.0,1.0,0.0032699252,-0.0037177159,-9.775162e-06,0.0005003719,0.00031667322,-2.4598909e-05,1.0000162,1.0000162,1.0,0.0001710758,0.000221139,1.5288606e-09,6.7589855e-05,5.622569e-05,-2.5156101e-08,0,0,1
626352000,626200000,626200000,0,0.005336219,-0.00011151531,-0.99998575,1.0,1.0,1.0,-0.0025543815,0.0019705673,-8.6426735e-06,0.00045226555,0.0003427188,-2.434763e-05,1.0000162,1.0000162,1.0,0.000104396146,6.212916e-05,1.1951329e-09,6.488142e-05,5.631866e-05,-2.4778764e-08,0,0,1
626368000,626216000,626216000,0,0.0014539094,-0.0005417311,-0.9999988,1.0,1.0,1.0,0.0012763058,0.0022211648,3.9339066e-06,0.000420951,0.00047756935,-2.3869467e-05,1.0000163,1.0000163,1.0,2.6062877e-05,7.893588e-05,2.4760993e-10,6.182973e-05,6.842425e-05,-2.412316e-08,0,0,1
626376000,626224000,626224000,0,0.0092092445,-0.0009743617,-0.99995714,1.0,1.0,1.0,-0.006586305,0.0025255932,-3.8266182e-05,0.0003106005,0.0005098217,-2.4096187e-05,1.0000163,1.0000163,1.0,0.00069405924,0.00010205626,2.3428811e-08,4.9925962e-05,6.895389e-05,-2.4112225e-08,0,0,1
626384000,626232000,626232000,0,0.0027904452,-0.0043188487,-0.99998677,1.0,1.0,1.0,-0.00013396051,0.0059119747,-8.523464e-06,0.00030359955,0.000594895,-2.3850947e-05,1.0000163,1.0000163,1.0,2.87122e-07,0.000559214,1.1623911e-09,4.9135204e-05,7.667452e-05,-2.3750811e-08,0,0,1
626392000,626240000,626240000,0,0.0070271194,-0.0103905015,-0.9999213,1.0,1.0,1.0,-0.004291272,0.012055332,-7.343292e-05,0.00023123936,0.0007753743,-2.4631767e-05,1.0000163,1.0000163,1.0,0.00029463542,0.0023252585,8.6278305e-08,4.372149e-05,0.00011208529,-2.4735495e-08,0,0,1
626408000,626256000,626256000,0,0.00042997827,0.004158744,-0.99999124,1.0,1.0,1.0,0.0023347654,-0.002497555,-3.516674e-06,0.00019766949,0.0008006431,-2.4323033e-05,1.0000165,1.0000163,1.0,8.7216635e-05,9.980286e-05,1.9787194e-10,3.9617225e-05,0.00011515619,-2.4135476e-08,0,0,1
626416000,626264000,626264000,0,-0.002814526,0.004511386,-0.9999859,1.0,1.0,1.0,0.005575252,-0.0028392614,-8.881092e-06,0.00028235582,0.0007433218,-2.4079853e-05,1.0000151,1.0000151,1.0,0.0004973275,0.00012898054,1.2619807e-09,4.6825262e-05,0.000111311514,-2.3775263e-08,0,0,1
626424000,626272000,626272000,0,0.0026383868,0.009964182,-0.9999469,1.0,1.0,1.0,0.00016642804,-0.00824045,-4.774332e-05,0.0002805302,0.00060184504,-2.4452505e-05,1.0000151,1.0000151,1.0,4.43166e-07,0.0010864639,3.6470794e-08,4.6094836e-05,9.244891e-05,-2.3975192e-08,0,0,1
626432000,626280000,626280000,0,0.010680883,0.0086101405,-0.9999059,1.0,1.0,1.0,-0.0077737067,-0.0068950024,-8.839369e-05,0.00015369181,0.00048378445,-2.5459452e-05,1.0000151,1.0000153,1.0,0.00096687366,0.0007606454,1.250151e-07,3.0142577e-05,7.901435e-05,-2.5566372e-08,0,0,1
626448000,626296000,626296000,0,-0.0020760421,0.010250679,-0.9999453,1.0,1.0,1.0,0.005035538,-0.00880167,-4.9352646e-05,0.0002729324,0.00024344651,-2.575337e-05,1.0000154,1.0000153,1.0,0.0004057001,0.0012394914,3.897094e-08,3.7656166e-05,4.9282335e-05,-2.5481846e-08,0,0,1
626456000,626304000,626304000,0,-0.00024471164,0.02035253,-0.9997928,1.0,1.0,1.0,0.003193758,-0.018911129,-0.00020182133,0.00031892967,-5.820034e-05,-2.8526094e-05,1.0000154,1.0000153,1.0,0.00016319893,0.005722006,6.5170957e-07,3.9633218e-05,-4.1604097e-05,-3.53437e-08,0,0,1
626464000,626312000,626312000,0,-0.0024839628,0.0024949282,-0.9999939,1.0,1.0,1.0,0.0054728263,-0.0010796571,-5.9604645e-07,0.00040009338,-7.4286276e-05,-2.8086251e-05,1.0000154,1.0000153,1.0,0.00047922187,1.8650268e-05,5.684342e-12,4.6555873e-05,-4.124262e-05,-3.4787195e-08,0,0,1
626472000,626320000,626320000,0,0.0047232187,0.009500761,-0.99994373,1.0,1.0,1.0,-0.0017510212,-0.008157371,-5.1021576e-05,0.00036621757,-0.00020157895,-2.8447437e-05,1.0000154,1.0000154,1.0,4.9056453e-05,0.0010646667,4.165122e-08,4.505017e-05,-5.7359535e-05,-3.489529e-08,0,0,1
626488000,626336000,626336000,0,-0.0021057886,0.006985338,-0.99997336,1.0,1.0,1.0,0.0052228644,-0.005708876,-2.104044e-05,0.0005410938,-0.00040670164,-2.856336e-05,1.0000155,1.0000154,1.0,0.00043644625,0.0005214522,7.0832016e-09,6.1695355e-05,-7.902173e-05,-3.4384666e-08,0,0,1
626496000,626344000,626344000,0,0.007819341,-0.00047849945,-0.99996936,1.0,1.0,1.0,-0.004765721,0.0017542468,-2.515316e-05,0.00045752194,-0.00037267097,-2.8509656e-05,1.0000155,1.0000154,1.0,0.00036338792,4.923735e-05,1.0122903e-08,5.5001132e-05,-7.70019e-05,-3.400259e-08,0,0,1
626504000,626352000,626352000,0,0.001107698,0.0024944865,-0.9999963,1.0,1.0,1.0,0.0019719386,-0.0012173026,1.9073486e-06,0.000481371,-0.00038597226,-2.8030649e-05,1.0000155,1.0000154,1.0,6.22157e-05,2.3708848e-05,5.820766e-11,5.5114746e-05,-7.616264e-05,-3.34662e-08,0,0,1
626512000,626360000,626360000,0,0.011275348,0.0047494187,-0.9999251,1.0,1.0,1.0,-0.00817072,-0.0034218875,-6.920099e-05,0.00034511762,-0.00043378194,-2.8679e-05,1.0000155,1.0000154,1.0,0.0010681541,0.00018734614,7.662044e-08,3.7425474e-05,-7.7913566e-05,-3.4145796e-08,0,0,1
626528000,626376000,626376000,0,-0.007352751,-0.0002766083,-0.9999729,1.0,1.0,1.0,0.01030685,0.0014454911,-2.2113323e-05,0.0005089574,-0.00056596263,-2.9225868e-05,1.0000156,1.0000155,1.0,0.001699672,3.3430595e-05,7.823985e-09,6.3178944e-05,-0.00010425979,-3.4439246e-08,0,0,1
626536000,626384000,626384000,0,0.012659604,0.0037786763,-0.99991274,1.0,1.0,1.0,-0.009768945,-0.0025754012,-8.237362e-05,0.0003471007,-0.00059760734,-3.006284e-05,1.0000156,1.0000155,1.0,0.0015268928,0.00010612142,1.0856661e-07,3.8138445e-05,-0.0001042891,-3.5606607e-08,0,0,1
626544000,626392000,626392000,0,0.0019951751,0.0039652013,-0.9999901,1.0,1.0,1.0,0.00081480155,-0.0025875235,-5.00679e-06,0.00035446606,-0.0006289446,-2.9668256e-05,1.0000156,1.0000155,1.0,1.062226e-05,0.00010712279,4.0108716e-10,3.770512e-05,-0.000104333725,-3.505219e-08,0,0,1
626552000,626400000,626400000,0,0.0009839869,0.004396758,-0.9999898,1.0,1.0,1.0,0.0018493665,-0.0029654708,-5.185604e-06,0.0003780078,-0.0006657403,-2.9282703e-05,1.0000156,1.0000156,1.0,5.4721648e-05,0.00014070208,4.3024784e-10,3.7973095e-05,-0.00010490645,-3.450696e-08,0,0,1
626568000,626416000,626416000,0,0.013908089,-0.0064809634,-0.9998823,1.0,1.0,1.0,-0.010861089,0.007845497,-0.00011211634,7.264508e-05,-0.00050024816,-3.0964773e-05,1.0000157,1.0000157,1.0,0.0018873826,0.0009848137,2.0112117e-07,-8.428611e-06,-8.5658234e-05,-3.730962e-08,0,0,1
626576000,626424000,626424000,0,0.069312565,-0.010154831,-0.9975433,1.0,1.0,1.0,-0.06660187,0.011493417,-0.002452135,-0.0009773474,-0.00031137155,-6.909344e-05,1.0000157,1.0000157,1.0,0.07097183,0.002113545,9.620746e-05,-0.0011259625,-5.1025112e-05,-1.5518002e-06,0,0,1
626584000,626432000,626432000,0,-0.041945472,0.001669753,-0.99911857,1.0,1.0,1.0,0.04449769,-0.00040493743,-0.0008773804,-0.00026120502,-0.00031284502,-8.182237e-05,1.0000157,1.0000157,1.0,0.03168021,2.6235477e-06,1.2316741e-05,-0.00060932984,-5.0262883e-05,-1.7213268e-06,0,0,1
626592000,626440000,626440000,0,-0.0035596667,0.0015101647,-0.99999255,1.0,1.0,1.0,0.006113271,-0.00028409646,-3.3974648e-06,-0.00016081956,-0.00031239228,-8.0587335e-05,1.0000157,1.0000157,1.0,0.00059794396,1.2913524e-06,1.8468427e-10,-0.00059031765,-4.949168e-05,-1.6942222e-06,0,0,1
626608000,626456000,626456000,0,0.0038829246,0.0071872063,-0.99996656,1.0,1.0,1.0,-0.0012326674,-0.006091121,-2.938509e-05,-0.00020799637,-0.00049540075,-7.906497e-05,1.0000159,1.0000159,1.0,2.4311115e-05,0.00059361866,1.3815736e-08,-0.000573364,-6.69752e-05,-1.641792e-06,0,0,1
626616000,626464000,626464000,0,0.0035600755,0.003942537,-0.99998593,1.0,1.0,1.0,-0.0010606309,-0.0027555395,-1.0251999e-05,-0.00022142369,-0.0005309935,-7.7981305e-05,1.0000159,1.0000159,1.0,1.799872e-05,0.00012148604,1.6816557e-09,-0.0005646181,-6.783364e-05,-1.6159635e-06,0,0,1
626624000,626472000,626472000,0,0.0043203942,0.0073525975,-0.99996364,1.0,1.0,1.0,-0.0018607466,-0.0061027184,-3.248453e-05,-0.0002472398,-0.0006187372,-7.726482e-05,1.0000159,1.0000159,1.0,5.5397173e-05,0.0005958813,1.6883916e-08,-0.0005565989,-7.614935e-05,-1.5907812e-06,0,0,1
626632000,626480000,626480000,0,0.0029052382,-0.0045787445,-0.99998534,1.0,1.0,1.0,-0.00038133864,0.005816473,-1.0728836e-05,-0.0002493516,-0.0005173953,-7.621701e-05,1.0000159,1.0000159,1.0,2.3266698e-06,0.0005412932,1.8417268e-09,-0.0005478702,-6.642585e-05,-1.5657585e-06,0,0,1
626648000,626496000,626496000,0,-0.0063016815,0.010252689,-0.99992764,1.0,1.0,1.0,0.00869247,-0.009056919,-6.878376e-05,-0.00010154139,-0.00062308944,-7.4900105e-05,1.000016,1.000016,1.0,0.0012089254,0.0013124236,7.569929e-08,-0.00051170203,-8.457309e-05,-1.5180233e-06,0,0,1
626656000,626504000,626504000,0,-0.00045162108,0.007983139,-0.99996805,1.0,1.0,1.0,0.0027798968,-0.006769661,-2.8550625e-05,-5.616441e-05,-0.0007198858,-7.4170195e-05,1.000016,1.000016,1.0,0.00012364324,0.0007332412,1.3042211e-08,-0.0005016966,-9.478834e-05,-1.4943228e-06,0,0,1
626664000,626512000,626512000,0,0.009260967,0.0030787,-0.9999524,1.0,1.0,1.0,-0.007003745,-0.0018251176,-4.4226646e-05,-0.00016557513,-0.00073729106,-7.369864e-05,1.000016,1.000016,1.0,0.0007848266,5.329602e-05,3.129594e-08,-0.00050615537,-9.413491e-05,-1.471283e-06,0,0,1
626672000,626520000,626520000,0,0.004863296,0.00727795,-0.9999617,1.0,1.0,1.0,-0.0025875596,-0.006034486,-3.4928322e-05,-0.00020371661,-0.0008207115,-7.3088086e-05,1.000016,1.000016,1.0,0.00010712573,0.00058263104,1.9519803e-08,-0.00049987144,-0.00010182777,-1.4484206e-06,0,0,1
626688000,626536000,626536000,0,0.0012539979,-0.00023190463,-0.99999917,1.0,1.0,1.0,0.0010983045,0.0014559531,2.7418137e-06,-1.5796611e-05,-0.00071351515,-7.1284885e-05,1.0000161,1.0000161,1.0,1.9300054e-05,3.3916247e-05,1.2028067e-10,-0.00045609692,-9.456436e-05,-1.4034416e-06,0,0,1
626696000,626544000,626544000,0,0.003654119,0.0116103105,-0.9999259,1.0,1.0,1.0,-0.0013177372,-0.01039434,-7.0631504e-05,-3.6299614e-05,-0.0008659691,-7.12746e-05,1.0000161,1.0000161,1.0,2.7782453e-05,0.0017286491,7.982095e-08,-0.00044935182,-0.00012029798,-1.3825972e-06,0,0,1
626704000,626552000,626552000,0,0.00058934087,0.00275626,-0.99999607,1.0,1.0,1.0,0.0015909597,-0.001609203,-9.536743e-07,-1.0673484e-05,-0.00087767356,-7.016718e-05,1.0000161,1.0000161,1.0,4.0497795e-05,4.1431886e-05,1.4551915e-11,-0.00044163765,-0.00011905599,-1.3608243e-06,0,0,1
626712000,626560000,626560000,0,-0.0035720486,0.0050946972,-0.9999807,1.0,1.0,1.0,0.005676152,-0.003903611,-1.6391277e-05,7.888282e-05,-0.00092532614,-6.932032e-05,1.0000161,1.0000161,1.0,0.00051549094,0.00024380695,4.2987836e-09,-0.00042656474,-0.000121020574,-1.3394617e-06,0,0,1
626728000,626576000,626576000,0,0.002902575,0.0074641965,-0.99996793,1.0,1.0,1.0,-0.00089132064,-0.0062583433,-2.9325485e-05,9.093446e-05,-0.0009992681,-6.759014e-05,1.0000162,1.0000162,1.0,1.2711033e-05,0.0006266596,1.3759745e-08,-0.00041259403,-0.00012712665,-1.2978221e-06,0,0,1
626736000,626584000,626584000,0,0.0062307674,0.0030624429,-0.9999759,1.0,1.0,1.0,-0.004210663,-0.0018782959,-2.1338463e-05,2.319277e-05,-0.0010131111,-6.6861765e-05,1.0000162,1.0000162,1.0,0.00028367032,5.644701e-05,7.28528e-09,-0.00041056375,-0.00012601359,-1.2774987e-06,0,0,1
626744000,626592000,626592000,0,0.0020681443,0.008217594,-0.9999641,1.0,1.0,1.0,-5.1962677e-05,-0.0070732753,-3.3199787e-05,2.2009219e-05,-0.0011085467,-6.633165e-05,1.0000162,1.0000162,1.0,4.320122e-08,0.0008004866,1.7635614e-08,-0.00040409886,-0.00013663521,-1.2576583e-06,0,0,1
626752000,626600000,626600000,0,-0.005434622,0.0017213381,-0.9999837,1.0,1.0,1.0,0.007420364,-0.0004679067,-1.3530254e-05,0.00013851875,-0.001098458,-6.5500135e-05,1.0000162,1.0000162,1.0,0.0008809745,3.5029302e-06,2.9290845e-09,-0.00038386148,-0.00013453864,-1.2378987e-06,0,0,1
626768000,626616000,626616000,0,0.007883964,-0.0061259945,-0.99995023,1.0,1.0,1.0,-0.0059328247,0.00718057,-4.7385693e-05,-2.974605e-05,-0.00096619606,-6.4521126e-05,1.0000163,1.0000163,1.0,0.00056316535,0.00082495593,3.5926462e-08,-0.00038586668,-0.000117579824,-1.1998892e-06,0,0,1
626776000,626624000,626624000,0,0.012951267,-0.011175719,-0.9998537,1.0,1.0,1.0,-0.011017944,0.012215052,-0.00014388561,-0.00020278852,-0.00075861736,-6.577096e-05,1.0000163,1.0000163,1.0,0.0019422896,0.002387281,3.312491e-07,-0.00041037728,-7.813319e-05,-1.1862098e-06,0,0,1
626784000,626632000,626632000,0,0.005656787,-0.00019416258,-0.99998397,1.0,1.0,1.0,-0.0037252237,0.0013171769,-1.3530254e-05,-0.00025825994,-0.0007259277,-6.4948275e-05,1.0000163,1.0000163,1.0,0.00022203305,2.7758824e-05,2.9290845e-09,-0.00040741122,-7.64656e-05,-1.1675755e-06,0,0,1
626792000,626640000,626640000,0,0.005415899,0.005671454,-0.9999692,1.0,1.0,1.0,-0.0034851031,-0.0045328094,-2.8312206e-05,-0.00030907636,-0.00078587857,-6.437133e-05,1.0000163,1.0000163,1.0,0.00019433194,0.0003287364,1.2825296e-08,-0.00040405564,-8.043837e-05,-1.1493905e-06,0,0,1
626808000,626656000,626656000,0,0.006990341,0.0074495184,-0.99994785,1.0,1.0,1.0,-0.005061988,-0.006337411,-4.965067e-05,-0.00023556744,-0.0009462101,-6.38402e-05,1.0000165,1.0000165,1.0,0.00040997277,0.00064259383,3.9443023e-08,-0.00037660988,-9.551761e-05,-1.114599e-06,0,0,1
626816000,626664000,626664000,0,0.007207086,0.000492764,-0.9999739,1.0,1.0,1.0,-0.005398318,0.00055459124,-2.3841858e-05,-0.0003168706,-0.0009225755,-6.3210304e-05,1.0000151,1.0000151,1.0,0.00046626234,4.9210685e-06,9.094947e-09,-0.00037802174,-9.3935894e-05,-1.0971894e-06,0,0,1
626824000,626672000,626672000,0,0.0022629711,-0.004105952,-0.99998903,1.0,1.0,1.0,-0.00045292475,0.0051935427,-8.702278e-06,-0.0003190132,-0.0008262587,-6.235191e-05,1.0000151,1.0000151,1.0,3.2822036e-06,0.00043155966,1.2116743e-09,-0.00037212032,-8.566037e-05,-1.0799299e-06,0,0,1
626832000,626680000,626680000,0,0.0071803792,-0.0002822306,-0.9999742,1.0,1.0,1.0,-0.0053796615,0.0014294791,-2.3543835e-05,-0.00039870845,-0.00079073524,-6.174076e-05,1.0000151,1.0000153,1.0,0.00046304511,3.2694068e-05,8.868994e-09,-0.0003735522,-8.379652e-05,-1.0630628e-06,0,0,1
626848000,626696000,626696000,0,0.0014604793,0.0006861142,-0.9999986,1.0,1.0,1.0,0.00046262552,0.0003527979,9.536743e-07,-0.00047215994,-0.00075426605,-6.0245464e-05,1.0000153,1.0000153,1.0,3.4243058e-06,1.9914314e-06,1.4551915e-11,-0.00037079098,-8.110695e-05,-1.030052e-06,0,0,1
626856000,626704000,626704000,0,-0.00037206564,0.0010758891,-0.99999946,1.0,1.0,1.0,0.0022848723,1.3716635e-05,1.9073486e-06,-0.00042874212,-0.00074217183,-5.926668e-05,1.0000153,1.0000153,1.0,8.352899e-05,3.0102913e-09,5.820766e-11,-0.00036363633,-7.9829624e-05,-1.0138298e-06,0,0,1
626864000,626712000,626712000,0,-0.0030907358,0.0013263095,-0.99999434,1.0,1.0,1.0,0.0049721114,-0.00017244963,-3.2186508e-06,-0.0003436893,-0.0007331998,-5.8384034e-05,1.0000154,1.0000153,1.0,0.0003955442,4.7581472e-07,1.6575541e-10,-0.00035168073,-7.857996e-05,-9.978666e-07,0,0,1
626872000,626720000,626720000,0,-0.0021385716,-0.0074031395,-0.9999703,1.0,1.0,1.0,0.0041067083,0.008642643,-2.69413e-05,-0.0002736043,-0.00058554875,-5.7888872e-05,1.0000154,1.0000154,1.0,0.0002698367,0.001195106,1.1613338e-08,-0.00034189306,-5.852191e-05,-9.82335e-07,0,0,1
626888000,626736000,626736000,0,0.011697191,0.009081032,-0.9998904,1.0,1.0,1.0,-0.009577006,-0.0077999337,-0.000106453896,-0.0004931374,-0.00074877567,-5.8295016e-05,1.0000155,1.0000154,1.0,0.0014674821,0.00097340846,1.8131891e-07,-0.00036048167,-7.5578115e-05,-9.547938e-07,0,0,1
626896000,626744000,626744000,0,-0.0017644953,0.00052452285,-0.9999982,1.0,1.0,1.0,0.003910545,0.00082439266,1.3709068e-06,-0.00042378806,-0.0007240014,-5.7355395e-05,1.0000155,1.0000154,1.0,0.00024467398,1.0873805e-05,3.007017e-11,-0.00035095165,-7.421667e-05,-9.397572e-07,0,0,1
626904000,626752000,626752000,0,0.004948325,-0.0024036632,-0.99998486,1.0,1.0,1.0,-0.0027508019,0.003667971,-1.1920929e-05,-0.00046043395,-0.0006548365,-5.6639892e-05,1.0000155,1.0000154,1.0,0.0001210687,0.00021526086,2.2737368e-09,-0.00034733146,-6.965797e-05,-9.249936e-07,0,0,1
626912000,626760000,626760000,0,0.006807214,0.0025832364,-0.9999735,1.0,1.0,1.0,-0.004601941,-0.0014279203,-2.3424625e-05,-0.0005256545,-0.000667011,-5.6116816e-05,1.0000155,1.0000154,1.0,0.00033884053,3.26228e-05,8.779409e-09,-0.00034719775,-6.907473e-05,-9.1056506e-07,0,0,1
626928000,626776000,626776000,0,0.00010839761,-0.00069540285,-0.99999976,1.0,1.0,1.0,0.001957024,0.001898724,2.6226044e-06,-0.0003224371,-0.0005334196,-5.4908633e-05,1.0000156,1.0000155,1.0,6.127812e-05,5.768155e-05,1.1004886e-10,-0.00031027175,-5.892293e-05,-8.824652e-07,0,0,1
626936000,626784000,626784000,0,0.00337869,-0.0075335978,-0.9999659,1.0,1.0,1.0,-0.001301216,0.00863424,-3.1232834e-05,-0.00033785094,-0.00038904703,-5.4535787e-05,1.0000156,1.0000155,1.0,2.7090184e-05,0.0011927832,1.5607839e-08,-0.0003058122,-3.9211023e-05,-8.688139e-07,0,0,1
626944000,626792000,626792000,0,0.000149338,-0.0021366896,-0.9999977,1.0,1.0,1.0,0.0018902416,0.0031781066,2.9802322e-07,-0.00030276287,-0.0003328714,-5.3672262e-05,1.0000156,1.0000155,1.0,5.7167323e-05,0.00016160328,1.4210855e-12,-0.00030009597,-3.6048594e-05,-8.5513176e-07,0,0,1
626952000,626800000,626800000,0,-0.004276908,-0.008332072,-0.99995613,1.0,1.0,1.0,0.006263731,0.00938554,-4.130602e-05,-0.00019935353,-0.00017982554,-5.3477517e-05,1.0000156,1.0000155,1.0,0.0006277395,0.001409392,2.7298995e-08,-0.0002854844,-1.3285749e-05,-8.42095e-07,0,0,1
626968000,626816000,626816000,0,0.0044211503,0.0043734894,-0.9999806,1.0,1.0,1.0,-0.0025241333,-0.003418974,-1.7106533e-05,-0.00022522522,-0.00024114964,-5.2083233e-05,1.0000157,1.0000156,1.0,0.000101938385,0.00018702722,4.6821356e-09,-0.0002781085,-1.599308e-05,-8.1585495e-07,0,0,1
626976000,626824000,626824000,0,0.0046644704,0.002912081,-0.99998486,1.0,1.0,1.0,-0.0026706436,-0.0019795792,-1.2755394e-05,-0.00026373574,-0.0002685265,-5.1463896e-05,1.0000157,1.0000156,1.0,0.0001141156,6.269876e-05,2.6032012e-09,-0.00027552593,-1.6728603e-05,-8.0304784e-07,0,0,1
626984000,626832000,626832000,0,0.0002366341,-0.0056143575,-0.99998426,1.0,1.0,1.0,0.0017555202,0.00652597,-1.335144e-05,-0.00023193643,-0.00016152655,-5.08637e-05,1.0000157,1.0000157,1.0,4.9308845e-05,0.00068140187,2.8521754e-09,-0.0002704104,-5.734423e-06,-7.9044634e-07,0,0,1
626992000,626840000,626840000,0,0.0031529062,0.0043525784,-0.9999856,1.0,1.0,1.0,-0.0012231441,-0.0033180395,-1.2040138e-05,-0.000247546,-0.00021123541,-5.0252303e-05,1.0000157,1.0000157,1.0,2.3936927e-05,0.00017614741,2.3194389e-09,-0.00026652895,-8.418092e-06,-7.780349e-07,0,0,1
627008000,626856000,626856000,0,-0.0029207377,0.0004610555,-0.9999956,1.0,1.0,1.0,0.0050290637,0.0005524655,-1.66893e-06,-0.00012591228,-0.00011973841,-4.8780363e-05,1.0000159,1.0000159,1.0,0.0004046573,4.8834127e-06,4.456524e-11,-0.00025058494,-2.0851223e-06,-7.537289e-07,0,0,1
627016000,626864000,626864000,0,-0.010608361,0.011492586,-0.9998777,1.0,1.0,1.0,0.012650881,-0.0105357105,-0.000119805336,7.529705e-05,-0.00028376945,-4.9898867e-05,1.0000159,1.0000159,1.0,0.002560676,0.0017759909,2.296531e-07,-0.00020631311,-3.0020647e-05,-7.4547575e-07,0,0,1
627024000,626872000,626872000,0,-0.007389331,-0.0026418837,-0.99996924,1.0,1.0,1.0,0.009491852,0.0035823735,-2.8133392e-05,0.00022358925,-0.00022288531,-4.9556103e-05,1.0000159,1.0000159,1.0,0.0014415011,0.00020533113,1.2663804e-08,-0.00018036328,-2.631432e-05,-7.339354e-07,0,0,1
627032000,626880000,626880000,0,0.0057441066,0.0058412896,-0.99996644,1.0,1.0,1.0,-0.0036210069,-0.0049512438,-3.0875206e-05,0.00016304443,-0.00029734764,-4.9261915e-05,1.0000159,1.0000159,1.0,0.00020978371,0.0003922308,1.5252454e-08,-0.0001808266,-3.2076783e-05,-7.2261753e-07,0,0,1
627048000,626896000,626896000,0,-0.004825413,0.009348701,-0.9999446,1.0,1.0,1.0,0.00708134,-0.0084948735,-5.2392483e-05,0.00025828427,-0.00046489306,-4.8672377e-05,1.000016,1.000016,1.0,0.0008023132,0.0011545876,4.3919556e-08,-0.00016267033,-5.1170813e-05,-7.007448e-07,0,0,1
627056000,626904000,626904000,0,-0.0006417951,0.0006384635,-0.99999964,1.0,1.0,1.0,0.002849184,0.00026472093,2.4437904e-06,0.00029908583,-0.00045340307,-4.7867397e-05,1.000016,1.000016,1.0,0.00012988351,1.1212168e-06,9.555379e-11,-0.00015806318,-5.0347317e-05,-6.89708e-07,0,0,1
627064000,626912000,626912000,0,0.0044228947,-0.0008843701,-0.99998987,1.0,1.0,1.0,-0.0022172923,0.0018361416,-7.2717667e-06,0.00025945783,-0.00041734724,-4.7228095e-05,1.000016,1.000016,1.0,7.86609e-05,5.3941792e-05,8.4605745e-10,-0.00015681275,-4.870497e-05,-6.7885975e-07,0,0,1
627072000,626920000,626920000,0,0.0056421007,0.008029004,-0.9999518,1.0,1.0,1.0,-0.0033243857,-0.006968801,-4.5001507e-05,0.00020301934,-0.00052051974,-4.7193033e-05,1.000016,1.000016,1.0,0.00017682182,0.0007770146,3.240217e-08,-0.00015712786,-6.017441e-05,-6.686793e-07,0,0,1
627088000,626936000,626936000,0,0.0030465417,0.0053030937,-0.9999813,1.0,1.0,1.0,-0.00068887905,-0.004067692,-1.5199184e-05,0.00018124172,-0.0007559193,-4.7330577e-05,1.0000161,1.0000161,1.0,7.5927474e-06,0.00026473365,3.6962433e-09,-0.0001523592,-9.879407e-05,-6.4978815e-07,0,0,1
627096000,626944000,626944000,0,0.010591405,-0.0047121583,-0.9999328,1.0,1.0,1.0,-0.008149198,0.0060237376,-6.335974e-05,5.0053684e-05,-0.0006491531,-4.7583006e-05,1.0000161,1.0000161,1.0,0.0010625338,0.0005805573,6.42313e-08,-0.00016669265,-8.809563e-05,-6.405668e-07,0,0,1
627104000,626952000,626952000,0,0.0005479737,-0.0012770139,-0.999999,1.0,1.0,1.0,0.0018882661,0.0026114406,2.9206276e-06,7.900191e-05,-0.00059780513,-4.6787674e-05,1.0000161,1.0000161,1.0,5.7047862e-05,0.000109112196,1.3648105e-10,-0.00016316918,-8.4989995e-05,-6.3047696e-07,0,0,1
627112000,626960000,626960000,0,0.004506013,-0.0071171424,-0.99996454,1.0,1.0,1.0,-0.0021279491,0.008443545,-3.170967e-05,4.4246775e-05,-0.0004554217,-4.6550227e-05,1.0000161,1.0000161,1.0,7.244952e-05,0.0011406768,1.6088052e-08,-0.00016174052,-6.568815e-05,-6.2080153e-07,0,0,1
627128000,626976000,626976000,0,0.009354507,0.004872082,-0.9999444,1.0,1.0,1.0,-0.007142584,-0.0034861546,-5.2273273e-05,-0.00024647024,-0.0005250944,-4.7407182e-05,1.0000162,1.0000162,1.0,0.00081625086,0.00019444923,4.3719922e-08,-0.00020182603,-6.756605e-05,-6.043779e-07,0,0,1
627136000,626984000,626984000,0,-0.0057519823,0.006874743,-0.9999598,1.0,1.0,1.0,0.007916265,-0.00550624,-3.6895275e-05,-0.000117923235,-0.00060353766,-4.724164e-05,1.0000162,1.0000162,1.0,0.0010026598,0.00048509098,2.1780181e-08,-0.00018285775,-7.4141244e-05,-5.952031e-07,0,0,1
627144000,626992000,626992000,0,-0.012912646,0.009348873,-0.999873,1.0,1.0,1.0,0.015122969,-0.008012604,-0.00012367964,0.0001220908,-0.00072021584,-4.844539e-05,1.0000162,1.0000162,1.0,0.0036592076,0.0010272125,2.4474645e-07,-0.0001223528,-8.915024e-05,-5.8968413e-07,0,0,1
627152000,627000000,627000000,0,0.00010997386,0.011621138,-0.99993247,1.0,1.0,1.0,0.002198748,-0.010346125,-6.401539e-05,0.00015479406,-0.00087180495,-4.8690585e-05,1.0000162,1.0000162,1.0,7.735064e-05,0.001712649,6.556752e-08,-0.000119207856,-0.00011471715,-5.8143036e-07,0,0,1
627168000,627016000,627016000,0,0.0006281366,-0.0013675244,-0.9999988,1.0,1.0,1.0,0.0018261678,0.0025915573,2.6226044e-06,8.194879e-05,-0.0008118005,-4.7672882e-05,1.0000163,1.0000163,1.0,5.3357347e-05,0.00010745696,1.1004886e-10,-0.00012430827,-0.00010950711,-5.6356674e-07,0,0,1
627176000,627024000,627024000,0,-0.0008255348,-0.0009917745,-0.9999991,1.0,1.0,1.0,0.0032165125,0.0021754676,2.682209e-06,0.000131312,-0.0007647569,-4.687989e-05,1.0000163,1.0000163,1.0,0.00016553253,7.5721306e-05,1.1510792e-10,-0.00011974385,-0.00010659013,-5.5468985e-07,0,0,1
627184000,627032000,627032000,0,0.0007218092,0.001347959,-0.9999988,1.0,1.0,1.0,0.0016545819,-0.00013483944,2.3245811e-06,0.0001553005,-0.0007548369,-4.6105015e-05,1.0000163,1.0000163,1.0,4.380154e-05,2.9090205e-07,8.645884e-11,-0.000117168325,-0.00010491613,-5.459532e-07,0,0,1
627192000,627040000,627040000,0,-0.007940936,0.0017549279,-0.9999669,1.0,1.0,1.0,0.010317385,-0.00058912486,-2.95043e-05,0.0003153333,-0.00075222726,-4.5843586e-05,1.0000163,1.0000163,1.0,0.0017031472,5.552999e-06,1.3928059e-08,-8.850194e-05,-0.000103351354,-5.3757486e-07,0,0,1
627208000,627056000,627056000,0,-0.006320774,-0.0019109976,-0.9999782,1.0,1.0,1.0,0.008741606,0.0029225384,-1.847744e-05,0.000486102,-0.0006616194,-4.465308e-05,1.0000165,1.0000165,1.0,0.0012226307,0.00013665746,5.4626526e-09,-6.457741e-05,-9.751114e-05,-5.208602e-07,0,0,1
627216000,627064000,627064000,0,-0.004176892,0.006499701,-0.9999702,1.0,1.0,1.0,0.006655136,-0.00565878,-2.6285648e-05,0.0005832522,-0.00074031483,-4.4363827e-05,1.0000151,1.0000151,1.0,0.0007086427,0.000512341,1.1054965e-08,-5.240072e-05,-0.000104043895,-5.128318e-07,0,0,1
627224000,627072000,627072000,0,0.00366761,0.006397228,-0.9999729,1.0,1.0,1.0,-0.0010856818,-0.005530134,-2.3424625e-05,0.0005569697,-0.00081574504,-4.4034077e-05,1.0000151,1.0000151,1.0,1.8858995e-05,0.0004893107,8.779409e-09,-5.1872503e-05,-0.00011011109,-5.0489393e-07,0,0,1
627232000,627080000,627080000,0,0.00040108024,0.0016258939,-0.9999986,1.0,1.0,1.0,0.0021598358,-0.0007026266,2.3245811e-06,0.0005822117,-0.00081396365,-4.330402e-05,1.0000151,1.0000153,1.0,7.463712e-05,7.898825e-06,8.645884e-11,-4.9880226e-05,-0.000108501445,-4.969415e-07,0,0,1
627248000,627096000,627096000,0,0.00022024637,0.002359861,-0.9999972,1.0,1.0,1.0,0.0023488111,-0.0013778906,1.013279e-06,0.0007240227,-0.0009314879,-4.2705404e-05,1.0000153,1.0000153,1.0,8.826928e-05,3.0376856e-05,1.6427748e-11,-3.1310967e-05,-0.0001207674,-4.820256e-07,0,0,1
627256000,627104000,627104000,0,0.012363283,-0.0046960707,-0.9999125,1.0,1.0,1.0,-0.009851386,0.005747813,-8.380413e-05,0.00055748085,-0.00082630204,-4.335263e-05,1.0000153,1.0000153,1.0,0.001552773,0.00052858953,1.1237012e-07,-5.5271e-05,-0.00011054131,-4.7620426e-07,0,0,1
627264000,627112000,627112000,0,0.0035858098,0.008431572,-0.9999581,1.0,1.0,1.0,-0.0011073845,-0.007497573,-3.838539e-05,0.0005312625,-0.00093136146,-4.3274405e-05,1.0000153,1.0000153,1.0,1.9620506e-05,0.0008994038,2.3575012e-08,-5.4709577e-05,-0.00012296434,-4.6907624e-07,0,0,1
627272000,627120000,627120000,0,0.0011312141,-0.0022091586,-0.99999684,1.0,1.0,1.0,0.0013956107,0.0031125378,4.172325e-07,0.0005448743,-0.00086767797,-4.2586347e-05,1.0000153,1.0000154,1.0,3.1163192e-05,0.00015500387,2.7853275e-12,-5.335725e-05,-0.00011858689,-4.6168918e-07,0,0,1
627288000,627136000,627136000,0,0.009152687,-0.006792865,-0.99993503,1.0,1.0,1.0,-0.0065750997,0.007849736,-6.109476e-05,0.0004922326,-0.0005705784,-4.2746185e-05,1.0000154,1.0000154,1.0,0.0006917003,0.0009858786,5.972112e-08,-5.7819678e-05,-7.7241195e-05,-4.4849105e-07,0,0,1
627296000,627144000,627144000,0,0.012468113,0.00020588233,-0.9999222,1.0,1.0,1.0,-0.009911466,0.0008951955,-7.3850155e-05,0.00032839482,-0.0005474953,-4.323601e-05,1.0000154,1.0000154,1.0,0.0015717704,1.28218035e-05,8.7261526e-08,-8.166142e-05,-7.582288e-05,-4.428024e-07,0,0,1
627304000,627152000,627152000,0,-0.00016920935,0.0065038316,-0.99997884,1.0,1.0,1.0,0.0027240983,-0.005399049,-1.7225742e-05,0.00036612243,-0.00062389777,-4.28264e-05,1.0000154,1.0000154,1.0,0.00011872956,0.00046638848,4.747619e-09,-7.8505655e-05,-8.1973514e-05,-4.359039e-07,0,0,1
627312000,627160000,627160000,0,-0.004252929,0.005132377,-0.9999778,1.0,1.0,1.0,0.0068732216,-0.004024006,-1.8179417e-05,0.00046859644,-0.00067744276,-4.2438256e-05,1.0000155,1.0000155,1.0,0.0007558471,0.00025907796,5.287859e-09,-6.536624e-05,-8.476256e-05,-4.2912254e-07,0,0,1
627328000,627176000,627176000,0,0.013766146,-0.008176833,-0.9998718,1.0,1.0,1.0,-0.011169598,0.00935756,-0.00012415648,0.00033560005,-0.0004429769,-4.309323e-05,1.0000156,1.0000155,1.0,0.0019961277,0.0014010012,2.4663728e-07,-9.13405e-05,-5.556345e-05,-4.1959805e-07,0,0,1
627336000,627184000,627184000,0,0.00552139,-0.005838499,-0.9999677,1.0,1.0,1.0,-0.0029543717,0.007011379,-2.8252602e-05,0.00028378947,-0.00032558545,-4.285952e-05,1.0000156,1.0000155,1.0,0.00013965082,0.0007865388,1.2771352e-08,-9.21013e-05,-4.2301996e-05,-4.1319134e-07,0,0,1
627344000,627192000,627192000,0,0.0026586603,0.009285027,-0.9999533,1.0,1.0,1.0,-5.176873e-05,-0.008099042,-4.261732e-05,0.0002785051,-0.00044800207,-4.2855707e-05,1.0000156,1.0000155,1.0,4.2879353e-08,0.0010494954,2.9059777e-08,-9.0651556e-05,-5.816331e-05,-4.0714204e-07,0,0,1
627352000,627200000,627200000,0,-0.004598525,0.006063539,-0.99997103,1.0,1.0,1.0,0.0071910555,-0.0048571937,-2.4855137e-05,0.00038736415,-0.00051743817,-4.2572232e-05,1.0000156,1.0000156,1.0,0.00082736753,0.00037747138,9.884445e-09,-7.619456e-05,-6.319179e-05,-4.0088602e-07,0,0,1
627368000,627216000,627216000,0,-0.01013991,0.0035469083,-0.9999423,1.0,1.0,1.0,0.012594795,-0.0022747617,-5.3942204e-05,0.0005432047,-0.000680266,-4.3037464e-05,1.0000157,1.0000156,1.0,0.0025380217,8.279135e-05,4.655618e-08,-3.479863e-05,-8.368057e-05,-3.9001614e-07,0,0,1
627376000,627224000,627224000,0,-0.0022001634,-0.0057787327,-0.9999809,1.0,1.0,1.0,0.0046777874,0.0070194406,-1.5258789e-05,0.0006083163,-0.0005590108,-4.2600004e-05,1.0000157,1.0000156,1.0,0.00035010162,0.00078834844,3.7252903e-09,-2.873721e-05,-6.994783e-05,-3.8393281e-07,0,0,1
