timestamp,noutputs,output[0],output[1],output[2],output[3],output[4],output[5],output[6],output[7],output[8],output[9],output[10],output[11],output[12],output[13],output[14],output[15]
625256000,16,1002.0,1001.0,1001.0,1000.0,900.0,900.0,900.0,900.0,900.0,900.0,900.0,900.0,900.0,900.0,900.0,900.0
625260000,16,1000.0,1002.0,1002.0,1000.0,900.0,900.0,900.0,900.0,900.0,900.0,900.0,900.0,900.0,900.0,900.0,900.0
625356000,16,1000.0,1002.0,1000.0,1002.0,900.0,900.0,900.0,900.0,900.0,900.0,900.0,900.0,900.0,900.0,900.0,900.0
625456000,16,1000.0,1002.0,1000.0,1002.0,900.0,900.0,900.0,900.0,900.0,900.0,900.0,900.0,900.0,900.0,900.0,900.0
625552000,16,1000.0,1002.0,1000.0,1002.0,900.0,900.0,900.0,900.0,900.0,900.0,900.0,900.0,900.0,900.0,900.0,900.0
625656000,16,1000.0,1001.0,1001.0,1001.0,900.0,900.0,900.0,900.0,900.0,900.0,900.0,900.0,900.0,900.0,900.0,900.0
625756000,16,1000.0,1002.0,1000.0,1002.0,900.0,900.0,900.0,900.0,900.0,900.0,900.0,900.0,900.0,900.0,900.0,900.0
625856000,16,1000.0,1002.0,1000.0,1002.0,900.0,900.0,900.0,900.0,900.0,900.0,900.0,900.0,900.0,900.0,900.0,900.0
625956000,16,1000.0,1002.0,1000.0,1002.0,900.0,900.0,900.0,900.0,900.0,900.0,900.0,900.0,900.0,900.0,900.0,900.0
626056000,16,1000.0,1002.0,1000.0,1002.0,900.0,900.0,900.0,900.0,900.0,900.0,900.0,900.0,900.0,900.0,900.0,900.0
626156000,16,1002.0,1000.0,1002.0,1000.0,900.0,900.0,900.0,900.0,900.0,900.0,900.0,900.0,900.0,900.0,900.0,900.0
626256000,16,1000.0,1001.0,1000.0,1002.0,900.0,900.0,900.0,900.0,900.0,900.0,900.0,900.0,900.0,900.0,900.0,900.0
626356000,16,1012.0,1025.0,1018.0,1019.0,900.0,900.0,900.0,900.0,900.0,900.0,900.0,900.0,900.0,900.0,900.0,900.0
626456000,16,1031.0,1037.0,1035.0,1031.0,900.0,900.0,900.0,900.0,900.0,900.0,900.0,900.0,900.0,900.0,900.0,900.0
626556000,16,1048.0,1048.0,1051.0,1046.0,900.0,900.0,900.0,900.0,900.0,900.0,900.0,900.0,900.0,900.0,900.0,900.0
626656000,16,1066.0,1069.0,1072.0,1062.0,900.0,900.0,900.0,900.0,900.0,900.0,900.0,900.0,900.0,900.0,900.0,900.0
626756000,16,1086.0,1089.0,1083.0,1088.0,900.0,900.0,900.0,900.0,900.0,900.0,900.0,900.0,900.0,900.0,900.0,900.0
626856000,16,1110.0,1110.0,1107.0,1110.0,900.0,900.0,900.0,900.0,900.0,900.0,900.0,900.0,900.0,900.0,900.0,900.0
626956000,16,1135.0,1134.0,1133.0,1130.0,900.0,900.0,900.0,900.0,900.0,900.0,900.0,900.0,900.0,900.0,900.0,900.0
627056000,16,1155.0,1167.0,1155.0,1163.0,900.0,900.0,900.0,900.0,900.0,900.0,900.0,900.0,900.0,900.0,900.0,900.0
627156000,16,1183.0,1193.0,1183.0,1189.0,900.0,900.0,900.0,900.0,900.0,900.0,900.0,900.0,900.0,900.0,900.0,900.0
627256000,16,1214.0,1222.0,1217.0,1219.0,900.0,900.0,900.0,900.0,900.0,900.0,900.0,900.0,900.0,900.0,900.0,900.0
627356000,16,1243.0,1253.0,1248.0,1245.0,900.0,900.0,900.0,900.0,900.0,900.0,900.0,900.0,900.0,900.0,900.0,900.0
627456000,16,1281.0,1282.0,1283.0,1278.0,900.0,900.0,900.0,900.0,900.0,900.0,900.0,900.0,900.0,900.0,900.0,900.0
627556000,16,1314.0,1316.0,1319.0,1309.0,900.0,900.0,900.0,900.0,900.0,900.0,900.0,900.0,900.0,900.0,900.0,900.0
627656000,16,1320.0,1332.0,1325.0,1329.0,900.0,900.0,900.0,900.0,900.0,900.0,900.0,900.0,900.0,900.0,900.0,900.0
627756000,16,1328.0,1345.0,1337.0,1336.0,900.0,900.0,900.0,900.0,900.0,900.0,900.0,900.0,900.0,900.0,900.0,900.0
627856000,16,1343.0,1351.0,1348.0,1347.0,900.0,900.0,900.0,900.0,900.0,900.0,900.0,900.0,900.0,900.0,900.0,900.0
627956000,16,1355.0,1361.0,1359.0,1356.0,900.0,900.0,900.0,900.0,900.0,900.0,900.0,900.0,900.0,900.0,900.0,900.0
628056000,16,1367.0,1375.0,1371.0,1370.0,900.0,900.0,900.0,900.0,900.0,900.0,900.0,900.0,900.0,900.0,900.0,900.0
628152000,16,1376.0,1390.0,1381.0,1381.0,900.0,900.0,900.0,900.0,900.0,900.0,900.0,900.0,900.0,900.0,900.0,900.0
628256000,16,1387.0,1404.0,1394.0,1398.0,900.0,900.0,900.0,900.0,900.0,900.0,900.0,900.0,900.0,900.0,900.0,900.0
628356000,16,1402.0,1413.0,1407.0,1411.0,900.0,900.0,900.0,900.0,900.0,900.0,900.0,900.0,900.0,900.0,900.0,900.0
628456000,16,1416.0,1429.0,1420.0,1428.0,900.0,900.0,900.0,900.0,900.0,900.0,900.0,900.0,900.0,900.0,900.0,900.0
628556000,16,1433.0,1439.0,1435.0,1439.0,900.0,900.0,900.0,900.0,900.0,900.0,900.0,900.0,900.0,900.0,900.0,900.0
628652000,16,1441.0,1458.0,1445.0,1452.0,900.0,900.0,900.0,900.0,900.0,900.0,900.0,900.0,900.0,900.0,900.0,900.0
628756000,16,1464.0,1470.0,1461.0,1471.0,900.0,900.0,900.0,900.0,900.0,900.0,900.0,900.0,900.0,900.0,900.0,900.0
628856000,16,1477.0,1491.0,1480.0,1489.0,900.0,900.0,900.0,900.0,900.0,900.0,900.0,900.0,900.0,900.0,900.0,900.0
628952000,16,1493.0,1506.0,1497.0,1503.0,900.0,900.0,900.0,900.0,900.0,900.0,900.0,900.0,900.0,900.0,900.0,900.0
629052000,16,1506.0,1523.0,1511.0,1517.0,900.0,900.0,900.0,900.0,900.0,900.0,900.0,900.0,900.0,900.0,900.0,900.0
629156000,16,1528.0,1542.0,1532.0,1538.0,900.0,900.0,900.0,900.0,900.0,900.0,900.0,900.0,900.0,900.0,900.0,900.0
629252000,16,1543.0,1557.0,1543.0,1560.0,900.0,900.0,900.0,900.0,900.0,900.0,900.0,900.0,900.0,900.0,900.0,900.0
629356000,16,1590.0,1602.0,1592.0,1603.0,900.0,900.0,900.0,900.0,900.0,900.0,900.0,900.0,900.0,900.0,900.0,900.0
629452000,16,1603.0,1621.0,1602.0,1624.0,900.0,900.0,900.0,900.0,900.0,900.0,900.0,900.0,900.0,900.0,900.0,900.0
629556000,16,1627.0,1640.0,1628.0,1640.0,900.0,900.0,900.0,900.0,900.0,900.0,900.0,900.0,900.0,900.0,900.0,900.0
629656000,16,1650.0,1662.0,1650.0,1663.0,900.0,900.0,900.0,900.0,900.0,900.0,900.0,900.0,900.0,900.0,900.0,900.0
629756000,16,1663.0,1681.0,1666.0,1684.0,900.0,900.0,900.0,900.0,900.0,900.0,900.0,900.0,900.0,900.0,900.0,900.0
629856000,16,1689.0,1704.0,1690.0,1707.0,900.0,900.0,900.0,900.0,900.0,900.0,900.0,900.0,900.0,900.0,900.0,900.0
629956000,16,1707.0,1723.0,1705.0,1729.0,900.0,900.0,900.0,900.0,900.0,900.0,900.0,900.0,900.0,900.0,900.0,900.0
630056000,16,1736.0,1732.0,1734.0,1734.0,900.0,900.0,900.0,900.0,900.0,900.0,900.0,900.0,900.0,900.0,900.0,900.0
630156000,16,1744.0,1739.0,1745.0,1739.0,900.0,900.0,900.0,900.0,900.0,900.0,900.0,900.0,900.0,900.0,900.0,900.0
630256000,16,1752.0,1747.0,1752.0,1747.0,900.0,900.0,900.0,900.0,900.0,900.0,900.0,900.0,900.0,900.0,900.0,900.0
630352000,16,1755.0,1743.0,1755.0,1746.0,900.0,900.0,900.0,900.0,900.0,900.0,900.0,900.0,900.0,900.0,900.0,900.0
630456000,16,1756.0,1751.0,1755.0,1754.0,900.0,900.0,900.0,900.0,900.0,900.0,900.0,900.0,900.0,900.0,900.0,900.0
630556000,16,1753.0,1753.0,1754.0,1752.0,900.0,900.0,900.0,900.0,900.0,900.0,900.0,900.0,900.0,900.0,900.0,900.0
630656000,16,1755.0,1759.0,1760.0,1750.0,900.0,900.0,900.0,900.0,900.0,900.0,900.0,900.0,900.0,900.0,900.0,900.0
630756000,16,1739.0,1732.0,1740.0,1730.0,900.0,900.0,900.0,900.0,900.0,900.0,900.0,900.0,900.0,900.0,900.0,900.0
630856000,16,1727.0,1729.0,1728.0,1731.0,900.0,900.0,900.0,900.0,900.0,900.0,900.0,900.0,900.0,900.0,900.0,900.0
630956000,16,1726.0,1727.0,1730.0,1723.0,900.0,900.0,900.0,900.0,900.0,900.0,900.0,900.0,900.0,900.0,900.0,900.0
631056000,16,1723.0,1725.0,1724.0,1723.0,900.0,900.0,900.0,900.0,900.0,900.0,900.0,900.0,900.0,900.0,900.0,900.0
631156000,16,1721.0,1720.0,1722.0,1718.0,900.0,900.0,900.0,900.0,900.0,900.0,900.0,900.0,900.0,900.0,900.0,900.0
631252000,16,1725.0,1714.0,1724.0,1713.0,900.0,900.0,900.0,900.0,900.0,900.0,900.0,900.0,900.0,900.0,900.0,900.0
631356000,16,1724.0,1717.0,1718.0,1725.0,900.0,900.0,900.0,900.0,900.0,900.0,900.0,900.0,900.0,900.0,900.0,900.0
631456000,16,1728.0,1720.0,1728.0,1722.0,900.0,900.0,900.0,900.0,900.0,900.0,900.0,900.0,900.0,900.0,900.0,900.0
631556000,16,1721.0,1721.0,1717.0,1723.0,900.0,900.0,900.0,900.0,900.0,900.0,900.0,900.0,900.0,900.0,900.0,900.0
631652000,16,1715.0,1721.0,1722.0,1714.0,900.0,900.0,900.0,900.0,900.0,900.0,900.0,900.0,900.0,900.0,900.0,900.0
631756000,16,1720.0,1717.0,1719.0,1721.0,900.0,900.0,900.0,900.0,900.0,900.0,900.0,900.0,900.0,900.0,900.0,900.0
631856000,16,1726.0,1718.0,1725.0,1717.0,900.0,900.0,900.0,900.0,900.0,900.0,900.0,900.0,900.0,900.0,900.0,900.0
631956000,16,1719.0,1717.0,1717.0,1717.0,900.0,900.0,900.0,900.0,900.0,900.0,900.0,900.0,900.0,900.0,900.0,900.0
632056000,16,1720.0,1719.0,1720.0,1722.0,900.0,900.0,900.0,900.0,900.0,900.0,900.0,900.0,900.0,900.0,900.0,900.0
632156000,16,1715.0,1717.0,1716.0,1717.0,900.0,900.0,900.0,900.0,900.0,900.0,900.0,900.0,900.0,900.0,900.0,900.0
632252000,16,1716.0,1713.0,1717.0,1709.0,900.0,900.0,900.0,900.0,900.0,900.0,900.0,900.0,900.0,900.0,900.0,900.0
632356000,16,1714.0,1715.0,1714.0,1714.0,900.0,900.0,900.0,900.0,900.0,900.0,900.0,900.0,900.0,900.0,900.0,900.0
632456000,16,1719.0,1715.0,1723.0,1713.0,900.0,900.0,900.0,900.0,900.0,900.0,900.0,900.0,900.0,900.0,900.0,900.0
632552000,16,1717.0,1708.0,1716.0,1710.0,900.0,900.0,900.0,900.0,900.0,900.0,900.0,900.0,900.0,900.0,900.0,900.0
632656000,16,1716.0,1715.0,1714.0,1716.0,900.0,900.0,900.0,900.0,900.0,900.0,900.0,900.0,900.0,900.0,900.0,900.0
632756000,16,1708.0,1714.0,1710.0,1713.0,900.0,900.0,900.0,900.0,900.0,900.0,900.0,900.0,900.0,900.0,900.0,900.0
632856000,16,1720.0,1708.0,1716.0,1712.0,900.0,900.0,900.0,900.0,900.0,900.0,900.0,900.0,900.0,900.0,900.0,900.0
632956000,16,1708.0,1713.0,1711.0,1708.0,900.0,900.0,900.0,900.0,900.0,900.0,900.0,900.0,900.0,900.0,900.0,900.0
633056000,16,1712.0,1714.0,1721.0,1702.0,900.0,900.0,900.0,900.0,900.0,900.0,900.0,900.0,900.0,900.0,900.0,900.0
633156000,16,1709.0,1705.0,1711.0,1705.0,900.0,900.0,900.0,900.0,900.0,900.0,900.0,900.0,900.0,900.0,900.0,900.0
633256000,16,1709.0,1711.0,1712.0,1711.0,900.0,900.0,900.0,900.0,900.0,900.0,900.0,900.0,900.0,900.0,900.0,900.0
633356000,16,1709.0,1703.0,1714.0,1701.0,900.0,900.0,900.0,900.0,900.0,900.0,900.0,900.0,900.0,900.0,900.0,900.0
633456000,16,1706.0,1711.0,1710.0,1708.0,900.0,900.0,900.0,900.0,900.0,900.0,900.0,900.0,900.0,900.0,900.0,900.0
633552000,16,1702.0,1698.0,1699.0,1700.0,900.0,900.0,900.0,900.0,900.0,900.0,900.0,900.0,900.0,900.0,900.0,900.0
633656000,16,1680.0,1675.0,1679.0,1672.0,900.0,900.0,900.0,900.0,900.0,900.0,900.0,900.0,900.0,900.0,900.0,900.0
633756000,16,1657.0,1655.0,1658.0,1652.0,900.0,900.0,900.0,900.0,900.0,900.0,900.0,900.0,900.0,900.0,900.0,900.0
633852000,16,1666.0,1658.0,1663.0,1659.0,900.0,900.0,900.0,900.0,900.0,900.0,900.0,900.0,900.0,900.0,900.0,900.0
633956000,16,1680.0,1688.0,1680.0,1687.0,900.0,900.0,900.0,900.0,900.0,900.0,900.0,900.0,900.0,900.0,900.0,900.0
634056000,16,1709.0,1705.0,1710.0,1705.0,900.0,900.0,900.0,900.0,900.0,900.0,900.0,900.0,900.0,900.0,900.0,900.0
634156000,16,1723.0,1718.0,1718.0,1724.0,900.0,900.0,900.0,900.0,900.0,900.0,900.0,900.0,900.0,900.0,900.0,900.0
634256000,16,1723.0,1721.0,1725.0,1722.0,900.0,900.0,900.0,900.0,900.0,900.0,900.0,900.0,900.0,900.0,900.0,900.0
634356000,16,1715.0,1709.0,1716.0,1709.0,900.0,900.0,900.0,900.0,900.0,900.0,900.0,900.0,900.0,900.0,900.0,900.0
634456000,16,1705.0,1709.0,1710.0,1705.0,900.0,900.0,900.0,900.0,900.0,900.0,900.0,900.0,900.0,900.0,900.0,900.0
634556000,16,1704.0,1704.0,1710.0,1701.0,900.0,900.0,900.0,900.0,900.0,900.0,900.0,900.0,900.0,900.0,900.0,900.0
634656000,16,1712.0,1697.0,1706.0,1704.0,900.0,900.0,900.0,900.0,900.0,900.0,900.0,900.0,900.0,900.0,900.0,900.0
634756000,16,1707.0,1703.0,1704.0,1704.0,900.0,900.0,900.0,900.0,900.0,900.0,900.0,900.0,900.0,900.0,900.0,900.0
634856000,16,1708.0,1705.0,1705.0,1705.0,900.0,900.0,900.0,900.0,900.0,900.0,900.0,900.0,900.0,900.0,900.0,900.0
634956000,16,1706.0,1704.0,1707.0,1702.0,900.0,900.0,900.0,900.0,900.0,900.0,900.0,900.0,900.0,900.0,900.0,900.0
635056000,16,1706.0,1704.0,1711.0,1700.0,900.0,900.0,900.0,900.0,900.0,900.0,900.0,900.0,900.0,900.0,900.0,900.0
635156000,16,1705.0,1703.0,1709.0,1701.0,900.0,900.0,900.0,900.0,900.0,900.0,900.0,900.0,900.0,900.0,900.0,900.0
635256000,16,1707.0,1704.0,1708.0,1704.0,900.0,900.0,900.0,900.0,900.0,900.0,900.0,900.0,900.0,900.0,900.0,900.0
635356000,16,1698.0,1713.0,1702.0,1704.0,900.0,900.0,900.0,900.0,900.0,900.0,900.0,900.0,900.0,900.0,900.0,900.0
635456000,16,1704.0,1718.0,1705.0,1692.0,900.0,900.0,900.0,900.0,900.0,900.0,900.0,900.0,900.0,900.0,900.0,900.0
635556000,16,1710.0,1731.0,1703.0,1687.0,900.0,900.0,900.0,900.0,900.0,900.0,900.0,900.0,900.0,900.0,900.0,900.0
635656000,16,1718.0,1735.0,1699.0,1688.0,900.0,900.0,900.0,900.0,900.0,900.0,900.0,900.0,900.0,900.0,900.0,900.0
635756000,16,1723.0,1736.0,1698.0,1691.0,900.0,900.0,900.0,900.0,900.0,900.0,900.0,900.0,900.0,900.0,900.0,900.0
635856000,16,1723.0,1745.0,1699.0,1701.0,900.0,900.0,900.0,900.0,900.0,900.0,900.0,900.0,900.0,900.0,900.0,900.0
635956000,16,1732.0,1739.0,1704.0,1701.0,900.0,900.0,900.0,900.0,900.0,900.0,900.0,900.0,900.0,900.0,900.0,900.0
636056000,16,1733.0,1749.0,1713.0,1705.0,900.0,900.0,900.0,900.0,900.0,900.0,900.0,900.0,900.0,900.0,900.0,900.0
636152000,16,1742.0,1733.0,1712.0,1704.0,900.0,900.0,900.0,900.0,900.0,900.0,900.0,900.0,900.0,900.0,900.0,900.0
636256000,16,1739.0,1732.0,1716.0,1704.0,900.0,900.0,900.0,900.0,900.0,900.0,900.0,900.0,900.0,900.0,900.0,900.0
636356000,16,1743.0,1735.0,1714.0,1709.0,900.0,900.0,900.0,900.0,900.0,900.0,900.0,900.0,900.0,900.0,900.0,900.0
636456000,16,1740.0,1747.0,1713.0,1714.0,900.0,900.0,900.0,900.0,900.0,900.0,900.0,900.0,900.0,900.0,900.0,900.0
636556000,16,1745.0,1752.0,1714.0,1705.0,900.0,900.0,900.0,900.0,900.0,900.0,900.0,900.0,900.0,900.0,900.0,900.0
636656000,16,1746.0,1751.0,1722.0,1704.0,900.0,900.0,900.0,900.0,900.0,900.0,900.0,900.0,900.0,900.0,900.0,900.0
636756000,16,1740.0,1763.0,1700.0,1729.0,900.0,900.0,900.0,900.0,900.0,900.0,900.0,900.0,900.0,900.0,900.0,900.0
636856000,16,1746.0,1753.0,1718.0,1706.0,900.0,900.0,900.0,900.0,900.0,900.0,900.0,900.0,900.0,900.0,900.0,900.0
636956000,16,1738.0,1763.0,1700.0,1730.0,900.0,900.0,900.0,900.0,900.0,900.0,900.0,900.0,900.0,900.0,900.0,900.0
637052000,16,1741.0,1746.0,1722.0,1703.0,900.0,900.0,900.0,900.0,900.0,900.0,900.0,900.0,900.0,900.0,900.0,900.0
637156000,16,1734.0,1754.0,1705.0,1730.0,900.0,900.0,900.0,900.0,900.0,900.0,900.0,900.0,900.0,900.0,900.0,900.0
637256000,16,1729.0,1740.0,1719.0,1713.0,900.0,900.0,900.0,900.0,900.0,900.0,900.0,900.0,900.0,900.0,900.0,900.0
637352000,16,1719.0,1742.0,1729.0,1724.0,900.0,900.0,900.0,900.0,900.0,900.0,900.0,900.0,900.0,900.0,900.0,900.0
637456000,16,1718.0,1734.0,1724.0,1749.0,900.0,900.0,900.0,900.0,900.0,900.0,900.0,900.0,900.0,900.0,900.0,900.0
637556000,16,1704.0,1724.0,1734.0,1731.0,900.0,900.0,900.0,900.0,900.0,900.0,900.0,900.0,900.0,900.0,900.0,900.0
637656000,16,1697.0,1729.0,1733.0,1731.0,900.0,900.0,900.0,900.0,900.0,900.0,900.0,900.0,900.0,900.0,900.0,900.0
637756000,16,1710.0,1726.0,1722.0,1736.0,900.0,900.0,900.0,900.0,900.0,900.0,900.0,900.0,900.0,900.0,900.0,900.0
637856000,16,1712.0,1736.0,1709.0,1747.0,900.0,900.0,900.0,900.0,900.0,900.0,900.0,900.0,900.0,900.0,900.0,900.0
637956000,16,1705.0,1737.0,1723.0,1713.0,900.0,900.0,900.0,900.0,900.0,900.0,900.0,900.0,900.0,900.0,900.0,900.0
638056000,16,1716.0,1734.0,1704.0,1733.0,900.0,900.0,900.0,900.0,900.0,900.0,900.0,900.0,900.0,900.0,900.0,900.0
638156000,16,1706.0,1734.0,1710.0,1719.0,900.0,900.0,900.0,900.0,900.0,900.0,900.0,900.0,900.0,900.0,900.0,900.0
638256000,16,1709.0,1749.0,1715.0,1735.0,900.0,900.0,900.0,900.0,900.0,900.0,900.0,900.0,900.0,900.0,900.0,900.0
638356000,16,1698.0,1746.0,1711.0,1742.0,900.0,900.0,900.0,900.0,900.0,900.0,900.0,900.0,900.0,900.0,900.0,900.0
638456000,16,1699.0,1737.0,1712.0,1755.0,900.0,900.0,900.0,900.0,900.0,900.0,900.0,900.0,900.0,900.0,900.0,900.0
638556000,16,1693.0,1725.0,1720.0,1740.0,900.0,900.0,900.0,900.0,900.0,900.0,900.0,900.0,900.0,900.0,900.0,900.0
638652000,16,1697.0,1714.0,1713.0,1741.0,900.0,900.0,900.0,900.0,900.0,900.0,900.0,900.0,900.0,900.0,900.0,900.0
638756000,16,1698.0,1725.0,1716.0,1747.0,900.0,900.0,900.0,900.0,900.0,900.0,900.0,900.0,900.0,900.0,900.0,900.0
638856000,16,1698.0,1722.0,1717.0,1735.0,900.0,900.0,900.0,900.0,900.0,900.0,900.0,900.0,900.0,900.0,900.0,900.0
638956000,16,1698.0,1722.0,1707.0,1740.0,900.0,900.0,900.0,900.0,900.0,900.0,900.0,900.0,900.0,900.0,900.0,900.0
639056000,16,1701.0,1721.0,1706.0,1741.0,900.0,900.0,900.0,900.0,900.0,900.0,900.0,900.0,900.0,900.0,900.0,900.0
639156000,16,1706.0,1716.0,1708.0,1741.0,900.0,900.0,900.0,900.0,900.0,900.0,900.0,900.0,900.0,900.0,900.0,900.0
639256000,16,1706.0,1713.0,1707.0,1738.0,900.0,900.0,900.0,900.0,900.0,900.0,900.0,900.0,900.0,900.0,900.0,900.0
639356000,16,1710.0,1700.0,1713.0,1726.0,900.0,900.0,900.0,900.0,900.0,900.0,900.0,900.0,900.0,900.0,900.0,900.0
639456000,16,1713.0,1701.0,1714.0,1726.0,900.0,900.0,900.0,900.0,900.0,900.0,900.0,900.0,900.0,900.0,900.0,900.0
639556000,16,1708.0,1707.0,1709.0,1735.0,900.0,900.0,900.0,900.0,900.0,900.0,900.0,900.0,900.0,900.0,900.0,900.0
639656000,16,1696.0,1717.0,1706.0,1741.0,900.0,900.0,900.0,900.0,900.0,900.0,900.0,900.0,900.0,900.0,900.0,900.0
639756000,16,1672.0,1719.0,1708.0,1735.0,900.0,900.0,900.0,900.0,900.0,900.0,900.0,900.0,900.0,900.0,900.0,900.0
639856000,16,1686.0,1703.0,1704.0,1749.0,900.0,900.0,900.0,900.0,900.0,900.0,900.0,900.0,900.0,900.0,900.0,900.0
639956000,16,1690.0,1700.0,1701.0,1753.0,900.0,900.0,900.0,900.0,900.0,900.0,900.0,900.0,900.0,900.0,900.0,900.0
640056000,16,1676.0,1711.0,1723.0,1724.0,900.0,900.0,900.0,900.0,900.0,900.0,900.0,900.0,900.0,900.0,900.0,900.0
640156000,16,1692.0,1699.0,1703.0,1747.0,900.0,900.0,900.0,900.0,900.0,900.0,900.0,900.0,900.0,900.0,900.0,900.0
640256000,16,1696.0,1703.0,1706.0,1745.0,900.0,900.0,900.0,900.0,900.0,900.0,900.0,900.0,900.0,900.0,900.0,900.0
640356000,16,1700.0,1712.0,1706.0,1734.0,900.0,900.0,900.0,900.0,900.0,900.0,900.0,900.0,900.0,900.0,900.0,900.0
640456000,16,1714.0,1721.0,1697.0,1733.0,900.0,900.0,900.0,900.0,900.0,900.0,900.0,900.0,900.0,900.0,900.0,900.0
640556000,16,1711.0,1730.0,1706.0,1717.0,900.0,900.0,900.0,900.0,900.0,900.0,900.0,900.0,900.0,900.0,900.0,900.0
640656000,16,1718.0,1725.0,1701.0,1721.0,900.0,900.0,900.0,900.0,900.0,900.0,900.0,900.0,900.0,900.0,900.0,900.0
640756000,16,1731.0,1709.0,1716.0,1722.0,900.0,900.0,900.0,900.0,900.0,900.0,900.0,900.0,900.0,900.0,900.0,900.0
640856000,16,1731.0,1701.0,1716.0,1756.0,900.0,900.0,900.0,900.0,900.0,900.0,900.0,900.0,900.0,900.0,900.0,900.0
640956000,16,1710.0,1709.0,1734.0,1763.0,900.0,900.0,900.0,900.0,900.0,900.0,900.0,900.0,900.0,900.0,900.0,900.0
641052000,16,1696.0,1717.0,1754.0,1748.0,900.0,900.0,900.0,900.0,900.0,900.0,900.0,900.0,900.0,900.0,900.0,900.0
641156000,16,1703.0,1722.0,1736.0,1774.0,900.0,900.0,900.0,900.0,900.0,900.0,900.0,900.0,900.0,900.0,900.0,900.0
641256000,16,1695.0,1717.0,1742.0,1747.0,900.0,900.0,900.0,900.0,900.0,900.0,900.0,900.0,900.0,900.0,900.0,900.0
641356000,16,1700.0,1711.0,1747.0,1731.0,900.0,900.0,900.0,900.0,900.0,900.0,900.0,900.0,900.0,900.0,900.0,900.0
641456000,16,1716.0,1705.0,1747.0,1734.0,900.0,900.0,900.0,900.0,900.0,900.0,900.0,900.0,900.0,900.0,900.0,900.0
641556000,16,1721.0,1716.0,1732.0,1761.0,900.0,900.0,900.0,900.0,900.0,900.0,900.0,900.0,900.0,900.0,900.0,900.0
641656000,16,1720.0,1722.0,1729.0,1772.0,900.0,900.0,900.0,900.0,900.0,900.0,900.0,900.0,900.0,900.0,900.0,900.0
641756000,16,1710.0,1724.0,1733.0,1769.0,900.0,900.0,900.0,900.0,900.0,900.0,900.0,900.0,900.0,900.0,900.0,900.0
641856000,16,1696.0,1719.0,1733.0,1766.0,900.0,900.0,900.0,900.0,900.0,900.0,900.0,900.0,900.0,900.0,900.0,900.0
641956000,16,1697.0,1700.0,1747.0,1751.0,900.0,900.0,900.0,900.0,900.0,900.0,900.0,900.0,900.0,900.0,900.0,900.0
642056000,16,1711.0,1704.0,1735.0,1776.0,900.0,900.0,900.0,900.0,900.0,900.0,900.0,900.0,900.0,900.0,900.0,900.0
642156000,16,1714.0,1723.0,1731.0,1782.0,900.0,900.0,900.0,900.0,900.0,900.0,900.0,900.0,900.0,900.0,900.0,900.0
642252000,16,1720.0,1733.0,1728.0,1767.0,900.0,900.0,900.0,900.0,900.0,900.0,900.0,900.0,900.0,900.0,900.0,900.0
642352000,16,1729.0,1721.0,1735.0,1722.0,900.0,900.0,900.0,900.0,900.0,900.0,900.0,900.0,900.0,900.0,900.0,900.0
642456000,16,1733.0,1726.0,1718.0,1707.0,900.0,900.0,900.0,900.0,900.0,900.0,900.0,900.0,900.0,900.0,900.0,900.0
642556000,16,1734.0,1734.0,1705.0,1704.0,900.0,900.0,900.0,900.0,900.0,900.0,900.0,900.0,900.0,900.0,900.0,900.0
642656000,16,1744.0,1721.0,1709.0,1686.0,900.0,900.0,900.0,900.0,900.0,900.0,900.0,900.0,900.0,900.0,900.0,900.0
642756000,16,1721.0,1731.0,1689.0,1710.0,900.0,900.0,900.0,900.0,900.0,900.0,900.0,900.0,900.0,900.0,900.0,900.0
642856000,16,1730.0,1712.0,1705.0,1711.0,900.0,900.0,900.0,900.0,900.0,900.0,900.0,900.0,900.0,900.0,900.0,900.0
642956000,16,1726.0,1710.0,1712.0,1725.0,900.0,900.0,900.0,900.0,900.0,900.0,900.0,900.0,900.0,900.0,900.0,900.0
643056000,16,1713.0,1716.0,1705.0,1737.0,900.0,900.0,900.0,900.0,900.0,900.0,900.0,900.0,900.0,900.0,900.0,900.0
643156000,16,1730.0,1711.0,1726.0,1730.0,900.0,900.0,900.0,900.0,900.0,900.0,900.0,900.0,900.0,900.0,900.0,900.0
643256000,16,1730.0,1719.0,1700.0,1754.0,900.0,900.0,900.0,900.0,900.0,900.0,900.0,900.0,900.0,900.0,900.0,900.0
643352000,16,1707.0,1744.0,1690.0,1756.0,900.0,900.0,900.0,900.0,900.0,900.0,900.0,900.0,900.0,900.0,900.0,900.0
643456000,16,1727.0,1743.0,1709.0,1747.0,900.0,900.0,900.0,900.0,900.0,900.0,900.0,900.0,900.0,900.0,900.0,900.0
643556000,16,1742.0,1736.0,1725.0,1736.0,900.0,900.0,900.0,900.0,900.0,900.0,900.0,900.0,900.0,900.0,900.0,900.0
643656000,16,1734.0,1739.0,1719.0,1734.0,900.0,900.0,900.0,900.0,900.0,900.0,900.0,900.0,900.0,900.0,900.0,900.0
643752000,16,1741.0,1724.0,1728.0,1720.0,900.0,900.0,900.0,900.0,900.0,900.0,900.0,900.0,900.0,900.0,900.0,900.0
643856000,16,1739.0,1724.0,1726.0,1717.0,900.0,900.0,900.0,900.0,900.0,900.0,900.0,900.0,900.0,900.0,900.0,900.0
643952000,16,1713.0,1736.0,1709.0,1718.0,900.0,900.0,900.0,900.0,900.0,900.0,900.0,900.0,900.0,900.0,900.0,900.0
644056000,16,1723.0,1730.0,1709.0,1717.0,900.0,900.0,900.0,900.0,900.0,900.0,900.0,900.0,900.0,900.0,900.0,900.0
644156000,16,1720.0,1723.0,1703.0,1714.0,900.0,900.0,900.0,900.0,900.0,900.0,900.0,900.0,900.0,900.0,900.0,900.0
644256000,16,1728.0,1727.0,1707.0,1716.0,900.0,900.0,900.0,900.0,900.0,900.0,900.0,900.0,900.0,900.0,900.0,900.0
644356000,16,1725.0,1724.0,1704.0,1713.0,900.0,900.0,900.0,900.0,900.0,900.0,900.0,900.0,900.0,900.0,900.0,900.0
644456000,16,1724.0,1724.0,1704.0,1710.0,900.0,900.0,900.0,900.0,900.0,900.0,900.0,900.0,900.0,900.0,900.0,900.0
644556000,16,1729.0,1718.0,1704.0,1704.0,900.0,900.0,900.0,900.0,900.0,900.0,900.0,900.0,900.0,900.0,900.0,900.0
644656000,16,1736.0,1714.0,1704.0,1701.0,900.0,900.0,900.0,900.0,900.0,900.0,900.0,900.0,900.0,900.0,900.0,900.0
644756000,16,1737.0,1719.0,1704.0,1702.0,900.0,900.0,900.0,900.0,900.0,900.0,900.0,900.0,900.0,900.0,900.0,900.0
644856000,16,1737.0,1721.0,1700.0,1704.0,900.0,900.0,900.0,900.0,900.0,900.0,900.0,900.0,900.0,900.0,900.0,900.0
644956000,16,1736.0,1720.0,1700.0,1702.0,900.0,900.0,900.0,900.0,900.0,900.0,900.0,900.0,900.0,900.0,900.0,900.0
645056000,16,1740.0,1714.0,1707.0,1697.0,900.0,900.0,900.0,900.0,900.0,900.0,900.0,900.0,900.0,900.0,900.0,900.0
645156000,16,1737.0,1714.0,1705.0,1697.0,900.0,900.0,900.0,900.0,900.0,900.0,900.0,900.0,900.0,900.0,900.0,900.0
645256000,16,1735.0,1712.0,1700.0,1690.0,900.0,900.0,900.0,900.0,900.0,900.0,900.0,900.0,900.0,900.0,900.0,900.0
645356000,16,1736.0,1715.0,1698.0,1690.0,900.0,900.0,900.0,900.0,900.0,900.0,900.0,900.0,900.0,900.0,900.0,900.0
645456000,16,1733.0,1720.0,1693.0,1693.0,900.0,900.0,900.0,900.0,900.0,900.0,900.0,900.0,900.0,900.0,900.0,900.0
645556000,16,1748.0,1684.0,1711.0,1686.0,900.0,900.0,900.0,900.0,900.0,900.0,900.0,900.0,900.0,900.0,900.0,900.0
645656000,16,1729.0,1673.0,1715.0,1706.0,900.0,900.0,900.0,900.0,900.0,900.0,900.0,900.0,900.0,900.0,900.0,900.0
645756000,16,1708.0,1677.0,1719.0,1723.0,900.0,900.0,900.0,900.0,900.0,900.0,900.0,900.0,900.0,900.0,900.0,900.0
645856000,16,1704.0,1677.0,1725.0,1724.0,900.0,900.0,900.0,900.0,900.0,900.0,900.0,900.0,900.0,900.0,900.0,900.0
645952000,16,1689.0,1700.0,1714.0,1736.0,900.0,900.0,900.0,900.0,900.0,900.0,900.0,900.0,900.0,900.0,900.0,900.0
646056000,16,1720.0,1684.0,1734.0,1716.0,900.0,900.0,900.0,900.0,900.0,900.0,900.0,900.0,900.0,900.0,900.0,900.0
646156000,16,1720.0,1699.0,1723.0,1727.0,900.0,900.0,900.0,900.0,900.0,900.0,900.0,900.0,900.0,900.0,900.0,900.0
646256000,16,1740.0,1691.0,1740.0,1716.0,900.0,900.0,900.0,900.0,900.0,900.0,900.0,900.0,900.0,900.0,900.0,900.0
646356000,16,1722.0,1699.0,1740.0,1713.0,900.0,900.0,900.0,900.0,900.0,900.0,900.0,900.0,900.0,900.0,900.0,900.0
646456000,16,1699.0,1717.0,1726.0,1717.0,900.0,900.0,900.0,900.0,900.0,900.0,900.0,900.0,900.0,900.0,900.0,900.0
646556000,16,1709.0,1693.0,1733.0,1706.0,900.0,900.0,900.0,900.0,900.0,900.0,900.0,900.0,900.0,900.0,900.0,900.0
646656000,16,1712.0,1695.0,1735.0,1706.0,900.0,900.0,900.0,900.0,900.0,900.0,900.0,900.0,900.0,900.0,900.0,900.0
646752000,16,1695.0,1709.0,1720.0,1730.0,900.0,900.0,900.0,900.0,900.0,900.0,900.0,900.0,900.0,900.0,900.0,900.0
646856000,16,1701.0,1701.0,1723.0,1733.0,900.0,900.0,900.0,900.0,900.0,900.0,900.0,900.0,900.0,900.0,900.0,900.0
646956000,16,1703.0,1695.0,1727.0,1732.0,900.0,900.0,900.0,900.0,900.0,900.0,900.0,900.0,900.0,900.0,900.0,900.0
647056000,16,1713.0,1681.0,1736.0,1716.0,900.0,900.0,900.0,900.0,900.0,900.0,900.0,900.0,900.0,900.0,900.0,900.0
647152000,16,1709.0,1691.0,1732.0,1716.0,900.0,900.0,900.0,900.0,900.0,900.0,900.0,900.0,900.0,900.0,900.0,900.0
647256000,16,1720.0,1684.0,1727.0,1710.0,900.0,900.0,900.0,900.0,900.0,900.0,900.0,900.0,900.0,900.0,900.0,900.0
647352000,16,1711.0,1692.0,1723.0,1713.0,900.0,900.0,900.0,900.0,900.0,900.0,900.0,900.0,900.0,900.0,900.0,900.0
647456000,16,1704.0,1696.0,1719.0,1720.0,900.0,900.0,900.0,900.0,900.0,900.0,900.0,900.0,900.0,900.0,900.0,900.0
647552000,16,1699.0,1694.0,1723.0,1724.0,900.0,900.0,900.0,900.0,900.0,900.0,900.0,900.0,900.0,900.0,900.0,900.0
647656000,16,1718.0,1666.0,1720.0,1729.0,900.0,900.0,900.0,900.0,900.0,900.0,900.0,900.0,900.0,900.0,900.0,900.0
647756000,16,1699.0,1684.0,1708.0,1747.0,900.0,900.0,900.0,900.0,900.0,900.0,900.0,900.0,900.0,900.0,900.0,900.0
647856000,16,1692.0,1695.0,1714.0,1741.0,900.0,900.0,900.0,900.0,900.0,900.0,900.0,900.0,900.0,900.0,900.0,900.0
647956000,16,1706.0,1699.0,1710.0,1730.0,900.0,900.0,900.0,900.0,900.0,900.0,900.0,900.0,900.0,900.0,900.0,900.0
648056000,16,1715.0,1715.0,1706.0,1709.0,900.0,900.0,900.0,900.0,900.0,900.0,900.0,900.0,900.0,900.0,900.0,900.0
648152000,16,1714.0,1731.0,1699.0,1697.0,900.0,900.0,900.0,900.0,900.0,900.0,900.0,900.0,900.0,900.0,900.0,900.0
648256000,16,1730.0,1714.0,1694.0,1687.0,900.0,900.0,900.0,900.0,900.0,900.0,900.0,900.0,900.0,900.0,900.0,900.0
648356000,16,1717.0,1721.0,1687.0,1701.0,900.0,900.0,900.0,900.0,900.0,900.0,900.0,900.0,900.0,900.0,900.0,900.0
648456000,16,1715.0,1715.0,1701.0,1696.0,900.0,900.0,900.0,900.0,900.0,900.0,900.0,900.0,900.0,900.0,900.0,900.0
648556000,16,1706.0,1716.0,1696.0,1708.0,900.0,900.0,900.0,900.0,900.0,900.0,900.0,900.0,900.0,900.0,900.0,900.0
648656000,16,1708.0,1713.0,1699.0,1706.0,900.0,900.0,900.0,900.0,900.0,900.0,900.0,900.0,900.0,900.0,900.0,900.0
648756000,16,1703.0,1719.0,1693.0,1712.0,900.0,900.0,900.0,900.0,900.0,900.0,900.0,900.0,900.0,900.0,900.0,900.0
648856000,16,1708.0,1717.0,1698.0,1703.0,900.0,900.0,900.0,900.0,900.0,900.0,900.0,900.0,900.0,900.0,900.0,900.0
648956000,16,1713.0,1716.0,1700.0,1697.0,900.0,900.0,900.0,900.0,900.0,900.0,900.0,900.0,900.0,900.0,900.0,900.0
649056000,16,1719.0,1716.0,1696.0,1699.0,900.0,900.0,900.0,900.0,900.0,900.0,900.0,900.0,900.0,900.0,900.0,900.0
649156000,16,1714.0,1718.0,1695.0,1700.0,900.0,900.0,900.0,900.0,900.0,900.0,900.0,900.0,900.0,900.0,900.0,900.0
649252000,16,1715.0,1715.0,1692.0,1699.0,900.0,900.0,900.0,900.0,900.0,900.0,900.0,900.0,900.0,900.0,900.0,900.0
649356000,16,1714.0,1715.0,1690.0,1699.0,900.0,900.0,900.0,900.0,900.0,900.0,900.0,900.0,900.0,900.0,900.0,900.0
649456000,16,1716.0,1717.0,1690.0,1697.0,900.0,900.0,900.0,900.0,900.0,900.0,900.0,900.0,900.0,900.0,900.0,900.0
649556000,16,1726.0,1711.0,1698.0,1692.0,900.0,900.0,900.0,900.0,900.0,900.0,900.0,900.0,900.0,900.0,900.0,900.0
649656000,16,1715.0,1720.0,1693.0,1696.0,900.0,900.0,900.0,900.0,900.0,900.0,900.0,900.0,900.0,900.0,900.0,900.0
649756000,16,1711.0,1725.0,1687.0,1702.0,900.0,900.0,900.0,900.0,900.0,900.0,900.0,900.0,900.0,900.0,900.0,900.0
649856000,16,1720.0,1717.0,1691.0,1698.0,900.0,900.0,900.0,900.0,900.0,900.0,900.0,900.0,900.0,900.0,900.0,900.0
649956000,16,1722.0,1719.0,1691.0,1697.0,900.0,900.0,900.0,900.0,900.0,900.0,900.0,900.0,900.0,900.0,900.0,900.0
650056000,16,1728.0,1713.0,1692.0,1693.0,900.0,900.0,900.0,900.0,900.0,900.0,900.0,900.0,900.0,900.0,900.0,900.0
650152000,16,1724.0,1720.0,1691.0,1696.0,900.0,900.0,900.0,900.0,900.0,900.0,900.0,900.0,900.0,900.0,900.0,900.0
650256000,16,1718.0,1710.0,1697.0,1704.0,900.0,900.0,900.0,900.0,900.0,900.0,900.0,900.0,900.0,900.0,900.0,900.0
650356000,16,1711.0,1700.0,1712.0,1703.0,900.0,900.0,900.0,900.0,900.0,900.0,900.0,900.0,900.0,900.0,900.0,900.0
650456000,16,1699.0,1704.0,1711.0,1715.0,900.0,900.0,900.0,900.0,900.0,900.0,900.0,900.0,900.0,900.0,900.0,900.0
650556000,16,1705.0,1697.0,1712.0,1713.0,900.0,900.0,900.0,900.0,900.0,900.0,900.0,900.0,900.0,900.0,900.0,900.0
650652000,16,1704.0,1701.0,1710.0,1711.0,900.0,900.0,900.0,900.0,900.0,900.0,900.0,900.0,900.0,900.0,900.0,900.0
650756000,16,1708.0,1704.0,1710.0,1703.0,900.0,900.0,900.0,900.0,900.0,900.0,900.0,900.0,900.0,900.0,900.0,900.0
650856000,16,1718.0,1700.0,1702.0,1707.0,900.0,900.0,900.0,900.0,900.0,900.0,900.0,900.0,900.0,900.0,900.0,900.0
650956000,16,1715.0,1705.0,1705.0,1704.0,900.0,900.0,900.0,900.0,900.0,900.0,900.0,900.0,900.0,900.0,900.0,900.0
651056000,16,1711.0,1706.0,1706.0,1702.0,900.0,900.0,900.0,900.0,900.0,900.0,900.0,900.0,900.0,900.0,900.0,900.0
651156000,16,1714.0,1702.0,1711.0,1704.0,900.0,900.0,900.0,900.0,900.0,900.0,900.0,900.0,900.0,900.0,900.0,900.0
651256000,16,1712.0,1700.0,1717.0,1699.0,900.0,900.0,900.0,900.0,900.0,900.0,900.0,900.0,900.0,900.0,900.0,900.0
651352000,16,1701.0,1710.0,1708.0,1711.0,900.0,900.0,900.0,900.0,900.0,900.0,900.0,900.0,900.0,900.0,900.0,900.0
651456000,16,1690.0,1722.0,1689.0,1723.0,900.0,900.0,900.0,900.0,900.0,900.0,900.0,900.0,900.0,900.0,900.0,900.0
651556000,16,1716.0,1698.0,1704.0,1702.0,900.0,900.0,900.0,900.0,900.0,900.0,900.0,900.0,900.0,900.0,900.0,900.0
651656000,16,1713.0,1700.0,1705.0,1703.0,900.0,900.0,900.0,900.0,900.0,900.0,900.0,900.0,900.0,900.0,900.0,900.0
651756000,16,1717.0,1695.0,1716.0,1698.0,900.0,900.0,900.0,900.0,900.0,900.0,900.0,900.0,900.0,900.0,900.0,900.0
651856000,16,1708.0,1702.0,1711.0,1704.0,900.0,900.0,900.0,900.0,900.0,900.0,900.0,900.0,900.0,900.0,900.0,900.0
651956000,16,1705.0,1702.0,1707.0,1712.0,900.0,900.0,900.0,900.0,900.0,900.0,900.0,900.0,900.0,900.0,900.0,900.0
652056000,16,1691.0,1718.0,1694.0,1725.0,900.0,900.0,900.0,900.0,900.0,900.0,900.0,900.0,900.0,900.0,900.0,900.0
652156000,16,1714.0,1697.0,1710.0,1704.0,900.0,900.0,900.0,900.0,900.0,900.0,900.0,900.0,900.0,900.0,900.0,900.0
652256000,16,1715.0,1697.0,1709.0,1705.0,900.0,900.0,900.0,900.0,900.0,900.0,900.0,900.0,900.0,900.0,900.0,900.0
652356000,16,1715.0,1695.0,1716.0,1700.0,900.0,900.0,900.0,900.0,900.0,900.0,900.0,900.0,900.0,900.0,900.0,900.0
652456000,16,1707.0,1702.0,1717.0,1701.0,900.0,900.0,900.0,900.0,900.0,900.0,900.0,900.0,900.0,900.0,900.0,900.0
652556000,16,1707.0,1700.0,1716.0,1704.0,900.0,900.0,900.0,900.0,900.0,900.0,900.0,900.0,900.0,900.0,900.0,900.0
652656000,16,1689.0,1723.0,1696.0,1722.0,900.0,900.0,900.0,900.0,900.0,900.0,900.0,900.0,900.0,900.0,900.0,900.0
652756000,16,1710.0,1701.0,1706.0,1705.0,900.0,900.0,900.0,900.0,900.0,900.0,900.0,900.0,900.0,900.0,900.0,900.0
652856000,16,1714.0,1696.0,1712.0,1699.0,900.0,900.0,900.0,900.0,900.0,900.0,900.0,900.0,900.0,900.0,900.0,900.0
652956000,16,1713.0,1694.0,1710.0,1705.0,900.0,900.0,900.0,900.0,900.0,900.0,900.0,900.0,900.0,900.0,900.0,900.0
653056000,16,1711.0,1695.0,1710.0,1709.0,900.0,900.0,900.0,900.0,900.0,900.0,900.0,900.0,900.0,900.0,900.0,900.0
653156000,16,1702.0,1704.0,1714.0,1705.0,900.0,900.0,900.0,900.0,900.0,900.0,900.0,900.0,900.0,900.0,900.0,900.0
653256000,16,1705.0,1708.0,1707.0,1711.0,900.0,900.0,900.0,900.0,900.0,900.0,900.0,900.0,900.0,900.0,900.0,900.0
653356000,16,1707.0,1706.0,1709.0,1704.0,900.0,900.0,900.0,900.0,900.0,900.0,900.0,900.0,900.0,900.0,900.0,900.0
653456000,16,1706.0,1706.0,1712.0,1701.0,900.0,900.0,900.0,900.0,900.0,900.0,900.0,900.0,900.0,900.0,900.0,900.0
653556000,16,1714.0,1700.0,1700.0,1710.0,900.0,900.0,900.0,900.0,900.0,900.0,900.0,900.0,900.0,900.0,900.0,900.0
653652000,16,1712.0,1703.0,1711.0,1699.0,900.0,900.0,900.0,900.0,900.0,900.0,900.0,900.0,900.0,900.0,900.0,900.0
653756000,16,1698.0,1717.0,1701.0,1711.0,900.0,900.0,900.0,900.0,900.0,900.0,900.0,900.0,900.0,900.0,900.0,900.0
653856000,16,1709.0,1705.0,1704.0,1709.0,900.0,900.0,900.0,900.0,900.0,900.0,900.0,900.0,900.0,900.0,900.0,900.0
653956000,16,1712.0,1700.0,1719.0,1697.0,900.0,900.0,900.0,900.0,900.0,900.0,900.0,900.0,900.0,900.0,900.0,900.0
654056000,16,1712.0,1699.0,1716.0,1698.0,900.0,900.0,900.0,900.0,900.0,900.0,900.0,900.0,900.0,900.0,900.0,900.0
654156000,16,1712.0,1699.0,1711.0,1704.0,900.0,900.0,900.0,900.0,900.0,900.0,900.0,900.0,900.0,900.0,900.0,900.0
654256000,16,1705.0,1703.0,1714.0,1703.0,900.0,900.0,900.0,900.0,900.0,900.0,900.0,900.0,900.0,900.0,900.0,900.0
654356000,16,1704.0,1705.0,1708.0,1705.0,900.0,900.0,900.0,900.0,900.0,900.0,900.0,900.0,900.0,900.0,900.0,900.0
654456000,16,1710.0,1701.0,1703.0,1709.0,900.0,900.0,900.0,900.0,900.0,900.0,900.0,900.0,900.0,900.0,900.0,900.0
654556000,16,1707.0,1704.0,1716.0,1700.0,900.0,900.0,900.0,900.0,900.0,900.0,900.0,900.0,900.0,900.0,900.0,900.0
654656000,16,1721.0,1692.0,1720.0,1694.0,900.0,900.0,900.0,900.0,900.0,900.0,900.0,900.0,900.0,900.0,900.0,900.0
654756000,16,1706.0,1704.0,1706.0,1708.0,900.0,900.0,900.0,900.0,900.0,900.0,900.0,900.0,900.0,900.0,900.0,900.0
654856000,16,1700.0,1713.0,1705.0,1705.0,900.0,900.0,900.0,900.0,900.0,900.0,900.0,900.0,900.0,900.0,900.0,900.0
654956000,16,1702.0,1713.0,1699.0,1710.0,900.0,900.0,900.0,900.0,900.0,900.0,900.0,900.0,900.0,900.0,900.0,900.0
655056000,16,1701.0,1714.0,1701.0,1705.0,900.0,900.0,900.0,900.0,900.0,900.0,900.0,900.0,900.0,900.0,900.0,900.0
655156000,16,1705.0,1709.0,1704.0,1704.0,900.0,900.0,900.0,900.0,900.0,900.0,900.0,900.0,900.0,900.0,900.0,900.0
655256000,16,1712.0,1702.0,1702.0,1708.0,900.0,900.0,900.0,900.0,900.0,900.0,900.0,900.0,900.0,900.0,900.0,900.0
655356000,16,1706.0,1703.0,1710.0,1700.0,900.0,900.0,900.0,900.0,900.0,900.0,900.0,900.0,900.0,900.0,900.0,900.0
655456000,16,1706.0,1704.0,1704.0,1709.0,900.0,900.0,900.0,900.0,900.0,900.0,900.0,900.0,900.0,900.0,900.0,900.0
655556000,16,1712.0,1700.0,1709.0,1702.0,900.0,900.0,900.0,900.0,900.0,900.0,900.0,900.0,900.0,900.0,900.0,900.0
655656000,16,1708.0,1705.0,1707.0,1704.0,900.0,900.0,900.0,900.0,900.0,900.0,900.0,900.0,900.0,900.0,900.0,900.0
655756000,16,1705.0,1707.0,1702.0,1708.0,900.0,900.0,900.0,900.0,900.0,900.0,900.0,900.0,900.0,900.0,900.0,900.0
655856000,16,1709.0,1703.0,1708.0,1701.0,900.0,900.0,900.0,900.0,900.0,900.0,900.0,900.0,900.0,900.0,900.0,900.0
655956000,16,1713.0,1703.0,1706.0,1703.0,900.0,900.0,900.0,900.0,900.0,900.0,900.0,900.0,900.0,900.0,900.0,900.0
656056000,16,1707.0,1709.0,1710.0,1702.0,900.0,900.0,900.0,900.0,900.0,900.0,900.0,900.0,900.0,900.0,900.0,900.0
656156000,16,1709.0,1707.0,1704.0,1710.0,900.0,900.0,900.0,900.0,900.0,900.0,900.0,900.0,900.0,900.0,900.0,900.0
656256000,16,1709.0,1706.0,1711.0,1704.0,900.0,900.0,900.0,900.0,900.0,900.0,900.0,900.0,900.0,900.0,900.0,900.0
656356000,16,1710.0,1704.0,1705.0,1708.0,900.0,900.0,900.0,900.0,900.0,900.0,900.0,900.0,900.0,900.0,900.0,900.0
656456000,16,1709.0,1704.0,1706.0,1704.0,900.0,900.0,900.0,900.0,900.0,900.0,900.0,900.0,900.0,900.0,900.0,900.0
656556000,16,1709.0,1704.0,1707.0,1705.0,900.0,900.0,900.0,900.0,900.0,900.0,900.0,900.0,900.0,900.0,900.0,900.0
656656000,16,1710.0,1703.0,1709.0,1704.0,900.0,900.0,900.0,900.0,900.0,900.0,900.0,900.0,900.0,900.0,900.0,900.0
656756000,16,1708.0,1705.0,1710.0,1702.0,900.0,900.0,900.0,900.0,900.0,900.0,900.0,900.0,900.0,900.0,900.0,900.0
656856000,16,1706.0,1707.0,1707.0,1703.0,900.0,900.0,900.0,900.0,900.0,900.0,900.0,900.0,900.0,900.0,900.0,900.0
656952000,16,1706.0,1704.0,1710.0,1701.0,900.0,900.0,900.0,900.0,900.0,900.0,900.0,900.0,900.0,900.0,900.0,900.0
657052000,16,1705.0,1707.0,1705.0,1708.0,900.0,900.0,900.0,900.0,900.0,900.0,900.0,900.0,900.0,900.0,900.0,900.0
657156000,16,1707.0,1705.0,1707.0,1703.0,900.0,900.0,900.0,900.0,900.0,900.0,900.0,900.0,900.0,900.0,900.0,900.0
657256000,16,1707.0,1704.0,1708.0,1705.0,900.0,900.0,900.0,900.0,900.0,900.0,900.0,900.0,900.0,900.0,900.0,900.0
657356000,16,1709.0,1704.0,1708.0,1705.0,900.0,900.0,900.0,900.0,900.0,900.0,900.0,900.0,900.0,900.0,900.0,900.0
657456000,16,1707.0,1703.0,1709.0,1705.0,900.0,900.0,900.0,900.0,900.0,900.0,900.0,900.0,900.0,900.0,900.0,900.0
657556000,16,1710.0,1702.0,1709.0,1704.0,900.0,900.0,900.0,900.0,900.0,900.0,900.0,900.0,900.0,900.0,900.0,900.0
657656000,16,1707.0,1706.0,1708.0,1702.0,900.0,900.0,900.0,900.0,900.0,900.0,900.0,900.0,900.0,900.0,900.0,900.0
657756000,16,1710.0,1702.0,1710.0,1700.0,900.0,900.0,900.0,900.0,900.0,900.0,900.0,900.0,900.0,900.0,900.0,900.0
657856000,16,1707.0,1702.0,1706.0,1702.0,900.0,900.0,900.0,900.0,900.0,900.0,900.0,900.0,900.0,900.0,900.0,900.0
657956000,16,1707.0,1701.0,1708.0,1706.0,900.0,900.0,900.0,900.0,900.0,900.0,900.0,900.0,900.0,900.0,900.0,900.0
658056000,16,1706.0,1704.0,1707.0,1707.0,900.0,900.0,900.0,900.0,900.0,900.0,900.0,900.0,900.0,900.0,900.0,900.0
658156000,16,1711.0,1700.0,1705.0,1708.0,900.0,900.0,900.0,900.0,900.0,900.0,900.0,900.0,900.0,900.0,900.0,900.0
658256000,16,1708.0,1705.0,1708.0,1705.0,900.0,900.0,900.0,900.0,900.0,900.0,900.0,900.0,900.0,900.0,900.0,900.0
658356000,16,1709.0,1703.0,1708.0,1705.0,900.0,900.0,900.0,900.0,900.0,900.0,900.0,900.0,900.0,900.0,900.0,900.0
658456000,16,1709.0,1704.0,1709.0,1705.0,900.0,900.0,900.0,900.0,900.0,900.0,900.0,900.0,900.0,900.0,900.0,900.0
658556000,16,1704.0,1709.0,1704.0,1708.0,900.0,900.0,900.0,900.0,900.0,900.0,900.0,900.0,900.0,900.0,900.0,900.0
658656000,16,1707.0,1706.0,1706.0,1705.0,900.0,900.0,900.0,900.0,900.0,900.0,900.0,900.0,900.0,900.0,900.0,900.0
658752000,16,1709.0,1701.0,1708.0,1702.0,900.0,900.0,900.0,900.0,900.0,900.0,900.0,900.0,900.0,900.0,900.0,900.0
658856000,16,1704.0,1705.0,1710.0,1700.0,900.0,900.0,900.0,900.0,900.0,900.0,900.0,900.0,900.0,900.0,900.0,900.0
658956000,16,1710.0,1700.0,1707.0,1704.0,900.0,900.0,900.0,900.0,900.0,900.0,900.0,900.0,900.0,900.0,900.0,900.0
659056000,16,1690.0,1657.0,1694.0,1653.0,900.0,900.0,900.0,900.0,900.0,900.0,900.0,900.0,900.0,900.0,900.0,900.0
659156000,16,1685.0,1666.0,1684.0,1665.0,900.0,900.0,900.0,900.0,900.0,900.0,900.0,900.0,900.0,900.0,900.0,900.0
659256000,16,1698.0,1678.0,1692.0,1684.0,900.0,900.0,900.0,900.0,900.0,900.0,900.0,900.0,900.0,900.0,900.0,900.0
659352000,16,1683.0,1697.0,1686.0,1694.0,900.0,900.0,900.0,900.0,900.0,900.0,900.0,900.0,900.0,900.0,900.0,900.0
659452000,16,1699.0,1698.0,1700.0,1698.0,900.0,900.0,900.0,900.0,900.0,900.0,900.0,900.0,900.0,900.0,900.0,900.0
659556000,16,1712.0,1692.0,1711.0,1699.0,900.0,900.0,900.0,900.0,900.0,900.0,900.0,900.0,900.0,900.0,900.0,900.0
659656000,16,1715.0,1697.0,1719.0,1696.0,900.0,900.0,900.0,900.0,900.0,900.0,900.0,900.0,900.0,900.0,900.0,900.0
659756000,16,1692.0,1713.0,1697.0,1708.0,900.0,900.0,900.0,900.0,900.0,900.0,900.0,900.0,900.0,900.0,900.0,900.0
659856000,16,1670.0,1706.0,1673.0,1702.0,900.0,900.0,900.0,900.0,900.0,900.0,900.0,900.0,900.0,900.0,900.0,900.0
659956000,16,1655.0,1701.0,1658.0,1696.0,900.0,900.0,900.0,900.0,900.0,900.0,900.0,900.0,900.0,900.0,900.0,900.0
660052000,16,1689.0,1683.0,1689.0,1682.0,900.0,900.0,900.0,900.0,900.0,900.0,900.0,900.0,900.0,900.0,900.0,900.0
660156000,16,1669.0,1694.0,1670.0,1688.0,900.0,900.0,900.0,900.0,900.0,900.0,900.0,900.0,900.0,900.0,900.0,900.0
660256000,16,1700.0,1673.0,1692.0,1673.0,900.0,900.0,900.0,900.0,900.0,900.0,900.0,900.0,900.0,900.0,900.0,900.0
660356000,16,1686.0,1698.0,1687.0,1690.0,900.0,900.0,900.0,900.0,900.0,900.0,900.0,900.0,900.0,900.0,900.0,900.0
660456000,16,1736.0,1720.0,1737.0,1710.0,900.0,900.0,900.0,900.0,900.0,900.0,900.0,900.0,900.0,900.0,900.0,900.0
660552000,16,1739.0,1719.0,1734.0,1717.0,900.0,900.0,900.0,900.0,900.0,900.0,900.0,900.0,900.0,900.0,900.0,900.0
660656000,16,1749.0,1691.0,1745.0,1693.0,900.0,900.0,900.0,900.0,900.0,900.0,900.0,900.0,900.0,900.0,900.0,900.0
660756000,16,1740.0,1701.0,1740.0,1704.0,900.0,900.0,900.0,900.0,900.0,900.0,900.0,900.0,900.0,900.0,900.0,900.0
660852000,16,1738.0,1703.0,1736.0,1711.0,900.0,900.0,900.0,900.0,900.0,900.0,900.0,900.0,900.0,900.0,900.0,900.0
660952000,16,1732.0,1706.0,1735.0,1706.0,900.0,900.0,900.0,900.0,900.0,900.0,900.0,900.0,900.0,900.0,900.0,900.0
661056000,16,1716.0,1723.0,1715.0,1726.0,900.0,900.0,900.0,900.0,900.0,900.0,900.0,900.0,900.0,900.0,900.0,900.0
661156000,16,1725.0,1711.0,1728.0,1709.0,900.0,900.0,900.0,900.0,900.0,900.0,900.0,900.0,900.0,900.0,900.0,900.0
661252000,16,1714.0,1736.0,1715.0,1733.0,900.0,900.0,900.0,900.0,900.0,900.0,900.0,900.0,900.0,900.0,900.0,900.0
661352000,16,1729.0,1710.0,1725.0,1711.0,900.0,900.0,900.0,900.0,900.0,900.0,900.0,900.0,900.0,900.0,900.0,900.0
661456000,16,1709.0,1735.0,1708.0,1735.0,900.0,900.0,900.0,900.0,900.0,900.0,900.0,900.0,900.0,900.0,900.0,900.0
661556000,16,1727.0,1713.0,1726.0,1715.0,900.0,900.0,900.0,900.0,900.0,900.0,900.0,900.0,900.0,900.0,900.0,900.0
661656000,16,1724.0,1712.0,1727.0,1713.0,900.0,900.0,900.0,900.0,900.0,900.0,900.0,900.0,900.0,900.0,900.0,900.0
661756000,16,1716.0,1721.0,1721.0,1720.0,900.0,900.0,900.0,900.0,900.0,900.0,900.0,900.0,900.0,900.0,900.0,900.0
661856000,16,1725.0,1708.0,1723.0,1713.0,900.0,900.0,900.0,900.0,900.0,900.0,900.0,900.0,900.0,900.0,900.0,900.0
661956000,16,1722.0,1709.0,1728.0,1706.0,900.0,900.0,900.0,900.0,900.0,900.0,900.0,900.0,900.0,900.0,900.0,900.0
662056000,16,1705.0,1739.0,1708.0,1733.0,900.0,900.0,900.0,900.0,900.0,900.0,900.0,900.0,900.0,900.0,900.0,900.0
662156000,16,1722.0,1717.0,1724.0,1712.0,900.0,900.0,900.0,900.0,900.0,900.0,900.0,900.0,900.0,900.0,900.0,900.0
662256000,16,1721.0,1712.0,1726.0,1707.0,900.0,900.0,900.0,900.0,900.0,900.0,900.0,900.0,900.0,900.0,900.0,900.0
662352000,16,1721.0,1711.0,1722.0,1709.0,900.0,900.0,900.0,900.0,900.0,900.0,900.0,900.0,900.0,900.0,900.0,900.0
662452000,16,1716.0,1722.0,1719.0,1722.0,900.0,900.0,900.0,900.0,900.0,900.0,900.0,900.0,900.0,900.0,900.0,900.0
662556000,16,1713.0,1723.0,1717.0,1719.0,900.0,900.0,900.0,900.0,900.0,900.0,900.0,900.0,900.0,900.0,900.0,900.0
662656000,16,1712.0,1724.0,1716.0,1719.0,900.0,900.0,900.0,900.0,900.0,900.0,900.0,900.0,900.0,900.0,900.0,900.0
662756000,16,1716.0,1720.0,1715.0,1719.0,900.0,900.0,900.0,900.0,900.0,900.0,900.0,900.0,900.0,900.0,900.0,900.0
662856000,16,1720.0,1716.0,1720.0,1716.0,900.0,900.0,900.0,900.0,900.0,900.0,900.0,900.0,900.0,900.0,900.0,900.0
662956000,16,1717.0,1716.0,1725.0,1711.0,900.0,900.0,900.0,900.0,900.0,900.0,900.0,900.0,900.0,900.0,900.0,900.0
663056000,16,1716.0,1716.0,1716.0,1719.0,900.0,900.0,900.0,900.0,900.0,900.0,900.0,900.0,900.0,900.0,900.0,900.0
663156000,16,1716.0,1717.0,1717.0,1717.0,900.0,900.0,900.0,900.0,900.0,900.0,900.0,900.0,900.0,900.0,900.0,900.0
663256000,16,1722.0,1714.0,1722.0,1714.0,900.0,900.0,900.0,900.0,900.0,900.0,900.0,900.0,900.0,900.0,900.0,900.0
663356000,16,1433.0,1652.0,1402.0,1538.0,900.0,900.0,900.0,900.0,900.0,900.0,900.0,900.0,900.0,900.0,900.0,900.0
663456000,16,1424.0,1576.0,1375.0,1541.0,900.0,900.0,900.0,900.0,900.0,900.0,900.0,900.0,900.0,900.0,900.0,900.0
663556000,16,1388.0,1545.0,1338.0,1524.0,900.0,900.0,900.0,900.0,900.0,900.0,900.0,900.0,900.0,900.0,900.0,900.0
663656000,16,1346.0,1514.0,1289.0,1505.0,900.0,900.0,900.0,900.0,900.0,900.0,900.0,900.0,900.0,900.0,900.0,900.0
663756000,16,1310.0,1484.0,1254.0,1473.0,900.0,900.0,900.0,900.0,900.0,900.0,900.0,900.0,900.0,900.0,900.0,900.0
663856000,16,1088.0,1183.0,1045.0,1164.0,900.0,900.0,900.0,900.0,900.0,900.0,900.0,900.0,900.0,900.0,900.0,900.0
663956000,16,1079.0,1178.0,1055.0,1168.0,900.0,900.0,900.0,900.0,900.0,900.0,900.0,900.0,900.0,900.0,900.0,900.0
664056000,16,1084.0,1169.0,1056.0,1171.0,900.0,900.0,900.0,900.0,900.0,900.0,900.0,900.0,900.0,900.0,900.0,900.0
664156000,16,1085.0,1168.0,1060.0,1168.0,900.0,900.0,900.0,900.0,900.0,900.0,900.0,900.0,900.0,900.0,900.0,900.0
664256000,16,1084.0,1167.0,1057.0,1172.0,900.0,900.0,900.0,900.0,900.0,900.0,900.0,900.0,900.0,900.0,900.0,900.0
664356000,16,1085.0,1166.0,1056.0,1174.0,900.0,900.0,900.0,900.0,900.0,900.0,900.0,900.0,900.0,900.0,900.0,900.0
664456000,16,1094.0,1158.0,1052.0,1176.0,900.0,900.0,900.0,900.0,900.0,900.0,900.0,900.0,900.0,900.0,900.0,900.0
664556000,16,1000.0,1002.0,1000.0,1002.0,900.0,900.0,900.0,900.0,900.0,900.0,900.0,900.0,900.0,900.0,900.0,900.0
664656000,16,1000.0,1002.0,1000.0,1002.0,900.0,900.0,900.0,900.0,900.0,900.0,900.0,900.0,900.0,900.0,900.0,900.0
664756000,16,1000.0,1002.0,1000.0,1002.0,900.0,900.0,900.0,900.0,900.0,900.0,900.0,900.0,900.0,900.0,900.0,900.0
664852000,16,1000.0,1002.0,1000.0,1002.0,900.0,900.0,900.0,900.0,900.0,900.0,900.0,900.0,900.0,900.0,900.0,900.0
664956000,16,1000.0,1002.0,1000.0,1002.0,900.0,900.0,900.0,900.0,900.0,900.0,900.0,900.0,900.0,900.0,900.0,900.0
665056000,16,1000.0,1002.0,1000.0,1002.0,900.0,900.0,900.0,900.0,900.0,900.0,900.0,900.0,900.0,900.0,900.0,900.0
665156000,16,1000.0,1002.0,1000.0,1002.0,900.0,900.0,900.0,900.0,900.0,900.0,900.0,900.0,900.0,900.0,900.0,900.0
665256000,16,1000.0,1002.0,1000.0,1002.0,900.0,900.0,900.0,900.0,900.0,900.0,900.0,900.0,900.0,900.0,900.0,900.0
665356000,16,1000.0,1002.0,1000.0,1002.0,900.0,900.0,900.0,900.0,900.0,900.0,900.0,900.0,900.0,900.0,900.0,900.0
665456000,16,1000.0,1002.0,1000.0,1002.0,900.0,900.0,900.0,900.0,900.0,900.0,900.0,900.0,900.0,900.0,900.0,900.0
665556000,16,1000.0,1002.0,1000.0,1002.0,900.0,900.0,900.0,900.0,900.0,900.0,900.0,900.0,900.0,900.0,900.0,900.0
665656000,16,1000.0,1002.0,1000.0,1002.0,900.0,900.0,900.0,900.0,900.0,900.0,900.0,900.0,900.0,900.0,900.0,900.0
665756000,16,1000.0,1002.0,1000.0,1002.0,900.0,900.0,900.0,900.0,900.0,900.0,900.0,900.0,900.0,900.0,900.0,900.0
665856000,16,1000.0,1002.0,1000.0,1002.0,900.0,900.0,900.0,900.0,900.0,900.0,900.0,900.0,900.0,900.0,900.0,900.0
665956000,16,1000.0,1002.0,1000.0,1002.0,900.0,900.0,900.0,900.0,900.0,900.0,900.0,900.0,900.0,900.0,900.0,900.0
666056000,16,1000.0,1002.0,1000.0,1002.0,900.0,900.0,900.0,900.0,900.0,900.0,900.0,900.0,900.0,900.0,900.0,900.0
666156000,16,1000.0,1002.0,1000.0,1002.0,900.0,900.0,900.0,900.0,900.0,900.0,900.0,900.0,900.0,900.0,900.0,900.0
666256000,16,1000.0,1002.0,1000.0,1002.0,900.0,900.0,900.0,900.0,900.0,900.0,900.0,900.0,900.0,900.0,900.0,900.0
666356000,16,1000.0,1002.0,1000.0,1002.0,900.0,900.0,900.0,900.0,900.0,900.0,900.0,900.0,900.0,900.0,900.0,900.0
666456000,16,1000.0,1002.0,1000.0,1002.0,900.0,900.0,900.0,900.0,900.0,900.0,900.0,900.0,900.0,900.0,900.0,900.0
666556000,16,900.0,900.0,900.0,900.0,900.0,900.0,900.0,900.0,900.0,900.0,900.0,900.0,900.0,900.0,900.0,900.0
666656000,16,900.0,900.0,900.0,900.0,900.0,900.0,900.0,900.0,900.0,900.0,900.0,900.0,900.0,900.0,900.0,900.0
666756000,16,900.0,900.0,900.0,900.0,900.0,900.0,900.0,900.0,900.0,900.0,900.0,900.0,900.0,900.0,900.0,900.0
666856000,16,900.0,900.0,900.0,900.0,900.0,900.0,900.0,900.0,900.0,900.0,900.0,900.0,900.0,900.0,900.0,900.0
666956000,16,900.0,900.0,900.0,900.0,900.0,900.0,900.0,900.0,900.0,900.0,900.0,900.0,900.0,900.0,900.0,900.0
667056000,16,900.0,900.0,900.0,900.0,900.0,900.0,900.0,900.0,900.0,900.0,900.0,900.0,900.0,900.0,900.0,900.0
667156000,16,900.0,900.0,900.0,900.0,900.0,900.0,900.0,900.0,900.0,900.0,900.0,900.0,900.0,900.0,900.0,900.0
667256000,16,900.0,900.0,900.0,900.0,900.0,900.0,900.0,900.0,900.0,900.0,900.0,900.0,900.0,900.0,900.0,900.0
667356000,16,900.0,900.0,900.0,900.0,900.0,900.0,900.0,900.0,900.0,900.0,900.0,900.0,900.0,900.0,900.0,900.0
