timestamp,timestamp_sample,time_last_fuse,device_id,observation[0],observation[1],observation[2],observation_variance[0],observation_variance[1],observation_variance[2],innovation[0],innovation[1],innovation[2],innovation_filtered[0],innovation_filtered[1],innovation_filtered[2],innovation_variance[0],innovation_variance[1],innovation_variance[2],test_ratio[0],test_ratio[1],test_ratio[2],test_ratio_filtered[0],test_ratio_filtered[1],test_ratio_filtered[2],estimator_instance,innovation_rejected,fused
625208000,625056000,625056000,0,-0.03871943,-0.20927618,0.43269756,0.0025000002,0.0025000002,0.0025000002,0.0008332497,-0.0042363256,-0.003870517,0.0009567957,-0.0005887149,-0.00029286224,0.002511385,0.002504033,0.0025019485,3.0718114e-05,0.0007964965,0.0006659659,0.00015743914,-0.00016132361,0.00010582234,0,0,1
625280000,625127636,625128000,0,-0.040500175,-0.21583517,0.42788714,0.0025000002,0.0025000002,0.0025000002,0.0025045718,0.0023577064,0.00094509125,0.0011507592,-0.00021964146,-0.00013756362,0.0025112757,0.002503866,0.0025019054,0.00027754286,0.0002464004,3.97756e-05,0.00017249024,-0.00011022866,9.754553e-05,0,0,1
625352000,625200000,625200000,0,-0.04379369,-0.21706118,0.42970616,0.0025000002,0.0025000002,0.0025000002,0.005910522,0.0035098642,-0.0009023845,0.0017525362,0.00025149935,-0.00023397832,0.0025113036,0.0025039017,0.002501915,0.0015456456,0.00054572657,3.5984973e-05,0.00034609833,-2.7296213e-05,8.066327e-05,0,0,1
625424000,625270545,625272000,0,-0.035121154,-0.21115945,0.42962635,0.0025000002,0.0025000002,0.0025000002,-0.0027204545,-0.0024677813,-0.0008492172,0.0011994735,-8.455195e-05,-0.00031023182,0.0025113297,0.002503939,0.0025019248,0.00032744373,0.0002699303,3.2138647e-05,0.00026281827,-5.729669e-05,6.671588e-05,0,0,1
625496000,625340000,625344000,0,-0.040390242,-0.20645739,0.43266058,0.0025000002,0.0025000002,0.0025000002,0.002362316,-0.0072778612,-0.0039532185,0.0013413025,-0.0009620483,-0.0007549628,0.0025113514,0.0025039753,0.002501935,0.00024690278,0.002351139,0.0006952042,0.0002608771,-0.00033707087,-2.6213595e-05,0,0,1
625568000,625409600,625416000,0,-0.04000461,-0.21265829,0.42985877,0.0025000002,0.0025000002,0.0025000002,0.0020161632,-0.0012702793,-0.00124681,0.0014237644,-0.0009998329,-0.0008151106,0.0025113777,0.0025040114,0.0025019457,0.00017984437,7.17132e-05,6.908062e-05,0.00025097563,-0.00030464656,-3.145156e-05,0,0,1
625640000,625482000,625488000,0,-0.03405823,-0.2129454,0.43222642,0.0025000002,0.0025000002,0.0025000002,-0.003991022,-0.0010299087,-0.0036406815,0.0007388753,-0.0010033809,-0.001172612,0.0025112657,0.0025038447,0.0025019029,0.00070474664,4.688544e-05,0.0005889224,0.00013009112,-0.00027204366,-0.00010196325,0,0,1
625712000,625553600,625560000,0,-0.038870975,-0.21268478,0.4289843,0.0025000002,0.0025000002,0.0025000002,0.00096243364,-0.0012847334,-0.0003835261,0.0007668788,-0.0010386875,-0.0010738359,0.002511293,0.0025038808,0.0025019122,4.098281e-05,7.3301635e-05,6.550596e-06,0.0001189292,-0.00024714877,-9.001163e-05,0,0,1
625776000,625624000,625624000,0,-0.04234571,-0.21322508,0.42703414,0.0025000002,0.0025000002,0.0025000002,0.0042575556,-0.00060886145,0.0016170144,0.0011977056,-0.0009859095,-0.00074171356,0.0025113104,0.002503914,0.0025019199,0.00080200617,1.6569653e-05,0.000116135,0.00020323604,-0.0002186902,-6.4568565e-05,0,0,1
625848000,625691111,625696000,0,-0.03941779,-0.2144757,0.42938998,0.0025000002,0.0025000002,0.0025000002,0.0013275384,0.0007030517,-0.00070890784,0.0012130698,-0.00078612403,-0.0007377778,0.0025113327,0.0025039506,0.0025019287,7.797357e-05,2.1889406e-05,2.2289834e-05,0.00018841268,-0.0001902204,-5.956537e-05,0,0,1
625920000,625761333,625768000,0,-0.04147635,-0.21459448,0.43118042,0.0025000002,0.0025000002,0.0025000002,0.0032923697,0.00064995885,-0.002593279,0.0014691325,-0.0006094826,-0.0009661993,0.0025113586,0.0025039874,0.0025019392,0.0004795854,1.8647235e-05,0.00029851048,0.00022427017,-0.00016449866,-8.89911e-05,0,0,1
625984000,625829000,625832000,0,-0.037952494,-0.21160646,0.43030435,0.0025000002,0.0025000002,0.0025000002,-0.00021984725,-0.0023446977,-0.0017150044,0.0012678029,-0.0008163133,-0.001055606,0.0025113756,0.0025040205,0.0025019473,2.138395e-06,0.00024392779,0.00013080871,0.00019728184,-0.00017396676,-9.397584e-05,0,0,1
626056000,625901000,625904000,0,-0.038942326,-0.21206792,0.42682213,0.0025000002,0.0025000002,0.0025000002,0.0009800897,-0.0017198771,0.0018664896,0.0012315873,-0.0009301115,-0.0006878796,0.0025112638,0.002503853,0.002501903,4.2500764e-05,0.00013133962,0.00015459865,0.00017779891,-0.00016860111,-6.268675e-05,0,0,1
626128000,625973000,625976000,0,-0.04049418,-0.21439981,0.43045107,0.0025000002,0.0025000002,0.0025000002,0.0024347028,0.0005906075,-0.0017845631,0.0013830283,-0.00073885184,-0.0008258583,0.0025112901,0.0025038903,0.0025019126,0.00026227234,1.5412532e-05,0.00014135016,0.00018843194,-0.00014543855,-7.258844e-05,0,0,1
626192000,626040000,626040000,0,-0.03962143,-0.2117964,0.42855376,0.0025000002,0.0025000002,0.0025000002,0.0015886176,-0.0020082593,0.00012001395,0.001407322,-0.00088895066,-0.00071417534,0.0025113088,0.0025039217,0.0025019208,0.0001116596,0.00017911664,6.3185263e-07,0.00017936007,-0.00014941815,-6.3936306e-05,0,0,1
626264000,626111111,626112000,0,-0.03899524,-0.21107537,0.43035808,0.0025000002,0.0025000002,0.0025000002,0.0009329081,-0.002687633,-0.001666069,0.0013482511,-0.0011129689,-0.0008328511,0.0025113302,0.0025039588,0.0025019299,3.8506267e-05,0.0003206425,0.000123454,0.00016182187,-0.00017073788,-7.134706e-05,0,0,1
626336000,626182666,626184000,0,-0.039921302,-0.2118727,0.43004423,0.0025000002,0.0025000002,0.0025000002,0.002036288,-0.0017385185,-0.0012617707,0.0014343889,-0.0011914162,-0.0008866309,0.002511357,0.0025039965,0.0025019383,0.00018345412,0.0001342798,7.077687e-05,0.00016453008,-0.00016617357,-7.1275674e-05,0,0,1
626408000,626255111,626256000,0,-0.03956411,-0.21399966,0.42904893,0.0025000002,0.0025000002,0.0025000002,0.0016723383,0.00040982664,-0.00025704503,0.0014645023,-0.0009888823,-0.0008069066,0.0025113835,0.0025040344,0.0025019478,0.00012373505,7.4214213e-06,2.9256173e-06,0.00015936732,-0.0001442045,-6.2625724e-05,0,0,1
626480000,626322000,626328000,0,-0.03637387,-0.21346122,0.43258286,0.0025000002,0.0025000002,0.0025000002,-0.0015987767,-5.8561563e-06,-0.0037353337,0.0011030565,-0.0008727991,-0.0011524572,0.0025112699,0.0025038666,0.0025019038,0.000113094036,1.1402645e-09,0.00061969465,0.00012721875,-0.0001271895,-0.00012835603,0,0,1
626552000,626393600,626400000,0,-0.03830112,-0.21267521,0.42933026,0.0025000002,0.0025000002,0.0025000002,0.00039115007,-0.00082167983,-0.0004905164,0.0010138814,-0.0008664203,-0.0010695822,0.0025112964,0.0025039038,0.0025019133,6.7693404e-06,2.9974506e-05,1.06998095e-05,0.00011213097,-0.00011501212,-0.00011361812,0,0,1
626624000,626466000,626472000,0,-0.03825392,-0.21395028,0.4276762,0.0025000002,0.0025000002,0.0025000002,0.0005509739,0.0005261302,0.0012170076,0.00095533056,-0.00069032086,-0.0007803202,0.0025113241,0.0025039406,0.0025019222,1.3431262e-05,1.2269662e-05,6.581292e-05,9.964694e-05,-9.891288e-05,-9.092279e-05,0,0,1
626696000,626537600,626544000,0,-0.038047865,-0.21401994,0.4300345,0.0025000002,0.0025000002,0.0025000002,0.00039712572,0.00060902536,-0.0011306107,0.0008854085,-0.0005275853,-0.0008241568,0.002511346,0.0025039772,0.002501931,6.9776142e-06,1.6448594e-05,5.6735244e-05,8.8038956e-05,-8.446243e-05,-8.664037e-05,0,0,1
626768000,626610000,626616000,0,-0.036159012,-0.2082471,0.42501214,0.0025000002,0.0025000002,0.0025000002,-0.0013629156,-0.005092874,0.003942311,0.00060102926,-0.0011049376,-0.00022160419,0.0025113726,0.002504015,0.00250194,8.218343e-05,0.0011506085,0.00068928744,6.650838e-05,-0.0002193139,1.1502838e-05,0,0,1
626832000,626680000,626680000,0,-0.038819958,-0.21488126,0.42773876,0.0025000002,0.0025000002,0.0025000002,0.0014660256,0.0014925003,0.0011982322,0.0007072569,-0.00078605086,-4.714109e-05,0.002511254,0.002503841,0.002501896,9.509331e-05,9.874622e-05,6.384748e-05,7.001881e-05,-0.00018025388,1.7931128e-05,0,0,1
626904000,626748000,626752000,0,-0.036723383,-0.21195248,0.436468,0.0025000002,0.0025000002,0.0025000002,-0.0007900781,-0.0014980733,-0.007573426,0.0005279985,-0.0008712448,-0.0009482631,0.0025112762,0.0025038768,0.002501906,2.761869e-05,9.953533e-05,0.0025477426,5.8329817e-05,-0.00017059039,-0.00028922697,0,0,1
626976000,626818909,626824000,0,-0.038991373,-0.21325324,0.42631328,0.0025000002,0.0025000002,0.0025000002,0.0015949102,-5.0842762e-05,0.0026661456,0.00066051283,-0.00076944847,-0.0004993215,0.0025113034,0.0025039145,0.002501914,0.00011254618,1.1839362e-07,0.00031571984,6.506369e-05,-0.00014941713,-0.00021409034,0,0,1
627048000,626892000,626896000,0,-0.03241211,-0.21025938,0.4267416,0.0025000002,0.0025000002,0.0025000002,-0.0050066016,-0.0030338168,0.0022436082,-6.226078e-05,-0.0010579171,-0.00014973077,0.0025113265,0.0025039497,0.0025019234,0.0011090225,0.0004077379,0.00022318031,-8.4677165e-05,-0.0001823629,-0.00015832162,0,0,1
627120000,626962909,626968000,0,-0.03808037,-0.21221575,0.4298226,0.0025000002,0.0025000002,0.0025000002,0.00069051486,-0.0012745112,-0.0009377003,3.1236726e-05,-0.0010848618,-0.00024767139,0.0025113537,0.0025039848,0.0025019338,2.1095784e-05,7.211876e-05,3.90972e-05,-7.153978e-05,-0.00016867017,-0.0001435135,0,0,1
627192000,627036000,627040000,0,-0.037126373,-0.21534692,0.4282053,0.0025000002,0.0025000002,0.0025000002,-0.00026356563,0.0019159615,0.00070798397,-6.361839e-06,-0.0007021293,-0.0001256699,0.0025113807,0.002504022,0.0025019431,3.0734243e-06,0.00016290646,2.2318754e-05,-6.28077e-05,-0.00012638149,-0.00012236356,0,0,1
627264000,627107272,627112000,0,-0.038573474,-0.21409822,0.42929608,0.0025000002,0.0025000002,0.0025000002,0.001168079,0.0007593781,-0.00033807755,0.00014016162,-0.0005198738,-0.00015211578,0.0025112648,0.0025038542,0.0025018991,6.0368362e-05,2.5545163e-05,5.0629615e-06,-4.7440233e-05,-0.0001074271,-0.000107729116,0,0,1
627336000,627180000,627184000,0,-0.03784047,-0.21134737,0.4286297,0.0025000002,0.0025000002,0.0025000002,0.00038696744,-0.0020941198,0.00027421117,0.00017150231,-0.0007198067,-9.7974764e-05,0.0025112906,0.0025038908,0.00250191,6.6253583e-06,0.00019464034,3.3400322e-06,-4.05747e-05,-0.00011850189,-9.362497e-05,0,0,1
627408000,627251272,627256000,0,-0.03979162,-0.21351409,0.42706135,0.0025000002,0.0025000002,0.0025000002,0.0023131678,4.5195222e-05,0.0018256009,0.00043869688,-0.00062452594,0.00014201537,0.0025113178,0.002503932,0.0025019203,0.00023673913,8.553637e-08,0.00014801743,-5.9769773e-06,-0.0001037069,-6.347762e-05,0,0,1
627480000,627324000,627328000,0,-0.04004182,-0.21767743,0.42544004,0.0025000002,0.0025000002,0.0025000002,0.0025679362,0.0042308867,0.0034575462,0.00070907886,-8.137373e-06,0.000563036,0.002511347,0.002503972,0.0025019303,0.00029175563,0.0007937875,0.0005308999,3.1830667e-05,1.0261632e-05,1.1999546e-05,0,0,1
627552000,627394909,627400000,0,-0.0392464,-0.21495561,0.428593,0.0025000002,0.0025000002,0.0025000002,0.0017897361,0.0014051348,0.000254035,0.0008433005,0.0001672782,0.0005246533,0.002511377,0.002504011,0.0025019413,0.00014171754,8.7492226e-05,2.865283e-06,4.547902e-05,1.9853956e-05,1.08650365e-05,0,0,1
627624000,627468000,627472000,0,-0.033997927,-0.21467598,0.4276832,0.0025000002,0.0025000002,0.0025000002,-0.0035105576,0.0011073053,0.0011520386,0.00028801727,0.00028740213,0.0006046706,0.0025112666,0.0025038468,0.0025018994,0.0005452766,5.459161e-05,5.8942984e-05,-2.9864896e-05,2.4284334e-05,1.6996812e-05,0,0,1
627696000,627538909,627544000,0,-0.03691256,-0.21282244,0.42851776,0.0025000002,0.0025000002,0.0025000002,-0.0005112684,-0.00058086216,0.00040575862,0.00018874306,0.00017959831,0.00057996524,0.0025112964,0.0025038864,0.0025019082,1.1565314e-05,1.4956626e-05,7.311826e-06,-2.7592021e-05,1.9410463e-05,1.5793901e-05,0,0,1
627768000,627612000,627616000,0,-0.03534327,-0.21024758,0.42653775,0.0025000002,0.0025000002,0.0025000002,-0.0021158652,-0.0030587018,0.002430886,-0.00010518255,-0.000233269,0.0008160332,0.0025113244,0.0025039276,0.002501918,0.00019807548,0.0004148575,0.00026243826,-4.9335176e-05,-3.597529e-05,4.7250483e-05,0,0,1
627840000,627683636,627688000,0,-0.035559162,-0.21181859,0.42831177,0.0025000002,0.0025000002,0.0025000002,-0.0019498416,-0.0015009046,0.00064381957,-0.0003363506,-0.00039199213,0.0007944508,0.0025113518,0.0025039683,0.0025019285,0.00016820875,9.98198e-05,1.8407727e-05,-6.423212e-05,-4.3976124e-05,4.363598e-05,0,0,1
627912000,627756000,627760000,0,-0.033260934,-0.21852076,0.41768765,0.0025000002,0.0025000002,0.0025000002,-0.0042419103,0.0051897466,0.011262655,-0.00083013077,0.0003139834,0.0021179314,0.002511381,0.002504008,0.0025019387,0.0007961005,0.0011961325,0.0056331754,-0.00015676228,0.00011281087,0.00075032166,0,0,1
627984000,627826909,627832000,0,-0.03653116,-0.2111505,0.42851025,0.0025000002,0.0025000002,0.0025000002,-0.0009927786,-0.002075836,0.00048452616,-0.0008503322,1.7221726e-05,0.0019150566,0.0025114093,0.002504049,0.0025019483,4.360585e-05,0.0001911126,1.0425964e-05,-0.00014270784,7.506246e-05,0.0006584239,0,0,1
628048000,627896000,627896000,0,-0.03699273,-0.21698679,0.42936835,0.0025000002,0.0025000002,0.0025000002,-0.0004414012,0.003861159,-0.0003168285,-0.00080068555,0.00048392333,0.001644084,0.00251129,0.0025038808,0.0025019036,8.620405e-06,0.0006616456,4.4599587e-06,-0.00012642883,0.0001462771,0.00057794584,0,0,1
628120000,627966000,627968000,0,-0.038739447,-0.21283789,0.42883036,0.0025000002,0.0025000002,0.0025000002,0.001348654,-0.0004069507,0.00016635656,-0.00053673156,0.00037442977,0.0014626111,0.0025113195,0.0025039192,0.0025019145,8.04742e-05,7.3747656e-06,1.2293327e-06,-0.00010101969,0.00012740758,0.00050712103,0,0,1
628192000,628038000,628040000,0,-0.036616765,-0.21598613,0.43277895,0.0025000002,0.0025000002,0.0025000002,-0.00096330943,0.00269112,-0.003822893,-0.0005904267,0.00066610065,0.0007972994,0.0025113474,0.0025039592,0.0025019255,4.1056537e-05,0.00032147628,0.00064904365,-9.347188e-05,0.0001518358,0.00036158983,0,0,1
628264000,628108800,628112000,0,-0.038137477,-0.21248992,0.42753908,0.0025000002,0.0025000002,0.0025000002,0.00055875274,-0.00082565844,0.0014090836,-0.00044788653,0.00048102898,0.00087318564,0.002511377,0.0025039986,0.002501936,1.3812903e-05,3.0273057e-05,8.8179666e-05,-8.016465e-05,0.00012924767,0.000327677,0,0,1
628328000,628176000,628176000,0,-0.040521834,-0.21087955,0.4359599,0.0025000002,0.0025000002,0.0025000002,0.0031312923,-0.0025160164,-0.0070369244,-2.3837143e-05,0.00012575128,-6.3970045e-05,0.0025113982,0.0025040335,0.002501945,0.00043379958,0.00028126762,0.0021990591,-1.9271854e-05,8.0611164e-05,2.831759e-05,0,0,1
628400000,628246909,628248000,0,-0.037642993,-0.21309894,0.4287585,0.0025000002,0.0025000002,0.0025000002,0.0002894366,-0.00028018653,0.00017976761,1.5072608e-05,7.531037e-05,-3.369554e-05,0.0025114259,0.002504075,0.002501955,3.7063296e-06,3.4878026e-06,1.4353402e-06,-1.641788e-05,7.016576e-05,2.4978715e-05,0,0,1
628472000,628316000,628320000,0,-0.035687216,-0.21210995,0.42946145,0.0025000002,0.0025000002,0.0025000002,-0.0017524546,-0.0011043847,-0.00044834614,-0.00019951559,-6.780027e-05,-8.403341e-05,0.002511314,0.0025039108,0.0025019117,0.00013587828,5.4032866e-05,8.9261075e-06,-3.0921074e-05,5.508732e-05,2.086247e-05,0,0,1
628544000,628384800,628392000,0,-0.039527766,-0.21293421,0.4295261,0.0025000002,0.0025000002,0.0025000002,0.002091304,-0.00033037364,-0.0005387664,7.757371e-05,-9.969511e-05,-0.0001390431,0.002511342,0.0025039518,0.0025019222,0.00019350222,4.876069e-06,1.2893643e-05,-3.77564e-06,4.7834365e-05,1.6779451e-05,0,0,1
628608000,628452000,628456000,0,-0.03893171,-0.20831002,0.4238146,0.0025000002,0.0025000002,0.0025000002,0.0013929436,-0.004797265,0.0052423775,0.00023341442,-0.00065633334,0.0004985393,0.0025113614,0.0025039883,0.0025019306,8.584506e-05,0.0010215114,0.0012205394,6.842327e-06,-7.885822e-05,0.000159397,0,0,1
628680000,628524000,628528000,0,-0.037079066,-0.2101177,0.4296149,0.0025000002,0.0025000002,0.0025000002,-0.0007278337,-0.002982393,-0.00058087707,0.000112418165,-0.00094907626,0.00036267418,0.0025113889,0.0025040295,0.0025019413,2.3437315e-05,0.0003945819,1.4982492e-05,3.0309038e-06,-0.00011859966,0.00013744713,0,0,1
628752000,628596000,628600000,0,-0.03970673,-0.21194103,0.42895696,0.0025000002,0.0025000002,0.0025000002,0.0021629347,-0.00092962384,0.00021228194,0.00037052514,-0.0009467784,0.00034374918,0.0025114184,0.0025040712,0.0025019494,0.0002069785,3.8445287e-05,2.0020914e-06,2.8702627e-05,-0.0001085103,0.00012039811,0,0,1
628824000,628666181,628672000,0,-0.03817919,-0.21248977,0.42713475,0.0025000002,0.0025000002,0.0025000002,0.0006257191,-0.00030596554,0.0020709634,0.0004019358,-0.00086794974,0.00055634143,0.0025113067,0.002503905,0.0025019064,1.7322738e-05,4.164345e-06,0.00019046797,2.7301929e-05,-9.566683e-05,0.0001290227,0,0,1
628896000,628740000,628744000,0,-0.03989552,-0.2112881,0.43511334,0.0025000002,0.0025000002,0.0025000002,0.0024130188,-0.00167045,-0.0059837997,0.00066065177,-0.00097135187,-0.00028501352,0.0025113358,0.0025039439,0.0025019175,0.00025761678,0.00012401208,0.0015901432,5.6930803e-05,-9.931331e-05,-9.2139555e-05,0,0,1
628968000,628812000,628816000,0,-0.040306613,-0.21242899,0.4290717,0.0025000002,0.0025000002,0.0025000002,0.0028077224,-0.00039368868,0.00012645125,0.0009309124,-0.0008988294,-0.00023321451,0.0025113632,0.002503986,0.002501927,0.0003487838,6.930456e-06,7.1067353e-07,9.3667535e-05,-8.76847e-05,-8.045211e-05,0,0,1
629040000,628884000,628888000,0,-0.04614632,-0.207796,0.42363793,0.0025000002,0.0025000002,0.0025000002,0.00856137,-0.0049459487,0.005591154,0.0018913895,-0.0014088367,0.00049993204,0.0025113919,0.0025040274,0.002501937,0.00324287,0.0010874916,0.0013883391,0.00049007067,-0.00021353451,0.000104430685,0,0,1
629112000,628956000,628960000,0,-0.03731651,-0.21276058,0.428555,0.0025000002,0.0025000002,0.0025000002,-0.0002901951,-0.00015980005,0.0005824268,0.0016167845,-0.0012515961,0.0005103173,0.0025114203,0.002504067,0.0025019483,3.7257892e-06,1.130931e-06,1.5065268e-05,0.00042791446,-0.0001867984,9.3181894e-05,0,0,1
629184000,629028000,629032000,0,-0.03701177,-0.21260601,0.42754444,0.0025000002,0.0025000002,0.0025000002,-0.00059972197,-0.00015538931,0.001671046,0.0013377836,-0.0011135733,0.0006564211,0.002511449,0.0025041087,0.0025019578,1.5912303e-05,1.0671397e-06,0.00012400716,0.00037204815,-0.00016341964,9.7061995e-05,0,0,1
629256000,629098909,629104000,0,-0.038702235,-0.21408193,0.42975098,0.0025000002,0.0025000002,0.0025000002,0.0008974583,0.0014884919,-0.00047048926,0.0012830936,-0.0007904504,0.0005164532,0.0025113358,0.0025039418,0.0025019143,3.563537e-05,9.824929e-05,9.831203e-06,0.00033026445,-0.00013091939,8.378547e-05,0,0,1
629328000,629172000,629176000,0,-0.043760214,-0.2136433,0.42356643,0.0025000002,0.0025000002,0.0025000002,0.005771924,0.0012616962,0.0058021843,0.001855591,-0.0005291194,0.0011905888,0.0025113637,0.002503984,0.0025019231,0.0014739714,7.0290196e-05,0.0014950992,0.00047613078,-0.00010525748,0.00026378187,0,0,1
629400000,629243272,629248000,0,-0.03723674,-0.2126892,0.4298618,0.0025000002,0.0025000002,0.0025000002,-0.00091874535,0.0004066229,-0.00045964122,0.0015094642,-0.00041231606,0.0009847117,0.0025113912,0.0025040263,0.0025019331,3.7345086e-05,7.3540773e-06,9.38061e-06,0.00041206944,-9.120804e-05,0.00022970207,0,0,1
629472000,629316000,629320000,0,-0.04909642,-0.2124573,0.4267548,0.0025000002,0.0025000002,0.0025000002,0.010998702,0.00019209087,0.002658099,0.0027144572,-0.00033631735,0.001197221,0.0025114196,0.0025040673,0.0025019431,0.0053520612,1.5378885e-06,0.00031380364,0.0010393756,-7.9430676e-05,0.00024038172,0,0,1
629544000,629387636,629392000,0,-0.038415868,-0.21282408,0.43004116,0.0025000002,0.0025000002,0.0025000002,2.2654713e-05,0.0006248355,-0.00061944127,0.0023771273,-0.00021586928,0.0009695628,0.0025114466,0.0025041106,0.0025019536,2.2706523e-08,1.7322955e-05,1.7039736e-05,0.0009091265,-6.730575e-05,0.0002081223,0,0,1
629616000,629460000,629464000,0,-0.037759125,-0.2155876,0.4383687,0.0025000002,0.0025000002,0.0025000002,-0.00057078723,0.003379643,-0.008945018,0.0020044222,0.00023874539,-0.00028394605,0.0025114752,0.002504152,0.002501964,1.4413753e-05,0.00050688244,0.0035534066,0.00079236325,5.2888936e-06,-0.000267448,0,0,1
629688000,629530909,629536000,0,-0.039203703,-0.2126054,0.43020296,0.0025000002,0.0025000002,0.0025000002,0.00091134454,0.00030392408,-0.0008171201,0.001868658,0.00024678174,-0.00035016437,0.0025113604,0.0025039818,0.0025019213,3.6746304e-05,4.0859773e-06,2.9649847e-05,0.0006985128,5.139487e-06,-0.00023791258,0,0,1
629760000,629604000,629608000,0,-0.032385234,-0.21321774,0.42554587,0.0025000002,0.0025000002,0.0025000002,-0.0057564783,0.00095008314,0.003872335,0.0008961618,0.00033687527,0.00018834986,0.00251139,0.0025040216,0.002501931,0.001466078,4.031573e-05,0.0006658867,0.0004224448,9.625802e-06,-0.00012264364,0,0,1
629832000,629675272,629680000,0,-0.038624473,-0.21497047,0.42993036,0.0025000002,0.0025000002,0.0025000002,0.0003435798,0.0027438551,-0.0005078316,0.00082722155,0.0006371456,0.00010149039,0.0025114177,0.002504064,0.0025019413,5.222684e-06,0.00033401896,1.1454369e-05,0.0003703921,5.009715e-05,-0.00010877165,0,0,1
629904000,629748000,629752000,0,-0.03623922,-0.21265034,0.43113172,0.0025000002,0.0025000002,0.0025000002,-0.0022720199,0.000541687,-0.0016696155,0.00043366366,0.0006251816,-0.00012341636,0.0025114447,0.002504107,0.0025019513,0.00022838001,1.3079523e-05,0.00012380027,0.0002943569,4.539646e-05,-0.00011068006,0,0,1
629976000,629818909,629824000,0,-0.037439153,-0.21407904,0.430798,0.0025000002,0.0025000002,0.0025000002,-0.0012105338,0.0020139217,-0.0013259649,0.0002294483,0.00079774926,-0.00027278386,0.0025114722,0.0025041495,0.0025019615,6.483104e-05,0.00018007927,7.808641e-05,0.00024974442,6.2124556e-05,-0.00010663181,0,0,1
630048000,629892000,629896000,0,-0.03914229,-0.21932931,0.43472263,0.0025000002,0.0025000002,0.0025000002,0.0005149421,0.0072472543,-0.005256206,0.00026585965,0.0016202726,-0.0009083682,0.002511356,0.0025039783,0.0025019182,1.1731837e-05,0.0023304564,0.0012269845,0.00021938872,0.0003514235,-0.0002495196,0,0,1
630120000,629963272,629968000,0,-0.038301844,-0.21441314,0.42978826,0.0025000002,0.0025000002,0.0025000002,-0.00030893146,0.0023145378,-0.00032371283,0.0001941486,0.0017069104,-0.00083543704,0.0025113844,0.0025040193,0.0025019282,4.222489e-06,0.00023774533,4.6561668e-06,0.00019149095,0.000337241,-0.0002189704,0,0,1
630192000,630036000,630040000,0,-0.041889094,-0.21422581,0.4239539,0.0025000002,0.0025000002,0.0025000002,0.004931999,0.0018780231,0.0055303276,0.0007957857,0.001728294,-2.708676e-05,0.0025114163,0.0025040577,0.002501938,0.0010761796,0.00015604739,0.001358229,0.00030383334,0.0003142321,-1.868936e-05,0,0,1
630264000,630107636,630112000,0,-0.033929165,-0.21395862,0.42822662,0.0025000002,0.0025000002,0.0025000002,-0.00077683106,0.00088760257,0.0010840595,0.0005987093,0.0016229918,0.00011215234,0.0025114527,0.0025040947,0.002501951,2.6698426e-05,3.498991e-05,5.2184365e-05,0.00026241192,0.0002792382,-9.807642e-06,0,0,1
630328000,630176000,630176000,0,-0.03800634,-0.20547539,0.42917678,0.0025000002,0.0025000002,0.0025000002,0.004677888,-0.008111745,-1.6719103e-05,0.0010893614,0.0004517677,9.6640055e-05,0.0025114797,0.0025041283,0.0025019625,0.00096811616,0.0029214947,1.2554336e-08,0.00034729548,-0.00010575258,-8.6294685e-06,0,0,1
630400000,630245200,630248000,0,-0.032217015,-0.21482001,0.42938772,0.0025000002,0.0025000002,0.0025000002,-0.00014978851,0.0007034391,-0.00041943789,0.0009387128,0.0004823772,3.3893208e-05,0.0025115144,0.0025041667,0.002501976,9.926105e-07,2.1962249e-05,7.814422e-06,0.00030495267,-9.022576e-05,-8.53038e-06,0,0,1
630464000,630312000,630312000,0,-0.034468547,-0.21030666,0.42752138,0.0025000002,0.0025000002,0.0025000002,0.0019399296,-0.0039985925,0.0013405979,0.0010567108,-4.5851746e-05,0.0001878893,0.0025113844,0.002503986,0.0025019308,0.00016650076,0.0007098588,7.980888e-05,0.00028863546,-0.00016325238,1.8808105e-06,0,0,1
630536000,630383636,630384000,0,-0.035573788,-0.21616225,0.42806375,0.0025000002,0.0025000002,0.0025000002,0.0026030329,0.0014976561,0.0005837381,0.0012504921,0.00014739438,0.0002374776,0.0025114105,0.0025040251,0.002501943,0.00029977754,9.9334095e-05,1.5125047e-05,0.00029003175,-0.0001303457,3.540545e-06,0,0,1
630608000,630456000,630456000,0,-0.03400452,-0.21181491,0.42556444,0.0025000002,0.0025000002,0.0025000002,0.00017232861,-0.0031328946,0.002875954,0.0011141798,-0.000267344,0.00057106256,0.0025114345,0.0025040652,0.0025019557,1.313864e-06,0.00043554002,0.0003673223,0.00025352914,-0.00016893144,4.9533493e-05,0,0,1
630680000,630527272,630528000,0,-0.034817446,-0.21454829,0.42875373,0.0025000002,0.0025000002,0.0025000002,-9.274518e-06,-0.00039836764,-0.00039339066,0.0009740175,-0.0002836927,0.00045073708,0.0025114594,0.0025041054,0.002501967,3.80552e-09,7.04224e-06,6.8726813e-06,0.00022189833,-0.0001487341,4.249625e-05,0,0,1
630752000,630600000,630600000,0,-0.03631499,-0.21642962,0.4344007,0.0025000002,0.0025000002,0.0025000002,0.0004309389,0.0013831705,-0.006176263,0.0009050545,-7.205887e-05,-0.0003907953,0.0025114852,0.0025041448,0.002501979,8.2159595e-06,8.485653e-05,0.0016940518,0.00019476382,-0.00011907154,-0.00017801972,0,0,1
630824000,630671272,630672000,0,-0.0351758,-0.21836138,0.42837676,0.0025000002,0.0025000002,0.0025000002,-0.0015207621,0.003169492,-0.0002888739,0.0006024092,0.00033245952,-0.0003780814,0.0025113628,0.0025039609,0.002501933,0.000102322374,0.00044599813,3.7063216e-06,0.0001576993,-4.8573347e-05,-0.00015627235,0,0,1
630896000,630744000,630744000,0,-0.042850282,-0.21579045,0.43403056,0.0025000002,0.0025000002,0.0025000002,0.0054608937,0.0006044209,-0.005999714,0.001219365,0.00036661446,-0.0010919524,0.0025113905,0.0025040007,0.0025019438,0.0013193825,1.6050519e-05,0.0015986328,0.0003052159,-4.036707e-05,-0.00033943082,0,0,1
630968000,630814909,630816000,0,-0.036727015,-0.21504901,0.4268005,0.0025000002,0.0025000002,0.0025000002,-0.0013247579,3.8012862e-05,0.0012660623,0.00090337556,0.00032589014,-0.0007990812,0.0025114182,0.0025040426,0.0025019546,7.764465e-05,6.656314e-08,7.118238e-05,0.0002576632,-3.5345063e-05,-0.00028843115,0,0,1
631040000,630884000,630888000,0,-0.03927271,-0.22522758,0.42583328,0.0025000002,0.0025000002,0.0025000002,0.0008703211,0.010229647,0.002207756,0.00089936255,0.0015282031,-0.00043404728,0.0025114473,0.0025040836,0.002501965,3.351139e-05,0.004642875,0.00021643806,0.00023044985,0.0005326184,-0.00022713706,0,0,1
631112000,630952800,630960000,0,-0.03608768,-0.21523428,0.4256238,0.0025000002,0.0025000002,0.0025000002,-0.0022146236,2.2530556e-05,0.0023210645,0.00052270596,0.0013462238,-0.0001007925,0.0025114769,0.0025041231,0.0025019774,0.00021698423,2.4921524e-08,0.00023925897,0.00017632984,0.00046819777,-0.00017072348,0,0,1
631176000,631020000,631024000,0,-0.040867,-0.22129823,0.4277146,0.0025000002,0.0025000002,0.0025000002,0.0026061102,0.0063070953,0.00034210086,0.0007695409,0.0019338059,-4.8327372e-05,0.0025114974,0.0025041602,0.0025019853,0.00030047636,0.001764255,5.195435e-06,0.00019103831,0.00062175037,-0.00014988118,0,0,1
631248000,631090909,631096000,0,-0.037505925,-0.21622634,0.42653865,0.0025000002,0.0025000002,0.0025000002,-0.0007131242,0.0013407767,0.0015771389,0.00058538845,0.0018601927,0.00015356042,0.002511377,0.0025039772,0.0025019364,2.2499657e-05,7.981155e-05,0.00011046286,0.00016451611,0.00055443955,-0.00011754549,0,0,1
631320000,631164000,631168000,0,-0.038018614,-0.2157371,0.42961383,0.0025000002,0.0025000002,0.0025000002,-5.7322148e-05,0.0010086596,-0.0014074147,0.00050341827,0.0017515926,-4.5530818e-05,0.0025114066,0.0025040172,0.0025019457,1.4537355e-07,4.5146997e-05,8.7974935e-05,0.00014351548,0.0004894853,-0.00011377411,0,0,1
631392000,631234909,631240000,0,-0.037182823,-0.21496415,0.42798576,0.0025000002,0.0025000002,0.0025000002,-0.0006961865,0.00029417872,0.0002683103,0.00035442295,0.0015706229,-6.5564855e-06,0.0025114366,0.0025040577,0.002501956,2.1443046e-05,3.8498197e-06,3.1959428e-06,0.00012302703,0.00042916756,-9.9246e-05,0,0,1
631456000,631304000,631304000,0,-0.04059925,-0.21334578,0.42683974,0.0025000002,0.0025000002,0.0025000002,0.0026583401,-0.0011294484,0.0015053451,0.00063413207,0.001242642,0.00017699883,0.0025114568,0.0025040943,0.0025019639,0.000312646,5.6748693e-05,0.00010063661,0.00014604788,0.00037017447,-7.497907e-05,0,0,1
631528000,631373200,631376000,0,-0.03989659,-0.21639405,0.42705473,0.0025000002,0.0025000002,0.0025000002,0.0016038932,0.0021684319,0.0013836026,0.00075202994,0.001355091,0.00032368698,0.002511485,0.0025041366,0.0025019734,0.000113809314,0.00020847356,8.5011656e-05,0.0001421285,0.00035051582,-5.5528333e-05,0,0,1
631592000,631440000,631440000,0,-0.036202915,-0.21513855,0.4306396,0.0025000002,0.0025000002,0.0025000002,-0.002392007,0.0009340942,-0.0022162795,0.00038149065,0.0013056279,2.4325564e-05,0.002511504,0.002504174,0.0025019832,0.00025313284,3.8822403e-05,0.00021815787,9.5545125e-05,0.00031378132,-7.469497e-05,0,0,1
631664000,631511636,631512000,0,-0.03747951,-0.21521108,0.42589372,0.0025000002,0.0025000002,0.0025000002,-0.0010766871,0.0011700392,0.0026153922,0.00019875546,0.0012887117,0.00034903453,0.002511386,0.0025039918,0.0025019345,5.128886e-05,6.0809587e-05,0.00030378276,7.714426e-05,0.00028207953,-2.726509e-05,0,0,1
631736000,631580000,631584000,0,-0.026952386,-0.21357462,0.42504448,0.0025000002,0.0025000002,0.0025000002,-0.01165153,-0.00037388504,0.003508389,-0.0012266214,0.0010894923,0.00072903675,0.0025114159,0.0025040314,0.0025019443,0.006006269,5.9946715e-06,0.0005466027,-0.00065458124,0.00024742936,4.1760915e-05,0,0,1
631808000,631649200,631656000,0,-0.038644493,-0.21517165,0.42810732,0.0025000002,0.0025000002,0.0025000002,0.00031409325,0.0012673587,0.00048595667,-0.0010393104,0.001111091,0.0006994841,0.0025114452,0.0025040722,0.0025019543,4.364666e-06,7.124707e-05,1.04873825e-05,-0.00057447044,0.00022601015,3.7958864e-05,0,0,1
631872000,631716000,631720000,0,-0.038695842,-0.2157671,0.4260712,0.0025000002,0.0025000002,0.0025000002,0.00035195018,0.001984492,0.0025815368,-0.00087534386,0.001214005,0.0009212947,0.0025114643,0.0025041096,0.002501963,5.4801553e-06,0.00017471383,0.00029596404,-0.0005061206,0.00021996464,6.836596e-05,0,0,1
631944000,631787272,631792000,0,-0.038721986,-0.21198106,0.4280239,0.0025000002,0.0025000002,0.0025000002,0.00056808244,-0.0016480684,0.0007210672,-0.00069526176,0.0008568921,0.00089631625,0.0025114934,0.0025041518,0.0025019723,1.4277369e-05,0.000120563804,2.3091165e-05,-0.00044119568,0.00017748025,6.271747e-05,0,0,1
632016000,631860000,631864000,0,-0.04340862,-0.2083985,0.4284945,0.0025000002,0.0025000002,0.0025000002,0.0053288885,-0.0052283257,0.00025597215,6.971636e-05,8.379057e-05,0.0008150119,0.002511524,0.0025041918,0.002501983,0.0012563003,0.0012142196,2.9115445e-06,-0.00022563875,7.549097e-07,5.5122997e-05,0,0,1
632088000,631930909,631936000,0,-0.037377857,-0.21240513,0.42781428,0.0025000002,0.0025000002,0.0025000002,-0.000380331,-0.0010637343,0.0010430813,1.38188225e-05,-5.871734e-05,0.00084334746,0.0025114063,0.002504011,0.0025019343,6.3997645e-06,5.0195325e-05,4.832535e-05,-0.00019840847,-5.573297e-06,5.4278706e-05,0,0,1
632160000,632004000,632008000,0,-0.043319523,-0.21277921,0.42605436,0.0025000002,0.0025000002,0.0025000002,0.0053634513,-0.0004517138,0.0029017031,0.00069610134,-0.00010921003,0.0011058624,0.0025114345,0.002504053,0.0025019438,0.0012726949,9.170868e-06,0.0003739181,-1.0786578e-05,-6.032125e-06,9.504494e-05,0,0,1
632232000,632075636,632080000,0,-0.03786037,-0.21506746,0.4285099,0.0025000002,0.0025000002,0.0025000002,0.00024673698,0.0020168573,0.00056529045,0.0006397881,0.00015720463,0.0010381226,0.002511463,0.0025040957,0.0025019525,2.69339e-06,0.00018046473,1.4192611e-05,-9.097303e-06,1.7339193e-05,8.4912725e-05,0,0,1
632304000,632148000,632152000,0,-0.0357921,-0.21673939,0.43375584,0.0025000002,0.0025000002,0.0025000002,-0.0018656502,0.003849551,-0.0046038628,0.0003230254,0.0006241535,0.00032479007,0.0025114915,0.0025041378,0.0025019622,0.00015398776,0.0006578743,0.0009413375,-2.741581e-05,9.832208e-05,-4.483614e-05,0,0,1
632376000,632218545,632224000,0,-0.038542148,-0.2146698,0.4309986,0.0025000002,0.0025000002,0.0025000002,0.0010811117,0.0019283444,-0.0017537773,0.00041675894,0.00078533863,6.7782676e-05,0.0025115216,0.0025041804,0.0025019713,5.1708474e-05,0.00016489238,0.00013659548,-1.7632494e-05,0.00010655316,-5.6181718e-05,0,0,1
632448000,632292000,632296000,0,-0.031515732,-0.2140339,0.424168,0.0025000002,0.0025000002,0.0025000002,-0.005687927,0.0011204779,0.0050170124,-0.0003652025,0.0008286588,0.0007017413,0.002511405,0.002503997,0.002501926,0.0014313597,5.6013963e-05,0.0011178305,-0.00019871964,0.000100079495,9.419986e-05,0,0,1
632520000,632363272,632368000,0,-0.03779454,-0.21408483,0.42827278,0.0025000002,0.0025000002,0.0025000002,0.00037325168,0.0012508333,0.0009287298,-0.0002730728,0.0008813085,0.00073005626,0.0025114329,0.0025040382,0.0025019357,6.163671e-06,6.940634e-05,3.830266e-05,-0.00017315836,9.6252705e-05,8.7226115e-05,0,0,1
632592000,632436000,632440000,0,-0.03930799,-0.21849805,0.42877945,0.0025000002,0.0025000002,0.0025000002,0.001612368,0.0058992803,0.0005143881,-3.3649645e-05,0.001518403,0.0007026619,0.0025114603,0.0025040815,0.002501945,0.000115016344,0.0015437426,1.1747888e-05,-0.00013656443,0.00028006255,7.7641496e-05,0,0,1
632664000,632507272,632512000,0,-0.037576515,-0.21461739,0.4308029,0.0025000002,0.0025000002,0.0025000002,-0.0004605811,0.0021032577,-0.0014951227,-8.6913686e-05,0.0015913695,0.00042846592,0.0025114885,0.0025041238,0.0025019555,9.385092e-06,0.0001962848,9.927309e-05,-0.000120697514,0.00026961043,5.5569602e-05,0,0,0
632736000,632580000,632584000,0,-0.027588028,-0.20967697,0.42972654,0.0025000002,0.0025000002,0.0025000002,-0.010162849,-0.0036596209,0.0005171299,-0.0013664087,0.0010179621,0.00043760563,0.009089117,0.005072352,0.005091807,0.0012626027,0.00018532811,5.464984e-06,-0.0002657026,0.00021183996,4.9207054e-05,0,0,1
632808000,632650909,632656000,0,-0.038424935,-0.21194986,0.42781016,0.0025000002,0.0025000002,0.0025000002,0.008083884,0.00053314865,0.0021429062,-0.00019264757,0.0009394854,0.00064975605,0.0043123825,0.0037597634,0.0037725451,0.0016837606,4.404599e-06,0.00013559918,-2.3572109e-05,0.00018607572,5.9937272e-05,0,0,1
632880000,632724000,632728000,0,-0.04079786,-0.20675792,0.42699316,0.0025000002,0.0025000002,0.0025000002,0.0069761826,-0.004720539,0.0022520423,0.0007216522,0.00020854175,0.000854191,0.0035482596,0.0033391637,0.0033432962,0.0015239748,0.0007639305,0.00016864928,0.00017379924,6.4913635e-05,7.3802206e-05,0,0,1
632952000,632795272,632800000,0,-0.038132463,-0.21297312,0.42843422,0.0025000002,0.0025000002,0.0025000002,0.0023102283,0.0025613308,0.0001835227,0.0009198432,0.00050018495,0.0007705735,0.0032374752,0.0031291763,0.0031305954,0.00018317276,0.00023018882,1.2011612e-06,0.00017496868,8.553339e-05,6.474448e-05,0,0,1
633024000,632868000,632872000,0,-0.040919974,-0.21045601,0.43303785,0.0025000002,0.0025000002,0.0025000002,0.0043987683,-0.00030189753,-0.004399717,0.0013616154,0.00039582554,0.0001140791,0.0030692748,0.0030028224,0.003003583,0.0007004609,3.827851e-06,0.00071594573,0.00024169844,7.418583e-05,-3.4391647e-05,0,0,1
633096000,632938909,632944000,0,-0.03724625,-0.21240553,0.42899424,0.0025000002,0.0025000002,0.0025000002,-2.8231443e-05,0.0016347617,0.0003556013,0.0011889912,0.0005497191,0.00014409257,0.0029634796,0.0029188576,0.0029191598,2.988283e-08,0.000101743084,4.8164993e-06,0.0002116749,7.760854e-05,-2.952185e-05,0,0,1
633168000,633012000,633016000,0,-0.039490238,-0.21972857,0.4282504,0.0025000002,0.0025000002,0.0025000002,0.0023946401,0.008655444,0.001026392,0.0013427575,0.0015827722,0.00025667803,0.002891042,0.002858719,0.00285898,0.0002203858,0.0029079206,4.097901e-05,0.00021278588,0.00043858145,-2.0530297e-05,0,0,1
633240000,633084000,633088000,0,-0.040064886,-0.21415555,0.42965475,0.0025000002,0.0025000002,0.0025000002,0.002653297,0.0020796359,-0.00046887994,0.0015077204,0.0016446928,0.00016537149,0.0028381657,0.0028137183,0.0028139125,0.00027560777,0.00016997488,8.674415e-06,0.00022069353,0.00040477084,-1.9037949e-05,0,0,1
633312000,633156000,633160000,0,-0.041246578,-0.21370237,0.42327842,0.0025000002,0.0025000002,0.0025000002,0.00332834,0.001316458,0.0059013367,0.0017368894,0.0016027174,0.0008874043,0.0027978185,0.0027788607,0.0027789015,0.00043993985,6.874507e-05,0.0013925551,0.00024829098,0.0003624739,0.00015864508,0,0,1
633384000,633226909,633232000,0,-0.03802594,-0.21419048,0.429121,0.0025000002,0.0025000002,0.0025000002,-0.00014535026,0.0015959591,-0.00056248903,0.0015031083,0.0016019065,0.0007073317,0.0027660886,0.0027509746,0.002750917,8.4863916e-07,0.00010290544,1.2775866e-05,0.00021734691,0.00033023453,0.00013735397,0,0,1
633456000,633300000,633304000,0,-0.033735596,-0.206078,0.42961198,0.0025000002,0.0025000002,0.0025000002,-0.0044526984,-0.0064830035,-0.000913769,0.0007435154,0.0005713778,0.0005005483,0.0027404968,0.0027281358,0.0027280375,0.0008038495,0.0017092527,3.402609e-05,8.710536e-05,7.012198e-05,0.00011549647,0,0,1
633528000,633372000,633376000,0,-0.03580613,-0.2111854,0.42837137,0.0025000002,0.0025000002,0.0025000002,-0.0019913325,-0.0008652061,0.00038903952,0.0003992688,0.00039077975,0.00048650271,0.0027194382,0.0027090616,0.0027089834,0.00016201897,3.0572835e-05,6.205405e-06,5.574706e-05,5.7447112e-05,0.000101739555,0,0,1
633600000,633444000,633448000,0,-0.037095517,-0.21824066,0.4274528,0.0025000002,0.0025000002,0.0025000002,-0.00045704545,0.0064365417,0.0013738275,0.000291481,0.0011518279,0.00059821975,0.0027017973,0.0026929108,0.0026928687,8.5906e-06,0.0017095692,7.7899815e-05,4.7648613e-05,0.00026540653,9.873875e-05,0,0,1
633672000,633514909,633520000,0,-0.037404,-0.21155298,0.4291888,0.0025000002,0.0025000002,0.0025000002,-1.2674025e-05,-0.0007343143,-0.00046291947,0.00025370382,0.00091756217,0.00046641525,0.0026867718,0.0026790916,0.0026790623,6.642871e-09,2.2363147e-05,8.889813e-06,4.1729654e-05,0.00022966448,8.5370884e-05,0,0,1
633744000,633588000,633592000,0,-0.040743444,-0.21204701,0.4289997,0.0025000002,0.0025000002,0.0025000002,0.0034968404,-7.517636e-05,-0.00017178059,0.00066732767,0.00079070206,0.00038501382,0.002673835,0.0026671307,0.002667101,0.0005081296,2.4777376e-07,1.23012e-06,0.00010121346,0.00020034189,7.4325944e-05,0,0,1
633816000,633659636,633664000,0,-0.037081946,-0.21224241,0.42827967,0.0025000002,0.0025000002,0.0025000002,-0.00034422733,0.0002927631,0.00064608455,0.00054056215,0.000728324,0.00041773348,0.0026625528,0.0026567024,0.0026566389,4.944814e-06,3.589028e-06,1.745963e-05,8.790997e-05,0.00017568532,6.71996e-05,0,0,1
633888000,633732000,633736000,0,-0.036138948,-0.21320361,0.43004483,0.0025000002,0.0025000002,0.0025000002,-0.001251099,0.0014992356,-0.0010261834,0.00031404232,0.0008258581,0.00023518357,0.002652669,0.0026474795,0.0026474104,6.556285e-05,9.4400566e-05,4.4193217e-05,6.850639e-05,0.00016540848,5.3116204e-05,0,0,1
633960000,633803272,633808000,0,-0.04039066,-0.21078774,0.4292584,0.0025000002,0.0025000002,0.0025000002,0.0031630222,-0.0010383725,-0.00019422174,0.0006694816,0.0005931278,0.00018159796,0.0026439251,0.0026392818,0.00263921,0.00042044854,4.549602e-05,1.5897998e-06,0.00011241476,0.000139096,4.6291072e-05,0,0,1
634032000,633876000,633880000,0,-0.04296306,-0.21503045,0.43418682,0.0025000002,0.0025000002,0.0025000002,0.0056196847,0.0033299178,-0.0050736964,0.0012980843,0.00094039884,-0.000485736,0.0026361055,0.0026319725,0.0026318743,0.0013311243,0.00046752737,0.0010867424,0.0002671729,0.00018080193,-9.758744e-05,0,0,1
634104000,633947272,633952000,0,-0.0384263,-0.21188568,0.4272728,0.0025000002,0.0025000002,0.0025000002,0.00078073645,4.0367246e-05,0.0021041036,0.0012335399,0.00082807516,-0.00016262385,0.002629091,0.0026254111,0.0026252738,2.5760884e-05,6.79931e-08,0.00018738209,0.0002370543,0.00015825353,-6.2034596e-05,0,0,1
634176000,634020000,634024000,0,-0.037792623,-0.21241102,0.4263059,0.0025000002,0.0025000002,0.0025000002,5.218989e-05,0.00058309734,0.0029752553,0.0010835258,0.00079696014,0.00023584513,0.002622782,0.0026194549,0.0026193038,1.1538998e-07,1.4419598e-05,0.00037551808,0.00020696655,0.00013998874,-6.4718624e-06,0,0,1
634248000,634091272,634096000,0,-0.03744126,-0.21295457,0.4296245,0.0025000002,0.0025000002,0.0025000002,-0.00025578807,0.0010031015,-0.0005226433,0.00091643276,0.00082268845,0.00014122335,0.00261707,0.0026140357,0.0026138774,2.777811e-06,4.2776548e-05,1.1608732e-05,0.0001807988,0.00012786053,-7.1127392e-06,0,0,1
634320000,634164000,634168000,0,-0.036621086,-0.20790255,0.42887485,0.0025000002,0.0025000002,0.0025000002,-0.0008990265,-0.0037970692,0.00040996075,0.00068589626,0.00023607648,0.00017532162,0.002611861,0.0026090988,0.002608924,3.4383684e-05,0.00061391987,7.150279e-06,0.0001534738,3.3665376e-05,-5.3015465e-06,0,0,1
634392000,634235636,634240000,0,-0.03818148,-0.21417326,0.42963117,0.0025000002,0.0025000002,0.0025000002,0.0008765294,0.0025055408,-0.0004107654,0.0007097859,0.0005204475,0.0001018869,0.0026071023,0.00260457,0.002604386,3.2744047e-05,0.00026775303,7.1950412e-06,0.00013834424,6.3000654e-05,-5.5388346e-06,0,0,1
634464000,634308000,634312000,0,-0.03826959,-0.21661852,0.4258976,0.0025000002,0.0025000002,0.0025000002,0.0011607348,0.004981205,0.0034234524,0.0007667994,0.0010843757,0.0005218578,0.002602732,0.0026003995,0.0026002114,5.7516714e-05,0.0010600426,0.00050087343,0.00012812522,0.00018905674,5.8486894e-05,0,0,1
634536000,634379636,634384000,0,-0.036656916,-0.21287763,0.42906404,0.0025000002,0.0025000002,0.0025000002,-0.0003375484,0.0010691881,0.00014913082,0.00062840525,0.0010824803,0.0004751549,0.0025987178,0.0025965446,0.0025963578,4.8715874e-06,4.8923906e-05,9.5240273e-07,0.000111458394,0.00017149565,5.1276817e-05,0,0,1
634608000,634452000,634456000,0,-0.033496365,-0.21308692,0.42946526,0.0025000002,0.0025000002,0.0025000002,-0.003323228,0.0014201403,-0.00015458465,0.00012880005,0.0011252477,0.0003955671,0.002595004,0.0025929837,0.0025927909,0.00047286783,8.649536e-05,1.0208895e-06,3.7582002e-05,0.00016074906,4.4664816e-05,0,0,1
634680000,634523272,634528000,0,-0.036954165,-0.21151313,0.43092412,0.0025000002,0.0025000002,0.0025000002,0.00014575281,-0.000121712685,-0.0015765727,0.00013091508,0.0009696685,0.00014952655,0.0025915657,0.0025896737,0.0025894768,9.108129e-07,6.362877e-07,0.00010664878,3.3006898e-05,0.00014061459,2.5786903e-05,0,0,1
634752000,634596000,634600000,0,-0.038933206,-0.20565757,0.42941344,0.0025000002,0.0025000002,0.0025000002,0.0019835967,-0.0060326904,-5.2034855e-05,0.00036617828,8.042884e-05,0.00012387482,0.0025883666,0.002586597,0.002586391,0.00016890343,0.0015635077,1.1831343e-07,5.026375e-05,-7.5783784e-05,2.2497323e-05,0,0,1
634824000,634667636,634672000,0,-0.03580883,-0.21184966,0.4294568,0.0025000002,0.0025000002,0.0025000002,-0.0010795688,0.0004761368,-2.6017427e-05,0.00018500088,0.00013003824,0.00010509491,0.002585373,0.0025837338,0.0025835135,5.008814e-05,9.755918e-06,2.9037245e-08,3.7687903e-05,-6.506416e-05,1.9674375e-05,0,0,1
634896000,634740000,634744000,0,-0.037198838,-0.21491896,0.42462423,0.0025000002,0.0025000002,0.0025000002,0.0003584181,0.003367424,0.004728228,0.00020692604,0.00053933414,0.0006896294,0.0025826055,0.0025810313,0.0025808208,5.52687e-06,0.0004881414,0.0009625921,3.362178e-05,4.877649e-06,0.00013888751,0,0,1
634968000,634811272,634816000,0,-0.03612812,-0.21271178,0.43006083,0.0025000002,0.0025000002,0.0025000002,-0.0007797778,0.0010029376,-0.0008865297,8.382468e-05,0.0005971779,0.0004930008,0.0025800103,0.0025785055,0.0025782967,2.618652e-05,4.3347954e-05,3.3861557e-05,2.6160087e-05,9.677211e-06,0.00011733531,0,0,1
635040000,634884000,634888000,0,-0.03534007,-0.21204488,0.43238887,0.0025000002,0.0025000002,0.0025000002,-0.0016832212,0.00029543042,-0.0032044947,-0.00014056405,0.00055887946,2.347707e-05,0.0025775607,0.0025761407,0.0025759253,0.00012213242,3.7682398e-06,0.0004429306,7.3291267e-06,8.926859e-06,4.618981e-05,0,0,1
635112000,634954909,634960000,0,-0.03564926,-0.2105347,0.42867297,0.0025000002,0.0025000002,0.0025000002,-0.0014891523,-0.0012837946,0.000562042,-0.0003080637,0.0003300319,9.035793e-05,0.0025752636,0.0025739216,0.002573695,9.567843e-05,7.11292e-05,1.36333465e-05,-5.464791e-06,-1.0163985e-06,4.2146177e-05,0,0,1
635176000,635024000,635024000,0,-0.039209172,-0.22062016,0.42502275,0.0025000002,0.0025000002,0.0025000002,0.001832324,0.00876379,0.0041344464,-4.820805e-05,0.0013539125,0.0005814106,0.0025730953,0.0025718268,0.0025715919,0.00014497935,0.0033180078,0.0007387927,1.2800015e-05,0.00040193266,0.00012672317,0,0,1
635248000,635094000,635096000,0,-0.0355351,-0.21487784,0.43051153,0.0025000002,0.0025000002,0.0025000002,-0.0019381769,0.0026082695,-0.0015562773,-0.0002803095,0.0015079774,0.0003189074,0.0025710547,0.0025698538,0.002569607,0.0001623428,0.00029417852,0.00010470667,-8.708751e-06,0.0003886997,9.830196e-05,0,0,1
635320000,635164000,635168000,0,-0.03221759,-0.21303433,0.42433527,0.0025000002,0.0025000002,0.0025000002,-0.0052253925,0.0008993745,0.004761547,-0.00088760036,0.0014332968,0.0008644947,0.0025691313,0.002567983,0.002567729,0.0011808889,3.5036373e-05,0.00098108,-0.0001526607,0.00034526736,0.0002067133,0,0,1
635384000,635231111,635232000,0,-0.035210516,-0.21513873,0.42950487,0.0025000002,0.0025000002,0.0025000002,-0.0019517799,0.003067866,-0.00047829747,-0.0010135337,0.00162675,0.0007056177,0.002567308,0.0025662077,0.0025659492,0.00016486984,0.0004075571,9.896764e-06,-0.00015410551,0.00035263863,0.00018108002,0,0,1
635456000,635302666,635304000,0,-0.035930984,-0.21154743,0.430591,0.0025000002,0.0025000002,0.0025000002,-0.00084516587,-0.0008350611,-0.001637876,-0.0009924552,0.0013185509,0.00041222214,0.0025655825,0.0025645168,0.002564263,3.0935375e-05,3.0210398e-05,0.00011624637,-0.0001386854,0.0003047084,0.00014385667,0,0,1
635528000,635369500,635376000,0,-0.03602492,-0.21418582,0.42956737,0.0025000002,0.0025000002,0.0025000002,-0.0009410396,0.0018332303,-0.00058704615,-0.0009863928,0.0013792414,0.000294416,0.0025639397,0.002562929,0.0025626598,3.8376507e-05,0.00014570635,1.4935548e-05,-0.00012685823,0.00028596085,0.00012513387,0,0,1
635600000,635442000,635448000,0,-0.03177682,-0.20974375,0.42800662,0.0025000002,0.0025000002,0.0025000002,-0.0045912797,-0.0011611879,0.0017694831,-0.0014429069,0.001057565,0.00048120366,0.0025623832,0.00256142,0.002561135,0.0009140731,5.84603e-05,0.00013582333,-0.0002265492,0.00024234419,0.00012648756,0,0,1
635672000,635513000,635520000,0,-0.03542023,-0.20687966,0.43314636,0.0025000002,0.0025000002,0.0025000002,0.00087801367,0.00083345175,-0.0009458959,-0.0011543161,0.0010296907,0.00030375988,0.002560906,0.0025600067,0.0025596898,3.3447708e-05,3.0145104e-05,3.8833732e-05,-0.00019422032,0.00021595866,0.00010593097,0,0,1
635736000,635580000,635584000,0,-0.03248883,-0.19913843,0.43442687,0.0025000002,0.0025000002,0.0025000002,-0.0004678307,0.00026874244,0.0012624264,-0.001073197,0.0009397746,0.0004170484,0.0025594758,0.0025587387,0.0025583145,9.501318e-06,3.1365848e-06,6.922392e-05,-0.00017239286,0.00019081037,0.000101593454,0,0,1
635808000,635652000,635656000,0,-0.029062238,-0.18818018,0.4408022,0.0025000002,0.0025000002,0.0025000002,-0.00173252,0.00013044477,-0.00022703409,-0.0011561887,0.00083792675,0.00033598795,0.002558095,0.0025577478,0.0025570304,0.0001303759,7.4151e-07,2.2377576e-06,-0.00016710401,0.00016688563,8.852379e-05,0,0,1
635880000,635722666,635728000,0,-0.027478546,-0.17183255,0.4455579,0.0025000002,0.0025000002,0.0025000002,-0.0014051237,-0.0035096705,0.00034743547,-0.0011870145,0.00029958022,0.00033732996,0.0025567475,0.0025571426,0.0025558157,8.5802276e-05,0.0005351749,5.2293713e-06,-0.00015703635,7.994894e-05,7.820938e-05,0,0,1
635944000,635789500,635792000,0,-0.026288172,-0.16103543,0.4520486,0.0025000002,0.0025000002,0.0025000002,-0.001305092,-0.0019463003,-0.0014524758,-0.0012009367,3.479529e-05,0.00012624946,0.0025554607,0.0025570048,0.0025546383,7.405776e-05,0.0001645754,9.181079e-05,-0.00014725255,5.1117677e-05,5.8162717e-05,0,0,1
636016000,635861000,635864000,0,-0.025914922,-0.14951599,0.4576309,0.0025000002,0.0025000002,0.0025000002,-0.00048895704,0.001485154,-0.0018360317,-0.0011118614,0.00021625838,-0.000119179356,0.0025542313,0.0025578372,0.0025535058,1.0400128e-05,9.5823634e-05,0.00014659284,-0.00013013103,5.671081e-05,3.2545882e-05,0,0,1
636088000,635933000,635936000,0,-0.02688327,-0.13295054,0.45875606,0.0025000002,0.0025000002,0.0025000002,0.0018226416,0.00042539835,0.0018950403,-0.0007424835,0.00024257228,0.00013436658,0.002553088,0.0025597727,0.0025524423,0.00014457536,7.851679e-06,0.00015633882,-9.5552605e-05,5.056071e-05,4.812821e-05,0,0,1
636160000,636005000,636008000,0,-0.024353005,-0.113958135,0.46518466,0.0025000002,0.0025000002,0.0025000002,0.00042760881,-0.0029658452,-0.00031396747,-0.0005951992,-0.00016127905,7.7766286e-05,0.0025520485,0.002562934,0.0025514106,7.960894e-06,0.00038133303,4.329135e-06,-8.2522936e-05,-3.8035323e-06,4.152519e-05,0,0,1
636232000,636077500,636080000,0,-0.020200497,-0.103062406,0.47016525,0.0025000002,0.0025000002,0.0025000002,-0.0022037835,0.0014809519,-0.0015598536,-0.0007989063,4.6542264e-05,-0.00012951522,0.00255114,0.0025647937,0.0025504632,0.00021152468,9.4865165e-05,0.000105889856,-9.88594e-05,8.691629e-06,2.2856908e-05,0,0,1
636304000,636150000,636152000,0,-0.020182507,-0.08768893,0.47152072,0.0025000002,0.0025000002,0.0025000002,-0.000524872,0.0012743548,0.00023597479,-0.00076420326,0.00020195851,-8.316226e-05,0.002550423,0.0025701837,0.002549558,1.2001958e-05,7.014419e-05,2.437832e-06,-8.785998e-05,1.647383e-05,2.0271087e-05,0,0,1
636376000,636221500,636224000,0,-0.020079635,-0.073955715,0.47660536,0.0025000002,0.0025000002,0.0025000002,0.00073532446,0.0008539483,-0.0025387406,-0.00057659834,0.0002836911,-0.00039034634,0.002549922,0.0025770657,0.0025486858,2.3560722e-05,3.153658e-05,0.0002809254,-7.392021e-05,1.8358322e-05,-1.741141e-05,0,0,1
636448000,636292000,636296000,0,-0.017549554,-0.06598749,0.47868797,0.0025000002,0.0025000002,0.0025000002,-0.0008816691,0.002592124,-0.003133595,-0.0006142977,0.00056865806,-0.0007292092,0.0025496804,0.0025852113,0.0025478445,3.3875287e-05,0.00028824198,0.00042792188,-6.8971625e-05,5.1709412e-05,-6.814057e-05,0,0,1
636512000,636359428,636360000,0,-0.017061438,-0.055633068,0.47812495,0.0025000002,0.0025000002,0.0025000002,-0.0011744013,-0.00085349753,-0.0016189814,-0.0006808553,0.00039913738,-0.000834946,0.00254956,0.0025926556,0.0025470003,6.0107028e-05,3.1542222e-05,0.00011434881,-6.7918234e-05,4.1816544e-05,-7.363154e-05,0,0,1
636584000,636431200,636432000,0,-0.016730046,-0.050076544,0.47734308,0.0025000002,0.0025000002,0.0025000002,-0.0016676234,-0.00062232465,-0.00016343594,-0.0008047199,0.0002698293,-0.0007506366,0.0025499302,0.0026030554,0.0025461728,0.00012117839,1.6994796e-05,1.1636289e-06,-7.460375e-05,3.443422e-05,-6.4534965e-05,0,0,1
636656000,636498000,636504000,0,-0.017355276,-0.047816753,0.4786675,0.0025000002,0.0025000002,0.0025000002,-0.0019483101,0.00033799186,-0.0010172427,-0.00093949726,0.0002769285,-0.0007820078,0.002548893,0.0025830655,0.0025454133,0.00016547106,4.68616e-06,4.513247e-05,-8.531288e-05,3.0928273e-05,-6.224829e-05,0,0,1
636728000,636570000,636576000,0,-0.020912334,-0.045934677,0.47791237,0.0025000002,0.0025000002,0.0025000002,0.0031199516,-9.768084e-05,-5.2779913e-05,-0.0004285177,0.00023185706,-0.000690279,0.0025495335,0.0025900607,0.002544741,0.00042422133,2.8241985e-07,1.2391803e-07,-2.1175714e-05,2.6999654e-05,-5.442844e-05,0,0,1
636800000,636642000,636648000,0,-0.0139446985,-0.04557032,0.4768057,0.0025000002,0.0025000002,0.0025000002,-0.001366674,-0.001123324,0.0010505021,-0.0005466073,6.009896e-05,-0.00047139043,0.0025507165,0.0025979397,0.002544249,8.136266e-05,5.4867083e-05,4.8025737e-05,-2.8751692e-05,1.669475e-05,-4.1532112e-05,0,0,1
636872000,636713333,636720000,0,-0.011309664,-0.046045057,0.47994375,0.0025000002,0.0025000002,0.0025000002,-0.0027023046,-0.0016310103,-0.0021822453,-0.00081575394,-0.00015397226,-0.00068556017,0.002552423,0.002606874,0.002543764,0.0003178875,0.000116661526,0.0002088716,-6.4851345e-05,4.4734406e-08,-6.242505e-05,0,0,1
636944000,636784666,636792000,0,-0.015160879,-0.047107346,0.4796753,0.0025000002,0.0025000002,0.0025000002,0.0012247534,-0.0006900877,-0.0018934011,-0.0005609892,-0.00021925187,-0.0008365135,0.0025547382,0.0026167599,0.0025431826,6.523917e-05,1.9448755e-05,0.0001568241,-4.8609072e-05,-2.3890987e-06,-7.4211115e-05,0,0,1
637016000,636856666,636864000,0,-0.009430982,-0.047315672,0.4794659,0.0025000002,0.0025000002,0.0025000002,-0.0036722138,-0.0022735968,-0.0018217266,-0.00095261185,-0.00048396917,-0.0009619717,0.002557775,0.0026265217,0.0025428243,0.0005858023,0.00022810398,0.00014684488,-0.0001162278,-3.080076e-05,-8.335382e-05,0,0,1
637080000,636924000,636928000,0,-0.011219936,-0.054359045,0.47912154,0.0025000002,0.0025000002,0.0025000002,-0.0016486514,0.0030936748,-0.0015712678,-0.0010352213,-6.116246e-05,-0.001033568,0.0025546926,0.002593021,0.0025416797,0.00011821608,0.0004060525,0.00010709886,-0.00011646378,2.104714e-05,-8.6172e-05,0,0,1
637152000,636995428,637000000,0,-0.010081749,-0.055201124,0.47461146,0.0025000002,0.0025000002,0.0025000002,-0.004176383,0.0017664358,0.0026955307,-0.0014278637,0.00016163274,-0.00056719687,0.0025571852,0.0025983732,0.002541142,0.0007578721,0.00012667019,0.0003181448,-0.00019663927,3.424993e-05,-3.563275e-05,0,0,1
637224000,637067200,637072000,0,-0.0151589485,-0.061304104,0.4766656,0.0025000002,0.0025000002,0.0025000002,-0.00013431092,0.003410019,3.46601e-05,-0.0012654897,0.0005691749,-0.0004902583,0.0025603261,0.0026036715,0.002540766,7.8286126e-07,0.0004956608,9.147124e-08,-0.0001720543,9.216879e-05,-3.1148447e-05,0,0,1
637296000,637139428,637144000,0,-0.017847234,-0.06270352,0.4742716,0.0025000002,0.0025000002,0.0025000002,0.00023979624,0.0003293194,0.0018038452,-0.0010754889,0.000539334,-0.00020048552,0.0025638274,0.0026085342,0.002540391,2.492031e-06,4.715585e-06,0.00014257105,-0.00015002264,8.113024e-05,-9.221152e-06,0,0,1
637368000,637211200,637216000,0,-0.018745722,-0.067815855,0.47612697,0.0025000002,0.0025000002,0.0025000002,-0.0020397096,2.411753e-05,-0.00093859434,-0.0011965232,0.00047053336,-0.00029362112,0.0025678165,0.0026129954,0.002540081,0.00018002391,3.2672873e-09,3.8852286e-05,-0.00015378857,7.094591e-05,-1.2940617e-05,0,0,1
637440000,637283428,637288000,0,-0.025763623,-0.07626313,0.47416028,0.0025000002,0.0025000002,0.0025000002,0.0015054536,0.00245177,1.7285347e-06,-0.00085547316,0.0007227813,-0.00025507034,0.0025628326,0.0025873526,0.0025390154,9.8258926e-05,0.00026174498,6.0916228e-09,-0.000121974525,9.5029034e-05,-1.13064525e-05,0,0,1
637512000,637356000,637360000,0,-0.026625289,-0.0798023,0.47481066,0.0025000002,0.0025000002,0.0025000002,-0.0027971105,-0.0010349602,-0.0020576417,-0.0011015707,0.0004955648,-0.00048467907,0.0025657383,0.002589562,0.0025387264,0.00033881638,4.9106973e-05,0.00018691915,-0.00014945866,7.6760174e-05,-3.3564902e-05,0,0,1
637584000,637426857,637432000,0,-0.033511713,-0.08756838,0.4720253,0.0025000002,0.0025000002,0.0025000002,-0.0012808838,-0.0013441518,-0.0010561943,-0.0011238278,0.00026507053,-0.000556707,0.0025688119,0.0025913792,0.0025385637,7.096508e-05,7.945523e-05,4.964013e-05,-0.00013971573,5.7370104e-05,-3.556022e-05,0,0,1
637656000,637499200,637504000,0,-0.038735945,-0.094352424,0.46612477,0.0025000002,0.0025000002,0.0025000002,-0.001293072,-0.001330547,0.0031187832,-0.0011452199,6.1047205e-05,-9.34093e-05,0.0025717672,0.0025925646,0.0025384107,7.223892e-05,7.798386e-05,0.00042299417,-0.0001311868,4.0261635e-05,2.240013e-05,0,0,1
637720000,637566000,637568000,0,-0.044429716,-0.101466805,0.4688192,0.0025000002,0.0025000002,0.0025000002,0.0002683457,-0.00064034015,-0.0013520122,-0.0009786247,-2.114664e-05,-0.00024203096,0.002573889,0.0025925888,0.002538307,3.1085435e-06,1.735199e-05,8.030353e-05,-0.00011535947,3.3471602e-05,1.0296029e-05,0,0,1
637792000,637636666,637640000,0,-0.049034007,-0.10795204,0.46450076,0.0025000002,0.0025000002,0.0025000002,4.759198e-05,-9.2715025e-05,0.0011727214,-0.0008515475,-2.9919369e-05,-6.688156e-05,0.0025761183,0.0025924847,0.002538209,9.769205e-08,3.6260477e-07,6.0166967e-05,-0.000101062324,2.9281888e-05,1.6471586e-05,0,0,1
637856000,637704000,637704000,0,-0.051754612,-0.11306616,0.4652524,0.0025000002,0.0025000002,0.0025000002,-0.0017029626,-0.0002547428,-0.0013611913,-0.00095259765,-5.8831953e-05,-0.00022123706,0.002568454,0.0025773707,0.0025371108,0.00012545729,3.2249964e-06,8.188721e-05,-0.00010395764,2.5423811e-05,4.7978783e-06,0,0,1
637928000,637775428,637776000,0,-0.058870763,-0.1168637,0.4609994,0.0025000002,0.0025000002,0.0025000002,-0.00085852586,-0.0019435734,0.0007824302,-0.00094083877,-0.00029562064,-9.721384e-05,0.0025692766,0.0025770252,0.0025368917,3.1875235e-05,0.00016445928,2.6031583e-05,-9.49474e-05,1.6885897e-06,7.452073e-06,0,0,1
638000000,637847200,637848000,0,-0.06526072,-0.1256047,0.45983645,0.0025000002,0.0025000002,0.0025000002,-0.0016384488,0.0011130199,-0.0005609095,-0.0010284067,-0.000121104604,-0.00015550999,0.0025697628,0.0025764832,0.002536691,0.000116072726,5.166972e-05,1.3815799e-05,-9.7599164e-05,7.962499e-06,4.7824115e-06,0,0,1
638072000,637918857,637920000,0,-0.07528224,-0.12881896,0.45872167,0.0025000002,0.0025000002,0.0025000002,0.00035019557,0.00032058358,-0.0017620921,-0.00085559936,-6.524706e-05,-0.00035654142,0.0025698754,0.0025757002,0.002536361,5.3023296e-06,4.542157e-06,0.00013558088,-8.47005e-05,7.5337603e-06,-1.2812076e-05,0,0,1
638144000,637986000,637992000,0,-0.08047234,-0.13434966,0.45708323,0.0025000002,0.0025000002,0.0025000002,-0.002975416,0.0012165755,-0.0028864741,-0.0011065605,8.257256e-05,-0.00065679965,0.0025698424,0.002574863,0.0025361078,0.00038277745,6.041978e-05,0.00036660463,-0.00011998927,1.3794837e-05,-5.4696913e-05,0,0,1
638216000,638057000,638064000,0,-0.092624985,-0.13626553,0.45276338,0.0025000002,0.0025000002,0.0025000002,-0.00013750885,0.00033137202,-0.0011469722,-0.0009860654,0.000113315895,-0.00071763207,0.0025695942,0.002573879,0.0025357148,8.1762516e-07,4.6953173e-06,5.7548204e-05,-0.00010517108,1.2663373e-05,-5.5051452e-05,0,0,1
638280000,638124000,638128000,0,-0.1008779,-0.1375247,0.4473246,0.0025000002,0.0025000002,0.0025000002,-0.00029594044,-0.0009993315,0.0016315579,-0.0009045162,-1.8476407e-05,-0.00044060586,0.0025636253,0.0025670505,0.0025347227,3.795872e-06,4.3453536e-05,0.00011600033,-9.3192e-05,6.032275e-06,-3.4838984e-05,0,0,1
638352000,638194222,638200000,0,-0.11284787,-0.14052458,0.44619116,0.0025000002,0.0025000002,0.0025000002,0.0009249201,-0.0001116544,-0.00046348572,-0.0006792238,-2.8934483e-05,-0.0004430693,0.0025632288,0.0025663383,0.0025343439,3.708331e-05,4.6285024e-07,9.301364e-06,-7.714879e-05,5.23241e-06,-3.1694064e-05,0,0,1
638416000,638262000,638264000,0,-0.12377488,-0.14343138,0.43955025,0.0025000002,0.0025000002,0.0025000002,0.0017948614,0.0012733638,0.0030712485,-0.00038388206,0.00012843515,-2.2222957e-05,0.002562677,0.0025654675,0.002533955,0.00013967717,7.199486e-05,0.0004165979,-5.1265386e-05,1.3202118e-05,2.1820397e-05,0,0,1
638488000,638333600,638336000,0,-0.13319193,-0.13972229,0.43880454,0.0025000002,0.0025000002,0.0025000002,-0.00027378165,-0.0034879,0.00018122792,-0.00037009062,-0.0003248643,1.6306913e-06,0.0025622554,0.0025646621,0.0025335771,3.2504522e-06,0.00052775675,1.2407879e-06,-4.525092e-05,-5.45597e-05,1.9242545e-05,0,0,1
