timestamp,x,y,z,vx,vy,vz,acceleration[0],acceleration[1],acceleration[2],thrust[0],thrust[1],thrust[2],yaw,yawspeed
625256000,nan,nan,nan,nan,nan,nan,0.0,0.0,100.0,-0.0,-0.0,-0.001,1.7956618,0.0
625264000,nan,nan,nan,nan,nan,nan,0.0,0.0,100.0,-0.0,-0.0,-0.001,1.7957692,0.0
625352000,nan,nan,nan,nan,nan,nan,0.0,0.0,100.0,-0.0,-0.0,-0.001,1.7958415,0.0
625456000,nan,nan,nan,nan,nan,nan,0.0,0.0,100.0,-0.0,-0.0,-0.001,1.795986,0.0
625552000,nan,nan,nan,nan,nan,nan,0.0,0.0,100.0,-0.0,-0.0,-0.001,1.7961416,0.0
625656000,nan,nan,nan,nan,nan,nan,0.0,0.0,100.0,-0.0,-0.0,-0.001,1.7964141,0.0
625752000,nan,nan,nan,nan,nan,nan,0.0,0.0,100.0,-0.0,-0.0,-0.001,1.7964858,0.0
625856000,nan,nan,nan,nan,nan,nan,0.0,0.0,100.0,-0.0,-0.0,-0.001,1.7966719,0.0
625952000,nan,nan,nan,nan,nan,nan,0.0,0.0,100.0,-0.0,-0.0,-0.001,1.796678,0.0
626056000,nan,nan,nan,nan,nan,nan,0.0,0.0,100.0,-0.0,-0.0,-0.001,1.7963998,0.0
626152000,nan,nan,nan,nan,nan,nan,0.0,0.0,100.0,-0.0,-0.0,-0.001,1.7963634,0.0
626256000,nan,nan,nan,nan,nan,nan,0.0,0.0,100.0,-0.0,-0.0,-0.001,1.7967618,0.0
626352000,-107008.37,-2875729.8,-488.05798,-0.0073523894,0.0010094186,2.2626715,-0.055998214,0.0061647743,9.427128,-0.00011052774,1.2167862e-05,-0.01935026,1.7967252,0.0
626456000,-107008.37,-2875729.8,-488.05347,0.00016001592,0.000985701,2.0736806,-0.03795573,-0.000830783,9.126079,-0.00013391575,-2.9311761e-06,-0.0346995,1.7967252,0.0
626552000,-107008.37,-2875729.8,-488.05984,0.00024360357,0.00096380775,1.8992274,-0.028690316,0.0038499273,8.834036,-0.00014597792,1.9588644e-05,-0.049589545,1.7967252,0.0
626656000,-107008.37,-2875729.8,-488.05704,0.00033415682,0.00094009005,1.7102363,-0.02517489,-0.0033419337,8.458483,-0.00017762065,-2.3578907e-05,-0.06873742,1.7967252,0.0
626752000,-107008.37,-2875729.8,-488.06268,0.00041774445,0.0009181968,1.5357832,-0.029277397,-0.0069240895,8.080404,-0.000264506,-6.255553e-05,-0.08801404,1.7967252,0.0
626856000,-107008.37,-2875729.8,-488.061,0.0005082977,0.0008944791,1.3467922,-0.033404022,-0.0002459325,7.6319914,-0.0003789646,-2.7900746e-06,-0.11087674,1.7967252,0.0
626952000,-107008.37,-2875729.8,-488.0667,0.0005918929,0.00087258586,1.172339,-0.020219238,0.0003486505,7.1623096,-0.0002792603,4.815426e-06,-0.13482386,1.7967252,0.0
627056000,-107008.37,-2875729.8,-488.06564,0.0006824959,0.00084886816,0.9833486,-0.022977766,0.0129092485,6.6292276,-0.00037773588,0.00021221761,-0.16200346,1.7967252,0.0
627152000,-107008.37,-2875729.8,-488.0694,0.0007661751,0.0008269749,0.8088963,-0.019938169,0.0023561802,6.092517,-0.00038958507,4.6038967e-05,-0.1893681,1.7967252,0.0
627256000,-107008.37,-2875729.8,-488.06906,0.00085682754,0.0008032572,0.6199064,-0.024200544,0.006642037,5.4855185,-0.00054401887,0.00014931042,-0.22031641,1.7967252,0.0
627352000,-107008.37,-2875729.8,-488.0733,0.008362346,0.00078137824,0.44545412,-0.010817888,-0.0027292576,4.9073787,-0.000277353,-6.997371e-05,-0.24979332,1.7954556,0.0
627448000,-107008.37,-2875729.8,-488.07462,0.008452743,0.00075775315,0.27100182,-0.0035867202,-0.0011549516,4.2930207,-9.238864e-05,-2.974986e-05,-0.28111684,1.7952051,0.0
627552000,-107008.37,-2875729.8,-488.0778,0.00853624,0.0007359454,0.085167155,-0.01753087,0.00216944,3.5985618,-0.00057390716,7.102085e-05,-0.31652442,1.7950487,0.0
627656000,-107008.37,-2875729.8,-488.0799,0.0012052163,0.0007122277,0.032709382,-0.03563176,0.008015342,3.4074893,-0.0011785809,0.00026512105,-0.3262664,1.7954737,0.0
627752000,-107008.37,-2875729.8,-488.0826,0.0012891435,0.0006903345,-0.01641977,-0.022228379,0.01802231,3.2109082,-0.00075995823,0.0006161584,-0.33628923,1.795652,0.0
627856000,-107008.37,-2875729.8,-488.08533,0.0013801546,0.0006666168,-0.069701515,-0.029235953,0.012414163,2.9982197,-0.0010348988,0.00043943847,-0.34713334,1.7957778,0.0
627952000,-107008.37,-2875729.8,-488.08685,0.0014642077,0.00064472354,-0.11803722,-0.0267671,0.01066467,2.7840304,-0.00096769986,0.00038555535,-0.35805395,1.7956305,0.0
628056000,-107008.37,-2875729.8,-488.0899,0.001555337,0.00062100583,-0.17214292,-0.01890066,0.0034776563,2.5343895,-0.000723272,0.00013307955,-0.3707821,1.7955934,0.0
628152000,-107008.37,-2875729.8,-488.09036,0.001639474,0.0005991126,-0.21965463,-0.026497105,0.0164817,2.3112187,-0.0010329715,0.00064252777,-0.38216063,1.7951851,0.0
628256000,-107008.37,-2875729.8,-488.09424,0.0017307024,0.0005753949,-0.2745843,-0.0191546,0.005917817,2.0387497,-0.0007839055,0.00024218771,-0.3960527,1.7952981,0.0
628352000,-107008.37,-2875729.8,-488.09366,0.0018149307,0.00055350165,-0.321272,-0.017475808,0.010023918,1.7988951,-0.00073367555,0.00042082768,-0.40828186,1.7958763,0.0
628448000,-107008.37,-2875729.8,-488.09833,0.001906247,0.00052978395,-0.3770256,-0.026099075,-0.0012515998,1.5052791,-0.0011211986,-5.376788e-05,-0.42325214,1.7961994,0.0
628552000,-107008.37,-2875729.8,-488.09714,0.009412413,0.000507905,-0.42279705,-0.00085265655,0.013216909,1.235537,-3.7620957e-05,0.0005831572,-0.43700513,1.7963387,0.0
628656000,-107008.37,-2875729.8,-488.10236,0.009503491,0.0004842799,-0.4791105,0.0021411532,0.018087309,0.9233426,0.00010069136,0.0008505864,-0.45292264,1.7961403,0.0
628752000,-107008.37,-2875729.8,-488.09998,0.00958758,0.00046247215,-0.52402383,0.0017331298,0.011896176,0.6479578,8.696913e-05,0.0005969548,-0.46696335,1.7960632,0.0
628856000,-107008.37,-2875729.8,-488.10547,0.009678756,0.00043884708,-0.5811307,0.0020680076,0.010642278,0.29697394,0.00010098091,0.000519663,-0.48485854,1.7964884,0.0
628952000,-107008.37,-2875729.8,-488.10162,0.009762928,0.00041703932,-0.625281,0.010408647,0.009621121,-0.0015413761,0.00055267324,0.0005108575,-0.50007856,1.7964529,0.0
629056000,-107008.37,-2875729.8,-488.1075,0.009854116,0.00039341426,-0.68315077,0.003132437,0.018172389,-0.37584853,0.00016677551,0.0009675245,-0.51916295,1.7964052,0.0
629152000,-107008.37,-2875729.8,-488.1025,0.0099382885,0.0003716065,-0.7265076,0.019966945,0.018109687,-0.6993661,0.0010959374,0.000993997,-0.53565776,1.7965515,0.0
629248000,-107008.37,-2875729.8,-488.1091,0.010029475,0.00034798143,-0.7851098,0.016476002,0.020724017,-1.0805194,0.0009315277,0.0011717038,-0.55509114,1.7972224,0.0
629352000,-107008.37,-2875729.8,-488.1041,0.010113648,0.00032617367,-0.82761216,0.020986285,0.02014564,-1.9119207,0.001280198,0.0012289173,-0.59748083,1.7974797,0.0
629456000,-107008.37,-2875729.8,-488.11212,0.010204835,0.0003025486,-0.88706887,0.020723233,0.019289207,-2.310205,0.0013063014,0.0012159067,-0.61778766,1.7978364,0.0
629552000,-107008.37,-2875729.8,-488.10663,0.010289008,0.00028074085,-0.92877775,0.01657845,0.023829078,-2.641395,0.0010765593,0.0015473953,-0.63467366,1.7980791,0.0
629648000,-107008.37,-2875729.8,-488.11606,0.010380195,0.00025711578,-0.98908895,0.026070522,0.017333392,-3.0605686,0.0017390441,0.0011562306,-0.65604556,1.797936,0.0
629752000,-107008.37,-2875729.8,-488.11035,0.010464451,0.00023530803,-1.0299435,0.043921992,0.01576342,-3.4235377,0.003013667,0.0010815925,-0.67455184,1.79907,0.0
629856000,-107008.37,-2875729.8,-488.1209,0.010555886,0.000211683,-1.0910482,0.042678796,0.02385044,-3.888069,0.003042416,0.0017002109,-0.69823635,1.7994049,0.0
629952000,-107008.37,-2875729.8,-488.11435,0.010640455,0.00018987528,-1.1310788,0.04831221,0.022924073,-4.2380047,0.003531798,0.0016758332,-0.7160781,1.7996188,0.0
630048000,-107008.37,-2875729.8,-488.12653,0.010732319,0.00016625025,-1.1930991,0.03943439,0.009159252,-4.595912,0.0029635944,0.00068834104,-0.7343263,1.7993555,0.0
630152000,-107008.37,-2875729.8,-488.1237,0.010817675,0.00014444253,-1.2316649,0.049397167,-0.010537547,-4.728747,0.0037286247,-0.00079540117,-0.741099,1.7993494,0.0
630248000,-107008.37,-2875729.8,-488.14838,0.010912086,0.000120817494,-1.295089,0.05733349,-0.030456677,-4.8889976,0.0043767956,-0.00232504,-0.7492695,1.7990993,0.0
630352000,-107008.37,-2875729.8,-488.16028,0.018425208,9.902401e-05,-1.3313652,0.08053613,-0.06332092,-4.8784146,0.0061508156,-0.004836032,-0.74872994,1.7995996,0.0
630448000,-107008.37,-2875729.8,-488.2036,0.018532287,7.54916e-05,-1.396692,0.06776051,-0.068692565,-4.973711,0.0052101314,-0.005281797,-0.7535887,1.7996073,0.0
630552000,-107008.37,-2875729.8,-488.231,0.018644929,5.376937e-05,-1.4307674,0.071005,-0.07508599,-4.934523,0.005443442,-0.0057563023,-0.75159067,1.79942,0.0
630648000,-107008.37,-2875729.8,-488.29428,0.02621676,3.0293973e-05,-1.4980139,0.07666497,-0.08648578,-5.018689,0.005909246,-0.006666222,-0.7558819,1.7984881,0.0
630752000,-107008.37,-2875729.8,-488.33972,0.026417434,8.65727e-06,-1.5152639,0.06389579,-0.08431556,-4.580104,0.004778962,-0.0063062184,-0.73352027,1.7984285,0.0
630856000,-107008.37,-2875729.8,-488.41888,0.026623022,4.3287596e-13,-1.530426,0.07101004,-0.07240115,-4.475794,0.0052729277,-0.0053762263,-0.728202,1.7987412,0.0
630952000,-107008.37,-2875729.8,-488.4705,0.034141988,4.3287596e-13,-1.5176618,0.05981815,-0.058580734,-4.4252896,0.004428255,-0.004336651,-0.72562695,1.7985194,0.0
631056000,-107008.37,-2875729.8,-488.55453,0.034214713,4.3287596e-13,-1.5115641,0.05119931,-0.050105024,-4.3704557,0.0037754208,-0.003694729,-0.72283125,1.7982311,0.0
631152000,-107008.37,-2875729.8,-488.61154,0.034270544,4.3287596e-13,-1.47869,0.032474704,-0.06201156,-4.305776,0.002384414,-0.00455312,-0.71953344,1.7983927,0.0
631256000,-107008.37,-2875729.8,-488.69766,0.03430567,4.3287596e-13,-1.4659928,0.036031507,-0.067775354,-4.390628,0.002659871,-0.005003224,-0.7238597,1.7978909,0.0
631352000,-107008.37,-2875729.8,-488.75555,0.03436108,4.3287596e-13,-1.4320525,0.04630449,-0.064279854,-4.3166475,0.0034019104,-0.004722529,-0.72008777,1.7979676,0.0
631456000,-107008.37,-2875729.8,-488.8435,0.03442904,4.3287596e-13,-1.4176129,0.030342964,-0.05410535,-4.3848453,0.0022399812,-0.00399417,-0.72356486,1.7983286,0.0
631552000,-107008.37,-2875729.8,-488.9049,0.034496598,4.3287596e-13,-1.3825642,0.027946964,-0.037379287,-4.3096395,0.0020564904,-0.002750572,-0.71973044,1.7979299,0.0
631648000,-107008.37,-2875729.8,-488.99435,0.027153293,4.3287596e-13,-1.372273,0.023356618,-0.048982482,-4.382872,0.0017201965,-0.0036075208,-0.72346425,1.7978687,0.0
631752000,-107008.37,-2875729.8,-489.05637,0.027229827,4.3287596e-13,-1.3302516,0.015069083,-0.027669773,-4.2789745,0.0010997921,-0.0020194324,-0.71816695,1.7983803,0.0
631856000,-107008.37,-2875729.8,-489.14658,0.027317509,4.3287596e-13,-1.3121703,0.014106946,-0.041444104,-4.330519,0.0010363187,-0.00304455,-0.72079504,1.7977294,0.0
631952000,-107008.37,-2875729.8,-489.21072,0.019981854,4.3287596e-13,-1.2752557,0.0118421875,-0.026713682,-4.251294,0.00086855504,-0.001959292,-0.7167557,1.7973694,0.0
632056000,-107008.37,-2875729.8,-489.3006,0.020053577,4.3287596e-13,-1.2553504,-0.0006054834,-0.022848787,-4.3033195,-4.413918e-05,-0.0016656553,-0.7194082,1.797701,0.0
632152000,-107008.37,-2875729.8,-489.3641,0.020047894,4.3287596e-13,-1.2178078,0.0068209367,-0.032952037,-4.2260356,0.0004956915,-0.0023946923,-0.7154678,1.7978244,0.0
632256000,-107008.37,-2875729.8,-489.4528,0.020048972,4.3287596e-13,-1.1964483,0.0024016441,-0.027940767,-4.281475,0.00017642308,-0.0020525088,-0.7182945,1.7972836,0.0
632352000,-107008.37,-2875729.8,-489.51657,0.012627019,4.3287596e-13,-1.1583098,6.978912e-05,-0.032474276,-4.1826215,5.048579e-06,-0.0023492048,-0.71325433,1.7973694,0.0
632456000,-107008.37,-2875729.8,-489.6042,0.01262703,4.3287596e-13,-1.1353004,-0.006318561,-0.037780207,-4.249383,-0.0004617831,-0.0027611128,-0.71665823,1.7977889,0.0
632552000,-107008.37,-2875729.8,-489.6667,0.012627029,4.3287596e-13,-1.0965523,-0.0020068032,-0.031568475,-4.1610017,-0.00014466186,-0.0022756364,-0.712152,1.7979015,0.0
632656000,-107008.37,-2875729.8,-489.75177,0.01262703,4.3287596e-13,-1.0721871,0.009505909,-0.04205466,-4.2094407,0.000694524,-0.003072612,-0.7146217,1.7977287,0.0
632752000,-107008.37,-2875729.8,-489.8131,0.005205154,4.3287596e-13,-1.0331693,-0.005035544,-0.02447391,-4.129571,-0.000363318,-0.0017658096,-0.71054953,1.7975417,0.0
632856000,-107008.37,-2875729.8,-489.8947,0.005205154,4.3287596e-13,-1.0074406,-0.005804069,-0.03951985,-4.182335,-0.00042187521,-0.0028725448,-0.7132397,1.7920408,0.0
632952000,-107008.37,-2875729.8,-489.95285,0.005205154,4.3287596e-13,-0.96850526,-0.0005997403,-0.03360128,-4.10786,-4.3273845e-05,-0.002424477,-0.70944256,1.7903448,0.0
633056000,-107008.37,-2875729.8,-490.03067,0.005205155,4.3287596e-13,-0.94193935,0.0026267848,-0.035892755,-4.145934,0.00019057165,-0.0026039975,-0.7113838,1.7913015,0.0
633152000,-107008.37,-2875729.8,-490.08728,-0.002216721,4.3287596e-13,-0.9029047,-0.0066066342,-0.022249183,-4.060386,-0.00047638186,-0.0016043127,-0.7070221,1.7940062,0.0
633256000,-107008.37,-2875729.8,-490.16162,-0.00221672,4.3287596e-13,-0.87501884,-0.01097229,-0.028940402,-4.1178217,-0.00079168484,-0.00208814,-0.70995045,1.7966572,0.0
633352000,-107008.37,-2875729.8,-490.21515,-0.002216721,4.3287596e-13,-0.835888,-0.0050508208,-0.028569704,-4.0440974,-0.00036514734,-0.002065437,-0.7061916,1.79889,0.0
633448000,-107008.37,-2875729.8,-490.28528,-0.00221672,4.3287596e-13,-0.81183547,-0.010897172,-0.02231284,-4.094805,-0.00078917004,-0.0016158895,-0.70877695,1.7997661,0.0
633552000,-107008.37,-2875729.8,-490.3521,-0.009735982,4.3287596e-13,-0.78123015,-0.021493506,-0.016468415,-3.9048426,-0.0015327893,-0.0011744297,-0.69909155,1.7997867,0.0
633648000,-107008.37,-2875729.8,-490.42746,-0.009991141,4.3287596e-13,-0.728799,-0.016847622,-0.023214383,-3.4613428,-0.0011559653,-0.0015928077,-0.67647934,1.7990261,0.0
633752000,-107008.37,-2875729.8,-490.48837,-0.0102266725,4.3287596e-13,-0.6314043,-0.011391461,-0.009909406,-3.0653486,-0.0007645646,-0.00066509313,-0.6562893,1.7987536,0.0
633848000,-107008.37,-2875729.8,-490.5411,-0.017903706,4.3287596e-13,-0.50777286,-0.030215776,-0.021988297,-3.2016869,-0.0020535146,-0.0014943614,-0.6632406,1.7987536,0.0
633952000,-107008.37,-2875729.8,-490.57825,-0.018139238,4.3287596e-13,-0.41624948,-0.017089505,-0.013223065,-3.6298523,-0.0011978447,-0.00092683657,-0.685071,1.7987536,0.0
634056000,-107008.37,-2875729.8,-490.6093,-0.018394398,4.3287596e-13,-0.35005283,-0.034875453,-0.014694555,-0.105163634,-0.0025168473,-0.0010604579,-0.7075066,1.7987536,0.0
634152000,-107008.37,-2875729.8,-490.63248,-0.018420968,4.3287596e-13,-0.31364024,-0.023031771,-0.010198877,-0.28459913,-0.0016864687,-0.0007467983,-0.72031474,1.7987536,0.0
634248000,-107008.37,-2875729.8,-490.65454,-0.025829455,4.3287596e-13,-0.2964351,-0.03202403,-0.004093498,-0.31801325,-0.002360955,-0.00030179103,-0.72265273,1.7987536,0.0
634352000,-107008.37,-2875729.8,-490.67368,-0.025827734,4.3287596e-13,-0.28160796,-0.02553007,-0.0037962184,-0.16810259,-0.0018349963,-0.00027285653,-0.7116895,1.7987536,0.0
634456000,-107008.37,-2875729.8,-490.6934,-0.025825255,4.3287596e-13,-0.2660554,-0.03220932,-0.0008916104,-0.09063652,-0.0023129343,-6.402606e-05,-0.70640135,1.7987536,0.0
634552000,-107008.37,-2875729.8,-490.7107,-0.03324484,4.3287596e-13,-0.25190002,-0.038732655,-0.01710843,-0.0611998,-0.0027874364,-0.0012312261,-0.7043684,1.7987536,0.0
634656000,-107008.37,-2875729.8,-490.72855,-0.033242363,4.3287596e-13,-0.23708457,-0.024689026,-0.01623779,-0.06538932,-0.0017604149,-0.001157812,-0.7046675,1.7987536,0.0
634752000,-107008.37,-2875729.8,-490.74417,-0.033240072,4.3287596e-13,-0.22435896,-0.025092585,-0.012088227,-0.060678124,-0.0018198631,-0.00087671,-0.7043312,1.7987536,0.0
634848000,-107008.37,-2875729.8,-490.7603,-0.03323865,4.3287596e-13,-0.21257679,-0.013088057,-0.018508207,-0.08220276,-0.0009333877,-0.0013199312,-0.70586765,1.7987536,0.0
634952000,-107008.37,-2875729.8,-490.77444,-0.033236794,4.3287596e-13,-0.19886215,-0.009948749,-0.027038489,-0.06285686,-0.00070773845,-0.0019234758,-0.7044867,1.7987536,0.0
635048000,-107008.37,-2875729.8,-490.78903,-0.04065663,4.3287596e-13,-0.1876841,-0.025847321,-0.016063858,-0.07499675,-0.001850067,-0.0011497986,-0.70535326,1.7987536,0.0
635152000,-107008.37,-2875729.8,-490.80185,-0.040654752,4.3287596e-13,-0.17474043,-0.022745077,-0.0076519987,-0.057490643,-0.0016292762,-0.0005481282,-0.70410365,1.7987536,0.0
635256000,-107008.37,-2875729.8,-490.81503,-0.033231415,4.3287596e-13,-0.16350305,-0.016939348,-0.008396438,-0.07706329,-0.001215145,-0.0006023189,-0.7055008,1.7987536,0.0
635352000,-107008.37,-2875729.8,-490.82657,-0.036429908,0.0015839962,-0.15436366,-0.17518286,0.038886234,-0.055850215,-0.012577826,0.0027919644,-0.7039866,1.7993009,0.019547688
635456000,-107008.37,-2875729.8,-490.83817,-0.07380515,0.0063267476,-0.14422126,-0.6307478,0.051051468,-0.04507365,-0.045229755,0.0036608058,-0.7032173,1.8032216,0.055850536
635552000,-107008.37,-2875729.8,-490.84824,-0.1451504,0.010684639,-0.13489988,-1.089282,0.04276476,-0.04215257,-0.0780873,0.003065675,-0.70300883,1.8101918,0.089360856
635656000,-107008.375,-2875729.8,-490.85846,-0.26243198,0.015405689,-0.12468968,-1.5727758,0.04740314,-0.007601008,-0.11235191,0.0033862635,-0.70054257,1.821373,0.1256637
635752000,-107008.41,-2875729.8,-490.8673,-0.42922345,0.0197487,-0.11470518,-2.052001,0.03595718,0.048182778,-0.14575243,0.0025540174,-0.6965607,1.8350451,0.15917404
635856000,-107008.45,-2875729.8,-490.8761,-0.6524209,0.024403354,-0.10237892,-2.5887702,0.06750384,0.109243885,-0.18272826,0.0047647557,-0.69220215,1.8534868,0.1954769
635952000,-107008.51,-2875729.8,-490.8835,-0.8925216,0.028639078,-0.089211926,-3.048525,0.057312783,0.20436603,-0.21306933,0.0040057395,-0.6854123,1.8738611,0.22898725
636056000,-107008.59,-2875729.8,-490.89075,-1.1974512,0.033165317,-0.074138336,-3.5660968,0.08086676,0.28156617,-0.24723993,0.005606548,-0.6799018,1.8995634,0.26529008
636152000,-107008.69,-2875729.8,-490.89673,-1.488078,0.037279088,-0.0595634,-3.755333,0.093786925,0.37358475,-0.2577567,0.0064373016,-0.6731041,1.9266398,0.29880038
636256000,-107008.82,-2875729.8,-490.90247,-1.8184687,0.041670695,-0.044127114,-3.8480449,0.119433634,0.39353096,-0.26352146,0.008179043,-0.671578,1.9596028,0.3351032
636352000,-107008.96,-2875729.8,-490.90714,-2.1196094,0.045637745,-0.031838644,-3.919776,0.14601564,0.3863036,-0.26859543,0.010005453,-0.67198247,1.9933814,0.3686135
636456000,-107009.125,-2875729.8,-490.9115,-2.4266407,0.049865693,-0.019901514,-3.9440203,0.18358526,0.35149157,-0.27123567,0.012625408,-0.6744166,2.0336046,0.40491635
636552000,-107009.29,-2875729.8,-490.91483,-2.6752398,0.29105783,-0.010273922,-3.8901715,0.6370102,0.3372292,-0.26781023,0.04385356,-0.67511684,2.0740848,0.43842664
636656000,-107009.49,-2875729.8,-490.91794,-2.946926,0.29506773,-0.0006955415,-3.9147902,0.62225467,0.31615174,-0.2699599,0.042910043,-0.67625666,2.1215692,0.47472948
636752000,-107009.68,-2875729.8,-490.9203,-3.1778226,0.536212,0.007445678,-3.8881044,1.0201757,0.2971722,-0.26854217,0.07046111,-0.6773216,2.168752,0.5082398
636856000,-107009.88,-2875729.8,-490.9222,-3.368106,0.5398682,0.0149264075,-3.7610738,0.96800566,0.28263396,-0.2600115,0.06692041,-0.6779559,2.223497,0.5445426
636952000,-107010.08,-2875729.8,-490.9236,-3.5246327,0.7807669,0.021000333,-3.6464431,1.3581809,0.25010917,-0.2528385,0.09417408,-0.6799775,2.2773817,0.57805294
637048000,-107010.28,-2875729.8,-490.92465,-3.6730263,0.7840993,0.026217824,-3.560837,1.290496,0.2284264,-0.24733828,0.08963877,-0.6811773,2.3393872,0.61435574
637152000,-107010.46,-2875729.8,-490.9253,-3.7290823,1.0245382,0.03065129,-3.2761033,1.6739136,0.20206004,-0.22807883,0.11653609,-0.68272823,2.3999739,0.6478661
637256000,-107010.65,-2875729.8,-490.9257,-3.7576022,1.0274482,0.033765655,-2.99052,1.5834634,0.16930345,-0.20880929,0.11056334,-0.6847372,2.4682584,0.6471565
637352000,-107010.85,-2875729.8,-490.92584,-3.8126395,1.2680124,0.035938233,-2.7977912,1.9007772,0.12650001,-0.19620538,0.13329898,-0.68772715,2.5287771,0.61364615
637456000,-107011.21,-2875729.8,-490.92557,-4.0686793,1.5110104,0.040794533,-2.6879125,2.1984959,0.12620015,-0.18845797,0.15414345,-0.68757546,2.5907087,0.57734334
637552000,-107011.56,-2875729.8,-490.92474,-4.287393,1.5162556,0.046183288,-2.5479615,2.0485983,0.15623069,-0.17799771,0.14311276,-0.6850818,2.6445255,0.543833
637648000,-107011.96,-2875729.8,-490.9232,-4.5121436,1.7597597,0.052491967,-2.4133399,2.291109,0.16816905,-0.16834122,0.15981509,-0.6840576,2.6991966,0.5075302
637752000,-107012.32,-2875729.8,-490.92123,-4.598959,2.0029798,0.057350233,-2.0912561,2.5269673,0.1513223,-0.14611027,0.17655218,-0.6851634,2.7463112,0.47401989
637856000,-107012.81,-2875729.8,-490.91785,-4.8026876,2.2486138,0.06496129,-1.9266797,2.7457724,0.13349845,-0.13485184,0.19218163,-0.68638545,2.7937214,0.43771705
637952000,-107013.2,-2875729.8,-490.9146,-4.8603106,2.2556958,0.07015107,-1.6481274,2.5349388,0.12808259,-0.115408026,0.17750587,-0.68669856,2.834134,0.40420675
638048000,-107013.63,-2875729.8,-490.9104,-4.926784,2.5022092,0.0760258,-1.3915681,2.7674334,0.10863362,-0.09764033,0.19417888,-0.68809044,2.874284,0.36790392
638152000,-107014.1,-2875729.8,-490.90503,-4.9491286,2.5146124,0.08195047,-1.0709107,2.552356,0.08336175,-0.075341105,0.1795643,-0.6899209,2.9079947,0.33439362
638256000,-107014.54,-2875729.8,-490.89926,-4.9010386,2.7642627,0.08490167,-0.824579,2.6661983,-0.04064656,-0.05875152,0.18996748,-0.69872737,2.940884,0.2980908
638352000,-107015.01,-2875729.8,-490.89282,-4.90107,2.7684324,0.082720816,-0.9411364,2.3920095,-0.061486535,-0.06718787,0.1707659,-0.70009756,2.967893,0.2645805
638456000,-107015.516,-2875729.8,-490.8859,-4.900904,3.0112922,0.07968,-1.0790523,2.550394,-0.02576337,-0.07674754,0.18139665,-0.69749826,2.9935212,0.22827764
638552000,-107015.984,-2875729.8,-490.8795,-4.8933287,3.0162227,0.079258665,-1.1834021,2.3609827,0.021452103,-0.0837487,0.16708541,-0.69401073,3.013827,0.1947673
638656000,-107016.49,-2875729.8,-490.8726,-4.870877,3.0220852,0.07785201,-1.2313188,2.1577802,0.0155109055,-0.087179214,0.15277407,-0.69432545,3.0321949,0.15846443
638752000,-107016.96,-2875729.8,-490.8662,-4.848414,3.2652125,0.076099314,-1.2541655,2.4315515,0.015307786,-0.088801935,0.17216744,-0.6943657,3.0457988,0.1249541
638856000,-107017.47,-2875729.8,-490.8593,-4.818489,3.2719123,0.074887164,-1.2626933,2.2455041,0.026923304,-0.08928627,0.15878177,-0.69343764,3.056906,0.08865125
638952000,-107017.94,-2875729.8,-490.85294,-4.7885594,3.2783937,0.07382731,-1.264948,2.0959215,0.0114827175,-0.08958439,0.14843443,-0.6945125,3.063808,0.055140927
639056000,-107018.445,-2875729.8,-490.84604,-4.7511563,3.286121,0.071721345,-1.251286,1.965518,-0.029531853,-0.08900043,0.13980174,-0.69751936,3.0676548,0.018838078
639152000,-107018.914,-2875729.8,-490.83966,-4.713744,3.2936604,0.069005035,-1.2622058,1.8648082,-0.055487454,-0.09002127,0.13299923,-0.69941646,3.067855,-0.014672244
639256000,-107019.42,-2875729.8,-490.83276,-4.660273,3.3021293,0.06611918,-1.139709,1.7431884,-0.055547737,-0.08128064,0.124318995,-0.69938225,3.0644412,-0.05097509
639352000,-107019.89,-2875729.8,-490.82648,-4.595172,3.3031592,0.06341557,-0.7089926,1.597868,-0.08050774,-0.05069244,0.114246346,-0.70116764,3.057939,-0.08448541
639448000,-107020.4,-2875729.8,-490.81973,-4.5084043,3.3039165,0.060203187,-0.2428984,1.5308144,-0.12794888,-0.017453903,0.10999942,-0.7046749,3.0472646,-0.12078826
639552000,-107020.87,-2875729.8,-490.81357,-4.3145494,3.3049662,0.054566436,0.32213634,1.463651,-0.1592471,0.023225142,0.105525196,-0.70703155,3.0340605,-0.1542986
639648000,-107021.36,-2875729.8,-490.807,-4.138855,3.3064408,0.05042685,0.6873598,1.4128245,-0.14277592,0.04947734,0.10169753,-0.7058984,3.0161257,-0.19060147
639752000,-107021.79,-2875729.8,-490.8011,-3.8760455,3.0705662,0.045951948,0.79707015,0.9610057,-0.10489908,0.057151224,0.06890567,-0.7031508,2.9962196,-0.22411181
639848000,-107022.26,-2875729.8,-490.7948,-3.6826758,3.0725648,0.04223196,0.7998749,0.9493226,-0.1291312,0.057504315,0.06824836,-0.7050164,2.9710243,-0.26041466
639952000,-107022.66,-2875729.8,-490.78915,-3.4058878,3.074592,0.036020916,0.91456854,0.96875936,-0.12820126,0.06574825,0.06964402,-0.7050025,2.9444163,-0.29392496
640048000,-107023.086,-2875729.8,-490.78323,-3.2068245,2.839452,0.032096356,0.9063151,0.56476647,-0.11973189,0.06510596,0.040570512,-0.70447093,2.9119604,-0.3302278
640152000,-107023.46,-2875729.8,-490.77792,-2.9477851,2.8417552,0.028090216,0.97284615,0.63848525,-0.13546494,0.07000969,0.045947812,-0.7057267,2.8786502,-0.3637381
640256000,-107023.87,-2875729.8,-490.77237,-2.7227151,2.8443654,0.023472436,1.0157987,0.6985225,-0.15921097,0.07329777,0.05040383,-0.7076243,2.8397708,-0.37221068
640352000,-107024.24,-2875729.8,-490.76746,-2.525751,2.6093676,0.018167518,1.0572531,0.32878047,-0.17613594,0.0764388,0.023770642,-0.7090145,2.8051653,-0.3439218
640456000,-107024.61,-2875729.8,-490.76233,-2.2952623,2.6121705,0.013455428,1.1296756,0.45281297,-0.19782346,0.081884176,0.032821998,-0.7108289,2.7699037,-0.337611
640552000,-107024.93,-2875729.8,-490.75778,-2.0943508,2.3773267,0.009800043,1.1559671,0.13391401,-0.19958214,0.08382999,0.009711359,-0.71117055,2.737899,-0.31906685
640648000,-107025.26,-2875729.8,-490.75308,-1.907614,2.3802626,0.0064765736,1.1544966,0.23438431,-0.19261488,0.083686136,0.016989846,-0.71085656,2.7058134,-0.30721292
640752000,-107025.54,-2875729.8,-490.74896,-1.6561975,2.1517756,0.002015151,1.5124276,0.15182254,-0.19313395,0.10966788,0.011008829,-0.71109074,2.6750095,-0.33712786
640856000,-107025.84,-2875729.8,-490.74475,-1.4154154,2.199675,-0.0013258904,2.0241134,0.77591324,-0.16242427,0.14636725,0.056107678,-0.7091363,2.6380608,-0.3734307
640952000,-107026.1,-2875729.8,-490.74115,-1.1581807,2.0447898,-0.0027320944,2.5078168,0.9679026,-0.070525184,0.17968957,0.069351956,-0.7026635,2.6006026,-0.406941
641056000,-107026.36,-2875729.8,-490.73758,-0.8267764,1.9383888,-0.002041094,3.073484,1.1690817,0.06585406,0.2171713,0.0826069,-0.6929346,2.5563927,-0.44324383
641152000,-107026.57,-2875729.8,-490.7346,-0.48328793,2.0978034,0.0006180387,3.3558378,1.7774808,0.1995134,0.23383813,0.123856634,-0.6833372,2.5122325,-0.47675413
641248000,-107026.766,-2875729.8,-490.7317,-0.11933482,2.0657601,0.00601344,3.4538133,1.7921331,0.32526946,0.23743582,0.12320197,-0.67416775,2.460762,-0.51305693
641352000,-107026.914,-2875729.8,-490.72928,0.2503059,2.0205097,0.01334711,3.5124695,1.6083398,0.36587843,0.24037881,0.11006809,-0.6711262,2.4099,-0.54656726
641456000,-107027.05,-2875729.8,-490.727,0.6365247,1.9912803,0.018682541,3.6260905,1.4494623,0.32807606,0.24913292,0.09958625,-0.673772,2.351169,-0.58287007
641552000,-107027.14,-2875729.8,-490.72513,0.9987434,2.1835303,0.02095082,3.7285688,1.7232486,0.305972,0.25672972,0.11865387,-0.67523444,2.293605,-0.6163804
641656000,-107027.21,-2875729.8,-490.72342,1.3849622,2.154301,0.022648983,3.817966,1.6229814,0.28572217,0.2633985,0.111968234,-0.67655325,2.2276137,-0.6526832
641752000,-107027.25,-2875729.8,-490.72217,1.7378074,2.1090508,0.02356796,3.7868085,1.5092305,0.27225265,0.2615645,0.104246385,-0.6773703,2.1633477,-0.6861935
641856000,-107027.26,-2875729.8,-490.72134,2.0296218,1.7942591,0.023382861,3.4749298,0.95139754,0.22893676,0.24105479,0.065998144,-0.6802839,2.0900958,-0.72249633
641952000,-107027.26,-2875729.8,-490.72064,2.3238864,1.7490083,0.020417882,3.148593,0.9013748,0.13817436,0.22045681,0.06311208,-0.68663824,2.0191276,-0.75600666
642056000,-107027.22,-2875729.8,-490.7202,2.6083064,1.7237464,0.015208952,3.1104565,1.1208434,0.051247958,0.21971947,0.079175234,-0.69273144,1.9397346,-0.7540478
642152000,-107027.17,-2875729.8,-490.72012,2.8526578,1.7184315,0.009886606,3.157218,1.5500504,0.04287624,0.22318144,0.109571934,-0.6932248,1.8687795,-0.72379804
642256000,-107027.09,-2875729.8,-490.72037,3.1210823,1.7739773,0.0052880277,3.247189,2.0349655,0.09178272,0.22833811,0.14309613,-0.689591,1.7951397,-0.6907444
642352000,-107027.0,-2875729.8,-490.7209,3.3526335,1.5869776,0.0027122633,2.9925585,1.6553421,0.15458009,0.20900784,0.11561326,-0.6849211,1.7301139,-0.66319966
642456000,-107026.89,-2875729.8,-490.7218,3.5513022,1.6614779,0.00046353787,2.6003463,1.698871,0.12401259,0.18215469,0.11900617,-0.6869569,1.6628503,-0.6297815
642552000,-107026.766,-2875729.8,-490.7229,3.6991432,1.4690697,-0.0034244834,2.227428,1.0666082,0.025581967,0.1576198,0.07547655,-0.69395006,1.6038406,-0.59829605
642656000,-107026.625,-2875729.8,-490.72437,3.7997682,1.5016553,-0.010372916,1.7765145,0.67616117,-0.08605221,0.12714668,0.04839344,-0.70187044,1.5431807,-0.56682867
642752000,-107026.49,-2875729.8,-490.72604,3.8485436,1.2393024,-0.018516488,1.3521893,-0.1508112,-0.1462959,0.09737059,-0.010859852,-0.7061727,1.490201,-0.5355174
642856000,-107026.35,-2875729.8,-490.72803,3.8437028,1.1933367,-0.025344249,0.87651145,-0.5270313,-0.2106589,0.06353057,-0.038199846,-0.71080256,1.4361409,-0.50352603
642952000,-107026.22,-2875729.8,-490.72986,3.7939248,0.86111665,-0.031548046,0.5043632,-1.2413468,-0.21287386,0.03656741,-0.090000294,-0.71100277,1.3892107,-0.47502542
643056000,-107026.08,-2875729.8,-490.73184,3.7076979,0.74376726,-0.03772129,0.30434656,-1.5946155,-0.16108559,0.02195159,-0.11501475,-0.70732486,1.3415726,-0.44069108
643152000,-107025.945,-2875729.8,-490.73364,3.584234,0.3412757,-0.042417504,-0.16104859,-2.3722887,-0.10395937,-0.011549785,-0.17013142,-0.70329547,1.3008121,-0.4098988
643256000,-107025.805,-2875729.8,-490.73547,3.4411402,0.14072657,-0.044221524,0.012619138,-2.7401667,-0.031036112,0.00089840795,-0.19508366,-0.6981754,1.2600704,-0.37359595
643352000,-107025.68,-2875729.8,-490.73715,3.318965,-0.088264465,-0.04402005,0.21866095,-2.7568429,0.0011086371,0.015519573,-0.19566832,-0.6960322,1.2256392,-0.3423086
643456000,-107025.56,-2875729.8,-490.7389,3.1719003,-0.5546012,-0.04478208,0.34493047,-3.1084177,-0.0059108585,0.024504138,-0.22082451,-0.6966724,1.1919268,-0.30600578
643552000,-107025.47,-2875729.8,-490.7404,3.0293598,-0.78717613,-0.047808077,0.3674457,-3.1179984,-0.03970797,0.026198825,-0.22231284,-0.6992131,1.1641588,-0.27249548
643656000,-107025.37,-2875729.8,-490.74197,2.8863635,-1.0211105,-0.049367078,0.3398351,-2.9957118,-0.024823062,0.024194386,-0.21327814,-0.6981793,1.137707,-0.23619263
643752000,-107025.28,-2875729.8,-490.74332,2.7368724,-1.2535958,-0.048791997,0.25800952,-2.9516463,0.0010087267,0.018318867,-0.2095691,-0.6962793,1.1166412,-0.20268229
643848000,-107025.195,-2875729.8,-490.74472,2.5877795,-1.4855084,-0.048693888,0.08103508,-2.9679253,0.01460865,0.005744742,-0.2104023,-0.695214,1.09745,-0.16637942
643952000,-107025.11,-2875729.8,-490.74597,2.4046748,-1.4803505,-0.049918305,-0.14051104,-2.5593505,0.015446366,-0.0099596605,-0.18141109,-0.6951121,1.0830861,-0.13286908
644056000,-107025.016,-2875729.8,-490.7473,2.2268949,-1.7122631,-0.049740046,-0.27839032,-2.6045403,0.01475491,-0.019733474,-0.18462075,-0.6951365,1.0711554,-0.09656623
644152000,-107024.93,-2875729.8,-490.74854,2.0589938,-1.7071052,-0.048458472,-0.42968625,-2.261867,0.0034528496,-0.030492358,-0.16051167,-0.6959221,1.0634935,-0.06305591
644256000,-107024.85,-2875729.8,-490.7498,1.8517406,-1.9406409,-0.048331592,-0.6097509,-2.4322634,-0.008223877,-0.043323036,-0.17281325,-0.69676673,1.0588232,-0.026753062
644352000,-107024.77,-2875729.8,-490.7509,1.6711245,-1.9383221,-0.049550205,-0.77704036,-2.1409972,-0.01773637,-0.05526258,-0.15226625,-0.697442,1.0578632,0.0067572594
644448000,-107024.7,-2875729.8,-490.75208,1.4739289,-1.9348459,-0.049850572,-0.92053074,-1.8979561,-0.045506258,-0.0656557,-0.13536933,-0.6994462,1.0604535,0.04306011
644552000,-107024.64,-2875729.8,-490.75314,1.2677119,-1.93155,-0.049573824,-1.0458812,-1.6442896,-0.053150244,-0.074654534,-0.11736866,-0.69999486,1.0661957,0.07657043
644648000,-107024.57,-2875729.8,-490.7542,1.0822732,-1.9279795,-0.05014885,-1.1320806,-1.4686912,-0.07442202,-0.08098686,-0.105067335,-0.7015479,1.076047,0.11287328
644752000,-107024.51,-2875729.8,-490.75516,0.8687053,-1.9250965,-0.052527126,-1.2775521,-1.3481538,-0.09278244,-0.09157127,-0.09663178,-0.7029115,1.0884914,0.14638361
644856000,-107024.445,-2875729.8,-490.7562,0.6682698,-1.9233694,-0.05365779,-1.3936214,-1.1953015,-0.09211683,-0.099891685,-0.08567656,-0.7029194,1.1056031,0.18268648
644952000,-107024.39,-2875729.8,-490.7571,0.48618203,-1.9211693,-0.05344556,-1.4671265,-1.1086675,-0.08291447,-0.10507032,-0.079398766,-0.7023181,1.1247495,0.21619682
645056000,-107024.33,-2875729.8,-490.75806,0.30284885,-1.9187789,-0.053024735,-1.5509099,-1.0249281,-0.08008288,-0.111049384,-0.07338766,-0.7021833,1.1491216,0.25249967
645152000,-107024.27,-2875729.8,-490.75894,0.13607511,-1.6790729,-0.05278183,-1.610723,-0.53371716,-0.055067867,-0.11504248,-0.038119618,-0.7004199,1.17497,0.28600997
645256000,-107024.21,-2875729.8,-490.75986,-0.024988294,-1.6766825,-0.05071306,-1.608782,-0.49199718,-0.038271606,-0.11470897,-0.035080258,-0.69923174,1.2066027,0.3223128
645352000,-107024.16,-2875729.8,-490.76062,-0.16211581,-1.6744761,-0.04821185,-1.6057193,-0.47458458,-0.041148175,-0.11453245,-0.03385108,-0.69948715,1.2391533,0.3558231
645448000,-107024.09,-2875729.8,-490.7614,-0.286117,-1.4353228,-0.04653981,-1.6069843,-0.07189074,-0.055110637,-0.11479746,-0.005135629,-0.7005529,1.2778456,0.37537077
645552000,-107024.055,-2875729.8,-490.76215,-0.4182871,-1.4531708,-0.045152374,-1.2173603,-0.5180638,-0.051956218,-0.08694176,-0.036999214,-0.7003727,1.3122727,0.34186047
645648000,-107024.0,-2875729.8,-490.76276,-0.4642074,-1.2766051,-0.04332648,-0.6906185,-0.650584,-0.080410406,-0.049470264,-0.04660252,-0.702466,1.3459386,0.30555764
645752000,-107023.945,-2875729.8,-490.76318,-0.46762455,-1.3527002,-0.04152945,-0.15669692,-0.8037924,-0.107513025,-0.011256787,-0.057742804,-0.70448416,1.3736634,0.27204734
645856000,-107023.88,-2875729.8,-490.76355,-0.40807915,-1.1976371,-0.040770438,0.40288925,-0.4948113,-0.1258319,0.028999802,-0.035616312,-0.7058746,1.4000685,0.23574449
645952000,-107023.81,-2875729.8,-490.76373,-0.29758698,-1.036232,-0.0407471,0.94855416,-0.20337158,-0.13301027,0.06833559,-0.014651264,-0.70648724,1.4210914,0.20223415
646056000,-107023.71,-2875729.8,-490.76376,-0.110310316,-1.1186686,-0.039380472,1.5652766,-0.3607124,-0.091227785,0.112301685,-0.025879525,-0.70358294,1.4402361,0.16593128
646152000,-107023.6,-2875729.8,-490.7637,0.12151337,-0.95726395,-0.03655489,2.1720464,-0.11487669,-0.031954944,0.1549146,-0.008193231,-0.6994286,1.4545571,0.13242094
646256000,-107023.45,-2875729.8,-490.7635,0.43645597,-0.8022003,-0.032108,2.8171608,0.11545676,0.074060455,0.1987619,0.008145933,-0.6918984,1.4664413,0.09611809
646352000,-107023.29,-2875729.8,-490.76312,0.7689873,-0.8782954,-0.026507078,3.0566688,-0.07388359,0.17802775,0.21334459,-0.0051568113,-0.6844692,1.4740603,0.06260777
646456000,-107023.07,-2875729.8,-490.76263,1.1475471,-0.7232318,-0.018609054,3.0498738,0.13634342,0.22320786,0.21187285,0.009471693,-0.681262,1.4786841,0.026304925
646552000,-107022.84,-2875729.8,-490.76202,1.4675708,-0.7993269,-0.011249959,2.8360634,-0.06854099,0.21799351,0.19712082,-0.004763947,-0.6816119,1.4796009,-0.007205397
646648000,-107022.58,-2875729.8,-490.7612,1.8035872,-0.88176346,-0.0056376318,2.6575334,-0.26554888,0.14394547,0.18614903,-0.018600583,-0.68691397,1.4769636,-0.043508247
646752000,-107022.31,-2875729.8,-490.76028,2.0542328,-0.7171588,-0.0030087614,2.3570647,0.1578905,0.06233491,0.16650482,0.011153502,-0.69274986,1.4711782,-0.07701857
646848000,-107022.01,-2875729.8,-490.7592,2.3218932,-0.76132345,-0.0015468253,2.1602743,0.454477,0.0034923758,0.15352981,0.032299493,-0.6969543,1.4612805,-0.113321416
646952000,-107021.73,-2875729.8,-490.75803,2.4883168,-0.7637265,-0.0014814315,1.837355,0.7378422,-0.034300435,0.13108487,0.052640863,-0.69964916,1.448793,-0.14683175
647056000,-107021.41,-2875729.8,-490.75662,2.6430895,-0.5072179,-0.0011791633,1.5063512,1.1267359,-0.055788305,0.10770428,0.08056175,-0.7011768,1.4316349,-0.18313462
647152000,-107021.11,-2875729.8,-490.75516,2.7401352,-0.48440313,-0.0019116532,1.1606107,1.0610046,-0.07135457,0.08311452,0.07598147,-0.70228124,1.4124455,-0.21664496
647248000,-107020.78,-2875729.8,-490.75357,2.811708,-0.45372343,-0.003256617,0.81755203,1.0088983,-0.095705226,0.058694158,0.07243139,-0.70404637,1.388027,-0.2529478
647352000,-107020.484,-2875729.8,-490.75214,2.8096879,-0.41985416,-0.006141633,0.41693825,0.93334305,-0.123857036,0.030020444,0.067202695,-0.7060945,1.3621354,-0.2864581
647456000,-107020.18,-2875729.8,-490.75064,2.7609515,-0.37697124,-0.008601358,-0.04046178,0.8865725,-0.13583201,-0.0029170339,0.06391617,-0.7069945,1.330456,-0.32276094
647552000,-107019.9,-2875729.8,-490.74927,2.6821315,-0.33172417,-0.010276603,-0.45091677,0.85081685,-0.12848713,-0.032485705,0.06129598,-0.7065099,1.2978625,-0.35627124
647656000,-107019.625,-2875729.8,-490.74783,2.5465758,-0.5137725,-0.013218969,-0.4534496,0.42334032,-0.1305576,-0.032678284,0.03050843,-0.7067182,1.2589227,-0.39257407
647752000,-107019.38,-2875729.8,-490.74652,2.4359229,-0.45796824,-0.017050996,-0.23854041,0.4426606,-0.1536736,-0.017232051,0.0319776,-0.70844126,1.2196273,-0.42608437
647856000,-107019.13,-2875729.8,-490.74512,2.3332996,-0.39490414,-0.020084877,-0.029033542,0.46234655,-0.16867502,-0.0021008372,0.033454917,-0.70960236,1.1736386,-0.44519812
647952000,-107018.914,-2875729.8,-490.74387,2.257524,-0.33646154,-0.02225027,0.15781891,0.48773602,-0.17580059,0.011429161,0.03532158,-0.71020263,1.1325082,-0.41168782
648048000,-107018.68,-2875729.8,-490.74252,2.2092507,-0.27314854,-0.024452716,0.30374372,0.5277604,-0.1730394,0.021993546,0.0382142,-0.71008885,1.0915803,-0.375385
648152000,-107018.46,-2875729.8,-490.7414,2.1413198,-0.21470594,-0.026964791,0.34350997,0.53311676,-0.14590251,0.02480701,0.0384997,-0.70819914,1.0571518,-0.3418747
648256000,-107018.24,-2875729.8,-490.7402,2.0882325,-0.39554882,-0.027288202,0.3701958,-0.0019059181,-0.10651,0.026628189,-0.0001370927,-0.70540744,1.0234847,-0.30557185
648352000,-107018.055,-2875729.8,-490.7391,2.0473304,-0.36155415,-0.02668764,0.41219848,-0.14685038,-0.113640234,0.029675895,-0.010572374,-0.70599204,0.9957584,-0.27206156
648456000,-107017.85,-2875729.8,-490.73798,2.0054774,-0.33280134,-0.026705876,0.4202748,-0.15654144,-0.11125964,0.030250875,-0.011267666,-0.7058897,0.96935195,-0.2357587
648552000,-107017.664,-2875729.8,-490.73703,1.9642391,-0.30815077,-0.027600676,0.40295905,-0.08147979,-0.11082427,0.029007195,-0.0058653606,-0.7059167,0.9483277,-0.20224836
648656000,-107017.46,-2875729.8,-490.73602,1.9259092,-0.52355385,-0.027557876,0.3894046,-0.49557137,-0.092186555,0.02797987,-0.035608266,-0.70463413,0.9291817,-0.1659455
648752000,-107017.27,-2875729.8,-490.73514,1.892994,-0.50504637,-0.026743691,0.38362038,-0.44457453,-0.09813289,0.02758352,-0.031966317,-0.70512956,0.9148594,-0.13243516
648848000,-107017.086,-2875729.8,-490.73422,1.8618747,-0.4849968,-0.026639856,0.37082237,-0.36259276,-0.09897445,0.026666982,-0.026075164,-0.7052465,0.9029741,-0.09613231
648952000,-107016.93,-2875729.8,-490.73343,1.793483,-0.46648932,-0.027405646,0.3074137,-0.2712571,-0.10905497,0.022131668,-0.019528642,-0.70603913,0.8953541,-0.06262199
649056000,-107016.77,-2875729.8,-490.7326,1.7241288,-0.68393993,-0.027356498,0.28210527,-0.6224679,-0.09831634,0.020289736,-0.044769485,-0.70532227,0.89072925,-0.02631914
649152000,-107016.63,-2875729.8,-490.73187,1.6636131,-0.66543245,-0.026684985,0.2580365,-0.5457833,-0.09522386,0.018554486,-0.039245337,-0.70515794,0.88981116,0.007191181
649256000,-107016.5,-2875729.8,-490.73108,1.5789903,-0.6474309,-0.026310578,0.18587512,-0.5129821,-0.081734926,0.013347918,-0.03683787,-0.7042304,0.89244694,0.04349403
649352000,-107016.375,-2875729.8,-490.73035,1.5099335,-0.63506794,-0.026091177,0.13108552,-0.44582623,-0.07313879,0.0094052525,-0.031987578,-0.7036438,0.8982309,0.07700435
649456000,-107016.24,-2875729.8,-490.72955,1.437876,-0.62167454,-0.024952875,0.06678158,-0.37880063,-0.08074981,0.004795943,-0.027203705,-0.7042481,0.90812725,0.1133072
649552000,-107016.125,-2875729.8,-490.72885,1.3632678,-0.84988356,-0.023364557,0.004843116,-0.8068256,-0.081824765,0.00034787014,-0.057952467,-0.7043897,0.92061335,0.14681754
649656000,-107015.99,-2875729.8,-490.72818,1.2997007,-0.84294796,-0.022745054,-0.05297792,-0.7311395,-0.07646869,-0.0038034604,-0.05249093,-0.704056,0.9377703,0.1831204
649752000,-107015.88,-2875729.8,-490.7276,1.218862,-0.83461475,-0.023415036,-0.09978655,-0.6280283,-0.08310437,-0.007169316,-0.045121644,-0.70457906,0.9569585,0.21663074
649848000,-107015.76,-2875729.8,-490.72696,1.1578505,-0.8246145,-0.023436401,-0.14547646,-0.54920524,-0.0942359,-0.010464675,-0.039506424,-0.7054316,0.9813759,0.2529336
649952000,-107015.664,-2875729.8,-490.72638,1.0644844,-0.8153186,-0.023221374,-0.19401878,-0.4650935,-0.100531325,-0.013966756,-0.03348051,-0.7059453,1.0072659,0.2864439
650056000,-107015.56,-2875729.8,-490.72583,0.9789089,-0.8052478,-0.023700504,-0.24676742,-0.410133,-0.10097401,-0.017765826,-0.029527204,-0.7060263,1.0389438,0.32274672
650152000,-107015.47,-2875729.8,-490.7253,0.8983086,-0.79595184,-0.025147662,-0.30291972,-0.3827669,-0.11585936,-0.021844143,-0.027602084,-0.70715994,1.0708598,0.32888386
650256000,-107015.375,-2875729.8,-490.72476,0.8154587,-0.78588104,-0.025570607,-0.31471533,-0.34685376,-0.10064557,-0.022660088,-0.024974113,-0.706111,1.104451,0.3133382
650352000,-107015.29,-2875729.8,-490.72424,0.74450696,-0.7796569,-0.024933157,-0.38301054,-0.39343798,-0.09058043,-0.027551904,-0.028302005,-0.7054331,1.1340563,0.30065745
650456000,-107015.195,-2875729.8,-490.7237,0.6716267,-0.77607775,-0.02431341,-0.37671995,-0.37137848,-0.09966099,-0.027126458,-0.026741834,-0.70615166,1.164712,0.2864061
650552000,-107015.11,-2875729.8,-490.72327,0.6096584,-0.77142286,-0.024358414,-0.41031617,-0.3507735,-0.0892925,-0.029516252,-0.025233028,-0.70544946,1.1917225,0.27348623
650656000,-107015.02,-2875729.8,-490.7228,0.5372952,-0.76582336,-0.023473836,-0.45658338,-0.3206542,-0.08609067,-0.03283662,-0.02306085,-0.7052731,1.2196448,0.26042128
650752000,-107014.94,-2875729.8,-490.72244,0.48245388,-0.76061964,-0.022694865,-0.48345423,-0.2997417,-0.08597091,-0.034771003,-0.021558026,-0.7053157,1.2442086,0.24843581
650856000,-107014.86,-2875729.8,-490.72205,0.41149092,-0.7549825,-0.023030993,-0.46197477,-0.29650134,-0.09098971,-0.033245113,-0.02133714,-0.70572567,1.2695289,0.23490211
650952000,-107014.78,-2875729.8,-490.72168,0.3671041,-0.74977875,-0.02465274,-0.45518455,-0.2883755,-0.09823248,-0.03278237,-0.020768786,-0.70629275,1.2917503,0.22378117
651056000,-107014.71,-2875729.8,-490.72128,0.3056266,-0.7441416,-0.024604922,-0.45119607,-0.28455955,-0.08676778,-0.03246008,-0.020471865,-0.7055063,1.3145348,0.21130508
651152000,-107014.65,-2875729.8,-490.72092,0.25095356,-0.74140596,-0.024015782,-0.39916882,-0.3282994,-0.103059545,-0.028767643,-0.023660164,-0.70674187,1.3344744,0.20113769
651256000,-107014.586,-2875729.8,-490.72052,0.20205155,-0.7389922,-0.024089033,-0.42153227,-0.30467573,-0.089316234,-0.030337749,-0.021927563,-0.7057948,1.3548797,0.1875383
651352000,-107014.52,-2875729.8,-490.72015,0.16417563,-0.73623514,-0.024912545,-0.44826987,-0.30640903,-0.09911637,-0.03229676,-0.02207603,-0.7065485,1.372558,0.17608973
651456000,-107014.46,-2875729.8,-490.7198,0.1229018,-0.49564552,-0.024772173,-0.41951495,0.14417094,-0.08192524,-0.030173896,0.010369591,-0.7053492,1.390751,0.17361404
651552000,-107014.41,-2875729.8,-490.71948,0.08570227,-0.49279022,-0.023581525,-0.39154822,0.14332047,-0.0687231,-0.028124833,0.010294682,-0.70443004,1.4070338,0.16099942
651648000,-107014.34,-2875729.8,-490.7192,0.06161651,-0.48969698,-0.022830801,-0.3685102,0.103224166,-0.07139893,-0.02647934,0.007417183,-0.704663,1.423274,0.14747322
651752000,-107014.29,-2875729.8,-490.719,0.02470392,-0.48684168,-0.023046924,-0.36569726,0.052726746,-0.08592671,-0.026319448,0.003794775,-0.7057615,1.437116,0.13589908
651848000,-107014.23,-2875729.8,-490.71875,0.008028269,-0.4853673,-0.022732059,-0.33783907,-0.0072967187,-0.08463022,-0.024311248,-0.0005250794,-0.7057109,1.4507749,0.12381094
651952000,-107014.17,-2875729.8,-490.71854,-0.014094561,-0.4835987,-0.021839654,-0.3182004,-0.05151286,-0.0871205,-0.02290481,-0.0037080161,-0.7059423,1.4621291,0.11048646
652048000,-107014.11,-2875729.8,-490.7183,-0.015988767,-0.24399519,-0.021871837,-0.27972335,0.3457423,-0.089282036,-0.020142285,0.02489617,-0.70614266,1.4734242,0.105947584
652152000,-107014.06,-2875729.8,-490.71808,-0.03748718,-0.24205065,-0.022907933,-0.20351279,0.30706102,-0.0813819,-0.014644098,0.022095079,-0.7056079,1.4832644,0.094877
652256000,-107014.02,-2875729.8,-490.71783,-0.054632336,-0.23994446,-0.023086905,-0.14009035,0.24593191,-0.093826875,-0.010093943,0.017720155,-0.70655715,1.4924992,0.08018908
652352000,-107013.99,-2875729.8,-490.71762,-0.0778884,-0.2392087,-0.02252596,-0.13430089,0.1858369,-0.0916685,-0.009674907,0.013387511,-0.7064463,1.4997431,0.0669023
652448000,-107013.95,-2875729.8,-490.71738,-0.07753441,-0.23813248,-0.022546185,-0.1534563,0.12462588,-0.09471896,-0.011059049,0.008981342,-0.7067108,1.5063082,0.054746047
652552000,-107013.92,-2875729.8,-490.71716,-0.08216673,-0.23713923,-0.023824822,-0.15265681,0.07646555,-0.0937269,-0.01099807,0.0055089155,-0.70667696,1.5110617,0.04481201
652656000,-107013.89,-2875729.8,-490.71695,-0.0882377,0.0014371872,-0.024064763,-0.10233214,0.47027647,-0.0940149,-0.0073745055,0.0338902,-0.70671076,1.5157211,0.048699524
652752000,-107013.86,-2875729.8,-490.7168,-0.086548805,0.00222826,-0.023123516,-0.06186942,0.40436858,-0.069524825,-0.004447615,0.029068897,-0.7049627,1.519716,0.032916598
652856000,-107013.83,-2875729.8,-490.71664,-0.085769564,0.0028896332,-0.022876317,-0.12284872,0.364555,-0.064798355,-0.0088265715,0.026192954,-0.7046253,1.522611,0.023736058
652952000,-107013.8,-2875729.8,-490.7165,-0.074362546,0.0037193298,-0.023825476,-0.015194848,0.2865064,-0.073371634,-0.0010927554,0.020604447,-0.70523727,1.5242095,0.01407502
653056000,-107013.766,-2875729.8,-490.71634,-0.063718885,0.0043497086,-0.024219608,-0.01893904,0.22387262,-0.086077094,-0.0013636975,0.01611985,-0.70614415,1.5251883,0.016293466
653152000,-107013.74,-2875729.8,-490.7162,-0.060236245,0.0049619675,-0.024041178,-0.03813447,0.16780543,-0.090608284,-0.002746963,0.01208763,-0.7064676,1.5256133,0.005585054
653256000,-107013.73,-2875729.8,-490.716,-0.053391546,0.0054183006,-0.02438481,0.031505875,0.12331357,-0.10409338,0.002272122,0.008893054,-0.70742834,1.526644,0.0
653352000,-107013.695,-2875729.8,-490.71585,-0.026482075,0.0058817863,-0.024922626,-0.0025878102,0.11508011,-0.08486727,-0.00018626462,0.008283202,-0.70605665,1.526644,0.0
653448000,-107013.664,-2875729.8,-490.7157,-0.0058544725,0.006407261,-0.024292978,0.0037525147,0.08353004,-0.089217596,0.0002705582,0.0060225576,-0.7063683,1.5255772,-0.0024480997
653552000,-107013.66,-2875729.8,-490.71555,-0.007689357,0.006869316,-0.023359653,0.14561021,0.06622526,-0.08414769,0.010481645,0.004767177,-0.70600647,1.5255686,0.0
653648000,-107013.65,-2875729.8,-490.7154,-0.0064969063,0.0071611404,-0.023328992,0.14569528,0.030335896,-0.08473588,0.010490951,0.00218437,-0.7060484,1.5255686,0.0
653752000,-107013.63,-2875729.8,-490.71524,0.013153702,0.24476385,-0.024723208,0.08674559,0.45984417,-0.083829515,0.00624477,0.033103943,-0.70598376,1.5260346,0.0
653856000,-107013.625,-2875729.8,-490.71512,0.01696004,0.24494553,-0.02467157,0.14571072,0.42194444,-0.07914522,0.010484625,0.030361041,-0.7056494,1.5260346,0.0
653952000,-107013.62,-2875729.8,-490.71497,0.025711432,0.24519253,-0.02379817,0.11116343,0.36890242,-0.087537676,0.008005541,0.026566857,-0.70624846,1.5251433,-0.010173459
654056000,-107013.6,-2875729.8,-490.71484,0.03926395,0.24527979,-0.02357192,0.060437337,0.3148305,-0.08151019,0.0043498403,0.02265921,-0.7058181,1.5249951,0.0
654152000,-107013.6,-2875729.8,-490.71472,0.041605204,0.24549007,-0.024158606,0.14439803,0.25158134,-0.08340581,0.010395655,0.01811211,-0.7059516,1.5241038,-0.010173459
654256000,-107013.586,-2875729.8,-490.71457,0.058823243,0.24566746,-0.023742381,0.057069622,0.20387316,-0.084498756,0.0041086157,0.014677449,-0.7060315,1.5232719,-0.015756326
654352000,-107013.58,-2875729.8,-490.71454,0.07248098,0.2457509,-0.022766892,0.16285516,0.18163244,-0.07336163,0.011710848,0.0130611155,-0.705235,1.5226371,-0.013962634
654456000,-107013.57,-2875729.8,-490.71448,0.08109019,0.24600458,-0.022406708,0.1745679,0.14326653,-0.08080558,0.01256234,0.010309815,-0.7057679,1.5217766,-0.00837758
654552000,-107013.555,-2875729.8,-490.71442,0.10073974,0.24609375,-0.023269925,0.11519474,0.13492645,-0.094711475,0.008300852,0.009722705,-0.7067605,1.5203185,-0.019045463
654656000,-107013.55,-2875729.8,-490.71436,0.11196407,0.008750439,-0.023297751,0.18810329,-0.310587,-0.09008102,0.013549137,-0.022371674,-0.70642996,1.5187956,-0.027425218
654752000,-107013.54,-2875729.8,-490.7143,0.120711274,0.008962631,-0.022281818,0.14022596,-0.3019808,-0.078458086,0.010089319,-0.021727648,-0.7056003,1.5168903,-0.013911253
654848000,-107013.52,-2875729.8,-490.71423,0.13426319,0.0090379715,-0.021050721,0.10219312,-0.26265076,-0.07922755,0.007354016,-0.018900858,-0.7056553,1.5158947,0.0
654952000,-107013.52,-2875729.8,-490.7142,0.13659978,0.009218216,-0.019861344,0.18075587,-0.19916403,-0.078405954,0.013006235,-0.0143307885,-0.7055966,1.5149876,-0.010806058
655056000,-107013.51,-2875729.8,-490.7141,0.14639309,0.009369373,-0.018260406,0.09290917,-0.14054695,-0.07158145,0.006681052,-0.01010666,-0.7051095,1.5148203,0.0
655152000,-107013.5,-2875729.8,-490.71408,0.15262727,0.009439945,-0.016968222,0.1868844,-0.1121108,-0.073202945,0.013438997,-0.0080619715,-0.7052252,1.5148203,0.0
655248000,-107013.49,-2875729.8,-490.71402,0.15381022,0.009654999,-0.015967192,0.17476904,-0.09533046,-0.07760852,0.01257576,-0.006859641,-0.7055397,1.5148203,0.0
655352000,-107013.48,-2875729.8,-490.71396,0.16603698,0.009729862,-0.015335053,0.12033448,-0.07119926,-0.06803916,0.008649101,-0.005117482,-0.70485663,1.5148203,0.0
655456000,-107013.48,-2875729.8,-490.7139,0.16241425,0.009861469,-0.014264264,0.17452988,-0.06084966,-0.0821054,0.012561937,-0.0043797065,-0.7058607,1.5148203,0.0
655552000,-107013.48,-2875729.8,-490.71387,0.15499236,0.009861469,-0.013360937,0.14459285,-0.056969743,-0.0791053,0.010403428,-0.0040989625,-0.705646,1.5157274,0.010806058
655648000,-107013.48,-2875729.8,-490.71387,0.14757049,0.009861469,-0.012701751,0.1084581,-0.04526179,-0.08306005,0.0078052995,-0.0032573112,-0.7059288,1.5165842,0.016393261
655752000,-107013.48,-2875729.8,-490.71387,0.14014861,0.009861469,-0.012701751,0.08363194,-0.047446463,-0.07747288,0.0060153566,-0.0034126607,-0.70553,1.5170138,0.005585054
655856000,-107013.48,-2875729.8,-490.71387,0.13272674,0.009861469,-0.0124270925,0.054583564,-0.03249196,-0.07125417,0.0039247368,-0.0023362783,-0.7050861,1.5182306,0.013602881
655952000,-107013.48,-2875729.8,-490.71387,0.12530486,0.009861469,-0.012091399,0.04839189,-0.03630385,-0.08718629,0.0034891972,-0.0026176143,-0.70622337,1.5196064,0.020238446
656056000,-107013.48,-2875729.8,-490.71387,0.110461116,0.009861469,-0.0124270925,0.021918632,-0.030579709,-0.09616256,0.0015832711,-0.0022088955,-0.70686316,1.5212225,0.0056374893
656152000,-107013.48,-2875729.8,-490.71387,0.103039235,0.009861469,-0.013251067,0.009758137,-0.017870996,-0.10180394,0.00070217554,-0.0012859603,-0.70726675,1.5224303,0.012371487
656248000,-107013.48,-2875729.8,-490.71387,0.09561736,0.009861469,-0.013556243,0.0038582194,-0.041845545,-0.1027268,0.00027734917,-0.0030080788,-0.7073326,1.5243005,0.011601385
656352000,-107013.48,-2875729.8,-490.71387,0.080773614,0.009861469,-0.01346469,-0.015768994,-0.02468814,-0.09320769,-0.0011373967,-0.001780723,-0.7066532,1.525595,0.017803976
656456000,-107013.48,-2875729.8,-490.71387,0.07335174,0.009861469,-0.013190032,-0.009816974,-0.02263757,-0.08144766,-0.0007124785,-0.0016429484,-0.7058137,1.5275309,0.011475898
656552000,-107013.48,-2875729.8,-490.71387,0.06592987,0.009861469,-0.013403655,-0.011047147,-0.01842081,-0.08813316,-0.000783248,-0.0013060443,-0.70629096,1.528731,0.006689433
656656000,-107013.48,-2875729.8,-490.71387,0.051086113,0.009861469,-0.012976409,-0.03869599,-0.035221137,-0.092012614,-0.0027832908,-0.0025333543,-0.7065679,1.5300664,0.014763871
656752000,-107013.48,-2875729.8,-490.71387,0.04366424,0.009861469,-0.0122134695,-0.043055575,-0.02670086,-0.08908342,-0.00309512,-0.0019194346,-0.7063588,1.5314252,0.020423004
656848000,-107013.48,-2875729.8,-490.71387,0.036242366,0.009861469,-0.011511565,-0.04817589,-0.022890503,-0.079338804,-0.0034656134,-0.0016466666,-0.7056632,1.5330528,0.0056644753
656952000,-107013.48,-2875729.8,-490.71387,0.021398619,0.009861469,-0.011297942,-0.050243802,-0.02293689,-0.07158095,-0.0036120326,-0.0016489356,-0.7051094,1.5341727,0.0012112097
657056000,-107013.48,-2875729.8,-490.71387,0.013976738,0.009861469,-0.010779143,-0.05929646,-0.013290465,-0.08695796,-0.004262871,-0.00095546246,-0.70620704,1.5354494,0.018079806
657152000,-107013.48,-2875729.8,-490.71387,0.006554872,0.009861469,-0.009924651,-0.052072898,-0.0243425,-0.07923591,-0.0037456923,-0.0017509977,-0.7056559,1.5367886,0.01968899
657248000,-107013.48,-2875729.8,-490.71387,-0.00086700916,0.009861469,-0.00955844,-0.066203065,-0.014887801,-0.08653357,-0.0047636037,-0.0010712432,-0.70617676,1.5376827,0.013962634
657352000,-107013.48,-2875729.8,-490.71387,-0.00828889,0.009861469,-0.009711028,-0.05039624,-0.019713795,-0.09006538,-0.0036343797,-0.0014216817,-0.7064289,1.5389302,0.019225549
657456000,-107013.48,-2875729.8,-490.71387,-0.015710756,0.009861469,-0.009375335,-0.08014265,-0.0194295,-0.08217104,-0.005762983,-0.0013971572,-0.7058654,1.539657,0.00837758
657552000,-107013.48,-2875729.8,-490.71387,-0.023132637,0.009861469,-0.008917571,-0.077479534,-0.0018282821,-0.081889816,-0.005577239,-0.00013160592,-0.7058449,1.5407085,0.008059278
657656000,-107013.48,-2875729.8,-490.71387,-0.023132637,0.009861469,-0.008246184,-0.073199734,-0.018755447,-0.076653406,-0.0052656443,-0.0013491786,-0.7054715,1.5417097,0.0
657752000,-107013.48,-2875729.8,-490.71387,-0.030554503,0.009861469,-0.007910491,-0.06260786,-0.022286057,-0.07552078,-0.004502116,-0.0016025848,-0.7053907,1.5419888,0.013962634
657856000,-107013.48,-2875729.8,-490.71387,-0.030554503,0.009861469,-0.007055999,-0.048897244,-0.0191691,-0.058180008,-0.0035211989,-0.0013804093,-0.7041529,1.5427864,0.0
657952000,-107013.48,-2875729.8,-490.71387,-0.030554503,0.009861469,-0.0062625417,-0.04126242,-0.020749647,-0.07738706,-0.002968058,-0.0014925484,-0.7055239,1.5427864,0.0
658048000,-107013.48,-2875729.8,-490.71387,-0.037976384,0.009861469,-0.0062015066,-0.044705987,-0.022839224,-0.081102,-0.0032260704,-0.0016481226,-0.7057891,1.5434762,0.01643621
658152000,-107013.48,-2875729.8,-490.71387,-0.037976384,0.009861469,-0.007483245,-0.044731483,-0.016667394,-0.08695667,-0.0032231943,-0.0012009941,-0.706207,1.5438632,0.0
658256000,-107013.48,-2875729.8,-490.71387,-0.037976384,0.009861469,-0.008246184,-0.024004497,-0.026660753,-0.09156984,-0.001735131,-0.0019271349,-0.70653623,1.5438632,0.0
658352000,-107013.48,-2875729.8,-490.71387,-0.037976384,0.009861469,-0.008581878,-0.029377904,-0.029256256,-0.08714417,-0.0021160601,-0.0021072978,-0.7062203,1.5438632,0.0
658456000,-107013.48,-2875729.8,-490.71387,-0.037976384,0.009861469,-0.008581878,-0.022387177,-0.021102158,-0.09027738,-0.0016170206,-0.001524204,-0.706444,1.5438632,0.0
658552000,-107013.48,-2875729.8,-490.71387,-0.037976384,0.009861469,-0.008368255,-0.0049855076,-0.020179713,-0.08845917,-0.0003605577,-0.0014594203,-0.7063142,1.5438632,0.0
658656000,-107013.48,-2875729.8,-490.71387,-0.037976384,0.009861469,-0.0077273855,-0.016013818,-0.018810611,-0.08041176,-0.0011607192,-0.0013634375,-0.7057395,1.5438632,0.0
658752000,-107013.48,-2875729.8,-490.71387,-0.037976384,0.009861469,-0.0066287527,-0.015566594,-0.015639547,-0.07686494,-0.0011136191,-0.0011188381,-0.7054866,1.5438632,0.0
658856000,-107013.48,-2875729.8,-490.71387,-0.037976384,0.009861469,-0.0059268484,-0.005263467,-0.00889755,-0.066296,-0.00039176203,-0.00066224835,-0.7047322,1.5438632,0.0
658952000,-107013.48,-2875729.8,-490.71387,-0.037976384,0.009861469,-0.0060489187,0.012271963,-0.016663594,-0.07503188,0.00089024135,-0.0012088221,-0.70535576,1.5438632,0.0
659048000,-107013.48,-2875729.8,-490.71307,-0.041550502,-0.011770725,0.016376538,-0.04273566,-0.46896368,0.3817801,-0.0029316822,-0.03217108,-0.6727465,1.5438632,0.0
659152000,-107013.48,-2875729.8,-490.7087,-0.04499854,-0.07013893,0.063907415,-0.06882214,-0.9368962,0.3679226,-0.0047282083,-0.064366505,-0.67373765,1.5438632,0.0
659248000,-107013.48,-2875729.8,-490.69876,-0.048733905,-0.17497063,0.11461639,-0.04872958,-1.4579698,0.27244276,-0.003381695,-0.101178974,-0.68055296,1.5438632,0.0
659352000,-107013.48,-2875729.8,-490.68475,-0.052181944,-0.07263994,0.15770625,-0.050053254,-1.4700241,0.23239395,-0.0034881309,-0.10244362,-0.68341166,1.5438632,0.0
659456000,-107013.48,-2875729.8,-490.66437,-0.06333919,-0.26067257,0.2062485,-0.06473784,-2.0069895,0.21800774,-0.0045182733,-0.14007458,-0.6844386,1.5438632,0.0
659552000,-107013.48,-2875729.8,-490.6407,-0.081630975,-0.472641,0.2519934,-0.091134354,-2.5208323,0.2473709,-0.0063410886,-0.17539842,-0.68234265,1.5438632,0.0
659656000,-107013.48,-2875729.8,-490.60983,-0.100210086,-0.7438736,0.30395362,-0.111286186,-3.0764186,0.349949,-0.0076601505,-0.2117588,-0.6750206,1.5438632,0.0
659752000,-107013.48,-2875729.8,-490.57654,-0.11850187,-1.0255942,0.35510013,-0.13390113,-3.2697475,0.46159637,-0.009107987,-0.22240902,-0.6670512,1.5438632,0.0
659856000,-107013.48,-2875729.8,-490.53525,-0.15934661,-1.3026526,0.41261455,-0.19631015,-2.9107013,0.5485202,-0.013228634,-0.19614168,-0.6608351,1.5438632,0.0
659952000,-107013.48,-2875729.8,-490.4923,-0.19990402,-1.2824991,0.46531746,-0.2501736,-2.108883,0.49496767,-0.01695612,-0.14293467,-0.66466916,1.5438632,0.0
660056000,-107013.48,-2875729.8,-490.44058,-0.25559253,-1.4763579,0.51993275,-0.32501847,-1.7350378,0.37638527,-0.022309445,-0.11909394,-0.67313355,1.5438632,0.0
660152000,-107013.48,-2875729.8,-490.38797,-0.31099367,-1.379405,0.56814957,-0.39477658,-0.960088,0.29475525,-0.027332202,-0.066471316,-0.6789603,1.5438632,0.0
660248000,-107013.48,-2875729.8,-490.32578,-0.37410405,-1.4900637,0.6234362,-0.46514073,-0.64949954,0.25110963,-0.03235167,-0.045174267,-0.68207574,1.5438632,0.0
660352000,-107013.48,-2875729.8,-490.26355,-0.44434896,-1.3163102,0.66269183,-0.5482069,0.08958024,0.11029437,-0.038691245,0.0063223774,-0.69212717,1.5438632,0.0
660448000,-107013.48,-2875729.8,-490.19174,-0.50745934,-1.3437691,0.692394,-0.59511733,0.4051683,-0.3333624,-0.043923665,0.02990415,-0.7237954,1.5438632,0.0
660552000,-107013.48,-2875729.8,-490.1245,-0.57459795,-1.1066597,0.68410033,-0.6066844,0.76523715,-0.34201026,-0.04481524,0.05652739,-0.7244056,1.5438632,0.0
660656000,-107013.48,-2875729.8,-490.05167,-0.63397294,-1.1066597,0.68410033,-0.6484347,0.5532507,-0.2578209,-0.047502242,0.04052937,-0.7184033,1.5438632,0.0
660752000,-107013.48,-2875729.8,-489.98444,-0.67850417,-0.8691597,0.6847412,-0.6811476,0.7795718,-0.23885794,-0.049804628,0.05700128,-0.7170497,1.5438632,0.0
660856000,-107013.48,-2875729.8,-489.9116,-0.72303545,-0.63165975,0.68535155,-0.6729752,1.0104948,-0.2409691,-0.049217593,0.07390186,-0.7172004,1.5438632,0.0
660952000,-107013.48,-2875729.8,-489.84436,-0.7601448,-0.63165975,0.6855957,-0.66820115,0.8387049,-0.23375131,-0.048833232,0.061293922,-0.7166852,1.5438632,0.0
661056000,-107013.48,-2875729.8,-489.7715,-0.7898323,-0.39415956,0.6861145,-0.6560341,1.0726706,-0.22128908,-0.047884483,0.078295134,-0.71579564,1.5438632,0.0
661152000,-107013.48,-2875729.8,-489.70428,-0.80467606,-0.39415956,0.6867859,-0.61843175,0.8729128,-0.21978866,-0.045132905,0.06370483,-0.7156885,1.5438632,0.0
661256000,-107013.48,-2875729.8,-489.63144,-0.8120979,-0.1566596,0.6867859,-0.566973,1.1290584,-0.23196487,-0.04142788,0.08249863,-0.7165577,1.5438632,0.0
661352000,-107013.48,-2875729.8,-489.5642,-0.8195198,-0.1566596,0.6862976,-0.50938535,0.97120976,-0.2189147,-0.037171777,0.07087285,-0.7156261,1.5438632,0.0
