timestamp,timestamp_sample,ref_timestamp,ref_lat,ref_lon,x,y,z,delta_xy[0],delta_xy[1],delta_z,vx,vy,vz,z_deriv,delta_vxy[0],delta_vxy[1],delta_vz,ax,ay,az,heading,heading_var,unaided_heading,delta_heading,tilt_var,ref_alt,dist_bottom,dist_bottom_var,delta_dist_bottom,eph,epv,evh,evv,vxy_max,vz_max,hagl_min,hagl_max_z,hagl_max_xy,xy_valid,z_valid,v_xy_valid,v_z_valid,xy_reset_counter,z_reset_counter,vxy_reset_counter,vz_reset_counter,heading_reset_counter,heading_good_for_control,xy_global,z_global,dist_bottom_valid,dist_bottom_reset_counter,dist_bottom_sensor_bitfield,dead_reckoning
625256000,625256000,614664000,55.9177329,48.6654641,-107008.36,-2875729.8,-488.0604,-107052.38,-2875741.0,488.101,0.052492037,0.012090016,0.011616686,-0.0041082674,-0.0134160025,-0.00017775726,-0.000130333,0.0128882425,-0.08518684,-0.029388813,1.7956618,0.00039049616,0.19626427,0.012365364,3.0615935e-05,0.0,0.1000061,0.010000001,488.101,0.4573786,0.28125492,0.15993662,0.07067598,inf,inf,inf,inf,inf,1,1,1,1,5,4,3,1,3,1,1,1,0,4,0,0
625264000,625264000,614664000,55.9177329,48.6654641,-107008.36,-2875729.8,-488.06055,-107052.38,-2875741.0,488.101,0.051913273,0.012217283,0.011126377,-0.0047020055,-0.0134160025,-0.00017775726,-0.000130333,-0.031627778,0.02714519,-0.054334287,1.7957692,0.00039059043,0.1963681,0.012365364,3.066712e-05,0.0,0.1000061,0.010000001,488.101,0.45817658,0.28163612,0.16027315,0.07073618,inf,inf,inf,inf,inf,1,1,1,1,5,4,3,1,3,1,1,1,0,4,0,0
625272000,625272000,614664000,55.9177329,48.6654641,-107008.36,-2875729.8,-488.0607,-107052.38,-2875741.0,488.101,0.05097012,0.011692523,0.010542764,-0.005381412,-0.0134160025,-0.00017775726,-0.000130333,-0.07834011,-0.05468518,-0.066207714,1.7957562,0.00039068479,0.19635165,0.012365364,3.071835e-05,0.0,0.1000061,0.010000001,488.101,0.45897755,0.28201795,0.16060762,0.07079631,inf,inf,inf,inf,inf,1,1,1,1,5,4,3,1,3,1,1,1,0,4,0,0
625280000,625280000,614664000,55.9177329,48.6654641,-107008.36,-2875729.8,-488.06082,-107052.38,-2875741.0,488.101,0.04992424,0.010852422,0.010353849,-0.005658765,-0.0134160025,-0.00017775726,-0.000130333,-0.09295944,-0.09413377,-0.017076729,1.7957104,0.0003900224,0.19630206,0.012365364,3.0744442e-05,0.0,0.1000061,0.010000001,488.101,0.45976996,0.28240043,0.16090728,0.07085639,inf,inf,inf,inf,inf,1,1,1,1,5,4,3,1,3,1,1,1,0,4,0,0
625288000,625288000,614664000,55.9177329,48.6654641,-107008.36,-2875729.8,-488.06097,-107052.38,-2875741.0,488.101,0.049802173,0.010334864,0.010172822,-0.0059210747,-0.0134160025,-0.00017775726,-0.000130333,0.021428227,-0.054131433,-0.01628883,1.7956728,0.0003901164,0.19625986,0.012365364,3.0795723e-05,0.0,0.1000061,0.010000001,488.101,0.4605768,0.28278357,0.16124551,0.070916444,inf,inf,inf,inf,inf,1,1,1,1,5,4,3,1,3,1,1,1,0,4,0,0
625296000,625296000,614664000,55.9177329,48.6654641,-107008.36,-2875729.8,-488.0611,-107052.38,-2875741.0,488.101,0.049720444,0.0100424215,0.010256215,-0.005911966,-0.0134160025,-0.00017775726,-0.000130333,0.025402145,-0.026294153,0.016571486,1.795777,0.0003902105,0.1963594,0.012365364,3.084705e-05,0.0,0.1000061,0.010000001,488.101,0.4613867,0.28316733,0.1615827,0.07097645,inf,inf,inf,inf,inf,1,1,1,1,5,4,3,1,3,1,1,1,0,4,0,0
625304000,625304000,614664000,55.9177329,48.6654641,-107008.36,-2875729.8,-488.06122,-107052.38,-2875741.0,488.101,0.04905715,0.009945801,0.009601685,-0.006633992,-0.0134160025,-0.00017775726,-0.000130333,-0.048324637,-0.0021135346,-0.075855754,1.7958297,0.00039030446,0.19640756,0.012365364,3.0898394e-05,0.0,0.1000061,0.010000001,488.101,0.46219966,0.28355172,0.16192019,0.07103642,inf,inf,inf,inf,inf,1,1,1,1,5,4,3,1,3,1,1,1,0,4,0,0
625312000,625312000,614664000,55.9177329,48.6654641,-107008.36,-2875729.8,-488.06134,-107052.38,-2875741.0,488.101,0.048386488,0.009253262,0.009251952,-0.0070445742,-0.0134160025,-0.00017775726,-0.000130333,-0.05023855,-0.07690013,-0.037938353,1.7958412,0.00039039867,0.19641447,0.012365364,3.0949803e-05,0.0,0.1000061,0.010000001,488.101,0.46301565,0.28393677,0.1622592,0.07109633,inf,inf,inf,inf,inf,1,1,1,1,5,4,3,1,3,1,1,1,0,4,0,0
625328000,625328000,614664000,55.9177329,48.6654641,-107008.37,-2875729.8,-488.06155,-107052.38,-2875741.0,488.101,0.047538944,0.0080698775,0.009458477,-0.006934593,-0.0134160025,-0.00017775726,-0.000130333,-0.008797761,-0.049069252,-0.01936592,1.7958353,0.00039058708,0.19639945,0.012365364,3.1052732e-05,0.0,0.1000061,0.010000001,488.101,0.4646568,0.28378052,0.1629342,0.071109205,inf,inf,inf,inf,inf,1,1,1,1,5,4,3,1,3,1,1,1,0,4,0,0
625336000,625336000,614664000,55.9177329,48.6654641,-107008.37,-2875729.8,-488.06168,-107052.38,-2875741.0,488.101,0.047548514,0.008176133,0.009132374,-0.0072970185,-0.0134160025,-0.00017775726,-0.000130333,0.031960253,0.022116577,-0.035624947,1.7958466,0.0003906814,0.19640625,0.012365364,3.110426e-05,0.0,0.1000061,0.010000001,488.101,0.46548197,0.28416622,0.16327393,0.07116907,inf,inf,inf,inf,inf,1,1,1,1,5,4,3,1,3,1,1,1,0,4,0,0
625344000,625344000,614664000,55.9177329,48.6654641,-107008.37,-2875729.8,-488.06177,-107052.38,-2875741.0,488.101,0.046902686,0.00788902,0.009055852,-0.0074041802,-0.0134160025,-0.00017775726,-0.000130333,-0.050856,-0.02732042,-0.004585366,1.7958694,0.00039077576,0.19642472,0.012365364,3.1155832e-05,0.0,0.1000061,0.010000001,488.101,0.4663102,0.28455257,0.16361208,0.07122891,inf,inf,inf,inf,inf,1,1,1,1,5,4,3,1,3,1,1,1,0,4,0,0
625352000,625352000,614664000,55.9177329,48.6654641,-107008.37,-2875729.8,-488.06186,-107052.38,-2875741.0,488.101,0.046180684,0.007861457,0.00871132,-0.0077739675,-0.0134160025,-0.00017775726,-0.000130333,-0.062094066,0.005670771,-0.0382415,1.7958415,0.00039011418,0.1963923,0.012365364,3.118147e-05,0.0,0.1000061,0.010000001,488.101,0.46712828,0.28493956,0.16391237,0.07128869,inf,inf,inf,inf,inf,1,1,1,1,5,4,3,1,3,1,1,1,0,4,0,0
625368000,625368000,614664000,55.9177329,48.6654641,-107008.37,-2875729.8,-488.062,-107052.38,-2875741.0,488.101,0.046514187,0.00779776,0.009668474,-0.006851811,-0.0134160025,-0.00017775726,-0.000130333,0.09533282,0.026154196,0.04115933,1.7957834,0.00039030227,0.19632053,0.012365364,3.1284744e-05,0.0,0.1000061,0.010000001,488.101,0.46879977,0.28571543,0.1645958,0.07140815,inf,inf,inf,inf,inf,1,1,1,1,5,4,3,1,3,1,1,1,0,4,0,0
625376000,625376000,614664000,55.9177329,48.6654641,-107008.37,-2875729.8,-488.0621,-107052.38,-2875741.0,488.101,0.04685975,0.0071709175,0.0096482355,-0.0068820044,-0.0134160025,-0.00017775726,-0.000130333,0.06895461,-0.07001983,0.001861248,1.7958401,0.0003903965,0.19637036,0.012365364,3.133645e-05,0.0,0.1000061,0.010000001,488.101,0.46964014,0.28610435,0.16493629,0.07146781,inf,inf,inf,inf,inf,1,1,1,1,5,4,3,1,3,1,1,1,0,4,0,0
625384000,625384000,614664000,55.9177329,48.6654641,-107008.37,-2875729.8,-488.06216,-107052.38,-2875741.0,488.101,0.04671515,0.0068479776,0.0092580505,-0.0072773,-0.0134160025,-0.00017775726,-0.000130333,0.0069297706,-0.03227501,-0.044519544,1.7958956,0.00039049066,0.196419,0.012365364,3.138819e-05,0.0,0.1000061,0.010000001,488.101,0.47048363,0.2864939,0.1652775,0.071527414,inf,inf,inf,inf,inf,1,1,1,1,5,4,3,1,3,1,1,1,0,4,0,0
625392000,625392000,614664000,55.9177329,48.6654641,-107008.37,-2875729.8,-488.06223,-107052.38,-2875741.0,488.101,0.046673786,0.0068646106,0.00936629,-0.0071695126,-0.0134160025,-0.00017775726,-0.000130333,0.019099068,0.009933503,0.017650424,1.7959542,0.00039058496,0.19647086,0.012365364,3.1439977e-05,0.0,0.1000061,0.010000001,488.101,0.4713302,0.28688407,0.16561703,0.07158699,inf,inf,inf,inf,inf,1,1,1,1,5,4,3,1,3,1,1,1,0,4,0,0
625408000,625408000,614664000,55.9177329,48.6654641,-107008.37,-2875729.8,-488.06238,-107052.38,-2875741.0,488.101,0.04750487,0.007853312,0.01011313,-0.006435681,-0.0134160025,-0.00017775726,-0.000130333,0.07399628,0.061139707,0.04042219,1.7959121,0.00039077346,0.1964153,0.012365364,3.1543655e-05,0.0,0.1000061,0.010000001,488.101,0.47303265,0.28671148,0.16630155,0.07159543,inf,inf,inf,inf,inf,1,1,1,1,5,4,3,1,3,1,1,1,0,4,0,0
625416000,625416000,614664000,55.9177329,48.6654641,-107008.37,-2875729.8,-488.06244,-107052.38,-2875741.0,488.101,0.04708372,0.007934304,0.010431576,-0.006116611,-0.0134160025,-0.00017775726,-0.000130333,-0.030471535,0.017299816,0.04381034,1.7959372,0.00039086788,0.19643402,0.012365364,3.1595566e-05,0.0,0.1000061,0.010000001,488.101,0.47388855,0.28710225,0.16664545,0.07165496,inf,inf,inf,inf,inf,1,1,1,1,5,4,3,1,3,1,1,1,0,4,0,0
625424000,625424000,614664000,55.9177329,48.6654641,-107008.37,-2875729.8,-488.0625,-107052.38,-2875741.0,488.101,0.0472676,0.007279559,0.010199471,-0.0063434057,-0.0134160025,-0.00017775726,-0.000130333,0.04521287,-0.07522085,-0.025133135,1.7959973,0.000390207,0.19648767,0.012365364,3.1620737e-05,0.0,0.1000061,0.010000001,488.101,0.4747326,0.28749368,0.16695121,0.07171444,inf,inf,inf,inf,inf,1,1,1,1,5,4,3,1,3,1,1,1,0,4,0,0
625432000,625432000,614664000,55.9177329,48.6654641,-107008.37,-2875729.8,-488.06253,-107052.38,-2875741.0,488.101,0.04690872,0.007543771,0.01066798,-0.0058649844,-0.0134160025,-0.00017775726,-0.000130333,-0.0223964,0.03962899,0.062322706,1.7960542,0.00039019095,0.1965394,0.012365364,3.166801e-05,0.0,0.1000061,0.010000001,488.101,0.47559246,0.28788576,0.16728777,0.071773864,inf,inf,inf,inf,inf,1,1,1,1,5,4,3,1,3,1,1,1,0,4,0,0
625448000,625448000,614664000,55.9177329,48.6654641,-107008.37,-2875729.8,-488.06262,-107052.38,-2875741.0,488.101,0.047007263,0.007929529,0.010883076,-0.005619686,-0.0134160025,-0.00017775726,-0.000130333,0.0620887,0.053338353,-0.008059199,1.7960236,0.00039037905,0.19649506,0.012365364,3.1772015e-05,0.0,0.1000061,0.010000001,488.101,0.4773257,0.2886718,0.16797549,0.07189263,inf,inf,inf,inf,inf,1,1,1,1,5,4,3,1,3,1,1,1,0,4,0,0
625456000,625456000,614664000,55.9177329,48.6654641,-107008.37,-2875729.8,-488.06265,-107052.38,-2875741.0,488.101,0.047605067,0.008935808,0.011326796,-0.005155864,-0.0134160025,-0.00017775726,-0.000130333,0.09522453,0.13178359,0.05887821,1.795986,0.00039047314,0.19645095,0.012365364,3.1824078e-05,0.0,0.1000061,0.010000001,488.101,0.47819704,0.28906575,0.16832179,0.07195195,inf,inf,inf,inf,inf,1,1,1,1,5,4,3,1,3,1,1,1,0,4,0,0
625464000,625464000,614664000,55.9177329,48.6654641,-107008.37,-2875729.8,-488.06268,-107052.38,-2875741.0,488.101,0.047969975,0.009047368,0.011346761,-0.0051124874,-0.0134160025,-0.00017775726,-0.000130333,0.06549389,0.019756379,0.005799811,1.796061,0.00039056738,0.1965195,0.012365364,3.187619e-05,0.0,0.1000061,0.010000001,488.101,0.47907153,0.28946036,0.1686673,0.07201122,inf,inf,inf,inf,inf,1,1,1,1,5,4,3,1,3,1,1,1,0,4,0,0
625472000,625472000,614664000,55.9177329,48.6654641,-107008.37,-2875729.8,-488.0627,-107052.38,-2875741.0,488.101,0.048311684,0.009380301,0.011573531,-0.004855163,-0.0134160025,-0.00017775726,-0.000130333,0.061999988,0.047246486,0.031456813,1.796136,0.00039066168,0.19658816,0.012365364,3.192834e-05,0.0,0.1000061,0.010000001,488.101,0.47994918,0.2888762,0.16901046,0.07195594,inf,inf,inf,inf,inf,1,1,1,1,5,4,3,1,3,1,1,1,0,4,0,0
625488000,625488000,614664000,55.9177329,48.6654641,-107008.37,-2875729.8,-488.06274,-107052.38,-2875741.0,488.101,0.047743715,0.009077855,0.011783609,-0.0045754164,-0.0134160025,-0.00017775726,-0.000130333,0.042292085,0.019159457,0.033259388,1.7960814,0.0003908503,0.19652069,0.012365364,3.203276e-05,0.0,0.1000061,0.010000001,488.101,0.48171392,0.2896659,0.16970384,0.07207445,inf,inf,inf,inf,inf,1,1,1,1,5,4,3,1,3,1,1,1,0,4,0,0
625496000,625496000,614664000,55.9177329,48.6654641,-107008.37,-2875729.8,-488.06274,-107052.38,-2875741.0,488.101,0.047630467,0.008198883,0.012172413,-0.0041476223,-0.0134160025,-0.00017775726,-0.000130333,0.005288021,-0.10403323,0.05142437,1.7960457,0.0003901914,0.1964786,0.012365364,3.2057447e-05,0.0,0.1000061,0.010000001,488.101,0.4825842,0.29006168,0.17000955,0.072133645,inf,inf,inf,inf,inf,1,1,1,1,5,4,3,1,3,1,1,1,0,4,0,0
625504000,625504000,614664000,55.9177329,48.6654641,-107008.37,-2875729.8,-488.06274,-107052.38,-2875741.0,488.101,0.04665665,0.0077223787,0.012423767,-0.0038545884,-0.0134160025,-0.00017775726,-0.000130333,-0.10286054,-0.05390479,0.03415113,1.7960527,0.00039028542,0.19647813,0.012365364,3.210973e-05,0.0,0.1000061,0.010000001,488.101,0.48347428,0.29045808,0.17035687,0.072192796,inf,inf,inf,inf,inf,1,1,1,1,5,4,3,1,3,1,1,1,0,4,0,0
625512000,625512000,614664000,55.9177329,48.6654641,-107008.37,-2875729.8,-488.06274,-107052.38,-2875741.0,488.101,0.04678708,0.008097327,0.012184165,-0.0040499754,-0.0134160025,-0.00017775726,-0.000130333,0.034604166,0.05234661,-0.027307307,1.7961032,0.00039037952,0.19652164,0.012365364,3.216205e-05,0.0,0.1000061,0.010000001,488.101,0.48436755,0.29085514,0.17070119,0.07225191,inf,inf,inf,inf,inf,1,1,1,1,5,4,3,1,3,1,1,1,0,4,0,0
625528000,625528000,614664000,55.9177329,48.6654641,-107008.37,-2875729.8,-488.06274,-107052.38,-2875741.0,488.101,0.04752279,0.007814638,0.011591806,-0.004547132,-0.0134160025,-0.00017775726,-0.000130333,0.08605456,0.001991901,0.00893278,1.796048,0.0003905678,0.19645178,0.012365364,3.2266813e-05,0.0,0.1000061,0.010000001,488.101,0.48616362,0.29165116,0.17139632,0.07237002,inf,inf,inf,inf,inf,1,1,1,1,5,4,3,1,3,1,1,1,0,4,0,0
625536000,625536000,614664000,55.9177329,48.6654641,-107008.36,-2875729.8,-488.06274,-107052.38,-2875741.0,488.101,0.047831047,0.008130494,0.011776453,-0.004311678,-0.0134160025,-0.00017775726,-0.000130333,0.055199515,0.04448086,0.025472136,1.7960546,0.00039066197,0.19645119,0.012365364,3.2319258e-05,0.0,0.1000061,0.010000001,488.101,0.48706642,0.2920501,0.17174597,0.07242901,inf,inf,inf,inf,inf,1,1,1,1,5,4,3,1,3,1,1,1,0,4,0,0
625544000,625544000,614664000,55.9177329,48.6654641,-107008.36,-2875729.8,-488.06274,-107052.38,-2875741.0,488.101,0.048373852,0.007974179,0.011769448,-0.004281695,-0.0134160025,-0.00017775726,-0.000130333,0.08399959,-0.014688832,0.0017713754,1.7961284,0.0003907562,0.19651783,0.012365364,3.237174e-05,0.0,0.1000061,0.010000001,488.101,0.4879724,0.29144388,0.17209424,0.07236952,inf,inf,inf,inf,inf,1,1,1,1,5,4,3,1,3,1,1,1,0,4,0,0
625552000,625552000,614664000,55.9177329,48.6654641,-107008.36,-2875729.8,-488.06274,-107052.38,-2875741.0,488.101,0.048135508,0.008189058,0.012683742,-0.0033279364,-0.0134160025,-0.00017775726,-0.000130333,-0.014142198,0.031557687,0.11684745,1.7961416,0.00039085036,0.19652486,0.012365364,3.2424254e-05,0.0,0.1000061,0.010000001,488.101,0.48888165,0.2918427,0.17244199,0.072428524,inf,inf,inf,inf,inf,1,1,1,1,5,4,3,1,3,1,1,1,0,4,0,0
625568000,625568000,614664000,55.9177329,48.6654641,-107008.36,-2875729.8,-488.06274,-107052.38,-2875741.0,488.101,0.047875963,0.00845448,0.012078113,-0.0038450835,-0.0134160025,-0.00017775726,-0.000130333,0.07740422,0.0075366306,0.01725368,1.7961111,0.00039028638,0.19648123,0.012365364,3.2501e-05,0.0,0.1000061,0.010000001,488.101,0.49069077,0.29264224,0.17309675,0.0725464,inf,inf,inf,inf,inf,1,1,1,1,5,4,3,1,3,1,1,1,0,4,0,0
625576000,625576000,614664000,55.9177329,48.6654641,-107008.36,-2875729.8,-488.0627,-107052.38,-2875741.0,488.101,0.04815025,0.008713061,0.0129959555,-0.0028785728,-0.0134160025,-0.00017775726,-0.000130333,0.048841618,0.036983915,0.11704768,1.7961613,0.00039038065,0.1965245,0.012365364,3.255364e-05,0.0,0.1000061,0.010000001,488.101,0.4916094,0.29304296,0.1734479,0.07260527,inf,inf,inf,inf,inf,1,1,1,1,5,4,3,1,3,1,1,1,0,4,0,0
625584000,625584000,614664000,55.9177329,48.6654641,-107008.36,-2875729.8,-488.0627,-107052.38,-2875741.0,488.101,0.04770618,0.00911749,0.013049658,-0.002773448,-0.0134160025,-0.00017775726,-0.000130333,-0.04141194,0.055069268,0.008953269,1.7962072,0.0003904748,0.19656324,0.012365364,3.2606302e-05,0.0,0.1000061,0.010000001,488.101,0.4925312,0.2934443,0.17379633,0.0726641,inf,inf,inf,inf,inf,1,1,1,1,5,4,3,1,3,1,1,1,0,4,0,0
625592000,625592000,614664000,55.9177329,48.6654641,-107008.36,-2875729.8,-488.06268,-107052.38,-2875741.0,488.101,0.047064655,0.008932179,0.013516729,-0.0022524178,-0.0134160025,-0.00017775726,-0.000130333,-0.06654125,-0.018786032,0.060549468,1.7962548,0.0003905691,0.1966039,0.012365364,3.2659016e-05,0.0,0.1000061,0.010000001,488.101,0.49345624,0.29384628,0.17414586,0.07272289,inf,inf,inf,inf,inf,1,1,1,1,5,4,3,1,3,1,1,1,0,4,0,0
625608000,625608000,614664000,55.9177329,48.6654641,-107008.36,-2875729.8,-488.06262,-107052.38,-2875741.0,488.101,0.046839863,0.009241212,0.013577641,-0.002076536,-0.0134160025,-0.00017775726,-0.000130333,0.077417,-0.029411387,-0.025758052,1.7962202,0.0003907576,0.19655597,0.012365364,3.276455e-05,0.0,0.1000061,0.010000001,488.101,0.49531606,0.2946521,0.17484856,0.07284038,inf,inf,inf,inf,inf,1,1,1,1,5,4,3,1,3,1,1,1,0,4,0,0
625616000,625616000,614664000,55.9177329,48.6654641,-107008.36,-2875729.8,-488.06277,-107052.38,-2875741.0,488.101,0.046366066,0.009392567,0.013783089,-0.002018583,-0.0134160025,-0.00017775726,-0.000130333,-0.022357574,0.03332901,0.034205146,1.7962602,0.00039054407,0.19658959,0.012365364,3.0390482e-05,0.0,0.1000061,0.010000001,488.101,0.4543867,0.28049335,0.15848681,0.0704962,inf,inf,inf,inf,inf,1,1,1,1,5,4,3,1,3,1,1,1,0,4,0,0
625624000,625624000,614664000,55.9177329,48.6654641,-107008.36,-2875729.8,-488.06296,-107052.38,-2875741.0,488.101,0.04552624,0.009392962,0.01346784,-0.0024716384,-0.0134160025,-0.00017775726,-0.000130333,-0.06917336,0.01405004,-0.031137371,1.796331,0.00039063842,0.19665504,0.012365364,3.0441504e-05,0.0,0.1000061,0.010000001,488.101,0.4551717,0.2808727,0.15881935,0.07055652,inf,inf,inf,inf,inf,1,1,1,1,5,4,3,1,3,1,1,1,0,4,0,0
625632000,625632000,614664000,55.9177329,48.6654641,-107008.36,-2875729.8,-488.0631,-107052.38,-2875741.0,488.101,0.044986423,0.0087709725,0.013358386,-0.0027095436,-0.0134160025,-0.00017775726,-0.000130333,-0.03165342,-0.06414121,-0.005659647,1.7963778,0.00039062218,0.19669652,0.012365364,3.048824e-05,0.0,0.1000061,0.010000001,488.101,0.45595822,0.28125274,0.15914668,0.070616774,inf,inf,inf,inf,inf,1,1,1,1,5,4,3,1,3,1,1,1,0,4,0,0
625648000,625648000,614664000,55.9177329,48.6654641,-107008.36,-2875729.8,-488.0634,-107052.38,-2875741.0,488.101,0.044888876,0.008851659,0.013187557,-0.0031105576,-0.0134160025,-0.00017775726,-0.000130333,0.027966483,0.0594358,0.0019539145,1.7963761,0.0003900527,0.19668818,0.012365364,3.0565658e-05,0.0,0.1000061,0.010000001,488.101,0.45753214,0.28201467,0.15977818,0.070737176,inf,inf,inf,inf,inf,1,1,1,1,5,4,3,1,3,1,1,1,0,4,0,0
625656000,625656000,614664000,55.9177329,48.6654641,-107008.36,-2875729.8,-488.06354,-107052.38,-2875741.0,488.101,0.04489977,0.008832384,0.013275239,-0.0031253388,-0.0134160025,-0.00017775726,-0.000130333,0.034839988,0.009544981,0.0182786,1.7964141,0.00039014683,0.1967237,0.012365364,3.06168e-05,0.0,0.1000061,0.010000001,488.101,0.4583289,0.2823966,0.16011092,0.0707973,inf,inf,inf,inf,inf,1,1,1,1,5,4,3,1,3,1,1,1,0,4,0,0
625664000,625664000,614664000,55.9177329,48.6654641,-107008.36,-2875729.8,-488.06366,-107052.38,-2875741.0,488.101,0.044334497,0.008629323,0.013684265,-0.0028107455,-0.0134160025,-0.00017775726,-0.000130333,-0.0381505,-0.01376864,0.058225818,1.7963718,0.00039024098,0.19667947,0.012365364,3.0667987e-05,0.0,0.1000061,0.010000001,488.101,0.45912874,0.2827792,0.16044685,0.07085739,inf,inf,inf,inf,inf,1,1,1,1,5,4,3,1,3,1,1,1,0,4,0,0
625672000,625672000,614664000,55.9177329,48.6654641,-107008.36,-2875729.8,-488.06375,-107052.38,-2875741.0,488.101,0.04339407,0.007960603,0.013932466,-0.0026490977,-0.0134160025,-0.00017775726,-0.000130333,-0.08598148,-0.07229347,0.03790762,1.7963619,0.00039033493,0.19666743,0.012365364,3.0719195e-05,0.0,0.1000061,0.010000001,488.101,0.45993152,0.2831624,0.16078468,0.07091744,inf,inf,inf,inf,inf,1,1,1,1,5,4,3,1,3,1,1,1,0,4,0,0
625688000,625688000,614664000,55.9177329,48.6654641,-107008.37,-2875729.8,-488.06396,-107052.38,-2875741.0,488.101,0.0428968,0.0074322163,0.014803485,-0.0019333274,-0.0134160025,-0.00017775726,-0.000130333,0.019643582,-0.06494633,0.050169412,1.7963365,0.0003905233,0.19663882,0.012365364,3.082176e-05,0.0,0.1000061,0.010000001,488.101,0.46154624,0.28301007,0.16145651,0.07093189,inf,inf,inf,inf,inf,1,1,1,1,5,4,3,1,3,1,1,1,0,4,0,0
625696000,625696000,614664000,55.9177329,48.6654641,-107008.37,-2875729.8,-488.06406,-107052.38,-2875741.0,488.101,0.043524634,0.0070626084,0.015040297,-0.0017655819,-0.0134160025,-0.00017775726,-0.000130333,0.10735979,-0.035858024,0.035974193,1.7962927,0.00039061747,0.19659352,0.012365364,3.0873096e-05,0.0,0.1000061,0.010000001,488.101,0.46235815,0.28339398,0.16179359,0.07099189,inf,inf,inf,inf,inf,1,1,1,1,5,4,3,1,3,1,1,1,0,4,0,0
625704000,625704000,614664000,55.9177329,48.6654641,-107008.37,-2875729.8,-488.06415,-107052.38,-2875741.0,488.101,0.04410533,0.0073421625,0.015046767,-0.0018212076,-0.0134160025,-0.00017775726,-0.000130333,0.10062473,0.044988807,0.006987247,1.796319,0.0003907118,0.19661868,0.012365364,3.0924482e-05,0.0,0.1000061,0.010000001,488.101,0.4631731,0.28377852,0.16212702,0.07105184,inf,inf,inf,inf,inf,1,1,1,1,5,4,3,1,3,1,1,1,0,4,0,0
625712000,625712000,614664000,55.9177329,48.6654641,-107008.37,-2875729.8,-488.0642,-107052.38,-2875741.0,488.101,0.04400579,0.0068547428,0.015169925,-0.0017534303,-0.0134160025,-0.00017775726,-0.000130333,0.015020456,-0.05097145,0.021385027,1.7962965,0.000390049,0.19659483,0.012365364,3.0950345e-05,0.0,0.1000061,0.010000001,488.101,0.4639787,0.28416368,0.16243055,0.071111746,inf,inf,inf,inf,inf,1,1,1,1,5,4,3,1,3,1,1,1,0,4,0,0
625728000,625728000,614664000,55.9177329,48.6654641,-107008.37,-2875729.8,-488.06436,-107052.38,-2875741.0,488.101,0.043597393,0.00605433,0.014346791,-0.002667978,-0.0134160025,-0.00017775726,-0.000130333,-0.023223411,-0.023310589,-0.09373109,1.7962662,0.0003902371,0.19656181,0.012365364,3.1053263e-05,0.0,0.1000061,0.010000001,488.101,0.4656235,0.28493598,0.16310312,0.071231455,inf,inf,inf,inf,inf,1,1,1,1,5,4,3,1,3,1,1,1,0,4,0,0
625736000,625736000,614664000,55.9177329,48.6654641,-107008.37,-2875729.8,-488.06442,-107052.38,-2875741.0,488.101,0.043127082,0.005234988,0.014019036,-0.0030324543,-0.0134160025,-0.00017775726,-0.000130333,-0.03366549,-0.093307726,-0.035512257,1.7963434,0.00039033114,0.19663787,0.012365364,3.110477e-05,0.0,0.1000061,0.010000001,488.101,0.46645045,0.28532305,0.16344103,0.07129124,inf,inf,inf,inf,inf,1,1,1,1,5,4,3,1,3,1,1,1,0,4,0,0
625744000,625744000,614664000,55.9177329,48.6654641,-107008.37,-2875729.8,-488.06448,-107052.38,-2875741.0,488.101,0.043807436,0.0053148293,0.013272294,-0.0038103038,-0.0134160025,-0.00017775726,-0.000130333,0.10941803,0.018813182,-0.08805375,1.7964238,0.00039042544,0.19671714,0.012365364,3.115634e-05,0.0,0.1000061,0.010000001,488.101,0.4672805,0.2857108,0.16377763,0.07135098,inf,inf,inf,inf,inf,1,1,1,1,5,4,3,1,3,1,1,1,0,4,0,0
625752000,625752000,614664000,55.9177329,48.6654641,-107008.37,-2875729.8,-488.06458,-107052.38,-2875741.0,488.101,0.043614827,0.005208039,0.012949918,-0.0041634236,-0.0134160025,-0.00017775726,-0.000130333,-0.0004161047,-0.004780672,-0.03506755,1.7964858,0.00039051953,0.19677842,0.012365364,3.1207936e-05,0.0,0.1000061,0.010000001,488.101,0.4681136,0.28515732,0.16411527,0.07130193,inf,inf,inf,inf,inf,1,1,1,1,5,4,3,1,3,1,1,1,0,4,0,0
625768000,625768000,614664000,55.9177329,48.6654641,-107008.37,-2875729.8,-488.0647,-107052.38,-2875741.0,488.101,0.042512972,0.0058260844,0.012218037,-0.0049410337,-0.0134160025,-0.00017775726,-0.000130333,-0.06730681,0.011437572,-0.05149515,1.7966132,0.00039070807,0.19690478,0.012365364,3.131126e-05,0.0,0.1000061,0.010000001,488.101,0.46978903,0.2859334,0.16479518,0.07142136,inf,inf,inf,inf,inf,1,1,1,1,5,4,3,1,3,1,1,1,0,4,0,0
625776000,625776000,614664000,55.9177329,48.6654641,-107008.37,-2875729.8,-488.06476,-107052.38,-2875741.0,488.101,0.042557333,0.0053388076,0.011958674,-0.0052157436,-0.0134160025,-0.00017775726,-0.000130333,0.02693885,-0.052364253,-0.027661676,1.7966739,0.0003900468,0.1969651,0.012365364,3.133672e-05,0.0,0.1000061,0.010000001,488.101,0.4706175,0.2863224,0.16509867,0.07148101,inf,inf,inf,inf,inf,1,1,1,1,5,4,3,1,3,1,1,1,0,4,0,0
625784000,625784000,614664000,55.9177329,48.6654641,-107008.37,-2875729.8,-488.06482,-107052.38,-2875741.0,488.101,0.0423615,0.0054149325,0.011712494,-0.0054724477,-0.0134160025,-0.00017775726,-0.000130333,-0.0037224307,0.017821599,-0.026162246,1.7967503,0.00039014083,0.19703937,0.012365364,3.138846e-05,0.0,0.1000061,0.010000001,488.101,0.47146276,0.28671205,0.16543934,0.07154061,inf,inf,inf,inf,inf,1,1,1,1,5,4,3,1,3,1,1,1,0,4,0,0
625792000,625792000,614664000,55.9177329,48.6654641,-107008.37,-2875729.8,-488.06488,-107052.38,-2875741.0,488.101,0.042186365,0.005006215,0.011181508,-0.0060092886,-0.0134160025,-0.00017775726,-0.000130333,-0.001751674,-0.043026555,-0.06190687,1.7968286,0.0003902349,0.19711554,0.012365364,3.1440235e-05,0.0,0.1000061,0.010000001,488.101,0.47231108,0.28710234,0.16578092,0.07160018,inf,inf,inf,inf,inf,1,1,1,1,5,4,3,1,3,1,1,1,0,4,0,0
625808000,625808000,614664000,55.9177329,48.6654641,-107008.37,-2875729.8,-488.065,-107052.38,-2875741.0,488.101,0.040897276,0.0052285977,0.011327083,-0.0058699977,-0.0134160025,-0.00017775726,-0.000130333,-0.08059883,0.04521354,0.0764653,1.7968174,0.00039042326,0.19710112,0.012365364,3.1543917e-05,0.0,0.1000061,0.010000001,488.101,0.47401708,0.28692523,0.16646433,0.07160776,inf,inf,inf,inf,inf,1,1,1,1,5,4,3,1,3,1,1,1,0,4,0,0
625816000,625816000,614664000,55.9177329,48.6654641,-107008.37,-2875729.8,-488.06506,-107052.38,-2875741.0,488.101,0.04014979,0.0054130475,0.010646203,-0.0065514245,-0.0134160025,-0.00017775726,-0.000130333,-0.07505575,0.030428758,-0.08088536,1.796822,0.00039051744,0.19710398,0.012365364,3.1595813e-05,0.0,0.1000061,0.010000001,488.101,0.47487473,0.28731608,0.16680469,0.07166728,inf,inf,inf,inf,inf,1,1,1,1,5,4,3,1,3,1,1,1,0,4,0,0
625824000,625824000,614664000,55.9177329,48.6654641,-107008.37,-2875729.8,-488.06512,-107052.38,-2875741.0,488.101,0.04005889,0.0055196094,0.009877678,-0.0073163477,-0.0134160025,-0.00017775726,-0.000130333,0.006449734,0.020480612,-0.091974154,1.7968388,0.00039061165,0.19711924,0.012365364,3.164775e-05,0.0,0.1000061,0.010000001,488.101,0.47573552,0.28770763,0.16714574,0.07172675,inf,inf,inf,inf,inf,1,1,1,1,5,4,3,1,3,1,1,1,0,4,0,0
625832000,625832000,614664000,55.9177329,48.6654641,-107008.37,-2875729.8,-488.0652,-107052.38,-2875741.0,488.101,0.04019952,0.0055051623,0.009250117,-0.007936417,-0.0134160025,-0.00017775726,-0.000130333,0.034325957,0.004992377,-0.074483916,1.7968079,0.00039059517,0.19708669,0.012365364,3.1695025e-05,0.0,0.1000061,0.010000001,488.101,0.4765973,0.2880998,0.1674803,0.07178618,inf,inf,inf,inf,inf,1,1,1,1,5,4,3,1,3,1,1,1,0,4,0,0
625848000,625848000,614664000,55.9177329,48.6654641,-107008.37,-2875729.8,-488.06534,-107052.38,-2875741.0,488.101,0.03942549,0.0056245252,0.007807455,-0.009350537,-0.0134160025,-0.00017775726,-0.000130333,-0.07600205,0.001754256,-0.07302919,1.7966684,0.00039002986,0.19694436,0.012365364,3.1772015e-05,0.0,0.1000061,0.010000001,488.101,0.47831875,0.288886,0.16812685,0.07190493,inf,inf,inf,inf,inf,1,1,1,1,5,4,3,1,3,1,1,1,0,4,0,0
625856000,625856000,614664000,55.9177329,48.6654641,-107008.36,-2875729.8,-488.0654,-107052.38,-2875741.0,488.101,0.03897325,0.006072029,0.008726343,-0.008411052,-0.0134160025,-0.00017775726,-0.000130333,-0.04141234,0.06233899,0.118457705,1.7966719,0.000390124,0.19694579,0.012365364,3.1824085e-05,0.0,0.1000061,0.010000001,488.101,0.4791918,0.28928006,0.1684716,0.07196425,inf,inf,inf,inf,inf,1,1,1,1,5,4,3,1,3,1,1,1,0,4,0,0
625864000,625864000,614664000,55.9177329,48.6654641,-107008.36,-2875729.8,-488.06543,-107052.38,-2875741.0,488.101,0.038804725,0.006303845,0.008761764,-0.00835106,-0.0134160025,-0.00017775726,-0.000130333,-0.006415035,0.035186756,0.007909722,1.796557,0.00039021813,0.19682908,0.012365364,3.1876192e-05,0.0,0.1000061,0.010000001,488.101,0.480068,0.28967476,0.16881567,0.07202352,inf,inf,inf,inf,inf,1,1,1,1,5,4,3,1,3,1,1,1,0,4,0,0
625872000,625872000,614664000,55.9177329,48.6654641,-107008.36,-2875729.8,-488.0655,-107052.38,-2875741.0,488.101,0.038986325,0.0066420673,0.008502054,-0.008582395,-0.0134160025,-0.00017775726,-0.000130333,0.036894947,0.048308115,-0.029093118,1.796584,0.0003903122,0.19685388,0.012365364,3.1928335e-05,0.0,0.1000061,0.010000001,488.101,0.48094738,0.2900701,0.1691608,0.07208274,inf,inf,inf,inf,inf,1,1,1,1,5,4,3,1,3,1,1,1,0,4,0,0
625888000,625888000,614664000,55.9177329,48.6654641,-107008.36,-2875729.8,-488.06558,-107052.38,-2875741.0,488.101,0.037874114,0.006252254,0.008006385,-0.009015902,-0.0134160025,-0.00017775726,-0.000130333,-0.03228189,-0.009463281,-0.036931127,1.7963978,0.0003905004,0.19666445,0.012365364,3.203273e-05,0.0,0.1000061,0.010000001,488.101,0.48271555,0.28987572,0.16985562,0.07208585,inf,inf,inf,inf,inf,1,1,1,1,5,4,3,1,3,1,1,1,0,4,0,0
625896000,625896000,614664000,55.9177329,48.6654641,-107008.36,-2875729.8,-488.06564,-107052.38,-2875741.0,488.101,0.038082372,0.006204451,0.008281271,-0.008705139,-0.0134160025,-0.00017775726,-0.000130333,0.0389343,-0.00046812237,0.03747921,1.7964134,0.0003905946,0.19667816,0.012365364,3.2084994e-05,0.0,0.1000061,0.010000001,488.101,0.48360437,0.2902716,0.1702054,0.072145045,inf,inf,inf,inf,inf,1,1,1,1,5,4,3,1,3,1,1,1,0,4,0,0
625904000,625904000,614664000,55.9177329,48.6654641,-107008.36,-2875729.8,-488.06567,-107052.38,-2875741.0,488.101,0.037894525,0.006343027,0.009230529,-0.0077171205,-0.0134160025,-0.00017775726,-0.000130333,-0.010987402,0.022661002,0.12167496,1.7965544,0.0003906888,0.19681728,0.012365364,3.2137297e-05,0.0,0.1000061,0.010000001,488.101,0.4844964,0.2906681,0.17055316,0.072204195,inf,inf,inf,inf,inf,1,1,1,1,5,4,3,1,3,1,1,1,0,4,0,0
625912000,625912000,614664000,55.9177329,48.6654641,-107008.36,-2875729.8,-488.0657,-107052.38,-2875741.0,488.101,0.037771743,0.0061134496,0.009415533,-0.0074905152,-0.0134160025,-0.00017775726,-0.000130333,-0.0032564965,-0.023527432,0.026045365,1.796646,0.0003907832,0.1969074,0.012365364,3.2189655e-05,0.0,0.1000061,0.010000001,488.101,0.4853916,0.29106525,0.17090106,0.0722633,inf,inf,inf,inf,inf,1,1,1,1,5,4,3,1,3,1,1,1,0,4,0,0
625928000,625928000,614664000,55.9177329,48.6654641,-107008.36,-2875729.8,-488.06577,-107052.38,-2875741.0,488.101,0.037554707,0.00625959,0.009331445,-0.0074829883,-0.0134160025,-0.00017775726,-0.000130333,-0.0026601371,0.0058820294,0.046327706,1.7966009,0.00039021843,0.19685721,0.012365364,3.2266536e-05,0.0,0.1000061,0.010000001,488.101,0.48717374,0.29186141,0.17155726,0.072381385,inf,inf,inf,inf,inf,1,1,1,1,5,4,3,1,3,1,1,1,0,4,0,0
625936000,625936000,614664000,55.9177329,48.6654641,-107008.36,-2875729.8,-488.06577,-107052.38,-2875741.0,488.101,0.03729388,0.006075752,0.009623514,-0.007140988,-0.0134160025,-0.00017775726,-0.000130333,-0.021659186,-0.017729402,0.0391514,1.7965704,0.00039031266,0.19682372,0.012365364,3.2318992e-05,0.0,0.1000061,0.010000001,488.101,0.48807827,0.29226044,0.1719062,0.07244037,inf,inf,inf,inf,inf,1,1,1,1,5,4,3,1,3,1,1,1,0,4,0,0
625944000,625944000,614664000,55.9177329,48.6654641,-107008.36,-2875729.8,-488.0658,-107052.38,-2875741.0,488.101,0.03687136,0.005484317,0.009670094,-0.0070566526,-0.0134160025,-0.00017775726,-0.000130333,-0.04223424,-0.06883857,0.008692033,1.7966061,0.00039040667,0.1968565,0.012365364,3.2371463e-05,0.0,0.1000061,0.010000001,488.101,0.48898602,0.2916521,0.17225665,0.07238067,inf,inf,inf,inf,inf,1,1,1,1,5,4,3,1,3,1,1,1,0,4,0,0
625952000,625952000,614664000,55.9177329,48.6654641,-107008.36,-2875729.8,-488.06583,-107052.38,-2875741.0,488.101,0.036797628,0.0047480525,0.008875988,-0.0078097386,-0.0134160025,-0.00017775726,-0.000130333,0.0010013245,-0.08710118,-0.09648734,1.796678,0.00039050076,0.19692504,0.012365364,3.242398e-05,0.0,0.1000061,0.010000001,488.101,0.48989695,0.29205102,0.17260687,0.07243965,inf,inf,inf,inf,inf,1,1,1,1,5,4,3,1,3,1,1,1,0,4,0,0
625968000,625968000,614664000,55.9177329,48.6654641,-107008.36,-2875729.8,-488.0659,-107052.38,-2875741.0,488.101,0.035993066,0.0040363995,0.008899707,-0.007694759,-0.0134160025,-0.00017775726,-0.000130333,-0.06146335,-0.01995672,0.03483565,1.7966125,0.00039068924,0.19685376,0.012365364,3.2529148e-05,0.0,0.1000061,0.010000001,488.101,0.49172845,0.29285073,0.17330511,0.072557494,inf,inf,inf,inf,inf,1,1,1,1,5,4,3,1,3,1,1,1,0,4,0,0
625976000,625976000,614664000,55.9177329,48.6654641,-107008.36,-2875729.8,-488.06592,-107052.38,-2875741.0,488.101,0.03603536,0.00414187,0.0077706487,-0.0087736305,-0.0134160025,-0.00017775726,-0.000130333,0.014482284,0.017669953,-0.1386213,1.7966299,0.00039078368,0.19686806,0.012365364,3.2581804e-05,0.0,0.1000061,0.010000001,488.101,0.49264902,0.2932515,0.17365824,0.07261636,inf,inf,inf,inf,inf,1,1,1,1,5,4,3,1,3,1,1,1,0,4,0,0
625984000,625984000,614664000,55.9177329,48.6654641,-107008.36,-2875729.8,-488.06595,-107052.38,-2875741.0,488.101,0.036644503,0.003865528,0.0072147613,-0.0092772,-0.0134160025,-0.00017775726,-0.000130333,0.08573848,-0.030122273,-0.06705662,1.7967079,0.00039012622,0.19694328,0.012365364,3.2605858e-05,0.0,0.1000061,0.010000001,488.101,0.49355337,0.29365295,0.17396854,0.07267519,inf,inf,inf,inf,inf,1,1,1,1,5,4,3,1,3,1,1,1,0,4,0,0
625992000,625992000,614664000,55.9177329,48.6654641,-107008.36,-2875729.8,-488.06598,-107052.38,-2875741.0,488.101,0.03745806,0.003564729,0.0066410466,-0.009796375,-0.0134160025,-0.00017775726,-0.000130333,0.110958815,-0.033313137,-0.06936583,1.7966753,0.0003902204,0.19690776,0.012365364,3.2658565e-05,0.0,0.1000061,0.010000001,488.101,0.49448016,0.29405499,0.17432258,0.072733976,inf,inf,inf,inf,inf,1,1,1,1,5,4,3,1,3,1,1,1,0,4,0,0
626008000,626008000,614664000,55.9177329,48.6654641,-107008.36,-2875729.8,-488.06604,-107052.38,-2875741.0,488.101,0.037851848,0.0038294292,0.00652727,-0.0098020965,-0.0134160025,-0.00017775726,-0.000130333,0.029425897,0.054738663,0.08399877,1.796459,0.00039040862,0.19668555,0.012365364,3.2764085e-05,0.0,0.1000061,0.010000001,488.101,0.49634346,0.29383296,0.1750232,0.07273007,inf,inf,inf,inf,inf,1,1,1,1,5,4,3,1,3,1,1,1,0,4,0,0
626016000,626016000,614664000,55.9177329,48.6654641,-107008.36,-2875729.8,-488.06625,-107052.38,-2875741.0,488.101,0.037496347,0.0039054097,0.00685991,-0.009575593,-0.0134160025,-0.00017775726,-0.000130333,-0.009807863,0.016166106,0.049265098,1.7964114,0.00039020748,0.19663501,0.012365364,3.0385647e-05,0.0,0.1000061,0.010000001,488.101,0.4551828,0.28067926,0.15860312,0.070505776,inf,inf,inf,inf,inf,1,1,1,1,5,4,3,1,3,1,1,1,0,4,0,0
626024000,626024000,614664000,55.9177329,48.6654641,-107008.36,-2875729.8,-488.0664,-107052.38,-2875741.0,488.101,0.037694614,0.003675486,0.0075654024,-0.008968135,-0.0134160025,-0.00017775726,-0.000130333,0.058389068,-0.022273283,0.09563937,1.7963967,0.00039030172,0.19661772,0.012365364,3.0436662e-05,0.0,0.1000061,0.010000001,488.101,0.45596895,0.2810587,0.15893713,0.07056608,inf,inf,inf,inf,inf,1,1,1,1,5,4,3,1,3,1,1,1,0,4,0,0
626032000,626032000,614664000,55.9177329,48.6654641,-107008.36,-2875729.8,-488.0666,-107052.38,-2875741.0,488.101,0.03783187,0.003684194,0.007840917,-0.00878276,-0.0134160025,-0.00017775726,-0.000130333,0.050066665,0.00769366,0.041666903,1.7964593,0.00039028563,0.1966778,0.012365364,3.0483388e-05,0.0,0.1000061,0.010000001,488.101,0.45675665,0.28143877,0.15926489,0.07062633,inf,inf,inf,inf,inf,1,1,1,1,5,4,3,1,3,1,1,1,0,4,0,0
626048000,626048000,614664000,55.9177329,48.6654641,-107008.36,-2875729.8,-488.0669,-107052.38,-2875741.0,488.101,0.037495017,0.0036629746,0.0079309,-0.008850205,-0.0134160025,-0.00017775726,-0.000130333,0.01101219,0.00022778475,-0.0194828,1.7964458,0.00039047396,0.19665956,0.012365364,3.0585583e-05,0.0,0.1000061,0.010000001,488.101,0.45834386,0.28220084,0.15993275,0.07074672,inf,inf,inf,inf,inf,1,1,1,1,5,4,3,1,3,1,1,1,0,4,0,0
626056000,626056000,614664000,55.9177329,48.6654641,-107008.36,-2875729.8,-488.06705,-107052.38,-2875741.0,488.101,0.03748739,0.0035218836,0.008230573,-0.00861847,-0.0134160025,-0.00017775726,-0.000130333,0.029236658,-0.011388705,0.04404783,1.7963998,0.00038981112,0.19661117,0.012365364,3.0611787e-05,0.0,0.1000061,0.010000001,488.101,0.4591308,0.28258285,0.160229,0.07080685,inf,inf,inf,inf,inf,1,1,1,1,5,4,3,1,3,1,1,1,0,4,0,0
626064000,626064000,614664000,55.9177329,48.6654641,-107008.36,-2875729.8,-488.06717,-107052.38,-2875741.0,488.101,0.03668211,0.0031394537,0.008189584,-0.008724698,-0.0134160025,-0.00017775726,-0.000130333,-0.07136346,-0.041746676,0.001347158,1.7963127,0.00038990498,0.19652104,0.012365364,3.066295e-05,0.0,0.1000061,0.010000001,488.101,0.45993176,0.2820541,0.16056298,0.070762865,inf,inf,inf,inf,inf,1,1,1,1,5,4,3,1,3,1,1,1,0,4,0,0
626072000,626072000,614664000,55.9177329,48.6654641,-107008.36,-2875729.8,-488.06732,-107052.38,-2875741.0,488.101,0.03571929,0.002838032,0.008106433,-0.008866463,-0.0134160025,-0.00017775726,-0.000130333,-0.09192108,-0.03180165,-0.0041206363,1.7963611,0.00038999887,0.19656634,0.012365364,3.0714153e-05,0.0,0.1000061,0.010000001,488.101,0.4607357,0.28243616,0.16089967,0.070822984,inf,inf,inf,inf,inf,1,1,1,1,5,4,3,1,3,1,1,1,0,4,0,0
626088000,626088000,614664000,55.9177329,48.6654641,-107008.36,-2875729.8,-488.0676,-107052.38,-2875741.0,488.101,0.036027916,0.00200542,0.007290672,-0.009780507,-0.0134160025,-0.00017775726,-0.000130333,0.057081208,-0.08762258,0.0066193747,1.7964704,0.00039018688,0.19667006,0.012365364,3.08167e-05,0.0,0.1000061,0.010000001,488.101,0.46235272,0.2832022,0.16156864,0.07094309,inf,inf,inf,inf,inf,1,1,1,1,5,4,3,1,3,1,1,1,0,4,0,0
626096000,626096000,614664000,55.9177329,48.6654641,-107008.36,-2875729.8,-488.06772,-107052.38,-2875741.0,488.101,0.036158517,0.0015880083,0.007282364,-0.009829031,-0.0134160025,-0.00017775726,-0.000130333,0.04231724,-0.04681884,0.004675239,1.7964796,0.00039028111,0.19667673,0.012365364,3.0868043e-05,0.0,0.1000061,0.010000001,488.101,0.46316576,0.2835862,0.16190451,0.07100307,inf,inf,inf,inf,inf,1,1,1,1,5,4,3,1,3,1,1,1,0,4,0,0
626104000,626104000,614664000,55.9177329,48.6654641,-107008.36,-2875729.8,-488.06784,-107052.38,-2875741.0,488.101,0.035826504,0.0015211452,0.0074551217,-0.009690727,-0.0134160025,-0.00017775726,-0.000130333,-0.016271366,-0.0031684693,0.027132684,1.7965747,0.0003903751,0.19676912,0.012365364,3.0919407e-05,0.0,0.1000061,0.010000001,488.101,0.46398184,0.2839708,0.16224419,0.07106301,inf,inf,inf,inf,inf,1,1,1,1,5,4,3,1,3,1,1,1,0,4,0,0
626112000,626112000,614664000,55.9177329,48.6654641,-107008.37,-2875729.8,-488.06793,-107052.38,-2875741.0,488.101,0.035973694,0.0014262082,0.007506189,-0.009668415,-0.0134160025,-0.00017775726,-0.000130333,0.042884775,-0.0068384428,0.011750496,1.7965521,0.0003904694,0.19674432,0.012365364,3.0970834e-05,0.0,0.1000061,0.010000001,488.101,0.46480092,0.2843561,0.1625821,0.07112291,inf,inf,inf,inf,inf,1,1,1,1,5,4,3,1,3,1,1,1,0,4,0,0
626128000,626128000,614664000,55.9177329,48.6654641,-107008.37,-2875729.8,-488.06815,-107052.38,-2875741.0,488.101,0.034861863,0.0017564284,0.0067222756,-0.010485632,-0.0134160025,-0.00017775726,-0.000130333,-0.06924134,0.025681306,-0.052098647,1.7964951,0.0003899018,0.1966821,0.012365364,3.1048046e-05,0.0,0.1000061,0.010000001,488.101,0.46643558,0.2841986,0.16322422,0.07113596,inf,inf,inf,inf,inf,1,1,1,1,5,4,3,1,3,1,1,1,0,4,0,0
626136000,626136000,614664000,55.9177329,48.6654641,-107008.37,-2875729.8,-488.06827,-107052.38,-2875741.0,488.101,0.03399653,0.0024482412,0.0065477397,-0.010668879,-0.0134160025,-0.00017775726,-0.000130333,-0.0858386,0.09141753,-0.01701014,1.7964149,0.00038999578,0.19659865,0.012365364,3.1099557e-05,0.0,0.1000061,0.010000001,488.101,0.4672637,0.28458455,0.16356511,0.07119582,inf,inf,inf,inf,inf,1,1,1,1,5,4,3,1,3,1,1,1,0,4,0,0
626144000,626144000,614664000,55.9177329,48.6654641,-107008.37,-2875729.8,-488.06836,-107052.38,-2875741.0,488.101,0.033301335,0.0021456664,0.0072059715,-0.010014098,-0.0134160025,-0.00017775726,-0.000130333,-0.06523031,-0.033029106,0.08693663,1.7963613,0.0003900898,0.19654179,0.012365364,3.115111e-05,0.0,0.1000061,0.010000001,488.101,0.4680949,0.28497112,0.16390666,0.071255624,inf,inf,inf,inf,inf,1,1,1,1,5,4,3,1,3,1,1,1,0,4,0,0
626152000,626152000,614664000,55.9177329,48.6654641,-107008.37,-2875729.8,-488.06845,-107052.38,-2875741.0,488.101,0.03394407,0.0013596261,0.006883866,-0.010335385,-0.0134160025,-0.00017775726,-0.000130333,0.101365544,-0.093608566,-0.035750676,1.7963634,0.00039018382,0.19654047,0.012365364,3.1202704e-05,0.0,0.1000061,0.010000001,488.101,0.46892914,0.2853583,0.16424888,0.07131539,inf,inf,inf,inf,inf,1,1,1,1,5,4,3,1,3,1,1,1,0,4,0,0
626168000,626168000,614664000,55.9177329,48.6654641,-107008.37,-2875729.8,-488.0686,-107052.38,-2875741.0,488.101,0.033879686,0.0014616968,0.0072550196,-0.009950483,-0.0134160025,-0.00017775726,-0.000130333,0.016741918,0.035011336,0.06904173,1.796519,0.00039037227,0.19668984,0.012365364,3.130602e-05,0.0,0.1000061,0.010000001,488.101,0.47060692,0.28613463,0.16492467,0.0714348,inf,inf,inf,inf,inf,1,1,1,1,5,4,3,1,3,1,1,1,0,4,0,0
626176000,626176000,614664000,55.9177329,48.6654641,-107008.37,-2875729.8,-488.0687,-107052.38,-2875741.0,488.101,0.034641936,0.001729483,0.0070102676,-0.010181895,-0.0134160025,-0.00017775726,-0.000130333,0.114469126,0.037709516,-0.026492866,1.796541,0.00039046654,0.19670892,0.012365364,3.135774e-05,0.0,0.1000061,0.010000001,488.101,0.47145045,0.28652376,0.16526264,0.071494445,inf,inf,inf,inf,inf,1,1,1,1,5,4,3,1,3,1,1,1,0,4,0,0
626184000,626184000,614664000,55.9177329,48.6654641,-107008.37,-2875729.8,-488.06876,-107052.38,-2875741.0,488.101,0.034892164,0.0018187477,0.0067082765,-0.010466307,-0.0134160025,-0.00017775726,-0.000130333,0.049881596,0.015254817,-0.033777203,1.7965448,0.00039056083,0.19670951,0.012365364,3.14095e-05,0.0,0.1000061,0.010000001,488.101,0.472297,0.2869135,0.16560258,0.07155405,inf,inf,inf,inf,inf,1,1,1,1,5,4,3,1,3,1,1,1,0,4,0,0
626192000,626192000,614664000,55.9177329,48.6654641,-107008.37,-2875729.8,-488.06882,-107052.38,-2875741.0,488.101,0.034527116,0.0014750395,0.007029972,-0.010119067,-0.0134160025,-0.00017775726,-0.000130333,-0.027264018,-0.038662314,0.043978445,1.7965546,0.00038990052,0.19671631,0.012365364,3.1434865e-05,0.0,0.1000061,0.010000001,488.101,0.47313243,0.28635007,0.16590455,0.07150312,inf,inf,inf,inf,inf,1,1,1,1,5,4,3,1,3,1,1,1,0,4,0,0
626208000,626208000,614664000,55.9177329,48.6654641,-107008.37,-2875729.8,-488.06894,-107052.38,-2875741.0,488.101,0.034865446,0.001956506,0.006593913,-0.010493145,-0.0134160025,-0.00017775726,-0.000130333,0.063374646,0.039038442,-0.0044624317,1.7966803,0.00039008853,0.19683468,0.012365364,3.153853e-05,0.0,0.1000061,0.010000001,488.101,0.4748407,0.28713018,0.16658746,0.07162226,inf,inf,inf,inf,inf,1,1,1,1,5,4,3,1,3,1,1,1,0,4,0,0
626216000,626216000,614664000,55.9177329,48.6654641,-107008.37,-2875729.8,-488.069,-107052.38,-2875741.0,488.101,0.03492475,0.0018701581,0.0070672547,-0.009983706,-0.0134160025,-0.00017775726,-0.000130333,0.02414865,-0.0068924925,0.06258441,1.7965173,0.0003901826,0.19666803,0.012365364,3.159042e-05,0.0,0.1000061,0.010000001,488.101,0.47569954,0.28752118,0.16692922,0.07168177,inf,inf,inf,inf,inf,1,1,1,1,5,4,3,1,3,1,1,1,0,4,0,0
626224000,626224000,614664000,55.9177329,48.6654641,-107008.37,-2875729.8,-488.06906,-107052.38,-2875741.0,488.101,0.03487395,0.0023926578,0.0069652665,-0.010046375,-0.0134160025,-0.00017775726,-0.000130333,0.009869879,0.06909799,-0.009442213,1.7964791,0.0003902768,0.19662619,0.012365364,3.164236e-05,0.0,0.1000061,0.010000001,488.101,0.47656146,0.28791282,0.16727142,0.07174123,inf,inf,inf,inf,inf,1,1,1,1,5,4,3,1,3,1,1,1,0,4,0,0
626232000,626232000,614664000,55.9177329,48.6654641,-107008.37,-2875729.8,-488.0691,-107052.38,-2875741.0,488.101,0.035202798,0.0024798552,0.0073256237,-0.009643494,-0.0134160025,-0.00017775726,-0.000130333,0.056559328,0.01447369,0.048243903,1.7965705,0.00039026057,0.19671416,0.012365364,3.1689626e-05,0.0,0.1000061,0.010000001,488.101,0.47742435,0.2883051,0.16761136,0.07180066,inf,inf,inf,inf,inf,1,1,1,1,5,4,3,1,3,1,1,1,0,4,0,0
626248000,626248000,614664000,55.9177329,48.6654641,-107008.37,-2875729.8,-488.06918,-107052.38,-2875741.0,488.101,0.03618284,0.0033762252,0.008134094,-0.008740592,-0.0134160025,-0.00017775726,-0.000130333,0.046091955,0.05154531,0.05292566,1.7967252,0.000390449,0.19686103,0.012365364,3.179368e-05,0.0,0.1000061,0.010000001,488.101,0.47916377,0.28909156,0.1682991,0.07191938,inf,inf,inf,inf,inf,1,1,1,1,5,4,3,1,3,1,1,1,0,4,0,0
626256000,626256000,614664000,55.9177329,48.6654641,-107008.37,-2875729.8,-488.0692,-107052.38,-2875741.0,488.101,0.03592372,0.0031309493,0.008362182,-0.008460879,-0.0134160025,-0.00017775726,-0.000130333,-0.018329235,-0.027418528,0.031408384,1.7967618,0.0003905433,0.19689381,0.012365364,3.1845768e-05,0.0,0.1000061,0.010000001,488.101,0.4800382,0.28948572,0.16864249,0.07197868,inf,inf,inf,inf,inf,1,1,1,1,5,4,3,1,3,1,1,1,0,4,0,0
626264000,626264000,614664000,55.9177329,48.6654641,-107008.37,-2875729.8,-488.06918,-107052.38,-2875741.0,488.101,0.035704367,0.0026340275,0.00932874,-0.0074131703,-0.0134160025,-0.00017775726,-0.000130333,-0.01311122,-0.05870068,0.123069145,1.7968735,0.00038988455,0.19700158,0.012365364,3.1870644e-05,0.0,0.1000061,0.010000001,488.101,0.48089966,0.2889009,0.16894734,0.071923606,inf,inf,inf,inf,inf,1,1,1,1,5,4,3,1,3,1,1,1,0,4,0,0
626272000,626272000,614664000,55.9177329,48.6654641,-107008.37,-2875729.8,-488.06918,-107052.38,-2875741.0,488.101,0.034977283,0.002450082,0.0092117395,-0.007447347,-0.0134160025,-0.00017775726,-0.000130333,-0.07702855,-0.019697277,-0.012451782,1.7969038,0.0003899786,0.1970278,0.012365364,3.1922784e-05,0.0,0.1000061,0.010000001,488.101,0.48178014,0.289295,0.16929324,0.071982905,inf,inf,inf,inf,inf,1,1,1,1,5,4,3,1,3,1,1,1,0,4,0,0
626288000,626288000,614664000,55.9177329,48.6654641,-107008.37,-2875729.8,-488.06915,-107052.38,-2875741.0,488.101,0.033744793,0.0025592893,0.0097546205,-0.006733782,-0.0134160025,-0.00017775726,-0.000130333,-0.045545768,-0.03939119,0.12474786,1.7967386,0.0003901667,0.19685376,0.012365364,3.202718e-05,0.0,0.1000061,0.010000001,488.101,0.48355064,0.2900851,0.16998546,0.07210138,inf,inf,inf,inf,inf,1,1,1,1,5,4,3,1,3,1,1,1,0,4,0,0
626296000,626296000,614664000,55.9177329,48.6654641,-107008.37,-2875729.8,-488.06912,-107052.38,-2875741.0,488.101,0.033066712,0.0019961065,0.009736343,-0.0066643604,-0.0134160025,-0.00017775726,-0.000130333,-0.07217614,-0.067398615,-0.00032735986,1.7967051,0.00039026077,0.19681609,0.012365364,3.2079435e-05,0.0,0.1000061,0.010000001,488.101,0.48444062,0.2904811,0.17032854,0.07216055,inf,inf,inf,inf,inf,1,1,1,1,5,4,3,1,3,1,1,1,0,4,0,0
626304000,626304000,614664000,55.9177329,48.6654641,-107008.37,-2875729.8,-488.06912,-107052.38,-2875741.0,488.101,0.031573273,0.0013913866,0.008859835,-0.007451777,-0.0134160025,-0.00017775726,-0.000130333,-0.17450705,-0.07268045,-0.10767392,1.7965863,0.00039035486,0.19669306,0.012365364,3.2131735e-05,0.0,0.1000061,0.010000001,488.101,0.4853337,0.29087773,0.17067693,0.072219685,inf,inf,inf,inf,inf,1,1,1,1,5,4,3,1,3,1,1,1,0,4,0,0
626312000,626312000,614664000,55.9177329,48.6654641,-107008.37,-2875729.8,-488.0691,-107052.38,-2875741.0,488.101,0.031501677,0.00093186274,0.008896381,-0.007324767,-0.0134160025,-0.00017775726,-0.000130333,0.002820483,-0.054623418,0.006392132,1.7966069,0.00039044916,0.19670963,0.012365364,3.2184085e-05,0.0,0.1000061,0.010000001,488.101,0.48623005,0.29127502,0.1710245,0.072278775,inf,inf,inf,inf,inf,1,1,1,1,5,4,3,1,3,1,1,1,0,4,0,0
626328000,626328000,614664000,55.9177329,48.6654641,-107008.37,-2875729.8,-488.06903,-107052.38,-2875741.0,488.101,0.030209823,0.00022961297,0.009580953,-0.0064556412,-0.0134160025,-0.00017775726,-0.000130333,-0.058913883,-0.081372894,0.008131842,1.7966114,0.00039063767,0.19670665,0.012365364,3.2288888e-05,0.0,0.1000061,0.010000001,488.101,0.48803222,0.29207143,0.1717194,0.07239685,inf,inf,inf,inf,inf,1,1,1,1,5,4,3,1,3,1,1,1,0,4,0,0
626336000,626336000,614664000,55.9177329,48.6654641,-107008.37,-2875729.8,-488.069,-107052.38,-2875741.0,488.101,0.029785402,-0.0002943743,0.009701267,-0.006232424,-0.0134160025,-0.00017775726,-0.000130333,-0.041997142,-0.06251149,0.016500706,1.7965627,0.00038997972,0.19665396,0.012365364,3.2313277e-05,0.0,0.1000061,0.010000001,488.101,0.48892,0.29146457,0.17202733,0.07233756,inf,inf,inf,inf,inf,1,1,1,1,5,4,3,1,3,1,1,1,0,4,0,0
626344000,626344000,614664000,55.9177329,48.6654641,-107008.37,-2875729.8,-488.06894,-107052.38,-2875741.0,488.101,0.02975916,8.048595e-05,0.009499573,-0.0063304813,-0.0134160025,-0.00017775726,-0.000130333,0.007420979,0.049753077,-0.023803672,1.7966322,0.00039007372,0.1967187,0.012365364,3.236575e-05,0.0,0.1000061,0.010000001,488.101,0.48982882,0.291863,0.17237422,0.07239657,inf,inf,inf,inf,inf,1,1,1,1,5,4,3,1,3,1,1,1,0,4,0,0
626352000,626352000,614664000,55.9177329,48.6654641,-107008.36,-2875729.8,-488.0689,-107052.38,-2875741.0,488.101,0.029626666,-0.000115370465,0.008873452,-0.0068522845,-0.0134160025,-0.00017775726,-0.000130333,-0.006211543,-0.021678742,-0.07690861,1.7966949,0.00039016787,0.19677663,0.012365364,3.241827e-05,0.0,0.1000061,0.010000001,488.101,0.49074087,0.29226202,0.17272452,0.07245554,inf,inf,inf,inf,inf,1,1,1,1,5,4,3,1,3,1,1,1,0,4,0,0
626368000,626368000,614664000,55.9177329,48.6654641,-107008.36,-2875729.8,-488.06885,-107052.38,-2875741.0,488.101,0.028254304,0.00015821791,0.0076038945,-0.007911282,-0.0134160025,-0.00017775726,-0.000130333,-0.102082685,-0.031626575,-0.080073714,1.7967936,0.00039035623,0.1968664,0.012365364,3.2523443e-05,0.0,0.1000061,0.010000001,488.101,0.49257454,0.293062,0.17342232,0.07257338,inf,inf,inf,inf,inf,1,1,1,1,5,4,3,1,3,1,1,1,0,4,0,0
626376000,626376000,614664000,55.9177329,48.6654641,-107008.36,-2875729.8,-488.06882,-107052.38,-2875741.0,488.101,0.02847898,-0.0006253745,0.007302025,-0.008107118,-0.0134160025,-0.00017775726,-0.000130333,0.03740221,-0.0954108,-0.036523208,1.7967819,0.00039045038,0.1968503,0.012365364,3.2576074e-05,0.0,0.1000061,0.010000001,488.101,0.4934962,0.2934629,0.17377281,0.07263223,inf,inf,inf,inf,inf,1,1,1,1,5,4,3,1,3,1,1,1,0,4,0,0
626384000,626384000,614664000,55.9177329,48.6654641,-107008.36,-2875729.8,-488.0688,-107052.38,-2875741.0,488.101,0.028048804,5.5044886e-05,0.007670633,-0.0076320926,-0.0134160025,-0.00017775726,-0.000130333,-0.04476816,0.087502666,0.04724087,1.7968702,0.00039054456,0.19693375,0.012365364,3.2628748e-05,0.0,0.1000061,0.010000001,488.101,0.49442106,0.29386446,0.17412221,0.072691046,inf,inf,inf,inf,inf,1,1,1,1,5,4,3,1,3,1,1,1,0,4,0,0
626392000,626392000,614664000,55.9177329,48.6654641,-107008.36,-2875729.8,-488.06873,-107052.38,-2875741.0,488.101,0.02780854,-6.8057016e-05,0.008348441,-0.006847629,-0.0134160025,-0.00017775726,-0.000130333,-0.021331608,-0.013026306,0.08584651,1.7967985,0.00039063892,0.19685769,0.012365364,3.2681477e-05,0.0,0.1000061,0.010000001,488.101,0.49534914,0.29426664,0.1744722,0.07274983,inf,inf,inf,inf,inf,1,1,1,1,5,4,3,1,3,1,1,1,0,4,0,0
626408000,626408000,614664000,55.9177329,48.6654641,-107008.36,-2875729.8,-488.06866,-107052.38,-2875741.0,488.101,0.027466288,0.00032665176,0.007812934,-0.007165686,-0.0134160025,-0.00017775726,-0.000130333,-0.0032192254,0.078390926,-0.013709067,1.7966936,0.00039007622,0.19674492,0.012365364,3.2758126e-05,0.0,0.1000061,0.010000001,488.101,0.49719477,0.29403985,0.17512918,0.072744995,inf,inf,inf,inf,inf,1,1,1,1,5,4,3,1,3,1,1,1,0,4,0,0
626416000,626416000,614664000,55.9177329,48.6654641,-107008.36,-2875729.8,-488.0687,-107052.38,-2875741.0,488.101,0.0276694,0.0013020984,0.008283495,-0.0066790744,-0.0134160025,-0.00017775726,-0.000130333,0.051729843,0.120087095,0.061703842,1.7966819,0.00038988047,0.19672823,0.012365364,3.0378545e-05,0.0,0.1000061,0.010000001,488.101,0.45585337,0.28086025,0.15866825,0.07051786,inf,inf,inf,inf,inf,1,1,1,1,5,4,3,1,3,1,1,1,0,4,0,0
626424000,626424000,614664000,55.9177329,48.6654641,-107008.36,-2875729.8,-488.0687,-107052.38,-2875741.0,488.101,0.027227994,0.0057155886,0.021764949,0.0068213944,-0.0134160025,-0.00017775726,-0.000130333,-0.029613718,0.54987425,1.6879709,1.79664,0.0003899746,0.19668138,0.012365364,3.0429557e-05,0.0,0.1000061,0.010000001,488.101,0.45664018,0.28123978,0.15900084,0.07057815,inf,inf,inf,inf,inf,1,1,1,1,5,4,3,1,3,1,1,1,0,4,0,0
626432000,626432000,614664000,55.9177329,48.6654641,-107008.37,-2875729.8,-488.0687,-107052.38,-2875741.0,488.101,0.027927017,0.0016919686,0.007371721,-0.007549893,-0.0134160025,-0.00017775726,-0.000130333,0.1119063,-0.50429153,-1.796456,1.7965488,0.0003899586,0.19658542,0.012365364,3.0476267e-05,0.0,0.1000061,0.010000001,488.101,0.4574285,0.28161994,0.15932947,0.070638396,inf,inf,inf,inf,inf,1,1,1,1,5,4,3,1,3,1,1,1,0,4,0,0
626448000,626448000,614664000,55.9177329,48.6654641,-107008.37,-2875729.8,-488.06876,-107052.38,-2875741.0,488.101,0.02713627,0.0012927852,0.007938527,-0.0069302316,-0.0134160025,-0.00017775726,-0.000130333,-0.06348779,0.006222764,0.028275417,1.7965175,0.00039014663,0.19654584,0.012365364,3.0578452e-05,0.0,0.1000061,0.010000001,488.101,0.45901698,0.2823822,0.15999265,0.07075876,inf,inf,inf,inf,inf,1,1,1,1,5,4,3,1,3,1,1,1,0,4,0,0
626456000,626456000,614664000,55.9177329,48.6654641,-107008.37,-2875729.8,-488.0688,-107052.38,-2875741.0,488.101,0.026475826,0.0012907214,0.007800657,-0.0070374343,-0.0134160025,-0.00017775726,-0.000130333,-0.06018787,-0.0015432478,-0.014795455,1.7965335,0.00039024078,0.19655824,0.012365364,3.0629606e-05,0.0,0.1000061,0.010000001,488.101,0.45981568,0.2827643,0.16032904,0.07081887,inf,inf,inf,inf,inf,1,1,1,1,5,4,3,1,3,1,1,1,0,4,0,0
626464000,626464000,614664000,55.9177329,48.6654641,-107008.37,-2875729.8,-488.06882,-107052.38,-2875741.0,488.101,0.02607933,0.0013374239,0.007271126,-0.007533795,-0.0134160025,-0.00017775726,-0.000130333,-0.027869474,0.004567623,-0.06383424,1.7966071,0.000390335,0.1966281,0.012365364,3.06808e-05,0.0,0.1000061,0.010000001,488.101,0.46061742,0.283147,0.1606637,0.070878945,inf,inf,inf,inf,inf,1,1,1,1,5,4,3,1,3,1,1,1,0,4,0,0
626472000,626472000,614664000,55.9177329,48.6654641,-107008.37,-2875729.8,-488.06888,-107052.38,-2875741.0,488.101,0.025419183,0.0013839607,0.007281718,-0.0074946578,-0.0134160025,-0.00017775726,-0.000130333,-0.06148634,0.004565404,0.0037411225,1.7965957,0.000390429,0.19661283,0.012365364,3.0732022e-05,0.0,0.1000061,0.010000001,488.101,0.46142218,0.28261355,0.16099606,0.070834205,inf,inf,inf,inf,inf,1,1,1,1,5,4,3,1,3,1,1,1,0,4,0,0
626488000,626488000,614664000,55.9177329,48.6654641,-107008.37,-2875729.8,-488.06894,-107052.38,-2875741.0,488.101,0.025647072,0.0015460427,0.006287562,-0.008423692,-0.0134160025,-0.00017775726,-0.000130333,0.013968042,0.0010289131,-0.113430426,1.7964828,0.00038986083,0.19649363,0.012365364,3.080937e-05,0.0,0.1000061,0.010000001,488.101,0.46302885,0.28337973,0.16163085,0.070954286,inf,inf,inf,inf,inf,1,1,1,1,5,4,3,1,3,1,1,1,0,4,0,0
626496000,626496000,614664000,55.9177329,48.6654641,-107008.37,-2875729.8,-488.06897,-107052.38,-2875741.0,488.101,0.024947941,0.00072791823,0.0053441064,-0.009329827,-0.0134160025,-0.00017775726,-0.000130333,-0.06780431,-0.10369018,-0.11574896,1.7964264,0.00038995466,0.19643474,0.012365364,3.0860683e-05,0.0,0.1000061,0.010000001,488.101,0.46384248,0.2837638,0.16196792,0.07101427,inf,inf,inf,inf,inf,1,1,1,1,5,4,3,1,3,1,1,1,0,4,0,0
626504000,626504000,614664000,55.9177329,48.6654641,-107008.37,-2875729.8,-488.06903,-107052.38,-2875741.0,488.101,0.02433002,0.00040856117,0.0050276327,-0.009606836,-0.0134160025,-0.00017775726,-0.000130333,-0.05824681,-0.041324966,-0.037449874,1.7963859,0.0003900488,0.1963917,0.012365364,3.0912066e-05,0.0,0.1000061,0.010000001,488.101,0.46465912,0.2841485,0.16230686,0.0710742,inf,inf,inf,inf,inf,1,1,1,1,5,4,3,1,3,1,1,1,0,4,0,0
626512000,626512000,614664000,55.9177329,48.6654641,-107008.37,-2875729.8,-488.06906,-107052.38,-2875741.0,488.101,0.023925524,0.0009245619,0.0051557724,-0.009437017,-0.0134160025,-0.00017775726,-0.000130333,-0.03214146,0.063114405,0.018055083,1.7963327,0.00039014284,0.19633579,0.012365364,3.096347e-05,0.0,0.1000061,0.010000001,488.101,0.46547887,0.28453383,0.16264594,0.071134105,inf,inf,inf,inf,inf,1,1,1,1,5,4,3,1,3,1,1,1,0,4,0,0
626528000,626528000,614664000,55.9177329,48.6654641,-107008.37,-2875729.8,-488.06915,-107052.38,-2875741.0,488.101,0.023618054,0.00029295194,0.00449866,-0.010002886,-0.0134160025,-0.00017775726,-0.000130333,0.059961904,-0.09327146,-0.016789416,1.7963446,0.00039033117,0.19634283,0.012365364,3.106641e-05,0.0,0.1000061,0.010000001,488.101,0.46712744,0.28437227,0.1633245,0.07114635,inf,inf,inf,inf,inf,1,1,1,1,5,4,3,1,3,1,1,1,0,4,0,0
626536000,626536000,614664000,55.9177329,48.6654641,-107008.37,-2875729.8,-488.06918,-107052.38,-2875741.0,488.101,0.023619927,0.0002453434,0.0035817393,-0.010870354,-0.0134160025,-0.00017775726,-0.000130333,0.017003084,-0.007264908,-0.11280551,1.7964782,0.0003904253,0.19647443,0.012365364,3.1117943e-05,0.0,0.1000061,0.010000001,488.101,0.46795633,0.28475827,0.16366123,0.0712062,inf,inf,inf,inf,inf,1,1,1,1,5,4,3,1,3,1,1,1,0,4,0,0
626544000,626544000,614664000,55.9177329,48.6654641,-107008.37,-2875729.8,-488.06924,-107052.38,-2875741.0,488.101,0.02266334,0.00017382827,0.002438619,-0.011962073,-0.0134160025,-0.00017775726,-0.000130333,-0.10330835,-0.010226474,-0.14114332,1.7965776,0.00039051965,0.19657195,0.012365364,3.1169522e-05,0.0,0.1000061,0.010000001,488.101,0.46878827,0.2851449,0.16399734,0.071265996,inf,inf,inf,inf,inf,1,1,1,1,5,4,3,1,3,1,1,1,0,4,0,0
626552000,626552000,614664000,55.9177329,48.6654641,-107008.37,-2875729.8,-488.0693,-107052.38,-2875741.0,488.101,0.022441022,3.569801e-05,0.001790644,-0.012556814,-0.0134160025,-0.00017775726,-0.000130333,-0.011826021,-0.01843968,-0.07931096,1.7966838,0.0003898583,0.19667625,0.012365364,3.1195133e-05,0.0,0.1000061,0.010000001,488.101,0.46960995,0.28553218,0.16430077,0.07132576,inf,inf,inf,inf,inf,1,1,1,1,5,4,3,1,3,1,1,1,0,4,0,0
626568000,626568000,614664000,55.9177329,48.6654641,-107008.37,-2875729.8,-488.0694,-107052.38,-2875741.0,488.101,0.022015056,-0.0005913409,0.0010330259,-0.013202624,-0.0134160025,-0.00017775726,-0.000130333,0.0016357029,-0.018156392,-0.08347909,1.7968563,0.00039004645,0.19684446,0.012365364,3.1298438e-05,0.0,0.1000061,0.010000001,488.101,0.4712888,0.28630865,0.16497903,0.07144516,inf,inf,inf,inf,inf,1,1,1,1,5,4,3,1,3,1,1,1,0,4,0,0
626576000,626576000,614664000,55.9177329,48.6654641,-107008.37,-2875729.8,-488.06946,-107052.38,-2875741.0,488.101,0.021406308,-0.00062231114,0.00072077196,-0.013456346,-0.0134160025,-0.00017775726,-0.000130333,-0.061577022,-0.0050008628,-0.03751693,1.7968875,0.00039014049,0.19687378,0.012365364,3.1350144e-05,0.0,0.1000061,0.010000001,488.101,0.47213283,0.2866978,0.16526885,0.07150482,inf,inf,inf,inf,inf,1,1,1,1,5,4,3,1,3,1,1,1,0,4,0,0
626584000,626584000,614664000,55.9177329,48.6654641,-107008.37,-2875729.8,-488.06952,-107052.38,-2875741.0,488.101,0.021076147,-0.00032111368,-2.691085e-05,-0.014143678,-0.0134160025,-0.00017775726,-0.000130333,-0.027211713,0.036545373,-0.09200023,1.7968386,0.0003902347,0.19682312,0.012365364,3.1401894e-05,0.0,0.1000061,0.010000001,488.101,0.47297984,0.28708762,0.16566384,0.07156439,inf,inf,inf,inf,inf,1,1,1,1,5,4,3,1,3,1,1,1,0,4,0,0
626592000,626592000,614664000,55.9177329,48.6654641,-107008.37,-2875729.8,-488.06958,-107052.38,-2875741.0,488.101,0.020425612,-0.0004320962,-0.00021933716,-0.014279143,-0.0134160025,-0.00017775726,-0.000130333,-0.067701764,-0.014965973,-0.02254173,1.7967962,0.000390329,0.19677913,0.012365364,3.1453696e-05,0.0,0.1000061,0.010000001,488.101,0.47383007,0.28652248,0.1660036,0.071513295,inf,inf,inf,inf,inf,1,1,1,1,5,4,3,1,3,1,1,1,0,4,0,0
626608000,626608000,614664000,55.9177329,48.6654641,-107008.37,-2875729.8,-488.0697,-107052.38,-2875741.0,488.101,0.02016057,-0.0006510611,0.0001888152,-0.013752328,-0.0134160025,-0.00017775726,-0.000130333,-0.019419717,0.041584842,-0.02255896,1.7968622,0.0003905176,0.19684184,0.012365364,3.155741e-05,0.0,0.1000061,0.010000001,488.101,0.47553986,0.2873027,0.16668588,0.07163242,inf,inf,inf,inf,inf,1,1,1,1,5,4,3,1,3,1,1,1,0,4,0,0
