timestamp,timestamp_sample,position[0],position[1],position[2],q[0],q[1],q[2],q[3],velocity[0],velocity[1],velocity[2],angular_velocity[0],angular_velocity[1],angular_velocity[2],position_variance[0],position_variance[1],position_variance[2],orientation_variance[0],orientation_variance[1],orientation_variance[2],velocity_variance[0],velocity_variance[1],velocity_variance[2],pose_frame,velocity_frame,reset_counter,quality
625256000,625256000,-107008.36,-2875729.8,-488.0604,-0.62330574,0.0017349771,-0.00032376198,-0.78197634,0.052492037,0.012090016,0.011616686,0.004290066,-0.006661255,-0.0016698148,0.104439676,0.104755506,0.079104334,1.5335638e-05,1.5305744e-05,0.00039047073,0.012717866,0.012861859,0.004995094,1,1,16,0
625264000,625264000,-107008.36,-2875729.8,-488.06055,-0.6232637,0.0017369153,-0.00030298493,-0.78200984,0.051913273,0.012217283,0.011126377,-0.0051642414,-0.0029328573,0.01297757,0.10480331,0.105122454,0.0793189,1.5361968e-05,1.5331776e-05,0.00039056377,0.012771288,0.012916192,0.0050036064,1,1,16,0
625272000,625272000,-107008.36,-2875729.8,-488.0607,-0.6232686,0.0017637888,-0.00025422958,-0.7820058,0.05097012,0.011692523,0.010542764,-0.01448518,-0.0024003242,-0.0020692318,0.10516895,0.105491444,0.07953413,1.538754e-05,1.5357957e-05,0.0003906577,0.01282471,0.012970096,0.005012118,1,1,16,0
625280000,625280000,-107008.36,-2875729.8,-488.06082,-0.6232864,0.0018210297,-0.00019894258,-0.78199154,0.04992424,0.010852422,0.010353849,-0.020477265,0.002526651,-0.0061973003,0.105528906,0.105859496,0.07975001,1.5398038e-05,1.537444e-05,0.00038999438,0.012870835,0.013020321,0.0050206287,1,1,16,0
625288000,625288000,-107008.36,-2875729.8,-488.06097,-0.6233011,0.0018174745,-0.00022173302,-0.78197974,0.049802173,0.010334864,0.010172822,0.004289743,0.0027931652,-0.005264241,0.10589847,0.10623252,0.079966545,1.542338e-05,1.5400323e-05,0.00039008842,0.012924865,0.013075247,0.0050291424,1,1,16,0
625296000,625296000,-107008.36,-2875729.8,-488.0611,-0.6232604,0.0018058567,-0.00025045182,-0.7820122,0.049720444,0.0100424215,0.010256215,0.0066866474,0.002127373,0.012445821,0.10627008,0.10660761,0.08018374,1.5448079e-05,1.542555e-05,0.00039018394,0.012978842,0.013130125,0.005037657,1,1,16,0
625304000,625304000,-107008.36,-2875729.8,-488.06122,-0.62323976,0.0018331148,-0.00033117324,-0.7820286,0.04905715,0.009945801,0.009601685,0.010814215,0.017840251,0.006054331,0.10664374,0.10698478,0.080401585,1.5473273e-05,1.5451365e-05,0.00039027826,0.013033003,0.013185143,0.005046173,1,1,16,0
625312000,625312000,-107008.36,-2875729.8,-488.06134,-0.6232353,0.0018408053,-0.00034922297,-0.7820322,0.048386488,0.009253262,0.009251952,0.0016265768,0.0042579826,0.0008611213,0.10701945,0.107364036,0.080620095,1.549936e-05,1.5477626e-05,0.00039037148,0.013087607,0.0132404445,0.005054688,1,1,16,0
625328000,625328000,-107008.37,-2875729.8,-488.06155,-0.62323743,0.0019132441,-0.00032304323,-0.78203034,0.047538944,0.0080698775,0.009458477,-0.00662922,0.004124811,0.0008611385,0.10777708,0.108128846,0.08053137,1.5550622e-05,1.5529531e-05,0.0003905597,0.013196622,0.013350928,0.0050565186,1,1,16,0
625336000,625336000,-107008.37,-2875729.8,-488.06168,-0.6232329,0.0019478,-0.00028339273,-0.7820339,0.047548514,0.008176133,0.009132374,-0.0138197495,0.0005295938,0.0008610725,0.10815903,0.10851442,0.080750436,1.5576547e-05,1.5555572e-05,0.00039065356,0.013251744,0.013406634,0.005065037,1,1,16,0
625344000,625344000,-107008.37,-2875729.8,-488.06177,-0.6232238,0.0019902533,-0.0002833918,-0.78204095,0.046902686,0.00788902,0.009055852,-0.007295015,0.008252716,0.002325853,0.108543076,0.10890213,0.08097016,1.5602576e-05,1.5581423e-05,0.00039074756,0.013306651,0.01346226,0.0050735567,1,1,16,0
625352000,625352000,-107008.37,-2875729.8,-488.06186,-0.6232346,0.0020482107,-0.0002493483,-0.78203225,0.046180684,0.007861457,0.00871132,-0.0163498,0.0059888978,-0.0040657776,0.10892035,0.109288484,0.08119055,1.5612677e-05,1.5597494e-05,0.00039008545,0.013353574,0.013513692,0.0050820773,1,1,16,0
625368000,625368000,-107008.37,-2875729.8,-488.062,-0.62325716,0.0020935342,-0.00026089058,-0.78201413,0.046514187,0.00779776,0.009668474,0.0046888287,-0.0013340366,6.419577e-05,0.10969874,0.110074475,0.081633314,1.5664027e-05,1.5649122e-05,0.0003902739,0.0134649705,0.0136268055,0.0050991243,1,1,16,0
625376000,625376000,-107008.37,-2875729.8,-488.0621,-0.6232351,0.0020584993,-0.0002173306,-0.78203183,0.04685975,0.0071709175,0.0096482355,-0.0037001504,-0.013717725,0.0061894576,0.11009114,0.11047072,0.0818557,1.5689688e-05,1.5675145e-05,0.00039036814,0.01352066,0.013683318,0.0051076477,1,1,16,0
625384000,625384000,-107008.37,-2875729.8,-488.06216,-0.62321347,0.0020328127,-0.00016544393,-0.7820492,0.04671515,0.0068479776,0.0092580505,-0.0067626075,-0.013185122,0.0060564284,0.110485695,0.11086915,0.082078755,1.5715215e-05,1.5701267e-05,0.00039046234,0.013576715,0.013739933,0.005116171,1,1,16,0
625392000,625392000,-107008.37,-2875729.8,-488.06223,-0.62319064,0.0019835995,-0.00013965143,-0.78206754,0.046673786,0.0068646106,0.00936629,0.0020254601,-0.013717753,0.0064558242,0.1108824,0.11126976,0.082302466,1.5740861e-05,1.5727494e-05,0.00039055655,0.013632533,0.0137964655,0.005124697,1,1,16,0
625408000,625408000,-107008.37,-2875729.8,-488.06238,-0.623207,0.0020415077,-0.00010795274,-0.78205436,0.04750487,0.007853312,0.01011313,-0.010757407,0.0070550507,-0.008724207,0.11168232,0.11207757,0.08220348,1.5792224e-05,1.5779106e-05,0.00039074582,0.013745402,0.013910804,0.005125906,1,1,16,0
625416000,625416000,-107008.37,-2875729.8,-488.06244,-0.623197,0.0020775213,-7.0037015e-05,-0.7820622,0.04708372,0.007934304,0.010431576,-0.013553804,0.0010628415,0.0023280096,0.11208556,0.112484805,0.08242771,1.5817952e-05,1.5805394e-05,0.00039084008,0.013802307,0.013968402,0.005134433,1,1,16,0
625424000,625424000,-107008.37,-2875729.8,-488.0625,-0.6231734,0.0021158028,-6.178572e-05,-0.7820809,0.0472676,0.007279559,0.010199471,-0.008094348,0.0061229784,0.006722027,0.11248084,0.11289023,0.08265262,1.58274e-05,1.5822035e-05,0.00039017832,0.013850994,0.014021711,0.00514296,1,1,16,0
625432000,625432000,-107008.37,-2875729.8,-488.06253,-0.6231511,0.0021102652,-5.5407156e-05,-0.78209865,0.04690872,0.007543771,0.01066798,-0.00090335857,-0.0021332654,0.0064549325,0.11288742,0.11330077,0.08287821,1.5851163e-05,1.5846734e-05,0.00039016112,0.013906987,0.014078211,0.005151488,1,1,16,0
625448000,625448000,-107008.37,-2875729.8,-488.06262,-0.6231633,0.0020644856,-7.436818e-06,-0.7820891,0.047007263,0.007929529,0.010883076,0.0002975315,-0.008391444,-0.008454999,0.11370907,0.11413077,0.0833314,1.5903344e-05,1.589826e-05,0.00039034945,0.014021408,0.014194359,0.00516855,1,1,16,0
625456000,625456000,-107008.37,-2875729.8,-488.06265,-0.623178,0.002059887,-2.8846316e-05,-0.78207743,0.047605067,0.008935808,0.011326796,0.0044253464,0.002394313,-0.0055255555,0.11412325,0.11454917,0.08355901,1.5930362e-05,1.5923775e-05,0.00039044314,0.014079289,0.014252934,0.0051770825,1,1,16,0
625464000,625464000,-107008.37,-2875729.8,-488.06268,-0.6231485,0.0020894296,-4.683655e-05,-0.78210074,0.047969975,0.009047368,0.011346761,-0.0015668311,0.008519475,0.008589373,0.11453968,0.11496986,0.08378729,1.5956612e-05,1.59498e-05,0.00039053714,0.014137156,0.014311499,0.0051856157,1,1,16,0
625472000,625472000,-107008.37,-2875729.8,-488.0627,-0.62311906,0.0021131637,-6.3043417e-06,-0.78212416,0.048311684,0.009380301,0.011573531,-0.012086339,-0.0017332326,0.008589241,0.11495838,0.115392834,0.08344947,1.5982983e-05,1.5976542e-05,0.00039063048,0.014194732,0.014369805,0.005177657,1,1,16,0
625488000,625488000,-107008.37,-2875729.8,-488.06274,-0.6231402,0.0021780576,-4.0058735e-06,-0.78210706,0.047743715,0.009077855,0.011783609,-0.0060942797,0.0071880356,-0.011118214,0.11580261,0.1162457,0.08390633,1.603537e-05,1.6030019e-05,0.00039081764,0.014311318,0.014488075,0.005194727,1,1,16,0
625496000,625496000,-107008.37,-2875729.8,-488.06274,-0.6231542,0.0021866364,2.7881528e-05,-0.78209597,0.047630467,0.008198883,0.012172413,-0.007958477,-0.0033313513,-0.005259207,0.11621656,0.11667095,0.08413578,1.6045162e-05,1.6046108e-05,0.0003901576,0.0143607585,0.014542492,0.005203263,1,1,16,0
625504000,625504000,-107008.37,-2875729.8,-488.06274,-0.6231514,0.002200004,2.9755178e-05,-0.7820982,0.04665665,0.0077223787,0.012423767,-0.0028972942,0.002261458,-6.4694344e-05,0.11664425,0.11710314,0.084365904,1.6071612e-05,1.6073265e-05,0.0003902503,0.014419522,0.014601943,0.0052118,1,1,16,0
625512000,625512000,-107008.37,-2875729.8,-488.06274,-0.6231316,0.0021854334,4.77999e-05,-0.7821139,0.04678708,0.008097327,0.012184165,-0.0016987761,-0.0057280133,0.005394862,0.11707425,0.11753767,0.084596716,1.6098433e-05,1.6100115e-05,0.00039034302,0.014477819,0.014661077,0.0052203387,1,1,16,0
625528000,625528000,-107008.37,-2875729.8,-488.06274,-0.62315327,0.0021424626,0.00015049076,-0.78209674,0.04752279,0.007814638,0.011591806,0.0014969249,-0.0010676062,-0.0036599357,0.11794124,0.11841381,0.085060395,1.6149797e-05,1.6152577e-05,0.0003905322,0.014595664,0.014781035,0.00523742,1,1,16,0
625536000,625536000,-107008.36,-2875729.8,-488.06274,-0.6231509,0.0021122177,7.7127654e-05,-0.78209877,0.047831047,0.008130494,0.011776453,0.0186743,0.005457283,-6.449886e-05,0.118378244,0.11885545,0.08529326,1.6175174e-05,1.6179267e-05,0.00039062678,0.014655216,0.014841464,0.0052459617,1,1,16,0
625544000,625544000,-107008.36,-2875729.8,-488.06274,-0.6231223,0.002084877,6.888239e-05,-0.7821218,0.048373852,0.007974179,0.011769448,0.0054917033,-0.004130263,0.0083241975,0.118817605,0.11929948,0.08493954,1.6200547e-05,1.6205458e-05,0.00039072192,0.014714638,0.014901789,0.0052373474,1,1,16,0
625552000,625552000,-107008.36,-2875729.8,-488.06274,-0.6231169,0.0020835837,7.202943e-05,-0.7821259,0.048135508,0.008189058,0.012683742,-0.0007667639,-0.0008011938,0.0008674376,0.119259335,0.11974592,0.08517217,1.6226712e-05,1.6232123e-05,0.00039081578,0.014774027,0.014962213,0.005245891,1,1,16,0
625568000,625568000,-107008.36,-2875729.8,-488.06274,-0.623129,0.0020756957,7.601659e-05,-0.7821164,0.047875963,0.00845448,0.012078113,-0.004628349,-0.0006680485,0.0031311268,0.12013677,0.120640665,0.085639484,1.6262367e-05,1.6275682e-05,0.00039024936,0.014883958,0.015078526,0.00526298,1,1,16,0
625576000,625576000,-107008.36,-2875729.8,-488.0627,-0.6231092,0.0020922811,9.2946e-05,-0.782132,0.04815025,0.008713061,0.0129959555,-0.0062260595,0.00053063297,0.005395656,0.12058549,0.121094294,0.08587418,1.6288986e-05,1.630257e-05,0.00039034273,0.014944295,0.015139883,0.005271525,1,1,16,0
625584000,625584000,-107008.36,-2875729.8,-488.0627,-0.62309134,0.0021025813,2.5061936e-05,-0.78214633,0.04770618,0.00911749,0.013049658,0.011350795,0.012514959,0.0048628687,0.12103662,0.121550374,0.08610956,1.631514e-05,1.6329039e-05,0.0003904369,0.015004373,0.015200787,0.0052800714,1,1,16,0
625592000,625592000,-107008.36,-2875729.8,-488.06268,-0.6230728,0.0020928863,-9.356626e-05,-0.7821611,0.047064655,0.008932179,0.013516729,0.0244004,0.016509445,0.00512951,0.12149017,0.122008905,0.086345635,1.6340959e-05,1.6355696e-05,0.0003905315,0.015064745,0.015262036,0.005288619,1,1,16,0
625608000,625608000,-107008.36,-2875729.8,-488.06262,-0.62308645,0.0021087967,-0.00017268925,-0.78215027,0.046839863,0.009241212,0.013577641,0.012282893,0.00013114011,-0.008985449,0.12240459,0.122933395,0.08681986,1.6393264e-05,1.6408305e-05,0.0003907206,0.01518627,0.015385745,0.005305721,1,1,16,0
625616000,625616000,-107008.36,-2875729.8,-488.06277,-0.62307084,0.0021003832,-0.00018113444,-0.7821627,0.046366066,0.009392567,0.013783089,0.002695568,-0.00040156726,0.004197278,0.10308382,0.10338347,0.07867652,1.5225652e-05,1.519813e-05,0.00039051074,0.012490792,0.012627279,0.0049697147,1,1,16,0
625624000,625624000,-107008.36,-2875729.8,-488.06296,-0.62304294,0.0020908995,-0.00015568931,-0.78218484,0.04552624,0.009392962,0.01346784,-0.0042217965,-0.005992724,0.008191552,0.10343925,0.10374203,0.07888948,1.5251024e-05,1.5224342e-05,0.00039060457,0.01254316,0.012680423,0.0049782223,1,1,16,0
625632000,625632000,-107008.36,-2875729.8,-488.0631,-0.62302476,0.0020504275,-0.00013407468,-0.78219944,0.044986423,0.0087709725,0.013358386,0.0013707004,-0.01145212,0.0051289527,0.103796035,0.104101874,0.0791031,1.527464e-05,1.5247908e-05,0.00039058787,0.012594983,0.012732684,0.004986729,1,1,16,0
625648000,625648000,-107008.36,-2875729.8,-488.0634,-0.6230254,0.0020952108,-0.00015656945,-0.7821989,0.044888876,0.008851659,0.013187557,-0.0018219237,0.006922291,-0.0071252505,0.104509465,0.10482619,0.07953227,1.5310787e-05,1.529058e-05,0.000390017,0.012693267,0.012835799,0.0050037475,1,1,16,0
625656000,625656000,-107008.36,-2875729.8,-488.06354,-0.6230106,0.002078944,-0.00015645668,-0.78221077,0.04489977,0.008832384,0.013275239,0.0017733657,-0.0033308365,0.00445954,0.10487269,0.10519271,0.07974784,1.5336447e-05,1.5316367e-05,0.0003901108,0.012746257,0.012889249,0.0050122575,1,1,16,0
625664000,625664000,-107008.36,-2875729.8,-488.06366,-0.623027,0.0020943186,-0.00019433763,-0.7821975,0.044334497,0.008629323,0.013684265,0.004303273,0.008786576,-0.005527395,0.105237916,0.105561264,0.079964064,1.5361651e-05,1.5342106e-05,0.0003902052,0.01279972,0.012943469,0.0050207702,1,1,16,0
625672000,625672000,-107008.36,-2875729.8,-488.06375,-0.62303114,0.002024107,-0.00022599415,-0.78219444,0.04339407,0.007960603,0.013932466,0.016420625,-0.008923704,-0.0015325221,0.105605155,0.105931856,0.08018094,1.5385867e-05,1.536865e-05,0.00039029962,0.01285359,0.012998122,0.005029284,1,1,16,0
625688000,625688000,-107008.37,-2875729.8,-488.06396,-0.623041,0.0020322467,-0.00021477477,-0.7821865,0.0428968,0.0074322163,0.014803485,-0.004618213,0.0039927945,-0.008589972,0.10634572,0.10667921,0.080094695,1.5437312e-05,1.5418926e-05,0.00039048886,0.012960992,0.013107213,0.005031333,1,1,16,0
625696000,625696000,-107008.37,-2875729.8,-488.06406,-0.62305814,0.0020275514,-0.00023510115,-0.78217286,0.043524634,0.0070626084,0.015040297,0.0040370915,0.0021286185,-0.0056604687,0.10671907,0.107055984,0.08031214,1.5462692e-05,1.5444355e-05,0.00039058356,0.01301503,0.013162134,0.0050398484,1,1,16,0
625704000,625704000,-107008.37,-2875729.8,-488.06415,-0.6230479,0.0020038676,-0.00023829043,-0.7821811,0.04410533,0.0073421625,0.015046767,0.0036375828,-0.00426297,0.003127917,0.107094474,0.10743485,0.08053024,1.5488296e-05,1.5470147e-05,0.00039067786,0.013068709,0.013216464,0.0050483644,1,1,16,0
625712000,625712000,-107008.37,-2875729.8,-488.0642,-0.62305677,0.0020358239,-0.00022373414,-0.78217405,0.04400579,0.0068547428,0.015169925,-0.008479821,0.0038596878,-0.0029972424,0.107463665,0.107812576,0.080749005,1.549835e-05,1.5486106e-05,0.00039001493,0.013115892,0.013267794,0.005056881,1,1,16,0
625728000,625728000,-107008.37,-2875729.8,-488.06436,-0.62306845,0.002015494,-0.0001465856,-0.78216463,0.043597393,0.00605433,0.014346791,-0.0035527241,-0.00918963,-0.003396398,0.10822456,0.10858067,0.08118851,1.5549704e-05,1.55383e-05,0.00039020233,0.013224505,0.013378122,0.00507392,1,1,16,0
625736000,625736000,-107008.37,-2875729.8,-488.06442,-0.6230381,0.0020519816,-0.0001315931,-0.7821887,0.043127082,0.005234988,0.014019036,-0.009278521,0.0046588485,0.0095200315,0.10860814,0.108967885,0.08140925,1.557614e-05,1.5563486e-05,0.0003902963,0.013279363,0.013433607,0.0050824406,1,1,16,0
625744000,625744000,-107008.37,-2875729.8,-488.06448,-0.6230066,0.0021033352,-9.70821e-05,-0.78221375,0.043807436,0.0053148293,0.013272294,-0.01540382,0.0045256075,0.009919522,0.10899383,0.10935723,0.08163067,1.5602835e-05,1.558797e-05,0.00039039095,0.013334144,0.013488969,0.0050909617,1,1,16,0
625752000,625752000,-107008.37,-2875729.8,-488.06458,-0.62298226,0.0021414326,-7.919348e-05,-0.78223306,0.043614827,0.005208039,0.012949918,-0.010077483,0.0045256666,0.007655822,0.109381616,0.10974871,0.08131469,1.5629477e-05,1.5613818e-05,0.00039048417,0.013389229,0.013544591,0.0050839656,1,1,16,0
625768000,625768000,-107008.37,-2875729.8,-488.0647,-0.6229323,0.0021682256,-0.00010202224,-0.78227276,0.042512972,0.0058260844,0.012218037,-0.00075644255,-0.0025317536,0.0008647468,0.11016358,0.11053814,0.08175792,1.5681037e-05,1.566478e-05,0.00039067355,0.013500247,0.013657206,0.0051010107,1,1,16,0
625776000,625776000,-107008.37,-2875729.8,-488.06476,-0.62290853,0.0021913664,-3.5353674e-05,-0.78229165,0.042557333,0.0053388076,0.011958674,-0.017268026,-0.0059938403,0.0075227134,0.110548414,0.11093242,0.08198053,1.569058e-05,1.5681102e-05,0.00039001185,0.0135480985,0.0137094725,0.0051095346,1,1,16,0
625784000,625784000,-107008.37,-2875729.8,-488.06482,-0.62287873,0.0021613475,1.994886e-05,-0.7823155,0.0423615,0.0054149325,0.011712494,-0.0067486195,-0.0146485455,0.009255623,0.11094462,0.1113325,0.082203805,1.5715725e-05,1.5706963e-05,0.0003901066,0.01360405,0.013766123,0.005118059,1,1,16,0
625792000,625792000,-107008.37,-2875729.8,-488.06488,-0.62284815,0.0021678326,2.4489931e-05,-0.7823399,0.042186365,0.005006215,0.011181508,-0.0024875756,0.00039820856,0.009521768,0.11134299,0.11173477,0.082427755,1.5741862e-05,1.5733038e-05,0.00039020018,0.013660202,0.0138231125,0.0051265853,1,1,16,0
625808000,625808000,-107008.37,-2875729.8,-488.065,-0.62285274,0.0021164974,-5.6371846e-05,-0.78233635,0.040897276,0.0052285977,0.011327083,0.010162501,-1.3214845e-06,0.00086635805,0.11214624,0.112545945,0.082326084,1.5793812e-05,1.5785006e-05,0.00039038836,0.013772894,0.013937479,0.0051276716,1,1,16,0
625816000,625816000,-107008.37,-2875729.8,-488.06506,-0.622851,0.0020879647,-7.2600415e-05,-0.7823378,0.04014979,0.0054130475,0.010646203,0.0070998496,-0.0031970527,0.00033396695,0.11255116,0.11295486,0.08255054,1.582024e-05,1.5810776e-05,0.00039048225,0.01382927,0.013994536,0.005136199,1,1,16,0
625824000,625824000,-107008.37,-2875729.8,-488.06512,-0.6228443,0.0021046088,-7.5695905e-05,-0.782343,0.04005889,0.0055196094,0.009877678,-0.0024875118,0.003593987,0.0019318251,0.11295828,0.113366015,0.082775675,1.5845628e-05,1.5835898e-05,0.00039057783,0.0138859255,0.0140517745,0.0051447265,1,1,16,0
625832000,625832000,-107008.37,-2875729.8,-488.0652,-0.6228563,0.0021101807,-5.757623e-05,-0.7823334,0.04019952,0.0055051623,0.009250117,-0.004884347,-0.0018655416,-0.004060347,0.11336667,0.113778315,0.08300149,1.5868982e-05,1.5859612e-05,0.00039056162,0.013941579,0.014108072,0.005153256,1,1,16,0
625848000,625848000,-107008.37,-2875729.8,-488.06534,-0.6229111,0.0020630488,-1.3155036e-05,-0.78229,0.03942549,0.0056245252,0.007807455,-0.0016899598,-0.008656642,-0.0077894316,0.11418129,0.11460755,0.08345512,1.5904834e-05,1.5901644e-05,0.00038999543,0.014047096,0.014219544,0.0051703188,1,1,16,0
625856000,625856000,-107008.36,-2875729.8,-488.0654,-0.62290967,0.0020932117,-2.6724547e-06,-0.78229105,0.03897325,0.006072029,0.008726343,-0.0071495427,0.0041266023,0.00020058632,0.11459715,0.115027644,0.083682954,1.593056e-05,1.5927537e-05,0.00039009,0.014104594,0.014278087,0.005178853,1,1,16,0
625864000,625864000,-107008.36,-2875729.8,-488.06543,-0.62295455,0.002082894,1.0978725e-05,-0.78225523,0.038804725,0.006303845,0.008761764,-0.0014237736,-0.0042624,-0.014579932,0.11501527,0.11545003,0.08391146,1.595679e-05,1.5954134e-05,0.0003901834,0.014162194,0.014336538,0.005187387,1,1,16,0
625872000,625872000,-107008.36,-2875729.8,-488.0655,-0.6229442,0.0020336688,-4.317364e-05,-0.7822637,0.038986325,0.0066420673,0.008502054,0.017884158,-0.0013329074,0.0031301987,0.11543565,0.11587472,0.08414065,1.5982381e-05,1.5980817e-05,0.0003902773,0.014220078,0.014395299,0.005195922,1,1,16,0
625888000,625888000,-107008.36,-2875729.8,-488.06558,-0.6230171,0.001977983,-0.000102634665,-0.7822057,0.037874114,0.006252254,0.008006385,0.0049676215,-0.0039958656,-0.017110057,0.11628326,0.11673103,0.08402794,1.6034212e-05,1.6033897e-05,0.00039046505,0.014337096,0.014513839,0.0051963697,1,1,16,0
625896000,625896000,-107008.36,-2875729.8,-488.06564,-0.6230112,0.0018971971,-5.4429267e-05,-0.7822106,0.038082372,0.006204451,0.008281271,0.0028369734,-0.023437124,0.001665329,0.116710514,0.11716268,0.0842576,1.6060552e-05,1.6060994e-05,0.00039055804,0.014396022,0.014573853,0.0052049076,1,1,16,0
625904000,625904000,-107008.36,-2875729.8,-488.06567,-0.62295616,0.0018929257,-6.243647e-05,-0.7822546,0.037894525,0.006343027,0.009230529,0.0019049387,0.00026504102,0.017378004,0.117140085,0.117596686,0.08448795,1.6086928e-05,1.6087823e-05,0.00039065137,0.014454863,0.014633519,0.0052134455,1,1,16,0
625912000,625912000,-107008.36,-2875729.8,-488.0657,-0.62292033,0.0018791123,-0.0001028879,-0.782283,0.037771743,0.0061134496,0.009415533,0.009761545,0.0034610077,0.0112526575,0.11757197,0.11803304,0.08471898,1.6113705e-05,1.6114078e-05,0.00039074512,0.014513877,0.014693292,0.005221985,1,1,16,0
625928000,625928000,-107008.36,-2875729.8,-488.06577,-0.6229381,0.0018310813,-0.00013577152,-0.782269,0.037554707,0.00625959,0.009331445,0.008563259,-0.0019982373,-0.0057901894,0.11843041,0.11890783,0.085183084,1.614854e-05,1.615732e-05,0.00039017914,0.01462326,0.014808636,0.0052390653,1,1,16,0
625936000,625936000,-107008.36,-2875729.8,-488.06577,-0.62295,0.0018502533,-0.00012452468,-0.7822595,0.03729388,0.006075752,0.009623514,-0.0054183984,0.0018633625,-0.004192334,0.11886916,0.11935124,0.08541616,1.6173826e-05,1.6184023e-05,0.00039027378,0.014682759,0.014868985,0.005247608,1,1,16,0
625944000,625944000,-107008.36,-2875729.8,-488.0658,-0.62293595,0.0018892268,-0.00010384025,-0.7822706,0.03687136,0.005484317,0.009670094,-0.010345264,0.0042601675,0.00406336,0.11931028,0.11979704,0.085060954,1.6200027e-05,1.621049e-05,0.00039036758,0.0147426305,0.014929725,0.005238961,1,1,16,0
625952000,625952000,-107008.36,-2875729.8,-488.06583,-0.62290776,0.001944909,-0.00010322971,-0.782293,0.036797628,0.0047480525,0.008875988,-0.009013677,0.010651689,0.008590841,0.11975377,0.120245256,0.08529379,1.6226379e-05,1.6236048e-05,0.00039046234,0.014802635,0.014990497,0.0052475026,1,1,16,0
625968000,625968000,-107008.36,-2875729.8,-488.0659,-0.6229332,0.0019712728,-0.00010334511,-0.7822726,0.035993066,0.0040363995,0.008899707,0.00057371415,-0.00013407886,-0.00033078247,0.12064792,0.12114895,0.08576155,1.6278665e-05,1.6287719e-05,0.00039065199,0.014922728,0.015111935,0.00526459,1,1,16,0
625976000,625976000,-107008.36,-2875729.8,-488.06592,-0.6229264,0.0019828705,-0.00010413205,-0.782278,0.03603536,0.00414187,0.0077706487,-0.0018231091,0.0022627818,0.0017997506,0.12109861,0.12160445,0.08599646,1.630514e-05,1.6314258e-05,0.00039074608,0.014983541,0.015173642,0.005273136,1,1,16,0
625984000,625984000,-107008.36,-2875729.8,-488.06595,-0.6228959,0.0019599143,-0.00011757177,-0.78230226,0.036644503,0.003865528,0.0072147613,0.006033229,-0.0025309096,0.009389736,0.121538095,0.12205683,0.08623205,1.6313867e-05,1.6330263e-05,0.00039008798,0.015034687,0.015230365,0.005281683,1,1,16,0
625992000,625992000,-107008.36,-2875729.8,-488.06598,-0.62290853,0.0019788032,-7.917652e-05,-0.7822921,0.03745806,0.003564729,0.0066410466,-0.01061113,-0.0023978823,-0.0044586603,0.12199345,0.122517176,0.08646834,1.63397e-05,1.6356718e-05,0.00039018254,0.01509587,0.015292488,0.005290231,1,1,16,0
626008000,626008000,-107008.36,-2875729.8,-488.06604,-0.62299335,0.0019311262,-7.01844e-05,-0.7822248,0.037851848,0.0038294292,0.00652727,0.0064329235,-0.010387329,-0.013646569,0.122911505,0.123445325,0.086337805,1.6392081e-05,1.641018e-05,0.00039037043,0.0152175,0.015415619,0.0052896636,1,1,16,0
626016000,626016000,-107008.36,-2875729.8,-488.06625,-0.62301195,0.0019306182,-3.386442e-05,-0.78221,0.037496347,0.0039054097,0.00685991,-0.0071489676,-0.005859966,-0.006322901,0.10344422,0.103747144,0.07878085,1.5221351e-05,1.519761e-05,0.0003901742,0.012509852,0.012645097,0.0049710646,1,1,16,0
626024000,626024000,-107008.36,-2875729.8,-488.0664,-0.6230177,0.0019310208,-5.5114393e-05,-0.7822054,0.037694614,0.003675486,0.0075654024,0.0035103252,0.0033272963,-0.0021950302,0.10380081,0.104106866,0.07899399,1.52467355e-05,1.5222232e-05,0.00039026944,0.012562514,0.012698495,0.004979572,1,1,16,0
626032000,626032000,-107008.36,-2875729.8,-488.0666,-0.6229932,0.0019281217,-0.0001207484,-0.78222483,0.03783187,0.003684194,0.007840917,0.012698097,0.009585746,0.007525754,0.10415877,0.10446786,0.079207785,1.5270232e-05,1.5244812e-05,0.00039025402,0.012614441,0.012750862,0.004988079,1,1,16,0
626048000,626048000,-107008.36,-2875729.8,-488.0669,-0.62299836,0.001991086,-0.00014257128,-0.78222066,0.037495017,0.0036629746,0.0079309,0.00018238832,0.006390648,-0.0024619484,0.10488182,0.10519729,0.07963732,1.5319683e-05,1.5295605e-05,0.0003904442,0.01272036,0.012858123,0.0050050984,1,1,16,0
626056000,626056000,-107008.36,-2875729.8,-488.06705,-0.62301636,0.0020031326,-0.00017569223,-0.78220624,0.03748739,0.0035218836,0.008230573,0.0040438566,0.007455931,-0.006057247,0.10523891,0.10556219,0.079853065,1.5330088e-05,1.5311762e-05,0.00038978105,0.012765764,0.012907566,0.0050136102,1,1,16,0
626064000,626064000,-107008.36,-2875729.8,-488.06717,-0.6230505,0.0019841148,-0.00021874359,-0.7821791,0.03668211,0.0031394537,0.008189584,0.010835032,0.002928556,-0.011249939,0.10560531,0.10593191,0.079554506,1.5355814e-05,1.5336898e-05,0.0003898752,0.012818993,0.012961478,0.0050073834,1,1,16,0
626072000,626072000,-107008.36,-2875729.8,-488.06732,-0.6230317,0.0019397628,-0.00020223067,-0.7821942,0.03571929,0.002838032,0.008106433,0.00311198,-0.011319277,0.005661125,0.10597373,0.10630367,0.07977018,1.538123e-05,1.536231e-05,0.0003899695,0.012872764,0.01301594,0.0050158952,1,1,16,0
626088000,626088000,-107008.36,-2875729.8,-488.0676,-0.622989,0.001924233,-0.00018246003,-0.7822283,0.036027916,0.00200542,0.007290672,-0.0044781347,-0.0029303795,0.006593238,0.106716655,0.10705338,0.08020349,1.5432413e-05,1.541354e-05,0.00039015763,0.012979959,0.013124465,0.0050329217,1,1,16,0
626096000,626096000,-107008.36,-2875729.8,-488.06772,-0.6229852,0.0019749468,-0.00018501145,-0.78223115,0.036158517,0.0015880083,0.007282364,-0.007940274,0.010252318,0.0008673798,0.10709118,0.10743133,0.08042113,1.5458267e-05,1.5439799e-05,0.0003902511,0.013033979,0.013179094,0.005041436,1,1,16,0
626104000,626104000,-107008.36,-2875729.8,-488.06784,-0.6229481,0.0019624955,-0.00017545182,-0.7822608,0.035826504,0.0015211452,0.0074551217,-0.00048320758,-0.003995603,0.011520145,0.10746776,0.10781136,0.08063942,1.5484511e-05,1.5466025e-05,0.00039034395,0.013088674,0.013234503,0.0050499514,1,1,16,0
626112000,626112000,-107008.37,-2875729.8,-488.06793,-0.62295693,0.0019370194,-0.00017443593,-0.7822537,0.035973694,0.0014262082,0.007506189,0.0032451942,-0.0051939827,-0.0031271137,0.10784642,0.108193494,0.08085838,1.551047e-05,1.5492054e-05,0.00039043766,0.013143224,0.013289716,0.005058468,1,1,16,0
626128000,626128000,-107008.37,-2875729.8,-488.06815,-0.6229793,0.0019496072,-0.00023449685,-0.7822359,0.034861863,0.0017564284,0.0067222756,0.0009813822,-0.0019981712,-0.0012630406,0.1086014,0.10896074,0.08076885,1.5546364e-05,1.5534051e-05,0.0003898695,0.013245349,0.013396795,0.005060325,1,1,16,0
626136000,626136000,-107008.37,-2875729.8,-488.06827,-0.62301064,0.0019391653,-0.00019494571,-0.78221095,0.03399653,0.0024482412,0.0065477397,-0.006608585,-0.008256379,-0.010449983,0.10898619,0.10934916,0.08098836,1.5571919e-05,1.5559544e-05,0.00038996385,0.0133005865,0.01345296,0.005068844,1,1,16,0
626144000,626144000,-107008.37,-2875729.8,-488.06836,-0.6230317,0.0019181899,-0.0001694849,-0.7821944,0.033301335,0.0021456664,0.0072059715,-0.0022143663,-0.008123239,-0.007121,0.10937309,0.10973972,0.081208535,1.5597512e-05,1.5585954e-05,0.00039005742,0.01335602,0.013509377,0.0050773644,1,1,16,0
626152000,626152000,-107008.37,-2875729.8,-488.06845,-0.6230311,0.0018443341,-0.0001557348,-0.78219503,0.03394407,0.0013596261,0.006883866,0.008304976,-0.016645385,-0.0001967686,0.10976211,0.110132426,0.08142937,1.5623238e-05,1.5611866e-05,0.00039015146,0.013411756,0.013565939,0.0050858855,1,1,16,0
626168000,626168000,-107008.37,-2875729.8,-488.0686,-0.6229704,0.0017279546,-0.00019414537,-0.7822435,0.033879686,0.0014616968,0.0072550196,0.009503632,-0.007590475,0.0059284144,0.110546544,0.110924326,0.08187303,1.5673879e-05,1.5663678e-05,0.00039034075,0.013522231,0.013677917,0.0051029315,1,1,16,0
626176000,626176000,-107008.37,-2875729.8,-488.0687,-0.62296194,0.0016795902,-0.00019454326,-0.78225034,0.034641936,0.001729483,0.0070102676,0.0071066557,-0.009454805,0.0023331824,0.11094198,0.11132353,0.08209586,1.5699889e-05,1.5689411e-05,0.00039043496,0.0135775935,0.013734145,0.005111456,1,1,16,0
626184000,626184000,-107008.37,-2875729.8,-488.06876,-0.62296057,0.0016592967,-0.00019473265,-0.78225154,0.034892164,0.0018187477,0.0067082765,0.0027124719,-0.0039952993,6.948048e-05,0.11133956,0.11172492,0.082319364,1.5726255e-05,1.5714659e-05,0.0003905294,0.013633404,0.01379081,0.0051199817,1,1,16,0
626192000,626192000,-107008.37,-2875729.8,-488.06882,-0.62295663,0.0016810633,-0.00012757468,-0.78225464,0.034527116,0.0014750395,0.007029972,-0.016994942,-0.006258946,0.0008684303,0.11172963,0.11212467,0.08199636,1.5736578e-05,1.5731053e-05,0.00038986778,0.013681143,0.013843181,0.005112696,1,1,16,0
626208000,626208000,-107008.37,-2875729.8,-488.06894,-0.62290746,0.0016542017,-0.00012717636,-0.7822938,0.034865446,0.001956506,0.006593913,0.008039075,-0.0015980658,0.0064618345,0.11253538,0.11293833,0.08244374,1.5789117e-05,1.578277e-05,0.0003900552,0.013793852,0.0139575275,0.0051297485,1,1,16,0
626216000,626216000,-107008.37,-2875729.8,-488.069,-0.62297136,0.0016019449,-0.0001614535,-0.782243,0.03492475,0.0018701581,0.0070672547,0.0144305825,-0.0049272343,-0.020835562,0.11294154,0.1133485,0.08266843,1.5815189e-05,1.5808182e-05,0.00039014965,0.013850534,0.01401483,0.0051382757,1,1,16,0
626224000,626224000,-107008.37,-2875729.8,-488.06906,-0.6229865,0.0015190654,-0.00017954661,-0.78223115,0.03487395,0.0023926578,0.0069652665,0.016028376,-0.01344947,-0.0052561364,0.113349915,0.1137609,0.082893796,1.5840444e-05,1.5834043e-05,0.00039024474,0.01390743,0.014072298,0.005146804,1,1,16,0
626232000,626232000,-107008.37,-2875729.8,-488.0691,-0.6229507,0.0015442969,-0.0001748301,-0.7822596,0.035202798,0.0024798552,0.0073256237,-0.0052769566,0.0041274144,0.010989178,0.11375957,0.11417444,0.08311983,1.5863869e-05,1.5857619e-05,0.00039022873,0.013963951,0.014129618,0.0051553342,1,1,16,0
626248000,626248000,-107008.37,-2875729.8,-488.06918,-0.62289006,0.0016069012,-0.0001672189,-0.7823078,0.03618284,0.0033762252,0.008134094,-0.0030138108,0.0010649984,0.0068625277,0.114587426,0.11501051,0.08357392,1.5916215e-05,1.5910457e-05,0.000390416,0.0140785575,0.014246028,0.0051723975,1,1,16,0
626256000,626256000,-107008.37,-2875729.8,-488.0692,-0.62287587,0.001603702,-0.00018447949,-0.7823191,0.03592372,0.0031309493,0.008362182,0.0035109445,0.0019970252,0.0040662037,0.115004726,0.11543196,0.083801985,1.5941963e-05,1.5936588e-05,0.00039051054,0.014136036,0.014304255,0.0051809307,1,1,16,0
626264000,626264000,-107008.37,-2875729.8,-488.06918,-0.62283194,0.0016498399,-0.00015863593,-0.78235394,0.035704367,0.0026340275,0.00932874,-0.012601309,0.00492648,0.013520332,0.115413226,0.115851246,0.08346373,1.5951102e-05,1.595226e-05,0.00038985183,0.014184983,0.014358221,0.0051730047,1,1,16,0
626272000,626272000,-107008.37,-2875729.8,-488.06918,-0.62282,0.0016823718,-0.0001532727,-0.7823634,0.034977283,0.002450082,0.0092117395,-0.0064755636,0.0054591196,0.0032678274,0.1158349,0.11627722,0.0836916,1.5977917e-05,1.5977948e-05,0.00038994555,0.014243099,0.014417103,0.0051815384,1,1,16,0
626288000,626288000,-107008.37,-2875729.8,-488.06915,-0.62288463,0.0016935879,-0.00025789771,-0.78231186,0.033744793,0.0025592893,0.0097546205,0.016960384,0.0055921106,-0.002058776,0.11668509,0.11713611,0.08414937,1.6029413e-05,1.6030592e-05,0.00039013388,0.01435989,0.014535167,0.0051986086,1,1,16,0
626296000,626296000,-107008.37,-2875729.8,-488.06912,-0.62289786,0.0016521628,-0.0003111723,-0.7823014,0.033066712,0.0019961065,0.009736343,0.016560847,0.00013311989,-0.0047216704,0.11711364,0.11756906,0.08437927,1.6055013e-05,1.6056916e-05,0.00039022823,0.014417934,0.014593878,0.0052071447,1,1,16,0
626304000,626304000,-107008.37,-2875729.8,-488.06912,-0.62294436,0.0016450166,-0.0003119333,-0.7822644,0.031573273,0.0013913866,0.008859835,0.0009814122,-0.0013316431,-0.015374327,0.117544495,0.11800434,0.08460986,1.6080161e-05,1.6082666e-05,0.0003903238,0.014476796,0.01465382,0.0052156826,1,1,16,0
626312000,626312000,-107008.37,-2875729.8,-488.0691,-0.6229363,0.001651822,-0.00033544464,-0.7822708,0.031501677,0.00093186274,0.008896381,0.0032450634,0.0049265637,0.0020693939,0.11797768,0.118441984,0.08484113,1.6105734e-05,1.610805e-05,0.00039041945,0.014535742,0.0147136375,0.0052242214,1,1,16,0
626328000,626328000,-107008.37,-2875729.8,-488.06903,-0.62293446,0.0016484658,-0.00037553094,-0.7822722,0.030209823,0.00022961297,0.009580953,-0.001149166,0.0075897337,-6.099174e-05,0.118851066,0.119324386,0.08530573,1.6157068e-05,1.6159669e-05,0.00039060978,0.014653841,0.014833713,0.0052413046,1,1,16,0
626336000,626336000,-107008.37,-2875729.8,-488.069,-0.6229536,0.0016598612,-0.0004317089,-0.78225696,0.029785402,-0.0002943743,0.009701267,0.008970723,0.010918601,-0.0065861754,0.119278714,0.119764045,0.084951594,1.6165934e-05,1.6175194e-05,0.0003899519,0.014704086,0.014889317,0.0052327225,1,1,16,0
626344000,626344000,-107008.37,-2875729.8,-488.06894,-0.6229265,0.001634323,-0.00041300073,-0.7822786,0.02975916,8.048595e-05,0.009499573,4.94243e-05,-0.007989594,0.00806238,0.11972113,0.120211154,0.085184,1.6191761e-05,1.6202464e-05,0.00039004526,0.014763423,0.014949448,0.005241263,1,1,16,0
626352000,626352000,-107008.36,-2875729.8,-488.0689,-0.6229019,0.001644479,-0.00042128612,-0.78229815,0.029626666,-0.000115370465,0.008873452,-0.00021687569,0.0031956888,0.007263515,0.12016592,0.12066067,0.08541709,1.6217742e-05,1.622907e-05,0.00039013935,0.014823415,0.015010344,0.0052498057,1,1,16,0
626368000,626368000,-107008.36,-2875729.8,-488.06885,-0.6228633,0.0016329141,-0.00042656693,-0.7823289,0.028254304,0.00015821791,0.0076038945,0.008704882,-0.004660461,0.00033924583,0.12106269,0.12156699,0.08588533,1.6269865e-05,1.6280504e-05,0.00039032928,0.0149432095,0.015132095,0.005266895,1,1,16,0
626376000,626376000,-107008.36,-2875729.8,-488.06882,-0.62286806,0.0015603831,-0.00042663628,-0.78232527,0.02847898,-0.0006253745,0.007302025,0.011101422,-0.014248138,-0.0020576678,0.12151468,0.12202381,0.08612048,1.6295382e-05,1.6305992e-05,0.0003904251,0.015003603,0.015193389,0.0052754413,1,1,16,0
626384000,626384000,-107008.36,-2875729.8,-488.0688,-0.6228336,0.0015459245,-0.00039400632,-0.7823528,0.028048804,5.5044886e-05,0.007670633,-0.004344583,-0.007989808,0.01045915,0.1219691,0.12248309,0.08635632,1.6321887e-05,1.6332697e-05,0.00039051875,0.015063875,0.015254673,0.0052839885,1,1,16,0
626392000,626392000,-107008.36,-2875729.8,-488.06873,-0.6228616,0.0015683135,-0.00030132267,-0.7823305,0.02780854,-6.8057016e-05,0.008348441,-0.021788316,-0.010120169,-0.009514484,0.12242594,0.12294484,0.08659285,1.6348733e-05,1.6359638e-05,0.00039061203,0.015124311,0.015316239,0.0052925376,1,1,16,0
626408000,626408000,-107008.36,-2875729.8,-488.06866,-0.62290233,0.0016432636,-0.0003277722,-0.7822978,0.027466288,0.00032665176,0.007812934,0.00018297198,0.01584575,-0.012044414,0.123332724,0.1238699,0.08645943,1.6383947e-05,1.6401638e-05,0.00039004878,0.015235889,0.0154343415,0.005291834,1,1,16,0
626416000,626416000,-107008.36,-2875729.8,-488.0687,-0.622907,0.0016565275,-0.0003809061,-0.78229415,0.0276694,0.0013020984,0.008283495,0.0081721265,0.010785908,-0.0020571519,0.103748836,0.10405347,0.078882486,1.5213167e-05,1.519037e-05,0.00038985553,0.012520118,0.012655494,0.0049727685,1,1,16,0
626424000,626424000,-107008.36,-2875729.8,-488.0687,-0.6229236,0.0015154702,-0.00028742076,-0.7822812,0.027227994,0.0057155886,0.021764949,0.0032495696,-0.042079892,-0.0059184493,0.10410624,0.104414016,0.07909581,1.5238917e-05,1.5216246e-05,0.00038994898,0.012572695,0.012708575,0.004981275,1,1,16,0
626432000,626432000,-107008.37,-2875729.8,-488.0687,-0.62295943,0.0014290926,-0.00026802882,-0.78225285,0.027927017,0.0016919686,0.007371721,0.009242116,-0.01984251,-0.01204316,0.104465,0.10477582,0.079309784,1.5263004e-05,1.523956e-05,0.00038993228,0.0126247825,0.012761098,0.0049897833,1,1,16,0
626448000,626448000,-107008.37,-2875729.8,-488.06876,-0.6229718,0.0014201249,-0.00036163884,-0.782243,0.02713627,0.0012927852,0.007938527,0.0140347155,0.0127825495,0.0010045656,0.10518967,0.1055069,0.0797397,1.5314337e-05,1.5289148e-05,0.0003901216,0.012730118,0.01286753,0.0050068023,1,1,16,0
626456000,626456000,-107008.37,-2875729.8,-488.0688,-0.62296546,0.0014110408,-0.00036763615,-0.782248,0.026475826,0.0012907214,0.007800657,0.0021837763,-0.0007997239,0.0015369183,0.105555005,0.10587546,0.07995564,1.5339805e-05,1.5314727e-05,0.00039021586,0.012783835,0.01292157,0.0050153127,1,1,16,0
626464000,626464000,-107008.37,-2875729.8,-488.06882,-0.6229366,0.0013791423,-0.00028602505,-0.782271,0.02607933,0.0013374239,0.007271126,-0.011398008,-0.018909495,0.008727249,0.10592235,0.10624606,0.08017223,1.5365616e-05,1.5340218e-05,0.0003903099,0.012837204,0.012975619,0.005023825,1,1,16,0
626472000,626472000,-107008.37,-2875729.8,-488.06888,-0.6229412,0.0013805688,-0.00025058942,-0.78226745,0.025419183,0.0013839607,0.007281718,-0.007536744,-0.005193913,-0.0019251825,0.10629172,0.10661871,0.07987041,1.5391064e-05,1.5365455e-05,0.00039040452,0.012890407,0.013029327,0.0050174845,1,1,16,0
626488000,626488000,-107008.37,-2875729.8,-488.06894,-0.62298536,0.0013974839,-0.00030043582,-0.7822322,0.025647072,0.0015460427,0.006287562,0.0048470255,0.0031948518,-0.0107143,0.10702861,0.10736708,0.08030408,1.5427951e-05,1.5406846e-05,0.0003898354,0.012990492,0.013134042,0.0050345105,1,1,16,0
626496000,626496000,-107008.37,-2875729.8,-488.06897,-0.6230074,0.0013283256,-0.0002543417,-0.78221476,0.024947941,0.00072791823,0.0053441064,0.0013850539,-0.020640451,-0.007385292,0.10740397,0.10774586,0.0805219,1.5453117e-05,1.543257e-05,0.0003899297,0.013044671,0.013188936,0.005043026,1,1,16,0
626504000,626504000,-107008.37,-2875729.8,-488.06903,-0.6230233,0.001308135,-0.0002288435,-0.7822021,0.02433002,0.00040856117,0.0050276327,-0.002210197,-0.007857236,-0.005387975,0.10778139,0.10812673,0.08074037,1.5478927e-05,1.5458323e-05,0.00039002366,0.013099278,0.01324424,0.0050515425,1,1,16,0
626512000,626512000,-107008.37,-2875729.8,-488.06906,-0.62304425,0.0012915938,-0.00019191216,-0.78218555,0.023925524,0.0009245619,0.0051557724,-0.005006475,-0.008922589,-0.0069857882,0.108160876,0.10850969,0.08095951,1.5504751e-05,1.5484391e-05,0.00039011711,0.013154069,0.013299631,0.0050600604,1,1,16,0
626528000,626528000,-107008.37,-2875729.8,-488.06915,-0.62303954,0.0013159399,-0.0002400597,-0.78218925,0.023618054,0.00029295194,0.00449866,0.0036487824,0.010119048,-0.000594189,0.10892611,0.10928194,0.080867596,1.555507e-05,1.553503e-05,0.00039030745,0.013264016,0.013410877,0.005061803,1,1,16,0
626536000,626536000,-107008.37,-2875729.8,-488.06918,-0.6229873,0.0013159493,-0.00023543567,-0.78223085,0.023619927,0.0002453434,0.0035817393,-0.0012778912,-0.0006667329,0.016450027,0.10931187,0.10967126,0.08108728,1.5580348e-05,1.5561069e-05,0.0003904018,0.013318764,0.013466233,0.005070322,1,1,16,0
626544000,626544000,-107008.37,-2875729.8,-488.06924,-0.62294835,0.0013057486,-0.00023420484,-0.78226185,0.02266334,0.00017382827,0.002438619,0.000985684,-0.0021314416,0.012188947,0.10969975,0.1100627,0.08130762,1.5605532e-05,1.5587955e-05,0.00039049567,0.013373501,0.0135216275,0.005078842,1,1,16,0
626552000,626552000,-107008.37,-2875729.8,-488.0693,-0.6229069,0.0012220616,-0.00021324473,-0.7822949,0.022441022,3.569801e-05,0.001790644,0.008575485,-0.01957523,0.012987907,0.11008074,0.11045275,0.08152863,1.5615642e-05,1.560428e-05,0.0003898335,0.013421129,0.013573614,0.005087363,1,1,16,0
626568000,626568000,-107008.37,-2875729.8,-488.0694,-0.62283957,0.0011718221,-0.00017471002,-0.7823487,0.022015056,-0.0005913409,0.0010330259,0.005113645,-0.006126076,0.008860264,0.110866845,0.11124629,0.08197264,1.5668675e-05,1.5655618e-05,0.0003900206,0.013532012,0.0136860665,0.0051044105,1,1,16,0
626576000,626576000,-107008.37,-2875729.8,-488.06946,-0.62282735,0.0011707193,-0.00013977624,-0.78235847,0.021406308,-0.00062231114,0.00072077196,-0.0070037553,-0.0055936747,0.0036668838,0.11126311,0.11164632,0.08219564,1.5692152e-05,1.5681368e-05,0.00039011706,0.013579616,0.013734177,0.005112939,1,1,16,0
626584000,626584000,-107008.37,-2875729.8,-488.06952,-0.6228464,0.0011662777,-0.00015177428,-0.78234327,0.021076147,-0.00032111368,-2.691085e-05,0.002716765,0.0010642152,-0.0063198362,0.11166147,0.112048455,0.082419306,1.5716916e-05,1.570684e-05,0.00039021287,0.013644386,0.013800123,0.0051214616,1,1,16,0
626592000,626592000,-107008.37,-2875729.8,-488.06958,-0.6228631,0.0011512331,-0.0001668522,-0.78233004,0.020425612,-0.0004320962,-0.00021933716,0.0049804575,-0.0005334848,-0.0055208663,0.112062074,0.11245287,0.08209514,1.5742777e-05,1.5732556e-05,0.00039030734,0.013700342,0.013856854,0.005114151,1,1,16,0
626608000,626608000,-107008.37,-2875729.8,-488.0697,-0.6228373,0.0011258522,-0.0001441827,-0.7823506,0.02016057,-0.0006510611,0.0001888152,0.012570487,-0.004528196,0.0012703346,0.11286982,0.113268346,0.082542844,1.5795178e-05,1.5783735e-05,0.00039049613,0.013813216,0.013970965,0.0051312037,1,1,16,0
626616000,626616000,-107008.37,-2875729.8,-488.06973,-0.62288076,0.0010979074,-0.00018146756,-0.782316,0.020503042,-6.725479e-05,0.0008599588,0.01137208,0.00039882408,-0.014042936,0.11327699,0.11367941,0.0827677,1.582007e-05,1.5810314e-05,0.00039059095,0.013870283,0.014028729,0.005139732,1,1,16,0
626624000,626624000,-107008.37,-2875729.8,-488.0698,-0.6229159,0.0010852143,-0.00018251782,-0.7822881,0.021146722,0.0009922785,0.001353978,0.001917809,-0.0022645395,-0.0113798315,0.11367608,0.1140886,0.08299323,1.5829397e-05,1.5826536e-05,0.00038992998,0.013918705,0.01408171,0.005148261,1,1,16,0
626632000,626632000,-107008.37,-2875729.8,-488.06982,-0.6229218,0.0011096891,-0.00014979375,-0.78228325,0.021100838,0.0013081987,0.0010584986,-0.010466014,-0.00026711254,-0.002058604,0.1140866,0.11450299,0.08321944,1.585348e-05,1.5850157e-05,0.00038991362,0.013974773,0.014138611,0.0051567913,1,1,16,0
626648000,626648000,-107008.37,-2875729.8,-488.06992,-0.62296975,0.0011079467,-0.00020213902,-0.7822451,0.020275462,0.000699768,0.00069766905,0.012036126,0.00798992,-0.0053855386,0.11491619,0.11534075,0.08311165,1.5904467e-05,1.590197e-05,0.00039010285,0.014090592,0.014255913,0.0051575615,1,1,16,0
626656000,626656000,-107008.37,-2875729.8,-488.06998,-0.62296045,0.0011029213,-0.00015450799,-0.7822526,0.019629255,0.0009827673,0.0008699991,-0.008736621,-0.008388435,0.0027370409,0.11533437,0.115763046,0.08333835,1.5930038e-05,1.5928175e-05,0.00039019718,0.014148396,0.014314383,0.0051660924,1,1,16,0
626664000,626664000,-107008.37,-2875729.8,-488.07004,-0.62296736,0.0010635095,-0.000114144954,-0.7822472,0.0195103,0.0014146069,0.00084220845,-0.0019453556,-0.013981126,-0.0024560166,0.115754806,0.11618765,0.08356573,1.5955578e-05,1.5954543e-05,0.00039029142,0.014206112,0.014372815,0.0051746257,1,1,16,0
626672000,626672000,-107008.37,-2875729.8,-488.07007,-0.62303007,0.0010759358,-9.9273595e-05,-0.7821971,0.019837229,0.0015478587,0.0006483462,-0.005007942,0.00013389779,-0.020299401,0.11617752,0.11661454,0.08379378,1.598172e-05,1.5980622e-05,0.00039038563,0.01426442,0.014431781,0.0051831594,1,1,16,0
626688000,626688000,-107008.37,-2875729.8,-488.07016,-0.623064,0.0011036147,-0.00010718223,-0.78217006,0.019655352,0.002471149,-0.00031997781,0.0037801773,0.008256356,-0.0024561144,0.117029816,0.1174753,0.084251925,1.6034312e-05,1.6032844e-05,0.0003905737,0.01438163,0.01455078,0.0052002296,1,1,16,0
626696000,626696000,-107008.37,-2875729.8,-488.07022,-0.62305725,0.0010963725,-0.0001521917,-0.7821754,0.019632122,0.0024480764,-0.0013271357,0.0097724,0.005593102,0.0019379348,0.11744768,0.11790442,0.084482014,1.6043447e-05,1.6048494e-05,0.00038991444,0.014431856,0.014605782,0.0052087666,1,1,16,0
626704000,626704000,-107008.37,-2875729.8,-488.07028,-0.6230759,0.0011076658,-0.00012948216,-0.7821606,0.019618895,0.0022814213,-0.0014191238,-0.0063397856,-0.0013309937,-0.0061844857,0.11787944,0.118340574,0.08471278,1.6068505e-05,1.6074257e-05,0.00039001,0.014490956,0.014665696,0.0052173045,1,1,16,0
626712000,626712000,-107008.37,-2875729.8,-488.07034,-0.62303627,0.0011149633,-9.478225e-05,-0.7821923,0.01964034,0.0019089095,-0.00095495745,-0.00807085,-0.0039940355,0.0124576995,0.118313536,0.1187791,0.08494423,1.6094114e-05,1.6100781e-05,0.00039010422,0.014549876,0.014725395,0.0052258433,1,1,16,0
626728000,626728000,-107008.37,-2875729.8,-488.07043,-0.6230114,0.0012311994,-9.182052e-05,-0.7822117,0.019898593,0.0020739578,-0.0009396383,-0.008204015,0.011452136,0.00020714068,0.119188756,0.11966326,0.084825076,1.6145794e-05,1.615341e-05,0.00039029281,0.014668839,0.014845905,0.0052259704,1,1,16,0
626736000,626736000,-107008.37,-2875729.8,-488.07047,-0.62302136,0.0012468824,-0.00012010598,-0.7822039,0.01909096,0.002672315,-0.0005007607,0.0029813224,0.0074574035,-0.0033881054,0.119629905,0.120108925,0.08505699,1.6172016e-05,1.617955e-05,0.00039038717,0.014728778,0.014906627,0.005234511,1,1,16,0
626744000,626744000,-107008.37,-2875729.8,-488.0705,-0.6230525,0.0012778045,-0.000101888916,-0.78217894,0.019178547,0.0023954601,-0.00039369156,-0.008470415,0.0031962052,-0.010179167,0.12007342,0.120557,0.08528959,1.6198192e-05,1.620561e-05,0.00039048164,0.014788541,0.01496708,0.0052430527,1,1,16,0
626752000,626752000,-107008.37,-2875729.8,-488.07053,-0.62309825,0.0012762006,-0.00014758356,-0.78214246,0.01936835,0.0026775957,-0.00079475687,0.009106644,0.006791455,-0.014839756,0.120519325,0.12100749,0.085522875,1.6224201e-05,1.6232658e-05,0.0003905755,0.014847968,0.015027373,0.0052515953,1,1,16,0
626768000,626768000,-107008.37,-2875729.8,-488.0706,-0.623125,0.0011924935,-0.00017347268,-0.7821214,0.01967334,0.002346579,7.636751e-05,0.004312752,-0.013315366,0.002603626,0.12140499,0.12191026,0.0859915,1.6259093e-05,1.627323e-05,0.00039001263,0.014958222,0.015143865,0.005268685,1,1,16,0
626776000,626776000,-107008.37,-2875729.8,-488.07062,-0.62314796,0.0012047617,-0.00013084643,-0.78210306,0.019811498,0.0022390052,7.405681e-05,-0.010334064,-0.004260783,-0.0075162724,0.12185791,0.12236796,0.08622685,1.6285243e-05,1.6299506e-05,0.0003901069,0.015018239,0.015204962,0.0052772323,1,1,16,0
626784000,626784000,-107008.37,-2875729.8,-488.07065,-0.62317145,0.0011772163,-0.0001749598,-0.7820844,0.020403255,0.0024957587,0.00041684866,0.012835388,0.0014650269,-0.0076493938,0.12231325,0.12282813,0.08646289,1.6311504e-05,1.6326467e-05,0.00039020047,0.01507897,0.015266585,0.00528578,1,1,16,0
626792000,626792000,-107008.37,-2875729.8,-488.07068,-0.6231524,0.0011437151,-0.00018644333,-0.7820996,0.020640943,0.0024145066,-0.00016185927,0.0073759193,-0.0047934176,0.005932559,0.12277104,0.12329078,0.086096145,1.63378e-05,1.6352991e-05,0.0003902945,0.015139788,0.015328166,0.0052767014,1,1,16,0
626808000,626808000,-107008.37,-2875729.8,-488.07077,-0.62312806,0.0010947781,-0.00014402001,-0.7821191,0.021340648,0.0020649747,-0.00019726796,0.0007180051,-0.00958697,-0.0045867283,0.123693965,0.124223515,0.08656838,1.6390444e-05,1.6405726e-05,0.0003904832,0.015261847,0.015451757,0.005293796,1,1,16,0
626816000,626816000,-107008.37,-2875729.8,-488.07092,-0.62313944,0.0010603,-0.00017638874,-0.78211004,0.020871699,0.0021926293,-0.00092855975,0.011636993,-0.0017307078,-0.0037876235,0.10400941,0.10431128,0.07897353,1.5215903e-05,1.519242e-05,0.00039031738,0.012537328,0.012666691,0.004974322,1,1,16,0
626824000,626824000,-107008.37,-2875729.8,-488.07108,-0.6231401,0.0010879845,-0.00021606123,-0.7821095,0.020518482,0.0023550382,-0.0012758125,0.003118608,0.011584812,-0.00032571968,0.10436751,0.10467242,0.07918702,1.5241382e-05,1.5218194e-05,0.00039041156,0.012590007,0.012720112,0.0049828296,1,1,16,0
626832000,626832000,-107008.37,-2875729.8,-488.07123,-0.6231178,0.00107993,-0.00022454976,-0.78212726,0.020903595,0.0023217315,-0.0012808605,0.0025860462,-0.00026635412,0.006997901,0.10471987,0.10503212,0.07940116,1.5249723e-05,1.5232487e-05,0.00038963777,0.012634865,0.012768835,0.0049913386,1,1,16,0
626848000,626848000,-107008.37,-2875729.8,-488.0715,-0.6231096,0.0011615743,-0.00019380335,-0.78213376,0.020777255,0.0022447468,-0.0019791536,-0.0039390894,0.018911118,-0.004717755,0.10544572,0.105764315,0.0798314,1.5301395e-05,1.5283067e-05,0.00038982552,0.012741837,0.012877155,0.0050083594,1,1,16,0
626856000,626856000,-107008.37,-2875729.8,-488.07162,-0.6231493,0.0011550648,-0.00022370071,-0.78210217,0.02077607,0.0018556443,-0.0023263681,0.0065801335,0.0033317204,-0.012973468,0.105811656,0.10613345,0.0800475,1.5326852e-05,1.5308977e-05,0.00038991933,0.012795113,0.012931118,0.0050168713,1,1,16,0
626864000,626864000,-107008.37,-2875729.8,-488.07178,-0.62321484,0.0011110042,-0.0002263436,-0.78204995,0.020074576,0.0007156228,-0.00081264216,0.007113228,-0.00825306,-0.02122906,0.106179595,0.106504634,0.07974679,1.53522e-05,1.5335007e-05,0.00039001313,0.012848243,0.012984941,0.005010597,1,1,16,0
626872000,626872000,-107008.37,-2875729.8,-488.0719,-0.6232386,0.001128709,-0.00025237884,-0.7820308,0.02038931,4.3184322e-05,-0.00048011914,0.0020531558,0.0074595683,-0.007913313,0.10654956,0.106877856,0.079962805,1.5378286e-05,1.5361178e-05,0.00039010623,0.012901777,0.013039336,0.005019109,1,1,16,0
626888000,626888000,-107008.37,-2875729.8,-488.07217,-0.6233239,0.0011402115,-0.00030708272,-0.7819629,0.019485507,0.0002170105,-0.0005645329,0.0020531751,0.008125311,-0.018299658,0.107295595,0.107630484,0.0803968,1.5430418e-05,1.541282e-05,0.00039029343,0.01300926,0.013147887,0.0050361375,1,1,16,0
626896000,626896000,-107008.37,-2875729.8,-488.0723,-0.62334657,0.0011661113,-0.00034165592,-0.78194475,0.018851615,-0.0004805156,8.619618e-06,0.002452624,0.010389083,-0.007513783,0.107671686,0.108009905,0.08061478,1.5456206e-05,1.5438944e-05,0.00039038697,0.013063313,0.013202656,0.005044653,1,1,16,0
626904000,626904000,-107008.37,-2875729.8,-488.0724,-0.62331474,0.0011619318,-0.0003080637,-0.78197026,0.01880541,-0.0007028877,1.7362152e-05,-0.006202621,-0.00612254,0.00992994,0.10804164,0.10838822,0.08083343,1.5466692e-05,1.5454489e-05,0.0003897253,0.013110239,0.013253834,0.00505317,1,1,16,0
626912000,626912000,-107008.37,-2875729.8,-488.0725,-0.623335,0.0011756426,-0.00028951245,-0.781954,0.01879434,-0.0005115538,0.00024157153,-0.00606881,-0.00026376825,-0.006715219,0.10842173,0.108771764,0.08105273,1.549239e-05,1.5479573e-05,0.00038981973,0.013164384,0.013308638,0.005061688,1,1,16,0
626928000,626928000,-107008.37,-2875729.8,-488.07272,-0.6234195,0.0012930591,-0.00022322561,-0.7818864,0.017054437,-0.0005883254,-0.0004830892,-0.018319512,-0.0014622883,-0.01057663,0.109188154,0.10954518,0.08149332,1.5542868e-05,1.5531443e-05,0.00039000844,0.013273532,0.013419412,0.005078726,1,1,16,0
626936000,626936000,-107008.37,-2875729.8,-488.0728,-0.6234694,0.0013213125,-0.0002291268,-0.7818466,0.016631167,-0.00061642635,4.4065222e-05,-0.0035386859,0.0063941116,-0.016169388,0.10957451,0.109935075,0.08117833,1.5568658e-05,1.5556641e-05,0.00039010312,0.013328292,0.013475053,0.0050718375,1,1,16,0
626944000,626944000,-107008.37,-2875729.8,-488.0729,-0.6234706,0.0013774127,-0.00022666054,-0.7818457,0.016847797,9.3596536e-05,0.00093542115,-0.009530983,0.010522138,-0.00058972667,0.10996298,0.11032711,0.08139883,1.5594147e-05,1.5582133e-05,0.00039019788,0.013383787,0.013531348,0.0050803577,1,1,16,0
626952000,626952000,-107008.37,-2875729.8,-488.073,-0.62346095,0.0013815146,-0.00021680376,-0.78185326,0.016982477,-1.2821285e-05,0.0014650326,-0.002873151,-0.00079636445,0.0028722875,0.110353574,0.11072129,0.08161999,1.5619557e-05,1.5608071e-05,0.00039029235,0.013439218,0.013587721,0.005088879,1,1,16,0
626968000,626968000,-107008.37,-2875729.8,-488.07315,-0.62341803,0.0013310856,-0.0001980443,-0.78188765,0.017060002,0.0011228767,0.0016898947,0.002586383,-0.005590199,0.011527479,0.11114116,0.11151615,0.08206432,1.567056e-05,1.5659256e-05,0.0003904817,0.013550777,0.013700643,0.005105925,1,1,16,0
626976000,626976000,-107008.37,-2875729.8,-488.07324,-0.6233929,0.0013086475,-0.00012752206,-0.7819076,0.01658502,0.0016009371,0.001764187,-0.010596351,-0.015443768,0.0077990703,0.11152876,0.1119131,0.08228748,1.5680967e-05,1.5675001e-05,0.00038982023,0.013598721,0.013753015,0.0051144497,1,1,16,0
626984000,626984000,-107008.37,-2875729.8,-488.0733,-0.62341964,0.0012839995,-0.000120444885,-0.78188634,0.01621878,0.0008897206,0.0016115989,0.00218679,-0.005989366,-0.008844941,0.11192781,0.11231592,0.08251131,1.570677e-05,1.570081e-05,0.00038991438,0.013654718,0.013809907,0.0051229754,1,1,16,0
626992000,626992000,-107008.37,-2875729.8,-488.07336,-0.6234652,0.0012913778,-0.00014836557,-0.78185004,0.01578818,-0.0004226177,0.00125465,0.004051089,0.0057286187,-0.014837035,0.11232901,0.112720944,0.082735814,1.5732216e-05,1.5727514e-05,0.00039000803,0.013710776,0.013866644,0.005131502,1,1,16,0
627008000,627008000,-107008.37,-2875729.8,-488.0735,-0.62348217,0.0013448312,-0.00024120977,-0.7818364,0.014730525,-0.0003291069,0.0013085019,0.0016539175,0.012519661,-0.0060486468,0.11313799,0.113537624,0.08263112,1.5785066e-05,1.5779327e-05,0.00039019514,0.0138244545,0.013982006,0.0051325103,1,1,16,0
627016000,627016000,-107008.37,-2875729.8,-488.07355,-0.6234877,0.0013501784,-0.0002708729,-0.781832,0.014885504,-0.00043165497,0.0020586706,0.0047167777,0.005595319,-0.0020539777,0.11354578,0.113949314,0.082856126,1.5810561e-05,1.580498e-05,0.00039029005,0.013880236,0.014038391,0.0051410375,1,1,16,0
627024000,627024000,-107008.37,-2875729.8,-488.0736,-0.62342376,0.0013123793,-0.00026759217,-0.781883,0.015036305,-0.0006456212,0.0023115503,0.0049830205,-0.00798673,0.020183453,0.11395578,0.11436323,0.083081804,1.5836858e-05,1.583091e-05,0.00039038403,0.01393694,0.01409598,0.0051495666,1,1,16,0
627032000,627032000,-107008.37,-2875729.8,-488.07364,-0.6234448,0.0013153667,-0.00025235003,-0.78186625,0.014989637,-0.0007771295,0.0018939978,-0.0036722403,-0.0018615196,-0.0069807773,0.11436705,0.114778295,0.08330815,1.5860569e-05,1.5854284e-05,0.00039036793,0.013993058,0.014152677,0.005158097,1,1,16,0
627048000,627048000,-107008.37,-2875729.8,-488.07373,-0.6234606,0.0012455941,-0.0003029488,-0.78185374,0.015142866,-0.0017632148,0.001885775,0.013770602,-0.0058573084,-0.0035146398,0.11518739,0.11561306,0.083762884,1.58969e-05,1.5895817e-05,0.00038980204,0.0140987635,0.014263719,0.0051751607,1,1,16,0
627056000,627056000,-107008.37,-2875729.8,-488.0738,-0.6234826,0.0012667775,-0.00034911593,-0.7818362,0.0154528385,-0.0023774146,0.0020840599,0.0055149742,0.011319623,-0.0072450014,0.11560617,0.11603595,0.08399127,1.592255e-05,1.5922216e-05,0.00038989616,0.014156351,0.014322125,0.0051836944,1,1,16,0
627064000,627064000,-107008.37,-2875729.8,-488.07382,-0.6234647,0.0012634514,-0.00041665733,-0.78185046,0.015077677,-0.002982916,0.0022338573,0.0135046,0.009854603,0.005538186,0.1160272,0.11646115,0.08422033,1.594854e-05,1.5948635e-05,0.0003899898,0.01421399,0.014380589,0.0051922295,1,1,16,0
627072000,627072000,-107008.37,-2875729.8,-488.07385,-0.62347883,0.0013115827,-0.0004392873,-0.7818391,0.014583133,-0.002995086,0.0025732832,-0.0032736352,0.012917424,-0.004715001,0.11645051,0.11688864,0.08387741,1.5975294e-05,1.5975449e-05,0.00039008245,0.014272141,0.01443938,0.005184161,1,1,16,0
627088000,627088000,-107008.37,-2875729.8,-488.0739,-0.6235516,0.0012936445,-0.0003850865,-0.7817811,0.014003526,-0.0039065364,0.0030835327,-0.0011426671,-0.009319858,-0.010707275,0.117304005,0.117750585,0.084335804,1.6027654e-05,1.6028882e-05,0.0003902693,0.014388587,0.014557088,0.0052012317,1,1,16,0
627096000,627096000,-107008.37,-2875729.8,-488.07394,-0.6235699,0.0013444726,-0.00039407684,-0.78176636,0.013891228,-0.004108099,0.0034873902,-0.006335942,0.011319636,-0.006046636,0.1177342,0.11818505,0.08456602,1.605429e-05,1.6055574e-05,0.00039036234,0.014446548,0.014615931,0.0052097696,1,1,16,0
627104000,627104000,-107008.37,-2875729.8,-488.07397,-0.6235728,0.0013434108,-0.00034940624,-0.7817641,0.014110962,-0.003254997,0.0039089536,-0.008732868,-0.0071894694,-0.001119657,0.11816671,0.11862186,0.08479692,1.6080341e-05,1.6081942e-05,0.00039045632,0.014504925,0.014675179,0.005218308,1,1,16,0
627112000,627112000,-107008.37,-2875729.8,-488.074,-0.6235251,0.0012918841,-0.00038514106,-0.78180224,0.01346968,-0.0032983047,0.0038910015,0.014835933,-0.004526499,0.015125548,0.118601546,0.11906103,0.0850285,1.6106067e-05,1.6108124e-05,0.00039055094,0.01456361,0.014734841,0.0052268477,1,1,16,0
627128000,627128000,-107008.37,-2875729.8,-488.074,-0.6235029,0.0013171695,-0.00040070826,-0.7818198,0.014433951,-0.0035186464,0.0043975245,-0.0050043296,0.0013328262,-0.005114128,0.11946582,0.11994139,0.08490684,1.6140231e-05,1.6150489e-05,0.00038998705,0.014672719,0.014849658,0.0052268603,1,1,16,0
627136000,627136000,-107008.37,-2875729.8,-488.074,-0.62350816,0.0013676664,-0.00036913384,-0.7818156,0.014873338,-0.0028845065,0.0052200053,-0.014192128,0.0049281344,-0.001918523,0.119907536,0.12038763,0.08513887,1.6166086e-05,1.617665e-05,0.00039008155,0.014732232,0.014909945,0.0052354,1,1,16,0
627144000,627144000,-107008.37,-2875729.8,-488.074,-0.62351096,0.0013728548,-0.0003456769,-0.7818133,0.014727254,-0.002103841,0.0047054836,-0.0055369157,-0.0026619795,-0.0011193553,0.12035162,0.12083627,0.08537159,1.6192576e-05,1.6202735e-05,0.0003901755,0.014792071,0.014970546,0.0052439407,1,1,16,0
627152000,627152000,-107008.37,-2875729.8,-488.074,-0.62351054,0.0013729323,-0.00034400416,-0.7818137,0.014323294,-0.0024037978,0.005002508,-0.000476895,-0.00026512274,-5.4187174e-05,0.12079808,0.12128732,0.085604995,1.6219417e-05,1.6228649e-05,0.0003902696,0.014852179,0.015031298,0.0052524833,1,1,16,0
627168000,627168000,-107008.37,-2875729.8,-488.07397,-0.6234622,0.00138579,-0.00036577784,-0.7818523,0.01445095,-0.00320692,0.004991312,0.0024526273,-0.0022625932,0.009533158,0.12169821,0.12219672,0.08607386,1.627286e-05,1.628103e-05,0.00039045743,0.014971516,0.015152351,0.005269573,1,1,16,0
627176000,627176000,-107008.37,-2875729.8,-488.07397,-0.6234867,0.0014118168,-0.0003281009,-0.7818327,0.014939168,-0.0021851873,0.0048471307,-0.011528988,-0.00079793704,-0.008043689,0.12215188,0.12265508,0.08630932,1.6298696e-05,1.6307162e-05,0.0003905524,0.015031722,0.015213478,0.0052781194,1,1,16,0
627184000,627184000,-107008.37,-2875729.8,-488.07394,-0.6235113,0.0013974792,-0.0003222416,-0.7818131,0.015391711,-0.0018333433,0.0045466633,0.0009878228,-0.0037272852,-0.008043644,0.12260798,0.1231159,0.086545475,1.6324884e-05,1.6333768e-05,0.00039064663,0.015092571,0.015275199,0.0052866666,1,1,16,0
627192000,627192000,-107008.37,-2875729.8,-488.07394,-0.6234826,0.0014168412,-0.0003297157,-0.78183585,0.014746964,-0.0019678932,0.0049973405,-0.0016752938,0.00492801,0.009000588,0.12305263,0.12357342,0.08678232,1.633365e-05,1.6348964e-05,0.00038998944,0.0151434755,0.015331548,0.0052952147,1,1,16,0
627208000,627208000,-107008.37,-2875729.8,-488.07394,-0.62339216,0.0014010911,-0.00028400272,-0.7819081,0.013709615,-0.0026057542,0.0051941783,-0.0040723067,-0.008387899,0.010065552,0.123976685,0.12450729,0.08664851,1.6386595e-05,1.6400829e-05,0.00039017864,0.015265309,0.015455328,0.0052945646,1,1,16,0
627216000,627216000,-107008.37,-2875729.8,-488.07413,-0.62339365,0.0013835451,-0.00024886825,-0.78190696,0.013628336,-0.00359317,0.0049762614,-0.004205575,-0.008920432,-0.0005870028,0.104221255,0.10452359,0.079040766,1.5214207e-05,1.5187901e-05,0.00039001784,0.012538562,0.0126679335,0.0049748896,1,1,16,0
627224000,627224000,-107008.37,-2875729.8,-488.07428,-0.6233951,0.0013816622,-0.00026881255,-0.78190583,0.014118699,-0.0038114476,0.005401086,0.003920001,0.002796452,-0.0005869119,0.10457969,0.10488507,0.07925434,1.5240346e-05,1.5213605e-05,0.00039011106,0.012590911,0.012720826,0.0049833967,1,1,16,0
