timestamp,timestamp_sample,lat,lon,alt,alt_ellipsoid,delta_alt,delta_terrain,eph,epv,terrain_alt,lat_lon_valid,alt_valid,lat_lon_reset_counter,alt_reset_counter,terrain_reset_counter,terrain_alt_valid,dead_reckoning
625256000,0,47.398146499999996,8.5457546,488.104,0.0,0.0,0.0,0.0,0.0,0.0,0,0,0,0,0,0,0
625260000,0,47.398146499999996,8.5457546,488.104,0.0,0.0,0.0,0.0,0.0,0.0,0,0,0,0,0,0,0
625356000,0,47.398146499999996,8.5457546,488.104,0.0,0.0,0.0,0.0,0.0,0.0,0,0,0,0,0,0,0
625456000,0,47.398146499999996,8.5457546,488.104,0.0,0.0,0.0,0.0,0.0,0.0,0,0,0,0,0,0,0
625556000,0,47.398146499999996,8.5457546,488.104,0.0,0.0,0.0,0.0,0.0,0.0,0,0,0,0,0,0,0
625656000,0,47.398146499999996,8.5457546,488.104,0.0,0.0,0.0,0.0,0.0,0.0,0,0,0,0,0,0,0
625756000,0,47.398146499999996,8.5457546,488.104,0.0,0.0,0.0,0.0,0.0,0.0,0,0,0,0,0,0,0
625856000,0,47.398146499999996,8.5457546,488.104,0.0,0.0,0.0,0.0,0.0,0.0,0,0,0,0,0,0,0
625956000,0,47.398146499999996,8.5457546,488.104,0.0,0.0,0.0,0.0,0.0,0.0,0,0,0,0,0,0,0
626056000,0,47.398146499999996,8.5457546,488.104,0.0,0.0,0.0,0.0,0.0,0.0,0,0,0,0,0,0,0
626156000,0,47.398146499999996,8.5457546,488.104,0.0,0.0,0.0,0.0,0.0,0.0,0,0,0,0,0,0,0
626256000,0,47.398146499999996,8.5457546,488.104,0.0,0.0,0.0,0.0,0.0,0.0,0,0,0,0,0,0,0
626356000,0,47.398146499999996,8.5457546,488.104,0.0,0.0,0.0,0.0,0.0,0.0,0,0,0,0,0,0,0
626456000,0,47.398146499999996,8.5457546,488.104,0.0,0.0,0.0,0.0,0.0,0.0,0,0,0,0,0,0,0
626556000,0,47.398146499999996,8.5457546,488.104,0.0,0.0,0.0,0.0,0.0,0.0,0,0,0,0,0,0,0
626656000,0,47.398146499999996,8.5457546,488.104,0.0,0.0,0.0,0.0,0.0,0.0,0,0,0,0,0,0,0
626756000,0,47.398146499999996,8.5457546,488.104,0.0,0.0,0.0,0.0,0.0,0.0,0,0,0,0,0,0,0
626856000,0,47.398146499999996,8.5457546,488.104,0.0,0.0,0.0,0.0,0.0,0.0,0,0,0,0,0,0,0
626956000,0,47.398146499999996,8.5457546,488.104,0.0,0.0,0.0,0.0,0.0,0.0,0,0,0,0,0,0,0
627056000,0,47.398146499999996,8.5457546,488.104,0.0,0.0,0.0,0.0,0.0,0.0,0,0,0,0,0,0,0
627156000,0,47.398146499999996,8.5457546,488.104,0.0,0.0,0.0,0.0,0.0,0.0,0,0,0,0,0,0,0
627256000,0,47.398146499999996,8.5457546,488.104,0.0,0.0,0.0,0.0,0.0,0.0,0,0,0,0,0,0,0
627356000,0,47.398146499999996,8.5457546,488.104,0.0,0.0,0.0,0.0,0.0,0.0,0,0,0,0,0,0,0
627456000,0,47.398146499999996,8.5457546,488.104,0.0,0.0,0.0,0.0,0.0,0.0,0,0,0,0,0,0,0
627556000,0,47.398146499999996,8.5457546,488.104,0.0,0.0,0.0,0.0,0.0,0.0,0,0,0,0,0,0,0
627656000,0,47.398146499999996,8.5457546,488.104,0.0,0.0,0.0,0.0,0.0,0.0,0,0,0,0,0,0,0
627756000,0,47.398146499999996,8.5457546,488.104,0.0,0.0,0.0,0.0,0.0,0.0,0,0,0,0,0,0,0
627856000,0,47.398146499999996,8.5457546,488.104,0.0,0.0,0.0,0.0,0.0,0.0,0,0,0,0,0,0,0
627956000,0,47.398146499999996,8.5457546,488.104,0.0,0.0,0.0,0.0,0.0,0.0,0,0,0,0,0,0,0
628056000,0,47.398146499999996,8.5457546,488.104,0.0,0.0,0.0,0.0,0.0,0.0,0,0,0,0,0,0,0
628156000,0,47.398146499999996,8.5457546,488.104,0.0,0.0,0.0,0.0,0.0,0.0,0,0,0,0,0,0,0
628256000,0,47.398146499999996,8.5457546,488.104,0.0,0.0,0.0,0.0,0.0,0.0,0,0,0,0,0,0,0
628356000,0,47.398146499999996,8.5457546,488.104,0.0,0.0,0.0,0.0,0.0,0.0,0,0,0,0,0,0,0
628456000,0,47.398146499999996,8.5457546,488.104,0.0,0.0,0.0,0.0,0.0,0.0,0,0,0,0,0,0,0
628556000,0,47.398146499999996,8.5457546,488.104,0.0,0.0,0.0,0.0,0.0,0.0,0,0,0,0,0,0,0
628656000,0,47.398146499999996,8.5457546,488.104,0.0,0.0,0.0,0.0,0.0,0.0,0,0,0,0,0,0,0
628756000,0,47.398146499999996,8.5457546,488.104,0.0,0.0,0.0,0.0,0.0,0.0,0,0,0,0,0,0,0
628856000,0,47.398146499999996,8.5457546,488.104,0.0,0.0,0.0,0.0,0.0,0.0,0,0,0,0,0,0,0
628956000,0,47.398146499999996,8.5457546,488.104,0.0,0.0,0.0,0.0,0.0,0.0,0,0,0,0,0,0,0
629056000,0,47.398146499999996,8.5457546,488.104,0.0,0.0,0.0,0.0,0.0,0.0,0,0,0,0,0,0,0
629156000,0,47.398146499999996,8.5457546,488.104,0.0,0.0,0.0,0.0,0.0,0.0,0,0,0,0,0,0,0
629256000,0,47.398146499999996,8.5457546,488.104,0.0,0.0,0.0,0.0,0.0,0.0,0,0,0,0,0,0,0
629356000,0,47.398146499999996,8.5457546,488.104,0.0,0.0,0.0,0.0,0.0,0.0,0,0,0,0,0,0,0
629456000,0,47.398146499999996,8.5457546,488.104,0.0,0.0,0.0,0.0,0.0,0.0,0,0,0,0,0,0,0
629556000,0,47.398146499999996,8.5457546,488.104,0.0,0.0,0.0,0.0,0.0,0.0,0,0,0,0,0,0,0
629656000,0,47.398146499999996,8.5457546,488.104,0.0,0.0,0.0,0.0,0.0,0.0,0,0,0,0,0,0,0
629756000,0,47.398146499999996,8.5457546,488.104,0.0,0.0,0.0,0.0,0.0,0.0,0,0,0,0,0,0,0
629856000,0,47.398146499999996,8.5457546,488.104,0.0,0.0,0.0,0.0,0.0,0.0,0,0,0,0,0,0,0
629956000,0,47.398146499999996,8.5457546,488.104,0.0,0.0,0.0,0.0,0.0,0.0,0,0,0,0,0,0,0
630056000,0,47.398146499999996,8.5457546,488.106,0.0,0.0,0.0,0.0,0.0,0.0,0,0,0,0,0,0,0
630156000,0,47.398146499999996,8.5457546,488.113,0.0,0.0,0.0,0.0,0.0,0.0,0,0,0,0,0,0,0
630256000,0,47.398146499999996,8.5457546,488.128,0.0,0.0,0.0,0.0,0.0,0.0,0,0,0,0,0,0,0
630356000,0,47.398146499999996,8.5457547,488.151,0.0,0.0,0.0,0.0,0.0,0.0,0,0,0,0,0,0,0
630456000,0,47.398146499999996,8.5457547,488.186,0.0,0.0,0.0,0.0,0.0,0.0,0,0,0,0,0,0,0
630556000,0,47.398146499999996,8.5457548,488.229,0.0,0.0,0.0,0.0,0.0,0.0,0,0,0,0,0,0,0
630656000,0,47.3981466,8.5457549,488.282,0.0,0.0,0.0,0.0,0.0,0.0,0,0,0,0,0,0,0
630756000,0,47.3981466,8.545755,488.344,0.0,0.0,0.0,0.0,0.0,0.0,0,0,0,0,0,0,0
630856000,0,47.3981466,8.5457551,488.412,0.0,0.0,0.0,0.0,0.0,0.0,0,0,0,0,0,0,0
630956000,0,47.3981466,8.5457552,488.483,0.0,0.0,0.0,0.0,0.0,0.0,0,0,0,0,0,0,0
631056000,0,47.3981467,8.5457552,488.553,0.0,0.0,0.0,0.0,0.0,0.0,0,0,0,0,0,0,0
631156000,0,47.3981467,8.5457553,488.629,0.0,0.0,0.0,0.0,0.0,0.0,0,0,0,0,0,0,0
631256000,0,47.3981467,8.5457554,488.701,0.0,0.0,0.0,0.0,0.0,0.0,0,0,0,0,0,0,0
631356000,0,47.3981468,8.5457555,488.78,0.0,0.0,0.0,0.0,0.0,0.0,0,0,0,0,0,0,0
631456000,0,47.3981468,8.5457556,488.856,0.0,0.0,0.0,0.0,0.0,0.0,0,0,0,0,0,0,0
631556000,0,47.3981469,8.5457556,488.93,0.0,0.0,0.0,0.0,0.0,0.0,0,0,0,0,0,0,0
631656000,0,47.3981469,8.545755699999999,489.008,0.0,0.0,0.0,0.0,0.0,0.0,0,0,0,0,0,0,0
631756000,0,47.398146999999994,8.5457558,489.086,0.0,0.0,0.0,0.0,0.0,0.0,0,0,0,0,0,0,0
631856000,0,47.398146999999994,8.5457558,489.168,0.0,0.0,0.0,0.0,0.0,0.0,0,0,0,0,0,0,0
631956000,0,47.398147099999996,8.5457559,489.246,0.0,0.0,0.0,0.0,0.0,0.0,0,0,0,0,0,0,0
632056000,0,47.398147099999996,8.545755999999999,489.325,0.0,0.0,0.0,0.0,0.0,0.0,0,0,0,0,0,0,0
632156000,0,47.3981472,8.545755999999999,489.403,0.0,0.0,0.0,0.0,0.0,0.0,0,0,0,0,0,0,0
632256000,0,47.3981472,8.5457561,489.478,0.0,0.0,0.0,0.0,0.0,0.0,0,0,0,0,0,0,0
632356000,0,47.3981473,8.5457561,489.555,0.0,0.0,0.0,0.0,0.0,0.0,0,0,0,0,0,0,0
632456000,0,47.3981474,8.5457562,489.635,0.0,0.0,0.0,0.0,0.0,0.0,0,0,0,0,0,0,0
632556000,0,47.3981474,8.5457562,489.711,0.0,0.0,0.0,0.0,0.0,0.0,0,0,0,0,0,0,0
632656000,0,47.3981474,8.545756299999999,489.785,0.0,0.0,0.0,0.0,0.0,0.0,0,0,0,0,0,0,0
632756000,0,47.3981475,8.545756299999999,489.859,0.0,0.0,0.0,0.0,0.0,0.0,0,0,0,0,0,0,0
632856000,0,47.3981475,8.5457564,489.928,0.0,0.0,0.0,0.0,0.0,0.0,0,0,0,0,0,0,0
632956000,0,47.398147599999994,8.5457564,490.002,0.0,0.0,0.0,0.0,0.0,0.0,0,0,0,0,0,0,0
633056000,0,47.398147599999994,8.5457564,490.071,0.0,0.0,0.0,0.0,0.0,0.0,0,0,0,0,0,0,0
633156000,0,47.398147699999996,8.5457565,490.136,0.0,0.0,0.0,0.0,0.0,0.0,0,0,0,0,0,0,0
633256000,0,47.398147699999996,8.5457565,490.201,0.0,0.0,0.0,0.0,0.0,0.0,0,0,0,0,0,0,0
633356000,0,47.3981478,8.5457565,490.268,0.0,0.0,0.0,0.0,0.0,0.0,0,0,0,0,0,0,0
633456000,0,47.3981478,8.545756599999999,490.329,0.0,0.0,0.0,0.0,0.0,0.0,0,0,0,0,0,0,0
633556000,0,47.3981478,8.545756599999999,490.388,0.0,0.0,0.0,0.0,0.0,0.0,0,0,0,0,0,0,0
633656000,0,47.3981479,8.545756599999999,490.445,0.0,0.0,0.0,0.0,0.0,0.0,0,0,0,0,0,0,0
633756000,0,47.3981479,8.545756599999999,490.494,0.0,0.0,0.0,0.0,0.0,0.0,0,0,0,0,0,0,0
633856000,0,47.398148,8.545756599999999,490.532,0.0,0.0,0.0,0.0,0.0,0.0,0,0,0,0,0,0,0
633956000,0,47.398148,8.5457567,490.558,0.0,0.0,0.0,0.0,0.0,0.0,0,0,0,0,0,0,0
634056000,0,47.398148,8.5457567,490.577,0.0,0.0,0.0,0.0,0.0,0.0,0,0,0,0,0,0,0
634156000,0,47.3981481,8.5457567,490.593,0.0,0.0,0.0,0.0,0.0,0.0,0,0,0,0,0,0,0
634256000,0,47.3981481,8.5457567,490.611,0.0,0.0,0.0,0.0,0.0,0.0,0,0,0,0,0,0,0
634356000,0,47.3981481,8.5457567,490.633,0.0,0.0,0.0,0.0,0.0,0.0,0,0,0,0,0,0,0
634456000,0,47.3981481,8.5457568,490.656,0.0,0.0,0.0,0.0,0.0,0.0,0,0,0,0,0,0,0
634556000,0,47.3981482,8.5457568,490.679,0.0,0.0,0.0,0.0,0.0,0.0,0,0,0,0,0,0,0
634656000,0,47.3981482,8.5457568,490.7,0.0,0.0,0.0,0.0,0.0,0.0,0,0,0,0,0,0,0
634756000,0,47.3981482,8.5457568,490.72,0.0,0.0,0.0,0.0,0.0,0.0,0,0,0,0,0,0,0
634856000,0,47.3981482,8.545756899999999,490.738,0.0,0.0,0.0,0.0,0.0,0.0,0,0,0,0,0,0,0
634956000,0,47.3981482,8.545756899999999,490.757,0.0,0.0,0.0,0.0,0.0,0.0,0,0,0,0,0,0,0
635056000,0,47.3981482,8.545756899999999,490.774,0.0,0.0,0.0,0.0,0.0,0.0,0,0,0,0,0,0,0
635156000,0,47.3981482,8.545756899999999,490.79,0.0,0.0,0.0,0.0,0.0,0.0,0,0,0,0,0,0,0
635256000,0,47.398148299999995,8.545757,490.805,0.0,0.0,0.0,0.0,0.0,0.0,0,0,0,0,0,0,0
635356000,0,47.398148299999995,8.545757,490.819,0.0,0.0,0.0,0.0,0.0,0.0,0,0,0,0,0,0,0
635456000,0,47.398148299999995,8.545757,490.833,0.0,0.0,0.0,0.0,0.0,0.0,0,0,0,0,0,0,0
635556000,0,47.398148299999995,8.5457571,490.846,0.0,0.0,0.0,0.0,0.0,0.0,0,0,0,0,0,0,0
635656000,0,47.398148299999995,8.5457571,490.858,0.0,0.0,0.0,0.0,0.0,0.0,0,0,0,0,0,0,0
635756000,0,47.3981482,8.545757199999999,490.87,0.0,0.0,0.0,0.0,0.0,0.0,0,0,0,0,0,0,0
635856000,0,47.398148,8.545757199999999,490.882,0.0,0.0,0.0,0.0,0.0,0.0,0,0,0,0,0,0,0
635956000,0,47.398147699999996,8.5457573,490.896,0.0,0.0,0.0,0.0,0.0,0.0,0,0,0,0,0,0,0
636056000,0,47.3981473,8.5457574,490.909,0.0,0.0,0.0,0.0,0.0,0.0,0,0,0,0,0,0,0
636156000,0,47.3981467,8.5457574,490.923,0.0,0.0,0.0,0.0,0.0,0.0,0,0,0,0,0,0,0
636256000,0,47.398145799999995,8.545757499999999,490.936,0.0,0.0,0.0,0.0,0.0,0.0,0,0,0,0,0,0,0
636356000,0,47.398144699999996,8.5457576,490.947,0.0,0.0,0.0,0.0,0.0,0.0,0,0,0,0,0,0,0
636456000,0,47.3981433,8.5457576,490.956,0.0,0.0,0.0,0.0,0.0,0.0,0,0,0,0,0,0,0
636556000,0,47.398141599999995,8.5457577,490.964,0.0,0.0,0.0,0.0,0.0,0.0,0,0,0,0,0,0,0
636656000,0,47.398139699999994,8.5457577,490.969,0.0,0.0,0.0,0.0,0.0,0.0,0,0,0,0,0,0,0
636756000,0,47.3981375,8.545757799999999,490.973,0.0,0.0,0.0,0.0,0.0,0.0,0,0,0,0,0,0,0
636856000,0,47.3981351,8.545757799999999,490.976,0.0,0.0,0.0,0.0,0.0,0.0,0,0,0,0,0,0,0
636956000,0,47.398132399999994,8.5457579,490.977,0.0,0.0,0.0,0.0,0.0,0.0,0,0,0,0,0,0,0
637056000,0,47.3981297,8.545758,490.977,0.0,0.0,0.0,0.0,0.0,0.0,0,0,0,0,0,0,0
637156000,0,47.398126399999995,8.5457582,490.976,0.0,0.0,0.0,0.0,0.0,0.0,0,0,0,0,0,0,0
637256000,0,47.3981231,8.5457585,490.973,0.0,0.0,0.0,0.0,0.0,0.0,0,0,0,0,0,0,0
637356000,0,47.3981196,8.5457588,490.97,0.0,0.0,0.0,0.0,0.0,0.0,0,0,0,0,0,0,0
637456000,0,47.3981159,8.5457593,490.965,0.0,0.0,0.0,0.0,0.0,0.0,0,0,0,0,0,0,0
637556000,0,47.3981121,8.5457599,490.961,0.0,0.0,0.0,0.0,0.0,0.0,0,0,0,0,0,0,0
637656000,0,47.3981084,8.5457606,490.957,0.0,0.0,0.0,0.0,0.0,0.0,0,0,0,0,0,0,0
637756000,0,47.3981042,8.545761599999999,490.951,0.0,0.0,0.0,0.0,0.0,0.0,0,0,0,0,0,0,0
637856000,0,47.3981001,8.5457627,490.944,0.0,0.0,0.0,0.0,0.0,0.0,0,0,0,0,0,0,0
637956000,0,47.3980961,8.545764,490.937,0.0,0.0,0.0,0.0,0.0,0.0,0,0,0,0,0,0,0
638052000,0,47.398091799999996,8.5457656,490.928,0.0,0.0,0.0,0.0,0.0,0.0,0,0,0,0,0,0,0
638156000,0,47.398087399999994,8.545767399999999,490.918,0.0,0.0,0.0,0.0,0.0,0.0,0,0,0,0,0,0,0
638256000,0,47.398083299999996,8.5457694,490.907,0.0,0.0,0.0,0.0,0.0,0.0,0,0,0,0,0,0,0
638356000,0,47.398078999999996,8.5457716,490.896,0.0,0.0,0.0,0.0,0.0,0.0,0,0,0,0,0,0,0
638456000,0,47.398074699999995,8.5457743,490.886,0.0,0.0,0.0,0.0,0.0,0.0,0,0,0,0,0,0,0
638556000,0,47.398070499999996,8.545777,490.876,0.0,0.0,0.0,0.0,0.0,0.0,0,0,0,0,0,0,0
638656000,0,47.3980666,8.5457798,490.868,0.0,0.0,0.0,0.0,0.0,0.0,0,0,0,0,0,0,0
638756000,0,47.398062499999995,8.545783,490.858,0.0,0.0,0.0,0.0,0.0,0.0,0,0,0,0,0,0,0
638856000,0,47.3980585,8.5457863,490.849,0.0,0.0,0.0,0.0,0.0,0.0,0,0,0,0,0,0,0
638956000,0,47.3980543,8.54579,490.839,0.0,0.0,0.0,0.0,0.0,0.0,0,0,0,0,0,0,0
639056000,0,47.398050399999995,8.545793699999999,490.829,0.0,0.0,0.0,0.0,0.0,0.0,0,0,0,0,0,0,0
639156000,0,47.3980464,8.545797499999999,490.819,0.0,0.0,0.0,0.0,0.0,0.0,0,0,0,0,0,0,0
639256000,0,47.3980427,8.5458014,490.808,0.0,0.0,0.0,0.0,0.0,0.0,0,0,0,0,0,0,0
639356000,0,47.3980387,8.5458056,490.797,0.0,0.0,0.0,0.0,0.0,0.0,0,0,0,0,0,0,0
639456000,0,47.398035,8.5458096,490.786,0.0,0.0,0.0,0.0,0.0,0.0,0,0,0,0,0,0,0
639556000,0,47.398030999999996,8.545814,490.774,0.0,0.0,0.0,0.0,0.0,0.0,0,0,0,0,0,0,0
639656000,0,47.398027299999995,8.545818299999999,490.763,0.0,0.0,0.0,0.0,0.0,0.0,0,0,0,0,0,0,0
639756000,0,47.398023699999996,8.5458227,490.753,0.0,0.0,0.0,0.0,0.0,0.0,0,0,0,0,0,0,0
639856000,0,47.3980203,8.5458271,490.744,0.0,0.0,0.0,0.0,0.0,0.0,0,0,0,0,0,0,0
639956000,0,47.398016999999996,8.5458315,490.735,0.0,0.0,0.0,0.0,0.0,0.0,0,0,0,0,0,0,0
640056000,0,47.398013999999996,8.5458357,490.728,0.0,0.0,0.0,0.0,0.0,0.0,0,0,0,0,0,0,0
640156000,0,47.398011,8.5458403,490.72,0.0,0.0,0.0,0.0,0.0,0.0,0,0,0,0,0,0,0
640256000,0,47.3980083,8.545844599999999,490.712,0.0,0.0,0.0,0.0,0.0,0.0,0,0,0,0,0,0,0
640356000,0,47.3980058,8.5458489,490.705,0.0,0.0,0.0,0.0,0.0,0.0,0,0,0,0,0,0,0
640456000,0,47.398003499999994,8.545853,490.698,0.0,0.0,0.0,0.0,0.0,0.0,0,0,0,0,0,0,0
640556000,0,47.398001199999996,8.5458573,490.692,0.0,0.0,0.0,0.0,0.0,0.0,0,0,0,0,0,0,0
640656000,0,47.397999299999995,8.5458611,490.687,0.0,0.0,0.0,0.0,0.0,0.0,0,0,0,0,0,0,0
640756000,0,47.3979974,8.5458652,490.682,0.0,0.0,0.0,0.0,0.0,0.0,0,0,0,0,0,0,0
640856000,0,47.397995699999996,8.545869,490.678,0.0,0.0,0.0,0.0,0.0,0.0,0,0,0,0,0,0,0
640956000,0,47.3979942,8.5458727,490.676,0.0,0.0,0.0,0.0,0.0,0.0,0,0,0,0,0,0,0
641056000,0,47.3979929,8.5458763,490.677,0.0,0.0,0.0,0.0,0.0,0.0,0,0,0,0,0,0,0
641156000,0,47.3979919,8.5458799,490.682,0.0,0.0,0.0,0.0,0.0,0.0,0,0,0,0,0,0,0
641256000,0,47.3979911,8.5458834,490.689,0.0,0.0,0.0,0.0,0.0,0.0,0,0,0,0,0,0,0
641356000,0,47.3979906,8.5458869,490.696,0.0,0.0,0.0,0.0,0.0,0.0,0,0,0,0,0,0,0
641456000,0,47.3979904,8.5458905,490.702,0.0,0.0,0.0,0.0,0.0,0.0,0,0,0,0,0,0,0
641556000,0,47.3979905,8.5458941,490.705,0.0,0.0,0.0,0.0,0.0,0.0,0,0,0,0,0,0,0
641656000,0,47.397990899999996,8.5458977,490.708,0.0,0.0,0.0,0.0,0.0,0.0,0,0,0,0,0,0,0
641756000,0,47.3979916,8.545901299999999,490.709,0.0,0.0,0.0,0.0,0.0,0.0,0,0,0,0,0,0,0
641856000,0,47.397992599999995,8.545904799999999,490.71,0.0,0.0,0.0,0.0,0.0,0.0,0,0,0,0,0,0,0
641956000,0,47.397994,8.545908599999999,490.708,0.0,0.0,0.0,0.0,0.0,0.0,0,0,0,0,0,0,0
642056000,0,47.397995599999994,8.545912099999999,490.704,0.0,0.0,0.0,0.0,0.0,0.0,0,0,0,0,0,0,0
642152000,0,47.3979974,8.5459155,490.7,0.0,0.0,0.0,0.0,0.0,0.0,0,0,0,0,0,0,0
642256000,0,47.3979996,8.545919,490.697,0.0,0.0,0.0,0.0,0.0,0.0,0,0,0,0,0,0,0
642356000,0,47.3980019,8.5459224,490.695,0.0,0.0,0.0,0.0,0.0,0.0,0,0,0,0,0,0,0
642456000,0,47.3980044,8.5459258,490.694,0.0,0.0,0.0,0.0,0.0,0.0,0,0,0,0,0,0,0
642556000,0,47.398007199999995,8.5459292,490.691,0.0,0.0,0.0,0.0,0.0,0.0,0,0,0,0,0,0,0
642656000,0,47.3980101,8.5459326,490.686,0.0,0.0,0.0,0.0,0.0,0.0,0,0,0,0,0,0,0
642756000,0,47.3980131,8.545936,490.679,0.0,0.0,0.0,0.0,0.0,0.0,0,0,0,0,0,0,0
642856000,0,47.3980162,8.545939299999999,490.671,0.0,0.0,0.0,0.0,0.0,0.0,0,0,0,0,0,0,0
642956000,0,47.398019399999995,8.5459426,490.664,0.0,0.0,0.0,0.0,0.0,0.0,0,0,0,0,0,0,0
643056000,0,47.398022499999996,8.545945699999999,490.658,0.0,0.0,0.0,0.0,0.0,0.0,0,0,0,0,0,0,0
643156000,0,47.3980258,8.5459487,490.654,0.0,0.0,0.0,0.0,0.0,0.0,0,0,0,0,0,0,0
643256000,0,47.398029,8.5459514,490.653,0.0,0.0,0.0,0.0,0.0,0.0,0,0,0,0,0,0,0
643356000,0,47.398032,8.5459537,490.653,0.0,0.0,0.0,0.0,0.0,0.0,0,0,0,0,0,0,0
643456000,0,47.3980349,8.5459557,490.653,0.0,0.0,0.0,0.0,0.0,0.0,0,0,0,0,0,0,0
643556000,0,47.398037599999995,8.5459572,490.653,0.0,0.0,0.0,0.0,0.0,0.0,0,0,0,0,0,0,0
643656000,0,47.3980403,8.545958299999999,490.653,0.0,0.0,0.0,0.0,0.0,0.0,0,0,0,0,0,0,0
643756000,0,47.398043099999995,8.545959,490.654,0.0,0.0,0.0,0.0,0.0,0.0,0,0,0,0,0,0,0
643856000,0,47.398045599999996,8.5459593,490.655,0.0,0.0,0.0,0.0,0.0,0.0,0,0,0,0,0,0,0
643956000,0,47.3980481,8.5459593,490.657,0.0,0.0,0.0,0.0,0.0,0.0,0,0,0,0,0,0,0
644056000,0,47.398050399999995,8.5459588,490.659,0.0,0.0,0.0,0.0,0.0,0.0,0,0,0,0,0,0,0
644156000,0,47.398052799999995,8.545957999999999,490.661,0.0,0.0,0.0,0.0,0.0,0.0,0,0,0,0,0,0,0
644256000,0,47.398055,8.5459569,490.662,0.0,0.0,0.0,0.0,0.0,0.0,0,0,0,0,0,0,0
644356000,0,47.398056999999994,8.5459556,490.663,0.0,0.0,0.0,0.0,0.0,0.0,0,0,0,0,0,0,0
644456000,0,47.398058999999996,8.545954,490.665,0.0,0.0,0.0,0.0,0.0,0.0,0,0,0,0,0,0,0
644556000,0,47.3980609,8.545952,490.665,0.0,0.0,0.0,0.0,0.0,0.0,0,0,0,0,0,0,0
644656000,0,47.398062599999996,8.54595,490.666,0.0,0.0,0.0,0.0,0.0,0.0,0,0,0,0,0,0,0
644756000,0,47.3980642,8.5459477,490.666,0.0,0.0,0.0,0.0,0.0,0.0,0,0,0,0,0,0,0
644856000,0,47.398065599999995,8.5459455,490.666,0.0,0.0,0.0,0.0,0.0,0.0,0,0,0,0,0,0,0
644956000,0,47.398067,8.5459429,490.668,0.0,0.0,0.0,0.0,0.0,0.0,0,0,0,0,0,0,0
645056000,0,47.3980682,8.5459404,490.67,0.0,0.0,0.0,0.0,0.0,0.0,0,0,0,0,0,0,0
645156000,0,47.398069199999995,8.545937799999999,490.672,0.0,0.0,0.0,0.0,0.0,0.0,0,0,0,0,0,0,0
645256000,0,47.39807,8.5459351,490.675,0.0,0.0,0.0,0.0,0.0,0.0,0,0,0,0,0,0,0
645356000,0,47.3980707,8.5459325,490.677,0.0,0.0,0.0,0.0,0.0,0.0,0,0,0,0,0,0,0
645456000,0,47.3980713,8.545929899999999,490.679,0.0,0.0,0.0,0.0,0.0,0.0,0,0,0,0,0,0,0
645556000,0,47.398071699999996,8.5459271,490.681,0.0,0.0,0.0,0.0,0.0,0.0,0,0,0,0,0,0,0
645656000,0,47.398072,8.5459245,490.682,0.0,0.0,0.0,0.0,0.0,0.0,0,0,0,0,0,0,0
645756000,0,47.3980721,8.545922,490.682,0.0,0.0,0.0,0.0,0.0,0.0,0,0,0,0,0,0,0
645856000,0,47.3980721,8.5459195,490.682,0.0,0.0,0.0,0.0,0.0,0.0,0,0,0,0,0,0,0
645956000,0,47.3980721,8.5459169,490.682,0.0,0.0,0.0,0.0,0.0,0.0,0,0,0,0,0,0,0
646056000,0,47.3980721,8.5459145,490.683,0.0,0.0,0.0,0.0,0.0,0.0,0,0,0,0,0,0,0
646156000,0,47.3980721,8.545912,490.685,0.0,0.0,0.0,0.0,0.0,0.0,0,0,0,0,0,0,0
646256000,0,47.398072199999994,8.5459096,490.688,0.0,0.0,0.0,0.0,0.0,0.0,0,0,0,0,0,0,0
646356000,0,47.3980725,8.5459072,490.694,0.0,0.0,0.0,0.0,0.0,0.0,0,0,0,0,0,0,0
646456000,0,47.398072899999995,8.5459049,490.7,0.0,0.0,0.0,0.0,0.0,0.0,0,0,0,0,0,0,0
646556000,0,47.398073499999995,8.5459027,490.705,0.0,0.0,0.0,0.0,0.0,0.0,0,0,0,0,0,0,0
646656000,0,47.3980743,8.5459006,490.708,0.0,0.0,0.0,0.0,0.0,0.0,0,0,0,0,0,0,0
646756000,0,47.398075399999996,8.5458984,490.708,0.0,0.0,0.0,0.0,0.0,0.0,0,0,0,0,0,0,0
646856000,0,47.3980767,8.5458964,490.705,0.0,0.0,0.0,0.0,0.0,0.0,0,0,0,0,0,0,0
646956000,0,47.398078,8.5458945,490.702,0.0,0.0,0.0,0.0,0.0,0.0,0,0,0,0,0,0,0
647056000,0,47.3980797,8.545892499999999,490.697,0.0,0.0,0.0,0.0,0.0,0.0,0,0,0,0,0,0,0
647156000,0,47.398081399999995,8.5458908,490.692,0.0,0.0,0.0,0.0,0.0,0.0,0,0,0,0,0,0,0
647256000,0,47.398083299999996,8.5458891,490.686,0.0,0.0,0.0,0.0,0.0,0.0,0,0,0,0,0,0,0
647356000,0,47.3980852,8.5458876,490.681,0.0,0.0,0.0,0.0,0.0,0.0,0,0,0,0,0,0,0
647456000,0,47.3980872,8.5458862,490.675,0.0,0.0,0.0,0.0,0.0,0.0,0,0,0,0,0,0,0
647556000,0,47.3980891,8.545885,490.67,0.0,0.0,0.0,0.0,0.0,0.0,0,0,0,0,0,0,0
647656000,0,47.398091099999995,8.545884,490.665,0.0,0.0,0.0,0.0,0.0,0.0,0,0,0,0,0,0,0
647756000,0,47.398092999999996,8.5458831,490.66,0.0,0.0,0.0,0.0,0.0,0.0,0,0,0,0,0,0,0
647856000,0,47.398094699999994,8.5458824,490.656,0.0,0.0,0.0,0.0,0.0,0.0,0,0,0,0,0,0,0
647956000,0,47.3980965,8.545881699999999,490.651,0.0,0.0,0.0,0.0,0.0,0.0,0,0,0,0,0,0,0
648056000,0,47.3980982,8.545881099999999,490.647,0.0,0.0,0.0,0.0,0.0,0.0,0,0,0,0,0,0,0
648156000,0,47.3980998,8.5458806,490.644,0.0,0.0,0.0,0.0,0.0,0.0,0,0,0,0,0,0,0
648256000,0,47.398101399999994,8.5458802,490.642,0.0,0.0,0.0,0.0,0.0,0.0,0,0,0,0,0,0,0
648356000,0,47.3981029,8.5458799,490.64,0.0,0.0,0.0,0.0,0.0,0.0,0,0,0,0,0,0,0
648456000,0,47.3981044,8.5458796,490.639,0.0,0.0,0.0,0.0,0.0,0.0,0,0,0,0,0,0,0
648556000,0,47.3981059,8.5458793,490.638,0.0,0.0,0.0,0.0,0.0,0.0,0,0,0,0,0,0,0
648656000,0,47.3981074,8.545879099999999,490.637,0.0,0.0,0.0,0.0,0.0,0.0,0,0,0,0,0,0,0
648756000,0,47.398108799999996,8.545878799999999,490.636,0.0,0.0,0.0,0.0,0.0,0.0,0,0,0,0,0,0,0
648856000,0,47.3981103,8.545878499999999,490.635,0.0,0.0,0.0,0.0,0.0,0.0,0,0,0,0,0,0,0
648956000,0,47.3981117,8.5458781,490.634,0.0,0.0,0.0,0.0,0.0,0.0,0,0,0,0,0,0,0
649056000,0,47.398113099999996,8.5458777,490.634,0.0,0.0,0.0,0.0,0.0,0.0,0,0,0,0,0,0,0
649156000,0,47.3981145,8.545877299999999,490.633,0.0,0.0,0.0,0.0,0.0,0.0,0,0,0,0,0,0,0
649256000,0,47.3981158,8.5458769,490.633,0.0,0.0,0.0,0.0,0.0,0.0,0,0,0,0,0,0,0
649356000,0,47.3981171,8.5458764,490.633,0.0,0.0,0.0,0.0,0.0,0.0,0,0,0,0,0,0,0
649456000,0,47.3981184,8.5458758,490.632,0.0,0.0,0.0,0.0,0.0,0.0,0,0,0,0,0,0,0
649556000,0,47.398119699999995,8.545875299999999,490.631,0.0,0.0,0.0,0.0,0.0,0.0,0,0,0,0,0,0,0
649656000,0,47.398120899999995,8.545874699999999,490.63,0.0,0.0,0.0,0.0,0.0,0.0,0,0,0,0,0,0,0
649756000,0,47.398122099999995,8.545874,490.629,0.0,0.0,0.0,0.0,0.0,0.0,0,0,0,0,0,0,0
649856000,0,47.3981232,8.545873199999999,490.628,0.0,0.0,0.0,0.0,0.0,0.0,0,0,0,0,0,0,0
649956000,0,47.3981243,8.5458725,490.627,0.0,0.0,0.0,0.0,0.0,0.0,0,0,0,0,0,0,0
650056000,0,47.3981254,8.5458717,490.626,0.0,0.0,0.0,0.0,0.0,0.0,0,0,0,0,0,0,0
650156000,0,47.398126399999995,8.5458708,490.625,0.0,0.0,0.0,0.0,0.0,0.0,0,0,0,0,0,0,0
650256000,0,47.3981273,8.5458699,490.625,0.0,0.0,0.0,0.0,0.0,0.0,0,0,0,0,0,0,0
650356000,0,47.398128299999996,8.545869,490.625,0.0,0.0,0.0,0.0,0.0,0.0,0,0,0,0,0,0,0
650456000,0,47.3981292,8.5458681,490.625,0.0,0.0,0.0,0.0,0.0,0.0,0,0,0,0,0,0,0
650556000,0,47.398129999999995,8.5458672,490.625,0.0,0.0,0.0,0.0,0.0,0.0,0,0,0,0,0,0,0
650656000,0,47.398130699999996,8.5458663,490.625,0.0,0.0,0.0,0.0,0.0,0.0,0,0,0,0,0,0,0
650756000,0,47.3981314,8.5458654,490.625,0.0,0.0,0.0,0.0,0.0,0.0,0,0,0,0,0,0,0
650856000,0,47.398132,8.5458644,490.625,0.0,0.0,0.0,0.0,0.0,0.0,0,0,0,0,0,0,0
650956000,0,47.3981326,8.5458635,490.625,0.0,0.0,0.0,0.0,0.0,0.0,0,0,0,0,0,0,0
651056000,0,47.398133099999995,8.5458625,490.624,0.0,0.0,0.0,0.0,0.0,0.0,0,0,0,0,0,0,0
651156000,0,47.3981336,8.545861499999999,490.624,0.0,0.0,0.0,0.0,0.0,0.0,0,0,0,0,0,0,0
651256000,0,47.398134,8.5458606,490.625,0.0,0.0,0.0,0.0,0.0,0.0,0,0,0,0,0,0,0
651356000,0,47.398134399999996,8.5458596,490.625,0.0,0.0,0.0,0.0,0.0,0.0,0,0,0,0,0,0,0
651456000,0,47.3981347,8.5458587,490.625,0.0,0.0,0.0,0.0,0.0,0.0,0,0,0,0,0,0,0
651556000,0,47.398134899999995,8.5458578,490.626,0.0,0.0,0.0,0.0,0.0,0.0,0,0,0,0,0,0,0
651656000,0,47.3981351,8.5458568,490.627,0.0,0.0,0.0,0.0,0.0,0.0,0,0,0,0,0,0,0
651756000,0,47.3981353,8.5458559,490.627,0.0,0.0,0.0,0.0,0.0,0.0,0,0,0,0,0,0,0
651856000,0,47.398135499999995,8.545855,490.627,0.0,0.0,0.0,0.0,0.0,0.0,0,0,0,0,0,0,0
651956000,0,47.398135499999995,8.545854199999999,490.627,0.0,0.0,0.0,0.0,0.0,0.0,0,0,0,0,0,0,0
652056000,0,47.398135599999996,8.5458535,490.627,0.0,0.0,0.0,0.0,0.0,0.0,0,0,0,0,0,0,0
652156000,0,47.398135599999996,8.5458527,490.627,0.0,0.0,0.0,0.0,0.0,0.0,0,0,0,0,0,0,0
652256000,0,47.398135599999996,8.5458521,490.627,0.0,0.0,0.0,0.0,0.0,0.0,0,0,0,0,0,0,0
652356000,0,47.398135599999996,8.5458514,490.627,0.0,0.0,0.0,0.0,0.0,0.0,0,0,0,0,0,0,0
652456000,0,47.398135599999996,8.5458509,490.627,0.0,0.0,0.0,0.0,0.0,0.0,0,0,0,0,0,0,0
652556000,0,47.398135499999995,8.5458503,490.628,0.0,0.0,0.0,0.0,0.0,0.0,0,0,0,0,0,0,0
652656000,0,47.3981354,8.5458498,490.628,0.0,0.0,0.0,0.0,0.0,0.0,0,0,0,0,0,0,0
652756000,0,47.3981353,8.5458494,490.629,0.0,0.0,0.0,0.0,0.0,0.0,0,0,0,0,0,0,0
652856000,0,47.3981353,8.545849,490.63,0.0,0.0,0.0,0.0,0.0,0.0,0,0,0,0,0,0,0
652956000,0,47.3981351,8.5458486,490.631,0.0,0.0,0.0,0.0,0.0,0.0,0,0,0,0,0,0,0
653056000,0,47.398134999999996,8.5458483,490.631,0.0,0.0,0.0,0.0,0.0,0.0,0,0,0,0,0,0,0
653156000,0,47.398134899999995,8.545848099999999,490.631,0.0,0.0,0.0,0.0,0.0,0.0,0,0,0,0,0,0,0
653256000,0,47.3981348,8.5458479,490.632,0.0,0.0,0.0,0.0,0.0,0.0,0,0,0,0,0,0,0
653356000,0,47.3981347,8.5458477,490.632,0.0,0.0,0.0,0.0,0.0,0.0,0,0,0,0,0,0,0
653456000,0,47.3981346,8.5458476,490.633,0.0,0.0,0.0,0.0,0.0,0.0,0,0,0,0,0,0,0
653556000,0,47.3981345,8.545847499999999,490.634,0.0,0.0,0.0,0.0,0.0,0.0,0,0,0,0,0,0,0
653656000,0,47.398134399999996,8.5458474,490.634,0.0,0.0,0.0,0.0,0.0,0.0,0,0,0,0,0,0,0
653756000,0,47.398134299999995,8.5458474,490.635,0.0,0.0,0.0,0.0,0.0,0.0,0,0,0,0,0,0,0
653856000,0,47.3981342,8.5458473,490.636,0.0,0.0,0.0,0.0,0.0,0.0,0,0,0,0,0,0,0
653956000,0,47.3981341,8.5458473,490.637,0.0,0.0,0.0,0.0,0.0,0.0,0,0,0,0,0,0,0
654056000,0,47.3981341,8.5458473,490.639,0.0,0.0,0.0,0.0,0.0,0.0,0,0,0,0,0,0,0
654156000,0,47.398134,8.5458473,490.64,0.0,0.0,0.0,0.0,0.0,0.0,0,0,0,0,0,0,0
654256000,0,47.398134,8.5458474,490.641,0.0,0.0,0.0,0.0,0.0,0.0,0,0,0,0,0,0,0
654356000,0,47.398134,8.5458476,490.643,0.0,0.0,0.0,0.0,0.0,0.0,0,0,0,0,0,0,0
654456000,0,47.398134,8.5458477,490.644,0.0,0.0,0.0,0.0,0.0,0.0,0,0,0,0,0,0,0
654556000,0,47.3981339,8.5458479,490.645,0.0,0.0,0.0,0.0,0.0,0.0,0,0,0,0,0,0,0
654656000,0,47.3981339,8.545848099999999,490.646,0.0,0.0,0.0,0.0,0.0,0.0,0,0,0,0,0,0,0
654756000,0,47.398134,8.5458483,490.648,0.0,0.0,0.0,0.0,0.0,0.0,0,0,0,0,0,0,0
654856000,0,47.398134,8.5458485,490.65,0.0,0.0,0.0,0.0,0.0,0.0,0,0,0,0,0,0,0
654956000,0,47.398134,8.545848699999999,490.651,0.0,0.0,0.0,0.0,0.0,0.0,0,0,0,0,0,0,0
655056000,0,47.3981341,8.5458488,490.652,0.0,0.0,0.0,0.0,0.0,0.0,0,0,0,0,0,0,0
655156000,0,47.3981341,8.5458489,490.654,0.0,0.0,0.0,0.0,0.0,0.0,0,0,0,0,0,0,0
655256000,0,47.3981342,8.545849,490.655,0.0,0.0,0.0,0.0,0.0,0.0,0,0,0,0,0,0,0
655356000,0,47.3981342,8.545849,490.656,0.0,0.0,0.0,0.0,0.0,0.0,0,0,0,0,0,0,0
655456000,0,47.398134299999995,8.5458491,490.656,0.0,0.0,0.0,0.0,0.0,0.0,0,0,0,0,0,0,0
655556000,0,47.398134399999996,8.5458491,490.657,0.0,0.0,0.0,0.0,0.0,0.0,0,0,0,0,0,0,0
655656000,0,47.3981345,8.5458491,490.657,0.0,0.0,0.0,0.0,0.0,0.0,0,0,0,0,0,0,0
655756000,0,47.3981346,8.5458491,490.658,0.0,0.0,0.0,0.0,0.0,0.0,0,0,0,0,0,0,0
655856000,0,47.3981347,8.545849,490.658,0.0,0.0,0.0,0.0,0.0,0.0,0,0,0,0,0,0,0
655956000,0,47.3981348,8.545849,490.658,0.0,0.0,0.0,0.0,0.0,0.0,0,0,0,0,0,0,0
656056000,0,47.398134899999995,8.545849,490.658,0.0,0.0,0.0,0.0,0.0,0.0,0,0,0,0,0,0,0
656156000,0,47.398134999999996,8.5458489,490.658,0.0,0.0,0.0,0.0,0.0,0.0,0,0,0,0,0,0,0
656256000,0,47.3981351,8.5458489,490.658,0.0,0.0,0.0,0.0,0.0,0.0,0,0,0,0,0,0,0
656356000,0,47.3981352,8.5458488,490.659,0.0,0.0,0.0,0.0,0.0,0.0,0,0,0,0,0,0,0
656456000,0,47.3981353,8.5458488,490.66,0.0,0.0,0.0,0.0,0.0,0.0,0,0,0,0,0,0,0
656556000,0,47.3981354,8.545848699999999,490.661,0.0,0.0,0.0,0.0,0.0,0.0,0,0,0,0,0,0,0
656656000,0,47.398135499999995,8.5458486,490.662,0.0,0.0,0.0,0.0,0.0,0.0,0,0,0,0,0,0,0
656756000,0,47.398135599999996,8.5458486,490.663,0.0,0.0,0.0,0.0,0.0,0.0,0,0,0,0,0,0,0
656856000,0,47.3981357,8.5458485,490.663,0.0,0.0,0.0,0.0,0.0,0.0,0,0,0,0,0,0,0
656956000,0,47.3981357,8.545848399999999,490.664,0.0,0.0,0.0,0.0,0.0,0.0,0,0,0,0,0,0,0
657056000,0,47.3981358,8.5458483,490.665,0.0,0.0,0.0,0.0,0.0,0.0,0,0,0,0,0,0,0
657156000,0,47.3981358,8.5458482,490.666,0.0,0.0,0.0,0.0,0.0,0.0,0,0,0,0,0,0,0
657256000,0,47.3981359,8.545848099999999,490.666,0.0,0.0,0.0,0.0,0.0,0.0,0,0,0,0,0,0,0
657356000,0,47.3981359,8.545848,490.667,0.0,0.0,0.0,0.0,0.0,0.0,0,0,0,0,0,0,0
657456000,0,47.3981359,8.545848,490.668,0.0,0.0,0.0,0.0,0.0,0.0,0,0,0,0,0,0,0
657556000,0,47.398136,8.545847799999999,490.668,0.0,0.0,0.0,0.0,0.0,0.0,0,0,0,0,0,0,0
657656000,0,47.398136,8.5458477,490.669,0.0,0.0,0.0,0.0,0.0,0.0,0,0,0,0,0,0,0
657756000,0,47.398136,8.5458477,490.669,0.0,0.0,0.0,0.0,0.0,0.0,0,0,0,0,0,0,0
657856000,0,47.3981359,8.545847499999999,490.669,0.0,0.0,0.0,0.0,0.0,0.0,0,0,0,0,0,0,0
657956000,0,47.3981359,8.5458474,490.669,0.0,0.0,0.0,0.0,0.0,0.0,0,0,0,0,0,0,0
658056000,0,47.3981359,8.5458473,490.669,0.0,0.0,0.0,0.0,0.0,0.0,0,0,0,0,0,0,0
658156000,0,47.3981359,8.545847199999999,490.668,0.0,0.0,0.0,0.0,0.0,0.0,0,0,0,0,0,0,0
658256000,0,47.3981358,8.5458471,490.668,0.0,0.0,0.0,0.0,0.0,0.0,0,0,0,0,0,0,0
658356000,0,47.3981358,8.545847,490.668,0.0,0.0,0.0,0.0,0.0,0.0,0,0,0,0,0,0,0
658456000,0,47.3981357,8.545846899999999,490.667,0.0,0.0,0.0,0.0,0.0,0.0,0,0,0,0,0,0,0
658556000,0,47.3981357,8.5458468,490.667,0.0,0.0,0.0,0.0,0.0,0.0,0,0,0,0,0,0,0
658656000,0,47.398135599999996,8.545846599999999,490.667,0.0,0.0,0.0,0.0,0.0,0.0,0,0,0,0,0,0,0
658756000,0,47.398135499999995,8.5458465,490.667,0.0,0.0,0.0,0.0,0.0,0.0,0,0,0,0,0,0,0
658856000,0,47.398135499999995,8.5458464,490.667,0.0,0.0,0.0,0.0,0.0,0.0,0,0,0,0,0,0,0
658956000,0,47.3981354,8.5458463,490.666,0.0,0.0,0.0,0.0,0.0,0.0,0,0,0,0,0,0,0
659056000,0,47.3981353,8.5458461,490.665,0.0,0.0,0.0,0.0,0.0,0.0,0,0,0,0,0,0,0
659156000,0,47.3981353,8.545846,490.66,0.0,0.0,0.0,0.0,0.0,0.0,0,0,0,0,0,0,0
659256000,0,47.3981352,8.5458459,490.647,0.0,0.0,0.0,0.0,0.0,0.0,0,0,0,0,0,0,0
659356000,0,47.3981351,8.5458457,490.627,0.0,0.0,0.0,0.0,0.0,0.0,0,0,0,0,0,0,0
659456000,0,47.398134999999996,8.5458454,490.604,0.0,0.0,0.0,0.0,0.0,0.0,0,0,0,0,0,0,0
659556000,0,47.398134999999996,8.545844899999999,490.576,0.0,0.0,0.0,0.0,0.0,0.0,0,0,0,0,0,0,0
659656000,0,47.398134899999995,8.545844299999999,490.545,0.0,0.0,0.0,0.0,0.0,0.0,0,0,0,0,0,0,0
659756000,0,47.3981348,8.545843399999999,490.513,0.0,0.0,0.0,0.0,0.0,0.0,0,0,0,0,0,0,0
659856000,0,47.3981346,8.5458423,490.479,0.0,0.0,0.0,0.0,0.0,0.0,0,0,0,0,0,0,0
659956000,0,47.3981345,8.545840799999999,490.437,0.0,0.0,0.0,0.0,0.0,0.0,0,0,0,0,0,0,0
660056000,0,47.398134399999996,8.5458391,490.387,0.0,0.0,0.0,0.0,0.0,0.0,0,0,0,0,0,0,0
660156000,0,47.3981342,8.5458371,490.33,0.0,0.0,0.0,0.0,0.0,0.0,0,0,0,0,0,0,0
660256000,0,47.398134,8.5458349,490.266,0.0,0.0,0.0,0.0,0.0,0.0,0,0,0,0,0,0,0
660356000,0,47.3981338,8.545832599999999,490.195,0.0,0.0,0.0,0.0,0.0,0.0,0,0,0,0,0,0,0
660456000,0,47.3981336,8.5458303,490.119,0.0,0.0,0.0,0.0,0.0,0.0,0,0,0,0,0,0,0
660552000,0,47.3981333,8.545828,490.046,0.0,0.0,0.0,0.0,0.0,0.0,0,0,0,0,0,0,0
660656000,0,47.398133,8.5458257,489.97,0.0,0.0,0.0,0.0,0.0,0.0,0,0,0,0,0,0,0
660756000,0,47.3981326,8.5458235,489.898,0.0,0.0,0.0,0.0,0.0,0.0,0,0,0,0,0,0,0
660856000,0,47.3981322,8.5458216,489.827,0.0,0.0,0.0,0.0,0.0,0.0,0,0,0,0,0,0,0
660956000,0,47.398131799999994,8.5458197,489.755,0.0,0.0,0.0,0.0,0.0,0.0,0,0,0,0,0,0,0
661056000,0,47.3981314,8.5458181,489.687,0.0,0.0,0.0,0.0,0.0,0.0,0,0,0,0,0,0,0
661156000,0,47.3981308,8.5458166,489.612,0.0,0.0,0.0,0.0,0.0,0.0,0,0,0,0,0,0,0
661256000,0,47.3981303,8.5458153,489.54,0.0,0.0,0.0,0.0,0.0,0.0,0,0,0,0,0,0,0
661356000,0,47.3981297,8.5458141,489.469,0.0,0.0,0.0,0.0,0.0,0.0,0,0,0,0,0,0,0
661456000,0,47.3981291,8.5458131,489.397,0.0,0.0,0.0,0.0,0.0,0.0,0,0,0,0,0,0,0
661556000,0,47.3981285,8.5458122,489.325,0.0,0.0,0.0,0.0,0.0,0.0,0,0,0,0,0,0,0
661656000,0,47.3981279,8.5458115,489.257,0.0,0.0,0.0,0.0,0.0,0.0,0,0,0,0,0,0,0
661756000,0,47.3981272,8.5458109,489.183,0.0,0.0,0.0,0.0,0.0,0.0,0,0,0,0,0,0,0
661856000,0,47.3981265,8.5458105,489.113,0.0,0.0,0.0,0.0,0.0,0.0,0,0,0,0,0,0,0
661956000,0,47.398125799999995,8.5458103,489.042,0.0,0.0,0.0,0.0,0.0,0.0,0,0,0,0,0,0,0
662056000,0,47.398125199999996,8.5458102,488.971,0.0,0.0,0.0,0.0,0.0,0.0,0,0,0,0,0,0,0
662156000,0,47.398124499999994,8.545810099999999,488.903,0.0,0.0,0.0,0.0,0.0,0.0,0,0,0,0,0,0,0
662256000,0,47.398123899999995,8.5458103,488.833,0.0,0.0,0.0,0.0,0.0,0.0,0,0,0,0,0,0,0
662356000,0,47.398123299999995,8.5458105,488.763,0.0,0.0,0.0,0.0,0.0,0.0,0,0,0,0,0,0,0
662456000,0,47.3981226,8.5458108,488.69,0.0,0.0,0.0,0.0,0.0,0.0,0,0,0,0,0,0,0
662556000,0,47.398122099999995,8.5458112,488.622,0.0,0.0,0.0,0.0,0.0,0.0,0,0,0,0,0,0,0
662656000,0,47.398121499999995,8.5458118,488.548,0.0,0.0,0.0,0.0,0.0,0.0,0,0,0,0,0,0,0
662756000,0,47.3981211,8.5458123,488.478,0.0,0.0,0.0,0.0,0.0,0.0,0,0,0,0,0,0,0
662856000,0,47.3981206,8.5458129,488.411,0.0,0.0,0.0,0.0,0.0,0.0,0,0,0,0,0,0,0
662956000,0,47.3981202,8.545813599999999,488.338,0.0,0.0,0.0,0.0,0.0,0.0,0,0,0,0,0,0,0
663056000,0,47.398119799999996,8.5458143,488.268,0.0,0.0,0.0,0.0,0.0,0.0,0,0,0,0,0,0,0
663156000,0,47.3981195,8.5458151,488.199,0.0,0.0,0.0,0.0,0.0,0.0,0,0,0,0,0,0,0
663256000,0,47.3981193,8.5458158,488.129,0.0,0.0,0.0,0.0,0.0,0.0,0,0,0,0,0,0,0
663356000,0,47.3981192,8.5458161,488.105,0.0,0.0,0.0,0.0,0.0,0.0,0,0,0,0,0,0,0
663456000,0,47.3981192,8.5458161,488.104,0.0,0.0,0.0,0.0,0.0,0.0,0,0,0,0,0,0,0
663556000,0,47.3981192,8.5458161,488.104,0.0,0.0,0.0,0.0,0.0,0.0,0,0,0,0,0,0,0
663656000,0,47.3981192,8.5458161,488.104,0.0,0.0,0.0,0.0,0.0,0.0,0,0,0,0,0,0,0
663756000,0,47.3981192,8.5458161,488.104,0.0,0.0,0.0,0.0,0.0,0.0,0,0,0,0,0,0,0
663856000,0,47.3981192,8.5458161,488.104,0.0,0.0,0.0,0.0,0.0,0.0,0,0,0,0,0,0,0
663956000,0,47.3981192,8.5458161,488.104,0.0,0.0,0.0,0.0,0.0,0.0,0,0,0,0,0,0,0
664056000,0,47.3981192,8.5458161,488.104,0.0,0.0,0.0,0.0,0.0,0.0,0,0,0,0,0,0,0
664156000,0,47.3981192,8.5458161,488.104,0.0,0.0,0.0,0.0,0.0,0.0,0,0,0,0,0,0,0
664256000,0,47.3981192,8.5458161,488.104,0.0,0.0,0.0,0.0,0.0,0.0,0,0,0,0,0,0,0
664356000,0,47.3981192,8.5458161,488.104,0.0,0.0,0.0,0.0,0.0,0.0,0,0,0,0,0,0,0
664456000,0,47.3981192,8.5458161,488.104,0.0,0.0,0.0,0.0,0.0,0.0,0,0,0,0,0,0,0
664556000,0,47.3981192,8.5458161,488.104,0.0,0.0,0.0,0.0,0.0,0.0,0,0,0,0,0,0,0
664656000,0,47.3981192,8.5458161,488.104,0.0,0.0,0.0,0.0,0.0,0.0,0,0,0,0,0,0,0
664756000,0,47.3981192,8.5458161,488.104,0.0,0.0,0.0,0.0,0.0,0.0,0,0,0,0,0,0,0
664856000,0,47.3981192,8.5458161,488.104,0.0,0.0,0.0,0.0,0.0,0.0,0,0,0,0,0,0,0
664956000,0,47.3981192,8.5458161,488.104,0.0,0.0,0.0,0.0,0.0,0.0,0,0,0,0,0,0,0
665056000,0,47.3981192,8.5458161,488.104,0.0,0.0,0.0,0.0,0.0,0.0,0,0,0,0,0,0,0
665152000,0,47.3981192,8.5458161,488.104,0.0,0.0,0.0,0.0,0.0,0.0,0,0,0,0,0,0,0
665256000,0,47.3981192,8.5458161,488.104,0.0,0.0,0.0,0.0,0.0,0.0,0,0,0,0,0,0,0
665356000,0,47.3981192,8.5458161,488.104,0.0,0.0,0.0,0.0,0.0,0.0,0,0,0,0,0,0,0
665456000,0,47.3981192,8.5458161,488.104,0.0,0.0,0.0,0.0,0.0,0.0,0,0,0,0,0,0,0
665556000,0,47.3981192,8.5458161,488.104,0.0,0.0,0.0,0.0,0.0,0.0,0,0,0,0,0,0,0
665656000,0,47.3981192,8.5458161,488.104,0.0,0.0,0.0,0.0,0.0,0.0,0,0,0,0,0,0,0
665756000,0,47.3981192,8.5458161,488.104,0.0,0.0,0.0,0.0,0.0,0.0,0,0,0,0,0,0,0
665856000,0,47.3981192,8.5458161,488.104,0.0,0.0,0.0,0.0,0.0,0.0,0,0,0,0,0,0,0
665956000,0,47.3981192,8.5458161,488.104,0.0,0.0,0.0,0.0,0.0,0.0,0,0,0,0,0,0,0
666056000,0,47.3981192,8.5458161,488.104,0.0,0.0,0.0,0.0,0.0,0.0,0,0,0,0,0,0,0
666156000,0,47.3981192,8.5458161,488.104,0.0,0.0,0.0,0.0,0.0,0.0,0,0,0,0,0,0,0
666256000,0,47.3981192,8.5458161,488.104,0.0,0.0,0.0,0.0,0.0,0.0,0,0,0,0,0,0,0
666356000,0,47.3981192,8.5458161,488.104,0.0,0.0,0.0,0.0,0.0,0.0,0,0,0,0,0,0,0
666456000,0,47.3981192,8.5458161,488.104,0.0,0.0,0.0,0.0,0.0,0.0,0,0,0,0,0,0,0
666556000,0,47.3981192,8.5458161,488.104,0.0,0.0,0.0,0.0,0.0,0.0,0,0,0,0,0,0,0
666656000,0,47.3981192,8.5458161,488.104,0.0,0.0,0.0,0.0,0.0,0.0,0,0,0,0,0,0,0
666756000,0,47.3981192,8.5458161,488.104,0.0,0.0,0.0,0.0,0.0,0.0,0,0,0,0,0,0,0
666856000,0,47.3981192,8.5458161,488.104,0.0,0.0,0.0,0.0,0.0,0.0,0,0,0,0,0,0,0
666956000,0,47.3981192,8.5458161,488.104,0.0,0.0,0.0,0.0,0.0,0.0,0,0,0,0,0,0,0
667056000,0,47.3981192,8.5458161,488.104,0.0,0.0,0.0,0.0,0.0,0.0,0,0,0,0,0,0,0
667156000,0,47.3981192,8.5458161,488.104,0.0,0.0,0.0,0.0,0.0,0.0,0,0,0,0,0,0,0
667256000,0,47.3981192,8.5458161,488.104,0.0,0.0,0.0,0.0,0.0,0.0,0,0,0,0,0,0,0
667356000,0,47.3981192,8.5458161,488.104,0.0,0.0,0.0,0.0,0.0,0.0,0,0,0,0,0,0,0
