timestamp,timestamp_sample,gps_hvel[0],gps_hvel[1],gps_vvel,gps_hpos[0],gps_hpos[1],gps_vpos,ev_hvel[0],ev_hvel[1],ev_vvel,ev_hpos[0],ev_hpos[1],ev_vpos,rng_vpos,baro_vpos,aux_hvel[0],aux_hvel[1],flow[0],flow[1],heading,mag_field[0],mag_field[1],mag_field[2],gravity[0],gravity[1],gravity[2],drag[0],drag[1],airspeed,beta,hagl,hagl_rate
625256000,625104000,0.10519001,0.10539619,0.20779318,1.1222415,1.1227769,1.0852385,0.0,0.0,0.0,0.0,0.0,0.0,0.0,12.449396,0.0,0.0,0.0,0.0,0.002511385,0.002511385,0.002504033,0.0025019485,1.0000153,1.0000153,1.0,0.0,0.0,0.0,0.0,0.0,0.0
625264000,625112000,0.10519001,0.10539619,0.20779318,1.1222415,1.1227769,1.0852385,0.0,0.0,0.0,0.0,0.0,0.0,0.0,12.449396,0.0,0.0,0.0,0.0,0.002511385,0.002511385,0.002504033,0.0025019485,1.0000153,1.0000153,1.0,0.0,0.0,0.0,0.0,0.0,0.0
625272000,625120000,0.10519001,0.10539619,0.20779318,1.1222415,1.1227769,1.0852385,0.0,0.0,0.0,0.0,0.0,0.0,0.0,12.449396,0.0,0.0,0.0,0.0,0.002511385,0.002511385,0.002504033,0.0025019485,1.0000154,1.0000154,1.0,0.0,0.0,0.0,0.0,0.0,0.0
625280000,625128000,0.10519001,0.10539619,0.20779318,1.1222415,1.1227769,1.0852385,0.0,0.0,0.0,0.0,0.0,0.0,0.0,12.449396,0.0,0.0,0.0,0.0,0.0025112757,0.0025112757,0.002503866,0.0025019054,1.0000154,1.0000154,1.0,0.0,0.0,0.0,0.0,0.0,0.0
625288000,625136000,0.10519001,0.10539619,0.20779318,1.1222415,1.1227769,1.0852385,0.0,0.0,0.0,0.0,0.0,0.0,0.0,12.449396,0.0,0.0,0.0,0.0,0.0025112757,0.0025112757,0.002503866,0.0025019054,1.0000155,1.0000154,1.0,0.0,0.0,0.0,0.0,0.0,0.0
625296000,625144000,0.10519001,0.10539619,0.20779318,1.1222415,1.1227769,1.0852385,0.0,0.0,0.0,0.0,0.0,0.0,0.0,12.449396,0.0,0.0,0.0,0.0,0.0025112757,0.0025112757,0.002503866,0.0025019054,1.0000155,1.0000154,1.0,0.0,0.0,0.0,0.0,0.0,0.0
625304000,625152000,0.10519001,0.10539619,0.20779318,1.1222415,1.1227769,1.0852385,0.0,0.0,0.0,0.0,0.0,0.0,0.0,12.449396,0.0,0.0,0.0,0.0,0.0025112757,0.0025112757,0.002503866,0.0025019054,1.0000155,1.0000154,1.0,0.0,0.0,0.0,0.0,0.0,0.0
625312000,625160000,0.10519001,0.10539619,0.20779318,1.1222415,1.1227769,1.0852385,0.0,0.0,0.0,0.0,0.0,0.0,0.0,12.449396,0.0,0.0,0.0,0.0,0.0025112757,0.0025112757,0.002503866,0.0025019054,1.0000155,1.0000154,1.0,0.0,0.0,0.0,0.0,0.0,0.0
625328000,625176000,0.10519001,0.10539619,0.20779318,1.1222415,1.1227769,1.0852385,0.0,0.0,0.0,0.0,0.0,0.0,0.0,12.450907,0.0,0.0,0.0,0.0,0.0025112757,0.0025112757,0.002503866,0.0025019054,1.0000156,1.0000155,1.0,0.0,0.0,0.0,0.0,0.0,0.0
625336000,625184000,0.10519001,0.10539619,0.20779318,1.1222415,1.1227769,1.0852385,0.0,0.0,0.0,0.0,0.0,0.0,0.0,12.450907,0.0,0.0,0.0,0.0,0.0025112757,0.0025112757,0.002503866,0.0025019054,1.0000156,1.0000155,1.0,0.0,0.0,0.0,0.0,0.0,0.0
625344000,625192000,0.10519001,0.10539619,0.20779318,1.1222415,1.1227769,1.0852385,0.0,0.0,0.0,0.0,0.0,0.0,0.0,12.450907,0.0,0.0,0.0,0.0,0.0025112757,0.0025112757,0.002503866,0.0025019054,1.0000156,1.0000155,1.0,0.0,0.0,0.0,0.0,0.0,0.0
625352000,625200000,0.10519001,0.10539619,0.20779318,1.1222415,1.1227769,1.0852385,0.0,0.0,0.0,0.0,0.0,0.0,0.0,12.450907,0.0,0.0,0.0,0.0,0.0025113036,0.0025113036,0.0025039017,0.002501915,1.0000156,1.0000155,1.0,0.0,0.0,0.0,0.0,0.0,0.0
625368000,625216000,0.10519001,0.10539619,0.20779318,1.1222415,1.1227769,1.0852385,0.0,0.0,0.0,0.0,0.0,0.0,0.0,12.450907,0.0,0.0,0.0,0.0,0.0025113036,0.0025113036,0.0025039017,0.002501915,1.0000157,1.0000156,1.0,0.0,0.0,0.0,0.0,0.0,0.0
625376000,625224000,0.10519001,0.10539619,0.20779318,1.1222415,1.1227769,1.0852385,0.0,0.0,0.0,0.0,0.0,0.0,0.0,12.450907,0.0,0.0,0.0,0.0,0.0025113036,0.0025113036,0.0025039017,0.002501915,1.0000157,1.0000156,1.0,0.0,0.0,0.0,0.0,0.0,0.0
625384000,625232000,0.10519001,0.10539619,0.20779318,1.1222415,1.1227769,1.0852385,0.0,0.0,0.0,0.0,0.0,0.0,0.0,12.450907,0.0,0.0,0.0,0.0,0.0025113036,0.0025113036,0.0025039017,0.002501915,1.0000157,1.0000156,1.0,0.0,0.0,0.0,0.0,0.0,0.0
625392000,625240000,0.10519001,0.10539619,0.20779318,1.1222415,1.1227769,1.0852385,0.0,0.0,0.0,0.0,0.0,0.0,0.0,12.450907,0.0,0.0,0.0,0.0,0.0025113036,0.0025113036,0.0025039017,0.002501915,1.0000157,1.0000157,1.0,0.0,0.0,0.0,0.0,0.0,0.0
625408000,625256000,0.10519001,0.10539619,0.20779318,1.1222415,1.1227769,1.0852385,0.0,0.0,0.0,0.0,0.0,0.0,0.0,12.452437,0.0,0.0,0.0,0.0,0.0025113036,0.0025113036,0.0025039017,0.002501915,1.0000159,1.0000159,1.0,0.0,0.0,0.0,0.0,0.0,0.0
625416000,625264000,0.10519001,0.10539619,0.20779318,1.1222415,1.1227769,1.0852385,0.0,0.0,0.0,0.0,0.0,0.0,0.0,12.452437,0.0,0.0,0.0,0.0,0.0025113036,0.0025113036,0.0025039017,0.002501915,1.0000159,1.0000159,1.0,0.0,0.0,0.0,0.0,0.0,0.0
625424000,625272000,0.10519001,0.10539619,0.20779318,1.1222415,1.1227769,1.0852385,0.0,0.0,0.0,0.0,0.0,0.0,0.0,12.452437,0.0,0.0,0.0,0.0,0.0025113297,0.0025113297,0.002503939,0.0025019248,1.0000159,1.0000159,1.0,0.0,0.0,0.0,0.0,0.0,0.0
625432000,625280000,0.10519001,0.10539619,0.20779318,1.1222415,1.1227769,1.0852385,0.0,0.0,0.0,0.0,0.0,0.0,0.0,12.452437,0.0,0.0,0.0,0.0,0.0025113297,0.0025113297,0.002503939,0.0025019248,1.0000159,1.0000159,1.0,0.0,0.0,0.0,0.0,0.0,0.0
625448000,625296000,0.10519001,0.10539619,0.20779318,1.1222415,1.1227769,1.0852385,0.0,0.0,0.0,0.0,0.0,0.0,0.0,12.452437,0.0,0.0,0.0,0.0,0.0025113297,0.0025113297,0.002503939,0.0025019248,1.000016,1.000016,1.0,0.0,0.0,0.0,0.0,0.0,0.0
625456000,625304000,0.10519001,0.10539619,0.20779318,1.1222415,1.1227769,1.0852385,0.0,0.0,0.0,0.0,0.0,0.0,0.0,12.452437,0.0,0.0,0.0,0.0,0.0025113297,0.0025113297,0.002503939,0.0025019248,1.000016,1.000016,1.0,0.0,0.0,0.0,0.0,0.0,0.0
625464000,625312000,0.10519001,0.10539619,0.20779318,1.1222415,1.1227769,1.0852385,0.0,0.0,0.0,0.0,0.0,0.0,0.0,12.452437,0.0,0.0,0.0,0.0,0.0025113297,0.0025113297,0.002503939,0.0025019248,1.000016,1.000016,1.0,0.0,0.0,0.0,0.0,0.0,0.0
625472000,625320000,0.10519001,0.10539619,0.20779318,1.1222415,1.1227769,1.0852385,0.0,0.0,0.0,0.0,0.0,0.0,0.0,12.453988,0.0,0.0,0.0,0.0,0.0025113297,0.0025113297,0.002503939,0.0025019248,1.000016,1.000016,1.0,0.0,0.0,0.0,0.0,0.0,0.0
625488000,625336000,0.10519001,0.10539619,0.20779318,1.1222415,1.1227769,1.0852385,0.0,0.0,0.0,0.0,0.0,0.0,0.0,12.453988,0.0,0.0,0.0,0.0,0.0025113297,0.0025113297,0.002503939,0.0025019248,1.0000161,1.0000161,1.0,0.0,0.0,0.0,0.0,0.0,0.0
625496000,625344000,0.10519001,0.10539619,0.20779318,1.1222415,1.1227769,1.0852385,0.0,0.0,0.0,0.0,0.0,0.0,0.0,12.453988,0.0,0.0,0.0,0.0,0.0025113514,0.0025113514,0.0025039753,0.002501935,1.0000161,1.0000161,1.0,0.0,0.0,0.0,0.0,0.0,0.0
625504000,625352000,0.10519001,0.10539619,0.20779318,1.1222415,1.1227769,1.0852385,0.0,0.0,0.0,0.0,0.0,0.0,0.0,12.453988,0.0,0.0,0.0,0.0,0.0025113514,0.0025113514,0.0025039753,0.002501935,1.0000161,1.0000161,1.0,0.0,0.0,0.0,0.0,0.0,0.0
625512000,625360000,0.10519001,0.10539619,0.20779318,1.1222415,1.1227769,1.0852385,0.0,0.0,0.0,0.0,0.0,0.0,0.0,12.453988,0.0,0.0,0.0,0.0,0.0025113514,0.0025113514,0.0025039753,0.002501935,1.0000161,1.0000161,1.0,0.0,0.0,0.0,0.0,0.0,0.0
625528000,625376000,0.10519001,0.10539619,0.20779318,1.1222415,1.1227769,1.0852385,0.0,0.0,0.0,0.0,0.0,0.0,0.0,12.453988,0.0,0.0,0.0,0.0,0.0025113514,0.0025113514,0.0025039753,0.002501935,1.0000162,1.0000162,1.0,0.0,0.0,0.0,0.0,0.0,0.0
625536000,625384000,0.10519001,0.10539619,0.20779318,1.1222415,1.1227769,1.0852385,0.0,0.0,0.0,0.0,0.0,0.0,0.0,12.453988,0.0,0.0,0.0,0.0,0.0025113514,0.0025113514,0.0025039753,0.002501935,1.0000162,1.0000162,1.0,0.0,0.0,0.0,0.0,0.0,0.0
625544000,625392000,0.10519001,0.10539619,0.20779318,1.1222415,1.1227769,1.0852385,0.0,0.0,0.0,0.0,0.0,0.0,0.0,12.45556,0.0,0.0,0.0,0.0,0.0025113514,0.0025113514,0.0025039753,0.002501935,1.0000162,1.0000162,1.0,0.0,0.0,0.0,0.0,0.0,0.0
625552000,625400000,0.10519001,0.10539619,0.20779318,1.1222415,1.1227769,1.0852385,0.0,0.0,0.0,0.0,0.0,0.0,0.0,12.45556,0.0,0.0,0.0,0.0,0.0025113514,0.0025113514,0.0025039753,0.002501935,1.0000162,1.0000162,1.0,0.0,0.0,0.0,0.0,0.0,0.0
625568000,625416000,0.10519001,0.10539619,0.20779318,1.1222415,1.1227769,1.0852385,0.0,0.0,0.0,0.0,0.0,0.0,0.0,12.45556,0.0,0.0,0.0,0.0,0.0025113777,0.0025113777,0.0025040114,0.0025019457,1.0000163,1.0000163,1.0,0.0,0.0,0.0,0.0,0.0,0.0
625576000,625424000,0.10519001,0.10539619,0.20779318,1.1222415,1.1227769,1.0852385,0.0,0.0,0.0,0.0,0.0,0.0,0.0,12.45556,0.0,0.0,0.0,0.0,0.0025113777,0.0025113777,0.0025040114,0.0025019457,1.0000163,1.0000163,1.0,0.0,0.0,0.0,0.0,0.0,0.0
625584000,625432000,0.10519001,0.10539619,0.20779318,1.1222415,1.1227769,1.0852385,0.0,0.0,0.0,0.0,0.0,0.0,0.0,12.45556,0.0,0.0,0.0,0.0,0.0025113777,0.0025113777,0.0025040114,0.0025019457,1.0000163,1.0000163,1.0,0.0,0.0,0.0,0.0,0.0,0.0
625592000,625440000,0.10519001,0.10539619,0.20779318,1.1222415,1.1227769,1.0852385,0.0,0.0,0.0,0.0,0.0,0.0,0.0,12.45556,0.0,0.0,0.0,0.0,0.0025113777,0.0025113777,0.0025040114,0.0025019457,1.0000163,1.0000163,1.0,0.0,0.0,0.0,0.0,0.0,0.0
625608000,625456000,0.10519001,0.10539619,0.20779318,1.1222415,1.1227769,1.0852385,0.0,0.0,0.0,0.0,0.0,0.0,0.0,12.45556,0.0,0.0,0.0,0.0,0.0025113777,0.0025113777,0.0025040114,0.0025019457,1.0000165,1.0000165,1.0,0.0,0.0,0.0,0.0,0.0,0.0
625616000,625464000,0.10524742,0.10544797,0.20781429,1.1228654,1.1233994,1.0853951,0.0,0.0,0.0,0.0,0.0,0.0,0.0,12.456082,0.0,0.0,0.0,0.0,0.0025113777,0.0025113777,0.0025040114,0.0025019457,1.0000151,1.0000151,1.0,0.0,0.0,0.0,0.0,0.0,0.0
625624000,625472000,0.10524742,0.10544797,0.20781429,1.1228654,1.1233994,1.0853951,0.0,0.0,0.0,0.0,0.0,0.0,0.0,12.456082,0.0,0.0,0.0,0.0,0.0025113777,0.0025113777,0.0025040114,0.0025019457,1.0000151,1.0000151,1.0,0.0,0.0,0.0,0.0,0.0,0.0
625632000,625480000,0.10524742,0.10544797,0.20781429,1.1228654,1.1233994,1.0853951,0.0,0.0,0.0,0.0,0.0,0.0,0.0,12.456082,0.0,0.0,0.0,0.0,0.0025113777,0.0025113777,0.0025040114,0.0025019457,1.0000151,1.0000153,1.0,0.0,0.0,0.0,0.0,0.0,0.0
625648000,625496000,0.10524742,0.10544797,0.20781429,1.1228654,1.1233994,1.0853951,0.0,0.0,0.0,0.0,0.0,0.0,0.0,12.456082,0.0,0.0,0.0,0.0,0.0025112657,0.0025112657,0.0025038447,0.0025019029,1.0000153,1.0000153,1.0,0.0,0.0,0.0,0.0,0.0,0.0
625656000,625504000,0.10524742,0.10544797,0.20781429,1.1228654,1.1233994,1.0853951,0.0,0.0,0.0,0.0,0.0,0.0,0.0,12.456082,0.0,0.0,0.0,0.0,0.0025112657,0.0025112657,0.0025038447,0.0025019029,1.0000153,1.0000153,1.0,0.0,0.0,0.0,0.0,0.0,0.0
625664000,625512000,0.10524742,0.10544797,0.20781429,1.1228654,1.1233994,1.0853951,0.0,0.0,0.0,0.0,0.0,0.0,0.0,12.456082,0.0,0.0,0.0,0.0,0.0025112657,0.0025112657,0.0025038447,0.0025019029,1.0000153,1.0000153,1.0,0.0,0.0,0.0,0.0,0.0,0.0
625672000,625520000,0.10524742,0.10544797,0.20781429,1.1228654,1.1233994,1.0853951,0.0,0.0,0.0,0.0,0.0,0.0,0.0,12.456082,0.0,0.0,0.0,0.0,0.0025112657,0.0025112657,0.0025038447,0.0025019029,1.0000154,1.0000154,1.0,0.0,0.0,0.0,0.0,0.0,0.0
625688000,625536000,0.10524742,0.10544797,0.20781429,1.1228654,1.1233994,1.0853951,0.0,0.0,0.0,0.0,0.0,0.0,0.0,12.450769,0.0,0.0,0.0,0.0,0.0025112657,0.0025112657,0.0025038447,0.0025019029,1.0000155,1.0000154,1.0,0.0,0.0,0.0,0.0,0.0,0.0
625696000,625544000,0.10524742,0.10544797,0.20781429,1.1228654,1.1233994,1.0853951,0.0,0.0,0.0,0.0,0.0,0.0,0.0,12.450769,0.0,0.0,0.0,0.0,0.0025112657,0.0025112657,0.0025038447,0.0025019029,1.0000155,1.0000154,1.0,0.0,0.0,0.0,0.0,0.0,0.0
625704000,625552000,0.10524742,0.10544797,0.20781429,1.1228654,1.1233994,1.0853951,0.0,0.0,0.0,0.0,0.0,0.0,0.0,12.450769,0.0,0.0,0.0,0.0,0.0025112657,0.0025112657,0.0025038447,0.0025019029,1.0000155,1.0000154,1.0,0.0,0.0,0.0,0.0,0.0,0.0
625712000,625560000,0.10524742,0.10544797,0.20781429,1.1228654,1.1233994,1.0853951,0.0,0.0,0.0,0.0,0.0,0.0,0.0,12.450769,0.0,0.0,0.0,0.0,0.002511293,0.002511293,0.0025038808,0.0025019122,1.0000155,1.0000154,1.0,0.0,0.0,0.0,0.0,0.0,0.0
625728000,625576000,0.10524742,0.10544797,0.20781429,1.1228654,1.1233994,1.0853951,0.0,0.0,0.0,0.0,0.0,0.0,0.0,12.450769,0.0,0.0,0.0,0.0,0.002511293,0.002511293,0.0025038808,0.0025019122,1.0000156,1.0000155,1.0,0.0,0.0,0.0,0.0,0.0,0.0
625736000,625584000,0.10524742,0.10544797,0.20781429,1.1228654,1.1233994,1.0853951,0.0,0.0,0.0,0.0,0.0,0.0,0.0,12.450769,0.0,0.0,0.0,0.0,0.002511293,0.002511293,0.0025038808,0.0025019122,1.0000156,1.0000155,1.0,0.0,0.0,0.0,0.0,0.0,0.0
625744000,625592000,0.10524742,0.10544797,0.20781429,1.1228654,1.1233994,1.0853951,0.0,0.0,0.0,0.0,0.0,0.0,0.0,12.450769,0.0,0.0,0.0,0.0,0.002511293,0.002511293,0.0025038808,0.0025019122,1.0000156,1.0000155,1.0,0.0,0.0,0.0,0.0,0.0,0.0
625752000,625600000,0.10524742,0.10544797,0.20781429,1.1228654,1.1233994,1.0853951,0.0,0.0,0.0,0.0,0.0,0.0,0.0,12.451927,0.0,0.0,0.0,0.0,0.002511293,0.002511293,0.0025038808,0.0025019122,1.0000156,1.0000155,1.0,0.0,0.0,0.0,0.0,0.0,0.0
625768000,625616000,0.10524742,0.10544797,0.20781429,1.1228654,1.1233994,1.0853951,0.0,0.0,0.0,0.0,0.0,0.0,0.0,12.451927,0.0,0.0,0.0,0.0,0.002511293,0.002511293,0.0025038808,0.0025019122,1.0000157,1.0000156,1.0,0.0,0.0,0.0,0.0,0.0,0.0
625776000,625624000,0.10524742,0.10544797,0.20781429,1.1228654,1.1233994,1.0853951,0.0,0.0,0.0,0.0,0.0,0.0,0.0,12.451927,0.0,0.0,0.0,0.0,0.0025113104,0.0025113104,0.002503914,0.0025019199,1.0000157,1.0000157,1.0,0.0,0.0,0.0,0.0,0.0,0.0
625784000,625632000,0.10524742,0.10544797,0.20781429,1.1228654,1.1233994,1.0853951,0.0,0.0,0.0,0.0,0.0,0.0,0.0,12.451927,0.0,0.0,0.0,0.0,0.0025113104,0.0025113104,0.002503914,0.0025019199,1.0000157,1.0000157,1.0,0.0,0.0,0.0,0.0,0.0,0.0
625792000,625640000,0.10524742,0.10544797,0.20781429,1.1228654,1.1233994,1.0853951,0.0,0.0,0.0,0.0,0.0,0.0,0.0,12.451927,0.0,0.0,0.0,0.0,0.0025113104,0.0025113104,0.002503914,0.0025019199,1.0000157,1.0000157,1.0,0.0,0.0,0.0,0.0,0.0,0.0
625808000,625656000,0.10524742,0.10544797,0.20781429,1.1228654,1.1233994,1.0853951,0.0,0.0,0.0,0.0,0.0,0.0,0.0,12.452741,0.0,0.0,0.0,0.0,0.0025113104,0.0025113104,0.002503914,0.0025019199,1.0000159,1.0000159,1.0,0.0,0.0,0.0,0.0,0.0,0.0
625816000,625664000,0.10524742,0.10544797,0.20781429,1.1228654,1.1233994,1.0853951,0.0,0.0,0.0,0.0,0.0,0.0,0.0,12.452741,0.0,0.0,0.0,0.0,0.0025113104,0.0025113104,0.002503914,0.0025019199,1.0000159,1.0000159,1.0,0.0,0.0,0.0,0.0,0.0,0.0
625824000,625672000,0.10524742,0.10544797,0.20781429,1.1228654,1.1233994,1.0853951,0.0,0.0,0.0,0.0,0.0,0.0,0.0,12.452741,0.0,0.0,0.0,0.0,0.0025113104,0.0025113104,0.002503914,0.0025019199,1.0000159,1.0000159,1.0,0.0,0.0,0.0,0.0,0.0,0.0
625832000,625680000,0.10524742,0.10544797,0.20781429,1.1228654,1.1233994,1.0853951,0.0,0.0,0.0,0.0,0.0,0.0,0.0,12.452741,0.0,0.0,0.0,0.0,0.0025113104,0.0025113104,0.002503914,0.0025019199,1.0000159,1.0000159,1.0,0.0,0.0,0.0,0.0,0.0,0.0
625848000,625696000,0.10524742,0.10544797,0.20781429,1.1228654,1.1233994,1.0853951,0.0,0.0,0.0,0.0,0.0,0.0,0.0,12.452741,0.0,0.0,0.0,0.0,0.0025113327,0.0025113327,0.0025039506,0.0025019287,1.000016,1.000016,1.0,0.0,0.0,0.0,0.0,0.0,0.0
625856000,625704000,0.10524742,0.10544797,0.20781429,1.1228654,1.1233994,1.0853951,0.0,0.0,0.0,0.0,0.0,0.0,0.0,12.452741,0.0,0.0,0.0,0.0,0.0025113327,0.0025113327,0.0025039506,0.0025019287,1.000016,1.000016,1.0,0.0,0.0,0.0,0.0,0.0,0.0
625864000,625712000,0.10524742,0.10544797,0.20781429,1.1228654,1.1233994,1.0853951,0.0,0.0,0.0,0.0,0.0,0.0,0.0,12.452741,0.0,0.0,0.0,0.0,0.0025113327,0.0025113327,0.0025039506,0.0025019287,1.000016,1.000016,1.0,0.0,0.0,0.0,0.0,0.0,0.0
625872000,625720000,0.10524742,0.10544797,0.20781429,1.1228654,1.1233994,1.0853951,0.0,0.0,0.0,0.0,0.0,0.0,0.0,12.452741,0.0,0.0,0.0,0.0,0.0025113327,0.0025113327,0.0025039506,0.0025019287,1.000016,1.000016,1.0,0.0,0.0,0.0,0.0,0.0,0.0
625888000,625736000,0.10524742,0.10544797,0.20781429,1.1228654,1.1233994,1.0853951,0.0,0.0,0.0,0.0,0.0,0.0,0.0,12.454296,0.0,0.0,0.0,0.0,0.0025113327,0.0025113327,0.0025039506,0.0025019287,1.0000161,1.0000161,1.0,0.0,0.0,0.0,0.0,0.0,0.0
625896000,625744000,0.10524742,0.10544797,0.20781429,1.1228654,1.1233994,1.0853951,0.0,0.0,0.0,0.0,0.0,0.0,0.0,12.454296,0.0,0.0,0.0,0.0,0.0025113327,0.0025113327,0.0025039506,0.0025019287,1.0000161,1.0000161,1.0,0.0,0.0,0.0,0.0,0.0,0.0
625904000,625752000,0.10524742,0.10544797,0.20781429,1.1228654,1.1233994,1.0853951,0.0,0.0,0.0,0.0,0.0,0.0,0.0,12.454296,0.0,0.0,0.0,0.0,0.0025113327,0.0025113327,0.0025039506,0.0025019287,1.0000161,1.0000161,1.0,0.0,0.0,0.0,0.0,0.0,0.0
625912000,625760000,0.10524742,0.10544797,0.20781429,1.1228654,1.1233994,1.0853951,0.0,0.0,0.0,0.0,0.0,0.0,0.0,12.454296,0.0,0.0,0.0,0.0,0.0025113327,0.0025113327,0.0025039506,0.0025019287,1.0000161,1.0000161,1.0,0.0,0.0,0.0,0.0,0.0,0.0
625928000,625776000,0.10524742,0.10544797,0.20781429,1.1228654,1.1233994,1.0853951,0.0,0.0,0.0,0.0,0.0,0.0,0.0,12.454296,0.0,0.0,0.0,0.0,0.0025113586,0.0025113586,0.0025039874,0.0025019392,1.0000162,1.0000162,1.0,0.0,0.0,0.0,0.0,0.0,0.0
625936000,625784000,0.10524742,0.10544797,0.20781429,1.1228654,1.1233994,1.0853951,0.0,0.0,0.0,0.0,0.0,0.0,0.0,12.454296,0.0,0.0,0.0,0.0,0.0025113586,0.0025113586,0.0025039874,0.0025019392,1.0000162,1.0000162,1.0,0.0,0.0,0.0,0.0,0.0,0.0
625944000,625792000,0.10524742,0.10544797,0.20781429,1.1228654,1.1233994,1.0853951,0.0,0.0,0.0,0.0,0.0,0.0,0.0,12.4555025,0.0,0.0,0.0,0.0,0.0025113586,0.0025113586,0.0025039874,0.0025019392,1.0000162,1.0000162,1.0,0.0,0.0,0.0,0.0,0.0,0.0
625952000,625800000,0.10524742,0.10544797,0.20781429,1.1228654,1.1233994,1.0853951,0.0,0.0,0.0,0.0,0.0,0.0,0.0,12.4555025,0.0,0.0,0.0,0.0,0.0025113586,0.0025113586,0.0025039874,0.0025019392,1.0000162,1.0000162,1.0,0.0,0.0,0.0,0.0,0.0,0.0
625968000,625816000,0.10524742,0.10544797,0.20781429,1.1228654,1.1233994,1.0853951,0.0,0.0,0.0,0.0,0.0,0.0,0.0,12.4555025,0.0,0.0,0.0,0.0,0.0025113586,0.0025113586,0.0025039874,0.0025019392,1.0000163,1.0000163,1.0,0.0,0.0,0.0,0.0,0.0,0.0
625976000,625824000,0.10524742,0.10544797,0.20781429,1.1228654,1.1233994,1.0853951,0.0,0.0,0.0,0.0,0.0,0.0,0.0,12.4555025,0.0,0.0,0.0,0.0,0.0025113586,0.0025113586,0.0025039874,0.0025019392,1.0000163,1.0000163,1.0,0.0,0.0,0.0,0.0,0.0,0.0
625984000,625832000,0.10524742,0.10544797,0.20781429,1.1228654,1.1233994,1.0853951,0.0,0.0,0.0,0.0,0.0,0.0,0.0,12.4555025,0.0,0.0,0.0,0.0,0.0025113756,0.0025113756,0.0025040205,0.0025019473,1.0000163,1.0000163,1.0,0.0,0.0,0.0,0.0,0.0,0.0
625992000,625840000,0.10524742,0.10544797,0.20781429,1.1228654,1.1233994,1.0853951,0.0,0.0,0.0,0.0,0.0,0.0,0.0,12.4555025,0.0,0.0,0.0,0.0,0.0025113756,0.0025113756,0.0025040205,0.0025019473,1.0000163,1.0000163,1.0,0.0,0.0,0.0,0.0,0.0,0.0
626008000,625856000,0.10524742,0.10544797,0.20781429,1.1228654,1.1233994,1.0853951,0.0,0.0,0.0,0.0,0.0,0.0,0.0,12.456351,0.0,0.0,0.0,0.0,0.0025113756,0.0025113756,0.0025040205,0.0025019473,1.0000165,1.0000165,1.0,0.0,0.0,0.0,0.0,0.0,0.0
626016000,625864000,0.105278686,0.1054777,0.20779823,1.1233742,1.1239132,1.085518,0.0,0.0,0.0,0.0,0.0,0.0,0.0,12.456351,0.0,0.0,0.0,0.0,0.0025113756,0.0025113756,0.0025040205,0.0025019473,1.0000151,1.0000151,1.0,0.0,0.0,0.0,0.0,0.0,0.0
626024000,625872000,0.105278686,0.1054777,0.20779823,1.1233742,1.1239132,1.085518,0.0,0.0,0.0,0.0,0.0,0.0,0.0,12.456351,0.0,0.0,0.0,0.0,0.0025113756,0.0025113756,0.0025040205,0.0025019473,1.0000151,1.0000151,1.0,0.0,0.0,0.0,0.0,0.0,0.0
626032000,625880000,0.105278686,0.1054777,0.20779823,1.1233742,1.1239132,1.085518,0.0,0.0,0.0,0.0,0.0,0.0,0.0,12.456351,0.0,0.0,0.0,0.0,0.0025113756,0.0025113756,0.0025040205,0.0025019473,1.0000151,1.0000153,1.0,0.0,0.0,0.0,0.0,0.0,0.0
626048000,625896000,0.105278686,0.1054777,0.20779823,1.1233742,1.1239132,1.085518,0.0,0.0,0.0,0.0,0.0,0.0,0.0,12.456351,0.0,0.0,0.0,0.0,0.0025113756,0.0025113756,0.0025040205,0.0025019473,1.0000153,1.0000153,1.0,0.0,0.0,0.0,0.0,0.0,0.0
626056000,625904000,0.105278686,0.1054777,0.20779823,1.1233742,1.1239132,1.085518,0.0,0.0,0.0,0.0,0.0,0.0,0.0,12.456351,0.0,0.0,0.0,0.0,0.0025112638,0.0025112638,0.002503853,0.002501903,1.0000154,1.0000153,1.0,0.0,0.0,0.0,0.0,0.0,0.0
626064000,625912000,0.105278686,0.1054777,0.20779823,1.1233742,1.1239132,1.085518,0.0,0.0,0.0,0.0,0.0,0.0,0.0,12.449648,0.0,0.0,0.0,0.0,0.0025112638,0.0025112638,0.002503853,0.002501903,1.0000154,1.0000153,1.0,0.0,0.0,0.0,0.0,0.0,0.0
626072000,625920000,0.105278686,0.1054777,0.20779823,1.1233742,1.1239132,1.085518,0.0,0.0,0.0,0.0,0.0,0.0,0.0,12.449648,0.0,0.0,0.0,0.0,0.0025112638,0.0025112638,0.002503853,0.002501903,1.0000154,1.0000153,1.0,0.0,0.0,0.0,0.0,0.0,0.0
626088000,625936000,0.105278686,0.1054777,0.20779823,1.1233742,1.1239132,1.085518,0.0,0.0,0.0,0.0,0.0,0.0,0.0,12.449648,0.0,0.0,0.0,0.0,0.0025112638,0.0025112638,0.002503853,0.002501903,1.0000155,1.0000154,1.0,0.0,0.0,0.0,0.0,0.0,0.0
626096000,625944000,0.105278686,0.1054777,0.20779823,1.1233742,1.1239132,1.085518,0.0,0.0,0.0,0.0,0.0,0.0,0.0,12.449648,0.0,0.0,0.0,0.0,0.0025112638,0.0025112638,0.002503853,0.002501903,1.0000155,1.0000154,1.0,0.0,0.0,0.0,0.0,0.0,0.0
626104000,625952000,0.105278686,0.1054777,0.20779823,1.1233742,1.1239132,1.085518,0.0,0.0,0.0,0.0,0.0,0.0,0.0,12.449648,0.0,0.0,0.0,0.0,0.0025112638,0.0025112638,0.002503853,0.002501903,1.0000155,1.0000154,1.0,0.0,0.0,0.0,0.0,0.0,0.0
626112000,625960000,0.105278686,0.1054777,0.20779823,1.1233742,1.1239132,1.085518,0.0,0.0,0.0,0.0,0.0,0.0,0.0,12.449648,0.0,0.0,0.0,0.0,0.0025112638,0.0025112638,0.002503853,0.002501903,1.0000155,1.0000155,1.0,0.0,0.0,0.0,0.0,0.0,0.0
626128000,625976000,0.105278686,0.1054777,0.20779823,1.1233742,1.1239132,1.085518,0.0,0.0,0.0,0.0,0.0,0.0,0.0,12.450454,0.0,0.0,0.0,0.0,0.0025112901,0.0025112901,0.0025038903,0.0025019126,1.0000156,1.0000155,1.0,0.0,0.0,0.0,0.0,0.0,0.0
626136000,625984000,0.105278686,0.1054777,0.20779823,1.1233742,1.1239132,1.085518,0.0,0.0,0.0,0.0,0.0,0.0,0.0,12.450454,0.0,0.0,0.0,0.0,0.0025112901,0.0025112901,0.0025038903,0.0025019126,1.0000156,1.0000155,1.0,0.0,0.0,0.0,0.0,0.0,0.0
626144000,625992000,0.105278686,0.1054777,0.20779823,1.1233742,1.1239132,1.085518,0.0,0.0,0.0,0.0,0.0,0.0,0.0,12.450454,0.0,0.0,0.0,0.0,0.0025112901,0.0025112901,0.0025038903,0.0025019126,1.0000156,1.0000155,1.0,0.0,0.0,0.0,0.0,0.0,0.0
626152000,626000000,0.105278686,0.1054777,0.20779823,1.1233742,1.1239132,1.085518,0.0,0.0,0.0,0.0,0.0,0.0,0.0,12.450454,0.0,0.0,0.0,0.0,0.0025112901,0.0025112901,0.0025038903,0.0025019126,1.0000156,1.0000155,1.0,0.0,0.0,0.0,0.0,0.0,0.0
626168000,626016000,0.105278686,0.1054777,0.20779823,1.1233742,1.1239132,1.085518,0.0,0.0,0.0,0.0,0.0,0.0,0.0,12.450454,0.0,0.0,0.0,0.0,0.0025112901,0.0025112901,0.0025038903,0.0025019126,1.0000157,1.0000157,1.0,0.0,0.0,0.0,0.0,0.0,0.0
626176000,626024000,0.105278686,0.1054777,0.20779823,1.1233742,1.1239132,1.085518,0.0,0.0,0.0,0.0,0.0,0.0,0.0,12.450454,0.0,0.0,0.0,0.0,0.0025112901,0.0025112901,0.0025038903,0.0025019126,1.0000157,1.0000157,1.0,0.0,0.0,0.0,0.0,0.0,0.0
626184000,626032000,0.105278686,0.1054777,0.20779823,1.1233742,1.1239132,1.085518,0.0,0.0,0.0,0.0,0.0,0.0,0.0,12.450454,0.0,0.0,0.0,0.0,0.0025112901,0.0025112901,0.0025038903,0.0025019126,1.0000157,1.0000157,1.0,0.0,0.0,0.0,0.0,0.0,0.0
626192000,626040000,0.105278686,0.1054777,0.20779823,1.1233742,1.1239132,1.085518,0.0,0.0,0.0,0.0,0.0,0.0,0.0,12.451992,0.0,0.0,0.0,0.0,0.0025113088,0.0025113088,0.0025039217,0.0025019208,1.0000157,1.0000157,1.0,0.0,0.0,0.0,0.0,0.0,0.0
626208000,626056000,0.105278686,0.1054777,0.20779823,1.1233742,1.1239132,1.085518,0.0,0.0,0.0,0.0,0.0,0.0,0.0,12.451992,0.0,0.0,0.0,0.0,0.0025113088,0.0025113088,0.0025039217,0.0025019208,1.0000159,1.0000159,1.0,0.0,0.0,0.0,0.0,0.0,0.0
626216000,626064000,0.105278686,0.1054777,0.20779823,1.1233742,1.1239132,1.085518,0.0,0.0,0.0,0.0,0.0,0.0,0.0,12.451992,0.0,0.0,0.0,0.0,0.0025113088,0.0025113088,0.0025039217,0.0025019208,1.0000159,1.0000159,1.0,0.0,0.0,0.0,0.0,0.0,0.0
626224000,626072000,0.105278686,0.1054777,0.20779823,1.1233742,1.1239132,1.085518,0.0,0.0,0.0,0.0,0.0,0.0,0.0,12.451992,0.0,0.0,0.0,0.0,0.0025113088,0.0025113088,0.0025039217,0.0025019208,1.0000159,1.0000159,1.0,0.0,0.0,0.0,0.0,0.0,0.0
626232000,626080000,0.105278686,0.1054777,0.20779823,1.1233742,1.1239132,1.085518,0.0,0.0,0.0,0.0,0.0,0.0,0.0,12.451992,0.0,0.0,0.0,0.0,0.0025113088,0.0025113088,0.0025039217,0.0025019208,1.0000159,1.0000159,1.0,0.0,0.0,0.0,0.0,0.0,0.0
626248000,626096000,0.105278686,0.1054777,0.20779823,1.1233742,1.1239132,1.085518,0.0,0.0,0.0,0.0,0.0,0.0,0.0,12.451992,0.0,0.0,0.0,0.0,0.0025113088,0.0025113088,0.0025039217,0.0025019208,1.000016,1.000016,1.0,0.0,0.0,0.0,0.0,0.0,0.0
626256000,626104000,0.105278686,0.1054777,0.20779823,1.1233742,1.1239132,1.085518,0.0,0.0,0.0,0.0,0.0,0.0,0.0,12.451992,0.0,0.0,0.0,0.0,0.0025113088,0.0025113088,0.0025039217,0.0025019208,1.000016,1.000016,1.0,0.0,0.0,0.0,0.0,0.0,0.0
626264000,626112000,0.105278686,0.1054777,0.20779823,1.1233742,1.1239132,1.085518,0.0,0.0,0.0,0.0,0.0,0.0,0.0,12.45355,0.0,0.0,0.0,0.0,0.0025113302,0.0025113302,0.0025039588,0.0025019299,1.000016,1.000016,1.0,0.0,0.0,0.0,0.0,0.0,0.0
626272000,626120000,0.105278686,0.1054777,0.20779823,1.1233742,1.1239132,1.085518,0.0,0.0,0.0,0.0,0.0,0.0,0.0,12.45355,0.0,0.0,0.0,0.0,0.0025113302,0.0025113302,0.0025039588,0.0025019299,1.000016,1.000016,1.0,0.0,0.0,0.0,0.0,0.0,0.0
626288000,626136000,0.105278686,0.1054777,0.20779823,1.1233742,1.1239132,1.085518,0.0,0.0,0.0,0.0,0.0,0.0,0.0,12.45355,0.0,0.0,0.0,0.0,0.0025113302,0.0025113302,0.0025039588,0.0025019299,1.0000161,1.0000161,1.0,0.0,0.0,0.0,0.0,0.0,0.0
626296000,626144000,0.105278686,0.1054777,0.20779823,1.1233742,1.1239132,1.085518,0.0,0.0,0.0,0.0,0.0,0.0,0.0,12.45355,0.0,0.0,0.0,0.0,0.0025113302,0.0025113302,0.0025039588,0.0025019299,1.0000161,1.0000161,1.0,0.0,0.0,0.0,0.0,0.0,0.0
626304000,626152000,0.105278686,0.1054777,0.20779823,1.1233742,1.1239132,1.085518,0.0,0.0,0.0,0.0,0.0,0.0,0.0,12.45355,0.0,0.0,0.0,0.0,0.0025113302,0.0025113302,0.0025039588,0.0025019299,1.0000161,1.0000161,1.0,0.0,0.0,0.0,0.0,0.0,0.0
626312000,626160000,0.105278686,0.1054777,0.20779823,1.1233742,1.1239132,1.085518,0.0,0.0,0.0,0.0,0.0,0.0,0.0,12.45355,0.0,0.0,0.0,0.0,0.0025113302,0.0025113302,0.0025039588,0.0025019299,1.0000161,1.0000161,1.0,0.0,0.0,0.0,0.0,0.0,0.0
626328000,626176000,0.105278686,0.1054777,0.20779823,1.1233742,1.1239132,1.085518,0.0,0.0,0.0,0.0,0.0,0.0,0.0,12.45355,0.0,0.0,0.0,0.0,0.0025113302,0.0025113302,0.0025039588,0.0025019299,1.0000162,1.0000162,1.0,0.0,0.0,0.0,0.0,0.0,0.0
626336000,626184000,0.105278686,0.1054777,0.20779823,1.1233742,1.1239132,1.085518,0.0,0.0,0.0,0.0,0.0,0.0,0.0,12.455128,0.0,0.0,0.0,0.0,0.002511357,0.002511357,0.0025039965,0.0025019383,1.0000162,1.0000162,1.0,0.0,0.0,0.0,0.0,0.0,0.0
626344000,626192000,0.105278686,0.1054777,0.20779823,1.1233742,1.1239132,1.085518,0.0,0.0,0.0,0.0,0.0,0.0,0.0,12.455128,0.0,0.0,0.0,0.0,0.002511357,0.002511357,0.0025039965,0.0025019383,1.0000162,1.0000162,1.0,0.0,0.0,0.0,0.0,0.0,0.0
626352000,626200000,0.105278686,0.1054777,0.20779823,1.1233742,1.1239132,1.085518,0.0,0.0,0.0,0.0,0.0,0.0,0.0,12.455128,0.0,0.0,0.0,0.0,0.002511357,0.002511357,0.0025039965,0.0025019383,1.0000162,1.0000162,1.0,0.0,0.0,0.0,0.0,0.0,0.0
626368000,626216000,0.105278686,0.1054777,0.20779823,1.1233742,1.1239132,1.085518,0.0,0.0,0.0,0.0,0.0,0.0,0.0,12.455128,0.0,0.0,0.0,0.0,0.002511357,0.002511357,0.0025039965,0.0025019383,1.0000163,1.0000163,1.0,0.0,0.0,0.0,0.0,0.0,0.0
626376000,626224000,0.105278686,0.1054777,0.20779823,1.1233742,1.1239132,1.085518,0.0,0.0,0.0,0.0,0.0,0.0,0.0,12.455128,0.0,0.0,0.0,0.0,0.002511357,0.002511357,0.0025039965,0.0025019383,1.0000163,1.0000163,1.0,0.0,0.0,0.0,0.0,0.0,0.0
626384000,626232000,0.105278686,0.1054777,0.20779823,1.1233742,1.1239132,1.085518,0.0,0.0,0.0,0.0,0.0,0.0,0.0,12.455128,0.0,0.0,0.0,0.0,0.002511357,0.002511357,0.0025039965,0.0025019383,1.0000163,1.0000163,1.0,0.0,0.0,0.0,0.0,0.0,0.0
626392000,626240000,0.105278686,0.1054777,0.20779823,1.1233742,1.1239132,1.085518,0.0,0.0,0.0,0.0,0.0,0.0,0.0,12.455128,0.0,0.0,0.0,0.0,0.002511357,0.002511357,0.0025039965,0.0025019383,1.0000163,1.0000163,1.0,0.0,0.0,0.0,0.0,0.0,0.0
626408000,626256000,0.105278686,0.1054777,0.20779823,1.1233742,1.1239132,1.085518,0.0,0.0,0.0,0.0,0.0,0.0,0.0,12.456725,0.0,0.0,0.0,0.0,0.0025113835,0.0025113835,0.0025040344,0.0025019478,1.0000165,1.0000163,1.0,0.0,0.0,0.0,0.0,0.0,0.0
626416000,626264000,0.10529645,0.10549578,0.2078004,1.1237967,1.124339,1.0856378,0.0,0.0,0.0,0.0,0.0,0.0,0.0,12.456725,0.0,0.0,0.0,0.0,0.0025113835,0.0025113835,0.0025040344,0.0025019478,1.0000151,1.0000151,1.0,0.0,0.0,0.0,0.0,0.0,0.0
626424000,626272000,0.10529645,0.10549578,0.2078004,1.1237967,1.124339,1.0856378,0.0,0.0,0.0,0.0,0.0,0.0,0.0,12.456725,0.0,0.0,0.0,0.0,0.0025113835,0.0025113835,0.0025040344,0.0025019478,1.0000151,1.0000151,1.0,0.0,0.0,0.0,0.0,0.0,0.0
626432000,626280000,0.10529645,0.10549578,0.2078004,1.1237967,1.124339,1.0856378,0.0,0.0,0.0,0.0,0.0,0.0,0.0,12.456725,0.0,0.0,0.0,0.0,0.0025113835,0.0025113835,0.0025040344,0.0025019478,1.0000151,1.0000153,1.0,0.0,0.0,0.0,0.0,0.0,0.0
626448000,626296000,0.10529645,0.10549578,0.2078004,1.1237967,1.124339,1.0856378,0.0,0.0,0.0,0.0,0.0,0.0,0.0,12.456725,0.0,0.0,0.0,0.0,0.0025113835,0.0025113835,0.0025040344,0.0025019478,1.0000154,1.0000153,1.0,0.0,0.0,0.0,0.0,0.0,0.0
626456000,626304000,0.10529645,0.10549578,0.2078004,1.1237967,1.124339,1.0856378,0.0,0.0,0.0,0.0,0.0,0.0,0.0,12.456725,0.0,0.0,0.0,0.0,0.0025113835,0.0025113835,0.0025040344,0.0025019478,1.0000154,1.0000153,1.0,0.0,0.0,0.0,0.0,0.0,0.0
626464000,626312000,0.10529645,0.10549578,0.2078004,1.1237967,1.124339,1.0856378,0.0,0.0,0.0,0.0,0.0,0.0,0.0,12.456725,0.0,0.0,0.0,0.0,0.0025113835,0.0025113835,0.0025040344,0.0025019478,1.0000154,1.0000153,1.0,0.0,0.0,0.0,0.0,0.0,0.0
626472000,626320000,0.10529645,0.10549578,0.2078004,1.1237967,1.124339,1.0856378,0.0,0.0,0.0,0.0,0.0,0.0,0.0,12.449979,0.0,0.0,0.0,0.0,0.0025113835,0.0025113835,0.0025040344,0.0025019478,1.0000154,1.0000154,1.0,0.0,0.0,0.0,0.0,0.0,0.0
626488000,626336000,0.10529645,0.10549578,0.2078004,1.1237967,1.124339,1.0856378,0.0,0.0,0.0,0.0,0.0,0.0,0.0,12.449979,0.0,0.0,0.0,0.0,0.0025112699,0.0025112699,0.0025038666,0.0025019038,1.0000155,1.0000154,1.0,0.0,0.0,0.0,0.0,0.0,0.0
626496000,626344000,0.10529645,0.10549578,0.2078004,1.1237967,1.124339,1.0856378,0.0,0.0,0.0,0.0,0.0,0.0,0.0,12.449979,0.0,0.0,0.0,0.0,0.0025112699,0.0025112699,0.0025038666,0.0025019038,1.0000155,1.0000154,1.0,0.0,0.0,0.0,0.0,0.0,0.0
626504000,626352000,0.10529645,0.10549578,0.2078004,1.1237967,1.124339,1.0856378,0.0,0.0,0.0,0.0,0.0,0.0,0.0,12.449979,0.0,0.0,0.0,0.0,0.0025112699,0.0025112699,0.0025038666,0.0025019038,1.0000155,1.0000154,1.0,0.0,0.0,0.0,0.0,0.0,0.0
626512000,626360000,0.10529645,0.10549578,0.2078004,1.1237967,1.124339,1.0856378,0.0,0.0,0.0,0.0,0.0,0.0,0.0,12.449979,0.0,0.0,0.0,0.0,0.0025112699,0.0025112699,0.0025038666,0.0025019038,1.0000155,1.0000154,1.0,0.0,0.0,0.0,0.0,0.0,0.0
626528000,626376000,0.10529645,0.10549578,0.2078004,1.1237967,1.124339,1.0856378,0.0,0.0,0.0,0.0,0.0,0.0,0.0,12.450788,0.0,0.0,0.0,0.0,0.0025112699,0.0025112699,0.0025038666,0.0025019038,1.0000156,1.0000155,1.0,0.0,0.0,0.0,0.0,0.0,0.0
626536000,626384000,0.10529645,0.10549578,0.2078004,1.1237967,1.124339,1.0856378,0.0,0.0,0.0,0.0,0.0,0.0,0.0,12.450788,0.0,0.0,0.0,0.0,0.0025112699,0.0025112699,0.0025038666,0.0025019038,1.0000156,1.0000155,1.0,0.0,0.0,0.0,0.0,0.0,0.0
626544000,626392000,0.10529645,0.10549578,0.2078004,1.1237967,1.124339,1.0856378,0.0,0.0,0.0,0.0,0.0,0.0,0.0,12.450788,0.0,0.0,0.0,0.0,0.0025112699,0.0025112699,0.0025038666,0.0025019038,1.0000156,1.0000155,1.0,0.0,0.0,0.0,0.0,0.0,0.0
626552000,626400000,0.10529645,0.10549578,0.2078004,1.1237967,1.124339,1.0856378,0.0,0.0,0.0,0.0,0.0,0.0,0.0,12.450788,0.0,0.0,0.0,0.0,0.0025112964,0.0025112964,0.0025039038,0.0025019133,1.0000156,1.0000156,1.0,0.0,0.0,0.0,0.0,0.0,0.0
626568000,626416000,0.10529645,0.10549578,0.2078004,1.1237967,1.124339,1.0856378,0.0,0.0,0.0,0.0,0.0,0.0,0.0,12.450788,0.0,0.0,0.0,0.0,0.0025112964,0.0025112964,0.0025039038,0.0025019133,1.0000157,1.0000157,1.0,0.0,0.0,0.0,0.0,0.0,0.0
626576000,626424000,0.10529645,0.10549578,0.2078004,1.1237967,1.124339,1.0856378,0.0,0.0,0.0,0.0,0.0,0.0,0.0,12.450788,0.0,0.0,0.0,0.0,0.0025112964,0.0025112964,0.0025039038,0.0025019133,1.0000157,1.0000157,1.0,0.0,0.0,0.0,0.0,0.0,0.0
626584000,626432000,0.10529645,0.10549578,0.2078004,1.1237967,1.124339,1.0856378,0.0,0.0,0.0,0.0,0.0,0.0,0.0,12.450788,0.0,0.0,0.0,0.0,0.0025112964,0.0025112964,0.0025039038,0.0025019133,1.0000157,1.0000157,1.0,0.0,0.0,0.0,0.0,0.0,0.0
626592000,626440000,0.10529645,0.10549578,0.2078004,1.1237967,1.124339,1.0856378,0.0,0.0,0.0,0.0,0.0,0.0,0.0,12.451967,0.0,0.0,0.0,0.0,0.0025112964,0.0025112964,0.0025039038,0.0025019133,1.0000157,1.0000157,1.0,0.0,0.0,0.0,0.0,0.0,0.0
626608000,626456000,0.10529645,0.10549578,0.2078004,1.1237967,1.124339,1.0856378,0.0,0.0,0.0,0.0,0.0,0.0,0.0,12.451967,0.0,0.0,0.0,0.0,0.0025112964,0.0025112964,0.0025039038,0.0025019133,1.0000159,1.0000159,1.0,0.0,0.0,0.0,0.0,0.0,0.0
626616000,626464000,0.10529645,0.10549578,0.2078004,1.1237967,1.124339,1.0856378,0.0,0.0,0.0,0.0,0.0,0.0,0.0,12.451967,0.0,0.0,0.0,0.0,0.0025112964,0.0025112964,0.0025039038,0.0025019133,1.0000159,1.0000159,1.0,0.0,0.0,0.0,0.0,0.0,0.0
626624000,626472000,0.10529645,0.10549578,0.2078004,1.1237967,1.124339,1.0856378,0.0,0.0,0.0,0.0,0.0,0.0,0.0,12.451967,0.0,0.0,0.0,0.0,0.0025113241,0.0025113241,0.0025039406,0.0025019222,1.0000159,1.0000159,1.0,0.0,0.0,0.0,0.0,0.0,0.0
626632000,626480000,0.10529645,0.10549578,0.2078004,1.1237967,1.124339,1.0856378,0.0,0.0,0.0,0.0,0.0,0.0,0.0,12.451967,0.0,0.0,0.0,0.0,0.0025113241,0.0025113241,0.0025039406,0.0025019222,1.0000159,1.0000159,1.0,0.0,0.0,0.0,0.0,0.0,0.0
626648000,626496000,0.10529645,0.10549578,0.2078004,1.1237967,1.124339,1.0856378,0.0,0.0,0.0,0.0,0.0,0.0,0.0,12.452801,0.0,0.0,0.0,0.0,0.0025113241,0.0025113241,0.0025039406,0.0025019222,1.000016,1.000016,1.0,0.0,0.0,0.0,0.0,0.0,0.0
626656000,626504000,0.10529645,0.10549578,0.2078004,1.1237967,1.124339,1.0856378,0.0,0.0,0.0,0.0,0.0,0.0,0.0,12.452801,0.0,0.0,0.0,0.0,0.0025113241,0.0025113241,0.0025039406,0.0025019222,1.000016,1.000016,1.0,0.0,0.0,0.0,0.0,0.0,0.0
626664000,626512000,0.10529645,0.10549578,0.2078004,1.1237967,1.124339,1.0856378,0.0,0.0,0.0,0.0,0.0,0.0,0.0,12.452801,0.0,0.0,0.0,0.0,0.0025113241,0.0025113241,0.0025039406,0.0025019222,1.000016,1.000016,1.0,0.0,0.0,0.0,0.0,0.0,0.0
626672000,626520000,0.10529645,0.10549578,0.2078004,1.1237967,1.124339,1.0856378,0.0,0.0,0.0,0.0,0.0,0.0,0.0,12.452801,0.0,0.0,0.0,0.0,0.0025113241,0.0025113241,0.0025039406,0.0025019222,1.000016,1.000016,1.0,0.0,0.0,0.0,0.0,0.0,0.0
626688000,626536000,0.10529645,0.10549578,0.2078004,1.1237967,1.124339,1.0856378,0.0,0.0,0.0,0.0,0.0,0.0,0.0,12.452801,0.0,0.0,0.0,0.0,0.0025113241,0.0025113241,0.0025039406,0.0025019222,1.0000161,1.0000161,1.0,0.0,0.0,0.0,0.0,0.0,0.0
626696000,626544000,0.10529645,0.10549578,0.2078004,1.1237967,1.124339,1.0856378,0.0,0.0,0.0,0.0,0.0,0.0,0.0,12.452801,0.0,0.0,0.0,0.0,0.002511346,0.002511346,0.0025039772,0.002501931,1.0000161,1.0000161,1.0,0.0,0.0,0.0,0.0,0.0,0.0
626704000,626552000,0.10529645,0.10549578,0.2078004,1.1237967,1.124339,1.0856378,0.0,0.0,0.0,0.0,0.0,0.0,0.0,12.452801,0.0,0.0,0.0,0.0,0.002511346,0.002511346,0.0025039772,0.002501931,1.0000161,1.0000161,1.0,0.0,0.0,0.0,0.0,0.0,0.0
626712000,626560000,0.10529645,0.10549578,0.2078004,1.1237967,1.124339,1.0856378,0.0,0.0,0.0,0.0,0.0,0.0,0.0,12.452801,0.0,0.0,0.0,0.0,0.002511346,0.002511346,0.0025039772,0.002501931,1.0000161,1.0000161,1.0,0.0,0.0,0.0,0.0,0.0,0.0
626728000,626576000,0.10529645,0.10549578,0.2078004,1.1237967,1.124339,1.0856378,0.0,0.0,0.0,0.0,0.0,0.0,0.0,12.454381,0.0,0.0,0.0,0.0,0.002511346,0.002511346,0.0025039772,0.002501931,1.0000162,1.0000162,1.0,0.0,0.0,0.0,0.0,0.0,0.0
626736000,626584000,0.10529645,0.10549578,0.2078004,1.1237967,1.124339,1.0856378,0.0,0.0,0.0,0.0,0.0,0.0,0.0,12.454381,0.0,0.0,0.0,0.0,0.002511346,0.002511346,0.0025039772,0.002501931,1.0000162,1.0000162,1.0,0.0,0.0,0.0,0.0,0.0,0.0
626744000,626592000,0.10529645,0.10549578,0.2078004,1.1237967,1.124339,1.0856378,0.0,0.0,0.0,0.0,0.0,0.0,0.0,12.454381,0.0,0.0,0.0,0.0,0.002511346,0.002511346,0.0025039772,0.002501931,1.0000162,1.0000162,1.0,0.0,0.0,0.0,0.0,0.0,0.0
626752000,626600000,0.10529645,0.10549578,0.2078004,1.1237967,1.124339,1.0856378,0.0,0.0,0.0,0.0,0.0,0.0,0.0,12.454381,0.0,0.0,0.0,0.0,0.002511346,0.002511346,0.0025039772,0.002501931,1.0000162,1.0000162,1.0,0.0,0.0,0.0,0.0,0.0,0.0
626768000,626616000,0.10529645,0.10549578,0.2078004,1.1237967,1.124339,1.0856378,0.0,0.0,0.0,0.0,0.0,0.0,0.0,12.454381,0.0,0.0,0.0,0.0,0.0025113726,0.0025113726,0.002504015,0.00250194,1.0000163,1.0000163,1.0,0.0,0.0,0.0,0.0,0.0,0.0
626776000,626624000,0.10529645,0.10549578,0.2078004,1.1237967,1.124339,1.0856378,0.0,0.0,0.0,0.0,0.0,0.0,0.0,12.454381,0.0,0.0,0.0,0.0,0.0025113726,0.0025113726,0.002504015,0.00250194,1.0000163,1.0000163,1.0,0.0,0.0,0.0,0.0,0.0,0.0
626784000,626632000,0.10529645,0.10549578,0.2078004,1.1237967,1.124339,1.0856378,0.0,0.0,0.0,0.0,0.0,0.0,0.0,12.454381,0.0,0.0,0.0,0.0,0.0025113726,0.0025113726,0.002504015,0.00250194,1.0000163,1.0000163,1.0,0.0,0.0,0.0,0.0,0.0,0.0
626792000,626640000,0.10529645,0.10549578,0.2078004,1.1237967,1.124339,1.0856378,0.0,0.0,0.0,0.0,0.0,0.0,0.0,12.455979,0.0,0.0,0.0,0.0,0.0025113726,0.0025113726,0.002504015,0.00250194,1.0000163,1.0000163,1.0,0.0,0.0,0.0,0.0,0.0,0.0
626808000,626656000,0.10529645,0.10549578,0.2078004,1.1237967,1.124339,1.0856378,0.0,0.0,0.0,0.0,0.0,0.0,0.0,12.455979,0.0,0.0,0.0,0.0,0.0025113726,0.0025113726,0.002504015,0.00250194,1.0000165,1.0000165,1.0,0.0,0.0,0.0,0.0,0.0,0.0
626816000,626664000,0.10532318,0.10551396,0.20780236,1.1241591,1.1246936,1.0857451,0.0,0.0,0.0,0.0,0.0,0.0,0.0,12.455979,0.0,0.0,0.0,0.0,0.0025113726,0.0025113726,0.002504015,0.00250194,1.0000151,1.0000151,1.0,0.0,0.0,0.0,0.0,0.0,0.0
626824000,626672000,0.10532318,0.10551396,0.20780236,1.1241591,1.1246936,1.0857451,0.0,0.0,0.0,0.0,0.0,0.0,0.0,12.455979,0.0,0.0,0.0,0.0,0.0025113726,0.0025113726,0.002504015,0.00250194,1.0000151,1.0000151,1.0,0.0,0.0,0.0,0.0,0.0,0.0
626832000,626680000,0.10532318,0.10551396,0.20780236,1.1241591,1.1246936,1.0857451,0.0,0.0,0.0,0.0,0.0,0.0,0.0,12.455979,0.0,0.0,0.0,0.0,0.002511254,0.002511254,0.002503841,0.002501896,1.0000151,1.0000153,1.0,0.0,0.0,0.0,0.0,0.0,0.0
626848000,626696000,0.10532318,0.10551396,0.20780236,1.1241591,1.1246936,1.0857451,0.0,0.0,0.0,0.0,0.0,0.0,0.0,12.455979,0.0,0.0,0.0,0.0,0.002511254,0.002511254,0.002503841,0.002501896,1.0000153,1.0000153,1.0,0.0,0.0,0.0,0.0,0.0,0.0
626856000,626704000,0.10532318,0.10551396,0.20780236,1.1241591,1.1246936,1.0857451,0.0,0.0,0.0,0.0,0.0,0.0,0.0,12.455979,0.0,0.0,0.0,0.0,0.002511254,0.002511254,0.002503841,0.002501896,1.0000153,1.0000153,1.0,0.0,0.0,0.0,0.0,0.0,0.0
626864000,626712000,0.10532318,0.10551396,0.20780236,1.1241591,1.1246936,1.0857451,0.0,0.0,0.0,0.0,0.0,0.0,0.0,12.449618,0.0,0.0,0.0,0.0,0.002511254,0.002511254,0.002503841,0.002501896,1.0000154,1.0000153,1.0,0.0,0.0,0.0,0.0,0.0,0.0
626872000,626720000,0.10532318,0.10551396,0.20780236,1.1241591,1.1246936,1.0857451,0.0,0.0,0.0,0.0,0.0,0.0,0.0,12.449618,0.0,0.0,0.0,0.0,0.002511254,0.002511254,0.002503841,0.002501896,1.0000154,1.0000154,1.0,0.0,0.0,0.0,0.0,0.0,0.0
626888000,626736000,0.10532318,0.10551396,0.20780236,1.1241591,1.1246936,1.0857451,0.0,0.0,0.0,0.0,0.0,0.0,0.0,12.449618,0.0,0.0,0.0,0.0,0.002511254,0.002511254,0.002503841,0.002501896,1.0000155,1.0000154,1.0,0.0,0.0,0.0,0.0,0.0,0.0
626896000,626744000,0.10532318,0.10551396,0.20780236,1.1241591,1.1246936,1.0857451,0.0,0.0,0.0,0.0,0.0,0.0,0.0,12.449618,0.0,0.0,0.0,0.0,0.002511254,0.002511254,0.002503841,0.002501896,1.0000155,1.0000154,1.0,0.0,0.0,0.0,0.0,0.0,0.0
626904000,626752000,0.10532318,0.10551396,0.20780236,1.1241591,1.1246936,1.0857451,0.0,0.0,0.0,0.0,0.0,0.0,0.0,12.449618,0.0,0.0,0.0,0.0,0.0025112762,0.0025112762,0.0025038768,0.002501906,1.0000155,1.0000154,1.0,0.0,0.0,0.0,0.0,0.0,0.0
626912000,626760000,0.10532318,0.10551396,0.20780236,1.1241591,1.1246936,1.0857451,0.0,0.0,0.0,0.0,0.0,0.0,0.0,12.449618,0.0,0.0,0.0,0.0,0.0025112762,0.0025112762,0.0025038768,0.002501906,1.0000155,1.0000154,1.0,0.0,0.0,0.0,0.0,0.0,0.0
626928000,626776000,0.10532318,0.10551396,0.20780236,1.1241591,1.1246936,1.0857451,0.0,0.0,0.0,0.0,0.0,0.0,0.0,12.449618,0.0,0.0,0.0,0.0,0.0025112762,0.0025112762,0.0025038768,0.002501906,1.0000156,1.0000155,1.0,0.0,0.0,0.0,0.0,0.0,0.0
626936000,626784000,0.10532318,0.10551396,0.20780236,1.1241591,1.1246936,1.0857451,0.0,0.0,0.0,0.0,0.0,0.0,0.0,12.451141,0.0,0.0,0.0,0.0,0.0025112762,0.0025112762,0.0025038768,0.002501906,1.0000156,1.0000155,1.0,0.0,0.0,0.0,0.0,0.0,0.0
626944000,626792000,0.10532318,0.10551396,0.20780236,1.1241591,1.1246936,1.0857451,0.0,0.0,0.0,0.0,0.0,0.0,0.0,12.451141,0.0,0.0,0.0,0.0,0.0025112762,0.0025112762,0.0025038768,0.002501906,1.0000156,1.0000155,1.0,0.0,0.0,0.0,0.0,0.0,0.0
626952000,626800000,0.10532318,0.10551396,0.20780236,1.1241591,1.1246936,1.0857451,0.0,0.0,0.0,0.0,0.0,0.0,0.0,12.451141,0.0,0.0,0.0,0.0,0.0025112762,0.0025112762,0.0025038768,0.002501906,1.0000156,1.0000155,1.0,0.0,0.0,0.0,0.0,0.0,0.0
626968000,626816000,0.10532318,0.10551396,0.20780236,1.1241591,1.1246936,1.0857451,0.0,0.0,0.0,0.0,0.0,0.0,0.0,12.451141,0.0,0.0,0.0,0.0,0.0025112762,0.0025112762,0.0025038768,0.002501906,1.0000157,1.0000156,1.0,0.0,0.0,0.0,0.0,0.0,0.0
626976000,626824000,0.10532318,0.10551396,0.20780236,1.1241591,1.1246936,1.0857451,0.0,0.0,0.0,0.0,0.0,0.0,0.0,12.451141,0.0,0.0,0.0,0.0,0.0025113034,0.0025113034,0.0025039145,0.002501914,1.0000157,1.0000156,1.0,0.0,0.0,0.0,0.0,0.0,0.0
626984000,626832000,0.10532318,0.10551396,0.20780236,1.1241591,1.1246936,1.0857451,0.0,0.0,0.0,0.0,0.0,0.0,0.0,12.451141,0.0,0.0,0.0,0.0,0.0025113034,0.0025113034,0.0025039145,0.002501914,1.0000157,1.0000157,1.0,0.0,0.0,0.0,0.0,0.0,0.0
626992000,626840000,0.10532318,0.10551396,0.20780236,1.1241591,1.1246936,1.0857451,0.0,0.0,0.0,0.0,0.0,0.0,0.0,12.451141,0.0,0.0,0.0,0.0,0.0025113034,0.0025113034,0.0025039145,0.002501914,1.0000157,1.0000157,1.0,0.0,0.0,0.0,0.0,0.0,0.0
627008000,626856000,0.10532318,0.10551396,0.20780236,1.1241591,1.1246936,1.0857451,0.0,0.0,0.0,0.0,0.0,0.0,0.0,12.452685,0.0,0.0,0.0,0.0,0.0025113034,0.0025113034,0.0025039145,0.002501914,1.0000159,1.0000159,1.0,0.0,0.0,0.0,0.0,0.0,0.0
627016000,626864000,0.10532318,0.10551396,0.20780236,1.1241591,1.1246936,1.0857451,0.0,0.0,0.0,0.0,0.0,0.0,0.0,12.452685,0.0,0.0,0.0,0.0,0.0025113034,0.0025113034,0.0025039145,0.002501914,1.0000159,1.0000159,1.0,0.0,0.0,0.0,0.0,0.0,0.0
627024000,626872000,0.10532318,0.10551396,0.20780236,1.1241591,1.1246936,1.0857451,0.0,0.0,0.0,0.0,0.0,0.0,0.0,12.452685,0.0,0.0,0.0,0.0,0.0025113034,0.0025113034,0.0025039145,0.002501914,1.0000159,1.0000159,1.0,0.0,0.0,0.0,0.0,0.0,0.0
627032000,626880000,0.10532318,0.10551396,0.20780236,1.1241591,1.1246936,1.0857451,0.0,0.0,0.0,0.0,0.0,0.0,0.0,12.452685,0.0,0.0,0.0,0.0,0.0025113034,0.0025113034,0.0025039145,0.002501914,1.0000159,1.0000159,1.0,0.0,0.0,0.0,0.0,0.0,0.0
627048000,626896000,0.10532318,0.10551396,0.20780236,1.1241591,1.1246936,1.0857451,0.0,0.0,0.0,0.0,0.0,0.0,0.0,12.452685,0.0,0.0,0.0,0.0,0.0025113265,0.0025113265,0.0025039497,0.0025019234,1.000016,1.000016,1.0,0.0,0.0,0.0,0.0,0.0,0.0
627056000,626904000,0.10532318,0.10551396,0.20780236,1.1241591,1.1246936,1.0857451,0.0,0.0,0.0,0.0,0.0,0.0,0.0,12.452685,0.0,0.0,0.0,0.0,0.0025113265,0.0025113265,0.0025039497,0.0025019234,1.000016,1.000016,1.0,0.0,0.0,0.0,0.0,0.0,0.0
627064000,626912000,0.10532318,0.10551396,0.20780236,1.1241591,1.1246936,1.0857451,0.0,0.0,0.0,0.0,0.0,0.0,0.0,12.452685,0.0,0.0,0.0,0.0,0.0025113265,0.0025113265,0.0025039497,0.0025019234,1.000016,1.000016,1.0,0.0,0.0,0.0,0.0,0.0,0.0
627072000,626920000,0.10532318,0.10551396,0.20780236,1.1241591,1.1246936,1.0857451,0.0,0.0,0.0,0.0,0.0,0.0,0.0,12.453883,0.0,0.0,0.0,0.0,0.0025113265,0.0025113265,0.0025039497,0.0025019234,1.000016,1.000016,1.0,0.0,0.0,0.0,0.0,0.0,0.0
627088000,626936000,0.10532318,0.10551396,0.20780236,1.1241591,1.1246936,1.0857451,0.0,0.0,0.0,0.0,0.0,0.0,0.0,12.453883,0.0,0.0,0.0,0.0,0.0025113265,0.0025113265,0.0025039497,0.0025019234,1.0000161,1.0000161,1.0,0.0,0.0,0.0,0.0,0.0,0.0
627096000,626944000,0.10532318,0.10551396,0.20780236,1.1241591,1.1246936,1.0857451,0.0,0.0,0.0,0.0,0.0,0.0,0.0,12.453883,0.0,0.0,0.0,0.0,0.0025113265,0.0025113265,0.0025039497,0.0025019234,1.0000161,1.0000161,1.0,0.0,0.0,0.0,0.0,0.0,0.0
627104000,626952000,0.10532318,0.10551396,0.20780236,1.1241591,1.1246936,1.0857451,0.0,0.0,0.0,0.0,0.0,0.0,0.0,12.453883,0.0,0.0,0.0,0.0,0.0025113265,0.0025113265,0.0025039497,0.0025019234,1.0000161,1.0000161,1.0,0.0,0.0,0.0,0.0,0.0,0.0
627112000,626960000,0.10532318,0.10551396,0.20780236,1.1241591,1.1246936,1.0857451,0.0,0.0,0.0,0.0,0.0,0.0,0.0,12.453883,0.0,0.0,0.0,0.0,0.0025113265,0.0025113265,0.0025039497,0.0025019234,1.0000161,1.0000161,1.0,0.0,0.0,0.0,0.0,0.0,0.0
627128000,626976000,0.10532318,0.10551396,0.20780236,1.1241591,1.1246936,1.0857451,0.0,0.0,0.0,0.0,0.0,0.0,0.0,12.454728,0.0,0.0,0.0,0.0,0.0025113537,0.0025113537,0.0025039848,0.0025019338,1.0000162,1.0000162,1.0,0.0,0.0,0.0,0.0,0.0,0.0
627136000,626984000,0.10532318,0.10551396,0.20780236,1.1241591,1.1246936,1.0857451,0.0,0.0,0.0,0.0,0.0,0.0,0.0,12.454728,0.0,0.0,0.0,0.0,0.0025113537,0.0025113537,0.0025039848,0.0025019338,1.0000162,1.0000162,1.0,0.0,0.0,0.0,0.0,0.0,0.0
627144000,626992000,0.10532318,0.10551396,0.20780236,1.1241591,1.1246936,1.0857451,0.0,0.0,0.0,0.0,0.0,0.0,0.0,12.454728,0.0,0.0,0.0,0.0,0.0025113537,0.0025113537,0.0025039848,0.0025019338,1.0000162,1.0000162,1.0,0.0,0.0,0.0,0.0,0.0,0.0
627152000,627000000,0.10532318,0.10551396,0.20780236,1.1241591,1.1246936,1.0857451,0.0,0.0,0.0,0.0,0.0,0.0,0.0,12.454728,0.0,0.0,0.0,0.0,0.0025113537,0.0025113537,0.0025039848,0.0025019338,1.0000162,1.0000162,1.0,0.0,0.0,0.0,0.0,0.0,0.0
627168000,627016000,0.10532318,0.10551396,0.20780236,1.1241591,1.1246936,1.0857451,0.0,0.0,0.0,0.0,0.0,0.0,0.0,12.454728,0.0,0.0,0.0,0.0,0.0025113537,0.0025113537,0.0025039848,0.0025019338,1.0000163,1.0000163,1.0,0.0,0.0,0.0,0.0,0.0,0.0
627176000,627024000,0.10532318,0.10551396,0.20780236,1.1241591,1.1246936,1.0857451,0.0,0.0,0.0,0.0,0.0,0.0,0.0,12.454728,0.0,0.0,0.0,0.0,0.0025113537,0.0025113537,0.0025039848,0.0025019338,1.0000163,1.0000163,1.0,0.0,0.0,0.0,0.0,0.0,0.0
627184000,627032000,0.10532318,0.10551396,0.20780236,1.1241591,1.1246936,1.0857451,0.0,0.0,0.0,0.0,0.0,0.0,0.0,12.454728,0.0,0.0,0.0,0.0,0.0025113537,0.0025113537,0.0025039848,0.0025019338,1.0000163,1.0000163,1.0,0.0,0.0,0.0,0.0,0.0,0.0
627192000,627040000,0.10532318,0.10551396,0.20780236,1.1241591,1.1246936,1.0857451,0.0,0.0,0.0,0.0,0.0,0.0,0.0,12.454728,0.0,0.0,0.0,0.0,0.0025113807,0.0025113807,0.002504022,0.0025019431,1.0000163,1.0000163,1.0,0.0,0.0,0.0,0.0,0.0,0.0
627208000,627056000,0.10532318,0.10551396,0.20780236,1.1241591,1.1246936,1.0857451,0.0,0.0,0.0,0.0,0.0,0.0,0.0,12.456329,0.0,0.0,0.0,0.0,0.0025113807,0.0025113807,0.002504022,0.0025019431,1.0000165,1.0000165,1.0,0.0,0.0,0.0,0.0,0.0,0.0
627216000,627064000,0.10532649,0.10551731,0.20780313,1.1244425,1.124978,1.0858244,0.0,0.0,0.0,0.0,0.0,0.0,0.0,12.456329,0.0,0.0,0.0,0.0,0.0025113807,0.0025113807,0.002504022,0.0025019431,1.0000151,1.0000151,1.0,0.0,0.0,0.0,0.0,0.0,0.0
627224000,627072000,0.10532649,0.10551731,0.20780313,1.1244425,1.124978,1.0858244,0.0,0.0,0.0,0.0,0.0,0.0,0.0,12.456329,0.0,0.0,0.0,0.0,0.0025113807,0.0025113807,0.002504022,0.0025019431,1.0000151,1.0000151,1.0,0.0,0.0,0.0,0.0,0.0,0.0
627232000,627080000,0.10532649,0.10551731,0.20780313,1.1244425,1.124978,1.0858244,0.0,0.0,0.0,0.0,0.0,0.0,0.0,12.456329,0.0,0.0,0.0,0.0,0.0025113807,0.0025113807,0.002504022,0.0025019431,1.0000151,1.0000153,1.0,0.0,0.0,0.0,0.0,0.0,0.0
627248000,627096000,0.10532649,0.10551731,0.20780313,1.1244425,1.124978,1.0858244,0.0,0.0,0.0,0.0,0.0,0.0,0.0,12.456329,0.0,0.0,0.0,0.0,0.0025113807,0.0025113807,0.002504022,0.0025019431,1.0000153,1.0000153,1.0,0.0,0.0,0.0,0.0,0.0,0.0
627256000,627104000,0.10532649,0.10551731,0.20780313,1.1244425,1.124978,1.0858244,0.0,0.0,0.0,0.0,0.0,0.0,0.0,12.456329,0.0,0.0,0.0,0.0,0.0025113807,0.0025113807,0.002504022,0.0025019431,1.0000153,1.0000153,1.0,0.0,0.0,0.0,0.0,0.0,0.0
627264000,627112000,0.10532649,0.10551731,0.20780313,1.1244425,1.124978,1.0858244,0.0,0.0,0.0,0.0,0.0,0.0,0.0,12.456329,0.0,0.0,0.0,0.0,0.0025112648,0.0025112648,0.0025038542,0.0025018991,1.0000153,1.0000153,1.0,0.0,0.0,0.0,0.0,0.0,0.0
627272000,627120000,0.10532649,0.10551731,0.20780313,1.1244425,1.124978,1.0858244,0.0,0.0,0.0,0.0,0.0,0.0,0.0,12.449933,0.0,0.0,0.0,0.0,0.0025112648,0.0025112648,0.0025038542,0.0025018991,1.0000153,1.0000154,1.0,0.0,0.0,0.0,0.0,0.0,0.0
627288000,627136000,0.10532649,0.10551731,0.20780313,1.1244425,1.124978,1.0858244,0.0,0.0,0.0,0.0,0.0,0.0,0.0,12.449933,0.0,0.0,0.0,0.0,0.0025112648,0.0025112648,0.0025038542,0.0025018991,1.0000154,1.0000154,1.0,0.0,0.0,0.0,0.0,0.0,0.0
627296000,627144000,0.10532649,0.10551731,0.20780313,1.1244425,1.124978,1.0858244,0.0,0.0,0.0,0.0,0.0,0.0,0.0,12.449933,0.0,0.0,0.0,0.0,0.0025112648,0.0025112648,0.0025038542,0.0025018991,1.0000154,1.0000154,1.0,0.0,0.0,0.0,0.0,0.0,0.0
627304000,627152000,0.10532649,0.10551731,0.20780313,1.1244425,1.124978,1.0858244,0.0,0.0,0.0,0.0,0.0,0.0,0.0,12.449933,0.0,0.0,0.0,0.0,0.0025112648,0.0025112648,0.0025038542,0.0025018991,1.0000154,1.0000154,1.0,0.0,0.0,0.0,0.0,0.0,0.0
627312000,627160000,0.10532649,0.10551731,0.20780313,1.1244425,1.124978,1.0858244,0.0,0.0,0.0,0.0,0.0,0.0,0.0,12.449933,0.0,0.0,0.0,0.0,0.0025112648,0.0025112648,0.0025038542,0.0025018991,1.0000155,1.0000155,1.0,0.0,0.0,0.0,0.0,0.0,0.0
627328000,627176000,0.10532649,0.10551731,0.20780313,1.1244425,1.124978,1.0858244,0.0,0.0,0.0,0.0,0.0,0.0,0.0,12.449933,0.0,0.0,0.0,0.0,0.0025112648,0.0025112648,0.0025038542,0.0025018991,1.0000156,1.0000155,1.0,0.0,0.0,0.0,0.0,0.0,0.0
627336000,627184000,0.10532649,0.10551731,0.20780313,1.1244425,1.124978,1.0858244,0.0,0.0,0.0,0.0,0.0,0.0,0.0,12.449933,0.0,0.0,0.0,0.0,0.0025112906,0.0025112906,0.0025038908,0.00250191,1.0000156,1.0000155,1.0,0.0,0.0,0.0,0.0,0.0,0.0
627344000,627192000,0.10532649,0.10551731,0.20780313,1.1244425,1.124978,1.0858244,0.0,0.0,0.0,0.0,0.0,0.0,0.0,12.451458,0.0,0.0,0.0,0.0,0.0025112906,0.0025112906,0.0025038908,0.00250191,1.0000156,1.0000155,1.0,0.0,0.0,0.0,0.0,0.0,0.0
627352000,627200000,0.10532649,0.10551731,0.20780313,1.1244425,1.124978,1.0858244,0.0,0.0,0.0,0.0,0.0,0.0,0.0,12.451458,0.0,0.0,0.0,0.0,0.0025112906,0.0025112906,0.0025038908,0.00250191,1.0000156,1.0000156,1.0,0.0,0.0,0.0,0.0,0.0,0.0
627368000,627216000,0.10532649,0.10551731,0.20780313,1.1244425,1.124978,1.0858244,0.0,0.0,0.0,0.0,0.0,0.0,0.0,12.451458,0.0,0.0,0.0,0.0,0.0025112906,0.0025112906,0.0025038908,0.00250191,1.0000157,1.0000156,1.0,0.0,0.0,0.0,0.0,0.0,0.0
627376000,627224000,0.10532649,0.10551731,0.20780313,1.1244425,1.124978,1.0858244,0.0,0.0,0.0,0.0,0.0,0.0,0.0,12.451458,0.0,0.0,0.0,0.0,0.0025112906,0.0025112906,0.0025038908,0.00250191,1.0000157,1.0000156,1.0,0.0,0.0,0.0,0.0,0.0,0.0
627384000,627232000,0.10532649,0.10551731,0.20780313,1.1244425,1.124978,1.0858244,0.0,0.0,0.0,0.0,0.0,0.0,0.0,12.451458,0.0,0.0,0.0,0.0,0.0025112906,0.0025112906,0.0025038908,0.00250191,1.0000157,1.0000156,1.0,0.0,0.0,0.0,0.0,0.0,0.0
627392000,627240000,0.10532649,0.10551731,0.20780313,1.1244425,1.124978,1.0858244,0.0,0.0,0.0,0.0,0.0,0.0,0.0,12.451458,0.0,0.0,0.0,0.0,0.0025112906,0.0025112906,0.0025038908,0.00250191,1.0000157,1.0000157,1.0,0.0,0.0,0.0,0.0,0.0,0.0
627408000,627256000,0.10532649,0.10551731,0.20780313,1.1244425,1.124978,1.0858244,0.0,0.0,0.0,0.0,0.0,0.0,0.0,12.451458,0.0,0.0,0.0,0.0,0.0025113178,0.0025113178,0.002503932,0.0025019203,1.0000159,1.0000159,1.0,0.0,0.0,0.0,0.0,0.0,0.0
627416000,627264000,0.10532649,0.10551731,0.20780313,1.1244425,1.124978,1.0858244,0.0,0.0,0.0,0.0,0.0,0.0,0.0,12.453004,0.0,0.0,0.0,0.0,0.0025113178,0.0025113178,0.002503932,0.0025019203,1.0000159,1.0000159,1.0,0.0,0.0,0.0,0.0,0.0,0.0
627424000,627272000,0.10532649,0.10551731,0.20780313,1.1244425,1.124978,1.0858244,0.0,0.0,0.0,0.0,0.0,0.0,0.0,12.453004,0.0,0.0,0.0,0.0,0.0025113178,0.0025113178,0.002503932,0.0025019203,1.0000159,1.0000159,1.0,0.0,0.0,0.0,0.0,0.0,0.0
627432000,627280000,0.10532649,0.10551731,0.20780313,1.1244425,1.124978,1.0858244,0.0,0.0,0.0,0.0,0.0,0.0,0.0,12.453004,0.0,0.0,0.0,0.0,0.0025113178,0.0025113178,0.002503932,0.0025019203,1.0000159,1.000016,1.0,0.0,0.0,0.0,0.0,0.0,0.0
627448000,627296000,0.10532649,0.10551731,0.20780313,1.1244425,1.124978,1.0858244,0.0,0.0,0.0,0.0,0.0,0.0,0.0,12.453004,0.0,0.0,0.0,0.0,0.0025113178,0.0025113178,0.002503932,0.0025019203,1.000016,1.000016,1.0,0.0,0.0,0.0,0.0,0.0,0.0
627456000,627304000,0.10532649,0.10551731,0.20780313,1.1244425,1.124978,1.0858244,0.0,0.0,0.0,0.0,0.0,0.0,0.0,12.453004,0.0,0.0,0.0,0.0,0.0025113178,0.0025113178,0.002503932,0.0025019203,1.000016,1.000016,1.0,0.0,0.0,0.0,0.0,0.0,0.0
627464000,627312000,0.10532649,0.10551731,0.20780313,1.1244425,1.124978,1.0858244,0.0,0.0,0.0,0.0,0.0,0.0,0.0,12.453004,0.0,0.0,0.0,0.0,0.0025113178,0.0025113178,0.002503932,0.0025019203,1.000016,1.000016,1.0,0.0,0.0,0.0,0.0,0.0,0.0
627472000,627320000,0.10532649,0.10551731,0.20780313,1.1244425,1.124978,1.0858244,0.0,0.0,0.0,0.0,0.0,0.0,0.0,12.453004,0.0,0.0,0.0,0.0,0.0025113178,0.0025113178,0.002503932,0.0025019203,1.000016,1.0000161,1.0,0.0,0.0,0.0,0.0,0.0,0.0
627488000,627336000,0.10532649,0.10551731,0.20780313,1.1244425,1.124978,1.0858244,0.0,0.0,0.0,0.0,0.0,0.0,0.0,12.45457,0.0,0.0,0.0,0.0,0.002511347,0.002511347,0.002503972,0.0025019303,1.0000161,1.0000161,1.0,0.0,0.0,0.0,0.0,0.0,0.0
627496000,627344000,0.10532649,0.10551731,0.20780313,1.1244425,1.124978,1.0858244,0.0,0.0,0.0,0.0,0.0,0.0,0.0,12.45457,0.0,0.0,0.0,0.0,0.002511347,0.002511347,0.002503972,0.0025019303,1.0000161,1.0000161,1.0,0.0,0.0,0.0,0.0,0.0,0.0
627504000,627352000,0.10532649,0.10551731,0.20780313,1.1244425,1.124978,1.0858244,0.0,0.0,0.0,0.0,0.0,0.0,0.0,12.45457,0.0,0.0,0.0,0.0,0.002511347,0.002511347,0.002503972,0.0025019303,1.0000161,1.0000162,1.0,0.0,0.0,0.0,0.0,0.0,0.0
627512000,627360000,0.10532649,0.10551731,0.20780313,1.1244425,1.124978,1.0858244,0.0,0.0,0.0,0.0,0.0,0.0,0.0,12.45457,0.0,0.0,0.0,0.0,0.002511347,0.002511347,0.002503972,0.0025019303,1.0000162,1.0000162,1.0,0.0,0.0,0.0,0.0,0.0,0.0
627528000,627376000,0.10532649,0.10551731,0.20780313,1.1244425,1.124978,1.0858244,0.0,0.0,0.0,0.0,0.0,0.0,0.0,12.45457,0.0,0.0,0.0,0.0,0.002511347,0.002511347,0.002503972,0.0025019303,1.0000162,1.0000162,1.0,0.0,0.0,0.0,0.0,0.0,0.0
627536000,627384000,0.10532649,0.10551731,0.20780313,1.1244425,1.124978,1.0858244,0.0,0.0,0.0,0.0,0.0,0.0,0.0,12.45457,0.0,0.0,0.0,0.0,0.002511347,0.002511347,0.002503972,0.0025019303,1.0000162,1.0000162,1.0,0.0,0.0,0.0,0.0,0.0,0.0
627544000,627392000,0.10532649,0.10551731,0.20780313,1.1244425,1.124978,1.0858244,0.0,0.0,0.0,0.0,0.0,0.0,0.0,12.45457,0.0,0.0,0.0,0.0,0.002511347,0.002511347,0.002503972,0.0025019303,1.0000162,1.0000163,1.0,0.0,0.0,0.0,0.0,0.0,0.0
627552000,627400000,0.10532649,0.10551731,0.20780313,1.1244425,1.124978,1.0858244,0.0,0.0,0.0,0.0,0.0,0.0,0.0,12.45457,0.0,0.0,0.0,0.0,0.002511377,0.002511377,0.002504011,0.0025019413,1.0000163,1.0000163,1.0,0.0,0.0,0.0,0.0,0.0,0.0
627568000,627416000,0.10532649,0.10551731,0.20780313,1.1244425,1.124978,1.0858244,0.0,0.0,0.0,0.0,0.0,0.0,0.0,12.456156,0.0,0.0,0.0,0.0,0.002511377,0.002511377,0.002504011,0.0025019413,1.0000163,1.0000163,1.0,0.0,0.0,0.0,0.0,0.0,0.0
627576000,627424000,0.10532649,0.10551731,0.20780313,1.1244425,1.124978,1.0858244,0.0,0.0,0.0,0.0,0.0,0.0,0.0,12.456156,0.0,0.0,0.0,0.0,0.002511377,0.002511377,0.002504011,0.0025019413,1.0000163,1.0000163,1.0,0.0,0.0,0.0,0.0,0.0,0.0
627584000,627432000,0.10532649,0.10551731,0.20780313,1.1244425,1.124978,1.0858244,0.0,0.0,0.0,0.0,0.0,0.0,0.0,12.456156,0.0,0.0,0.0,0.0,0.002511377,0.002511377,0.002504011,0.0025019413,1.0000163,1.0000165,1.0,0.0,0.0,0.0,0.0,0.0,0.0
627592000,627440000,0.10532649,0.10551731,0.20780313,1.1244425,1.124978,1.0858244,0.0,0.0,0.0,0.0,0.0,0.0,0.0,12.456156,0.0,0.0,0.0,0.0,0.002511377,0.002511377,0.002504011,0.0025019413,1.0000165,1.0000165,1.0,0.0,0.0,0.0,0.0,0.0,0.0
627608000,627456000,0.10532649,0.10551731,0.20780313,1.1244425,1.124978,1.0858244,0.0,0.0,0.0,0.0,0.0,0.0,0.0,12.456156,0.0,0.0,0.0,0.0,0.002511377,0.002511377,0.002504011,0.0025019413,1.0000165,1.0000165,1.0,0.0,0.0,0.0,0.0,0.0,0.0
627616000,627464000,0.10534192,0.105529465,0.20782055,1.1246862,1.1252145,1.0864725,0.0,0.0,0.0,0.0,0.0,0.0,0.0,12.456156,0.0,0.0,0.0,0.0,0.002511377,0.002511377,0.002504011,0.0025019413,1.0000151,1.0000153,1.0,0.0,0.0,0.0,0.0,0.0,0.0
627624000,627472000,0.10534192,0.105529465,0.20782055,1.1246862,1.1252145,1.0864725,0.0,0.0,0.0,0.0,0.0,0.0,0.0,12.456156,0.0,0.0,0.0,0.0,0.0025112666,0.0025112666,0.0025038468,0.0025018994,1.0000153,1.0000153,1.0,0.0,0.0,0.0,0.0,0.0,0.0
627632000,627480000,0.10534192,0.105529465,0.20782055,1.1246862,1.1252145,1.0864725,0.0,0.0,0.0,0.0,0.0,0.0,0.0,12.449753,0.0,0.0,0.0,0.0,0.0025112666,0.0025112666,0.0025038468,0.0025018994,1.0000153,1.0000153,1.0,0.0,0.0,0.0,0.0,0.0,0.0
627648000,627496000,0.10534192,0.105529465,0.20782055,1.1246862,1.1252145,1.0864725,0.0,0.0,0.0,0.0,0.0,0.0,0.0,12.449753,0.0,0.0,0.0,0.0,0.0025112666,0.0025112666,0.0025038468,0.0025018994,1.0000153,1.0000154,1.0,0.0,0.0,0.0,0.0,0.0,0.0
627656000,627504000,0.10534192,0.105529465,0.20782055,1.1246862,1.1252145,1.0864725,0.0,0.0,0.0,0.0,0.0,0.0,0.0,12.449753,0.0,0.0,0.0,0.0,0.0025112666,0.0025112666,0.0025038468,0.0025018994,1.0000153,1.0000154,1.0,0.0,0.0,0.0,0.0,0.0,0.0
627664000,627512000,0.10534192,0.105529465,0.20782055,1.1246862,1.1252145,1.0864725,0.0,0.0,0.0,0.0,0.0,0.0,0.0,12.449753,0.0,0.0,0.0,0.0,0.0025112666,0.0025112666,0.0025038468,0.0025018994,1.0000154,1.0000154,1.0,0.0,0.0,0.0,0.0,0.0,0.0
627672000,627520000,0.10534192,0.105529465,0.20782055,1.1246862,1.1252145,1.0864725,0.0,0.0,0.0,0.0,0.0,0.0,0.0,12.449753,0.0,0.0,0.0,0.0,0.0025112666,0.0025112666,0.0025038468,0.0025018994,1.0000154,1.0000154,1.0,0.0,0.0,0.0,0.0,0.0,0.0
627688000,627536000,0.10534192,0.105529465,0.20782055,1.1246862,1.1252145,1.0864725,0.0,0.0,0.0,0.0,0.0,0.0,0.0,12.449753,0.0,0.0,0.0,0.0,0.0025112666,0.0025112666,0.0025038468,0.0025018994,1.0000154,1.0000155,1.0,0.0,0.0,0.0,0.0,0.0,0.0
627696000,627544000,0.10534192,0.105529465,0.20782055,1.1246862,1.1252145,1.0864725,0.0,0.0,0.0,0.0,0.0,0.0,0.0,12.450905,0.0,0.0,0.0,0.0,0.0025112964,0.0025112964,0.0025038864,0.0025019082,1.0000155,1.0000155,1.0,0.0,0.0,0.0,0.0,0.0,0.0
627704000,627552000,0.10534192,0.105529465,0.20782055,1.1246862,1.1252145,1.0864725,0.0,0.0,0.0,0.0,0.0,0.0,0.0,12.450905,0.0,0.0,0.0,0.0,0.0025112964,0.0025112964,0.0025038864,0.0025019082,1.0000156,1.0000155,1.0,0.0,0.0,0.0,0.0,0.0,0.0
627712000,627560000,0.10534192,0.105529465,0.20782055,1.1246862,1.1252145,1.0864725,0.0,0.0,0.0,0.0,0.0,0.0,0.0,12.450905,0.0,0.0,0.0,0.0,0.0025112964,0.0025112964,0.0025038864,0.0025019082,1.0000156,1.0000155,1.0,0.0,0.0,0.0,0.0,0.0,0.0
627728000,627576000,0.10534192,0.105529465,0.20782055,1.1246862,1.1252145,1.0864725,0.0,0.0,0.0,0.0,0.0,0.0,0.0,12.450905,0.0,0.0,0.0,0.0,0.0025112964,0.0025112964,0.0025038864,0.0025019082,1.0000156,1.0000156,1.0,0.0,0.0,0.0,0.0,0.0,0.0
627736000,627584000,0.10534192,0.105529465,0.20782055,1.1246862,1.1252145,1.0864725,0.0,0.0,0.0,0.0,0.0,0.0,0.0,12.450905,0.0,0.0,0.0,0.0,0.0025112964,0.0025112964,0.0025038864,0.0025019082,1.0000156,1.0000156,1.0,0.0,0.0,0.0,0.0,0.0,0.0
627744000,627592000,0.10534192,0.105529465,0.20782055,1.1246862,1.1252145,1.0864725,0.0,0.0,0.0,0.0,0.0,0.0,0.0,12.450905,0.0,0.0,0.0,0.0,0.0025112964,0.0025112964,0.0025038864,0.0025019082,1.0000157,1.0000156,1.0,0.0,0.0,0.0,0.0,0.0,0.0
627752000,627600000,0.10534192,0.105529465,0.20782055,1.1246862,1.1252145,1.0864725,0.0,0.0,0.0,0.0,0.0,0.0,0.0,12.451716,0.0,0.0,0.0,0.0,0.0025112964,0.0025112964,0.0025038864,0.0025019082,1.0000157,1.0000156,1.0,0.0,0.0,0.0,0.0,0.0,0.0
627768000,627616000,0.10534192,0.105529465,0.20782055,1.1246862,1.1252145,1.0864725,0.0,0.0,0.0,0.0,0.0,0.0,0.0,12.451716,0.0,0.0,0.0,0.0,0.0025113244,0.0025113244,0.0025039276,0.002501918,1.0000157,1.0000157,1.0,0.0,0.0,0.0,0.0,0.0,0.0
