timestamp,unallocated_torque[0],unallocated_torque[1],unallocated_torque[2],unallocated_thrust[0],unallocated_thrust[1],unallocated_thrust[2],handled_motor_failure_mask,torque_setpoint_achieved,thrust_setpoint_achieved,actuator_saturation[0],actuator_saturation[1],actuator_saturation[2],actuator_saturation[3],actuator_saturation[4],actuator_saturation[5],actuator_saturation[6],actuator_saturation[7],actuator_saturation[8],actuator_saturation[9],actuator_saturation[10],actuator_saturation[11],actuator_saturation[12],actuator_saturation[13],actuator_saturation[14],actuator_saturation[15]
625252000,-0.0011121727,0.0,0.0006593657,0.0,0.0,-1.1641532e-10,0,0,1,0,0,-2,0,2,2,2,2,2,2,2,2,2,2,2,2
625260000,0.00013064162,-7.2759576e-11,0.00054341886,0.0,0.0,-1.1641532e-10,0,1,1,0,0,0,-2,2,2,2,2,2,2,2,2,2,2,2,2
625452000,0.00017875899,-0.0010805267,-5.14242e-05,0.0,0.0,-1.1641532e-10,0,0,1,-2,0,-2,0,2,2,2,2,2,2,2,2,2,2,2,2
625652000,9.063876e-05,-0.00023921975,-0.00028537586,0.0,0.0,-1.1641532e-10,0,1,1,-2,0,-2,0,2,2,2,2,2,2,2,2,2,2,2,2
625852000,0.003757368,-0.0026322843,-7.558856e-05,0.0,0.0,0.0,0,0,1,-2,0,-2,0,2,2,2,2,2,2,2,2,2,2,2,2
626052000,0.00048076434,-0.0019984082,0.00030811405,0.0,0.0,-1.1641532e-10,0,0,1,-2,0,-2,0,2,2,2,2,2,2,2,2,2,2,2,2
626252000,-0.0016453618,-0.00038741156,-0.00040541193,0.0,0.0,-2.3283064e-10,0,0,1,-2,0,-2,0,2,2,2,2,2,2,2,2,2,2,2,2
626452000,-1.6298145e-09,9.313226e-10,-1.5133992e-09,0.0,0.0,-3.7252903e-09,0,1,1,0,0,0,0,2,2,2,2,2,2,2,2,2,2,2,2
626652000,2.3283064e-09,9.313226e-10,-4.3364707e-09,0.0,0.0,-7.450581e-09,0,1,1,0,0,0,0,2,2,2,2,2,2,2,2,2,2,2,2
626852000,5.966285e-10,3.259629e-09,7.043127e-09,0.0,0.0,7.450581e-09,0,1,1,0,0,0,0,2,2,2,2,2,2,2,2,2,2,2,2
627052000,9.080395e-09,-7.450581e-09,1.1641532e-10,0.0,0.0,0.0,0,1,1,0,0,0,0,2,2,2,2,2,2,2,2,2,2,2,2
627252000,4.656613e-09,6.9849193e-10,-8.6206455e-09,0.0,0.0,0.0,0,1,1,0,0,0,0,2,2,2,2,2,2,2,2,2,2,2,2
627452000,1.7229468e-08,1.094304e-08,-9.371433e-09,0.0,0.0,-2.9802322e-08,0,1,1,0,0,0,0,2,2,2,2,2,2,2,2,2,2,2,2
627652000,2.514571e-08,1.5832484e-08,4.598405e-09,0.0,0.0,0.0,0,1,1,0,0,0,0,2,2,2,2,2,2,2,2,2,2,2,2
627852000,2.8405339e-08,-4.8894435e-09,8.294592e-09,0.0,0.0,-2.9802322e-08,0,1,1,0,0,0,0,2,2,2,2,2,2,2,2,2,2,2,2
628052000,6.519258e-09,-4.8894435e-09,-1.1314114e-09,0.0,0.0,-2.9802322e-08,0,1,1,0,0,0,0,2,2,2,2,2,2,2,2,2,2,2,2
628252000,2.2351742e-08,6.0535967e-09,1.1368684e-08,0.0,0.0,-2.9802322e-08,0,1,1,0,0,0,0,2,2,2,2,2,2,2,2,2,2,2,2
628452000,-1.7695129e-08,-9.313226e-10,-1.4959369e-08,0.0,0.0,0.0,0,1,1,0,0,0,0,2,2,2,2,2,2,2,2,2,2,2,2
628652000,4.8894435e-08,4.656613e-09,-1.7578714e-08,0.0,0.0,0.0,0,1,1,0,0,0,0,2,2,2,2,2,2,2,2,2,2,2,2
628852000,2.4796464e-08,1.5366822e-08,-7.3341653e-09,0.0,0.0,0.0,0,1,1,0,0,0,0,2,2,2,2,2,2,2,2,2,2,2,2
629052000,-1.1175871e-08,2.7939677e-08,2.6950147e-08,0.0,0.0,0.0,0,1,1,0,0,0,0,2,2,2,2,2,2,2,2,2,2,2,2
629252000,-2.7415808e-08,-1.0244548e-08,-1.6239937e-08,0.0,0.0,0.0,0,1,1,0,0,0,0,2,2,2,2,2,2,2,2,2,2,2,2
629452000,1.6298145e-09,-3.3527613e-08,-3.8999133e-09,0.0,0.0,-5.9604645e-08,0,1,1,0,0,0,0,2,2,2,2,2,2,2,2,2,2,2,2
629652000,-1.0593794e-08,6.9849193e-09,3.927562e-08,0.0,0.0,-5.9604645e-08,0,1,1,0,0,0,0,2,2,2,2,2,2,2,2,2,2,2,2
629852000,6.2864274e-09,4.749745e-08,-3.0267984e-09,0.0,0.0,0.0,0,1,1,0,0,0,0,2,2,2,2,2,2,2,2,2,2,2,2
630052000,7.52043e-08,-3.608875e-08,8.483767e-09,0.0,0.0,-5.9604645e-08,0,1,1,0,0,0,0,2,2,2,2,2,2,2,2,2,2,2,2
630252000,8.8475645e-09,1.1175871e-08,-8.454663e-09,0.0,0.0,-5.9604645e-08,0,1,1,0,0,0,0,2,2,2,2,2,2,2,2,2,2,2,2
630452000,2.7939677e-09,-3.7718564e-08,-1.1204975e-08,0.0,0.0,0.0,0,1,1,0,0,0,0,2,2,2,2,2,2,2,2,2,2,2,2
630652000,1.2572855e-08,-1.0011718e-08,-8.381903e-09,0.0,0.0,0.0,0,1,1,0,0,0,0,2,2,2,2,2,2,2,2,2,2,2,2
630852000,-7.4272975e-08,-1.1059456e-08,1.8451829e-08,0.0,0.0,0.0,0,1,1,0,0,0,0,2,2,2,2,2,2,2,2,2,2,2,2
631052000,4.1734893e-08,-5.820766e-11,8.265488e-09,0.0,0.0,-5.9604645e-08,0,1,1,0,0,0,0,2,2,2,2,2,2,2,2,2,2,2,2
631252000,-5.3085387e-08,0.0,3.882451e-08,0.0,0.0,-5.9604645e-08,0,1,1,0,0,0,0,2,2,2,2,2,2,2,2,2,2,2,2
631452000,-2.561137e-08,-3.3527613e-08,3.3294782e-08,0.0,0.0,-5.9604645e-08,0,1,1,0,0,0,0,2,2,2,2,2,2,2,2,2,2,2,2
631652000,-3.259629e-09,-5.7392754e-08,1.1110387e-08,0.0,0.0,0.0,0,1,1,0,0,0,0,2,2,2,2,2,2,2,2,2,2,2,2
631852000,8.731149e-08,-1.071021e-08,2.73576e-08,0.0,0.0,0.0,0,1,1,0,0,0,0,2,2,2,2,2,2,2,2,2,2,2,2
632052000,-1.6676495e-08,2.363231e-08,-4.1676685e-08,0.0,0.0,0.0,0,1,1,0,0,0,0,2,2,2,2,2,2,2,2,2,2,2,2
632252000,-1.9557774e-08,-1.9557774e-08,6.4028427e-10,0.0,0.0,-5.9604645e-08,0,1,1,0,0,0,0,2,2,2,2,2,2,2,2,2,2,2,2
632452000,-3.4691766e-08,2.3748726e-08,-2.7706847e-08,0.0,0.0,0.0,0,1,1,0,0,0,0,2,2,2,2,2,2,2,2,2,2,2,2
632652000,-3.608875e-09,7.4214768e-09,-1.5555997e-08,0.0,0.0,-5.9604645e-08,0,1,1,0,0,0,0,2,2,2,2,2,2,2,2,2,2,2,2
632852000,-4.2375177e-08,1.6763806e-08,-1.5215846e-09,0.0,0.0,-5.9604645e-08,0,1,1,0,0,0,0,2,2,2,2,2,2,2,2,2,2,2,2
633052000,2.7474016e-08,-4.656613e-10,7.858034e-09,0.0,0.0,-5.9604645e-08,0,1,1,0,0,0,0,2,2,2,2,2,2,2,2,2,2,2,2
633252000,-1.1641532e-08,-5.4424163e-09,-2.8696377e-08,0.0,0.0,-5.9604645e-08,0,1,1,0,0,0,0,2,2,2,2,2,2,2,2,2,2,2,2
633452000,-4.202593e-08,-4.301546e-08,9.429641e-09,0.0,0.0,0.0,0,1,1,0,0,0,0,2,2,2,2,2,2,2,2,2,2,2,2
633652000,3.6525307e-08,8.1490725e-10,-2.9802322e-08,0.0,0.0,0.0,0,1,1,0,0,0,0,2,2,2,2,2,2,2,2,2,2,2,2
633852000,-3.632158e-08,-2.7008355e-08,-3.6670826e-09,0.0,0.0,-5.9604645e-08,0,1,1,0,0,0,0,2,2,2,2,2,2,2,2,2,2,2,2
634052000,-2.0954758e-08,9.080395e-09,4.820322e-09,0.0,0.0,0.0,0,1,1,0,0,0,0,2,2,2,2,2,2,2,2,2,2,2,2
634252000,-5.8556907e-08,-2.7939677e-09,-5.8789738e-09,0.0,0.0,0.0,0,1,1,0,0,0,0,2,2,2,2,2,2,2,2,2,2,2,2
634452000,3.213063e-08,3.0297088e-08,-2.825982e-08,0.0,0.0,-5.9604645e-08,0,1,1,0,0,0,0,2,2,2,2,2,2,2,2,2,2,2,2
634652000,2.8871e-08,-2.514571e-08,1.8422725e-08,0.0,0.0,-5.9604645e-08,0,1,1,0,0,0,0,2,2,2,2,2,2,2,2,2,2,2,2
634852000,-6.5076165e-08,2.386514e-09,-7.508788e-09,0.0,0.0,-5.9604645e-08,0,1,1,0,0,0,0,2,2,2,2,2,2,2,2,2,2,2,2
635052000,-4.4703484e-08,6.0535967e-09,1.8510036e-08,0.0,0.0,-5.9604645e-08,0,1,1,0,0,0,0,2,2,2,2,2,2,2,2,2,2,2,2
635252000,1.7811544e-08,1.3504177e-08,3.0267984e-09,0.0,0.0,0.0,0,1,1,0,0,0,0,2,2,2,2,2,2,2,2,2,2,2,2
635452000,1.816079e-08,-2.7939677e-09,2.0023435e-08,0.0,0.0,0.0,0,1,1,0,0,0,0,2,2,2,2,2,2,2,2,2,2,2,2
635652000,2.3748726e-08,-1.8626451e-09,-9.313226e-09,0.0,0.0,-5.9604645e-08,0,1,1,0,0,0,0,2,2,2,2,2,2,2,2,2,2,2,2
635852000,-2.3941539e-08,-4.8894435e-09,-7.450581e-09,0.0,0.0,0.0,0,1,1,0,0,0,0,2,2,2,2,2,2,2,2,2,2,2,2
636052000,4.4237822e-08,-3.3178367e-08,-2.0489097e-08,0.0,0.0,5.9604645e-08,0,1,1,0,0,0,0,2,2,2,2,2,2,2,2,2,2,2,2
636252000,-3.3993274e-08,1.6763806e-08,2.9802322e-08,0.0,0.0,-5.9604645e-08,0,1,1,0,0,0,0,2,2,2,2,2,2,2,2,2,2,2,2
636452000,3.4458935e-08,-9.793439e-09,1.1175871e-08,0.0,0.0,0.0,0,1,1,0,0,0,0,2,2,2,2,2,2,2,2,2,2,2,2
636652000,1.839362e-08,0.0,-1.1175871e-08,0.0,0.0,0.0,0,1,1,0,0,0,0,2,2,2,2,2,2,2,2,2,2,2,2
636852000,-3.1897798e-08,-1.5832484e-08,2.0489097e-08,0.0,0.0,-5.9604645e-08,0,1,1,0,0,0,0,2,2,2,2,2,2,2,2,2,2,2,2
637052000,4.284084e-08,-8.8475645e-09,-1.3038516e-08,0.0,0.0,0.0,0,1,1,0,0,0,0,2,2,2,2,2,2,2,2,2,2,2,2
637252000,-5.122274e-08,2.6950147e-08,2.3283064e-08,0.0,0.0,0.0,0,1,1,0,0,0,0,2,2,2,2,2,2,2,2,2,2,2,2
637452000,2.6077032e-08,-2.142042e-08,7.450581e-09,0.0,0.0,-5.9604645e-08,0,1,1,0,0,0,0,2,2,2,2,2,2,2,2,2,2,2,2
637652000,-3.259629e-08,3.958121e-09,-2.8871e-08,0.0,0.0,-5.9604645e-08,0,1,1,0,0,0,0,2,2,2,2,2,2,2,2,2,2,2,2
637852000,-2.0489097e-08,-3.632158e-08,4.4237822e-09,0.0,0.0,0.0,0,1,1,0,0,0,0,2,2,2,2,2,2,2,2,2,2,2,2
638052000,1.6763806e-08,2.514571e-08,3.236346e-08,0.0,0.0,0.0,0,1,1,0,0,0,0,2,2,2,2,2,2,2,2,2,2,2,2
638252000,-4.703179e-08,5.5879354e-09,-9.080395e-09,0.0,0.0,0.0,0,1,1,0,0,0,0,2,2,2,2,2,2,2,2,2,2,2,2
638452000,2.2584572e-08,3.7252903e-09,-3.632158e-08,0.0,0.0,0.0,0,1,1,0,0,0,0,2,2,2,2,2,2,2,2,2,2,2,2
638652000,2.3515895e-08,-3.632158e-08,1.0244548e-08,0.0,0.0,-5.9604645e-08,0,1,1,0,0,0,0,2,2,2,2,2,2,2,2,2,2,2,2
638852000,2.6077032e-08,-2.7939677e-08,-3.7252903e-09,0.0,0.0,0.0,0,1,1,0,0,0,0,2,2,2,2,2,2,2,2,2,2,2,2
639052000,4.4703484e-08,9.313226e-10,-9.778887e-09,0.0,0.0,0.0,0,1,1,0,0,0,0,2,2,2,2,2,2,2,2,2,2,2,2
639252000,-2.7008355e-08,-3.7252903e-09,-3.7252903e-08,0.0,0.0,0.0,0,1,1,0,0,0,0,2,2,2,2,2,2,2,2,2,2,2,2
639452000,-6.193295e-08,-3.2014214e-09,1.5832484e-08,0.0,0.0,0.0,0,1,1,0,0,0,0,2,2,2,2,2,2,2,2,2,2,2,2
639652000,-1.9557774e-08,2.4214387e-08,-1.8626451e-08,0.0,0.0,0.0,0,1,1,0,0,0,0,2,2,2,2,2,2,2,2,2,2,2,2
639852000,6.3795596e-08,2.4214387e-08,0.0,0.0,0.0,-5.9604645e-08,0,1,1,0,0,0,0,2,2,2,2,2,2,2,2,2,2,2,2
640052000,1.8626451e-09,1.7695129e-08,-1.1175871e-08,0.0,0.0,0.0,0,1,1,0,0,0,0,2,2,2,2,2,2,2,2,2,2,2,2
640252000,1.3969839e-08,-2.2351742e-08,4.656613e-09,0.0,0.0,-5.9604645e-08,0,1,1,0,0,0,0,2,2,2,2,2,2,2,2,2,2,2,2
640452000,4.4703484e-08,5.122274e-09,-2.4447218e-09,0.0,0.0,-5.9604645e-08,0,1,1,0,0,0,0,2,2,2,2,2,2,2,2,2,2,2,2
640652000,-1.1175871e-08,5.2619725e-08,-1.4901161e-08,0.0,0.0,-5.9604645e-08,0,1,1,0,0,0,0,2,2,2,2,2,2,2,2,2,2,2,2
640852000,2.4214387e-08,8.381903e-09,-1.9557774e-08,0.0,0.0,0.0,0,1,1,0,0,0,0,2,2,2,2,2,2,2,2,2,2,2,2
641052000,1.8626451e-09,6.519258e-09,-3.1664968e-08,0.0,0.0,0.0,0,1,1,0,0,0,0,2,2,2,2,2,2,2,2,2,2,2,2
641252000,1.3038516e-08,3.8184226e-08,-9.313226e-09,0.0,0.0,0.0,0,1,1,0,0,0,0,2,2,2,2,2,2,2,2,2,2,2,2
641452000,0.0,-1.44355e-08,9.313226e-09,0.0,0.0,-5.9604645e-08,0,1,1,0,0,0,0,2,2,2,2,2,2,2,2,2,2,2,2
641652000,3.9115548e-08,7.450581e-09,1.4901161e-08,0.0,0.0,0.0,0,1,1,0,0,0,0,2,2,2,2,2,2,2,2,2,2,2,2
641852000,1.1874363e-08,3.7252903e-08,-2.9802322e-08,0.0,0.0,-5.9604645e-08,0,1,1,0,0,0,0,2,2,2,2,2,2,2,2,2,2,2,2
642052000,2.6077032e-08,2.142042e-08,1.1175871e-08,0.0,0.0,0.0,0,1,1,0,0,0,0,2,2,2,2,2,2,2,2,2,2,2,2
642252000,9.126961e-08,-1.6763806e-08,4.656613e-09,0.0,0.0,-5.9604645e-08,0,1,1,0,0,0,0,2,2,2,2,2,2,2,2,2,2,2,2
642452000,-4.1443855e-08,9.313226e-09,-8.381903e-09,0.0,0.0,-5.9604645e-08,0,1,1,0,0,0,0,2,2,2,2,2,2,2,2,2,2,2,2
642652000,4.377216e-08,-3.4458935e-08,2.9802322e-08,0.0,0.0,0.0,0,1,1,0,0,0,0,2,2,2,2,2,2,2,2,2,2,2,2
642852000,5.401671e-08,-2.6309863e-08,-2.4214387e-08,0.0,0.0,0.0,0,1,1,0,0,0,0,2,2,2,2,2,2,2,2,2,2,2,2
643052000,4.4703484e-08,-2.8871e-08,-4.656613e-09,0.0,0.0,-5.9604645e-08,0,1,1,0,0,0,0,2,2,2,2,2,2,2,2,2,2,2,2
643252000,7.450581e-09,2.2351742e-08,-3.3294782e-08,0.0,0.0,-5.9604645e-08,0,1,1,0,0,0,0,2,2,2,2,2,2,2,2,2,2,2,2
643452000,2.7008355e-08,-4.0978193e-08,-3.8649887e-08,0.0,0.0,0.0,0,1,1,0,0,0,0,2,2,2,2,2,2,2,2,2,2,2,2
643652000,1.1175871e-08,3.0966476e-08,-1.6763806e-08,0.0,0.0,-5.9604645e-08,0,1,1,0,0,0,0,2,2,2,2,2,2,2,2,2,2,2,2
643852000,-3.8184226e-08,2.2351742e-08,1.9557774e-08,0.0,0.0,-5.9604645e-08,0,1,1,0,0,0,0,2,2,2,2,2,2,2,2,2,2,2,2
644052000,-1.7229468e-08,-1.6298145e-09,-1.3969839e-08,0.0,0.0,0.0,0,1,1,0,0,0,0,2,2,2,2,2,2,2,2,2,2,2,2
644252000,1.21071935e-08,1.3154931e-08,5.2154064e-08,0.0,0.0,-5.9604645e-08,0,1,1,0,0,0,0,2,2,2,2,2,2,2,2,2,2,2,2
644452000,7.916242e-08,1.3038516e-08,1.8626451e-09,0.0,0.0,0.0,0,1,1,0,0,0,0,2,2,2,2,2,2,2,2,2,2,2,2
644652000,6.61239e-08,0.0,2.7939677e-08,0.0,0.0,0.0,0,1,1,0,0,0,0,2,2,2,2,2,2,2,2,2,2,2,2
644852000,1.9557774e-08,-2.142042e-08,-1.8626451e-09,0.0,0.0,-5.9604645e-08,0,1,1,0,0,0,0,2,2,2,2,2,2,2,2,2,2,2,2
645052000,3.632158e-08,0.0,-1.0244548e-08,0.0,0.0,-5.9604645e-08,0,1,1,0,0,0,0,2,2,2,2,2,2,2,2,2,2,2,2
645252000,-1.0151416e-07,-9.313226e-09,9.313226e-09,0.0,0.0,0.0,0,1,1,0,0,0,0,2,2,2,2,2,2,2,2,2,2,2,2
645452000,5.401671e-08,1.9557774e-08,0.0,0.0,0.0,0.0,0,1,1,0,0,0,0,2,2,2,2,2,2,2,2,2,2,2,2
645652000,6.239861e-08,-1.8626451e-08,-6.0535967e-09,0.0,0.0,0.0,0,1,1,0,0,0,0,2,2,2,2,2,2,2,2,2,2,2,2
645852000,-2.96277e-08,1.5832484e-08,1.3038516e-08,0.0,0.0,0.0,0,1,1,0,0,0,0,2,2,2,2,2,2,2,2,2,2,2,2
646052000,-6.0535967e-09,2.4214387e-08,-2.2351742e-08,0.0,0.0,0.0,0,1,1,0,0,0,0,2,2,2,2,2,2,2,2,2,2,2,2
646252000,3.061723e-08,-1.3038516e-08,-9.778887e-09,0.0,0.0,0.0,0,1,1,0,0,0,0,2,2,2,2,2,2,2,2,2,2,2,2
646452000,3.7252903e-08,3.7252903e-09,-1.8626451e-09,0.0,0.0,-5.9604645e-08,0,1,1,0,0,0,0,2,2,2,2,2,2,2,2,2,2,2,2
646652000,1.0151416e-07,3.7252903e-09,-1.8626451e-09,0.0,0.0,-5.9604645e-08,0,1,1,0,0,0,0,2,2,2,2,2,2,2,2,2,2,2,2
646852000,-1.0011718e-07,2.3283064e-10,-1.4901161e-08,0.0,0.0,-1.1920929e-07,0,1,1,0,0,0,0,2,2,2,2,2,2,2,2,2,2,2,2
647052000,-2.7939677e-08,2.7939677e-08,-3.1664968e-08,0.0,0.0,0.0,0,1,1,0,0,0,0,2,2,2,2,2,2,2,2,2,2,2,2
647252000,4.5634806e-08,-1.8626451e-09,1.7695129e-08,0.0,0.0,0.0,0,1,1,0,0,0,0,2,2,2,2,2,2,2,2,2,2,2,2
647452000,-6.938353e-08,-3.8184226e-08,2.7939677e-08,0.0,0.0,-5.9604645e-08,0,1,1,0,0,0,0,2,2,2,2,2,2,2,2,2,2,2,2
647652000,5.2154064e-08,5.5879354e-09,-2.7939677e-08,0.0,0.0,-5.9604645e-08,0,1,1,0,0,0,0,2,2,2,2,2,2,2,2,2,2,2,2
647852000,-8.288771e-08,3.0733645e-08,-1.4901161e-08,0.0,0.0,0.0,0,1,1,0,0,0,0,2,2,2,2,2,2,2,2,2,2,2,2
648052000,1.0424992e-07,1.5366822e-08,1.7462298e-08,0.0,0.0,-5.9604645e-08,0,1,1,0,0,0,0,2,2,2,2,2,2,2,2,2,2,2,2
648252000,5.3085387e-08,2.4214387e-08,-1.3038516e-08,0.0,0.0,0.0,0,1,1,0,0,0,0,2,2,2,2,2,2,2,2,2,2,2,2
648452000,-1.8859282e-08,6.519258e-09,1.9557774e-08,0.0,0.0,0.0,0,1,1,0,0,0,0,2,2,2,2,2,2,2,2,2,2,2,2
648652000,6.170012e-08,3.4226105e-08,-1.2572855e-08,0.0,0.0,0.0,0,1,1,0,0,0,0,2,2,2,2,2,2,2,2,2,2,2,2
648852000,5.9837475e-08,-2.514571e-08,2.3283064e-09,0.0,0.0,0.0,0,1,1,0,0,0,0,2,2,2,2,2,2,2,2,2,2,2,2
649052000,-2.0489097e-08,-1.3737008e-08,-3.3527613e-08,0.0,0.0,-5.9604645e-08,0,1,1,0,0,0,0,2,2,2,2,2,2,2,2,2,2,2,2
649252000,9.2666596e-08,2.7008355e-08,-7.450581e-09,0.0,0.0,0.0,0,1,1,0,0,0,0,2,2,2,2,2,2,2,2,2,2,2,2
649452000,2.7474016e-08,-1.8859282e-08,9.313226e-09,0.0,0.0,0.0,0,1,1,0,0,0,0,2,2,2,2,2,2,2,2,2,2,2,2
649652000,7.916242e-09,2.3646862e-08,4.656613e-09,0.0,0.0,0.0,0,1,1,0,0,0,0,2,2,2,2,2,2,2,2,2,2,2,2
649852000,5.075708e-08,1.9790605e-08,3.7252903e-09,0.0,0.0,0.0,0,1,1,0,0,0,0,2,2,2,2,2,2,2,2,2,2,2,2
650052000,8.195639e-08,-2.2351742e-08,1.7695129e-08,0.0,0.0,-5.9604645e-08,0,1,1,0,0,0,0,2,2,2,2,2,2,2,2,2,2,2,2
650252000,-2.142042e-08,2.0256266e-08,-2.2351742e-08,0.0,0.0,-5.9604645e-08,0,1,1,0,0,0,0,2,2,2,2,2,2,2,2,2,2,2,2
650452000,-7.625204e-09,3.306195e-08,-3.259629e-09,0.0,0.0,-5.9604645e-08,0,1,1,0,0,0,0,2,2,2,2,2,2,2,2,2,2,2,2
650652000,-3.6903657e-08,2.0256266e-08,-1.1641532e-08,0.0,0.0,-5.9604645e-08,0,1,1,0,0,0,0,2,2,2,2,2,2,2,2,2,2,2,2
650852000,-3.3993274e-08,2.863817e-08,1.5599653e-08,0.0,0.0,-5.9604645e-08,0,1,1,0,0,0,0,2,2,2,2,2,2,2,2,2,2,2,2
651052000,-3.1199306e-08,1.1641532e-08,2.0489097e-08,0.0,0.0,0.0,0,1,1,0,0,0,0,2,2,2,2,2,2,2,2,2,2,2,2
651252000,2.0954758e-08,1.3969839e-08,3.678724e-08,0.0,0.0,0.0,0,1,1,0,0,0,0,2,2,2,2,2,2,2,2,2,2,2,2
651452000,3.2247044e-08,-1.8626451e-09,-3.1432137e-08,0.0,0.0,0.0,0,1,1,0,0,0,0,2,2,2,2,2,2,2,2,2,2,2,2
651652000,-1.5832484e-08,-4.656613e-09,-5.2386895e-09,0.0,0.0,0.0,0,1,1,0,0,0,0,2,2,2,2,2,2,2,2,2,2,2,2
651852000,2.3283064e-09,3.213063e-08,1.4784746e-08,0.0,0.0,0.0,0,1,1,0,0,0,0,2,2,2,2,2,2,2,2,2,2,2,2
652052000,-5.2619725e-08,-1.1175871e-08,2.3050234e-08,0.0,0.0,-5.9604645e-08,0,1,1,0,0,0,0,2,2,2,2,2,2,2,2,2,2,2,2
652252000,2.4680048e-08,6.519258e-09,-1.0593794e-08,0.0,0.0,-5.9604645e-08,0,1,1,0,0,0,0,2,2,2,2,2,2,2,2,2,2,2,2
652452000,2.7939677e-08,-1.3969839e-08,2.8405339e-08,0.0,0.0,0.0,0,1,1,0,0,0,0,2,2,2,2,2,2,2,2,2,2,2,2
652652000,1.1787051e-08,9.313226e-09,-3.0267984e-09,0.0,0.0,0.0,0,1,1,0,0,0,0,2,2,2,2,2,2,2,2,2,2,2,2
652852000,-6.581831e-08,1.3969839e-08,-2.1565938e-08,0.0,0.0,-5.9604645e-08,0,1,1,0,0,0,0,2,2,2,2,2,2,2,2,2,2,2,2
653052000,7.962808e-08,4.656613e-10,3.259629e-09,0.0,0.0,0.0,0,1,1,0,0,0,0,2,2,2,2,2,2,2,2,2,2,2,2
653252000,-5.7043508e-08,-1.8422725e-08,3.3993274e-08,0.0,0.0,0.0,0,1,1,0,0,0,0,2,2,2,2,2,2,2,2,2,2,2,2
653452000,-4.4237822e-08,1.839362e-08,-7.2759576e-09,0.0,0.0,0.0,0,1,1,0,0,0,0,2,2,2,2,2,2,2,2,2,2,2,2
653652000,3.434252e-08,-1.6763806e-08,-4.2608008e-08,0.0,0.0,-5.9604645e-08,0,1,1,0,0,0,0,2,2,2,2,2,2,2,2,2,2,2,2
653852000,-6.635673e-08,-1.9092113e-08,2.1856977e-08,0.0,0.0,-5.9604645e-08,0,1,1,0,0,0,0,2,2,2,2,2,2,2,2,2,2,2,2
654052000,7.21775e-09,-1.0244548e-08,2.20316e-08,0.0,0.0,-5.9604645e-08,0,1,1,0,0,0,0,2,2,2,2,2,2,2,2,2,2,2,2
654252000,-9.452924e-08,4.656613e-10,2.165325e-08,0.0,0.0,-5.9604645e-08,0,1,1,0,0,0,0,2,2,2,2,2,2,2,2,2,2,2,2
654452000,-3.934838e-08,-1.1961674e-08,3.9028237e-08,0.0,0.0,-5.9604645e-08,0,1,1,0,0,0,0,2,2,2,2,2,2,2,2,2,2,2,2
654652000,-3.306195e-08,0.0,-2.1740561e-08,0.0,0.0,-5.9604645e-08,0,1,1,0,0,0,0,2,2,2,2,2,2,2,2,2,2,2,2
654852000,-7.194467e-08,1.2572855e-08,-1.9790605e-09,0.0,0.0,-5.9604645e-08,0,1,1,0,0,0,0,2,2,2,2,2,2,2,2,2,2,2,2
655052000,-9.313226e-09,-1.21071935e-08,4.8894435e-09,0.0,0.0,-5.9604645e-08,0,1,1,0,0,0,0,2,2,2,2,2,2,2,2,2,2,2,2
655252000,8.381903e-09,3.9697625e-08,-3.608875e-09,0.0,0.0,0.0,0,1,1,0,0,0,0,2,2,2,2,2,2,2,2,2,2,2,2
655452000,-6.9849193e-09,1.2834789e-08,-5.180482e-09,0.0,0.0,-5.9604645e-08,0,1,1,0,0,0,0,2,2,2,2,2,2,2,2,2,2,2,2
655652000,-2.514571e-08,-4.1443855e-08,1.1001248e-08,0.0,0.0,-5.9604645e-08,0,1,1,0,0,0,0,2,2,2,2,2,2,2,2,2,2,2,2
655852000,-2.7939677e-09,5.122274e-09,2.3981556e-08,0.0,0.0,0.0,0,1,1,0,0,0,0,2,2,2,2,2,2,2,2,2,2,2,2
656052000,2.7939677e-08,9.778887e-09,-1.5483238e-08,0.0,0.0,-5.9604645e-08,0,1,1,0,0,0,0,2,2,2,2,2,2,2,2,2,2,2,2
656252000,4.7089998e-08,8.381903e-09,2.9744115e-08,0.0,0.0,-5.9604645e-08,0,1,1,0,0,0,0,2,2,2,2,2,2,2,2,2,2,2,2
656452000,-3.3294782e-08,1.792796e-08,2.142042e-08,0.0,0.0,0.0,0,1,1,0,0,0,0,2,2,2,2,2,2,2,2,2,2,2,2
656652000,-7.566996e-08,1.1175871e-08,-3.3178367e-09,0.0,0.0,0.0,0,1,1,0,0,0,0,2,2,2,2,2,2,2,2,2,2,2,2
656852000,-4.4703484e-08,-4.5401976e-09,-2.6193447e-09,0.0,0.0,0.0,0,1,1,0,0,0,0,2,2,2,2,2,2,2,2,2,2,2,2
657052000,1.0128133e-08,1.3271347e-08,-6.1081664e-09,0.0,0.0,-5.9604645e-08,0,1,1,0,0,0,0,2,2,2,2,2,2,2,2,2,2,2,2
657252000,2.3050234e-08,-7.683411e-09,1.9790605e-09,0.0,0.0,-5.9604645e-08,0,1,1,0,0,0,0,2,2,2,2,2,2,2,2,2,2,2,2
657452000,-2.142042e-08,-1.2572855e-08,6.0535967e-09,0.0,0.0,-5.9604645e-08,0,1,1,0,0,0,0,2,2,2,2,2,2,2,2,2,2,2,2
657652000,-3.7252903e-08,-8.1490725e-09,-1.7113052e-08,0.0,0.0,0.0,0,1,1,0,0,0,0,2,2,2,2,2,2,2,2,2,2,2,2
657852000,-2.9918738e-08,-3.7252903e-09,9.458745e-09,0.0,0.0,0.0,0,1,1,0,0,0,0,2,2,2,2,2,2,2,2,2,2,2,2
658052000,-4.1676685e-08,-2.2118911e-08,3.1432137e-09,0.0,0.0,0.0,0,1,1,0,0,0,0,2,2,2,2,2,2,2,2,2,2,2,2
658252000,3.3411197e-08,7.3341653e-09,4.307367e-09,0.0,0.0,-5.9604645e-08,0,1,1,0,0,0,0,2,2,2,2,2,2,2,2,2,2,2,2
658452000,2.6309863e-08,1.853914e-08,1.2456439e-08,0.0,0.0,-5.9604645e-08,0,1,1,0,0,0,0,2,2,2,2,2,2,2,2,2,2,2,2
658652000,-5.3376425e-08,1.7229468e-08,-2.3166649e-08,0.0,0.0,-5.9604645e-08,0,1,1,0,0,0,0,2,2,2,2,2,2,2,2,2,2,2,2
658852000,-3.259629e-08,3.4924597e-09,-2.5771442e-08,0.0,0.0,0.0,0,1,1,0,0,0,0,2,2,2,2,2,2,2,2,2,2,2,2
659052000,3.236346e-08,-3.7252903e-09,-3.1595846e-09,0.0,0.0,-5.9604645e-08,0,1,1,0,0,0,0,2,2,2,2,2,2,2,2,2,2,2,2
659252000,2.0954758e-09,-1.0477379e-08,2.4898327e-08,0.0,0.0,-5.9604645e-08,0,1,1,0,0,0,0,2,2,2,2,2,2,2,2,2,2,2,2
659452000,1.5017577e-08,-2.561137e-09,-7.21775e-09,0.0,0.0,-5.9604645e-08,0,1,1,0,0,0,0,2,2,2,2,2,2,2,2,2,2,2,2
659652000,3.3760443e-09,1.071021e-08,-6.9849193e-10,0.0,0.0,0.0,0,1,1,0,0,0,0,2,2,2,2,2,2,2,2,2,2,2,2
659852000,-2.910383e-08,9.313226e-09,-2.8026989e-08,0.0,0.0,-5.9604645e-08,0,1,1,0,0,0,0,2,2,2,2,2,2,2,2,2,2,2,2
660052000,4.4237822e-08,-1.3504177e-08,2.7299393e-08,0.0,0.0,0.0,0,1,1,0,0,0,0,2,2,2,2,2,2,2,2,2,2,2,2
660252000,-3.0267984e-08,1.8626451e-09,2.4680048e-08,0.0,0.0,0.0,0,1,1,0,0,0,0,2,2,2,2,2,2,2,2,2,2,2,2
660452000,2.0023435e-08,3.1664968e-08,1.9324943e-08,0.0,0.0,0.0,0,1,1,0,0,0,0,2,2,2,2,2,2,2,2,2,2,2,2
660652000,-2.7939677e-08,0.0,1.5716068e-09,0.0,0.0,-5.9604645e-08,0,1,1,0,0,0,0,2,2,2,2,2,2,2,2,2,2,2,2
660852000,-2.3283064e-09,4.0978193e-08,-1.2922101e-08,0.0,0.0,0.0,0,1,1,0,0,0,0,2,2,2,2,2,2,2,2,2,2,2,2
661052000,4.5780325e-08,-1.1175871e-08,-2.1071173e-08,0.0,0.0,-5.9604645e-08,0,1,1,0,0,0,0,2,2,2,2,2,2,2,2,2,2,2,2
661252000,-3.4924597e-08,3.7252903e-09,1.169974e-08,0.0,0.0,-1.1920929e-07,0,1,1,0,0,0,0,2,2,2,2,2,2,2,2,2,2,2,2
661452000,3.7252903e-09,-2.9802322e-08,1.6640115e-08,0.0,0.0,-5.9604645e-08,0,1,1,0,0,0,0,2,2,2,2,2,2,2,2,2,2,2,2
661652000,4.6100467e-08,1.21071935e-08,-2.0489097e-08,0.0,0.0,-5.9604645e-08,0,1,1,0,0,0,0,2,2,2,2,2,2,2,2,2,2,2,2
661852000,9.406358e-08,1.8626451e-08,1.071021e-08,0.0,0.0,-5.9604645e-08,0,1,1,0,0,0,0,2,2,2,2,2,2,2,2,2,2,2,2
662052000,-2.0489097e-08,2.6077032e-08,-5.122274e-09,0.0,0.0,-5.9604645e-08,0,1,1,0,0,0,0,2,2,2,2,2,2,2,2,2,2,2,2
662252000,1.1175871e-08,-3.585592e-08,1.3596946e-08,0.0,0.0,-5.9604645e-08,0,1,1,0,0,0,0,2,2,2,2,2,2,2,2,2,2,2,2
662452000,-3.9231963e-08,4.656613e-10,-1.0360964e-08,0.0,0.0,-5.9604645e-08,0,1,1,0,0,0,0,2,2,2,2,2,2,2,2,2,2,2,2
662652000,2.0023435e-08,-4.656613e-09,1.3562385e-08,0.0,0.0,0.0,0,1,1,0,0,0,0,2,2,2,2,2,2,2,2,2,2,2,2
662852000,-1.8982973e-08,-4.02797e-08,-1.2718374e-08,0.0,0.0,-5.9604645e-08,0,1,1,0,0,0,0,2,2,2,2,2,2,2,2,2,2,2,2
663052000,5.122274e-09,3.1432137e-08,1.1175871e-08,0.0,0.0,0.0,0,1,1,0,0,0,0,2,2,2,2,2,2,2,2,2,2,2,2
663252000,-1.9324943e-08,-1.8626451e-08,2.3530447e-08,0.0,0.0,0.0,0,1,1,0,0,0,0,2,2,2,2,2,2,2,2,2,2,2,2
663452000,-3.9115548e-08,2.2351742e-08,0.0,0.0,0.0,0.0,0,1,1,0,0,0,0,2,2,2,2,2,2,2,2,2,2,2,2
663652000,7.450581e-09,-1.4901161e-08,0.0,0.0,0.0,-2.9802322e-08,0,1,1,0,0,0,0,2,2,2,2,2,2,2,2,2,2,2,2
663852000,1.21071935e-08,0.0,3.7252903e-09,0.0,0.0,0.0,0,1,1,0,0,0,0,2,2,2,2,2,2,2,2,2,2,2,2
664052000,0.0,0.0,-2.3283064e-09,0.0,0.0,0.0,0,1,1,0,0,0,0,2,2,2,2,2,2,2,2,2,2,2,2
664252000,5.5879354e-09,7.450581e-09,3.7252903e-09,0.0,0.0,0.0,0,1,1,0,0,0,0,2,2,2,2,2,2,2,2,2,2,2,2
664452000,-1.8626451e-09,0.0,-4.656613e-09,0.0,0.0,-7.450581e-09,0,1,1,0,0,0,0,2,2,2,2,2,2,2,2,2,2,2,2
664652000,-0.01541918,-0.06545041,0.006027126,0.0,0.0,-1.5133992e-09,0,0,1,-2,0,-2,0,2,2,2,2,2,2,2,2,2,2,2,2
664852000,-0.015519285,-0.0670896,0.0062106554,0.0,0.0,-1.7462298e-09,0,0,1,-2,0,-2,0,2,2,2,2,2,2,2,2,2,2,2,2
665052000,-0.019534573,-0.07123164,0.007221053,0.0,0.0,-1.8626451e-09,0,0,1,-2,0,-2,0,2,2,2,2,2,2,2,2,2,2,2,2
665252000,-0.014384019,-0.06579578,0.0065640626,0.0,0.0,-1.7462298e-09,0,0,1,-2,0,-2,0,2,2,2,2,2,2,2,2,2,2,2,2
665452000,-0.016268851,-0.07152905,0.006781465,0.0,0.0,-1.7462298e-09,0,0,1,-2,0,-2,0,2,2,2,2,2,2,2,2,2,2,2,2
665652000,-0.019649617,-0.07466079,0.006517272,0.0,0.0,2.910383e-09,0,0,1,-2,0,-2,0,2,2,2,2,2,2,2,2,2,2,2,2
665852000,-0.016895652,-0.072591975,0.006734945,0.0,0.0,-1.5133992e-09,0,0,1,-2,0,-2,0,2,2,2,2,2,2,2,2,2,2,2,2
666052000,-0.013398972,-0.07136092,0.0061828326,0.0,0.0,-1.5133992e-09,0,0,1,-2,0,-2,0,2,2,2,2,2,2,2,2,2,2,2,2
666252000,-0.015507216,-0.06825735,0.0061319205,0.0,0.0,-1.7462298e-09,0,0,1,-2,0,-2,0,2,2,2,2,2,2,2,2,2,2,2,2
666452000,-0.014467777,-0.07091913,0.0062993825,0.0,0.0,-1.8626451e-09,0,0,1,-2,0,-2,0,2,2,2,2,2,2,2,2,2,2,2,2
666652000,1.1641532e-10,8.731149e-11,0.00024744135,0.0,0.0,-1.1641532e-10,0,1,1,0,0,-2,0,2,2,2,2,2,2,2,2,2,2,2,2
666852000,1.1641532e-10,7.2759576e-11,-5.820766e-11,0.0,0.0,-1.1641532e-10,0,1,1,0,0,0,0,2,2,2,2,2,2,2,2,2,2,2,2
667052000,0.0013421703,5.820766e-11,-0.00032736984,0.0,0.0,-1.1641532e-10,0,0,1,-2,0,0,0,2,2,2,2,2,2,2,2,2,2,2,2
667252000,-0.00546479,0.00052797666,-0.00049503066,0.0,0.0,-1.1641532e-10,0,0,1,0,-2,0,-2,2,2,2,2,2,2,2,2,2,2,2,2
