timestamp,roll,pitch,yaw,thrust_body[0],thrust_body[1],thrust_body[2],reset_integral
625256000,0.006625969,-0.012468138,1.9609928e-05,0.0,0.0,-0.001,0
625260000,0.0066807126,-0.0123777455,-0.00015187263,0.0,0.0,-0.001,0
625276000,0.007570962,-0.01230052,6.633997e-05,0.0,0.0,-0.001,0
625296000,0.007437585,-0.012546254,-0.00029999018,0.0,0.0,-0.001,0
625316000,0.0072247535,-0.013371363,4.673004e-05,0.0,0.0,-0.001,0
625336000,0.007938538,-0.013598927,-4.0471554e-05,0.0,0.0,-0.001,0
625356000,0.008872055,-0.014247897,0.00011098385,0.0,0.0,-0.001,0
625372000,0.008812634,-0.014222666,-6.592274e-05,0.0,0.0,-0.001,0
625396000,0.009112237,-0.0130973775,-0.00010681152,0.0,0.0,-0.001,0
625416000,0.009919551,-0.013347151,-8.094311e-05,0.0,0.0,-0.001,0
625436000,0.010194275,-0.013376202,-5.7578087e-05,0.0,0.0,-0.001,0
625456000,0.010088862,-0.013031835,9.471178e-05,0.0,0.0,-0.001,0
625476000,0.010512296,-0.013295093,-0.00014352798,0.0,0.0,-0.001,0
625492000,0.01094988,-0.013633378,5.507469e-05,0.0,0.0,-0.001,0
625516000,0.011357018,-0.012974305,7.927418e-06,0.0,0.0,-0.001,0
625536000,0.011012468,-0.01283121,-3.0875206e-05,0.0,0.0,-0.001,0
625556000,0.010814741,-0.01265501,0.00010305643,0.0,0.0,-0.001,0
625576000,0.011011488,-0.012628106,-0.0001527071,0.0,0.0,-0.001,0
625596000,0.009837089,-0.013829781,-9.5546246e-05,0.0,0.0,-0.001,0
625616000,0.0093362285,-0.014045553,-0.000121831894,0.0,0.0,-0.001,0
625636000,0.009363955,-0.013559157,-7.343292e-05,0.0,0.0,-0.001,0
625656000,0.009382712,-0.013789121,-0.00011640787,0.0,0.0,-0.001,0
625676000,0.00850881,-0.013677482,-0.00012558699,0.0,0.0,-0.001,0
625696000,0.00863505,-0.013859119,0.000112235546,0.0,0.0,-0.001,0
625716000,0.008932265,-0.013785894,-1.2516975e-06,0.0,0.0,-0.001,0
625736000,0.0094045,-0.013496073,-0.00022822618,0.0,0.0,-0.001,0
625756000,0.010191135,-0.013928081,-0.00021362305,0.0,0.0,-0.001,0
625772000,0.010407464,-0.014018026,-8.302927e-05,0.0,0.0,-0.001,0
625792000,0.010955368,-0.013445676,-0.00023198128,0.0,0.0,-0.001,0
625816000,0.009949587,-0.013429716,-2.336502e-05,0.0,0.0,-0.001,0
625836000,0.010142901,-0.013438101,0.000107228756,0.0,0.0,-0.001,0
625856000,0.010414369,-0.013113336,-2.0861626e-05,0.0,0.0,-0.001,0
625876000,0.009607217,-0.012976068,2.4616718e-05,0.0,0.0,-0.001,0
625896000,0.009115264,-0.012143332,-5.340576e-05,0.0,0.0,-0.001,0
625916000,0.008655809,-0.01228534,-1.835823e-05,0.0,0.0,-0.001,0
625936000,0.008441585,-0.012199674,7.7188015e-05,0.0,0.0,-0.001,0
625956000,0.009144784,-0.012775543,7.760525e-05,0.0,0.0,-0.001,0
625976000,0.009229847,-0.012928167,-5.799532e-05,0.0,0.0,-0.001,0
625992000,0.009365339,-0.012778655,8.010864e-05,0.0,0.0,-0.001,0
626016000,0.009410382,-0.012250081,0.00012433529,0.0,0.0,-0.001,0
626036000,0.00895885,-0.012913834,-5.2154064e-05,0.0,0.0,-0.001,0
626056000,0.008884357,-0.013410678,0.000118494034,0.0,0.0,-0.001,0
626076000,0.008367462,-0.013017367,-6.175041e-05,0.0,0.0,-0.001,0
626092000,0.0086476635,-0.013116016,-4.8816204e-05,0.0,0.0,-0.001,0
626116000,0.008365603,-0.013211304,0.0001026392,0.0,0.0,-0.001,0
626136000,0.008444871,-0.013106472,0.00021487474,0.0,0.0,-0.001,0
626156000,0.007948907,-0.012111812,-0.00012350082,0.0,0.0,-0.001,0
626172000,0.007247308,-0.011592357,-2.9206276e-05,0.0,0.0,-0.001,0
626196000,0.007762747,-0.011056992,-6.92606e-05,0.0,0.0,-0.001,0
626216000,0.0069730203,-0.010829768,0.0004506111,0.0,0.0,-0.001,0
626236000,0.006726689,-0.010752133,-0.000184834,0.0,0.0,-0.001,0
626256000,0.0068367757,-0.010956077,-0.00010806322,0.0,0.0,-0.001,0
626272000,0.028077576,-0.04111724,-0.0004518628,0.0,0.0,-0.007832671,0
626296000,0.027482063,-0.015395512,7.677078e-05,0.0,0.0,-0.010942974,0
626316000,0.022716383,-0.018387975,0.00034213066,0.0,0.0,-0.013899166,0
626336000,0.020397335,-0.01940795,0.00047147274,0.0,0.0,-0.016185122,0
626352000,0.021503737,-0.01851995,0.000102221966,0.0,0.0,-0.018363167,0
626376000,0.024809353,-0.01765991,-0.0001360178,0.0,0.0,-0.021355493,0
626396000,0.026913447,-0.017185532,-0.00018942356,0.0,0.0,-0.024989761,0
626416000,0.027284544,-0.016759906,0.00014436245,0.0,0.0,-0.02726244,0
626436000,0.024291307,-0.013213709,0.0006041527,0.0,0.0,-0.030845039,0
626456000,0.021386728,-0.014199437,0.00055241585,0.0,0.0,-0.033460084,0
626476000,0.018764025,-0.012359779,0.0003771782,0.0,0.0,-0.037164517,0
626496000,0.020460352,-0.012028029,0.00084739923,0.0,0.0,-0.039579395,0
626516000,0.017314801,-0.011886453,0.0011056662,0.0,0.0,-0.043359667,0
626536000,0.01770931,-0.014079725,0.00070136786,0.0,0.0,-0.045958064,0
626556000,0.015912602,-0.012702426,-4.464388e-05,0.0,0.0,-0.049589764,0
626572000,0.015610736,-0.0132392505,-0.00043809414,0.0,0.0,-0.052281108,0
626596000,0.013733973,-0.011421947,-0.0002603531,0.0,0.0,-0.05638034,0
626616000,0.013895843,-0.011449633,-6.80089e-05,0.0,0.0,-0.05942531,0
626636000,0.018902127,-0.007437902,0.00032794476,0.0,0.0,-0.06413604,0
626656000,0.016000519,-0.0096307555,0.00050485134,0.0,0.0,-0.06714408,0
626676000,0.01696576,-0.0075216116,0.001187861,0.0,0.0,-0.0718452,0
626696000,0.016853226,-0.0061409962,0.0011953712,0.0,0.0,-0.07484741,0
626712000,0.017316103,-0.007517786,0.0010451674,0.0,0.0,-0.07786809,0
626736000,0.018368242,-0.009537017,0.00094127655,0.0,0.0,-0.08292146,0
626756000,0.017634282,-0.008751152,0.0016230345,0.0,0.0,-0.08801445,0
626776000,0.018185174,-0.009830443,0.0018479228,0.0,0.0,-0.091627195,0
626792000,0.019452207,-0.009672113,0.0018800497,0.0,0.0,-0.09518032,0
626816000,0.020062745,-0.01052738,0.0017886758,0.0,0.0,-0.10036911,0
626836000,0.01844552,-0.009531653,0.0015262365,0.0,0.0,-0.10556673,0
626856000,0.017963365,-0.010268116,0.0018583536,0.0,0.0,-0.1090955,0
626872000,0.014707452,-0.013743672,0.0024975538,0.0,0.0,-0.11305028,0
626896000,0.013336322,-0.013594384,0.0032702684,0.0,0.0,-0.11876903,0
626912000,0.012462344,-0.014640899,0.0031855702,0.0,0.0,-0.122726396,0
626936000,0.010462024,-0.012856203,0.004144788,0.0,0.0,-0.12847193,0
626956000,0.013596413,-0.011606598,0.004071772,0.0,0.0,-0.13482414,0
626976000,0.015164002,-0.008062877,0.0035990477,0.0,0.0,-0.13890168,0
626992000,0.013055563,-0.009359049,0.0041151643,0.0,0.0,-0.1429647,0
627012000,0.009760594,-0.012406457,0.0043542385,0.0,0.0,-0.14910917,0
627036000,0.011563226,-0.013232398,0.0039849877,0.0,0.0,-0.15554349,0
627056000,0.011357842,-0.0154639445,0.004242003,0.0,0.0,-0.1598111,0
627076000,0.009553129,-0.017450452,0.0043663383,0.0,0.0,-0.16644436,0
627096000,0.008587146,-0.018439036,0.0048653483,0.0,0.0,-0.17093766,0
627116000,0.008669462,-0.014705138,0.00436759,0.0,0.0,-0.1777766,0
627136000,0.012448065,-0.01608485,0.004427254,0.0,0.0,-0.18238978,0
627156000,0.01255562,-0.013284333,0.0044047236,0.0,0.0,-0.1893685,0
627176000,0.0126830265,-0.015625652,0.004272878,0.0,0.0,-0.19399638,0
627196000,0.013597056,-0.012879623,0.00406301,0.0,0.0,-0.20103101,0
627216000,0.010557833,-0.013479615,0.00360322,0.0,0.0,-0.20581959,0
627236000,0.013559215,-0.01656454,0.0033240914,0.0,0.0,-0.21309909,0
627256000,0.015137245,-0.0147051355,0.0027216077,0.0,0.0,-0.21788655,0
627272000,0.0159122,-0.013367288,0.002675712,0.0,0.0,-0.22272712,0
627296000,0.016854657,-0.013504362,1.6272068e-05,0.0,0.0,-0.22989905,0
627316000,0.013444387,-0.0119781345,0.00011181831,0.0,0.0,-0.23721708,0
627336000,0.0149771115,-0.013600338,0.00014561415,0.0,0.0,-0.24235477,0
627356000,0.009844985,-0.009737588,8.970499e-05,0.0,0.0,-0.24979348,0
627372000,0.014586661,-0.007924316,-7.3850155e-05,0.0,0.0,-0.25470188,0
627396000,0.010575283,-0.0058677453,0.00012516975,0.0,0.0,-0.26264507,0
627416000,0.0115879085,-0.007870966,-3.8802624e-05,0.0,0.0,-0.26766935,0
627436000,0.008502986,-0.009943437,-3.0875206e-05,0.0,0.0,-0.27559885,0
627456000,0.007660608,-0.010152572,-4.5895576e-06,0.0,0.0,-0.28111684,0
627476000,0.009184029,-0.011695623,1.66893e-05,0.0,0.0,-0.28913864,0
627496000,0.010750853,-0.015097002,7.301569e-05,0.0,0.0,-0.29452682,0
627516000,0.012877919,-0.0148768,0.00010430813,0.0,0.0,-0.3030326,0
627532000,0.012429642,-0.0120882895,7.635355e-05,0.0,0.0,-0.30851924,0
627556000,0.0115790125,-0.012360694,-4.4226646e-05,0.0,0.0,-0.31652495,0
627572000,0.020807523,-0.013694864,-0.0001693964,0.0,0.0,-0.31881443,0
627596000,0.0215507,-0.016353833,-0.00018024445,0.0,0.0,-0.3204489,0
627616000,0.017845765,-0.018138407,-6.67572e-05,0.0,0.0,-0.32258976,0
627636000,0.018184232,-0.016462252,-3.8802624e-05,0.0,0.0,-0.3240605,0
627656000,0.017980557,-0.016786054,-0.00031125546,0.0,0.0,-0.326449,0
627676000,0.013402047,-0.017194608,-6.3836575e-05,0.0,0.0,-0.32792437,0
627692000,0.012904745,-0.01824275,-1.5437603e-05,0.0,0.0,-0.33060637,0
627716000,0.009597719,-0.017624628,0.0001180768,0.0,0.0,-0.3322269,0
627736000,0.00892176,-0.01698266,0.00021153688,0.0,0.0,-0.33472937,0
627756000,0.010890953,-0.019336313,0.000220716,0.0,0.0,-0.33629063,0
627776000,0.0116923135,-0.020203454,-0.0001193285,0.0,0.0,-0.33879113,0
627796000,0.013515387,-0.019331843,-4.0471554e-05,0.0,0.0,-0.3406538,0
627816000,0.011602407,-0.020110423,-0.0001322627,0.0,0.0,-0.3430923,0
627836000,0.015765626,-0.015625624,2.6285648e-05,0.0,0.0,-0.34455666,0
627856000,0.014265448,-0.015925266,0.0,0.0,0.0,-0.34724608,0
627876000,0.015149553,-0.015245417,7.802248e-05,0.0,0.0,-0.34867764,0
627896000,0.015067913,-0.0137753375,3.129244e-05,0.0,0.0,-0.35169885,0
627916000,0.009485201,-0.018830035,0.00013643503,0.0,0.0,-0.3533696,0
627936000,0.010356883,-0.016243245,3.796816e-05,0.0,0.0,-0.35605603,0
627952000,0.0114394035,-0.016858563,0.00016438961,0.0,0.0,-0.35781363,0
627976000,0.012914856,-0.015349363,0.00011014938,0.0,0.0,-0.36099276,0
627996000,0.015530029,-0.01803745,8.803606e-05,0.0,0.0,-0.36316216,0
628016000,0.016436042,-0.016628884,-0.0002707839,0.0,0.0,-0.36610478,0
628036000,0.009934703,-0.01630495,-8.511543e-05,0.0,0.0,-0.36795685,0
628056000,0.010611152,-0.013480508,-3.46303e-05,0.0,0.0,-0.37074268,0
628076000,0.010055474,-0.016632225,-3.33786e-05,0.0,0.0,-0.37224564,0
628096000,0.011492341,-0.019245094,7.677078e-05,0.0,0.0,-0.37529638,0
628112000,0.011876874,-0.020864936,0.00029331446,0.0,0.0,-0.37723413,0
628132000,0.012539694,-0.018501952,0.00013017654,0.0,0.0,-0.38035563,0
628156000,0.0139281675,-0.019151162,0.0001681447,0.0,0.0,-0.38216254,0
628176000,0.0133685,-0.017273173,0.00014144182,0.0,0.0,-0.38517374,0
628192000,0.010140501,-0.013966855,-7.5519085e-05,0.0,0.0,-0.38682303,0
628216000,0.011588164,-0.011050941,0.00016856194,0.0,0.0,-0.3901958,0
628236000,0.01484532,-0.013515978,-8.3863735e-05,0.0,0.0,-0.39210734,0
628256000,0.013239202,-0.013503952,-0.00014185905,0.0,0.0,-0.3959176,0
628272000,0.011217795,-0.012476003,-2.9623508e-05,0.0,0.0,-0.3974827,0
628296000,0.008396594,-0.012208736,-0.00021570921,0.0,0.0,-0.40082386,0
628312000,0.0097762225,-0.012489611,-0.00024992228,0.0,0.0,-0.40237966,0
628336000,0.013474434,-0.014383558,-2.3782253e-05,0.0,0.0,-0.40629947,0
628356000,0.010031174,-0.014673682,-0.00011307001,0.0,0.0,-0.40828273,0
628376000,0.009289526,-0.0138222035,-3.7550926e-05,0.0,0.0,-0.41186532,0
628392000,0.008750399,-0.014624701,5.5909157e-05,0.0,0.0,-0.4134767,0
628412000,0.013305137,-0.016143506,5.7160854e-05,0.0,0.0,-0.41733754,0
628432000,0.012176823,-0.015981307,-0.000103890896,0.0,0.0,-0.4190904,0
628456000,0.012540273,-0.010900233,-2.7537346e-05,0.0,0.0,-0.42325363,0
628476000,0.012247628,-0.013747171,-3.7550926e-06,0.0,0.0,-0.4252474,0
628496000,0.010390283,-0.015146755,4.0471554e-05,0.0,0.0,-0.4288929,0
628512000,0.00957495,-0.01407657,-0.0003091693,0.0,0.0,-0.4304236,0
628536000,0.007853554,-0.016757553,0.00024992228,0.0,0.0,-0.43484482,0
628556000,0.00042238832,-0.015627414,-7.802248e-05,0.0,0.0,-0.43700552,0
628576000,-0.001259872,-0.014758007,-0.00010764599,0.0,0.0,-0.44070467,0
628596000,0.0005369256,-0.012118062,2.7120113e-05,0.0,0.0,-0.44284663,0
628616000,-0.0007137507,-0.009050662,0.00011181831,0.0,0.0,-0.446785,0
628632000,-0.0013789022,-0.012806086,3.963709e-05,0.0,0.0,-0.44808045,0
628656000,-0.0041073146,-0.016025238,-0.000346303,0.0,0.0,-0.45268083,0
628676000,-0.0015115682,-0.017731452,-1.2934208e-05,0.0,0.0,-0.45481518,0
628692000,-0.00053658243,-0.016301498,-0.00016313791,0.0,0.0,-0.4589293,0
628716000,-0.0018085903,-0.017823923,-8.34465e-06,0.0,0.0,-0.46102965,0
628732000,-0.0036745039,-0.016166534,-1.7523766e-05,0.0,0.0,-0.46490097,0
628752000,-0.0027629794,-0.013910826,0.00018316507,0.0,0.0,-0.46667597,0
628776000,-0.00045944215,-0.013180193,-0.00013309717,0.0,0.0,-0.47130343,0
628796000,-0.0044694412,-0.011822756,-9.179115e-05,0.0,0.0,-0.47364506,0
628816000,-0.0067327754,-0.012220294,3.5881996e-05,0.0,0.0,-0.47793615,0
628832000,-0.0052795894,-0.010412183,-8.511543e-05,0.0,0.0,-0.47974867,0
628856000,-0.0043940167,-0.013530673,-0.0001502037,0.0,0.0,-0.4844135,0
628876000,-0.003523083,-0.0127485,-8.761883e-06,0.0,0.0,-0.48651823,0
628896000,-0.0028384994,-0.014638845,-7.760525e-05,0.0,0.0,-0.4911571,0
628916000,-0.004376222,-0.0115962215,7.426739e-05,0.0,0.0,-0.4935483,0
628936000,-0.0034841711,-0.0099377185,4.5478344e-05,0.0,0.0,-0.49791536,0
628956000,-0.0049776984,-0.011553936,6.67572e-06,0.0,0.0,-0.5000791,0
628976000,-0.005325811,-0.011646355,-0.0001885891,0.0,0.0,-0.5046717,0
628996000,-0.00450435,-0.014439158,-0.00014519691,0.0,0.0,-0.5068402,0
629016000,-0.0051857694,-0.014416852,0.00035256147,0.0,0.0,-0.5114101,0
629032000,-0.003646465,-0.01538343,0.00023072958,0.0,0.0,-0.51330066,0
629056000,-0.0050101024,-0.017970018,-0.00010305643,0.0,0.0,-0.51842815,0
629076000,-0.005772598,-0.013507027,-0.000112235546,0.0,0.0,-0.52108186,0
629096000,-0.007396224,-0.013233637,5.4240227e-05,0.0,0.0,-0.5261493,0
629112000,-0.0120074805,-0.017056912,3.2544136e-05,0.0,0.0,-0.5281223,0
629136000,-0.008642106,-0.01470607,2.0861626e-05,0.0,0.0,-0.5335001,0
629152000,-0.012561406,-0.017962817,-0.00014227629,0.0,0.0,-0.53515244,0
629172000,-0.0144756865,-0.02112439,-0.00014519691,0.0,0.0,-0.5406495,0
629196000,-0.013919108,-0.0188092,-1.2516975e-05,0.0,0.0,-0.5430288,0
629216000,-0.009771212,-0.019869333,-0.00019234419,0.0,0.0,-0.54799366,0
629236000,-0.009696174,-0.021538228,-1.8775463e-05,0.0,0.0,-0.55017775,0
629256000,-0.01397923,-0.01918274,-0.00022530556,0.0,0.0,-0.55509317,0
629272000,-0.015613258,-0.01846123,-1.7106533e-05,0.0,0.0,-0.5820864,0
629296000,-0.01587722,-0.021119244,-1.2516975e-06,0.0,0.0,-0.5879764,0
629316000,-0.013850464,-0.024396367,-6.92606e-05,0.0,0.0,-0.59025586,0
629336000,-0.013400883,-0.024084553,-9.7215176e-05,0.0,0.0,-0.5952275,0
629352000,-0.014466399,-0.019818187,-0.00012433529,0.0,0.0,-0.5968176,0
629376000,-0.015693136,-0.016924959,-0.00018191338,0.0,0.0,-0.6027852,0
629396000,-0.016211202,-0.01862253,-7.343292e-05,0.0,0.0,-0.6048299,0
629416000,-0.018708967,-0.018274425,-0.00023031235,0.0,0.0,-0.6098372,0
629436000,-0.019141706,-0.01824988,8.34465e-06,0.0,0.0,-0.61193025,0
629456000,-0.017431526,-0.017808631,8.3863735e-05,0.0,0.0,-0.6172352,0
629476000,-0.014907455,-0.02046166,-6.0915947e-05,0.0,0.0,-0.6192085,0
629496000,-0.018705077,-0.021200638,-0.00014019012,0.0,0.0,-0.62455976,0
629516000,-0.016918134,-0.021995176,4.172325e-07,0.0,0.0,-0.6268788,0
629536000,-0.01599762,-0.019192327,-0.000166893,0.0,0.0,-0.6322347,0
629556000,-0.01422994,-0.01958389,9.2208385e-05,0.0,0.0,-0.63467646,0
629576000,-0.013011906,-0.02032944,0.00031000376,0.0,0.0,-0.6401393,0
629596000,-0.014522906,-0.016322963,9.429455e-05,0.0,0.0,-0.64260244,0
629616000,-0.013427457,-0.015698068,6.3836575e-05,0.0,0.0,-0.6482994,0
629636000,-0.015652787,-0.01943063,-9.012222e-05,0.0,0.0,-0.6505058,0
629652000,-0.017922085,-0.016597666,-0.00016564131,0.0,0.0,-0.6560489,0
629676000,-0.020177249,-0.020998687,-0.00016438961,0.0,0.0,-0.65856045,0
629696000,-0.021328477,-0.017202541,-0.0002515912,0.0,0.0,-0.6641516,0
629716000,-0.017917683,-0.015780618,-0.00017815828,0.0,0.0,-0.6665727,0
629736000,-0.022446388,-0.013513255,-8.34465e-06,0.0,0.0,-0.6722014,0
629756000,-0.025293907,-0.015052432,-0.00011765957,0.0,0.0,-0.6745594,0
629776000,-0.021572996,-0.01470803,-0.00010514259,0.0,0.0,-0.68022454,0
629796000,-0.021774136,-0.01693989,-8.8870525e-05,0.0,0.0,-0.68268913,0
629816000,-0.020334909,-0.018748783,-8.761883e-05,0.0,0.0,-0.6885486,0
629832000,-0.01942034,-0.02078113,-5.00679e-05,0.0,0.0,-0.69046396,0
629856000,-0.025786407,-0.019418487,-0.00019693375,0.0,0.0,-0.6974461,0
629876000,-0.024465982,-0.01870076,-0.00016897917,0.0,0.0,-0.6996794,0
629896000,-0.024440892,-0.019213907,0.00014770031,0.0,0.0,-0.7055003,0
629916000,-0.02868513,-0.014562507,-3.33786e-06,0.0,0.0,-0.70791256,0
629936000,-0.025985837,-0.017300583,-0.00021862984,0.0,0.0,-0.7139854,0
629956000,-0.027992496,-0.017829651,-0.00016647577,0.0,0.0,-0.7160888,0
629972000,-0.02694168,-0.016889127,2.6285648e-05,0.0,0.0,-0.7217256,0
629996000,-0.024068464,-0.009627197,8.7201595e-05,0.0,0.0,-0.72352904,0
630016000,-0.021727491,-0.007706836,-9.804964e-05,0.0,0.0,-0.72888803,0
630036000,-0.02130121,-0.0008633197,0.00024199486,0.0,0.0,-0.7294723,0
630052000,-0.020304115,0.005967517,9.596348e-05,0.0,0.0,-0.73433256,0
630076000,-0.020602107,0.014440791,4.5895576e-06,0.0,0.0,-0.73447484,0
630096000,-0.019890593,0.016385078,4.673004e-05,0.0,0.0,-0.73869693,0
630116000,-0.013379721,0.021925047,-1.7523766e-05,0.0,0.0,-0.73812443,0
630136000,-0.010650385,0.030319083,-6.425381e-05,0.0,0.0,-0.74246883,0
630156000,-0.012225868,0.041422132,4.7147274e-05,0.0,0.0,-0.7411088,0
630176000,-0.012107229,0.049007356,0.0003016591,0.0,0.0,-0.74517316,0
630196000,-0.011467103,0.050782662,5.966425e-05,0.0,0.0,-0.743474,0
630216000,-0.00964435,0.055085063,0.00020068884,0.0,0.0,-0.74736,0
630236000,-0.007582251,0.05954721,0.00016188622,0.0,0.0,-0.74534243,0
630252000,-0.0075382646,0.062487558,0.00019526482,0.0,0.0,-0.7492859,0
630276000,-0.008248873,0.06540022,0.00020319223,0.0,0.0,-0.7468282,0
630296000,-0.008875111,0.06758619,0.00010973215,0.0,0.0,-0.7505102,0
630316000,-0.0020389836,0.069520235,9.8884106e-05,0.0,0.0,-0.74784815,0
630336000,-0.0052771866,0.07217713,0.00013893843,0.0,0.0,-0.75157243,0
630352000,-0.011619234,0.07406619,0.00031918287,0.0,0.0,-0.74985623,0
630376000,-0.005024163,0.07421618,0.0005732775,0.0,0.0,-0.7525126,0
630396000,-0.0042160507,0.07173224,0.00022405386,0.0,0.0,-0.7492027,0
630416000,-0.004089251,0.073478155,0.00013017654,0.0,0.0,-0.75310206,0
630436000,-0.00050454214,0.06767816,0.00024366379,0.0,0.0,-0.7498386,0
630452000,-0.00048197247,0.066685446,0.00023448467,0.0,0.0,-0.75362515,0
630476000,-0.00024122745,0.06502008,0.00040262938,0.0,0.0,-0.75068355,0
630496000,-0.00036361068,0.06508704,-1.835823e-05,0.0,0.0,-0.75456667,0
630516000,0.0007113032,0.06359682,0.00020778179,0.0,0.0,-0.7509786,0
630536000,0.0017881934,0.06316779,0.0002837181,0.0,0.0,-0.7551464,0
630552000,-0.0008166861,0.056598738,0.0002874732,0.0,0.0,-0.7531413,0
630572000,9.725243e-05,0.052501686,0.00025075674,0.0,0.0,-0.7556315,0
630596000,-0.00091446936,0.049813278,0.00033670664,0.0,0.0,-0.75161636,0
630616000,-0.0032143835,0.04997155,0.00042015314,0.0,0.0,-0.7555389,0
630632000,-0.0048393086,0.050713144,0.00061541796,0.0,0.0,-0.75340873,0
630656000,-0.001991326,0.04593885,0.00017023087,0.0,0.0,-0.75593436,0
630672000,-0.0011834921,0.04477903,0.00020986795,0.0,0.0,-0.75259614,0
630696000,-0.0025354987,0.04138852,0.00013643503,0.0,0.0,-0.7503001,0
630716000,0.00097525027,0.0384159,6.425381e-05,0.0,0.0,-0.74265575,0
630736000,0.003214783,0.036005873,0.00021278858,0.0,0.0,-0.74126685,0
630756000,0.0034706406,0.035825398,0.00016230345,0.0,0.0,-0.7335629,0
630772000,-0.00158507,0.031731553,0.00020819902,0.0,0.0,-0.73197746,0
630796000,-0.0062290644,0.029855572,7.5101852e-06,0.0,0.0,-0.7245733,0
630812000,-0.0045256726,0.024548238,3.7550926e-06,0.0,0.0,-0.72763693,0
630832000,-0.0019552433,0.021679519,5.0485134e-05,0.0,0.0,-0.72546285,0
630856000,-0.001646453,0.023920868,5.00679e-05,0.0,0.0,-0.72883373,0
630872000,-0.0003382475,0.022734761,0.00017732382,0.0,0.0,-0.7272262,0
630892000,0.00075348467,0.020993175,4.339218e-05,0.0,0.0,-0.7305985,0
630916000,0.0019957586,0.019420948,0.00020194054,0.0,0.0,-0.7279407,0
630936000,-0.0003243722,0.019375823,0.00032877922,0.0,0.0,-0.7320314,0
630956000,0.0034138532,0.01714472,0.00013059378,0.0,0.0,-0.7256534,0
630972000,0.0043520397,0.013790378,8.678436e-05,0.0,0.0,-0.7266102,0
630992000,0.0020298273,0.012980018,-0.0001681447,0.0,0.0,-0.7210348,0
631016000,0.0048164623,0.010710843,-4.965067e-05,0.0,0.0,-0.7237973,0
631036000,0.0008539017,0.014230734,3.129244e-05,0.0,0.0,-0.7185881,0
631056000,0.0029299988,0.011404414,0.00014144182,0.0,0.0,-0.7236554,0
631076000,0.005481689,0.013657864,1.7523766e-05,0.0,0.0,-0.7185551,0
631092000,0.007320389,0.012138924,1.9609928e-05,0.0,0.0,-0.7237518,0
631116000,0.008286996,0.012124786,0.00020319223,0.0,0.0,-0.7192703,0
631136000,0.0094874315,0.01572877,2.7120113e-05,0.0,0.0,-0.72432196,0
631156000,0.010421637,0.016876709,0.00015604496,0.0,0.0,-0.7195518,0
631176000,0.0062715695,0.016177498,0.00017565489,0.0,0.0,-0.72462726,0
631196000,0.007980638,0.019870397,0.00016647577,0.0,0.0,-0.7196981,0
631216000,0.007340083,0.019416658,-0.00012683868,0.0,0.0,-0.72468,0
631236000,0.010392253,0.019867348,-2.7954578e-05,0.0,0.0,-0.7198794,0
631256000,0.0061456505,0.023679774,0.00010180473,0.0,0.0,-0.72463465,0
631276000,0.0075330697,0.019949712,3.2126904e-05,0.0,0.0,-0.7197307,0
631296000,0.005988351,0.01960484,-1.7940998e-05,0.0,0.0,-0.72476643,0
631316000,0.005995951,0.019193595,-3.7550926e-06,0.0,0.0,-0.7199404,0
631332000,0.0020556555,0.021612387,0.0001193285,0.0,0.0,-0.72489536,0
631356000,0.0008083484,0.018385366,-9.095669e-05,0.0,0.0,-0.72011125,0
631376000,-0.0006540305,0.014664187,-9.804964e-05,0.0,0.0,-0.7248845,0
631396000,0.00013962085,0.011200606,-5.6743622e-05,0.0,0.0,-0.72000235,0
631416000,0.00062178215,0.010699398,4.5895576e-05,0.0,0.0,-0.7245402,0
631432000,0.0015622686,0.010055016,1.0848045e-05,0.0,0.0,-0.72036386,0
631456000,0.0071637114,0.009819819,0.00011014938,0.0,0.0,-0.7244644,0
631472000,0.0037951597,0.010237663,-0.0001360178,0.0,0.0,-0.720321,0
631496000,0.0019345211,0.007152032,-0.00011473894,0.0,0.0,-0.7243188,0
631516000,-0.0015514066,0.005434893,0.00021779537,0.0,0.0,-0.71946573,0
631536000,0.0009364772,0.0035148114,-5.4240227e-06,0.0,0.0,-0.7244447,0
631556000,0.0017959499,0.0015027439,-6.425381e-05,0.0,0.0,-0.71973866,0
631572000,0.0031192983,0.0016154805,8.177757e-05,0.0,0.0,-0.72445667,0
631596000,0.008773691,0.0054500373,-4.965067e-05,0.0,0.0,-0.7192672,0
631616000,0.006361521,0.0057499073,0.0001514554,0.0,0.0,-0.72397864,0
631636000,0.0063800905,0.0075152786,-6.67572e-05,0.0,0.0,-0.7189075,0
631652000,0.0043292493,0.007886741,-2.670288e-05,0.0,0.0,-0.7234753,0
631676000,0.001548239,0.004066908,-0.0001873374,0.0,0.0,-0.71897453,0
631696000,0.0042684656,0.0006380202,0.00011098385,0.0,0.0,-0.7236071,0
631716000,0.005618593,0.0038307402,-0.00013560057,0.0,0.0,-0.71860397,0
631736000,0.005929731,0.0029042214,-0.00022655725,0.0,0.0,-0.72328717,0
631756000,0.0040947967,8.022506e-05,2.9623508e-05,0.0,0.0,-0.71817064,0
631776000,0.0052734273,0.00063414127,7.176399e-05,0.0,0.0,-0.7225927,0
631792000,0.0063682687,0.0038406728,0.00033670664,0.0,0.0,-0.7182637,0
631816000,0.0034714402,0.00309976,9.638071e-05,0.0,0.0,-0.7219032,0
631836000,0.0021718028,0.0024692928,8.803606e-05,0.0,0.0,-0.7171283,0
631856000,0.004872732,0.0044478923,7.7188015e-05,0.0,0.0,-0.7216968,0
631876000,0.004578454,0.004376258,9.2208385e-05,0.0,0.0,-0.71683174,0
631896000,0.009623785,0.0013214918,0.0002065301,0.0,0.0,-0.72136277,0
631916000,0.0074021677,0.00010118168,-8.0525875e-05,0.0,0.0,-0.7165653,0
631932000,0.0003660639,-0.001372756,5.7160854e-05,0.0,0.0,-0.7213908,0
631952000,7.754215e-05,0.0013802275,8.302927e-05,0.0,0.0,-0.71748513,0
631976000,0.0004355095,-0.0027473979,2.002716e-05,0.0,0.0,-0.72118217,0
631996000,0.0042964593,-0.0016528834,-4.464388e-05,0.0,0.0,-0.71641713,0
632016000,0.005963657,-0.00039935624,-8.34465e-07,0.0,0.0,-0.72058463,0
632032000,0.0067207227,0.0032294397,-0.00019651651,0.0,0.0,-0.7165304,0
632056000,0.0054233447,-0.0002926411,-0.0002194643,0.0,0.0,-0.7202569,0
632076000,0.004177496,0.0050358437,0.00015562773,0.0,0.0,-0.7156282,0
632096000,0.003226784,0.0043733553,0.00012600422,0.0,0.0,-0.7200243,0
632112000,0.0026831653,0.0034907833,-0.00012308359,0.0,0.0,-0.71628547,0
632136000,0.0028945792,0.0066925418,0.00017273426,0.0,0.0,-0.7200632,0
632156000,0.0005997191,0.006593594,-9.304285e-05,0.0,0.0,-0.715472,0
632176000,-0.00052967994,0.003386844,0.00011432171,0.0,0.0,-0.720177,0
632196000,-0.0030123696,0.0036721514,0.0001193285,0.0,0.0,-0.71542853,0
632216000,-0.0013990367,0.0041858214,-0.00021445751,0.0,0.0,-0.719625,0
632232000,0.0008423652,0.0058623035,0.00012224913,0.0,0.0,-0.71570295,0
632256000,0.0026977467,0.0067836363,0.00029623508,0.0,0.0,-0.7190436,0
632276000,0.0022641844,0.011375509,-6.425381e-05,0.0,0.0,-0.71449876,0
632296000,0.0004296552,0.01248615,0.000112235546,0.0,0.0,-0.71868414,0
632316000,0.0058696987,0.0077098333,-0.00013518333,0.0,0.0,-0.7139422,0
632336000,0.0061052092,0.0062266085,1.0848045e-05,0.0,0.0,-0.7180774,0
632356000,0.0025367439,0.007509512,-5.799532e-05,0.0,0.0,-0.7132582,0
632376000,0.00053442875,0.0076403343,-0.00012600422,0.0,0.0,-0.7174919,0
632392000,0.002631599,0.008394909,-4.7147274e-05,0.0,0.0,-0.7136722,0
632416000,-0.00032108882,0.0077304817,-0.0003437996,0.0,0.0,-0.71720135,0
632436000,0.0019958355,0.0083434945,-7.0512295e-05,0.0,0.0,-0.71283424,0
632456000,0.002778917,0.009128091,0.0003246069,0.0,0.0,-0.7173548,0
632472000,0.001932811,0.0059165857,-0.00024491549,0.0,0.0,-0.71360314,0
632496000,0.002130291,0.0010100435,0.00013017654,0.0,0.0,-0.7170039,0
632512000,0.0006698114,0.0005902415,-0.000118911266,0.0,0.0,-0.7130285,0
632536000,0.0021560285,0.003658596,1.9192696e-05,0.0,0.0,-0.7164743,0
632556000,-0.00074435025,0.0015045418,-3.963709e-05,0.0,0.0,-0.71215564,0
632576000,0.00037841965,0.00022658752,-6.2584877e-06,0.0,0.0,-0.7161912,0
632596000,-0.0033555366,0.0014117258,0.00019109249,0.0,0.0,-0.71169955,0
632616000,-0.003795288,0.0056555783,-0.00015896559,0.0,0.0,-0.71586955,0
632636000,0.0005928222,0.0049164244,0.00012558699,0.0,0.0,-0.7113627,0
632656000,-2.1391083e-05,0.007045163,0.00011432171,0.0,0.0,-0.7152746,0
632672000,-0.004223176,0.006470755,0.0020056367,0.0,0.0,-0.7116908,0
632696000,-0.004811349,0.0068152435,6.0498714e-05,0.0,0.0,-0.7149035,0
632716000,0.00276146,0.00085601397,-6.133318e-05,0.0,0.0,-0.7104581,0
632736000,0.00021000486,0.0013358002,-0.00012099743,0.0,0.0,-0.71472406,0
632752000,0.0014990624,-0.00066184206,0.0011903644,0.0,0.0,-0.7111654,0
632776000,0.00284576,0.0013758834,0.0014569759,0.0,0.0,-0.7142596,0
632792000,0.0023919013,0.0015971912,0.0019071698,0.0,0.0,-0.71077883,0
632812000,-4.1529536e-05,0.002891881,0.00037425756,0.0,0.0,-0.7142358,0
632832000,0.000693575,0.000408398,0.00064212084,0.0,0.0,-0.71088654,0
632856000,0.0021721432,0.0017021857,0.00077813864,0.0,0.0,-0.71391827,0
632876000,0.0014398205,0.004196749,0.00045228004,0.0,0.0,-0.7100446,0
632896000,-0.0014250781,0.0059669977,0.00039929152,0.0,0.0,-0.7137899,0
632916000,-0.0004702625,0.00097613875,0.0001026392,0.0,0.0,-0.70969397,0
632932000,-0.0015461841,-0.0011849543,0.00021570921,0.0,0.0,-0.7135003,0
632956000,0.0010508946,0.001916802,0.000112235546,0.0,0.0,-0.70944667,0
632976000,-0.0014069979,0.0025276248,-0.00011765957,0.0,0.0,-0.71328443,0
632996000,-0.0023414209,0.003154079,-0.00019109249,0.0,0.0,-0.7089581,0
633016000,-0.0009555323,0.0031052073,-7.009506e-05,0.0,0.0,-0.7127654,0
633032000,0.00014982,0.0024809586,-0.00054365396,0.0,0.0,-0.70926946,0
633056000,0.00089229364,0.005877664,-0.00035965443,0.0,0.0,-0.7121189,0
633076000,-0.002313184,0.0012173508,-0.00022363663,0.0,0.0,-0.70787454,0
633096000,0.0006462396,0.00016628625,-0.0009237528,0.0,0.0,-0.7114213,0
633112000,-0.00020920951,-0.0009643738,-0.00066423416,0.0,0.0,-0.7079696,0
633132000,0.003205257,-0.0031820468,-0.00035840273,0.0,0.0,-0.710885,0
633156000,0.0023940043,-0.003386968,-0.0004401803,0.0,0.0,-0.70702404,0
633176000,0.0019900682,-0.0035923324,-0.00067424774,0.0,0.0,-0.7108243,0
633196000,0.0032264171,-0.0028959052,-0.00024574995,0.0,0.0,-0.7069031,0
633216000,0.005848944,-0.002007246,-0.0003938675,0.0,0.0,-0.71065384,0
633236000,0.008188557,0.0003839829,-0.00031083822,0.0,0.0,-0.70707005,0
633256000,0.007274732,0.0020456528,-0.0005582571,0.0,0.0,-0.71049553,0
633276000,0.0028427592,-0.0011888649,-0.00036799908,0.0,0.0,-0.7064904,0
633296000,0.008790871,0.0010984875,-0.00052446127,0.0,0.0,-0.7099738,0
633316000,0.00198399,0.0012052022,-0.00035256147,0.0,0.0,-0.70649564,0
633336000,0.000851681,-0.001722014,-0.00023823977,0.0,0.0,-0.7100583,0
633356000,0.0019989894,0.0014751893,-0.00023823977,0.0,0.0,-0.7061947,0
633372000,0.004693679,0.0025322232,-0.00025492907,0.0,0.0,-0.70963365,0
633396000,0.004154753,-0.00037392369,0.0001372695,0.0,0.0,-0.7055596,0
633416000,0.0022914489,0.0006753155,-0.00013893843,0.0,0.0,-0.70913106,0
633436000,0.002523561,0.00011052471,-2.9206276e-05,0.0,0.0,-0.7055212,0
633452000,0.0027416837,-0.0008273639,-0.00017607212,0.0,0.0,-0.7087792,0
633476000,0.0017747576,-0.0035274343,-0.00017607212,0.0,0.0,-0.705341,0
633492000,0.0026141494,-0.0024162787,-1.66893e-05,0.0,0.0,-0.7086143,0
633516000,0.007908449,-0.00060988124,-4.5895576e-05,0.0,0.0,-0.70684975,0
633532000,0.0067433068,0.00019434863,-9.0539455e-05,0.0,0.0,-0.7028528,0
633552000,0.0052097486,-0.0027021696,0.00011014938,0.0,0.0,-0.6996407,0
633572000,0.005346271,-0.0031488184,2.169609e-05,0.0,0.0,-0.69438326,0
633596000,0.004540212,0.002043616,-1.5854836e-05,0.0,0.0,-0.6903365,0
633616000,0.0023726881,0.003866343,0.00014269352,0.0,0.0,-0.6850753,0
633632000,0.0034708134,0.0017892502,0.00021487474,0.0,0.0,-0.6815177,0
633656000,0.0031095436,0.00027236587,0.0004030466,0.0,0.0,-0.6764822,0
633672000,0.0010963613,-0.0022644955,-0.00014811754,0.0,0.0,-0.67299837,0
633696000,-0.00011823666,-0.003954757,-0.0041134586,0.0,0.0,-0.667639,0
633712000,-0.0014985543,-0.0015509414,0.0018057774,0.0,0.0,-0.6640091,0
633736000,-0.00342339,-0.0017453495,0.00084990263,0.0,0.0,-0.6588152,0
633756000,-0.002994529,-0.0044129523,0.0011536479,0.0,0.0,-0.65629005,0
633776000,-0.0037136069,-0.0010603286,0.0012270808,0.0,0.0,-0.64991975,0
633796000,-0.003913395,0.0016518078,0.0012750626,0.0,0.0,-0.6511051,0
633816000,-0.00019788556,-0.0019036359,0.0013831258,0.0,0.0,-0.65408164,0
633836000,0.0032225149,-0.0010844459,0.0016130209,0.0,0.0,-0.6594613,0
633852000,0.005244245,-0.0006199656,0.0017978549,0.0,0.0,-0.6632455,0
633876000,0.0032430645,-0.0021065997,0.0015913248,0.0,0.0,-0.66865975,0
633896000,0.004902904,-0.0031958132,0.0019305348,0.0,0.0,-0.67232215,0
633916000,0.006841792,-0.00085180736,0.001778245,0.0,0.0,-0.6773136,0
633936000,0.0014862483,-0.0027186216,0.0017398596,0.0,0.0,-0.68090475,0
633956000,-0.00077199936,-0.0027958911,0.0015433431,0.0,0.0,-0.68507266,0
633976000,0.0007417947,-0.0061979233,0.0013101101,0.0,0.0,-0.68986225,0
633996000,0.0020230152,-0.0052401545,0.0009571314,0.0,0.0,-0.6948327,0
634012000,0.0017007478,-0.0040974305,0.0013288856,0.0,0.0,-0.6991378,0
634036000,0.0029181447,-0.0022145382,0.0011970401,0.0,0.0,-0.7032904,0
634056000,0.0046952767,-0.002514353,0.00052779913,0.0,0.0,-0.70733917,0
634076000,0.004114338,-0.0029250598,0.00026202202,0.0,0.0,-0.7099048,0
634096000,0.004804898,-0.0029470148,0.00044685602,0.0,0.0,-0.71361953,0
634116000,0.0044161347,-0.006727279,4.5478344e-05,0.0,0.0,-0.7155945,0
634136000,-0.0016168663,-0.004846804,-0.0004823208,0.0,0.0,-0.7190592,0
634156000,0.00042100996,-0.0027037072,-0.0010197163,0.0,0.0,-0.72031707,0
634176000,0.0013691019,-0.0049301367,-0.0015233159,0.0,0.0,-0.7226002,0
634196000,0.0025567412,-0.0025867566,-0.0019059181,0.0,0.0,-0.72293335,0
634212000,-0.0006738957,-0.0064405734,-0.0018433332,0.0,0.0,-0.724288,0
634236000,0.008004785,-0.0029646233,-0.0024303794,0.0,0.0,-0.72272336,0
634252000,0.0039561307,-0.0026648042,-0.00256598,0.0,0.0,-0.72265667,0
634276000,0.0036003995,-0.0032575298,-0.0028133988,0.0,0.0,-0.71962965,0
634292000,0.0056661144,-0.0007806374,-0.0022655725,0.0,0.0,-0.7185027,0
634316000,0.0027506244,0.0011055307,-0.0022584796,0.0,0.0,-0.7154024,0
634336000,0.0021506008,-0.001326052,-0.002194643,0.0,0.0,-0.7142318,0
634356000,-0.0008564787,0.0006611664,-0.0022697449,0.0,0.0,-0.7116919,0
634376000,-0.0010652598,-0.0010010707,-0.0018846393,0.0,0.0,-0.71100396,0
634392000,-0.0014399737,-0.002238132,-0.0020490289,0.0,0.0,-0.7094528,0
634416000,0.0021351497,-0.0021787141,-0.0021149516,0.0,0.0,-0.7086226,0
634436000,0.0013416023,-0.0024653762,-0.002190888,0.0,0.0,-0.7070393,0
634456000,0.0004572845,-0.00077429134,-0.0022050738,0.0,0.0,-0.70706207,0
634476000,0.0017839614,0.00059191044,-0.0020949244,0.0,0.0,-0.7055748,0
634492000,0.000548305,-0.002294642,-0.002517581,0.0,0.0,-0.70533085,0
634516000,0.0012792256,-0.0009896155,-0.0030420423,0.0,0.0,-0.7044349,0
634536000,-0.0002519493,0.0028580413,-0.003048718,0.0,0.0,-0.7050297,0
634556000,0.004570694,0.0054458682,-0.0033119917,0.0,0.0,-0.704375,0
634572000,0.005777916,0.004882718,-0.0025584698,0.0,0.0,-0.70471233,0
634596000,0.00533814,0.0034596748,-0.0028701425,0.0,0.0,-0.704015,0
634616000,0.001385801,0.004304766,-0.002458334,0.0,0.0,-0.7047254,0
634636000,0.0026813443,0.004244007,-0.0026047826,0.0,0.0,-0.7044016,0
634656000,-3.2858457e-05,0.0060721,-0.0026160479,0.0,0.0,-0.70479804,0
634676000,-0.0027934029,0.0027376171,-0.002594769,0.0,0.0,-0.704304,0
634696000,-0.0037986857,0.0018519727,-0.002228856,0.0,0.0,-0.7049775,0
634716000,-0.0021690386,0.00540089,-0.0016359687,0.0,0.0,-0.7044031,0
634736000,-0.0013870578,0.0016546976,-0.0006738305,0.0,0.0,-0.70442647,0
634756000,-0.00062684156,0.002104836,-0.00034421682,0.0,0.0,-0.7043341,0
634776000,0.0011902791,0.0013755509,0.0002065301,0.0,0.0,-0.70503265,0
634796000,-0.005037665,0.0055451193,0.00087451935,0.0,0.0,-0.705095,0
634812000,-0.0072221537,0.00400433,0.0011348724,0.0,0.0,-0.70602405,0
634836000,-0.00068800896,0.004814699,0.0013676882,0.0,0.0,-0.7054191,0
634856000,-0.004813996,0.0028089527,0.0011177659,0.0,0.0,-0.7058695,0
634872000,-0.0018786886,0.0022260684,0.000983417,0.0,0.0,-0.70529336,0
634896000,-0.0011110757,0.0027372867,0.0009416938,0.0,0.0,-0.7052357,0
634916000,-0.0035607945,0.0069632847,0.0006362796,0.0,0.0,-0.7044597,0
634936000,-0.0031874678,0.0065733767,0.0005916357,0.0,0.0,-0.7049338,0
634956000,-0.0040425425,0.006025155,0.0005878806,0.0,0.0,-0.7044897,0
634972000,-0.0020578094,0.004916094,9.638071e-05,0.0,0.0,-0.7052797,0
634992000,-0.0037909187,0.0031060223,0.00041556358,0.0,0.0,-0.7051356,0
635016000,-0.004496047,0.0021420987,-7.8856945e-05,0.0,0.0,-0.705412,0
635036000,-0.0005480689,-0.0007717882,-0.00047439337,0.0,0.0,-0.70451343,0
635052000,0.0033601085,-0.002511008,-0.00045979023,0.0,0.0,-0.7053566,0
635076000,0.0062861308,-0.0014103699,-0.0006471276,0.0,0.0,-0.7045125,0
635096000,0.005650026,-0.00485449,-0.00045895576,0.0,0.0,-0.70508814,0
635116000,0.00368906,-0.004093815,-0.0004272461,0.0,0.0,-0.7043151,0
635136000,0.000988856,-0.0032709825,-0.0006008148,0.0,0.0,-0.7048415,0
635156000,0.00043126103,-0.005423981,-0.00040888786,0.0,0.0,-0.70410573,0
635176000,-0.0015470632,-0.002353342,-0.00042933226,0.0,0.0,-0.70482033,0
635196000,-0.0024391506,-0.0021600397,-0.001006782,0.0,0.0,-0.7039305,0
635216000,-0.008526857,-0.0026934044,-0.0009875894,0.0,0.0,-0.70499074,0
635236000,-0.0064240946,-0.003967962,-0.00072556734,0.0,0.0,-0.70486635,0
635256000,-0.0028070598,-0.0031136838,-0.0002770424,0.0,0.0,-0.7056673,0
635272000,-0.0012558545,3.3255666e-05,0.0001026392,0.0,0.0,-0.7054403,0
635296000,-0.001804864,0.0041361917,0.000852406,0.0,0.0,-0.70589584,0
635316000,0.00019497737,0.0024237079,0.007177202,0.0,0.0,-0.70507866,0
635332000,0.03273221,-0.024899026,0.016543608,0.0,0.0,-0.7041947,0
635356000,0.057887036,-0.035036497,0.022106523,0.0,0.0,-0.7041045,0
635376000,0.09870401,-0.0465258,0.031969428,0.0,0.0,-0.70421714,0
635392000,0.12591417,-0.05249893,0.039240923,0.0,0.0,-0.7042288,0
635416000,0.16411985,-0.061184112,0.050359197,0.0,0.0,-0.7040002,0
635432000,0.18659987,-0.068063654,0.058371514,0.0,0.0,-0.7042722,0
635456000,0.2206368,-0.073408164,0.07091983,0.0,0.0,-0.7045687,0
635476000,0.2404903,-0.07250188,0.07942035,0.0,0.0,-0.7048859,0
635496000,0.27503496,-0.07723008,0.09266177,0.0,0.0,-0.70533305,0
635516000,0.289933,-0.07928159,0.10160035,0.0,0.0,-0.70616597,0
635536000,0.31700864,-0.08568582,0.114930846,0.0,0.0,-0.7069436,0
635556000,0.32683146,-0.0871112,0.12332895,0.0,0.0,-0.707339,0
635572000,0.35762417,-0.093238614,0.13800424,0.0,0.0,-0.7078415,0
635592000,0.3639764,-0.09645342,0.1467861,0.0,0.0,-0.70815814,0
635616000,0.375594,-0.09710797,0.1595931,0.0,0.0,-0.7088347,0
635636000,0.3721633,-0.09001415,0.16676947,0.0,0.0,-0.7088985,0
635656000,0.3981722,-0.097730026,0.18077974,0.0,0.0,-0.7100548,0
635672000,0.3977702,-0.09865782,0.18887825,0.0,0.0,-0.7102953,0
635696000,0.40816528,-0.10101765,0.20131204,0.0,0.0,-0.71078974,0
635716000,0.40277418,-0.09767008,0.20804383,0.0,0.0,-0.71057963,0
635736000,0.42448214,-0.100992136,0.22072442,0.0,0.0,-0.7116741,0
635756000,0.41414163,-0.09116571,0.22606756,0.0,0.0,-0.71165097,0
635776000,0.43770823,-0.09960702,0.23958677,0.0,0.0,-0.71345925,0
635792000,0.44705713,-0.10124909,0.24742247,0.0,0.0,-0.7145092,0
635812000,0.45306534,-0.10366661,0.26023656,0.0,0.0,-0.71545047,0
635836000,0.4287016,-0.102520645,0.26373518,0.0,0.0,-0.7151111,0
635856000,0.44728154,-0.113193855,0.27766243,0.0,0.0,-0.71695304,0
635876000,0.43656218,-0.11052742,0.28182864,0.0,0.0,-0.7164035,0
635896000,0.45204663,-0.117470525,0.29506972,0.0,0.0,-0.7177293,0
635916000,0.43433782,-0.1122853,0.29862237,0.0,0.0,-0.7167875,0
635936000,0.44635618,-0.11307056,0.31152487,0.0,0.0,-0.7186135,0
635952000,0.44370806,-0.109749034,0.31814194,0.0,0.0,-0.71884733,0
635976000,0.44143137,-0.11099918,0.3287653,0.0,0.0,-0.71990645,0
635996000,0.4201682,-0.1096289,0.33205998,0.0,0.0,-0.71942693,0
636016000,0.44135377,-0.11813322,0.3465054,0.0,0.0,-0.7222709,0
636036000,0.41891715,-0.1150372,0.35036808,0.0,0.0,-0.72194004,0
636056000,0.43777844,-0.1254998,0.36546034,0.0,0.0,-0.7247697,0
636076000,0.41564655,-0.12226668,0.36797103,0.0,0.0,-0.72399163,0
636096000,0.41552258,-0.12915939,0.38205522,0.0,0.0,-0.72547835,0
636116000,0.37685978,-0.1135093,0.38145432,0.0,0.0,-0.7231941,0
636136000,0.36358616,-0.10648044,0.39193663,0.0,0.0,-0.72353816,0
636156000,0.31834504,-0.092527375,0.3916264,0.0,0.0,-0.72079754,0
636176000,0.30994472,-0.0942613,0.4040612,0.0,0.0,-0.72201115,0
636196000,0.25730127,-0.07790918,0.4017438,0.0,0.0,-0.7195479,0
636212000,0.26085463,-0.08280779,0.41884428,0.0,0.0,-0.7208575,0
636236000,0.22121905,-0.06656527,0.4130169,0.0,0.0,-0.7200757,0
636256000,0.22609195,-0.06825338,0.42686522,0.0,0.0,-0.72249806,0
636276000,0.200944,-0.058399804,0.42682746,0.0,0.0,-0.7225681,0
636296000,0.2013162,-0.06160683,0.44087082,0.0,0.0,-0.72434014,0
636312000,0.18667233,-0.05941973,0.44674525,0.0,0.0,-0.72416854,0
636336000,0.17276128,-0.05535,0.4555545,0.0,0.0,-0.7245679,0
636356000,0.14427094,-0.042296052,0.454365,0.0,0.0,-0.7237431,0
636376000,0.15621981,-0.048024423,0.47023737,0.0,0.0,-0.7260396,0
636396000,0.12403869,-0.034160733,0.46814644,0.0,0.0,-0.72505933,0
636412000,0.133217,-0.040312834,0.4883937,0.0,0.0,-0.7269533,0
636436000,0.10349469,-0.033630267,0.48353168,0.0,0.0,-0.7263378,0
636456000,0.11169766,-0.03808546,0.4986036,0.0,0.0,-0.72830766,0
636472000,0.025153652,-0.176424,0.53516877,0.0,0.0,-0.7290528,0
636496000,0.013000697,-0.16937537,0.542694,0.0,0.0,-0.72897303,0
636516000,-0.012123257,-0.15555145,0.54010224,0.0,0.0,-0.7277817,0
636536000,-0.0015702471,-0.15661362,0.554742,0.0,0.0,-0.7289856,0
636556000,-0.02545295,-0.13726741,0.5506768,0.0,0.0,-0.72761816,0
636576000,-0.004974179,-0.13632068,0.56549525,0.0,0.0,-0.72940123,0
636596000,-0.024896987,-0.11107509,0.5608211,0.0,0.0,-0.72779155,0
636616000,-0.0010057688,-0.10886639,0.5744451,0.0,0.0,-0.7297098,0
636636000,-0.008732855,-0.09090035,0.57233936,0.0,0.0,-0.72915846,0
636656000,0.023380138,-0.086849615,0.5883281,0.0,0.0,-0.73084277,0
636676000,0.018446177,-0.06264913,0.5857967,0.0,0.0,-0.72999996,0
636696000,0.03832546,-0.061828464,0.6020385,0.0,0.0,-0.7311338,0
636712000,0.042437673,-0.048738673,0.6063805,0.0,0.0,-0.73071074,0
636736000,0.049967796,-0.03852871,0.6151762,0.0,0.0,-0.73099697,0
636756000,-0.060502544,-0.14520794,0.6348312,0.0,0.0,-0.7320138,0
636776000,-0.039084822,-0.14282404,0.64925325,0.0,0.0,-0.7336275,0
636796000,-0.058939658,-0.112899885,0.64303654,0.0,0.0,-0.7313507,0
636816000,-0.035324566,-0.10930434,0.6574225,0.0,0.0,-0.73230785,0
636836000,-0.055163912,-0.07805443,0.65066004,0.0,0.0,-0.7298381,0
636856000,-0.032297224,-0.07500671,0.6650854,0.0,0.0,-0.73087394,0
636876000,-0.045140803,-0.04348299,0.65813404,0.0,0.0,-0.72911197,0
636896000,-0.02300322,-0.039925605,0.67076063,0.0,0.0,-0.7300954,0
636912000,-0.021242335,-0.032811522,0.67360723,0.0,0.0,-0.7299312,0
636936000,-0.014239594,-0.016045138,0.67670894,0.0,0.0,-0.72943664,0
636956000,-0.13916117,-0.10925411,0.6849895,0.0,0.0,-0.73155004,0
636976000,-0.122967124,-0.10776915,0.6964568,0.0,0.0,-0.73248935,0
636996000,-0.14104456,-0.07408969,0.68674266,0.0,0.0,-0.73030466,0
637016000,-0.12150371,-0.06503834,0.6966797,0.0,0.0,-0.73051417,0
637036000,-0.11858979,-0.0447073,0.6883297,0.0,0.0,-0.72965443,0
637056000,-0.09118004,-0.046256885,0.69901615,0.0,0.0,-0.73021495,0
637072000,-0.08897662,-0.035523593,0.69938296,0.0,0.0,-0.7298351,0
637096000,-0.0796352,-0.020053878,0.70002544,0.0,0.0,-0.728893,0
637116000,-0.20612687,-0.10049082,0.7005516,0.0,0.0,-0.7314631,0
637136000,-0.19202393,-0.09518929,0.7096209,0.0,0.0,-0.73158616,0
637156000,-0.20529638,-0.06030249,0.69974804,0.0,0.0,-0.72919023,0
637172000,-0.19117212,-0.049866207,0.7172026,0.0,0.0,-0.72880876,0
637196000,-0.18954574,-0.020783909,0.70012283,0.0,0.0,-0.72739595,0
637216000,-0.17334732,-0.013468407,0.70142114,0.0,0.0,-0.7272791,0
637232000,-0.1671951,-0.0026131123,0.69122344,0.0,0.0,-0.72663575,0
637256000,-0.15776072,0.020253077,0.6757237,0.0,0.0,-0.7253767,0
637272000,-0.14635934,0.030670866,0.6651292,0.0,0.0,-0.7251994,0
637296000,-0.27591395,-0.035646714,0.6530773,0.0,0.0,-0.72882223,0
637316000,-0.2851112,0.00874313,0.63241935,0.0,0.0,-0.72680336,0
637336000,-0.23164243,-0.03324449,0.62771094,0.0,0.0,-0.7295104,0
637356000,-0.23091482,0.0070202723,0.6078619,0.0,0.0,-0.7274846,0
637372000,-0.18389155,-0.020644084,0.60919636,0.0,0.0,-0.7288185,0
637396000,-0.16746709,0.0041921176,0.58309,0.0,0.0,-0.7269829,0
637416000,-0.13105859,-0.010930799,0.57588005,0.0,0.0,-0.72762084,0
637432000,-0.2701402,-0.0636525,0.56464744,0.0,0.0,-0.7317198,0
637456000,-0.24656983,-0.06305012,0.54889905,0.0,0.0,-0.7310267,0
637476000,-0.23593493,-0.0363844,0.53065133,0.0,0.0,-0.7283294,0
637496000,-0.19921,-0.05417787,0.52253705,0.0,0.0,-0.7281687,0
637512000,-0.17564036,-0.047035158,0.5128847,0.0,0.0,-0.7269108,0
637536000,-0.14824553,-0.038381964,0.49844477,0.0,0.0,-0.7258926,0
637556000,-0.14315294,0.022372186,0.48313123,0.0,0.0,-0.7221506,0
637572000,-0.25839204,-0.056087147,0.48086143,0.0,0.0,-0.72805524,0
637596000,-0.24303801,-0.025358649,0.46039942,0.0,0.0,-0.72678953,0
637616000,-0.20826462,-0.039567877,0.45423532,0.0,0.0,-0.72639775,0
637632000,-0.20369694,0.003351769,0.44802767,0.0,0.0,-0.7239506,0
637656000,-0.16930613,0.017608207,0.43769974,0.0,0.0,-0.7223672,0
637676000,-0.15281765,0.05215285,0.4270499,0.0,0.0,-0.7208977,0
637696000,-0.122692764,0.040017664,0.42314714,0.0,0.0,-0.7209312,0
637716000,-0.2733528,0.045192894,0.41294828,0.0,0.0,-0.7250928,0
637736000,-0.24377538,0.030675886,0.4091156,0.0,0.0,-0.7249012,0
637752000,-0.22477461,0.046720333,0.40540197,0.0,0.0,-0.72342324,0
637776000,-0.19256794,0.062037524,0.39955068,0.0,0.0,-0.7219074,0
637796000,-0.17305571,0.087218344,0.3925959,0.0,0.0,-0.7209284,0
637816000,-0.14131936,0.078479014,0.39029077,0.0,0.0,-0.72064227,0
637836000,-0.12245315,0.10670826,0.3835878,0.0,0.0,-0.719031,0
637856000,-0.24745262,0.03742804,0.3764139,0.0,0.0,-0.7261327,0
637876000,-0.24184248,0.10473496,0.3750911,0.0,0.0,-0.72428626,0
637896000,-0.22060195,0.08906296,0.37224168,0.0,0.0,-0.72363,0
637916000,-0.19978356,0.116168864,0.36713144,0.0,0.0,-0.7215576,0
637936000,-0.17081398,0.10081637,0.36325502,0.0,0.0,-0.7205841,0
637956000,-0.14860961,0.13515615,0.35926828,0.0,0.0,-0.7185974,0
637976000,-0.12252357,0.12303444,0.35636696,0.0,0.0,-0.7179348,0
637992000,-0.1162649,0.16750094,0.3575631,0.0,0.0,-0.7166361,0
638016000,-0.24668339,0.13040468,0.34996632,0.0,0.0,-0.72355217,0
638036000,-0.22950289,0.15702637,0.3465121,0.0,0.0,-0.72250086,0
638056000,-0.20829974,0.14250234,0.34324294,0.0,0.0,-0.7216007,0
638076000,-0.18971872,0.17393616,0.34069565,0.0,0.0,-0.72019744,0
638096000,-0.16827919,0.1663639,0.33759534,0.0,0.0,-0.719124,0
638116000,-0.14260393,0.19264823,0.3334355,0.0,0.0,-0.7179917,0
638136000,-0.1249466,0.17502086,0.32924414,0.0,0.0,-0.7177609,0
638156000,-0.10362004,0.20565666,0.3259107,0.0,0.0,-0.7168755,0
638176000,-0.09699267,0.19213672,0.32216543,0.0,0.0,-0.7167316,0
638192000,-0.24239558,0.18780965,0.32152334,0.0,0.0,-0.72410494,0
638216000,-0.20347667,0.20930411,0.31754404,0.0,0.0,-0.7216925,0
638236000,-0.15712155,0.22691317,0.31190968,0.0,0.0,-0.7203712,0
638256000,-0.12708813,0.17717211,0.2994628,0.0,0.0,-0.72702664,0
638272000,-0.07797918,0.14566793,0.28827858,0.0,0.0,-0.72605634,0
638296000,-0.041015416,0.12746742,0.2773527,0.0,0.0,-0.7240764,0
638316000,-0.02125591,0.13035306,0.26901633,0.0,0.0,-0.7192483,0
638336000,0.008324612,0.08262794,0.25608712,0.0,0.0,-0.71921515,0
638356000,0.024149641,0.08415705,0.24810205,0.0,0.0,-0.72374845,0
638376000,0.043607205,0.041686103,0.23544516,0.0,0.0,-0.7232387,0
638392000,-0.10333608,0.00061803684,0.22372092,0.0,0.0,-0.7257755,0
638416000,-0.08246246,-0.023763724,0.20944789,0.0,0.0,-0.72440875,0
638432000,-0.06564072,-0.033267897,0.20083438,0.0,0.0,-0.72782344,0
638456000,-0.03536006,-0.051515114,0.1871066,0.0,0.0,-0.72576326,0
638476000,-0.019796964,-0.041656148,0.17834593,0.0,0.0,-0.71891266,0
638496000,-0.0032632593,-0.07537937,0.16455379,0.0,0.0,-0.7179857,0
638516000,0.016165493,-0.053749558,0.15775837,0.0,0.0,-0.7213553,0
638536000,0.030634826,-0.08387302,0.14514706,0.0,0.0,-0.72148895,0
638556000,0.04432118,-0.061830875,0.13916782,0.0,0.0,-0.7187366,0
638576000,0.06283364,-0.08387638,0.12794824,0.0,0.0,-0.71845835,0
638592000,0.0687885,-0.090488106,0.12026145,0.0,0.0,-0.7183567,0
638612000,0.08537365,-0.09053494,0.11231682,0.0,0.0,-0.7175735,0
638632000,0.085655436,-0.08190599,0.10419163,0.0,0.0,-0.7170694,0
638656000,0.09446366,-0.079626024,0.09367725,0.0,0.0,-0.71699166,0
638676000,-0.072050124,-0.061820395,0.0862216,0.0,0.0,-0.7238267,0
638696000,-0.06974261,-0.07966179,0.07460684,0.0,0.0,-0.7237883,0
638716000,-0.06834926,-0.05235467,0.07075563,0.0,0.0,-0.72319937,0
638736000,-0.058170367,-0.06831966,0.06011708,0.0,0.0,-0.7224647,0
638756000,-0.049444914,-0.034831464,0.05777336,0.0,0.0,-0.7208822,0
638776000,-0.032172106,-0.057951957,0.046341375,0.0,0.0,-0.72082955,0
638796000,-0.022895785,-0.024754314,0.044351213,0.0,0.0,-0.7191775,0
638812000,-0.008454973,-0.04288601,0.035332926,0.0,0.0,-0.71878576,0
638836000,-0.00063372776,-0.012568854,0.03182958,0.0,0.0,-0.7177512,0
638856000,0.014633249,-0.035981316,0.021107286,0.0,0.0,-0.71783155,0
638872000,0.022333793,-0.033263225,0.016508162,0.0,0.0,-0.717193,0
638896000,0.031444263,-0.026318979,0.010521494,0.0,0.0,-0.71686876,0
638916000,0.03782486,0.0023172982,0.008569673,0.0,0.0,-0.7165118,0
638936000,0.048984878,-0.017569682,-0.0016315877,0.0,0.0,-0.7168028,0
638952000,0.05240386,-0.01863788,-0.006821554,0.0,0.0,-0.7166396,0
638976000,0.061086707,-0.016519118,-0.01426585,0.0,0.0,-0.7165731,0
638996000,0.060015213,0.016504359,-0.0149302,0.0,0.0,-0.7166033,0
639016000,0.063002355,-0.008580665,-0.025477339,0.0,0.0,-0.7171696,0
639032000,0.061273668,-0.004318385,-0.029508607,0.0,0.0,-0.717238,0
639056000,0.06329029,0.0014558202,-0.036408827,0.0,0.0,-0.71737784,0
639072000,0.064140126,-0.003531056,-0.04213665,0.0,0.0,-0.71763325,0
639096000,0.07199936,0.003455678,-0.048461407,0.0,0.0,-0.7171083,0
639116000,0.06800935,0.025898982,-0.05033284,0.0,0.0,-0.7171177,0
639136000,0.06575142,-0.0016347466,-0.062025316,0.0,0.0,-0.71769655,0
639156000,0.060585044,0.021583121,-0.06385081,0.0,0.0,-0.7176183,0
639176000,0.06110718,-0.0030563078,-0.07486825,0.0,0.0,-0.71822435,0
639196000,0.058847047,0.029195182,-0.07610538,0.0,0.0,-0.7174224,0
639216000,0.062121797,0.006581598,-0.08689949,0.0,0.0,-0.71754736,0
639236000,0.058213215,0.03354115,-0.08751705,0.0,0.0,-0.71642107,0
639256000,0.05603987,0.044538252,-0.094713435,0.0,0.0,-0.71585506,0
639272000,0.07868801,0.07139209,-0.09740846,0.0,0.0,-0.71396047,0
639296000,0.06990066,0.10875197,-0.10133269,0.0,0.0,-0.7136034,0
639312000,0.06923125,0.13676557,-0.10400848,0.0,0.0,-0.712934,0
639336000,0.06289711,0.1828023,-0.1075386,0.0,0.0,-0.7123203,0
639356000,0.054794356,0.23027685,-0.10623696,0.0,0.0,-0.7122205,0
639372000,0.04937595,0.24467793,-0.11474426,0.0,0.0,-0.7121837,0
639396000,0.039704923,0.29026896,-0.11296023,0.0,0.0,-0.7120066,0
639416000,0.034741756,0.2974989,-0.12111853,0.0,0.0,-0.7119269,0
639432000,0.027984848,0.31696692,-0.124014266,0.0,0.0,-0.7125148,0
639456000,0.02300115,0.34783834,-0.12845063,0.0,0.0,-0.7134222,0
639476000,0.020563155,0.3826001,-0.12861279,0.0,0.0,-0.7137344,0
639496000,0.017551802,0.3873091,-0.13787279,0.0,0.0,-0.71397203,0
639512000,0.011534378,0.40469974,-0.14099704,0.0,0.0,-0.714131,0
639536000,0.0040710596,0.41642606,-0.14708489,0.0,0.0,-0.71450716,0
639556000,0.001313312,0.44826588,-0.14669192,0.0,0.0,-0.71524024,0
639576000,-0.00072300714,0.43962762,-0.15675907,0.0,0.0,-0.71512973,0
639596000,-0.008366795,0.46147949,-0.15725362,0.0,0.0,-0.71542317,0
639616000,-0.010043718,0.45278385,-0.16851732,0.0,0.0,-0.7149366,0
639636000,-0.0119637055,0.46374214,-0.17047971,0.0,0.0,-0.7151651,0
639652000,-0.008773686,0.43304425,-0.18678126,0.0,0.0,-0.7149007,0
639676000,-0.011225928,0.40887594,-0.19027,0.0,0.0,-0.715005,0
639696000,-0.0052026543,0.36258304,-0.20603643,0.0,0.0,-0.714382,0
639712000,-0.004904041,0.34076232,-0.21422422,0.0,0.0,-0.71404445,0
639736000,0.16737203,0.32893556,-0.22899231,0.0,0.0,-0.7092823,0
639756000,0.16499296,0.31330878,-0.23376305,0.0,0.0,-0.7088267,0
639776000,0.16491371,0.265249,-0.24960817,0.0,0.0,-0.70831925,0
639796000,0.15472195,0.25354335,-0.25499594,0.0,0.0,-0.7091635,0
639816000,0.14574122,0.21244323,-0.27100146,0.0,0.0,-0.7091943,0
639836000,0.13710418,0.2124998,-0.27457276,0.0,0.0,-0.71047914,0
639852000,0.1303253,0.18156981,-0.2926479,0.0,0.0,-0.71064246,0
639872000,0.122911826,0.16533855,-0.29813898,0.0,0.0,-0.71060324,0
639896000,0.1042515,0.15397567,-0.30899152,0.0,0.0,-0.7110207,0
639916000,0.09202878,0.15266384,-0.31267592,0.0,0.0,-0.7109332,0
639936000,0.08000782,0.12999165,-0.32686883,0.0,0.0,-0.710933,0
639956000,0.06161343,0.1338341,-0.33013117,0.0,0.0,-0.7114785,0
639976000,0.05444458,0.10901618,-0.34467295,0.0,0.0,-0.71113074,0
639996000,0.04024636,0.11599718,-0.34754616,0.0,0.0,-0.7114371,0
640016000,0.03439249,0.09566665,-0.36222824,0.0,0.0,-0.7108777,0
640036000,0.024428135,0.10553658,-0.36299694,0.0,0.0,-0.7113118,0
640052000,0.19158608,0.114622295,-0.3794989,0.0,0.0,-0.70863533,0
640076000,0.1799851,0.12352711,-0.37732276,0.0,0.0,-0.70892036,0
640096000,0.17038763,0.10738067,-0.3915898,0.0,0.0,-0.7088021,0
640112000,0.15798165,0.102591515,-0.39774573,0.0,0.0,-0.7092015,0
640136000,0.13746804,0.096130356,-0.40719318,0.0,0.0,-0.70962,0
640156000,0.11950433,0.09758656,-0.40918195,0.0,0.0,-0.7106776,0
640176000,0.10680034,0.0735314,-0.42336038,0.0,0.0,-0.7107372,0
640196000,0.08808785,0.08018324,-0.4229747,0.0,0.0,-0.71123224,0
640212000,0.077058345,0.0629814,-0.43113223,0.0,0.0,-0.7113274,0
640236000,0.052440852,0.07778144,-0.42061552,0.0,0.0,-0.71220565,0
640256000,0.04295146,0.056504857,-0.4245789,0.0,0.0,-0.7125448,0
640276000,0.025330672,0.0712141,-0.41807628,0.0,0.0,-0.7135514,0
640296000,0.1834642,0.110847354,-0.41039464,0.0,0.0,-0.7122026,0
640316000,0.16878766,0.12502204,-0.39855725,0.0,0.0,-0.71328324,0
640336000,0.15967327,0.108216316,-0.39260817,0.0,0.0,-0.7130885,0
640356000,0.14204465,0.10897471,-0.38030005,0.0,0.0,-0.71351904,0
640376000,0.12404457,0.10312953,-0.3729702,0.0,0.0,-0.7137834,0
640392000,0.10537458,0.09851942,-0.370249,0.0,0.0,-0.71384686,0
640416000,0.079505354,0.083942294,-0.3661426,0.0,0.0,-0.7145811,0
640436000,0.049074963,0.09228139,-0.3584642,0.0,0.0,-0.7160833,0
640456000,0.032733146,0.075698085,-0.36018535,0.0,0.0,-0.71591735,0
640476000,0.010981908,0.07348129,-0.35263208,0.0,0.0,-0.71609503,0
640496000,-0.0040332526,0.06090029,-0.3543925,0.0,0.0,-0.71609294,0
640516000,0.1396593,0.12654509,-0.33932546,0.0,0.0,-0.715979,0
640532000,0.1347552,0.107510336,-0.336619,0.0,0.0,-0.7156839,0
640556000,0.11114992,0.110760435,-0.31931043,0.0,0.0,-0.7161601,0
640576000,0.09647714,0.0905769,-0.31187367,0.0,0.0,-0.71591824,0
640596000,0.07272433,0.08725562,-0.29946443,0.0,0.0,-0.7158905,0
640616000,0.055379692,0.07074665,-0.29832384,0.0,0.0,-0.7158049,0
640632000,0.045638084,0.06624359,-0.29893255,0.0,0.0,-0.71583396,0
640652000,0.033306602,0.06264676,-0.30415902,0.0,0.0,-0.71596724,0
640676000,0.011825029,0.068279065,-0.29805076,0.0,0.0,-0.7163018,0
640696000,0.0019662045,0.058401905,-0.31028038,0.0,0.0,-0.71617275,0
640716000,0.10184221,0.15710059,-0.30925867,0.0,0.0,-0.71788514,0
640736000,0.03820255,0.16705725,-0.32115427,0.0,0.0,-0.71876013,0
640756000,-0.01940639,0.18191493,-0.32343486,0.0,0.0,-0.719582,0
640776000,-0.08688292,0.1820626,-0.33760923,0.0,0.0,-0.72051394,0
640796000,-0.14483508,0.19063316,-0.3416956,0.0,0.0,-0.7215046,0
640816000,-0.20922336,0.1879759,-0.35722014,0.0,0.0,-0.7227612,0
640836000,-0.26160485,0.19254088,-0.36150134,0.0,0.0,-0.72415864,0
640856000,-0.32311708,0.18658435,-0.37763703,0.0,0.0,-0.7259742,0
640876000,-0.2186169,0.27285573,-0.37845185,0.0,0.0,-0.7253074,0
640896000,-0.27012432,0.26381186,-0.3950838,0.0,0.0,-0.7265264,0
640916000,-0.297116,0.2615251,-0.40036786,0.0,0.0,-0.72667366,0
640936000,-0.34252256,0.25717175,-0.41645375,0.0,0.0,-0.7281323,0
640956000,-0.37213928,0.2464828,-0.42149317,0.0,0.0,-0.7285836,0
640976000,-0.41970432,0.23721063,-0.43761626,0.0,0.0,-0.7306918,0
640996000,-0.43644872,0.22971532,-0.4419191,0.0,0.0,-0.73086303,0
641016000,-0.47136042,0.21942976,-0.45853642,0.0,0.0,-0.73267394,0
641036000,-0.47925526,0.21561211,-0.4618388,0.0,0.0,-0.7331997,0
641056000,-0.37382346,0.305086,-0.4654665,0.0,0.0,-0.731899,0
641076000,-0.37593934,0.29630893,-0.4681445,0.0,0.0,-0.7320878,0
641096000,-0.4098477,0.28981572,-0.48261723,0.0,0.0,-0.7346863,0
641116000,-0.41004276,0.2669394,-0.48718193,0.0,0.0,-0.73387927,0
641136000,-0.4259644,0.22111875,-0.50927055,0.0,0.0,-0.7343344,0
641156000,-0.41401988,0.17969649,-0.5169997,0.0,0.0,-0.7327827,0
641172000,-0.44249487,0.14219505,-0.5438131,0.0,0.0,-0.7339972,0
641192000,-0.43751916,0.10850126,-0.5503417,0.0,0.0,-0.73438793,0
641216000,-0.28312942,0.1759311,-0.5442394,0.0,0.0,-0.7271852,0
641236000,-0.25345367,0.1531278,-0.54862696,0.0,0.0,-0.72513974,0
641252000,-0.25312865,0.14134356,-0.57144713,0.0,0.0,-0.72529763,0
641276000,-0.22406146,0.12508975,-0.56798494,0.0,0.0,-0.7240645,0
641296000,-0.22775769,0.1081177,-0.58569235,0.0,0.0,-0.7255718,0
641316000,-0.21100399,0.09320125,-0.588182,0.0,0.0,-0.7249945,0
641336000,-0.0910309,0.18110506,-0.58084196,0.0,0.0,-0.72146255,0
641352000,-0.08912252,0.17341514,-0.587547,0.0,0.0,-0.7220525,0
641376000,-0.09082869,0.15225089,-0.6007662,0.0,0.0,-0.7227006,0
641396000,-0.08448935,0.13596694,-0.6031732,0.0,0.0,-0.72418916,0
641416000,-0.09846808,0.12496452,-0.62090737,0.0,0.0,-0.7264928,0
641436000,-0.09941557,0.11031672,-0.6228952,0.0,0.0,-0.7275043,0
641456000,-0.0045065284,0.21199772,-0.611741,0.0,0.0,-0.72520494,0
641476000,-0.0068696514,0.19758162,-0.61328125,0.0,0.0,-0.7260472,0
641496000,-0.03261531,0.18493389,-0.6322371,0.0,0.0,-0.7281152,0
641516000,-0.039130196,0.17039086,-0.6338576,0.0,0.0,-0.72909725,0
641532000,-0.06564692,0.15724787,-0.659277,0.0,0.0,-0.73131573,0
641556000,-0.07036853,0.13333312,-0.6559963,0.0,0.0,-0.7320727,0
641576000,0.0071808174,0.23396297,-0.64471966,0.0,0.0,-0.7301878,0
641596000,0.004349053,0.21302181,-0.64814305,0.0,0.0,-0.7309735,0
641616000,-0.02822274,0.19338174,-0.66953325,0.0,0.0,-0.73305064,0
641636000,-0.032205492,0.1642097,-0.67558056,0.0,0.0,-0.73287916,0
641656000,-0.06454557,0.14442588,-0.6972716,0.0,0.0,-0.7354382,0
641676000,0.028604284,0.24294159,-0.6672156,0.0,0.0,-0.7317764,0
641696000,-0.0005239919,0.22237507,-0.68932307,0.0,0.0,-0.73392487,0
641716000,-0.0066523105,0.19328064,-0.6956686,0.0,0.0,-0.73389417,0
641736000,-0.023931019,0.15539698,-0.7233438,0.0,0.0,-0.73441434,0
641756000,-0.0161004,0.10699819,-0.73429036,0.0,0.0,-0.7335624,0
641772000,0.06772677,0.19077227,-0.7361177,0.0,0.0,-0.73006636,0
641796000,0.081173494,0.14368959,-0.7378813,0.0,0.0,-0.72860175,0
641816000,0.0765254,0.10221389,-0.76709616,0.0,0.0,-0.72899956,0
641836000,0.079330534,0.061421663,-0.7758289,0.0,0.0,-0.7288246,0
641856000,0.08705406,0.045119315,-0.79871404,0.0,0.0,-0.7285903,0
641876000,0.17806293,0.13807797,-0.7717254,0.0,0.0,-0.7249929,0
641896000,0.16919401,0.09651968,-0.80288815,0.0,0.0,-0.7253279,0
641916000,0.17732272,0.054390937,-0.8126839,0.0,0.0,-0.72494143,0
641936000,0.16863568,0.008200556,-0.8444811,0.0,0.0,-0.7261487,0
641956000,0.24413493,0.111510724,-0.8161002,0.0,0.0,-0.72391737,0
641976000,0.25286028,0.09874779,-0.8390552,0.0,0.0,-0.7236047,0
641996000,0.2179226,0.050221622,-0.85089475,0.0,0.0,-0.7256014,0
642016000,0.1578452,-0.014435083,-0.87359643,0.0,0.0,-0.72895044,0
642032000,0.1819354,0.09038672,-0.845828,0.0,0.0,-0.7283875,0
642056000,0.12031876,0.012666911,-0.8580819,0.0,0.0,-0.7315363,0
642072000,0.08623555,-0.03674613,-0.8647053,0.0,0.0,-0.73332506,0
642096000,0.037312858,-0.12318206,-0.8760435,0.0,0.0,-0.73656136,0
642116000,0.06989433,-0.03097339,-0.83924866,0.0,0.0,-0.7334569,0
642132000,0.013414018,-0.10061923,-0.8650658,0.0,0.0,-0.73624367,0
642152000,-0.015108753,-0.15001999,-0.8606769,0.0,0.0,-0.73737407,0
642172000,-0.04720603,-0.22386496,-0.87615365,0.0,0.0,-0.7399194,0
642196000,-0.017487606,-0.11902812,-0.8248072,0.0,0.0,-0.73567706,0
642216000,-0.057426173,-0.18683769,-0.83983123,0.0,0.0,-0.7381525,0
642236000,-0.06490849,-0.23379278,-0.8339355,0.0,0.0,-0.73815405,0
642256000,-0.10143859,-0.28552938,-0.8438662,0.0,0.0,-0.74137604,0
642276000,-0.06971535,-0.14427373,-0.792976,0.0,0.0,-0.7358998,0
642296000,-0.060575135,-0.17881493,-0.79679036,0.0,0.0,-0.7354903,0
642312000,-0.04384158,-0.20247506,-0.7932047,0.0,0.0,-0.73427725,0
642336000,-0.020681627,-0.23297703,-0.78621626,0.0,0.0,-0.73315257,0
642356000,0.039066274,-0.09046805,-0.73523116,0.0,0.0,-0.7253741,0
642376000,0.047670476,-0.12185484,-0.7370188,0.0,0.0,-0.72562236,0
642396000,0.0813079,-0.13825765,-0.72048986,0.0,0.0,-0.7244664,0
642416000,0.114347674,-0.010409921,-0.68703204,0.0,0.0,-0.72019553,0
642436000,0.14877045,-0.027223289,-0.6722502,0.0,0.0,-0.7193513,0
642456000,0.15410541,-0.061010405,-0.67281526,0.0,0.0,-0.7209913,0
642476000,0.18423681,-0.079656065,-0.6572057,0.0,0.0,-0.72152346,0
642496000,0.20162752,0.04165259,-0.6264813,0.0,0.0,-0.7184645,0
642516000,0.21650964,0.04092984,-0.6076344,0.0,0.0,-0.7186661,0
642532000,0.22899574,0.031853735,-0.61002326,0.0,0.0,-0.7193927,0
642556000,0.2453846,0.20100202,-0.55105823,0.0,0.0,-0.71561676,0
642576000,0.25021055,0.1963308,-0.54812425,0.0,0.0,-0.7163817,0
642596000,0.2678852,0.19271566,-0.53222096,0.0,0.0,-0.71662074,0
642616000,0.27463594,0.17932065,-0.52857494,0.0,0.0,-0.71676046,0
642632000,0.27311292,0.34032577,-0.49555933,0.0,0.0,-0.7141464,0
642656000,0.2833469,0.32197487,-0.48631918,0.0,0.0,-0.71494925,0
642672000,0.28882676,0.30562603,-0.48136085,0.0,0.0,-0.71523076,0
