timestamp,timestamp_sample,time_last_fuse,device_id,observation,observation_variance,innovation,innovation_filtered,innovation_variance,test_ratio,test_ratio_filtered,estimator_instance,innovation_rejected,fused
625216000,625062000,625064000,0,-488.104,1.0,0.04043579,0.042553782,1.0852385,6.026521e-05,6.7700865e-05,0,0,1
625616000,625462000,625464000,0,-488.108,1.0,0.041534424,0.042100735,1.0853951,6.357531e-05,6.586729e-05,0,0,1
626016000,625858000,625864000,0,-488.097,1.0,0.027893066,0.035821453,1.085518,2.8669194e-05,4.9427057e-05,0,0,1
626416000,626262000,626264000,0,-488.104,1.0,0.03704834,0.036369752,1.0856378,5.057228e-05,4.993886e-05,0,0,1
626816000,626662000,626664000,0,-488.101,1.0,0.03164673,0.03427063,1.0857451,3.689689e-05,4.4142427e-05,0,0,1
627216000,627058000,627064000,0,-488.095,1.0,0.018554688,0.027324744,1.0858244,1.2682583e-05,3.0238301e-05,0,0,1
627616000,627462000,627464000,0,-488.104,1.0,0.025909424,0.026692234,1.0864725,2.4714782e-05,2.7769825e-05,0,0,1
628016000,627862000,627864000,0,-488.098,1.0,0.016082764,0.021976914,1.0864962,9.522548e-06,1.9659925e-05,0,0,1
628416000,628262000,628264000,0,-488.102,1.0,0.015777588,0.019221658,1.086482,9.164708e-06,1.4995383e-05,0,0,1
628816000,628662000,628664000,0,-488.103,1.0,0.016113281,0.017840156,1.0870377,9.553959e-06,1.2576972e-05,0,0,1
629216000,629058000,629064000,0,-488.105,1.0,0.014251709,0.01625419,1.0869503,7.4745353e-06,1.0321877e-05,0,0,1
629616000,629462000,629464000,0,-488.112,1.0,0.021087646,0.018414274,1.0874451,1.6357197e-05,1.3019077e-05,0,0,1
630016000,629862000,629864000,0,-488.101,1.0,0.009765625,0.01457043,1.0867122,3.5103103e-06,8.792958e-06,0,0,1
630416000,630258000,630264000,0,-488.105,1.0,-0.007659912,0.0047454126,1.0872078,2.1587134e-06,3.952711e-06,0,0,1
630816000,630662000,630664000,0,-488.22,1.0,-0.037078857,-0.013945963,1.0870662,5.0589068e-05,-2.0422152e-05,0,0,1
631216000,631062000,631064000,0,-488.473,1.0,-0.049682617,-0.029828921,1.0869445,9.083675e-05,-5.1717536e-05,0,0,1
631616000,631462000,631464000,0,-488.775,1.0,-0.043945312,-0.036102872,1.0868425,7.1075265e-05,-6.032097e-05,0,0,1
632016000,631862000,631864000,0,-489.089,1.0,-0.03805542,-0.03697067,1.08676,5.330395e-05,-5.7202295e-05,0,0,1
632416000,632262000,632264000,0,-489.397,1.0,-0.043060303,-0.039677173,1.0867062,6.82499e-05,-6.211234e-05,0,0,1
632816000,632662000,632664000,0,-489.706,1.0,-0.033569336,-0.03696258,1.0866568,4.148137e-05,-5.2943018e-05,0,0,1
633216000,633062000,633064000,0,-490.006,1.0,-0.015533447,-0.027438521,1.0865862,8.882424e-06,-3.3360528e-05,0,0,1
633616000,633462000,633464000,0,-490.268,1.0,-0.008026123,-0.018810788,1.0871003,2.3702928e-06,-1.9587089e-05,0,0,1
634016000,633862000,633864000,0,-490.487,1.0,-0.002105713,-0.01138631,1.0869813,1.6316847e-07,-1.0954235e-05,0,0,1
634416000,634262000,634264000,0,-490.602,1.0,0.034942627,0.009204329,1.0868402,4.493714e-05,1.3886377e-05,0,0,1
634816000,634662000,634664000,0,-490.685,1.0,0.022613525,0.015163973,1.0873194,1.8812192e-05,1.6075628e-05,0,0,1
635024000,634866000,634872000,0,-490.726,1.0,0.01687622,0.015660135,1.0834576,1.0514738e-05,1.4464234e-05,0,0,1
635424000,635266000,635272000,0,-490.796,1.0,0.016937256,0.016227745,1.0837543,1.0588033e-05,1.2741478e-05,0,0,1
635824000,635666000,635672000,0,-490.84,1.0,0.0014953613,0.009680018,1.0840186,8.2511704e-08,7.1152704e-06,0,0,1
636224000,636066000,636072000,0,-490.889,1.0,0.00030517578,0.0055134213,1.0848179,3.4340237e-09,3.954454e-06,0,0,1
636624000,636466000,636472000,0,-490.947,1.0,0.008178711,0.0066979947,1.0849963,2.4660476e-06,3.29294e-06,0,0,1
637016000,636862000,636864000,0,-490.969,1.0,0.0046691895,0.0058013354,1.08491,8.038023e-07,2.19283e-06,0,0,1
637424000,637266000,637272000,0,-490.977,1.0,0.010101318,0.007723009,1.0853242,3.7605955e-06,2.8934685e-06,0,0,1
637824000,637666000,637672000,0,-490.958,1.0,0.0007019043,0.004602518,1.0860723,1.8145004e-08,1.6155469e-06,0,0,1
638224000,638066000,638072000,0,-490.937,1.0,0.0028076172,0.0038047843,1.0861932,2.9028774e-07,1.0265428e-06,0,0,1
638624000,638466000,638472000,0,-490.907,1.0,0.012634277,0.0077290037,1.086292,5.877792e-06,3.1826537e-06,0,0,1
639024000,638866000,638872000,0,-490.867,1.0,0.0053710938,0.0066810437,1.0863826,1.0621911e-06,2.2402257e-06,0,0,1
639424000,639266000,639272000,0,-490.82,1.0,-0.0062561035,0.0009312001,1.0864241,1.4410149e-06,6.0411867e-07,0,0,1
639824000,639666000,639672000,0,-490.771,1.0,-0.009460449,-0.003687311,1.0870271,3.29339e-06,-1.1281074e-06,0,0,1
640224000,640066000,640072000,0,-490.735,1.0,-0.010620117,-0.006768558,1.0869946,4.150412e-06,-2.471354e-06,0,0,1
640624000,640466000,640472000,0,-490.715,1.0,-0.0038146973,-0.005455731,1.0869304,5.355233e-07,-1.6109848e-06,0,0,1
641024000,640866000,640872000,0,-490.683,1.0,-0.01550293,-0.009921153,1.0868421,8.845474e-06,-4.8263137e-06,0,0,1
641424000,641266000,641272000,0,-490.681,1.0,-0.025787354,-0.016972799,1.0873548,2.446258e-05,-1.3553544e-05,0,0,1
641824000,641666000,641672000,0,-490.71,1.0,-0.01675415,-0.016875621,1.0872494,1.0327035e-05,-1.211954e-05,0,0,1
642224000,642066000,642072000,0,-490.714,1.0,-0.018829346,-0.017743943,1.0871904,1.3044422e-05,-1.2530599e-05,0,0,1
642624000,642466000,642472000,0,-490.694,1.0,-0.04006958,-0.02766645,1.0871656,5.907366e-05,-3.3216405e-05,0,0,1
643024000,642866000,642872000,0,-490.683,1.0,-0.031219482,-0.029245576,1.0871599,3.5860634e-05,-3.4391618e-05,0,0,1
643424000,643266000,643272000,0,-490.655,1.0,-0.039489746,-0.033798542,1.0877565,5.7345187e-05,-4.4593206e-05,0,0,1
643824000,643666000,643672000,0,-490.661,1.0,-0.03302002,-0.033452533,1.0876796,4.0097166e-05,-4.2594966e-05,0,0,1
644224000,644066000,644072000,0,-490.658,1.0,-0.042755127,-0.03758702,1.0881816,6.71947e-05,-5.352818e-05,0,0,1
644624000,644466000,644472000,0,-490.659,1.0,-0.045959473,-0.041308112,1.0880544,7.765322e-05,-6.425042e-05,0,0,1
645024000,644866000,644872000,0,-490.662,1.0,-0.047058105,-0.043863665,1.08791,8.14209e-05,-7.188174e-05,0,0,1
645424000,645266000,645272000,0,-490.682,1.0,-0.033966064,-0.03946473,1.0883664,4.2400923e-05,-5.877915e-05,0,0,1
645816000,645662000,645664000,0,-490.674,1.0,-0.0519104,-0.04496527,1.0879531,9.9073746e-05,-7.658792e-05,0,0,1
646224000,646066000,646072000,0,-490.682,1.0,-0.041290283,-0.04332291,1.0880369,6.2677565e-05,-7.0371345e-05,0,0,1
646616000,646462000,646464000,0,-490.696,1.0,-0.043121338,-0.043233823,1.0876194,6.838605e-05,-6.9493915e-05,0,0,1
646824000,646666000,646672000,0,-490.72,1.0,-0.026947021,-0.038514353,1.083704,2.6802225e-05,-5.7123027e-05,0,0,1
647224000,647070000,647072000,0,-490.702,1.0,-0.039154053,-0.038800236,1.0840055,5.656945e-05,-5.6875633e-05,0,0,1
647624000,647466000,647472000,0,-490.684,1.0,-0.037261963,-0.038120374,1.084279,5.122128e-05,-5.437661e-05,0,0,1
648024000,647870000,647872000,0,-490.668,1.0,-0.039520264,-0.03874599,1.0850922,5.7574878e-05,-5.5805926e-05,0,0,1
648424000,648270000,648272000,0,-490.642,1.0,-0.059173584,-0.04782492,1.0852779,0.00012905498,-8.836106e-05,0,0,1
648824000,648670000,648672000,0,-490.631,1.0,-0.06655884,-0.056151107,1.0854506,0.00016325308,-0.0001216464,0,0,1
649224000,649070000,649072000,0,-490.636,1.0,-0.059509277,-0.057643626,1.0855962,0.00013048513,-0.00012557472,0,0,1
649624000,649470000,649472000,0,-490.63,1.0,-0.06729126,-0.061931465,1.0862949,0.00016673608,-0.00014386866,0,0,1
650024000,649870000,649872000,0,-490.627,1.0,-0.06878662,-0.064978205,1.0863538,0.00017421946,-0.0001573579,0,0,1
650424000,650270000,650272000,0,-490.633,1.0,-0.06265259,-0.0639446,1.0863992,0.00014452686,-0.00015165521,0,0,1
650824000,650670000,650672000,0,-490.628,1.0,-0.063323975,-0.063668765,1.0864359,0.00014763598,-0.00014986888,0,0,1
651224000,651070000,651072000,0,-490.631,1.0,-0.061065674,-0.06251184,1.0864751,0.0001372886,-0.00014427764,0,0,1
651624000,651470000,651472000,0,-490.631,1.0,-0.061187744,-0.06192335,1.0865135,0.00013783317,-0.00014141343,0,0,1
652024000,651870000,651872000,0,-490.624,1.0,-0.06866455,-0.06491944,1.0865104,0.00017357664,-0.0001557082,0,0,1
652424000,652270000,652272000,0,-490.629,1.0,-0.061523438,-0.0634101,1.0865071,0.00013935052,-0.00014843812,0,0,1
652824000,652670000,652672000,0,-490.623,1.0,-0.06454468,-0.06391436,1.0864897,0.00015337524,-0.00015063239,0,0,1
653224000,653070000,653072000,0,-490.631,1.0,-0.0579834,-0.061278377,1.0864594,0.00012378095,-0.00013869841,0,0,1
653624000,653470000,653472000,0,-490.625,1.0,-0.061767578,-0.0614958,1.0864387,0.00014046753,-0.00013948468,0,0,1
654024000,653870000,653872000,0,-490.629,1.0,-0.05947876,-0.06059934,1.0864189,0.00013025264,-0.00013538155,0,0,1
654424000,654270000,654272000,0,-490.637,1.0,-0.05065918,-0.05618149,1.0869786,9.4439856e-05,-0.000117185235,0,0,1
654824000,654670000,654672000,0,-490.64,1.0,-0.054718018,-0.05553106,1.0868977,0.00011018742,-0.0001140751,0,0,1
655232000,655074000,655080000,0,-490.65,1.0,-0.04849243,-0.05238548,1.0870355,8.65295e-05,-0.0001017649,0,0,1
655632000,655474000,655480000,0,-490.662,1.0,-0.04055786,-0.04712876,1.0869398,6.0534723e-05,-8.3440376e-05,0,0,1
656032000,655874000,655880000,0,-490.661,1.0,-0.040527344,-0.044194795,1.0868528,6.0448503e-05,-7.322177e-05,0,0,1
656432000,656274000,656280000,0,-490.657,1.0,-0.044158936,-0.04417886,1.0867448,7.177441e-05,-7.25785e-05,0,0,1
656832000,656674000,656680000,0,-490.667,1.0,-0.035736084,-0.040426515,1.0872278,4.6984365e-05,-6.1203325e-05,0,0,1
657232000,657074000,657080000,0,-490.658,1.0,-0.047851562,-0.043726537,1.0870745,8.425447e-05,-7.144828e-05,0,0,1
657632000,657474000,657480000,0,-490.669,1.0,-0.03857422,-0.041436616,1.0869063,5.475984e-05,-6.403119e-05,0,0,1
658024000,657870000,657872000,0,-490.662,1.0,-0.044036865,-0.042585835,1.0871263,7.13531e-05,-6.726721e-05,0,0,1
658432000,658274000,658280000,0,-490.67,1.0,-0.037506104,-0.040315688,1.0871992,5.175529e-05,-6.0334893e-05,0,0,1
658832000,658674000,658680000,0,-490.663,1.0,-0.046569824,-0.043095306,1.0876219,7.976112e-05,-6.896877e-05,0,0,1
659224000,659070000,659072000,0,-490.669,1.0,-0.04071045,-0.042041283,1.0871782,6.09777e-05,-6.543701e-05,0,0,1
659632000,659474000,659480000,0,-490.627,1.0,-0.02041626,-0.032377005,1.0872338,1.53352e-05,-4.3046377e-05,0,0,1
660024000,659870000,659872000,0,-490.503,1.0,-0.024261475,-0.02879023,1.0874273,2.1651807e-05,-3.3590743e-05,0,0,1
660424000,660270000,660272000,0,-490.323,1.0,0.0036621094,-0.014366968,1.0872568,4.933902e-07,-1.8442239e-05,0,0,1
660832000,660674000,660680000,0,-490.033,1.0,0.0105896,-0.0032138117,1.0873157,4.1253747e-06,-8.356713e-06,0,0,1
661232000,661074000,661080000,0,-489.744,1.0,0.004547119,0.0002354912,1.0871606,7.6074474e-07,-4.3045093e-06,0,0,1
661632000,661474000,661480000,0,-489.461,1.0,-0.0022583008,-0.0008728609,1.0870106,1.876678e-07,-2.474802e-06,0,0,1
662032000,661874000,661880000,0,-489.173,1.0,-0.0099487305,-0.004906581,1.0874588,3.6406798e-06,-2.99297e-06,0,0,1
662432000,662274000,662280000,0,-488.887,1.0,-0.0128479,-0.008436056,1.087278,6.0727266e-06,-4.361751e-06,0,0,1
662832000,662674000,662680000,0,-488.6,1.0,-0.018951416,-0.01310955,1.0870956,1.3215255e-05,-8.296642e-06,0,0,1
663232000,663074000,663080000,0,-488.32,1.0,-0.01953125,-0.01596364,1.0869298,1.4038431e-05,-1.0848548e-05,0,0,1
663632000,663474000,663480000,0,-488.108,1.0,-0.08123779,-0.044974376,1.0867767,0.00024290469,-0.00011398461,0,0,1
664032000,663874000,663880000,0,-488.111,1.0,-0.07220459,-0.057076693,1.0872604,0.0001918033,-0.00014857069,0,0,1
664432000,664274000,664280000,0,-488.11,1.0,-0.070495605,-0.06304065,1.0871365,0.00018285212,-0.00016380688,0,0,1
664832000,664674000,664680000,0,-488.105,1.0,-0.0730896,-0.06750685,1.087017,0.00019657795,-0.0001783718,0,0,1
665232000,665074000,665080000,0,-488.106,1.0,-0.06561279,-0.066665046,1.0869308,0.00015842917,-0.0001695084,0,0,1
665632000,665474000,665480000,0,-488.104,1.0,-0.062683105,-0.064895295,1.0868409,0.0001446089,-0.00015844195,0,0,1
666024000,665870000,665872000,0,-488.103,1.0,-0.060699463,-0.06304089,1.0871055,0.00013556825,-0.00014833259,0,0,1
666424000,666270000,666272000,0,-488.107,1.0,-0.054718018,-0.059341837,1.0869933,0.00011017773,-0.00013137488,0,0,1
666832000,666674000,666680000,0,-488.106,1.0,-0.055786133,-0.057752784,1.0870935,0.00011451058,-0.00012383818,0,0,1
667232000,667074000,667080000,0,-488.1,1.0,-0.05984497,-0.058682647,1.086967,0.00013179501,-0.00012737454,0,0,1
