timestamp,timestamp_sample,gps_hvel[0],gps_hvel[1],gps_vvel,gps_hpos[0],gps_hpos[1],gps_vpos,ev_hvel[0],ev_hvel[1],ev_vvel,ev_hpos[0],ev_hpos[1],ev_vpos,rng_vpos,baro_vpos,aux_hvel[0],aux_hvel[1],flow[0],flow[1],heading,mag_field[0],mag_field[1],mag_field[2],gravity[0],gravity[1],gravity[2],drag[0],drag[1],airspeed,beta,hagl,hagl_rate
625256000,625104000,0.055205215,0.013296725,0.034606624,0.029674534,-0.0027903349,0.04043579,0.0,0.0,0.0,0.0,0.0,0.0,0.0,0.03137207,0.0,0.0,0.0,0.0,0.0008332497,0.0008332497,-0.0042363256,-0.003870517,0.0011532989,-0.0017486464,-4.7683716e-07,0.0,0.0,0.0,0.0,0.0,0.0
625264000,625112000,0.055205215,0.013296725,0.034606624,0.029674534,-0.0027903349,0.04043579,0.0,0.0,0.0,0.0,0.0,0.0,0.0,0.03137207,0.0,0.0,0.0,0.0,0.0008332497,0.0008332497,-0.0042363256,-0.003870517,-0.008131336,0.013141617,-0.00013124943,0.0,0.0,0.0,0.0,0.0,0.0
625272000,625120000,0.055205215,0.013296725,0.034606624,0.029674534,-0.0027903349,0.04043579,0.0,0.0,0.0,0.0,0.0,0.0,0.0,0.03137207,0.0,0.0,0.0,0.0,0.0008332497,0.0008332497,-0.0042363256,-0.003870517,-0.011422865,-0.0061052786,-0.00013023615,0.0,0.0,0.0,0.0,0.0,0.0
625280000,625128000,0.055205215,0.013296725,0.034606624,0.029674534,-0.0027903349,0.04043579,0.0,0.0,0.0,0.0,0.0,0.0,0.0,0.03137207,0.0,0.0,0.0,0.0,0.0025045718,0.0025045718,0.0023577064,0.00094509125,0.005946579,-0.0076293694,-3.683567e-05,0.0,0.0,0.0,0.0,0.0,0.0
625288000,625136000,0.055205215,0.013296725,0.034606624,0.029674534,-0.0027903349,0.04043579,0.0,0.0,0.0,0.0,0.0,0.0,0.0,0.03137207,0.0,0.0,0.0,0.0,0.0025045718,0.0025045718,0.0023577064,0.00094509125,0.00872664,0.005599144,-1.692772e-05,0.0,0.0,0.0,0.0,0.0,0.0
625296000,625144000,0.055205215,0.013296725,0.034606624,0.029674534,-0.0027903349,0.04043579,0.0,0.0,0.0,0.0,0.0,0.0,0.0,0.03137207,0.0,0.0,0.0,0.0,0.0025045718,0.0025045718,0.0023577064,0.00094509125,0.010484737,0.0051694326,-2.7775764e-05,0.0,0.0,0.0,0.0,0.0,0.0
625304000,625152000,0.055205215,0.013296725,0.034606624,0.029674534,-0.0027903349,0.04043579,0.0,0.0,0.0,0.0,0.0,0.0,0.0,0.03137207,0.0,0.0,0.0,0.0,0.0025045718,0.0025045718,0.0023577064,0.00094509125,0.0047178646,0.0048754895,-1.66893e-06,0.0,0.0,0.0,0.0,0.0,0.0
625312000,625160000,0.055205215,0.013296725,0.034606624,0.029674534,-0.0027903349,0.04043579,0.0,0.0,0.0,0.0,0.0,0.0,0.0,0.03137207,0.0,0.0,0.0,0.0,0.0025045718,0.0025045718,0.0023577064,0.00094509125,0.015628094,-0.005941212,-9.75132e-05,0.0,0.0,0.0,0.0,0.0,0.0
625328000,625176000,0.055205215,0.013296725,0.034606624,0.029674534,-0.0027903349,0.04043579,0.0,0.0,0.0,0.0,0.0,0.0,0.0,-0.029327393,0.0,0.0,0.0,0.0,0.0025045718,0.0025045718,0.0023577064,0.00094509125,-0.008467502,0.0020284946,-6.222725e-05,0.0,0.0,0.0,0.0,0.0,0.0
625336000,625184000,0.055205215,0.013296725,0.034606624,0.029674534,-0.0027903349,0.04043579,0.0,0.0,0.0,0.0,0.0,0.0,0.0,-0.029327393,0.0,0.0,0.0,0.0,0.0025045718,0.0025045718,0.0023577064,0.00094509125,-0.0082433075,-0.00419828,-7.57575e-05,0.0,0.0,0.0,0.0,0.0,0.0
625344000,625192000,0.055205215,0.013296725,0.034606624,0.029674534,-0.0027903349,0.04043579,0.0,0.0,0.0,0.0,0.0,0.0,0.0,-0.029327393,0.0,0.0,0.0,0.0,0.0025045718,0.0025045718,0.0023577064,0.00094509125,-0.0034026853,0.00066783937,-1.6093254e-05,0.0,0.0,0.0,0.0,0.0,0.0
625352000,625200000,0.055205215,0.013296725,0.034606624,0.029674534,-0.0027903349,0.04043579,0.0,0.0,0.0,0.0,0.0,0.0,0.0,-0.029327393,0.0,0.0,0.0,0.0,0.005910522,0.005910522,0.0035098642,-0.0009023845,-0.0022450974,0.00093067595,-9.059906e-06,0.0,0.0,0.0,0.0,0.0,0.0
625368000,625216000,0.055205215,0.013296725,0.034606624,0.029674534,-0.0027903349,0.04043579,0.0,0.0,0.0,0.0,0.0,0.0,0.0,-0.029327393,0.0,0.0,0.0,0.0,0.005910522,0.005910522,0.0035098642,-0.0009023845,-0.0065032216,0.011847351,-9.536743e-05,0.0,0.0,0.0,0.0,0.0,0.0
625376000,625224000,0.055205215,0.013296725,0.034606624,0.029674534,-0.0027903349,0.04043579,0.0,0.0,0.0,0.0,0.0,0.0,0.0,-0.029327393,0.0,0.0,0.0,0.0,0.005910522,0.005910522,0.0035098642,-0.0009023845,0.007287557,0.00055068574,-2.2053719e-06,0.0,0.0,0.0,0.0,0.0,0.0
625384000,625232000,0.055205215,0.013296725,0.034606624,0.029674534,-0.0027903349,0.04043579,0.0,0.0,0.0,0.0,0.0,0.0,0.0,-0.029327393,0.0,0.0,0.0,0.0,0.005910522,0.005910522,0.0035098642,-0.0009023845,0.0022835424,-0.009885323,-5.8948994e-05,0.0,0.0,0.0,0.0,0.0,0.0
625392000,625240000,0.055205215,0.013296725,0.034606624,0.029674534,-0.0027903349,0.04043579,0.0,0.0,0.0,0.0,0.0,0.0,0.0,-0.029327393,0.0,0.0,0.0,0.0,0.005910522,0.005910522,0.0035098642,-0.0009023845,0.0026368746,-0.0028308325,-3.5762787e-06,0.0,0.0,0.0,0.0,0.0,0.0
625408000,625256000,0.055205215,0.013296725,0.034606624,0.029674534,-0.0027903349,0.04043579,0.0,0.0,0.0,0.0,0.0,0.0,0.0,0.061157227,0.0,0.0,0.0,0.0,0.005910522,0.005910522,0.0035098642,-0.0009023845,0.00876829,-0.00080717984,-1.2457371e-05,0.0,0.0,0.0,0.0,0.0,0.0
625416000,625264000,0.055205215,0.013296725,0.034606624,0.029674534,-0.0027903349,0.04043579,0.0,0.0,0.0,0.0,0.0,0.0,0.0,0.061157227,0.0,0.0,0.0,0.0,0.005910522,0.005910522,0.0035098642,-0.0009023845,-0.0033728,-0.002678458,-2.3782253e-05,0.0,0.0,0.0,0.0,0.0,0.0
625424000,625272000,0.055205215,0.013296725,0.034606624,0.029674534,-0.0027903349,0.04043579,0.0,0.0,0.0,0.0,0.0,0.0,0.0,0.061157227,0.0,0.0,0.0,0.0,-0.0008492172,-0.0027204545,-0.0024677813,-0.0008492172,0.0036485926,-0.009155312,-5.2452087e-05,0.0,0.0,0.0,0.0,0.0,0.0
625432000,625280000,0.055205215,0.013296725,0.034606624,0.029674534,-0.0027903349,0.04043579,0.0,0.0,0.0,0.0,0.0,0.0,0.0,0.061157227,0.0,0.0,0.0,0.0,-0.0008492172,-0.0027204545,-0.0024677813,-0.0008492172,0.0072396095,-0.011551544,-9.137392e-05,0.0,0.0,0.0,0.0,0.0,0.0
625448000,625296000,0.055205215,0.013296725,0.034606624,0.029674534,-0.0027903349,0.04043579,0.0,0.0,0.0,0.0,0.0,0.0,0.0,0.061157227,0.0,0.0,0.0,0.0,-0.0008492172,-0.0027204545,-0.0024677813,-0.0008492172,0.003207302,0.0017937501,6.4969063e-06,0.0,0.0,0.0,0.0,0.0,0.0
625456000,625304000,0.055205215,0.013296725,0.034606624,0.029674534,-0.0027903349,0.04043579,0.0,0.0,0.0,0.0,0.0,0.0,0.0,0.061157227,0.0,0.0,0.0,0.0,-0.0008492172,-0.0027204545,-0.0024677813,-0.0008492172,-0.0009038409,-0.0049366886,-2.3722649e-05,0.0,0.0,0.0,0.0,0.0,0.0
625464000,625312000,0.055205215,0.013296725,0.034606624,0.029674534,-0.0027903349,0.04043579,0.0,0.0,0.0,0.0,0.0,0.0,0.0,0.061157227,0.0,0.0,0.0,0.0,-0.0008492172,-0.0027204545,-0.0024677813,-0.0008492172,0.006481387,-0.006852471,-3.385544e-05,0.0,0.0,0.0,0.0,0.0,0.0
625472000,625320000,0.055205215,0.013296725,0.034606624,0.029674534,-0.0027903349,0.04043579,0.0,0.0,0.0,0.0,0.0,0.0,0.0,-0.018981934,0.0,0.0,0.0,0.0,-0.0008492172,-0.0027204545,-0.0024677813,-0.0008492172,0.007285163,-0.0052775377,-2.4795532e-05,0.0,0.0,0.0,0.0,0.0,0.0
625488000,625336000,0.055205215,0.013296725,0.034606624,0.029674534,-0.0027903349,0.04043579,0.0,0.0,0.0,0.0,0.0,0.0,0.0,-0.018981934,0.0,0.0,0.0,0.0,-0.0008492172,-0.0027204545,-0.0024677813,-0.0008492172,-0.0014524467,0.0035168552,-5.6028366e-06,0.0,0.0,0.0,0.0,0.0,0.0
625496000,625344000,0.055205215,0.013296725,0.034606624,0.029674534,-0.0027903349,0.04043579,0.0,0.0,0.0,0.0,0.0,0.0,0.0,-0.018981934,0.0,0.0,0.0,0.0,0.002362316,0.002362316,-0.0072778612,-0.0039532185,0.0015591653,-0.0058267377,-2.3841858e-05,0.0,0.0,0.0,0.0,0.0,0.0
625504000,625352000,0.055205215,0.013296725,0.034606624,0.029674534,-0.0027903349,0.04043579,0.0,0.0,0.0,0.0,0.0,0.0,0.0,-0.018981934,0.0,0.0,0.0,0.0,0.002362316,0.002362316,-0.0072778612,-0.0039532185,-0.0019625707,-0.0061849887,-4.0590763e-05,0.0,0.0,0.0,0.0,0.0,0.0
625512000,625360000,0.055205215,0.013296725,0.034606624,0.029674534,-0.0027903349,0.04043579,0.0,0.0,0.0,0.0,0.0,0.0,0.0,-0.018981934,0.0,0.0,0.0,0.0,0.002362316,0.002362316,-0.0072778612,-0.0039532185,0.0016725536,-0.00050971867,3.3974648e-06,0.0,0.0,0.0,0.0,0.0,0.0
625528000,625376000,0.055205215,0.013296725,0.034606624,0.029674534,-0.0027903349,0.04043579,0.0,0.0,0.0,0.0,0.0,0.0,0.0,-0.018981934,0.0,0.0,0.0,0.0,0.002362316,0.002362316,-0.0072778612,-0.0039532185,0.008575361,0.005136342,-9.059906e-06,0.0,0.0,0.0,0.0,0.0,0.0
625536000,625384000,0.055205215,0.013296725,0.034606624,0.029674534,-0.0027903349,0.04043579,0.0,0.0,0.0,0.0,0.0,0.0,0.0,-0.018981934,0.0,0.0,0.0,0.0,0.002362316,0.002362316,-0.0072778612,-0.0039532185,0.003394283,-0.00017206674,5.4836273e-06,0.0,0.0,0.0,0.0,0.0,0.0
625544000,625392000,0.055205215,0.013296725,0.034606624,0.029674534,-0.0027903349,0.04043579,0.0,0.0,0.0,0.0,0.0,0.0,0.0,0.07107544,0.0,0.0,0.0,0.0,0.002362316,0.002362316,-0.0072778612,-0.0039532185,-0.0005089126,0.0020241542,5.364418e-07,0.0,0.0,0.0,0.0,0.0,0.0
625552000,625400000,0.055205215,0.013296725,0.034606624,0.029674534,-0.0027903349,0.04043579,0.0,0.0,0.0,0.0,0.0,0.0,0.0,0.07107544,0.0,0.0,0.0,0.0,0.002362316,0.002362316,-0.0072778612,-0.0039532185,-0.0059810355,0.009290092,-6.043911e-05,0.0,0.0,0.0,0.0,0.0,0.0
625568000,625416000,0.055205215,0.013296725,0.034606624,0.029674534,-0.0027903349,0.04043579,0.0,0.0,0.0,0.0,0.0,0.0,0.0,0.07107544,0.0,0.0,0.0,0.0,0.0020161632,0.0020161632,-0.0012702793,-0.00124681,-0.0024056227,-0.0027735287,-2.1338463e-05,0.0,0.0,0.0,0.0,0.0,0.0
625576000,625424000,0.055205215,0.013296725,0.034606624,0.029674534,-0.0027903349,0.04043579,0.0,0.0,0.0,0.0,0.0,0.0,0.0,0.07107544,0.0,0.0,0.0,0.0,0.0020161632,0.0020161632,-0.0012702793,-0.00124681,0.008492373,0.0026619993,-4.351139e-06,0.0,0.0,0.0,0.0,0.0,0.0
625584000,625432000,0.055205215,0.013296725,0.034606624,0.029674534,-0.0027903349,0.04043579,0.0,0.0,0.0,0.0,0.0,0.0,0.0,0.07107544,0.0,0.0,0.0,0.0,0.0020161632,0.0020161632,-0.0012702793,-0.00124681,-0.0044528795,-0.0014254716,-2.9444695e-05,0.0,0.0,0.0,0.0,0.0,0.0
625592000,625440000,0.055205215,0.013296725,0.034606624,0.029674534,-0.0027903349,0.04043579,0.0,0.0,0.0,0.0,0.0,0.0,0.0,0.07107544,0.0,0.0,0.0,0.0,0.0020161632,0.0020161632,-0.0012702793,-0.00124681,-0.0008668164,-0.0006066875,-5.00679e-06,0.0,0.0,0.0,0.0,0.0,0.0
625608000,625456000,0.055205215,0.013296725,0.034606624,0.029674534,-0.0027903349,0.04043579,0.0,0.0,0.0,0.0,0.0,0.0,0.0,0.07107544,0.0,0.0,0.0,0.0,0.0020161632,0.0020161632,-0.0012702793,-0.00124681,-0.0109792575,0.012468322,-0.00014358759,0.0,0.0,0.0,0.0,0.0,0.0
625616000,625464000,0.037633903,0.019277487,0.041272275,0.029409088,-0.009863774,0.041534424,0.0,0.0,0.0,0.0,0.0,0.0,0.0,0.016082764,0.0,0.0,0.0,0.0,0.0020161632,0.0020161632,-0.0012702793,-0.00124681,-0.00043912604,0.006743787,-8.702278e-06,0.0,0.0,0.0,0.0,0.0,0.0
625624000,625472000,0.037633903,0.019277487,0.041272275,0.029409088,-0.009863774,0.041534424,0.0,0.0,0.0,0.0,0.0,0.0,0.0,0.016082764,0.0,0.0,0.0,0.0,0.0020161632,0.0020161632,-0.0012702793,-0.00124681,-0.0032402573,0.0070245788,-2.3961067e-05,0.0,0.0,0.0,0.0,0.0,0.0
625632000,625480000,0.037633903,0.019277487,0.041272275,0.029409088,-0.009863774,0.041534424,0.0,0.0,0.0,0.0,0.0,0.0,0.0,0.016082764,0.0,0.0,0.0,0.0,0.0020161632,0.0020161632,-0.0012702793,-0.00124681,0.0028922777,-0.008870009,-5.555153e-05,0.0,0.0,0.0,0.0,0.0,0.0
625648000,625496000,0.037633903,0.019277487,0.041272275,0.029409088,-0.009863774,0.041534424,0.0,0.0,0.0,0.0,0.0,0.0,0.0,0.016082764,0.0,0.0,0.0,0.0,-0.0010299087,-0.003991022,-0.0010299087,-0.0036406815,0.010560424,-0.0020920453,-2.7060509e-05,0.0,0.0,0.0,0.0,0.0,0.0
625656000,625504000,0.037633903,0.019277487,0.041272275,0.029409088,-0.009863774,0.041534424,0.0,0.0,0.0,0.0,0.0,0.0,0.0,0.016082764,0.0,0.0,0.0,0.0,-0.0010299087,-0.003991022,-0.0010299087,-0.0036406815,0.0030592445,-0.011716144,-9.286404e-05,0.0,0.0,0.0,0.0,0.0,0.0
625664000,625512000,0.037633903,0.019277487,0.041272275,0.029409088,-0.009863774,0.041534424,0.0,0.0,0.0,0.0,0.0,0.0,0.0,0.016082764,0.0,0.0,0.0,0.0,-0.0010299087,-0.003991022,-0.0010299087,-0.0036406815,-0.004352772,0.004399246,-2.2649765e-05,0.0,0.0,0.0,0.0,0.0,0.0
625672000,625520000,0.037633903,0.019277487,0.041272275,0.029409088,-0.009863774,0.041534424,0.0,0.0,0.0,0.0,0.0,0.0,0.0,0.016082764,0.0,0.0,0.0,0.0,-0.0010299087,-0.003991022,-0.0010299087,-0.0036406815,0.0036572607,0.0031757264,8.523464e-06,0.0,0.0,0.0,0.0,0.0,0.0
625688000,625536000,0.037633903,0.019277487,0.041272275,0.029409088,-0.009863774,0.041534424,0.0,0.0,0.0,0.0,0.0,0.0,0.0,0.022766113,0.0,0.0,0.0,0.0,-0.0010299087,-0.003991022,-0.0010299087,-0.0036406815,-0.0031452435,0.0063465377,-1.9013882e-05,0.0,0.0,0.0,0.0,0.0,0.0
625696000,625544000,0.037633903,0.019277487,0.041272275,0.029409088,-0.009863774,0.041534424,0.0,0.0,0.0,0.0,0.0,0.0,0.0,0.022766113,0.0,0.0,0.0,0.0,-0.0010299087,-0.003991022,-0.0010299087,-0.0036406815,0.0034202738,0.007821998,-5.841255e-06,0.0,0.0,0.0,0.0,0.0,0.0
625704000,625552000,0.037633903,0.019277487,0.041272275,0.029409088,-0.009863774,0.041534424,0.0,0.0,0.0,0.0,0.0,0.0,0.0,0.022766113,0.0,0.0,0.0,0.0,-0.0010299087,-0.003991022,-0.0010299087,-0.0036406815,-0.0034613572,-0.0008981663,-1.9729137e-05,0.0,0.0,0.0,0.0,0.0,0.0
625712000,625560000,0.037633903,0.019277487,0.041272275,0.029409088,-0.009863774,0.041534424,0.0,0.0,0.0,0.0,0.0,0.0,0.0,0.022766113,0.0,0.0,0.0,0.0,0.00096243364,0.00096243364,-0.0012847334,-0.0003835261,-0.00520338,-0.007249781,-7.426739e-05,0.0,0.0,0.0,0.0,0.0,0.0
625728000,625576000,0.037633903,0.019277487,0.041272275,0.029409088,-0.009863774,0.041534424,0.0,0.0,0.0,0.0,0.0,0.0,0.0,0.022766113,0.0,0.0,0.0,0.0,0.00096243364,0.00096243364,-0.0012847334,-0.0003835261,-0.0025558432,0.0055559874,-1.2636185e-05,0.0,0.0,0.0,0.0,0.0,0.0
625736000,625584000,0.037633903,0.019277487,0.041272275,0.029409088,-0.009863774,0.041534424,0.0,0.0,0.0,0.0,0.0,0.0,0.0,0.022766113,0.0,0.0,0.0,0.0,0.00096243364,0.00096243364,-0.0012847334,-0.0003835261,-0.006409075,-0.003035782,-5.364418e-05,0.0,0.0,0.0,0.0,0.0,0.0
625744000,625592000,0.037633903,0.019277487,0.041272275,0.029409088,-0.009863774,0.041534424,0.0,0.0,0.0,0.0,0.0,0.0,0.0,0.022766113,0.0,0.0,0.0,0.0,0.00096243364,0.00096243364,-0.0012847334,-0.0003835261,0.00035811355,-0.0072295275,-4.1365623e-05,0.0,0.0,0.0,0.0,0.0,0.0
625752000,625600000,0.037633903,0.019277487,0.041272275,0.029409088,-0.009863774,0.041534424,0.0,0.0,0.0,0.0,0.0,0.0,0.0,0.023132324,0.0,0.0,0.0,0.0,0.00096243364,0.00096243364,-0.0012847334,-0.0003835261,-0.009432133,-0.0063750404,-0.00011283159,0.0,0.0,0.0,0.0,0.0,0.0
625768000,625616000,0.037633903,0.019277487,0.041272275,0.029409088,-0.009863774,0.041534424,0.0,0.0,0.0,0.0,0.0,0.0,0.0,0.023132324,0.0,0.0,0.0,0.0,0.00096243364,0.00096243364,-0.0012847334,-0.0003835261,-0.003796623,-0.0016488524,-2.5629997e-05,0.0,0.0,0.0,0.0,0.0,0.0
625776000,625624000,0.037633903,0.019277487,0.041272275,0.029409088,-0.009863774,0.041534424,0.0,0.0,0.0,0.0,0.0,0.0,0.0,0.023132324,0.0,0.0,0.0,0.0,0.0042575556,0.0042575556,-0.00060886145,0.0016170144,-0.002905974,-0.006723494,-5.1796436e-05,0.0,0.0,0.0,0.0,0.0,0.0
625784000,625632000,0.037633903,0.019277487,0.041272275,0.029409088,-0.009863774,0.041534424,0.0,0.0,0.0,0.0,0.0,0.0,0.0,0.023132324,0.0,0.0,0.0,0.0,0.0042575556,0.0042575556,-0.00060886145,0.0016170144,0.0057178605,-0.004779378,-1.8537045e-05,0.0,0.0,0.0,0.0,0.0,0.0
625792000,625640000,0.037633903,0.019277487,0.041272275,0.029409088,-0.009863774,0.041534424,0.0,0.0,0.0,0.0,0.0,0.0,0.0,0.023132324,0.0,0.0,0.0,0.0,0.0042575556,0.0042575556,-0.00060886145,0.0016170144,0.0031342143,0.0022302356,8.34465e-06,0.0,0.0,0.0,0.0,0.0,0.0
625808000,625656000,0.037633903,0.019277487,0.041272275,0.029409088,-0.009863774,0.041534424,0.0,0.0,0.0,0.0,0.0,0.0,0.0,0.03744507,0.0,0.0,0.0,0.0,0.0042575556,0.0042575556,-0.00060886145,0.0016170144,-0.000104232924,0.003531966,1.1324883e-06,0.0,0.0,0.0,0.0,0.0,0.0
625816000,625664000,0.037633903,0.019277487,0.041272275,0.029409088,-0.009863774,0.041534424,0.0,0.0,0.0,0.0,0.0,0.0,0.0,0.03744507,0.0,0.0,0.0,0.0,0.0042575556,0.0042575556,-0.00060886145,0.0016170144,0.0005264643,-0.0042747306,-1.6748905e-05,0.0,0.0,0.0,0.0,0.0,0.0
625824000,625672000,0.037633903,0.019277487,0.041272275,0.029409088,-0.009863774,0.041534424,0.0,0.0,0.0,0.0,0.0,0.0,0.0,0.03744507,0.0,0.0,0.0,0.0,0.0042575556,0.0042575556,-0.00060886145,0.0016170144,0.0053042816,-0.010347824,-7.009506e-05,0.0,0.0,0.0,0.0,0.0,0.0
625832000,625680000,0.037633903,0.019277487,0.041272275,0.029409088,-0.009863774,0.041534424,0.0,0.0,0.0,0.0,0.0,0.0,0.0,0.03744507,0.0,0.0,0.0,0.0,0.0042575556,0.0042575556,-0.00060886145,0.0016170144,-0.0024958246,-0.0018133901,-1.6987324e-05,0.0,0.0,0.0,0.0,0.0,0.0
625848000,625696000,0.037633903,0.019277487,0.041272275,0.029409088,-0.009863774,0.041534424,0.0,0.0,0.0,0.0,0.0,0.0,0.0,0.03744507,0.0,0.0,0.0,0.0,0.0013275384,0.0013275384,0.0007030517,-0.00070890784,0.006071509,0.009772918,-2.4855137e-05,0.0,0.0,0.0,0.0,0.0,0.0
625856000,625704000,0.037633903,0.019277487,0.041272275,0.029409088,-0.009863774,0.041534424,0.0,0.0,0.0,0.0,0.0,0.0,0.0,0.03744507,0.0,0.0,0.0,0.0,0.0013275384,0.0013275384,0.0007030517,-0.00070890784,-0.0021279338,0.010922893,-4.7445297e-05,0.0,0.0,0.0,0.0,0.0,0.0
625864000,625712000,0.037633903,0.019277487,0.041272275,0.029409088,-0.009863774,0.041534424,0.0,0.0,0.0,0.0,0.0,0.0,0.0,0.03744507,0.0,0.0,0.0,0.0,0.0013275384,0.0013275384,0.0007030517,-0.00070890784,0.0054535484,0.00020118279,4.5895576e-06,0.0,0.0,0.0,0.0,0.0,0.0
625872000,625720000,0.037633903,0.019277487,0.041272275,0.029409088,-0.009863774,0.041534424,0.0,0.0,0.0,0.0,0.0,0.0,0.0,0.03744507,0.0,0.0,0.0,0.0,0.0013275384,0.0013275384,0.0007030517,-0.00070890784,0.0063524367,0.0010150584,3.3974648e-06,0.0,0.0,0.0,0.0,0.0,0.0
625888000,625736000,0.037633903,0.019277487,0.041272275,0.029409088,-0.009863774,0.041534424,0.0,0.0,0.0,0.0,0.0,0.0,0.0,0.014404297,0.0,0.0,0.0,0.0,0.0013275384,0.0013275384,0.0007030517,-0.00070890784,0.008504622,-0.005570286,-3.5226345e-05,0.0,0.0,0.0,0.0,0.0,0.0
625896000,625744000,0.037633903,0.019277487,0.041272275,0.029409088,-0.009863774,0.041534424,0.0,0.0,0.0,0.0,0.0,0.0,0.0,0.014404297,0.0,0.0,0.0,0.0,0.0013275384,0.0013275384,0.0007030517,-0.00070890784,0.0006504881,0.011079177,-3.2901764e-05,0.0,0.0,0.0,0.0,0.0,0.0
625904000,625752000,0.037633903,0.019277487,0.041272275,0.029409088,-0.009863774,0.041534424,0.0,0.0,0.0,0.0,0.0,0.0,0.0,0.014404297,0.0,0.0,0.0,0.0,0.0013275384,0.0013275384,0.0007030517,-0.00070890784,0.0004926382,-0.00025781896,1.013279e-06,0.0,0.0,0.0,0.0,0.0,0.0
625912000,625760000,0.037633903,0.019277487,0.041272275,0.029409088,-0.009863774,0.041534424,0.0,0.0,0.0,0.0,0.0,0.0,0.0,0.014404297,0.0,0.0,0.0,0.0,0.0013275384,0.0013275384,0.0007030517,-0.00070890784,-0.008703512,-0.0007073323,-7.092953e-05,0.0,0.0,0.0,0.0,0.0,0.0
625928000,625776000,0.037633903,0.019277487,0.041272275,0.029409088,-0.009863774,0.041534424,0.0,0.0,0.0,0.0,0.0,0.0,0.0,0.014404297,0.0,0.0,0.0,0.0,0.0032923697,0.0032923697,0.00064995885,-0.002593279,0.0058568968,0.0013680917,6.020069e-06,0.0,0.0,0.0,0.0,0.0,0.0
625936000,625784000,0.037633903,0.019277487,0.041272275,0.029409088,-0.009863774,0.041534424,0.0,0.0,0.0,0.0,0.0,0.0,0.0,0.014404297,0.0,0.0,0.0,0.0,0.0032923697,0.0032923697,0.00064995885,-0.002593279,-0.0017806012,-4.602922e-05,-7.748604e-06,0.0,0.0,0.0,0.0,0.0,0.0
625944000,625792000,0.037633903,0.019277487,0.041272275,0.029409088,-0.009863774,0.041534424,0.0,0.0,0.0,0.0,0.0,0.0,0.0,0.06655884,0.0,0.0,0.0,0.0,0.0032923697,0.0032923697,0.00064995885,-0.002593279,0.0042488924,-0.0012202824,1.4305115e-06,0.0,0.0,0.0,0.0,0.0,0.0
625952000,625800000,0.037633903,0.019277487,0.041272275,0.029409088,-0.009863774,0.041534424,0.0,0.0,0.0,0.0,0.0,0.0,0.0,0.06655884,0.0,0.0,0.0,0.0,0.0032923697,0.0032923697,0.00064995885,-0.002593279,-0.0007238288,-0.0042381333,-2.259016e-05,0.0,0.0,0.0,0.0,0.0,0.0
625968000,625816000,0.037633903,0.019277487,0.041272275,0.029409088,-0.009863774,0.041534424,0.0,0.0,0.0,0.0,0.0,0.0,0.0,0.06655884,0.0,0.0,0.0,0.0,0.0032923697,0.0032923697,0.00064995885,-0.002593279,-0.004655607,-0.0067460635,-6.568432e-05,0.0,0.0,0.0,0.0,0.0,0.0
625976000,625824000,0.037633903,0.019277487,0.041272275,0.029409088,-0.009863774,0.041534424,0.0,0.0,0.0,0.0,0.0,0.0,0.0,0.06655884,0.0,0.0,0.0,0.0,0.0032923697,0.0032923697,0.00064995885,-0.002593279,-0.0018401367,0.0010453169,-6.020069e-06,0.0,0.0,0.0,0.0,0.0,0.0
625984000,625832000,0.037633903,0.019277487,0.041272275,0.029409088,-0.009863774,0.041534424,0.0,0.0,0.0,0.0,0.0,0.0,0.0,0.06655884,0.0,0.0,0.0,0.0,-0.00021984725,-0.00021984725,-0.0023446977,-0.0017150044,0.00032558176,0.0034368162,3.5762787e-06,0.0,0.0,0.0,0.0,0.0,0.0
625992000,625840000,0.037633903,0.019277487,0.041272275,0.029409088,-0.009863774,0.041534424,0.0,0.0,0.0,0.0,0.0,0.0,0.0,0.06655884,0.0,0.0,0.0,0.0,-0.00021984725,-0.00021984725,-0.0023446977,-0.0017150044,-0.002291587,0.0016372197,-7.56979e-06,0.0,0.0,0.0,0.0,0.0,0.0
626008000,625856000,0.037633903,0.019277487,0.041272275,0.029409088,-0.009863774,0.041534424,0.0,0.0,0.0,0.0,0.0,0.0,0.0,0.019073486,0.0,0.0,0.0,0.0,-0.00021984725,-0.00021984725,-0.0023446977,-0.0017150044,-0.007202627,-0.0027811048,-6.0796738e-05,0.0,0.0,0.0,0.0,0.0,0.0
626016000,625864000,0.040217545,0.0065423036,0.038640648,0.032319132,-0.011967225,0.027893066,0.0,0.0,0.0,0.0,0.0,0.0,0.0,0.019073486,0.0,0.0,0.0,0.0,-0.00021984725,-0.00021984725,-0.0023446977,-0.0017150044,-0.0036185635,-1.6392907e-05,-1.835823e-05,0.0,0.0,0.0,0.0,0.0,0.0
626024000,625872000,0.040217545,0.0065423036,0.038640648,0.032319132,-0.011967225,0.027893066,0.0,0.0,0.0,0.0,0.0,0.0,0.0,0.019073486,0.0,0.0,0.0,0.0,-0.00021984725,-0.00021984725,-0.0023446977,-0.0017150044,-0.0039257635,0.0046147937,-2.0563602e-05,0.0,0.0,0.0,0.0,0.0,0.0
626032000,625880000,0.040217545,0.0065423036,0.038640648,0.032319132,-0.011967225,0.027893066,0.0,0.0,0.0,0.0,0.0,0.0,0.0,0.019073486,0.0,0.0,0.0,0.0,-0.00021984725,-0.00021984725,-0.0023446977,-0.0017150044,0.0009490999,-0.008679528,-5.4001808e-05,0.0,0.0,0.0,0.0,0.0,0.0
626048000,625896000,0.040217545,0.0065423036,0.038640648,0.032319132,-0.011967225,0.027893066,0.0,0.0,0.0,0.0,0.0,0.0,0.0,0.019073486,0.0,0.0,0.0,0.0,-0.00021984725,-0.00021984725,-0.0023446977,-0.0017150044,0.0010046903,0.0037060324,3.516674e-06,0.0,0.0,0.0,0.0,0.0,0.0
626056000,625904000,0.040217545,0.0065423036,0.038640648,0.032319132,-0.011967225,0.027893066,0.0,0.0,0.0,0.0,0.0,0.0,0.0,0.019073486,0.0,0.0,0.0,0.0,0.0018664896,0.0009800897,-0.0017198771,0.0018664896,-0.002513822,-0.0007506395,-1.2695789e-05,0.0,0.0,0.0,0.0,0.0,0.0
626064000,625912000,0.040217545,0.0065423036,0.038640648,0.032319132,-0.011967225,0.027893066,0.0,0.0,0.0,0.0,0.0,0.0,0.0,0.018981934,0.0,0.0,0.0,0.0,0.0018664896,0.0009800897,-0.0017198771,0.0018664896,0.0022834039,-0.0010141709,1.9073486e-06,0.0,0.0,0.0,0.0,0.0,0.0
626072000,625920000,0.040217545,0.0065423036,0.038640648,0.032319132,-0.011967225,0.027893066,0.0,0.0,0.0,0.0,0.0,0.0,0.0,0.018981934,0.0,0.0,0.0,0.0,0.0018664896,0.0009800897,-0.0017198771,0.0018664896,-0.002317361,0.0002272611,-9.536743e-06,0.0,0.0,0.0,0.0,0.0,0.0
626088000,625936000,0.040217545,0.0065423036,0.038640648,0.032319132,-0.011967225,0.027893066,0.0,0.0,0.0,0.0,0.0,0.0,0.0,0.018981934,0.0,0.0,0.0,0.0,0.0018664896,0.0009800897,-0.0017198771,0.0018664896,0.001287411,-0.002743165,-5.9604645e-06,0.0,0.0,0.0,0.0,0.0,0.0
626096000,625944000,0.040217545,0.0065423036,0.038640648,0.032319132,-0.011967225,0.027893066,0.0,0.0,0.0,0.0,0.0,0.0,0.0,0.018981934,0.0,0.0,0.0,0.0,0.0018664896,0.0009800897,-0.0017198771,0.0018664896,0.0058913305,-0.005957731,-2.8908253e-05,0.0,0.0,0.0,0.0,0.0,0.0
626104000,625952000,0.040217545,0.0065423036,0.038640648,0.032319132,-0.011967225,0.027893066,0.0,0.0,0.0,0.0,0.0,0.0,0.0,0.018981934,0.0,0.0,0.0,0.0,0.0018664896,0.0009800897,-0.0017198771,0.0018664896,0.008589932,-0.002050919,-1.5974045e-05,0.0,0.0,0.0,0.0,0.0,0.0
626112000,625960000,0.040217545,0.0065423036,0.038640648,0.032319132,-0.011967225,0.027893066,0.0,0.0,0.0,0.0,0.0,0.0,0.0,0.018981934,0.0,0.0,0.0,0.0,0.0018664896,0.0009800897,-0.0017198771,0.0018664896,0.00546332,-0.0034813937,-1.0788441e-05,0.0,0.0,0.0,0.0,0.0,0.0
626128000,625976000,0.040217545,0.0065423036,0.038640648,0.032319132,-0.011967225,0.027893066,0.0,0.0,0.0,0.0,0.0,0.0,0.0,-0.018463135,0.0,0.0,0.0,0.0,0.0024347028,0.0024347028,0.0005906075,-0.0017845631,-0.0013904204,0.001655241,-3.3974648e-06,0.0,0.0,0.0,0.0,0.0,0.0
626136000,625984000,0.040217545,0.0065423036,0.038640648,0.032319132,-0.011967225,0.027893066,0.0,0.0,0.0,0.0,0.0,0.0,0.0,-0.018463135,0.0,0.0,0.0,0.0,0.0024347028,0.0024347028,0.0005906075,-0.0017845631,0.0049423254,0.007634186,-9.417534e-06,0.0,0.0,0.0,0.0,0.0,0.0
626144000,625992000,0.040217545,0.0065423036,0.038640648,0.032319132,-0.011967225,0.027893066,0.0,0.0,0.0,0.0,0.0,0.0,0.0,-0.018463135,0.0,0.0,0.0,0.0,0.0024347028,0.0024347028,0.0005906075,-0.0017845631,0.005826596,0.01001661,-2.6583672e-05,0.0,0.0,0.0,0.0,0.0,0.0
626152000,626000000,0.040217545,0.0065423036,0.038640648,0.032319132,-0.011967225,0.027893066,0.0,0.0,0.0,0.0,0.0,0.0,0.0,-0.018463135,0.0,0.0,0.0,0.0,0.0024347028,0.0024347028,0.0005906075,-0.0017845631,0.002189943,0.003218032,6.556511e-06,0.0,0.0,0.0,0.0,0.0,0.0
626168000,626016000,0.040217545,0.0065423036,0.038640648,0.032319132,-0.011967225,0.027893066,0.0,0.0,0.0,0.0,0.0,0.0,0.0,-0.018463135,0.0,0.0,0.0,0.0,0.0024347028,0.0024347028,0.0005906075,-0.0017845631,-0.0018111106,-0.0007761298,-9.23872e-06,0.0,0.0,0.0,0.0,0.0,0.0
626176000,626024000,0.040217545,0.0065423036,0.038640648,0.032319132,-0.011967225,0.027893066,0.0,0.0,0.0,0.0,0.0,0.0,0.0,-0.018463135,0.0,0.0,0.0,0.0,0.0024347028,0.0024347028,0.0005906075,-0.0017845631,0.0035905193,0.005205146,2.3841858e-06,0.0,0.0,0.0,0.0,0.0,0.0
626184000,626032000,0.040217545,0.0065423036,0.038640648,0.032319132,-0.011967225,0.027893066,0.0,0.0,0.0,0.0,0.0,0.0,0.0,-0.018463135,0.0,0.0,0.0,0.0,0.0024347028,0.0024347028,0.0005906075,-0.0017845631,0.00037686713,0.005054323,-1.3113022e-06,0.0,0.0,0.0,0.0,0.0,0.0
626192000,626040000,0.040217545,0.0065423036,0.038640648,0.032319132,-0.011967225,0.027893066,0.0,0.0,0.0,0.0,0.0,0.0,0.0,-0.017700195,0.0,0.0,0.0,0.0,0.0015886176,0.0015886176,-0.0020082593,0.00012001395,-0.00074809557,0.0010466914,-1.0728836e-06,0.0,0.0,0.0,0.0,0.0,0.0
626208000,626056000,0.040217545,0.0065423036,0.038640648,0.032319132,-0.011967225,0.027893066,0.0,0.0,0.0,0.0,0.0,0.0,0.0,-0.017700195,0.0,0.0,0.0,0.0,0.0015886176,0.0015886176,-0.0020082593,0.00012001395,0.0018113431,0.0025307878,6.556511e-06,0.0,0.0,0.0,0.0,0.0,0.0
626216000,626064000,0.040217545,0.0065423036,0.038640648,0.032319132,-0.011967225,0.027893066,0.0,0.0,0.0,0.0,0.0,0.0,0.0,-0.017700195,0.0,0.0,0.0,0.0,0.0015886176,0.0015886176,-0.0020082593,0.00012001395,0.00253586,-0.008154475,-4.4047832e-05,0.0,0.0,0.0,0.0,0.0,0.0
626224000,626072000,0.040217545,0.0065423036,0.038640648,0.032319132,-0.011967225,0.027893066,0.0,0.0,0.0,0.0,0.0,0.0,0.0,-0.017700195,0.0,0.0,0.0,0.0,0.0015886176,0.0015886176,-0.0020082593,0.00012001395,0.0011055546,-0.009976583,-6.645918e-05,0.0,0.0,0.0,0.0,0.0,0.0
626232000,626080000,0.040217545,0.0065423036,0.038640648,0.032319132,-0.011967225,0.027893066,0.0,0.0,0.0,0.0,0.0,0.0,0.0,-0.017700195,0.0,0.0,0.0,0.0,0.0015886176,0.0015886176,-0.0020082593,0.00012001395,0.0013502884,0.0032930416,4.4703484e-06,0.0,0.0,0.0,0.0,0.0,0.0
626248000,626096000,0.040217545,0.0065423036,0.038640648,0.032319132,-0.011967225,0.027893066,0.0,0.0,0.0,0.0,0.0,0.0,0.0,-0.017700195,0.0,0.0,0.0,0.0,0.0015886176,0.0015886176,-0.0020082593,0.00012001395,0.0056193536,0.0030127373,4.708767e-06,0.0,0.0,0.0,0.0,0.0,0.0
626256000,626104000,0.040217545,0.0065423036,0.038640648,0.032319132,-0.011967225,0.027893066,0.0,0.0,0.0,0.0,0.0,0.0,0.0,-0.017700195,0.0,0.0,0.0,0.0,0.0015886176,0.0015886176,-0.0020082593,0.00012001395,-3.0400464e-05,-0.0018010847,-5.4836273e-06,0.0,0.0,0.0,0.0,0.0,0.0
626264000,626112000,0.040217545,0.0065423036,0.038640648,0.032319132,-0.011967225,0.027893066,0.0,0.0,0.0,0.0,0.0,0.0,0.0,-0.120147705,0.0,0.0,0.0,0.0,0.0009329081,0.0009329081,-0.002687633,-0.001666069,0.0016905956,0.004007546,4.172325e-06,0.0,0.0,0.0,0.0,0.0,0.0
626272000,626120000,0.040217545,0.0065423036,0.038640648,0.032319132,-0.011967225,0.027893066,0.0,0.0,0.0,0.0,0.0,0.0,0.0,-0.120147705,0.0,0.0,0.0,0.0,0.0009329081,0.0009329081,-0.002687633,-0.001666069,-0.0030613737,-0.0017825696,-2.0086765e-05,0.0,0.0,0.0,0.0,0.0,0.0
626288000,626136000,0.040217545,0.0065423036,0.038640648,0.032319132,-0.011967225,0.027893066,0.0,0.0,0.0,0.0,0.0,0.0,0.0,-0.120147705,0.0,0.0,0.0,0.0,0.0009329081,0.0009329081,-0.002687633,-0.001666069,-0.010987289,-0.0065449616,-0.00013107061,0.0,0.0,0.0,0.0,0.0,0.0
626296000,626144000,0.040217545,0.0065423036,0.038640648,0.032319132,-0.011967225,0.027893066,0.0,0.0,0.0,0.0,0.0,0.0,0.0,-0.120147705,0.0,0.0,0.0,0.0,0.0009329081,0.0009329081,-0.002687633,-0.001666069,0.0018469341,-0.0073988223,-3.8146973e-05,0.0,0.0,0.0,0.0,0.0,0.0
626304000,626152000,0.040217545,0.0065423036,0.038640648,0.032319132,-0.011967225,0.027893066,0.0,0.0,0.0,0.0,0.0,0.0,0.0,-0.120147705,0.0,0.0,0.0,0.0,0.0009329081,0.0009329081,-0.002687633,-0.001666069,0.011624991,0.007837212,-4.684925e-05,0.0,0.0,0.0,0.0,0.0,0.0
626312000,626160000,0.040217545,0.0065423036,0.038640648,0.032319132,-0.011967225,0.027893066,0.0,0.0,0.0,0.0,0.0,0.0,0.0,-0.120147705,0.0,0.0,0.0,0.0,0.0009329081,0.0009329081,-0.002687633,-0.001666069,0.0017152093,0.0011666683,5.1259995e-06,0.0,0.0,0.0,0.0,0.0,0.0
626328000,626176000,0.040217545,0.0065423036,0.038640648,0.032319132,-0.011967225,0.027893066,0.0,0.0,0.0,0.0,0.0,0.0,0.0,-0.120147705,0.0,0.0,0.0,0.0,0.0009329081,0.0009329081,-0.002687633,-0.001666069,-0.0010936526,0.012139895,-5.6684017e-05,0.0,0.0,0.0,0.0,0.0,0.0
626336000,626184000,0.040217545,0.0065423036,0.038640648,0.032319132,-0.011967225,0.027893066,0.0,0.0,0.0,0.0,0.0,0.0,0.0,-0.03781128,0.0,0.0,0.0,0.0,0.002036288,0.002036288,-0.0017385185,-0.0012617707,-0.00034531835,0.0052135363,-5.90086e-06,0.0,0.0,0.0,0.0,0.0,0.0
626344000,626192000,0.040217545,0.0065423036,0.038640648,0.032319132,-0.011967225,0.027893066,0.0,0.0,0.0,0.0,0.0,0.0,0.0,-0.03781128,0.0,0.0,0.0,0.0,0.002036288,0.002036288,-0.0017385185,-0.0012617707,0.0032699252,-0.0037177159,-9.775162e-06,0.0,0.0,0.0,0.0,0.0,0.0
626352000,626200000,0.040217545,0.0065423036,0.038640648,0.032319132,-0.011967225,0.027893066,0.0,0.0,0.0,0.0,0.0,0.0,0.0,-0.03781128,0.0,0.0,0.0,0.0,0.002036288,0.002036288,-0.0017385185,-0.0012617707,-0.0025543815,0.0019705673,-8.6426735e-06,0.0,0.0,0.0,0.0,0.0,0.0
626368000,626216000,0.040217545,0.0065423036,0.038640648,0.032319132,-0.011967225,0.027893066,0.0,0.0,0.0,0.0,0.0,0.0,0.0,-0.03781128,0.0,0.0,0.0,0.0,0.002036288,0.002036288,-0.0017385185,-0.0012617707,0.0012763058,0.0022211648,3.9339066e-06,0.0,0.0,0.0,0.0,0.0,0.0
626376000,626224000,0.040217545,0.0065423036,0.038640648,0.032319132,-0.011967225,0.027893066,0.0,0.0,0.0,0.0,0.0,0.0,0.0,-0.03781128,0.0,0.0,0.0,0.0,0.002036288,0.002036288,-0.0017385185,-0.0012617707,-0.006586305,0.0025255932,-3.8266182e-05,0.0,0.0,0.0,0.0,0.0,0.0
626384000,626232000,0.040217545,0.0065423036,0.038640648,0.032319132,-0.011967225,0.027893066,0.0,0.0,0.0,0.0,0.0,0.0,0.0,-0.03781128,0.0,0.0,0.0,0.0,0.002036288,0.002036288,-0.0017385185,-0.0012617707,-0.00013396051,0.0059119747,-8.523464e-06,0.0,0.0,0.0,0.0,0.0,0.0
626392000,626240000,0.040217545,0.0065423036,0.038640648,0.032319132,-0.011967225,0.027893066,0.0,0.0,0.0,0.0,0.0,0.0,0.0,-0.03781128,0.0,0.0,0.0,0.0,0.002036288,0.002036288,-0.0017385185,-0.0012617707,-0.004291272,0.012055332,-7.343292e-05,0.0,0.0,0.0,0.0,0.0,0.0
626408000,626256000,0.040217545,0.0065423036,0.038640648,0.032319132,-0.011967225,0.027893066,0.0,0.0,0.0,0.0,0.0,0.0,0.0,-0.017852783,0.0,0.0,0.0,0.0,0.0016723383,0.0016723383,0.00040982664,-0.00025704503,0.0023347654,-0.002497555,-3.516674e-06,0.0,0.0,0.0,0.0,0.0,0.0
626416000,626264000,0.027229069,-0.00656304,-0.00028129108,0.031208143,-0.004033145,0.03704834,0.0,0.0,0.0,0.0,0.0,0.0,0.0,-0.017852783,0.0,0.0,0.0,0.0,0.0016723383,0.0016723383,0.00040982664,-0.00025704503,0.005575252,-0.0028392614,-8.881092e-06,0.0,0.0,0.0,0.0,0.0,0.0
626424000,626272000,0.027229069,-0.00656304,-0.00028129108,0.031208143,-0.004033145,0.03704834,0.0,0.0,0.0,0.0,0.0,0.0,0.0,-0.017852783,0.0,0.0,0.0,0.0,0.0016723383,0.0016723383,0.00040982664,-0.00025704503,0.00016642804,-0.00824045,-4.774332e-05,0.0,0.0,0.0,0.0,0.0,0.0
626432000,626280000,0.027229069,-0.00656304,-0.00028129108,0.031208143,-0.004033145,0.03704834,0.0,0.0,0.0,0.0,0.0,0.0,0.0,-0.017852783,0.0,0.0,0.0,0.0,0.0016723383,0.0016723383,0.00040982664,-0.00025704503,-0.0077737067,-0.0068950024,-8.839369e-05,0.0,0.0,0.0,0.0,0.0,0.0
626448000,626296000,0.027229069,-0.00656304,-0.00028129108,0.031208143,-0.004033145,0.03704834,0.0,0.0,0.0,0.0,0.0,0.0,0.0,-0.017852783,0.0,0.0,0.0,0.0,0.0016723383,0.0016723383,0.00040982664,-0.00025704503,0.005035538,-0.00880167,-4.9352646e-05,0.0,0.0,0.0,0.0,0.0,0.0
626456000,626304000,0.027229069,-0.00656304,-0.00028129108,0.031208143,-0.004033145,0.03704834,0.0,0.0,0.0,0.0,0.0,0.0,0.0,-0.017852783,0.0,0.0,0.0,0.0,0.0016723383,0.0016723383,0.00040982664,-0.00025704503,0.003193758,-0.018911129,-0.00020182133,0.0,0.0,0.0,0.0,0.0,0.0
626464000,626312000,0.027229069,-0.00656304,-0.00028129108,0.031208143,-0.004033145,0.03704834,0.0,0.0,0.0,0.0,0.0,0.0,0.0,-0.017852783,0.0,0.0,0.0,0.0,0.0016723383,0.0016723383,0.00040982664,-0.00025704503,0.0054728263,-0.0010796571,-5.9604645e-07,0.0,0.0,0.0,0.0,0.0,0.0
626472000,626320000,0.027229069,-0.00656304,-0.00028129108,0.031208143,-0.004033145,0.03704834,0.0,0.0,0.0,0.0,0.0,0.0,0.0,0.031707764,0.0,0.0,0.0,0.0,0.0016723383,0.0016723383,0.00040982664,-0.00025704503,-0.0017510212,-0.008157371,-5.1021576e-05,0.0,0.0,0.0,0.0,0.0,0.0
626488000,626336000,0.027229069,-0.00656304,-0.00028129108,0.031208143,-0.004033145,0.03704834,0.0,0.0,0.0,0.0,0.0,0.0,0.0,0.031707764,0.0,0.0,0.0,0.0,-5.8561563e-06,-0.0015987767,-5.8561563e-06,-0.0037353337,0.0052228644,-0.005708876,-2.104044e-05,0.0,0.0,0.0,0.0,0.0,0.0
626496000,626344000,0.027229069,-0.00656304,-0.00028129108,0.031208143,-0.004033145,0.03704834,0.0,0.0,0.0,0.0,0.0,0.0,0.0,0.031707764,0.0,0.0,0.0,0.0,-5.8561563e-06,-0.0015987767,-5.8561563e-06,-0.0037353337,-0.004765721,0.0017542468,-2.515316e-05,0.0,0.0,0.0,0.0,0.0,0.0
626504000,626352000,0.027229069,-0.00656304,-0.00028129108,0.031208143,-0.004033145,0.03704834,0.0,0.0,0.0,0.0,0.0,0.0,0.0,0.031707764,0.0,0.0,0.0,0.0,-5.8561563e-06,-0.0015987767,-5.8561563e-06,-0.0037353337,0.0019719386,-0.0012173026,1.9073486e-06,0.0,0.0,0.0,0.0,0.0,0.0
626512000,626360000,0.027229069,-0.00656304,-0.00028129108,0.031208143,-0.004033145,0.03704834,0.0,0.0,0.0,0.0,0.0,0.0,0.0,0.031707764,0.0,0.0,0.0,0.0,-5.8561563e-06,-0.0015987767,-5.8561563e-06,-0.0037353337,-0.00817072,-0.0034218875,-6.920099e-05,0.0,0.0,0.0,0.0,0.0,0.0
626528000,626376000,0.027229069,-0.00656304,-0.00028129108,0.031208143,-0.004033145,0.03704834,0.0,0.0,0.0,0.0,0.0,0.0,0.0,-0.005859375,0.0,0.0,0.0,0.0,-5.8561563e-06,-0.0015987767,-5.8561563e-06,-0.0037353337,0.01030685,0.0014454911,-2.2113323e-05,0.0,0.0,0.0,0.0,0.0,0.0
626536000,626384000,0.027229069,-0.00656304,-0.00028129108,0.031208143,-0.004033145,0.03704834,0.0,0.0,0.0,0.0,0.0,0.0,0.0,-0.005859375,0.0,0.0,0.0,0.0,-5.8561563e-06,-0.0015987767,-5.8561563e-06,-0.0037353337,-0.009768945,-0.0025754012,-8.237362e-05,0.0,0.0,0.0,0.0,0.0,0.0
626544000,626392000,0.027229069,-0.00656304,-0.00028129108,0.031208143,-0.004033145,0.03704834,0.0,0.0,0.0,0.0,0.0,0.0,0.0,-0.005859375,0.0,0.0,0.0,0.0,-5.8561563e-06,-0.0015987767,-5.8561563e-06,-0.0037353337,0.00081480155,-0.0025875235,-5.00679e-06,0.0,0.0,0.0,0.0,0.0,0.0
626552000,626400000,0.027229069,-0.00656304,-0.00028129108,0.031208143,-0.004033145,0.03704834,0.0,0.0,0.0,0.0,0.0,0.0,0.0,-0.005859375,0.0,0.0,0.0,0.0,0.00039115007,0.00039115007,-0.00082167983,-0.0004905164,0.0018493665,-0.0029654708,-5.185604e-06,0.0,0.0,0.0,0.0,0.0,0.0
626568000,626416000,0.027229069,-0.00656304,-0.00028129108,0.031208143,-0.004033145,0.03704834,0.0,0.0,0.0,0.0,0.0,0.0,0.0,-0.005859375,0.0,0.0,0.0,0.0,0.00039115007,0.00039115007,-0.00082167983,-0.0004905164,-0.010861089,0.007845497,-0.00011211634,0.0,0.0,0.0,0.0,0.0,0.0
626576000,626424000,0.027229069,-0.00656304,-0.00028129108,0.031208143,-0.004033145,0.03704834,0.0,0.0,0.0,0.0,0.0,0.0,0.0,-0.005859375,0.0,0.0,0.0,0.0,0.00039115007,0.00039115007,-0.00082167983,-0.0004905164,-0.06660187,0.011493417,-0.002452135,0.0,0.0,0.0,0.0,0.0,0.0
626584000,626432000,0.027229069,-0.00656304,-0.00028129108,0.031208143,-0.004033145,0.03704834,0.0,0.0,0.0,0.0,0.0,0.0,0.0,-0.005859375,0.0,0.0,0.0,0.0,0.00039115007,0.00039115007,-0.00082167983,-0.0004905164,0.04449769,-0.00040493743,-0.0008773804,0.0,0.0,0.0,0.0,0.0,0.0
626592000,626440000,0.027229069,-0.00656304,-0.00028129108,0.031208143,-0.004033145,0.03704834,0.0,0.0,0.0,0.0,0.0,0.0,0.0,0.023010254,0.0,0.0,0.0,0.0,0.00039115007,0.00039115007,-0.00082167983,-0.0004905164,0.006113271,-0.00028409646,-3.3974648e-06,0.0,0.0,0.0,0.0,0.0,0.0
626608000,626456000,0.027229069,-0.00656304,-0.00028129108,0.031208143,-0.004033145,0.03704834,0.0,0.0,0.0,0.0,0.0,0.0,0.0,0.023010254,0.0,0.0,0.0,0.0,0.00039115007,0.00039115007,-0.00082167983,-0.0004905164,-0.0012326674,-0.006091121,-2.938509e-05,0.0,0.0,0.0,0.0,0.0,0.0
626616000,626464000,0.027229069,-0.00656304,-0.00028129108,0.031208143,-0.004033145,0.03704834,0.0,0.0,0.0,0.0,0.0,0.0,0.0,0.023010254,0.0,0.0,0.0,0.0,0.00039115007,0.00039115007,-0.00082167983,-0.0004905164,-0.0010606309,-0.0027555395,-1.0251999e-05,0.0,0.0,0.0,0.0,0.0,0.0
626624000,626472000,0.027229069,-0.00656304,-0.00028129108,0.031208143,-0.004033145,0.03704834,0.0,0.0,0.0,0.0,0.0,0.0,0.0,0.023010254,0.0,0.0,0.0,0.0,0.0012170076,0.0005509739,0.0005261302,0.0012170076,-0.0018607466,-0.0061027184,-3.248453e-05,0.0,0.0,0.0,0.0,0.0,0.0
626632000,626480000,0.027229069,-0.00656304,-0.00028129108,0.031208143,-0.004033145,0.03704834,0.0,0.0,0.0,0.0,0.0,0.0,0.0,0.023010254,0.0,0.0,0.0,0.0,0.0012170076,0.0005509739,0.0005261302,0.0012170076,-0.00038133864,0.005816473,-1.0728836e-05,0.0,0.0,0.0,0.0,0.0,0.0
626648000,626496000,0.027229069,-0.00656304,-0.00028129108,0.031208143,-0.004033145,0.03704834,0.0,0.0,0.0,0.0,0.0,0.0,0.0,0.04650879,0.0,0.0,0.0,0.0,0.0012170076,0.0005509739,0.0005261302,0.0012170076,0.00869247,-0.009056919,-6.878376e-05,0.0,0.0,0.0,0.0,0.0,0.0
626656000,626504000,0.027229069,-0.00656304,-0.00028129108,0.031208143,-0.004033145,0.03704834,0.0,0.0,0.0,0.0,0.0,0.0,0.0,0.04650879,0.0,0.0,0.0,0.0,0.0012170076,0.0005509739,0.0005261302,0.0012170076,0.0027798968,-0.006769661,-2.8550625e-05,0.0,0.0,0.0,0.0,0.0,0.0
626664000,626512000,0.027229069,-0.00656304,-0.00028129108,0.031208143,-0.004033145,0.03704834,0.0,0.0,0.0,0.0,0.0,0.0,0.0,0.04650879,0.0,0.0,0.0,0.0,0.0012170076,0.0005509739,0.0005261302,0.0012170076,-0.007003745,-0.0018251176,-4.4226646e-05,0.0,0.0,0.0,0.0,0.0,0.0
626672000,626520000,0.027229069,-0.00656304,-0.00028129108,0.031208143,-0.004033145,0.03704834,0.0,0.0,0.0,0.0,0.0,0.0,0.0,0.04650879,0.0,0.0,0.0,0.0,0.0012170076,0.0005509739,0.0005261302,0.0012170076,-0.0025875596,-0.006034486,-3.4928322e-05,0.0,0.0,0.0,0.0,0.0,0.0
626688000,626536000,0.027229069,-0.00656304,-0.00028129108,0.031208143,-0.004033145,0.03704834,0.0,0.0,0.0,0.0,0.0,0.0,0.0,0.04650879,0.0,0.0,0.0,0.0,0.0012170076,0.0005509739,0.0005261302,0.0012170076,0.0010983045,0.0014559531,2.7418137e-06,0.0,0.0,0.0,0.0,0.0,0.0
626696000,626544000,0.027229069,-0.00656304,-0.00028129108,0.031208143,-0.004033145,0.03704834,0.0,0.0,0.0,0.0,0.0,0.0,0.0,0.04650879,0.0,0.0,0.0,0.0,0.00060902536,0.00039712572,0.00060902536,-0.0011306107,-0.0013177372,-0.01039434,-7.0631504e-05,0.0,0.0,0.0,0.0,0.0,0.0
626704000,626552000,0.027229069,-0.00656304,-0.00028129108,0.031208143,-0.004033145,0.03704834,0.0,0.0,0.0,0.0,0.0,0.0,0.0,0.04650879,0.0,0.0,0.0,0.0,0.00060902536,0.00039712572,0.00060902536,-0.0011306107,0.0015909597,-0.001609203,-9.536743e-07,0.0,0.0,0.0,0.0,0.0,0.0
626712000,626560000,0.027229069,-0.00656304,-0.00028129108,0.031208143,-0.004033145,0.03704834,0.0,0.0,0.0,0.0,0.0,0.0,0.0,0.04650879,0.0,0.0,0.0,0.0,0.00060902536,0.00039712572,0.00060902536,-0.0011306107,0.005676152,-0.003903611,-1.6391277e-05,0.0,0.0,0.0,0.0,0.0,0.0
626728000,626576000,0.027229069,-0.00656304,-0.00028129108,0.031208143,-0.004033145,0.03704834,0.0,0.0,0.0,0.0,0.0,0.0,0.0,-0.024414062,0.0,0.0,0.0,0.0,0.00060902536,0.00039712572,0.00060902536,-0.0011306107,-0.00089132064,-0.0062583433,-2.9325485e-05,0.0,0.0,0.0,0.0,0.0,0.0
626736000,626584000,0.027229069,-0.00656304,-0.00028129108,0.031208143,-0.004033145,0.03704834,0.0,0.0,0.0,0.0,0.0,0.0,0.0,-0.024414062,0.0,0.0,0.0,0.0,0.00060902536,0.00039712572,0.00060902536,-0.0011306107,-0.004210663,-0.0018782959,-2.1338463e-05,0.0,0.0,0.0,0.0,0.0,0.0
626744000,626592000,0.027229069,-0.00656304,-0.00028129108,0.031208143,-0.004033145,0.03704834,0.0,0.0,0.0,0.0,0.0,0.0,0.0,-0.024414062,0.0,0.0,0.0,0.0,0.00060902536,0.00039712572,0.00060902536,-0.0011306107,-5.1962677e-05,-0.0070732753,-3.3199787e-05,0.0,0.0,0.0,0.0,0.0,0.0
626752000,626600000,0.027229069,-0.00656304,-0.00028129108,0.031208143,-0.004033145,0.03704834,0.0,0.0,0.0,0.0,0.0,0.0,0.0,-0.024414062,0.0,0.0,0.0,0.0,0.00060902536,0.00039712572,0.00060902536,-0.0011306107,0.007420364,-0.0004679067,-1.3530254e-05,0.0,0.0,0.0,0.0,0.0,0.0
626768000,626616000,0.027229069,-0.00656304,-0.00028129108,0.031208143,-0.004033145,0.03704834,0.0,0.0,0.0,0.0,0.0,0.0,0.0,-0.024414062,0.0,0.0,0.0,0.0,0.003942311,-0.0013629156,-0.005092874,0.003942311,-0.0059328247,0.00718057,-4.7385693e-05,0.0,0.0,0.0,0.0,0.0,0.0
626776000,626624000,0.027229069,-0.00656304,-0.00028129108,0.031208143,-0.004033145,0.03704834,0.0,0.0,0.0,0.0,0.0,0.0,0.0,-0.024414062,0.0,0.0,0.0,0.0,0.003942311,-0.0013629156,-0.005092874,0.003942311,-0.011017944,0.012215052,-0.00014388561,0.0,0.0,0.0,0.0,0.0,0.0
626784000,626632000,0.027229069,-0.00656304,-0.00028129108,0.031208143,-0.004033145,0.03704834,0.0,0.0,0.0,0.0,0.0,0.0,0.0,-0.024414062,0.0,0.0,0.0,0.0,0.003942311,-0.0013629156,-0.005092874,0.003942311,-0.0037252237,0.0013171769,-1.3530254e-05,0.0,0.0,0.0,0.0,0.0,0.0
626792000,626640000,0.027229069,-0.00656304,-0.00028129108,0.031208143,-0.004033145,0.03704834,0.0,0.0,0.0,0.0,0.0,0.0,0.0,0.060516357,0.0,0.0,0.0,0.0,0.003942311,-0.0013629156,-0.005092874,0.003942311,-0.0034851031,-0.0045328094,-2.8312206e-05,0.0,0.0,0.0,0.0,0.0,0.0
626808000,626656000,0.027229069,-0.00656304,-0.00028129108,0.031208143,-0.004033145,0.03704834,0.0,0.0,0.0,0.0,0.0,0.0,0.0,0.060516357,0.0,0.0,0.0,0.0,0.003942311,-0.0013629156,-0.005092874,0.003942311,-0.005061988,-0.006337411,-4.965067e-05,0.0,0.0,0.0,0.0,0.0,0.0
626816000,626664000,0.021987753,0.003142284,0.0112948585,0.030668506,-0.00085485354,0.03164673,0.0,0.0,0.0,0.0,0.0,0.0,0.0,0.060516357,0.0,0.0,0.0,0.0,0.003942311,-0.0013629156,-0.005092874,0.003942311,-0.005398318,0.00055459124,-2.3841858e-05,0.0,0.0,0.0,0.0,0.0,0.0
626824000,626672000,0.021987753,0.003142284,0.0112948585,0.030668506,-0.00085485354,0.03164673,0.0,0.0,0.0,0.0,0.0,0.0,0.0,0.060516357,0.0,0.0,0.0,0.0,0.003942311,-0.0013629156,-0.005092874,0.003942311,-0.00045292475,0.0051935427,-8.702278e-06,0.0,0.0,0.0,0.0,0.0,0.0
626832000,626680000,0.021987753,0.003142284,0.0112948585,0.030668506,-0.00085485354,0.03164673,0.0,0.0,0.0,0.0,0.0,0.0,0.0,0.060516357,0.0,0.0,0.0,0.0,0.0014925003,0.0014660256,0.0014925003,0.0011982322,-0.0053796615,0.0014294791,-2.3543835e-05,0.0,0.0,0.0,0.0,0.0,0.0
626848000,626696000,0.021987753,0.003142284,0.0112948585,0.030668506,-0.00085485354,0.03164673,0.0,0.0,0.0,0.0,0.0,0.0,0.0,0.060516357,0.0,0.0,0.0,0.0,0.0014925003,0.0014660256,0.0014925003,0.0011982322,0.00046262552,0.0003527979,9.536743e-07,0.0,0.0,0.0,0.0,0.0,0.0
626856000,626704000,0.021987753,0.003142284,0.0112948585,0.030668506,-0.00085485354,0.03164673,0.0,0.0,0.0,0.0,0.0,0.0,0.0,0.060516357,0.0,0.0,0.0,0.0,0.0014925003,0.0014660256,0.0014925003,0.0011982322,0.0022848723,1.3716635e-05,1.9073486e-06,0.0,0.0,0.0,0.0,0.0,0.0
626864000,626712000,0.021987753,0.003142284,0.0112948585,0.030668506,-0.00085485354,0.03164673,0.0,0.0,0.0,0.0,0.0,0.0,0.0,0.0796814,0.0,0.0,0.0,0.0,0.0014925003,0.0014660256,0.0014925003,0.0011982322,0.0049721114,-0.00017244963,-3.2186508e-06,0.0,0.0,0.0,0.0,0.0,0.0
626872000,626720000,0.021987753,0.003142284,0.0112948585,0.030668506,-0.00085485354,0.03164673,0.0,0.0,0.0,0.0,0.0,0.0,0.0,0.0796814,0.0,0.0,0.0,0.0,0.0014925003,0.0014660256,0.0014925003,0.0011982322,0.0041067083,0.008642643,-2.69413e-05,0.0,0.0,0.0,0.0,0.0,0.0
626888000,626736000,0.021987753,0.003142284,0.0112948585,0.030668506,-0.00085485354,0.03164673,0.0,0.0,0.0,0.0,0.0,0.0,0.0,0.0796814,0.0,0.0,0.0,0.0,0.0014925003,0.0014660256,0.0014925003,0.0011982322,-0.009577006,-0.0077999337,-0.000106453896,0.0,0.0,0.0,0.0,0.0,0.0
626896000,626744000,0.021987753,0.003142284,0.0112948585,0.030668506,-0.00085485354,0.03164673,0.0,0.0,0.0,0.0,0.0,0.0,0.0,0.0796814,0.0,0.0,0.0,0.0,0.0014925003,0.0014660256,0.0014925003,0.0011982322,0.003910545,0.00082439266,1.3709068e-06,0.0,0.0,0.0,0.0,0.0,0.0
626904000,626752000,0.021987753,0.003142284,0.0112948585,0.030668506,-0.00085485354,0.03164673,0.0,0.0,0.0,0.0,0.0,0.0,0.0,0.0796814,0.0,0.0,0.0,0.0,-0.0007900781,-0.0007900781,-0.0014980733,-0.007573426,-0.0027508019,0.003667971,-1.1920929e-05,0.0,0.0,0.0,0.0,0.0,0.0
626912000,626760000,0.021987753,0.003142284,0.0112948585,0.030668506,-0.00085485354,0.03164673,0.0,0.0,0.0,0.0,0.0,0.0,0.0,0.0796814,0.0,0.0,0.0,0.0,-0.0007900781,-0.0007900781,-0.0014980733,-0.007573426,-0.004601941,-0.0014279203,-2.3424625e-05,0.0,0.0,0.0,0.0,0.0,0.0
626928000,626776000,0.021987753,0.003142284,0.0112948585,0.030668506,-0.00085485354,0.03164673,0.0,0.0,0.0,0.0,0.0,0.0,0.0,0.0796814,0.0,0.0,0.0,0.0,-0.0007900781,-0.0007900781,-0.0014980733,-0.007573426,0.001957024,0.001898724,2.6226044e-06,0.0,0.0,0.0,0.0,0.0,0.0
626936000,626784000,0.021987753,0.003142284,0.0112948585,0.030668506,-0.00085485354,0.03164673,0.0,0.0,0.0,0.0,0.0,0.0,0.0,0.012664795,0.0,0.0,0.0,0.0,-0.0007900781,-0.0007900781,-0.0014980733,-0.007573426,-0.001301216,0.00863424,-3.1232834e-05,0.0,0.0,0.0,0.0,0.0,0.0
626944000,626792000,0.021987753,0.003142284,0.0112948585,0.030668506,-0.00085485354,0.03164673,0.0,0.0,0.0,0.0,0.0,0.0,0.0,0.012664795,0.0,0.0,0.0,0.0,-0.0007900781,-0.0007900781,-0.0014980733,-0.007573426,0.0018902416,0.0031781066,2.9802322e-07,0.0,0.0,0.0,0.0,0.0,0.0
626952000,626800000,0.021987753,0.003142284,0.0112948585,0.030668506,-0.00085485354,0.03164673,0.0,0.0,0.0,0.0,0.0,0.0,0.0,0.012664795,0.0,0.0,0.0,0.0,-0.0007900781,-0.0007900781,-0.0014980733,-0.007573426,0.006263731,0.00938554,-4.130602e-05,0.0,0.0,0.0,0.0,0.0,0.0
626968000,626816000,0.021987753,0.003142284,0.0112948585,0.030668506,-0.00085485354,0.03164673,0.0,0.0,0.0,0.0,0.0,0.0,0.0,0.012664795,0.0,0.0,0.0,0.0,-0.0007900781,-0.0007900781,-0.0014980733,-0.007573426,-0.0025241333,-0.003418974,-1.7106533e-05,0.0,0.0,0.0,0.0,0.0,0.0
626976000,626824000,0.021987753,0.003142284,0.0112948585,0.030668506,-0.00085485354,0.03164673,0.0,0.0,0.0,0.0,0.0,0.0,0.0,0.012664795,0.0,0.0,0.0,0.0,0.0026661456,0.0015949102,-5.0842762e-05,0.0026661456,-0.0026706436,-0.0019795792,-1.2755394e-05,0.0,0.0,0.0,0.0,0.0,0.0
626984000,626832000,0.021987753,0.003142284,0.0112948585,0.030668506,-0.00085485354,0.03164673,0.0,0.0,0.0,0.0,0.0,0.0,0.0,0.012664795,0.0,0.0,0.0,0.0,0.0026661456,0.0015949102,-5.0842762e-05,0.0026661456,0.0017555202,0.00652597,-1.335144e-05,0.0,0.0,0.0,0.0,0.0,0.0
626992000,626840000,0.021987753,0.003142284,0.0112948585,0.030668506,-0.00085485354,0.03164673,0.0,0.0,0.0,0.0,0.0,0.0,0.0,0.012664795,0.0,0.0,0.0,0.0,0.0026661456,0.0015949102,-5.0842762e-05,0.0026661456,-0.0012231441,-0.0033180395,-1.2040138e-05,0.0,0.0,0.0,0.0,0.0,0.0
627008000,626856000,0.021987753,0.003142284,0.0112948585,0.030668506,-0.00085485354,0.03164673,0.0,0.0,0.0,0.0,0.0,0.0,0.0,-0.01574707,0.0,0.0,0.0,0.0,0.0026661456,0.0015949102,-5.0842762e-05,0.0026661456,0.0050290637,0.0005524655,-1.66893e-06,0.0,0.0,0.0,0.0,0.0,0.0
627016000,626864000,0.021987753,0.003142284,0.0112948585,0.030668506,-0.00085485354,0.03164673,0.0,0.0,0.0,0.0,0.0,0.0,0.0,-0.01574707,0.0,0.0,0.0,0.0,0.0026661456,0.0015949102,-5.0842762e-05,0.0026661456,0.012650881,-0.0105357105,-0.000119805336,0.0,0.0,0.0,0.0,0.0,0.0
627024000,626872000,0.021987753,0.003142284,0.0112948585,0.030668506,-0.00085485354,0.03164673,0.0,0.0,0.0,0.0,0.0,0.0,0.0,-0.01574707,0.0,0.0,0.0,0.0,0.0026661456,0.0015949102,-5.0842762e-05,0.0026661456,0.009491852,0.0035823735,-2.8133392e-05,0.0,0.0,0.0,0.0,0.0,0.0
627032000,626880000,0.021987753,0.003142284,0.0112948585,0.030668506,-0.00085485354,0.03164673,0.0,0.0,0.0,0.0,0.0,0.0,0.0,-0.01574707,0.0,0.0,0.0,0.0,0.0026661456,0.0015949102,-5.0842762e-05,0.0026661456,-0.0036210069,-0.0049512438,-3.0875206e-05,0.0,0.0,0.0,0.0,0.0,0.0
627048000,626896000,0.021987753,0.003142284,0.0112948585,0.030668506,-0.00085485354,0.03164673,0.0,0.0,0.0,0.0,0.0,0.0,0.0,-0.01574707,0.0,0.0,0.0,0.0,0.0022436082,-0.0050066016,-0.0030338168,0.0022436082,0.00708134,-0.0084948735,-5.2392483e-05,0.0,0.0,0.0,0.0,0.0,0.0
627056000,626904000,0.021987753,0.003142284,0.0112948585,0.030668506,-0.00085485354,0.03164673,0.0,0.0,0.0,0.0,0.0,0.0,0.0,-0.01574707,0.0,0.0,0.0,0.0,0.0022436082,-0.0050066016,-0.0030338168,0.0022436082,0.002849184,0.00026472093,2.4437904e-06,0.0,0.0,0.0,0.0,0.0,0.0
627064000,626912000,0.021987753,0.003142284,0.0112948585,0.030668506,-0.00085485354,0.03164673,0.0,0.0,0.0,0.0,0.0,0.0,0.0,-0.01574707,0.0,0.0,0.0,0.0,0.0022436082,-0.0050066016,-0.0030338168,0.0022436082,-0.0022172923,0.0018361416,-7.2717667e-06,0.0,0.0,0.0,0.0,0.0,0.0
627072000,626920000,0.021987753,0.003142284,0.0112948585,0.030668506,-0.00085485354,0.03164673,0.0,0.0,0.0,0.0,0.0,0.0,0.0,0.022064209,0.0,0.0,0.0,0.0,0.0022436082,-0.0050066016,-0.0030338168,0.0022436082,-0.0033243857,-0.006968801,-4.5001507e-05,0.0,0.0,0.0,0.0,0.0,0.0
627088000,626936000,0.021987753,0.003142284,0.0112948585,0.030668506,-0.00085485354,0.03164673,0.0,0.0,0.0,0.0,0.0,0.0,0.0,0.022064209,0.0,0.0,0.0,0.0,0.0022436082,-0.0050066016,-0.0030338168,0.0022436082,-0.00068887905,-0.004067692,-1.5199184e-05,0.0,0.0,0.0,0.0,0.0,0.0
627096000,626944000,0.021987753,0.003142284,0.0112948585,0.030668506,-0.00085485354,0.03164673,0.0,0.0,0.0,0.0,0.0,0.0,0.0,0.022064209,0.0,0.0,0.0,0.0,0.0022436082,-0.0050066016,-0.0030338168,0.0022436082,-0.008149198,0.0060237376,-6.335974e-05,0.0,0.0,0.0,0.0,0.0,0.0
627104000,626952000,0.021987753,0.003142284,0.0112948585,0.030668506,-0.00085485354,0.03164673,0.0,0.0,0.0,0.0,0.0,0.0,0.0,0.022064209,0.0,0.0,0.0,0.0,0.0022436082,-0.0050066016,-0.0030338168,0.0022436082,0.0018882661,0.0026114406,2.9206276e-06,0.0,0.0,0.0,0.0,0.0,0.0
627112000,626960000,0.021987753,0.003142284,0.0112948585,0.030668506,-0.00085485354,0.03164673,0.0,0.0,0.0,0.0,0.0,0.0,0.0,0.022064209,0.0,0.0,0.0,0.0,0.0022436082,-0.0050066016,-0.0030338168,0.0022436082,-0.0021279491,0.008443545,-3.170967e-05,0.0,0.0,0.0,0.0,0.0,0.0
627128000,626976000,0.021987753,0.003142284,0.0112948585,0.030668506,-0.00085485354,0.03164673,0.0,0.0,0.0,0.0,0.0,0.0,0.0,-0.034606934,0.0,0.0,0.0,0.0,0.00069051486,0.00069051486,-0.0012745112,-0.0009377003,-0.007142584,-0.0034861546,-5.2273273e-05,0.0,0.0,0.0,0.0,0.0,0.0
627136000,626984000,0.021987753,0.003142284,0.0112948585,0.030668506,-0.00085485354,0.03164673,0.0,0.0,0.0,0.0,0.0,0.0,0.0,-0.034606934,0.0,0.0,0.0,0.0,0.00069051486,0.00069051486,-0.0012745112,-0.0009377003,0.007916265,-0.00550624,-3.6895275e-05,0.0,0.0,0.0,0.0,0.0,0.0
627144000,626992000,0.021987753,0.003142284,0.0112948585,0.030668506,-0.00085485354,0.03164673,0.0,0.0,0.0,0.0,0.0,0.0,0.0,-0.034606934,0.0,0.0,0.0,0.0,0.00069051486,0.00069051486,-0.0012745112,-0.0009377003,0.015122969,-0.008012604,-0.00012367964,0.0,0.0,0.0,0.0,0.0,0.0
627152000,627000000,0.021987753,0.003142284,0.0112948585,0.030668506,-0.00085485354,0.03164673,0.0,0.0,0.0,0.0,0.0,0.0,0.0,-0.034606934,0.0,0.0,0.0,0.0,0.00069051486,0.00069051486,-0.0012745112,-0.0009377003,0.002198748,-0.010346125,-6.401539e-05,0.0,0.0,0.0,0.0,0.0,0.0
627168000,627016000,0.021987753,0.003142284,0.0112948585,0.030668506,-0.00085485354,0.03164673,0.0,0.0,0.0,0.0,0.0,0.0,0.0,-0.034606934,0.0,0.0,0.0,0.0,0.00069051486,0.00069051486,-0.0012745112,-0.0009377003,0.0018261678,0.0025915573,2.6226044e-06,0.0,0.0,0.0,0.0,0.0,0.0
627176000,627024000,0.021987753,0.003142284,0.0112948585,0.030668506,-0.00085485354,0.03164673,0.0,0.0,0.0,0.0,0.0,0.0,0.0,-0.034606934,0.0,0.0,0.0,0.0,0.00069051486,0.00069051486,-0.0012745112,-0.0009377003,0.0032165125,0.0021754676,2.682209e-06,0.0,0.0,0.0,0.0,0.0,0.0
627184000,627032000,0.021987753,0.003142284,0.0112948585,0.030668506,-0.00085485354,0.03164673,0.0,0.0,0.0,0.0,0.0,0.0,0.0,-0.034606934,0.0,0.0,0.0,0.0,0.00069051486,0.00069051486,-0.0012745112,-0.0009377003,0.0016545819,-0.00013483944,2.3245811e-06,0.0,0.0,0.0,0.0,0.0,0.0
627192000,627040000,0.021987753,0.003142284,0.0112948585,0.030668506,-0.00085485354,0.03164673,0.0,0.0,0.0,0.0,0.0,0.0,0.0,-0.034606934,0.0,0.0,0.0,0.0,0.0019159615,-0.00026356563,0.0019159615,0.00070798397,0.010317385,-0.00058912486,-2.95043e-05,0.0,0.0,0.0,0.0,0.0,0.0
627208000,627056000,0.021987753,0.003142284,0.0112948585,0.030668506,-0.00085485354,0.03164673,0.0,0.0,0.0,0.0,0.0,0.0,0.0,0.097595215,0.0,0.0,0.0,0.0,0.0019159615,-0.00026356563,0.0019159615,0.00070798397,0.008741606,0.0029225384,-1.847744e-05,0.0,0.0,0.0,0.0,0.0,0.0
627216000,627064000,0.01772406,-0.0015342982,0.052549586,0.028901732,-0.008256854,0.018554688,0.0,0.0,0.0,0.0,0.0,0.0,0.0,0.097595215,0.0,0.0,0.0,0.0,0.0019159615,-0.00026356563,0.0019159615,0.00070798397,0.006655136,-0.00565878,-2.6285648e-05,0.0,0.0,0.0,0.0,0.0,0.0
627224000,627072000,0.01772406,-0.0015342982,0.052549586,0.028901732,-0.008256854,0.018554688,0.0,0.0,0.0,0.0,0.0,0.0,0.0,0.097595215,0.0,0.0,0.0,0.0,0.0019159615,-0.00026356563,0.0019159615,0.00070798397,-0.0010856818,-0.005530134,-2.3424625e-05,0.0,0.0,0.0,0.0,0.0,0.0
627232000,627080000,0.01772406,-0.0015342982,0.052549586,0.028901732,-0.008256854,0.018554688,0.0,0.0,0.0,0.0,0.0,0.0,0.0,0.097595215,0.0,0.0,0.0,0.0,0.0019159615,-0.00026356563,0.0019159615,0.00070798397,0.0021598358,-0.0007026266,2.3245811e-06,0.0,0.0,0.0,0.0,0.0,0.0
627248000,627096000,0.01772406,-0.0015342982,0.052549586,0.028901732,-0.008256854,0.018554688,0.0,0.0,0.0,0.0,0.0,0.0,0.0,0.097595215,0.0,0.0,0.0,0.0,0.0019159615,-0.00026356563,0.0019159615,0.00070798397,0.0023488111,-0.0013778906,1.013279e-06,0.0,0.0,0.0,0.0,0.0,0.0
627256000,627104000,0.01772406,-0.0015342982,0.052549586,0.028901732,-0.008256854,0.018554688,0.0,0.0,0.0,0.0,0.0,0.0,0.0,0.097595215,0.0,0.0,0.0,0.0,0.0019159615,-0.00026356563,0.0019159615,0.00070798397,-0.009851386,0.005747813,-8.380413e-05,0.0,0.0,0.0,0.0,0.0,0.0
627264000,627112000,0.01772406,-0.0015342982,0.052549586,0.028901732,-0.008256854,0.018554688,0.0,0.0,0.0,0.0,0.0,0.0,0.0,0.097595215,0.0,0.0,0.0,0.0,0.001168079,0.001168079,0.0007593781,-0.00033807755,-0.0011073845,-0.007497573,-3.838539e-05,0.0,0.0,0.0,0.0,0.0,0.0
627272000,627120000,0.01772406,-0.0015342982,0.052549586,0.028901732,-0.008256854,0.018554688,0.0,0.0,0.0,0.0,0.0,0.0,0.0,0.02053833,0.0,0.0,0.0,0.0,0.001168079,0.001168079,0.0007593781,-0.00033807755,0.0013956107,0.0031125378,4.172325e-07,0.0,0.0,0.0,0.0,0.0,0.0
627288000,627136000,0.01772406,-0.0015342982,0.052549586,0.028901732,-0.008256854,0.018554688,0.0,0.0,0.0,0.0,0.0,0.0,0.0,0.02053833,0.0,0.0,0.0,0.0,0.001168079,0.001168079,0.0007593781,-0.00033807755,-0.0065750997,0.007849736,-6.109476e-05,0.0,0.0,0.0,0.0,0.0,0.0
627296000,627144000,0.01772406,-0.0015342982,0.052549586,0.028901732,-0.008256854,0.018554688,0.0,0.0,0.0,0.0,0.0,0.0,0.0,0.02053833,0.0,0.0,0.0,0.0,0.001168079,0.001168079,0.0007593781,-0.00033807755,-0.009911466,0.0008951955,-7.3850155e-05,0.0,0.0,0.0,0.0,0.0,0.0
627304000,627152000,0.01772406,-0.0015342982,0.052549586,0.028901732,-0.008256854,0.018554688,0.0,0.0,0.0,0.0,0.0,0.0,0.0,0.02053833,0.0,0.0,0.0,0.0,0.001168079,0.001168079,0.0007593781,-0.00033807755,0.0027240983,-0.005399049,-1.7225742e-05,0.0,0.0,0.0,0.0,0.0,0.0
627312000,627160000,0.01772406,-0.0015342982,0.052549586,0.028901732,-0.008256854,0.018554688,0.0,0.0,0.0,0.0,0.0,0.0,0.0,0.02053833,0.0,0.0,0.0,0.0,0.001168079,0.001168079,0.0007593781,-0.00033807755,0.0068732216,-0.004024006,-1.8179417e-05,0.0,0.0,0.0,0.0,0.0,0.0
627328000,627176000,0.01772406,-0.0015342982,0.052549586,0.028901732,-0.008256854,0.018554688,0.0,0.0,0.0,0.0,0.0,0.0,0.0,0.02053833,0.0,0.0,0.0,0.0,0.001168079,0.001168079,0.0007593781,-0.00033807755,-0.011169598,0.00935756,-0.00012415648,0.0,0.0,0.0,0.0,0.0,0.0
627336000,627184000,0.01772406,-0.0015342982,0.052549586,0.028901732,-0.008256854,0.018554688,0.0,0.0,0.0,0.0,0.0,0.0,0.0,0.02053833,0.0,0.0,0.0,0.0,0.00038696744,0.00038696744,-0.0020941198,0.00027421117,-0.0029543717,0.007011379,-2.8252602e-05,0.0,0.0,0.0,0.0,0.0,0.0
627344000,627192000,0.01772406,-0.0015342982,0.052549586,0.028901732,-0.008256854,0.018554688,0.0,0.0,0.0,0.0,0.0,0.0,0.0,0.0017089844,0.0,0.0,0.0,0.0,0.00038696744,0.00038696744,-0.0020941198,0.00027421117,-5.176873e-05,-0.008099042,-4.261732e-05,0.0,0.0,0.0,0.0,0.0,0.0
627352000,627200000,0.01772406,-0.0015342982,0.052549586,0.028901732,-0.008256854,0.018554688,0.0,0.0,0.0,0.0,0.0,0.0,0.0,0.0017089844,0.0,0.0,0.0,0.0,0.00038696744,0.00038696744,-0.0020941198,0.00027421117,0.0071910555,-0.0048571937,-2.4855137e-05,0.0,0.0,0.0,0.0,0.0,0.0
627368000,627216000,0.01772406,-0.0015342982,0.052549586,0.028901732,-0.008256854,0.018554688,0.0,0.0,0.0,0.0,0.0,0.0,0.0,0.0017089844,0.0,0.0,0.0,0.0,0.00038696744,0.00038696744,-0.0020941198,0.00027421117,0.012594795,-0.0022747617,-5.3942204e-05,0.0,0.0,0.0,0.0,0.0,0.0
627376000,627224000,0.01772406,-0.0015342982,0.052549586,0.028901732,-0.008256854,0.018554688,0.0,0.0,0.0,0.0,0.0,0.0,0.0,0.0017089844,0.0,0.0,0.0,0.0,0.00038696744,0.00038696744,-0.0020941198,0.00027421117,0.0046777874,0.0070194406,-1.5258789e-05,0.0,0.0,0.0,0.0,0.0,0.0
627384000,627232000,0.01772406,-0.0015342982,0.052549586,0.028901732,-0.008256854,0.018554688,0.0,0.0,0.0,0.0,0.0,0.0,0.0,0.0017089844,0.0,0.0,0.0,0.0,0.00038696744,0.00038696744,-0.0020941198,0.00027421117,0.0027143932,0.010031341,-3.516674e-05,0.0,0.0,0.0,0.0,0.0,0.0
627392000,627240000,0.01772406,-0.0015342982,0.052549586,0.028901732,-0.008256854,0.018554688,0.0,0.0,0.0,0.0,0.0,0.0,0.0,0.0017089844,0.0,0.0,0.0,0.0,0.00038696744,0.00038696744,-0.0020941198,0.00027421117,0.00042546913,0.008223521,-2.2530556e-05,0.0,0.0,0.0,0.0,0.0,0.0
627408000,627256000,0.01772406,-0.0015342982,0.052549586,0.028901732,-0.008256854,0.018554688,0.0,0.0,0.0,0.0,0.0,0.0,0.0,0.0017089844,0.0,0.0,0.0,0.0,0.0023131678,0.0023131678,4.5195222e-05,0.0018256009,-0.0012127736,-0.0007406337,-4.7683716e-06,0.0,0.0,0.0,0.0,0.0,0.0
627416000,627264000,0.01772406,-0.0015342982,0.052549586,0.028901732,-0.008256854,0.018554688,0.0,0.0,0.0,0.0,0.0,0.0,0.0,0.02545166,0.0,0.0,0.0,0.0,0.0023131678,0.0023131678,4.5195222e-05,0.0018256009,-0.0013388149,0.00919547,-3.4570694e-05,0.0,0.0,0.0,0.0,0.0,0.0
627424000,627272000,0.01772406,-0.0015342982,0.052549586,0.028901732,-0.008256854,0.018554688,0.0,0.0,0.0,0.0,0.0,0.0,0.0,0.02545166,0.0,0.0,0.0,0.0,0.0023131678,0.0023131678,4.5195222e-05,0.0018256009,0.008430522,-0.0045479527,-3.2901764e-05,0.0,0.0,0.0,0.0,0.0,0.0
627432000,627280000,0.01772406,-0.0015342982,0.052549586,0.028901732,-0.008256854,0.018554688,0.0,0.0,0.0,0.0,0.0,0.0,0.0,0.02545166,0.0,0.0,0.0,0.0,0.0023131678,0.0023131678,4.5195222e-05,0.0018256009,0.00214872,0.0049405815,-3.0398369e-06,0.0,0.0,0.0,0.0,0.0,0.0
627448000,627296000,0.01772406,-0.0015342982,0.052549586,0.028901732,-0.008256854,0.018554688,0.0,0.0,0.0,0.0,0.0,0.0,0.0,0.02545166,0.0,0.0,0.0,0.0,0.0023131678,0.0023131678,4.5195222e-05,0.0018256009,-0.0018716704,-0.0025271648,-1.2457371e-05,0.0,0.0,0.0,0.0,0.0,0.0
627456000,627304000,0.01772406,-0.0015342982,0.052549586,0.028901732,-0.008256854,0.018554688,0.0,0.0,0.0,0.0,0.0,0.0,0.0,0.02545166,0.0,0.0,0.0,0.0,0.0023131678,0.0023131678,4.5195222e-05,0.0018256009,-0.0049412954,-0.0022208719,-2.8729439e-05,0.0,0.0,0.0,0.0,0.0,0.0
