timestamp,timestamp_sample,xyz[0],xyz[1],xyz[2]
625256000,625256000,-0.0005620249,0.0005038457,0.0006388538
625260000,625260000,0.0018348378,0.00022029108,0.00054341875
625276000,625276000,0.00794906,-0.0021283615,0.00035140457
625296000,625296000,-0.0028485213,-0.0020642271,0.00028675213
625316000,625316000,0.006752272,-0.0014337883,6.863655e-05
625336000,625336000,0.0042123003,-0.0013099004,4.9755196e-05
625356000,625356000,0.004599696,-0.0044010933,0.00013394625
625376000,625376000,0.0021244958,0.0040684273,0.000111870395
625396000,625396000,0.0019420522,-0.0030378862,-0.0002056072
625416000,625416000,0.0052298475,-0.0021066347,-2.1400714e-05
625436000,625436000,0.00042774284,0.0010202996,-0.00029974748
625456000,625456000,-0.00083882484,-0.0046231006,8.429422e-06
625476000,625476000,0.0020986467,-0.0014157221,-0.000374756
625496000,625496000,0.003130754,0.00054417446,1.633601e-05
625516000,625516000,0.003427334,0.0064830687,-7.65449e-05
625536000,625536000,-0.0062583447,-0.006091932,7.9636775e-05
625552000,625552000,0.003997308,-0.001635159,-0.00012853715
625576000,625576000,0.003930265,-0.0026751766,-7.69879e-05
625596000,625596000,0.0010970372,-0.0057024676,-0.00029524852
625616000,625616000,0.0022387228,-0.00031772524,-0.00010906152
625636000,625636000,0.00078705885,-0.0028362144,-0.0004023321
625656000,625656000,0.0005798488,-0.00027279637,-0.00030357036
625676000,625676000,-0.0022429666,0.0013385937,-0.000192556
625692000,625692000,0.0017368619,-0.003497276,-5.289461e-06
625716000,625716000,0.005492443,-0.0014088494,5.3317945e-05
625736000,625736000,0.0035058144,-0.005130903,-1.6912665e-05
625756000,625756000,0.0002281128,-0.0035843556,-0.00047689924
625776000,625776000,0.0074129086,0.0012096146,-0.0006467128
625796000,625796000,-0.002150267,-0.0037364827,-0.00087590393
625816000,625816000,0.0010781989,-0.0013626758,-0.00065365585
625836000,625836000,0.0016763934,-0.0008867732,-0.00041077024
625856000,625856000,0.0036289603,-0.004774996,-7.224988e-05
625876000,625876000,-0.004578278,-0.0030963582,0.0001541078
625896000,625896000,0.0023512533,0.0060920385,0.0005247962
625916000,625916000,-2.603732e-05,-0.003008887,-0.0001645752
625936000,625936000,0.004869327,-0.002958189,8.9270514e-05
625956000,625956000,0.0023777955,-0.0033575299,-0.00012447177
625976000,625976000,0.001453801,-0.0020816955,1.0113352e-05
625992000,625992000,0.0053480202,-0.001204857,-0.00013761726
626016000,626016000,0.0041354857,-0.0012893395,0.0005017347
626036000,626036000,0.0022861427,-0.0069654603,0.00027555454
626056000,626056000,-0.00053918164,-0.0033439924,0.00035664876
626076000,626076000,0.0021682591,0.0023650548,0.0003690738
626096000,626096000,0.0035338975,-0.0061663873,5.5276556e-05
626116000,626116000,-0.002857475,-0.00547786,-3.4528122e-05
626136000,626136000,0.00418075,0.0018502969,0.00021956713
626156000,626156000,-0.0040696943,0.0018371313,0.00028102216
626176000,626176000,0.0009267237,-0.00039393947,-9.18533e-05
626196000,626196000,0.0067136786,-0.0004466661,-0.00011873736
626216000,626216000,-0.003608286,-0.00047218322,-7.896466e-06
626236000,626236000,0.006399329,-0.007824345,-0.00013690031
626256000,626256000,-0.0010233775,-0.0012007093,-0.00042275287
626276000,626276000,0.0042878864,-0.0077981213,-0.0005348285
626296000,626296000,-0.000223274,-0.000386019,-9.394559e-05
626316000,626316000,0.0025708727,-0.0033241655,0.0001949818
626336000,626336000,0.0003618003,-0.0058327336,0.0002568638
626356000,626356000,0.0060909204,-0.0047064903,-9.452949e-05
626376000,626376000,0.00039304665,0.0021992503,-0.00014260963
626396000,626396000,0.007987622,-0.0038337656,-0.00013602372
626416000,626416000,0.00026979786,-0.004325206,0.00018212064
626436000,626436000,0.004482085,-0.0050959834,0.0005283124
626456000,626456000,0.0044171438,-0.00062706845,0.0004705126
626476000,626476000,0.001992228,-0.0051543885,0.00025272678
626496000,626496000,0.0030227837,0.0065393504,0.0005908082
626516000,626516000,0.0023537604,-0.003392395,0.0007408283
626536000,626536000,0.0033907844,-0.0006731313,0.0003742497
626556000,626556000,0.0023359552,0.0020797825,-0.00028437146
626576000,626576000,0.005443328,-0.0020124991,-0.0005775283
626596000,626596000,0.005662714,-0.0016697781,-0.00027528452
626616000,626616000,-0.001577678,-0.0027986248,-0.00014654279
626636000,626636000,0.0059841685,-0.0022570486,0.00023485399
626656000,626656000,0.0066319183,0.0024788594,0.00038579476
626676000,626676000,0.0056350436,-0.003589405,0.00083132635
626696000,626696000,-0.0011856692,-0.0020319785,0.00077563577
626716000,626716000,0.005060013,-0.0007914781,0.0004533967
626736000,626736000,0.00010833959,-0.002104053,0.00038635414
626756000,626756000,-0.0017391734,-0.002952013,0.0008858575
626772000,626772000,0.008795805,0.0017036184,0.0008902711
626796000,626796000,0.0043584807,0.0029114527,0.00078677834
626816000,626816000,-0.0009814468,-0.0028307124,0.00071401085
626836000,626836000,0.0070766527,0.0022455966,0.00046077248
626856000,626856000,-0.0013536311,-0.0009353423,0.0006238405
626872000,626872000,0.0024218217,-0.0050520147,0.001176556
626896000,626896000,0.0021588774,-0.0041517043,0.001634321
626916000,626916000,0.0051723723,-0.007769976,0.0014567577
626936000,626936000,-8.336874e-05,-0.003752774,0.0019414742
626956000,626956000,0.0009042352,0.0015420117,0.001671954
626976000,626976000,0.0061133076,0.0027761734,0.001126901
626996000,626996000,0.0004405502,-0.006507768,0.0014934965
627012000,627012000,0.000905172,-0.0041138167,0.0015055399
627036000,627036000,6.952474e-05,-0.003212066,0.0011078522
627056000,627056000,0.0014150351,-0.0068661077,0.0012521748
627076000,627076000,0.0058763577,-0.0037342603,0.0012459767
627096000,627096000,0.0029164208,-0.007282177,0.0016378964
627116000,627116000,-0.0014719617,-0.0028838508,0.001131536
627136000,627136000,0.0066172946,-0.0036117844,0.0010999823
627156000,627156000,0.0020962548,-0.0058919066,0.0010490572
627176000,627176000,0.0060472353,-0.001816308,0.00085642585
627196000,627196000,0.003691255,-0.0032285457,0.00079628173
627216000,627216000,0.0023755284,-0.00046753147,0.00038691927
627236000,627236000,0.0030601192,-0.0011477864,0.00031861014
627256000,627256000,0.0037470204,-0.003374014,-8.442724e-05
627276000,627276000,0.005320656,-0.004380429,4.128847e-05
627296000,627296000,0.0041665398,-0.00095984724,0.00040677463
627316000,627316000,0.0019470151,-0.0062217116,0.00030692163
627336000,627336000,0.004123596,-0.00045334606,0.00042733073
627356000,627356000,0.0063969037,-0.0026114655,0.0006887869
627376000,627376000,0.0021261028,-0.0017595663,0.0006428646
627396000,627396000,-0.00062151,-0.00541132,0.00064612366
627416000,627416000,0.0046432936,-0.004995738,0.0007543741
627436000,627436000,0.0031035496,-0.0036783693,0.00036595165
627456000,627456000,0.0026407596,0.0014205473,0.00066983455
627476000,627476000,4.597928e-05,0.0014032741,0.00035463984
627492000,627492000,0.0010708678,-0.011096234,7.907822e-05
627516000,627516000,0.0002900596,-0.0024536168,0.0006714611
627536000,627536000,-0.0006210294,-0.0035105702,0.0009774388
627556000,627556000,0.0057920776,0.002864048,0.00056764996
627576000,627576000,0.005164926,-0.0068569467,2.6619877e-05
627596000,627596000,0.005249231,-0.003405507,0.00012169594
627616000,627616000,0.0049339696,-0.0022133952,-4.4906054e-05
627636000,627636000,0.0036826562,-0.0018133498,-0.00020775343
627656000,627656000,0.003937184,-0.0055948966,-0.00024151063
627676000,627676000,0.00329983,-0.0014238897,-0.00062443415
627696000,627696000,0.006264218,-0.0028884958,-0.00081923156
627716000,627716000,0.00014793314,-0.0067668865,-0.0006385667
627736000,627736000,0.001985268,-0.0024433092,-0.00018532245
627756000,627756000,0.009380153,-0.0054327487,3.7955353e-05
627776000,627776000,0.0001688113,-0.0055230837,0.00024475268
627796000,627796000,0.001711624,-0.0077090077,0.00023551207
627816000,627816000,0.0024909042,-0.0033868456,-0.00012108546
627836000,627836000,0.0067956946,-0.00562722,-0.0005229592
627856000,627856000,0.004319266,-0.002073481,-0.00031481247
627876000,627876000,0.0014483096,-0.0005336087,-0.00087647984
627896000,627896000,0.002505111,-0.004150787,-0.00057828956
627916000,627916000,0.0067269765,-0.0067816027,-0.00028693385
627936000,627936000,0.005470767,-0.009237885,0.00014413781
627956000,627956000,0.0044773193,-0.0010384426,0.0003030873
627976000,627976000,0.0020755702,-0.005050042,0.0004097167
627996000,627996000,0.0064999955,-0.0050410037,0.00047097422
628016000,628016000,0.0063592577,-0.0029066259,0.00021240796
628036000,628036000,0.0027410593,-0.0035502529,-8.7176864e-05
628056000,628056000,0.0042940215,-0.0025487072,2.8675862e-05
628076000,628076000,0.002345305,-0.008299261,-3.6692225e-05
628096000,628096000,0.007050357,-0.012481868,4.3922126e-05
628112000,628112000,0.005939601,-0.0035279768,0.00043806783
628136000,628136000,0.005893435,-0.0025773898,0.00051445694
628156000,628156000,0.0073552094,-0.005568451,0.0007675217
628176000,628176000,0.0014725517,-0.005088074,0.0008396929
628196000,628196000,0.0043003345,-0.008279802,0.00051112426
628216000,628216000,0.0048394795,-0.0044697844,0.0004891758
628236000,628236000,0.011337949,-0.0057746763,-3.8024154e-07
628256000,628256000,0.0066742403,-0.0073815514,-4.2137763e-05
628276000,628276000,0.0006959811,0.001119477,-0.00030120584
628296000,628296000,0.0026739934,-0.009720415,-0.0005576472
628316000,628316000,0.0046029277,-0.0031343116,-0.0005893731
628336000,628336000,0.009214502,-0.0030924848,-0.0007043955
628356000,628356000,0.0044176797,-0.00523228,-0.0009344733
628376000,628376000,0.0041921507,0.0007377409,-0.00093509327
628396000,628396000,0.0063739084,-0.007782957,-0.0007438321
628412000,628412000,0.0043486706,-0.0018406201,-0.0008057371
628436000,628436000,0.005493352,-0.004990087,-0.0008410031
628456000,628456000,0.0027906662,-0.007451345,-0.00063226273
628476000,628476000,0.0018246575,-0.00822176,-0.0005624746
628496000,628496000,0.008129941,-0.005798263,-0.00034783548
628516000,628516000,0.003090313,-0.0079602245,-0.0006088915
628536000,628536000,0.0018919114,-0.0062075844,-0.0005754053
628556000,628556000,0.0010648287,-0.0035509765,-0.00038864242
628576000,628576000,0.0021651816,-0.0049120467,-0.00043100512
628596000,628596000,0.0057434626,-0.002445146,3.399673e-06
628616000,628616000,-0.0008864638,-0.0091336435,0.00023948666
628636000,628636000,0.007297964,-0.008138722,0.0003423233
628652000,628652000,0.0053043887,-0.008717395,0.00038581947
628676000,628676000,0.0018277287,-0.009206806,0.0001500352
628696000,628696000,0.0034047284,-0.00737749,-0.00026851145
628716000,628716000,0.0095024025,-0.0061991313,-1.206883e-05
628736000,628736000,0.009225295,-0.0033125551,0.00015029812
628756000,628756000,-0.002353321,-0.0053086085,0.00034550362
628776000,628776000,0.0007567018,-0.012513645,9.62933e-05
628796000,628796000,0.0029551154,-0.0076079583,-0.00034759348
628816000,628816000,-0.0013369147,-0.004756258,-0.0006800587
628836000,628836000,0.0055212034,-0.0058330838,-0.0003342899
628856000,628856000,0.0024196259,-0.008126664,-0.00040452523
628876000,628876000,0.0026192963,-0.004687159,-0.0005034879
628896000,628896000,0.0006253326,-0.00921732,-0.00040799376
628916000,628916000,0.0032050565,-0.0063303187,0.000267505
628936000,628936000,0.005112167,-0.004906859,2.3706543e-06
628952000,628952000,0.0037303178,-0.0069770664,-5.9440958e-05
628976000,628976000,0.002539692,-0.0049895598,-0.00018778589
628996000,628996000,-0.00046487805,-0.011386497,-0.00033262698
629016000,629016000,-0.003896773,-0.004782833,-0.00018556145
629036000,629036000,0.004313986,-0.006312491,0.00027907357
629052000,629052000,0.005671356,-0.008542333,0.0002547799
629072000,629072000,-0.0010793186,-0.011324236,6.904028e-05
629092000,629092000,0.002938392,-0.006558289,-0.000107322034
629116000,629116000,-0.003605075,-0.006421235,0.00011456713
629136000,629136000,0.0024464948,-0.012802497,5.4381853e-06
629156000,629156000,0.0043351054,-0.007101695,-9.180001e-05
629176000,629176000,-0.00016526025,-0.0054273396,-0.00044518488
629196000,629196000,-0.0019634706,-0.010010057,-0.000690913
629216000,629216000,0.0015484379,-0.0095468145,-0.00073500583
629236000,629236000,-0.0019480591,-0.011003787,-0.000811476
629252000,629252000,-0.0009360534,-0.011091233,-0.0009559664
629272000,629272000,0.0018491715,-0.007962219,-0.0006900562
629296000,629296000,-0.0015425043,-0.004002001,-0.00048346256
629316000,629316000,-0.0013318962,-0.009755068,-0.0005335309
629336000,629336000,-0.0006306269,-0.012440835,-0.0006128679
629356000,629356000,0.0007055772,-0.008310795,-0.00072872883
629376000,629376000,-0.00079411094,-0.014868508,-0.0009191463
629396000,629396000,-0.000764085,-0.007399433,-0.0011479667
629416000,629416000,0.00065136177,-0.0061705015,-0.0012404323
629436000,629436000,-0.0006828441,-0.007356096,-0.0005971461
629452000,629452000,-0.002161311,-0.014284359,-0.00061280315
629476000,629476000,0.0038591477,-0.0067839576,-0.00078052026
629496000,629496000,0.0020042772,-0.010086989,-0.0008798702
629516000,629516000,0.0004684435,-0.010196583,-0.000538874
629536000,629536000,-0.002398889,-0.008642207,-0.00073151564
629556000,629556000,0.0003859516,-0.008988759,-0.0002729975
629576000,629576000,-0.0019082559,-0.014755773,0.00025382507
629596000,629596000,-0.005530012,-0.0066672396,0.00011704255
629616000,629616000,-0.00068608095,-0.0170011,0.0004706226
629636000,629636000,0.0013510968,-0.007563864,6.1045546e-05
629656000,629656000,-0.00069540495,-0.009024472,-0.00032376059
629676000,629676000,-0.0042147418,-0.013455068,-0.00091971783
629696000,629696000,-0.0005093522,-0.0104186665,-0.0009548371
629716000,629716000,-0.0054787667,-0.014802342,-0.001373965
629736000,629736000,-0.005815548,-0.0064426363,-0.0015443264
629756000,629756000,0.0004437553,-0.012928127,-0.0016965395
629776000,629776000,0.0014776895,-0.007831702,-0.0012842255
629796000,629796000,-0.0037155377,-0.013689721,-0.0013668387
629816000,629816000,-0.0067647197,-0.009513119,-0.00131175
629836000,629836000,-0.0024570005,-0.015795223,-0.0013125865
629856000,629856000,-0.000723762,-0.010724786,-0.0011306651
629876000,629876000,-0.0069548106,-0.010739412,-0.0012745038
629892000,629892000,-0.0041142968,-0.010434094,-0.0010079539
629916000,629916000,-0.00524905,-0.010123756,-0.00076780404
629936000,629936000,-0.0021290292,-0.013079311,-0.00096346095
629956000,629956000,-0.0036850697,-0.013940177,-0.0009839223
629976000,629976000,-0.006073785,-0.0042590275,-0.0007718246
629996000,629996000,-0.002175283,-0.0021827342,-0.00033193218
630016000,630016000,-0.0022069954,0.0020294925,-0.00054240425
630036000,630036000,0.0015225216,0.005370866,-0.00020256403
630056000,630056000,-0.0020226664,0.0013742225,-5.1257448e-05
630076000,630076000,0.0017052297,-0.001757151,-0.00022926413
630096000,630096000,-0.0015142944,0.006393214,-0.0002040247
630116000,630116000,0.0044935914,0.002328938,2.3958746e-05
630136000,630136000,-0.0011361041,0.0009344588,-0.00018988003
630156000,630156000,0.00071984745,0.0038656718,-0.00035184197
630176000,630176000,-0.004593312,0.0074574184,-0.00037867654
630196000,630196000,-0.0017171521,0.0029310656,0.000107259955
630216000,630216000,0.0017641772,-0.00018691784,0.0002350065
630236000,630236000,0.006655511,0.0073501426,-0.00018558407
630256000,630256000,0.00020952692,0.0031576285,0.0001460261
630276000,630276000,-0.006081501,0.0027050506,-8.13942e-05
630296000,630296000,-0.003893089,0.0053765588,-0.00032364237
630316000,630316000,0.0037567243,0.00623116,-0.0008076006
630336000,630336000,0.000791431,0.0045811296,-0.00092666777
630352000,630352000,-0.001731151,0.007521591,-0.00083658437
630372000,630372000,-0.0011078195,0.0010092419,-0.00032123207
630396000,630396000,-0.0019424137,0.0038317153,-0.00036069786
630416000,630416000,-0.0034304122,0.0031777702,-0.0006709772
630436000,630436000,0.008341514,0.0077558537,-0.0005525221
630456000,630456000,-0.0020797332,0.0021952866,-0.00048471466
630476000,630476000,-0.0028970917,0.0025359616,-0.00026340736
630496000,630496000,0.0015202117,0.0019413056,-0.00020638936
630516000,630516000,0.0023990497,0.0068697566,-0.00010319911
630536000,630536000,0.0018466354,-0.001695916,-0.00015552087
630556000,630556000,0.00093343045,0.0009374543,0.000115614544
630572000,630572000,-0.0009833997,-0.0018064487,0.00048106743
630592000,630592000,-0.0018430555,0.00021652185,0.00043433203
630616000,630616000,-0.0066232104,-0.0011494216,0.00076726306
630636000,630636000,0.00012953067,0.0008271957,0.0013831304
630656000,630656000,0.0066257874,0.0024011363,0.0012675772
630672000,630672000,-0.0018640545,0.0035737767,0.0010594624
630696000,630696000,-0.00700177,0.0022086077,0.0007059653
630716000,630716000,0.0022647292,-0.0045987284,0.00023450449
630736000,630736000,-0.007406936,0.0021908518,0.0003702434
630756000,630756000,0.0013443897,0.0060470607,0.00056332786
630772000,630772000,-0.005687575,-0.0035590203,0.0007670943
630796000,630796000,-0.0018481754,0.0006041366,0.00036153023
630816000,630816000,0.0036255058,-0.0026419817,-0.00018276062
630836000,630836000,-0.005582645,-0.002131646,-0.0002652753
630856000,630856000,-0.00061357004,-0.0017421979,-0.0005872875
630872000,630872000,-0.002168594,-0.00084909284,-0.00029122326
630896000,630896000,0.0029819286,0.0058864634,-0.00020192274
630916000,630916000,-0.0009800864,0.0028721641,-0.00023143465
630936000,630936000,0.0026512838,0.005370694,-9.710475e-05
630956000,630956000,0.0043786746,0.0020084158,0.000120670564
630972000,630972000,-0.0034154982,0.001978269,0.0002680164
630996000,630996000,-0.0017238284,0.0039548706,-4.4206638e-05
631016000,631016000,-0.00095574727,0.0029779132,8.900669e-05
631036000,631036000,-0.003316857,0.0054734373,8.740324e-05
631056000,631056000,0.0013864937,-0.00020271429,0.0004733894
631076000,631076000,0.0037846174,0.0006166111,4.7774178e-05
631096000,631096000,-0.003361378,-0.0003358451,-0.0001257002
631116000,631116000,-0.0006051536,0.007600713,-4.8855218e-05
631136000,631136000,0.0017195207,0.0020310725,-0.00022607791
631156000,631156000,0.0016658076,0.0016284013,2.2688822e-05
631176000,631176000,0.0022137356,0.0006727474,0.0004999817
631192000,631192000,-0.0018259517,0.004713969,0.00057132606
631216000,631216000,0.0005577874,-0.002120162,0.000610072
631236000,631236000,0.00071711006,0.0071687764,0.00047890478
631252000,631252000,-0.0005071848,0.007771113,0.00048329937
631276000,631276000,0.00037891534,-0.0012161543,0.00046881905
631296000,631296000,-0.0012389559,-0.0023010985,0.00034659356
631316000,631316000,0.0018691856,0.0008843781,2.6450398e-05
631336000,631336000,0.0018427536,0.0014858446,0.0003412454
631356000,631356000,-0.0072066,0.00020917656,-0.00022324057
631372000,631372000,0.00012222223,0.0021599683,-8.46858e-05
631396000,631396000,0.0015292072,0.004055073,-0.00050994783
631416000,631416000,-0.0019457927,0.007163264,-0.0006005174
631436000,631436000,0.00021331117,-0.0045276037,-0.0007057243
631456000,631456000,-0.0015119031,0.0048536775,-0.0005913115
631476000,631476000,0.00032174005,0.002411161,-0.00044414363
631496000,631496000,0.002362688,-0.0010120465,-0.0002172291
631516000,631516000,-0.004869632,-0.00091322407,4.617573e-05
631536000,631536000,-0.0023121699,0.0037958445,0.00039068883
631556000,631556000,-0.0026844167,-0.001995685,0.00033644662
631576000,631576000,0.00462496,-0.0036039634,0.00048020395
631596000,631596000,0.00288756,0.009410663,0.0004935403
631616000,631616000,0.0015446795,-0.0019959565,0.00054102426
631636000,631636000,-0.0022599224,0.0031305489,0.0003748152
631652000,631652000,0.0072887586,0.00084450596,-6.17519e-05
631676000,631676000,-0.0008072655,0.0009381196,-0.00028713766
631696000,631696000,-0.0019189639,-0.0014294113,-0.00047501293
631716000,631716000,-0.00010977249,0.002214434,-0.0006052802
631736000,631736000,-0.0009013923,0.003819007,-0.0007029337
631756000,631756000,-0.0024201777,0.0004304315,-0.00080044114
631776000,631776000,0.002260494,0.0045885956,-0.00058228
631796000,631796000,-0.00056652375,-0.0026479266,-7.828101e-05
631816000,631816000,-0.0030139447,-0.0045332527,0.00033011788
631836000,631836000,-0.00023523056,0.0040423637,0.00044662788
631856000,631856000,-0.000462531,0.005867049,0.0005186896
631876000,631876000,-0.002304113,0.0021638027,0.000616539
631896000,631896000,-0.00023056514,-0.0014934368,0.0007988535
631916000,631916000,-0.0010474832,0.0023237779,0.0006441525
631936000,631936000,-0.0037855012,0.002583643,0.00046153445
631956000,631956000,-0.0014133325,0.00057701365,0.00044984478
631976000,631976000,-0.00091231236,-0.0006895271,1.2347118e-06
631996000,631996000,0.0032459465,-0.00093954935,0.00012407702
632016000,632016000,0.0015785322,0.0062523577,4.8202928e-05
632036000,632036000,-0.00077922957,0.0022518842,-0.00014985382
632056000,632056000,-0.0014242167,-0.00023059128,-0.00041227703
632072000,632072000,-0.0026076504,0.0021732228,-0.000604172
632096000,632096000,-0.0027670031,-0.002633484,-0.0002483786
632116000,632116000,-0.0048767636,0.0007638471,-0.0004943651
632136000,632136000,0.0010207426,0.0006528689,-0.000489168
632156000,632156000,0.0014010158,-0.0010713104,-0.00030649125
632176000,632176000,-0.005740658,0.0026160325,-0.00027973542
632196000,632196000,-0.00031460193,0.0066536353,0.00014665289
632216000,632216000,-0.0027398227,-0.001815175,-1.0821001e-05
632236000,632236000,0.002389798,0.0032006716,0.00027959747
632252000,632252000,0.0023541264,0.0036658682,0.00095766503
632272000,632272000,0.0015668466,0.0020366998,0.0011297704
632296000,632296000,-0.00607258,0.0053217537,0.0007905844
632316000,632316000,-0.0010083558,5.089247e-05,0.0007239495
632336000,632336000,0.005181141,0.0023126518,0.00042386062
632356000,632356000,0.00012789523,-0.00037470285,5.5236727e-05
632376000,632376000,0.0022841643,0.0026110692,-0.0002619669
632396000,632396000,-0.0029853126,0.0080623785,-0.0001055331
632416000,632416000,-0.0017580988,-0.00326312,-0.00056748604
632436000,632436000,0.0021395104,0.0027050674,-0.00051422947
632456000,632456000,0.0029346545,0.004720922,-0.00055722176
632476000,632476000,0.0009249805,-0.005057529,-0.00070181163
632496000,632496000,-0.003934788,-0.0011816035,-0.00044685623
632512000,632512000,-0.004305673,0.0024332653,-0.00050875964
632536000,632536000,0.00070553325,0.0039187646,-0.00063465675
632552000,632552000,-0.0013197835,0.0054956474,-0.00022138716
632576000,632576000,0.006278445,0.00043017766,-0.00041366692
632592000,632592000,-0.003957213,0.004057738,-0.00041408098
632616000,632616000,0.0018154485,0.0036937927,-0.00016761536
632636000,632636000,0.0006900615,0.0060410663,8.1376864e-05
632656000,632656000,-0.0018507589,-0.00040877098,0.00025656598
632676000,632676000,4.8664515e-05,0.0035730242,0.00046953163
632696000,632696000,-0.0016158393,0.0018701917,0.00054351677
632716000,632716000,-0.001942868,0.0010104001,9.977499e-06
632736000,632736000,0.0022753663,0.0050376793,-0.00013894559
632756000,632756000,0.0019079836,-0.0031504885,-0.00044346985
632776000,632776000,0.001891623,0.003110581,-2.5488045e-05
632796000,632796000,-0.001040947,0.0007887278,0.00042184978
632816000,632816000,0.0008506294,-0.0009863431,0.00034610665
632836000,632836000,-0.00011869753,-0.0017869595,-0.0001370399
632856000,632856000,-0.0037432644,0.005372893,4.478252e-07
632876000,632876000,0.0018407331,-0.0008907571,5.145025e-05
632896000,632896000,-0.0035967994,0.0017531557,0.00024493894
632912000,632912000,0.004919991,0.0013439851,0.0004180924
632936000,632936000,0.0025860763,-0.0018523611,0.00065561367
632956000,632956000,0.0040416447,-0.00029690156,0.000630713
632972000,632972000,-0.0030558223,0.005536484,0.0006809988
632996000,632996000,-0.0056229923,0.0039248858,0.00068506435
633016000,633016000,-0.0054000746,0.0032749681,0.00046671374
633036000,633036000,-0.0055758813,0.0006073279,0.0006554558
633056000,633056000,0.010053974,0.006050799,0.0008556509
633076000,633076000,-0.0018790147,0.00463422,0.0007229817
633096000,633096000,0.0008594283,0.0022220185,0.00027031562
633116000,633116000,0.0030965046,0.00029367395,-0.00016987651
633136000,633136000,-0.002171754,-0.0018263996,-0.00021249829
633156000,633156000,0.0012335053,0.004015139,-0.00054018525
633176000,633176000,-0.001883652,-0.003143528,-0.0011934018
633196000,633196000,0.0007056683,0.0069100014,-0.0007687308
633216000,633216000,-0.0004755407,0.0037055165,-0.0005387275
633236000,633236000,0.001705073,0.0026492896,-0.0005319643
633256000,633256000,0.0020777073,-0.00043427583,-0.00082001544
633276000,633276000,-0.004129487,0.0009839498,-0.0010721043
633296000,633296000,-2.4146488e-05,0.0052579045,-0.0012532213
633316000,633316000,-0.00059224106,-0.0015239922,-0.0015555186
633336000,633336000,0.0024485323,0.0023162807,-0.0011345047
633356000,633356000,0.0038825094,0.006638742,-0.0011837599
633376000,633376000,-0.0047203237,0.0029781251,-0.0012912696
633396000,633396000,-0.0043570464,0.0023314191,-0.00044138235
633416000,633416000,0.0044925474,0.002758286,-0.0001300578
633436000,633436000,0.001165444,-0.00321544,-9.971277e-05
633456000,633456000,0.0035123357,-0.000980957,-0.0002158724
633476000,633476000,-0.004422003,0.0032779085,-0.00031314947
633492000,633492000,0.004632192,0.006137439,-0.00012852906
633516000,633516000,-0.00088797836,0.0074649514,0.0005554924
633536000,633536000,0.001546733,-0.0009027511,0.00045594684
633552000,633552000,-0.0022440616,0.0007728726,0.0003275434
633576000,633576000,0.0012525406,0.002960005,0.00048267085
633596000,633596000,0.0014440576,0.0018422208,0.0010172727
633616000,633616000,0.002975355,0.005738712,0.0006304135
633636000,633636000,-0.010804641,0.0031393906,0.00070328946
633656000,633656000,0.0009935454,0.0038295526,0.0010517007
633676000,633676000,-0.0021887932,0.0027076034,0.0006086722
633696000,633696000,-0.0012322966,0.00049340364,0.0007562438
633716000,633716000,-0.00082536426,0.0041729845,0.00078077574
633736000,633736000,-0.0053720623,0.0023843686,0.0006126796
633756000,633756000,0.0017026123,0.0029900619,0.0005923611
633776000,633776000,-0.0033782595,0.0020756233,0.00053089723
633796000,633796000,-0.0010342612,-0.0049685766,0.00049831247
633816000,633816000,-0.0017804512,-0.00081677455,0.00046952648
633836000,633836000,-0.0024527893,0.0041885264,0.00058191386
633852000,633852000,-0.0019692646,0.004076415,0.0006799609
633876000,633876000,0.0005022619,0.0067978483,0.00044405577
633896000,633896000,0.0027261153,0.00041172857,0.0005992951
633916000,633916000,-0.0006666264,0.0029837377,0.00044320358
633936000,633936000,0.0042706393,0.0015370093,0.00036713015
633956000,633956000,0.00033999415,-0.005063017,0.00021041863
633976000,633976000,-0.0058837514,-0.0036263713,4.8387854e-05
633996000,633996000,0.004267454,0.00782036,-7.467389e-05
634016000,634016000,-0.00081975583,0.004041512,0.0003467149
634036000,634036000,-0.0010135454,0.0031394437,0.00027201476
634056000,634056000,0.00017342984,0.0032584998,-8.503311e-05
634076000,634076000,9.963708e-05,-0.0023408073,-5.9906844e-05
634096000,634096000,0.00080039655,0.0022698438,0.00031883703
634116000,634116000,-0.000366207,0.0068352297,0.00012160593
634136000,634136000,-0.0005072388,0.0036958032,-0.00015720661
634156000,634156000,-0.005455803,-0.00056964625,-0.0003708232
634176000,634176000,0.0021480336,0.00014100573,-0.00055869867
634196000,634196000,0.0012562808,0.005373775,-0.0006388211
634216000,634216000,0.0028682402,0.0004533988,-0.00046028435
634236000,634236000,0.0006120354,0.002366968,-0.0006701108
634256000,634256000,0.00035463533,0.0019085195,-0.0006318762
634276000,634276000,-0.002380101,0.0036704203,-0.00063403713
634296000,634296000,0.0021494082,0.003942011,-1.8695762e-05
634316000,634316000,-0.0027606036,0.0047572204,-6.432419e-05
634336000,634336000,0.0052945623,0.006221981,-7.8856814e-05
634356000,634356000,0.0009893388,0.0048277806,-6.762933e-05
634376000,634376000,-0.00052069104,0.000763246,0.00016767107
634396000,634396000,-0.0020273563,0.003348167,-2.6902759e-05
634416000,634416000,0.0015888591,0.0022687572,-0.000104841965
634436000,634436000,-0.0054988693,0.007935188,-0.00015484213
634456000,634456000,0.0048833587,0.00041542202,-0.00017929189
634476000,634476000,-0.0013179699,0.004449639,-2.4028668e-05
634496000,634496000,-0.00026340422,0.00027763337,-0.00046617957
634516000,634516000,-0.0020643536,0.0005025709,-0.0008531869
634536000,634536000,-0.002882657,0.0047339946,-0.000680445
634556000,634556000,0.00517332,0.0033964815,-0.00089196133
634572000,634572000,0.0057151066,-0.0043698456,-0.00027867005
634596000,634596000,-0.0048640696,-4.035375e-05,-0.0005056294
634616000,634616000,0.0034038005,-0.0006906474,-0.00025498198
634636000,634636000,0.0014736182,0.006171152,-0.00040958138
634656000,634656000,-0.00692169,0.0060855066,-0.00046833488
634676000,634676000,-0.0013570816,0.007824816,-0.00055914867
634696000,634696000,0.0049132095,-0.0015160079,-0.00036868517
634716000,634716000,0.0024691133,0.0017339591,7.2691866e-05
634736000,634736000,-0.0007674043,0.0020025051,0.00065828895
634756000,634756000,-0.002200289,0.001163699,0.000758296
634776000,634776000,-0.0029922915,0.0037834933,0.0009827646
634796000,634796000,0.0014848472,-0.0020510377,0.0013277952
634816000,634816000,0.00033364602,0.004127595,0.0012977915
634836000,634836000,-0.0009665224,0.0011194433,0.001268213
634856000,634856000,-0.0014137086,0.00090347405,0.0008884705
634872000,634872000,0.0023958534,0.0050601414,0.00065250334
634896000,634896000,-0.004649314,0.0007796346,0.00054860755
634916000,634916000,0.0012001655,0.0007137819,0.0002335156
634936000,634936000,0.0012966014,-0.0004641608,0.00023713664
634956000,634956000,0.0014446987,0.003013896,0.00021690445
634972000,634972000,-0.0007007604,0.0022345392,-0.000186802
634996000,634996000,0.00035866647,-0.0037918524,7.676017e-05
635016000,635016000,0.0017928858,0.0028425371,-0.00030165713
635036000,635036000,0.0031004017,0.0023265586,-0.00051731314
635056000,635056000,0.0044673327,0.004505288,-0.00040400776
635076000,635076000,-0.004602268,0.0033009804,-0.0005521137
635096000,635096000,0.0019971784,-0.0031426717,-0.0003417031
635116000,635116000,-0.0046044756,-0.00020707806,-0.0003208497
635136000,635136000,-0.0003558754,0.00086220045,-0.00047869852
635156000,635156000,0.0032861033,0.0032764326,-0.00029993377
635176000,635176000,-0.0034297497,-0.00156194,-0.00029525286
635196000,635196000,-0.0052813366,0.0064214,-0.0007790317
635216000,635216000,0.006527249,-0.0029907885,-0.0007259074
635236000,635236000,0.0034801653,-0.00047752727,-0.0004200863
635256000,635256000,0.00027618386,0.0024888772,-2.7674287e-05
635276000,635276000,0.001873531,0.005284916,0.00020584255
635296000,635296000,0.0005805625,0.0012153857,0.0006647335
635316000,635316000,-0.00031341106,0.0026670757,0.0010822619
635336000,635336000,0.0036780606,-0.0028710999,0.0013591766
635356000,635356000,0.006255339,-0.0058364472,0.0011191517
635376000,635376000,0.014748512,0.0005282066,0.0015421194
635396000,635396000,0.012527546,-0.0053878035,0.0027022143
635416000,635416000,0.011894049,-0.0012325277,0.0037390192
635436000,635436000,0.017077098,-0.0045797504,0.005357731
635456000,635456000,0.012167973,-0.00023606303,0.0070018005
635476000,635476000,0.0092940815,-0.0009028524,0.008790435
635496000,635496000,0.014347263,-0.0028775549,0.0103936745
635516000,635516000,0.015061542,-0.0006670287,0.012194027
635536000,635536000,0.009674117,-0.00020027498,0.013285397
635556000,635556000,0.014801776,-0.0017143067,0.014453607
635576000,635576000,0.007895423,-0.0036806297,0.016012356
635596000,635596000,0.004992609,0.0024882648,0.017114554
635616000,635616000,0.009133169,0.0016628322,0.017570326
635636000,635636000,0.010731397,0.00026193715,0.01815639
635656000,635656000,0.01021982,-0.002030812,0.018690517
635676000,635676000,0.0032214816,0.0030315935,0.01901414
635696000,635696000,0.008171908,0.0051816413,0.019261405
635716000,635716000,0.005680523,0.0022101973,0.019806547
635736000,635736000,0.009616515,-0.0014228413,0.019213395
635756000,635756000,0.0054533016,-0.0021297792,0.019543087
635776000,635776000,0.0024580709,-0.00053611235,0.01928406
635796000,635796000,0.004899945,0.003036584,0.019466177
635816000,635816000,-0.00089951186,-0.0014864374,0.019148216
635836000,635836000,0.006396081,0.0013923168,0.019390529
635856000,635856000,0.0056640706,-0.008095713,0.019023024
635876000,635876000,-0.0009955901,0.0010784807,0.018740406
635896000,635896000,0.0028807588,0.0031666528,0.0180546
635916000,635916000,0.0026465151,-0.0013773798,0.018122766
635936000,635936000,-0.001497711,-0.0041801296,0.018140703
635956000,635956000,0.00028703443,-0.0015893524,0.018496634
635976000,635976000,-0.00036628463,-0.0034432267,0.018396642
635996000,635996000,0.006344376,-0.000149054,0.018146954
636016000,636016000,0.0016107184,0.0032995266,0.017783172
636036000,636036000,0.005456102,0.002255687,0.018502604
636056000,636056000,0.007914841,-0.002530337,0.018092658
636076000,636076000,-0.0014952634,-0.0025794774,0.018081345
636096000,636096000,-0.0037550824,-0.00816431,0.017768642
636112000,636112000,0.0014778813,0.002997812,0.01773736
636136000,636136000,-0.0061601456,0.0066499794,0.016864024
636156000,636156000,-0.004145082,0.0025117104,0.01706074
636176000,636176000,-0.009486828,-0.00078278466,0.016147077
636196000,636196000,-0.0066889534,0.0038119815,0.015936118
636216000,636216000,-0.0054631396,-0.0021880355,0.015487752
636236000,636236000,-0.004320502,0.0052510416,0.015260348
636256000,636256000,-0.0010278984,0.006725888,0.014651021
636276000,636276000,-0.00041573076,0.0038066795,0.014656288
636296000,636296000,-0.00089509087,-0.0064688358,0.014365721
636316000,636316000,-0.0020670218,-0.00036456424,0.014921231
636336000,636336000,-0.005760449,-0.0010138238,0.015163386
636356000,636356000,-0.0051691215,0.0044028633,0.015647259
636376000,636376000,0.0054762075,-0.0018689935,0.015870295
636396000,636396000,0.00055793696,0.0004754525,0.01601243
636416000,636416000,-0.0021386126,-0.0044063968,0.016358104
636436000,636436000,0.0006393038,0.0006327558,0.016857598
636456000,636456000,-0.0010093607,-0.0030890498,0.01699674
636476000,636476000,-0.006909246,-0.022834323,0.01852905
636496000,636496000,-0.009882792,-0.016420338,0.019823508
636516000,636516000,-0.014408195,-0.011705039,0.020975469
636536000,636536000,-0.0024604169,-0.004044528,0.0213952
636556000,636556000,0.0026844568,0.00062760944,0.021783283
636576000,636576000,0.0010950309,-0.0009925481,0.021668708
636596000,636596000,-0.0063332855,0.002076698,0.022405677
636616000,636616000,0.0032600516,-0.00037263264,0.02145429
636636000,636636000,0.008320094,0.004406451,0.021166176
636656000,636656000,0.0063263704,0.004602669,0.020144438
636672000,636672000,0.0118201515,0.0012439073,0.020245394
636696000,636696000,0.0046804287,-0.0008738099,0.019864662
636716000,636716000,0.009405432,0.00018237508,0.020046808
636736000,636736000,0.005324999,0.005067398,0.019914903
636756000,636756000,-0.008270433,-0.018625535,0.02107515
636776000,636776000,-0.005231609,-0.013209654,0.020842759
636792000,636792000,-0.0019571697,-0.0131548215,0.021273198
636816000,636816000,0.002778986,-0.0032325927,0.021260664
636836000,636836000,0.0061702174,0.00792728,0.021514926
636856000,636856000,0.003923128,0.0018070869,0.021276996
636876000,636876000,0.00500662,0.0055477265,0.021397775
636896000,636896000,0.011702124,-0.0007667241,0.020353846
636912000,636912000,0.002955086,0.0025444361,0.020178175
636936000,636936000,0.0061556064,-0.002310362,0.019503428
636956000,636956000,-0.0075781248,-0.019188276,0.019928316
636976000,636976000,-0.012763623,-0.011515031,0.019706616
636996000,636996000,-0.0006064987,-0.0053845793,0.019646427
637016000,637016000,0.0022570624,-0.0015211806,0.019135391
637036000,637036000,0.005785726,-0.005068908,0.018872784
637056000,637056000,0.01010673,0.001634998,0.017694388
637076000,637076000,0.011116133,-0.0019781585,0.017400824
637096000,637096000,0.008626834,0.0015517555,0.016330872
637116000,637116000,0.008673657,-0.0027066383,0.015905147
637136000,637136000,-0.010533327,-0.016124658,0.0150309745
637156000,637156000,-0.0059640734,-0.015854685,0.015410344
637176000,637176000,0.0024645142,-0.0075213932,0.014712561
637196000,637196000,0.0042724456,-0.00443953,0.014224511
637216000,637216000,0.013116295,-0.0015943553,0.013333291
637236000,637236000,0.008154127,0.002181291,0.012322465
637256000,637256000,0.0062196185,-0.0016689881,0.010817164
637276000,637276000,0.008803675,-0.0041438765,0.009073476
637296000,637296000,-0.011261791,-0.01961906,0.007188833
637316000,637316000,-0.0065650055,-0.010244164,0.005409019
637336000,637336000,0.0015707505,-0.0070984666,0.0037603853
637356000,637356000,0.013366181,-0.0072947512,0.0020902976
637376000,637376000,0.013370892,-0.012801621,0.00036281612
637396000,637396000,0.019433731,-0.011025197,-0.0009724686
637416000,637416000,0.020880384,-0.005314612,-0.002869252
637432000,637432000,-0.008084954,-0.025356298,-0.0046032495
637456000,637456000,-0.003157469,-0.014517009,-0.0062154876
637476000,637476000,0.0033200826,-0.018090688,-0.007557873
637496000,637496000,0.013941007,-0.0076176315,-0.009060541
637516000,637516000,0.014242148,-0.012039345,-0.009513463
637536000,637536000,0.016851084,-0.014714654,-0.010327378
637556000,637556000,0.014214851,-0.0062758783,-0.010558267
637576000,637576000,-0.0045556105,-0.010399704,-0.011312301
637596000,637596000,-0.005315369,-0.014203793,-0.011152511
637616000,637616000,0.008146271,-0.017800542,-0.01118409
637636000,637636000,0.01154758,-0.007817063,-0.010892135
637656000,637656000,0.018993225,-0.010484515,-0.010648345
637676000,637676000,0.013886161,-0.0049018105,-0.0096278265
637696000,637696000,0.013854121,-0.012263861,-0.008772779
637716000,637716000,-0.004870443,-0.0075622806,-0.008115383
637736000,637736000,-0.0040987795,-0.012358345,-0.0073752175
637756000,637756000,0.0026562603,-0.010805941,-0.0060280217
637776000,637776000,0.009879223,-0.01085108,-0.005174113
637796000,637796000,0.012698184,-0.013624477,-0.003913449
637816000,637816000,0.016043672,-0.0074015977,-0.0032835803
637832000,637832000,0.015890453,-0.009258475,-0.0027365314
637856000,637856000,-0.0072200797,-0.022036975,-0.002185242
637876000,637876000,-0.013949509,-0.013584777,-0.0010104786
637896000,637896000,-0.008417171,-0.012683892,1.1144002e-06
637916000,637916000,0.0052781682,-0.015169295,0.00070746103
637936000,637936000,0.008749663,-0.011717416,0.00070316263
637956000,637956000,0.020981362,-0.0076634525,0.0013752485
637976000,637976000,0.009313902,-0.009331686,0.0018398431
637996000,637996000,0.00616624,-0.004422587,0.0020597866
638016000,638016000,-0.013284074,-0.009436091,0.0024509202
638036000,638036000,-0.0088411085,-0.014202366,0.0032290237
638056000,638056000,-0.0066045723,-0.016444841,0.003577743
638076000,638076000,0.0014597767,-0.016188601,0.004018131
638096000,638096000,0.007455982,-0.011702119,0.0038505555
638116000,638116000,0.007143427,-0.006084674,0.0035647072
638136000,638136000,0.0065524913,-0.01534405,0.0037157221
638156000,638156000,0.008582796,-0.012805001,0.0033279378
638176000,638176000,0.0058697267,-0.019567046,0.0035456617
638196000,638196000,-0.02139693,-0.012865604,0.0036432736
638216000,638216000,-0.010561968,-0.013010215,0.0029013709
638236000,638236000,-0.00052695815,-0.006993655,0.0029550118
638256000,638256000,0.00951292,-0.020805363,0.002333844
638276000,638276000,0.012015776,-0.022173816,0.0010599099
638296000,638296000,0.015258434,-0.026730567,0.0002099287
638316000,638316000,0.006232142,-0.031520978,-0.0008145285
638336000,638336000,0.01013362,-0.03700754,-0.0021462278
638356000,638356000,0.0096134115,-0.028073346,-0.002469405
638376000,638376000,0.010555719,-0.03128584,-0.0036814993
638392000,638392000,-0.019191671,-0.029016262,-0.004389582
638416000,638416000,-0.011026329,-0.035737183,-0.00611452
638436000,638436000,-0.014258913,-0.027349418,-0.0074903467
638456000,638456000,-0.0006958385,-0.028485697,-0.008677877
638476000,638476000,0.008203302,-0.028116029,-0.009822087
638496000,638496000,0.00826198,-0.026094101,-0.010925947
638516000,638516000,0.006912417,-0.026641037,-0.011612335
638536000,638536000,0.006151975,-0.028763311,-0.011854688
638556000,638556000,0.00911588,-0.018718751,-0.011958806
638576000,638576000,0.0028595761,-0.025083983,-0.011972739
638596000,638596000,0.0028075124,-0.017596267,-0.01198558
638616000,638616000,0.004208874,-0.021667063,-0.012052773
638636000,638636000,0.0036436867,-0.018571496,-0.012244125
638656000,638656000,-0.00012914883,-0.023903545,-0.012296823
638676000,638676000,-0.0059010284,-0.013797192,-0.012245598
638696000,638696000,-0.02470579,-0.020361194,-0.012616847
638716000,638716000,-0.02220099,-0.018173534,-0.012110223
638736000,638736000,-0.008988965,-0.015949013,-0.011915536
638756000,638756000,0.0004425184,-0.020358983,-0.011279964
638776000,638776000,0.004802741,-0.019439079,-0.01108556
638796000,638796000,-0.0028951804,-0.014897977,-0.010514715
638816000,638816000,-0.0010511584,-0.012808384,-0.0101299975
638836000,638836000,-0.0033002126,-0.014910004,-0.009809185
638856000,638856000,0.005338621,-0.014711964,-0.0092169745
638876000,638876000,-0.0039763413,-0.018160801,-0.008486358
638896000,638896000,-0.0021655606,-0.022530196,-0.007522325
638916000,638916000,-0.0035553232,-0.014191341,-0.007800761
638936000,638936000,0.0016765634,-0.012881994,-0.007686135
638956000,638956000,-0.003213103,-0.020208394,-0.007509183
638976000,638976000,-0.0002773855,-0.017526988,-0.0075503187
638996000,638996000,-0.0057063736,-0.013941784,-0.007389808
639016000,639016000,-0.0040086727,-0.01581075,-0.007009926
639036000,639036000,-0.004181354,-0.015906138,-0.006769411
639056000,639056000,-0.0055523617,-0.01912398,-0.0069348747
639076000,639076000,-0.0020859675,-0.0150303915,-0.007101902
639096000,639096000,-0.004796515,-0.014813868,-0.006847334
639116000,639116000,-0.0062070703,-0.019510133,-0.0070284433
639136000,639136000,-0.0069960775,-0.023922158,-0.0073545296
639156000,639156000,-0.009686497,-0.015079062,-0.0075509036
639176000,639176000,-0.0031397776,-0.014001783,-0.007297964
639196000,639196000,-0.01002144,-0.013694011,-0.007947734
639216000,639216000,-0.0061060167,-0.012133739,-0.0074601476
639236000,639236000,-0.0077429693,-0.014082273,-0.0070639546
639256000,639256000,-0.009921816,-0.013597118,-0.007197917
639276000,639276000,-0.007982407,-0.010050105,-0.007828688
639296000,639296000,-0.0028569568,-0.00598249,-0.007920283
639316000,639316000,-0.008414419,-0.0003926473,-0.008376935
639336000,639336000,-0.008125059,0.0012498195,-0.0084504
639356000,639356000,-0.009784063,-0.0009785951,-0.007990163
639376000,639376000,-0.011953877,-0.0003779051,-0.0075718234
639392000,639392000,-0.0058002337,-0.0024756258,-0.007707081
639416000,639416000,-0.009491779,-0.0050175423,-0.007492775
639436000,639436000,-0.015733518,-0.004945529,-0.0074463794
639456000,639456000,-0.010075947,0.00037138537,-0.007427189
639476000,639476000,-0.012847903,-0.003693155,-0.0076326784
639496000,639496000,-0.003387771,-0.0031080148,-0.007954821
639516000,639516000,-0.0067503853,-0.0034075703,-0.008078635
639536000,639536000,-0.0088982405,-0.005582979,-0.007942091
639556000,639556000,-0.01193388,-0.0089046415,-0.007993873
639576000,639576000,-0.014306548,-0.0067872005,-0.0078129405
639596000,639596000,-0.009599928,-0.008007296,-0.008062047
639616000,639616000,-0.013496356,-0.0053617735,-0.008529599
639636000,639636000,-0.009252011,-0.010629693,-0.009014983
639656000,639656000,-0.004544859,-0.019567836,-0.009943406
639676000,639676000,-0.006401431,-0.021216292,-0.010624476
639696000,639696000,-0.003400865,-0.025748305,-0.0114053
639716000,639716000,-0.014692364,-0.0258009,-0.012561721
639736000,639736000,0.016279267,-0.024805265,-0.013718878
639756000,639756000,0.013133964,-0.02647134,-0.014600348
639776000,639776000,0.008762132,-0.021187844,-0.015136694
639796000,639796000,-0.0069353944,-0.030801872,-0.016593054
639812000,639812000,-0.0057669654,-0.026616506,-0.017152859
639836000,639836000,-0.015640482,-0.02916029,-0.017603232
639856000,639856000,-0.0102902725,-0.022058586,-0.017852662
639876000,639876000,-0.0071830633,-0.02475074,-0.018171579
639896000,639896000,-0.0017208941,-0.02151258,-0.018194377
639912000,639912000,-0.01263334,-0.01981756,-0.018341983
639936000,639936000,-0.004776527,-0.023051579,-0.017732903
639956000,639956000,-0.01687306,-0.021711078,-0.018228112
639976000,639976000,-0.011895905,-0.017707618,-0.017631028
639996000,639996000,-0.013191865,-0.022071706,-0.018050298
640016000,640016000,-0.0077141086,-0.019416546,-0.018164778
640036000,640036000,-0.005623871,-0.020035278,-0.01714693
640056000,640056000,0.020878732,-0.012884333,-0.016903637
640076000,640076000,0.015235453,-0.009844155,-0.01660935
640096000,640096000,0.012123796,-0.016871702,-0.01665535
640116000,640116000,-0.005966737,-0.013393156,-0.016497608
640136000,640136000,-0.012373066,-0.0122135775,-0.016344225
640156000,640156000,-0.014485152,-0.018415015,-0.016630722
640176000,640176000,-0.012309572,-0.017249728,-0.016193746
640196000,640196000,-0.0073350165,-0.011602881,-0.016216386
640216000,640216000,-0.013053874,-0.0140313,-0.016500665
640236000,640236000,-0.01579284,-0.017135784,-0.01574141
640256000,640256000,-0.012397,-0.015972473,-0.014611862
640276000,640276000,-0.014559706,-0.016374258,-0.013654004
640296000,640296000,0.019094132,0.00015302235,-0.012148394
640316000,640316000,0.009866353,-0.0036310572,-0.011192054
640336000,640336000,0.0048180353,-0.008233286,-0.00929856
640356000,640356000,-0.0062348587,-0.014016972,-0.0077382145
640376000,640376000,-0.00967225,-0.009456915,-0.0053531285
640396000,640396000,-0.017715897,-0.011102723,-0.0032757155
640416000,640416000,-0.0193622,-0.01595394,-0.0011389191
640436000,640436000,-0.015399459,-0.0127258515,7.867752e-05
640456000,640456000,-0.014961977,-0.015280828,0.001377736
640476000,640476000,-0.0100697465,-0.015209411,0.0022681525
640496000,640496000,-0.015081808,-0.0115833925,0.003360054
640512000,640512000,0.009901054,-0.0066268863,0.0036049462
640536000,640536000,0.00873264,-0.006732296,0.004053061
640556000,640556000,0.002560097,-0.010376462,0.0047496157
640576000,640576000,-0.010146649,-0.013740028,0.0055240947
640596000,640596000,-0.012344066,-0.013626784,0.0060147513
640616000,640616000,-0.01663216,-0.013215154,0.0064596683
640636000,640636000,-0.022706766,-0.0125006065,0.005977353
640656000,640656000,-0.007856233,-0.009705383,0.0060164398
640676000,640676000,-0.011324616,-0.017255079,0.00535355
640696000,640696000,-0.013522122,-0.018449334,0.0046017547
640716000,640716000,0.005517427,0.008679826,0.003087511
640736000,640736000,-0.0044180485,0.003314653,0.002050573
640756000,640756000,-0.014579611,0.005442215,0.00031219833
640772000,640772000,-0.04004334,0.004574398,-0.001394384
640796000,640796000,-0.030489143,-0.0072935717,-0.004472537
640816000,640816000,-0.030057985,-0.009090309,-0.0068224715
640836000,640836000,-0.03571936,-0.0067973253,-0.0091756
640856000,640856000,-0.0333135,-0.003485112,-0.011298411
640876000,640876000,-0.02581685,-0.008496859,-0.014042918
640896000,640896000,-0.00072492287,0.0016949541,-0.016246766
640916000,640916000,-0.0016161241,-0.0030302182,-0.018812977
640936000,640936000,-0.01492491,-0.0070341406,-0.020354038
640956000,640956000,-0.009570979,-0.009900811,-0.022077652
640976000,640976000,-0.019844238,-0.012426748,-0.022895398
640996000,640996000,-0.009231596,-0.009912556,-0.024200026
641016000,641016000,-0.012689327,-0.011762543,-0.024987351
641036000,641036000,-0.006030889,-0.006418353,-0.025495362
641052000,641052000,0.019754216,-0.0054959897,-0.02545716
641076000,641076000,0.016434055,-0.0006273877,-0.025390953
641096000,641096000,0.000684593,-0.0040489133,-0.024741858
641116000,641116000,-0.0012057563,-0.009394835,-0.024633205
641136000,641136000,-0.012521349,-0.018624727,-0.024263788
641156000,641156000,-0.0038921465,-0.019898724,-0.024045546
641176000,641176000,-0.009926559,-0.02596765,-0.023875728
641196000,641196000,-0.0039372854,-0.02339527,-0.02378563
641216000,641216000,0.023397544,-0.004288118,-0.023060106
641232000,641232000,0.020652086,-0.01293636,-0.022947535
641256000,641256000,0.013649505,-0.009403393,-0.022203712
641276000,641276000,0.0018763971,-0.01812639,-0.02172008
641296000,641296000,-0.0041253143,-0.012359534,-0.020828743
641316000,641316000,0.0033404264,-0.011151365,-0.020822197
641336000,641336000,0.022256017,0.002909343,-0.01989987
641356000,641356000,0.018045101,0.0018504828,-0.018834513
641376000,641376000,0.0071769026,0.003062931,-0.017948216
641396000,641396000,0.0040957085,-0.008012913,-0.017829143
641416000,641416000,0.002221313,-0.0035977438,-0.01744479
641436000,641436000,-0.00988013,-0.0132389385,-0.017628953
641456000,641456000,0.005300955,0.008586702,-0.017094575
641476000,641476000,0.0084486855,0.008828097,-0.01609197
641496000,641496000,0.0032023364,0.0036145998,-0.015600791
641516000,641516000,-0.0076734265,-0.0048105447,-0.01555584
641536000,641536000,-0.014145814,-0.00934635,-0.0148763675
641556000,641556000,-0.013820579,-0.008257398,-0.01581923
641576000,641576000,-0.001372126,0.0028725227,-0.016235245
641596000,641596000,0.013172187,0.0117543675,-0.015841788
641616000,641616000,-0.0003126535,-0.0032645063,-0.015487349
641636000,641636000,-0.0073083923,-0.0060236882,-0.016409483
641656000,641656000,-0.016446566,-0.01612577,-0.016525045
641676000,641676000,0.007686587,0.0061629927,-0.016923646
641696000,641696000,0.0032079155,0.0030721475,-0.016491683
641716000,641716000,-0.0059815953,-0.00048547302,-0.017461512
641736000,641736000,-0.013172475,-0.002067638,-0.017858148
641756000,641756000,-0.0062453807,-0.01811046,-0.019382386
641776000,641776000,0.008929359,-0.0037897825,-0.019608056
641796000,641796000,0.012302675,-0.008197506,-0.01999353
641816000,641816000,-0.0034265388,-0.0074816886,-0.02081017
641836000,641836000,-0.0043744883,-0.016487144,-0.022100827
641856000,641856000,-3.755564e-05,-0.019745616,-0.023843188
641876000,641876000,0.005868057,0.0008893043,-0.024583517
641896000,641896000,0.006316765,-0.0011663632,-0.02510315
641916000,641916000,0.0053198654,-0.011566278,-0.02618453
641936000,641936000,0.00040111016,-0.017967312,-0.027198948
641956000,641956000,0.005590802,-0.0025035942,-0.028505122
641976000,641976000,0.009226933,0.0036706713,-0.027911019
641996000,641996000,-0.0015753085,-0.0024799607,-0.028418796
642016000,642016000,-0.018063733,-0.013628297,-0.028197654
642036000,642036000,-0.0021489481,0.00013452533,-0.028429989
642056000,642056000,-0.018075872,-0.011835193,-0.027127385
642072000,642072000,-0.01792106,-0.016382094,-0.02679594
642096000,642096000,-0.022005217,-0.023243379,-0.025079554
642116000,642116000,-0.01831637,-0.010795848,-0.024372227
642132000,642132000,-0.009395402,0.0012316075,-0.022402804
642156000,642156000,-0.016171433,-0.021306837,-0.021200305
642176000,642176000,-0.014178729,-0.030306747,-0.019158842
642196000,642196000,-0.015859198,-0.0056528887,-0.017304864
642216000,642216000,-0.012918651,-0.017290074,-0.015277612
642236000,642236000,-0.008933162,-0.0187172,-0.013851463
642252000,642252000,-0.010110294,-0.018538168,-0.01209704
642276000,642276000,-0.01192867,0.0015848789,-0.0102794515
642296000,642296000,-0.0076225493,0.006544417,-0.007535271
642316000,642316000,-0.0069765905,-0.005679886,-0.0058809025
642336000,642336000,-0.0060913377,-0.015465169,-0.0038683938
642352000,642352000,0.0035672975,0.0073072175,-0.0018963583
642376000,642376000,0.005568124,0.005561663,0.0013418752
642396000,642396000,-0.00021893205,-0.004291366,0.0036579873
642416000,642416000,0.007218291,0.016121335,0.0060192086
642436000,642436000,0.0011600656,0.0102403145,0.0076322164
642456000,642456000,-7.649884e-06,0.0062306253,0.009798312
642476000,642476000,-0.0035348148,-0.0135841975,0.010672278
642496000,642496000,0.0042389687,0.011492211,0.012758743
642516000,642516000,-0.00032431888,0.010188184,0.014352169
642532000,642532000,-0.0038108164,0.003475851,0.015639208
642556000,642556000,-0.003328045,-7.0713926e-05,0.016653446
642576000,642576000,-0.0063885907,0.017666161,0.018208485
642596000,642596000,-0.007994104,0.019331807,0.018791582
642616000,642616000,-0.0067854766,0.0036999793,0.019051075
642636000,642636000,-0.0044869576,0.021695504,0.019461904
642656000,642656000,-0.004252408,0.016044004,0.019788498
642676000,642676000,-0.0072399825,0.0054719653,0.018788014
642696000,642696000,-0.010214647,0.017134234,0.018793019
642716000,642716000,-0.013288894,0.014771407,0.01804072
642736000,642736000,-0.0064588,0.0064484845,0.017043497
642756000,642756000,-0.0086827995,-0.01072672,0.015021043
642776000,642776000,-0.008927237,0.013874098,0.013951362
642796000,642796000,-0.009845315,-0.0015165298,0.012056915
642816000,642816000,-0.007948982,-0.006483813,0.010364384
642832000,642832000,-0.00768672,0.010990135,0.009458237
642856000,642856000,-0.013542246,0.0041519767,0.007534178
642872000,642872000,-0.008324338,-0.009768358,0.006326452
642896000,642896000,-0.012242212,0.006249437,0.00463424
642916000,642916000,-0.007325995,0.000108302105,0.002891742
642936000,642936000,-0.008250108,-0.021006357,0.0012802107
642956000,642956000,-0.014745819,0.00068001915,-0.00036782573
642976000,642976000,-0.0151101565,-0.0041496013,-0.0012038555
642996000,642996000,-0.018414706,-0.02401806,-0.002019161
643016000,643016000,-0.017600585,0.0043792706,-0.0026056145
643036000,643036000,-0.022656469,-0.007607208,-0.0032047206
643056000,643056000,-0.0143594835,-0.012150178,-0.0035831337
643072000,643072000,-0.009581971,-0.019972954,-0.00349902
643096000,643096000,-0.005697223,-0.0014258327,-0.0035510429
643116000,643116000,-0.0068700593,-0.009596284,-0.0039579817
643136000,643136000,-0.0004818535,-0.020352993,-0.0041953274
643156000,643156000,-0.010760286,0.0052227145,-0.004217945
643176000,643176000,-0.012229165,-0.0049051736,-0.0035829034
643196000,643196000,-0.018636212,-0.023129994,-0.0031935922
643216000,643216000,-0.024687458,-0.031095924,-0.002716621
643232000,643232000,-0.028492538,-0.015016528,-0.0021376153
643256000,643256000,-0.03264842,-0.015204386,-0.0012279082
643276000,643276000,-0.031860743,-0.025168007,-0.00064120075
643296000,643296000,-0.03552218,-0.013257169,-0.000214651
643316000,643316000,-0.025238192,-0.019752245,0.00052964414
643336000,643336000,-0.01911966,-0.026038356,0.0009167736
643356000,643356000,-0.00910252,-0.039597396,0.0014062139
643376000,643376000,-0.020823207,-0.029031062,0.002118135
643396000,643396000,-0.014607877,-0.024766188,0.0028453465
643416000,643416000,-0.013100067,-0.028693758,0.0033198744
643436000,643436000,-0.009901932,-0.035601936,0.0035823705
643456000,643456000,-0.012327709,-0.019216163,0.0038290618
643476000,643476000,-0.005417147,-0.016097574,0.004059953
643496000,643496000,-0.0048097204,-0.020211196,0.004557799
643516000,643516000,-0.0018838312,-0.025131945,0.0045816693
643536000,643536000,-0.0056468965,-0.0048717824,0.004942419
643556000,643556000,-0.009556463,-0.0018408415,0.005014795
643576000,643576000,-0.0023030315,-0.019877171,0.0052504623
643596000,643596000,-0.0008563476,-0.011185097,0.005477635
643612000,643612000,0.0058878697,-0.026693039,0.0054417714
643636000,643636000,-0.004586784,-0.0037553236,0.005741801
643656000,643656000,-0.00677278,-0.006784296,0.005655373
643676000,643676000,-0.0011790678,-0.00979485,0.005470519
643696000,643696000,0.0028107718,-0.01754838,0.0053131813
643716000,643716000,-0.0021162685,-0.023738353,0.004919559
643736000,643736000,-0.012720785,0.0012982129,0.0047815396
643752000,643752000,-0.0058782194,0.008717706,0.0046268255
643776000,643776000,-0.0057181744,-0.0058593545,0.0051561752
643796000,643796000,-0.0069657746,-0.012172218,0.00495118
643816000,643816000,-0.0020169765,-0.01605127,0.0054062926
643836000,643836000,0.005767904,-0.009460278,0.0052905795
643856000,643856000,-0.0042253793,0.008428447,0.005397886
643876000,643876000,-0.0061760647,0.018274156,0.0059535294
643896000,643896000,-0.0041902163,0.0073211924,0.006124888
643916000,643916000,-0.011055054,0.0011789368,0.006578961
643936000,643936000,0.001657099,-0.0039697364,0.006339749
643952000,643952000,0.005329918,-0.011602819,0.006209619
643976000,643976000,-0.0002905354,-0.013473361,0.0067613004
643996000,643996000,-0.012534641,0.013378318,0.007005402
644016000,644016000,-0.01342381,0.014771009,0.0074363486
644036000,644036000,-0.015472993,0.0048104133,0.007553542
644056000,644056000,-0.0020253481,-0.0050775353,0.007857785
644076000,644076000,-0.004970805,-0.010811088,0.0075546615
644096000,644096000,-0.004119268,-0.008664863,0.007405889
644116000,644116000,-0.0016073756,-0.008302729,0.007347655
644136000,644136000,-0.006828105,-0.004877803,0.007097458
644156000,644156000,-0.006084378,-0.0051148967,0.007376056
644176000,644176000,-0.0025946037,-0.010266031,0.0069776294
644192000,644192000,-0.011844213,0.012110789,0.0074231043
644216000,644216000,-0.010253318,0.011884384,0.008139843
644236000,644236000,-0.016552517,0.009233973,0.008264228
644256000,644256000,-0.0072047906,-0.0028281207,0.008663309
644276000,644276000,-0.007690359,0.0010278481,0.009148445
644296000,644296000,-0.010830615,-0.0037012694,0.009343942
644316000,644316000,-0.0006787033,-0.003505495,0.009507183
644336000,644336000,-0.0125297755,-0.0065882574,0.009310319
644356000,644356000,-0.007467429,-0.0027338362,0.009112098
644376000,644376000,-0.003709446,-0.004947326,0.008822608
644396000,644396000,-0.007665389,-0.0022372121,0.008951152
644416000,644416000,-0.009981565,-0.004476974,0.00943602
644436000,644436000,-0.0021642856,-0.0008856852,0.009639046
644456000,644456000,-0.00554505,-0.002337487,0.009624844
644476000,644476000,-0.008935662,0.0015395803,0.010156239
644496000,644496000,-0.011506391,-0.00095859845,0.010486732
644516000,644516000,-0.013182522,-0.000563537,0.010775364
644536000,644536000,-0.016878027,4.9145427e-05,0.0106388945
644556000,644556000,-0.007929837,0.0038830598,0.011295258
644576000,644576000,-0.009615647,0.003643137,0.011944038
644596000,644596000,-0.0064652367,0.002546598,0.012195782
644616000,644616000,-0.010046122,0.0010958061,0.012153287
644636000,644636000,-0.010349185,0.0043351576,0.012716681
644656000,644656000,-0.012771723,0.008928777,0.012553237
644676000,644676000,-0.0068752775,0.0023185336,0.012977653
644696000,644696000,-0.008121063,0.007958816,0.013016974
644716000,644716000,-0.014607545,0.0031594099,0.013690458
644736000,644736000,-0.009769617,0.010305885,0.013863943
644756000,644756000,-0.011630733,0.00711143,0.014339176
644776000,644776000,-0.00892666,0.011793401,0.01432612
644796000,644796000,-0.0037731207,0.010376746,0.014683683
644816000,644816000,-0.01010935,0.0038099857,0.015115475
644836000,644836000,-0.014766041,0.0068927556,0.015493967
644856000,644856000,-0.013804078,0.0044690147,0.015320605
644876000,644876000,-0.011562332,0.0040711164,0.015209218
644896000,644896000,-0.013868551,0.011334968,0.015264572
644916000,644916000,-0.008782847,0.010515644,0.015934125
644936000,644936000,-0.011503819,0.0076777483,0.015427432
644956000,644956000,-0.012799287,0.0046280297,0.015144816
644976000,644976000,-0.015287288,0.0024752198,0.014753617
644996000,644996000,-0.007665392,0.00911686,0.014978521
645016000,645016000,-0.014107441,0.005771775,0.014684542
645036000,645036000,-0.008210075,0.006281335,0.014578481
645056000,645056000,-0.011345223,0.0126218125,0.014141543
645076000,645076000,-0.011513459,0.008345167,0.014273465
645096000,645096000,-0.0062223882,0.005756243,0.014352066
645116000,645116000,-0.011691472,0.0087503465,0.014182998
645136000,645136000,-0.012692342,0.010690798,0.013952881
645156000,645156000,-0.010749245,0.010526688,0.013806966
645176000,645176000,0.0011735134,-0.01484874,0.014178751
645196000,645196000,0.0020763204,-0.014423428,0.015049571
645216000,645216000,-0.0068252436,-0.0102325445,0.01549164
645236000,645236000,-0.014151949,0.0015964108,0.01579994
645256000,645256000,-0.010658498,0.011293862,0.01610612
645276000,645276000,-0.011904916,0.015046063,0.016504256
645296000,645296000,-0.006317527,0.00954422,0.017298993
645316000,645316000,-0.009727309,0.010452915,0.017867204
645336000,645336000,-0.010253404,0.015386596,0.018102601
