timestamp,gyro_rad[0],gyro_rad[1],gyro_rad[2],gyro_integral_dt,accelerometer_timestamp_relative,accelerometer_m_s2[0],accelerometer_m_s2[1],accelerometer_m_s2[2],accelerometer_integral_dt,accelerometer_clipping,gyro_clipping,accel_calibration_count,gyro_calibration_count
625256000,0.0026631544,-0.008788435,-0.00079896196,4000,0,-0.062249243,1.7182694e-07,-9.844959,4000,0,0,0,1
625260000,-0.004261097,-0.0055926493,0.012516841,4000,0,0.0035913028,0.029927697,-9.836578,4000,0,0,0,1
625264000,-0.0061252965,-6.875648e-09,0.013315796,4000,0,0.09816226,0.043095805,-9.878479,4000,0,0,0,1
625268000,-0.010386323,-0.0013316236,0.0015978997,4000,0,0.04908113,0.058658123,-9.904813,4000,0,0,0,1
625272000,-0.018642124,-0.003195824,-0.005858952,4000,0,-0.08619127,0.1436523,-9.834186,4000,0,0,0,1
625276000,-0.023702126,1.7331123e-09,-0.0071905605,4000,0,-0.077811554,0.16400301,-9.816229,4000,0,0,0,1
625280000,-0.017310534,0.005326322,-0.0053263647,4000,0,-0.029927526,0.087388545,-9.824609,4000,0,0,0,1
625284000,-0.00053263654,0.0037283897,-0.006391608,4000,0,-0.020350713,0.0323219,-9.824609,4000,0,0,0,1
625288000,0.009054749,0.0021305094,-0.00426107,4000,0,-0.059855048,-0.021547645,-9.815031,4000,0,0,0,1
625292000,0.006657914,0.0031957608,0.0077231736,4000,0,-0.06105215,-0.043095466,-9.7803135,4000,0,0,0,1
625296000,0.0066579184,0.0013315597,0.017044231,4000,0,0.03351883,0.0323219,-9.793484,4000,0,0,0,1
625300000,0.009587311,0.0130495215,0.010120038,4000,0,0.040701427,0.07900883,-9.853339,4000,0,0,0,1
625304000,0.011984158,0.02290322,0.0018642342,4000,0,0.01436521,0.041898705,-9.904813,4000,0,0,0,1
625308000,0.008788454,0.0077231587,0.0034620739,4000,0,-0.015562311,0.051475517,-9.894039,4000,0,0,0,1
625312000,-0.0055926447,0.0010652636,-0.0018641953,4000,0,-0.07302317,0.105345055,-9.788693,4000,0,0,0,1
625316000,-0.015180018,0.007190535,-0.005592647,4000,0,-0.065840565,0.090979844,-9.725246,4000,0,0,0,1
625320000,-0.007190527,0.004793703,-6.937838e-09,4000,0,-0.037110135,0.034716096,-9.76954,4000,0,0,0,1
625324000,-0.0005326298,0.004527379,0.001597887,4000,0,-0.037110135,0.022745091,-9.803061,4000,0,0,0,1
625328000,-0.012783177,0.003994735,1.8651885e-08,4000,0,-0.014365209,0.043095805,-9.842566,4000,0,0,0,1
625332000,-0.01917476,0.0002663173,0.00026634056,4000,0,0.04070143,-0.027533151,-9.866506,4000,0,0,0,1
625336000,-0.0085221175,0.0010652723,0.0013315747,4000,0,0.028730422,-0.01556214,-9.811439,4000,0,0,0,1
625340000,-0.003994744,0.00719054,0.0023968262,4000,0,-0.021547817,0.074220434,-9.783907,4000,0,0,0,1
625344000,-0.010652647,0.0095873745,0.002130542,4000,0,0.03232173,0.06703783,-9.831791,4000,0,0,0,1
625348000,-0.016777921,0.005592625,-0.00053259847,4000,0,0.071826056,0.09337404,-9.866506,4000,0,0,0,1
625352000,-0.01597898,0.0066578626,-0.0077231764,4000,0,0.009576809,0.05746101,-9.816229,4000,0,0,0,1
625356000,-0.014381067,0.011984201,-0.011717943,4000,0,-0.010773908,0.019153785,-9.720461,4000,0,0,0,1
625360000,-0.0071905144,0.011984224,-0.0063916165,4000,0,0.021547817,0.021547986,-9.710884,4000,0,0,0,1
625364000,0.0047936877,0.003195778,-0.0023968718,4000,0,0.03232173,-0.069431685,-9.753977,4000,0,0,0,1
625368000,0.004527373,-0.0055926456,0.0023968313,4000,0,0.020350715,-0.0945708,-9.770737,4000,0,0,0,1
625376000,-0.0063915965,-0.016245289,0.0082557835,4000,0,-0.089782566,-0.019153446,-9.804258,4000,0,0,0,1
625380000,-0.009587404,-0.014114756,0.011717888,4000,0,-0.040701427,0.009576979,-9.836577,4000,0,0,0,1
625384000,-0.0039946963,-0.01198424,0.0002663352,4000,0,0.015562311,0.02633639,-9.859323,4000,0,0,0,1
625388000,0.003728422,-0.017044233,0.0013316178,4000,0,0.010773908,0.017956685,-9.804258,4000,0,0,0,1
625392000,0.0002662556,-0.010120029,0.011451583,4000,0,0.038307235,-0.02513895,-9.767147,4000,0,0,0,1
625396000,-0.0066579278,-0.00053265854,0.007723145,4000,0,0.08738836,-0.057460666,-9.743204,4000,0,0,0,1
625400000,-0.004527372,-0.0007989694,-0.004261058,4000,0,0.06703766,-0.0909795,-9.740809,4000,0,0,0,1
625404000,-0.009587369,0.005326319,-0.01171792,4000,0,0.047884032,-0.10654181,-9.755177,4000,0,0,0,1
625408000,-0.011984201,0.009054777,-0.005858962,4000,0,0.07661447,-0.028730249,-9.770737,4000,0,0,0,1
625412000,-0.010120003,0.0026631895,0.0021305494,4000,0,0.067037664,0.051475514,-9.763555,4000,0,0,0,1
625416000,-0.017044233,-0.00026632016,0.0023968609,4000,0,0.019153617,0.038307402,-9.755177,4000,0,0,0,1
625420000,-0.013315809,0.003728441,0.004527352,4000,0,-0.055066645,1.7140907e-07,-9.821015,4000,0,0,0,1
625424000,-0.00292948,0.008788468,0.008788398,4000,0,-0.07182605,-0.01436504,-9.836578,4000,0,0,0,1
625428000,-0.0010652499,0.0026631656,0.007723169,4000,0,0.029927524,0.028730595,-9.765951,4000,0,0,0,1
625436000,-0.0018642094,-0.00639159,0.003195791,4000,0,0.053869545,0.020350887,-9.7324295,4000,0,0,0,1
625444000,-0.0018641922,-0.011185285,-0.003728412,4000,0,0.031124622,-0.04908096,-9.811439,4000,0,0,0,1
625448000,0.0023968883,-0.0053263344,-0.013315795,4000,0,0.08259997,-0.055066474,-9.811439,4000,0,0,0,1
625456000,0.0069242385,0.005326297,4.0174384e-09,4000,0,0.13287821,-0.15083458,-9.719263,4000,0,0,0,1
625464000,-0.010652644,0.007190482,0.0071905893,4000,0,-0.008379708,-0.016759245,-9.818621,4000,0,0,0,1
625468000,-0.018642116,-0.0013316141,0.0031958432,4000,0,0.034715924,-0.08020559,-9.775527,4000,0,0,0,1
625472000,-0.005592643,-0.0018641329,0.013848447,4000,0,0.06823475,-0.020350542,-9.768345,4000,0,0,0,1
625476000,-0.0015979159,0.002663174,0.010918956,4000,0,0.01197101,0.110133454,-9.795877,4000,0,0,0,1
625480000,-0.009054782,0.0077231317,-0.0055926354,4000,0,-0.028730419,0.10175375,-9.812637,4000,0,0,0,1
625484000,-0.008255811,0.009853678,-0.011717919,4000,0,0.015562313,-0.027533153,-9.783907,4000,0,0,0,1
625488000,-0.0039947587,0.0047936765,-0.010652645,4000,0,0.043095633,-0.020350546,-9.756374,4000,0,0,0,1
625492000,-0.0077231815,-0.0007989302,-0.006924207,4000,0,-0.039504327,0.037110306,-9.76954,4000,0,0,0,1
625496000,-0.008255812,-0.005592629,-0.0037284137,4000,0,-0.12569559,0.043095805,-9.734823,4000,0,0,0,1
625504000,-0.0026631607,0.0063915886,0.00026630805,4000,0,0.057460837,0.122104466,-9.806652,4000,0,0,0,1
625508000,-0.0026631518,0.002663165,0.004527378,4000,0,0.11013329,-0.034715757,-9.832989,4000,0,0,0,1
625512000,-0.00079892215,-0.013848435,0.0061252834,4000,0,0.016759416,-0.010773738,-9.8281975,4000,0,0,0,1
625516000,-0.010652573,-0.028762162,-0.0029295194,4000,0,-0.031124622,0.034716096,-9.872493,4000,0,0,0,1
625520000,-0.020772602,-0.017843185,-0.0074569886,4000,0,-0.0023942022,-0.055066478,-9.89045,4000,0,0,0,1
625528000,0.011717906,-0.0015979249,-0.001065259,4000,0,0.01915362,-0.049080964,-9.77313,4000,0,0,0,1
625536000,0.017310545,0.008788445,-0.0010652198,4000,0,0.034715924,-0.049080964,-9.7803135,4000,0,0,0,1
625540000,0.009587398,-0.001065302,0.0058589214,4000,0,-0.0047884043,-0.083796896,-9.815031,4000,0,0,0,1
625544000,0.0013315903,-0.0069242516,0.010652624,4000,0,-0.025139121,-0.029927354,-9.788693,4000,0,0,0,1
625548000,-0.00026632397,-0.0015979004,0.005858954,4000,0,0.031124622,-0.0035911337,-9.702503,4000,0,0,0,1
625552000,-0.001331579,0.00026631323,-0.0042610597,4000,0,0.07182605,0.05985522,-9.670183,4000,0,0,0,1
625556000,0.0010652617,-0.0013315869,-0.011185278,4000,0,0.06344634,0.124498665,-9.8198185,4000,0,0,0,1
625560000,0.0077231643,-0.0015979235,-0.0061252685,4000,0,0.07661447,0.058658127,-9.962274,4000,0,0,0,1
625564000,0.0005326314,-5.2290026e-09,0.0015978971,4000,0,0.029927526,-0.038307063,-9.852142,4000,0,0,0,1
625572000,-0.007723166,-0.0026631556,0.0053263283,4000,0,0.02274492,-0.05267227,-9.685743,4000,0,0,0,1
625576000,-0.0047937017,0.0039947466,0.005326308,4000,0,0.062249243,-0.015562144,-9.68694,4000,0,0,0,1
625580000,0.0023968339,0.010120026,0.0053263027,4000,0,0.08738837,0.04908131,-9.759964,4000,0,0,0,1
625584000,0.02024001,0.015180053,0.0042610033,4000,0,0.07541737,0.050278418,-9.828198,4000,0,0,0,1
625588000,0.030093715,0.018109519,0.0037283963,4000,0,0.023942016,0.047884203,-9.777922,4000,0,0,0,1
625596000,0.00026631408,0.016777879,0.006658007,4000,0,0.08858546,0.13527256,-9.727644,4000,0,0,0,1
625600000,-3.5202092e-08,0.013848438,-0.000798947,4000,0,0.1376666,0.023942187,-9.803061,4000,0,0,0,1
625604000,0.011717872,0.002130526,-0.00852217,4000,0,0.013168108,-0.058657777,-9.847352,4000,0,0,0,1
625608000,0.012783163,-0.0015978955,-0.009587397,4000,0,-0.062249243,-0.041898366,-9.811439,4000,0,0,0,1
625616000,-5.201114e-10,-0.0005326523,0.011185278,4000,0,0.08140286,0.07182623,-9.775528,4000,0,0,0,1
625620000,-0.003728419,-0.0023968595,0.012250543,4000,0,0.051475346,0.110133454,-9.823412,4000,0,0,0,1
625624000,-0.0047936556,-0.00932108,0.0039947494,4000,0,0.049081136,0.055066817,-9.844959,4000,0,0,0,1
625628000,-0.0002663152,-0.014381062,0.0058589773,4000,0,0.004788405,0.058658123,-9.8198185,4000,0,0,0,1
625632000,0.002929473,-0.008255795,0.0042610727,4000,0,-0.07541737,0.06823493,-9.79827,4000,0,0,0,1
625636000,0.00026629696,0.0037284214,0.0050600106,4000,0,-0.06464346,0.013168282,-9.807848,4000,0,0,0,1
625640000,-0.0047936933,0.006657895,0.0069242255,4000,0,0.04429273,-0.023941847,-9.815032,4000,0,0,0,1
625644000,-0.005326348,0.0066578835,-0.0045273737,4000,0,0.09457098,-0.0059853327,-9.815032,4000,0,0,0,1
625648000,0.0015978862,0.007456832,-0.009853714,4000,0,0.050278243,-0.038307063,-9.787498,4000,0,0,0,1
625656000,-0.00026632272,-0.0023968534,0.006391584,4000,0,0.02274492,1.7084494e-07,-9.788693,4000,0,0,0,1
625660000,0.0013315557,0.012783178,-0.002663161,4000,0,0.02633622,-0.008379537,-9.751583,4000,0,0,0,1
625664000,0.007190503,0.005060003,-0.0085221445,4000,0,0.005985504,0.124498665,-9.738417,4000,0,0,0,1
625672000,0.019441038,-0.009054821,0.004793705,4000,0,-0.03232173,0.04668711,-9.752781,4000,0,0,0,1
625676000,0.009587363,-0.007190586,0.010119996,4000,0,0.021547817,0.009576976,-9.696516,4000,0,0,0,1
625684000,-0.008522114,0.0047936635,-0.007989503,4000,0,0.0011970999,0.04549001,-9.791088,4000,0,0,0,1
625688000,-0.00079895416,0.0034620857,-0.009321073,4000,0,-0.095768064,-0.021547647,-9.715671,4000,0,0,0,1
625692000,0.00053262984,0.0018642095,-0.0071905367,4000,0,-0.07302316,-0.06703748,-9.736021,4000,0,0,0,1
625696000,0.007456856,0.0026631441,-0.0042610625,4000,0,-0.0035913023,-0.0933737,-9.799467,4000,0,0,0,1
625704000,-0.0018642186,-0.0037284412,0.0047936765,4000,0,0.051475346,-0.06464328,-9.801862,4000,0,0,0,1
625708000,-0.008522126,0.0069242055,-0.0010652795,4000,0,-0.005985503,0.0023943733,-9.803061,4000,0,0,0,1
625712000,-0.008522127,0.0010652533,-0.005059989,4000,0,-0.058657948,0.023942186,-9.76116,4000,0,0,0,1
625716000,-0.01225055,-0.004261041,-0.0010652482,4000,0,-0.044292733,0.010774079,-9.7719345,4000,0,0,0,1
625720000,-0.0071905376,-0.009587381,-0.0005326036,4000,0,-0.038307235,0.0011972726,-9.830592,4000,0,0,0,1
625724000,-0.00053262064,-0.015446349,-0.00452734,4000,0,-0.008379709,0.020350888,-9.908405,4000,0,0,0,1
625728000,-0.0066578956,-0.0026631516,-0.0023968793,4000,0,0.013168109,0.07062913,-9.885659,4000,0,0,0,1
625732000,-0.009853699,0.005326347,0.0074568316,4000,0,-0.044292733,0.088585645,-9.810242,4000,0,0,0,1
625736000,-0.008788422,0.0042610746,0.011451596,4000,0,-0.082599975,0.055066817,-9.8677025,4000,0,0,0,1
625740000,-0.014114759,0.004527347,0.009054757,4000,0,-0.010773908,-0.03830706,-9.928757,4000,0,0,0,1
625744000,-0.016777912,0.0047936896,0.010652647,4000,0,0.039504327,-0.14484903,-9.854535,4000,0,0,0,1
625748000,-0.012783185,0.006125269,0.0077231554,4000,0,0.0011971015,-0.040701255,-9.813835,4000,0,0,0,1
625752000,-0.007456845,0.0031958062,0.007456854,4000,0,0.031124622,0.08379724,-9.862916,4000,0,0,0,1
625756000,-0.0015978984,0.008255841,0.017843165,4000,0,0.10534488,0.034716096,-9.849746,4000,0,0,0,1
625760000,0.0010652136,0.014114768,0.011984217,4000,0,0.10893619,0.017956687,-9.816229,4000,0,0,0,1
625764000,0.0021305205,0.0015979055,-0.0005326418,4000,0,0.07182605,0.08260014,-9.853339,4000,0,0,0,1
625768000,-0.003728426,-0.0063915886,0.0021305266,4000,0,0.023942016,0.08379724,-9.855732,4000,0,0,0,1
625772000,-0.015712664,-0.0037284293,0.006125242,4000,0,-0.03232173,0.020350887,-9.827002,4000,0,0,0,1
625780000,-0.011185254,-0.016245259,0.009054822,4000,0,0.017956514,-0.0023940303,-9.837775,4000,0,0,0,1
625784000,-0.0023968571,-0.012783148,0.009321098,4000,0,0.058657948,0.04549001,-9.821016,4000,0,0,0,1
625788000,-0.003195843,-0.0002663169,0.011717896,4000,0,0.005985503,0.058658123,-9.84017,4000,0,0,0,1
625792000,-0.0018642189,0.0013315808,0.0071905344,4000,0,-0.049081136,0.008379879,-9.89045,4000,0,0,0,1
625796000,0.010386331,-0.0010652402,-0.0007989523,4000,0,0.011971008,0.0323219,-9.880873,4000,0,0,0,1
625800000,0.014647393,0.0058589685,-0.0047936644,4000,0,0.043095633,0.09337404,-9.824609,4000,0,0,0,1
625804000,0.01012002,0.0066578942,-0.0013315678,4000,0,0.058657948,0.11133056,-9.744401,4000,0,0,0,1
625808000,0.010120016,-0.0063916016,0.0029294332,4000,0,0.10534488,0.06584073,-9.70849,4000,0,0,0,1
625816000,0.004793689,0.0039947433,2.8652208e-08,4000,0,0.051475346,0.11252766,-9.94312,4000,0,0,0,1
625820000,2.8369718e-09,0.008255798,0.0021305424,4000,0,0.041898537,0.045490015,-9.926363,4000,0,0,0,1
625824000,-0.0050600017,-0.00079895207,0.0015979107,4000,0,0.035913028,-0.027533151,-9.864112,4000,0,0,0,1
625828000,-0.007190534,-0.0031957992,-0.000798945,4000,0,0.029927526,-0.016759243,-9.854535,4000,0,0,0,1
625836000,0.0002663085,-0.0034621195,-0.010918959,4000,0,0.017956512,-0.011970836,-9.907208,4000,0,0,0,1
625844000,-1.0165757e-09,-0.013049495,-0.010120007,4000,0,0.05506665,0.08260014,-9.908405,4000,0,0,0,1
625852000,-0.0087884255,0.0058589755,0.0026631427,4000,0,0.05985505,0.052672602,-9.710884,4000,0,0,0,1
625856000,-0.0055926456,0.0026631497,-0.0023968415,4000,0,0.1173159,0.040701598,-9.658209,4000,0,0,0,1
625864000,0.00053262134,-0.0047937077,-0.013049483,4000,0,0.021547817,-0.016759243,-9.835382,4000,0,0,0,1
625872000,0.02077265,0.0015978885,0.004261094,4000,0,0.08140285,1.7159711e-07,-9.831791,4000,0,0,0,1
625876000,0.015712645,0.0021305755,-0.0034621032,4000,0,0.050278243,0.08978274,-9.821015,4000,0,0,0,1
625880000,0.013582118,0.002396881,-0.009853694,4000,0,-0.031124622,0.11492185,-9.822214,4000,0,0,0,1
625888000,0.0021304619,-0.009853663,-0.017576892,4000,0,0.04668694,0.0323219,-9.830592,4000,0,0,0,1
625892000,0.0026630333,-0.023968467,-0.003728435,4000,0,0.029927524,-0.019153446,-9.786301,4000,0,0,0,1
625896000,0.002929394,-0.02263688,0.0069242213,4000,0,-0.014365211,-0.021547649,-9.745598,4000,0,0,0,1
625904000,0.0021304612,0.0063915853,0.020772666,4000,0,0.071826056,0.009576978,-9.670182,4000,0,0,0,1
625908000,0.009054749,0.005060057,0.016511587,4000,0,0.017956514,-0.014365041,-9.730038,4000,0,0,0,1
625912000,0.010386326,0.002130569,0.0058589443,4000,0,-0.02873042,0.06464362,-9.824608,4000,0,0,0,1
625916000,0.003728425,0.00079895393,0.00053263246,4000,0,0.041898537,0.050278414,-9.862916,4000,0,0,0,1
625920000,0.005858956,-0.0055926363,-0.0015979054,4000,0,0.038307235,-0.025138952,-9.846155,4000,0,0,0,1
625928000,0.0061252885,0.0021305447,-0.006924199,4000,0,0.037110135,0.04668711,-9.731234,4000,0,0,0,1
625932000,-0.002663159,0.0031958143,-0.0069242106,4000,0,0.015562311,0.047884203,-9.763554,4000,0,0,0,1
625936000,-0.008255801,0.0007989661,-0.0015978889,4000,0,-0.0071826056,0.033519,-9.764753,4000,0,0,0,1
625940000,-0.01091896,0.0015979116,0.003195792,4000,0,-0.02873042,0.07781173,-9.750386,4000,0,0,0,1
625944000,-0.009853702,0.007190542,0.004793669,4000,0,-0.05267244,0.06823493,-9.838972,4000,0,0,0,1
625948000,-0.008788428,0.012516879,0.01038631,4000,0,-0.06105215,0.0359132,-9.9108,4000,0,0,0,1
625952000,-0.009321068,0.009054736,0.006657916,4000,0,-0.07302317,0.0359132,-9.889252,4000,0,0,0,1
625956000,-0.0063916245,0.0055925995,-0.008255799,4000,0,-0.035913024,0.027533494,-9.855732,4000,0,0,0,1
625960000,-0.0037284293,0.0047936817,-0.009054754,4000,0,-0.034715924,0.073023334,-9.804258,4000,0,0,0,1
625964000,-0.0010652621,0.0007989517,7.23187e-10,4000,0,-0.033518832,0.09816245,-9.740809,4000,0,0,0,1
625968000,0.0021305291,-0.00079894875,-0.00079894875,4000,0,0.058657948,0.06584073,-9.795878,4000,0,0,0,1
625972000,-0.0013315795,0.0023968474,-0.0023968436,4000,0,0.07661447,0.026336394,-9.928757,4000,0,0,0,1
625976000,-0.0023968387,0.00239685,0.0058589564,4000,0,-0.010773908,-0.026336046,-9.955093,4000,0,0,0,1
625980000,0.007190548,-0.001597874,0.01145159,4000,0,-0.031124622,-0.04548967,-9.886856,4000,0,0,0,1
625984000,0.004793699,-0.0031957927,0.007190531,4000,0,-0.02873042,-0.073022984,-9.854535,4000,0,0,0,1
625988000,-0.010386319,-0.0037284477,-0.0021305461,4000,0,-0.053869545,-0.09935921,-9.861719,4000,0,0,0,1
625992000,-0.010918953,-0.00079896447,-0.0069242306,4000,0,-0.023942016,-0.06584038,-9.884462,4000,0,0,0,1
626000000,0.0013315552,-0.003195819,-0.018109499,4000,0,-0.01436521,-0.0071824333,-9.88207,4000,0,0,0,1
626004000,0.008255761,-0.009853738,-0.01837581,4000,0,0.017956514,-0.023941847,-9.770737,4000,0,0,0,1
626008000,0.0045273392,-0.010652647,-0.009054764,4000,0,0.1101333,-0.022744749,-9.667787,4000,0,0,0,1
626012000,-0.007989499,-0.009587351,-0.0037284687,4000,0,0.07302317,0.032321904,-9.713276,4000,0,0,0,1
626016000,-0.00639156,-0.0018642291,-0.009054764,4000,0,-0.0035913025,0.015562484,-9.794682,4000,0,0,0,1
626020000,0.0015979168,0.005059985,-0.0074568614,4000,0,-0.01436521,-0.041898362,-9.733627,4000,0,0,0,1
626024000,0.0053263325,0.0018641982,0.0029294698,4000,0,-0.021547817,-0.02633605,-9.682154,4000,0,0,0,1
626028000,0.01464739,0.0039947433,0.007190534,4000,0,0.00957681,-0.031124454,-9.740809,4000,0,0,0,1
626032000,0.0106526185,0.015446323,0.007723229,4000,0,0.017956514,-0.035912853,-9.782708,4000,0,0,0,1
626036000,-0.007190557,0.015446307,0.0034622017,4000,0,0.0011971011,-0.0023940315,-9.76954,4000,0,0,0,1
626040000,-0.006657923,0.003195779,-0.0031957673,4000,0,0.050278243,0.013168281,-9.747993,4000,0,0,0,1
626044000,-1.1347888e-09,0.0029294689,-0.003994748,4000,0,0.043095633,0.023942187,-9.798271,4000,0,0,0,1
626048000,0.00026632857,0.010120012,-0.0010652647,4000,0,-0.009576809,-0.010773737,-9.847352,4000,0,0,0,1
626056000,0.005592619,0.007190538,-0.009853707,4000,0,-0.0011971008,0.009576978,-9.740809,4000,0,0,0,1
626060000,0.010652627,0.005592633,-0.015446351,4000,0,-0.011971008,0.057461016,-9.805455,4000,0,0,0,1
626064000,0.010918951,0.00053260167,-0.0071905544,4000,0,0.0023942022,0.13287836,-9.798271,4000,0,0,0,1
626068000,0.0042610457,-0.00559267,0.0055926186,4000,0,0.0011971011,0.14006096,-9.762358,4000,0,0,0,1
626072000,0.0018642338,-0.01677792,0.0055926186,4000,0,0.016759414,0.08499434,-9.852142,4000,0,0,0,1
626076000,0.001597888,-0.007989486,0.0042610625,4000,0,0.02274492,0.009576981,-9.920377,4000,0,0,0,1
626080000,0.0021305047,0.0015978953,0.008255806,4000,0,-0.010773908,-0.04548967,-9.879675,4000,0,0,0,1
626088000,-0.010120028,0.00053260615,0.006125251,4000,0,-0.10773909,-0.016759245,-9.7803135,4000,0,0,0,1
626092000,-0.013049512,0.010386314,0.003195761,4000,0,-0.09217678,-0.027533151,-9.792284,4000,0,0,0,1
626100000,0.001597929,0.0018642206,0.009054742,4000,0,0.047884036,0.023942187,-9.787498,4000,0,0,0,1
626104000,-0.0026631237,-0.009587397,0.013848436,4000,0,-0.008379707,0.04189871,-9.764753,4000,0,0,0,1
626108000,-0.0029294386,-0.010120025,0.0023968443,4000,0,-0.008379707,0.0059856754,-9.779117,4000,0,0,0,1
626112000,0.0093210945,-9.814036e-10,-0.008788402,4000,0,0.01316811,-0.05386937,-9.804258,4000,0,0,0,1
626116000,0.011717953,0.013848437,-0.010386285,4000,0,0.041898534,-0.0023940278,-9.841368,4000,0,0,0,1
626120000,0.0037284617,0.013848436,-0.0026631241,4000,0,0.057460837,0.06703783,-9.836578,4000,0,0,0,1
626124000,0.0034621162,0.0029294733,0.0007989361,4000,0,0.034715924,0.07781173,-9.827002,4000,0,0,0,1
626128000,-0.0015978982,-0.0066578994,-0.003462116,4000,0,0.08619127,0.07661464,-9.883265,4000,0,0,0,1
626132000,-0.007456838,-0.008522115,-0.010652657,4000,0,0.14963764,0.07661464,-9.868902,4000,0,0,0,1
626136000,-0.005858953,-0.0077231736,-0.010386325,4000,0,0.10534488,0.08140303,-9.770737,4000,0,0,0,1
626140000,-0.004261072,-0.009054748,-0.006924213,4000,0,0.027533323,0.10295086,-9.698913,4000,0,0,0,1
626144000,-0.0002663096,-0.006924229,-0.007456843,4000,0,-0.02633622,0.07062913,-9.733627,4000,0,0,0,1
626148000,0.005592613,-0.013315821,-0.00319578,4000,0,-0.082599975,-0.049080964,-9.815032,4000,0,0,0,1
626152000,0.010918927,-0.019707412,0.0026631728,4000,0,-0.11013329,-0.07541719,-9.864112,4000,0,0,0,1
626156000,0.016245233,-0.012783198,0.009853758,4000,0,-0.049081136,-0.013167937,-9.859325,4000,0,0,0,1
626160000,0.013848392,-0.005592678,0.015446365,4000,0,0.049081136,0.017956687,-9.775528,4000,0,0,0,1
626164000,0.008788443,-0.0053263227,0.009853688,4000,0,0.071826056,0.02513929,-9.718066,4000,0,0,0,1
626168000,0.010120042,-0.009587353,0.0018642028,4000,0,0.020350715,-0.04668677,-9.750386,4000,0,0,0,1
626172000,0.008788436,-0.011717911,0.0015978852,4000,0,0.0011971012,-0.12090703,-9.822214,4000,0,0,0,1
626180000,0.0050600087,-0.003994738,0.0005326369,4000,0,0.046686944,-0.070628785,-9.8198185,4000,0,0,0,1
626184000,0.00026631754,-0.0037284251,-0.0005326382,4000,0,-0.009576809,-0.008379534,-9.854535,4000,0,0,0,1
626192000,-0.021305295,-0.0074568386,0.0021305266,4000,0,-0.015562311,0.023942187,-9.713276,4000,0,0,0,1
626196000,-0.011984236,-0.0061252434,0.0050600204,4000,0,0.017956514,-0.01795634,-9.797075,4000,0,0,0,1
626200000,0.0021305082,-0.0013315317,0.011451604,4000,0,0.06105215,0.0059856772,-9.895236,4000,0,0,0,1
626204000,0.005592631,0.00026632586,0.015978973,4000,0,0.06823475,-0.041898362,-9.841368,4000,0,0,0,1
626208000,0.010386346,-0.0031957321,-0.0031957997,4000,0,0.0071826056,-0.071825884,-9.77433,4000,0,0,0,1
626212000,0.015712673,-0.004793624,-0.023702133,4000,0,-0.043095633,-0.031124454,-9.721657,4000,0,0,0,1
626216000,0.0130494805,-0.0047936984,-0.018109504,4000,0,0.04548984,0.011971179,-9.759964,4000,0,0,0,1
626220000,0.015712596,-0.0111853415,-0.007456876,4000,0,0.11013329,0.0143653825,-9.843762,4000,0,0,0,1
626224000,0.016245255,-0.015446359,-0.0031958143,4000,0,0.045489836,-0.041898366,-9.781511,4000,0,0,0,1
626228000,-0.00026635363,-0.0031958292,0.0066578845,4000,0,0.0023942022,-0.041898366,-9.7396145,4000,0,0,0,1
626232000,-0.01038637,0.011717887,0.015180008,4000,0,0.025139123,-0.052672267,-9.770737,4000,0,0,0,1
626236000,-0.008255808,0.013582135,0.015446319,4000,0,0.037110135,-0.10534471,-9.763554,4000,0,0,0,1
626240000,-0.0098536955,0.006391558,0.007456878,4000,0,0.07302317,-0.10773892,-9.734823,4000,0,0,0,1
626244000,-0.0074568456,0.00026630802,0.003195809,4000,0,0.084994175,-0.07541719,-9.721657,4000,0,0,0,1
626248000,0.0013315794,0.0021305564,0.010386323,4000,0,0.021547817,-0.01316794,-9.779118,4000,0,0,0,1
626252000,0.005592626,0.005060022,0.006924218,4000,0,-0.009576809,0.033519,-9.816229,4000,0,0,0,1
626256000,0.0013315844,-0.0007989474,0.0010652608,4000,0,-0.008379707,0.038307402,-9.727643,4000,0,0,0,1
626260000,-0.009853699,0.0002663078,0.010652643,4000,0,-0.02633622,0.040701598,-9.653423,4000,0,0,0,1
626264000,-0.015446369,0.009853695,0.016245253,4000,0,-0.055066645,0.03591319,-9.707291,4000,0,0,0,1
626268000,-0.007723177,0.007456859,0.009587367,4000,0,-0.023942016,0.063446514,-9.78989,4000,0,0,0,1
626272000,-0.0053263423,0.0037284005,-0.00319579,4000,0,0.049081136,0.122104466,-9.841368,4000,0,0,0,1
626280000,0.0066579473,0.016777841,-0.020506388,4000,0,0.09457098,0.06823493,-9.823412,4000,0,0,0,1
626284000,0.016511641,0.011717812,-0.007190602,4000,0,0.029927526,0.08260013,-9.686939,4000,0,0,0,1
626288000,0.01731056,-0.0002663738,0.0029294086,4000,0,-0.05506665,0.0478842,-9.670182,4000,0,0,0,1
626296000,0.017576864,6.714774e-08,-0.011185281,4000,0,-0.0035913028,0.1424552,-9.854535,4000,0,0,0,1
626300000,0.005858943,-0.0031957016,-0.019441094,4000,0,0.0047884043,0.23822328,-9.914389,4000,0,0,0,1
626304000,-0.0039947242,0.0007989969,-0.011451597,4000,0,-0.035913024,0.15562329,-9.907208,4000,0,0,0,1
626308000,0.002663179,0.004527366,0.0010652579,4000,0,-0.04548984,-0.0011969298,-9.843761,4000,0,0,0,1
626316000,0.0053263213,0.0010652699,-8.586888e-09,4000,0,0.029927524,0.106542155,-9.703699,4000,0,0,0,1
626320000,0.012516859,-0.0050600045,-0.00079896196,4000,0,0.035913024,0.06943203,-9.740809,4000,0,0,0,1
626324000,0.0069242194,0.0018642121,-0.00026629667,4000,0,-0.031124622,0.086191446,-9.786301,4000,0,0,0,1
626328000,-0.009321063,0.0135821225,3.737773e-08,4000,0,-0.06823475,0.08379724,-9.804258,4000,0,0,0,1
626336000,0.015978936,0.006657881,-0.00825588,4000,0,-0.014365211,0.07182623,-9.759963,4000,0,0,0,1
626340000,0.002130513,-0.006657915,0.0010652242,4000,0,0.05626375,0.020350887,-9.775528,4000,0,0,0,1
626344000,-0.0021305592,-0.009054761,0.014913693,4000,0,0.07182605,-0.039504156,-9.878479,4000,0,0,0,1
626348000,0.002663124,0.0005326535,0.0114516,4000,0,-0.005985504,1.7237016e-07,-9.876082,4000,0,0,0,1
626352000,-0.003195817,0.0061252564,0.0029294833,4000,0,0.0011971015,0.0395045,-9.884462,4000,0,0,0,1
626360000,-0.0042610504,0.0026631837,0.012516857,4000,0,0.118513,0.04908131,-9.856929,4000,0,0,0,1
626364000,0.0039947503,-0.0007989232,0.006125269,4000,0,0.07661447,0.11492187,-9.888056,4000,0,0,0,1
626368000,0.013315825,-0.008255767,-0.005592646,4000,0,-0.05746084,0.116118975,-9.878479,4000,0,0,0,1
626372000,0.014114754,-0.014913688,-0.009321091,4000,0,-0.12569559,0.015562482,-9.823412,4000,0,0,0,1
626376000,0.007989417,-0.013315855,0.0050599836,4000,0,-0.044292733,-0.029927354,-9.856929,4000,0,0,0,1
626380000,0.0034620522,-0.0066579385,0.015446334,4000,0,0.07661447,0.0011972721,-9.8198185,4000,0,0,0,1
626388000,-0.02476735,-0.012250627,-0.0098537225,4000,0,0.08020576,0.0478842,-9.659407,4000,0,0,0,1
626392000,-0.018908435,-0.0077231824,-0.009321079,4000,0,-0.067037664,0.017956687,-9.775528,4000,0,0,0,1
626396000,-0.010918957,0.0018642469,-3.9826915e-08,4000,0,-0.067037664,0.050278418,-9.873688,4000,0,0,0,1
626400000,-0.0031957966,0.003994726,-0.004261071,4000,0,0.05985505,0.02633639,-9.835382,4000,0,0,0,1
626404000,0.00053262594,0.0090547325,-0.01438108,4000,0,0.099359386,0.013168282,-9.8198185,4000,0,0,0,1
626408000,-0.0002662361,0.022903193,-0.009853692,4000,0,0.08619127,-0.021547647,-9.813835,4000,0,0,0,1
626412000,0.0058589987,0.018109478,-0.0021305752,4000,0,0.12689269,-0.070628785,-9.753978,4000,0,0,0,1
626416000,0.010386321,0.0037284226,-0.0021305846,4000,0,0.117315896,-0.06464328,-9.72884,4000,0,0,0,1
626420000,0.0037284025,-0.026897922,-0.0034622077,4000,0,0.57939684,-0.09457084,-8.058885,4000,0,0,0,1
626424000,0.0026631719,-0.05699165,-0.008522165,4000,0,0.5255274,-0.08020562,-8.169016,4000,0,0,0,1
626428000,0.011185436,-0.035686377,-0.013581943,4000,0,-0.51834476,2.030625e-07,-11.634624,4000,0,0,0,1
626432000,0.0071906457,-0.0037284186,-0.010652573,4000,0,-0.48123458,0.029927725,-11.567586,4000,0,0,0,1
626436000,0.00053264824,0.0013316005,-0.009054746,4000,0,-0.03351883,0.008379877,-9.77433,4000,0,0,0,1
626440000,0.009054745,-0.00079897523,-0.0029294814,4000,0,-0.062249243,0.011971178,-9.737221,4000,0,0,0,1
626444000,0.017310556,0.0087884,0.005326354,4000,0,0.02274492,0.04549001,-9.770737,4000,0,0,0,1
626448000,0.0106526045,0.01704427,-0.0034620422,4000,0,0.043095633,0.089782745,-9.779117,4000,0,0,0,1
626452000,0.0021304952,0.006125295,-0.007190526,4000,0,0.025139121,0.10175376,-9.77313,4000,0,0,0,1
626456000,0.0021305317,-0.007456864,0.0101200035,4000,0,0.025139121,0.029927697,-9.862915,4000,0,0,0,1
626460000,-0.0058589336,-0.017843211,0.015446311,4000,0,0.027533323,1.7274625e-07,-9.897632,4000,0,0,0,1
626464000,-0.017044144,-0.019707477,0.00186415,4000,0,0.017956512,0.06703782,-9.836578,4000,0,0,0,1
626472000,-0.002929479,-0.0015978945,-0.00026631795,4000,0,0.027533323,0.021547988,-9.781511,4000,0,0,0,1
626476000,9.692986e-10,0.004527374,-0.001065269,4000,0,0.0,-0.08259979,-9.770737,4000,0,0,0,1
626484000,0.005858931,0.009054747,-0.011984239,4000,0,0.025139123,0.017956689,-9.904812,4000,0,0,0,1
626488000,0.0037283876,-0.002396841,-0.009587398,4000,0,-0.0047884043,-0.02992735,-9.928757,4000,0,0,0,1
626492000,0.0010652123,-0.017843176,-0.006125293,4000,0,-0.043095633,0.045490015,-9.931149,4000,0,0,0,1
626496000,0.0015979019,-0.023169503,-0.008788433,4000,0,-0.10654198,0.14844072,-9.907208,4000,0,0,0,1
626500000,2.971727e-08,-0.010918957,-0.007989489,4000,0,-0.059855048,0.12569578,-9.873688,4000,0,0,0,1
626504000,-0.0045273765,-0.0045273625,-0.002929494,4000,0,0.025139121,0.021547988,-9.807847,4000,0,0,0,1
626508000,-0.0069242204,-0.01038633,-0.00585895,4000,0,0.065840565,-0.01316794,-9.776724,4000,0,0,0,1
626512000,-0.0031957794,-0.0071905483,-0.008255796,4000,0,0.089782566,0.063446514,-9.793484,4000,0,0,0,1
626516000,0.0010652681,0.0010652613,-0.00026631472,4000,0,0.07422027,0.08499434,-9.838972,4000,0,0,0,1
626520000,0.0013315821,0.0037284247,0.0031957948,4000,0,-0.004788405,0.049081307,-9.89045,4000,0,0,0,1
626524000,0.003994731,0.00719054,-0.002130531,4000,0,-0.10295069,0.0023943735,-9.840169,4000,0,0,0,1
626528000,0.0031958052,0.0133158015,0.00079895876,4000,0,-0.08619127,-0.062249076,-9.800665,4000,0,0,0,1
626532000,-0.001597839,0.0042610434,0.013315818,4000,0,-0.020350715,-0.04548967,-9.871296,4000,0,0,0,1
626536000,-0.0010652132,-0.005326318,0.019441083,4000,0,0.019153617,0.0311248,-9.961077,4000,0,0,0,1
626540000,-0.00026635252,0.0015979001,0.014647387,4000,0,0.047884032,0.10175376,-9.981426,4000,0,0,0,1
626544000,0.0021305615,-0.0055926275,0.009587379,4000,0,-0.0011971015,0.119710274,-9.907208,4000,0,0,0,1
626548000,0.008788479,-0.020506322,0.010652646,4000,0,-0.027533324,0.052672606,-9.876081,4000,0,0,0,1
626552000,0.008255763,-0.018375827,0.015180023,4000,0,0.01436521,-0.0071824333,-9.889252,4000,0,0,0,1
626556000,-0.002663193,-0.011451647,0.01464734,4000,0,-0.02274492,0.027533494,-9.832989,4000,0,0,0,1
626564000,0.00026630773,-0.004261032,0.008788445,4000,0,-0.038307235,0.00957698,-9.861719,4000,0,0,0,1
626568000,0.009853708,-0.0077231387,0.008788445,4000,0,0.016759416,0.009576981,-9.911995,4000,0,0,0,1
626572000,-0.00026630657,-0.009054771,0.0066578733,4000,0,0.027533324,0.074220434,-9.859325,4000,0,0,0,1
626576000,-0.013848437,-0.0018642435,0.00053259067,4000,0,0.0035913025,0.06224942,-9.822214,4000,0,0,0,1
626580000,-0.0050600027,0.0015978655,-0.0066579143,4000,0,0.019153617,0.025139293,-9.871296,4000,0,0,0,1
626584000,0.010386327,0.0007989152,-0.0061252783,4000,0,0.077811554,0.026336394,-9.91918,4000,0,0,0,1
626592000,-0.0010652633,1.892124e-08,-0.0045273756,4000,0,-0.04548984,0.08379724,-9.782708,4000,0,0,0,1
626596000,-0.013315808,-0.0010652426,0.00559264,4000,0,-0.08020575,0.016759582,-9.710884,4000,0,0,0,1
626600000,-0.014114747,-0.00639158,0.0074568754,4000,0,-0.051475346,0.0059856754,-9.743204,4000,0,0,0,1
626604000,0.003994749,-0.005326298,0.0031958276,4000,0,0.005985504,0.027533496,-9.842566,4000,0,0,0,1
626608000,0.021038983,-0.0034620864,-0.0007989158,4000,0,0.095768064,0.005985676,-9.809044,4000,0,0,0,1
626612000,0.015978979,-0.0005325579,-0.011185263,4000,0,0.077811554,-0.033518657,-9.721657,4000,0,0,0,1
626616000,0.0066579124,0.0015979632,-0.017044226,4000,0,0.04908113,-0.0945708,-9.714474,4000,0,0,0,1
626624000,-0.0007989487,-0.0018641946,-0.0098537,4000,0,0.118513,-0.1005563,-9.746798,4000,0,0,0,1
626628000,-0.009321068,-0.001597867,-0.0031957994,4000,0,0.083797075,-0.023941847,-9.810242,4000,0,0,0,1
626632000,-0.011717909,0.00133159,-0.001065275,4000,0,0.0011971034,0.00957698,-9.8677025,4000,0,0,0,1
626636000,-0.0061252746,0.0029294433,-0.009321074,4000,0,0.013168111,0.025139293,-9.825806,4000,0,0,0,1
626640000,0.002130509,-0.002929508,-0.011717907,4000,0,0.067037664,0.07661464,-9.812637,4000,0,0,0,1
626644000,0.012783202,0.0053262785,-0.007989467,4000,0,-0.06584056,0.07062913,-9.837775,4000,0,0,0,1
626648000,0.011185302,0.010918944,-0.002929451,4000,0,-0.104147784,0.049081307,-9.822214,4000,0,0,0,1
626652000,-0.0050600045,-0.0029294777,0.0013315883,4000,0,0.029927524,0.057461016,-9.800665,4000,0,0,0,1
626656000,-0.012516858,-0.013582121,0.0039947517,4000,0,0.08140285,0.07781173,-9.759963,4000,0,0,0,1
626660000,-0.006125268,-0.014913697,0.0037284603,4000,0,0.06703766,0.056263912,-9.764753,4000,0,0,0,1
626664000,0.002130589,-0.012783191,-0.008788398,4000,0,0.04908113,-0.056263573,-9.846154,4000,0,0,0,1
626668000,-0.0002662477,-0.00452736,-0.019174764,4000,0,0.011971009,-0.08140269,-9.849746,4000,0,0,0,1
626676000,-0.011984256,3.0487595e-08,-0.017044213,4000,0,0.038307235,-0.005985333,-9.815031,4000,0,0,0,1
626680000,-0.0018642294,-0.00292947,-0.0007989365,4000,0,0.07661447,-0.009576637,-9.823412,4000,0,0,0,1
626684000,0.0047936905,0.005326322,0.001065266,4000,0,0.09337388,0.0071827774,-9.8677025,4000,0,0,0,1
626688000,0.0026631465,0.011451604,-0.006125258,4000,0,0.035913028,-0.0023940282,-9.944317,4000,0,0,0,1
626696000,0.011185291,0.0018641992,0.0042610276,4000,0,0.0047884043,0.0035914755,-9.897633,4000,0,0,0,1
626700000,-0.0018642141,-0.0010652532,-0.0037284286,4000,0,-0.009576809,-0.007182434,-9.830593,4000,0,0,0,1
626704000,-0.010918961,-0.0013315724,-0.008788437,4000,0,-0.023942016,0.017956685,-9.797075,4000,0,0,0,1
626708000,-0.008522125,-0.0018641658,0.0061252746,4000,0,-0.050278243,0.021547986,-9.747993,4000,0,0,0,1
626712000,-0.007723168,-0.0058589187,0.018642142,4000,0,-0.035913024,-0.005985334,-9.740809,4000,0,0,0,1
626716000,-0.009321098,0.0015978708,0.012516837,4000,0,-0.023942018,-0.051475175,-9.777922,4000,0,0,0,1
626724000,-0.012516867,0.018642122,0.0005326409,4000,0,0.010773908,-0.020350542,-9.815031,4000,0,0,0,1
626728000,-0.003994744,0.004527373,-0.00026631015,4000,0,0.10055649,0.110133454,-9.805454,4000,0,0,0,1
626736000,0.0010652798,0.0106526455,-0.0018641973,4000,0,0.07541737,0.063446514,-9.721657,4000,0,0,0,1
626740000,-0.010120027,0.005326331,-0.0047936523,4000,0,-0.009576809,0.026336389,-9.762358,4000,0,0,0,1
626744000,-0.0069242455,0.001331539,-0.015712643,4000,0,-0.051475346,-0.02633605,-9.816229,4000,0,0,0,1
626748000,0.007190557,0.005592562,-0.017576884,4000,0,0.0011971015,-0.039504156,-9.847351,4000,0,0,0,1
626752000,0.010918988,0.008255767,-0.0122505445,4000,0,0.06943185,-0.016759243,-9.858126,4000,0,0,0,1
626756000,0.009587376,0.00719054,-0.011984227,4000,0,0.084994175,0.027533496,-9.765951,4000,0,0,0,1
626760000,0.017576816,-0.005060041,-0.011185336,4000,0,0.021547817,0.014365382,-9.720461,4000,0,0,0,1
626764000,0.01464733,-0.0151800765,0.00053256773,4000,0,-0.09457099,-0.040701255,-9.746797,4000,0,0,0,1
626768000,-0.0061252923,-0.011185302,0.004527289,4000,0,-0.08619127,-0.051475175,-9.759963,4000,0,0,0,1
626772000,-0.014913676,-0.0061253035,-0.0050600492,4000,0,-0.004788404,-0.020350544,-9.799467,4000,0,0,0,1
626776000,-0.005858938,-0.0021305697,-0.010120014,4000,0,-0.019153617,-0.0035911314,-9.806652,4000,0,0,0,1
626780000,0.008788442,0.0007989008,-0.009321059,4000,0,-0.016759416,-0.057460666,-9.752781,4000,0,0,0,1
626788000,0.011717916,0.0015978669,0.0010652642,4000,0,0.038307235,-0.03112445,-9.861719,4000,0,0,0,1
626792000,0.0029294873,-0.010919002,0.010652602,4000,0,-0.06105215,-0.02035054,-9.888055,4000,0,0,0,1
626796000,-0.0013315866,-0.013582142,0.014913686,4000,0,-0.079008654,-0.0957679,-9.837774,4000,0,0,0,1
626804000,-0.0015978857,-0.0037284312,-0.001065262,4000,0,-0.01316811,-0.0023940308,-9.775528,4000,0,0,0,1
626808000,0.0029294821,-0.015180025,-0.008255788,4000,0,0.015562311,0.029927697,-9.795877,4000,0,0,0,1
626812000,0.0111852875,-0.007989508,-0.0063915392,4000,0,0.038307235,0.02154799,-9.884462,4000,0,0,0,1
626816000,0.011984239,0.0047936696,-0.0013315309,4000,0,0.02274492,0.056263916,-9.897633,4000,0,0,0,1
626820000,0.0039947485,0.012250539,0.00053267507,4000,0,0.038307235,0.06584073,-9.856929,4000,0,0,0,1
626824000,0.0021305217,0.011185281,-0.0013315744,4000,0,0.02633622,-0.01795634,-9.829395,4000,0,0,0,1
626828000,0.006391598,0.002663157,0.0023968231,4000,0,-0.021547817,-0.07541719,-9.806652,4000,0,0,0,1
626832000,-0.001331568,-0.002929503,0.011451589,4000,0,0.0,-0.04429256,-9.794682,4000,0,0,0,1
626836000,-0.014647362,-0.008788484,0.009054738,4000,0,0.035913024,0.019153787,-9.785105,4000,0,0,0,1
626840000,-0.016245276,-0.006657932,0.0042610434,4000,0,0.0,0.055066817,-9.765951,4000,0,0,0,1
626844000,-0.007456866,0.014381045,-0.0029295718,4000,0,-0.020350713,0.0071827765,-9.859323,4000,0,0,0,1
626848000,-0.000532641,0.02370212,-0.006657959,4000,0,-0.010773908,-0.0933737,-9.964669,4000,0,0,0,1
626852000,0.0047936575,0.011451582,-0.007456892,4000,0,-0.028730422,-0.07302299,-9.913193,4000,0,0,0,1
626856000,0.008255719,-0.004527365,-0.018642168,4000,0,-0.055066645,0.07302333,-9.77433,4000,0,0,0,1
626864000,0.006657956,-0.0037284286,-0.01944106,4000,0,-0.1400608,0.06703783,-9.605539,4000,0,0,0,1
626868000,0.0010653272,0.0074568707,-0.011451575,4000,0,-0.14724344,-0.017956343,-9.73722,4000,0,0,0,1
626872000,0.0029294959,0.0077231578,-0.0045273798,4000,0,-0.023942016,-0.043095466,-9.7803135,4000,0,0,0,1
626880000,0.0034621053,0.0031958306,-0.014114749,4000,0,0.02873042,0.087388545,-9.830593,4000,0,0,0,1
626884000,0.00026632566,0.0066579264,-0.020506337,4000,0,0.035913028,0.04189871,-9.810242,4000,0,0,0,1
626892000,0.005326357,0.0143810585,-0.013315806,4000,0,-0.07422027,0.071826234,-9.750387,4000,0,0,0,1
626896000,-0.0005326116,0.006657909,-0.0018641988,4000,0,-0.04668694,0.10055665,-9.707291,4000,0,0,0,1
626900000,-0.00719051,-0.002929471,0.012250559,4000,0,-0.010773908,0.038307402,-9.783907,4000,0,0,0,1
626904000,-0.0053262934,-0.009054754,0.0074568684,4000,0,-0.027533323,-0.035912856,-9.815031,4000,0,0,0,1
626908000,-0.0037283974,-0.008255813,-0.0026631583,4000,0,-0.0023942017,-0.022744747,-9.770737,4000,0,0,0,1
626912000,-0.00852208,0.007989478,-0.010918995,4000,0,0.062249243,-0.0047882334,-9.77433,4000,0,0,0,1
626916000,-0.013049473,0.018642122,-0.018908463,4000,0,0.05267244,0.038307402,-9.812637,4000,0,0,0,1
626920000,-0.01411479,0.009587403,-0.015179974,4000,0,0.031124622,0.108936355,-9.859325,4000,0,0,0,1
626924000,-0.01917479,-0.0007988864,-0.007456787,4000,0,0.034715924,0.122104466,-9.878479,4000,0,0,0,1
626928000,-0.01757687,-0.0018642576,-0.013848432,4000,0,-0.009576809,0.12928711,-9.832989,4000,0,0,0,1
626932000,-0.0045273565,0.0013314834,-0.020240035,4000,0,-0.016759416,0.10175376,-9.759963,4000,0,0,0,1
626936000,-0.0026630878,0.01171791,-0.012250559,4000,0,0.04908113,-0.0083795395,-9.709686,4000,0,0,0,1
626940000,-0.009853647,0.015180058,-0.0031957687,4000,0,0.099359386,-0.07541719,-9.694122,4000,0,0,0,1
626944000,-0.009321047,0.0061252876,0.0018642402,4000,0,0.079008654,-0.026336052,-9.6845455,4000,0,0,0,1
626948000,-0.004261051,8.048583e-09,0.0034621186,4000,0,0.009576809,0.020350885,-9.713276,4000,0,0,0,1
626952000,-0.0015978952,-0.0013315796,0.0021305312,4000,0,-0.025139121,-0.055066474,-9.756373,4000,0,0,0,1
626956000,-0.0015978928,-0.006391588,0.0010652671,4000,0,-0.0011971008,-0.10654181,-9.740809,4000,0,0,0,1
626960000,0.0034621079,-0.007989483,0.0023968567,4000,0,0.06344634,-0.041898366,-9.77433,4000,0,0,0,1
626964000,0.00719051,-0.0021305354,0.010386346,4000,0,0.1221043,-0.0011969295,-9.831791,4000,0,0,0,1
626968000,-0.0021305075,-0.008788471,0.012516837,4000,0,0.1221043,0.053869717,-9.800665,4000,0,0,0,1
626972000,-0.011717855,-0.01864217,0.007989462,4000,0,0.095768064,0.08260014,-9.787498,4000,0,0,0,1
626976000,-0.009587396,-0.0119842235,0.0074568386,4000,0,0.062249243,0.0023943742,-9.795878,4000,0,0,0,1
626980000,-0.0007989243,-0.0058589643,-0.0023968297,4000,0,-0.011971008,0.02633639,-9.801862,4000,0,0,0,1
626988000,0.0058589983,0.001864212,-0.01704422,4000,0,-0.17357962,0.081403024,-9.832989,4000,0,0,0,1
626992000,0.0021305773,0.00985371,-0.012783158,4000,0,-0.10773909,0.09337404,-9.859325,4000,0,0,0,1
627000000,0.0098537225,0.012783159,0.0031957775,4000,0,0.019153617,0.08379724,-9.812637,4000,0,0,0,1
627004000,0.001864191,0.012783184,-0.0018641788,4000,0,0.08020575,-0.0035911324,-9.731234,4000,0,0,0,1
627008000,0.0013315442,0.012516865,-0.010386326,4000,0,0.06105215,0.028730594,-9.742006,4000,0,0,0,1
627012000,0.005858946,0.010652631,-0.010918981,4000,0,0.007182605,0.021547986,-9.713276,4000,0,0,0,1
627016000,0.0034621365,0.000798923,0.0066578924,4000,0,-0.021547817,-0.057460673,-9.702503,4000,0,0,0,1
627024000,0.0034621092,-0.006125277,0.015712649,4000,0,-0.009576808,0.019153787,-9.795877,4000,0,0,0,1
627032000,4.2081743e-09,-0.0010652845,-0.007989483,4000,0,-0.028730422,-0.009576636,-9.859325,4000,0,0,0,1
627036000,0.009853708,0.0034620836,-0.0018642094,4000,0,-0.09696517,0.019153787,-9.816229,4000,0,0,0,1
627040000,0.0031957882,-0.0031957857,-0.003195808,4000,0,-0.084994175,0.0059856754,-9.792284,4000,0,0,0,1
627044000,0.008788425,-0.010652651,-0.00292948,4000,0,-0.016759414,-0.0071824347,-9.806652,4000,0,0,0,1
627048000,0.018642144,-0.0007989539,-0.0042609945,4000,0,-0.017956514,-0.007182435,-9.794682,4000,0,0,0,1
627056000,0.0037284142,0.010918974,-0.008522105,4000,0,-0.07661447,0.0023943724,-9.77433,4000,0,0,0,1
627060000,0.015712675,0.00798944,-4.7119773e-08,4000,0,-0.06943185,0.05865812,-9.775528,4000,0,0,0,1
627068000,-0.0018642562,0.013315795,0.0013316383,4000,0,0.039504327,0.06464362,-9.7719345,4000,0,0,0,1
627076000,-0.008522154,0.0061252806,-0.013848413,4000,0,-0.034715924,0.02513929,-9.737221,4000,0,0,0,1
627084000,0.002663123,-0.018109528,-0.009587336,4000,0,-0.03232173,0.035913195,-9.783907,4000,0,0,0,1
627088000,-0.005059935,-0.0002662894,-0.011984258,4000,0,-0.100556485,0.12569577,-9.800665,4000,0,0,0,1
627092000,-0.0074567883,0.015712664,-0.011717938,4000,0,-0.055066645,0.07661464,-9.795877,4000,0,0,0,1
627096000,-0.0053262976,0.0071905553,-0.0005326222,4000,0,0.032321732,-0.040701263,-9.707291,4000,0,0,0,1
627104000,-0.0034620995,-0.009054768,-0.0037283895,4000,0,0.1221043,-0.037109964,-9.795877,4000,0,0,0,1
627108000,0.016511563,-0.00612528,0.009587439,4000,0,0.06105215,0.038307402,-9.8198185,4000,0,0,0,1
627112000,0.013049457,-0.002663233,0.020506358,4000,0,-0.016759414,0.11851317,-9.788694,4000,0,0,0,1
627116000,0.0029294528,0.0015978495,0.015446347,4000,0,-0.0011971008,0.037110306,-9.795878,4000,0,0,0,1
627120000,0.004527324,0.010652661,0.007989491,4000,0,-0.0035913028,-0.0897824,-9.809044,4000,0,0,0,1
627124000,0.0023968264,0.004793699,-0.0015978981,4000,0,-0.037110135,-0.0897824,-9.751583,4000,0,0,0,1
627128000,-0.012516876,-0.0018641993,-0.008788413,4000,0,-0.025139121,-0.0861911,-9.726444,4000,0,0,0,1
627132000,-0.018109487,0.0029295103,-0.004793714,4000,0,0.052672435,-0.0897824,-9.697714,4000,0,0,0,1
627136000,-0.010386318,0.007190557,0.00079891534,4000,0,0.09816226,-0.05267227,-9.701307,4000,0,0,0,1
627140000,-0.0071905376,0.003728421,-0.0007989441,4000,0,0.10295069,-0.020350544,-9.842566,4000,0,0,0,1
627144000,-0.003994746,-0.008788437,-0.0015978708,4000,0,0.1173159,0.0143653825,-9.89045,4000,0,0,0,1
627148000,0.0005326286,-0.008255803,-0.00026630372,4000,0,0.033518832,0.05267261,-9.795878,4000,0,0,0,1
627152000,-0.0015978961,0.007989485,-2.8393778e-09,4000,0,-0.06344634,0.06464362,-9.734824,4000,0,0,0,1
627156000,-0.0037284177,0.012516861,0.0031957973,4000,0,-0.05985505,0.06105232,-9.76116,4000,0,0,0,1
627160000,0.0026631895,0.003994754,0.0077231526,4000,0,-0.050278246,0.029927695,-9.827002,4000,0,0,0,1
627164000,0.0074568684,-0.0007989389,0.010652635,4000,0,-0.05267244,-0.019153446,-9.830592,4000,0,0,0,1
627168000,-0.0026631511,-0.0034621397,0.008255792,4000,0,0.0047884034,-0.052672267,-9.794681,4000,0,0,0,1
627172000,-0.013582116,-0.001331621,-0.0034621246,4000,0,0.10175359,-0.083796896,-9.797075,4000,0,0,0,1
627176000,-0.0095873745,-4.6586923e-08,-0.01278318,4000,0,0.14245501,-0.0873882,-9.843762,4000,0,0,0,1
627180000,-0.00026633884,-0.005326363,-0.013049473,4000,0,0.07422027,-0.07781139,-9.861719,4000,0,0,0,1
627188000,1.0402235e-09,0.0053263176,0.007456856,4000,0,0.017956512,0.047884203,-9.765951,4000,0,0,0,1
627192000,-0.0034621032,0.004793682,0.010386336,4000,0,0.0071826046,0.123301566,-9.726444,4000,0,0,0,1
627196000,-0.004527355,0.0015978995,0.015978973,4000,0,-0.067037664,0.07062913,-9.770737,4000,0,0,0,1
627200000,-0.00079891033,-0.00505998,0.021038983,4000,0,-0.04908113,0.038307402,-9.806652,4000,0,0,0,1
627204000,-0.0015978693,-0.0077231755,0.01571265,4000,0,0.04908113,0.086191446,-9.781511,4000,0,0,0,1
627208000,-0.0066578686,-0.008788465,0.0042610457,4000,0,0.013168108,0.108936355,-9.800665,4000,0,0,0,1
627216000,-0.0005326268,-0.005326326,-0.0013315688,4000,0,-0.1364695,-0.035912856,-9.822214,4000,0,0,0,1
627224000,0.0015979002,0.002929474,0.0010652691,4000,0,0.008379707,-0.016759245,-9.72884,4000,0,0,0,1
627228000,0.0026631616,-0.0010652639,0.00026631294,4000,0,-0.005985504,-0.04070126,-9.775527,4000,0,0,0,1
627232000,0.0042610564,-0.005326329,0.0077231643,4000,0,-0.025139121,-0.14125773,-9.787498,4000,0,0,0,1
627236000,-0.005060024,-0.0047937282,0.017310532,4000,0,0.0035913023,-0.119709924,-9.827001,4000,0,0,0,1
627240000,-0.0042610546,-0.0047936905,0.014647389,4000,0,0.009576809,-0.027533151,-9.840169,4000,0,0,0,1
627248000,-0.0034621004,-0.008522128,0.0045273597,4000,0,0.05267244,-0.023941847,-9.813835,4000,0,0,0,1
627252000,-0.005060029,-0.0021305261,0.009321052,4000,0,0.04070143,0.023942187,-9.823412,4000,0,0,0,1
627256000,-0.0037284326,-0.0010652529,0.013848437,4000,0,0.0023942022,0.0059856754,-9.795877,4000,0,0,0,1
627260000,-1.2293541e-09,0.00026631617,-3.2633193e-10,4000,0,0.01436521,-0.07422009,-9.795877,4000,0,0,0,1
627264000,0.0050600055,-0.0063915877,-0.006391588,4000,0,0.031124622,-0.0909795,-9.864112,4000,0,0,0,1
627272000,-0.0047936984,-0.0037284377,0.0037284046,4000,0,-0.10893619,0.11252766,-9.871296,4000,0,0,0,1
627276000,-0.007723165,0.0071905116,-0.00905477,4000,0,-0.055066645,0.053869713,-9.843762,4000,0,0,0,1
627284000,0.012516873,0.010918919,-0.005326379,4000,0,0.088585466,-0.17597367,-9.848549,4000,0,0,0,1
627288000,0.015179992,0.0018642228,-0.008788481,4000,0,0.099359386,-0.06823458,-9.816229,4000,0,0,0,1
627292000,0.0071905376,0.002130538,-0.005858949,4000,0,0.04548984,0.02274509,-9.864112,4000,0,0,0,1
627296000,-0.004793689,-0.0010652656,0.0042610597,4000,0,0.011971008,0.0407016,-9.862916,4000,0,0,0,1
627304000,0.0013315815,-0.007456823,0.008255826,4000,0,0.08020575,0.040701605,-9.791088,4000,0,0,0,1
627312000,-0.0021305166,0.006924229,-0.010120007,4000,0,-0.008379708,0.0059856772,-9.902418,4000,0,0,0,1
627316000,0.0031958045,0.010119995,-0.010120028,4000,0,-0.038307235,-0.06344618,-9.846155,4000,0,0,0,1
627320000,0.0021305354,0.0047936854,-0.0029294798,4000,0,-0.06943185,-0.083796896,-9.804258,4000,0,0,0,1
627328000,-0.0045273723,-0.0039947513,-0.0037284184,4000,0,0.028730422,0.019153785,-9.763555,4000,0,0,0,1
627336000,-0.0063915853,-0.0042610434,-0.006125283,4000,0,0.05267244,-0.016759243,-9.879675,4000,0,0,0,1
627340000,-0.009054738,-0.0002663151,-0.008255812,4000,0,0.1125275,-0.07541719,-9.837774,4000,0,0,0,1
627344000,0.003994767,0.008788395,-0.00932109,4000,0,0.079008654,-0.05147517,-9.865309,4000,0,0,0,1
627348000,0.014647418,0.015446296,-0.006125293,4000,0,0.03232173,0.047884207,-9.864112,4000,0,0,0,1
627352000,0.0031957712,0.008255831,-0.0074568284,4000,0,0.062249243,0.014365383,-9.823412,4000,0,0,0,1
627356000,-0.019973729,0.0010653236,-0.00852206,4000,0,0.06464346,-0.0921766,-9.822214,4000,0,0,0,1
627360000,-0.023702135,0.00053263776,-0.009321059,4000,0,0.04908113,-0.0933737,-9.89045,4000,0,0,0,1
627364000,-0.012516887,-0.008788471,-0.009587309,4000,0,0.06344634,-0.0885853,-9.949107,4000,0,0,0,1
627368000,-0.011717951,-0.010918918,0.0015979076,4000,0,0.06823475,-0.119709924,-9.911995,4000,0,0,0,1
627372000,-0.0125168795,-0.002663144,0.0061252364,4000,0,0.067037664,-0.056263573,-9.821015,4000,0,0,0,1
627376000,-0.0021305298,-0.0010652567,0.00292948,4000,0,0.09097968,0.008379878,-9.792284,4000,0,0,0,1
627380000,0.0029294791,-0.00053263124,-0.0026631604,4000,0,0.11372458,0.047884203,-9.77313,4000,0,0,0,1
627384000,-0.0015978954,0.0002663239,-0.0063915877,4000,0,0.10175359,0.09935955,-9.76595,4000,0,0,0,1
627388000,0.0029294859,0.0037284205,0.0018642108,4000,0,0.041898537,0.074220434,-9.79827,4000,0,0,0,1
627392000,0.011717901,0.010120023,-0.002663166,4000,0,0.044292733,0.020350888,-9.803061,4000,0,0,0,1
627396000,0.0071905064,0.011984266,-0.011717887,4000,0,0.06344634,-0.0023940294,-9.865308,4000,0,0,0,1
627400000,0.00026629955,0.006924245,-0.010918947,4000,0,0.039504327,-0.043095462,-9.93953,4000,0,0,0,1
627408000,0.0053263023,-0.0074568666,-0.0037284256,4000,0,-0.079008654,0.015562486,-9.862916,4000,0,0,0,1
627412000,-0.0005326286,0.006125269,0.0015979066,4000,0,-0.043095633,0.10295086,-9.846155,4000,0,0,0,1
627416000,-0.0061252764,0.012516856,0.000798959,4000,0,0.013168109,0.081403024,-9.838972,4000,0,0,0,1
627420000,0.0010652647,0.0034621106,0.00026630468,4000,0,0.0023942022,0.008379879,-9.868902,4000,0,0,0,1
627424000,0.009321068,-0.0034621097,0.0031957815,4000,0,0.013168109,-0.013167938,-9.879675,4000,0,0,0,1
627428000,0.010652639,-0.002663177,0.008522121,4000,0,0.0035913019,0.0143653825,-9.816229,4000,0,0,0,1
627432000,0.0055926223,0.0026631411,0.010120029,4000,0,-0.011971009,0.0359132,-9.737221,4000,0,0,0,1
627436000,-0.003462131,0.006924203,0.0021305454,4000,0,0.04548984,0.08738854,-9.726444,4000,0,0,0,1
627444000,-0.019441087,0.007723177,-0.016777901,4000,0,-0.005985506,0.013168282,-9.79827,4000,0,0,0,1
627448000,-0.010386319,0.0066578966,-0.01012003,4000,0,-0.04548984,0.037110306,-9.810242,4000,0,0,0,1
627452000,-0.0023968676,-0.0045273784,-0.0031957726,4000,0,-0.0071826046,0.08140303,-9.872493,4000,0,0,0,1
627456000,-0.00985371,-0.008788421,0.0021305212,4000,0,-0.0023942022,0.08260014,-9.879675,4000,0,0,0,1
627460000,-0.007190556,0.00079896505,0.00665788,4000,0,-0.005985504,0.05267261,-9.801862,4000,0,0,0,1
627464000,0.0021305135,0.008255831,0.010652626,4000,0,0.034715924,-0.029927354,-9.795878,4000,0,0,0,1
627468000,0.004261057,0.0047937017,0.0055926307,4000,0,0.019153617,-0.0933737,-9.889252,4000,0,0,0,1
627472000,0.0042610657,-0.007989469,-0.0045273923,4000,0,-0.1113304,-0.08020559,-9.855731,4000,0,0,0,1
627476000,0.0034620997,-0.010652646,-0.002396851,4000,0,-0.17597383,-0.058657777,-9.756373,4000,0,0,0,1
627480000,0.0074568167,-0.006391603,0.008522135,4000,0,-0.08140285,-0.037109964,-9.801862,4000,0,0,0,1
627484000,0.0063915635,-0.000798961,0.012250555,4000,0,0.021547817,-0.04908096,-9.902418,4000,0,0,0,1
627488000,0.0023967845,0.014381069,0.006391619,4000,0,-0.021547817,-0.0155621385,-9.959879,4000,0,0,0,1
627496000,0.008522095,0.016777921,-0.004793706,4000,0,-0.09935938,0.05267261,-9.770737,4000,0,0,0,1
627500000,0.0029294838,0.0058589526,-0.00053263194,4000,0,-0.041898537,-0.009576638,-9.76116,4000,0,0,0,1
627504000,0.0010652456,-0.0018642037,-0.009587385,4000,0,0.019153617,-0.0945708,-9.781511,4000,0,0,0,1
627508000,-0.00026629923,0.0007989579,-0.023169503,4000,0,0.079008654,-0.13048384,-9.752781,4000,0,0,0,1
627512000,0.0058589918,0.0053262766,-0.01864213,4000,0,0.07422027,-0.11252732,-9.755177,4000,0,0,0,1
627516000,0.009853661,-0.0029295196,-0.009587403,4000,0,0.040701427,-0.07781139,-9.836577,4000,0,0,0,1
627520000,0.005592599,-0.015712634,-0.010652691,4000,0,0.049081136,0.011971181,-9.913193,4000,0,0,0,1
627524000,-0.0010652598,-0.019441046,-0.014114796,4000,0,0.04668694,0.043095805,-9.874886,4000,0,0,0,1
627528000,-0.0029294607,-0.016245274,-0.014381085,4000,0,0.02274492,-0.029927354,-9.818621,4000,0,0,0,1
627532000,0.0058589377,-0.011717946,-0.007190493,4000,0,0.015562311,-0.0825998,-9.785105,4000,0,0,0,1
627540000,0.016245283,0.011185267,0.002396907,4000,0,0.011971008,0.011971179,-9.72884,4000,0,0,0,1
627544000,0.007456857,0.010386318,0.0034621384,4000,0,-0.038307235,0.016759586,-9.794682,4000,0,0,0,1
627548000,-0.0031957736,-0.0005326499,0.005592648,4000,0,-0.017956512,0.02633639,-9.864112,4000,0,0,0,1
627552000,-0.006391566,-0.012250547,0.0077231787,4000,0,0.009576809,0.004788577,-9.852142,4000,0,0,0,1
627556000,-0.0018641874,-0.015446334,0.0034621349,4000,0,0.005985504,-0.11492152,-9.815032,4000,0,0,0,1
627560000,0.0055926484,-0.008255795,3.3781358e-08,4000,0,0.0023942022,-0.1711853,-9.798271,4000,0,0,0,1
627564000,0.0063915653,-0.0010652797,0.0079895,4000,0,-0.0011971011,-0.100556314,-9.770737,4000,0,0,0,1
627568000,0.0055926205,0.0042610257,0.021837933,4000,0,-0.0011971011,-0.084993996,-9.746798,4000,0,0,0,1
627572000,0.005326306,0.005326332,0.015712652,4000,0,0.023942016,-0.10055631,-9.749191,4000,0,0,0,1
627576000,-0.003195844,0.009321048,-0.000798926,4000,0,-0.014365209,-0.04548967,-9.767147,4000,0,0,0,1
627580000,-0.0074568517,0.0135821225,-0.0010652557,4000,0,-0.077811554,-0.02633605,-9.793484,4000,0,0,0,1
627584000,0.0015978751,0.0106526315,-0.005592673,4000,0,-0.06584056,-0.03351866,-9.816229,4000,0,0,0,1
627588000,0.010652613,0.0071905223,-0.012783208,4000,0,-0.027533323,-0.03112445,-9.816229,4000,0,0,0,1
627596000,-0.0066578817,0.004793649,0.017310569,4000,0,0.015562311,-0.0059853345,-9.810242,4000,0,0,0,1
627600000,-0.0018642059,0.00133159,0.00905475,4000,0,-0.04668694,0.07062913,-9.8509445,4000,0,0,0,1
627604000,0.017044257,-0.008522066,-0.0015978994,4000,0,-0.13287823,0.07182623,-9.868902,4000,0,0,0,1
627612000,0.003994729,-0.012250552,0.0010652088,4000,0,0.055066645,-0.05626357,-9.943119,4000,0,0,0,1
627616000,-0.000798969,-0.003462117,0.0053263153,4000,0,0.077811554,-0.057460666,-9.932346,4000,0,0,0,1
627620000,-0.002663177,0.0021305268,0.010120008,4000,0,0.039504327,0.0023943735,-9.785105,4000,0,0,0,1
627624000,-0.005326318,-0.000266329,0.005858959,4000,0,-0.023942016,-0.009576638,-9.746797,4000,0,0,0,1
627628000,-0.003728421,-0.0023968564,-0.0021305252,4000,0,-0.040701427,-0.04668677,-9.77313,4000,0,0,0,1
627632000,-0.0037284333,-0.0074568465,0.002396851,4000,0,-0.017956512,-0.0023940313,-9.753977,4000,0,0,0,1
627636000,0.0018642059,-0.005592632,0.004527386,4000,0,-0.01316811,0.0059856744,-9.740809,4000,0,0,0,1
627640000,0.0053263307,0.0061252844,-0.009054734,4000,0,-0.005985504,-0.040701255,-9.76116,4000,0,0,0,1
627644000,-0.0031957862,0.0109189935,-0.0122505175,4000,0,0.023942018,-0.029927354,-9.818621,4000,0,0,0,1
627648000,-0.0053262566,0.011717938,0.0050600134,4000,0,0.017956514,-0.0011969288,-9.866505,4000,0,0,0,1
627652000,0.0013316172,0.014114786,0.015446305,4000,0,-0.015562311,-0.0059853313,-9.897632,4000,0,0,0,1
627656000,3.7968135e-08,0.004793684,0.013315808,4000,0,-0.0023942017,0.025139293,-9.847351,4000,0,0,0,1
627660000,-0.0029294298,-0.0077231796,0.008522122,4000,0,0.019153617,0.07781173,-9.742006,4000,0,0,0,1
627664000,0.0013315864,-0.009054737,0.0077231787,4000,0,0.009576809,0.04668711,-9.767148,4000,0,0,0,1
627672000,-0.0015978848,-0.012516867,0.010386323,4000,0,-0.08140286,0.124498665,-9.837774,4000,0,0,0,1
627676000,0.0026631611,-0.0077231564,0.006391602,4000,0,-0.084994175,0.089782745,-9.775527,4000,0,0,0,1
627680000,0.0039947075,0.00079894555,0.01251687,4000,0,-0.058657948,0.0323219,-9.7444,4000,0,0,0,1
627684000,-0.00026631446,0.0005326114,0.014647389,4000,0,-0.02873042,-0.005985335,-9.689336,4000,0,0,0,1
627688000,-0.0069241803,-0.0077232015,0.0015978984,4000,0,0.02274492,0.01556248,-9.690533,4000,0,0,0,1
627692000,-0.008788435,-0.005858956,0.0018642038,4000,0,-0.0023942017,0.07781173,-9.749191,4000,0,0,0,1
627700000,-0.0047936914,-0.004793682,0.009587385,4000,0,0.034715928,0.06703782,-9.793484,4000,0,0,0,1
627704000,0.00026629146,0.0023968627,0.010652643,4000,0,0.053869545,0.059855223,-9.825806,4000,0,0,0,1
627712000,0.0005326234,0.0015978955,-0.014913705,4000,0,-0.028730419,0.09337404,-9.836578,4000,0,0,0,1
627716000,0.010386369,0.009321013,-0.010386333,4000,0,0.02633622,0.08499434,-9.838972,4000,0,0,0,1
627720000,0.014647422,0.011984183,-0.0021305329,4000,0,0.008379708,0.0023943728,-9.805454,4000,0,0,0,1
627724000,0.010386318,0.0077231806,-0.0042610625,4000,0,-0.0023942024,-0.0059853345,-9.767147,4000,0,0,0,1
627728000,0.007989472,0.004527389,-0.0074568572,4000,0,0.04548984,0.040701605,-9.78989,4000,0,0,0,1
627732000,0.0071905176,-0.0010652547,-0.010386343,4000,0,0.05626375,1.7132551e-07,-9.816229,4000,0,0,0,1
627736000,0.0085221175,-0.00079895806,-0.0082558,4000,0,-0.0071826056,-0.029927354,-9.799467,4000,0,0,0,1
627740000,0.011984242,0.0058589214,0.00026633608,4000,0,-0.09576807,-0.008379537,-9.749191,4000,0,0,0,1
627744000,0.00292949,0.0002662908,0.0063915825,4000,0,-0.09097968,-0.022744747,-9.781511,4000,0,0,0,1
627748000,-0.014381061,-0.004527406,0.0007989452,4000,0,-0.016759414,0.00957698,-9.884462,4000,0,0,0,1
627752000,-0.018642107,-0.00026638343,-0.013049517,4000,0,-0.034715924,0.04668711,-9.889252,4000,0,0,0,1
627756000,-0.013315782,0.005326262,-0.019174797,4000,0,-0.09097968,0.0143653825,-9.844959,4000,0,0,0,1
627760000,-0.0087884255,0.0055926247,-0.015978975,4000,0,-0.06584056,0.011971181,-9.818621,4000,0,0,0,1
627768000,-0.005326347,-0.010652635,-0.0015978861,4000,0,0.023942016,-0.02633605,-9.792285,4000,0,0,0,1
627772000,-0.0013316002,-0.0013315708,0.005326321,4000,0,0.03232173,-0.004788234,-9.72884,4000,0,0,0,1
627776000,0.008522107,0.0034621279,0.006125274,4000,0,0.031124622,-0.016759247,-9.725247,4000,0,0,0,1
627780000,0.012250552,-0.005592606,-0.0026631912,4000,0,0.031124622,-0.100556314,-9.727644,4000,0,0,0,1
627784000,0.006125276,-0.00772315,-0.0058589755,4000,0,0.016759414,-0.124498315,-9.746798,4000,0,0,0,1
627788000,-0.00053263083,-0.0045273653,-0.003994752,4000,0,-0.011971008,-0.027533151,-9.815032,4000,0,0,0,1
627792000,0.00452737,-0.00026632173,0.0026631681,4000,0,-0.07062895,0.071826234,-9.823412,4000,0,0,0,1
627796000,0.011984218,0.0101200165,0.004793706,4000,0,-0.088585466,0.04189871,-9.806652,4000,0,0,0,1
627800000,0.0063915737,0.0143810725,0.0026631977,4000,0,-0.043095633,-0.028730249,-9.873688,4000,0,0,0,1
627804000,0.0015979311,0.010386312,0.009054764,4000,0,0.021547817,0.02035089,-9.9108,4000,0,0,0,1
627808000,0.006125277,0.009587395,0.009853682,4000,0,0.06105215,0.07541753,-9.849746,4000,0,0,0,1
627812000,0.007190524,0.0074568675,0.003994734,4000,0,0.047884032,0.005985678,-9.831791,4000,0,0,0,1
627816000,0.005326348,-0.0026631756,0.008788412,4000,0,0.0035913028,-0.05386937,-9.853339,4000,0,0,0,1
627820000,0.005858974,-0.011185288,0.015978955,4000,0,0.004788405,-0.02633605,-9.827001,4000,0,0,0,1
627824000,0.005060029,-0.01651161,0.017310536,4000,0,0.06823475,-0.06464328,-9.852142,4000,0,0,0,1
627828000,-0.0026631758,-0.0077232015,0.010652618,4000,0,0.11611879,-0.14245482,-9.876082,4000,0,0,0,1
627832000,-0.010918976,0.0023968087,0.0023968148,4000,0,0.12330139,-0.0933737,-9.8281975,4000,0,0,0,1
627836000,-0.00399474,-0.0039947494,-0.0010652469,4000,0,0.07422027,-0.01556214,-9.805454,4000,0,0,0,1
627840000,0.00079895864,-0.0013315916,-0.007989482,4000,0,0.015562311,0.029927697,-9.791088,4000,0,0,0,1
627848000,-0.0039947415,-0.0023968315,0.0031958048,4000,0,-0.034715924,0.0083798785,-9.825806,4000,0,0,0,1
627852000,0.0010652723,-0.0074568507,0.00026632682,4000,0,-0.07422027,0.019153789,-9.880873,4000,0,0,0,1
627856000,-0.004527377,-0.0069242194,0.0010652508,4000,0,-0.014365211,0.016759586,-9.891646,4000,0,0,0,1
627860000,-0.003728444,-0.00053262204,0.0077231596,4000,0,0.08738837,-0.035912853,-9.837774,4000,0,0,0,1
627864000,0.0053263097,0.0037284624,0.01837581,4000,0,0.06943185,-0.052672267,-9.815031,4000,0,0,0,1
627872000,0.006125326,-0.005059989,0.01704422,4000,0,0.053869545,-0.04788387,-9.868902,4000,0,0,0,1
627876000,0.008788526,-0.014913642,-0.0055926554,4000,0,0.08140285,1.7109566e-07,-9.803061,4000,0,0,0,1
627880000,0.0071905768,-0.013049466,-0.013315809,4000,0,0.019153617,0.007182774,-9.689337,4000,0,0,0,1
627888000,0.0037284126,-0.0039947457,0.0058589606,4000,0,0.03950433,-0.053869378,-9.704897,4000,0,0,0,1
627892000,0.010386334,-0.0034620916,0.0018642225,4000,0,-0.010773908,0.029927693,-9.714474,4000,0,0,0,1
627896000,0.006391595,-0.0055926237,-0.003195806,4000,0,-0.0047884043,0.06105232,-9.773131,4000,0,0,0,1
627904000,0.010120016,0.003994729,0.0013315931,4000,0,-0.15083474,0.1616088,-9.848549,4000,0,0,0,1
627908000,0.0055926354,0.00719054,-0.0007989315,4000,0,-0.09097968,0.06943203,-9.853339,4000,0,0,0,1
