timestamp,yaw_sp_move_rate,q_d[0],q_d[1],q_d[2],q_d[3],thrust_body[0],thrust_body[1],thrust_body[2]
625256000,0.0,0.6233076,0.0,0.0,0.7819768,0.0,0.0,-0.001
625264000,0.0,0.6232656,0.0,0.0,0.7820102,0.0,0.0,-0.001
625304000,0.0,0.62324196,0.0,0.0,0.7820291,0.0,0.0,-0.001
625352000,0.0,0.6232374,0.0,0.0,0.7820327,0.0,0.0,-0.001
625400000,0.0,0.623185,0.0,0.0,0.7820745,0.0,0.0,-0.001
625456000,0.0,0.62318087,0.0,0.0,0.7820777,0.0,0.0,-0.001
625504000,0.0,0.62315476,0.0,0.0,0.78209853,0.0,0.0,-0.001
625552000,0.0,0.62312,0.0,0.0,0.78212625,0.0,0.0,-0.001
625608000,0.0,0.62308925,0.0,0.0,0.78215086,0.0,0.0,-0.001
625656000,0.0,0.62301344,0.0,0.0,0.7822111,0.0,0.0,-0.001
625704000,0.0,0.62305063,0.0,0.0,0.7821815,0.0,0.0,-0.001
625752000,0.0,0.6229854,0.0,0.0,0.7822334,0.0,0.0,-0.001
625800000,0.0,0.62285924,0.0,0.0,0.7823339,0.0,0.0,-0.001
625856000,0.0,0.62291265,0.0,0.0,0.7822914,0.0,0.0,-0.001
625904000,0.0,0.62295854,0.0,0.0,0.7822548,0.0,0.0,-0.001
625952000,0.0,0.62291026,0.0,0.0,0.78229326,0.0,0.0,-0.001
626008000,0.0,0.62299585,0.0,0.0,0.78222525,0.0,0.0,-0.001
626056000,0.0,0.62301904,0.0,0.0,0.78220665,0.0,0.0,-0.001
626104000,0.0,0.6229506,0.0,0.0,0.7822612,0.0,0.0,-0.001
626152000,0.0,0.6230333,0.0,0.0,0.7821953,0.0,0.0,-0.001
626200000,0.0,0.62293094,0.0,0.0,0.7822768,0.0,0.0,-0.001
626256000,0.0,0.6228775,0.0,0.0,0.7823194,0.0,0.0,-0.001
626304000,0.0,0.62288934,0.0017575099,0.0011367063,0.78230727,0.0,0.0,-0.012836569
626352000,0.0,0.6228872,0.0024300704,0.0015329722,0.78230643,0.0,0.0,-0.01935058
626408000,0.0,0.62288827,0.00210688,0.0017439722,0.7823061,0.0,0.0,-0.02726244
626456000,0.0,0.62289006,0.0014832641,0.0012349967,0.782307,0.0,0.0,-0.034699757
626504000,0.0,0.62289023,0.0013986488,0.0008163251,0.7823077,0.0,0.0,-0.041985076
626552000,0.0,0.62289053,0.0012744715,0.00076229515,0.7823076,0.0,0.0,-0.049589764
626600000,0.0,0.62289065,0.0012164571,0.0005277966,0.78230786,0.0,0.0,-0.057977404
626656000,0.0,0.6228911,0.000903923,0.000938965,0.7823075,0.0,0.0,-0.068737656
626704000,0.0,0.622891,0.0009687955,0.00120234,0.78230715,0.0,0.0,-0.07786809
626752000,0.0,0.62289107,0.0009541617,0.0012139856,0.7823071,0.0,0.0,-0.08801445
626808000,0.0,0.62288994,0.0015319115,0.0013176361,0.7823069,0.0,0.0,-0.10036911
626856000,0.0,0.6228904,0.0013290794,0.0010743254,0.78230727,0.0,0.0,-0.11087739
626904000,0.0,0.62289065,0.0012266425,0.00036670975,0.78230786,0.0,0.0,-0.122726396
626952000,0.0,0.62289125,0.0008213189,0.00063112524,0.7823078,0.0,0.0,-0.13482414
627000000,0.0,0.6228914,0.00074967736,6.502247e-05,0.78230786,0.0,0.0,-0.14692323
627056000,0.0,0.62289053,0.0013200131,0.00021378695,0.782308,0.0,0.0,-0.16200404
627104000,0.0,0.62289107,0.000970222,0.00020529404,0.782308,0.0,0.0,-0.17554332
627152000,0.0,0.6228912,0.0008804344,0.0005456364,0.78230786,0.0,0.0,-0.1893685
627200000,0.0,0.62289107,0.0009614108,0.0003854514,0.78230786,0.0,0.0,-0.20342156
627256000,0.0,0.6228907,0.0011769289,0.0005039508,0.78230786,0.0,0.0,-0.22031713
627304000,0.0,0.6232834,0.0009802615,0.00072746404,0.7819951,0.0,0.0,-0.2348489
627352000,0.0,0.6233882,0.00034677648,0.0004556002,0.7819124,0.0,0.0,-0.24979348
627408000,0.0,0.6234757,0.00023645187,0.0007349401,0.7818425,0.0,0.0,-0.26766935
627448000,0.0,0.62348616,9.548343e-05,0.00014382365,0.7818344,0.0,0.0,-0.28111684
627504000,0.0,0.6234349,0.000991532,1.8445258e-05,0.7818746,0.0,0.0,-0.30013275
627552000,0.0,0.62354684,0.00077870255,0.000477585,0.7817855,0.0,0.0,-0.31652495
627600000,0.0,0.62344354,0.0018057235,0.0010724292,0.7818655,0.0,0.0,-0.32032618
627656000,0.0,0.62337905,0.0016655414,0.00080823223,0.7819177,0.0,0.0,-0.32626864
627704000,0.0,0.6232119,0.0012192032,6.049918e-05,0.78205204,0.0,0.0,-0.3323224
627752000,0.0,0.62330997,0.0014545857,-1.20878185e-05,0.78197354,0.0,0.0,-0.33629063
627808000,0.0,0.6233363,0.001615804,0.00010854401,0.7819522,0.0,0.0,-0.3430923
627856000,0.0,0.62326044,0.001560187,0.00043407572,0.7820127,0.0,0.0,-0.34713516
627904000,0.0,0.6231813,0.0014394083,0.00011944492,0.7820761,0.0,0.0,-0.35339993
627952000,0.0,0.62331843,0.0013922914,0.00042129555,0.7819668,0.0,0.0,-0.35805547
628000000,0.0,0.623403,0.0015315508,0.00046620975,0.78189903,0.0,0.0,-0.36328706
628056000,0.0,0.6233338,0.0008745281,0.00046762946,0.78195524,0.0,0.0,-0.37078282
628104000,0.0,0.6233772,0.0015718288,5.42832e-05,0.7819197,0.0,0.0,-0.37723413
628152000,0.0,0.6234922,0.0015807673,0.00018539741,0.7818281,0.0,0.0,-0.38216254
628200000,0.0,0.62350273,0.0006235806,0.00029662173,0.78182095,0.0,0.0,-0.38708532
628256000,0.0,0.62344915,0.00096438907,0.00037793853,0.7818633,0.0,0.0,-0.39605352
628304000,0.0,0.62336665,0.0008628799,0.00038666278,0.78192914,0.0,0.0,-0.40237966
628352000,0.0,0.623223,0.001023845,0.00015692321,0.78204346,0.0,0.0,-0.40828273
628408000,0.0,0.62313163,0.0014811275,0.0004364034,0.78211546,0.0,0.0,-0.41733754
628448000,0.0,0.6230966,0.0009963737,0.0008749725,0.7821439,0.0,0.0,-0.42325363
628504000,0.0,0.62309676,0.00091821206,0.00047934346,0.7821441,0.0,0.0,-0.4304236
628552000,0.0,0.6230428,0.00044937505,-0.0004950727,0.78218746,0.0,0.0,-0.43700552
628600000,0.0,0.62306684,0.00032975822,-0.00010231733,0.78216857,0.0,0.0,-0.44324657
628656000,0.0,0.6231204,0.0004981691,-0.0008036774,0.7821254,0.0,0.0,-0.45292345
628704000,0.0,0.6230927,0.00073976506,-0.0005359222,0.7821475,0.0,0.0,-0.46059722
628752000,0.0,0.6231506,0.00032547946,-0.0005579388,0.7821017,0.0,0.0,-0.46696374
628808000,0.0,0.6229745,-8.166252e-05,-0.00094201975,0.78224164,0.0,0.0,-0.47793615
628856000,0.0,0.62298435,0.00025239435,-0.00048406646,0.7822342,0.0,0.0,-0.48485884
628904000,0.0,0.623006,0.00013509749,-0.0006771896,0.7822168,0.0,0.0,-0.49301875
628952000,0.0,0.6229983,-0.000114032344,-0.0007438016,0.78222287,0.0,0.0,-0.5000791
629008000,0.0,0.6229145,0.00015013051,-0.00081419555,0.78228956,0.0,0.0,-0.5114101
629056000,0.0,0.6230169,0.00045489628,-0.0008289386,0.78220785,0.0,0.0,-0.51916385
629104000,0.0,0.6229869,-6.207225e-05,-0.0013796723,0.78223115,0.0,0.0,-0.5281223
629152000,0.0,0.6229598,-0.00022223091,-0.0013630707,0.78225267,0.0,0.0,-0.5356598
629200000,0.0,0.6228138,0.00020290755,-0.0011659922,0.7823691,0.0,0.0,-0.5436918
629248000,0.0,0.62269735,6.5957124e-07,-0.0013483106,0.78246176,0.0,0.0,-0.55509317
629304000,0.0,0.6226983,0.0004959988,-0.0018492356,0.7824598,0.0,0.0,-0.58953637
629352000,0.0,0.6225966,-0.00019807166,-0.001471781,0.78254163,0.0,0.0,-0.59748346
629408000,0.0,0.6224259,-0.00054920785,-0.0016637339,0.78267676,0.0,0.0,-0.6098372
629456000,0.0,0.622457,-0.00021490388,-0.0014282784,0.7826527,0.0,0.0,-0.6177902
629504000,0.0,0.62237257,-0.00024823603,-0.0019372858,0.7827188,0.0,0.0,-0.6262023
629552000,0.0,0.6223622,9.48415e-05,-0.0014820178,0.7827281,0.0,0.0,-0.63467646
629608000,0.0,0.62249404,-0.00024516982,-0.0010498486,0.7826238,0.0,0.0,-0.6482994
629648000,0.0,0.62241787,-0.00048888446,-0.0015146584,0.78268355,0.0,0.0,-0.6560489
629704000,0.0,0.62217325,-0.00070119044,-0.0016148604,0.7828777,0.0,0.0,-0.66574603
629752000,0.0,0.6219729,-0.0012505167,-0.0020171383,0.7830352,0.0,0.0,-0.6745594
629808000,0.0,0.6218989,-0.0005710997,-0.0017181678,0.7830955,0.0,0.0,-0.6885486
629848000,0.0,0.62186706,-0.0009408397,-0.0023116025,0.78311884,0.0,0.0,-0.6974461
629904000,0.0,0.6218177,-0.0011328936,-0.0023412993,0.7831577,0.0,0.0,-0.70708865
629952000,0.0,0.62175816,-0.0012038802,-0.0024497455,0.78320456,0.0,0.0,-0.7160888
630008000,0.0,0.6218021,-0.000901321,-0.0018330157,0.7831718,0.0,0.0,-0.72888803
630048000,0.0,0.62186104,-0.0012888031,-0.0016218886,0.7831249,0.0,0.0,-0.73433256
630104000,0.0,0.6218943,-0.0010589621,-0.0018861505,0.7830982,0.0,0.0,-0.7381897
630152000,0.0,0.6218607,-0.0023037277,-0.0011440958,0.7831237,0.0,0.0,-0.7411088
630208000,0.0,0.6219504,-0.0027606282,-0.00079634966,0.78305143,0.0,0.0,-0.74736
630248000,0.0,0.62195504,-0.0032520003,-0.0006016172,0.783046,0.0,0.0,-0.7492859
630304000,0.0,0.62185603,-0.003694168,0.00024937835,0.78312284,0.0,0.0,-0.7487764
630352000,0.0,0.6217478,-0.00522478,-2.4490839e-05,0.78320014,0.0,0.0,-0.74877083
630408000,0.0,0.62175274,-0.0053906534,0.0006891646,0.7831947,0.0,0.0,-0.75310206
630448000,0.0,0.6217478,-0.004886189,0.00059535465,0.78320205,0.0,0.0,-0.75362515
630504000,0.0,0.62177396,-0.0056455205,0.001099399,0.7831757,0.0,0.0,-0.7523462
630552000,0.0,0.62181896,-0.005217039,0.0007471771,0.78314334,0.0,0.0,-0.75163245
630608000,0.0,0.621972,-0.0058199395,0.0008879235,0.7830174,0.0,0.0,-0.7555389
630648000,0.0,0.62217975,-0.005803387,0.0010200009,0.7828523,0.0,0.0,-0.75593436
630704000,0.0,0.6221543,-0.0054215076,0.00092553644,0.7828753,0.0,0.0,-0.74442697
630752000,0.0,0.6222077,-0.0052245916,0.001338174,0.78283364,0.0,0.0,-0.7335629
630800000,0.0,0.62220633,-0.005454729,0.0002196721,0.7828344,0.0,0.0,-0.72335047
630856000,0.0,0.6220852,-0.005130869,0.00063786336,0.78293246,0.0,0.0,-0.7282409
630904000,0.0,0.6221259,-0.004220746,0.0009801881,0.7829052,0.0,0.0,-0.72871226
630952000,0.0,0.62217754,-0.004247898,0.0004408863,0.7828646,0.0,0.0,-0.7256534
631000000,0.0,0.62221503,-0.0035705008,0.00019163797,0.7828383,0.0,0.0,-0.71935225
631056000,0.0,0.6222936,-0.0036346265,0.0003754095,0.78277546,0.0,0.0,-0.72285056
631104000,0.0,0.62219167,-0.0032253095,0.00082694617,0.7828579,0.0,0.0,-0.71994233
631152000,0.0,0.6222329,-0.0032657397,0.0014458009,0.78282404,0.0,0.0,-0.7195518
631200000,0.0,0.62240463,-0.0036411984,0.0013385988,0.78268605,0.0,0.0,-0.7189765
631256000,0.0,0.6224279,-0.003588997,0.0015612476,0.7826674,0.0,0.0,-0.72388196
631304000,0.0,0.6224186,-0.0034661738,0.0015036461,0.7826754,0.0,0.0,-0.72073805
631352000,0.0,0.62239605,-0.0038896925,0.0010963416,0.782692,0.0,0.0,-0.72011125
631400000,0.0,0.62231284,-0.0031831898,0.00064600917,0.782762,0.0,0.0,-0.7191323
631456000,0.0,0.62225914,-0.0029291327,0.0011973982,0.782805,0.0,0.0,-0.72357935
631504000,0.0,0.6222906,-0.002906881,0.00032141927,0.7827809,0.0,0.0,-0.72026485
631552000,0.0,0.622417,-0.0023075044,0.00060635485,0.7826822,0.0,0.0,-0.71973866
631600000,0.0,0.62247175,-0.002039939,0.0014063877,0.7826384,0.0,0.0,-0.7184447
631648000,0.0,0.6224407,-0.0024823432,0.0012113495,0.78266215,0.0,0.0,-0.7234753
631704000,0.0,0.6223537,-0.0019201156,0.0008851582,0.7827333,0.0,0.0,-0.7194952
631752000,0.0,0.62224287,-0.0014742491,0.0006241706,0.7828227,0.0,0.0,-0.71817064
631800000,0.0,0.62237656,-0.0017272015,0.00084395736,0.7827156,0.0,0.0,-0.71662724
631856000,0.0,0.62249696,-0.0018772688,0.0012053419,0.782619,0.0,0.0,-0.72080225
631904000,0.0,0.62262994,-0.0006056887,0.0013225378,0.7825151,0.0,0.0,-0.7172769
631952000,0.0,0.6226387,-0.0013251227,0.0006922607,0.7825081,0.0,0.0,-0.71675885
632000000,0.0,0.62259007,-0.00080492895,0.0010537676,0.78254706,0.0,0.0,-0.71537167
632056000,0.0,0.62250984,-0.00069664314,0.0009250907,0.7826112,0.0,0.0,-0.7194102
632104000,0.0,0.6224892,-0.00083531556,0.0009702452,0.78262734,0.0,0.0,-0.71628547
632152000,0.0,0.62246084,-0.0013128117,0.0010941445,0.7826491,0.0,0.0,-0.715472
632208000,0.0,0.6225066,-0.0009196978,0.0007037473,0.7826137,0.0,0.0,-0.719625
632256000,0.0,0.62267286,-0.0009857282,0.0010414894,0.7824811,0.0,0.0,-0.7182974
632304000,0.0,0.6227144,-0.0008317402,0.0015225777,0.78244734,0.0,0.0,-0.7147845
632352000,0.0,0.62263936,-0.0010281424,0.0012864425,0.7825071,0.0,0.0,-0.7132582
632408000,0.0,0.6225504,-0.0013478273,0.0013815399,0.78257734,0.0,0.0,-0.71720135
632456000,0.0,0.6224755,-0.0009469726,0.0017081978,0.7826368,0.0,0.0,-0.7166637
632504000,0.0,0.6224348,-0.00076133787,0.0012750437,0.78267026,0.0,0.0,-0.7130285
632552000,0.0,0.6224313,-0.00091497396,0.0013137057,0.7826728,0.0,0.0,-0.71215564
632608000,0.0,0.622434,-0.001602914,0.0012302789,0.7826697,0.0,0.0,-0.71586955
632656000,0.0,0.6224977,-0.0017185522,0.0013799848,0.78261864,0.0,0.0,-0.71462864
632704000,0.0,0.62228847,-0.00070652703,0.0014366001,0.7827864,0.0,0.0,-0.7110637
632752000,0.0,0.6225723,-0.0005735167,0.001131549,0.78256124,0.0,0.0,-0.71055186
632808000,0.0,0.6241575,-0.0011187015,0.0012329326,0.78129685,0.0,0.0,-0.7142358
632856000,0.0,0.6247221,-0.0010270862,0.0017571622,0.7808446,0.0,0.0,-0.71324563
632904000,0.0,0.62521183,-0.0011673564,0.001362325,0.780453,0.0,0.0,-0.71032447
632952000,0.0,0.6253839,-0.0010448042,0.0013524095,0.7803154,0.0,0.0,-0.70944667
633008000,0.0,0.6252373,-0.001195772,0.0011583373,0.780433,0.0,0.0,-0.7127654
633056000,0.0,0.6250103,-0.0012484696,0.0013449857,0.7806144,0.0,0.0,-0.7113886
633104000,0.0,0.6244625,-0.00077953225,0.0010008271,0.7810538,0.0,0.0,-0.7079696
633152000,0.0,0.6239548,-0.00044464276,0.0010968144,0.78145957,0.0,0.0,-0.70702404
633208000,0.0,0.62336254,-0.00026710192,0.0013659458,0.78193176,0.0,0.0,-0.71065384
633256000,0.0,0.6229185,-0.00047990386,0.00149776,0.78228515,0.0,0.0,-0.70995396
633304000,0.0,0.6224255,-0.0003407025,0.0016567876,0.78267723,0.0,0.0,-0.7068803
633352000,0.0,0.62204456,-0.00070723606,0.0013058287,0.7829805,0.0,0.0,-0.7061947
633408000,0.0,0.6218395,-0.0003708338,0.0011630127,0.7831437,0.0,0.0,-0.70913106
633448000,0.0,0.6217017,-0.00027263918,0.0012389482,0.78325313,0.0,0.0,-0.7087792
633504000,0.0,0.6216682,0.00018017387,0.0016994602,0.78327894,0.0,0.0,-0.7072303
633552000,0.0,0.6216935,0.00033646205,0.0013394558,0.78325945,0.0,0.0,-0.69909424
633608000,0.0,0.62184906,-0.0005945326,0.0015063651,0.7831355,0.0,0.0,-0.6850753
633648000,0.0,0.6219915,-6.32433e-05,0.00145326,0.78302264,0.0,0.0,-0.6764822
633704000,0.0012300014,0.6220981,-6.2838735e-05,0.0011170269,0.78293854,0.0,0.0,-0.6640091
633752000,0.0,0.622098,0.00014083291,0.0007590867,0.7829391,0.0,0.0,-0.65629005
633800000,0.0,0.622098,-0.0004032285,0.00095409143,0.7829388,0.0,0.0,-0.6527094
633848000,0.0,0.6220979,0.00051122555,0.0018450837,0.78293705,0.0,0.0,-0.6632455
633904000,0.0,0.6220978,0.0006489106,0.0019749054,0.7829368,0.0,0.0,-0.67594004
633952000,0.0,0.62209797,0.00026366275,0.0010734882,0.7829387,0.0,0.0,-0.68507266
634000000,0.0,0.6220979,0.0004054514,0.0013862798,0.78293806,0.0,0.0,-0.6957186
634056000,0.0,0.6220973,0.00092636695,0.0016932617,0.7829375,0.0,0.0,-0.70751184
634104000,0.0,0.6220968,0.0012203547,0.0013705465,0.7829383,0.0,0.0,-0.71572155
634152000,0.0,0.62209773,0.0005940589,0.0011341174,0.78293866,0.0,0.0,-0.72031707
634208000,0.0,0.622097,0.0011086349,0.00064035656,0.7829392,0.0,0.0,-0.724288
634248000,0.0,0.62209696,0.0011490546,0.0011796968,0.7829386,0.0,0.0,-0.72265667
634304000,0.0,0.6220973,0.0009213162,0.0016783508,0.7829376,0.0,0.0,-0.7164097
634352000,0.0,0.6220974,0.0008900963,0.00095208234,0.78293884,0.0,0.0,-0.7116919
634400000,0.0,0.62209654,0.0013659634,0.0009198672,0.7829388,0.0,0.0,-0.7081093
634456000,0.0,0.6220968,0.0012535723,0.0010539286,0.7829386,0.0,0.0,-0.70640516
634504000,0.0,0.62209624,0.001500574,0.0011378722,0.78293854,0.0,0.0,-0.70468456
634552000,0.0,0.6220972,0.001005467,0.0019152026,0.7829371,0.0,0.0,-0.704375
634608000,0.0,0.62209773,0.000623302,0.0016374169,0.7829377,0.0,0.0,-0.7047254
634656000,0.0,0.6220979,0.00046690254,0.0014202732,0.78293806,0.0,0.0,-0.70467067
634704000,0.0,0.6220979,0.00036868986,0.0010978035,0.7829386,0.0,0.0,-0.7045633
634752000,0.0,0.62209773,0.00062430825,0.0012909685,0.7829383,0.0,0.0,-0.7043341
634808000,0.0,0.622098,-0.00021363636,0.0008363119,0.78293884,0.0,0.0,-0.70602405
634848000,0.0,0.6220981,-6.399321e-05,0.0011433316,0.78293854,0.0,0.0,-0.7058695
634904000,0.0,0.6220982,-0.00018006121,0.0015624246,0.78293765,0.0,0.0,-0.7045345
634952000,0.0,0.6220981,-0.0004559873,0.0013813184,0.78293806,0.0,0.0,-0.7044897
635000000,0.0,0.622098,-0.0006129578,0.0013191844,0.7829381,0.0,0.0,-0.7046457
635048000,0.0,0.62209785,0.00051973865,0.0014539799,0.78293794,0.0,0.0,-0.7053566
635104000,0.0,0.6220977,0.0007248833,0.0016410958,0.7829376,0.0,0.0,-0.70448965
635152000,0.0,0.6220977,0.00066370395,0.0010245065,0.7829387,0.0,0.0,-0.70410573
635200000,0.0,0.62209797,0.00029038984,0.0009482353,0.78293884,0.0,0.0,-0.703988
635256000,0.0,0.6220979,0.00040870433,0.00086996134,0.78293884,0.0,0.0,-0.7055021
635304000,0.005585054,0.62208056,-9.4099865e-05,0.0011013811,0.7829525,0.0,0.0,-0.705017
635352000,0.019547688,0.62183213,0.008228013,0.004001813,0.7830971,0.0,0.0,-0.7041045
635408000,0.0418879,0.6208155,0.01957664,0.0125873815,0.7836112,0.0,0.0,-0.7040002
635456000,0.055850536,0.6197865,0.026801653,0.01787227,0.784109,0.0,0.0,-0.7046799
635504000,0.07539822,0.617801,0.03746263,0.026979519,0.7849781,0.0,0.0,-0.7061547
635552000,0.089360856,0.6160248,0.044845738,0.032399643,0.7857815,0.0,0.0,-0.707339
635608000,0.11170107,0.612452,0.05760857,0.04153774,0.78731096,0.0,0.0,-0.7088347
635648000,0.1256637,0.6098086,0.065411024,0.047546957,0.7884124,0.0,0.0,-0.7100548
635704000,0.1452114,0.60555476,0.07640957,0.055097405,0.79020834,0.0,0.0,-0.71136594
635752000,0.15917404,0.6022749,0.08302643,0.0609008,0.7916203,0.0,0.0,-0.71165097
635808000,0.18151426,0.5958238,0.09741374,0.070363395,0.79407394,0.0,0.0,-0.71545047
635856000,0.1954769,0.5915158,0.1052892,0.07406557,0.7959508,0.0,0.0,-0.7159303
635904000,0.2150246,0.5846404,0.117611945,0.08184663,0.7985387,0.0,0.0,-0.7180231
635952000,0.22898725,0.57991785,0.12324171,0.0857726,0.80071825,0.0,0.0,-0.71777755
636000000,0.24294989,0.5747417,0.12970077,0.088740274,0.80310327,0.0,0.0,-0.71818745
636056000,0.26529008,0.56476843,0.14439279,0.096274465,0.8067953,0.0,0.0,-0.7234815
636104000,0.28483775,0.55627686,0.15313952,0.099533364,0.8106772,0.0,0.0,-0.72471744
636152000,0.29880038,0.5514625,0.15309334,0.09821523,0.8141286,0.0,0.0,-0.72079754
636208000,0.3211406,0.54196244,0.1580924,0.097607754,0.8196074,0.0,0.0,-0.7208575
636248000,0.3351032,0.5357999,0.1606568,0.097734705,0.8231378,0.0,0.0,-0.72249806
636304000,0.35465088,0.526842,0.1640062,0.09616022,0.8284279,0.0,0.0,-0.72416854
636352000,0.3686135,0.5207891,0.16393663,0.09425365,0.83247817,0.0,0.0,-0.7237431
636408000,0.39095372,0.50932294,0.1683685,0.09303954,0.83880013,0.0,0.0,-0.7269533
636456000,0.40491635,0.50281006,0.16772474,0.0897177,0.84320885,0.0,0.0,-0.7270254
636504000,0.42446402,0.4906331,0.18003787,0.06956239,0.8497215,0.0,0.0,-0.7290262
636552000,0.43842664,0.48392728,0.17822173,0.065685205,0.8542463,0.0,0.0,-0.72761816
636600000,0.45238927,0.4769103,0.17636028,0.06273521,0.8587886,0.0,0.0,-0.7267283
636656000,0.47472948,0.46303505,0.18036264,0.06250439,0.86554086,0.0,0.0,-0.72941256
636704000,0.49427715,0.45063233,0.18276234,0.06181592,0.8716119,0.0,0.0,-0.73071074
636752000,0.5082398,0.44199502,0.18900552,0.04042622,0.87594694,0.0,0.0,-0.7320138
636808000,0.53058,0.4275753,0.18908006,0.039235774,0.883113,0.0,0.0,-0.73230785
636856000,0.5445426,0.4197403,0.18406206,0.03532444,0.888083,0.0,0.0,-0.7291835
636904000,0.5640903,0.40605754,0.18479334,0.033505995,0.8943411,0.0,0.0,-0.7299312
636952000,0.57805294,0.397711,0.18740506,0.011320543,0.89809644,0.0,0.0,-0.73155004
637008000,0.6003931,0.38211,0.18395041,0.008613491,0.9055827,0.0,0.0,-0.73051417
637048000,0.61435574,0.37164742,0.18309517,0.007327135,0.91011024,0.0,0.0,-0.73021495
637104000,0.63390344,0.35735205,0.17890838,0.0032888565,0.9166681,0.0,0.0,-0.7286721
637152000,0.6478661,0.3490139,0.1774158,-0.019552227,0.9199623,0.0,0.0,-0.72919023
637208000,0.6611191,0.33150437,0.17125596,-0.022780418,0.9275006,0.0,0.0,-0.7272791
637256000,0.6471565,0.32114702,0.16337991,-0.025576405,0.93247914,0.0,0.0,-0.72435534
637304000,0.6276088,0.30807936,0.16164933,-0.047617592,0.93631685,0.0,0.0,-0.7277344
637352000,0.61364615,0.2970734,0.15836388,-0.04739356,0.94043726,0.0,0.0,-0.7274846
637408000,0.591306,0.27906966,0.15955277,-0.04581853,0.9458138,0.0,0.0,-0.72762084
637456000,0.57734334,0.27166498,0.15555297,-0.06692697,0.94737643,0.0,0.0,-0.7294084
637504000,0.55779564,0.25676927,0.15595593,-0.065493345,0.9515555,0.0,0.0,-0.7269108
637552000,0.543833,0.24713805,0.14601086,-0.06592726,0.9556449,0.0,0.0,-0.7221506
637608000,0.52149284,0.23364109,0.14856954,-0.08313071,0.9573026,0.0,0.0,-0.72639775
637648000,0.5075302,0.22406274,0.14047201,-0.082367145,0.96087414,0.0,0.0,-0.7223672
637704000,0.4879825,0.21369734,0.13366167,-0.101735085,0.96235025,0.0,0.0,-0.725926
637752000,0.47401989,0.20420352,0.12584494,-0.099920206,0.96565,0.0,0.0,-0.7224734
637808000,0.45167968,0.18958692,0.12147051,-0.09693328,0.96948737,0.0,0.0,-0.72064227
637856000,0.43771705,0.18320538,0.11752235,-0.11444475,0.96929187,0.0,0.0,-0.7254266
637904000,0.41816938,0.17101215,0.109071404,-0.112697184,0.9727064,0.0,0.0,-0.7224182
637952000,0.40420675,0.162232,0.10059865,-0.10988693,0.9754412,0.0,0.0,-0.7185974
638000000,0.39024413,0.15569085,0.090066075,-0.12772158,0.9753644,0.0,0.0,-0.72340715
638048000,0.36790392,0.1432964,0.0874699,-0.124773346,0.9778787,0.0,0.0,-0.7216007
638104000,0.34835625,0.13226752,0.077925876,-0.12128441,0.98067474,0.0,0.0,-0.7182548
638152000,0.33439362,0.124458015,0.06851477,-0.11876774,0.98270553,0.0,0.0,-0.7168755
638200000,0.320431,0.118170634,0.05713087,-0.1368099,0.98186296,0.0,0.0,-0.72324085
638256000,0.2980908,0.10738367,0.054900646,-0.12680835,0.98456806,0.0,0.0,-0.7264705
638304000,0.2785431,0.09930228,0.05946521,-0.119079396,0.9861151,0.0,0.0,-0.7201757
638352000,0.2645805,0.09338444,0.05779245,-0.114013985,0.9873906,0.0,0.0,-0.72374845
638400000,0.25061786,0.08929652,0.058000937,-0.1288961,0.98592484,0.0,0.0,-0.7244051
638456000,0.22827764,0.08176713,0.06369722,-0.12149085,0.987166,0.0,0.0,-0.72477496
638504000,0.20872994,0.07584764,0.06846001,-0.117071725,0.9878535,0.0,0.0,-0.72187996
638552000,0.1947673,0.0713589,0.06705584,-0.11271392,0.9887907,0.0,0.0,-0.7187366
638608000,0.17242707,0.06553228,0.07190453,-0.10678688,0.9895109,0.0,0.0,-0.7175735
638656000,0.15846443,0.06160959,0.06788294,-0.10345806,0.9904002,0.0,0.0,-0.7162597
638704000,0.13891673,0.05929249,0.07289136,-0.12049676,0.98825693,0.0,0.0,-0.7237661
638752000,0.1249541,0.055938832,0.06887277,-0.11682569,0.98918104,0.0,0.0,-0.7208822
638800000,0.11099146,0.052894503,0.06489222,-0.113172464,0.990042,0.0,0.0,-0.7183829
638856000,0.08865125,0.04971199,0.0683016,-0.108364195,0.9905154,0.0,0.0,-0.71696544
638904000,0.06910356,0.047556695,0.071114495,-0.105250135,0.9907591,0.0,0.0,-0.71698064
638952000,0.055140927,0.045716655,0.06778989,-0.10144632,0.9914752,0.0,0.0,-0.7158252
639008000,0.03280071,0.04435376,0.07099495,-0.097959734,0.99166346,0.0,0.0,-0.7171696
639056000,0.018838078,0.043263823,0.066711284,-0.09535084,0.9922631,0.0,0.0,-0.7169371
639104000,-0.00070961006,0.043028407,0.069549724,-0.092182025,0.9923779,0.0,0.0,-0.71740186
639152000,-0.014672244,0.04284803,0.06708669,-0.09045157,0.99271446,0.0,0.0,-0.7176183
639208000,-0.037012458,0.04359225,0.0692571,-0.08690765,0.9928496,0.0,0.0,-0.71754736
639256000,-0.05097509,0.043667533,0.060936876,-0.08482301,0.9935718,0.0,0.0,-0.7149806
639304000,-0.07052278,0.044423062,0.052343406,-0.080080256,0.9944214,0.0,0.0,-0.712934
639352000,-0.08448541,0.044945493,0.03932311,-0.07882332,0.99509823,0.0,0.0,-0.7122205
639400000,-0.098448046,0.04578685,0.026405245,-0.0780209,0.9955496,0.0,0.0,-0.71198374
639448000,-0.12078826,0.04849136,0.016017059,-0.076641835,0.99575,0.0,0.0,-0.7134222
639504000,-0.14033596,0.051014908,0.0009762477,-0.07530283,0.99585444,0.0,0.0,-0.714131
639552000,-0.1542986,0.052960213,-0.012330333,-0.07474203,0.99571925,0.0,0.0,-0.71524024
639600000,-0.16826124,0.055235658,-0.024766779,-0.0742362,0.99540174,0.0,0.0,-0.71534693
639648000,-0.19060147,0.060565732,-0.030314509,-0.07332931,0.99500537,0.0,0.0,-0.7149007
639704000,-0.21014917,0.06601958,-0.03240463,-0.07296922,0.99461895,0.0,0.0,-0.71404445
639752000,-0.22411181,0.070696056,-0.036843408,-0.051442176,0.99548894,0.0,0.0,-0.7088267
639800000,-0.23807445,0.07517588,-0.03860082,-0.052149072,0.99505734,0.0,0.0,-0.70959574
639848000,-0.26041466,0.08328567,-0.03638313,-0.051329352,0.9945376,0.0,0.0,-0.71064246
639904000,-0.27996233,0.09070042,-0.038160246,-0.05173761,0.993801,0.0,0.0,-0.7106881
639952000,-0.29392496,0.0961582,-0.041367486,-0.0532899,0.9930773,0.0,0.0,-0.7114785
640008000,-0.31626517,0.10589883,-0.04037047,-0.054314796,0.99207133,0.0,0.0,-0.7108777
640048000,-0.3302278,0.112933844,-0.04246767,-0.033687204,0.99212277,0.0,0.0,-0.70863533
640104000,-0.34977546,0.12221429,-0.043401342,-0.03672605,0.99087393,0.0,0.0,-0.7092015
640152000,-0.3637381,0.12914558,-0.044737495,-0.038494445,0.98986775,0.0,0.0,-0.7106776
640208000,-0.37412095,0.14100718,-0.042617448,-0.040472843,0.9882625,0.0,0.0,-0.7113274
640256000,-0.37221068,0.14816348,-0.04566097,-0.042657096,0.9869868,0.0,0.0,-0.7131937
640304000,-0.35788444,0.15892191,-0.04885245,-0.022950018,0.9858147,0.0,0.0,-0.71293867
640352000,-0.3439218,0.16566703,-0.05013738,-0.025354402,0.98458,0.0,0.0,-0.71351904
640408000,-0.3366109,0.17619312,-0.049793065,-0.029118769,0.9826641,0.0,0.0,-0.7145811
640456000,-0.337611,0.18255451,-0.05210365,-0.0330424,0.981258,0.0,0.0,-0.71628207
640504000,-0.33302948,0.19249557,-0.0548829,-0.015141249,0.97964483,0.0,0.0,-0.71531284
640552000,-0.31906685,0.19865938,-0.05610527,-0.018323813,0.9782898,0.0,0.0,-0.7161601
640608000,-0.30273277,0.20820244,-0.054280844,-0.023226045,0.97630215,0.0,0.0,-0.7158049
640648000,-0.30721292,0.21411678,-0.05463496,-0.024167914,0.9749794,0.0,0.0,-0.71596724
640704000,-0.32316524,0.22282375,-0.06425281,-0.010496823,0.97268236,0.0,0.0,-0.7175857
640752000,-0.33712786,0.22789644,-0.07265138,-0.02493837,0.97065085,0.0,0.0,-0.719582
640800000,-0.3510905,0.23316653,-0.079341955,-0.03933123,0.96839625,0.0,0.0,-0.72155964
640856000,-0.3734307,0.24196734,-0.08886076,-0.062362574,0.96419215,0.0,0.0,-0.7262546
640904000,-0.39297837,0.2506804,-0.10182288,-0.06269212,0.9606566,0.0,0.0,-0.7270298
640952000,-0.406941,0.25639096,-0.107766524,-0.07857714,0.95732737,0.0,0.0,-0.7285836
641000000,-0.42090362,0.262314,-0.113509655,-0.094014555,0.9536604,0.0,0.0,-0.7300856
641056000,-0.44324383,0.27263555,-0.12886347,-0.09661878,0.9485404,0.0,0.0,-0.73085266
641104000,-0.4627915,0.2820303,-0.13414025,-0.11753891,0.94268227,0.0,0.0,-0.7349377
641152000,-0.47675413,0.2910676,-0.12958011,-0.13018124,0.9389044,0.0,0.0,-0.7327827
641200000,-0.49071676,0.30010256,-0.13257565,-0.12399248,0.9364764,0.0,0.0,-0.7264155
641248000,-0.51305693,0.31520185,-0.1300823,-0.13537395,0.9302689,0.0,0.0,-0.72529763
641304000,-0.53260463,0.32927775,-0.12717499,-0.14421263,0.92444867,0.0,0.0,-0.72550434
641352000,-0.54656726,0.3390434,-0.13238083,-0.13141719,0.9220924,0.0,0.0,-0.7213233
641408000,-0.56890744,0.35596913,-0.12924214,-0.14277181,0.914439,0.0,0.0,-0.7264928
641456000,-0.58287007,0.36580783,-0.13626784,-0.13002227,0.9114329,0.0,0.0,-0.7252264
641504000,-0.60241777,0.38134587,-0.13356963,-0.14117141,0.9037727,0.0,0.0,-0.72929335
641552000,-0.6163804,0.39308393,-0.13070329,-0.14743388,0.89814526,0.0,0.0,-0.7320727
641608000,-0.6387206,0.4105168,-0.13628063,-0.14191504,0.89037275,0.0,0.0,-0.73305064
641656000,-0.6526832,0.42326653,-0.13140571,-0.14914024,0.88393164,0.0,0.0,-0.7346019
641704000,-0.6722309,0.43885452,-0.1378097,-0.14213663,0.87647724,0.0,0.0,-0.7345799
641752000,-0.6861935,0.4533486,-0.12771127,-0.14829251,0.8695828,0.0,0.0,-0.7335624
641800000,-0.70015615,0.46648642,-0.1260307,-0.13542317,0.86496663,0.0,0.0,-0.72799104
641856000,-0.72249633,0.4873965,-0.12386978,-0.12380319,0.85543776,0.0,0.0,-0.7247409
641904000,-0.74204403,0.50822926,-0.108890414,-0.13181536,0.84407973,0.0,0.0,-0.7253091
641952000,-0.75600666,0.52156204,-0.10763378,-0.11900921,0.83798856,0.0,0.0,-0.72391737
642000000,-0.7699693,0.5363868,-0.09743698,-0.12357261,0.8291713,0.0,0.0,-0.7253088
642056000,-0.7540478,0.557433,-0.094664045,-0.13130626,0.81428844,0.0,0.0,-0.73104185
642104000,-0.73776066,0.5753197,-0.09119036,-0.13745777,0.8011222,0.0,0.0,-0.7342236
642152000,-0.72379804,0.5893574,-0.07807564,-0.15250903,0.7894955,0.0,0.0,-0.7364622
642208000,-0.704707,0.6086587,-0.072101034,-0.16183975,0.7733977,0.0,0.0,-0.7381525
642256000,-0.6907444,0.6214099,-0.05937853,-0.17540914,0.76128536,0.0,0.0,-0.7403719
642304000,-0.674197,0.63634485,-0.057844862,-0.16930716,0.7503694,0.0,0.0,-0.73427725
642352000,-0.66319966,0.6464828,-0.0573282,-0.15683663,0.74442977,0.0,0.0,-0.7253741
642408000,-0.6437441,0.66269094,-0.05139844,-0.14782166,0.7323577,0.0,0.0,-0.72019553
642456000,-0.6297815,0.673191,-0.036714867,-0.14829169,0.72351605,0.0,0.0,-0.7205918
642504000,-0.6122587,0.68584067,-0.035687305,-0.13579063,0.7140798,0.0,0.0,-0.71889013
642552000,-0.59829605,0.6941099,-0.042145547,-0.11559522,0.70927626,0.0,0.0,-0.71561676
642608000,-0.5781441,0.70808697,-0.030537182,-0.10876716,0.6970295,0.0,0.0,-0.71676046
642656000,-0.56682867,0.715788,-0.037629526,-0.08786394,0.6917452,0.0,0.0,-0.7149338
642704000,-0.54948,0.726251,-0.044402834,-0.06619155,0.68279326,0.0,0.0,-0.7147113
642752000,-0.5355174,0.73317564,-0.052030884,-0.045128714,0.67654246,0.0,0.0,-0.71293676
642800000,-0.52294177,0.7408477,-0.044184227,-0.038903676,0.6690882,0.0,0.0,-0.7130347
642856000,-0.50352603,0.7514132,-0.04945302,-0.015861845,0.6577849,0.0,0.0,-0.7146577
642904000,-0.48599917,0.75976795,-0.057440523,0.0066031544,0.64761853,0.0,0.0,-0.7167135
642952000,-0.47502542,0.76519865,-0.06459343,0.020745823,0.64020956,0.0,0.0,-0.71760863
643000000,-0.4610628,0.7714138,-0.061779153,0.019750519,0.63301975,0.0,0.0,-0.7153977
643056000,-0.44069108,0.77915114,-0.07249709,0.038176067,0.6214582,0.0,0.0,-0.716951
643104000,-0.42150363,0.7851369,-0.08081402,0.060175385,0.6110712,0.0,0.0,-0.71998537
643152000,-0.4098988,0.7885455,-0.0891309,0.07832575,0.60342085,0.0,0.0,-0.723673
643208000,-0.38755858,0.7958083,-0.09231542,0.07327974,0.5939672,0.0,0.0,-0.7202829
643256000,-0.37359595,0.7973222,-0.10967151,0.080112316,0.5880744,0.0,0.0,-0.7249188
643304000,-0.35627124,0.80065066,-0.12390774,0.08079408,0.58058405,0.0,0.0,-0.7290094
643352000,-0.3423086,0.8062585,-0.11745289,0.070525505,0.5754808,0.0,0.0,-0.723179
643400000,-0.32834598,0.80821353,-0.12713121,0.07191772,0.5704878,0.0,0.0,-0.7265384
643456000,-0.30600578,0.8122316,-0.13526666,0.07308341,0.56270915,0.0,0.0,-0.731243
643504000,-0.2864581,0.81810415,-0.13063295,0.065694615,0.5561698,0.0,0.0,-0.72931707
643552000,-0.27249548,0.819604,-0.1372025,0.07059587,0.55176175,0.0,0.0,-0.73417187
643608000,-0.25015527,0.826665,-0.12675126,0.061266296,0.5447987,0.0,0.0,-0.72765535
643656000,-0.23619263,0.8278454,-0.13275053,0.06673448,0.5409212,0.0,0.0,-0.73042953
643704000,-0.21664493,0.8334964,-0.122089416,0.061593547,0.5353356,0.0,0.0,-0.7232745
643752000,-0.20268229,0.83399546,-0.1296155,0.067590296,0.53205544,0.0,0.0,-0.72736484
643808000,-0.18034206,0.8395785,-0.11840476,0.06161309,0.5265853,0.0,0.0,-0.72003174
643848000,-0.16637942,0.83924776,-0.12632875,0.07411155,0.52365226,0.0,0.0,-0.7263777
643904000,-0.14683172,0.84352803,-0.11572163,0.072238795,0.51947135,0.0,0.0,-0.722103
643952000,-0.13286908,0.84672475,-0.105024986,0.07225497,0.5165329,0.0,0.0,-0.71846366
644008000,-0.110528864,0.8470336,-0.11226328,0.08067248,0.51324743,0.0,0.0,-0.72334063
644056000,-0.09656623,0.84959817,-0.10374861,0.07855671,0.5111242,0.0,0.0,-0.7195061
644104000,-0.077018544,0.8522892,-0.094146125,0.07819487,0.50855196,0.0,0.0,-0.7164613
644152000,-0.06305591,0.85420007,-0.08622813,0.07615386,0.50705767,0.0,0.0,-0.7148436
644208000,-0.040715694,0.8533881,-0.094191685,0.08555113,0.5055074,0.0,0.0,-0.72037834
644256000,-0.026753062,0.85435826,-0.08883744,0.08770928,0.50446707,0.0,0.0,-0.7191837
644304000,-0.0072053745,0.85571086,-0.08051452,0.0876309,0.5035844,0.0,0.0,-0.7178453
644352000,0.0067572594,0.8566782,-0.072616026,0.08769468,0.50312924,0.0,0.0,-0.7160058
644408000,0.029097473,0.85735214,-0.06447295,0.08679965,0.5032458,0.0,0.0,-0.7147381
644448000,0.04306011,0.85752636,-0.058681577,0.08796017,0.50345606,0.0,0.0,-0.7154443
644504000,0.062607795,0.8575357,-0.051838186,0.08591387,0.5045435,0.0,0.0,-0.714121
644552000,0.07657043,0.8573972,-0.04450246,0.08722613,0.5052536,0.0,0.0,-0.71368164
644600000,0.09053306,0.8569525,-0.039489247,0.08703145,0.5064568,0.0,0.0,-0.7133377
644648000,0.11287328,0.85568327,-0.034390368,0.08673819,0.50901866,0.0,0.0,-0.7139801
644704000,0.13242097,0.85429597,-0.027638916,0.0883083,0.51148427,0.0,0.0,-0.7152383
644752000,0.14638361,0.8529547,-0.024956288,0.09005841,0.51355135,0.0,0.0,-0.71540725
644808000,0.16872384,0.8506494,-0.018154621,0.09166395,0.51736224,0.0,0.0,-0.7156123
644856000,0.18268648,0.8490065,-0.014648512,0.09123855,0.5202394,0.0,0.0,-0.71513253
644904000,0.20223418,0.8463128,-0.0117913885,0.09138603,0.5246562,0.0,0.0,-0.7148292
644952000,0.21619682,0.84421825,-0.008157463,0.0921892,0.5279489,0.0,0.0,-0.714559
645008000,0.23853704,0.84047246,-0.005346235,0.091757715,0.5340019,0.0,0.0,-0.7140304
645056000,0.25249967,0.83789617,-0.0012518816,0.09352474,0.5377561,0.0,0.0,-0.7146881
645104000,0.27204734,0.8339926,0.0015797939,0.09364953,0.5437679,0.0,0.0,-0.71403664
645152000,0.28600997,0.83129805,0.022315554,0.082600646,0.5492018,0.0,0.0,-0.71082765
645208000,0.30835018,0.8260111,0.024835946,0.08180293,0.5571329,0.0,0.0,-0.7094525
645256000,0.3223128,0.8224825,0.02531627,0.080981046,0.5624265,0.0,0.0,-0.70944613
645304000,0.34186047,0.817208,0.02645675,0.079690166,0.5701935,0.0,0.0,-0.7091277
645352000,0.3558231,0.81318,0.027270483,0.079929724,0.5758523,0.0,0.0,-0.7096097
645408000,0.3781633,0.8058087,0.045803674,0.06713681,0.58657223,0.0,0.0,-0.7096609
645448000,0.37537077,0.80132544,0.045321293,0.067377634,0.59269196,0.0,0.0,-0.70991486
645504000,0.3558231,0.79585254,0.029161682,0.06582822,0.6011946,0.0,0.0,-0.70775926
645552000,0.34186047,0.79190433,0.016679944,0.064890325,0.6069584,0.0,0.0,-0.70671755
645600000,0.32789785,0.7878688,0.020363007,0.05121852,0.6133717,0.0,0.0,-0.7053238
645648000,0.30555764,0.78173476,-0.0040284586,0.048037868,0.62174493,0.0,0.0,-0.7057461
645704000,0.28600997,0.77635884,-0.017674124,0.038641546,0.6288572,0.0,0.0,-0.70605814
645752000,0.27204734,0.772583,-0.026554393,0.032080844,0.63354653,0.0,0.0,-0.70693624
645808000,0.24970713,0.76744926,-0.025883023,0.006139659,0.6405576,0.0,0.0,-0.7060005
645856000,0.23574449,0.7640795,-0.03247737,0.0005586952,0.64430386,0.0,0.0,-0.7073673
645904000,0.21619679,0.7592429,-0.0466654,-0.01010589,0.6490535,0.0,0.0,-0.70948976
645952000,0.20223415,0.75698745,-0.039265204,-0.02978128,0.65156835,0.0,0.0,-0.70993567
646000000,0.18827151,0.7538437,-0.049250532,-0.03601876,0.65421456,0.0,0.0,-0.71071833
646056000,0.16593128,0.74883467,-0.06582863,-0.047349416,0.6577775,0.0,0.0,-0.7129589
646104000,0.14638358,0.7459344,-0.065778874,-0.0714848,0.65889674,0.0,0.0,-0.7154211
646152000,0.13242094,0.7430502,-0.07654753,-0.07747916,0.6603134,0.0,0.0,-0.7164259
646200000,0.11845831,0.7402716,-0.08655946,-0.082463026,0.6615929,0.0,0.0,-0.7166125
646256000,0.09611809,0.7376737,-0.08874307,-0.10766372,0.66058356,0.0,0.0,-0.71992785
646304000,0.07657041,0.73475367,-0.09894354,-0.11069481,0.6618866,0.0,0.0,-0.7196255
646352000,0.06260777,0.7331684,-0.103654884,-0.10917211,0.6631751,0.0,0.0,-0.7169662
646400000,0.04864514,0.7316589,-0.10888553,-0.108159594,0.6641692,0.0,0.0,-0.71657
646456000,0.026304925,0.7326394,-0.09586043,-0.11579933,0.66380787,0.0,0.0,-0.7135109
646504000,0.006757237,0.73202276,-0.09824009,-0.11032149,0.66507196,0.0,0.0,-0.71173537
646552000,-0.007205397,0.73220783,-0.09694187,-0.101467304,0.6664671,0.0,0.0,-0.7095591
646600000,-0.02116803,0.7325925,-0.09551763,-0.09280688,0.66751134,0.0,0.0,-0.70922005
646648000,-0.043508247,0.7328958,-0.09854548,-0.08865563,0.6673026,0.0,0.0,-0.7119328
646704000,-0.06305593,0.7360069,-0.081254035,-0.09498254,0.66533446,0.0,0.0,-0.7129784
646752000,-0.07701857,0.7378172,-0.07288988,-0.09269299,0.66462076,0.0,0.0,-0.71256626
646800000,-0.0909812,0.7397243,-0.064365506,-0.09125828,0.6635789,0.0,0.0,-0.71272045
646848000,-0.113321416,0.742634,-0.05485743,-0.09590182,0.66052115,0.0,0.0,-0.7143948
646904000,-0.13286911,0.7456892,-0.04233986,-0.09673749,0.65787286,0.0,0.0,-0.7144056
646952000,-0.14683175,0.74798,-0.033003274,-0.093810536,0.65622884,0.0,0.0,-0.71376693
647000000,-0.16079439,0.75022334,-0.028116044,-0.0865331,0.6548942,0.0,0.0,-0.7121382
647056000,-0.18313462,0.7541149,-0.006531674,-0.09439208,0.64989084,0.0,0.0,-0.71396035
647104000,-0.20268232,0.75766855,-0.0014908073,-0.08730926,0.6467714,0.0,0.0,-0.7133518
647152000,-0.21664496,0.76040936,0.002974008,-0.07935888,0.64457035,0.0,0.0,-0.7112525
647200000,-0.2306076,0.76329523,0.0073242355,-0.071353406,0.6420555,0.0,0.0,-0.7103341
647248000,-0.2529478,0.76818055,0.012912458,-0.06449783,0.63684523,0.0,0.0,-0.71019197
647304000,-0.27249548,0.7727582,0.018969199,-0.05506145,0.63202304,0.0,0.0,-0.7100213
647352000,-0.2864581,0.7762011,0.023516433,-0.04627661,0.6283448,0.0,0.0,-0.70992035
647408000,-0.3087983,0.78191805,0.03121159,-0.0355019,0.6215863,0.0,0.0,-0.71005493
647456000,-0.32276094,0.7856353,0.036710802,-0.02621771,0.61704314,0.0,0.0,-0.70988375
647504000,-0.3423086,0.7910536,0.043233328,-0.016830428,0.6099852,0.0,0.0,-0.709899
647552000,-0.35627124,0.7950527,0.048271954,-0.007928112,0.6045644,0.0,0.0,-0.7099076
647608000,-0.37861145,0.80201226,0.049771383,-0.006961812,0.5951896,0.0,0.0,-0.71057147
647656000,-0.39257407,0.8077152,0.031014398,0.0059607965,0.58872634,0.0,0.0,-0.70813084
647704000,-0.41212174,0.814378,0.028392319,0.0003443242,0.57963973,0.0,0.0,-0.7087887
647752000,-0.42608437,0.8192992,0.025440333,-0.0029611574,0.57279384,0.0,0.0,-0.7093719
647808000,-0.44842458,0.8273159,0.021657303,-0.009332871,0.5612416,0.0,0.0,-0.70982504
647856000,-0.44519812,0.8323515,0.02042934,-0.011814733,0.55374545,0.0,0.0,-0.71039367
647904000,-0.42565045,0.8390442,0.018179907,-0.018141275,0.54345673,0.0,0.0,-0.71105224
647952000,-0.41168782,0.8435834,0.01665044,-0.020111963,0.536363,0.0,0.0,-0.7111723
648000000,-0.3977252,0.8478826,0.015953131,-0.022683617,0.5294583,0.0,0.0,-0.71133894
648048000,-0.375385,0.854328,0.014939386,-0.0271645,0.51880884,0.0,0.0,-0.7114564
648104000,-0.35583732,0.8595683,0.0148438355,-0.028708925,0.5099978,0.0,0.0,-0.7107047
648152000,-0.3418747,0.8631068,0.014618262,-0.028785633,0.5039885,0.0,0.0,-0.70967853
648208000,-0.31953448,0.8687377,-0.0069385055,-0.018837307,0.4948654,0.0,0.0,-0.70726436
648256000,-0.30557185,0.8718145,-0.009319869,-0.016401513,0.48947278,0.0,0.0,-0.70590985
648304000,-0.28602418,0.87575114,-0.016735524,-0.014855663,0.48224396,0.0,0.0,-0.7064571
648352000,-0.27206156,0.8784323,-0.016601559,-0.014880568,0.47734648,0.0,0.0,-0.70669454
648408000,-0.24972135,0.88234645,-0.01875819,-0.01561853,0.46996698,0.0,0.0,-0.70673215
648456000,-0.2357587,0.88465226,-0.01703026,-0.015231142,0.4656913,0.0,0.0,-0.7066274
648504000,-0.216211,0.8876159,-0.014702123,-0.016162338,0.46006572,0.0,0.0,-0.70692134
648552000,-0.20224836,0.8895546,-0.0130658755,-0.016373519,0.45634827,0.0,0.0,-0.70653677
648600000,-0.18828572,0.8907986,-0.032935023,-0.0038213138,0.453187,0.0,0.0,-0.70770556
648656000,-0.1659455,0.8934286,-0.031437833,-0.006410514,0.4480578,0.0,0.0,-0.7060879
648704000,-0.1463978,0.8954035,-0.031009119,-0.00784909,0.44410515,0.0,0.0,-0.7059503
648752000,-0.13243516,0.8967114,-0.028937254,-0.007522367,0.4416046,0.0,0.0,-0.7063925
648808000,-0.11009494,0.8985093,-0.026279967,-0.009000279,0.43807453,0.0,0.0,-0.7060723
648848000,-0.09613231,0.89945316,-0.024857627,-0.0089347735,0.4362181,0.0,0.0,-0.706232
648904000,-0.07658462,0.90059835,-0.021299388,-0.007988968,0.4340566,0.0,0.0,-0.7066657
648952000,-0.06262199,0.9012494,-0.019238899,-0.008136377,0.43279687,0.0,0.0,-0.7066558
649000000,-0.048659354,0.9010892,-0.036405362,0.0024512985,0.43209592,0.0,0.0,-0.70779413
649056000,-0.02631914,0.90169835,-0.034773637,0.0007072167,0.4309646,0.0,0.0,-0.70703286
649104000,-0.0067714527,0.9019941,-0.032527234,0.0004794665,0.43052104,0.0,0.0,-0.7068474
649152000,0.007191181,0.90206575,-0.030736802,0.000111823865,0.43050265,0.0,0.0,-0.7064929
649208000,0.029531395,0.9019533,-0.026733467,0.0003611597,0.43100527,0.0,0.0,-0.7058373
649256000,0.04349403,0.9015872,-0.027650595,0.0027446686,0.4317041,0.0,0.0,-0.7053196
649304000,0.06304172,0.9010249,-0.025358269,0.0020433832,0.43302077,0.0,0.0,-0.70471865
649352000,0.07700435,0.9004646,-0.023356847,0.0038510826,0.43428475,0.0,0.0,-0.70443326
649400000,0.090966985,0.8997977,-0.020334492,0.0063793254,0.43578652,0.0,0.0,-0.705358
649456000,0.1133072,0.8984156,-0.018838573,0.0054120254,0.4387085,0.0,0.0,-0.7047896
649504000,0.1328549,0.8959046,-0.040212963,0.015879195,0.44213766,0.0,0.0,-0.7068243
649552000,0.14681754,0.8947997,-0.03685658,0.018037029,0.4445781,0.0,0.0,-0.7067697
649608000,0.16915776,0.8926307,-0.035338834,0.017357271,0.44906607,0.0,0.0,-0.7056345
649656000,0.1831204,0.89116865,-0.031954717,0.019234834,0.4521364,0.0,0.0,-0.7060203
649704000,0.2026681,0.8888467,-0.02916306,0.01869429,0.4568935,0.0,0.0,-0.7064718
649752000,0.21663074,0.88704,-0.026032785,0.019239897,0.46055627,0.0,0.0,-0.7060588
649808000,0.23897097,0.883785,-0.022648577,0.019130398,0.4669531,0.0,0.0,-0.7064566
649848000,0.2529336,0.88151866,-0.021170728,0.01971797,0.47126207,0.0,0.0,-0.70661443
649904000,0.27248126,0.87811035,-0.018399455,0.020045927,0.47768384,0.0,0.0,-0.7075106
649952000,0.2864439,0.87549394,-0.015976798,0.020090094,0.4825469,0.0,0.0,-0.7068768
650008000,0.3087841,0.87091565,-0.013359641,0.020798005,0.49081042,0.0,0.0,-0.70653456
650056000,0.32274672,0.8678263,-0.011896054,0.021283343,0.4962691,0.0,0.0,-0.7068668
650104000,0.33508843,0.8632023,-0.010502775,0.02177419,0.50427914,0.0,0.0,-0.7077894
650152000,0.32888386,0.8598359,-0.008898786,0.023218326,0.50996464,0.0,0.0,-0.70803547
650208000,0.32023433,0.8544788,-0.007523315,0.024427978,0.5188571,0.0,0.0,-0.70775056
650256000,0.3133382,0.85119367,-0.0066360515,0.02291696,0.52430916,0.0,0.0,-0.7069158
650304000,0.30590868,0.8465494,-0.0080614425,0.025409633,0.53164226,0.0,0.0,-0.7068927
650352000,0.30065745,0.84330153,-0.006430489,0.027213454,0.5367128,0.0,0.0,-0.70653796
650400000,0.29431894,0.8400878,-0.0062844167,0.026395883,0.54177153,0.0,0.0,-0.706776
650456000,0.2864061,0.83500534,-0.0052509797,0.026425226,0.5495818,0.0,0.0,-0.7071783
650504000,0.27910194,0.8306289,-0.0028372246,0.027903093,0.55611974,0.0,0.0,-0.7072256
650552000,0.27348623,0.8275274,-0.0030664518,0.027320027,0.5607518,0.0,0.0,-0.7065174
650600000,0.26807103,0.8244641,-0.0008819913,0.02884731,0.56517786,0.0,0.0,-0.7063613
650656000,0.26042128,0.81963545,-8.005778e-05,0.02841213,0.57218045,0.0,0.0,-0.7064136
650704000,0.2530404,0.81548625,7.8689234e-05,0.027582915,0.5781188,0.0,0.0,-0.70638156
650752000,0.24843581,0.812553,0.0019304926,0.028901521,0.5821672,0.0,0.0,-0.70650125
650808000,0.24056908,0.80795467,0.0012952565,0.02698815,0.58862484,0.0,0.0,-0.70611405
650856000,0.23490211,0.80512494,0.0017817843,0.027898062,0.592446,0.0,0.0,-0.70683044
650904000,0.228976,0.8012266,0.001909242,0.027904587,0.597707,0.0,0.0,-0.70723164
650952000,0.22378117,0.7984977,0.0022145328,0.027352167,0.6013721,0.0,0.0,-0.7073581
651008000,0.21592234,0.79422,0.0018774413,0.026440963,0.60705197,0.0,0.0,-0.70635307
651056000,0.21130508,0.7915975,0.0025561408,0.027047187,0.61043864,0.0,0.0,-0.7065493
651104000,0.20522396,0.78798753,-0.00067043403,0.027470386,0.6150776,0.0,0.0,-0.7070603
651152000,0.20113769,0.7854682,-0.0005628072,0.026318185,0.61834186,0.0,0.0,-0.7077227
651208000,0.19306733,0.78152394,0.0015419049,0.027116226,0.62328386,0.0,0.0,-0.7073703
651256000,0.1875383,0.7791251,0.0013567191,0.026455335,0.6263085,0.0,0.0,-0.70678675
651304000,0.18105634,0.77584404,0.00017146023,0.025648138,0.6304032,0.0,0.0,-0.707314
651352000,0.17608973,0.77355564,0.0023836032,0.027549703,0.6331248,0.0,0.0,-0.70763075
651408000,0.17011836,0.770006,0.0027080846,0.026412876,0.6374839,0.0,0.0,-0.7071303
651456000,0.17361404,0.7675684,0.019333595,0.011703176,0.6405685,0.0,0.0,-0.7060704
651504000,0.16784844,0.76447177,0.019242352,0.010874355,0.6442782,0.0,0.0,-0.70501214
651552000,0.16099942,0.76234627,0.018474564,0.01048747,0.64682055,0.0,0.0,-0.70506644
651600000,0.15695228,0.7602939,0.017540185,0.010684747,0.64925444,0.0,0.0,-0.7052661
651648000,0.14747322,0.75711894,0.01624721,0.010784524,0.652986,0.0,0.0,-0.7051993
651704000,0.14140566,0.7544556,0.014861143,0.011335306,0.6560849,0.0,0.0,-0.70605016
651752000,0.13589908,0.7526201,0.014290912,0.012259622,0.65818566,0.0,0.0,-0.7062623
651800000,0.13073315,0.7508864,0.011393119,0.0135311335,0.66019446,0.0,0.0,-0.7064447
651848000,0.12381094,0.748159,0.011143402,0.01312964,0.6632959,0.0,0.0,-0.7061297
651904000,0.11753317,0.74592835,0.010014401,0.013908399,0.66580564,0.0,0.0,-0.706365
651952000,0.11048646,0.7444098,0.008871669,0.013825827,0.66752094,0.0,0.0,-0.7063235
652008000,0.10262873,0.74208564,0.0075060995,0.013772317,0.6701216,0.0,0.0,-0.70635813
652048000,0.105947584,0.7403189,0.022621322,-0.0012847527,0.6718739,0.0,0.0,-0.70686847
652104000,0.10106894,0.7383633,0.021862691,-0.0012175969,0.6740475,0.0,0.0,-0.7064677
652152000,0.094877,0.737121,0.018544013,-0.0029260574,0.6755,0.0,0.0,-0.7061056
652200000,0.08918601,0.7358257,0.02003657,-0.00018080354,0.6768745,0.0,0.0,-0.7065789
652256000,0.08018908,0.7340981,0.014051853,-0.0032687613,0.6788901,0.0,0.0,-0.7068514
652304000,0.07021983,0.73258024,0.015777515,0.0010542764,0.680497,0.0,0.0,-0.7066619
652352000,0.0669023,0.73168063,0.0115982285,-0.0014473867,0.6815474,0.0,0.0,-0.70663935
652400000,0.064526826,0.73076886,0.011768269,0.0016912216,0.68252146,0.0,0.0,-0.7064862
652448000,0.054746047,0.7294654,0.009985632,0.0013614252,0.68394345,0.0,0.0,-0.7068544
652504000,0.049897008,0.7284914,0.0069412845,0.00046639322,0.68501955,0.0,0.0,-0.70705235
652552000,0.04481201,0.7278613,0.008171973,0.002991081,0.6856692,0.0,0.0,-0.706784
652600000,0.03913212,0.7272564,0.007164579,0.0041489946,0.68631595,0.0,0.0,-0.7073747
652656000,0.048699524,0.725984,0.02098044,-0.012683624,0.68727446,0.0,0.0,-0.7075613
652704000,0.037454404,0.7251408,0.02098474,-0.009957517,0.6882087,0.0,0.0,-0.7065149
652752000,0.032916598,0.72471726,0.017106902,-0.011908493,0.688731,0.0,0.0,-0.70557576
652808000,0.024022976,0.72405034,0.01898445,-0.010246162,0.68940973,0.0,0.0,-0.7048141
652856000,0.023736058,0.7237069,0.017764917,-0.0082854815,0.6898291,0.0,0.0,-0.70516723
652904000,0.015359139,0.72344345,0.016281202,-0.007120942,0.69015497,0.0,0.0,-0.70501435
652952000,0.01407502,0.72329247,0.011098474,-0.009522884,0.690387,0.0,0.0,-0.70553905
653000000,0.00011238642,0.7231784,0.012199252,-0.005860319,0.6905287,0.0,0.0,-0.7063415
653056000,0.016293466,0.72298735,0.008918003,-0.007185348,0.6907664,0.0,0.0,-0.70632946
653104000,0.0,0.7228883,0.00580501,-0.008947476,0.6908826,0.0,0.0,-0.7063547
653152000,0.005585054,0.7228582,0.0075267516,-0.0045052893,0.6909408,0.0,0.0,-0.70657635
653208000,0.010825664,0.7225981,0.0016071517,-0.008394198,0.6912156,0.0,0.0,-0.70700365
653256000,0.0,0.72253406,0.003431161,-0.0055052717,0.6913049,0.0,0.0,-0.7074879
653304000,0.0,0.7225327,0.0036795342,-0.0058126687,0.6913026,0.0,0.0,-0.7070129
653352000,0.0,0.7225294,0.0043292656,-0.0039596893,0.6913153,0.0,0.0,-0.70610523
653408000,-0.016410446,0.7227788,-0.0017311496,-0.00893108,0.69101965,0.0,0.0,-0.70608723
653448000,-0.0024480997,0.72290546,0.0029494006,-0.0030838705,0.6909338,0.0,0.0,-0.7063941
653504000,0.0,0.7229146,-0.00010753377,-0.00541148,0.69091624,0.0,0.0,-0.7061807
653552000,0.0,0.72290957,-0.0026878086,-0.007698355,0.69089454,0.0,0.0,-0.70610034
653600000,0.0,0.7229142,-0.000913997,-0.005021139,0.6909189,0.0,0.0,-0.7059384
653648000,0.0,0.7229038,-0.0040144958,-0.0064390916,0.69090706,0.0,0.0,-0.7061297
653704000,0.011546109,0.72272515,0.010649603,-0.021635361,0.6907147,0.0,0.0,-0.7073752
653752000,0.0,0.72260356,0.013878272,-0.019382058,0.69085157,0.0,0.0,-0.70678705
653800000,0.0,0.7226365,0.0121241715,-0.019688277,0.69084144,0.0,0.0,-0.70678586
653856000,0.0,0.72266436,0.010408992,-0.020219857,0.690825,0.0,0.0,-0.70638007
653904000,-0.013962634,0.722748,0.011372172,-0.017486779,0.6907968,0.0,0.0,-0.70658916
653952000,-0.010173459,0.72298574,0.009680506,-0.017079847,0.69058394,0.0,0.0,-0.7067933
654000000,0.0,0.723055,0.008269674,-0.017674748,0.69051486,0.0,0.0,-0.70680535
654056000,0.0,0.7230428,0.009475501,-0.01330993,0.69061,0.0,0.0,-0.7061952
654104000,-0.013962634,0.72317743,0.0060568745,-0.014375334,0.6904861,0.0,0.0,-0.7067494
654152000,-0.010173459,0.72340316,0.0041966606,-0.014178079,0.69026756,0.0,0.0,-0.7062604
654208000,-0.00837758,0.72347957,0.0057048975,-0.011006578,0.69023454,0.0,0.0,-0.7066093
654256000,-0.015756326,0.72368336,0.0055137607,-0.009277172,0.6900478,0.0,0.0,-0.706196
654304000,0.0,0.7238263,0.0012397392,-0.0126934685,0.6898644,0.0,0.0,-0.7062587
654352000,-0.013962634,0.7239232,0.0009764531,-0.012396008,0.68976855,0.0,0.0,-0.70545316
654408000,-0.0017933184,0.72417706,0.0034219471,-0.008273968,0.68955606,0.0,0.0,-0.7051227
654456000,-0.00837758,0.7242213,-0.0008463338,-0.011479758,0.6894716,0.0,0.0,-0.705955
654504000,-0.010166904,0.7244937,-0.00091907784,-0.011507881,0.6891848,0.0,0.0,-0.7061741
654552000,-0.019045463,0.7247239,0.00093882304,-0.008994232,0.6889801,0.0,0.0,-0.70687616
654608000,-0.0134625845,0.72476184,-0.01699847,0.004681875,0.6887739,0.0,0.0,-0.70726454
654656000,-0.027425218,0.725017,-0.018076412,0.0039474806,0.68848234,0.0,0.0,-0.70691395
654704000,-0.016703779,0.72556233,-0.015730685,0.006545984,0.6879455,0.0,0.0,-0.70618916
654752000,-0.013911253,0.7257197,-0.01608622,0.005399413,0.6877812,0.0,0.0,-0.7060069
654808000,-0.0059104543,0.7260266,-0.016951745,0.002633681,0.6874526,0.0,0.0,-0.70601445
654848000,0.0,0.7261203,-0.013303733,0.005421417,0.6874175,0.0,0.0,-0.7059467
654904000,-0.013962634,0.72620344,-0.014087716,0.0016707332,0.6873335,0.0,0.0,-0.7060071
654952000,-0.010806058,0.72642744,-0.0137070585,0.00028246766,0.68710643,0.0,0.0,-0.705862
655008000,0.0,0.72655094,-0.00966003,0.0022364454,0.6870411,0.0,0.0,-0.7058876
655056000,0.0,0.7265667,-0.008461415,0.0014815567,0.6870423,0.0,0.0,-0.70521355
655104000,0.0,0.7265369,-0.010762974,-0.0027621351,0.6870375,0.0,0.0,-0.70535487
655152000,0.0,0.72653794,-0.01069768,-0.0029951786,0.6870365,0.0,0.0,-0.70539933
655200000,0.0,0.7265761,-0.0077095907,-0.0013215061,0.68704146,0.0,0.0,-0.70565313
655248000,0.0,0.7265529,-0.0096539445,-0.0031349622,0.68703556,0.0,0.0,-0.70568514
655304000,0.0,0.72655874,-0.009230074,-0.0040829005,0.6870302,0.0,0.0,-0.70512253
655352000,0.0,0.72658503,-0.0068525067,-0.0019636997,0.68703955,0.0,0.0,-0.7049283
655400000,0.0,0.72657716,-0.007646687,-0.0028576534,0.68703645,0.0,0.0,-0.70505434
655456000,0.0,0.7265693,-0.0083667515,-0.004333427,0.6870286,0.0,0.0,-0.705986
655504000,0.013962634,0.72648114,-0.007671327,-0.0038421995,0.6871329,0.0,0.0,-0.7063226
655552000,0.010806058,0.7262704,-0.0071758763,-0.0033571566,0.6873635,0.0,0.0,-0.70573455
655600000,0.0,0.7262232,-0.0060531287,-0.0028025908,0.6874266,0.0,0.0,-0.70610416
655648000,0.016393261,0.72599083,-0.0054764976,-0.0024269235,0.6876783,0.0,0.0,-0.70597947
655704000,0.0,0.72585696,-0.005670104,-0.0029104103,0.68781614,0.0,0.0,-0.7054939
655752000,0.005585054,0.7258485,-0.004687612,-0.0014307222,0.6878371,0.0,0.0,-0.7055639
655808000,0.010810355,0.7255566,-0.0038903886,-0.001710287,0.6881494,0.0,0.0,-0.70520926
655856000,0.013602881,0.7254385,-0.0031174172,-0.00087870803,0.6882794,0.0,0.0,-0.7051009
655904000,0.006966545,0.72515225,-0.004022395,-0.00069270295,0.68857646,0.0,0.0,-0.7060909
655952000,0.020238446,0.7249651,-0.003045016,-0.0005144138,0.68877864,0.0,0.0,-0.70623684
656008000,0.019600123,0.7245851,-0.0022935877,-0.00047231693,0.6891814,0.0,0.0,-0.7067181
656056000,0.0056374893,0.7244122,-0.0019038985,0.00026581643,0.6893644,0.0,0.0,-0.7068684
656104000,0.015163694,0.72413987,-0.0017485728,0.00011015014,0.68965095,0.0,0.0,-0.7071104
656152000,0.012371487,0.7239976,-0.0010006074,0.00026770937,0.68980175,0.0,0.0,-0.7072683
656208000,0.023097467,0.72360766,-0.0007446011,0.00081698486,0.69021064,0.0,0.0,-0.7071618
656248000,0.011601385,0.72335094,-0.0016734625,0.001326378,0.6904774,0.0,0.0,-0.70733905
656304000,0.019978965,0.72312295,-0.0015878765,0.0015859512,0.69071573,0.0,0.0,-0.70730007
656352000,0.017803976,0.7229058,-0.0003547818,0.0014523446,0.6909449,0.0,0.0,-0.70665634
656400000,0.01404498,0.72264105,1.9475503e-05,0.0015535795,0.6912218,0.0,0.0,-0.70628387
656456000,0.011475898,0.7222366,-0.0004914994,0.00116951,0.691645,0.0,0.0,-0.705816
656504000,0.019853478,0.7220106,8.328491e-05,0.0015705592,0.6918802,0.0,0.0,-0.70654964
656552000,0.006689433,0.72182155,-0.00028363764,0.0010401156,0.69207835,0.0,0.0,-0.7062926
656608000,0.011971345,0.7214978,-0.0005294044,0.0021325354,0.6924133,0.0,0.0,-0.70635635
656656000,0.014763871,0.7213593,7.0853304e-05,0.0026623171,0.69255596,0.0,0.0,-0.7065779
656704000,0.006496938,0.72107506,-0.0006494123,0.0024282413,0.6928524,0.0,0.0,-0.70632154
656752000,0.020423004,0.7208884,0.0005389319,0.0025210066,0.69304645,0.0,0.0,-0.70636815
656800000,0.017630933,0.72067094,0.00065010577,0.0027773005,0.69327146,0.0,0.0,-0.7060279
656848000,0.0056644753,0.72032386,0.0008628198,0.0025780846,0.6936326,0.0,0.0,-0.70567364
656904000,0.01517118,0.72004914,0.0007945897,0.002701119,0.6939174,0.0,0.0,-0.70529926
656952000,0.0012112097,0.7199353,0.00093584164,0.0026554884,0.69403553,0.0,0.0,-0.7051206
657008000,0.01528728,0.7196774,0.0008103379,0.0029548404,0.69430184,0.0,0.0,-0.7057444
657056000,0.018079806,0.7194909,0.0016093543,0.0026413116,0.694495,0.0,0.0,-0.7062205
657104000,0.005726357,0.719203,0.0012565529,0.0025606854,0.6947942,0.0,0.0,-0.70584184
657152000,0.01968899,0.71902686,0.0009524053,0.0027705585,0.69497615,0.0,0.0,-0.705668
657208000,0.0,0.7188127,0.001270687,0.0030041272,0.6951962,0.0,0.0,-0.70630366
657248000,0.013962634,0.71871454,0.0017999528,0.0029514234,0.69529676,0.0,0.0,-0.7061936
657304000,0.0052629146,0.7184516,0.0015406122,0.0021996996,0.6955718,0.0,0.0,-0.70654607
657352000,0.019225549,0.7182821,0.0010669347,0.002547753,0.6957465,0.0,0.0,-0.7064397
657400000,0.0069834376,0.7180864,0.0020543744,0.0024680253,0.69594663,0.0,0.0,-0.70566064
657456000,0.00837758,0.7180268,0.0021305783,0.0036198918,0.6960028,0.0,0.0,-0.7058903
657504000,0.010848485,0.717747,0.0017134028,0.0032958654,0.6962941,0.0,0.0,-0.70637095
657552000,0.008059278,0.717659,0.0026842935,0.0029001697,0.69638354,0.0,0.0,-0.70586693
657608000,0.0086870035,0.71734846,0.002547346,0.003366425,0.6967018,0.0,0.0,-0.7054865
657656000,0.0,0.71731275,0.0019142983,0.003343205,0.69674075,0.0,0.0,-0.70549244
657704000,0.0,0.7173142,0.0012750613,0.002921782,0.69674253,0.0,0.0,-0.70569026
657752000,0.013962634,0.7172167,0.001409035,0.0030803434,0.696842,0.0,0.0,-0.70540684
657800000,0.01084901,0.7169979,0.0011689018,0.0029958428,0.6970679,0.0,0.0,-0.70516324
657856000,0.0,0.7169394,0.0010402956,0.0024758729,0.6971304,0.0,0.0,-0.704163
657904000,0.0,0.71693957,0.0008569921,0.0027151052,0.69712955,0.0,0.0,-0.7056913
657952000,0.0,0.71693975,0.00070802204,0.002245426,0.69713116,0.0,0.0,-0.7055317
658008000,0.00837758,0.71690446,0.000935071,0.0031105727,0.6971639,0.0,0.0,-0.7051532
658048000,0.01643621,0.7166992,0.0007570069,0.0024521938,0.6973778,0.0,0.0,-0.7057984
658104000,0.0,0.71656466,0.00019229882,0.002011452,0.69751775,0.0,0.0,-0.7060538
658152000,0.0,0.716564,0.000982457,0.0022283269,0.6975171,0.0,0.0,-0.7062154
658200000,0.0,0.7165644,0.00057854864,0.0025299422,0.69751614,0.0,0.0,-0.7065403
658256000,0.0,0.71656466,-0.000120751436,0.0018311422,0.6975183,0.0,0.0,-0.706541
658304000,0.0,0.7165646,0.00030816122,0.0016177292,0.6975189,0.0,0.0,-0.7063954
658352000,0.0,0.71656466,-2.4090194e-05,0.0021141826,0.69751745,0.0,0.0,-0.70622665
658408000,0.0,0.7165645,0.0005002886,0.0021809407,0.69751734,0.0,0.0,-0.706379
658456000,0.0,0.71656466,2.5275605e-05,0.001572563,0.6975189,0.0,0.0,-0.70644754
658504000,0.0,0.71656466,-0.00017318738,0.0008969231,0.6975201,0.0,0.0,-0.70604146
658552000,0.0,0.7165644,-0.00056226505,0.00090351887,0.69752014,0.0,0.0,-0.7063158
658600000,0.0,0.71656466,-0.00027693823,0.0009522509,0.6975201,0.0,0.0,-0.70688367
658656000,0.0,0.71656466,-0.000118575284,0.0012630381,0.69751966,0.0,0.0,-0.70574176
658704000,0.0,0.71656466,-0.00011737082,0.0009997515,0.69752,0.0,0.0,-0.7057648
658752000,0.0,0.71656466,-1.7681714e-05,0.0011186535,0.6975199,0.0,0.0,-0.7054884
658808000,0.0,0.71656466,0.00020067736,0.0007652303,0.69752026,0.0,0.0,-0.70493054
658856000,0.0,0.71656466,-0.00014280723,0.0005269054,0.6975205,0.0,0.0,-0.7047326
658904000,0.0,0.7165645,-0.0005430086,0.00034982013,0.6975207,0.0,0.0,-0.7052814
658952000,0.0,0.7165639,-0.0010541902,0.00014550345,0.6975206,0.0,0.0,-0.7053574
659000000,0.0,0.7165469,-0.004843074,0.007631041,0.6974804,0.0,0.0,-0.69288117
659048000,0.0,0.71638405,-0.015600614,0.018222896,0.69729376,0.0,0.0,-0.67352164
659104000,0.0,0.71609277,-0.025251592,0.028174859,0.69697905,0.0,0.0,-0.66976273
659152000,0.0,0.71582144,-0.031676512,0.03570777,0.69664997,0.0,0.0,-0.6768219
659200000,0.0,0.7154382,-0.039047856,0.041934438,0.69632244,0.0,0.0,-0.6845056
659248000,0.0,0.71463686,-0.051113706,0.053190537,0.69559497,0.0,0.0,-0.6880414
659304000,0.0,0.71504164,-0.045422062,0.047865786,0.69596064,0.0,0.0,-0.6876415
659352000,0.0,0.71460766,-0.051496867,0.05365599,0.69556093,0.0,0.0,-0.691056
659408000,0.0,0.7135743,-0.06364189,0.06600018,0.69455415,0.0,0.0,-0.69445485
659456000,0.0,0.7129515,-0.06993893,0.07260836,0.69392854,0.0,0.0,-0.69863975
659504000,0.0,0.71173865,-0.080796786,0.08381095,0.69273067,0.0,0.0,-0.70095897
659552000,0.0,0.7109952,-0.086754866,0.09075394,0.6918983,0.0,0.0,-0.70455396
659600000,0.0,0.7102729,-0.092168,0.09706594,0.691083,0.0,0.0,-0.70622563
659656000,0.0,0.7084395,-0.104691565,0.10950755,0.68931943,0.0,0.0,-0.7074979
659704000,0.0,0.7068385,-0.11447984,0.11969326,0.6877116,0.0,0.0,-0.70744735
659752000,0.0,0.7075407,-0.11026717,0.116412215,0.6882409,0.0,0.0,-0.7032112
659800000,0.0,0.7085535,-0.103877105,0.11173796,0.6889675,0.0,0.0,-0.6974069
659856000,0.0,0.7096672,-0.09632901,0.10713018,0.6896494,0.0,0.0,-0.689456
659904000,0.0,0.71241754,-0.074627064,0.08801527,0.69220334,0.0,0.0,-0.6777921
659952000,0.0,0.71320665,-0.06707168,0.08263441,0.6928269,0.0,0.0,-0.6800757
660008000,0.0,0.7140805,-0.057519477,0.077235796,0.6934083,0.0,0.0,-0.6790562
660056000,0.0,0.71458036,-0.051302724,0.0726399,0.6938778,0.0,0.0,-0.6839517
660104000,0.0,0.7151129,-0.043721225,0.06731559,0.6943851,0.0,0.0,-0.68286806
660152000,0.0,0.7162114,-0.020993616,0.048345234,0.6958903,0.0,0.0,-0.6827537
660200000,0.0,0.71637565,-0.014894153,0.04503863,0.69610023,0.0,0.0,-0.6874603
660248000,0.0,0.7165072,-0.007199982,0.039987504,0.69639546,0.0,0.0,-0.6843352
660304000,0.0,0.7165527,0.0012117142,0.034870144,0.69665974,0.0,0.0,-0.68698436
660352000,0.0,0.7162034,0.022743639,0.016820196,0.69731814,0.0,0.0,-0.69323665
660408000,0.0,0.71589804,0.030820405,0.0109261265,0.6974387,0.0,0.0,-0.7125421
660448000,0.0,0.7156575,0.03589931,0.007296426,0.69749004,0.0,0.0,-0.7257433
660504000,0.0,0.714705,0.05113941,-0.008159785,0.6975062,0.0,0.0,-0.731223
660552000,0.0,0.7148363,0.049344603,-0.0050908998,0.6975301,0.0,0.0,-0.7279885
660608000,0.0,0.7150821,0.045766767,-0.00038539566,0.6975406,0.0,0.0,-0.721612
660656000,0.0,0.71525,0.043155205,0.00396368,0.6975238,0.0,0.0,-0.7211119
660704000,0.0,0.7143501,0.05582015,-0.0075548105,0.69751775,0.0,0.0,-0.7207605
660752000,0.0,0.7146119,0.05248283,-0.0028996153,0.69754356,0.0,0.0,-0.72103393
660800000,0.0,0.7149021,0.048476975,0.00072236755,0.69754165,0.0,0.0,-0.7215086
660848000,0.0,0.71389234,0.0612586,-0.011508421,0.6974758,0.0,0.0,-0.7211253
660904000,0.0,0.7142114,0.05752906,-0.008394449,0.6975113,0.0,0.0,-0.7205387
660952000,0.0,0.71448255,0.054155484,-0.005470085,0.6975328,0.0,0.0,-0.72095716
661008000,0.0,0.7147629,0.050421722,-0.0022828202,0.6975431,0.0,0.0,-0.7180278
661056000,0.0,0.71381354,0.06211291,-0.014209099,0.69743127,0.0,0.0,-0.7216553
661104000,0.0,0.714204,0.057568975,-0.011620895,0.6974693,0.0,0.0,-0.7185858
