timestamp,timestamp_sample,xyz[0],xyz[1],xyz[2],xyz_derivative[0],xyz_derivative[1],xyz_derivative[2]
625256000,625256000,0.004460636,-0.0071024024,-0.0011372329,0.29839414,-0.44332153,-0.098963015
625260000,625260000,-0.00079219317,-0.007451818,0.0067956187,-0.24070448,-0.32424638,0.597548
625268000,625268000,-0.009340322,-0.0011838648,0.0077109477,-0.6976377,0.2641614,0.17832214
625276000,625276000,-0.022016436,-0.0010610542,-0.0070248754,-1.1886632,0.14740616,-0.8988919
625288000,625288000,0.004654009,0.0032860027,-0.005201278,1.487237,0.18769118,-0.10840073
625296000,625296000,0.008868315,0.0018193189,0.013109022,0.88392943,-0.029174171,1.2602482
625308000,625308000,0.010101856,0.014559288,0.0033437917,0.30056405,0.48560315,-0.29689872
625316000,625316000,-0.010853292,0.004269976,-0.004486286,-1.3584299,-0.39845628,-0.67518157
625328000,625328000,-0.008110395,0.004044139,0.00087457185,-0.30865353,-0.1327346,0.08730955
625336000,625336000,-0.013126661,0.0006686532,0.0010678893,-0.35708565,-0.27596208,0.059103835
625348000,625348000,-0.013129943,0.007554449,0.0007784405,-0.3639854,0.222991,-0.058179457
625356000,625356000,-0.015877144,0.009553114,-0.010011352,-0.30677038,0.2865041,-0.7798555
625368000,625368000,0.005057927,-0.0014679667,0.00037013442,1.132999,-0.80712044,0.48567516
625376000,625376000,-0.003028516,-0.015332089,0.0073487996,-0.11610776,-1.3006712,0.69959867
625388000,625388000,-0.0004983435,-0.015334568,0.0018338118,0.39060235,-0.4015257,-0.26989108
625396000,625396000,-0.0026307704,-0.005040407,0.008436214,-0.0650256,0.60931814,0.30164677
625408000,625408000,-0.011182003,0.007920053,-0.009030284,-0.5407717,0.93558013,-0.7886488
625416000,625416000,-0.014668225,0.0016758385,0.0018273471,-0.5270797,-0.04920066,0.38456145
625428000,625428000,-0.002162683,0.0049058576,0.008581703,0.7006619,0.13962989,0.46017703
625436000,625436000,-0.00046579645,-0.0064511257,0.004276439,0.38939044,-0.6915239,-0.10571961
625448000,625448000,9.6804004e-05,-0.008368704,-0.009343598,0.294293,-0.17296742,-0.9780139
625456000,625456000,0.005347437,0.0031159464,-0.0059011844,0.5166795,0.7336445,-0.060781468
625468000,625468000,-0.01439713,0.0030841224,0.0066989986,-1.317395,-0.057463653,0.4171049
625476000,625476000,-0.005503911,-0.00024449546,0.011611756,0.1003871,-0.17853494,0.4945832
625488000,625488000,-0.0057406323,0.0074501154,-0.012275388,0.0669363,0.2477914,-1.1133058
625496000,625496000,-0.0076814624,-0.0037089123,-0.0058173263,-0.11201743,-0.6776148,-0.013531101
625508000,625508000,-0.0023200365,0.003733661,0.0034614129,0.24652673,0.2738049,0.51524055
625516000,625516000,-0.0063954904,-0.021826537,0.0013375059,-0.2629823,-1.7414804,-0.014203758
625528000,625528000,0.0013171772,-0.0021327795,-0.004237973,0.9668083,0.85012203,-0.1141922
625536000,625536000,0.020554077,0.007273659,0.00014768056,1.6232128,1.0323682,0.2117999
625548000,625548000,-5.5775854e-05,-0.0042919633,0.00832493,-0.73725855,-0.29031467,0.44270465
625552000,625552000,-0.002279456,-0.0019050654,0.000962793,-0.6765988,0.0064098295,-0.32106426
625568000,625568000,-0.004454733,-0.0008170041,0.0028608267,-0.6213943,0.033681884,0.5072165
625576000,625576000,-0.0072564557,0.0010982387,0.0063322526,-0.40022975,0.20856017,0.43152654
625588000,625588000,0.026377214,0.017525913,0.003989271,2.0263224,0.98600656,-0.02027247
625596000,625596000,0.010523957,0.016777107,0.006388994,-0.39953423,0.38386166,0.15789127
625608000,625608000,0.010382326,-0.00012153471,-0.009412143,0.21847188,-0.9893271,-0.88986015
625616000,625616000,0.0033762883,-0.0016373188,0.004374344,-0.4479847,-0.5149669,0.6847992
625628000,625628000,-0.002991221,-0.012263611,0.006621828,-0.32612854,-0.8963644,0.11724119
625636000,625636000,0.0015885633,-0.0025141167,0.0044232956,0.12726457,0.39616376,-0.076572135
625648000,625648000,-0.0017769033,0.00821515,-0.007020579,0.00047034025,0.58619106,-0.8887687
625656000,625656000,0.0017865102,-0.0027742418,0.003285551,0.18694688,-0.46172577,0.36519587
625668000,625668000,0.010554098,-0.00161262,-0.00815831,0.7131516,-0.46229628,-0.59300524
625676000,625676000,0.014476031,-0.009356777,0.006998341,0.457578,-0.66797966,0.8175322
625688000,625688000,-0.0063102194,0.0043329825,-0.00867791,-0.6701697,0.5594759,-0.7506547
625692000,625692000,-0.001656911,0.003490446,-0.009195254,-0.056844592,0.30186546,-0.54281664
625708000,625708000,-0.004701856,0.0016289068,0.0021671853,-0.6936711,0.22382098,0.30062568
625716000,625716000,-0.011977271,-0.0011734247,-0.0027202952,-0.79457855,-0.16442233,-0.14861253
625728000,625728000,-0.0039866627,-0.008914383,-0.0029330128,0.17064813,-0.23942137,-0.07890399
625736000,625736000,-0.009048701,0.004949928,0.009540627,-0.25239864,0.7914227,0.8383338
625748000,625748000,-0.014869232,0.0056010117,0.009251557,-0.31083193,0.26213437,0.1525504
625756000,625756000,-0.004083297,0.0061211763,0.013287801,0.6369882,0.19895732,0.4465993
625768000,625768000,-0.0005186596,-0.0020480226,0.0016067513,0.21301788,-0.7377393,-0.646677
625776000,625776000,-0.01763915,-0.007787812,0.0069061094,-1.0686387,-0.71471554,0.1114469
625788000,625788000,-0.002899637,-0.006607024,0.011145996,0.59934705,0.18141216,0.26430172
625796000,625796000,0.006034747,0.0009219697,0.0029442317,0.9627867,0.5271119,-0.5148317
625808000,625808000,0.011382153,-0.00062161434,0.00013397742,0.4087723,-0.17851341,-0.09232736
625816000,625816000,0.0065006022,-0.002932961,0.00089929334,-0.18266776,-0.067409575,-0.010482532
625828000,625828000,-0.006848993,-0.00086266024,0.00037434782,-0.81100094,-0.1667651,-0.08344119
625836000,625836000,-0.0016561447,-0.0029927166,-0.009419709,0.031725287,-0.22946791,-0.7198261
625848000,625848000,-0.0018098976,-0.008715495,-0.0076330965,-0.07293208,-0.17539442,-0.009469214
625856000,625856000,-0.007022937,0.0041095666,-1.5082085e-05,-0.34191245,0.7326511,0.44374788
625868000,625868000,0.009081606,-0.0049204384,-0.0057619386,1.051259,-0.25730217,0.20436162
625876000,625876000,0.019287255,0.001359898,0.00089362543,1.0549705,0.3170222,0.4269243
625888000,625888000,0.004215862,-0.004740458,-0.017963832,-0.6457128,-0.47410953,-0.92121756
625896000,625896000,0.001826454,-0.024013856,0.001399119,-0.41666728,-1.4552565,1.00876
625908000,625908000,0.006155363,0.006410948,0.019848788,0.23739113,1.2840345,1.1377962
625916000,625916000,0.007133578,0.0024888187,0.0032625603,0.08803263,0.26489305,-0.65824866
625928000,625928000,0.0077803414,-0.0022055267,-0.0067177922,0.069231175,0.030863388,-0.7138159
625936000,625936000,-0.0056977766,0.0021865712,-0.0041012038,-0.92252374,0.26739204,-0.0807642
625948000,625948000,-0.010048106,0.009944945,0.008859656,-0.38723478,0.6610653,0.72414356
625956000,625956000,-0.0073907487,0.0078088124,-0.0011513338,0.029246375,0.094425,-0.5123559
625968000,625968000,0.0011578312,-0.0005652836,-0.0018296908,0.52216244,-0.4610087,0.035919867
625976000,625976000,-0.0013278781,0.0017552377,0.003046871,0.04154837,-0.03835193,0.40830624
625988000,625988000,-0.0032864453,-0.003831288,0.0029065728,-0.41997975,-0.3323215,-0.18468797
625992000,625992000,-0.009865718,-0.002523589,-0.0044416087,-0.8297019,-0.111796245,-0.73741996
626008000,626008000,0.006812906,-0.010446364,-0.013869073,0.6297113,-0.64017856,-0.25145036
626016000,626016000,-0.0063826805,-0.005911833,-0.006208525,-0.59383106,0.11134436,0.32813942
626028000,626028000,0.011111369,0.0042496654,0.005094388,0.969694,0.4747868,0.91360223
626036000,626036000,0.001740753,0.015100785,0.0063061374,-0.40637422,0.9334053,0.41743276
626048000,626048000,-0.0012922549,0.006153547,-0.0031179518,-0.057647973,-0.05153289,-0.2750903
626056000,626056000,0.004706332,0.007710175,-0.0065985695,0.3935748,0.064304985,-0.4294779
626068000,626068000,0.0077380715,-0.0032124883,-0.0008945273,0.1094445,-0.7267628,0.5883405
626076000,626076000,0.0013222155,-0.012393762,0.006409835,-0.36871618,-0.8259673,0.69339406
626088000,626088000,-0.005412915,-0.00095958955,0.006774286,-0.6661045,0.30958945,0.17503951
626096000,626096000,-0.008032088,0.010339924,0.0004257642,-0.34397823,0.88266546,-0.39006004
626108000,626108000,-0.0016600285,-0.010240549,0.0076660076,0.10118367,-0.98690236,0.12080513
626116000,626116000,0.01023797,0.006564234,-0.009742217,0.868682,0.848176,-1.1124958
626128000,626128000,0.00028522382,-0.0012236849,-0.0014475168,-0.38024813,-0.613395,0.104566835
626136000,626136000,-0.0070375064,-0.009758733,-0.010080905,-0.6237194,-0.7903995,-0.5308269
626148000,626148000,0.0032104754,-0.010865183,-0.0047946014,0.51777506,-0.36697525,0.20451063
626156000,626156000,0.014751524,-0.016006544,0.007208627,1.0298947,-0.42791298,0.95051277
626168000,626168000,0.009942705,-0.007021043,0.0064941016,-0.036471277,0.22346687,-0.06882285
626176000,626176000,0.0065019415,-0.009145076,0.0014419495,-0.2716396,0.008949099,-0.32718816
626188000,626188000,-0.0073901596,-0.004007095,-0.000538653,-1.0885804,0.22794202,-0.20739402
626196000,626196000,-0.017043278,-0.0067256335,0.003743805,-0.9975916,-0.06767925,0.22498457
626204000,626204000,0.003753025,-0.0007938157,0.014400149,0.97960055,0.3849548,0.8446144
626216000,626216000,0.015087537,-0.0049514193,-0.021043697,0.8078357,-0.14043376,-1.7668093
626228000,626228000,0.006725156,-0.008953019,0.0032839472,-0.49632204,-0.05268808,0.99571073
626236000,626236000,-0.010210969,0.012903924,0.01672362,-1.2924477,1.4361436,1.3009164
626248000,626248000,-0.002587458,0.0012492151,0.006966449,0.24685982,-0.28116173,-0.05137526
626256000,626256000,0.0040337187,0.0008871939,0.003748158,0.48267138,-0.19262224,-0.299174
626268000,626268000,-0.011957634,0.007899268,0.01270774,-0.57917863,0.41864246,0.33819
626276000,626276000,-0.004907066,0.007229542,-0.0118914675,0.21993685,0.18203466,-1.6465036
626288000,626288000,0.017874252,0.0056349626,-0.0031268164,1.3409048,-0.36648983,0.50012875
626296000,626296000,0.017676398,-0.0011173745,-0.0038882222,0.5790351,-0.58533585,-0.0041656597
626308000,626308000,-0.0008397964,0.0024405804,-0.0060061216,-0.7683619,0.16011944,0.3420378
626316000,626316000,0.004331509,0.003360717,0.0026233683,0.026703328,0.07288815,0.66049856
626328000,626328000,-0.0014792995,0.0075144544,-0.00030139982,-0.7259154,0.5979533,0.059305955
626336000,626336000,0.0081353355,0.0114582945,-0.0067438264,0.5054991,0.40617645,-0.43512952
626348000,626348000,0.00081099104,-0.005265634,0.013065726,-0.26560527,-0.52007115,1.0387256
626356000,626356000,-0.006286668,0.0047602453,0.0076443464,-0.64078665,0.40482038,0.13701612
626368000,626368000,0.009153622,-0.005225195,-5.0317205e-05,0.9333058,-0.6006447,-0.6795615
626376000,626376000,0.012056078,-0.014898568,-0.0020886785,0.50664824,-0.8711505,-0.26141414
626388000,626388000,-0.019885233,-0.010395293,-0.0013390535,-1.9190931,-0.1267432,-0.5705638
626396000,626396000,-0.016631778,-0.00262272,-0.0055335755,-0.49498773,0.5637049,-0.3943845
626404000,626404000,-0.00031280378,0.007750626,-0.009554071,0.8823377,0.9644562,-0.5559167
626416000,626416000,0.00871835,0.011297562,-0.0025795614,0.84684694,0.041798465,0.3555555
626428000,626428000,0.0074802027,-0.04764514,-0.0111328475,0.31139058,-2.8855243,-0.53197104
626436000,626436000,0.003963877,-0.0026278656,-0.010588608,-0.1767275,1.7937003,-0.16064441
626448000,626448000,0.013485376,0.014337349,0.0008022205,0.4547246,1.5361205,0.46214887
626456000,626456000,0.0025798767,-0.0005945026,0.0029704208,-0.5299464,-0.47729516,0.52317756
626468000,626468000,-0.01483505,-0.0153707815,0.0005130285,-1.0699681,-0.57549816,-0.37395906
626476000,626476000,-0.0018599114,0.0023139315,-0.0019834694,0.43100744,0.96577847,-0.3067974
626488000,626488000,0.005330693,0.003564495,-0.010859112,0.43523845,0.0005523063,-0.5531053
626496000,626496000,0.0014911767,-0.021748865,-0.0079047615,-0.05752723,-1.7124586,-0.06910657
626508000,626508000,-0.005931413,-0.007867557,-0.0046849307,-0.4969496,0.24829113,0.16320905
626516000,626516000,-0.001285642,-0.0022668035,-0.003401047,0.14550671,0.55809724,0.23497267
626528000,626528000,0.003925205,0.011269032,0.0005372508,0.29792804,0.9714224,0.20102935
626536000,626536000,-0.0010101128,-0.00039359002,0.016581897,-0.19477329,-0.4642916,1.2218012
626548000,626548000,0.0059572663,-0.014466842,0.010691806,0.47369593,-1.1846582,-0.06034269
626556000,626556000,0.0027576047,-0.016097473,0.01437385,-0.13210517,-0.52320105,0.22532247
626568000,626568000,0.004374114,-0.005598362,0.008561017,0.4352758,0.31751284,-0.24351653
626576000,626576000,-0.0065569216,-0.0049358928,0.0030440264,-0.7060597,0.25566512,-0.5320125
626588000,626588000,0.009918127,0.00045256194,-0.007418571,0.9577007,0.2694139,-0.63507175
626596000,626596000,-0.006511212,-0.0008774931,0.0012231835,-0.8267271,0.02352494,0.39824408
626608000,626608000,0.012179617,-0.0049333735,0.0019682802,1.4254289,-0.12766176,-0.057606462
626616000,626616000,0.013469531,0.0006099362,-0.014838679,0.55277485,0.3309897,-1.1893511
626628000,626628000,-0.0065877168,-0.0019881777,-0.0062490506,-1.0392487,-0.035728898,0.32212538
626636000,626636000,-0.009527114,0.001979071,-0.0048742043,-0.57112575,0.26650256,0.12764314
626648000,626648000,0.012704801,0.007881748,-0.00583059,1.0550575,0.60873324,0.18513364
626656000,626656000,-0.008101479,-0.0079885945,0.0034238987,-1.0153439,-0.9193664,0.70998514
626668000,626668000,0.00014575639,-0.009334291,-0.014160241,0.28871617,-0.04686437,-1.1101615
626676000,626676000,-0.010174296,0.002613647,-0.02057993,-0.59769875,0.7033033,-0.82901955
626688000,626688000,0.0038666287,0.008132195,-0.001343402,0.6231575,0.73027396,0.5729878
626696000,626696000,0.010383268,0.005921675,0.0020894017,0.7278393,0.07558965,0.53531426
626708000,626708000,-0.010111889,-0.002605052,-0.00023624097,-0.91882133,-0.37384138,0.23332226
626716000,626716000,-0.009336514,-0.0016791058,0.01556811,-0.35404006,-0.02810802,1.0769712
626728000,626728000,-0.0077360333,0.012386254,-0.000830888,0.13938439,0.3372202,-0.5461606
626736000,626736000,0.0030740094,0.007051257,-0.0035104488,0.7295788,-0.11963744,-0.37753215
626748000,626748000,0.0002207948,0.0036789556,-0.0164912,0.4015409,-0.19113566,-0.97782296
626756000,626756000,0.011182998,0.0074752634,-0.013084252,0.8657619,0.1564335,-0.1791819
626768000,626768000,0.0034016808,-0.013743044,0.0028773162,-0.6190022,-1.0924803,0.9948752
626772000,626772000,-0.010448066,-0.010202345,3.3103184e-05,-1.5701628,-0.43093264,0.42422307
626788000,626788000,0.01535335,0.0024918374,-0.0025262486,1.0113318,0.3705953,0.36991957
626796000,626796000,0.0012935451,-0.012192385,0.013822055,-0.54489386,-0.8444706,1.2738585
626808000,626808000,0.00043158926,-0.009649738,-0.0049306126,-0.047987968,-0.3808517,-0.91738564
626816000,626816000,0.011944434,-0.0017605639,-0.004949711,0.7427456,0.5089809,-0.3181032
626828000,626828000,0.0042476617,0.0077542034,0.001601591,-0.13584498,0.35527992,0.24326007
626836000,626836000,-0.008810817,-0.0069698268,0.010134697,-1.0645148,-0.86428064,0.6479878
626848000,626848000,-0.0047679464,0.018718066,-0.0052025835,0.25565016,1.6127638,-0.7763577
626856000,626856000,0.007899108,0.0046982653,-0.014825479,0.961276,-0.44027004,-1.0713236
626868000,626868000,0.0037008943,0.00022088694,-0.015888263,-0.088113785,0.13826478,-0.08626574
626872000,626872000,0.0022168672,0.00690934,-0.0077364813,-0.18274465,0.65135425,0.6243066
626884000,626884000,0.0023352806,0.0049540973,-0.016853075,-0.20070097,0.13467164,-0.61252534
626896000,626896000,0.0018956912,0.010093887,-0.0070059462,-0.14775538,0.20475872,0.644029
626908000,626908000,-0.0052947733,-0.009800267,0.003895674,-0.31060818,-0.9821472,0.36180076
626916000,626916000,-0.01086351,0.013007231,-0.016182408,-0.5578314,1.2075852,-1.2326773
626928000,626928000,-0.01852523,-0.000894628,-0.011719438,-0.563995,-0.6286463,-0.06361664
626936000,626936000,-0.00395604,0.0060462505,-0.015179906,0.7468315,0.31509918,-0.18440518
626948000,626948000,-0.0065191607,0.0038387182,0.0038281444,0.15664884,-0.35636064,0.9825992
626956000,626956000,-0.0014056818,-0.005429525,0.002330883,0.40428996,-0.7976686,0.30718905
626968000,626968000,0.0022298899,-0.006755998,0.011401227,0.15875316,-0.2971435,0.7289301
626976000,626976000,-0.010643608,-0.014792124,0.008620764,-0.75476694,-0.5985511,0.112397306
626988000,626988000,0.0060674124,-0.0007773351,-0.016973916,0.7404796,0.6679099,-1.4604745
626996000,626996000,0.0048859334,0.011604141,-0.008451353,0.26163143,1.1210964,0.046279807
627008000,627008000,0.0022656042,0.012828769,-0.005196586,-0.20254722,0.34715652,-0.15097451
627012000,627012000,0.0036650004,0.011330989,-0.010123834,-0.017764494,0.105772786,-0.51252675
627028000,627028000,-0.0025212837,-0.0057698893,0.006029934,-0.5867006,-0.46571928,-0.1852733
627036000,627036000,0.0044792774,0.0017488966,-0.006349851,0.33485097,0.32956994,-0.79078317
627048000,627048000,0.014665244,-0.005073717,-0.0033945423,0.83729875,-0.19881648,-0.106200166
627056000,627056000,0.0066071977,0.011040685,-0.0074058017,-0.23096427,0.9721009,-0.3377527
627068000,627068000,0.0042963815,0.012527038,0.005632036,-0.4838363,0.4117574,0.5518229
627076000,627076000,-0.007946801,0.008991066,-0.012105011,-1.0371825,-0.124303624,-0.9697971
627088000,627088000,-0.0020581204,-0.00962384,-0.011395662,0.008918926,-0.67204547,-0.19048221
627096000,627096000,-0.006081456,0.010886342,-0.0050332462,-0.24278407,0.9667865,0.44749078
627108000,627108000,0.0071621803,-0.008540925,0.0051036873,1.1737934,-0.7052811,0.757349
627116000,627116000,0.009576658,-0.0008615851,0.018168144,0.51973194,0.2521829,1.1357278
627128000,627128000,-0.0068341387,0.0021866276,-0.0061728978,-0.94925404,-0.054159857,-1.1856823
627136000,627136000,-0.014857841,0.0043361345,-0.003102065,-0.8417885,0.18419597,-0.22560155
627148000,627148000,-0.0006930757,-0.0081595,-0.00029302062,0.5828142,-0.7888649,0.04776536
627156000,627156000,-0.001973493,0.009176676,0.0019518461,0.13205793,0.87552494,0.20161575
627168000,627168000,0.0017935865,-0.0023379973,0.009852709,0.11642876,-0.51271,0.43173665
627176000,627176000,-0.011320098,-0.0015859415,-0.008396904,-0.7730113,-0.14209665,-1.1209435
627184000,627184000,0.00028501288,-0.003075142,-0.00891204,0.47151524,-0.13535853,-0.39023334
627196000,627196000,-0.0036530418,0.003551327,0.015288292,-0.18177165,0.20524709,1.1909763
627208000,627208000,-0.0043514133,-0.009213039,0.010069949,-0.18370776,-0.6204762,-0.27390903
627216000,627216000,-0.0039419127,-0.008695632,-0.001895614,0.029557437,-0.16213365,-0.8976621
627228000,627228000,0.0034280894,0.0016171436,0.00034045265,0.2845646,0.34973183,-0.080354564
627236000,627236000,-0.0011936956,-0.0051771286,0.013377166,-0.27230227,-0.28864262,0.9241724
627248000,627248000,-0.0022861518,-0.009786409,0.00729431,-0.09164757,-0.349718,-0.27972472
627256000,627256000,-0.0042004534,-0.0019592147,0.010998991,-0.15462315,0.38149858,0.19208497
627268000,627268000,0.004234927,-0.0086051095,-0.00038196583,0.4186271,-0.4485569,-0.41310483
627276000,627276000,-0.0059509724,0.0014322944,-0.0033626629,-0.5303727,0.60185933,-0.5163655
627288000,627288000,0.014070097,0.0071303532,-0.008310673,1.1251061,0.14748305,-0.32767314
627296000,627296000,0.0017577704,-0.00074592186,3.464127e-06,-0.47402,-0.46684334,0.5099932
627308000,627308000,0.00029069482,-0.0052820393,0.0032898854,0.06867403,-0.19052619,-0.0023635658
627316000,627316000,0.0018592197,0.00886223,-0.010815795,0.16779764,0.8788342,-0.91582537
627328000,627328000,-0.004585521,-0.0023669137,-0.0010987045,-0.3929978,-0.50181866,0.21042053
627336000,627336000,-0.0043376507,-0.005878328,-0.0063023847,-0.20622054,-0.41863835,-0.24509028
627348000,627348000,0.0093774,0.012737918,-0.0076093483,1.0668229,1.0783689,-0.07634669
627356000,627356000,-0.008194794,0.0054356884,-0.0077668703,-0.9745704,-0.1147629,-0.060770065
627368000,627368000,-0.014496844,-0.010660501,-0.0031653538,-0.2506346,-0.9742753,0.43364915
627376000,627376000,-0.0056237085,-0.0028831658,0.0051511126,0.5616284,0.12404509,0.6898357
627388000,627388000,0.0022866554,0.0025318514,-0.0020062742,0.5129971,0.35086626,-0.05289828
627396000,627396000,0.00905786,0.011203755,-0.0074361158,0.63143045,0.744884,-0.48445812
627408000,627408000,0.0034953568,-0.006123691,-0.0069207563,0.0045129955,-0.91595656,0.07002507
627416000,627416000,-0.0033808148,0.008142688,0.0017016057,-0.5181014,0.6411278,0.5817393
627428000,627428000,0.010061307,-0.0028987345,0.006301922,0.7123698,-0.5241187,0.5359724
627436000,627436000,0.001377452,0.004194963,0.00608831,-0.37499985,0.30016693,0.12936106
627448000,627448000,-0.015517117,0.007446908,-0.014443361,-0.80942863,0.19668572,-0.87926507
627456000,627456000,-0.006723833,-0.0069053625,-0.0002699688,0.1489709,-0.9115125,0.60869455
627468000,627468000,0.003157696,0.0061925803,0.008660774,0.7281128,0.48523372,0.52429247
627476000,627476000,0.0046262927,-0.008818506,-0.0030783094,0.39285275,-0.8261314,-0.52605534
627488000,627488000,0.004388077,0.007561412,0.009644657,0.0072360337,1.0176291,0.4397526
627492000,627492000,0.0063853962,0.019621018,0.0023441045,0.17184688,1.685739,-0.31787857
627508000,627508000,4.46721e-05,-0.0014784992,-0.017163761,-0.3913104,-0.82018536,-1.2596364
627516000,627516000,0.0076805,-0.0003691169,-0.015007951,0.3860653,-0.35513687,-0.28180885
627528000,627528000,-0.0018350137,-0.019044744,-0.013423917,-0.54193676,-0.99966073,-0.115599364
627536000,627536000,0.010199215,-0.006060627,-0.0033886512,0.6719942,0.5342605,0.6970197
627548000,627548000,0.002535047,0.005860671,0.005600255,-0.6136169,0.43147415,0.6528347
627556000,627556000,-0.005132227,-0.01469812,0.00552448,-0.6985017,-1.1907299,0.23617001
627568000,627568000,0.006894903,0.0018112748,0.015337583,0.37723383,0.7532553,0.9834771
627576000,627576000,0.0006585954,0.008710804,0.008005382,-0.33758873,0.8016851,-0.2609539
627588000,627588000,0.0056829713,0.009149049,-0.010850459,0.5326997,0.11222982,-1.1414415
627596000,627596000,0.00018486047,0.004077244,0.009795025,-0.29230744,-0.27180904,1.0448128
627608000,627608000,0.016611753,-0.0117896795,-0.00070363516,1.1306889,-1.1241198,-0.50723135
627616000,627616000,0.0031019188,-0.008462154,0.0025407344,-0.4863358,-0.15974653,0.059590723
627628000,627628000,-0.0051757786,-0.00039375835,0.002268317,-0.49613377,0.21771213,-0.26206052
627636000,627636000,-0.00042179174,-0.006576336,0.0027199711,0.15167674,-0.2921196,-0.04033496
627648000,627648000,-0.0034389272,0.012118361,-0.0029324812,-0.32568532,0.93685496,-0.0054967836
627656000,627656000,-0.00025869894,0.009180781,0.014991608,0.07389587,0.11094735,1.1450748
627668000,627668000,0.00049664907,-0.011958337,0.010022972,0.101029746,-1.0187117,0.12699883
627676000,627676000,0.0010919389,-0.010346923,0.00826936,0.123632774,-0.2842091,-0.103262916
627688000,627688000,-0.0036181863,-0.003303658,0.007348717,-0.4161204,0.06514413,-0.2857718
627696000,627696000,-0.008721437,-0.006123502,0.00542308,-0.4899178,-0.135234,-0.15748516
627708000,627708000,0.00017638951,0.001837282,0.004552826,0.37325627,0.46595514,-0.32364666
627716000,627716000,0.006682351,0.006414415,-0.01267183,0.68700325,0.5764178,-1.2257093
627728000,627728000,0.010152232,0.0065286304,-0.005276236,0.20325932,0.0033248377,-0.070104696
627736000,627736000,0.0076300376,-0.0013970744,-0.009078628,-0.053841993,-0.5117573,-0.260683
627748000,627748000,-0.0064399377,-0.0020079128,0.0038321083,-1.2117548,-0.3572216,0.55107915
627756000,627756000,-0.017352832,0.0021537682,-0.015994094,-1.1595373,0.19080544,-1.1429303
627768000,627768000,-0.0047531505,-0.007645255,-0.0048126816,0.3375746,-0.75514627,0.5558395
627776000,627776000,0.0047718175,-0.00013098925,0.0069370368,0.87209845,0.2466145,1.006042
627788000,627788000,0.0034843031,-0.006131925,-0.00523296,-0.10233438,-0.23680773,-0.34344265
627796000,627796000,0.00783704,0.005419657,0.003467655,0.34463212,0.77016604,0.4578119
627808000,627808000,0.0045694364,0.011079192,0.0095824115,-0.09085824,0.35157552,0.5273394
627816000,627816000,0.006084038,0.0012089404,0.007418935,0.043045018,-0.59453064,0.1256091
627828000,627828000,0.0006358984,-0.012826593,0.014255711,-0.4232731,-0.7185822,0.25447196
627836000,627836000,-0.00732149,-0.0014709677,0.00039771665,-0.6319774,0.3687666,-0.83773345
627848000,627848000,-0.0041336617,0.00019479766,-0.0011944489,-0.10861529,0.13830459,-0.05611598
627856000,627856000,-0.002347448,-0.007384407,0.0017357169,0.018688932,-0.43239203,0.15483487
627868000,627868000,0.0057271635,0.002685687,0.023663165,0.594769,0.41441515,1.4698589
627876000,627876000,0.008445797,-0.010442301,0.0058053974,0.45303166,-0.79679614,-0.8049049
627888000,627888000,0.0029162858,-0.0059025097,0.00022265592,-0.20108241,0.22060215,-0.0241847
627896000,627896000,0.0077051865,-0.004107176,0.00041103366,0.19742692,0.17724203,-0.08361325
627908000,627908000,0.007152796,0.005695946,-0.0004057945,0.032828838,0.7035388,-0.0046075387
627916000,627916000,-0.0050593577,0.0067496896,-0.009416442,-0.824433,0.2983782,-0.6326705
627928000,627928000,-0.0056179273,-0.00091911596,-0.012592836,-0.17450103,-0.010289602,-0.40961754
627936000,627936000,-0.008135421,0.013300846,-0.00086213317,-0.21309824,0.8431618,0.6823089
627948000,627948000,-0.009187252,0.006126027,-0.01042799,-0.28003836,0.0013081359,-0.44297755
627956000,627956000,-0.007079128,-0.0066172574,0.0031586264,0.14972842,-0.9630896,0.8284372
627968000,627968000,0.0004120266,-0.008941192,-0.007682634,0.3002996,-0.40871125,-0.5106431
627976000,627976000,0.0046155266,-0.0042645433,-0.005119114,0.46206647,0.3253482,-0.05304604
627988000,627988000,-0.00023884857,0.020646846,-0.0036244602,-0.2849132,1.3639989,0.36257008
627996000,627996000,-0.00499881,0.0071497164,0.001148029,-0.38959122,-0.3816818,0.30216128
628008000,628008000,-0.0024589135,0.017666744,0.004414125,-0.08213046,0.53618735,0.7396693
628016000,628016000,-0.0054027988,0.0026726827,0.014993367,-0.2601723,-0.8808437,1.0212901
628028000,628028000,-0.004280484,-0.00055407913,7.81711e-05,0.312797,-0.21127297,-0.6626185
628036000,628036000,0.00078865077,-0.003520986,0.007209327,0.4240077,-0.3046369,0.20582697
628048000,628048000,-0.0043689203,0.00014636859,-0.0052706874,-0.31884673,-0.043672077,-0.38696682
628056000,628056000,-0.0026724702,-0.006338553,0.0020486803,0.050141066,-0.4336494,0.24599284
628068000,628068000,0.0064207814,-0.00613726,0.0014399792,0.49135846,-0.24340744,0.22735962
628076000,628076000,0.0068126083,0.0060071684,0.0049738507,0.21539563,0.7986895,0.30639428
628088000,628088000,0.0059465417,-0.0041048815,-0.005164066,0.1358901,-0.17871223,-0.68769634
628096000,628096000,-0.004585996,0.017621107,-0.0039413664,-0.71783924,1.3735436,-0.20354852
628108000,628108000,-0.0068005747,0.0037275776,-0.012829979,-0.25261885,-0.5679475,-0.5568982
628112000,628112000,-0.0070236386,-0.0012858503,-0.012699675,-0.18676937,-0.79722464,-0.35971248
628128000,628128000,-0.0071878294,-0.008152398,-0.0023930208,-0.16685225,-0.5644008,-0.09602363
628136000,628136000,-0.006997203,-0.012365677,-0.00990673,-0.10326731,-0.46469527,-0.48477352
628148000,628148000,-0.0055413265,-0.002926511,-0.00482865,0.09559146,0.37766343,0.06209158
628156000,628156000,-0.010991238,-0.0045572696,-0.013453272,-0.2957651,0.09553276,-0.5572056
628168000,628168000,0.009139077,-0.0018225688,-0.0041086255,1.1868843,-0.096910894,0.09777397
628176000,628176000,0.011437295,-0.0032988389,-0.005574662,0.53750503,-0.057472527,0.057607412
628188000,628188000,0.004625653,-0.018374007,0.0013215233,0.24400097,-0.5998026,0.2971687
628196000,628196000,0.0029584973,0.00025516184,0.010369198,-0.1370694,0.98992497,0.79730713
628208000,628208000,0.008795396,0.01026285,-0.003120261,0.50397563,0.98159254,-0.73348236
628216000,628216000,0.0027088104,0.0026597176,-0.0073978384,-0.22442773,-0.2845474,-0.47821528
628228000,628228000,0.0027296618,0.0015207753,0.012504053,-0.44737184,0.27589136,0.7740917
628236000,628236000,-0.015655125,0.0020090765,0.0078054387,-1.3307709,0.16063368,0.044859353
628248000,628248000,-0.003694598,-0.00887002,-0.004529187,0.31971645,-0.5392485,-0.7114145
628256000,628256000,-0.007941576,0.0024558955,0.00624748,-0.18435493,0.5575824,0.4487579
628268000,628268000,0.0016862199,-0.0028635892,0.007733411,0.5538454,-0.30901748,-0.017093426
628276000,628276000,0.009773157,-0.018489974,-0.00027921796,0.8483279,-1.1972024,-0.5096197
628288000,628288000,-0.0059964545,0.008937298,0.010494732,-0.709512,1.3369113,0.7184869
628296000,628296000,0.0029472385,0.013048492,0.010302582,0.40766734,0.8479888,0.18047728
628308000,628308000,0.02314124,-0.0058444743,0.0016951102,1.270782,-1.2403805,-0.001312814
628316000,628316000,0.009381699,-0.007084627,0.01080423,-0.5026441,-0.38552785,0.51665735
628324000,628324000,0.0022353244,0.008072357,0.0052035297,-0.6449903,0.7301585,-0.08515315
628336000,628336000,-0.009083442,-0.0073903096,0.0022165356,-0.92721343,-0.5006924,-0.3733051
628348000,628348000,-0.011984425,0.004216771,0.010603687,-0.14889616,0.51463354,0.30364648
628356000,628356000,-0.0036177111,-0.0004696331,0.008720269,0.44771916,-0.06761873,0.045806173
628368000,628368000,0.003051511,0.0006593523,0.006952998,0.43557763,-0.18091923,0.10452914
628376000,628376000,0.0009931473,-0.017951159,0.0021422515,0.0918478,-1.2670676,-0.3283011
628388000,628388000,0.0028768424,-0.0007258252,0.0025964899,-0.25762564,0.44703406,-0.22638486
628396000,628396000,-0.0031841276,0.002473343,-0.008823035,-0.44932202,0.5142603,-0.91116875
628408000,628408000,0.008547963,0.010666009,0.011937898,0.46160448,0.1447439,0.85200727
628412000,628412000,0.0043894546,-0.004565206,0.0028337473,-0.040574193,-1.1774273,-0.19435872
628424000,628424000,0.0043854634,-0.0008112323,0.0049209073,0.1579557,0.102938235,-0.0781953
628436000,628436000,0.0030788993,-0.004804687,0.003038949,-0.27831396,-0.16677238,-0.11683391
628448000,628448000,0.007012618,0.0074410867,-0.0012575856,0.14928548,0.91868716,-0.11253779
628456000,628456000,0.009938984,0.007526735,0.0015341486,0.31736535,0.272031,0.11907463
628468000,628468000,0.0040286253,0.00937246,0.00022328964,-0.2029732,0.26633173,0.026616205
628476000,628476000,0.012391391,0.011275988,0.0031611356,0.49393713,0.1674456,0.15739718
628488000,628488000,-0.015105374,0.011042654,-0.0018399043,-1.9182382,0.26870015,0.0922975
628496000,628496000,-0.011825112,0.004171533,-0.0018702946,-0.46694648,-0.38196287,-0.13324416
628508000,628508000,-0.00089195755,0.0049873022,0.011625069,0.24732846,0.07827453,1.053369
628516000,628516000,0.0034592934,0.008246159,0.012504718,0.42494053,0.16336943,0.45601764
628524000,628524000,-0.002911726,0.00407785,0.007372502,-0.25159368,-0.18295139,-0.12715931
628536000,628536000,0.0063986517,0.0014525197,-0.012139855,0.6101192,-0.2414444,-1.4775728
628548000,628548000,0.0050648716,-0.009716911,0.0006938111,0.15776515,-0.7853434,0.650135
628556000,628556000,0.0106257945,-0.011853898,0.0080629885,0.36264402,-0.43111688,0.7370569
628568000,628568000,0.0071689216,-0.0020134037,0.0010794702,0.11060892,0.3513749,-0.049272723
628576000,628576000,0.007026229,-0.0063647344,0.0041831634,0.019298583,-0.22015053,0.1487177
628588000,628588000,0.018434186,-0.0078736,-0.01051224,0.5768798,0.07272132,-0.6730333
628596000,628596000,0.0018092374,-0.014569955,-0.0060034376,-0.8675227,-0.53223,0.083230846
628608000,628608000,0.003535096,-0.0010410108,-0.009427829,-0.09554064,0.8234201,-0.5141352
628616000,628616000,0.014152798,0.006791918,-0.0065445364,0.6932224,0.8119339,0.026882663
628628000,628628000,0.0072422205,0.006928198,-0.004155676,-0.30790895,0.46830666,0.17863666
628636000,628636000,-0.005750799,0.008043376,-0.00071748183,-1.100439,0.20562053,0.30019495
628648000,628648000,-0.004952392,0.0067081098,-0.006128781,-0.26849696,0.23657495,-0.067726485
628652000,628652000,-0.008055701,0.008064468,0.006827692,-0.4382046,0.2708672,1.03845
628668000,628668000,0.0023809024,-0.013869897,-0.002504622,0.12555003,-1.189101,-0.47045484
628676000,628676000,0.0028259493,0.00065938063,0.00011046896,0.19886446,0.62207943,-0.016626153
628688000,628688000,0.0020598168,0.016164387,0.011344375,0.014615897,0.784039,0.7134371
628696000,628696000,0.00037785387,0.007069333,0.00748667,-0.073672324,-0.25495097,-0.09292824
628708000,628708000,-0.0033833398,-0.011371173,-0.007716097,-0.49677992,-1.2623162,-0.5095528
628716000,628716000,-0.017268976,-0.0053295125,0.0016317528,-1.222177,-0.09791941,0.36180806
628728000,628728000,0.0014332699,-0.005992455,-0.006281541,0.9453844,0.03466958,-0.17636228
628736000,628736000,-0.02049089,-0.013268714,0.00055564014,-1.114774,-0.6189896,0.362857
628748000,628748000,-0.005282784,-0.01382634,-0.0052308314,0.6857858,0.04909951,-0.30420712
628756000,628756000,0.009108045,-0.012262376,-0.00913778,1.3208292,0.109338164,-0.35698193
628768000,628768000,0.0040366245,-0.0087679485,0.007158061,-0.0014377534,0.32033876,0.8093563
628776000,628776000,0.0097511215,0.009575838,0.006663504,0.36221847,1.4624407,0.36630028
628788000,628788000,-0.0012696041,0.0037075777,0.010423592,-0.68035835,-0.1244405,0.39889866
628796000,628796000,0.00036010472,0.004816538,0.009819235,-0.06508088,0.066070125,0.081417024
628808000,628808000,-0.0056934548,-0.0035811753,0.014784987,-0.73849535,-0.51480234,0.17969762
628816000,628816000,0.008161896,-0.006132848,-0.002567546,0.8195281,-0.3483074,-1.1012673
628828000,628828000,0.007649828,0.01505833,-0.009598866,-0.5196898,1.1959668,-0.3220255
628836000,628836000,-0.0034952932,0.0035808966,0.009599157,-0.8490976,-0.40378043,1.1101122
628848000,628848000,-0.00091323024,-0.0026334364,0.0010988708,0.029397488,-0.3229193,0.08632355
628856000,628856000,0.00021670206,0.0025666787,0.0062423656,0.038950264,0.24532865,0.31320825
628868000,628868000,0.0064911293,0.0025251822,0.005689213,0.4084919,-0.24071723,0.25363222
628876000,628876000,0.0028065015,-0.004008338,0.00327468,-0.090610385,-0.5096261,-0.118356146
628888000,628888000,-0.0043797134,-0.00061962404,-0.0028728875,-0.4564359,0.14531243,-0.3403776
628896000,628896000,0.005236265,0.00492015,0.0024210426,0.45730102,0.39877877,0.1558001
628908000,628908000,-0.009433528,0.0012216936,-0.019863399,-0.83932555,-0.16897278,-1.0550942
628916000,628916000,-0.004934622,-0.0013044531,-0.008561132,0.0148899555,-0.20075367,0.30937982
628928000,628928000,-0.008968219,0.00044828228,0.012359543,-0.35069817,-0.15571551,1.2632794
628936000,628936000,-0.010831313,-0.004790901,-0.0018465454,-0.27913678,-0.3609134,-0.46290874
628948000,628948000,-0.002439268,-0.012323853,0.0042482917,0.42783308,-0.5316715,0.42448324
628952000,628952000,-0.0059666606,-0.004379733,0.007248001,-0.01026988,0.31052774,0.5333479
628968000,628968000,-0.0039912043,0.005171355,0.00069566845,0.45881402,-0.1639809,0.04762965
628976000,628976000,-0.0033421982,-0.003437787,0.0072624637,0.12220442,-0.5106489,0.38489574
628988000,628988000,0.0025380207,-0.0048709023,0.000900276,0.54783916,-0.46628094,-0.13504441
628996000,628996000,0.008052868,0.009981514,0.0100787785,0.64633065,0.90547144,0.5892738
629008000,629008000,0.01192832,0.008696624,0.002298587,0.410952,0.022532558,-0.359185
629016000,629016000,0.023316365,-0.0032576958,-0.017221546,0.9400588,-0.7763915,-1.5090156
629028000,629028000,0.00068662467,-0.007905771,-0.009691801,-1.1875639,-0.58990586,-0.06986527
629036000,629036000,-0.00087746273,-0.0073434017,-0.005893166,-0.5485059,-0.120353885,0.28133193
629048000,629048000,-0.0027605542,0.0030479352,0.0002983025,-0.5719264,0.3752049,0.5492591
629052000,629052000,-0.007703654,0.001332647,0.005150628,-0.7939912,0.1062489,0.77131504
629068000,629068000,0.020370698,-0.0023670953,0.003829223,0.9998861,-0.21743505,0.31149584
629072000,629072000,0.015787752,0.008557934,0.0066262544,0.2821514,0.7689355,0.44120654
629088000,629088000,-0.0018923784,0.0102119595,0.0015976157,-0.82108456,-0.26055163,-0.23042278
629092000,629092000,0.00022256968,0.0044876323,-0.00055111037,-0.3695542,-0.652107,-0.333037
629108000,629108000,0.004586314,0.0020152812,-0.0076854345,0.11931127,-0.5451296,-0.3220817
629116000,629116000,0.01573525,-0.0028804531,0.0027841527,0.778726,-0.49886125,0.5879426
629128000,629128000,0.020653313,0.0036705015,0.0022365109,0.3491948,0.15552586,0.10214047
629136000,629136000,0.008159039,0.014864662,-0.0026469263,-0.7262782,0.84625757,-0.3731185
629144000,629144000,-0.0030360478,0.011690344,-0.0032722345,-1.1357319,0.07177168,-0.12533
629156000,629156000,-0.011557178,0.0020236627,0.0105323745,-0.57895607,-0.6249113,0.78571737
629164000,629164000,0.0083962465,0.0051984554,0.0070899166,1.1008697,0.0041388865,0.027805805
629176000,629176000,0.0047447234,-0.0064722956,0.008494729,-0.012200296,-0.9461391,0.12028048
629188000,629188000,0.0059137596,0.004609631,0.009771924,0.11783905,0.52562225,0.07361414
629196000,629196000,0.008702727,0.003299364,0.0018166536,0.2791289,0.12738664,-0.54230046
629208000,629208000,0.004176301,0.008646279,0.0036356149,0.11319071,0.4802363,0.0811385
629216000,629216000,0.0019746758,0.0052411775,0.008131783,-0.26444456,-0.15583646,0.2997349
629228000,629228000,-0.0040747644,-0.008469755,0.0044334517,0.023335576,-0.60114163,0.14969234
629236000,629236000,0.006548214,0.0011426965,0.006915349,0.6594461,0.44214046,0.09075547
629248000,629248000,0.004253511,0.0076060104,0.010910901,-0.009362981,0.49179757,0.57376695
629252000,629252000,0.0066317148,0.005817264,0.013954321,0.19265299,0.1776969,0.63635
629268000,629268000,-0.013500601,-0.0012452673,-0.006758006,-0.9452977,-0.15905808,-0.6508545
629272000,629272000,-0.008209616,-0.0032011713,-0.0016213558,-0.18661171,-0.2694193,-0.0035697268
629288000,629288000,0.0021916027,0.0049463664,-0.00034460938,0.19352125,0.089868605,0.1205421
629296000,629296000,0.005154621,-0.01323781,-0.00076196354,0.24234888,-1.265466,0.0075054993
629308000,629308000,-0.00023425504,-0.0040085386,0.0027279097,-0.18308756,0.38321972,0.2884438
629316000,629316000,0.00438365,-0.0049724057,0.0065275203,0.2553797,0.08117538,0.34560663
629328000,629328000,0.001259939,0.014237955,0.0045054224,0.023513228,1.1290879,0.0916602
629336000,629336000,0.003612271,0.009881878,0.0036411583,0.0930309,0.20783246,-0.038301412
629348000,629348000,0.0019110491,-0.002583061,0.008549425,0.0015913397,-0.71110785,0.30201614
629356000,629356000,-0.0014627251,-0.003650237,0.0017539856,-0.1726033,-0.31973052,-0.31770283
629368000,629368000,0.004476443,-0.0005753684,0.0077833035,0.032919258,0.061499547,0.047836274
629376000,629376000,0.0040403497,0.014062597,0.007792747,-0.03336157,1.1165628,0.15073992
629388000,629388000,-0.003048515,0.0036707975,0.007993981,-0.4106598,-0.6556303,0.016476315
629396000,629396000,-0.0004402502,-0.003038286,0.008195931,0.080545366,-0.6898339,-0.04662184
629408000,629408000,-0.009589451,0.008676558,0.007137257,-0.9089748,0.37875694,0.16834891
629416000,629416000,-0.007698617,-0.0067406665,0.009276061,-0.12143868,-0.8989527,0.10972224
629428000,629428000,0.0013858908,-0.025212517,-0.015125014,0.37954146,-1.4628474,-1.3175274
629436000,629436000,-0.001582825,-0.016310096,-0.0070162453,-0.0076547787,0.081462264,0.067279816
629448000,629448000,0.0023661377,0.009983454,0.0072636553,0.29179013,1.5239439,0.817534
629452000,629452000,0.0034470947,0.0097148325,0.0011499831,0.28458112,0.99170345,0.032786805
629468000,629468000,0.010128375,0.0019462262,0.011704457,0.5609461,-0.31488067,0.86544466
629476000,629476000,-0.008086498,-0.00781967,0.006841414,-1.0109203,-0.7479531,-0.011695696
629488000,629488000,-0.0029634247,0.004923727,0.006633758,0.033689152,0.55229986,0.1720403
629496000,629496000,-0.011207784,-0.0005018743,0.0044982857,-0.4896546,-0.12495257,-0.17186806
629508000,629508000,-0.012495955,0.0051718936,-0.006265717,-0.4642556,0.14883056,-0.39146876
629516000,629516000,-0.011129491,0.0013463213,-0.0005689288,0.06587583,-0.19737315,0.1615603
629528000,629528000,0.012369513,-0.01338437,0.010064622,1.0884702,-0.82219994,0.8163245
629536000,629536000,0.007013002,-0.009593234,0.0068770708,0.17878875,-0.109995514,0.095918775
629548000,629548000,0.0048007295,-0.001744682,-0.010174381,-0.31359404,0.41359022,-0.89783394
629556000,629556000,0.0012346728,-0.0059716683,-0.010118582,-0.35789505,-0.10359151,-0.37880492
629568000,629568000,-0.011992933,0.003333948,-0.010700005,-0.82676053,0.4900303,-0.4104053
629576000,629576000,0.00028448,0.010808862,-0.01436734,0.45399556,0.8271643,-0.22244208
629588000,629588000,-0.005046675,-0.00022329684,0.004966245,-0.11586393,-0.61340433,0.8743964
629596000,629596000,0.01035021,-0.008137437,-0.003558988,1.0798334,-0.7951025,-0.32717174
629608000,629608000,0.0064578657,-0.0069001545,-0.009220788,-0.2065571,0.04845506,-0.029125273
629616000,629616000,0.0037747761,0.015198281,-0.0023359035,-0.1909967,1.5445354,0.47574165
629628000,629628000,0.0064325896,0.0088318195,0.006192538,0.0687714,-0.16741921,0.5506335
629636000,629636000,-0.0027077196,-0.0036780438,0.008190723,-0.6103158,-0.9000497,0.34119967
629648000,629648000,0.0045071323,-0.0050047785,0.009149417,0.25707844,-0.4539833,0.4931606
629656000,629656000,-0.00044974923,-0.0062181125,0.010975774,-0.25317985,-0.15980357,0.24333826
629668000,629668000,-0.002819628,-0.006503986,0.014937156,0.38439548,-0.23046347,0.47958076
629676000,629676000,0.0056322445,0.003823961,0.016798666,0.5560157,0.6531616,0.23407026
629688000,629688000,0.0032994135,-0.00824899,-8.4766936e-05,0.2463611,-0.5238055,-0.65035164
629696000,629696000,-0.003379469,-0.0036681728,0.010072848,-0.39123085,0.10507815,0.40043882
629708000,629708000,-0.0069314926,0.009930139,0.0128209535,-0.15901506,0.7765847,0.053710118
629716000,629716000,0.0071205646,0.015148353,0.011588158,0.83702296,0.66731054,0.012150344
629728000,629728000,0.012910581,-0.0074964496,0.011357422,0.70213866,-1.2344961,-0.40055105
629736000,629736000,0.015244391,-0.011849793,-0.001292863,0.34291887,-0.68004066,-0.9357293
629748000,629748000,0.0009167642,0.013519941,0.011541124,-0.5944524,0.8684874,0.2774855
629756000,629756000,-0.0066603865,0.010531487,0.008856942,-0.74999255,0.2123016,-0.06058309
629768000,629768000,0.0016641233,-0.0051894453,-0.009889021,0.18650857,-1.0748091,-1.1371682
629776000,629776000,-0.011665214,-0.007331694,0.003078524,-0.77964413,-0.5531337,0.43056273
629788000,629788000,0.0057629887,0.017304378,0.010505157,0.7010707,1.2789347,0.6511557
629796000,629796000,0.0040089586,0.01333183,0.0064078216,0.16996565,0.2481888,0.025568832
629808000,629808000,-0.0031250543,0.0027575938,0.0022796867,-0.54004604,-0.43003076,-0.39842445
629816000,629816000,0.010767699,-0.0018200732,0.0031412845,0.87267715,-0.5300321,-0.044867314
629828000,629828000,-0.008389201,-0.009239099,0.007928543,-1.2105563,-0.40011483,0.09455197
629836000,629836000,-0.0016019341,0.007884846,-0.00149178,0.056792736,0.96159446,-0.57535076
629848000,629848000,0.0067164805,0.006364181,-0.0005450528,0.49682856,0.26980028,0.1524738
629856000,629856000,-0.0056965947,0.000179795,0.008306701,-0.6745902,-0.31034085,0.5703952
629868000,629868000,-0.0033537645,0.0018149593,0.0068258224,-0.075293764,0.117983244,0.29375848
629876000,629876000,0.0079626,-0.0012395368,0.012894553,0.73720586,-0.2264218,0.5506021
629888000,629888000,-0.0025128154,-0.011135742,-0.009181451,-0.3501493,-0.5802145,-1.3586586
629892000,629892000,0.001204966,-0.0075380392,-0.01306643,0.07788938,-0.08525837,-1.2290642
629908000,629908000,0.0027929344,-0.0042907004,0.0021680451,0.33879057,0.07162251,0.37006646
629916000,629916000,0.0035253505,-0.006548737,-0.00082727073,0.21804348,-0.136581,-0.03782316
629928000,629928000,0.008944379,0.00016991713,0.0080953445,0.17111215,0.4110213,0.5674558
629936000,629936000,-0.0005664558,0.0031286115,0.009659865,-0.6155855,0.35675418,0.3230734
629948000,629948000,-0.008437818,0.0042268205,-0.00026840906,-0.34523958,0.23964795,-0.3172751
629956000,629956000,-0.0053160833,0.007832745,0.010816699,0.016410874,0.3516714,0.6493827
629964000,629964000,-0.0048138993,-0.0079402365,0.0016182418,0.010426395,-1.0796719,-0.4548532
629976000,629976000,0.0031062057,-0.025280511,-0.004785493,0.4102824,-1.1867704,-0.29530227
629984000,629984000,-0.0016101949,-0.035390534,-0.0027762253,-0.16065598,-1.3019005,0.0007207241
629996000,629996000,-0.007572204,-0.04755902,-0.010965147,-0.29661953,-0.4989537,-0.32906285
630008000,630008000,-0.0036369993,-0.051510844,0.0106902635,0.17944165,-0.86855745,1.2320312
630016000,630016000,-0.0068315067,-0.06162702,0.0058213,-0.18408835,-0.9708867,0.16207801
630028000,630028000,-0.011007034,-0.060397934,-0.003708776,-0.19874123,-0.4375848,-0.47057486
630036000,630036000,-0.02004381,-0.07462351,-0.017820064,-0.76004326,-1.1564935,-1.224386
630048000,630048000,-0.010791219,-0.081825525,0.00037023012,0.52504176,-0.613554,0.59965587
630056000,630056000,-0.012140686,-0.06961194,-0.002480306,0.0777373,0.55501544,0.14576459
630068000,630068000,-0.025843645,-0.0821287,0.002168482,-0.73334783,-0.4502185,0.051854007
630076000,630076000,-0.0279066,-0.05840234,0.0010795924,-0.42223457,1.4402223,-0.027817102
630088000,630088000,-0.03831878,-0.07619008,-0.0030981994,-0.79215914,-0.7609977,-0.3654257
630096000,630096000,-0.025266368,-0.07447851,-0.0011332014,0.5847654,-0.19055462,-0.014996935
630108000,630108000,-0.01866373,-0.0672154,-0.011088458,0.70037293,0.58619744,-0.5088923
630116000,630116000,-0.03205504,-0.059784602,0.002592036,-0.79132676,0.80922794,0.74196255
630128000,630128000,-0.011914612,-0.05669549,0.0031937922,1.5263212,0.25307012,0.3754329
630136000,630136000,-0.014085674,-0.0436699,0.0057533286,0.3848707,1.03508,0.29528254
630148000,630148000,-0.024108231,-0.066369906,0.0021087362,-0.31626654,-1.0868667,-0.077706836
630156000,630156000,-0.021086626,-0.048171386,0.004363539,-0.008249506,0.86077833,0.10811265
630168000,630168000,-0.009613568,-0.044673275,0.00611471,1.1529783,0.2998605,0.17299962
630176000,630176000,-0.0020366793,-0.045149904,-0.008035667,0.88881797,0.10138603,-0.9209086
630188000,630188000,-0.0055486546,-0.03347438,-0.018945027,0.27734163,0.8242627,-0.95219356
630196000,630196000,-0.0057301237,-0.025706181,0.0010417901,0.09004299,0.84042466,1.0069622
630208000,630208000,-0.015358685,-0.051273953,-0.009286632,-0.4725749,-1.1782937,-0.5452389
630216000,630216000,-0.017213564,-0.018201992,-0.0032786238,-0.36494613,1.8720514,0.32815602
630228000,630228000,-0.027701613,-0.03549991,0.01023617,-0.8011503,-1.009237,0.31833085
630236000,630236000,-0.037264604,-0.030179229,-0.0029444392,-0.88312554,0.18782736,-0.6705077
630248000,630248000,-0.009648716,-0.019032499,-0.012581971,1.4274384,0.34166354,-0.66068923
630256000,630256000,-0.014545528,-0.0087128375,-0.001558726,0.17830592,0.8742086,0.4510494
630264000,630264000,-0.02136686,-0.012157433,0.001807459,-0.33694932,0.12137484,0.46486396
630276000,630276000,0.002365364,-0.00027080497,0.0023946946,1.3926877,0.87289155,-0.026608214
630288000,630288000,-0.007104264,0.0035909975,0.0065878686,-0.18559735,0.0727055,0.21486133
630296000,630296000,0.0028640216,0.0021652607,0.0056843385,0.6129917,0.030492036,0.14511847
630308000,630308000,-0.005891767,0.02581315,0.012242935,-0.2774897,1.4743087,0.35493118
630316000,630316000,-0.014371259,0.00990638,0.010048643,-0.7728863,-0.52042824,-0.04210753
630328000,630328000,-0.015243928,0.0056637195,0.006722192,-0.1172227,-0.32152998,-0.04092125
630336000,630336000,-0.01318552,0.011733161,0.0038026862,0.031214193,0.20390454,-0.26248538
630348000,630348000,-0.016017023,0.011293731,0.0020791835,-0.06439668,0.10014253,-0.12805891
630352000,630352000,-0.010350307,0.0063088783,-0.0023004697,0.4310397,-0.35022846,-0.45148247
630368000,630368000,-0.012620689,0.024465628,-0.0078107337,-0.26825014,1.3814352,-0.23009868
630372000,630372000,-0.0070519177,0.025251018,-0.012219023,0.28736535,0.9853786,-0.52212965
630388000,630388000,-0.011590727,0.044527672,0.009698269,-0.32976368,1.38703,1.1318127
630396000,630396000,-0.0027468465,0.032272402,0.0027180878,0.55257463,-0.32390362,0.021022404
630408000,630408000,-0.01710333,0.02488894,0.010275124,-0.8402566,-0.44002774,0.4102919
630416000,630416000,-0.00016136188,0.028810712,0.0059604677,0.8836042,0.18264595,-0.09745081
630428000,630428000,-0.010750219,0.019290168,-0.0029362417,-0.5559444,-1.0001962,-0.59043217
630436000,630436000,-0.028761512,0.013937087,-0.0017796411,-1.500964,-0.73178035,-0.16528215
630448000,630448000,-0.0015901944,0.02420314,-0.00023496774,1.5514067,0.33356395,0.15164967
630456000,630456000,-2.4174566e-05,0.02630581,0.0047323587,0.62514985,0.3945873,0.45779133
630468000,630468000,0.001963461,0.050399944,-0.003452321,0.50287616,1.1843038,-0.87769026
630476000,630476000,0.0073759463,0.037987698,-0.019578543,0.53930825,-0.35605428,-1.3662302
630488000,630488000,-0.00025196,0.041282322,-0.003627098,-0.3105456,0.5226575,0.4752679
630496000,630496000,-0.004195759,0.038734794,0.011575465,-0.36616248,-0.13058122,1.267463
630508000,630508000,-0.0010139943,0.016656045,-0.009728457,-0.028122753,-1.2514927,-0.8713676
630516000,630516000,-0.008760779,0.015877014,-0.00028608777,-0.45310235,-0.5745008,0.26757076
630528000,630528000,0.008020563,0.032679483,0.0010631446,0.90302825,0.8582788,-0.0062788874
630536000,630536000,-0.0026377444,0.04130113,-0.0040281205,-0.4463018,0.9724705,-0.35587618
630548000,630548000,-0.009659833,0.02594153,-0.0076928935,-0.37622952,-0.5454421,-0.20779823
630556000,630556000,-0.0078034373,0.031834185,-0.0051935385,0.00499627,0.24473965,0.014416684
630568000,630568000,-0.00039892737,0.04067152,-0.012732808,0.34629363,0.47222018,-0.22645958
630572000,630572000,0.00060103217,0.04283563,-0.007914768,0.31407896,0.49523705,0.2522157
630588000,630588000,-0.0018116691,0.04262745,-0.0032928723,0.23919861,-0.17526275,-0.0782834
630592000,630592000,0.0018528589,0.04030337,-0.009202558,0.4656404,-0.31099296,-0.54631066
630608000,630608000,0.0042742686,0.051722877,-0.006538728,0.05901523,1.0288844,0.19457434
630616000,630616000,0.01971941,0.046079636,-0.010441061,1.0366361,-0.031077024,-0.21354626
630628000,630628000,0.008167717,0.029969724,-0.021768583,-0.3016829,-0.73315215,-0.6876537
630636000,630636000,0.0034198158,0.03411618,-0.017559728,-0.51609993,-0.06732799,-0.011183531
630648000,630648000,-0.008710822,0.021170186,-0.0048577967,-0.9098184,-0.86088073,0.754086
630656000,630656000,-0.021481954,0.023068866,-0.00053292885,-1.313089,-0.23080336,0.5063512
630668000,630668000,-0.019137695,0.016705912,-0.0026981195,0.05640012,-0.52703315,-0.03845001
630672000,630672000,-0.008348793,0.0167888,-0.00092220743,0.93978566,-0.343803,0.12292754
630688000,630688000,-0.006817912,0.02135384,0.0007741917,0.4087671,0.22600612,0.02578276
630696000,630696000,0.01407426,0.018851174,0.0015193498,1.482257,-0.125646,0.12952754
630708000,630708000,-0.012591834,0.026099369,0.0048289434,-0.9016326,0.48593092,0.14792241
630716000,630716000,-0.010060872,0.038582634,0.008520725,-0.21870133,1.0063565,0.27992904
630728000,630728000,-0.0022922684,0.02031573,-0.008159497,0.48913538,-0.67543936,-0.68038744
630736000,630736000,0.018345524,0.018704168,-0.0044713533,1.7137446,-0.33972293,-0.10790238
630748000,630748000,0.016257767,0.012685248,-0.008567021,0.10930836,-0.66305053,-0.29960442
630756000,630756000,0.007121662,0.003786522,-0.0056678625,-0.5463709,-0.8808883,0.102061465
630768000,630768000,0.008758196,0.020426612,-0.011727332,0.2570272,0.94957924,-0.41119578
630772000,630772000,0.018118719,0.025960784,-0.010567212,0.9538487,1.0947449,-0.17662787
630788000,630788000,0.011819869,0.031253017,0.003006586,-0.013029277,0.51279634,0.20849939
630796000,630796000,0.010139878,0.023020973,0.005634344,-0.1932113,-0.30455762,0.36437935
630808000,630808000,-0.004077813,0.02156691,0.012063017,-0.68988395,-0.12040836,0.38648057
630816000,630816000,-0.012349158,0.027233662,0.0053506414,-0.88754594,0.3229939,-0.32932648
630828000,630828000,-0.011106015,0.0065279575,0.005651538,0.1430304,-0.9943545,-0.06797258
630836000,630836000,0.008218332,0.019354887,-0.006128887,1.2930174,0.41352245,-0.8846425
630848000,630848000,-0.00048786448,0.000827729,0.0191286,0.0017343536,-0.9249627,1.5234444
630856000,630856000,0.00025873526,0.015419167,0.0032406636,0.045557454,0.62412375,-0.5625365
630868000,630868000,0.004272586,0.004515356,-0.007355481,0.28153586,-0.377839,-0.5850476
630872000,630872000,0.0060897483,0.0125958705,-0.0044731568,0.33932424,0.4243079,-0.14830023
630888000,630888000,0.003211021,0.006109445,0.0019533795,-0.21733262,-0.8033659,0.5689495
630896000,630896000,-0.0060432064,-0.0048156236,0.0019454615,-0.7283215,-1.0364567,0.19375552
630908000,630908000,-0.011324851,0.004051594,0.0039745807,-0.36630285,0.05458791,0.2123988
630916000,630916000,-0.0004392186,-0.0006031479,-0.006470007,0.5833093,-0.3242888,-0.741256
630928000,630928000,0.0048749587,0.0017983469,0.007520508,0.575998,0.21194194,0.93832755
630936000,630936000,-0.0062358677,-0.00842691,-0.011009946,-0.65650636,-0.7240381,-1.0190554
630948000,630948000,-0.0073864516,-0.0046504536,-0.0006398391,-0.08031502,0.15507181,0.48204663
630956000,630956000,-0.016182324,-0.0042318427,-0.0048531913,-0.6110312,0.14386559,-0.1066972
630968000,630968000,-0.0014371153,0.0006129141,-0.0064690793,0.6973728,0.20378177,-0.15812956
630972000,630972000,0.0054519307,-0.0019220398,-0.005161384,1.0402095,-0.07637809,0.0041262046
630984000,630984000,0.0052726776,0.0031092304,0.008692685,-0.015696466,0.32719782,1.002666
630996000,630996000,0.008776414,-0.007533761,-0.0069776513,0.19932623,-0.52794755,-1.1716615
631008000,631008000,0.012640352,0.0077579278,-0.0030517147,0.22185054,0.678625,0.2635098
631016000,631016000,0.010372926,-0.003472557,0.0038071054,0.001821056,-0.51032215,0.4483974
631028000,631028000,0.008586145,0.0043015145,-0.003431735,-0.12742373,0.5054656,-0.07391643
631036000,631036000,0.015123587,-0.010899562,0.0031884168,0.4114575,-0.8246622,0.35624337
631048000,631048000,0.0072858324,0.0074405875,-0.014870278,-0.36885297,0.7566618,-0.74841046
631056000,631056000,0.002479677,0.005293498,-0.0050915456,-0.50755847,0.19038941,0.34456858
631068000,631068000,0.006521344,-0.0074419496,0.010360744,0.0819537,-0.5917382,0.8343085
631076000,631076000,-0.0051189037,0.0005308611,0.003277557,-0.8212395,0.28148398,-0.13756275
631088000,631088000,-0.0047967196,-0.0057287696,0.0058903457,0.17184108,-0.34040537,0.26326936
631096000,631096000,0.009464436,0.0031366183,0.002345827,0.9598969,0.4145255,-0.12726656
631104000,631104000,-0.0006733972,0.012885979,0.008210702,-0.2406646,0.9647798,0.33518177
631116000,631116000,0.005284805,-0.011831089,-0.014997635,0.28600603,-1.4524848,-1.2755734
631128000,631128000,0.0047369865,-0.006512592,0.01130144,0.2499161,-0.057505686,1.1513398
631136000,631136000,0.0011572681,-0.0034395768,0.0015835931,-0.19776326,0.16744667,-0.19498652
631148000,631148000,0.01874794,-0.0044453754,-0.0036789095,0.9708555,0.023393774,-0.38143277
631156000,631156000,0.0074109025,-0.0010423998,-0.011018398,-0.38200122,0.25737017,-0.6433771
631168000,631168000,0.005471507,-0.0054732133,-0.015244448,-0.1804238,-0.07225982,-0.50810665
631176000,631176000,-5.6061683e-05,0.0015137194,-0.0056090746,-0.45557213,0.45476094,0.55085516
631188000,631188000,0.006427051,-0.014863803,-0.00799468,0.35391298,-0.75927496,-0.20490266
631192000,631192000,0.010033058,-0.010263088,-0.008123321,0.5370875,-0.120541394,-0.14711845
631208000,631208000,0.004443415,-0.0040573766,-0.005740151,0.19710729,0.56769776,0.39545333
631216000,631216000,0.0033725805,0.010457404,0.008160937,-0.0055562407,1.1744723,1.0480332
631228000,631228000,6.945193e-05,-0.0055961492,-0.0071918014,-0.094888255,-0.7598628,-0.51290864
631236000,631236000,0.0031342127,-0.0124900965,0.0055220984,0.0993887,-0.74516714,0.62467766
631248000,631248000,0.0014005136,-0.007652626,-0.006151698,0.012168154,-0.21507742,-0.54369354
631252000,631252000,0.0036030945,-0.014028868,-0.0063993284,0.19229475,-0.6763627,-0.38253072
631268000,631268000,0.013219915,-0.010164616,-0.004017047,0.47228307,0.24214593,-0.3473891
631276000,631276000,0.008049406,0.006508216,-0.00433814,-0.15859511,1.1978083,-0.048248984
631288000,631288000,0.00039024156,0.013335829,-0.0022129277,-0.4973265,0.7490035,-0.019341337
631296000,631296000,0.007404141,0.020554617,0.0025286158,0.35006645,0.8693337,0.32372075
631308000,631308000,0.0094255125,0.013205062,0.0066824886,0.020376176,-0.30464986,0.21149248
631316000,631316000,0.0026582077,0.015418886,0.0023107473,-0.411195,0.021710398,-0.15891007
631328000,631328000,0.014959164,0.0077168117,-0.011089033,0.61016345,-0.22839735,-0.7652732
631336000,631336000,0.0028995497,0.012202398,-0.007336478,-0.66739124,0.12241118,-0.09116311
631348000,631348000,0.0033656345,-0.0016914936,0.016377574,0.11349881,-0.7045746,1.4311876
631356000,631356000,0.023002522,0.010247097,0.013517128,1.3166665,0.52308327,0.40331233
631368000,631368000,0.005348708,0.015132972,-0.009105192,-0.5631228,0.18728115,-1.0600711
631372000,631372000,0.0057189297,0.010422838,-0.002229115,-0.34316912,-0.26887146,-0.13069576
631384000,631384000,0.010476573,0.014978017,0.013274665,0.2378138,0.033611044,0.7635955
631396000,631396000,0.00023952132,0.00069198303,0.004986135,-0.5382455,-0.598809,-0.1783173
631408000,631408000,-0.009862697,0.007815466,0.006357209,-0.7017755,-0.12646735,-0.03009894
631416000,631416000,0.0020396155,-0.009516797,-0.00093119405,0.55147606,-1.2017336,-0.4835288
631428000,631428000,-0.005645256,0.011245579,0.0070293723,-0.49125817,0.9255299,0.11412068
631436000,631436000,-0.002846426,0.021547027,0.0011040022,0.12199247,1.1273365,-0.28842923
631448000,631448000,0.016274294,0.0078823725,0.00010969572,0.942149,-0.57272094,-0.3308406
631456000,631456000,0.013574959,-0.0010073481,-0.005510413,0.1563822,-0.8920275,-0.5631523
631468000,631468000,0.0050810953,0.0037828602,-0.0016117637,-0.41692817,0.34446514,0.44610572
631476000,631476000,0.003963981,0.00074889057,0.010091063,-0.15308869,-0.12799115,0.9428415
631488000,631488000,0.0057561477,0.0015606349,-0.012219803,-0.23693478,0.094643526,-0.8543027
631496000,631496000,-0.0022234288,0.008467698,0.0049665095,-0.6227811,0.4902891,0.79588056
631508000,631508000,0.004710446,-0.010777096,-0.0044901576,0.26210722,-1.114578,-0.38127583
631516000,631516000,0.014690274,0.0030453685,-0.015593254,0.7510913,0.6276653,-0.9750277
631528000,631528000,0.008132335,0.011165248,-0.007401655,-0.12622643,0.0005960356,0.61965483
631536000,631536000,0.0118263895,-0.0019268775,0.0016302029,0.1744806,-0.77775156,0.7898427
631548000,631548000,-0.0054214913,0.0026992874,-0.006681251,-0.82238746,0.18756816,-0.19171885
631556000,631556000,0.00738924,0.010048792,0.0058434345,0.4930699,0.47077486,0.7402388
631568000,631568000,0.00063921657,-0.0055276193,-0.0074654445,-0.28912652,-0.5872581,-0.4712241
631576000,631576000,-0.011113935,0.011546944,-0.0058211,-0.89312875,0.9220088,-0.059643373
631588000,631588000,0.01259419,-0.017900756,-0.0086065885,1.1012421,-1.7283118,-0.29416534
631596000,631596000,-0.002032589,-0.027338607,0.003525631,-0.51979864,-1.3440995,0.69925076
631604000,631604000,0.00772916,-0.018802656,-0.0006741274,0.4493517,0.07963234,-0.020448176
631616000,631616000,-0.00039373297,0.0047105844,-0.006942873,-0.22776064,0.96940815,-0.23233105
631628000,631628000,0.004822275,-0.012493492,-0.00033366826,0.17640212,-0.4019318,0.30389434
631636000,631636000,0.0104659,-0.010272929,0.00604269,0.55438393,0.020721814,0.56741625
631648000,631648000,-0.009935022,0.005763869,0.011392727,-1.3989999,0.7000696,0.3719036
631652000,631652000,-0.015909927,0.0031664562,0.0061658174,-1.430687,0.24867266,-0.18961716
631668000,631668000,0.011179552,0.004910832,-0.0032424557,1.2262433,0.66263396,-0.64073
631676000,631676000,0.0058340784,0.0032746885,0.012945127,0.07525927,0.08938311,0.8891793
631688000,631688000,0.00274986,-0.006339346,0.0065365015,0.12640983,-0.29162723,-0.3503304
631696000,631696000,0.008465256,0.004983466,-0.005751524,0.39831576,0.5603262,-0.9361819
631708000,631708000,0.0018598537,-0.0056736562,0.004113251,-0.18464765,-0.34593672,0.34218746
631716000,631716000,0.0040811757,-0.0042957463,0.012142253,0.012964457,-0.058281366,0.6879041
631728000,631728000,0.009276574,-0.0041060545,-0.0003352451,0.45492515,0.044501074,-0.45830953
631736000,631736000,0.008707502,-0.009248742,0.010156352,0.12853163,-0.35816616,0.57028025
