timestamp,gyro_rad[0],gyro_rad[1],gyro_rad[2],gyro_integral_dt,accelerometer_timestamp_relative,accelerometer_m_s2[0],accelerometer_m_s2[1],accelerometer_m_s2[2],accelerometer_integral_dt,accelerometer_clipping,gyro_clipping,accel_calibration_count,gyro_calibration_count
2043328000,0.0005326377,-0.0061252643,0.002929491,4000,0,-0.04070143,-0.010773736,-9.900026,4000,0,0,0,1
2043332000,0.007989493,0.0074568605,-0.007989467,4000,0,-0.1364695,0.00837988,-9.995794,4000,0,0,0,1
2043336000,-0.0005326009,0.014114763,-0.0026631223,4000,0,-0.10893619,0.040701605,-9.931149,4000,0,0,0,1
2043340000,-0.009587359,0.01571266,0.0018642555,4000,0,0.027533324,0.06823493,-9.853339,4000,0,0,0,1
2043344000,-0.0066578877,0.0149137145,0.0047936784,4000,0,0.084994175,-0.010773738,-9.835382,4000,0,0,0,1
2043348000,-0.00079891627,0.013049514,0.01065262,4000,0,0.06464346,-0.0933737,-9.736021,4000,0,0,0,1
2043356000,0.0002662973,0.0045273807,-0.004793686,4000,0,-0.056263745,-0.022744747,-9.795878,4000,0,0,0,1
2043364000,0.010386327,-0.010120013,0.00026631885,4000,0,-0.09097968,-0.09816211,-9.709686,4000,0,0,0,1
2043368000,0.012250572,-0.004527343,-0.009054725,4000,0,-0.08259997,-0.061051987,-9.672577,4000,0,0,0,1
2043372000,0.010120067,0.009321102,-0.016777866,4000,0,-0.0023941998,0.009576978,-9.805454,4000,0,0,0,1
2043376000,0.0058590206,0.018109504,-0.011185236,4000,0,0.09097968,0.0059856777,-9.935939,4000,0,0,0,1
2043380000,-0.002130458,0.015180023,0.002396888,4000,0,0.05985505,-0.04908096,-9.933542,4000,0,0,0,1
2043384000,0.00053261424,0.009054748,-0.0021305382,4000,0,-0.015562311,-0.04788387,-9.91918,4000,0,0,0,1
2043388000,0.00505998,0.007190534,-0.0106526585,4000,0,-0.011971008,0.025139293,-9.909603,4000,0,0,0,1
2043396000,0.007723165,-0.0023968543,0.0026631576,4000,0,0.0,0.06823493,-9.883265,4000,0,0,0,1
2043400000,0.014114758,-0.0045273625,-4.572808e-10,4000,0,0.015562311,0.02154799,-9.908405,4000,0,0,0,1
2043404000,0.009054758,-0.015978947,-0.004793752,4000,0,-0.005985504,-0.070628785,-9.9108,4000,0,0,0,1
2043408000,0.0021305736,-0.0138484035,-0.012516888,4000,0,0.0035913028,-0.12210413,-9.866506,4000,0,0,0,1
2043412000,0.0013316389,0.0015978992,-0.011185272,4000,0,0.09097968,-0.028730249,-9.812637,4000,0,0,0,1
2043420000,0.0063915905,-0.005592648,0.00612526,4000,0,0.03232173,0.041898705,-9.823412,4000,0,0,0,1
2043424000,0.014114733,-0.0047936994,0.017310565,4000,0,-0.039504327,0.06703783,-9.829395,4000,0,0,0,1
2043432000,0.0058589512,0.0018642222,0.005326323,4000,0,0.08619127,0.019153785,-9.8509445,4000,0,0,0,1
2043436000,-0.00026631763,4.250007e-09,-0.0023968448,4000,0,0.11013329,-0.010773739,-9.763555,4000,0,0,0,1
2043440000,0.00026631384,-0.0029294782,-0.0037284258,4000,0,0.056263745,-0.028730253,-9.730038,4000,0,0,0,1
2043444000,0.002663158,-0.008255804,-0.0069242176,4000,0,-0.038307235,-0.08140269,-9.762358,4000,0,0,0,1
2043448000,-0.003728436,-0.012250527,-0.0066579236,4000,0,-0.1197101,-0.044292558,-9.756374,4000,0,0,0,1
2043452000,-0.013315882,-0.015712611,0.009853662,4000,0,-0.1209072,0.009576978,-9.750386,4000,0,0,0,1
2043456000,-0.01757688,-0.016777916,0.012783159,4000,0,-0.082599975,0.010774079,-9.768345,4000,0,0,0,1
2043460000,-0.0130494395,-0.0071906117,-0.0034621407,4000,0,-0.039504327,-0.013167939,-9.825806,4000,0,0,0,1
2043464000,-0.00745682,0.006125236,-0.010120057,4000,0,-0.029927526,-0.0095766345,-9.933543,4000,0,0,0,1
2043468000,-0.0063915686,0.009587387,-0.006391599,4000,0,-0.0011971015,-0.0023940285,-9.921572,4000,0,0,0,1
2043472000,-0.0055926335,0.008788438,-0.0039947433,4000,0,0.062249243,-0.01795634,-9.785105,4000,0,0,0,1
2043476000,-0.00319579,0.01012001,-0.003462119,4000,0,0.055066645,-0.005985335,-9.689336,4000,0,0,0,1
2043480000,-0.00585894,0.016511608,-0.0010652621,4000,0,-0.035913024,0.044292904,-9.71567,4000,0,0,0,1
2043484000,-0.0026631318,0.008522126,0.004793688,4000,0,-0.096965164,0.037110306,-9.8198185,4000,0,0,0,1
2043488000,0.00985375,-0.010119986,0.012516839,4000,0,-0.033518832,-0.06823458,-9.883265,4000,0,0,0,1
2043496000,0.0010652535,-0.0034621488,0.010918951,4000,0,0.037110135,0.017956687,-9.864112,4000,0,0,0,1
2043500000,-0.008522096,-0.009321099,0.011717896,4000,0,-0.027533323,0.07900883,-9.776725,4000,0,0,0,1
2043504000,-0.002130559,-0.005059969,0.015978973,4000,0,-0.06105215,0.110133454,-9.742006,4000,0,0,0,1
2043508000,0.000532584,0.00612528,0.00932106,4000,0,0.019153617,0.087388545,-9.856928,4000,0,0,0,1
2043512000,-0.008788455,0.0066578765,-0.0010652455,4000,0,0.1197101,-0.043095466,-9.874886,4000,0,0,0,1
2043516000,-0.006391591,-0.0005326339,-0.0013315651,4000,0,0.13407533,-0.0945708,-9.858126,4000,0,0,0,1
2043524000,0.0058589517,0.007989486,0.0037284303,4000,0,0.028730419,-0.0825998,-9.730038,4000,0,0,0,1
2043528000,0.006391615,0.011185255,0.015446342,4000,0,0.07661447,-0.16639687,-9.777922,4000,0,0,0,1
2043532000,-0.00026626242,0.0013315442,0.016245287,4000,0,0.09576807,-0.09816211,-9.805455,4000,0,0,0,1
2043536000,-0.005059937,-0.012250568,0.0074568554,4000,0,0.06823475,0.038307402,-9.746798,4000,0,0,0,1
2043544000,-0.0007989554,-0.009853691,0.009853702,4000,0,0.08259997,1.7199409e-07,-9.854535,4000,0,0,0,1
2043552000,-0.007989451,-0.012516877,-0.0055926447,4000,0,-0.014365209,-0.13048384,-9.746798,4000,0,0,0,1
2043556000,0.0047937585,-0.0037284824,-0.017843153,4000,0,-0.009576809,-0.06823458,-9.885659,4000,0,0,0,1
2043560000,0.014913738,0.0021304674,-0.016777892,4000,0,-0.104147784,0.0011972745,-9.937136,4000,0,0,0,1
2043564000,0.01358215,0.0053262617,-0.0029294607,4000,0,-0.1376666,1.7341483e-07,-9.935939,4000,0,0,0,1
2043568000,0.015446345,0.008788412,0.00079896103,4000,0,-0.020350713,0.029927697,-9.877279,4000,0,0,0,1
2043572000,0.016245278,0.0074568614,-0.0010652738,4000,0,0.010773908,0.06943203,-9.793484,4000,0,0,0,1
2043576000,-0.0005326521,0.0015979405,-0.007989475,4000,0,-0.053869545,0.031124797,-9.840169,4000,0,0,0,1
2043580000,-0.007456876,-0.006924201,-0.010120006,4000,0,-0.017956512,-0.014365039,-9.873688,4000,0,0,0,1
2043584000,0.0042610406,-0.0077231918,-0.0034620806,4000,0,0.017956514,0.034716096,-9.792285,4000,0,0,0,1
2043588000,0.0039947424,-0.0023968485,-0.0010652576,4000,0,-0.02873042,0.089782745,-9.762358,4000,0,0,0,1
2043592000,0.003195796,-0.0010652618,-0.0029294766,4000,0,-0.023942018,0.09457115,-9.8198185,4000,0,0,0,1
2043596000,0.0063915844,-0.0029294835,-9.022205e-10,4000,0,-0.034715924,0.051475514,-9.879675,4000,0,0,0,1
2043600000,-7.541615e-09,-0.005592656,0.0077231573,4000,0,-0.07302317,0.007182777,-9.853339,4000,0,0,0,1
2043604000,-0.006657911,0.0015978798,0.0015978846,4000,0,-0.014365209,0.033519,-9.7719345,4000,0,0,0,1
2043608000,-0.005060021,0.013315774,-0.014114783,4000,0,0.07302316,0.040701605,-9.800665,4000,0,0,0,1
2043616000,-0.0007989044,0.016511608,-0.008255795,4000,0,0.004788404,0.008379878,-9.758768,4000,0,0,0,1
2043624000,0.010120068,0.005858934,0.013049458,4000,0,0.015562311,0.027533492,-9.726444,4000,0,0,0,1
2043628000,0.0026631982,-0.0029295078,0.012250527,4000,0,-0.04908113,0.05267261,-9.798271,4000,0,0,0,1
2043632000,0.008788464,-0.0090547195,0.0053263227,4000,0,-0.023942016,0.004788577,-9.842566,4000,0,0,0,1
2043636000,0.014647401,-0.009321041,0.0007989651,4000,0,0.047884032,-0.043095466,-9.862916,4000,0,0,0,1
2043640000,0.012250544,-0.0058589536,0.00026632549,4000,0,0.035913024,-0.019153444,-9.88207,4000,0,0,0,1
2043644000,0.009321054,-0.0013315985,0.004527387,4000,0,0.0035913025,-0.0011969289,-9.859325,4000,0,0,0,1
2043648000,0.0071905293,0.002929476,0.003994754,4000,0,-0.021547817,-0.011970838,-9.830593,4000,0,0,0,1
2043656000,-0.0058589624,0.00639158,1.9639375e-08,4000,0,0.095768064,0.008379879,-9.9515,4000,0,0,0,1
2043660000,-0.0045273844,0.0026631518,-0.0047936854,4000,0,0.19512743,-0.0023940285,-9.93474,4000,0,0,0,1
2043664000,0.015180017,-0.0021305534,-1.0297565e-08,4000,0,0.1436521,0.08020594,-9.886856,4000,0,0,0,1
2043668000,0.02689793,0.0010652578,0.001331605,4000,0,0.044292733,0.1508349,-9.914389,4000,0,0,0,1
2043672000,0.024767399,0.0023968702,-0.0015978842,4000,0,-0.028730419,0.122104466,-9.908405,4000,0,0,0,1
2043676000,0.014381074,-0.0066579687,0.0069241533,4000,0,-0.02513912,0.020350887,-9.815032,4000,0,0,0,1
2043680000,-0.003994748,-0.009054817,0.01225049,4000,0,0.035913024,-0.100556314,-9.823412,4000,0,0,0,1
2043684000,-0.016245276,-0.0037284885,0.0026631174,4000,0,0.07541737,-0.112527326,-9.835382,4000,0,0,0,1
2043688000,-0.011451586,-0.0015979358,-0.005326328,4000,0,0.08259997,-0.04429256,-9.777922,4000,0,0,0,1
2043692000,0.00053264183,0.005592641,0.0007989272,4000,0,-0.032321732,0.009576978,-9.744401,4000,0,0,0,1
2043696000,0.009054764,0.0029294784,0.0085221,4000,0,-0.13527243,0.06224942,-9.765951,4000,0,0,0,1
2043704000,0.0061252555,-1.0688572e-08,0.006924234,4000,0,0.023942016,0.023942186,-9.758768,4000,0,0,0,1
2043708000,0.002929462,0.006657892,0.008788446,4000,0,0.027533323,0.041898705,-9.749191,4000,0,0,0,1
2043712000,-0.0042610555,-0.0018642246,-0.0010652569,4000,0,0.116118796,0.07661464,-9.738417,4000,0,0,0,1
2043716000,-0.008255804,-0.0047936854,0.0015978982,4000,0,0.15682021,0.021547986,-9.725247,4000,0,0,0,1
2043720000,-0.008255811,0.0029294905,0.006391566,4000,0,0.079008654,-0.053869378,-9.707291,4000,0,0,0,1
2043724000,-0.011451589,-0.003728457,-0.0023968236,4000,0,0.039504327,-0.017956343,-9.749191,4000,0,0,0,1
2043728000,-0.012250552,-0.013848436,-0.0015978595,4000,0,0.005985504,-0.0035911317,-9.818621,4000,0,0,0,1
2043732000,0.0005326098,-0.006125254,0.0042610853,4000,0,-0.039504327,-0.032321554,-9.807848,4000,0,0,0,1
2043736000,0.009853687,0.0031958076,0.00213055,4000,0,0.03232173,0.0071827765,-9.764753,4000,0,0,0,1
2043740000,-0.000532624,-0.0023968657,0.0061252634,4000,0,0.08259997,0.0023943712,-9.719263,4000,0,0,0,1
2043744000,-0.0061252504,-0.014381081,0.010652643,4000,0,0.034715924,-0.025138954,-9.698914,4000,0,0,0,1
2043748000,0.004261083,-0.012783152,0.0042611044,4000,0,0.027533324,0.0023943705,-9.67856,4000,0,0,0,1
2043752000,0.0071905483,-0.0015978833,-0.0023968166,4000,0,0.019153617,-0.025138952,-9.640253,4000,0,0,0,1
2043756000,0.0023968453,-0.0010652613,-0.0021305308,4000,0,0.019153617,-0.053869378,-9.664197,4000,0,0,0,1
2043760000,0.006391581,-0.0053263325,0.0063915853,4000,0,0.014365211,-0.033518657,-9.719263,4000,0,0,0,1
2043764000,0.006391577,-0.0029294847,0.009587387,4000,0,-0.03351883,-0.043095466,-9.76954,4000,0,0,0,1
2043768000,-0.005060004,-0.00079896575,0.0005326256,4000,0,0.011971008,-0.016759243,-9.813835,4000,0,0,0,1
2043772000,-0.012783174,-0.00079895474,-0.0023968474,4000,0,0.050278243,-0.019153444,-9.88207,4000,0,0,0,1
2043776000,-0.0130494945,-0.006125264,-0.0007989259,4000,0,-0.005985505,-0.062249076,-9.911995,4000,0,0,0,1
2043780000,-0.0061252634,-0.011451613,-0.0050599687,4000,0,-0.0035913028,0.0071827774,-9.837774,4000,0,0,0,1
2043784000,0.0010652435,-0.010652645,0.00079897424,4000,0,0.01316811,0.09457115,-9.815032,4000,0,0,0,1
2043788000,-0.0047937036,-0.0093210675,0.0045273546,4000,0,-0.0011971011,0.037110306,-9.864112,4000,0,0,0,1
2043792000,-0.0034620997,-0.0037284333,-0.0013315855,4000,0,-0.021547817,-0.05386937,-9.896433,4000,0,0,0,1
2043796000,0.013315803,-0.0026631656,0.0015979166,4000,0,-0.035913028,-0.07541719,-9.834185,4000,0,0,0,1
2043800000,0.011451594,-0.0026631684,0.002929476,4000,0,-0.050278243,-0.087388195,-9.752781,4000,0,0,0,1
2043804000,-0.0071905404,0.0013315572,0.0042610574,4000,0,-0.09816226,-0.06584038,-9.810242,4000,0,0,0,1
2043808000,-0.012783175,0.0021305282,0.0071905362,4000,0,-0.09217678,-0.069431685,-9.880873,4000,0,0,0,1
2043816000,0.0013315722,0.013049491,0.00079892686,4000,0,-0.02873042,-0.033518657,-9.746797,4000,0,0,0,1
2043820000,-0.0026631388,0.014647385,0.0061252904,4000,0,0.025139121,0.050278418,-9.787498,4000,0,0,0,1
2043824000,-0.0074568177,0.009853691,0.011185306,4000,0,0.04668694,0.04189871,-9.895236,4000,0,0,0,1
2043828000,-0.0037284165,0.0058589648,0.009587377,4000,0,0.067037664,0.015562484,-9.861719,4000,0,0,0,1
2043836000,0.0029294782,0.0055926405,0.0015978924,4000,0,-0.011971008,0.04668711,-9.871296,4000,0,0,0,1
2043840000,-0.00026631675,0.002130529,0.0002663188,4000,0,0.021547817,0.09816244,-9.953894,4000,0,0,0,1
2043844000,-0.0061252764,0.0053263213,-0.006657899,4000,0,0.10534488,0.04908131,-9.935939,4000,0,0,0,1
2043848000,-0.01038634,0.0023968501,-0.009054735,4000,0,0.14245501,-0.06464328,-9.8509445,4000,0,0,0,1
2043852000,-0.010918972,-0.0010652663,-0.010120001,4000,0,0.067037664,-0.070628785,-9.788693,4000,0,0,0,1
2043856000,-0.010386309,0.005060006,-0.009587403,4000,0,-0.04668694,-0.0873882,-9.745598,4000,0,0,0,1
2043860000,-0.0077231536,0.0074568572,-0.005592652,4000,0,-0.03232173,-0.15322877,-9.698913,4000,0,0,0,1
2043864000,-0.0039947624,0.001331565,-0.009054742,4000,0,0.025139121,-0.11492151,-9.704897,4000,0,0,0,1
2043868000,-0.0023968476,0.00079894206,-0.010386328,4000,0,0.06105215,-0.004788233,-9.743204,4000,0,0,0,1
2043872000,0.002130529,0.0002663048,-0.005060007,4000,0,0.062249243,0.010774079,-9.75757,4000,0,0,0,1
2043876000,0.006657898,-0.0029294803,-0.011185281,4000,0,0.04548984,-0.044292558,-9.755177,4000,0,0,0,1
2043880000,0.008255827,0.0037284256,-0.013582107,4000,0,0.09337388,-0.052672267,-9.747993,4000,0,0,0,1
2043884000,0.011451639,0.010918917,-0.0023968292,4000,0,0.118513,-0.010773739,-9.746798,4000,0,0,0,1
2043888000,0.009587368,0.0031958013,-0.0039947643,4000,0,0.096965164,0.055066817,-9.791088,4000,0,0,0,1
2043892000,0.0045273523,-0.004527332,-0.015180037,4000,0,0.08738837,0.09337404,-9.818621,4000,0,0,0,1
2043900000,0.01571269,0.011717839,0.013049512,4000,0,0.049081136,0.110133454,-9.767147,4000,0,0,0,1
2043904000,0.009853683,0.00932107,0.0071905465,4000,0,0.09457099,0.033519,-9.742006,4000,0,0,0,1
2043912000,0.0018642177,0.0021305247,0.00026631745,4000,0,0.029927526,-0.011970839,-9.734824,4000,0,0,0,1
2043916000,-0.0058589443,0.0058589447,0.014647395,4000,0,-0.011971009,0.106542155,-9.777922,4000,0,0,0,1
2043920000,-0.01145161,0.010652624,0.01757687,4000,0,-0.040701427,0.06464362,-9.798271,4000,0,0,0,1
2043924000,-0.009054788,0.013582115,0.011717889,4000,0,-0.023942016,-0.022744747,-9.849747,4000,0,0,0,1
2043928000,-0.00612526,0.0063915877,0.007989491,4000,0,0.053869545,0.0011972715,-9.838972,4000,0,0,0,1
2043932000,-0.008255802,-0.0007989737,-0.0015978782,4000,0,0.08738837,0.043095805,-9.837774,4000,0,0,0,1
2043940000,-0.0095873475,0.008255832,-0.0039947615,4000,0,-0.038307235,0.040701605,-9.852142,4000,0,0,0,1
2043944000,0.003728453,0.0077231824,0.0061252364,4000,0,-0.08140286,0.014365383,-9.846155,4000,0,0,0,1
2043948000,0.008255763,0.005592669,-0.010386344,4000,0,0.037110135,0.027533496,-9.879675,4000,0,0,0,1
2043952000,0.0010652172,-0.005059965,-0.015978983,4000,0,0.101753585,0.028730594,-9.8509445,4000,0,0,0,1
2043956000,-0.003195838,-0.010652626,-0.0074568605,4000,0,0.029927524,0.016759584,-9.767147,4000,0,0,0,1
2043960000,0.0029295112,-0.0042610792,-0.012516843,4000,0,0.011971008,0.007182776,-9.763555,4000,0,0,0,1
2043964000,0.0074568605,-0.0031958092,-0.015712643,4000,0,0.06344634,-0.019153448,-9.744401,4000,0,0,0,1
2043968000,-0.0002663457,-0.008522081,-0.014114777,4000,0,0.05626375,-0.10893602,-9.676167,4000,0,0,0,1
2043976000,-0.016245332,-0.009054687,0.00692419,4000,0,-0.044292733,-0.0933737,-9.913193,4000,0,0,0,1
2043980000,-0.015712652,-0.008522115,0.0071905344,4000,0,-0.04668694,-0.04548967,-9.901223,4000,0,0,0,1
2043984000,-0.014114723,-0.013049524,-0.00026628815,4000,0,-0.019153617,0.0059856772,-9.888055,4000,0,0,0,1
2043988000,-0.010918981,-0.0071905134,0.0045273616,4000,0,-0.01316811,0.003591476,-9.926362,4000,0,0,0,1
2043992000,0.0013315328,0.009054803,0.0141147245,4000,0,0.0011971008,-0.07900849,-9.88207,4000,0,0,0,1
2043996000,0.001864206,0.006391593,0.007723165,4000,0,0.008379707,-0.1268925,-9.838972,4000,0,0,0,1
2044000000,-0.004793683,-0.008522125,-0.0071905307,4000,0,0.0035913023,-0.09696501,-9.838972,4000,0,0,0,1
2044004000,0.001065269,-0.0063916007,-0.0069242064,4000,0,0.035913028,-0.05027807,-9.844959,4000,0,0,0,1
2044012000,0.006657909,-0.0042610397,-0.005858962,4000,0,0.08619127,-0.05865778,-9.911995,4000,0,0,0,1
2044016000,0.0031958127,0.0018642306,-0.010652637,4000,0,0.043095633,-0.019153444,-9.897632,4000,0,0,0,1
2044020000,0.008522106,-0.002130556,-0.0034621174,4000,0,-0.047884032,0.038307402,-9.892841,4000,0,0,0,1
2044028000,0.014381106,-0.006657866,-0.009853673,4000,0,-0.049081136,-0.070628785,-9.848549,4000,0,0,0,1
2044032000,0.0002663425,0.004793713,-0.0047936663,4000,0,0.019153617,-0.0909795,-9.844959,4000,0,0,0,1
2044036000,-0.002663151,0.0042610625,0.0021305336,4000,0,0.089782566,-0.01556214,-9.79827,4000,0,0,0,1
2044040000,0.003994728,0.0061252685,-0.0063915984,4000,0,0.08619127,0.010774079,-9.763554,4000,0,0,0,1
2044044000,0.0050600157,0.01651161,-0.012783162,4000,0,-0.008379707,0.017956685,-9.781511,4000,0,0,0,1
2044052000,0.0061252913,0.0101200035,0.0015978769,4000,0,-0.0071826056,-0.0011969312,-9.762358,4000,0,0,0,1
2044056000,-0.0069242227,0.0021305273,-0.00079892075,4000,0,0.06105215,-0.040701255,-9.817425,4000,0,0,0,1
2044060000,-0.023435818,0.0034621265,0.004527383,4000,0,0.08738837,-0.01556214,-9.838972,4000,0,0,0,1
2044068000,-0.022104213,-0.004793689,0.009853757,4000,0,0.07302316,0.06823493,-9.795878,4000,0,0,0,1
2044072000,-0.01038635,0.0066578593,-0.0013316462,4000,0,0.0035913028,0.089782745,-9.72884,4000,0,0,0,1
2044080000,0.007190511,0.023435801,-0.00772325,4000,0,0.043095633,0.051475517,-9.811439,4000,0,0,0,1
2044084000,0.010918959,0.0058589326,-0.0023969163,4000,0,0.05865795,0.06823493,-9.785105,4000,0,0,0,1
2044088000,0.007723177,-0.0077232034,0.007989442,4000,0,0.002394203,0.047884203,-9.767147,4000,0,0,0,1
2044092000,0.0066579287,-0.011185266,0.001864201,4000,0,-0.06823475,0.0359132,-9.792285,4000,0,0,0,1
2044096000,0.010120026,-0.012250532,-0.0013315704,4000,0,-0.067037664,0.056263916,-9.763555,4000,0,0,0,1
2044100000,0.009054701,-0.012783214,0.010386323,4000,0,0.0071826037,0.04549001,-9.759963,4000,0,0,0,1
2044104000,-0.004793732,-0.0018642634,0.01118525,4000,0,0.058657948,-0.03351866,-9.843762,4000,0,0,0,1
2044108000,-0.004527387,0.0018642104,0.009054743,4000,0,0.055066645,-0.09816211,-9.8198185,4000,0,0,0,1
2044112000,0.0066579287,-0.0063915537,0.00932107,4000,0,0.034715924,-0.10654181,-9.77433,4000,0,0,0,1
2044116000,0.0053263446,-0.005326301,-0.0026631616,4000,0,-0.039504327,-0.0825998,-9.813835,4000,0,0,0,1
2044120000,-0.0029294651,0.0005326469,-0.0066579077,4000,0,-0.07062895,-0.032321554,-9.843762,4000,0,0,0,1
2044124000,-0.0039947233,0.008255812,0.004261051,4000,0,0.01316811,0.007182777,-9.855732,4000,0,0,0,1
2044128000,0.0055926414,0.0077231815,0.0050599813,4000,0,0.041898537,0.0323219,-9.799467,4000,0,0,0,1
2044132000,0.01518001,0.00026634877,-0.0037284647,4000,0,0.06703766,0.058658123,-9.743204,4000,0,0,0,1
2044136000,0.020506358,0.010386322,-0.003462059,4000,0,0.039504327,0.06823493,-9.733627,4000,0,0,0,1
2044140000,0.011451616,0.019174745,0.00026640788,4000,0,-0.04548984,0.021547988,-9.78989,4000,0,0,0,1
2044144000,0.0069241817,0.015180041,-0.0055926247,4000,0,-0.04070143,-0.038307063,-9.909603,4000,0,0,0,1
2044148000,0.017576827,0.006391578,-0.009853771,4000,0,-0.011971008,1.7366554e-07,-9.950302,4000,0,0,0,1
2044152000,0.017044187,-0.010652671,-0.005326421,4000,0,0.04070143,0.07541753,-9.917982,4000,0,0,0,1
2044160000,0.000266312,0.00719053,0.0021305492,4000,0,0.09217678,-0.011970839,-9.7324295,4000,0,0,0,1
2044164000,-0.007190527,0.013049483,0.0077231852,4000,0,0.050278243,0.016759584,-9.781511,4000,0,0,0,1
2044168000,-0.010119991,-0.0015979133,0.004261106,4000,0,0.03232173,0.0407016,-9.752781,4000,0,0,0,1
2044172000,-0.013848423,-0.010652672,-0.0015978686,4000,0,0.025139123,0.041898705,-9.664197,4000,0,0,0,1
2044176000,-0.021305267,0.003994724,-0.0063916813,4000,0,0.008379708,0.01197118,-9.743204,4000,0,0,0,1
2044184000,-0.005326327,0.0005326411,-0.0015978793,4000,0,0.050278243,-0.03351866,-9.764753,4000,0,0,0,1
2044188000,0.0031957896,-0.010386314,0.009853716,4000,0,0.02633622,0.074220434,-9.805454,4000,0,0,0,1
2044192000,0.0031957957,-0.010652645,0.00958738,4000,0,-0.023942016,0.1711856,-9.797075,4000,0,0,0,1
2044196000,2.3357728e-08,-0.0034621062,-0.0034621134,4000,0,-0.06464346,0.105345055,-9.744401,4000,0,0,0,1
2044200000,-0.005326306,-0.0031957875,-0.017310554,4000,0,-0.028730422,0.0071827765,-9.825806,4000,0,0,0,1
2044204000,-0.0045273975,-0.007456859,-0.01944107,4000,0,0.041898537,-0.0071824337,-9.840169,4000,0,0,0,1
2044208000,0.0018642014,-0.0050600315,-0.0085221045,4000,0,0.067037664,0.011971179,-9.763555,4000,0,0,0,1
2044216000,0.0007989526,0.008255804,-0.002130516,4000,0,-0.045489836,0.0323219,-9.892841,4000,0,0,0,1
2044224000,-0.010918925,0.004793711,0.010386358,4000,0,0.020350713,0.10175375,-9.889252,4000,0,0,0,1
2044228000,0.00079897203,5.582182e-08,0.014647388,4000,0,0.047884032,0.088585645,-9.842566,4000,0,0,0,1
2044232000,0.010652627,0.003994791,0.011717912,4000,0,0.04548984,0.013168282,-9.835382,4000,0,0,0,1
2044240000,0.0018642137,0.0013315759,0.002663163,4000,0,0.051475346,0.009576979,-9.825806,4000,0,0,0,1
2044244000,-0.0119842235,-0.00159791,0.003994746,4000,0,-0.08978256,0.04189871,-9.838972,4000,0,0,0,1
2044248000,-0.01944107,-0.0077231852,0.0021305496,4000,0,-0.13527241,-0.0035911289,-9.866505,4000,0,0,0,1
2044256000,0.0015979192,0.0021304926,-0.009587386,4000,0,0.02274492,0.009576979,-9.806652,4000,0,0,0,1
2044260000,0.005326319,-0.00053264736,-0.003462114,4000,0,0.05746084,0.050278414,-9.792285,4000,0,0,0,1
2044264000,0.0050600045,-0.0018642121,-0.0037284286,4000,0,0.09816226,0.05267261,-9.792285,4000,0,0,0,1
2044268000,0.0061252774,0.0034621067,-0.0026631516,4000,0,0.08738836,0.04908131,-9.783907,4000,0,0,0,1
2044276000,-0.006391565,-0.0023968888,0.01864213,4000,0,0.09217678,0.033519,-9.810242,4000,0,0,0,1
2044280000,-0.0061252555,-0.0029295103,0.0023968464,4000,0,0.05267244,0.06943203,-9.810242,4000,0,0,0,1
2044288000,0.005858932,-0.010918958,-0.015978977,4000,0,-0.04908113,-0.03351866,-9.762358,4000,0,0,0,1
2044292000,0.0010652161,-0.013848431,-0.006924243,4000,0,0.037110135,-0.017956343,-9.830592,4000,0,0,0,1
2044296000,0.0018642154,-0.010652646,-0.005858951,4000,0,0.020350713,0.106542155,-9.862916,4000,0,0,0,1
2044300000,-0.003462109,-0.008788422,-0.005060024,4000,0,-0.016759416,0.071826234,-9.8677025,4000,0,0,0,1
2044304000,-0.0015979102,-0.01304949,-0.0029294675,4000,0,-0.033518832,-0.07302299,-9.88207,4000,0,0,0,1
2044308000,0.0031958276,-0.0034621167,-0.008522101,4000,0,-0.027533324,-0.10055631,-9.886856,4000,0,0,0,1
2044312000,-0.0013315271,0.014381087,-0.010918948,4000,0,0.0035913023,-0.06464328,-9.880873,4000,0,0,0,1
2044316000,-0.013049444,0.012783223,-0.0002662588,4000,0,0.011971008,-0.056263573,-9.824608,4000,0,0,0,1
2044320000,-0.01438102,0.006657956,0.0117179435,4000,0,-0.009576809,-0.021547649,-9.764753,4000,0,0,0,1
2044324000,0.0023968301,0.007190573,0.0058589154,4000,0,0.033518832,0.013168282,-9.809044,4000,0,0,0,1
2044328000,0.0007989447,0.0050600055,0.002663163,4000,0,0.10175359,-0.05386937,-9.806652,4000,0,0,0,1
2044332000,-0.002663151,0.003728421,0.008255806,4000,0,0.07541737,-0.059854884,-9.709686,4000,0,0,0,1
2044336000,0.013848428,0.007190578,0.005592616,4000,0,0.023942016,0.03591319,-9.692927,4000,0,0,0,1
2044340000,0.018908443,0.0069242404,0.0029294642,4000,0,-0.02274492,0.07062913,-9.720461,4000,0,0,0,1
2044348000,-0.00079895003,-0.0039947005,-0.011717924,4000,0,0.027533323,0.04908131,-9.811439,4000,0,0,0,1
2044352000,0.0029294626,0.00026630764,0.011717915,4000,0,0.02633622,0.009576979,-9.838972,4000,0,0,0,1
2044360000,0.010919016,-0.009321077,0.01970736,4000,0,-0.021547817,-0.10773892,-9.795877,4000,0,0,0,1
2044364000,-0.0042610425,-0.008255875,0.0122505,4000,0,-0.021547817,-0.035912853,-9.763555,4000,0,0,0,1
2044368000,-0.0082558105,-0.0031958153,0.008788414,4000,0,0.03351883,0.05267261,-9.745598,4000,0,0,0,1
2044372000,-0.0029294726,-0.0026631616,0.0029294817,4000,0,-0.039504327,0.0395045,-9.793484,4000,0,0,0,1
2044376000,-0.0013315704,-0.00719054,-0.00372842,4000,0,-0.09217678,-0.026336048,-9.8509445,4000,0,0,0,1
2044380000,-0.0010652875,-0.01438107,0.0021305329,4000,0,-0.047884032,-0.029927352,-9.832989,4000,0,0,0,1
2044384000,0.0007989244,-0.016511599,0.0074568605,4000,0,-0.01316811,-0.02633605,-9.767147,4000,0,0,0,1
2044388000,-0.0018642113,-0.010120017,0.0042610453,4000,0,0.010773908,-0.020350546,-9.742006,4000,0,0,0,1
2044392000,-0.008788439,0.0005326207,0.0013315508,4000,0,0.01436521,0.034716096,-9.714474,4000,0,0,0,1
2044396000,-0.0138484435,0.008522087,-0.008255823,4000,0,0.01436521,0.034716096,-9.725246,4000,0,0,0,1
2044400000,-0.0125169065,0.0034620517,-0.019973692,4000,0,-0.0035913028,-0.06823458,-9.801862,4000,0,0,0,1
2044404000,-0.010386327,0.0031957906,-0.01731055,4000,0,-0.04668694,-0.07900849,-9.7803135,4000,0,0,0,1
2044408000,-0.0029294211,0.011984202,-0.011717949,4000,0,-0.016759414,0.031124793,-9.763554,4000,0,0,0,1
2044412000,0.008788411,0.005592594,-0.010919001,4000,0,0.044292733,0.029927697,-9.871296,4000,0,0,0,1
2044416000,0.004261032,-0.0037284219,-0.0066579217,4000,0,0.010773908,-0.037109964,-9.9108,4000,0,0,0,1
2044420000,-0.003728423,0.0015979045,0.00053262996,4000,0,-0.029927524,-0.009576636,-9.870098,4000,0,0,0,1
2044424000,-0.0055926377,0.0109189665,0.00612526,4000,0,0.02633622,-0.0011969295,-9.866506,4000,0,0,0,1
2044432000,-0.013315821,-0.0061253197,-0.009054693,4000,0,0.01436521,-0.023941847,-9.907209,4000,0,0,0,1
2044436000,0.0013315831,-0.0053263665,-0.009054724,4000,0,0.0071826046,0.07900883,-9.8677025,4000,0,0,0,1
2044440000,0.0061252746,-0.0023968609,-0.0058589447,4000,0,0.014365209,0.110133454,-9.756374,4000,0,0,0,1
2044444000,0.0061252676,-0.0066578924,-0.011451602,4000,0,0.021547817,0.14365229,-9.692927,4000,0,0,0,1
2044452000,0.00026631885,-0.0074568097,-0.015712673,4000,0,0.06105215,-0.055066474,-9.734823,4000,0,0,0,1
2044456000,-0.0071905297,-0.0023968064,-0.0074568703,4000,0,-0.0071826037,-0.124498315,-9.800665,4000,0,0,0,1
2044464000,0.007989487,0.009853704,0.005059988,4000,0,-0.015562311,-0.011970838,-9.830592,4000,0,0,0,1
2044468000,0.007723149,0.010120028,-0.0005326305,4000,0,0.088585466,-0.038307063,-9.762358,4000,0,0,0,1
2044472000,-2.8180581e-08,-0.0018641918,-0.008255806,4000,0,0.08738837,-0.07900849,-9.777922,4000,0,0,0,1
2044476000,-0.0037284682,-0.017044224,-0.0069242213,4000,0,0.043095633,-0.04668677,-9.759963,4000,0,0,0,1
2044480000,-0.004527364,-0.014381071,-0.007723177,4000,0,0.051475346,-0.010773739,-9.776725,4000,0,0,0,1
2044484000,-0.007989414,-0.0034621132,-0.016245319,4000,0,0.043095633,0.014365382,-9.776725,4000,0,0,0,1
2044488000,-0.009321043,-0.0005326375,-0.021038985,4000,0,0.020350715,-0.009576638,-9.78989,4000,0,0,0,1
2044492000,-0.005060065,-0.008788446,-0.015712623,4000,0,-0.04548984,-0.07422009,-9.895235,4000,0,0,0,1
2044496000,0.0034620601,-0.014381105,-0.0087883985,4000,0,-0.09457098,-0.07661429,-9.916785,4000,0,0,0,1
2044500000,0.0031958285,-0.0050600036,-0.010386322,4000,0,-0.019153617,-0.06703748,-9.846155,4000,0,0,0,1
2044504000,-0.007190507,0.0010653056,-0.0149137145,4000,0,0.021547817,0.007182777,-9.795878,4000,0,0,0,1
2044508000,-0.012516882,-0.0042610182,-0.009054733,4000,0,0.034715924,0.011971178,-9.716867,4000,0,0,0,1
2044512000,-0.009321061,0.0002663396,-0.001065279,4000,0,0.1388637,-0.056263577,-9.623495,4000,0,0,0,1
2044516000,-0.005592637,0.0077231578,-0.003994765,4000,0,0.13048401,-0.0011969331,-9.65103,4000,0,0,0,1
2044520000,0.0007989378,0.000798939,-0.004527379,4000,0,-0.011971008,-0.004788235,-9.725247,4000,0,0,0,1
2044524000,0.00213053,0.0010652619,-0.003195794,4000,0,-0.035913024,-0.0011969313,-9.755177,4000,0,0,0,1
2044528000,-0.004261044,0.013315811,0.00026632735,4000,0,0.035913024,0.04668711,-9.742006,4000,0,0,0,1
2044532000,-0.0037283858,0.013049503,0.009321062,4000,0,0.035913024,0.01316828,-9.709686,4000,0,0,0,1
2044536000,-0.0085220635,0.003195785,0.014381105,4000,0,-0.023942016,0.029927695,-9.786302,4000,0,0,0,1
2044540000,-0.01438108,0.004527336,0.010652647,4000,0,0.017956514,0.029927697,-9.884462,4000,0,0,0,1
2044544000,-0.008255845,0.012250514,-4.6052456e-08,4000,0,0.16639705,-0.0909795,-9.897632,4000,0,0,0,1
2044548000,0.0023968418,0.011984225,-0.00079899095,4000,0,0.20111297,-0.067037486,-9.8677025,4000,0,0,0,1
2044552000,0.00878846,0.003994734,0.006657872,4000,0,0.13048401,0.05027841,-9.769541,4000,0,0,0,1
2044560000,0.0058589648,0.0005326472,-0.0050599934,4000,0,0.07062895,-0.07781139,-9.743204,4000,0,0,0,1
2044564000,-0.0005326158,0.009587376,0.0021305482,4000,0,0.08020575,-0.07541719,-9.818621,4000,0,0,0,1
2044568000,-0.013848418,0.00026630732,0.006391632,4000,0,-0.015562311,-0.03351866,-9.812637,4000,0,0,0,1
2044576000,0.0034621183,-0.014381086,-0.003994678,4000,0,-0.020350713,-0.013167939,-9.807847,4000,0,0,0,1
2044580000,-0.00053265697,-0.014647389,0.001065245,4000,0,0.031124622,0.021547986,-9.736021,4000,0,0,0,1
2044584000,-0.009054758,-0.0018642157,0.001597853,4000,0,0.01436521,0.038307402,-9.722853,4000,0,0,0,1
2044592000,0.0005326194,0.0018642046,-0.009587383,4000,0,0.041898537,0.047884203,-9.799467,4000,0,0,0,1
2044596000,-0.004793677,0.0050600218,-0.00452737,4000,0,0.0023942024,0.022745091,-9.809044,4000,0,0,0,1
2044600000,0.0013316101,0.009587393,0.008788414,4000,0,0.09457098,-0.039504156,-9.78989,4000,0,0,0,1
2044604000,0.012250551,0.002130563,0.0045273365,4000,0,0.22385788,-0.020350544,-9.781511,4000,0,0,0,1
2044608000,0.009853699,-0.005592592,-0.007989515,4000,0,0.14963764,0.06224942,-9.792284,4000,0,0,0,1
2044616000,-0.0037284286,-0.002929469,-0.0021305364,4000,0,-0.023942018,0.092176944,-9.806652,4000,0,0,0,1
2044620000,-0.005858952,-0.00079894887,-0.0037284305,4000,0,-0.03232173,0.06584072,-9.763555,4000,0,0,0,1
2044624000,-0.0031957845,0.00825581,0.0031957773,4000,0,-0.037110135,-0.0035911324,-9.773131,4000,0,0,0,1
2044632000,-0.0125168525,-0.0021305585,0.0005326616,4000,0,-0.09457099,0.089782745,-9.763554,4000,0,0,0,1
2044636000,-0.0151800215,-0.003195789,0.0018642151,4000,0,0.04908113,0.07541753,-9.77313,4000,0,0,0,1
2044640000,-0.0013315916,-0.005858888,0.013582151,4000,0,0.11013329,0.016759584,-9.803061,4000,0,0,0,1
2044648000,0.0063915867,-0.004527376,0.012783175,4000,0,0.040701427,0.05865812,-9.777922,4000,0,0,0,1
2044656000,0.0010652551,0.0037284242,0.00372843,4000,0,0.047884032,-0.011970838,-9.892841,4000,0,0,0,1
2044660000,0.0042610513,0.008788437,0.0034621079,4000,0,0.058657948,0.016759586,-9.834186,4000,0,0,0,1
2044664000,0.005059997,0.0037284344,-0.0018642225,4000,0,0.04668694,0.06105232,-9.811439,4000,0,0,0,1
2044668000,0.0047936854,-0.0058589573,-0.0007989644,4000,0,0.025139121,0.041898705,-9.806652,4000,0,0,0,1
2044672000,0.014647377,-0.010652656,0.004527386,4000,0,-0.06464346,0.016759582,-9.75757,4000,0,0,0,1
2044680000,0.0050599836,-0.0069242907,0.013848412,4000,0,-0.06823475,0.002394372,-9.740809,4000,0,0,0,1
2044688000,-0.013315766,-0.010919021,0.00452735,4000,0,0.020350713,0.09457115,-9.773131,4000,0,0,0,1
2044692000,-0.009321007,-0.00079902966,-0.01518005,4000,0,-0.01316811,0.18435372,-9.674969,4000,0,0,0,1
2044696000,-0.002663178,-0.0042611035,-0.019174747,4000,0,-0.08140285,0.092176944,-9.680956,4000,0,0,0,1
2044704000,-0.0005326067,-0.001331574,-0.010918962,4000,0,-0.03351883,-0.021547647,-9.787498,4000,0,0,0,1
2044712000,-0.0031957948,-0.0029294677,0.003728433,4000,0,0.067037664,0.0011972716,-9.776724,4000,0,0,0,1
2044716000,-0.0013315654,-0.009853702,-0.0031957852,4000,0,0.04668694,-0.009576638,-9.783907,4000,0,0,0,1
2044720000,-0.0010652496,-0.007989487,-0.0071905362,4000,0,0.055066645,0.022745088,-9.721657,4000,0,0,0,1
2044724000,0.0055926084,-0.0021305396,0.009587396,4000,0,0.037110135,0.09337404,-9.689336,4000,0,0,0,1
2044728000,0.003994741,-0.0031958118,0.016511599,4000,0,0.011971008,0.11492186,-9.76954,4000,0,0,0,1
2044732000,-0.003994743,-0.0026632021,0.014114748,4000,0,-0.07541737,0.089782745,-9.89045,4000,0,0,0,1
2044736000,0.0018642073,-0.0015978682,0.015180024,4000,0,-0.12569559,0.086191446,-9.96347,4000,0,0,0,1
2044740000,0.007190522,0.0013316086,0.013315812,4000,0,-0.05865795,0.086191446,-9.93594,4000,0,0,0,1
2044744000,-0.0002663094,-0.00026634758,0.012516859,4000,0,-0.01316811,0.007182777,-9.885659,4000,0,0,0,1
2044748000,0.0018642334,-0.005059998,0.008255803,4000,0,0.029927526,-0.026336048,-9.872493,4000,0,0,0,1
2044752000,0.011185268,0.0021305582,0.003195814,4000,0,0.06823475,0.031124797,-9.886856,4000,0,0,0,1
2044756000,0.0063915895,0.0055926037,0.011185294,4000,0,0.02633622,0.06703783,-9.894039,4000,0,0,0,1
2044760000,-0.002396818,0.0029294244,0.020506356,4000,0,-0.08858546,0.019153787,-9.827001,4000,0,0,0,1
2044764000,0.0007989432,0.0031958127,0.017044231,4000,0,-0.10654198,-0.08379689,-9.816229,4000,0,0,0,1
2044768000,0.009587368,0.003994794,0.009853687,4000,0,0.0023942017,-0.11013311,-9.897633,4000,0,0,0,1
2044776000,0.003994741,0.0015979008,0.0005326308,4000,0,-0.008379707,-0.11013311,-9.853339,4000,0,0,0,1
2044780000,0.0037284298,-0.0042610657,0.0063915793,4000,0,0.016759416,-0.08020559,-9.78989,4000,0,0,0,1
2044784000,0.0013315688,-0.0023968576,0.011984226,4000,0,0.040701427,-0.06344618,-9.725246,4000,0,0,0,1
2044792000,-0.008788407,-0.006391605,0.0039947685,4000,0,0.017956512,0.07062913,-9.842566,4000,0,0,0,1
2044796000,0.001597921,-0.0074568694,-0.006657878,4000,0,0.08738837,0.074220434,-9.854535,4000,0,0,0,1
2044800000,2.0260705e-08,0.0034621127,-0.005060004,4000,0,0.08020575,0.0047885757,-9.873688,4000,0,0,0,1
2044808000,-0.01278319,0.012783168,-0.0031957626,4000,0,-0.06105215,0.06224942,-9.9383335,4000,0,0,0,1
2044812000,-0.013582154,0.0010652473,-0.007456799,4000,0,-0.014365211,0.07182623,-9.827001,4000,0,0,0,1
2044816000,-0.00426107,-0.0039947582,-0.0058589354,4000,0,0.0023942022,0.0407016,-9.76954,4000,0,0,0,1
2044820000,0.009853708,0.001331554,-0.0053263116,4000,0,0.01436521,-0.056263577,-9.794682,4000,0,0,0,1
2044824000,0.018375812,0.0018642015,-0.0063915895,4000,0,0.041898537,-0.0945708,-9.773131,4000,0,0,0,1
2044828000,0.01012001,0.00026631908,-0.003994746,4000,0,0.043095633,0.007182777,-9.788694,4000,0,0,0,1
2044832000,0.0061252723,0.00079894846,-0.002396843,4000,0,0.06943185,0.034716096,-9.865309,4000,0,0,0,1
2044840000,0.009321044,-0.011717869,-0.013848488,4000,0,0.019153615,-0.038307063,-9.792285,4000,0,0,0,1
2044844000,0.0050599826,-0.016511584,-0.013582155,4000,0,-0.06823475,-0.028730253,-9.78989,4000,0,0,0,1
2044848000,0.006924209,-0.002663192,-0.00026628238,4000,0,-0.031124622,0.027533494,-9.844959,4000,0,0,0,1
2044856000,0.0074568656,-0.007456848,0.0042610425,4000,0,0.06823475,0.0011972716,-9.7803135,4000,0,0,0,1
2044860000,0.004261047,-0.0007989544,0.0047936994,4000,0,0.027533323,0.0047885748,-9.773131,4000,0,0,0,1
2044864000,0.005060006,7.7024565e-09,0.0002663175,4000,0,0.015562311,-0.067037486,-9.812637,4000,0,0,0,1
2044868000,0.006657904,-0.01118527,-0.0050600246,4000,0,-0.02633622,-0.14125773,-9.824609,4000,0,0,0,1
2044872000,0.0018641929,-0.015446336,-0.0015979243,4000,0,-0.08619127,-0.094570816,-9.856928,4000,0,0,0,1
2044880000,1.4326707e-08,0.008788436,-0.0031957896,4000,0,0.014365209,-0.04548967,-9.874886,4000,0,0,0,1
2044884000,-0.00026631067,0.002929478,0.00079894933,4000,0,0.044292733,-0.051475175,-9.816229,4000,0,0,0,1
2044888000,0.007190539,-0.003728424,0.0026631546,4000,0,0.038307235,-0.038307063,-9.76954,4000,0,0,0,1
2044892000,0.011717895,-0.0021305506,0.0130495,4000,0,0.02633622,-0.011970839,-9.786301,4000,0,0,0,1
2044896000,0.01065262,0.0039947494,0.009853721,4000,0,0.029927526,0.04549001,-9.871296,4000,0,0,0,1
2044900000,0.006391554,0.01171792,0.0034621432,4000,0,0.02633622,0.040701605,-9.858126,4000,0,0,0,1
2044904000,0.0002663491,0.0021305103,0.009054754,4000,0,-0.02274492,-0.1256954,-9.830592,4000,0,0,0,1
2044908000,-0.008788387,-0.013049517,0.006924225,4000,0,-0.12689269,-0.24779971,-9.846155,4000,0,0,0,1
2044912000,-0.012250522,-0.00932109,0.00053260615,4000,0,-0.11492168,-0.10773892,-9.792285,4000,0,0,0,1
2044916000,-0.007190526,0.0013315663,-0.0031958213,4000,0,0.01316811,0.06823493,-9.78989,4000,0,0,0,1
2044924000,0.0082558,-0.010120012,0.0050600083,4000,0,0.07062895,-0.0059853327,-9.822214,4000,0,0,0,1
2044928000,0.011984235,-0.01624528,0.005858951,4000,0,0.077811554,-0.005985333,-9.799467,4000,0,0,0,1
2044932000,0.0074568214,-0.0127832,0.010120003,4000,0,0.04668694,0.05746102,-9.824609,4000,0,0,0,1
2044936000,0.0045273174,-0.0013316021,0.014647404,4000,0,-0.005985504,0.031124797,-9.818621,4000,0,0,0,1
2044940000,0.008788394,0.0063916016,0.018375825,4000,0,-0.08259997,-0.040701255,-9.813835,4000,0,0,0,1
2044944000,0.009587376,0.0071905376,0.01917476,4000,0,-0.041898534,-0.01556214,-9.829395,4000,0,0,0,1
2044948000,0.0026631458,0.0066578845,0.011185292,4000,0,0.07422027,0.031124793,-9.783907,4000,0,0,0,1
2044952000,-3.3807248e-09,0.0077231578,0.0114516,4000,0,0.05626375,-0.015562142,-9.701307,4000,0,0,0,1
2044956000,0.0029295036,0.0055926503,0.018375808,4000,0,-0.07062895,-0.034715757,-9.7001095,4000,0,0,0,1
2044960000,0.00612529,0.0015979193,0.01518001,4000,0,-0.11372458,0.008379876,-9.7324295,4000,0,0,0,1
2044964000,0.0090547735,-0.004261026,0.0069242064,4000,0,0.028730422,0.035913195,-9.787498,4000,0,0,0,1
2044968000,0.0055926717,-0.013049473,-0.0018642447,4000,0,0.14844054,0.089782745,-9.859325,4000,0,0,0,1
2044972000,-0.0026631684,-0.0071905353,0.00053260714,4000,0,0.099359386,0.1328784,-9.921572,4000,0,0,0,1
2044976000,-0.0031958253,0.0082558105,0.012516844,4000,0,0.056263745,0.086191446,-9.969456,4000,0,0,0,1
2044980000,0.004527372,0.007723198,0.010652625,4000,0,0.04908113,0.031124797,-9.888055,4000,0,0,0,1
2044984000,0.0042610513,0.0015979129,-0.00053264084,4000,0,-0.016759416,0.034716096,-9.805454,4000,0,0,0,1
2044988000,-1.5603341e-09,0.0031957994,-0.0039947378,4000,0,-0.055066645,-0.010773739,-9.791088,4000,0,0,0,1
2044992000,0.0023968483,0.0029294745,-0.00079895096,4000,0,0.005985504,-0.05746067,-9.7719345,4000,0,0,0,1
2044996000,-0.0026631625,0.0010652664,-0.0015978935,4000,0,0.05267244,-0.038307063,-9.777922,4000,0,0,0,1
2045000000,-0.015978973,3.6438244e-09,-0.005592634,4000,0,0.035913024,-0.010773738,-9.841368,4000,0,0,0,1
2045004000,-0.017310554,-0.0029294437,0.0002663317,4000,0,0.06823475,0.023942191,-9.878479,4000,0,0,0,1
2045008000,-0.007723168,-0.002929469,0.0015979061,4000,0,0.14604634,-0.023941848,-9.841368,4000,0,0,0,1
2045012000,-0.010386322,-0.0042610816,-0.006657902,4000,0,0.14604634,-0.14245483,-9.865309,4000,0,0,0,1
2045016000,-0.017310569,-0.010652616,-0.0026631495,4000,0,0.04548984,-0.15921424,-9.900026,4000,0,0,0,1
2045020000,-0.006924244,-0.009321033,0.0045274035,4000,0,-0.040701427,-0.04668677,-9.852142,4000,0,0,0,1
2045028000,0.013848437,0.0071905726,-0.009054724,4000,0,0.008379708,0.0035914765,-9.950302,4000,0,0,0,1
2045032000,0.0005326206,0.009853775,-0.017310506,4000,0,0.03232173,-0.019153444,-9.900026,4000,0,0,0,1
2045036000,-0.0063915816,0.008522157,-0.013315784,4000,0,0.1101333,-0.029927354,-9.770737,4000,0,0,0,1
2045040000,-0.0045273956,-0.0010652562,-0.0055926237,4000,0,0.15203184,-0.039504156,-9.77433,4000,0,0,0,1
2045044000,0.0007989341,-0.009853716,-0.011185263,4000,0,0.1197101,-0.020350544,-9.776725,4000,0,0,0,1
2045048000,0.008255811,-0.0106526725,-0.015446315,4000,0,0.047884036,-0.035912853,-9.720461,4000,0,0,0,1
2045052000,0.010386311,-0.008788465,-0.0074568386,4000,0,-0.010773908,-0.062249076,-9.781511,4000,0,0,0,1
2045060000,0.006125296,0.010652651,-0.0061252364,4000,0,-0.053869545,0.0395045,-9.879675,4000,0,0,0,1
2045064000,0.0023968935,0.0061252452,0.0101200165,4000,0,0.005985506,0.02633639,-9.90601,4000,0,0,0,1
2045072000,0.0010652861,-0.01012001,0.010120013,4000,0,0.049081136,-0.06344618,-9.868899,4000,0,0,0,1
2045080000,0.005592621,-0.0074568433,-0.013315819,4000,0,-0.047884036,-0.020350542,-9.791088,4000,0,0,0,1
2045084000,-0.0029295252,-0.018375777,-0.0135821635,4000,0,-0.0047884043,-0.056263577,-9.7240505,4000,0,0,0,1
2045088000,-0.009587435,-0.022636836,-0.007989521,4000,0,0.0023942022,-0.11133021,-9.707291,4000,0,0,0,1
2045096000,0.011185314,-0.0023968858,-0.009054694,4000,0,-0.07422027,-0.027533155,-9.762358,4000,0,0,0,1
2045100000,0.011185277,-0.002396848,-0.008255801,4000,0,-0.13168111,0.038307402,-9.806652,4000,0,0,0,1
2045104000,0.006657894,-0.006924196,-0.011185299,4000,0,-0.09097968,0.020350887,-9.785105,4000,0,0,0,1
2045108000,0.008522093,-0.0082558235,-0.0034621086,4000,0,0.020350715,0.0383074,-9.709686,4000,0,0,0,1
2045112000,0.002929472,-0.012250537,-0.0031958206,4000,0,0.04668694,0.05267261,-9.733627,4000,0,0,0,1
2045116000,-0.010119976,-0.017310526,-0.013315866,4000,0,0.06464346,-0.041898362,-9.776724,4000,0,0,0,1
2045120000,-0.011984183,-0.015712665,-0.019441092,4000,0,0.088585466,-0.11851282,-9.753977,4000,0,0,0,1
2045124000,-0.007723105,-0.005326345,-0.018375833,4000,0,0.09696517,-0.057460666,-9.806652,4000,0,0,0,1
2045128000,-0.0119842235,-0.0015978431,-0.0077231852,4000,0,0.16879125,0.019153787,-9.860521,4000,0,0,0,1
2045132000,-0.015712664,-0.003195734,0.0047936947,4000,0,0.1364695,-0.0071824333,-9.8988285,4000,0,0,0,1
2045136000,-0.00719055,-0.0018641382,0.016511604,4000,0,-0.0047884034,-0.019153444,-9.903616,4000,0,0,0,1
2045140000,0.0063915895,-0.002396766,0.018375821,4000,0,-0.023942016,-0.007182434,-9.852142,4000,0,0,0,1
2045144000,0.01358208,0.006391663,0.0034621344,4000,0,0.019153617,0.015562482,-9.825806,4000,0,0,0,1
2045148000,0.008788406,0.0141147915,-0.005592594,4000,0,-0.0047884043,0.035913195,-9.743204,4000,0,0,0,1
2045152000,-0.0002663108,0.009587389,-0.0026631316,4000,0,0.04548984,-0.029927356,-9.660605,4000,0,0,0,1
2045160000,0.004793711,0.0031958004,0.012783164,4000,0,0.0011971034,-0.022744749,-9.758768,4000,0,0,0,1
2045164000,0.0023968425,0.0018642149,0.0050600064,4000,0,-0.041898534,0.06105232,-9.824609,4000,0,0,0,1
2045168000,-0.012250559,0.004261049,-0.013848429,4000,0,0.015562311,0.14006098,-9.865309,4000,0,0,0,1
2045172000,-0.011984233,0.002663166,-0.012516852,4000,0,0.05865795,0.108936355,-9.864112,4000,0,0,0,1
2045176000,0.0021305287,-0.0002663229,0.0005326314,4000,0,0.05267244,0.0059856763,-9.849746,4000,0,0,0,1
2045180000,0.006391587,-0.00026632063,0.007723167,4000,0,0.047884032,-0.055066474,-9.813835,4000,0,0,0,1
2045184000,0.0069242083,0.003994738,0.0103863375,4000,0,0.053869545,-0.023941848,-9.791088,4000,0,0,0,1
2045188000,-0.0007989569,0.0047936733,0.006125283,4000,0,-0.017956512,0.038307402,-9.787498,4000,0,0,0,1
2045192000,-0.010918947,-0.0031958143,0.0055926577,4000,0,-0.023942016,0.058658123,-9.788693,4000,0,0,0,1
2045196000,-0.016245289,-0.005592617,0.014381074,4000,0,0.044292733,0.009576979,-9.830592,4000,0,0,0,1
2045200000,-0.011185303,-0.0031957321,0.021305285,4000,0,0.008379707,-0.0825998,-9.837774,4000,0,0,0,1
2045204000,0.00026630808,-0.0018641369,0.01997372,4000,0,-0.02274492,-0.0897824,-9.827002,4000,0,0,0,1
2045212000,0.008255827,-0.009054723,-0.0013315893,4000,0,-0.010773908,0.031124793,-9.846155,4000,0,0,0,1
2045216000,0.0098537,-0.009054747,-0.0023968408,4000,0,0.02274492,-0.008379537,-9.828198,4000,0,0,0,1
2045220000,0.002663158,-0.0021305329,0.0005326332,4000,0,0.043095633,-0.06105198,-9.836578,4000,0,0,0,1
2045224000,-0.0034621058,-0.011717909,-0.0029294903,4000,0,0.062249243,-0.07422009,-9.829395,4000,0,0,0,1
2045232000,0.0138484,-0.004261082,0.0053264033,4000,0,0.019153615,0.0047885724,-9.642649,4000,0,0,0,1
2045236000,0.008788411,0.007989476,0.0053263726,4000,0,0.01316811,0.035913195,-9.660606,4000,0,0,0,1
2045240000,-0.00053264055,0.003462111,-0.0007989369,4000,0,0.118513,0.05267261,-9.7396145,4000,0,0,0,1
2045248000,0.0023968422,-0.007456852,-0.0013315852,4000,0,0.020350713,0.086191446,-9.8509445,4000,0,0,0,1
2045252000,-0.0042610564,-0.01145159,-0.0029294977,4000,0,-0.020350713,0.07900883,-9.830592,4000,0,0,0,1
2045256000,-0.004261046,-0.010652649,-0.0058589564,4000,0,0.021547817,-0.049080964,-9.751583,4000,0,0,0,1
2045260000,0.0005326344,-0.0071905423,-0.004527363,4000,0,0.062249243,-0.055066478,-9.797075,4000,0,0,0,1
2045264000,-0.0013315721,0.004793693,-0.0005326346,4000,0,0.015562309,0.0395045,-9.8509445,4000,0,0,0,1
2045268000,0.0018642116,0.010120011,-0.0021305364,4000,0,-0.04668694,0.014365381,-9.764753,4000,0,0,0,1
2045272000,0.011984201,0.0023968415,-0.007989524,4000,0,-0.077811554,-0.10534471,-9.64983,4000,0,0,0,1
2045276000,-0.00053264067,-0.0005325935,-0.009321067,4000,0,-0.06105215,-0.123301215,-9.709686,4000,0,0,0,1
2045280000,-0.018908443,0.001331638,-0.010120016,4000,0,0.06943185,-0.07182589,-9.835382,4000,0,0,0,1
2045284000,-0.010652631,0.005592624,-0.007989516,4000,0,0.1412579,-0.04788387,-9.8677025,4000,0,0,0,1
2045288000,0.0026631884,0.007989488,0.0029294442,4000,0,0.04429273,0.02513929,-9.842566,4000,0,0,0,1
2045292000,0.0018642177,0.008255798,0.004793693,4000,0,-0.06105215,0.056263912,-9.799467,4000,0,0,0,1
2045296000,-0.0010652873,0.0165116,0.0013315942,4000,0,-0.023942016,0.043095805,-9.795877,4000,0,0,0,1
2045300000,-0.0037283984,0.023435822,0.006924233,4000,0,0.077811554,0.04549001,-9.792285,4000,0,0,0,1
2045304000,-0.010119979,0.017310537,0.009321122,4000,0,0.08140285,0.056263916,-9.755177,4000,0,0,0,1
2045308000,-0.009587394,0.0079894615,0.002130558,4000,0,0.034715924,0.07900883,-9.779117,4000,0,0,0,1
2045312000,-0.005060023,0.0063915686,-0.0047936975,4000,0,0.0035913028,0.088585645,-9.843762,4000,0,0,0,1
2045316000,-0.0015978904,0.009321059,-0.003994754,4000,0,0.017956514,0.04189871,-9.816229,4000,0,0,0,1
2045320000,0.00825581,0.010652634,-0.0013316119,4000,0,0.023942018,-0.055066474,-9.762358,4000,0,0,0,1
2045324000,0.009321056,0.009321069,-0.0031958008,4000,0,0.009576809,-0.007182435,-9.7803135,4000,0,0,0,1
2045328000,-0.000798959,0.007190555,-0.0058589303,4000,0,0.059855048,0.11731607,-9.805454,4000,0,0,0,1
2045332000,-0.008255799,0.006391602,-0.003994724,4000,0,0.084994175,0.15921459,-9.709686,4000,0,0,0,1
2045340000,-0.009054758,-0.0005326391,-0.0045273593,4000,0,0.043095633,0.025139293,-9.745598,4000,0,0,0,1
2045344000,0.00426105,-0.005060005,0.0023968609,4000,0,0.029927526,-0.05746067,-9.827002,4000,0,0,0,1
2045352000,0.003462078,0.012783148,0.009853744,4000,0,0.06584056,0.13766678,-9.818621,4000,0,0,0,1
2045360000,-0.010652648,0.00612526,0.001065288,4000,0,0.0071826056,0.017956693,-9.933542,4000,0,0,0,1
2045364000,-0.010652629,0.00479372,0.009321069,4000,0,-0.01436521,-0.124498315,-9.96347,4000,0,0,0,1
2045368000,-0.009054715,-0.003462082,0.01571268,4000,0,0.06105215,-0.07661429,-9.9515,4000,0,0,0,1
2045372000,0.0034621276,-0.006924154,0.015978992,4000,0,0.09816227,-0.011970836,-9.911995,4000,0,0,0,1
2045376000,0.011451542,0.0007989855,0.020506369,4000,0,0.071826056,-0.01556214,-9.888055,4000,0,0,0,1
2045380000,0.0029295147,-0.0045274408,0.02237054,4000,0,0.13048403,0.022745091,-9.860521,4000,0,0,0,1
2045384000,-0.0029294058,-0.011451625,0.009054733,4000,0,0.1376666,0.043095805,-9.793484,4000,0,0,0,1
2045388000,0.0010652589,-0.0071905255,0.007190547,4000,0,0.028730422,0.05746102,-9.763555,4000,0,0,0,1
2045392000,0.005592612,-0.0034621016,0.0149137145,4000,0,0.010773908,0.074220434,-9.781511,4000,0,0,0,1
2045396000,0.0042610406,0.0021305382,0.0066579124,4000,0,0.04668694,0.043095805,-9.786301,4000,0,0,0,1
2045400000,0.0021305203,0.0053263213,0.003994748,4000,0,0.04908113,-0.022744745,-9.797075,4000,0,0,0,1
2045404000,-0.00106527,0.01145159,0.0055926493,4000,0,0.025139121,-0.04548967,-9.807848,4000,0,0,0,1
2045408000,-0.0037284705,0.014114747,-0.004793681,4000,0,-0.035913024,-0.005985334,-9.7719345,4000,0,0,0,1
2045412000,-0.0066579296,0.0085221175,-0.008522095,4000,0,-0.07422027,0.028730592,-9.713276,4000,0,0,0,1
2045416000,-0.007456804,0.013315837,0.003462101,4000,0,-0.05746084,0.07302333,-9.752781,4000,0,0,0,1
2045420000,0.0010652833,0.012516879,0.0074568163,4000,0,0.005985504,0.090979844,-9.859325,4000,0,0,0,1
2045424000,0.0077231545,0.0031958136,-0.001597928,4000,0,0.07302316,0.06584072,-9.917982,4000,0,0,0,1
2045428000,0.007190539,0.0066578984,0.00053264195,4000,0,0.06584056,0.043095805,-9.90601,4000,0,0,0,1
2045432000,0.00053264684,0.011451575,0.0074568777,4000,0,-0.044292733,0.011971181,-9.837774,4000,0,0,0,1
2045440000,0.010918967,-0.000798929,0.0034620897,4000,0,0.079008654,0.046687108,-9.702503,4000,0,0,0,1
2045444000,0.010120008,0.0010652462,0.008255807,4000,0,0.09097968,0.14963779,-9.736021,4000,0,0,0,1
2045452000,-0.0007989379,-0.0026631742,0.0058589512,4000,0,-0.02873042,0.010774078,-9.767147,4000,0,0,0,1
2045456000,-0.008255814,0.006391572,0.0013315717,4000,0,-0.05985505,-0.06464328,-9.779117,4000,0,0,0,1
2045464000,-0.0055927075,0.011451543,-0.01784319,4000,0,-0.038307235,-0.056263573,-9.933542,4000,0,0,0,1
2045468000,0.0023967908,0.0015978516,-0.016777927,4000,0,-0.023942016,-0.11013312,-9.865309,4000,0,0,0,1
2045472000,0.0045273667,-0.0005326504,-0.008788437,4000,0,-0.009576809,-0.09696501,-9.798271,4000,0,0,0,1
2045476000,0.008788453,0.0071905106,-0.0002663036,4000,0,0.01436521,-0.043095466,-9.756374,4000,0,0,0,1
2045480000,0.012516869,0.0117179,0.0031957985,4000,0,0.011971008,-0.019153448,-9.7324295,4000,0,0,0,1
2045484000,0.009054739,0.0047937045,-0.0013315958,4000,0,-0.06224925,0.0011972715,-9.76116,4000,0,0,0,1
2045488000,0.010120003,-0.0018641973,-0.0066579254,4000,0,-0.09816227,0.028730595,-9.807848,4000,0,0,0,1
2045492000,0.0047936854,-0.00292948,-0.0023968518,4000,0,-0.023942016,0.011971181,-9.809044,4000,0,0,0,1
2045496000,-0.009321074,-0.0023968492,0.0069242064,4000,0,0.017956512,-0.004788233,-9.779117,4000,0,0,0,1
2045500000,-0.00985369,-0.006125264,0.009587392,4000,0,0.04548984,0.0323219,-9.737221,4000,0,0,0,1
2045504000,-0.00026629824,-0.009853677,0.0066579357,4000,0,0.100556485,0.09457116,-9.703699,4000,0,0,0,1
2045508000,-0.0015978765,-0.0031957978,-0.0039947466,4000,0,0.03232173,0.13766676,-9.718067,4000,0,0,0,1
2045512000,-0.01278316,0.0013315917,-0.011451608,4000,0,-0.067037664,0.049081307,-9.7324295,4000,0,0,0,1
2045520000,-0.0055926023,0.0149136875,-0.0074569117,4000,0,-0.017956514,-0.055066474,-9.75757,4000,0,0,0,1
2045524000,-0.0034620909,0.013848441,-0.003195802,4000,0,0.005985504,-0.032321554,-9.8198185,4000,0,0,0,1
2045528000,-0.0031957733,-0.003994732,0.005326342,4000,0,0.06584056,0.053869717,-9.800665,4000,0,0,0,1
2045532000,-0.0031957987,-0.0050600013,0.010386329,4000,0,0.077811554,0.13407548,-9.751583,4000,0,0,0,1
2045536000,0.000532594,0.002396866,0.017843178,4000,0,0.06943185,0.12689286,-9.768345,4000,0,0,0,1
2045540000,0.010119974,0.008522173,0.014647381,4000,0,0.077811554,0.10175376,-9.793484,4000,0,0,0,1
2045544000,0.007190462,0.013582164,-0.0023968196,4000,0,0.11252749,0.0047885776,-9.786301,4000,0,0,0,1
2045548000,-0.0042611016,-0.0034620839,-0.009054738,4000,0,0.13168111,-0.084993996,-9.791088,4000,0,0,0,1
2045552000,-0.004261115,-0.021305285,-0.0069241947,4000,0,0.07302316,-0.084993996,-9.8509445,4000,0,0,0,1
2045556000,-0.00026633704,-0.009853696,-0.00026630424,4000,0,-0.020350713,-0.06584038,-9.878476,4000,0,0,0,1
2045560000,0.000798927,0.004261059,0.006657906,4000,0,-0.023942016,-0.050278075,-9.829395,4000,0,0,0,1
2045564000,0.0023968455,0.0013315852,0.002396842,4000,0,0.035913024,-0.039504156,-9.749191,4000,0,0,0,1
2045568000,0.006125277,-0.007989478,-0.0023968543,4000,0,0.03232173,-0.058657777,-9.713276,4000,0,0,0,1
2045572000,0.007190539,-0.007190534,-0.0037284216,4000,0,0.010773908,-0.05386937,-9.832989,4000,0,0,0,1
2045576000,0.004793725,0.007989503,-0.010386298,4000,0,0.027533324,-0.035912853,-9.892841,4000,0,0,0,1
2045584000,0.006391538,0.0079894895,-0.01970741,4000,0,-0.09337388,-0.049080968,-9.710884,4000,0,0,0,1
2045592000,-0.0037285169,-0.01731053,-0.003195794,4000,0,-0.010773908,0.119710274,-9.7719345,4000,0,0,0,1
2045596000,0.0015978866,-0.026897937,-0.0031957515,4000,0,-0.077811554,0.073023334,-9.807847,4000,0,0,0,1
2045600000,0.00026639094,-0.019441074,-0.010652653,4000,0,-0.043095633,0.007182777,-9.836578,4000,0,0,0,1
2045604000,-0.010918904,-0.0053262822,-0.011717982,4000,0,-0.037110135,0.0059856763,-9.853339,4000,0,0,0,1
2045608000,-0.016245263,0.0029295224,-0.005060046,4000,0,-0.029927526,0.031124793,-9.844959,4000,0,0,0,1
2045612000,-0.0077231624,-0.00026627726,0.0047937,4000,0,0.02633622,0.019153787,-9.7719345,4000,0,0,0,1
2045616000,0.013315808,-0.0018641639,0.010918967,4000,0,0.005985504,0.003591473,-9.752781,4000,0,0,0,1
2045620000,0.022370527,0.005326322,0.018375853,4000,0,0.031124625,-0.013167938,-9.865309,4000,0,0,0,1
2045624000,0.013582118,0.0066578337,0.020506367,4000,0,0.09337388,-0.019153444,-9.891646,4000,0,0,0,1
2045628000,0.0050600064,0.004261032,0.0133158155,4000,0,0.05985505,0.021547988,-9.783907,4000,0,0,0,1
2045632000,-0.0066579124,0.0050599608,0.0095874,4000,0,-0.013168109,0.06224942,-9.78989,4000,0,0,0,1
2045636000,-0.018642122,0.0013315333,0.005592667,4000,0,-0.037110135,0.0407016,-9.844959,4000,0,0,0,1
2045640000,-0.013582118,-0.0015978843,0.0061252876,4000,0,0.0,0.0035914734,-9.779118,4000,0,0,0,1
2045644000,0.0007989457,-0.0029294025,0.016245298,4000,0,0.027533323,0.017956685,-9.776725,4000,0,0,0,1
2045648000,-0.0002662705,-0.010918966,0.013848437,4000,0,0.04548984,0.011971181,-9.852142,4000,0,0,0,1
2045652000,-0.010918909,-0.0119842775,0.00053259346,4000,0,0.08020575,0.02154799,-9.884462,4000,0,0,0,1
2045656000,-0.012516844,-0.0069242334,-0.003195819,4000,0,0.11252749,0.06464362,-9.88207,4000,0,0,0,1
2045660000,-0.0021305224,-0.0026631758,-0.003994736,4000,0,0.104147784,-0.010773738,-9.809044,4000,0,0,0,1
2045664000,0.007989502,0.005059987,-0.012783171,4000,0,0.034715928,-0.0957679,-9.75757,4000,0,0,0,1
2045668000,0.007723165,0.0050600115,-0.013848438,4000,0,-0.07661447,-0.06464328,-9.811439,4000,0,0,0,1
2045672000,0.0037284272,0.0026631611,-0.0066579026,4000,0,-0.1616086,0.013168282,-9.799467,4000,0,0,0,1
2045676000,0.0047936947,0.004527373,-0.0069242185,4000,0,-0.13527243,0.052672606,-9.69532,4000,0,0,0,1
2045680000,0.015180029,0.0077231424,-0.005858965,4000,0,-0.10175359,0.009576976,-9.708489,4000,0,0,0,1
2045684000,0.016777918,0.011185281,-0.0069242064,4000,0,-0.08738837,-0.0071824337,-9.837774,4000,0,0,0,1
2045688000,0.005592622,0.008255842,-0.009587356,4000,0,0.01795651,0.04189871,-9.879675,4000,0,0,0,1
2045692000,0.0018642247,0.0050600027,-0.0015978925,4000,0,0.10534488,0.016759586,-9.788693,4000,0,0,0,1
2045696000,0.002663157,0.007456854,-0.005060006,4000,0,0.08738837,-0.06344618,-9.697714,4000,0,0,0,1
2045700000,0.002663156,0.012516865,-0.010652642,4000,0,0.08738837,-0.10055631,-9.694122,4000,0,0,0,1
2045704000,-0.000798932,0.0074568572,-0.0023968348,4000,0,0.09337388,-0.087388195,-9.721657,4000,0,0,0,1
2045708000,-0.0050600064,-0.00452737,0.0013315944,4000,0,0.023942016,-0.033518657,-9.753977,4000,0,0,0,1
2045712000,-0.0013315821,-0.007456847,0.003195804,4000,0,-0.025139121,-0.044292558,-9.78989,4000,0,0,0,1
2045716000,0.0029294703,-0.0077231624,0.0061252816,4000,0,0.025139121,-0.0945708,-9.791088,4000,0,0,0,1
2045720000,0.0018642127,-0.0031957927,0.0026631628,4000,0,0.095768064,-0.11252732,-9.818621,4000,0,0,0,1
2045724000,-0.0047936933,0.0063915844,-0.0023968464,4000,0,0.05626375,-0.096965,-9.804258,4000,0,0,0,1
2045728000,-0.016777908,0.0066579166,-0.00026629094,4000,0,0.0047884043,-0.05147517,-9.744401,4000,0,0,0,1
2045736000,0.0015978948,-0.0058589685,-0.0026631334,4000,0,0.0035913028,0.037110306,-9.747993,4000,0,0,0,1
2045740000,0.0063915662,-0.011717918,0.005326329,4000,0,-0.08379707,0.086191446,-9.816229,4000,0,0,0,1
2045744000,-0.0005326405,-0.011185293,0.0071905097,4000,0,-0.058657948,0.09576824,-9.860521,4000,0,0,0,1
2045748000,-0.0034620895,0.00053262315,-0.005858969,4000,0,-0.01436521,0.0047885785,-9.843762,4000,0,0,0,1
2045752000,0.0021305291,0.0021304975,-0.02423477,4000,0,0.023942016,-0.07541719,-9.785105,4000,0,0,0,1
2045760000,-0.0010652964,-0.0034621009,0.0037284251,4000,0,0.079008654,-0.05386937,-9.7324295,4000,0,0,0,1
2045764000,0.0005326037,0.006391594,0.017843178,4000,0,0.005985504,-0.007182436,-9.7396145,4000,0,0,0,1
2045768000,-0.0018642189,0.0061252574,0.014381076,4000,0,0.014365209,0.05746101,-9.755177,4000,0,0,0,1
2045772000,0.004527389,0.00079897564,0.009054739,4000,0,0.047884032,0.0323219,-9.807848,4000,0,0,0,1
2045776000,0.005592618,0.0077231745,0.0069242297,4000,0,0.020350713,-0.05027807,-9.830593,4000,0,0,0,1
2045780000,0.002396836,0.00932106,0.0047937017,4000,0,0.0011971011,-0.058657777,-9.773131,4000,0,0,0,1
2045784000,0.0018642258,0.0007989477,0.0045273695,4000,0,0.020350713,-0.022744747,-9.767147,4000,0,0,0,1
2045788000,-0.0021305329,0.0039947336,0.007723171,4000,0,0.02633622,-0.01556214,-9.844959,4000,0,0,0,1
2045792000,-0.009321084,0.00958736,0.0034621158,4000,0,-0.021547817,0.04189871,-9.844959,4000,0,0,0,1
2045796000,-0.014381087,0.0018641824,-0.004527335,4000,0,-0.101753585,0.0442929,-9.751583,4000,0,0,0,1
2045800000,-0.014647398,-0.0066578942,-0.0026631206,4000,0,-0.089782566,-0.025138952,-9.726444,4000,0,0,0,1
2045804000,-0.014381076,-0.009321054,-0.00079893507,4000,0,-0.025139123,-0.051475175,-9.795877,4000,0,0,0,1
2045808000,-0.007989475,-0.0066579184,-0.003728419,4000,0,0.013168109,-0.0035911307,-9.873688,4000,0,0,0,1
2045812000,0.0029294768,0.00026631396,0.00053263805,4000,0,0.019153617,0.04668711,-9.897632,4000,0,0,0,1
2045816000,0.009321064,0.002130526,0.0050600073,4000,0,0.008379708,-0.02513895,-9.8281975,4000,0,0,0,1
2045820000,0.010386326,0.000798971,-0.0015979018,4000,0,0.033518832,-0.06344618,-9.800665,4000,0,0,0,1
2045824000,0.0063915886,0.005060025,-0.006391572,4000,0,0.062249243,0.0035914753,-9.874886,4000,0,0,0,1
2045828000,0.002396854,0.00958739,-0.006657887,4000,0,0.13527243,0.08140303,-9.847351,4000,0,0,0,1
2045832000,0.0039947513,0.010386323,-0.0042610625,4000,0,0.18674776,0.12928708,-9.797075,4000,0,0,0,1
2045840000,0.0029294926,0.0029294714,0.006657899,4000,0,0.22266078,-0.067037486,-9.749191,4000,0,0,0,1
2045844000,0.002396844,-0.00026630922,-0.0015978996,4000,0,0.18195936,-0.0921766,-9.722853,4000,0,0,0,1
2045848000,0.0039947433,-0.00079894013,-0.012783175,4000,0,0.1221043,-0.12090703,-9.791088,4000,0,0,0,1
2045852000,0.009321065,-0.0013315893,-0.023169503,4000,0,0.052672435,-0.14484905,-9.801862,4000,0,0,0,1
2045856000,0.008255832,0.0026631714,-0.02370212,4000,0,0.049081136,-0.16879109,-9.801862,4000,0,0,0,1
2045864000,0.010918977,0.0053262915,0.00053263694,4000,0,0.11133039,-0.017956343,-9.855732,4000,0,0,0,1
2045868000,0.0002663098,0.0077231787,-0.0029294498,4000,0,0.013168108,0.009576979,-9.843762,4000,0,0,0,1
2045872000,-0.0053263237,-0.0005326271,-0.00026630246,4000,0,-0.043095633,-0.009576637,-9.831791,4000,0,0,0,1
2045876000,-0.00346211,-0.0002663112,0.002663161,4000,0,0.020350715,-0.01436504,-9.804258,4000,0,0,0,1
2045880000,-0.009321061,-0.0023968583,-0.004261057,4000,0,0.06464346,-0.0047882325,-9.809044,4000,0,0,0,1
2045888000,-0.004527403,-0.016777918,-0.0034620566,4000,0,-0.056263745,-0.009576639,-9.707291,4000,0,0,0,1
2045896000,0.014381077,0.0063916096,-0.010386308,4000,0,0.0035913028,-0.037109964,-9.718066,4000,0,0,0,1
2045900000,0.013848426,-0.0005326521,-0.0058589876,4000,0,0.043095633,-0.10414762,-9.767147,4000,0,0,0,1
2045904000,0.011185275,-0.002130535,-0.0034621179,4000,0,0.029927524,-0.071825884,-9.821015,4000,0,0,0,1
2045912000,0.008522125,0.002396822,0.0069242185,4000,0,-0.084994175,0.010774079,-9.786301,4000,0,0,0,1
2045916000,0.0077231787,-0.0005326496,0.012250535,4000,0,-0.04908113,0.0143653825,-9.806652,4000,0,0,0,1
2045920000,-0.0055926144,-0.0061252946,-1.686868e-08,4000,0,0.01316811,0.034716096,-9.818621,4000,0,0,0,1
2045924000,-0.015446315,-0.0039947643,-0.01198425,4000,0,0.010773908,0.027533492,-9.744401,4000,0,0,0,1
2045928000,-0.007190492,0.0063915434,-0.014114797,4000,0,-0.016759416,0.0011972706,-9.714474,4000,0,0,0,1
2045936000,-0.0023968422,0.008788447,-0.0069242,4000,0,0.067037664,0.110133454,-9.848549,4000,0,0,0,1
2045944000,0.002663175,0.009321061,0.00053261017,4000,0,0.039504327,-0.03351866,-9.873688,4000,0,0,0,1
2045948000,2.0804454e-09,-0.0023968455,0.0005326302,4000,0,0.020350713,0.10175375,-9.844959,4000,0,0,0,1
2045952000,-0.003994741,-0.012250544,0.0010652611,4000,0,0.06943185,0.15562327,-9.791088,4000,0,0,0,1
