timestamp,timestamp_sample,q[0],q[1],q[2],q[3],delta_q_reset[0],delta_q_reset[1],delta_q_reset[2],delta_q_reset[3],quat_reset_counter
2043328000,2043328000,-0.07634583,0.0032362426,-0.00032422427,-0.99707615,0.99940926,-2.3283067e-10,-2.3283067e-10,0.0343701,2
2043332000,2043332000,-0.07636247,0.003250245,-0.00034034805,-0.99707484,0.99940926,-2.3283067e-10,-2.3283067e-10,0.0343701,2
2043340000,2043340000,-0.076365285,0.0033119624,-0.00032293992,-0.99707437,0.99940926,-2.3283067e-10,-2.3283067e-10,0.0343701,2
2043348000,2043348000,-0.07633572,0.0033695386,-0.00031069055,-0.9970765,0.99940926,-2.3283067e-10,-2.3283067e-10,0.0343701,2
2043360000,2043360000,-0.07634054,0.0033903872,-0.00031975732,-0.99707603,0.99940926,-2.3283067e-10,-2.3283067e-10,0.0343701,2
2043368000,2043368000,-0.076359704,0.0033582903,-0.00036089506,-0.99707466,0.99940926,-2.3283067e-10,-2.3283067e-10,0.0343701,2
2043380000,2043380000,-0.07641292,0.0034420022,-0.00039232822,-0.99707025,0.99940926,-2.3283067e-10,-2.3283067e-10,0.0343701,2
2043388000,2043388000,-0.07643986,0.0034741084,-0.00040421696,-0.9970681,0.99940926,-2.3283067e-10,-2.3283067e-10,0.0343701,2
2043400000,2043400000,-0.07644263,0.0034590608,-0.00044862,-0.99706787,0.99940926,-2.3283067e-10,-2.3283067e-10,0.0343701,2
2043408000,2043408000,-0.07647859,0.003398441,-0.0004646317,-0.99706537,0.99940926,-2.3283067e-10,-2.3283067e-10,0.0343701,2
2043420000,2043420000,-0.07649708,0.003398452,-0.00047977836,-0.9970639,0.99940926,-2.3283067e-10,-2.3283067e-10,0.0343701,2
2043428000,2043428000,-0.07643315,0.0033917835,-0.00052978506,-0.9970689,0.99940926,-2.3283067e-10,-2.3283067e-10,0.0343701,2
2043440000,2043440000,-0.07643643,0.0033894563,-0.0005392066,-0.99706864,0.99940926,-2.3283067e-10,-2.3283067e-10,0.0343701,2
2043448000,2043448000,-0.07646461,0.00334917,-0.00053254527,-0.9970666,0.99940926,-2.3283067e-10,-2.3283067e-10,0.0343701,2
2043460000,2043460000,-0.076427676,0.0032773358,-0.00043714335,-0.9970697,0.99940926,-2.3283067e-10,-2.3283067e-10,0.0343701,2
2043468000,2043468000,-0.0764615,0.003311172,-0.00041067137,-0.997067,0.99940926,-2.3283067e-10,-2.3283067e-10,0.0343701,2
2043480000,2043480000,-0.07647965,0.0033846216,-0.00038535302,-0.99706537,0.99940926,-2.3283067e-10,-2.3283067e-10,0.0343701,2
2043488000,2043488000,-0.07644594,0.0033806905,-0.0003987162,-0.997068,0.99940926,-2.3283067e-10,-2.3283067e-10,0.0343701,2
2043500000,2043500000,-0.07637144,0.0033389165,-0.00040418073,-0.9970738,0.99940926,-2.3283067e-10,-2.3283067e-10,0.0343701,2
2043508000,2043508000,-0.07632229,0.0033413905,-0.0004005792,-0.9970776,0.99940926,-2.3283067e-10,-2.3283067e-10,0.0343701,2
2043520000,2043520000,-0.07632623,0.0033558337,-0.00037340692,-0.9970772,0.99940926,-2.3283067e-10,-2.3283067e-10,0.0343701,2
2043528000,2043528000,-0.07628929,0.003392265,-0.00040029382,-0.99707985,0.99940926,-2.3283067e-10,-2.3283067e-10,0.0343701,2
2043540000,2043540000,-0.076222,0.0033457412,-0.00038015906,-0.9970852,0.99940926,-2.3283067e-10,-2.3283067e-10,0.0343701,2
2043548000,2043548000,-0.07620029,0.00330074,-0.00036084847,-0.99708706,0.99940926,-2.3283067e-10,-2.3283067e-10,0.0343701,2
2043560000,2043560000,-0.07628226,0.0032708521,-0.00038121932,-0.99708086,0.99940926,-2.3283067e-10,-2.3283067e-10,0.0343701,2
2043568000,2043568000,-0.076287776,0.0032945608,-0.0004409331,-0.9970803,0.99940926,-2.3283067e-10,-2.3283067e-10,0.0343701,2
2043580000,2043580000,-0.07632786,0.0032974698,-0.00045721402,-0.9970772,0.99940926,-2.3283067e-10,-2.3283067e-10,0.0343701,2
2043588000,2043588000,-0.07633812,0.0032759476,-0.00047191067,-0.9970765,0.99940926,-2.3283067e-10,-2.3283067e-10,0.0343701,2
2043600000,2043600000,-0.07633036,0.0032552057,-0.0004893974,-0.99707717,0.99940926,-2.3283067e-10,-2.3283067e-10,0.0343701,2
2043608000,2043608000,-0.076356344,0.0032866239,-0.00046815682,-0.9970751,0.99940926,-2.3283067e-10,-2.3283067e-10,0.0343701,2
2043620000,2043620000,-0.07640364,0.003379008,-0.00048683942,-0.99707115,0.99940926,-2.3283067e-10,-2.3283067e-10,0.0343701,2
2043628000,2043628000,-0.07635433,0.0033827154,-0.00051299436,-0.9970749,0.99940926,-2.3283067e-10,-2.3283067e-10,0.0343701,2
2043640000,2043640000,-0.076343425,0.0033286752,-0.00058063737,-0.9970759,0.99940926,-2.3283067e-10,-2.3283067e-10,0.0343701,2
2043648000,2043648000,-0.07632792,0.003329132,-0.0006139639,-0.9970771,0.99940926,-2.3283067e-10,-2.3283067e-10,0.0343701,2
2043660000,2043660000,-0.07633226,0.003357429,-0.0006040484,-0.99707663,0.99940926,-2.3283067e-10,-2.3283067e-10,0.0343701,2
2043668000,2043668000,-0.07633061,0.0033478064,-0.00068679865,-0.99707675,0.99940926,-2.3283067e-10,-2.3283067e-10,0.0343701,2
2043680000,2043680000,-0.076297015,0.0033142099,-0.00075350114,-0.9970794,0.99940926,-2.3283067e-10,-2.3283067e-10,0.0343701,2
2043688000,2043688000,-0.07630298,0.0033067015,-0.0006964787,-0.997079,0.99940926,-2.3283067e-10,-2.3283067e-10,0.0343701,2
2043700000,2043700000,-0.07627562,0.0033053376,-0.00073260715,-0.9970811,0.99940926,-2.3283067e-10,-2.3283067e-10,0.0343701,2
2043708000,2043708000,-0.07624507,0.0033160655,-0.00075089285,-0.99708337,0.99940926,-2.3283067e-10,-2.3283067e-10,0.0343701,2
2043720000,2043720000,-0.07623214,0.0033100399,-0.0007076589,-0.9970843,0.99940926,-2.3283067e-10,-2.3283067e-10,0.0343701,2
2043728000,2043728000,-0.07624065,0.0032774387,-0.0006568577,-0.99708384,0.99940926,-2.3283067e-10,-2.3283067e-10,0.0343701,2
2043740000,2043740000,-0.07621669,0.0032635399,-0.0006745739,-0.9970858,0.99940926,-2.3283067e-10,-2.3283067e-10,0.0343701,2
2043748000,2043748000,-0.076187566,0.0032084594,-0.00066603237,-0.99708813,0.99940926,-2.3283067e-10,-2.3283067e-10,0.0343701,2
2043760000,2043760000,-0.07618481,0.0031883263,-0.00069554965,-0.9970884,0.99940926,-2.3283067e-10,-2.3283067e-10,0.0343701,2
2043768000,2043768000,-0.07616519,0.0031794985,-0.00069696055,-0.99709,0.99940926,-2.3283067e-10,-2.3283067e-10,0.0343701,2
2043780000,2043780000,-0.07618244,0.0031459883,-0.0006292701,-0.9970888,0.99940926,-2.3283067e-10,-2.3283067e-10,0.0343701,2
2043788000,2043788000,-0.0761727,0.0031055822,-0.00061806734,-0.9970896,0.99940926,-2.3283067e-10,-2.3283067e-10,0.0343701,2
2043800000,2043800000,-0.076167755,0.003082572,-0.0006580767,-0.99709004,0.99940926,-2.3283067e-10,-2.3283067e-10,0.0343701,2
2043808000,2043808000,-0.076145604,0.0030913702,-0.0006181125,-0.9970917,0.99940926,-2.3283067e-10,-2.3283067e-10,0.0343701,2
2043820000,2043820000,-0.07612812,0.0031606283,-0.00061130896,-0.99709284,0.99940926,-2.3283067e-10,-2.3283067e-10,0.0343701,2
2043828000,2043828000,-0.07608738,0.0031925454,-0.0005908655,-0.99709594,0.99940926,-2.3283067e-10,-2.3283067e-10,0.0343701,2
2043840000,2043840000,-0.07608003,0.0032241615,-0.0006026525,-0.9970964,0.99940926,-2.3283067e-10,-2.3283067e-10,0.0343701,2
2043848000,2043848000,-0.07611261,0.0032410335,-0.00057016715,-0.99709386,0.99940926,-2.3283067e-10,-2.3283067e-10,0.0343701,2
2043860000,2043860000,-0.076164864,0.0032667783,-0.00051298615,-0.99708974,0.99940926,-2.3283067e-10,-2.3283067e-10,0.0343701,2
2043868000,2043868000,-0.07620491,0.0032710247,-0.00049989816,-0.9970867,0.99940926,-2.3283067e-10,-2.3283067e-10,0.0343701,2
2043880000,2043880000,-0.07626675,0.0032691532,-0.0005329554,-0.99708194,0.99940926,-2.3283067e-10,-2.3283067e-10,0.0343701,2
2043888000,2043888000,-0.07628119,0.003293189,-0.0005764174,-0.9970808,0.99940926,-2.3283067e-10,-2.3283067e-10,0.0343701,2
2043900000,2043900000,-0.07629806,0.0033089865,-0.0006382722,-0.9970794,0.99940926,-2.3283067e-10,-2.3283067e-10,0.0343701,2
2043908000,2043908000,-0.076297574,0.0033323418,-0.00067059294,-0.9970793,0.99940926,-2.3283067e-10,-2.3283067e-10,0.0343701,2
2043920000,2043920000,-0.07623474,0.003370569,-0.0006421629,-0.997084,0.99940926,-2.3283067e-10,-2.3283067e-10,0.0343701,2
2043928000,2043928000,-0.07619661,0.003411869,-0.00061466516,-0.9970869,0.99940926,-2.3283067e-10,-2.3283067e-10,0.0343701,2
2043940000,2043940000,-0.07623868,0.003439733,-0.00055583986,-0.99708354,0.99940926,-2.3283067e-10,-2.3283067e-10,0.0343701,2
2043948000,2043948000,-0.076248504,0.0034637107,-0.00058141537,-0.9970827,0.99940926,-2.3283067e-10,-2.3283067e-10,0.0343701,2
2043960000,2043960000,-0.0763221,0.003422715,-0.0005792846,-0.9970772,0.99940926,-2.3283067e-10,-2.3283067e-10,0.0343701,2
2043968000,2043968000,-0.076382875,0.0033975972,-0.00059138745,-0.99707264,0.99940926,-2.3283067e-10,-2.3283067e-10,0.0343701,2
2043980000,2043980000,-0.076371156,0.0033466234,-0.00050450134,-0.9970737,0.99940926,-2.3283067e-10,-2.3283067e-10,0.0343701,2
2043988000,2043988000,-0.07636395,0.00330944,-0.00045132497,-0.9970744,0.99940926,-2.3283067e-10,-2.3283067e-10,0.0343701,2
2044000000,2044000000,-0.07633724,0.0033225345,-0.00044901547,-0.99707645,0.99940926,-2.3283067e-10,-2.3283067e-10,0.0343701,2
2044008000,2044008000,-0.07635064,0.003303484,-0.00046664802,-0.9970755,0.99940926,-2.3283067e-10,-2.3283067e-10,0.0343701,2
2044020000,2044020000,-0.076393,0.0032908197,-0.00050230656,-0.9970723,0.99940926,-2.3283067e-10,-2.3283067e-10,0.0343701,2
2044028000,2044028000,-0.07642402,0.0032449693,-0.00056383247,-0.99707,0.99940926,-2.3283067e-10,-2.3283067e-10,0.0343701,2
2044040000,2044040000,-0.07644437,0.0032742352,-0.00056921504,-0.99706835,0.99940926,-2.3283067e-10,-2.3283067e-10,0.0343701,2
2044048000,2044048000,-0.076476686,0.0033448117,-0.000596993,-0.9970656,0.99940926,-2.3283067e-10,-2.3283067e-10,0.0343701,2
2044060000,2044060000,-0.076467596,0.0033783533,-0.00054988277,-0.9970662,0.99940926,-2.3283067e-10,-2.3283067e-10,0.0343701,2
2044068000,2044068000,-0.07642206,0.003377817,-0.00044404474,-0.9970698,0.99940926,-2.3283067e-10,-2.3283067e-10,0.0343701,2
2044080000,2044080000,-0.07645188,0.0034887386,-0.00043780883,-0.99706715,0.99940926,-2.3283067e-10,-2.3283067e-10,0.0343701,2
2044088000,2044088000,-0.07644131,0.003480134,-0.00047233797,-0.997068,0.99940926,-2.3283067e-10,-2.3283067e-10,0.0343701,2
2044100000,2044100000,-0.07642037,0.0034009346,-0.0005148331,-0.99706984,0.99940926,-2.3283067e-10,-2.3283067e-10,0.0343701,2
2044108000,2044108000,-0.07638031,0.003400347,-0.0004940359,-0.9970729,0.99940926,-2.3283067e-10,-2.3283067e-10,0.0343701,2
2044120000,2044120000,-0.0763809,0.0033736974,-0.0005068984,-0.9970729,0.99940926,-2.3283067e-10,-2.3283067e-10,0.0343701,2
2044128000,2044128000,-0.076362625,0.0034033523,-0.0005102897,-0.9970742,0.99940926,-2.3283067e-10,-2.3283067e-10,0.0343701,2
2044140000,2044140000,-0.07637783,0.003452711,-0.0006053093,-0.99707276,0.99940926,-2.3283067e-10,-2.3283067e-10,0.0343701,2
2044148000,2044148000,-0.076409504,0.0034900666,-0.0006550492,-0.99707025,0.99940926,-2.3283067e-10,-2.3283067e-10,0.0343701,2
2044160000,2044160000,-0.07642026,0.0034541532,-0.00069926673,-0.9970695,0.99940926,-2.3283067e-10,-2.3283067e-10,0.0343701,2
2044168000,2044168000,-0.07639685,0.0034777105,-0.00066431443,-0.9970712,0.99940926,-2.3283067e-10,-2.3283067e-10,0.0343701,2
2044180000,2044180000,-0.076434,0.0034931216,-0.0005553769,-0.99706835,0.99940926,-2.3283067e-10,-2.3283067e-10,0.0343701,2
2044188000,2044188000,-0.07641808,0.0034719065,-0.00054744957,-0.99706966,0.99940926,-2.3283067e-10,-2.3283067e-10,0.0343701,2
2044200000,2044200000,-0.076441154,0.0034349177,-0.00053715723,-0.99706805,0.99940926,-2.3283067e-10,-2.3283067e-10,0.0343701,2
2044208000,2044208000,-0.07649778,0.0034085384,-0.0005274939,-0.99706376,0.99940926,-2.3283067e-10,-2.3283067e-10,0.0343701,2
2044220000,2044220000,-0.076500595,0.0034488493,-0.0005199989,-0.99706346,0.99940926,-2.3283067e-10,-2.3283067e-10,0.0343701,2
2044228000,2044228000,-0.07645143,0.0034581593,-0.0004986049,-0.9970672,0.99940926,-2.3283067e-10,-2.3283067e-10,0.0343701,2
2044240000,2044240000,-0.07641246,0.0034702842,-0.0005406303,-0.9970702,0.99940926,-2.3283067e-10,-2.3283067e-10,0.0343701,2
2044248000,2044248000,-0.07640086,0.0034548424,-0.00047465105,-0.99707115,0.99940926,-2.3283067e-10,-2.3283067e-10,0.0343701,2
2044260000,2044260000,-0.07644298,0.003445577,-0.00046428814,-0.997068,0.99940926,-2.3283067e-10,-2.3283067e-10,0.0343701,2
2044268000,2044268000,-0.07645652,0.0034455243,-0.00048505946,-0.99706686,0.99940926,-2.3283067e-10,-2.3283067e-10,0.0343701,2
2044280000,2044280000,-0.07638849,0.0034378923,-0.00046217142,-0.9970721,0.99940926,-2.3283067e-10,-2.3283067e-10,0.0343701,2
2044288000,2044288000,-0.076448835,0.0034022992,-0.00048134907,-0.99706763,0.99940926,-2.3283067e-10,-2.3283067e-10,0.0343701,2
2044300000,2044300000,-0.076484784,0.003333956,-0.0004729713,-0.9970651,0.99940926,-2.3283067e-10,-2.3283067e-10,0.0343701,2
2044308000,2044308000,-0.07650786,0.0032994782,-0.00047223797,-0.99706346,0.99940926,-2.3283067e-10,-2.3283067e-10,0.0343701,2
2044320000,2044320000,-0.07650687,0.0033694308,-0.00041821314,-0.9970633,0.99940926,-2.3283067e-10,-2.3283067e-10,0.0343701,2
2044328000,2044328000,-0.07649007,0.003392161,-0.0004253794,-0.9970645,0.99940926,-2.3283067e-10,-2.3283067e-10,0.0343701,2
2044340000,2044340000,-0.07645717,0.0034213895,-0.00048665758,-0.997067,0.99940926,-2.3283067e-10,-2.3283067e-10,0.0343701,2
2044348000,2044348000,-0.076497465,0.003406101,-0.000503149,-0.9970638,0.99940926,-2.3283067e-10,-2.3283067e-10,0.0343701,2
2044360000,2044360000,-0.07638462,0.0033743626,-0.0005597125,-0.99707264,0.99940926,-2.3283067e-10,-2.3283067e-10,0.0343701,2
2044368000,2044368000,-0.07634296,0.0033523892,-0.00053233904,-0.99707586,0.99940926,-2.3283067e-10,-2.3283067e-10,0.0343701,2
2044380000,2044380000,-0.07634083,0.0033034233,-0.0005169586,-0.9970763,0.99940926,-2.3283067e-10,-2.3283067e-10,0.0343701,2
2044388000,2044388000,-0.07631781,0.003249548,-0.0005102128,-0.9970781,0.99940926,-2.3283067e-10,-2.3283067e-10,0.0343701,2
2044400000,2044400000,-0.07637169,0.003278595,-0.0004410112,-0.99707395,0.99940926,-2.3283067e-10,-2.3283067e-10,0.0343701,2
2044408000,2044408000,-0.07642991,0.003310051,-0.0004161072,-0.9970694,0.99940926,-2.3283067e-10,-2.3283067e-10,0.0343701,2
2044420000,2044420000,-0.07646457,0.0033143081,-0.00043451224,-0.99706674,0.99940926,-2.3283067e-10,-2.3283067e-10,0.0343701,2
2044428000,2044428000,-0.07644995,0.0033500313,-0.00039696548,-0.9970678,0.99940926,-2.3283067e-10,-2.3283067e-10,0.0343701,2
2044440000,2044440000,-0.0764983,0.0033222162,-0.00038260163,-0.9970642,0.99940926,-2.3283067e-10,-2.3283067e-10,0.0343701,2
2044448000,2044448000,-0.07655508,0.0032890697,-0.00040857028,-0.9970598,0.99940926,-2.3283067e-10,-2.3283067e-10,0.0343701,2
2044460000,2044460000,-0.076597564,0.003280851,-0.00039114093,-0.99705666,0.99940926,-2.3283067e-10,-2.3283067e-10,0.0343701,2
2044468000,2044468000,-0.07658792,0.0033167065,-0.00042332997,-0.99705726,0.99940926,-2.3283067e-10,-2.3283067e-10,0.0343701,2
2044480000,2044480000,-0.07663223,0.0032492408,-0.00039834724,-0.9970541,0.99940926,-2.3283067e-10,-2.3283067e-10,0.0343701,2
2044488000,2044488000,-0.07670548,0.0032423923,-0.00036085246,-0.9970485,0.99940926,-2.3283067e-10,-2.3283067e-10,0.0343701,2
2044500000,2044500000,-0.07677359,0.003183583,-0.0003563765,-0.9970434,0.99940926,-2.3283067e-10,-2.3283067e-10,0.0343701,2
2044508000,2044508000,-0.07682028,0.0031787541,-0.00031440784,-0.99703985,0.99940926,-2.3283067e-10,-2.3283067e-10,0.0343701,2
2044520000,2044520000,-0.07683781,0.0031962441,-0.00028457172,-0.9970384,0.99940926,-2.3283067e-10,-2.3283067e-10,0.0343701,2
2044528000,2044528000,-0.076842636,0.0032238087,-0.00028057222,-0.99703807,0.99940926,-2.3283067e-10,-2.3283067e-10,0.0343701,2
2044540000,2044540000,-0.076773025,0.003267223,-0.00022795705,-0.99704325,0.99940926,-2.3283067e-10,-2.3283067e-10,0.0343701,2
2044548000,2044548000,-0.07677473,0.00331514,-0.00021797803,-0.9970429,0.99940926,-2.3283067e-10,-2.3283067e-10,0.0343701,2
2044560000,2044560000,-0.07676929,0.0033066683,-0.0002583273,-0.9970434,0.99940926,-2.3283067e-10,-2.3283067e-10,0.0343701,2
2044568000,2044568000,-0.07675237,0.0033272575,-0.00022927072,-0.9970447,0.99940926,-2.3283067e-10,-2.3283067e-10,0.0343701,2
2044580000,2044580000,-0.07675948,0.003252356,-0.00020365008,-0.9970444,0.99940926,-2.3283067e-10,-2.3283067e-10,0.0343701,2
2044588000,2044588000,-0.076764345,0.0032587328,-0.00017935183,-0.9970439,0.99940926,-2.3283067e-10,-2.3283067e-10,0.0343701,2
2044600000,2044600000,-0.076775186,0.0032903017,-0.0001731982,-0.99704295,0.99940926,-2.3283067e-10,-2.3283067e-10,0.0343701,2
2044608000,2044608000,-0.07678238,0.003278818,-0.00021486847,-0.9970425,0.99940926,-2.3283067e-10,-2.3283067e-10,0.0343701,2
2044620000,2044620000,-0.07680532,0.00326412,-0.00019870103,-0.9970408,0.99940926,-2.3283067e-10,-2.3283067e-10,0.0343701,2
2044628000,2044628000,-0.076785386,0.0032929198,-0.000182187,-0.99704224,0.99940926,-2.3283067e-10,-2.3283067e-10,0.0343701,2
2044640000,2044640000,-0.07675462,0.00327336,-0.00012011304,-0.9970446,0.99940926,-2.3283067e-10,-2.3283067e-10,0.0343701,2
2044648000,2044648000,-0.076694034,0.003247545,-0.00014830299,-0.9970494,0.99940926,-2.3283067e-10,-2.3283067e-10,0.0343701,2
2044660000,2044660000,-0.07667109,0.0032643997,-0.00016351529,-0.9970512,0.99940926,-2.3283067e-10,-2.3283067e-10,0.0343701,2
2044668000,2044668000,-0.07667746,0.0032576371,-0.00018135551,-0.99705064,0.99940926,-2.3283067e-10,-2.3283067e-10,0.0343701,2
2044680000,2044680000,-0.07662462,0.0031972958,-0.0002513232,-0.9970548,0.99940926,-2.3283067e-10,-2.3283067e-10,0.0343701,2
2044688000,2044688000,-0.07658342,0.0031530946,-0.00020246756,-0.9970582,0.99940926,-2.3283067e-10,-2.3283067e-10,0.0343701,2
2044700000,2044700000,-0.076681115,0.0031259682,-0.00017640957,-0.99705076,0.99940926,-2.3283067e-10,-2.3283067e-10,0.0343701,2
2044708000,2044708000,-0.07671068,0.0031276175,-0.00016465776,-0.9970485,0.99940926,-2.3283067e-10,-2.3283067e-10,0.0343701,2
2044720000,2044720000,-0.07672451,0.003085957,-0.00014864563,-0.99704754,0.99940926,-2.3283067e-10,-2.3283067e-10,0.0343701,2
2044728000,2044728000,-0.07667292,0.0030731633,-0.00016610291,-0.9970516,0.99940926,-2.3283067e-10,-2.3283067e-10,0.0343701,2
2044740000,2044740000,-0.07658858,0.0030655484,-0.0001746219,-0.9970581,0.99940926,-2.3283067e-10,-2.3283067e-10,0.0343701,2
2044748000,2044748000,-0.07654756,0.0030540507,-0.00017626905,-0.9970613,0.99940926,-2.3283067e-10,-2.3283067e-10,0.0343701,2
2044760000,2044760000,-0.0764786,0.0030720823,-0.00020722182,-0.99706656,0.99940926,-2.3283067e-10,-2.3283067e-10,0.0343701,2
2044768000,2044768000,-0.076425344,0.0030842812,-0.00022850635,-0.99707055,0.99940926,-2.3283067e-10,-2.3283067e-10,0.0343701,2
2044780000,2044780000,-0.076403596,0.003085613,-0.00026307575,-0.99707216,0.99940926,-2.3283067e-10,-2.3283067e-10,0.0343701,2
2044788000,2044788000,-0.076357625,0.0030834468,-0.00024278168,-0.9970758,0.99940926,-2.3283067e-10,-2.3283067e-10,0.0343701,2
2044800000,2044800000,-0.07637337,0.003063171,-0.00022609388,-0.9970746,0.99940926,-2.3283067e-10,-2.3283067e-10,0.0343701,2
2044808000,2044808000,-0.07637932,0.003115979,-0.00019342249,-0.99707395,0.99940926,-2.3283067e-10,-2.3283067e-10,0.0343701,2
2044820000,2044820000,-0.07641677,0.0031134484,-0.00017662621,-0.9970711,0.99940926,-2.3283067e-10,-2.3283067e-10,0.0343701,2
2044828000,2044828000,-0.076437905,0.003112983,-0.00023342755,-0.9970695,0.99940926,-2.3283067e-10,-2.3283067e-10,0.0343701,2
2044840000,2044840000,-0.07648211,0.0030858526,-0.00028752163,-0.99706614,0.99940926,-2.3283067e-10,-2.3283067e-10,0.0343701,2
2044848000,2044848000,-0.07651012,0.003045467,-0.00030822685,-0.9970641,0.99940926,-2.3283067e-10,-2.3283067e-10,0.0343701,2
2044860000,2044860000,-0.07647988,0.0030232626,-0.00034441508,-0.99706656,0.99940926,-2.3283067e-10,-2.3283067e-10,0.0343701,2
2044868000,2044868000,-0.07648873,0.002998525,-0.00036383024,-0.99706596,0.99940926,-2.3283067e-10,-2.3283067e-10,0.0343701,2
2044880000,2044880000,-0.0765049,0.0029774911,-0.00036544172,-0.99706465,0.99940926,-2.3283067e-10,-2.3283067e-10,0.0343701,2
2044888000,2044888000,-0.076497585,0.0029742671,-0.0003770773,-0.9970653,0.99940926,-2.3283067e-10,-2.3283067e-10,0.0343701,2
2044900000,2044900000,-0.07644438,0.0029960792,-0.00043364338,-0.99706936,0.99940926,-2.3283067e-10,-2.3283067e-10,0.0343701,2
2044908000,2044908000,-0.07641182,0.0029750061,-0.00041311755,-0.9970718,0.99940926,-2.3283067e-10,-2.3283067e-10,0.0343701,2
2044920000,2044920000,-0.07641603,0.002960164,-0.00036961652,-0.9970716,0.99940926,-2.3283067e-10,-2.3283067e-10,0.0343701,2
2044928000,2044928000,-0.07639373,0.002903925,-0.0004041294,-0.9970735,0.99940926,-2.3283067e-10,-2.3283067e-10,0.0343701,2
2044940000,2044940000,-0.07630681,0.0028844904,-0.00044184818,-0.9970802,0.99940926,-2.3283067e-10,-2.3283067e-10,0.0343701,2
2044948000,2044948000,-0.07624566,0.002909669,-0.0004667464,-0.9970848,0.99940926,-2.3283067e-10,-2.3283067e-10,0.0343701,2
2044960000,2044960000,-0.07615494,0.0029371877,-0.0004846512,-0.9970916,0.99940926,-2.3283067e-10,-2.3283067e-10,0.0343701,2
2044968000,2044968000,-0.07614429,0.0028999064,-0.00050949014,-0.9970925,0.99940926,-2.3283067e-10,-2.3283067e-10,0.0343701,2
2044980000,2044980000,-0.076096386,0.0029167265,-0.000505675,-0.9970962,0.99940926,-2.3283067e-10,-2.3283067e-10,0.0343701,2
2044988000,2044988000,-0.07610501,0.0029250572,-0.00051313976,-0.9970954,0.99940926,-2.3283067e-10,-2.3283067e-10,0.0343701,2
2045000000,2045000000,-0.07612023,0.002934635,-0.00047873054,-0.9970942,0.99940926,-2.3283067e-10,-2.3283067e-10,0.0343701,2
2045008000,2045008000,-0.07611594,0.0029261862,-0.00042623183,-0.99709463,0.99940926,-2.3283067e-10,-2.3283067e-10,0.0343701,2
2045020000,2045020000,-0.07612471,0.0028822827,-0.00035098425,-0.99709415,0.99940926,-2.3283067e-10,-2.3283067e-10,0.0343701,2
2045028000,2045028000,-0.076141454,0.0028927955,-0.00040041353,-0.99709284,0.99940926,-2.3283067e-10,-2.3283067e-10,0.0343701,2
2045040000,2045040000,-0.07621308,0.002928118,-0.00037987594,-0.99708724,0.99940926,-2.3283067e-10,-2.3283067e-10,0.0343701,2
2045048000,2045048000,-0.07626616,0.0028852366,-0.0003932214,-0.9970833,0.99940926,-2.3283067e-10,-2.3283067e-10,0.0343701,2
2045060000,2045060000,-0.07630552,0.0028814937,-0.0004421558,-0.99708027,0.99940926,-2.3283067e-10,-2.3283067e-10,0.0343701,2
2045068000,2045068000,-0.07624446,0.0028643636,-0.00044727648,-0.9970849,0.99940926,-2.3283067e-10,-2.3283067e-10,0.0343701,2
2045080000,2045080000,-0.07626027,0.0028300947,-0.00046361345,-0.99708384,0.99940926,-2.3283067e-10,-2.3283067e-10,0.0343701,2
2045088000,2045088000,-0.076304145,0.002749719,-0.00043105867,-0.99708074,0.99940926,-2.3283067e-10,-2.3283067e-10,0.0343701,2
2045100000,2045100000,-0.07635984,0.002707534,-0.00046823296,-0.99707663,0.99940926,-2.3283067e-10,-2.3283067e-10,0.0343701,2
2045108000,2045108000,-0.076390095,0.0026744627,-0.00049503654,-0.99707437,0.99940926,-2.3283067e-10,-2.3283067e-10,0.0343701,2
2045120000,2045120000,-0.07646386,0.0025863962,-0.00044811514,-0.99706894,0.99940926,-2.3283067e-10,-2.3283067e-10,0.0343701,2
2045128000,2045128000,-0.076517485,0.0025751307,-0.00040662242,-0.9970648,0.99940926,-2.3283067e-10,-2.3283067e-10,0.0343701,2
2045140000,2045140000,-0.07644081,0.002562038,-0.00037137239,-0.9970708,0.99940926,-2.3283067e-10,-2.3283067e-10,0.0343701,2
2045148000,2045148000,-0.076446876,0.0025990438,-0.0004182468,-0.99707025,0.99940926,-2.3283067e-10,-2.3283067e-10,0.0343701,2
2045160000,2045160000,-0.07642188,0.0026348715,-0.000428475,-0.99707204,0.99940926,-2.3283067e-10,-2.3283067e-10,0.0343701,2
2045168000,2045168000,-0.07644112,0.0026481573,-0.00040899322,-0.99707055,0.99940926,-2.3283067e-10,-2.3283067e-10,0.0343701,2
2045180000,2045180000,-0.07645227,0.0026522956,-0.00040141752,-0.9970697,0.99940926,-2.3283067e-10,-2.3283067e-10,0.0343701,2
2045188000,2045188000,-0.076421335,0.0026684292,-0.00041445735,-0.9970719,0.99940926,-2.3283067e-10,-2.3283067e-10,0.0343701,2
2045200000,2045200000,-0.07634206,0.0026496782,-0.0003355247,-0.9970781,0.99940926,-2.3283067e-10,-2.3283067e-10,0.0343701,2
2045208000,2045208000,-0.076286905,0.0026421957,-0.0003431863,-0.99708235,0.99940926,-2.3283067e-10,-2.3283067e-10,0.0343701,2
2045220000,2045220000,-0.07629669,0.0025980289,-0.00038084667,-0.9970817,0.99940926,-2.3283067e-10,-2.3283067e-10,0.0343701,2
2045228000,2045228000,-0.07631271,0.0025377318,-0.0003742372,-0.9970806,0.99940926,-2.3283067e-10,-2.3283067e-10,0.0343701,2
2045240000,2045240000,-0.076296456,0.002548089,-0.0004189572,-0.9970818,0.99940926,-2.3283067e-10,-2.3283067e-10,0.0343701,2
2045248000,2045248000,-0.0763045,0.0025267496,-0.00042720724,-0.9970813,0.99940926,-2.3283067e-10,-2.3283067e-10,0.0343701,2
2045260000,2045260000,-0.07633352,0.0024682037,-0.00040577736,-0.99707925,0.99940926,-2.3283067e-10,-2.3283067e-10,0.0343701,2
2045268000,2045268000,-0.07633948,0.0024959128,-0.0004076833,-0.9970787,0.99940926,-2.3283067e-10,-2.3283067e-10,0.0343701,2
2045280000,2045280000,-0.07639489,0.0025006928,-0.00039104355,-0.9970745,0.99940926,-2.3283067e-10,-2.3283067e-10,0.0343701,2
2045288000,2045288000,-0.076405324,0.0025272274,-0.00037577763,-0.9970736,0.99940926,-2.3283067e-10,-2.3283067e-10,0.0343701,2
2045300000,2045300000,-0.07637975,0.0026211427,-0.0003753593,-0.9970753,0.99940926,-2.3283067e-10,-2.3283067e-10,0.0343701,2
2045308000,2045308000,-0.07635709,0.0026728401,-0.00033868325,-0.9970769,0.99940926,-2.3283067e-10,-2.3283067e-10,0.0343701,2
2045320000,2045320000,-0.07637764,0.0027225565,-0.00034394398,-0.9970752,0.99940926,-2.3283067e-10,-2.3283067e-10,0.0343701,2
2045328000,2045328000,-0.07639593,0.0027524482,-0.00036218416,-0.9970737,0.99940926,-2.3283067e-10,-2.3283067e-10,0.0343701,2
2045340000,2045340000,-0.076421075,0.0027751194,-0.00030242177,-0.99707174,0.99940926,-2.3283067e-10,-2.3283067e-10,0.0343701,2
2045348000,2045348000,-0.0763985,0.0027651384,-0.00033220032,-0.99707353,0.99940926,-2.3283067e-10,-2.3283067e-10,0.0343701,2
2045360000,2045360000,-0.07636937,0.00282369,-0.00030640693,-0.99707556,0.99940926,-2.3283067e-10,-2.3283067e-10,0.0343701,2
2045368000,2045368000,-0.07631939,0.002827627,-0.00026634146,-0.9970794,0.99940926,-2.3283067e-10,-2.3283067e-10,0.0343701,2
2045380000,2045380000,-0.07620212,0.00280107,-0.0002990058,-0.9970885,0.99940926,-2.3283067e-10,-2.3283067e-10,0.0343701,2
2045388000,2045388000,-0.07616966,0.00276247,-0.00029147885,-0.99709105,0.99940926,-2.3283067e-10,-2.3283067e-10,0.0343701,2
2045400000,2045400000,-0.076118544,0.0027660565,-0.00031457026,-0.9970949,0.99940926,-2.3283067e-10,-2.3283067e-10,0.0343701,2
2045408000,2045408000,-0.07611695,0.002816084,-0.00030789274,-0.9970949,0.99940926,-2.3283067e-10,-2.3283067e-10,0.0343701,2
2045420000,2045420000,-0.076112054,0.0028840813,-0.00028564138,-0.9970951,0.99940926,-2.3283067e-10,-2.3283067e-10,0.0343701,2
2045428000,2045428000,-0.07611424,0.00289985,-0.00031594874,-0.99709487,0.99940926,-2.3283067e-10,-2.3283067e-10,0.0343701,2
2045440000,2045440000,-0.07608079,0.002927377,-0.00034319318,-0.9970974,0.99940926,-2.3283067e-10,-2.3283067e-10,0.0343701,2
2045448000,2045448000,-0.07604207,0.002926203,-0.00037297053,-0.99710023,0.99940926,-2.3283067e-10,-2.3283067e-10,0.0343701,2
2045460000,2045460000,-0.0760424,0.002966896,-0.0003350475,-0.9971001,0.99940926,-2.3283067e-10,-2.3283067e-10,0.0343701,2
2045468000,2045468000,-0.07611137,0.002992025,-0.00032975254,-0.99709475,0.99940926,-2.3283067e-10,-2.3283067e-10,0.0343701,2
2045480000,2045480000,-0.07612318,0.0030227082,-0.00038305542,-0.99709374,0.99940926,-2.3283067e-10,-2.3283067e-10,0.0343701,2
2045488000,2045488000,-0.07613923,0.0030243366,-0.00042109695,-0.99709255,0.99940926,-2.3283067e-10,-2.3283067e-10,0.0343701,2
2045500000,2045500000,-0.076111004,0.0030018082,-0.00038995102,-0.99709475,0.99940926,-2.3283067e-10,-2.3283067e-10,0.0343701,2
2045508000,2045508000,-0.07610571,0.0029748674,-0.0003837713,-0.9970952,0.99940926,-2.3283067e-10,-2.3283067e-10,0.0343701,2
2045520000,2045520000,-0.07616023,0.00301565,-0.00032315057,-0.997091,0.99940926,-2.3283067e-10,-2.3283067e-10,0.0343701,2
2045528000,2045528000,-0.07615595,0.003035214,-0.00031099352,-0.9970913,0.99940926,-2.3283067e-10,-2.3283067e-10,0.0343701,2
2045540000,2045540000,-0.076070525,0.0030441685,-0.00032649972,-0.99709785,0.99940926,-2.3283067e-10,-2.3283067e-10,0.0343701,2
2045548000,2045548000,-0.076093376,0.0030629123,-0.00033351113,-0.99709594,0.99940926,-2.3283067e-10,-2.3283067e-10,0.0343701,2
2045560000,2045560000,-0.076094456,0.003008411,-0.00032159267,-0.9970961,0.99940926,-2.3283067e-10,-2.3283067e-10,0.0343701,2
2045568000,2045568000,-0.076094516,0.0029929352,-0.00033736578,-0.99709606,0.99940926,-2.3283067e-10,-2.3283067e-10,0.0343701,2
2045580000,2045580000,-0.076154664,0.0030186665,-0.00037532876,-0.99709135,0.99940926,-2.3283067e-10,-2.3283067e-10,0.0343701,2
2045588000,2045588000,-0.0762259,0.0030307637,-0.0003882606,-0.997086,0.99940926,-2.3283067e-10,-2.3283067e-10,0.0343701,2
2045600000,2045600000,-0.07625998,0.002902987,-0.00037461208,-0.9970837,0.99940926,-2.3283067e-10,-2.3283067e-10,0.0343701,2
2045608000,2045608000,-0.076293334,0.0029016463,-0.0003199375,-0.9970812,0.99940926,-2.3283067e-10,-2.3283067e-10,0.0343701,2
2045620000,2045620000,-0.07622571,0.0029027225,-0.00037638185,-0.99708635,0.99940926,-2.3283067e-10,-2.3283067e-10,0.0343701,2
2045628000,2045628000,-0.07615865,0.0029209927,-0.00041544906,-0.9970914,0.99940926,-2.3283067e-10,-2.3283067e-10,0.0343701,2
2045640000,2045640000,-0.07611635,0.0029355555,-0.0003388587,-0.9970946,0.99940926,-2.3283067e-10,-2.3283067e-10,0.0343701,2
2045648000,2045648000,-0.07605666,0.0029072766,-0.00033808593,-0.9970993,0.99940926,-2.3283067e-10,-2.3283067e-10,0.0343701,2
2045660000,2045660000,-0.07606962,0.002866613,-0.00028277346,-0.9970984,0.99940926,-2.3283067e-10,-2.3283067e-10,0.0343701,2
2045668000,2045668000,-0.076121844,0.0028824212,-0.00031324787,-0.9970943,0.99940926,-2.3283067e-10,-2.3283067e-10,0.0343701,2
2045680000,2045680000,-0.07615928,0.0029056114,-0.000359339,-0.9970914,0.99940926,-2.3283067e-10,-2.3283067e-10,0.0343701,2
2045688000,2045688000,-0.07619137,0.002939048,-0.00040461792,-0.99708885,0.99940926,-2.3283067e-10,-2.3283067e-10,0.0343701,2
2045700000,2045700000,-0.07622499,0.0029850258,-0.00041941073,-0.9970861,0.99940926,-2.3283067e-10,-2.3283067e-10,0.0343701,2
2045708000,2045708000,-0.07622647,0.002989878,-0.00040601386,-0.997086,0.99940926,-2.3283067e-10,-2.3283067e-10,0.0343701,2
2045720000,2045720000,-0.07620171,0.002949904,-0.0004069852,-0.997088,0.99940926,-2.3283067e-10,-2.3283067e-10,0.0343701,2
2045728000,2045728000,-0.07620629,0.0029773805,-0.00036382486,-0.99708766,0.99940926,-2.3283067e-10,-2.3283067e-10,0.0343701,2
2045740000,2045740000,-0.0762022,0.0029394769,-0.00034571122,-0.997088,0.99940926,-2.3283067e-10,-2.3283067e-10,0.0343701,2
2045748000,2045748000,-0.07619895,0.0029170443,-0.00033404515,-0.9970883,0.99940926,-2.3283067e-10,-2.3283067e-10,0.0343701,2
2045760000,2045760000,-0.07628201,0.0029005138,-0.00033069786,-0.997082,0.99940926,-2.3283067e-10,-2.3283067e-10,0.0343701,2
2045768000,2045768000,-0.076217815,0.0029238937,-0.00032808268,-0.99708694,0.99940926,-2.3283067e-10,-2.3283067e-10,0.0343701,2
2045780000,2045780000,-0.076176584,0.002954935,-0.0003528173,-0.99709,0.99940926,-2.3283067e-10,-2.3283067e-10,0.0343701,2
2045788000,2045788000,-0.076152235,0.0029627928,-0.0003510533,-0.99709177,0.99940926,-2.3283067e-10,-2.3283067e-10,0.0343701,2
2045800000,2045800000,-0.076159574,0.0029756136,-0.0002722439,-0.9970912,0.99940926,-2.3283067e-10,-2.3283067e-10,0.0343701,2
2045808000,2045808000,-0.07616856,0.00294545,-0.00022315307,-0.9970906,0.99940926,-2.3283067e-10,-2.3283067e-10,0.0343701,2
2045820000,2045820000,-0.07616088,0.0029458457,-0.00026581914,-0.9970912,0.99940926,-2.3283067e-10,-2.3283067e-10,0.0343701,2
2045828000,2045828000,-0.07618709,0.0029720939,-0.0002835876,-0.99708915,0.99940926,-2.3283067e-10,-2.3283067e-10,0.0343701,2
2045840000,2045840000,-0.076173775,0.0030120602,-0.00030708194,-0.99709004,0.99940926,-2.3283067e-10,-2.3283067e-10,0.0343701,2
2045848000,2045848000,-0.07620236,0.0030074555,-0.00031783374,-0.99708784,0.99940926,-2.3283067e-10,-2.3283067e-10,0.0343701,2
2045860000,2045860000,-0.076312296,0.0030098248,-0.00036771214,-0.99707943,0.99940926,-2.3283067e-10,-2.3283067e-10,0.0343701,2
2045868000,2045868000,-0.07631706,0.0030327367,-0.00039041313,-0.9970789,0.99940926,-2.3283067e-10,-2.3283067e-10,0.0343701,2
2045880000,2045880000,-0.076320596,0.0030270983,-0.00035154243,-0.9970787,0.99940926,-2.3283067e-10,-2.3283067e-10,0.0343701,2
2045888000,2045888000,-0.076344915,0.0029596558,-0.00030705702,-0.9970771,0.99940926,-2.3283067e-10,-2.3283067e-10,0.0343701,2
2045900000,2045900000,-0.07638659,0.0029648622,-0.0003872033,-0.9970738,0.99940926,-2.3283067e-10,-2.3283067e-10,0.0343701,2
2045908000,2045908000,-0.07640324,0.0029597639,-0.00041604327,-0.9970726,0.99940926,-2.3283067e-10,-2.3283067e-10,0.0343701,2
2045920000,2045920000,-0.07636531,0.0029479044,-0.00043496964,-0.99707544,0.99940926,-2.3283067e-10,-2.3283067e-10,0.0343701,2
2045928000,2045928000,-0.0764174,0.0029550735,-0.00038893858,-0.9970715,0.99940926,-2.3283067e-10,-2.3283067e-10,0.0343701,2
2045940000,2045940000,-0.076456405,0.0030134222,-0.00038654316,-0.9970684,0.99940926,-2.3283067e-10,-2.3283067e-10,0.0343701,2
2045948000,2045948000,-0.076454476,0.003025832,-0.00039197225,-0.99706846,0.99940926,-2.3283067e-10,-2.3283067e-10,0.0343701,2
2045960000,2045960000,-0.076423496,0.00300288,-0.0004067323,-0.9970709,0.99940926,-2.3283067e-10,-2.3283067e-10,0.0343701,2
2045968000,2045968000,-0.07639975,0.0029976033,-0.0003933908,-0.9970727,0.99940926,-2.3283067e-10,-2.3283067e-10,0.0343701,2
2045980000,2045980000,-0.07636905,0.0029783281,-0.0004321736,-0.99707514,0.99940926,-2.3283067e-10,-2.3283067e-10,0.0343701,2
2045988000,2045988000,-0.07641288,0.0029748068,-0.00041142793,-0.9970718,0.99940926,-2.3283067e-10,-2.3283067e-10,0.0343701,2
2046000000,2046000000,-0.07640284,0.0029759249,-0.00043694643,-0.99707246,0.99940926,-2.3283067e-10,-2.3283067e-10,0.0343701,2
2046008000,2046008000,-0.07641167,0.0029922533,-0.00043024664,-0.9970718,0.99940926,-2.3283067e-10,-2.3283067e-10,0.0343701,2
2046020000,2046020000,-0.07635277,0.003005855,-0.00043410473,-0.99707633,0.99940926,-2.3283067e-10,-2.3283067e-10,0.0343701,2
2046028000,2046028000,-0.07635411,0.003019187,-0.00040488344,-0.9970761,0.99940926,-2.3283067e-10,-2.3283067e-10,0.0343701,2
2046040000,2046040000,-0.07634941,0.0030536735,-0.0004098068,-0.99707645,0.99940926,-2.3283067e-10,-2.3283067e-10,0.0343701,2
2046048000,2046048000,-0.07636125,0.0030380664,-0.00045964852,-0.99707556,0.99940926,-2.3283067e-10,-2.3283067e-10,0.0343701,2
2046060000,2046060000,-0.07639297,0.0030448358,-0.00046495223,-0.9970731,0.99940926,-2.3283067e-10,-2.3283067e-10,0.0343701,2
2046068000,2046068000,-0.07638781,0.003047921,-0.00044487478,-0.9970735,0.99940926,-2.3283067e-10,-2.3283067e-10,0.0343701,2
2046080000,2046080000,-0.07639528,0.0030493585,-0.00044311225,-0.9970729,0.99940926,-2.3283067e-10,-2.3283067e-10,0.0343701,2
2046088000,2046088000,-0.07637429,0.003047032,-0.00045962012,-0.9970745,0.99940926,-2.3283067e-10,-2.3283067e-10,0.0343701,2
2046100000,2046100000,-0.07643545,0.0030475643,-0.0004641698,-0.99706984,0.99940926,-2.3283067e-10,-2.3283067e-10,0.0343701,2
2046108000,2046108000,-0.07644893,0.0030362708,-0.00045913126,-0.9970688,0.99940926,-2.3283067e-10,-2.3283067e-10,0.0343701,2
2046120000,2046120000,-0.0764174,0.0029487144,-0.00047762328,-0.9970715,0.99940926,-2.3283067e-10,-2.3283067e-10,0.0343701,2
2046128000,2046128000,-0.07642257,0.0029307657,-0.00048339236,-0.99707115,0.99940926,-2.3283067e-10,-2.3283067e-10,0.0343701,2
2046140000,2046140000,-0.076428615,0.0029916575,-0.00046891865,-0.9970705,0.99940926,-2.3283067e-10,-2.3283067e-10,0.0343701,2
2046148000,2046148000,-0.0764215,0.0030124234,-0.0004579886,-0.99707097,0.99940926,-2.3283067e-10,-2.3283067e-10,0.0343701,2
2046160000,2046160000,-0.076444015,0.0030451033,-0.0004429839,-0.9970692,0.99940926,-2.3283067e-10,-2.3283067e-10,0.0343701,2
2046168000,2046168000,-0.07643804,0.0030253434,-0.00045250187,-0.9970697,0.99940926,-2.3283067e-10,-2.3283067e-10,0.0343701,2
2046180000,2046180000,-0.076339416,0.003068962,-0.0004275667,-0.99707717,0.99940926,-2.3283067e-10,-2.3283067e-10,0.0343701,2
2046188000,2046188000,-0.07634394,0.003075047,-0.00042091493,-0.99707675,0.99940926,-2.3283067e-10,-2.3283067e-10,0.0343701,2
2046200000,2046200000,-0.076391324,0.0031081592,-0.00044338996,-0.997073,0.99940926,-2.3283067e-10,-2.3283067e-10,0.0343701,2
2046208000,2046208000,-0.07640599,0.0030579888,-0.00046715597,-0.997072,0.99940926,-2.3283067e-10,-2.3283067e-10,0.0343701,2
2046220000,2046220000,-0.07637376,0.0030639076,-0.0005033627,-0.9970745,0.99940926,-2.3283067e-10,-2.3283067e-10,0.0343701,2
2046228000,2046228000,-0.0763403,0.0030429612,-0.00059264427,-0.997077,0.99940926,-2.3283067e-10,-2.3283067e-10,0.0343701,2
2046240000,2046240000,-0.0763334,0.0030320296,-0.0005507371,-0.9970776,0.99940926,-2.3283067e-10,-2.3283067e-10,0.0343701,2
2046248000,2046248000,-0.07632415,0.0030231199,-0.00055391603,-0.99707836,0.99940926,-2.3283067e-10,-2.3283067e-10,0.0343701,2
2046260000,2046260000,-0.07640798,0.0030499964,-0.00052283367,-0.99707186,0.99940926,-2.3283067e-10,-2.3283067e-10,0.0343701,2
2046268000,2046268000,-0.076428115,0.003059882,-0.0004981043,-0.9970703,0.99940926,-2.3283067e-10,-2.3283067e-10,0.0343701,2
2046280000,2046280000,-0.07636856,0.0030242256,-0.00053121813,-0.9970749,0.99940926,-2.3283067e-10,-2.3283067e-10,0.0343701,2
2046288000,2046288000,-0.076297544,0.0030355426,-0.0005582752,-0.9970804,0.99940926,-2.3283067e-10,-2.3283067e-10,0.0343701,2
2046300000,2046300000,-0.076292,0.0030464977,-0.0005287323,-0.9970808,0.99940926,-2.3283067e-10,-2.3283067e-10,0.0343701,2
2046308000,2046308000,-0.07632822,0.0030585905,-0.0005331912,-0.99707794,0.99940926,-2.3283067e-10,-2.3283067e-10,0.0343701,2
2046320000,2046320000,-0.07629619,0.0030195503,-0.00050219125,-0.9970805,0.99940926,-2.3283067e-10,-2.3283067e-10,0.0343701,2
2046328000,2046328000,-0.076307766,0.0030396734,-0.00052133464,-0.99707955,0.99940926,-2.3283067e-10,-2.3283067e-10,0.0343701,2
2046340000,2046340000,-0.07635566,0.00304582,-0.00053003593,-0.9970759,0.99940926,-2.3283067e-10,-2.3283067e-10,0.0343701,2
2046348000,2046348000,-0.07637075,0.003100466,-0.00047606064,-0.9970746,0.99940926,-2.3283067e-10,-2.3283067e-10,0.0343701,2
2046360000,2046360000,-0.07640798,0.0031144095,-0.00045401577,-0.99707174,0.99940926,-2.3283067e-10,-2.3283067e-10,0.0343701,2
2046368000,2046368000,-0.07639876,0.003118749,-0.0004161296,-0.99707246,0.99940926,-2.3283067e-10,-2.3283067e-10,0.0343701,2
2046380000,2046380000,-0.07638068,0.0031938371,-0.00036437955,-0.9970736,0.99940926,-2.3283067e-10,-2.3283067e-10,0.0343701,2
2046388000,2046388000,-0.076399595,0.0031224578,-0.00040937695,-0.99707234,0.99940926,-2.3283067e-10,-2.3283067e-10,0.0343701,2
2046400000,2046400000,-0.07644997,0.0031370297,-0.00047256696,-0.99706846,0.99940926,-2.3283067e-10,-2.3283067e-10,0.0343701,2
2046408000,2046408000,-0.076448895,0.0031204803,-0.00052084844,-0.9970686,0.99940926,-2.3283067e-10,-2.3283067e-10,0.0343701,2
2046420000,2046420000,-0.07647071,0.0030985728,-0.0006012308,-0.99706686,0.99940926,-2.3283067e-10,-2.3283067e-10,0.0343701,2
2046428000,2046428000,-0.07648394,0.0030968292,-0.00063839566,-0.99706584,0.99940926,-2.3283067e-10,-2.3283067e-10,0.0343701,2
2046440000,2046440000,-0.0765194,0.003105919,-0.00068489276,-0.997063,0.99940926,-2.3283067e-10,-2.3283067e-10,0.0343701,2
2046448000,2046448000,-0.07652979,0.0031064586,-0.0006651542,-0.99706227,0.99940926,-2.3283067e-10,-2.3283067e-10,0.0343701,2
2046460000,2046460000,-0.07655933,0.0030359197,-0.00066643406,-0.9970602,0.99940926,-2.3283067e-10,-2.3283067e-10,0.0343701,2
2046468000,2046468000,-0.07658895,0.0030110488,-0.0006832703,-0.997058,0.99940926,-2.3283067e-10,-2.3283067e-10,0.0343701,2
2046480000,2046480000,-0.07645733,0.003030305,-0.0006322503,-0.9970681,0.99940926,-2.3283067e-10,-2.3283067e-10,0.0343701,2
2046488000,2046488000,-0.076452404,0.0029965835,-0.0006394931,-0.9970686,0.99940926,-2.3283067e-10,-2.3283067e-10,0.0343701,2
2046500000,2046500000,-0.076447465,0.003027519,-0.0005212219,-0.9970689,0.99940926,-2.3283067e-10,-2.3283067e-10,0.0343701,2
2046508000,2046508000,-0.07643285,0.0030294806,-0.0004954887,-0.9970701,0.99940926,-2.3283067e-10,-2.3283067e-10,0.0343701,2
2046520000,2046520000,-0.07640647,0.0029774592,-0.00047034907,-0.9970723,0.99940926,-2.3283067e-10,-2.3283067e-10,0.0343701,2
2046528000,2046528000,-0.07639725,0.0029731286,-0.0004783482,-0.9970729,0.99940926,-2.3283067e-10,-2.3283067e-10,0.0343701,2
2046540000,2046540000,-0.07643178,0.0030354531,-0.0005024545,-0.99707013,0.99940926,-2.3283067e-10,-2.3283067e-10,0.0343701,2
2046548000,2046548000,-0.076428935,0.0030393177,-0.0005014871,-0.9970704,0.99940926,-2.3283067e-10,-2.3283067e-10,0.0343701,2
2046560000,2046560000,-0.076504715,0.0029463985,-0.00044683838,-0.99706477,0.99940926,-2.3283067e-10,-2.3283067e-10,0.0343701,2
2046568000,2046568000,-0.07648996,0.0029539024,-0.0003847833,-0.99706596,0.99940926,-2.3283067e-10,-2.3283067e-10,0.0343701,2
2046580000,2046580000,-0.07641897,0.0029057986,-0.00030307486,-0.9970715,0.99940926,-2.3283067e-10,-2.3283067e-10,0.0343701,2
2046588000,2046588000,-0.07644217,0.0028797735,-0.00033718924,-0.9970698,0.99940926,-2.3283067e-10,-2.3283067e-10,0.0343701,2
2046600000,2046600000,-0.076487295,0.0028668554,-0.000396224,-0.99706644,0.99940926,-2.3283067e-10,-2.3283067e-10,0.0343701,2
2046608000,2046608000,-0.076515235,0.002872253,-0.00040391128,-0.9970642,0.99940926,-2.3283067e-10,-2.3283067e-10,0.0343701,2
2046620000,2046620000,-0.07650381,0.0028124056,-0.00042750975,-0.9970653,0.99940926,-2.3283067e-10,-2.3283067e-10,0.0343701,2
2046628000,2046628000,-0.07654444,0.002804935,-0.0004230337,-0.9970622,0.99940926,-2.3283067e-10,-2.3283067e-10,0.0343701,2
2046640000,2046640000,-0.07665023,0.0028780298,-0.0004433138,-0.9970538,0.99940926,-2.3283067e-10,-2.3283067e-10,0.0343701,2
2046648000,2046648000,-0.076706074,0.0029061441,-0.00039462696,-0.9970495,0.99940926,-2.3283067e-10,-2.3283067e-10,0.0343701,2
2046660000,2046660000,-0.07671204,0.0028933506,-0.0004157144,-0.99704903,0.99940926,-2.3283067e-10,-2.3283067e-10,0.0343701,2
2046668000,2046668000,-0.07664483,0.002899797,-0.0004555809,-0.99705416,0.99940926,-2.3283067e-10,-2.3283067e-10,0.0343701,2
2046680000,2046680000,-0.07665673,0.0029026913,-0.00042779255,-0.99705327,0.99940926,-2.3283067e-10,-2.3283067e-10,0.0343701,2
2046688000,2046688000,-0.076666236,0.002923543,-0.00041415705,-0.9970525,0.99940926,-2.3283067e-10,-2.3283067e-10,0.0343701,2
2046700000,2046700000,-0.07666118,0.002907334,-0.00042197894,-0.99705297,0.99940926,-2.3283067e-10,-2.3283067e-10,0.0343701,2
2046708000,2046708000,-0.07666904,0.002921517,-0.0004132819,-0.99705225,0.99940926,-2.3283067e-10,-2.3283067e-10,0.0343701,2
2046720000,2046720000,-0.07669382,0.002887954,-0.00048927235,-0.99705046,0.99940926,-2.3283067e-10,-2.3283067e-10,0.0343701,2
2046728000,2046728000,-0.076689586,0.0028310826,-0.00053080585,-0.99705094,0.99940926,-2.3283067e-10,-2.3283067e-10,0.0343701,2
2046740000,2046740000,-0.07673614,0.0027778572,-0.0005733353,-0.9970475,0.99940926,-2.3283067e-10,-2.3283067e-10,0.0343701,2
2046748000,2046748000,-0.07675593,0.0028142917,-0.00057026296,-0.9970458,0.99940926,-2.3283067e-10,-2.3283067e-10,0.0343701,2
2046760000,2046760000,-0.07681079,0.0028857898,-0.000472928,-0.9970414,0.99940926,-2.3283067e-10,-2.3283067e-10,0.0343701,2
2046768000,2046768000,-0.07682834,0.002864162,-0.00044144975,-0.9970401,0.99940926,-2.3283067e-10,-2.3283067e-10,0.0343701,2
2046780000,2046780000,-0.076868504,0.0028549307,-0.00043745938,-0.9970371,0.99940926,-2.3283067e-10,-2.3283067e-10,0.0343701,2
2046788000,2046788000,-0.07687105,0.0028631452,-0.00040147503,-0.9970369,0.99940926,-2.3283067e-10,-2.3283067e-10,0.0343701,2
2046800000,2046800000,-0.07690473,0.0027955524,-0.00040114654,-0.99703443,0.99940926,-2.3283067e-10,-2.3283067e-10,0.0343701,2
2046808000,2046808000,-0.076933995,0.002776448,-0.00045762496,-0.9970323,0.99940926,-2.3283067e-10,-2.3283067e-10,0.0343701,2
2046820000,2046820000,-0.07703464,0.0027695477,-0.00044162734,-0.9970245,0.99940926,-2.3283067e-10,-2.3283067e-10,0.0343701,2
2046828000,2046828000,-0.077084586,0.0027422616,-0.0004462092,-0.9970207,0.99940926,-2.3283067e-10,-2.3283067e-10,0.0343701,2
2046840000,2046840000,-0.0771247,0.0027230214,-0.00047387686,-0.9970176,0.99940926,-2.3283067e-10,-2.3283067e-10,0.0343701,2
2046848000,2046848000,-0.07716972,0.0027409638,-0.00046815572,-0.9970141,0.99940926,-2.3283067e-10,-2.3283067e-10,0.0343701,2
2046860000,2046860000,-0.07717604,0.0026971947,-0.0004423548,-0.99701375,0.99940926,-2.3283067e-10,-2.3283067e-10,0.0343701,2
2046868000,2046868000,-0.077195905,0.0026753894,-0.0004348565,-0.9970123,0.99940926,-2.3283067e-10,-2.3283067e-10,0.0343701,2
2046880000,2046880000,-0.07722277,0.0026937749,-0.0004577991,-0.9970102,0.99940926,-2.3283067e-10,-2.3283067e-10,0.0343701,2
2046888000,2046888000,-0.07728375,0.0026899467,-0.0004537738,-0.9970055,0.99940926,-2.3283067e-10,-2.3283067e-10,0.0343701,2
2046900000,2046900000,-0.0773206,0.0027218296,-0.0004211953,-0.9970025,0.99940926,-2.3283067e-10,-2.3283067e-10,0.0343701,2
2046908000,2046908000,-0.07735059,0.0027193732,-0.00038642582,-0.99700016,0.99940926,-2.3283067e-10,-2.3283067e-10,0.0343701,2
2046920000,2046920000,-0.07738422,0.0027159397,-0.000376293,-0.9969976,0.99940926,-2.3283067e-10,-2.3283067e-10,0.0343701,2
2046928000,2046928000,-0.07739189,0.002753455,-0.00037785526,-0.9969969,0.99940926,-2.3283067e-10,-2.3283067e-10,0.0343701,2
2046940000,2046940000,-0.07742172,0.0027682984,-0.00039486092,-0.99699455,0.99940926,-2.3283067e-10,-2.3283067e-10,0.0343701,2
2046948000,2046948000,-0.077433616,0.0027386162,-0.00040245187,-0.9969937,0.99940926,-2.3283067e-10,-2.3283067e-10,0.0343701,2
2046960000,2046960000,-0.07742884,0.0027381957,-0.0004034696,-0.996994,0.99940926,-2.3283067e-10,-2.3283067e-10,0.0343701,2
2046968000,2046968000,-0.07741351,0.0027907924,-0.00038391145,-0.9969952,0.99940926,-2.3283067e-10,-2.3283067e-10,0.0343701,2
2046980000,2046980000,-0.07737249,0.0027860776,-0.00028271248,-0.99699837,0.99940926,-2.3283067e-10,-2.3283067e-10,0.0343701,2
2046988000,2046988000,-0.077339076,0.0027745564,-0.0002774872,-0.99700093,0.99940926,-2.3283067e-10,-2.3283067e-10,0.0343701,2
2047000000,2047000000,-0.077344336,0.0027855744,-0.00024258946,-0.9970006,0.99940926,-2.3283067e-10,-2.3283067e-10,0.0343701,2
2047008000,2047008000,-0.0773427,0.0028169786,-0.00024223066,-0.9970006,0.99940926,-2.3283067e-10,-2.3283067e-10,0.0343701,2
2047020000,2047020000,-0.07727137,0.0028764026,-0.00021777349,-0.99700594,0.99940926,-2.3283067e-10,-2.3283067e-10,0.0343701,2
2047028000,2047028000,-0.077262275,0.0028731893,-0.00019668514,-0.9970067,0.99940926,-2.3283067e-10,-2.3283067e-10,0.0343701,2
2047040000,2047040000,-0.07725133,0.0028865314,-0.00025951304,-0.9970075,0.99940926,-2.3283067e-10,-2.3283067e-10,0.0343701,2
2047048000,2047048000,-0.07725143,0.0028887466,-0.00028063706,-0.9970075,0.99940926,-2.3283067e-10,-2.3283067e-10,0.0343701,2
2047060000,2047060000,-0.07727765,0.0028109923,-0.00031569664,-0.9970056,0.99940926,-2.3283067e-10,-2.3283067e-10,0.0343701,2
2047068000,2047068000,-0.07725957,0.0028132081,-0.0002766488,-0.9970071,0.99940926,-2.3283067e-10,-2.3283067e-10,0.0343701,2
2047080000,2047080000,-0.077253625,0.002852079,-0.00020190649,-0.9970074,0.99940926,-2.3283067e-10,-2.3283067e-10,0.0343701,2
2047088000,2047088000,-0.07722072,0.0028656097,-0.00017727597,-0.9970099,0.99940926,-2.3283067e-10,-2.3283067e-10,0.0343701,2
2047100000,2047100000,-0.07719027,0.0028872718,-0.00011378045,-0.99701226,0.99940926,-2.3283067e-10,-2.3283067e-10,0.0343701,2
2047108000,2047108000,-0.07721084,0.0028762815,-0.00013851908,-0.99701065,0.99940926,-2.3283067e-10,-2.3283067e-10,0.0343701,2
2047120000,2047120000,-0.07724339,0.0028156359,-0.00011246533,-0.9970083,0.99940926,-2.3283067e-10,-2.3283067e-10,0.0343701,2
2047128000,2047128000,-0.07725585,0.0028203537,-0.00010171916,-0.9970073,0.99940926,-2.3283067e-10,-2.3283067e-10,0.0343701,2
2047140000,2047140000,-0.07721027,0.0027739839,-9.4300674e-05,-0.997011,0.99940926,-2.3283067e-10,-2.3283067e-10,0.0343701,2
2047148000,2047148000,-0.07715576,0.0027343761,-7.8306104e-05,-0.99701536,0.99940926,-2.3283067e-10,-2.3283067e-10,0.0343701,2
2047160000,2047160000,-0.077161334,0.00275673,-0.00016546929,-0.9970148,0.99940926,-2.3283067e-10,-2.3283067e-10,0.0343701,2
2047168000,2047168000,-0.077130675,0.002764547,-0.00015267826,-0.9970172,0.99940926,-2.3283067e-10,-2.3283067e-10,0.0343701,2
2047180000,2047180000,-0.07717421,0.002753153,-0.000147047,-0.99701387,0.99940926,-2.3283067e-10,-2.3283067e-10,0.0343701,2
2047188000,2047188000,-0.07723095,0.0027376246,-0.00019590626,-0.99700946,0.99940926,-2.3283067e-10,-2.3283067e-10,0.0343701,2
2047200000,2047200000,-0.0772297,0.0027891495,-0.00015965407,-0.99700946,0.99940926,-2.3283067e-10,-2.3283067e-10,0.0343701,2
2047208000,2047208000,-0.07720169,0.0028386773,-0.00011507403,-0.9970115,0.99940926,-2.3283067e-10,-2.3283067e-10,0.0343701,2
2047220000,2047220000,-0.07714269,0.0027730025,-0.00014595366,-0.99701625,0.99940926,-2.3283067e-10,-2.3283067e-10,0.0343701,2
2047228000,2047228000,-0.0771206,0.0027516917,-0.00014138929,-0.99701804,0.99940926,-2.3283067e-10,-2.3283067e-10,0.0343701,2
2047240000,2047240000,-0.07710022,0.0027945014,-0.0001529178,-0.99701947,0.99940926,-2.3283067e-10,-2.3283067e-10,0.0343701,2
2047248000,2047248000,-0.07705612,0.002807517,-0.00013407505,-0.99702287,0.99940926,-2.3283067e-10,-2.3283067e-10,0.0343701,2
2047260000,2047260000,-0.077087976,0.0028362526,-9.5255535e-05,-0.9970203,0.99940926,-2.3283067e-10,-2.3283067e-10,0.0343701,2
2047268000,2047268000,-0.07710036,0.0028227535,-8.3147876e-05,-0.99701935,0.99940926,-2.3283067e-10,-2.3283067e-10,0.0343701,2
2047280000,2047280000,-0.07710729,0.002811453,-0.00018490182,-0.9970188,0.99940926,-2.3283067e-10,-2.3283067e-10,0.0343701,2
2047288000,2047288000,-0.077110045,0.0028283836,-0.00016029725,-0.99701864,0.99940926,-2.3283067e-10,-2.3283067e-10,0.0343701,2
2047300000,2047300000,-0.07713468,0.0028115618,-0.00015538407,-0.9970168,0.99940926,-2.3283067e-10,-2.3283067e-10,0.0343701,2
2047308000,2047308000,-0.077158615,0.0027904517,-0.00011930073,-0.99701494,0.99940926,-2.3283067e-10,-2.3283067e-10,0.0343701,2
2047320000,2047320000,-0.077138886,0.0028178266,-0.000117493815,-0.99701643,0.99940926,-2.3283067e-10,-2.3283067e-10,0.0343701,2
2047328000,2047328000,-0.0771392,0.0028133902,-9.458427e-05,-0.99701643,0.99940926,-2.3283067e-10,-2.3283067e-10,0.0343701,2
2047340000,2047340000,-0.07717904,0.002789793,-8.288243e-05,-0.99701333,0.99940926,-2.3283067e-10,-2.3283067e-10,0.0343701,2
2047348000,2047348000,-0.07717953,0.0027531015,-0.0001253768,-0.9970134,0.99940926,-2.3283067e-10,-2.3283067e-10,0.0343701,2
2047360000,2047360000,-0.07717371,0.0028678759,-0.00013526854,-0.9970135,0.99940926,-2.3283067e-10,-2.3283067e-10,0.0343701,2
2047368000,2047368000,-0.077190556,0.0028863153,-0.0001355516,-0.99701226,0.99940926,-2.3283067e-10,-2.3283067e-10,0.0343701,2
2047380000,2047380000,-0.07718495,0.0028602004,-0.0001719995,-0.9970127,0.99940926,-2.3283067e-10,-2.3283067e-10,0.0343701,2
2047388000,2047388000,-0.0771716,0.0028846106,-0.00013707274,-0.9970137,0.99940926,-2.3283067e-10,-2.3283067e-10,0.0343701,2
2047400000,2047400000,-0.0771549,0.0029036184,-0.00012954479,-0.9970149,0.99940926,-2.3283067e-10,-2.3283067e-10,0.0343701,2
2047408000,2047408000,-0.07718369,0.0028717013,-0.0001532067,-0.9970128,0.99940926,-2.3283067e-10,-2.3283067e-10,0.0343701,2
2047420000,2047420000,-0.077186055,0.002864568,-0.00011160937,-0.9970126,0.99940926,-2.3283067e-10,-2.3283067e-10,0.0343701,2
2047428000,2047428000,-0.0771419,0.0028296774,-5.0920396e-05,-0.99701613,0.99940926,-2.3283067e-10,-2.3283067e-10,0.0343701,2
2047440000,2047440000,-0.07715015,0.0027815406,1.7218896e-05,-0.99701566,0.99940926,-2.3283067e-10,-2.3283067e-10,0.0343701,2
2047448000,2047448000,-0.07719119,0.0027183814,2.8408445e-05,-0.9970127,0.99940926,-2.3283067e-10,-2.3283067e-10,0.0343701,2
2047460000,2047460000,-0.07717025,0.002719777,1.650149e-06,-0.9970143,0.99940926,-2.3283067e-10,-2.3283067e-10,0.0343701,2
2047468000,2047468000,-0.07715629,0.0026831431,1.4524509e-06,-0.9970155,0.99940926,-2.3283067e-10,-2.3283067e-10,0.0343701,2
2047480000,2047480000,-0.07725215,0.0026513818,2.711786e-05,-0.99700814,0.99940926,-2.3283067e-10,-2.3283067e-10,0.0343701,2
2047488000,2047488000,-0.07733016,0.0026630335,7.303532e-06,-0.997002,0.99940926,-2.3283067e-10,-2.3283067e-10,0.0343701,2
2047500000,2047500000,-0.07732988,0.002675884,7.4515665e-05,-0.997002,0.99940926,-2.3283067e-10,-2.3283067e-10,0.0343701,2
2047508000,2047508000,-0.077310845,0.0026557923,2.903059e-05,-0.9970035,0.99940926,-2.3283067e-10,-2.3283067e-10,0.0343701,2
2047520000,2047520000,-0.07738041,0.0025717658,3.6502206e-05,-0.9969984,0.99940926,-2.3283067e-10,-2.3283067e-10,0.0343701,2
2047528000,2047528000,-0.07731818,0.0025186774,5.962018e-05,-0.99700326,0.99940926,-2.3283067e-10,-2.3283067e-10,0.0343701,2
2047540000,2047540000,-0.07734321,0.0025510066,2.1468117e-05,-0.9970013,0.99940926,-2.3283067e-10,-2.3283067e-10,0.0343701,2
2047548000,2047548000,-0.07740112,0.0025675194,3.1391955e-05,-0.99699676,0.99940926,-2.3283067e-10,-2.3283067e-10,0.0343701,2
2047560000,2047560000,-0.07741082,0.0025407828,4.200563e-05,-0.9969961,0.99940926,-2.3283067e-10,-2.3283067e-10,0.0343701,2
2047568000,2047568000,-0.0773816,0.0025477468,0.00011273146,-0.99699837,0.99940926,-2.3283067e-10,-2.3283067e-10,0.0343701,2
2047580000,2047580000,-0.07733367,0.002506735,9.478576e-05,-0.9970021,0.99940926,-2.3283067e-10,-2.3283067e-10,0.0343701,2
2047588000,2047588000,-0.0773282,0.0024247752,6.447315e-05,-0.9970027,0.99940926,-2.3283067e-10,-2.3283067e-10,0.0343701,2
2047600000,2047600000,-0.07734062,0.0024315286,7.49183e-05,-0.9970018,0.99940926,-2.3283067e-10,-2.3283067e-10,0.0343701,2
2047608000,2047608000,-0.07739281,0.0024159087,6.516853e-05,-0.99699783,0.99940926,-2.3283067e-10,-2.3283067e-10,0.0343701,2
2047620000,2047620000,-0.07744706,0.002405722,2.7228776e-05,-0.99699354,0.99940926,-2.3283067e-10,-2.3283067e-10,0.0343701,2
2047628000,2047628000,-0.077427566,0.0024284266,4.8452403e-05,-0.99699503,0.99940926,-2.3283067e-10,-2.3283067e-10,0.0343701,2
2047640000,2047640000,-0.07741231,0.0023441797,4.5390418e-05,-0.9969964,0.99940926,-2.3283067e-10,-2.3283067e-10,0.0343701,2
2047648000,2047648000,-0.07741473,0.0023227264,5.4007687e-05,-0.9969963,0.99940926,-2.3283067e-10,-2.3283067e-10,0.0343701,2
2047660000,2047660000,-0.07737314,0.0023420567,-9.143242e-06,-0.99699944,0.99940926,-2.3283067e-10,-2.3283067e-10,0.0343701,2
2047668000,2047668000,-0.07733778,0.0023253777,-1.3471082e-05,-0.99700224,0.99940926,-2.3283067e-10,-2.3283067e-10,0.0343701,2
2047680000,2047680000,-0.07732445,0.002263493,-6.8938593e-06,-0.9970035,0.99940926,-2.3283067e-10,-2.3283067e-10,0.0343701,2
2047688000,2047688000,-0.07733366,0.0022683323,-1.7107954e-05,-0.9970028,0.99940926,-2.3283067e-10,-2.3283067e-10,0.0343701,2
2047700000,2047700000,-0.07737432,0.002287743,7.189914e-05,-0.99699956,0.99940926,-2.3283067e-10,-2.3283067e-10,0.0343701,2
2047708000,2047708000,-0.07737603,0.002267955,9.4523464e-05,-0.99699944,0.99940926,-2.3283067e-10,-2.3283067e-10,0.0343701,2
2047720000,2047720000,-0.07742438,0.002158828,8.8756766e-05,-0.996996,0.99940926,-2.3283067e-10,-2.3283067e-10,0.0343701,2
2047728000,2047728000,-0.077387474,0.002135298,4.8513517e-05,-0.99699885,0.99940926,-2.3283067e-10,-2.3283067e-10,0.0343701,2
2047740000,2047740000,-0.07740996,0.002021235,3.9813127e-05,-0.9969973,0.99940926,-2.3283067e-10,-2.3283067e-10,0.0343701,2
2047748000,2047748000,-0.077409066,0.0020277617,9.024078e-05,-0.99699736,0.99940926,-2.3283067e-10,-2.3283067e-10,0.0343701,2
2047760000,2047760000,-0.07741921,0.0020292064,0.00013715222,-0.99699664,0.99940926,-2.3283067e-10,-2.3283067e-10,0.0343701,2
2047768000,2047768000,-0.07743378,0.0020172806,0.00014895108,-0.9969955,0.99940926,-2.3283067e-10,-2.3283067e-10,0.0343701,2
2047780000,2047780000,-0.07739032,0.0020323656,0.00015031708,-0.99699885,0.99940926,-2.3283067e-10,-2.3283067e-10,0.0343701,2
2047788000,2047788000,-0.077386305,0.0020697713,0.00014326998,-0.996999,0.99940926,-2.3283067e-10,-2.3283067e-10,0.0343701,2
2047800000,2047800000,-0.07741135,0.0021365974,0.00012951372,-0.996997,0.99940926,-2.3283067e-10,-2.3283067e-10,0.0343701,2
2047808000,2047808000,-0.077391,0.0021907436,0.00012431893,-0.9969985,0.99940926,-2.3283067e-10,-2.3283067e-10,0.0343701,2
2047820000,2047820000,-0.077347204,0.0022000808,0.00010521185,-0.99700177,0.99940926,-2.3283067e-10,-2.3283067e-10,0.0343701,2
2047828000,2047828000,-0.07733274,0.0021822397,7.9882986e-05,-0.99700296,0.99940926,-2.3283067e-10,-2.3283067e-10,0.0343701,2
2047840000,2047840000,-0.07730641,0.002201879,0.000115377516,-0.99700505,0.99940926,-2.3283067e-10,-2.3283067e-10,0.0343701,2
2047848000,2047848000,-0.07727325,0.0022039854,0.00016631783,-0.9970076,0.99940926,-2.3283067e-10,-2.3283067e-10,0.0343701,2
2047860000,2047860000,-0.07730119,0.0021635853,0.00018285745,-0.9970055,0.99940926,-2.3283067e-10,-2.3283067e-10,0.0343701,2
2047868000,2047868000,-0.0773005,0.00212356,0.00021936839,-0.99700564,0.99940926,-2.3283067e-10,-2.3283067e-10,0.0343701,2
2047880000,2047880000,-0.077315465,0.002110676,0.00026454192,-0.99700445,0.99940926,-2.3283067e-10,-2.3283067e-10,0.0343701,2
2047888000,2047888000,-0.077334315,0.0020965107,0.00025407865,-0.99700296,0.99940926,-2.3283067e-10,-2.3283067e-10,0.0343701,2
2047900000,2047900000,-0.0773091,0.002158311,0.00019860065,-0.99700487,0.99940926,-2.3283067e-10,-2.3283067e-10,0.0343701,2
2047908000,2047908000,-0.07725894,0.0021677304,0.00020098653,-0.99700874,0.99940926,-2.3283067e-10,-2.3283067e-10,0.0343701,2
2047920000,2047920000,-0.07731803,0.0021860478,0.00022367039,-0.9970041,0.99940926,-2.3283067e-10,-2.3283067e-10,0.0343701,2
2047928000,2047928000,-0.077252515,0.002151379,0.00022076149,-0.9970092,0.99940926,-2.3283067e-10,-2.3283067e-10,0.0343701,2
2047940000,2047940000,-0.077216394,0.0021834637,0.00034240258,-0.99701196,0.99940926,-2.3283067e-10,-2.3283067e-10,0.0343701,2
2047948000,2047948000,-0.077214636,0.002181174,0.00036316883,-0.9970121,0.99940926,-2.3283067e-10,-2.3283067e-10,0.0343701,2
2047960000,2047960000,-0.07725123,0.0021724622,0.00034263424,-0.99700934,0.99940926,-2.3283067e-10,-2.3283067e-10,0.0343701,2
2047968000,2047968000,-0.077266626,0.0022065712,0.00032843524,-0.997008,0.99940926,-2.3283067e-10,-2.3283067e-10,0.0343701,2
2047980000,2047980000,-0.07727339,0.002145086,0.00036194228,-0.99700755,0.99940926,-2.3283067e-10,-2.3283067e-10,0.0343701,2
2047988000,2047988000,-0.07726755,0.0020697832,0.00034750413,-0.99700826,0.99940926,-2.3283067e-10,-2.3283067e-10,0.0343701,2
2048000000,2048000000,-0.07727316,0.0019395916,0.0004369126,-0.9970081,0.99940926,-2.3283067e-10,-2.3283067e-10,0.0343701,2
2048008000,2048008000,-0.07726196,0.0018480213,0.00045245825,-0.9970091,0.99940926,-2.3283067e-10,-2.3283067e-10,0.0343701,2
2048020000,2048020000,-0.077251814,0.0015891127,0.0004987463,-0.9970103,0.99940926,-2.3283067e-10,-2.3283067e-10,0.0343701,2
2048028000,2048028000,-0.07727584,0.0014057253,0.00049357535,-0.9970086,0.99940926,-2.3283067e-10,-2.3283067e-10,0.0343701,2
2048040000,2048040000,-0.07730042,0.0010240693,0.00052632415,-0.99700725,0.99940926,-2.3283067e-10,-2.3283067e-10,0.0343701,2
2048048000,2048048000,-0.07729627,0.00074396457,0.0005333279,-0.9970077,0.99940926,-2.3283067e-10,-2.3283067e-10,0.0343701,2
2048060000,2048060000,-0.077332824,0.0003002447,0.00053277507,-0.9970052,0.99940926,-2.3283067e-10,-2.3283067e-10,0.0343701,2
2048068000,2048068000,-0.07734723,-6.442904e-05,0.00055850163,-0.99700403,0.99940926,-2.3283067e-10,-2.3283067e-10,0.0343701,2
