timestamp,data_rate,rate_multiplier,tx_rate_avg,tx_error_rate_avg,tx_message_count,tx_buffer_overruns,rx_rate_avg,rx_message_count,rx_message_lost_count,rx_buffer_overruns,rx_parse_errors,rx_packet_drop_count,rx_message_lost_rate,type,mode,flow_control,forwarding,mavlink_v2,ftp,streams,heartbeat_type_antenna_tracker,heartbeat_type_gcs,heartbeat_type_onboard_controller,heartbeat_type_gimbal,heartbeat_type_adsb,heartbeat_type_camera,heartbeat_type_parachute,heartbeat_type_open_drone_id,heartbeat_component_telemetry_radio,heartbeat_component_log,heartbeat_component_osd,heartbeat_component_vio,heartbeat_component_pairing_manager,heartbeat_component_udp_bridge,heartbeat_component_uart_bridge,open_drone_id_system_healthy,parachute_system_healthy
2043912000,400000.0,1.0,1333.6654,0.0,45605,0,0.0,0,0,0,0,0,0.0,0,10,0,1,1,1,5,0,0,0,0,0,0,0,0,0,0,0,0,0,0,0,0,0
2045164000,400000.0,1.0,1333.6654,0.0,45632,0,0.0,0,0,0,0,0,0.0,0,10,0,1,1,1,5,0,0,0,0,0,0,0,0,0,0,0,0,0,0,0,0,0
2046164000,400000.0,1.0,1358.5658,0.0,45655,0,0.0,0,0,0,0,0,0.0,0,10,0,1,1,1,5,0,0,0,0,0,0,0,0,0,0,0,0,0,0,0,0,0
2046424000,400000.0,1.0,1358.5658,0.0,45661,0,0.0,0,0,0,0,0,0.0,0,10,0,1,1,1,5,0,0,0,0,0,0,0,0,0,0,0,0,0,0,0,0,0
2047672000,400000.0,1.0,1346.6135,0.0,45689,0,0.0,0,0,0,0,0,0.0,0,10,0,1,1,1,5,0,0,0,0,0,0,0,0,0,0,0,0,0,0,0,0,0
2048936000,400000.0,1.0,1333.6654,0.0,45717,0,0.0,0,0,0,0,0,0.0,0,10,0,1,1,1,5,0,0,0,0,0,0,0,0,0,0,0,0,0,0,0,0,0
2050192000,400000.0,1.0,1346.6135,0.0,45745,0,0.0,0,0,0,0,0,0.0,0,10,0,1,1,1,5,0,0,0,0,0,0,0,0,0,0,0,0,0,0,0,0,0
2051192000,400000.0,1.0,1333.6654,0.0,45767,0,0.0,0,0,0,0,0,0.0,0,10,0,1,1,1,5,0,0,0,0,0,0,0,0,0,0,0,0,0,0,0,0,0
2051444000,400000.0,1.0,1333.6654,0.0,45773,0,0.0,0,0,0,0,0,0.0,0,10,0,1,1,1,5,0,0,0,0,0,0,0,0,0,0,0,0,0,0,0,0,0
2052700000,400000.0,1.0,1333.6654,0.0,45802,0,0.0,0,0,0,0,0,0.0,0,10,0,1,1,1,5,0,0,0,0,0,0,0,0,0,0,0,0,0,0,0,0,0
2053952000,400000.0,1.0,1346.6135,0.0,45830,0,0.0,0,0,0,0,0,0.0,0,10,0,1,1,1,5,0,0,0,0,0,0,0,0,0,0,0,0,0,0,0,0,0
2055208000,400000.0,1.0,1333.6654,0.0,45857,0,0.0,0,0,0,0,0,0.0,0,10,0,1,1,1,5,0,0,0,0,0,0,0,0,0,0,0,0,0,0,0,0,0
2056208000,400000.0,1.0,1411.3546,0.0,45880,0,0.0,0,0,0,0,0,0.0,0,10,0,1,1,1,5,0,0,0,0,0,0,0,0,0,0,0,0,0,0,0,0,0
2056460000,400000.0,1.0,1411.3546,0.0,45886,0,0.0,0,0,0,0,0,0.0,0,10,0,1,1,1,5,0,0,0,0,0,0,0,0,0,0,0,0,0,0,0,0,0
2057712000,400000.0,1.0,1333.6654,0.0,45913,0,0.0,0,0,0,0,0,0.0,0,10,0,1,1,1,5,0,0,0,0,0,0,0,0,0,0,0,0,0,0,0,0,0
2058972000,400000.0,1.0,1333.6654,0.0,45942,0,0.0,0,0,0,0,0,0.0,0,10,0,1,1,1,5,0,0,0,0,0,0,0,0,0,0,0,0,0,0,0,0,0
2060232000,400000.0,1.0,1333.6654,0.0,45969,0,0.0,0,0,0,0,0,0.0,0,10,0,1,1,1,5,0,0,0,0,0,0,0,0,0,0,0,0,0,0,0,0,0
2061232000,400000.0,1.0,1333.6654,0.0,45991,0,0.0,0,0,0,0,0,0.0,0,10,0,1,1,1,5,0,0,0,0,0,0,0,0,0,0,0,0,0,0,0,0,0
2061492000,400000.0,1.0,1333.6654,0.0,45997,0,0.0,0,0,0,0,0,0.0,0,10,0,1,1,1,5,0,0,0,0,0,0,0,0,0,0,0,0,0,0,0,0,0
2062744000,400000.0,1.0,1346.6135,0.0,46025,0,0.0,0,0,0,0,0,0.0,0,10,0,1,1,1,5,0,0,0,0,0,0,0,0,0,0,0,0,0,0,0,0,0
2064000000,400000.0,1.0,1333.6654,0.0,46054,0,0.0,0,0,0,0,0,0.0,0,10,0,1,1,1,5,0,0,0,0,0,0,0,0,0,0,0,0,0,0,0,0,0
2065252000,400000.0,1.0,1335.9684,0.0,46082,0,0.0,0,0,0,0,0,0.0,0,10,0,1,1,1,5,0,0,0,0,0,0,0,0,0,0,0,0,0,0,0,0,0
2066252000,400000.0,1.0,1333.6654,0.0,46104,0,0.0,0,0,0,0,0,0.0,0,10,0,1,1,1,5,0,0,0,0,0,0,0,0,0,0,0,0,0,0,0,0,0
2066516000,400000.0,1.0,1333.6654,0.0,46110,0,0.0,0,0,0,0,0,0.0,0,10,0,1,1,1,5,0,0,0,0,0,0,0,0,0,0,0,0,0,0,0,0,0
2067764000,400000.0,1.0,1398.4064,0.0,46138,0,0.0,0,0,0,0,0,0.0,0,10,0,1,1,1,5,0,0,0,0,0,0,0,0,0,0,0,0,0,0,0,0,0
2069020000,400000.0,1.0,1346.6135,0.0,46166,0,0.0,0,0,0,0,0,0.0,0,10,0,1,1,1,5,0,0,0,0,0,0,0,0,0,0,0,0,0,0,0,0,0
2070272000,400000.0,1.0,1333.6654,0.0,46193,0,0.0,0,0,0,0,0,0.0,0,10,0,1,1,1,5,0,0,0,0,0,0,0,0,0,0,0,0,0,0,0,0,0
2071272000,400000.0,1.0,1346.6135,0.0,46216,0,0.0,0,0,0,0,0,0.0,0,10,0,1,1,1,5,0,0,0,0,0,0,0,0,0,0,0,0,0,0,0,0,0
2071528000,400000.0,1.0,1346.6135,0.0,46222,0,0.0,0,0,0,0,0,0.0,0,10,0,1,1,1,5,0,0,0,0,0,0,0,0,0,0,0,0,0,0,0,0,0
2072780000,400000.0,1.0,1333.6654,0.0,46249,0,0.0,0,0,0,0,0,0.0,0,10,0,1,1,1,5,0,0,0,0,0,0,0,0,0,0,0,0,0,0,0,0,0
2074040000,400000.0,1.0,1333.6654,0.0,46278,0,0.0,0,0,0,0,0,0.0,0,10,0,1,1,1,5,0,0,0,0,0,0,0,0,0,0,0,0,0,0,0,0,0
2075040000,400000.0,1.0,1346.6135,0.0,46300,0,0.0,0,0,0,0,0,0.0,0,10,0,1,1,1,5,0,0,0,0,0,0,0,0,0,0,0,0,0,0,0,0,0
2075300000,400000.0,1.0,1333.6654,0.0,46306,0,0.0,0,0,0,0,0,0.0,0,10,0,1,1,1,5,0,0,0,0,0,0,0,0,0,0,0,0,0,0,0,0,0
2076556000,400000.0,1.0,1333.6654,0.0,46334,0,0.0,0,0,0,0,0,0.0,0,10,0,1,1,1,5,0,0,0,0,0,0,0,0,0,0,0,0,0,0,0,0,0
2077812000,400000.0,1.0,1346.6135,0.0,46363,0,0.0,0,0,0,0,0,0.0,0,10,0,1,1,1,5,0,0,0,0,0,0,0,0,0,0,0,0,0,0,0,0,0
2079068000,400000.0,1.0,1333.6654,0.0,46390,0,0.0,0,0,0,0,0,0.0,0,10,0,1,1,1,5,0,0,0,0,0,0,0,0,0,0,0,0,0,0,0,0,0
2080068000,400000.0,1.0,1398.4064,0.0,46413,0,0.0,0,0,0,0,0,0.0,0,10,0,1,1,1,5,0,0,0,0,0,0,0,0,0,0,0,0,0,0,0,0,0
2080320000,400000.0,1.0,1346.6135,0.0,46418,0,0.0,0,0,0,0,0,0.0,0,10,0,1,1,1,5,0,0,0,0,0,0,0,0,0,0,0,0,0,0,0,0,0
2081576000,400000.0,1.0,1333.6654,0.0,46446,0,0.0,0,0,0,0,0,0.0,0,10,0,1,1,1,5,0,0,0,0,0,0,0,0,0,0,0,0,0,0,0,0,0
2082828000,400000.0,1.0,1462.1515,0.0,46480,0,0.0,0,0,0,0,0,0.0,0,10,0,1,1,1,5,0,0,0,0,0,0,0,0,0,0,0,0,0,0,0,0,0
2084088000,400000.0,1.0,1436.255,0.0,46508,0,0.0,0,0,0,0,0,0.0,0,10,0,1,1,1,5,0,0,0,0,0,0,0,0,0,0,0,0,0,0,0,0,0
2085088000,400000.0,1.0,1378.4861,0.0,46530,0,0.0,0,0,0,0,0,0.0,0,10,0,1,1,1,5,0,0,0,0,0,0,0,0,0,0,0,0,0,0,0,0,0
2085348000,400000.0,1.0,1333.6654,0.0,46535,0,0.0,0,0,0,0,0,0.0,0,10,0,1,1,1,5,0,0,0,0,0,0,0,0,0,0,0,0,0,0,0,0,0
2086604000,400000.0,1.0,1346.6135,0.0,46565,0,0.0,0,0,0,0,0,0.0,0,10,0,1,1,1,5,0,0,0,0,0,0,0,0,0,0,0,0,0,0,0,0,0
2087860000,400000.0,1.0,1333.6654,0.0,46594,0,0.0,0,0,0,0,0,0.0,0,10,0,1,1,1,5,0,0,0,0,0,0,0,0,0,0,0,0,0,0,0,0,0
2089112000,400000.0,1.0,1358.5658,0.0,46622,0,0.0,0,0,0,0,0,0.0,0,10,0,1,1,1,5,0,0,0,0,0,0,0,0,0,0,0,0,0,0,0,0,0
2090112000,400000.0,1.0,1346.6135,0.0,46645,0,0.0,0,0,0,0,0,0.0,0,10,0,1,1,1,5,0,0,0,0,0,0,0,0,0,0,0,0,0,0,0,0,0
