timestamp,timestamp_sample,yaw_composite,yaw_variance,yaw[0],yaw[1],yaw[2],yaw[3],yaw[4],innov_vn[0],innov_vn[1],innov_vn[2],innov_vn[3],innov_vn[4],innov_ve[0],innov_ve[1],innov_ve[2],innov_ve[3],innov_ve[4],weight[0],weight[1],weight[2],weight[3],weight[4],yaw_composite_valid
2043328000,2043176000,2.4516294,0.5251237,2.827065,1.3795304,2.817915,2.8206964,2.821874,-0.0020979624,-0.013993999,-0.0021256115,-0.002117116,-0.0021135435,-0.0037857285,-0.011293449,-0.0038788994,-0.0038506053,-0.003838621,0.060295902,0.2913446,0.109517,0.45270714,0.08613528,0
2043336000,2043184000,2.4516294,0.5251237,2.8272493,1.3797146,2.8180993,2.820881,2.8220582,-0.0020979624,-0.013993999,-0.0021256115,-0.002117116,-0.0021135435,-0.0037857285,-0.011293449,-0.0038788994,-0.0038506053,-0.003838621,0.060295902,0.2913446,0.109517,0.45270714,0.08613528,0
2043344000,2043192000,2.4516294,0.5251237,2.8271952,1.3796602,2.818045,2.8208265,2.822004,-0.0020979624,-0.013993999,-0.0021256115,-0.002117116,-0.0021135435,-0.0037857285,-0.011293449,-0.0038788994,-0.0038506053,-0.003838621,0.060295902,0.2913446,0.109517,0.45270714,0.08613528,0
2043352000,2043200000,2.4516294,0.5251237,2.8271334,1.3795986,2.8179834,2.820765,2.8219426,-0.0020979624,-0.013993999,-0.0021256115,-0.002117116,-0.0021135435,-0.0037857285,-0.011293449,-0.0038788994,-0.0038506053,-0.003838621,0.060295902,0.2913446,0.109517,0.45270714,0.08613528,0
2043360000,2043208000,2.4516294,0.5251237,2.8270502,1.3795156,2.8179002,2.8206818,2.8218594,-0.0020979624,-0.013993999,-0.0021256115,-0.002117116,-0.0021135435,-0.0037857285,-0.011293449,-0.0038788994,-0.0038506053,-0.003838621,0.060295902,0.2913446,0.109517,0.45270714,0.08613528,0
2043368000,2043216000,2.4516294,0.5251237,2.8269973,1.3794622,2.817847,2.8206286,2.8218062,-0.0020979624,-0.013993999,-0.0021256115,-0.002117116,-0.0021135435,-0.0037857285,-0.011293449,-0.0038788994,-0.0038506053,-0.003838621,0.060295902,0.2913446,0.109517,0.45270714,0.08613528,0
2043376000,2043224000,2.4516294,0.5251237,2.8269892,1.3794543,2.817839,2.8206205,2.821798,-0.0020979624,-0.013993999,-0.0021256115,-0.002117116,-0.0021135435,-0.0037857285,-0.011293449,-0.0038788994,-0.0038506053,-0.003838621,0.060295902,0.2913446,0.109517,0.45270714,0.08613528,0
2043384000,2043232000,2.4516294,0.5251237,2.82692,1.3793852,2.81777,2.8205516,2.8217292,-0.0020979624,-0.013993999,-0.0021256115,-0.002117116,-0.0021135435,-0.0037857285,-0.011293449,-0.0038788994,-0.0038506053,-0.003838621,0.060295902,0.2913446,0.109517,0.45270714,0.08613528,0
2043392000,2043240000,2.4516294,0.5251237,2.8268776,1.379343,2.8177276,2.8205092,2.8216867,-0.0020979624,-0.013993999,-0.0021256115,-0.002117116,-0.0021135435,-0.0037857285,-0.011293449,-0.0038788994,-0.0038506053,-0.003838621,0.060295902,0.2913446,0.109517,0.45270714,0.08613528,0
2043400000,2043248000,2.4516294,0.5251237,2.826892,1.3793571,2.8177419,2.8205235,2.821701,-0.0020979624,-0.013993999,-0.0021256115,-0.002117116,-0.0021135435,-0.0037857285,-0.011293449,-0.0038788994,-0.0038506053,-0.003838621,0.060295902,0.2913446,0.109517,0.45270714,0.08613528,0
2043408000,2043256000,2.4516294,0.5251237,2.8269298,1.3793949,2.8177798,2.8205612,2.8217387,-0.0020979624,-0.013993999,-0.0021256115,-0.002117116,-0.0021135435,-0.0037857285,-0.011293449,-0.0038788994,-0.0038506053,-0.003838621,0.060295902,0.2913446,0.109517,0.45270714,0.08613528,0
2043416000,2043264000,2.4516294,0.5251237,2.826999,1.3794643,2.817849,2.8206306,2.821808,-0.0020979624,-0.013993999,-0.0021256115,-0.002117116,-0.0021135435,-0.0037857285,-0.011293449,-0.0038788994,-0.0038506053,-0.003838621,0.060295902,0.2913446,0.109517,0.45270714,0.08613528,0
2043424000,2043272000,2.4516294,0.5251237,2.8269765,1.3794415,2.8178265,2.8206081,2.8217857,-0.0020979624,-0.013993999,-0.0021256115,-0.002117116,-0.0021135435,-0.0037857285,-0.011293449,-0.0038788994,-0.0038506053,-0.003838621,0.060295902,0.2913446,0.109517,0.45270714,0.08613528,0
2043432000,2043280000,2.4516294,0.5251237,2.8268542,1.3793193,2.8177042,2.8204856,2.8216634,-0.0020979624,-0.013993999,-0.0021256115,-0.002117116,-0.0021135435,-0.0037857285,-0.011293449,-0.0038788994,-0.0038506053,-0.003838621,0.060295902,0.2913446,0.109517,0.45270714,0.08613528,0
2043440000,2043288000,2.4516294,0.5251237,2.826793,1.3792582,2.817643,2.8204246,2.8216019,-0.0020979624,-0.013993999,-0.0021256115,-0.002117116,-0.0021135435,-0.0037857285,-0.011293449,-0.0038788994,-0.0038506053,-0.003838621,0.060295902,0.2913446,0.109517,0.45270714,0.08613528,0
2043448000,2043296000,2.4516294,0.5251237,2.8268986,1.3793637,2.8177483,2.82053,2.8217077,-0.0020979624,-0.013993999,-0.0021256115,-0.002117116,-0.0021135435,-0.0037857285,-0.011293449,-0.0038788994,-0.0038506053,-0.003838621,0.060295902,0.2913446,0.109517,0.45270714,0.08613528,0
2043456000,2043304000,2.4516294,0.5251237,2.826983,1.3794479,2.8178327,2.8206143,2.821792,-0.0020979624,-0.013993999,-0.0021256115,-0.002117116,-0.0021135435,-0.0037857285,-0.011293449,-0.0038788994,-0.0038506053,-0.003838621,0.060295902,0.2913446,0.109517,0.45270714,0.08613528,0
2043464000,2043312000,2.4516294,0.5251237,2.8270075,1.3794727,2.8178573,2.8206391,2.8218167,-0.0020979624,-0.013993999,-0.0021256115,-0.002117116,-0.0021135435,-0.0037857285,-0.011293449,-0.0038788994,-0.0038506053,-0.003838621,0.060295902,0.2913446,0.109517,0.45270714,0.08613528,0
2043472000,2043320000,2.4516294,0.5251237,2.8270442,1.3795091,2.817894,2.8206758,2.8218532,-0.0020979624,-0.013993999,-0.0021256115,-0.002117116,-0.0021135435,-0.0037857285,-0.011293449,-0.0038788994,-0.0038506053,-0.003838621,0.060295902,0.2913446,0.109517,0.45270714,0.08613528,0
2043480000,2043328000,2.4516294,0.5251237,2.827089,1.3795543,2.8179388,2.8207207,2.8218982,-0.0020979624,-0.013993999,-0.0021256115,-0.002117116,-0.0021135435,-0.0037857285,-0.011293449,-0.0038788994,-0.0038506053,-0.003838621,0.060295902,0.2913446,0.109517,0.45270714,0.08613528,0
2043488000,2043336000,2.4516294,0.5251237,2.8270454,1.3795104,2.8178952,2.8206768,2.8218544,-0.0020979624,-0.013993999,-0.0021256115,-0.002117116,-0.0021135435,-0.0037857285,-0.011293449,-0.0038788994,-0.0038506053,-0.003838621,0.060295902,0.2913446,0.109517,0.45270714,0.08613528,0
2043496000,2043344000,2.4516294,0.5251237,2.8270712,1.3795366,2.8179212,2.8207028,2.8218803,-0.0020979624,-0.013993999,-0.0021256115,-0.002117116,-0.0021135435,-0.0037857285,-0.011293449,-0.0038788994,-0.0038506053,-0.003838621,0.060295902,0.2913446,0.109517,0.45270714,0.08613528,0
2043504000,2043352000,2.4516294,0.5251237,2.8271277,1.3795931,2.8179777,2.8207593,2.8219368,-0.0020979624,-0.013993999,-0.0021256115,-0.002117116,-0.0021135435,-0.0037857285,-0.011293449,-0.0038788994,-0.0038506053,-0.003838621,0.060295902,0.2913446,0.109517,0.45270714,0.08613528,0
2043512000,2043360000,2.4516294,0.5251237,2.8271065,1.3795718,2.8179564,2.820738,2.8219156,-0.0020979624,-0.013993999,-0.0021256115,-0.002117116,-0.0021135435,-0.0037857285,-0.011293449,-0.0038788994,-0.0038506053,-0.003838621,0.060295902,0.2913446,0.109517,0.45270714,0.08613528,0
2043520000,2043368000,2.4516294,0.5251237,2.82707,1.3795352,2.81792,2.8207016,2.8218791,-0.0020979624,-0.013993999,-0.0021256115,-0.002117116,-0.0021135435,-0.0037857285,-0.011293449,-0.0038788994,-0.0038506053,-0.003838621,0.060295902,0.2913446,0.109517,0.45270714,0.08613528,0
2043528000,2043376000,2.4516294,0.5251237,2.826957,1.3794223,2.817807,2.8205886,2.8217661,-0.0020979624,-0.013993999,-0.0021256115,-0.002117116,-0.0021135435,-0.0037857285,-0.011293449,-0.0038788994,-0.0038506053,-0.003838621,0.060295902,0.2913446,0.109517,0.45270714,0.08613528,0
2043536000,2043384000,2.4516294,0.5251237,2.826957,1.3794224,2.817807,2.8205886,2.8217661,-0.0020979624,-0.013993999,-0.0021256115,-0.002117116,-0.0021135435,-0.0037857285,-0.011293449,-0.0038788994,-0.0038506053,-0.003838621,0.060295902,0.2913446,0.109517,0.45270714,0.08613528,0
2043544000,2043392000,2.4516294,0.5251237,2.8269017,1.3793671,2.8177516,2.8205333,2.8217106,-0.0020979624,-0.013993999,-0.0021256115,-0.002117116,-0.0021135435,-0.0037857285,-0.011293449,-0.0038788994,-0.0038506053,-0.003838621,0.060295902,0.2913446,0.109517,0.45270714,0.08613528,0
2043552000,2043400000,2.4516294,0.5251237,2.826911,1.3793764,2.817761,2.8205426,2.8217201,-0.0020979624,-0.013993999,-0.0021256115,-0.002117116,-0.0021135435,-0.0037857285,-0.011293449,-0.0038788994,-0.0038506053,-0.003838621,0.060295902,0.2913446,0.109517,0.45270714,0.08613528,0
2043560000,2043408000,2.4516294,0.5251237,2.8268404,1.379306,2.8176906,2.820472,2.8216496,-0.0020979624,-0.013993999,-0.0021256115,-0.002117116,-0.0021135435,-0.0037857285,-0.011293449,-0.0038788994,-0.0038506053,-0.003838621,0.060295902,0.2913446,0.109517,0.45270714,0.08613528,0
2043568000,2043416000,2.4516294,0.5251237,2.826782,1.3792477,2.817632,2.8204136,2.8215911,-0.0020979624,-0.013993999,-0.0021256115,-0.002117116,-0.0021135435,-0.0037857285,-0.011293449,-0.0038788994,-0.0038506053,-0.003838621,0.060295902,0.2913446,0.109517,0.45270714,0.08613528,0
2043576000,2043424000,2.4516294,0.5251237,2.8268743,1.3793397,2.8177245,2.8205059,2.8216834,-0.0020979624,-0.013993999,-0.0021256115,-0.002117116,-0.0021135435,-0.0037857285,-0.011293449,-0.0038788994,-0.0038506053,-0.003838621,0.060295902,0.2913446,0.109517,0.45270714,0.08613528,0
2043584000,2043432000,2.4516294,0.5251237,2.826956,1.3794216,2.8178062,2.8205876,2.8217654,-0.0020979624,-0.013993999,-0.0021256115,-0.002117116,-0.0021135435,-0.0037857285,-0.011293449,-0.0038788994,-0.0038506053,-0.003838621,0.060295902,0.2913446,0.109517,0.45270714,0.08613528,0
2043592000,2043440000,2.4516294,0.5251237,2.8269308,1.379396,2.8177807,2.8205624,2.82174,-0.0020979624,-0.013993999,-0.0021256115,-0.002117116,-0.0021135435,-0.0037857285,-0.011293449,-0.0038788994,-0.0038506053,-0.003838621,0.060295902,0.2913446,0.109517,0.45270714,0.08613528,0
2043600000,2043448000,2.4516294,0.5251237,2.8268754,1.3793408,2.8177254,2.820507,2.8216846,-0.0020979624,-0.013993999,-0.0021256115,-0.002117116,-0.0021135435,-0.0037857285,-0.011293449,-0.0038788994,-0.0038506053,-0.003838621,0.060295902,0.2913446,0.109517,0.45270714,0.08613528,0
2043608000,2043456000,2.4516294,0.5251237,2.8269653,1.3794309,2.8178155,2.8205972,2.8217747,-0.0020979624,-0.013993999,-0.0021256115,-0.002117116,-0.0021135435,-0.0037857285,-0.011293449,-0.0038788994,-0.0038506053,-0.003838621,0.060295902,0.2913446,0.109517,0.45270714,0.08613528,0
2043616000,2043464000,2.4516294,0.5251237,2.8269105,1.379376,2.8177605,2.820542,2.8217196,-0.0020979624,-0.013993999,-0.0021256115,-0.002117116,-0.0021135435,-0.0037857285,-0.011293449,-0.0038788994,-0.0038506053,-0.003838621,0.060295902,0.2913446,0.109517,0.45270714,0.08613528,0
2043624000,2043472000,2.4516294,0.5251237,2.826868,1.3793335,2.8177183,2.8205,2.8216774,-0.0020979624,-0.013993999,-0.0021256115,-0.002117116,-0.0021135435,-0.0037857285,-0.011293449,-0.0038788994,-0.0038506053,-0.003838621,0.060295902,0.2913446,0.109517,0.45270714,0.08613528,0
2043632000,2043480000,2.4516294,0.5251237,2.8268492,1.3793148,2.8176992,2.8204808,2.8216584,-0.0020979624,-0.013993999,-0.0021256115,-0.002117116,-0.0021135435,-0.0037857285,-0.011293449,-0.0038788994,-0.0038506053,-0.003838621,0.060295902,0.2913446,0.109517,0.45270714,0.08613528,0
2043640000,2043488000,2.4516294,0.5251237,2.8269174,1.379383,2.8177674,2.820549,2.8217266,-0.0020979624,-0.013993999,-0.0021256115,-0.002117116,-0.0021135435,-0.0037857285,-0.011293449,-0.0038788994,-0.0038506053,-0.003838621,0.060295902,0.2913446,0.109517,0.45270714,0.08613528,0
2043648000,2043496000,2.4516294,0.5251237,2.8270216,1.379487,2.8178716,2.8206532,2.8218307,-0.0020979624,-0.013993999,-0.0021256115,-0.002117116,-0.0021135435,-0.0037857285,-0.011293449,-0.0038788994,-0.0038506053,-0.003838621,0.060295902,0.2913446,0.109517,0.45270714,0.08613528,0
2043656000,2043504000,2.4480157,0.52647054,2.826402,1.3793397,2.8172507,2.8200326,2.8212104,0.03985606,0.019737441,0.03976193,0.03979064,0.039802767,0.009664395,0.007373077,0.009560929,0.009592289,0.009605589,0.060129885,0.2932622,0.109223254,0.4514831,0.085901596,0
2043664000,2043512000,2.4480157,0.52647054,2.8264344,1.3793719,2.8172827,2.8200648,2.8212426,0.03985606,0.019737441,0.03976193,0.03979064,0.039802767,0.009664395,0.007373077,0.009560929,0.009592289,0.009605589,0.060129885,0.2932622,0.109223254,0.4514831,0.085901596,0
2043672000,2043520000,2.4480157,0.52647054,2.8264332,1.3793709,2.8172817,2.8200638,2.8212416,0.03985606,0.019737441,0.03976193,0.03979064,0.039802767,0.009664395,0.007373077,0.009560929,0.009592289,0.009605589,0.060129885,0.2932622,0.109223254,0.4514831,0.085901596,0
2043680000,2043528000,2.4480157,0.52647054,2.826509,1.3794466,2.8173575,2.8201394,2.8213172,0.03985606,0.019737441,0.03976193,0.03979064,0.039802767,0.009664395,0.007373077,0.009560929,0.009592289,0.009605589,0.060129885,0.2932622,0.109223254,0.4514831,0.085901596,0
2043688000,2043536000,2.4480157,0.52647054,2.826603,1.3795403,2.8174515,2.8202333,2.8214111,0.03985606,0.019737441,0.03976193,0.03979064,0.039802767,0.009664395,0.007373077,0.009560929,0.009592289,0.009605589,0.060129885,0.2932622,0.109223254,0.4514831,0.085901596,0
2043696000,2043544000,2.4480157,0.52647054,2.826685,1.3796225,2.8175335,2.8203154,2.8214931,0.03985606,0.019737441,0.03976193,0.03979064,0.039802767,0.009664395,0.007373077,0.009560929,0.009592289,0.009605589,0.060129885,0.2932622,0.109223254,0.4514831,0.085901596,0
2043704000,2043552000,2.4480157,0.52647054,2.8266683,1.3796058,2.8175168,2.820299,2.8214765,0.03985606,0.019737441,0.03976193,0.03979064,0.039802767,0.009664395,0.007373077,0.009560929,0.009592289,0.009605589,0.060129885,0.2932622,0.109223254,0.4514831,0.085901596,0
2043712000,2043560000,2.4480157,0.52647054,2.8265285,1.3794658,2.817377,2.820159,2.8213367,0.03985606,0.019737441,0.03976193,0.03979064,0.039802767,0.009664395,0.007373077,0.009560929,0.009592289,0.009605589,0.060129885,0.2932622,0.109223254,0.4514831,0.085901596,0
2043720000,2043568000,2.4480157,0.52647054,2.8265185,1.3794562,2.817367,2.8201492,2.8213267,0.03985606,0.019737441,0.03976193,0.03979064,0.039802767,0.009664395,0.007373077,0.009560929,0.009592289,0.009605589,0.060129885,0.2932622,0.109223254,0.4514831,0.085901596,0
2043728000,2043576000,2.4480157,0.52647054,2.826481,1.3794186,2.8173296,2.8201118,2.8212895,0.03985606,0.019737441,0.03976193,0.03979064,0.039802767,0.009664395,0.007373077,0.009560929,0.009592289,0.009605589,0.060129885,0.2932622,0.109223254,0.4514831,0.085901596,0
2043736000,2043584000,2.4480157,0.52647054,2.8264258,1.3793633,2.8172746,2.8200564,2.8212342,0.03985606,0.019737441,0.03976193,0.03979064,0.039802767,0.009664395,0.007373077,0.009560929,0.009592289,0.009605589,0.060129885,0.2932622,0.109223254,0.4514831,0.085901596,0
2043744000,2043592000,2.4480157,0.52647054,2.8264089,1.3793463,2.8172574,2.8200393,2.821217,0.03985606,0.019737441,0.03976193,0.03979064,0.039802767,0.009664395,0.007373077,0.009560929,0.009592289,0.009605589,0.060129885,0.2932622,0.109223254,0.4514831,0.085901596,0
2043752000,2043600000,2.4480157,0.52647054,2.8264387,1.3793762,2.8172872,2.820069,2.8212469,0.03985606,0.019737441,0.03976193,0.03979064,0.039802767,0.009664395,0.007373077,0.009560929,0.009592289,0.009605589,0.060129885,0.2932622,0.109223254,0.4514831,0.085901596,0
2043760000,2043608000,2.4480157,0.52647054,2.8263876,1.3793255,2.8172364,2.8200183,2.821196,0.03985606,0.019737441,0.03976193,0.03979064,0.039802767,0.009664395,0.007373077,0.009560929,0.009592289,0.009605589,0.060129885,0.2932622,0.109223254,0.4514831,0.085901596,0
2043768000,2043616000,2.4480157,0.52647054,2.8262877,1.3792255,2.8171363,2.8199182,2.821096,0.03985606,0.019737441,0.03976193,0.03979064,0.039802767,0.009664395,0.007373077,0.009560929,0.009592289,0.009605589,0.060129885,0.2932622,0.109223254,0.4514831,0.085901596,0
2043776000,2043624000,2.4480157,0.52647054,2.8263462,1.3792839,2.8171947,2.8199766,2.8211544,0.03985606,0.019737441,0.03976193,0.03979064,0.039802767,0.009664395,0.007373077,0.009560929,0.009592289,0.009605589,0.060129885,0.2932622,0.109223254,0.4514831,0.085901596,0
2043784000,2043632000,2.4480157,0.52647054,2.8264153,1.379353,2.8172638,2.8200457,2.8212235,0.03985606,0.019737441,0.03976193,0.03979064,0.039802767,0.009664395,0.007373077,0.009560929,0.009592289,0.009605589,0.060129885,0.2932622,0.109223254,0.4514831,0.085901596,0
2043792000,2043640000,2.4480157,0.52647054,2.8264182,1.3793559,2.8172667,2.8200486,2.8212264,0.03985606,0.019737441,0.03976193,0.03979064,0.039802767,0.009664395,0.007373077,0.009560929,0.009592289,0.009605589,0.060129885,0.2932622,0.109223254,0.4514831,0.085901596,0
2043800000,2043648000,2.4480157,0.52647054,2.8264508,1.3793886,2.8172996,2.8200815,2.8212593,0.03985606,0.019737441,0.03976193,0.03979064,0.039802767,0.009664395,0.007373077,0.009560929,0.009592289,0.009605589,0.060129885,0.2932622,0.109223254,0.4514831,0.085901596,0
2043808000,2043656000,2.4480157,0.52647054,2.8264637,1.3794014,2.8173125,2.8200943,2.8212721,0.03985606,0.019737441,0.03976193,0.03979064,0.039802767,0.009664395,0.007373077,0.009560929,0.009592289,0.009605589,0.060129885,0.2932622,0.109223254,0.4514831,0.085901596,0
2043816000,2043664000,2.4480157,0.52647054,2.8264434,1.3793814,2.8172922,2.820074,2.8212519,0.03985606,0.019737441,0.03976193,0.03979064,0.039802767,0.009664395,0.007373077,0.009560929,0.009592289,0.009605589,0.060129885,0.2932622,0.109223254,0.4514831,0.085901596,0
2043824000,2043672000,2.4480157,0.52647054,2.8264406,1.3793784,2.8172894,2.8200712,2.821249,0.03985606,0.019737441,0.03976193,0.03979064,0.039802767,0.009664395,0.007373077,0.009560929,0.009592289,0.009605589,0.060129885,0.2932622,0.109223254,0.4514831,0.085901596,0
2043832000,2043680000,2.4480157,0.52647054,2.8265162,1.379454,2.817365,2.8201468,2.8213243,0.03985606,0.019737441,0.03976193,0.03979064,0.039802767,0.009664395,0.007373077,0.009560929,0.009592289,0.009605589,0.060129885,0.2932622,0.109223254,0.4514831,0.085901596,0
2043840000,2043688000,2.4480157,0.52647054,2.826505,1.3794429,2.8173537,2.8201356,2.8213134,0.03985606,0.019737441,0.03976193,0.03979064,0.039802767,0.009664395,0.007373077,0.009560929,0.009592289,0.009605589,0.060129885,0.2932622,0.109223254,0.4514831,0.085901596,0
2043848000,2043696000,2.4480157,0.52647054,2.8265412,1.379479,2.8173897,2.8201718,2.8213494,0.03985606,0.019737441,0.03976193,0.03979064,0.039802767,0.009664395,0.007373077,0.009560929,0.009592289,0.009605589,0.060129885,0.2932622,0.109223254,0.4514831,0.085901596,0
2043856000,2043704000,2.4480157,0.52647054,2.826588,1.3795258,2.8174365,2.8202183,2.821396,0.03985606,0.019737441,0.03976193,0.03979064,0.039802767,0.009664395,0.007373077,0.009560929,0.009592289,0.009605589,0.060129885,0.2932622,0.109223254,0.4514831,0.085901596,0
2043864000,2043712000,2.4480157,0.52647054,2.8266177,1.3795555,2.8174665,2.8202484,2.821426,0.03985606,0.019737441,0.03976193,0.03979064,0.039802767,0.009664395,0.007373077,0.009560929,0.009592289,0.009605589,0.060129885,0.2932622,0.109223254,0.4514831,0.085901596,0
2043872000,2043720000,2.4480157,0.52647054,2.826649,1.3795867,2.8174975,2.8202796,2.8214574,0.03985606,0.019737441,0.03976193,0.03979064,0.039802767,0.009664395,0.007373077,0.009560929,0.009592289,0.009605589,0.060129885,0.2932622,0.109223254,0.4514831,0.085901596,0
2043880000,2043728000,2.4480157,0.52647054,2.8266325,1.37957,2.817481,2.820263,2.8214407,0.03985606,0.019737441,0.03976193,0.03979064,0.039802767,0.009664395,0.007373077,0.009560929,0.009592289,0.009605589,0.060129885,0.2932622,0.109223254,0.4514831,0.085901596,0
2043888000,2043736000,2.4480157,0.52647054,2.8266568,1.3795946,2.8175054,2.8202872,2.821465,0.03985606,0.019737441,0.03976193,0.03979064,0.039802767,0.009664395,0.007373077,0.009560929,0.009592289,0.009605589,0.060129885,0.2932622,0.109223254,0.4514831,0.085901596,0
2043896000,2043744000,2.4480157,0.52647054,2.826723,1.3796607,2.8175716,2.8203535,2.8215313,0.03985606,0.019737441,0.03976193,0.03979064,0.039802767,0.009664395,0.007373077,0.009560929,0.009592289,0.009605589,0.060129885,0.2932622,0.109223254,0.4514831,0.085901596,0
2043904000,2043752000,2.4480157,0.52647054,2.8267293,1.3796669,2.8175778,2.82036,2.8215375,0.03985606,0.019737441,0.03976193,0.03979064,0.039802767,0.009664395,0.007373077,0.009560929,0.009592289,0.009605589,0.060129885,0.2932622,0.109223254,0.4514831,0.085901596,0
2043912000,2043760000,2.4480157,0.52647054,2.8267453,1.3796828,2.8175938,2.820376,2.8215535,0.03985606,0.019737441,0.03976193,0.03979064,0.039802767,0.009664395,0.007373077,0.009560929,0.009592289,0.009605589,0.060129885,0.2932622,0.109223254,0.4514831,0.085901596,0
2043920000,2043768000,2.4480157,0.52647054,2.8267846,1.3797224,2.8176332,2.8204153,2.821593,0.03985606,0.019737441,0.03976193,0.03979064,0.039802767,0.009664395,0.007373077,0.009560929,0.009592289,0.009605589,0.060129885,0.2932622,0.109223254,0.4514831,0.085901596,0
2043928000,2043776000,2.4480157,0.52647054,2.8267713,1.3797089,2.8176198,2.820402,2.8215795,0.03985606,0.019737441,0.03976193,0.03979064,0.039802767,0.009664395,0.007373077,0.009560929,0.009592289,0.009605589,0.060129885,0.2932622,0.109223254,0.4514831,0.085901596,0
2043936000,2043784000,2.4480157,0.52647054,2.8267531,1.379691,2.817602,2.8203838,2.8215616,0.03985606,0.019737441,0.03976193,0.03979064,0.039802767,0.009664395,0.007373077,0.009560929,0.009592289,0.009605589,0.060129885,0.2932622,0.109223254,0.4514831,0.085901596,0
2043944000,2043792000,2.4480157,0.52647054,2.826765,1.3797028,2.8176138,2.8203957,2.8215735,0.03985606,0.019737441,0.03976193,0.03979064,0.039802767,0.009664395,0.007373077,0.009560929,0.009592289,0.009605589,0.060129885,0.2932622,0.109223254,0.4514831,0.085901596,0
2043952000,2043800000,2.4480157,0.52647054,2.826782,1.3797195,2.8176305,2.8204124,2.8215902,0.03985606,0.019737441,0.03976193,0.03979064,0.039802767,0.009664395,0.007373077,0.009560929,0.009592289,0.009605589,0.060129885,0.2932622,0.109223254,0.4514831,0.085901596,0
2043960000,2043808000,2.4480157,0.52647054,2.826827,1.3797646,2.8176756,2.8204575,2.8216352,0.03985606,0.019737441,0.03976193,0.03979064,0.039802767,0.009664395,0.007373077,0.009560929,0.009592289,0.009605589,0.060129885,0.2932622,0.109223254,0.4514831,0.085901596,0
2043968000,2043816000,2.4480157,0.52647054,2.826839,1.3797764,2.8176875,2.8204694,2.8216472,0.03985606,0.019737441,0.03976193,0.03979064,0.039802767,0.009664395,0.007373077,0.009560929,0.009592289,0.009605589,0.060129885,0.2932622,0.109223254,0.4514831,0.085901596,0
2043976000,2043824000,2.4480157,0.52647054,2.8269072,1.3798448,2.817756,2.8205378,2.8217154,0.03985606,0.019737441,0.03976193,0.03979064,0.039802767,0.009664395,0.007373077,0.009560929,0.009592289,0.009605589,0.060129885,0.2932622,0.109223254,0.4514831,0.085901596,0
2043984000,2043832000,2.4480157,0.52647054,2.8269541,1.3798919,2.8178027,2.8205848,2.8217626,0.03985606,0.019737441,0.03976193,0.03979064,0.039802767,0.009664395,0.007373077,0.009560929,0.009592289,0.009605589,0.060129885,0.2932622,0.109223254,0.4514831,0.085901596,0
2043992000,2043840000,2.4480157,0.52647054,2.8269606,1.3798982,2.817809,2.8205912,2.8217688,0.03985606,0.019737441,0.03976193,0.03979064,0.039802767,0.009664395,0.007373077,0.009560929,0.009592289,0.009605589,0.060129885,0.2932622,0.109223254,0.4514831,0.085901596,0
2044000000,2043848000,2.4480157,0.52647054,2.826897,1.3798347,2.8177457,2.8205276,2.8217053,0.03985606,0.019737441,0.03976193,0.03979064,0.039802767,0.009664395,0.007373077,0.009560929,0.009592289,0.009605589,0.060129885,0.2932622,0.109223254,0.4514831,0.085901596,0
2044008000,2043856000,2.4480157,0.52647054,2.8268175,1.379755,2.817666,2.820448,2.8216257,0.03985606,0.019737441,0.03976193,0.03979064,0.039802767,0.009664395,0.007373077,0.009560929,0.009592289,0.009605589,0.060129885,0.2932622,0.109223254,0.4514831,0.085901596,0
2044016000,2043864000,2.4480157,0.52647054,2.8267581,1.3796957,2.8176067,2.8203886,2.8215663,0.03985606,0.019737441,0.03976193,0.03979064,0.039802767,0.009664395,0.007373077,0.009560929,0.009592289,0.009605589,0.060129885,0.2932622,0.109223254,0.4514831,0.085901596,0
2044024000,2043872000,2.4480157,0.52647054,2.8266952,1.3796328,2.817544,2.8203259,2.8215036,0.03985606,0.019737441,0.03976193,0.03979064,0.039802767,0.009664395,0.007373077,0.009560929,0.009592289,0.009605589,0.060129885,0.2932622,0.109223254,0.4514831,0.085901596,0
2044032000,2043880000,2.4480157,0.52647054,2.8265948,1.3795327,2.8174436,2.8202255,2.8214033,0.03985606,0.019737441,0.03976193,0.03979064,0.039802767,0.009664395,0.007373077,0.009560929,0.009592289,0.009605589,0.060129885,0.2932622,0.109223254,0.4514831,0.085901596,0
2044040000,2043888000,2.4480157,0.52647054,2.8265681,1.3795056,2.8174167,2.8201985,2.8213763,0.03985606,0.019737441,0.03976193,0.03979064,0.039802767,0.009664395,0.007373077,0.009560929,0.009592289,0.009605589,0.060129885,0.2932622,0.109223254,0.4514831,0.085901596,0
2044048000,2043896000,2.4480157,0.52647054,2.8264859,1.3794235,2.8173344,2.8201165,2.821294,0.03985606,0.019737441,0.03976193,0.03979064,0.039802767,0.009664395,0.007373077,0.009560929,0.009592289,0.009605589,0.060129885,0.2932622,0.109223254,0.4514831,0.085901596,0
2044056000,2043904000,2.4476686,0.5270484,2.8266826,1.3792045,2.8175285,2.8203113,2.8214893,0.019114451,0.008853983,0.019065186,0.019080214,0.01908655,-0.032931782,-0.033828445,-0.032983143,-0.032967575,-0.032960963,0.060100045,0.29361832,0.10916776,0.45125544,0.085858405,0
2044064000,2043912000,2.4476686,0.5270484,2.8266582,1.3791801,2.817504,2.8202868,2.8214648,0.019114451,0.008853983,0.019065186,0.019080214,0.01908655,-0.032931782,-0.033828445,-0.032983143,-0.032967575,-0.032960963,0.060100045,0.29361832,0.10916776,0.45125544,0.085858405,0
2044072000,2043920000,2.4476686,0.5270484,2.8267863,1.3793083,2.8176322,2.8204148,2.821593,0.019114451,0.008853983,0.019065186,0.019080214,0.01908655,-0.032931782,-0.033828445,-0.032983143,-0.032967575,-0.032960963,0.060100045,0.29361832,0.10916776,0.45125544,0.085858405,0
2044080000,2043928000,2.4476686,0.5270484,2.8268645,1.3793864,2.8177102,2.820493,2.821671,0.019114451,0.008853983,0.019065186,0.019080214,0.01908655,-0.032931782,-0.033828445,-0.032983143,-0.032967575,-0.032960963,0.060100045,0.29361832,0.10916776,0.45125544,0.085858405,0
2044088000,2043936000,2.4476686,0.5270484,2.8267987,1.3793207,2.8176446,2.8204274,2.8216054,0.019114451,0.008853983,0.019065186,0.019080214,0.01908655,-0.032931782,-0.033828445,-0.032983143,-0.032967575,-0.032960963,0.060100045,0.29361832,0.10916776,0.45125544,0.085858405,0
2044096000,2043944000,2.4476686,0.5270484,2.8268063,1.3793283,2.8176522,2.820435,2.821613,0.019114451,0.008853983,0.019065186,0.019080214,0.01908655,-0.032931782,-0.033828445,-0.032983143,-0.032967575,-0.032960963,0.060100045,0.29361832,0.10916776,0.45125544,0.085858405,0
2044104000,2043952000,2.4476686,0.5270484,2.8266997,1.3792217,2.8175457,2.8203285,2.8215065,0.019114451,0.008853983,0.019065186,0.019080214,0.01908655,-0.032931782,-0.033828445,-0.032983143,-0.032967575,-0.032960963,0.060100045,0.29361832,0.10916776,0.45125544,0.085858405,0
2044112000,2043960000,2.4476686,0.5270484,2.826619,1.3791407,2.8174646,2.8202477,2.8214254,0.019114451,0.008853983,0.019065186,0.019080214,0.01908655,-0.032931782,-0.033828445,-0.032983143,-0.032967575,-0.032960963,0.060100045,0.29361832,0.10916776,0.45125544,0.085858405,0
2044120000,2043968000,2.4476686,0.5270484,2.8264985,1.3790202,2.8173442,2.820127,2.821305,0.019114451,0.008853983,0.019065186,0.019080214,0.01908655,-0.032931782,-0.033828445,-0.032983143,-0.032967575,-0.032960963,0.060100045,0.29361832,0.10916776,0.45125544,0.085858405,0
2044128000,2043976000,2.4476686,0.5270484,2.8264956,1.3790177,2.8173416,2.8201244,2.8213024,0.019114451,0.008853983,0.019065186,0.019080214,0.01908655,-0.032931782,-0.033828445,-0.032983143,-0.032967575,-0.032960963,0.060100045,0.29361832,0.10916776,0.45125544,0.085858405,0
2044136000,2043984000,2.4476686,0.5270484,2.8265228,1.379045,2.8173685,2.8201516,2.8213296,0.019114451,0.008853983,0.019065186,0.019080214,0.01908655,-0.032931782,-0.033828445,-0.032983143,-0.032967575,-0.032960963,0.060100045,0.29361832,0.10916776,0.45125544,0.085858405,0
2044144000,2043992000,2.4476686,0.5270484,2.8265965,1.3791186,2.8174424,2.8202252,2.8214033,0.019114451,0.008853983,0.019065186,0.019080214,0.01908655,-0.032931782,-0.033828445,-0.032983143,-0.032967575,-0.032960963,0.060100045,0.29361832,0.10916776,0.45125544,0.085858405,0
2044152000,2044000000,2.4476686,0.5270484,2.8265977,1.3791198,2.8174436,2.8202264,2.8214045,0.019114451,0.008853983,0.019065186,0.019080214,0.01908655,-0.032931782,-0.033828445,-0.032983143,-0.032967575,-0.032960963,0.060100045,0.29361832,0.10916776,0.45125544,0.085858405,0
2044160000,2044008000,2.4476686,0.5270484,2.8265731,1.3790952,2.817419,2.8202019,2.82138,0.019114451,0.008853983,0.019065186,0.019080214,0.01908655,-0.032931782,-0.033828445,-0.032983143,-0.032967575,-0.032960963,0.060100045,0.29361832,0.10916776,0.45125544,0.085858405,0
2044168000,2044016000,2.4476686,0.5270484,2.8265061,1.3790278,2.8173518,2.8201346,2.8213127,0.019114451,0.008853983,0.019065186,0.019080214,0.01908655,-0.032931782,-0.033828445,-0.032983143,-0.032967575,-0.032960963,0.060100045,0.29361832,0.10916776,0.45125544,0.085858405,0
2044176000,2044024000,2.4476686,0.5270484,2.8264716,1.3789935,2.8173175,2.8201003,2.8212783,0.019114451,0.008853983,0.019065186,0.019080214,0.01908655,-0.032931782,-0.033828445,-0.032983143,-0.032967575,-0.032960963,0.060100045,0.29361832,0.10916776,0.45125544,0.085858405,0
2044184000,2044032000,2.4476686,0.5270484,2.8264117,1.3789333,2.8172576,2.8200405,2.8212185,0.019114451,0.008853983,0.019065186,0.019080214,0.01908655,-0.032931782,-0.033828445,-0.032983143,-0.032967575,-0.032960963,0.060100045,0.29361832,0.10916776,0.45125544,0.085858405,0
2044192000,2044040000,2.4476686,0.5270484,2.8263936,1.3789155,2.8172395,2.8200223,2.8212004,0.019114451,0.008853983,0.019065186,0.019080214,0.01908655,-0.032931782,-0.033828445,-0.032983143,-0.032967575,-0.032960963,0.060100045,0.29361832,0.10916776,0.45125544,0.085858405,0
2044200000,2044048000,2.4476686,0.5270484,2.8263307,1.3788526,2.8171766,2.8199594,2.8211374,0.019114451,0.008853983,0.019065186,0.019080214,0.01908655,-0.032931782,-0.033828445,-0.032983143,-0.032967575,-0.032960963,0.060100045,0.29361832,0.10916776,0.45125544,0.085858405,0
2044208000,2044056000,2.4476686,0.5270484,2.826333,1.3788548,2.8171787,2.8199615,2.8211398,0.019114451,0.008853983,0.019065186,0.019080214,0.01908655,-0.032931782,-0.033828445,-0.032983143,-0.032967575,-0.032960963,0.060100045,0.29361832,0.10916776,0.45125544,0.085858405,0
2044216000,2044064000,2.4476686,0.5270484,2.8264031,1.3789251,2.8172488,2.8200316,2.82121,0.019114451,0.008853983,0.019065186,0.019080214,0.01908655,-0.032931782,-0.033828445,-0.032983143,-0.032967575,-0.032960963,0.060100045,0.29361832,0.10916776,0.45125544,0.085858405,0
2044224000,2044072000,2.4476686,0.5270484,2.8264365,1.3789586,2.8172824,2.8200653,2.8212433,0.019114451,0.008853983,0.019065186,0.019080214,0.01908655,-0.032931782,-0.033828445,-0.032983143,-0.032967575,-0.032960963,0.060100045,0.29361832,0.10916776,0.45125544,0.085858405,0
2044232000,2044080000,2.4476686,0.5270484,2.8263822,1.3789043,2.817228,2.820011,2.8211892,0.019114451,0.008853983,0.019065186,0.019080214,0.01908655,-0.032931782,-0.033828445,-0.032983143,-0.032967575,-0.032960963,0.060100045,0.29361832,0.10916776,0.45125544,0.085858405,0
2044240000,2044088000,2.4476686,0.5270484,2.8264034,1.3789253,2.8172493,2.820032,2.82121,0.019114451,0.008853983,0.019065186,0.019080214,0.01908655,-0.032931782,-0.033828445,-0.032983143,-0.032967575,-0.032960963,0.060100045,0.29361832,0.10916776,0.45125544,0.085858405,0
2044248000,2044096000,2.4476686,0.5270484,2.826404,1.3789262,2.81725,2.8200328,2.821211,0.019114451,0.008853983,0.019065186,0.019080214,0.01908655,-0.032931782,-0.033828445,-0.032983143,-0.032967575,-0.032960963,0.060100045,0.29361832,0.10916776,0.45125544,0.085858405,0
2044256000,2044104000,2.4476686,0.5270484,2.8264894,1.3790115,2.8173354,2.8201182,2.8212962,0.019114451,0.008853983,0.019065186,0.019080214,0.01908655,-0.032931782,-0.033828445,-0.032983143,-0.032967575,-0.032960963,0.060100045,0.29361832,0.10916776,0.45125544,0.085858405,0
2044264000,2044112000,2.4476686,0.5270484,2.826562,1.3790839,2.8174076,2.8201907,2.8213687,0.019114451,0.008853983,0.019065186,0.019080214,0.01908655,-0.032931782,-0.033828445,-0.032983143,-0.032967575,-0.032960963,0.060100045,0.29361832,0.10916776,0.45125544,0.085858405,0
2044272000,2044120000,2.4476686,0.5270484,2.8265235,1.3790457,2.8173695,2.8201523,2.8213303,0.019114451,0.008853983,0.019065186,0.019080214,0.01908655,-0.032931782,-0.033828445,-0.032983143,-0.032967575,-0.032960963,0.060100045,0.29361832,0.10916776,0.45125544,0.085858405,0
2044280000,2044128000,2.4476686,0.5270484,2.8265598,1.3790821,2.8174057,2.8201885,2.8213665,0.019114451,0.008853983,0.019065186,0.019080214,0.01908655,-0.032931782,-0.033828445,-0.032983143,-0.032967575,-0.032960963,0.060100045,0.29361832,0.10916776,0.45125544,0.085858405,0
2044288000,2044136000,2.4476686,0.5270484,2.8265295,1.3790518,2.8173752,2.8201582,2.8213363,0.019114451,0.008853983,0.019065186,0.019080214,0.01908655,-0.032931782,-0.033828445,-0.032983143,-0.032967575,-0.032960963,0.060100045,0.29361832,0.10916776,0.45125544,0.085858405,0
2044296000,2044144000,2.4476686,0.5270484,2.8265069,1.379029,2.8173528,2.8201356,2.8213136,0.019114451,0.008853983,0.019065186,0.019080214,0.01908655,-0.032931782,-0.033828445,-0.032983143,-0.032967575,-0.032960963,0.060100045,0.29361832,0.10916776,0.45125544,0.085858405,0
2044304000,2044152000,2.4476686,0.5270484,2.8264446,1.3789669,2.8172903,2.8200731,2.8212514,0.019114451,0.008853983,0.019065186,0.019080214,0.01908655,-0.032931782,-0.033828445,-0.032983143,-0.032967575,-0.032960963,0.060100045,0.29361832,0.10916776,0.45125544,0.085858405,0
2044312000,2044160000,2.4476686,0.5270484,2.8264456,1.378968,2.8172915,2.820074,2.8212523,0.019114451,0.008853983,0.019065186,0.019080214,0.01908655,-0.032931782,-0.033828445,-0.032983143,-0.032967575,-0.032960963,0.060100045,0.29361832,0.10916776,0.45125544,0.085858405,0
2044320000,2044168000,2.4476686,0.5270484,2.8264928,1.3790152,2.8173387,2.8201215,2.8212996,0.019114451,0.008853983,0.019065186,0.019080214,0.01908655,-0.032931782,-0.033828445,-0.032983143,-0.032967575,-0.032960963,0.060100045,0.29361832,0.10916776,0.45125544,0.085858405,0
2044328000,2044176000,2.4476686,0.5270484,2.8264604,1.3789827,2.8173063,2.820089,2.8212671,0.019114451,0.008853983,0.019065186,0.019080214,0.01908655,-0.032931782,-0.033828445,-0.032983143,-0.032967575,-0.032960963,0.060100045,0.29361832,0.10916776,0.45125544,0.085858405,0
2044336000,2044184000,2.4476686,0.5270484,2.826412,1.3789344,2.817258,2.8200407,2.8212187,0.019114451,0.008853983,0.019065186,0.019080214,0.01908655,-0.032931782,-0.033828445,-0.032983143,-0.032967575,-0.032960963,0.060100045,0.29361832,0.10916776,0.45125544,0.085858405,0
2044344000,2044192000,2.4476686,0.5270484,2.8264885,1.379011,2.8173344,2.8201172,2.8212953,0.019114451,0.008853983,0.019065186,0.019080214,0.01908655,-0.032931782,-0.033828445,-0.032983143,-0.032967575,-0.032960963,0.060100045,0.29361832,0.10916776,0.45125544,0.085858405,0
2044352000,2044200000,2.4476686,0.5270484,2.8264046,1.378927,2.8172505,2.8200333,2.8212113,0.019114451,0.008853983,0.019065186,0.019080214,0.01908655,-0.032931782,-0.033828445,-0.032983143,-0.032967575,-0.032960963,0.060100045,0.29361832,0.10916776,0.45125544,0.085858405,0
2044360000,2044208000,2.4476686,0.5270484,2.8262918,1.3788142,2.8171377,2.8199203,2.8210986,0.019114451,0.008853983,0.019065186,0.019080214,0.01908655,-0.032931782,-0.033828445,-0.032983143,-0.032967575,-0.032960963,0.060100045,0.29361832,0.10916776,0.45125544,0.085858405,0
2044368000,2044216000,2.4476686,0.5270484,2.8262746,1.3787973,2.8171206,2.8199034,2.8210814,0.019114451,0.008853983,0.019065186,0.019080214,0.01908655,-0.032931782,-0.033828445,-0.032983143,-0.032967575,-0.032960963,0.060100045,0.29361832,0.10916776,0.45125544,0.085858405,0
2044376000,2044224000,2.4476686,0.5270484,2.8263283,1.3788512,2.8171742,2.819957,2.8211353,0.019114451,0.008853983,0.019065186,0.019080214,0.01908655,-0.032931782,-0.033828445,-0.032983143,-0.032967575,-0.032960963,0.060100045,0.29361832,0.10916776,0.45125544,0.085858405,0
2044384000,2044232000,2.4476686,0.5270484,2.8264327,1.3789551,2.8172784,2.8200612,2.8212395,0.019114451,0.008853983,0.019065186,0.019080214,0.01908655,-0.032931782,-0.033828445,-0.032983143,-0.032967575,-0.032960963,0.060100045,0.29361832,0.10916776,0.45125544,0.085858405,0
2044392000,2044240000,2.4476686,0.5270484,2.8264656,1.378988,2.8173115,2.820094,2.8212724,0.019114451,0.008853983,0.019065186,0.019080214,0.01908655,-0.032931782,-0.033828445,-0.032983143,-0.032967575,-0.032960963,0.060100045,0.29361832,0.10916776,0.45125544,0.085858405,0
2044400000,2044248000,2.4476686,0.5270484,2.8264894,1.379012,2.8173354,2.8201182,2.8212962,0.019114451,0.008853983,0.019065186,0.019080214,0.01908655,-0.032931782,-0.033828445,-0.032983143,-0.032967575,-0.032960963,0.060100045,0.29361832,0.10916776,0.45125544,0.085858405,0
2044408000,2044256000,2.4476686,0.5270484,2.8264205,1.3789431,2.8172665,2.8200493,2.8212273,0.019114451,0.008853983,0.019065186,0.019080214,0.01908655,-0.032931782,-0.033828445,-0.032983143,-0.032967575,-0.032960963,0.060100045,0.29361832,0.10916776,0.45125544,0.085858405,0
2044416000,2044264000,2.4476686,0.5270484,2.8263907,1.378913,2.8172364,2.8200192,2.8211973,0.019114451,0.008853983,0.019065186,0.019080214,0.01908655,-0.032931782,-0.033828445,-0.032983143,-0.032967575,-0.032960963,0.060100045,0.29361832,0.10916776,0.45125544,0.085858405,0
2044424000,2044272000,2.4476686,0.5270484,2.8264322,1.3789543,2.817278,2.8200607,2.8212388,0.019114451,0.008853983,0.019065186,0.019080214,0.01908655,-0.032931782,-0.033828445,-0.032983143,-0.032967575,-0.032960963,0.060100045,0.29361832,0.10916776,0.45125544,0.085858405,0
2044432000,2044280000,2.4476686,0.5270484,2.8265154,1.3790379,2.8173614,2.8201442,2.8213222,0.019114451,0.008853983,0.019065186,0.019080214,0.01908655,-0.032931782,-0.033828445,-0.032983143,-0.032967575,-0.032960963,0.060100045,0.29361832,0.10916776,0.45125544,0.085858405,0
2044440000,2044288000,2.4476686,0.5270484,2.8263938,1.3789163,2.8172398,2.8200223,2.8212006,0.019114451,0.008853983,0.019065186,0.019080214,0.01908655,-0.032931782,-0.033828445,-0.032983143,-0.032967575,-0.032960963,0.060100045,0.29361832,0.10916776,0.45125544,0.085858405,0
2044448000,2044296000,2.4476686,0.5270484,2.8263416,1.378864,2.8171875,2.8199704,2.8211484,0.019114451,0.008853983,0.019065186,0.019080214,0.01908655,-0.032931782,-0.033828445,-0.032983143,-0.032967575,-0.032960963,0.060100045,0.29361832,0.10916776,0.45125544,0.085858405,0
2044456000,2044304000,2.4489956,0.52618355,2.8265016,1.3791299,2.8173501,2.8201323,2.8213098,-0.011271377,-0.02742565,-0.011363365,-0.011335348,-0.011323494,-0.0033806055,-0.0016264844,-0.0034450353,-0.0034255288,-0.0034172554,0.060182385,0.29265952,0.109315254,0.4518677,0.08597511,0
2044464000,2044312000,2.4489956,0.52618355,2.826423,1.3790511,2.8172712,2.8200533,2.8212311,-0.011271377,-0.02742565,-0.011363365,-0.011335348,-0.011323494,-0.0033806055,-0.0016264844,-0.0034450353,-0.0034255288,-0.0034172554,0.060182385,0.29265952,0.109315254,0.4518677,0.08597511,0
2044472000,2044320000,2.4489956,0.52618355,2.8264682,1.3790965,2.8173165,2.8200986,2.8212764,-0.011271377,-0.02742565,-0.011363365,-0.011335348,-0.011323494,-0.0033806055,-0.0016264844,-0.0034450353,-0.0034255288,-0.0034172554,0.060182385,0.29265952,0.109315254,0.4518677,0.08597511,0
2044480000,2044328000,2.4489956,0.52618355,2.8265014,1.3791296,2.8173497,2.8201318,2.8213096,-0.011271377,-0.02742565,-0.011363365,-0.011335348,-0.011323494,-0.0033806055,-0.0016264844,-0.0034450353,-0.0034255288,-0.0034172554,0.060182385,0.29265952,0.109315254,0.4518677,0.08597511,0
2044488000,2044336000,2.4489956,0.52618355,2.8265555,1.3791838,2.8174038,2.820186,2.8213637,-0.011271377,-0.02742565,-0.011363365,-0.011335348,-0.011323494,-0.0033806055,-0.0016264844,-0.0034450353,-0.0034255288,-0.0034172554,0.060182385,0.29265952,0.109315254,0.4518677,0.08597511,0
2044496000,2044344000,2.4489956,0.52618355,2.8265328,1.379161,2.8173811,2.8201632,2.8213408,-0.011271377,-0.02742565,-0.011363365,-0.011335348,-0.011323494,-0.0033806055,-0.0016264844,-0.0034450353,-0.0034255288,-0.0034172554,0.060182385,0.29265952,0.109315254,0.4518677,0.08597511,0
2044504000,2044352000,2.4489956,0.52618355,2.826532,1.3791602,2.8173802,2.8201623,2.82134,-0.011271377,-0.02742565,-0.011363365,-0.011335348,-0.011323494,-0.0033806055,-0.0016264844,-0.0034450353,-0.0034255288,-0.0034172554,0.060182385,0.29265952,0.109315254,0.4518677,0.08597511,0
2044512000,2044360000,2.4489956,0.52618355,2.8267117,1.3793398,2.81756,2.8203418,2.8215196,-0.011271377,-0.02742565,-0.011363365,-0.011335348,-0.011323494,-0.0033806055,-0.0016264844,-0.0034450353,-0.0034255288,-0.0034172554,0.060182385,0.29265952,0.109315254,0.4518677,0.08597511,0
2044520000,2044368000,2.4489956,0.52618355,2.8267949,1.3794231,2.8176432,2.8204253,2.821603,-0.011271377,-0.02742565,-0.011363365,-0.011335348,-0.011323494,-0.0033806055,-0.0016264844,-0.0034450353,-0.0034255288,-0.0034172554,0.060182385,0.29265952,0.109315254,0.4518677,0.08597511,0
2044528000,2044376000,2.4489956,0.52618355,2.8267908,1.3794187,2.8176394,2.8204212,2.821599,-0.011271377,-0.02742565,-0.011363365,-0.011335348,-0.011323494,-0.0033806055,-0.0016264844,-0.0034450353,-0.0034255288,-0.0034172554,0.060182385,0.29265952,0.109315254,0.4518677,0.08597511,0
2044536000,2044384000,2.4489956,0.52618355,2.8268282,1.3794562,2.8176765,2.8204587,2.8216362,-0.011271377,-0.02742565,-0.011363365,-0.011335348,-0.011323494,-0.0033806055,-0.0016264844,-0.0034450353,-0.0034255288,-0.0034172554,0.060182385,0.29265952,0.109315254,0.4518677,0.08597511,0
2044544000,2044392000,2.4489956,0.52618355,2.8268497,1.3794776,2.817698,2.82048,2.821658,-0.011271377,-0.02742565,-0.011363365,-0.011335348,-0.011323494,-0.0033806055,-0.0016264844,-0.0034450353,-0.0034255288,-0.0034172554,0.060182385,0.29265952,0.109315254,0.4518677,0.08597511,0
2044552000,2044400000,2.4489956,0.52618355,2.8267362,1.3793644,2.8175845,2.8203666,2.8215444,-0.011271377,-0.02742565,-0.011363365,-0.011335348,-0.011323494,-0.0033806055,-0.0016264844,-0.0034450353,-0.0034255288,-0.0034172554,0.060182385,0.29265952,0.109315254,0.4518677,0.08597511,0
2044560000,2044408000,2.4489956,0.52618355,2.8266194,1.3792474,2.8174677,2.8202496,2.8214273,-0.011271377,-0.02742565,-0.011363365,-0.011335348,-0.011323494,-0.0033806055,-0.0016264844,-0.0034450353,-0.0034255288,-0.0034172554,0.060182385,0.29265952,0.109315254,0.4518677,0.08597511,0
2044568000,2044416000,2.4489956,0.52618355,2.8265479,1.379176,2.8173962,2.8201783,2.821356,-0.011271377,-0.02742565,-0.011363365,-0.011335348,-0.011323494,-0.0033806055,-0.0016264844,-0.0034450353,-0.0034255288,-0.0034172554,0.060182385,0.29265952,0.109315254,0.4518677,0.08597511,0
2044576000,2044424000,2.4489956,0.52618355,2.8265736,1.3792018,2.817422,2.8202038,2.8213816,-0.011271377,-0.02742565,-0.011363365,-0.011335348,-0.011323494,-0.0033806055,-0.0016264844,-0.0034450353,-0.0034255288,-0.0034172554,0.060182385,0.29265952,0.109315254,0.4518677,0.08597511,0
2044584000,2044432000,2.4489956,0.52618355,2.8265421,1.3791705,2.8173904,2.8201725,2.8213503,-0.011271377,-0.02742565,-0.011363365,-0.011335348,-0.011323494,-0.0033806055,-0.0016264844,-0.0034450353,-0.0034255288,-0.0034172554,0.060182385,0.29265952,0.109315254,0.4518677,0.08597511,0
2044592000,2044440000,2.4489956,0.52618355,2.8264813,1.3791097,2.81733,2.8201118,2.8212895,-0.011271377,-0.02742565,-0.011363365,-0.011335348,-0.011323494,-0.0033806055,-0.0016264844,-0.0034450353,-0.0034255288,-0.0034172554,0.060182385,0.29265952,0.109315254,0.4518677,0.08597511,0
2044600000,2044448000,2.4489956,0.52618355,2.8263674,1.3789959,2.8172157,2.8199975,2.8211753,-0.011271377,-0.02742565,-0.011363365,-0.011335348,-0.011323494,-0.0033806055,-0.0016264844,-0.0034450353,-0.0034255288,-0.0034172554,0.060182385,0.29265952,0.109315254,0.4518677,0.08597511,0
2044608000,2044456000,2.4489956,0.52618355,2.8262737,1.3789021,2.8171222,2.8199039,2.8210819,-0.011271377,-0.02742565,-0.011363365,-0.011335348,-0.011323494,-0.0033806055,-0.0016264844,-0.0034450353,-0.0034255288,-0.0034172554,0.060182385,0.29265952,0.109315254,0.4518677,0.08597511,0
2044616000,2044464000,2.4489956,0.52618355,2.8263004,1.3789289,2.8171487,2.8199306,2.8211083,-0.011271377,-0.02742565,-0.011363365,-0.011335348,-0.011323494,-0.0033806055,-0.0016264844,-0.0034450353,-0.0034255288,-0.0034172554,0.060182385,0.29265952,0.109315254,0.4518677,0.08597511,0
2044624000,2044472000,2.4489956,0.52618355,2.8262641,1.3788925,2.8171124,2.8198943,2.821072,-0.011271377,-0.02742565,-0.011363365,-0.011335348,-0.011323494,-0.0033806055,-0.0016264844,-0.0034450353,-0.0034255288,-0.0034172554,0.060182385,0.29265952,0.109315254,0.4518677,0.08597511,0
2044632000,2044480000,2.4489956,0.52618355,2.8262045,1.3788332,2.817053,2.8198347,2.8210127,-0.011271377,-0.02742565,-0.011363365,-0.011335348,-0.011323494,-0.0033806055,-0.0016264844,-0.0034450353,-0.0034255288,-0.0034172554,0.060182385,0.29265952,0.109315254,0.4518677,0.08597511,0
2044640000,2044488000,2.4489956,0.52618355,2.8260548,1.3786832,2.816903,2.819685,2.8208628,-0.011271377,-0.02742565,-0.011363365,-0.011335348,-0.011323494,-0.0033806055,-0.0016264844,-0.0034450353,-0.0034255288,-0.0034172554,0.060182385,0.29265952,0.109315254,0.4518677,0.08597511,0
2044648000,2044496000,2.4489956,0.52618355,2.8259556,1.3785843,2.8168042,2.819586,2.8207638,-0.011271377,-0.02742565,-0.011363365,-0.011335348,-0.011323494,-0.0033806055,-0.0016264844,-0.0034450353,-0.0034255288,-0.0034172554,0.060182385,0.29265952,0.109315254,0.4518677,0.08597511,0
2044656000,2044504000,2.4489956,0.52618355,2.8258536,1.3784822,2.8167021,2.8194838,2.8206618,-0.011271377,-0.02742565,-0.011363365,-0.011335348,-0.011323494,-0.0033806055,-0.0016264844,-0.0034450353,-0.0034255288,-0.0034172554,0.060182385,0.29265952,0.109315254,0.4518677,0.08597511,0
2044664000,2044512000,2.4489956,0.52618355,2.8258123,1.3784409,2.816661,2.8194427,2.8206205,-0.011271377,-0.02742565,-0.011363365,-0.011335348,-0.011323494,-0.0033806055,-0.0016264844,-0.0034450353,-0.0034255288,-0.0034172554,0.060182385,0.29265952,0.109315254,0.4518677,0.08597511,0
2044672000,2044520000,2.4489956,0.52618355,2.8257773,1.3784058,2.8166258,2.8194077,2.8205855,-0.011271377,-0.02742565,-0.011363365,-0.011335348,-0.011323494,-0.0033806055,-0.0016264844,-0.0034450353,-0.0034255288,-0.0034172554,0.060182385,0.29265952,0.109315254,0.4518677,0.08597511,0
2044680000,2044528000,2.4489956,0.52618355,2.8257647,1.3783933,2.8166132,2.819395,2.8205729,-0.011271377,-0.02742565,-0.011363365,-0.011335348,-0.011323494,-0.0033806055,-0.0016264844,-0.0034450353,-0.0034255288,-0.0034172554,0.060182385,0.29265952,0.109315254,0.4518677,0.08597511,0
2044688000,2044536000,2.4489956,0.52618355,2.8258588,1.3784872,2.8167071,2.819489,2.8206668,-0.011271377,-0.02742565,-0.011363365,-0.011335348,-0.011323494,-0.0033806055,-0.0016264844,-0.0034450353,-0.0034255288,-0.0034172554,0.060182385,0.29265952,0.109315254,0.4518677,0.08597511,0
2044696000,2044544000,2.4489956,0.52618355,2.8259008,1.3785294,2.816749,2.819531,2.8207088,-0.011271377,-0.02742565,-0.011363365,-0.011335348,-0.011323494,-0.0033806055,-0.0016264844,-0.0034450353,-0.0034255288,-0.0034172554,0.060182385,0.29265952,0.109315254,0.4518677,0.08597511,0
2044704000,2044552000,2.4489956,0.52618355,2.825923,1.3785515,2.8167715,2.8195534,2.8207312,-0.011271377,-0.02742565,-0.011363365,-0.011335348,-0.011323494,-0.0033806055,-0.0016264844,-0.0034450353,-0.0034255288,-0.0034172554,0.060182385,0.29265952,0.109315254,0.4518677,0.08597511,0
2044712000,2044560000,2.4489956,0.52618355,2.825907,1.3785355,2.8167553,2.8195372,2.820715,-0.011271377,-0.02742565,-0.011363365,-0.011335348,-0.011323494,-0.0033806055,-0.0016264844,-0.0034450353,-0.0034255288,-0.0034172554,0.060182385,0.29265952,0.109315254,0.4518677,0.08597511,0
2044720000,2044568000,2.4489956,0.52618355,2.8259401,1.3785686,2.8167887,2.8195705,2.8207483,-0.011271377,-0.02742565,-0.011363365,-0.011335348,-0.011323494,-0.0033806055,-0.0016264844,-0.0034450353,-0.0034255288,-0.0034172554,0.060182385,0.29265952,0.109315254,0.4518677,0.08597511,0
2044728000,2044576000,2.4489956,0.52618355,2.8259213,1.3785498,2.8167696,2.8195515,2.8207293,-0.011271377,-0.02742565,-0.011363365,-0.011335348,-0.011323494,-0.0033806055,-0.0016264844,-0.0034450353,-0.0034255288,-0.0034172554,0.060182385,0.29265952,0.109315254,0.4518677,0.08597511,0
2044736000,2044584000,2.4489956,0.52618355,2.825931,1.3785596,2.8167796,2.8195612,2.8207393,-0.011271377,-0.02742565,-0.011363365,-0.011335348,-0.011323494,-0.0033806055,-0.0016264844,-0.0034450353,-0.0034255288,-0.0034172554,0.060182385,0.29265952,0.109315254,0.4518677,0.08597511,0
2044744000,2044592000,2.4489956,0.52618355,2.8258758,1.3785044,2.8167243,2.8195062,2.820684,-0.011271377,-0.02742565,-0.011363365,-0.011335348,-0.011323494,-0.0033806055,-0.0016264844,-0.0034450353,-0.0034255288,-0.0034172554,0.060182385,0.29265952,0.109315254,0.4518677,0.08597511,0
2044752000,2044600000,2.4489956,0.52618355,2.825892,1.3785205,2.8167403,2.8195221,2.8207,-0.011271377,-0.02742565,-0.011363365,-0.011335348,-0.011323494,-0.0033806055,-0.0016264844,-0.0034450353,-0.0034255288,-0.0034172554,0.060182385,0.29265952,0.109315254,0.4518677,0.08597511,0
2044760000,2044608000,2.4489956,0.52618355,2.825877,1.3785053,2.8167253,2.8195071,2.820685,-0.011271377,-0.02742565,-0.011363365,-0.011335348,-0.011323494,-0.0033806055,-0.0016264844,-0.0034450353,-0.0034255288,-0.0034172554,0.060182385,0.29265952,0.109315254,0.4518677,0.08597511,0
2044768000,2044616000,2.4489956,0.52618355,2.8258471,1.3784757,2.8166955,2.8194773,2.820655,-0.011271377,-0.02742565,-0.011363365,-0.011335348,-0.011323494,-0.0033806055,-0.0016264844,-0.0034450353,-0.0034255288,-0.0034172554,0.060182385,0.29265952,0.109315254,0.4518677,0.08597511,0
2044776000,2044624000,2.4489956,0.52618355,2.8258443,1.3784727,2.8166924,2.8194745,2.8206522,-0.011271377,-0.02742565,-0.011363365,-0.011335348,-0.011323494,-0.0033806055,-0.0016264844,-0.0034450353,-0.0034255288,-0.0034172554,0.060182385,0.29265952,0.109315254,0.4518677,0.08597511,0
2044784000,2044632000,2.4489956,0.52618355,2.8258743,1.378503,2.8167226,2.8195045,2.8206823,-0.011271377,-0.02742565,-0.011363365,-0.011335348,-0.011323494,-0.0033806055,-0.0016264844,-0.0034450353,-0.0034255288,-0.0034172554,0.060182385,0.29265952,0.109315254,0.4518677,0.08597511,0
2044792000,2044640000,2.4489956,0.52618355,2.8259354,1.378564,2.8167837,2.8195655,2.8207433,-0.011271377,-0.02742565,-0.011363365,-0.011335348,-0.011323494,-0.0033806055,-0.0016264844,-0.0034450353,-0.0034255288,-0.0034172554,0.060182385,0.29265952,0.109315254,0.4518677,0.08597511,0
2044800000,2044648000,2.4489956,0.52618355,2.8260577,1.3786862,2.816906,2.8196878,2.8208656,-0.011271377,-0.02742565,-0.011363365,-0.011335348,-0.011323494,-0.0033806055,-0.0016264844,-0.0034450353,-0.0034255288,-0.0034172554,0.060182385,0.29265952,0.109315254,0.4518677,0.08597511,0
2044808000,2044656000,2.4489956,0.52618355,2.826092,1.3787203,2.8169403,2.8197222,2.8209,-0.011271377,-0.02742565,-0.011363365,-0.011335348,-0.011323494,-0.0033806055,-0.0016264844,-0.0034450353,-0.0034255288,-0.0034172554,0.060182385,0.29265952,0.109315254,0.4518677,0.08597511,0
2044816000,2044664000,2.4489956,0.52618355,2.8260972,1.3787259,2.8169456,2.8197274,2.8209052,-0.011271377,-0.02742565,-0.011363365,-0.011335348,-0.011323494,-0.0033806055,-0.0016264844,-0.0034450353,-0.0034255288,-0.0034172554,0.060182385,0.29265952,0.109315254,0.4518677,0.08597511,0
2044824000,2044672000,2.4489956,0.52618355,2.8261108,1.3787394,2.8169591,2.819741,2.8209188,-0.011271377,-0.02742565,-0.011363365,-0.011335348,-0.011323494,-0.0033806055,-0.0016264844,-0.0034450353,-0.0034255288,-0.0034172554,0.060182385,0.29265952,0.109315254,0.4518677,0.08597511,0
2044832000,2044680000,2.4489956,0.52618355,2.826199,1.3788277,2.8170474,2.8198292,2.821007,-0.011271377,-0.02742565,-0.011363365,-0.011335348,-0.011323494,-0.0033806055,-0.0016264844,-0.0034450353,-0.0034255288,-0.0034172554,0.060182385,0.29265952,0.109315254,0.4518677,0.08597511,0
2044840000,2044688000,2.4489956,0.52618355,2.8262815,1.3789101,2.8171299,2.8199117,2.8210895,-0.011271377,-0.02742565,-0.011363365,-0.011335348,-0.011323494,-0.0033806055,-0.0016264844,-0.0034450353,-0.0034255288,-0.0034172554,0.060182385,0.29265952,0.109315254,0.4518677,0.08597511,0
2044848000,2044696000,2.4489956,0.52618355,2.8261433,1.378772,2.8169916,2.8197734,2.8209512,-0.011271377,-0.02742565,-0.011363365,-0.011335348,-0.011323494,-0.0033806055,-0.0016264844,-0.0034450353,-0.0034255288,-0.0034172554,0.060182385,0.29265952,0.109315254,0.4518677,0.08597511,0
2044856000,2044704000,2.4501126,0.525419,2.826241,1.3789232,2.8170912,2.8198724,2.8210502,-0.015122495,-0.027946116,-0.015183498,-0.015164891,-0.015157035,-0.005823939,-0.007069665,-0.005888786,-0.0058691306,-0.0058607976,0.060258232,0.2917773,0.10945089,0.45243102,0.0860825,0
2044864000,2044712000,2.4501126,0.525419,2.82624,1.3789222,2.8170905,2.8198717,2.8210492,-0.015122495,-0.027946116,-0.015183498,-0.015164891,-0.015157035,-0.005823939,-0.007069665,-0.005888786,-0.0058691306,-0.0058607976,0.060258232,0.2917773,0.10945089,0.45243102,0.0860825,0
2044872000,2044720000,2.4501126,0.525419,2.8261976,1.3788801,2.817048,2.8198292,2.8210068,-0.015122495,-0.027946116,-0.015183498,-0.015164891,-0.015157035,-0.005823939,-0.007069665,-0.005888786,-0.0058691306,-0.0058607976,0.060258232,0.2917773,0.10945089,0.45243102,0.0860825,0
2044880000,2044728000,2.4501126,0.525419,2.8263009,1.3789831,2.8171515,2.8199327,2.8211102,-0.015122495,-0.027946116,-0.015183498,-0.015164891,-0.015157035,-0.005823939,-0.007069665,-0.005888786,-0.0058691306,-0.0058607976,0.060258232,0.2917773,0.10945089,0.45243102,0.0860825,0
2044888000,2044736000,2.4501126,0.525419,2.8264172,1.3790996,2.8172677,2.8200488,2.8212264,-0.015122495,-0.027946116,-0.015183498,-0.015164891,-0.015157035,-0.005823939,-0.007069665,-0.005888786,-0.0058691306,-0.0058607976,0.060258232,0.2917773,0.10945089,0.45243102,0.0860825,0
2044896000,2044744000,2.4501126,0.525419,2.8265195,1.379202,2.81737,2.820151,2.8213286,-0.015122495,-0.027946116,-0.015183498,-0.015164891,-0.015157035,-0.005823939,-0.007069665,-0.005888786,-0.0058691306,-0.0058607976,0.060258232,0.2917773,0.10945089,0.45243102,0.0860825,0
2044904000,2044752000,2.4501126,0.525419,2.826564,1.3792464,2.8174148,2.820196,2.8213735,-0.015122495,-0.027946116,-0.015183498,-0.015164891,-0.015157035,-0.005823939,-0.007069665,-0.005888786,-0.0058691306,-0.0058607976,0.060258232,0.2917773,0.10945089,0.45243102,0.0860825,0
2044912000,2044760000,2.4501126,0.525419,2.82669,1.3793724,2.8175404,2.8203216,2.821499,-0.015122495,-0.027946116,-0.015183498,-0.015164891,-0.015157035,-0.005823939,-0.007069665,-0.005888786,-0.0058691306,-0.0058607976,0.060258232,0.2917773,0.10945089,0.45243102,0.0860825,0
2044920000,2044768000,2.4501126,0.525419,2.8267965,1.3794787,2.817647,2.8204281,2.8216057,-0.015122495,-0.027946116,-0.015183498,-0.015164891,-0.015157035,-0.005823939,-0.007069665,-0.005888786,-0.0058691306,-0.0058607976,0.060258232,0.2917773,0.10945089,0.45243102,0.0860825,0
2044928000,2044776000,2.4501126,0.525419,2.8268144,1.3794967,2.8176649,2.820446,2.8216236,-0.015122495,-0.027946116,-0.015183498,-0.015164891,-0.015157035,-0.005823939,-0.007069665,-0.005888786,-0.0058691306,-0.0058607976,0.060258232,0.2917773,0.10945089,0.45243102,0.0860825,0
2044936000,2044784000,2.4501126,0.525419,2.826887,1.3795692,2.8177373,2.8205185,2.821696,-0.015122495,-0.027946116,-0.015183498,-0.015164891,-0.015157035,-0.005823939,-0.007069665,-0.005888786,-0.0058691306,-0.0058607976,0.060258232,0.2917773,0.10945089,0.45243102,0.0860825,0
2044944000,2044792000,2.4501126,0.525419,2.826947,1.3796294,2.8177974,2.8205786,2.8217561,-0.015122495,-0.027946116,-0.015183498,-0.015164891,-0.015157035,-0.005823939,-0.007069665,-0.005888786,-0.0058691306,-0.0058607976,0.060258232,0.2917773,0.10945089,0.45243102,0.0860825,0
2044952000,2044800000,2.4501126,0.525419,2.826899,1.3795815,2.8177495,2.820531,2.8217082,-0.015122495,-0.027946116,-0.015183498,-0.015164891,-0.015157035,-0.005823939,-0.007069665,-0.005888786,-0.0058691306,-0.0058607976,0.060258232,0.2917773,0.10945089,0.45243102,0.0860825,0
2044960000,2044808000,2.4501126,0.525419,2.8268867,1.379569,2.817737,2.8205183,2.8216958,-0.015122495,-0.027946116,-0.015183498,-0.015164891,-0.015157035,-0.005823939,-0.007069665,-0.005888786,-0.0058691306,-0.0058607976,0.060258232,0.2917773,0.10945089,0.45243102,0.0860825,0
2044968000,2044816000,2.4501126,0.525419,2.8268328,1.3795149,2.8176832,2.8204644,2.821642,-0.015122495,-0.027946116,-0.015183498,-0.015164891,-0.015157035,-0.005823939,-0.007069665,-0.005888786,-0.0058691306,-0.0058607976,0.060258232,0.2917773,0.10945089,0.45243102,0.0860825,0
2044976000,2044824000,2.4501126,0.525419,2.8267846,1.3794668,2.817635,2.8204162,2.8215938,-0.015122495,-0.027946116,-0.015183498,-0.015164891,-0.015157035,-0.005823939,-0.007069665,-0.005888786,-0.0058691306,-0.0058607976,0.060258232,0.2917773,0.10945089,0.45243102,0.0860825,0
2044984000,2044832000,2.4501126,0.525419,2.8267577,1.37944,2.817608,2.8203893,2.821567,-0.015122495,-0.027946116,-0.015183498,-0.015164891,-0.015157035,-0.005823939,-0.007069665,-0.005888786,-0.0058691306,-0.0058607976,0.060258232,0.2917773,0.10945089,0.45243102,0.0860825,0
2044992000,2044840000,2.4501126,0.525419,2.8266788,1.379361,2.8175292,2.8203104,2.821488,-0.015122495,-0.027946116,-0.015183498,-0.015164891,-0.015157035,-0.005823939,-0.007069665,-0.005888786,-0.0058691306,-0.0058607976,0.060258232,0.2917773,0.10945089,0.45243102,0.0860825,0
2045000000,2044848000,2.4501126,0.525419,2.8266222,1.3793045,2.8174727,2.8202538,2.8214314,-0.015122495,-0.027946116,-0.015183498,-0.015164891,-0.015157035,-0.005823939,-0.007069665,-0.005888786,-0.0058691306,-0.0058607976,0.060258232,0.2917773,0.10945089,0.45243102,0.0860825,0
2045008000,2044856000,2.4501126,0.525419,2.8266625,1.3793449,2.8175132,2.8202941,2.8214717,-0.015122495,-0.027946116,-0.015183498,-0.015164891,-0.015157035,-0.005823939,-0.007069665,-0.005888786,-0.0058691306,-0.0058607976,0.060258232,0.2917773,0.10945089,0.45243102,0.0860825,0
2045016000,2044864000,2.4501126,0.525419,2.8266819,1.3793643,2.8175323,2.8203135,2.821491,-0.015122495,-0.027946116,-0.015183498,-0.015164891,-0.015157035,-0.005823939,-0.007069665,-0.005888786,-0.0058691306,-0.0058607976,0.060258232,0.2917773,0.10945089,0.45243102,0.0860825,0
2045024000,2044872000,2.4501126,0.525419,2.8266542,1.3793366,2.8175046,2.8202858,2.8214633,-0.015122495,-0.027946116,-0.015183498,-0.015164891,-0.015157035,-0.005823939,-0.007069665,-0.005888786,-0.0058691306,-0.0058607976,0.060258232,0.2917773,0.10945089,0.45243102,0.0860825,0
2045032000,2044880000,2.4501126,0.525419,2.8266253,1.379308,2.8174758,2.820257,2.8214345,-0.015122495,-0.027946116,-0.015183498,-0.015164891,-0.015157035,-0.005823939,-0.007069665,-0.005888786,-0.0058691306,-0.0058607976,0.060258232,0.2917773,0.10945089,0.45243102,0.0860825,0
2045040000,2044888000,2.4501126,0.525419,2.8266382,1.3793209,2.8174887,2.8202698,2.8214474,-0.015122495,-0.027946116,-0.015183498,-0.015164891,-0.015157035,-0.005823939,-0.007069665,-0.005888786,-0.0058691306,-0.0058607976,0.060258232,0.2917773,0.10945089,0.45243102,0.0860825,0
