timestamp,timestamp_sample,q[0],q[1],q[2],q[3],delta_q_reset[0],delta_q_reset[1],delta_q_reset[2],delta_q_reset[3],quat_reset_counter
2043328000,2043328000,-0.07634583,0.0032362426,-0.00032422427,-0.99707615,0.99940926,-2.3283067e-10,-2.3283067e-10,0.0343701,2
2043332000,2043332000,-0.07636247,0.003250245,-0.00034034805,-0.99707484,0.99940926,-2.3283067e-10,-2.3283067e-10,0.0343701,2
2043336000,2043336000,-0.07636842,0.0032788222,-0.00034052893,-0.99707425,0.99940926,-2.3283067e-10,-2.3283067e-10,0.0343701,2
2043340000,2043340000,-0.076365285,0.0033119624,-0.00032293992,-0.99707437,0.99940926,-2.3283067e-10,-2.3283067e-10,0.0343701,2
2043344000,2043344000,-0.07635634,0.0033430604,-0.00031109012,-0.997075,0.99940926,-2.3283067e-10,-2.3283067e-10,0.0343701,2
2043348000,2043348000,-0.07633572,0.0033695386,-0.00031069055,-0.9970765,0.99940926,-2.3283067e-10,-2.3283067e-10,0.0343701,2
2043356000,2043356000,-0.07633925,0.0033951267,-0.0003178034,-0.99707615,0.99940926,-2.3283067e-10,-2.3283067e-10,0.0343701,2
2043364000,2043364000,-0.076340824,0.0033689016,-0.00033807184,-0.9970761,0.99940926,-2.3283067e-10,-2.3283067e-10,0.0343701,2
2043368000,2043368000,-0.076359704,0.0033582903,-0.00036089506,-0.99707466,0.99940926,-2.3283067e-10,-2.3283067e-10,0.0343701,2
2043372000,2043372000,-0.076393954,0.0033756238,-0.00038154286,-0.997072,0.99940926,-2.3283067e-10,-2.3283067e-10,0.0343701,2
2043376000,2043376000,-0.076417014,0.0034111293,-0.00039507405,-0.9970701,0.99940926,-2.3283067e-10,-2.3283067e-10,0.0343701,2
2043380000,2043380000,-0.07641292,0.0034420022,-0.00039232822,-0.99707025,0.99940926,-2.3283067e-10,-2.3283067e-10,0.0343701,2
2043384000,2043384000,-0.076417886,0.003460257,-0.00039392567,-0.99706984,0.99940926,-2.3283067e-10,-2.3283067e-10,0.0343701,2
2043388000,2043388000,-0.07643986,0.0034741084,-0.00040421696,-0.9970681,0.99940926,-2.3283067e-10,-2.3283067e-10,0.0343701,2
2043396000,2043396000,-0.07644185,0.0034699703,-0.0004219808,-0.997068,0.99940926,-2.3283067e-10,-2.3283067e-10,0.0343701,2
2043400000,2043400000,-0.07644263,0.0034590608,-0.00044862,-0.99706787,0.99940926,-2.3283067e-10,-2.3283067e-10,0.0343701,2
2043404000,2043404000,-0.07645293,0.0034260938,-0.0004633933,-0.9970672,0.99940926,-2.3283067e-10,-2.3283067e-10,0.0343701,2
2043412000,2043412000,-0.07650156,0.0034017114,-0.0004666564,-0.9970636,0.99940926,-2.3283067e-10,-2.3283067e-10,0.0343701,2
2043420000,2043420000,-0.07649708,0.003398452,-0.00047977836,-0.9970639,0.99940926,-2.3283067e-10,-2.3283067e-10,0.0343701,2
2043424000,2043424000,-0.07646332,0.0033869792,-0.00050654425,-0.99706656,0.99940926,-2.3283067e-10,-2.3283067e-10,0.0343701,2
2043432000,2043432000,-0.076423116,0.0033948382,-0.00054107007,-0.99706954,0.99940926,-2.3283067e-10,-2.3283067e-10,0.0343701,2
2043440000,2043440000,-0.07643643,0.0033894563,-0.0005392066,-0.99706864,0.99940926,-2.3283067e-10,-2.3283067e-10,0.0343701,2
2043444000,2043444000,-0.076450795,0.0033728073,-0.00054255326,-0.9970675,0.99940926,-2.3283067e-10,-2.3283067e-10,0.0343701,2
2043448000,2043448000,-0.07646461,0.00334917,-0.00053254527,-0.9970666,0.99940926,-2.3283067e-10,-2.3283067e-10,0.0343701,2
2043452000,2043452000,-0.07644541,0.0033200653,-0.00050303194,-0.9970681,0.99940926,-2.3283067e-10,-2.3283067e-10,0.0343701,2
2043456000,2043456000,-0.076420344,0.0032894856,-0.00046487834,-0.99707025,0.99940926,-2.3283067e-10,-2.3283067e-10,0.0343701,2
2043460000,2043460000,-0.076427676,0.0032773358,-0.00043714335,-0.9970697,0.99940926,-2.3283067e-10,-2.3283067e-10,0.0343701,2
2043464000,2043464000,-0.07644831,0.0032908905,-0.00042255258,-0.99706805,0.99940926,-2.3283067e-10,-2.3283067e-10,0.0343701,2
2043468000,2043468000,-0.0764615,0.003311172,-0.00041067137,-0.997067,0.99940926,-2.3283067e-10,-2.3283067e-10,0.0343701,2
2043472000,2043472000,-0.07646992,0.0033297362,-0.00040027703,-0.99706626,0.99940926,-2.3283067e-10,-2.3283067e-10,0.0343701,2
2043476000,2043476000,-0.076477185,0.0033506034,-0.00039497353,-0.99706566,0.99940926,-2.3283067e-10,-2.3283067e-10,0.0343701,2
2043480000,2043480000,-0.07647965,0.0033846216,-0.00038535302,-0.99706537,0.99940926,-2.3283067e-10,-2.3283067e-10,0.0343701,2
2043484000,2043484000,-0.07647044,0.0034022036,-0.00038095374,-0.997066,0.99940926,-2.3283067e-10,-2.3283067e-10,0.0343701,2
2043488000,2043488000,-0.07644594,0.0033806905,-0.0003987162,-0.997068,0.99940926,-2.3283067e-10,-2.3283067e-10,0.0343701,2
2043496000,2043496000,-0.076394185,0.0033561431,-0.00042290834,-0.9970719,0.99940926,-2.3283067e-10,-2.3283067e-10,0.0343701,2
2043500000,2043500000,-0.07637144,0.0033389165,-0.00040418073,-0.9970738,0.99940926,-2.3283067e-10,-2.3283067e-10,0.0343701,2
2043504000,2043504000,-0.07634023,0.003329207,-0.000398878,-0.9970763,0.99940926,-2.3283067e-10,-2.3283067e-10,0.0343701,2
2043508000,2043508000,-0.07632229,0.0033413905,-0.0004005792,-0.9970776,0.99940926,-2.3283067e-10,-2.3283067e-10,0.0343701,2
2043512000,2043512000,-0.07632499,0.0033560675,-0.0003837047,-0.9970773,0.99940926,-2.3283067e-10,-2.3283067e-10,0.0343701,2
2043516000,2043516000,-0.07632824,0.0033560302,-0.00037054007,-0.99707705,0.99940926,-2.3283067e-10,-2.3283067e-10,0.0343701,2
2043524000,2043524000,-0.07631944,0.0033709083,-0.0003860359,-0.9970777,0.99940926,-2.3283067e-10,-2.3283067e-10,0.0343701,2
2043528000,2043528000,-0.07628929,0.003392265,-0.00040029382,-0.99707985,0.99940926,-2.3283067e-10,-2.3283067e-10,0.0343701,2
2043532000,2043532000,-0.0762575,0.0033949781,-0.00039980598,-0.9970823,0.99940926,-2.3283067e-10,-2.3283067e-10,0.0343701,2
2043536000,2043536000,-0.07624321,0.0033713449,-0.00038762763,-0.99708354,0.99940926,-2.3283067e-10,-2.3283067e-10,0.0343701,2
2043544000,2043544000,-0.076202944,0.0033262274,-0.0003768882,-0.9970868,0.99940926,-2.3283067e-10,-2.3283067e-10,0.0343701,2
2043552000,2043552000,-0.076211974,0.003277013,-0.00034275866,-0.9970862,0.99940926,-2.3283067e-10,-2.3283067e-10,0.0343701,2
2043556000,2043556000,-0.07624815,0.0032688626,-0.0003514483,-0.9970835,0.99940926,-2.3283067e-10,-2.3283067e-10,0.0343701,2
2043560000,2043560000,-0.07628226,0.0032708521,-0.00038121932,-0.99708086,0.99940926,-2.3283067e-10,-2.3283067e-10,0.0343701,2
2043564000,2043564000,-0.07628873,0.0032793982,-0.0004089411,-0.9970803,0.99940926,-2.3283067e-10,-2.3283067e-10,0.0343701,2
2043568000,2043568000,-0.076287776,0.0032945608,-0.0004409331,-0.9970803,0.99940926,-2.3283067e-10,-2.3283067e-10,0.0343701,2
2043572000,2043572000,-0.0762906,0.0033069232,-0.00047432375,-0.99708,0.99940926,-2.3283067e-10,-2.3283067e-10,0.0343701,2
2043576000,2043576000,-0.07630713,0.0033101686,-0.0004733168,-0.9970788,0.99940926,-2.3283067e-10,-2.3283067e-10,0.0343701,2
2043580000,2043580000,-0.07632786,0.0032974698,-0.00045721402,-0.9970772,0.99940926,-2.3283067e-10,-2.3283067e-10,0.0343701,2
2043584000,2043584000,-0.07633539,0.0032813828,-0.00046440054,-0.9970767,0.99940926,-2.3283067e-10,-2.3283067e-10,0.0343701,2
2043588000,2043588000,-0.07633812,0.0032759476,-0.00047191067,-0.9970765,0.99940926,-2.3283067e-10,-2.3283067e-10,0.0343701,2
2043592000,2043592000,-0.076344565,0.0032732917,-0.0004780187,-0.99707603,0.99940926,-2.3283067e-10,-2.3283067e-10,0.0343701,2
2043596000,2043596000,-0.07634518,0.0032664197,-0.00049025903,-0.997076,0.99940926,-2.3283067e-10,-2.3283067e-10,0.0343701,2
2043600000,2043600000,-0.07633036,0.0032552057,-0.0004893974,-0.99707717,0.99940926,-2.3283067e-10,-2.3283067e-10,0.0343701,2
2043604000,2043604000,-0.07632768,0.0032593454,-0.0004763407,-0.99707735,0.99940926,-2.3283067e-10,-2.3283067e-10,0.0343701,2
2043608000,2043608000,-0.076356344,0.0032866239,-0.00046815682,-0.9970751,0.99940926,-2.3283067e-10,-2.3283067e-10,0.0343701,2
2043616000,2043616000,-0.07640679,0.0033535077,-0.00047203494,-0.99707097,0.99940926,-2.3283067e-10,-2.3283067e-10,0.0343701,2
2043624000,2043624000,-0.07637822,0.0033890577,-0.0005080151,-0.99707305,0.99940926,-2.3283067e-10,-2.3283067e-10,0.0343701,2
2043628000,2043628000,-0.07635433,0.0033827154,-0.00051299436,-0.9970749,0.99940926,-2.3283067e-10,-2.3283067e-10,0.0343701,2
2043632000,2043632000,-0.07634431,0.00336323,-0.00052920607,-0.99707574,0.99940926,-2.3283067e-10,-2.3283067e-10,0.0343701,2
2043636000,2043636000,-0.07634334,0.0033423174,-0.00055704906,-0.99707586,0.99940926,-2.3283067e-10,-2.3283067e-10,0.0343701,2
2043644000,2043644000,-0.07633515,0.003324492,-0.0005991014,-0.9970766,0.99940926,-2.3283067e-10,-2.3283067e-10,0.0343701,2
2043648000,2043648000,-0.07632792,0.003329132,-0.0006139639,-0.9970771,0.99940926,-2.3283067e-10,-2.3283067e-10,0.0343701,2
2043656000,2043656000,-0.07632236,0.0033519561,-0.0006132132,-0.9970774,0.99940926,-2.3283067e-10,-2.3283067e-10,0.0343701,2
2043660000,2043660000,-0.07633226,0.003357429,-0.0006040484,-0.99707663,0.99940926,-2.3283067e-10,-2.3283067e-10,0.0343701,2
2043664000,2043664000,-0.07633273,0.0033503282,-0.00063348346,-0.99707663,0.99940926,-2.3283067e-10,-2.3283067e-10,0.0343701,2
2043668000,2043668000,-0.07633061,0.0033478064,-0.00068679865,-0.99707675,0.99940926,-2.3283067e-10,-2.3283067e-10,0.0343701,2
2043672000,2043672000,-0.07633431,0.0033482693,-0.0007360489,-0.9970764,0.99940926,-2.3283067e-10,-2.3283067e-10,0.0343701,2
2043676000,2043676000,-0.076321036,0.0033322312,-0.00076326233,-0.99707747,0.99940926,-2.3283067e-10,-2.3283067e-10,0.0343701,2
2043680000,2043680000,-0.076297015,0.0033142099,-0.00075350114,-0.9970794,0.99940926,-2.3283067e-10,-2.3283067e-10,0.0343701,2
2043684000,2043684000,-0.07629202,0.0033086916,-0.00072007417,-0.99707985,0.99940926,-2.3283067e-10,-2.3283067e-10,0.0343701,2
2043688000,2043688000,-0.07630298,0.0033067015,-0.0006964787,-0.997079,0.99940926,-2.3283067e-10,-2.3283067e-10,0.0343701,2
2043692000,2043692000,-0.07630178,0.0033172106,-0.00069793314,-0.9970791,0.99940926,-2.3283067e-10,-2.3283067e-10,0.0343701,2
2043696000,2043696000,-0.07628525,0.0033210977,-0.0007160269,-0.9970803,0.99940926,-2.3283067e-10,-2.3283067e-10,0.0343701,2
2043704000,2043704000,-0.076262236,0.0033038296,-0.00074441405,-0.9970821,0.99940926,-2.3283067e-10,-2.3283067e-10,0.0343701,2
2043708000,2043708000,-0.07624507,0.0033160655,-0.00075089285,-0.99708337,0.99940926,-2.3283067e-10,-2.3283067e-10,0.0343701,2
2043712000,2043712000,-0.07624751,0.003312418,-0.00074166764,-0.9970832,0.99940926,-2.3283067e-10,-2.3283067e-10,0.0343701,2
2043716000,2043716000,-0.076244615,0.003303532,-0.0007240586,-0.9970835,0.99940926,-2.3283067e-10,-2.3283067e-10,0.0343701,2
2043720000,2043720000,-0.07623214,0.0033100399,-0.0007076589,-0.9970843,0.99940926,-2.3283067e-10,-2.3283067e-10,0.0343701,2
2043724000,2043724000,-0.076237194,0.0033037697,-0.00068382383,-0.997084,0.99940926,-2.3283067e-10,-2.3283067e-10,0.0343701,2
2043728000,2043728000,-0.07624065,0.0032774387,-0.0006568577,-0.99708384,0.99940926,-2.3283067e-10,-2.3283067e-10,0.0343701,2
2043732000,2043732000,-0.07623248,0.003264551,-0.0006566094,-0.9970845,0.99940926,-2.3283067e-10,-2.3283067e-10,0.0343701,2
2043736000,2043736000,-0.076228596,0.003268833,-0.0006763562,-0.9970848,0.99940926,-2.3283067e-10,-2.3283067e-10,0.0343701,2
2043740000,2043740000,-0.07621669,0.0032635399,-0.0006745739,-0.9970858,0.99940926,-2.3283067e-10,-2.3283067e-10,0.0343701,2
2043744000,2043744000,-0.076195724,0.0032351934,-0.0006598415,-0.9970874,0.99940926,-2.3283067e-10,-2.3283067e-10,0.0343701,2
2043748000,2043748000,-0.076187566,0.0032084594,-0.00066603237,-0.99708813,0.99940926,-2.3283067e-10,-2.3283067e-10,0.0343701,2
2043752000,2043752000,-0.07619269,0.0032035934,-0.00067972677,-0.99708784,0.99940926,-2.3283067e-10,-2.3283067e-10,0.0343701,2
2043756000,2043756000,-0.07619724,0.003200519,-0.00068395253,-0.9970875,0.99940926,-2.3283067e-10,-2.3283067e-10,0.0343701,2
2043760000,2043760000,-0.07618481,0.0031883263,-0.00069554965,-0.9970884,0.99940926,-2.3283067e-10,-2.3283067e-10,0.0343701,2
2043764000,2043764000,-0.07616601,0.0031809097,-0.0007075399,-0.9970899,0.99940926,-2.3283067e-10,-2.3283067e-10,0.0343701,2
2043768000,2043768000,-0.07616519,0.0031794985,-0.00069696055,-0.99709,0.99940926,-2.3283067e-10,-2.3283067e-10,0.0343701,2
2043772000,2043772000,-0.07617015,0.0031792677,-0.0006709681,-0.9970896,0.99940926,-2.3283067e-10,-2.3283067e-10,0.0343701,2
2043776000,2043776000,-0.07617192,0.0031684532,-0.0006436432,-0.99708945,0.99940926,-2.3283067e-10,-2.3283067e-10,0.0343701,2
2043784000,2043784000,-0.076181315,0.0031240133,-0.00062939466,-0.9970889,0.99940926,-2.3283067e-10,-2.3283067e-10,0.0343701,2
2043788000,2043788000,-0.0761727,0.0031055822,-0.00061806734,-0.9970896,0.99940926,-2.3283067e-10,-2.3283067e-10,0.0343701,2
2043792000,2043792000,-0.07617579,0.0030981083,-0.00061021117,-0.9970895,0.99940926,-2.3283067e-10,-2.3283067e-10,0.0343701,2
2043796000,2043796000,-0.0761731,0.0030901989,-0.0006359986,-0.9970896,0.99940926,-2.3283067e-10,-2.3283067e-10,0.0343701,2
2043800000,2043800000,-0.076167755,0.003082572,-0.0006580767,-0.99709004,0.99940926,-2.3283067e-10,-2.3283067e-10,0.0343701,2
2043804000,2043804000,-0.076159626,0.0030857509,-0.0006436012,-0.99709076,0.99940926,-2.3283067e-10,-2.3283067e-10,0.0343701,2
2043808000,2043808000,-0.076145604,0.0030913702,-0.0006181125,-0.9970917,0.99940926,-2.3283067e-10,-2.3283067e-10,0.0343701,2
2043816000,2043816000,-0.07613997,0.003131574,-0.00061469164,-0.99709207,0.99940926,-2.3283067e-10,-2.3283067e-10,0.0343701,2
2043820000,2043820000,-0.07612812,0.0031606283,-0.00061130896,-0.99709284,0.99940926,-2.3283067e-10,-2.3283067e-10,0.0343701,2
2043824000,2043824000,-0.07610614,0.0031808463,-0.000597669,-0.99709445,0.99940926,-2.3283067e-10,-2.3283067e-10,0.0343701,2
2043828000,2043828000,-0.07608738,0.0031925454,-0.0005908655,-0.99709594,0.99940926,-2.3283067e-10,-2.3283067e-10,0.0343701,2
2043836000,2043836000,-0.07608019,0.003220401,-0.00060315937,-0.9970964,0.99940926,-2.3283067e-10,-2.3283067e-10,0.0343701,2
2043840000,2043840000,-0.07608003,0.0032241615,-0.0006026525,-0.9970964,0.99940926,-2.3283067e-10,-2.3283067e-10,0.0343701,2
2043844000,2043844000,-0.07609394,0.0032351927,-0.0005908892,-0.9970953,0.99940926,-2.3283067e-10,-2.3283067e-10,0.0343701,2
2043848000,2043848000,-0.07611261,0.0032410335,-0.00057016715,-0.99709386,0.99940926,-2.3283067e-10,-2.3283067e-10,0.0343701,2
2043852000,2043852000,-0.07613339,0.0032400652,-0.00054786785,-0.99709225,0.99940926,-2.3283067e-10,-2.3283067e-10,0.0343701,2
2043856000,2043856000,-0.07615311,0.0032512303,-0.0005275669,-0.9970907,0.99940926,-2.3283067e-10,-2.3283067e-10,0.0343701,2
2043860000,2043860000,-0.076164864,0.0032667783,-0.00051298615,-0.99708974,0.99940926,-2.3283067e-10,-2.3283067e-10,0.0343701,2
2043864000,2043864000,-0.076183565,0.0032695474,-0.00050488487,-0.99708843,0.99940926,-2.3283067e-10,-2.3283067e-10,0.0343701,2
2043868000,2043868000,-0.07620491,0.0032710247,-0.00049989816,-0.9970867,0.99940926,-2.3283067e-10,-2.3283067e-10,0.0343701,2
2043872000,2043872000,-0.07621568,0.0032707448,-0.0005038936,-0.99708587,0.99940926,-2.3283067e-10,-2.3283067e-10,0.0343701,2
2043876000,2043876000,-0.076238826,0.0032634316,-0.0005163315,-0.9970842,0.99940926,-2.3283067e-10,-2.3283067e-10,0.0343701,2
2043880000,2043880000,-0.07626675,0.0032691532,-0.0005329554,-0.99708194,0.99940926,-2.3283067e-10,-2.3283067e-10,0.0343701,2
2043884000,2043884000,-0.076272376,0.0032887287,-0.0005571396,-0.99708146,0.99940926,-2.3283067e-10,-2.3283067e-10,0.0343701,2
2043888000,2043888000,-0.07628119,0.003293189,-0.0005764174,-0.9970808,0.99940926,-2.3283067e-10,-2.3283067e-10,0.0343701,2
2043892000,2043892000,-0.07631228,0.0032830467,-0.0005843699,-0.9970785,0.99940926,-2.3283067e-10,-2.3283067e-10,0.0343701,2
2043900000,2043900000,-0.07629806,0.0033089865,-0.0006382722,-0.9970794,0.99940926,-2.3283067e-10,-2.3283067e-10,0.0343701,2
2043904000,2043904000,-0.07628455,0.0033256344,-0.0006591235,-0.9970803,0.99940926,-2.3283067e-10,-2.3283067e-10,0.0343701,2
2043912000,2043912000,-0.076297835,0.003335892,-0.00067438546,-0.9970793,0.99940926,-2.3283067e-10,-2.3283067e-10,0.0343701,2
2043920000,2043920000,-0.07623474,0.003370569,-0.0006421629,-0.997084,0.99940926,-2.3283067e-10,-2.3283067e-10,0.0343701,2
2043924000,2043924000,-0.07621195,0.0033986098,-0.0006260538,-0.99708575,0.99940926,-2.3283067e-10,-2.3283067e-10,0.0343701,2
2043928000,2043928000,-0.07619661,0.003411869,-0.00061466516,-0.9970869,0.99940926,-2.3283067e-10,-2.3283067e-10,0.0343701,2
2043932000,2043932000,-0.07620038,0.0034111394,-0.00059788267,-0.9970866,0.99940926,-2.3283067e-10,-2.3283067e-10,0.0343701,2
2043940000,2043940000,-0.07623868,0.003439733,-0.00055583986,-0.99708354,0.99940926,-2.3283067e-10,-2.3283067e-10,0.0343701,2
2043944000,2043944000,-0.07622711,0.0034541753,-0.0005643248,-0.9970844,0.99940926,-2.3283067e-10,-2.3283067e-10,0.0343701,2
2043948000,2043948000,-0.076248504,0.0034637107,-0.00058141537,-0.9970827,0.99940926,-2.3283067e-10,-2.3283067e-10,0.0343701,2
2043952000,2043952000,-0.07628101,0.0034531062,-0.0005825036,-0.99708027,0.99940926,-2.3283067e-10,-2.3283067e-10,0.0343701,2
2043956000,2043956000,-0.07629649,0.0034320022,-0.00057431636,-0.99707913,0.99940926,-2.3283067e-10,-2.3283067e-10,0.0343701,2
2043960000,2043960000,-0.0763221,0.003422715,-0.0005792846,-0.9970772,0.99940926,-2.3283067e-10,-2.3283067e-10,0.0343701,2
2043964000,2043964000,-0.07635411,0.0034148782,-0.0005934379,-0.9970748,0.99940926,-2.3283067e-10,-2.3283067e-10,0.0343701,2
2043968000,2043968000,-0.076382875,0.0033975972,-0.00059138745,-0.99707264,0.99940926,-2.3283067e-10,-2.3283067e-10,0.0343701,2
2043976000,2043976000,-0.07638499,0.0033615432,-0.00053717836,-0.9970726,0.99940926,-2.3283067e-10,-2.3283067e-10,0.0343701,2
2043980000,2043980000,-0.076371156,0.0033466234,-0.00050450134,-0.9970737,0.99940926,-2.3283067e-10,-2.3283067e-10,0.0343701,2
2043984000,2043984000,-0.076372206,0.0033224383,-0.0004742694,-0.9970737,0.99940926,-2.3283067e-10,-2.3283067e-10,0.0343701,2
2043988000,2043988000,-0.07636395,0.00330944,-0.00045132497,-0.9970744,0.99940926,-2.3283067e-10,-2.3283067e-10,0.0343701,2
2043992000,2043992000,-0.076336645,0.0033269578,-0.00045535446,-0.99707645,0.99940926,-2.3283067e-10,-2.3283067e-10,0.0343701,2
2043996000,2043996000,-0.076322086,0.0033391013,-0.00046001145,-0.9970775,0.99940926,-2.3283067e-10,-2.3283067e-10,0.0343701,2
2044000000,2044000000,-0.07633724,0.0033225345,-0.00044901547,-0.99707645,0.99940926,-2.3283067e-10,-2.3283067e-10,0.0343701,2
2044004000,2044004000,-0.07635188,0.0033093337,-0.00045004493,-0.9970754,0.99940926,-2.3283067e-10,-2.3283067e-10,0.0343701,2
2044012000,2044012000,-0.076363176,0.003293689,-0.0004791768,-0.99707454,0.99940926,-2.3283067e-10,-2.3283067e-10,0.0343701,2
2044016000,2044016000,-0.076385245,0.0032966423,-0.0004857055,-0.9970729,0.99940926,-2.3283067e-10,-2.3283067e-10,0.0343701,2
2044020000,2044020000,-0.076393,0.0032908197,-0.00050230656,-0.9970723,0.99940926,-2.3283067e-10,-2.3283067e-10,0.0343701,2
2044028000,2044028000,-0.07642402,0.0032449693,-0.00056383247,-0.99707,0.99940926,-2.3283067e-10,-2.3283067e-10,0.0343701,2
2044032000,2044032000,-0.07643435,0.0032542292,-0.0005650335,-0.9970692,0.99940926,-2.3283067e-10,-2.3283067e-10,0.0343701,2
2044036000,2044036000,-0.07643084,0.0032628775,-0.0005603712,-0.9970694,0.99940926,-2.3283067e-10,-2.3283067e-10,0.0343701,2
2044040000,2044040000,-0.07644437,0.0032742352,-0.00056921504,-0.99706835,0.99940926,-2.3283067e-10,-2.3283067e-10,0.0343701,2
2044044000,2044044000,-0.07647061,0.0033061588,-0.00058174366,-0.9970662,0.99940926,-2.3283067e-10,-2.3283067e-10,0.0343701,2
2044052000,2044052000,-0.07647426,0.0033638198,-0.0006107776,-0.9970657,0.99940926,-2.3283067e-10,-2.3283067e-10,0.0343701,2
2044056000,2044056000,-0.07647654,0.0033688946,-0.0005973016,-0.99706554,0.99940926,-2.3283067e-10,-2.3283067e-10,0.0343701,2
2044060000,2044060000,-0.076467596,0.0033783533,-0.00054988277,-0.9970662,0.99940926,-2.3283067e-10,-2.3283067e-10,0.0343701,2
2044068000,2044068000,-0.07642206,0.003377817,-0.00044404474,-0.9970698,0.99940926,-2.3283067e-10,-2.3283067e-10,0.0343701,2
2044072000,2044072000,-0.07642487,0.003391667,-0.00042310942,-0.9970695,0.99940926,-2.3283067e-10,-2.3283067e-10,0.0343701,2
2044080000,2044080000,-0.07645188,0.0034887386,-0.00043780883,-0.99706715,0.99940926,-2.3283067e-10,-2.3283067e-10,0.0343701,2
2044084000,2044084000,-0.07645696,0.0034977389,-0.00045926194,-0.99706674,0.99940926,-2.3283067e-10,-2.3283067e-10,0.0343701,2
2044088000,2044088000,-0.07644131,0.003480134,-0.00047233797,-0.997068,0.99940926,-2.3283067e-10,-2.3283067e-10,0.0343701,2
2044092000,2044092000,-0.076437846,0.0034558019,-0.0004827287,-0.9970682,0.99940926,-2.3283067e-10,-2.3283067e-10,0.0343701,2
2044096000,2044096000,-0.0764408,0.00342882,-0.00049983844,-0.99706817,0.99940926,-2.3283067e-10,-2.3283067e-10,0.0343701,2
2044100000,2044100000,-0.07642037,0.0034009346,-0.0005148331,-0.99706984,0.99940926,-2.3283067e-10,-2.3283067e-10,0.0343701,2
2044104000,2044104000,-0.07639822,0.0033969388,-0.00050388626,-0.9970715,0.99940926,-2.3283067e-10,-2.3283067e-10,0.0343701,2
2044112000,2044112000,-0.076361954,0.0033855827,-0.00050523126,-0.99707425,0.99940926,-2.3283067e-10,-2.3283067e-10,0.0343701,2
2044116000,2044116000,-0.076367475,0.0033731656,-0.0005138625,-0.9970739,0.99940926,-2.3283067e-10,-2.3283067e-10,0.0343701,2
2044120000,2044120000,-0.0763809,0.0033736974,-0.0005068984,-0.9970729,0.99940926,-2.3283067e-10,-2.3283067e-10,0.0343701,2
2044124000,2044124000,-0.07637253,0.0033897886,-0.0004990727,-0.9970735,0.99940926,-2.3283067e-10,-2.3283067e-10,0.0343701,2
2044128000,2044128000,-0.076362625,0.0034033523,-0.0005102897,-0.9970742,0.99940926,-2.3283067e-10,-2.3283067e-10,0.0343701,2
2044132000,2044132000,-0.07637054,0.0034005905,-0.0005394103,-0.9970736,0.99940926,-2.3283067e-10,-2.3283067e-10,0.0343701,2
2044136000,2044136000,-0.07637795,0.0034171958,-0.00058069994,-0.997073,0.99940926,-2.3283067e-10,-2.3283067e-10,0.0343701,2
2044140000,2044140000,-0.07637783,0.003452711,-0.0006053093,-0.99707276,0.99940926,-2.3283067e-10,-2.3283067e-10,0.0343701,2
2044144000,2044144000,-0.07638939,0.0034809597,-0.00062023976,-0.99707186,0.99940926,-2.3283067e-10,-2.3283067e-10,0.0343701,2
2044148000,2044148000,-0.076409504,0.0034900666,-0.0006550492,-0.99707025,0.99940926,-2.3283067e-10,-2.3283067e-10,0.0343701,2
2044152000,2044152000,-0.076420605,0.0034652604,-0.00068622344,-0.9970695,0.99940926,-2.3283067e-10,-2.3283067e-10,0.0343701,2
2044160000,2044160000,-0.07642026,0.0034541532,-0.00069926673,-0.9970695,0.99940926,-2.3283067e-10,-2.3283067e-10,0.0343701,2
2044164000,2044164000,-0.07640511,0.0034803103,-0.00068584265,-0.99707055,0.99940926,-2.3283067e-10,-2.3283067e-10,0.0343701,2
2044168000,2044168000,-0.07639685,0.0034777105,-0.00066431443,-0.9970712,0.99940926,-2.3283067e-10,-2.3283067e-10,0.0343701,2
2044172000,2044172000,-0.07640026,0.003457637,-0.0006339344,-0.997071,0.99940926,-2.3283067e-10,-2.3283067e-10,0.0343701,2
2044176000,2044176000,-0.076413155,0.0034679186,-0.0005908894,-0.99707013,0.99940926,-2.3283067e-10,-2.3283067e-10,0.0343701,2
2044184000,2044184000,-0.07643743,0.0034940562,-0.0005437073,-0.9970681,0.99940926,-2.3283067e-10,-2.3283067e-10,0.0343701,2
2044188000,2044188000,-0.07641808,0.0034719065,-0.00054744957,-0.99706966,0.99940926,-2.3283067e-10,-2.3283067e-10,0.0343701,2
2044192000,2044192000,-0.07639926,0.0034492265,-0.00055114937,-0.99707127,0.99940926,-2.3283067e-10,-2.3283067e-10,0.0343701,2
2044196000,2044196000,-0.07640642,0.003441392,-0.0005494914,-0.9970707,0.99940926,-2.3283067e-10,-2.3283067e-10,0.0343701,2
2044204000,2044204000,-0.07648034,0.0034198333,-0.00052573206,-0.9970651,0.99940926,-2.3283067e-10,-2.3283067e-10,0.0343701,2
2044208000,2044208000,-0.07649778,0.0034085384,-0.0005274939,-0.99706376,0.99940926,-2.3283067e-10,-2.3283067e-10,0.0343701,2
2044216000,2044216000,-0.07650662,0.003424958,-0.0005378505,-0.99706304,0.99940926,-2.3283067e-10,-2.3283067e-10,0.0343701,2
2044224000,2044224000,-0.07648022,0.00345917,-0.0004979511,-0.997065,0.99940926,-2.3283067e-10,-2.3283067e-10,0.0343701,2
2044228000,2044228000,-0.07645143,0.0034581593,-0.0004986049,-0.9970672,0.99940926,-2.3283067e-10,-2.3283067e-10,0.0343701,2
2044232000,2044232000,-0.07642855,0.003463611,-0.0005194987,-0.997069,0.99940926,-2.3283067e-10,-2.3283067e-10,0.0343701,2
2044240000,2044240000,-0.07641246,0.0034702842,-0.0005406303,-0.9970702,0.99940926,-2.3283067e-10,-2.3283067e-10,0.0343701,2
2044244000,2044244000,-0.076404825,0.0034681,-0.00051555014,-0.9970708,0.99940926,-2.3283067e-10,-2.3283067e-10,0.0343701,2
2044248000,2044248000,-0.07640086,0.0034548424,-0.00047465105,-0.99707115,0.99940926,-2.3283067e-10,-2.3283067e-10,0.0343701,2
2044256000,2044256000,-0.076435626,0.0034482267,-0.00045466344,-0.9970685,0.99940926,-2.3283067e-10,-2.3283067e-10,0.0343701,2
2044260000,2044260000,-0.07644298,0.003445577,-0.00046428814,-0.997068,0.99940926,-2.3283067e-10,-2.3283067e-10,0.0343701,2
2044264000,2044264000,-0.07645086,0.0034403133,-0.00047317636,-0.9970674,0.99940926,-2.3283067e-10,-2.3283067e-10,0.0343701,2
2044268000,2044268000,-0.07645652,0.0034455243,-0.00048505946,-0.99706686,0.99940926,-2.3283067e-10,-2.3283067e-10,0.0343701,2
2044276000,2044276000,-0.076393194,0.0034435417,-0.0004756035,-0.99707174,0.99940926,-2.3283067e-10,-2.3283067e-10,0.0343701,2
2044280000,2044280000,-0.07638849,0.0034378923,-0.00046217142,-0.9970721,0.99940926,-2.3283067e-10,-2.3283067e-10,0.0343701,2
2044284000,2044284000,-0.076416805,0.0034256713,-0.00047219405,-0.99707,0.99940926,-2.3283067e-10,-2.3283067e-10,0.0343701,2
2044292000,2044292000,-0.07646278,0.0033738336,-0.00048059516,-0.9970667,0.99940926,-2.3283067e-10,-2.3283067e-10,0.0343701,2
2044296000,2044296000,-0.0764746,0.0033516174,-0.00048193044,-0.99706584,0.99940926,-2.3283067e-10,-2.3283067e-10,0.0343701,2
2044300000,2044300000,-0.076484784,0.003333956,-0.0004729713,-0.9970651,0.99940926,-2.3283067e-10,-2.3283067e-10,0.0343701,2
2044304000,2044304000,-0.07649074,0.0033075104,-0.000467092,-0.99706477,0.99940926,-2.3283067e-10,-2.3283067e-10,0.0343701,2
2044308000,2044308000,-0.07650786,0.0032994782,-0.00047223797,-0.99706346,0.99940926,-2.3283067e-10,-2.3283067e-10,0.0343701,2
2044312000,2044312000,-0.07652971,0.003327723,-0.00047107026,-0.99706167,0.99940926,-2.3283067e-10,-2.3283067e-10,0.0343701,2
2044316000,2044316000,-0.07653024,0.0033545876,-0.00044639793,-0.99706155,0.99940926,-2.3283067e-10,-2.3283067e-10,0.0343701,2
2044320000,2044320000,-0.07650687,0.0033694308,-0.00041821314,-0.9970633,0.99940926,-2.3283067e-10,-2.3283067e-10,0.0343701,2
2044324000,2044324000,-0.07649529,0.0033827967,-0.00042356327,-0.9970641,0.99940926,-2.3283067e-10,-2.3283067e-10,0.0343701,2
2044328000,2044328000,-0.07649007,0.003392161,-0.0004253794,-0.9970645,0.99940926,-2.3283067e-10,-2.3283067e-10,0.0343701,2
2044332000,2044332000,-0.07647367,0.003399418,-0.0004201615,-0.9970657,0.99940926,-2.3283067e-10,-2.3283067e-10,0.0343701,2
2044336000,2044336000,-0.07646269,0.003411056,-0.00044838132,-0.9970666,0.99940926,-2.3283067e-10,-2.3283067e-10,0.0343701,2
2044340000,2044340000,-0.07645717,0.0034213895,-0.00048665758,-0.997067,0.99940926,-2.3283067e-10,-2.3283067e-10,0.0343701,2
2044348000,2044348000,-0.076497465,0.003406101,-0.000503149,-0.9970638,0.99940926,-2.3283067e-10,-2.3283067e-10,0.0343701,2
2044352000,2044352000,-0.07647432,0.0034056152,-0.0005086379,-0.9970657,0.99940926,-2.3283067e-10,-2.3283067e-10,0.0343701,2
2044360000,2044360000,-0.07638462,0.0033743626,-0.0005597125,-0.99707264,0.99940926,-2.3283067e-10,-2.3283067e-10,0.0343701,2
2044364000,2044364000,-0.07636035,0.0033580237,-0.0005496341,-0.99707454,0.99940926,-2.3283067e-10,-2.3283067e-10,0.0343701,2
2044368000,2044368000,-0.07634296,0.0033523892,-0.00053233904,-0.99707586,0.99940926,-2.3283067e-10,-2.3283067e-10,0.0343701,2
2044372000,2044372000,-0.076337285,0.0033470325,-0.000525743,-0.9970764,0.99940926,-2.3283067e-10,-2.3283067e-10,0.0343701,2
2044376000,2044376000,-0.0763449,0.00333241,-0.00052159757,-0.99707586,0.99940926,-2.3283067e-10,-2.3283067e-10,0.0343701,2
2044380000,2044380000,-0.07634083,0.0033034233,-0.0005169586,-0.9970763,0.99940926,-2.3283067e-10,-2.3283067e-10,0.0343701,2
2044384000,2044384000,-0.07632615,0.003269897,-0.000515747,-0.9970774,0.99940926,-2.3283067e-10,-2.3283067e-10,0.0343701,2
2044388000,2044388000,-0.07631781,0.003249548,-0.0005102128,-0.9970781,0.99940926,-2.3283067e-10,-2.3283067e-10,0.0343701,2
2044392000,2044392000,-0.07631527,0.0032515023,-0.00049247756,-0.9970784,0.99940926,-2.3283067e-10,-2.3283067e-10,0.0343701,2
2044396000,2044396000,-0.07633179,0.0032701897,-0.00046584127,-0.997077,0.99940926,-2.3283067e-10,-2.3283067e-10,0.0343701,2
2044400000,2044400000,-0.07637169,0.003278595,-0.0004410112,-0.99707395,0.99940926,-2.3283067e-10,-2.3283067e-10,0.0343701,2
2044404000,2044404000,-0.07640636,0.0032861324,-0.00042043425,-0.99707127,0.99940926,-2.3283067e-10,-2.3283067e-10,0.0343701,2
2044408000,2044408000,-0.07642991,0.003310051,-0.0004161072,-0.9970694,0.99940926,-2.3283067e-10,-2.3283067e-10,0.0343701,2
2044412000,2044412000,-0.07645194,0.003319451,-0.0004342058,-0.9970677,0.99940926,-2.3283067e-10,-2.3283067e-10,0.0343701,2
2044416000,2044416000,-0.07646546,0.0033109519,-0.00044187927,-0.9970667,0.99940926,-2.3283067e-10,-2.3283067e-10,0.0343701,2
2044420000,2044420000,-0.07646457,0.0033143081,-0.00043451224,-0.99706674,0.99940926,-2.3283067e-10,-2.3283067e-10,0.0343701,2
2044424000,2044424000,-0.07645251,0.003336532,-0.00042489028,-0.9970676,0.99940926,-2.3283067e-10,-2.3283067e-10,0.0343701,2
2044432000,2044432000,-0.07646812,0.0033394769,-0.00036926282,-0.9970664,0.99940926,-2.3283067e-10,-2.3283067e-10,0.0343701,2
2044436000,2044436000,-0.07648639,0.0033282936,-0.0003709179,-0.99706507,0.99940926,-2.3283067e-10,-2.3283067e-10,0.0343701,2
2044440000,2044440000,-0.0764983,0.0033222162,-0.00038260163,-0.9970642,0.99940926,-2.3283067e-10,-2.3283067e-10,0.0343701,2
2044444000,2044444000,-0.076521374,0.003307663,-0.00039362197,-0.99706244,0.99940926,-2.3283067e-10,-2.3283067e-10,0.0343701,2
2044452000,2044452000,-0.07658663,0.0032738403,-0.00040778157,-0.99705756,0.99940926,-2.3283067e-10,-2.3283067e-10,0.0343701,2
2044456000,2044456000,-0.07660165,0.0032698358,-0.0003929521,-0.9970564,0.99940926,-2.3283067e-10,-2.3283067e-10,0.0343701,2
2044464000,2044464000,-0.07658717,0.0032984833,-0.00040748782,-0.9970574,0.99940926,-2.3283067e-10,-2.3283067e-10,0.0343701,2
2044468000,2044468000,-0.07658792,0.0033167065,-0.00042332997,-0.99705726,0.99940926,-2.3283067e-10,-2.3283067e-10,0.0343701,2
2044472000,2044472000,-0.07660404,0.0033122213,-0.00042188427,-0.997056,0.99940926,-2.3283067e-10,-2.3283067e-10,0.0343701,2
2044476000,2044476000,-0.07661734,0.0032780143,-0.00041071087,-0.9970551,0.99940926,-2.3283067e-10,-2.3283067e-10,0.0343701,2
2044480000,2044480000,-0.07663223,0.0032492408,-0.00039834724,-0.9970541,0.99940926,-2.3283067e-10,-2.3283067e-10,0.0343701,2
2044484000,2044484000,-0.07666408,0.0032427919,-0.00038071853,-0.99705166,0.99940926,-2.3283067e-10,-2.3283067e-10,0.0343701,2
2044488000,2044488000,-0.07670548,0.0032423923,-0.00036085246,-0.9970485,0.99940926,-2.3283067e-10,-2.3283067e-10,0.0343701,2
2044492000,2044492000,-0.076736294,0.0032248853,-0.00034827075,-0.9970462,0.99940926,-2.3283067e-10,-2.3283067e-10,0.0343701,2
2044496000,2044496000,-0.076753356,0.0031949135,-0.0003518693,-0.997045,0.99940926,-2.3283067e-10,-2.3283067e-10,0.0343701,2
2044500000,2044500000,-0.07677359,0.003183583,-0.0003563765,-0.9970434,0.99940926,-2.3283067e-10,-2.3283067e-10,0.0343701,2
2044504000,2044504000,-0.0768028,0.0031860662,-0.0003410842,-0.9970412,0.99940926,-2.3283067e-10,-2.3283067e-10,0.0343701,2
2044508000,2044508000,-0.07682028,0.0031787541,-0.00031440784,-0.99703985,0.99940926,-2.3283067e-10,-2.3283067e-10,0.0343701,2
2044516000,2044516000,-0.076829284,0.003195504,-0.0002838722,-0.9970392,0.99940926,-2.3283067e-10,-2.3283067e-10,0.0343701,2
2044520000,2044520000,-0.07683781,0.0031962441,-0.00028457172,-0.9970384,0.99940926,-2.3283067e-10,-2.3283067e-10,0.0343701,2
2044524000,2044524000,-0.0768437,0.0031973221,-0.00028799218,-0.99703807,0.99940926,-2.3283067e-10,-2.3283067e-10,0.0343701,2
2044528000,2044528000,-0.076842636,0.0032238087,-0.00028057222,-0.99703807,0.99940926,-2.3283067e-10,-2.3283067e-10,0.0343701,2
2044532000,2044532000,-0.07682351,0.0032496871,-0.00027424708,-0.9970394,0.99940926,-2.3283067e-10,-2.3283067e-10,0.0343701,2
2044536000,2044536000,-0.076794274,0.0032566509,-0.00025688187,-0.99704164,0.99940926,-2.3283067e-10,-2.3283067e-10,0.0343701,2
2044540000,2044540000,-0.076773025,0.003267223,-0.00022795705,-0.99704325,0.99940926,-2.3283067e-10,-2.3283067e-10,0.0343701,2
2044544000,2044544000,-0.07677305,0.0032922602,-0.00021236273,-0.9970432,0.99940926,-2.3283067e-10,-2.3283067e-10,0.0343701,2
2044548000,2044548000,-0.07677473,0.00331514,-0.00021797803,-0.9970429,0.99940926,-2.3283067e-10,-2.3283067e-10,0.0343701,2
2044552000,2044552000,-0.076761596,0.0033211038,-0.00023516145,-0.9970439,0.99940926,-2.3283067e-10,-2.3283067e-10,0.0343701,2
2044560000,2044560000,-0.07676929,0.0033066683,-0.0002583273,-0.9970434,0.99940926,-2.3283067e-10,-2.3283067e-10,0.0343701,2
2044564000,2044564000,-0.07676512,0.003325235,-0.0002577768,-0.9970436,0.99940926,-2.3283067e-10,-2.3283067e-10,0.0343701,2
2044568000,2044568000,-0.07675237,0.0033272575,-0.00022927072,-0.9970447,0.99940926,-2.3283067e-10,-2.3283067e-10,0.0343701,2
2044576000,2044576000,-0.07676152,0.0032820983,-0.00020790717,-0.9970441,0.99940926,-2.3283067e-10,-2.3283067e-10,0.0343701,2
2044580000,2044580000,-0.07675948,0.003252356,-0.00020365008,-0.9970444,0.99940926,-2.3283067e-10,-2.3283067e-10,0.0343701,2
2044584000,2044584000,-0.07675632,0.0032494126,-0.0001843651,-0.9970446,0.99940926,-2.3283067e-10,-2.3283067e-10,0.0343701,2
2044592000,2044592000,-0.076783545,0.0032617643,-0.00017969398,-0.9970424,0.99940926,-2.3283067e-10,-2.3283067e-10,0.0343701,2
2044596000,2044596000,-0.07679263,0.003271992,-0.0001699477,-0.99704176,0.99940926,-2.3283067e-10,-2.3283067e-10,0.0343701,2
2044600000,2044600000,-0.076775186,0.0032903017,-0.0001731982,-0.99704295,0.99940926,-2.3283067e-10,-2.3283067e-10,0.0343701,2
2044604000,2044604000,-0.07676631,0.0032920735,-0.00019705719,-0.99704367,0.99940926,-2.3283067e-10,-2.3283067e-10,0.0343701,2
2044608000,2044608000,-0.07678238,0.003278818,-0.00021486847,-0.9970425,0.99940926,-2.3283067e-10,-2.3283067e-10,0.0343701,2
2044616000,2044616000,-0.07679752,0.0032654116,-0.00021144732,-0.9970414,0.99940926,-2.3283067e-10,-2.3283067e-10,0.0343701,2
2044620000,2044620000,-0.07680532,0.00326412,-0.00019870103,-0.9970408,0.99940926,-2.3283067e-10,-2.3283067e-10,0.0343701,2
2044624000,2044624000,-0.07679934,0.0032804725,-0.00019270144,-0.9970412,0.99940926,-2.3283067e-10,-2.3283067e-10,0.0343701,2
2044632000,2044632000,-0.07678466,0.003290011,-0.00015602229,-0.9970423,0.99940926,-2.3283067e-10,-2.3283067e-10,0.0343701,2
2044636000,2044636000,-0.07678128,0.0032854055,-0.00012442617,-0.99704254,0.99940926,-2.3283067e-10,-2.3283067e-10,0.0343701,2
2044640000,2044640000,-0.07675462,0.00327336,-0.00012011304,-0.9970446,0.99940926,-2.3283067e-10,-2.3283067e-10,0.0343701,2
2044648000,2044648000,-0.076694034,0.003247545,-0.00014830299,-0.9970494,0.99940926,-2.3283067e-10,-2.3283067e-10,0.0343701,2
2044656000,2044656000,-0.07667748,0.003248039,-0.00015439646,-0.99705064,0.99940926,-2.3283067e-10,-2.3283067e-10,0.0343701,2
2044660000,2044660000,-0.07667109,0.0032643997,-0.00016351529,-0.9970512,0.99940926,-2.3283067e-10,-2.3283067e-10,0.0343701,2
2044664000,2044664000,-0.076675326,0.0032705485,-0.00017341657,-0.99705076,0.99940926,-2.3283067e-10,-2.3283067e-10,0.0343701,2
2044668000,2044668000,-0.07667746,0.0032576371,-0.00018135551,-0.99705064,0.99940926,-2.3283067e-10,-2.3283067e-10,0.0343701,2
2044672000,2044672000,-0.07666904,0.0032336535,-0.00020824328,-0.99705136,0.99940926,-2.3283067e-10,-2.3283067e-10,0.0343701,2
2044680000,2044680000,-0.07662462,0.0031972958,-0.0002513232,-0.9970548,0.99940926,-2.3283067e-10,-2.3283067e-10,0.0343701,2
2044688000,2044688000,-0.07658342,0.0031530946,-0.00020246756,-0.9970582,0.99940926,-2.3283067e-10,-2.3283067e-10,0.0343701,2
2044692000,2044692000,-0.07661383,0.0031525297,-0.00018303335,-0.9970559,0.99940926,-2.3283067e-10,-2.3283067e-10,0.0343701,2
2044696000,2044696000,-0.07665224,0.003144042,-0.00017631991,-0.9970529,0.99940926,-2.3283067e-10,-2.3283067e-10,0.0343701,2
2044704000,2044704000,-0.07670308,0.003123008,-0.00017447822,-0.9970491,0.99940926,-2.3283067e-10,-2.3283067e-10,0.0343701,2
2044708000,2044708000,-0.07671068,0.0031276175,-0.00016465776,-0.9970485,0.99940926,-2.3283067e-10,-2.3283067e-10,0.0343701,2
2044716000,2044716000,-0.07670998,0.0031020842,-0.00015257364,-0.9970486,0.99940926,-2.3283067e-10,-2.3283067e-10,0.0343701,2
2044720000,2044720000,-0.07672451,0.003085957,-0.00014864563,-0.99704754,0.99940926,-2.3283067e-10,-2.3283067e-10,0.0343701,2
2044724000,2044724000,-0.07670563,0.003080501,-0.00015902781,-0.9970491,0.99940926,-2.3283067e-10,-2.3283067e-10,0.0343701,2
2044728000,2044728000,-0.07667292,0.0030731633,-0.00016610291,-0.9970516,0.99940926,-2.3283067e-10,-2.3283067e-10,0.0343701,2
2044732000,2044732000,-0.07664495,0.0030681277,-0.00015734398,-0.99705374,0.99940926,-2.3283067e-10,-2.3283067e-10,0.0343701,2
2044736000,2044736000,-0.07661489,0.003064318,-0.00016043827,-0.99705607,0.99940926,-2.3283067e-10,-2.3283067e-10,0.0343701,2
2044740000,2044740000,-0.07658858,0.0030655484,-0.0001746219,-0.9970581,0.99940926,-2.3283067e-10,-2.3283067e-10,0.0343701,2
2044744000,2044744000,-0.07656382,0.0030647346,-0.00017368609,-0.99706,0.99940926,-2.3283067e-10,-2.3283067e-10,0.0343701,2
2044748000,2044748000,-0.07654756,0.0030540507,-0.00017626905,-0.9970613,0.99940926,-2.3283067e-10,-2.3283067e-10,0.0343701,2
2044752000,2044752000,-0.07654145,0.0030562798,-0.00019850921,-0.99706167,0.99940926,-2.3283067e-10,-2.3283067e-10,0.0343701,2
2044756000,2044756000,-0.07651934,0.0030661658,-0.0002118033,-0.99706334,0.99940926,-2.3283067e-10,-2.3283067e-10,0.0343701,2
2044760000,2044760000,-0.0764786,0.0030720823,-0.00020722182,-0.99706656,0.99940926,-2.3283067e-10,-2.3283067e-10,0.0343701,2
2044764000,2044764000,-0.076444775,0.0030780553,-0.00020906246,-0.99706906,0.99940926,-2.3283067e-10,-2.3283067e-10,0.0343701,2
2044768000,2044768000,-0.076425344,0.0030842812,-0.00022850635,-0.99707055,0.99940926,-2.3283067e-10,-2.3283067e-10,0.0343701,2
2044776000,2044776000,-0.07641617,0.0030949262,-0.00025653827,-0.9970712,0.99940926,-2.3283067e-10,-2.3283067e-10,0.0343701,2
2044780000,2044780000,-0.076403596,0.003085613,-0.00026307575,-0.99707216,0.99940926,-2.3283067e-10,-2.3283067e-10,0.0343701,2
2044784000,2044784000,-0.07637985,0.0030803804,-0.00026515295,-0.997074,0.99940926,-2.3283067e-10,-2.3283067e-10,0.0343701,2
2044792000,2044792000,-0.076349735,0.0030718108,-0.00022404766,-0.99707633,0.99940926,-2.3283067e-10,-2.3283067e-10,0.0343701,2
2044796000,2044796000,-0.07636315,0.0030564822,-0.00022582531,-0.9970754,0.99940926,-2.3283067e-10,-2.3283067e-10,0.0343701,2
2044800000,2044800000,-0.07637337,0.003063171,-0.00022609388,-0.9970746,0.99940926,-2.3283067e-10,-2.3283067e-10,0.0343701,2
2044808000,2044808000,-0.07637932,0.003115979,-0.00019342249,-0.99707395,0.99940926,-2.3283067e-10,-2.3283067e-10,0.0343701,2
2044812000,2044812000,-0.07639422,0.003119987,-0.00016627763,-0.9970728,0.99940926,-2.3283067e-10,-2.3283067e-10,0.0343701,2
2044816000,2044816000,-0.07640599,0.0031124798,-0.00015695723,-0.9970719,0.99940926,-2.3283067e-10,-2.3283067e-10,0.0343701,2
2044820000,2044820000,-0.07641677,0.0031134484,-0.00017662621,-0.9970711,0.99940926,-2.3283067e-10,-2.3283067e-10,0.0343701,2
2044824000,2044824000,-0.076429725,0.0031141771,-0.00021336424,-0.9970701,0.99940926,-2.3283067e-10,-2.3283067e-10,0.0343701,2
2044828000,2044828000,-0.076437905,0.003112983,-0.00023342755,-0.9970695,0.99940926,-2.3283067e-10,-2.3283067e-10,0.0343701,2
2044832000,2044832000,-0.076442875,0.003113461,-0.0002456162,-0.9970691,0.99940926,-2.3283067e-10,-2.3283067e-10,0.0343701,2
2044840000,2044840000,-0.07648211,0.0030858526,-0.00028752163,-0.99706614,0.99940926,-2.3283067e-10,-2.3283067e-10,0.0343701,2
2044844000,2044844000,-0.07650939,0.0030519986,-0.0002949153,-0.9970642,0.99940926,-2.3283067e-10,-2.3283067e-10,0.0343701,2
2044848000,2044848000,-0.07651012,0.003045467,-0.00030822685,-0.9970641,0.99940926,-2.3283067e-10,-2.3283067e-10,0.0343701,2
2044856000,2044856000,-0.076489806,0.0030258365,-0.00033712728,-0.9970658,0.99940926,-2.3283067e-10,-2.3283067e-10,0.0343701,2
2044860000,2044860000,-0.07647988,0.0030232626,-0.00034441508,-0.99706656,0.99940926,-2.3283067e-10,-2.3283067e-10,0.0343701,2
2044864000,2044864000,-0.07647899,0.003022163,-0.000353391,-0.9970666,0.99940926,-2.3283067e-10,-2.3283067e-10,0.0343701,2
2044868000,2044868000,-0.07648873,0.002998525,-0.00036383024,-0.99706596,0.99940926,-2.3283067e-10,-2.3283067e-10,0.0343701,2
2044872000,2044872000,-0.07649155,0.0029671208,-0.0003640791,-0.99706584,0.99940926,-2.3283067e-10,-2.3283067e-10,0.0343701,2
2044880000,2044880000,-0.0765049,0.0029774911,-0.00036544172,-0.99706465,0.99940926,-2.3283067e-10,-2.3283067e-10,0.0343701,2
2044888000,2044888000,-0.076497585,0.0029742671,-0.0003770773,-0.9970653,0.99940926,-2.3283067e-10,-2.3283067e-10,0.0343701,2
2044896000,2044896000,-0.07645158,0.0029739882,-0.0004200726,-0.99706876,0.99940926,-2.3283067e-10,-2.3283067e-10,0.0343701,2
2044900000,2044900000,-0.07644438,0.0029960792,-0.00043364338,-0.99706936,0.99940926,-2.3283067e-10,-2.3283067e-10,0.0343701,2
2044904000,2044904000,-0.07642599,0.002999982,-0.0004335672,-0.99707067,0.99940926,-2.3283067e-10,-2.3283067e-10,0.0343701,2
2044908000,2044908000,-0.07641182,0.0029750061,-0.00041311755,-0.9970718,0.99940926,-2.3283067e-10,-2.3283067e-10,0.0343701,2
2044912000,2044912000,-0.07641036,0.0029579997,-0.0003862957,-0.997072,0.99940926,-2.3283067e-10,-2.3283067e-10,0.0343701,2
2044916000,2044916000,-0.076416366,0.0029614712,-0.0003711852,-0.9970716,0.99940926,-2.3283067e-10,-2.3283067e-10,0.0343701,2
2044924000,2044924000,-0.07640566,0.002938437,-0.00038362108,-0.99707246,0.99940926,-2.3283067e-10,-2.3283067e-10,0.0343701,2
2044928000,2044928000,-0.07639373,0.002903925,-0.0004041294,-0.9970735,0.99940926,-2.3283067e-10,-2.3283067e-10,0.0343701,2
2044932000,2044932000,-0.076373264,0.0028770096,-0.0004161765,-0.9970751,0.99940926,-2.3283067e-10,-2.3283067e-10,0.0343701,2
2044936000,2044936000,-0.076343745,0.0028733741,-0.000424157,-0.99707735,0.99940926,-2.3283067e-10,-2.3283067e-10,0.0343701,2
2044940000,2044940000,-0.07630681,0.0028844904,-0.00044184818,-0.9970802,0.99940926,-2.3283067e-10,-2.3283067e-10,0.0343701,2
2044944000,2044944000,-0.07626828,0.002897077,-0.00046125907,-0.997083,0.99940926,-2.3283067e-10,-2.3283067e-10,0.0343701,2
2044948000,2044948000,-0.07624566,0.002909669,-0.0004667464,-0.9970848,0.99940926,-2.3283067e-10,-2.3283067e-10,0.0343701,2
2044952000,2044952000,-0.07622248,0.0029247908,-0.0004670869,-0.9970865,0.99940926,-2.3283067e-10,-2.3283067e-10,0.0343701,2
2044956000,2044956000,-0.07618551,0.0029352144,-0.0004729963,-0.99708927,0.99940926,-2.3283067e-10,-2.3283067e-10,0.0343701,2
2044960000,2044960000,-0.07615494,0.0029371877,-0.0004846512,-0.9970916,0.99940926,-2.3283067e-10,-2.3283067e-10,0.0343701,2
2044964000,2044964000,-0.07614086,0.0029270418,-0.0005012176,-0.99709266,0.99940926,-2.3283067e-10,-2.3283067e-10,0.0343701,2
2044968000,2044968000,-0.07614429,0.0028999064,-0.00050949014,-0.9970925,0.99940926,-2.3283067e-10,-2.3283067e-10,0.0343701,2
2044972000,2044972000,-0.07614301,0.0028856762,-0.00050220604,-0.99709266,0.99940926,-2.3283067e-10,-2.3283067e-10,0.0343701,2
2044976000,2044976000,-0.07611781,0.0029023183,-0.0004962811,-0.9970945,0.99940926,-2.3283067e-10,-2.3283067e-10,0.0343701,2
2044980000,2044980000,-0.076096386,0.0029167265,-0.000505675,-0.9970962,0.99940926,-2.3283067e-10,-2.3283067e-10,0.0343701,2
2044984000,2044984000,-0.07609726,0.0029189715,-0.0005135402,-0.997096,0.99940926,-2.3283067e-10,-2.3283067e-10,0.0343701,2
2044988000,2044988000,-0.07610501,0.0029250572,-0.00051313976,-0.9970954,0.99940926,-2.3283067e-10,-2.3283067e-10,0.0343701,2
2044992000,2044992000,-0.076106414,0.0029302437,-0.00051749725,-0.9970953,0.99940926,-2.3283067e-10,-2.3283067e-10,0.0343701,2
2044996000,2044996000,-0.07610938,0.0029324861,-0.0005114838,-0.99709505,0.99940926,-2.3283067e-10,-2.3283067e-10,0.0343701,2
2045000000,2045000000,-0.07612023,0.002934635,-0.00047873054,-0.9970942,0.99940926,-2.3283067e-10,-2.3283067e-10,0.0343701,2
2045004000,2045004000,-0.076119386,0.002931141,-0.00044291778,-0.9970944,0.99940926,-2.3283067e-10,-2.3283067e-10,0.0343701,2
2045008000,2045008000,-0.07611594,0.0029261862,-0.00042623183,-0.99709463,0.99940926,-2.3283067e-10,-2.3283067e-10,0.0343701,2
2045012000,2045012000,-0.07612896,0.0029189899,-0.0004039909,-0.9970936,0.99940926,-2.3283067e-10,-2.3283067e-10,0.0343701,2
2045016000,2045016000,-0.076133974,0.002900099,-0.00036699197,-0.9970934,0.99940926,-2.3283067e-10,-2.3283067e-10,0.0343701,2
2045020000,2045020000,-0.07612471,0.0028822827,-0.00035098425,-0.99709415,0.99940926,-2.3283067e-10,-2.3283067e-10,0.0343701,2
2045028000,2045028000,-0.076141454,0.0028927955,-0.00040041353,-0.99709284,0.99940926,-2.3283067e-10,-2.3283067e-10,0.0343701,2
2045032000,2045032000,-0.07617579,0.002912105,-0.00040210367,-0.99709016,0.99940926,-2.3283067e-10,-2.3283067e-10,0.0343701,2
2045040000,2045040000,-0.07621308,0.002928118,-0.00037987594,-0.99708724,0.99940926,-2.3283067e-10,-2.3283067e-10,0.0343701,2
2045044000,2045044000,-0.07623535,0.0029080408,-0.00037918682,-0.9970856,0.99940926,-2.3283067e-10,-2.3283067e-10,0.0343701,2
2045048000,2045048000,-0.07626616,0.0028852366,-0.0003932214,-0.9970833,0.99940926,-2.3283067e-10,-2.3283067e-10,0.0343701,2
2045052000,2045052000,-0.07628107,0.0028658237,-0.00041186693,-0.99708223,0.99940926,-2.3283067e-10,-2.3283067e-10,0.0343701,2
2045060000,2045060000,-0.07630552,0.0028814937,-0.0004421558,-0.99708027,0.99940926,-2.3283067e-10,-2.3283067e-10,0.0343701,2
2045064000,2045064000,-0.07628533,0.0028930304,-0.0004472769,-0.99708176,0.99940926,-2.3283067e-10,-2.3283067e-10,0.0343701,2
2045072000,2045072000,-0.0762243,0.0028437132,-0.00044729462,-0.99708664,0.99940926,-2.3283067e-10,-2.3283067e-10,0.0343701,2
2045080000,2045080000,-0.07626027,0.0028300947,-0.00046361345,-0.99708384,0.99940926,-2.3283067e-10,-2.3283067e-10,0.0343701,2
2045084000,2045084000,-0.0762878,0.0027936501,-0.000454284,-0.9970819,0.99940926,-2.3283067e-10,-2.3283067e-10,0.0343701,2
2045088000,2045088000,-0.076304145,0.002749719,-0.00043105867,-0.99708074,0.99940926,-2.3283067e-10,-2.3283067e-10,0.0343701,2
2045096000,2045096000,-0.07634284,0.0027142637,-0.0004468878,-0.99707794,0.99940926,-2.3283067e-10,-2.3283067e-10,0.0343701,2
2045100000,2045100000,-0.07635984,0.002707534,-0.00046823296,-0.99707663,0.99940926,-2.3283067e-10,-2.3283067e-10,0.0343701,2
2045104000,2045104000,-0.07638265,0.0026924699,-0.00047984248,-0.99707484,0.99940926,-2.3283067e-10,-2.3283067e-10,0.0343701,2
2045108000,2045108000,-0.076390095,0.0026744627,-0.00049503654,-0.99707437,0.99940926,-2.3283067e-10,-2.3283067e-10,0.0343701,2
2045112000,2045112000,-0.07639698,0.0026493438,-0.0004984692,-0.9970739,0.99940926,-2.3283067e-10,-2.3283067e-10,0.0343701,2
2045116000,2045116000,-0.07642432,0.0026161314,-0.00047504483,-0.9970719,0.99940926,-2.3283067e-10,-2.3283067e-10,0.0343701,2
2045120000,2045120000,-0.07646386,0.0025863962,-0.00044811514,-0.99706894,0.99940926,-2.3283067e-10,-2.3283067e-10,0.0343701,2
2045124000,2045124000,-0.07650131,0.0025767244,-0.0004313047,-0.9970661,0.99940926,-2.3283067e-10,-2.3283067e-10,0.0343701,2
2045128000,2045128000,-0.076517485,0.0025751307,-0.00040662242,-0.9970648,0.99940926,-2.3283067e-10,-2.3283067e-10,0.0343701,2
2045132000,2045132000,-0.07650869,0.0025709167,-0.00037435337,-0.9970656,0.99940926,-2.3283067e-10,-2.3283067e-10,0.0343701,2
2045136000,2045136000,-0.076476574,0.002568045,-0.0003593425,-0.99706805,0.99940926,-2.3283067e-10,-2.3283067e-10,0.0343701,2
2045140000,2045140000,-0.07644081,0.002562038,-0.00037137239,-0.9970708,0.99940926,-2.3283067e-10,-2.3283067e-10,0.0343701,2
2045144000,2045144000,-0.07643482,0.0025724676,-0.0003990083,-0.9970712,0.99940926,-2.3283067e-10,-2.3283067e-10,0.0343701,2
2045148000,2045148000,-0.076446876,0.0025990438,-0.0004182468,-0.99707025,0.99940926,-2.3283067e-10,-2.3283067e-10,0.0343701,2
2045152000,2045152000,-0.076453045,0.0026179736,-0.00041875197,-0.9970697,0.99940926,-2.3283067e-10,-2.3283067e-10,0.0343701,2
2045160000,2045160000,-0.07642188,0.0026348715,-0.000428475,-0.99707204,0.99940926,-2.3283067e-10,-2.3283067e-10,0.0343701,2
2045164000,2045164000,-0.076412685,0.002637997,-0.00043320536,-0.99707276,0.99940926,-2.3283067e-10,-2.3283067e-10,0.0343701,2
2045168000,2045168000,-0.07644112,0.0026481573,-0.00040899322,-0.99707055,0.99940926,-2.3283067e-10,-2.3283067e-10,0.0343701,2
2045172000,2045172000,-0.0764669,0.0026550945,-0.0003851021,-0.9970686,0.99940926,-2.3283067e-10,-2.3283067e-10,0.0343701,2
2045176000,2045176000,-0.07646674,0.0026540214,-0.00038897904,-0.9970686,0.99940926,-2.3283067e-10,-2.3283067e-10,0.0343701,2
2045180000,2045180000,-0.07645227,0.0026522956,-0.00040141752,-0.9970697,0.99940926,-2.3283067e-10,-2.3283067e-10,0.0343701,2
2045184000,2045184000,-0.0764325,0.0026589835,-0.00041558378,-0.9970712,0.99940926,-2.3283067e-10,-2.3283067e-10,0.0343701,2
2045188000,2045188000,-0.076421335,0.0026684292,-0.00041445735,-0.9970719,0.99940926,-2.3283067e-10,-2.3283067e-10,0.0343701,2
2045192000,2045192000,-0.0764112,0.0026634904,-0.00039192635,-0.9970728,0.99940926,-2.3283067e-10,-2.3283067e-10,0.0343701,2
2045196000,2045196000,-0.07638352,0.0026545834,-0.0003584789,-0.99707496,0.99940926,-2.3283067e-10,-2.3283067e-10,0.0343701,2
2045200000,2045200000,-0.07634206,0.0026496782,-0.0003355247,-0.9970781,0.99940926,-2.3283067e-10,-2.3283067e-10,0.0343701,2
2045204000,2045204000,-0.07630332,0.0026456867,-0.0003356269,-0.9970811,0.99940926,-2.3283067e-10,-2.3283067e-10,0.0343701,2
2045212000,2045212000,-0.076290704,0.002622666,-0.0003580342,-0.9970821,0.99940926,-2.3283067e-10,-2.3283067e-10,0.0343701,2
2045216000,2045216000,-0.076296635,0.0026028932,-0.00037606293,-0.9970817,0.99940926,-2.3283067e-10,-2.3283067e-10,0.0343701,2
2045224000,2045224000,-0.076303616,0.002574983,-0.00037193467,-0.9970812,0.99940926,-2.3283067e-10,-2.3283067e-10,0.0343701,2
2045232000,2045232000,-0.076303266,0.0025269138,-0.00040104653,-0.99708146,0.99940926,-2.3283067e-10,-2.3283067e-10,0.0343701,2
2045236000,2045236000,-0.076293774,0.002541302,-0.00041965672,-0.9970821,0.99940926,-2.3283067e-10,-2.3283067e-10,0.0343701,2
2045240000,2045240000,-0.076296456,0.002548089,-0.0004189572,-0.9970818,0.99940926,-2.3283067e-10,-2.3283067e-10,0.0343701,2
2045248000,2045248000,-0.0763045,0.0025267496,-0.00042720724,-0.9970813,0.99940926,-2.3283067e-10,-2.3283067e-10,0.0343701,2
2045252000,2045252000,-0.07631141,0.0025043762,-0.00041682724,-0.9970808,0.99940926,-2.3283067e-10,-2.3283067e-10,0.0343701,2
2045256000,2045256000,-0.07632416,0.0024835982,-0.00040655452,-0.9970799,0.99940926,-2.3283067e-10,-2.3283067e-10,0.0343701,2
2045260000,2045260000,-0.07633352,0.0024682037,-0.00040577736,-0.99707925,0.99940926,-2.3283067e-10,-2.3283067e-10,0.0343701,2
2045264000,2045264000,-0.07633491,0.0024769888,-0.000403132,-0.99707913,0.99940926,-2.3283067e-10,-2.3283067e-10,0.0343701,2
2045268000,2045268000,-0.07633948,0.0024959128,-0.0004076833,-0.9970787,0.99940926,-2.3283067e-10,-2.3283067e-10,0.0343701,2
2045272000,2045272000,-0.0763558,0.0024978956,-0.00043120707,-0.99707747,0.99940926,-2.3283067e-10,-2.3283067e-10,0.0343701,2
2045276000,2045276000,-0.0763746,0.0024960316,-0.000429307,-0.99707603,0.99940926,-2.3283067e-10,-2.3283067e-10,0.0343701,2
2045280000,2045280000,-0.07639489,0.0025006928,-0.00039104355,-0.9970745,0.99940926,-2.3283067e-10,-2.3283067e-10,0.0343701,2
2045284000,2045284000,-0.076410964,0.002512592,-0.00036992316,-0.99707323,0.99940926,-2.3283067e-10,-2.3283067e-10,0.0343701,2
2045288000,2045288000,-0.076405324,0.0025272274,-0.00037577763,-0.9970736,0.99940926,-2.3283067e-10,-2.3283067e-10,0.0343701,2
2045292000,2045292000,-0.076395944,0.0025425185,-0.00038010607,-0.99707425,0.99940926,-2.3283067e-10,-2.3283067e-10,0.0343701,2
2045296000,2045296000,-0.07639344,0.0025747234,-0.00037983645,-0.99707437,0.99940926,-2.3283067e-10,-2.3283067e-10,0.0343701,2
2045300000,2045300000,-0.07637975,0.0026211427,-0.0003753593,-0.9970753,0.99940926,-2.3283067e-10,-2.3283067e-10,0.0343701,2
2045304000,2045304000,-0.076361254,0.0026563215,-0.00035721326,-0.9970767,0.99940926,-2.3283067e-10,-2.3283067e-10,0.0343701,2
2045308000,2045308000,-0.07635709,0.0026728401,-0.00033868325,-0.9970769,0.99940926,-2.3283067e-10,-2.3283067e-10,0.0343701,2
2045312000,2045312000,-0.07636675,0.0026854854,-0.0003289005,-0.99707615,0.99940926,-2.3283067e-10,-2.3283067e-10,0.0343701,2
2045316000,2045316000,-0.07637482,0.0027034467,-0.00032648846,-0.9970755,0.99940926,-2.3283067e-10,-2.3283067e-10,0.0343701,2
2045320000,2045320000,-0.07637764,0.0027225565,-0.00034394398,-0.9970752,0.99940926,-2.3283067e-10,-2.3283067e-10,0.0343701,2
2045324000,2045324000,-0.07638416,0.0027388528,-0.0003633245,-0.99707466,0.99940926,-2.3283067e-10,-2.3283067e-10,0.0343701,2
2045328000,2045328000,-0.07639593,0.0027524482,-0.00036218416,-0.9970737,0.99940926,-2.3283067e-10,-2.3283067e-10,0.0343701,2
2045332000,2045332000,-0.07640397,0.0027655882,-0.00034607123,-0.99707305,0.99940926,-2.3283067e-10,-2.3283067e-10,0.0343701,2
2045340000,2045340000,-0.076421075,0.0027751194,-0.00030242177,-0.99707174,0.99940926,-2.3283067e-10,-2.3283067e-10,0.0343701,2
2045344000,2045344000,-0.07641642,0.0027635093,-0.0003095674,-0.99707216,0.99940926,-2.3283067e-10,-2.3283067e-10,0.0343701,2
2045352000,2045352000,-0.076378934,0.0027892308,-0.00034053312,-0.99707496,0.99940926,-2.3283067e-10,-2.3283067e-10,0.0343701,2
2045360000,2045360000,-0.07636937,0.00282369,-0.00030640693,-0.99707556,0.99940926,-2.3283067e-10,-2.3283067e-10,0.0343701,2
2045364000,2045364000,-0.07635075,0.002834014,-0.00028539318,-0.997077,0.99940926,-2.3283067e-10,-2.3283067e-10,0.0343701,2
2045368000,2045368000,-0.07631939,0.002827627,-0.00026634146,-0.9970794,0.99940926,-2.3283067e-10,-2.3283067e-10,0.0343701,2
2045372000,2045372000,-0.07628755,0.0028124282,-0.0002717342,-0.9970819,0.99940926,-2.3283067e-10,-2.3283067e-10,0.0343701,2
2045376000,2045376000,-0.07624672,0.002811409,-0.00029426295,-0.997085,0.99940926,-2.3283067e-10,-2.3283067e-10,0.0343701,2
2045380000,2045380000,-0.07620212,0.00280107,-0.0002990058,-0.9970885,0.99940926,-2.3283067e-10,-2.3283067e-10,0.0343701,2
2045384000,2045384000,-0.076184034,0.0027778237,-0.00029093502,-0.9970899,0.99940926,-2.3283067e-10,-2.3283067e-10,0.0343701,2
2045388000,2045388000,-0.07616966,0.00276247,-0.00029147885,-0.99709105,0.99940926,-2.3283067e-10,-2.3283067e-10,0.0343701,2
2045392000,2045392000,-0.076139905,0.002753857,-0.00030166173,-0.9970933,0.99940926,-2.3283067e-10,-2.3283067e-10,0.0343701,2
2045396000,2045396000,-0.076126575,0.0027566073,-0.00031000437,-0.99709433,0.99940926,-2.3283067e-10,-2.3283067e-10,0.0343701,2
2045400000,2045400000,-0.076118544,0.0027660565,-0.00031457026,-0.9970949,0.99940926,-2.3283067e-10,-2.3283067e-10,0.0343701,2
2045404000,2045404000,-0.0761074,0.002788209,-0.00031371324,-0.9970957,0.99940926,-2.3283067e-10,-2.3283067e-10,0.0343701,2
2045408000,2045408000,-0.07611695,0.002816084,-0.00030789274,-0.9970949,0.99940926,-2.3283067e-10,-2.3283067e-10,0.0343701,2
2045412000,2045412000,-0.07613389,0.0028332572,-0.00029536596,-0.99709356,0.99940926,-2.3283067e-10,-2.3283067e-10,0.0343701,2
2045416000,2045416000,-0.07612693,0.0028601042,-0.00028204388,-0.99709404,0.99940926,-2.3283067e-10,-2.3283067e-10,0.0343701,2
2045420000,2045420000,-0.076112054,0.0028840813,-0.00028564138,-0.9970951,0.99940926,-2.3283067e-10,-2.3283067e-10,0.0343701,2
2045424000,2045424000,-0.07611528,0.0028884623,-0.00030104484,-0.99709487,0.99940926,-2.3283067e-10,-2.3283067e-10,0.0343701,2
2045428000,2045428000,-0.07611424,0.00289985,-0.00031594874,-0.99709487,0.99940926,-2.3283067e-10,-2.3283067e-10,0.0343701,2
2045432000,2045432000,-0.07609934,0.0029218064,-0.0003183454,-0.99709594,0.99940926,-2.3283067e-10,-2.3283067e-10,0.0343701,2
2045440000,2045440000,-0.07608079,0.002927377,-0.00034319318,-0.9970974,0.99940926,-2.3283067e-10,-2.3283067e-10,0.0343701,2
2045444000,2045444000,-0.07606437,0.002927203,-0.0003631794,-0.9970986,0.99940926,-2.3283067e-10,-2.3283067e-10,0.0343701,2
2045452000,2045452000,-0.076030366,0.0029202772,-0.00037062366,-0.99710125,0.99940926,-2.3283067e-10,-2.3283067e-10,0.0343701,2
2045456000,2045456000,-0.07602763,0.0029335455,-0.00035475663,-0.99710137,0.99940926,-2.3283067e-10,-2.3283067e-10,0.0343701,2
2045464000,2045464000,-0.07607792,0.002989884,-0.00032516936,-0.99709743,0.99940926,-2.3283067e-10,-2.3283067e-10,0.0343701,2
2045468000,2045468000,-0.07611137,0.002992025,-0.00032975254,-0.99709475,0.99940926,-2.3283067e-10,-2.3283067e-10,0.0343701,2
2045476000,2045476000,-0.07612949,0.0030019197,-0.00035660912,-0.99709344,0.99940926,-2.3283067e-10,-2.3283067e-10,0.0343701,2
2045480000,2045480000,-0.07612318,0.0030227082,-0.00038305542,-0.99709374,0.99940926,-2.3283067e-10,-2.3283067e-10,0.0343701,2
2045484000,2045484000,-0.07612589,0.0030302398,-0.000401537,-0.99709356,0.99940926,-2.3283067e-10,-2.3283067e-10,0.0343701,2
2045488000,2045488000,-0.07613923,0.0030243366,-0.00042109695,-0.99709255,0.99940926,-2.3283067e-10,-2.3283067e-10,0.0343701,2
2045492000,2045492000,-0.07614404,0.0030171368,-0.0004299195,-0.9970922,0.99940926,-2.3283067e-10,-2.3283067e-10,0.0343701,2
2045496000,2045496000,-0.076130174,0.0030131405,-0.00041073197,-0.99709326,0.99940926,-2.3283067e-10,-2.3283067e-10,0.0343701,2
2045500000,2045500000,-0.076111004,0.0030018082,-0.00038995102,-0.99709475,0.99940926,-2.3283067e-10,-2.3283067e-10,0.0343701,2
2045504000,2045504000,-0.07609774,0.0029815836,-0.000387704,-0.9970958,0.99940926,-2.3283067e-10,-2.3283067e-10,0.0343701,2
2045508000,2045508000,-0.07610571,0.0029748674,-0.0003837713,-0.9970952,0.99940926,-2.3283067e-10,-2.3283067e-10,0.0343701,2
2045512000,2045512000,-0.076128475,0.0029788879,-0.00035817773,-0.9970935,0.99940926,-2.3283067e-10,-2.3283067e-10,0.0343701,2
2045520000,2045520000,-0.07616023,0.00301565,-0.00032315057,-0.997091,0.99940926,-2.3283067e-10,-2.3283067e-10,0.0343701,2
2045524000,2045524000,-0.076166585,0.0030432465,-0.00031813962,-0.99709046,0.99940926,-2.3283067e-10,-2.3283067e-10,0.0343701,2
2045528000,2045528000,-0.07615595,0.003035214,-0.00031099352,-0.9970913,0.99940926,-2.3283067e-10,-2.3283067e-10,0.0343701,2
2045532000,2045532000,-0.076135226,0.0030250736,-0.00030373485,-0.99709284,0.99940926,-2.3283067e-10,-2.3283067e-10,0.0343701,2
2045536000,2045536000,-0.07609966,0.003029232,-0.0003050919,-0.9970956,0.99940926,-2.3283067e-10,-2.3283067e-10,0.0343701,2
2045540000,2045540000,-0.076070525,0.0030441685,-0.00032649972,-0.99709785,0.99940926,-2.3283067e-10,-2.3283067e-10,0.0343701,2
2045544000,2045544000,-0.07607535,0.0030696515,-0.00034273157,-0.9970973,0.99940926,-2.3283067e-10,-2.3283067e-10,0.0343701,2
2045548000,2045548000,-0.076093376,0.0030629123,-0.00033351113,-0.99709594,0.99940926,-2.3283067e-10,-2.3283067e-10,0.0343701,2
2045552000,2045552000,-0.076107174,0.0030205892,-0.00032158822,-0.9970951,0.99940926,-2.3283067e-10,-2.3283067e-10,0.0343701,2
2045556000,2045556000,-0.07610772,0.0030005097,-0.00031943325,-0.9970951,0.99940926,-2.3283067e-10,-2.3283067e-10,0.0343701,2
2045560000,2045560000,-0.076094456,0.003008411,-0.00032159267,-0.9970961,0.99940926,-2.3283067e-10,-2.3283067e-10,0.0343701,2
