timestamp,timestamp_sample,gps_hvel[0],gps_hvel[1],gps_vvel,gps_hpos[0],gps_hpos[1],gps_vpos,ev_hvel[0],ev_hvel[1],ev_vvel,ev_hpos[0],ev_hpos[1],ev_vpos,rng_vpos,baro_vpos,aux_hvel[0],aux_hvel[1],flow[0],flow[1],heading,mag_field[0],mag_field[1],mag_field[2],gravity[0],gravity[1],gravity[2],drag[0],drag[1],airspeed,beta,hagl,hagl_rate
2043328000,2043176000,0.10535754,0.105563894,0.20783395,1.1254698,1.1259921,1.0873433,0.0,0.0,0.0,0.0,0.0,0.0,0.0,12.451303,0.0,0.0,0.0,0.0,0.0025110082,0.0025038416,0.0025110082,0.00250181,1.0000167,1.0000178,1.0,0.0,0.0,0.0,0.0,0.0,0.0
2043336000,2043184000,0.10535754,0.105563894,0.20783395,1.1254698,1.1259921,1.0873433,0.0,0.0,0.0,0.0,0.0,0.0,0.0,12.452785,0.0,0.0,0.0,0.0,0.0025110082,0.0025038416,0.0025110082,0.00250181,1.0000167,1.0000179,1.0,0.0,0.0,0.0,0.0,0.0,0.0
2043344000,2043192000,0.10535754,0.105563894,0.20783395,1.1254698,1.1259921,1.0873433,0.0,0.0,0.0,0.0,0.0,0.0,0.0,12.452785,0.0,0.0,0.0,0.0,0.0025110082,0.0025038416,0.0025110082,0.00250181,1.0000167,1.0000179,1.0,0.0,0.0,0.0,0.0,0.0,0.0
2043352000,2043200000,0.10535754,0.105563894,0.20783395,1.1254698,1.1259921,1.0873433,0.0,0.0,0.0,0.0,0.0,0.0,0.0,12.452785,0.0,0.0,0.0,0.0,0.0025110275,0.0025038728,0.0025110275,0.0025018186,1.0000168,1.0000179,1.0,0.0,0.0,0.0,0.0,0.0,0.0
2043360000,2043208000,0.10535754,0.105563894,0.20783395,1.1254698,1.1259921,1.0873433,0.0,0.0,0.0,0.0,0.0,0.0,0.0,12.452785,0.0,0.0,0.0,0.0,0.0025110275,0.0025038728,0.0025110275,0.0025018186,1.0000168,1.0000179,1.0,0.0,0.0,0.0,0.0,0.0,0.0
2043368000,2043216000,0.10535754,0.105563894,0.20783395,1.1254698,1.1259921,1.0873433,0.0,0.0,0.0,0.0,0.0,0.0,0.0,12.452785,0.0,0.0,0.0,0.0,0.0025110275,0.0025038728,0.0025110275,0.0025018186,1.0000168,1.0000179,1.0,0.0,0.0,0.0,0.0,0.0,0.0
2043376000,2043224000,0.10535754,0.105563894,0.20783395,1.1254698,1.1259921,1.0873433,0.0,0.0,0.0,0.0,0.0,0.0,0.0,12.452785,0.0,0.0,0.0,0.0,0.0025110275,0.0025038728,0.0025110275,0.0025018186,1.0000168,1.000018,1.0,0.0,0.0,0.0,0.0,0.0,0.0
2043384000,2043232000,0.10535754,0.105563894,0.20783395,1.1254698,1.1259921,1.0873433,0.0,0.0,0.0,0.0,0.0,0.0,0.0,12.452785,0.0,0.0,0.0,0.0,0.0025110275,0.0025038728,0.0025110275,0.0025018186,1.0000168,1.000018,1.0,0.0,0.0,0.0,0.0,0.0,0.0
2043400000,2043248000,0.10535754,0.105563894,0.20783395,1.1254698,1.1259921,1.0873433,0.0,0.0,0.0,0.0,0.0,0.0,0.0,12.452785,0.0,0.0,0.0,0.0,0.0025110275,0.0025038728,0.0025110275,0.0025018186,1.0000169,1.000018,1.0,0.0,0.0,0.0,0.0,0.0,0.0
2043408000,2043256000,0.10535754,0.105563894,0.20783395,1.1254698,1.1259921,1.0873433,0.0,0.0,0.0,0.0,0.0,0.0,0.0,12.454288,0.0,0.0,0.0,0.0,0.0025110275,0.0025038728,0.0025110275,0.0025018186,1.0000169,1.000018,1.0,0.0,0.0,0.0,0.0,0.0,0.0
2043416000,2043264000,0.10535754,0.105563894,0.20783395,1.1254698,1.1259921,1.0873433,0.0,0.0,0.0,0.0,0.0,0.0,0.0,12.454288,0.0,0.0,0.0,0.0,0.0025110275,0.0025038728,0.0025110275,0.0025018186,1.0000169,1.0000181,1.0,0.0,0.0,0.0,0.0,0.0,0.0
2043424000,2043272000,0.10535754,0.105563894,0.20783395,1.1254698,1.1259921,1.0873433,0.0,0.0,0.0,0.0,0.0,0.0,0.0,12.454288,0.0,0.0,0.0,0.0,0.0025110543,0.0025039106,0.0025110543,0.0025018274,1.0000169,1.0000181,1.0,0.0,0.0,0.0,0.0,0.0,0.0
2043440000,2043288000,0.10535754,0.105563894,0.20783395,1.1254698,1.1259921,1.0873433,0.0,0.0,0.0,0.0,0.0,0.0,0.0,12.454288,0.0,0.0,0.0,0.0,0.0025110543,0.0025039106,0.0025110543,0.0025018274,1.000017,1.0000182,1.0,0.0,0.0,0.0,0.0,0.0,0.0
2043448000,2043296000,0.10535754,0.105563894,0.20783395,1.1254698,1.1259921,1.0873433,0.0,0.0,0.0,0.0,0.0,0.0,0.0,12.454288,0.0,0.0,0.0,0.0,0.0025110543,0.0025039106,0.0025110543,0.0025018274,1.000017,1.0000182,1.0,0.0,0.0,0.0,0.0,0.0,0.0
2043456000,2043304000,0.10535754,0.105563894,0.20783395,1.1254698,1.1259921,1.0873433,0.0,0.0,0.0,0.0,0.0,0.0,0.0,12.454288,0.0,0.0,0.0,0.0,0.0025110543,0.0025039106,0.0025110543,0.0025018274,1.000017,1.0000184,1.0,0.0,0.0,0.0,0.0,0.0,0.0
2043464000,2043312000,0.10535754,0.105563894,0.20783395,1.1254698,1.1259921,1.0873433,0.0,0.0,0.0,0.0,0.0,0.0,0.0,12.454288,0.0,0.0,0.0,0.0,0.0025110543,0.0025039106,0.0025110543,0.0025018274,1.000017,1.0000184,1.0,0.0,0.0,0.0,0.0,0.0,0.0
2043480000,2043328000,0.10535754,0.105563894,0.20783395,1.1254698,1.1259921,1.0873433,0.0,0.0,0.0,0.0,0.0,0.0,0.0,12.4558115,0.0,0.0,0.0,0.0,0.0025110543,0.0025039106,0.0025110543,0.0025018274,1.0000172,1.0000184,1.0,0.0,0.0,0.0,0.0,0.0,0.0
2043488000,2043336000,0.10535754,0.105563894,0.20783395,1.1254698,1.1259921,1.0873433,0.0,0.0,0.0,0.0,0.0,0.0,0.0,12.4558115,0.0,0.0,0.0,0.0,0.0025110543,0.0025039106,0.0025110543,0.0025018274,1.0000172,1.0000184,1.0,0.0,0.0,0.0,0.0,0.0,0.0
2043496000,2043344000,0.10535754,0.105563894,0.20783395,1.1254698,1.1259921,1.0873433,0.0,0.0,0.0,0.0,0.0,0.0,0.0,12.4558115,0.0,0.0,0.0,0.0,0.0025110773,0.002503946,0.0025110773,0.0025018381,1.0000172,1.0000185,1.0,0.0,0.0,0.0,0.0,0.0,0.0
2043504000,2043352000,0.10535754,0.105563894,0.20783395,1.1254698,1.1259921,1.0873433,0.0,0.0,0.0,0.0,0.0,0.0,0.0,12.4558115,0.0,0.0,0.0,0.0,0.0025110773,0.002503946,0.0025110773,0.0025018381,1.0000172,1.0000185,1.0,0.0,0.0,0.0,0.0,0.0,0.0
2043520000,2043368000,0.10535754,0.105563894,0.20783395,1.1254698,1.1259921,1.0873433,0.0,0.0,0.0,0.0,0.0,0.0,0.0,12.4558115,0.0,0.0,0.0,0.0,0.0025110773,0.002503946,0.0025110773,0.0025018381,1.0000173,1.0000185,1.0,0.0,0.0,0.0,0.0,0.0,0.0
2043528000,2043376000,0.10535754,0.105563894,0.20783395,1.1254698,1.1259921,1.0873433,0.0,0.0,0.0,0.0,0.0,0.0,0.0,12.4558115,0.0,0.0,0.0,0.0,0.0025110773,0.002503946,0.0025110773,0.0025018381,1.0000173,1.0000185,1.0,0.0,0.0,0.0,0.0,0.0,0.0
2043536000,2043384000,0.10535754,0.105563894,0.20783395,1.1254698,1.1259921,1.0873433,0.0,0.0,0.0,0.0,0.0,0.0,0.0,12.4558115,0.0,0.0,0.0,0.0,0.0025110773,0.002503946,0.0025110773,0.0025018381,1.0000173,1.0000186,1.0,0.0,0.0,0.0,0.0,0.0,0.0
2043544000,2043392000,0.10535754,0.105563894,0.20783395,1.1254698,1.1259921,1.0873433,0.0,0.0,0.0,0.0,0.0,0.0,0.0,12.4558115,0.0,0.0,0.0,0.0,0.0025110773,0.002503946,0.0025110773,0.0025018381,1.0000173,1.0000186,1.0,0.0,0.0,0.0,0.0,0.0,0.0
2043560000,2043408000,0.10535754,0.105563894,0.20783395,1.1254698,1.1259921,1.0873433,0.0,0.0,0.0,0.0,0.0,0.0,0.0,12.457355,0.0,0.0,0.0,0.0,0.0025110773,0.002503946,0.0025110773,0.0025018381,1.0000174,1.0000186,1.0,0.0,0.0,0.0,0.0,0.0,0.0
2043568000,2043416000,0.10535754,0.105563894,0.20783395,1.1254698,1.1259921,1.0873433,0.0,0.0,0.0,0.0,0.0,0.0,0.0,12.457355,0.0,0.0,0.0,0.0,0.0025111039,0.0025039837,0.0025111039,0.0025018482,1.0000174,1.0000186,1.0,0.0,0.0,0.0,0.0,0.0,0.0
2043576000,2043424000,0.10535754,0.105563894,0.20783395,1.1254698,1.1259921,1.0873433,0.0,0.0,0.0,0.0,0.0,0.0,0.0,12.457355,0.0,0.0,0.0,0.0,0.0025111039,0.0025039837,0.0025111039,0.0025018482,1.0000174,1.0000187,1.0,0.0,0.0,0.0,0.0,0.0,0.0
2043584000,2043432000,0.10535754,0.105563894,0.20783395,1.1254698,1.1259921,1.0873433,0.0,0.0,0.0,0.0,0.0,0.0,0.0,12.457355,0.0,0.0,0.0,0.0,0.0025111039,0.0025039837,0.0025111039,0.0025018482,1.0000174,1.0000187,1.0,0.0,0.0,0.0,0.0,0.0,0.0
2043600000,2043448000,0.10535754,0.105563894,0.20783395,1.1254698,1.1259921,1.0873433,0.0,0.0,0.0,0.0,0.0,0.0,0.0,12.457355,0.0,0.0,0.0,0.0,0.0025111039,0.0025039837,0.0025111039,0.0025018482,1.0000175,1.0000187,1.0,0.0,0.0,0.0,0.0,0.0,0.0
2043608000,2043456000,0.10535754,0.105563894,0.20783395,1.1254698,1.1259921,1.0873433,0.0,0.0,0.0,0.0,0.0,0.0,0.0,12.457355,0.0,0.0,0.0,0.0,0.0025111039,0.0025039837,0.0025111039,0.0025018482,1.0000175,1.0000188,1.0,0.0,0.0,0.0,0.0,0.0,0.0
2043616000,2043464000,0.10535754,0.105563894,0.20783395,1.1254698,1.1259921,1.0873433,0.0,0.0,0.0,0.0,0.0,0.0,0.0,12.457355,0.0,0.0,0.0,0.0,0.0025111039,0.0025039837,0.0025111039,0.0025018482,1.0000175,1.0000188,1.0,0.0,0.0,0.0,0.0,0.0,0.0
2043624000,2043472000,0.10535754,0.105563894,0.20783395,1.1254698,1.1259921,1.0873433,0.0,0.0,0.0,0.0,0.0,0.0,0.0,12.458919,0.0,0.0,0.0,0.0,0.0025111039,0.0025039837,0.0025111039,0.0025018482,1.0000175,1.0000188,1.0,0.0,0.0,0.0,0.0,0.0,0.0
2043640000,2043488000,0.10535754,0.105563894,0.20783395,1.1254698,1.1259921,1.0873433,0.0,0.0,0.0,0.0,0.0,0.0,0.0,12.458919,0.0,0.0,0.0,0.0,0.0025111318,0.0025040205,0.0025111318,0.002501858,1.0000176,1.0000188,1.0,0.0,0.0,0.0,0.0,0.0,0.0
2043648000,2043496000,0.10535754,0.105563894,0.20783395,1.1254698,1.1259921,1.0873433,0.0,0.0,0.0,0.0,0.0,0.0,0.0,12.458919,0.0,0.0,0.0,0.0,0.0025111318,0.0025040205,0.0025111318,0.002501858,1.0000176,1.000019,1.0,0.0,0.0,0.0,0.0,0.0,0.0
2043656000,2043504000,0.10535679,0.105570145,0.20782946,1.1254705,1.1259987,1.0871903,0.0,0.0,0.0,0.0,0.0,0.0,0.0,12.458919,0.0,0.0,0.0,0.0,0.0025111318,0.0025040205,0.0025111318,0.002501858,1.0000165,1.0000176,1.0,0.0,0.0,0.0,0.0,0.0,0.0
2043664000,2043512000,0.10535679,0.105570145,0.20782946,1.1254705,1.1259987,1.0871903,0.0,0.0,0.0,0.0,0.0,0.0,0.0,12.458919,0.0,0.0,0.0,0.0,0.0025111318,0.0025040205,0.0025111318,0.002501858,1.0000165,1.0000176,1.0,0.0,0.0,0.0,0.0,0.0,0.0
2043680000,2043528000,0.10535679,0.105570145,0.20782946,1.1254705,1.1259987,1.0871903,0.0,0.0,0.0,0.0,0.0,0.0,0.0,12.458919,0.0,0.0,0.0,0.0,0.0025111318,0.0025040205,0.0025111318,0.002501858,1.0000166,1.0000176,1.0,0.0,0.0,0.0,0.0,0.0,0.0
2043688000,2043536000,0.10535679,0.105570145,0.20782946,1.1254705,1.1259987,1.0871903,0.0,0.0,0.0,0.0,0.0,0.0,0.0,12.451949,0.0,0.0,0.0,0.0,0.0025111318,0.0025040205,0.0025111318,0.002501858,1.0000166,1.0000176,1.0,0.0,0.0,0.0,0.0,0.0,0.0
2043696000,2043544000,0.10535679,0.105570145,0.20782946,1.1254705,1.1259987,1.0871903,0.0,0.0,0.0,0.0,0.0,0.0,0.0,12.451949,0.0,0.0,0.0,0.0,0.0025111318,0.0025040205,0.0025111318,0.002501858,1.0000166,1.0000178,1.0,0.0,0.0,0.0,0.0,0.0,0.0
2043704000,2043552000,0.10535679,0.105570145,0.20782946,1.1254705,1.1259987,1.0871903,0.0,0.0,0.0,0.0,0.0,0.0,0.0,12.451949,0.0,0.0,0.0,0.0,0.0025110138,0.0025038472,0.0025110138,0.0025018116,1.0000166,1.0000178,1.0,0.0,0.0,0.0,0.0,0.0,0.0
2043720000,2043568000,0.10535679,0.105570145,0.20782946,1.1254705,1.1259987,1.0871903,0.0,0.0,0.0,0.0,0.0,0.0,0.0,12.451949,0.0,0.0,0.0,0.0,0.0025110138,0.0025038472,0.0025110138,0.0025018116,1.0000167,1.0000178,1.0,0.0,0.0,0.0,0.0,0.0,0.0
2043728000,2043576000,0.10535679,0.105570145,0.20782946,1.1254705,1.1259987,1.0871903,0.0,0.0,0.0,0.0,0.0,0.0,0.0,12.451949,0.0,0.0,0.0,0.0,0.0025110138,0.0025038472,0.0025110138,0.0025018116,1.0000167,1.0000178,1.0,0.0,0.0,0.0,0.0,0.0,0.0
2043736000,2043584000,0.10535679,0.105570145,0.20782946,1.1254705,1.1259987,1.0871903,0.0,0.0,0.0,0.0,0.0,0.0,0.0,12.451949,0.0,0.0,0.0,0.0,0.0025110138,0.0025038472,0.0025110138,0.0025018116,1.0000167,1.0000179,1.0,0.0,0.0,0.0,0.0,0.0,0.0
2043744000,2043592000,0.10535679,0.105570145,0.20782946,1.1254705,1.1259987,1.0871903,0.0,0.0,0.0,0.0,0.0,0.0,0.0,12.4527235,0.0,0.0,0.0,0.0,0.0025110138,0.0025038472,0.0025110138,0.0025018116,1.0000167,1.0000179,1.0,0.0,0.0,0.0,0.0,0.0,0.0
2043760000,2043608000,0.10535679,0.105570145,0.20782946,1.1254705,1.1259987,1.0871903,0.0,0.0,0.0,0.0,0.0,0.0,0.0,12.4527235,0.0,0.0,0.0,0.0,0.0025110138,0.0025038472,0.0025110138,0.0025018116,1.0000168,1.0000179,1.0,0.0,0.0,0.0,0.0,0.0,0.0
2043768000,2043616000,0.10535679,0.105570145,0.20782946,1.1254705,1.1259987,1.0871903,0.0,0.0,0.0,0.0,0.0,0.0,0.0,12.4527235,0.0,0.0,0.0,0.0,0.0025110138,0.0025038472,0.0025110138,0.0025018116,1.0000168,1.0000179,1.0,0.0,0.0,0.0,0.0,0.0,0.0
2043776000,2043624000,0.10535679,0.105570145,0.20782946,1.1254705,1.1259987,1.0871903,0.0,0.0,0.0,0.0,0.0,0.0,0.0,12.4527235,0.0,0.0,0.0,0.0,0.00251104,0.0025038845,0.00251104,0.0025018218,1.0000168,1.000018,1.0,0.0,0.0,0.0,0.0,0.0,0.0
2043784000,2043632000,0.10535679,0.105570145,0.20782946,1.1254705,1.1259987,1.0871903,0.0,0.0,0.0,0.0,0.0,0.0,0.0,12.4527235,0.0,0.0,0.0,0.0,0.00251104,0.0025038845,0.00251104,0.0025018218,1.0000168,1.000018,1.0,0.0,0.0,0.0,0.0,0.0,0.0
2043800000,2043648000,0.10535679,0.105570145,0.20782946,1.1254705,1.1259987,1.0871903,0.0,0.0,0.0,0.0,0.0,0.0,0.0,12.4527235,0.0,0.0,0.0,0.0,0.00251104,0.0025038845,0.00251104,0.0025018218,1.0000169,1.000018,1.0,0.0,0.0,0.0,0.0,0.0,0.0
2043808000,2043656000,0.10535679,0.105570145,0.20782946,1.1254705,1.1259987,1.0871903,0.0,0.0,0.0,0.0,0.0,0.0,0.0,12.4527235,0.0,0.0,0.0,0.0,0.00251104,0.0025038845,0.00251104,0.0025018218,1.0000169,1.000018,1.0,0.0,0.0,0.0,0.0,0.0,0.0
2043816000,2043664000,0.10535679,0.105570145,0.20782946,1.1254705,1.1259987,1.0871903,0.0,0.0,0.0,0.0,0.0,0.0,0.0,12.454231,0.0,0.0,0.0,0.0,0.00251104,0.0025038845,0.00251104,0.0025018218,1.0000169,1.0000181,1.0,0.0,0.0,0.0,0.0,0.0,0.0
2043824000,2043672000,0.10535679,0.105570145,0.20782946,1.1254705,1.1259987,1.0871903,0.0,0.0,0.0,0.0,0.0,0.0,0.0,12.454231,0.0,0.0,0.0,0.0,0.00251104,0.0025038845,0.00251104,0.0025018218,1.0000169,1.0000181,1.0,0.0,0.0,0.0,0.0,0.0,0.0
2043840000,2043688000,0.10535679,0.105570145,0.20782946,1.1254705,1.1259987,1.0871903,0.0,0.0,0.0,0.0,0.0,0.0,0.0,12.454231,0.0,0.0,0.0,0.0,0.0025110596,0.0025039157,0.0025110596,0.0025018295,1.000017,1.0000181,1.0,0.0,0.0,0.0,0.0,0.0,0.0
2043848000,2043696000,0.10535679,0.105570145,0.20782946,1.1254705,1.1259987,1.0871903,0.0,0.0,0.0,0.0,0.0,0.0,0.0,12.454231,0.0,0.0,0.0,0.0,0.0025110596,0.0025039157,0.0025110596,0.0025018295,1.000017,1.0000181,1.0,0.0,0.0,0.0,0.0,0.0,0.0
2043856000,2043704000,0.10535679,0.105570145,0.20782946,1.1254705,1.1259987,1.0871903,0.0,0.0,0.0,0.0,0.0,0.0,0.0,12.454231,0.0,0.0,0.0,0.0,0.0025110596,0.0025039157,0.0025110596,0.0025018295,1.000017,1.0000184,1.0,0.0,0.0,0.0,0.0,0.0,0.0
2043864000,2043712000,0.10535679,0.105570145,0.20782946,1.1254705,1.1259987,1.0871903,0.0,0.0,0.0,0.0,0.0,0.0,0.0,12.454231,0.0,0.0,0.0,0.0,0.0025110596,0.0025039157,0.0025110596,0.0025018295,1.000017,1.0000184,1.0,0.0,0.0,0.0,0.0,0.0,0.0
2043880000,2043728000,0.10535679,0.105570145,0.20782946,1.1254705,1.1259987,1.0871903,0.0,0.0,0.0,0.0,0.0,0.0,0.0,12.454231,0.0,0.0,0.0,0.0,0.0025110596,0.0025039157,0.0025110596,0.0025018295,1.0000172,1.0000184,1.0,0.0,0.0,0.0,0.0,0.0,0.0
2043888000,2043736000,0.10535679,0.105570145,0.20782946,1.1254705,1.1259987,1.0871903,0.0,0.0,0.0,0.0,0.0,0.0,0.0,12.455759,0.0,0.0,0.0,0.0,0.0025110596,0.0025039157,0.0025110596,0.0025018295,1.0000172,1.0000184,1.0,0.0,0.0,0.0,0.0,0.0,0.0
2043896000,2043744000,0.10535679,0.105570145,0.20782946,1.1254705,1.1259987,1.0871903,0.0,0.0,0.0,0.0,0.0,0.0,0.0,12.455759,0.0,0.0,0.0,0.0,0.0025110596,0.0025039157,0.0025110596,0.0025018295,1.0000172,1.0000185,1.0,0.0,0.0,0.0,0.0,0.0,0.0
2043904000,2043752000,0.10535679,0.105570145,0.20782946,1.1254705,1.1259987,1.0871903,0.0,0.0,0.0,0.0,0.0,0.0,0.0,12.455759,0.0,0.0,0.0,0.0,0.0025110596,0.0025039157,0.0025110596,0.0025018295,1.0000172,1.0000185,1.0,0.0,0.0,0.0,0.0,0.0,0.0
2043920000,2043768000,0.10535679,0.105570145,0.20782946,1.1254705,1.1259987,1.0871903,0.0,0.0,0.0,0.0,0.0,0.0,0.0,12.455759,0.0,0.0,0.0,0.0,0.0025110834,0.0025039522,0.0025110834,0.0025018386,1.0000173,1.0000185,1.0,0.0,0.0,0.0,0.0,0.0,0.0
2043928000,2043776000,0.10535679,0.105570145,0.20782946,1.1254705,1.1259987,1.0871903,0.0,0.0,0.0,0.0,0.0,0.0,0.0,12.455759,0.0,0.0,0.0,0.0,0.0025110834,0.0025039522,0.0025110834,0.0025018386,1.0000173,1.0000185,1.0,0.0,0.0,0.0,0.0,0.0,0.0
2043936000,2043784000,0.10535679,0.105570145,0.20782946,1.1254705,1.1259987,1.0871903,0.0,0.0,0.0,0.0,0.0,0.0,0.0,12.455759,0.0,0.0,0.0,0.0,0.0025110834,0.0025039522,0.0025110834,0.0025018386,1.0000173,1.0000186,1.0,0.0,0.0,0.0,0.0,0.0,0.0
2043944000,2043792000,0.10535679,0.105570145,0.20782946,1.1254705,1.1259987,1.0871903,0.0,0.0,0.0,0.0,0.0,0.0,0.0,12.455759,0.0,0.0,0.0,0.0,0.0025110834,0.0025039522,0.0025110834,0.0025018386,1.0000173,1.0000186,1.0,0.0,0.0,0.0,0.0,0.0,0.0
2043960000,2043808000,0.10535679,0.105570145,0.20782946,1.1254705,1.1259987,1.0871903,0.0,0.0,0.0,0.0,0.0,0.0,0.0,12.456938,0.0,0.0,0.0,0.0,0.0025110834,0.0025039522,0.0025110834,0.0025018386,1.0000174,1.0000186,1.0,0.0,0.0,0.0,0.0,0.0,0.0
2043968000,2043816000,0.10535679,0.105570145,0.20782946,1.1254705,1.1259987,1.0871903,0.0,0.0,0.0,0.0,0.0,0.0,0.0,12.456938,0.0,0.0,0.0,0.0,0.0025110834,0.0025039522,0.0025110834,0.0025018386,1.0000174,1.0000186,1.0,0.0,0.0,0.0,0.0,0.0,0.0
2043976000,2043824000,0.10535679,0.105570145,0.20782946,1.1254705,1.1259987,1.0871903,0.0,0.0,0.0,0.0,0.0,0.0,0.0,12.456938,0.0,0.0,0.0,0.0,0.0025110834,0.0025039522,0.0025110834,0.0025018386,1.0000174,1.0000187,1.0,0.0,0.0,0.0,0.0,0.0,0.0
2043984000,2043832000,0.10535679,0.105570145,0.20782946,1.1254705,1.1259987,1.0871903,0.0,0.0,0.0,0.0,0.0,0.0,0.0,12.456938,0.0,0.0,0.0,0.0,0.0025111113,0.0025039883,0.0025111113,0.0025018484,1.0000174,1.0000187,1.0,0.0,0.0,0.0,0.0,0.0,0.0
2044000000,2043848000,0.10535679,0.105570145,0.20782946,1.1254705,1.1259987,1.0871903,0.0,0.0,0.0,0.0,0.0,0.0,0.0,12.456938,0.0,0.0,0.0,0.0,0.0025111113,0.0025039883,0.0025111113,0.0025018484,1.0000175,1.0000187,1.0,0.0,0.0,0.0,0.0,0.0,0.0
2044008000,2043856000,0.10535679,0.105570145,0.20782946,1.1254705,1.1259987,1.0871903,0.0,0.0,0.0,0.0,0.0,0.0,0.0,12.45776,0.0,0.0,0.0,0.0,0.0025111113,0.0025039883,0.0025111113,0.0025018484,1.0000175,1.0000187,1.0,0.0,0.0,0.0,0.0,0.0,0.0
2044016000,2043864000,0.10535679,0.105570145,0.20782946,1.1254705,1.1259987,1.0871903,0.0,0.0,0.0,0.0,0.0,0.0,0.0,12.45776,0.0,0.0,0.0,0.0,0.0025111113,0.0025039883,0.0025111113,0.0025018484,1.0000175,1.0000188,1.0,0.0,0.0,0.0,0.0,0.0,0.0
2044024000,2043872000,0.10535679,0.105570145,0.20782946,1.1254705,1.1259987,1.0871903,0.0,0.0,0.0,0.0,0.0,0.0,0.0,12.45776,0.0,0.0,0.0,0.0,0.0025111113,0.0025039883,0.0025111113,0.0025018484,1.0000175,1.0000188,1.0,0.0,0.0,0.0,0.0,0.0,0.0
2044040000,2043888000,0.10535679,0.105570145,0.20782946,1.1254705,1.1259987,1.0871903,0.0,0.0,0.0,0.0,0.0,0.0,0.0,12.45776,0.0,0.0,0.0,0.0,0.0025111113,0.0025039883,0.0025111113,0.0025018484,1.0000176,1.0000188,1.0,0.0,0.0,0.0,0.0,0.0,0.0
2044048000,2043896000,0.10535679,0.105570145,0.20782946,1.1254705,1.1259987,1.0871903,0.0,0.0,0.0,0.0,0.0,0.0,0.0,12.45776,0.0,0.0,0.0,0.0,0.0025111113,0.0025039883,0.0025111113,0.0025018484,1.0000176,1.000019,1.0,0.0,0.0,0.0,0.0,0.0,0.0
2044056000,2043904000,0.10535424,0.105571605,0.20782584,1.125471,1.1260058,1.087051,0.0,0.0,0.0,0.0,0.0,0.0,0.0,12.45776,0.0,0.0,0.0,0.0,0.0025111379,0.0025040263,0.0025111379,0.002501859,1.0000165,1.0000176,1.0,0.0,0.0,0.0,0.0,0.0,0.0
2044064000,2043912000,0.10535424,0.105571605,0.20782584,1.125471,1.1260058,1.087051,0.0,0.0,0.0,0.0,0.0,0.0,0.0,12.45776,0.0,0.0,0.0,0.0,0.0025111379,0.0025040263,0.0025111379,0.002501859,1.0000165,1.0000176,1.0,0.0,0.0,0.0,0.0,0.0,0.0
2044080000,2043928000,0.10535424,0.105571605,0.20782584,1.125471,1.1260058,1.087051,0.0,0.0,0.0,0.0,0.0,0.0,0.0,12.451221,0.0,0.0,0.0,0.0,0.0025111379,0.0025040263,0.0025111379,0.002501859,1.0000166,1.0000176,1.0,0.0,0.0,0.0,0.0,0.0,0.0
2044088000,2043936000,0.10535424,0.105571605,0.20782584,1.125471,1.1260058,1.087051,0.0,0.0,0.0,0.0,0.0,0.0,0.0,12.451221,0.0,0.0,0.0,0.0,0.0025111379,0.0025040263,0.0025111379,0.002501859,1.0000166,1.0000176,1.0,0.0,0.0,0.0,0.0,0.0,0.0
2044096000,2043944000,0.10535424,0.105571605,0.20782584,1.125471,1.1260058,1.087051,0.0,0.0,0.0,0.0,0.0,0.0,0.0,12.451221,0.0,0.0,0.0,0.0,0.0025111379,0.0025040263,0.0025111379,0.002501859,1.0000166,1.0000178,1.0,0.0,0.0,0.0,0.0,0.0,0.0
2044104000,2043952000,0.10535424,0.105571605,0.20782584,1.125471,1.1260058,1.087051,0.0,0.0,0.0,0.0,0.0,0.0,0.0,12.451221,0.0,0.0,0.0,0.0,0.0025111379,0.0025040263,0.0025111379,0.002501859,1.0000166,1.0000178,1.0,0.0,0.0,0.0,0.0,0.0,0.0
2044120000,2043968000,0.10535424,0.105571605,0.20782584,1.125471,1.1260058,1.087051,0.0,0.0,0.0,0.0,0.0,0.0,0.0,12.451221,0.0,0.0,0.0,0.0,0.0025111379,0.0025040263,0.0025111379,0.002501859,1.0000167,1.0000178,1.0,0.0,0.0,0.0,0.0,0.0,0.0
2044128000,2043976000,0.10535424,0.105571605,0.20782584,1.125471,1.1260058,1.087051,0.0,0.0,0.0,0.0,0.0,0.0,0.0,12.451221,0.0,0.0,0.0,0.0,0.002511027,0.00250386,0.002511027,0.002501815,1.0000167,1.0000178,1.0,0.0,0.0,0.0,0.0,0.0,0.0
2044136000,2043984000,0.10535424,0.105571605,0.20782584,1.125471,1.1260058,1.087051,0.0,0.0,0.0,0.0,0.0,0.0,0.0,12.451221,0.0,0.0,0.0,0.0,0.002511027,0.00250386,0.002511027,0.002501815,1.0000167,1.0000179,1.0,0.0,0.0,0.0,0.0,0.0,0.0
2044144000,2043992000,0.10535424,0.105571605,0.20782584,1.125471,1.1260058,1.087051,0.0,0.0,0.0,0.0,0.0,0.0,0.0,12.451221,0.0,0.0,0.0,0.0,0.002511027,0.00250386,0.002511027,0.002501815,1.0000167,1.0000179,1.0,0.0,0.0,0.0,0.0,0.0,0.0
2044160000,2044008000,0.10535424,0.105571605,0.20782584,1.125471,1.1260058,1.087051,0.0,0.0,0.0,0.0,0.0,0.0,0.0,12.452713,0.0,0.0,0.0,0.0,0.002511027,0.00250386,0.002511027,0.002501815,1.0000168,1.0000179,1.0,0.0,0.0,0.0,0.0,0.0,0.0
2044168000,2044016000,0.10535424,0.105571605,0.20782584,1.125471,1.1260058,1.087051,0.0,0.0,0.0,0.0,0.0,0.0,0.0,12.452713,0.0,0.0,0.0,0.0,0.002511027,0.00250386,0.002511027,0.002501815,1.0000168,1.0000179,1.0,0.0,0.0,0.0,0.0,0.0,0.0
2044176000,2044024000,0.10535424,0.105571605,0.20782584,1.125471,1.1260058,1.087051,0.0,0.0,0.0,0.0,0.0,0.0,0.0,12.452713,0.0,0.0,0.0,0.0,0.002511027,0.00250386,0.002511027,0.002501815,1.0000168,1.000018,1.0,0.0,0.0,0.0,0.0,0.0,0.0
2044184000,2044032000,0.10535424,0.105571605,0.20782584,1.125471,1.1260058,1.087051,0.0,0.0,0.0,0.0,0.0,0.0,0.0,12.452713,0.0,0.0,0.0,0.0,0.002511027,0.00250386,0.002511027,0.002501815,1.0000168,1.000018,1.0,0.0,0.0,0.0,0.0,0.0,0.0
2044200000,2044048000,0.10535424,0.105571605,0.20782584,1.125471,1.1260058,1.087051,0.0,0.0,0.0,0.0,0.0,0.0,0.0,12.452713,0.0,0.0,0.0,0.0,0.002511054,0.0025038968,0.002511054,0.0025018246,1.0000169,1.000018,1.0,0.0,0.0,0.0,0.0,0.0,0.0
2044208000,2044056000,0.10535424,0.105571605,0.20782584,1.125471,1.1260058,1.087051,0.0,0.0,0.0,0.0,0.0,0.0,0.0,12.452713,0.0,0.0,0.0,0.0,0.002511054,0.0025038968,0.002511054,0.0025018246,1.0000169,1.000018,1.0,0.0,0.0,0.0,0.0,0.0,0.0
2044216000,2044064000,0.10535424,0.105571605,0.20782584,1.125471,1.1260058,1.087051,0.0,0.0,0.0,0.0,0.0,0.0,0.0,12.452713,0.0,0.0,0.0,0.0,0.002511054,0.0025038968,0.002511054,0.0025018246,1.0000169,1.0000181,1.0,0.0,0.0,0.0,0.0,0.0,0.0
2044224000,2044072000,0.10535424,0.105571605,0.20782584,1.125471,1.1260058,1.087051,0.0,0.0,0.0,0.0,0.0,0.0,0.0,12.454224,0.0,0.0,0.0,0.0,0.002511054,0.0025038968,0.002511054,0.0025018246,1.0000169,1.0000181,1.0,0.0,0.0,0.0,0.0,0.0,0.0
2044240000,2044088000,0.10535424,0.105571605,0.20782584,1.125471,1.1260058,1.087051,0.0,0.0,0.0,0.0,0.0,0.0,0.0,12.454224,0.0,0.0,0.0,0.0,0.002511054,0.0025038968,0.002511054,0.0025018246,1.000017,1.0000182,1.0,0.0,0.0,0.0,0.0,0.0,0.0
2044248000,2044096000,0.10535424,0.105571605,0.20782584,1.125471,1.1260058,1.087051,0.0,0.0,0.0,0.0,0.0,0.0,0.0,12.454224,0.0,0.0,0.0,0.0,0.002511054,0.0025038968,0.002511054,0.0025018246,1.000017,1.0000182,1.0,0.0,0.0,0.0,0.0,0.0,0.0
2044256000,2044104000,0.10535424,0.105571605,0.20782584,1.125471,1.1260058,1.087051,0.0,0.0,0.0,0.0,0.0,0.0,0.0,12.454224,0.0,0.0,0.0,0.0,0.002511054,0.0025038968,0.002511054,0.0025018246,1.000017,1.0000184,1.0,0.0,0.0,0.0,0.0,0.0,0.0
2044264000,2044112000,0.10535424,0.105571605,0.20782584,1.125471,1.1260058,1.087051,0.0,0.0,0.0,0.0,0.0,0.0,0.0,12.454224,0.0,0.0,0.0,0.0,0.0025110734,0.0025039278,0.0025110734,0.0025018335,1.000017,1.0000184,1.0,0.0,0.0,0.0,0.0,0.0,0.0
2044280000,2044128000,0.10535424,0.105571605,0.20782584,1.125471,1.1260058,1.087051,0.0,0.0,0.0,0.0,0.0,0.0,0.0,12.454224,0.0,0.0,0.0,0.0,0.0025110734,0.0025039278,0.0025110734,0.0025018335,1.0000172,1.0000184,1.0,0.0,0.0,0.0,0.0,0.0,0.0
2044288000,2044136000,0.10535424,0.105571605,0.20782584,1.125471,1.1260058,1.087051,0.0,0.0,0.0,0.0,0.0,0.0,0.0,12.454224,0.0,0.0,0.0,0.0,0.0025110734,0.0025039278,0.0025110734,0.0025018335,1.0000172,1.0000184,1.0,0.0,0.0,0.0,0.0,0.0,0.0
2044296000,2044144000,0.10535424,0.105571605,0.20782584,1.125471,1.1260058,1.087051,0.0,0.0,0.0,0.0,0.0,0.0,0.0,12.455755,0.0,0.0,0.0,0.0,0.0025110734,0.0025039278,0.0025110734,0.0025018335,1.0000172,1.0000185,1.0,0.0,0.0,0.0,0.0,0.0,0.0
2044304000,2044152000,0.10535424,0.105571605,0.20782584,1.125471,1.1260058,1.087051,0.0,0.0,0.0,0.0,0.0,0.0,0.0,12.455755,0.0,0.0,0.0,0.0,0.0025110734,0.0025039278,0.0025110734,0.0025018335,1.0000172,1.0000185,1.0,0.0,0.0,0.0,0.0,0.0,0.0
2044320000,2044168000,0.10535424,0.105571605,0.20782584,1.125471,1.1260058,1.087051,0.0,0.0,0.0,0.0,0.0,0.0,0.0,12.455755,0.0,0.0,0.0,0.0,0.0025110734,0.0025039278,0.0025110734,0.0025018335,1.0000173,1.0000185,1.0,0.0,0.0,0.0,0.0,0.0,0.0
2044328000,2044176000,0.10535424,0.105571605,0.20782584,1.125471,1.1260058,1.087051,0.0,0.0,0.0,0.0,0.0,0.0,0.0,12.455755,0.0,0.0,0.0,0.0,0.0025110734,0.0025039278,0.0025110734,0.0025018335,1.0000173,1.0000185,1.0,0.0,0.0,0.0,0.0,0.0,0.0
2044336000,2044184000,0.10535424,0.105571605,0.20782584,1.125471,1.1260058,1.087051,0.0,0.0,0.0,0.0,0.0,0.0,0.0,12.455755,0.0,0.0,0.0,0.0,0.0025110962,0.0025039644,0.0025110962,0.0025018435,1.0000173,1.0000186,1.0,0.0,0.0,0.0,0.0,0.0,0.0
2044344000,2044192000,0.10535424,0.105571605,0.20782584,1.125471,1.1260058,1.087051,0.0,0.0,0.0,0.0,0.0,0.0,0.0,12.455755,0.0,0.0,0.0,0.0,0.0025110962,0.0025039644,0.0025110962,0.0025018435,1.0000173,1.0000186,1.0,0.0,0.0,0.0,0.0,0.0,0.0
2044360000,2044208000,0.10535424,0.105571605,0.20782584,1.125471,1.1260058,1.087051,0.0,0.0,0.0,0.0,0.0,0.0,0.0,12.455755,0.0,0.0,0.0,0.0,0.0025110962,0.0025039644,0.0025110962,0.0025018435,1.0000174,1.0000186,1.0,0.0,0.0,0.0,0.0,0.0,0.0
2044368000,2044216000,0.10535424,0.105571605,0.20782584,1.125471,1.1260058,1.087051,0.0,0.0,0.0,0.0,0.0,0.0,0.0,12.457308,0.0,0.0,0.0,0.0,0.0025110962,0.0025039644,0.0025110962,0.0025018435,1.0000174,1.0000186,1.0,0.0,0.0,0.0,0.0,0.0,0.0
2044376000,2044224000,0.10535424,0.105571605,0.20782584,1.125471,1.1260058,1.087051,0.0,0.0,0.0,0.0,0.0,0.0,0.0,12.457308,0.0,0.0,0.0,0.0,0.0025110962,0.0025039644,0.0025110962,0.0025018435,1.0000174,1.0000187,1.0,0.0,0.0,0.0,0.0,0.0,0.0
2044384000,2044232000,0.10535424,0.105571605,0.20782584,1.125471,1.1260058,1.087051,0.0,0.0,0.0,0.0,0.0,0.0,0.0,12.457308,0.0,0.0,0.0,0.0,0.0025110962,0.0025039644,0.0025110962,0.0025018435,1.0000174,1.0000187,1.0,0.0,0.0,0.0,0.0,0.0,0.0
2044400000,2044248000,0.10535424,0.105571605,0.20782584,1.125471,1.1260058,1.087051,0.0,0.0,0.0,0.0,0.0,0.0,0.0,12.457308,0.0,0.0,0.0,0.0,0.002511115,0.0025039962,0.002511115,0.0025018523,1.0000175,1.0000187,1.0,0.0,0.0,0.0,0.0,0.0,0.0
2044408000,2044256000,0.10535424,0.105571605,0.20782584,1.125471,1.1260058,1.087051,0.0,0.0,0.0,0.0,0.0,0.0,0.0,12.457308,0.0,0.0,0.0,0.0,0.002511115,0.0025039962,0.002511115,0.0025018523,1.0000175,1.0000187,1.0,0.0,0.0,0.0,0.0,0.0,0.0
2044416000,2044264000,0.10535424,0.105571605,0.20782584,1.125471,1.1260058,1.087051,0.0,0.0,0.0,0.0,0.0,0.0,0.0,12.457308,0.0,0.0,0.0,0.0,0.002511115,0.0025039962,0.002511115,0.0025018523,1.0000175,1.0000188,1.0,0.0,0.0,0.0,0.0,0.0,0.0
2044424000,2044272000,0.10535424,0.105571605,0.20782584,1.125471,1.1260058,1.087051,0.0,0.0,0.0,0.0,0.0,0.0,0.0,12.457308,0.0,0.0,0.0,0.0,0.002511115,0.0025039962,0.002511115,0.0025018523,1.0000175,1.0000188,1.0,0.0,0.0,0.0,0.0,0.0,0.0
2044440000,2044288000,0.10535424,0.105571605,0.20782584,1.125471,1.1260058,1.087051,0.0,0.0,0.0,0.0,0.0,0.0,0.0,12.458879,0.0,0.0,0.0,0.0,0.002511115,0.0025039962,0.002511115,0.0025018523,1.0000176,1.0000188,1.0,0.0,0.0,0.0,0.0,0.0,0.0
2044448000,2044296000,0.10535424,0.105571605,0.20782584,1.125471,1.1260058,1.087051,0.0,0.0,0.0,0.0,0.0,0.0,0.0,12.458879,0.0,0.0,0.0,0.0,0.002511115,0.0025039962,0.002511115,0.0025018523,1.0000176,1.0000188,1.0,0.0,0.0,0.0,0.0,0.0,0.0
2044456000,2044304000,0.105363846,0.10558082,0.20782246,1.1254852,1.126018,1.0869178,0.0,0.0,0.0,0.0,0.0,0.0,0.0,12.458879,0.0,0.0,0.0,0.0,0.002511115,0.0025039962,0.002511115,0.0025018523,1.0000165,1.0000176,1.0,0.0,0.0,0.0,0.0,0.0,0.0
2044464000,2044312000,0.105363846,0.10558082,0.20782246,1.1254852,1.126018,1.0869178,0.0,0.0,0.0,0.0,0.0,0.0,0.0,12.458879,0.0,0.0,0.0,0.0,0.002511115,0.0025039962,0.002511115,0.0025018523,1.0000165,1.0000176,1.0,0.0,0.0,0.0,0.0,0.0,0.0
2044480000,2044328000,0.105363846,0.10558082,0.20782246,1.1254852,1.126018,1.0869178,0.0,0.0,0.0,0.0,0.0,0.0,0.0,12.458879,0.0,0.0,0.0,0.0,0.00251101,0.002503831,0.00251101,0.0025018076,1.0000166,1.0000176,1.0,0.0,0.0,0.0,0.0,0.0,0.0
2044488000,2044336000,0.105363846,0.10558082,0.20782246,1.1254852,1.126018,1.0869178,0.0,0.0,0.0,0.0,0.0,0.0,0.0,12.458879,0.0,0.0,0.0,0.0,0.00251101,0.002503831,0.00251101,0.0025018076,1.0000166,1.0000176,1.0,0.0,0.0,0.0,0.0,0.0,0.0
2044496000,2044344000,0.105363846,0.10558082,0.20782246,1.1254852,1.126018,1.0869178,0.0,0.0,0.0,0.0,0.0,0.0,0.0,12.458879,0.0,0.0,0.0,0.0,0.00251101,0.002503831,0.00251101,0.0025018076,1.0000166,1.0000176,1.0,0.0,0.0,0.0,0.0,0.0,0.0
2044504000,2044352000,0.105363846,0.10558082,0.20782246,1.1254852,1.126018,1.0869178,0.0,0.0,0.0,0.0,0.0,0.0,0.0,12.458879,0.0,0.0,0.0,0.0,0.00251101,0.002503831,0.00251101,0.0025018076,1.0000166,1.0000178,1.0,0.0,0.0,0.0,0.0,0.0,0.0
2044520000,2044368000,0.105363846,0.10558082,0.20782246,1.1254852,1.126018,1.0869178,0.0,0.0,0.0,0.0,0.0,0.0,0.0,12.452271,0.0,0.0,0.0,0.0,0.00251101,0.002503831,0.00251101,0.0025018076,1.0000167,1.0000178,1.0,0.0,0.0,0.0,0.0,0.0,0.0
2044528000,2044376000,0.105363846,0.10558082,0.20782246,1.1254852,1.126018,1.0869178,0.0,0.0,0.0,0.0,0.0,0.0,0.0,12.452271,0.0,0.0,0.0,0.0,0.00251101,0.002503831,0.00251101,0.0025018076,1.0000167,1.0000178,1.0,0.0,0.0,0.0,0.0,0.0,0.0
2044536000,2044384000,0.105363846,0.10558082,0.20782246,1.1254852,1.126018,1.0869178,0.0,0.0,0.0,0.0,0.0,0.0,0.0,12.452271,0.0,0.0,0.0,0.0,0.0025110256,0.0025038612,0.0025110256,0.0025018153,1.0000167,1.0000178,1.0,0.0,0.0,0.0,0.0,0.0,0.0
2044544000,2044392000,0.105363846,0.10558082,0.20782246,1.1254852,1.126018,1.0869178,0.0,0.0,0.0,0.0,0.0,0.0,0.0,12.452271,0.0,0.0,0.0,0.0,0.0025110256,0.0025038612,0.0025110256,0.0025018153,1.0000167,1.0000179,1.0,0.0,0.0,0.0,0.0,0.0,0.0
2044560000,2044408000,0.105363846,0.10558082,0.20782246,1.1254852,1.126018,1.0869178,0.0,0.0,0.0,0.0,0.0,0.0,0.0,12.452271,0.0,0.0,0.0,0.0,0.0025110256,0.0025038612,0.0025110256,0.0025018153,1.0000168,1.0000179,1.0,0.0,0.0,0.0,0.0,0.0,0.0
2044568000,2044416000,0.105363846,0.10558082,0.20782246,1.1254852,1.126018,1.0869178,0.0,0.0,0.0,0.0,0.0,0.0,0.0,12.452271,0.0,0.0,0.0,0.0,0.0025110256,0.0025038612,0.0025110256,0.0025018153,1.0000168,1.0000179,1.0,0.0,0.0,0.0,0.0,0.0,0.0
2044576000,2044424000,0.105363846,0.10558082,0.20782246,1.1254852,1.126018,1.0869178,0.0,0.0,0.0,0.0,0.0,0.0,0.0,12.453408,0.0,0.0,0.0,0.0,0.0025110256,0.0025038612,0.0025110256,0.0025018153,1.0000168,1.000018,1.0,0.0,0.0,0.0,0.0,0.0,0.0
2044584000,2044432000,0.105363846,0.10558082,0.20782246,1.1254852,1.126018,1.0869178,0.0,0.0,0.0,0.0,0.0,0.0,0.0,12.453408,0.0,0.0,0.0,0.0,0.0025110256,0.0025038612,0.0025110256,0.0025018153,1.0000168,1.000018,1.0,0.0,0.0,0.0,0.0,0.0,0.0
2044600000,2044448000,0.105363846,0.10558082,0.20782246,1.1254852,1.126018,1.0869178,0.0,0.0,0.0,0.0,0.0,0.0,0.0,12.453408,0.0,0.0,0.0,0.0,0.0025110256,0.0025038612,0.0025110256,0.0025018153,1.0000169,1.000018,1.0,0.0,0.0,0.0,0.0,0.0,0.0
2044608000,2044456000,0.105363846,0.10558082,0.20782246,1.1254852,1.126018,1.0869178,0.0,0.0,0.0,0.0,0.0,0.0,0.0,12.453408,0.0,0.0,0.0,0.0,0.0025110513,0.0025039,0.0025110513,0.002501825,1.0000169,1.000018,1.0,0.0,0.0,0.0,0.0,0.0,0.0
2044616000,2044464000,0.105363846,0.10558082,0.20782246,1.1254852,1.126018,1.0869178,0.0,0.0,0.0,0.0,0.0,0.0,0.0,12.453408,0.0,0.0,0.0,0.0,0.0025110513,0.0025039,0.0025110513,0.002501825,1.0000169,1.0000181,1.0,0.0,0.0,0.0,0.0,0.0,0.0
2044624000,2044472000,0.105363846,0.10558082,0.20782246,1.1254852,1.126018,1.0869178,0.0,0.0,0.0,0.0,0.0,0.0,0.0,12.453408,0.0,0.0,0.0,0.0,0.0025110513,0.0025039,0.0025110513,0.002501825,1.0000169,1.0000182,1.0,0.0,0.0,0.0,0.0,0.0,0.0
2044640000,2044488000,0.105363846,0.10558082,0.20782246,1.1254852,1.126018,1.0869178,0.0,0.0,0.0,0.0,0.0,0.0,0.0,12.454202,0.0,0.0,0.0,0.0,0.0025110513,0.0025039,0.0025110513,0.002501825,1.000017,1.0000182,1.0,0.0,0.0,0.0,0.0,0.0,0.0
2044648000,2044496000,0.105363846,0.10558082,0.20782246,1.1254852,1.126018,1.0869178,0.0,0.0,0.0,0.0,0.0,0.0,0.0,12.454202,0.0,0.0,0.0,0.0,0.0025110513,0.0025039,0.0025110513,0.002501825,1.000017,1.0000182,1.0,0.0,0.0,0.0,0.0,0.0,0.0
2044656000,2044504000,0.105363846,0.10558082,0.20782246,1.1254852,1.126018,1.0869178,0.0,0.0,0.0,0.0,0.0,0.0,0.0,12.454202,0.0,0.0,0.0,0.0,0.0025110513,0.0025039,0.0025110513,0.002501825,1.000017,1.0000184,1.0,0.0,0.0,0.0,0.0,0.0,0.0
2044664000,2044512000,0.105363846,0.10558082,0.20782246,1.1254852,1.126018,1.0869178,0.0,0.0,0.0,0.0,0.0,0.0,0.0,12.454202,0.0,0.0,0.0,0.0,0.0025110513,0.0025039,0.0025110513,0.002501825,1.000017,1.0000184,1.0,0.0,0.0,0.0,0.0,0.0,0.0
2044680000,2044528000,0.105363846,0.10558082,0.20782246,1.1254852,1.126018,1.0869178,0.0,0.0,0.0,0.0,0.0,0.0,0.0,12.454202,0.0,0.0,0.0,0.0,0.0025110724,0.0025039378,0.0025110724,0.0025018349,1.0000172,1.0000184,1.0,0.0,0.0,0.0,0.0,0.0,0.0
2044688000,2044536000,0.105363846,0.10558082,0.20782246,1.1254852,1.126018,1.0869178,0.0,0.0,0.0,0.0,0.0,0.0,0.0,12.454202,0.0,0.0,0.0,0.0,0.0025110724,0.0025039378,0.0025110724,0.0025018349,1.0000172,1.0000184,1.0,0.0,0.0,0.0,0.0,0.0,0.0
2044696000,2044544000,0.105363846,0.10558082,0.20782246,1.1254852,1.126018,1.0869178,0.0,0.0,0.0,0.0,0.0,0.0,0.0,12.454202,0.0,0.0,0.0,0.0,0.0025110724,0.0025039378,0.0025110724,0.0025018349,1.0000172,1.0000184,1.0,0.0,0.0,0.0,0.0,0.0,0.0
2044704000,2044552000,0.105363846,0.10558082,0.20782246,1.1254852,1.126018,1.0869178,0.0,0.0,0.0,0.0,0.0,0.0,0.0,12.455737,0.0,0.0,0.0,0.0,0.0025110724,0.0025039378,0.0025110724,0.0025018349,1.0000172,1.0000185,1.0,0.0,0.0,0.0,0.0,0.0,0.0
2044720000,2044568000,0.105363846,0.10558082,0.20782246,1.1254852,1.126018,1.0869178,0.0,0.0,0.0,0.0,0.0,0.0,0.0,12.455737,0.0,0.0,0.0,0.0,0.0025110724,0.0025039378,0.0025110724,0.0025018349,1.0000173,1.0000185,1.0,0.0,0.0,0.0,0.0,0.0,0.0
2044728000,2044576000,0.105363846,0.10558082,0.20782246,1.1254852,1.126018,1.0869178,0.0,0.0,0.0,0.0,0.0,0.0,0.0,12.455737,0.0,0.0,0.0,0.0,0.0025110724,0.0025039378,0.0025110724,0.0025018349,1.0000173,1.0000185,1.0,0.0,0.0,0.0,0.0,0.0,0.0
2044736000,2044584000,0.105363846,0.10558082,0.20782246,1.1254852,1.126018,1.0869178,0.0,0.0,0.0,0.0,0.0,0.0,0.0,12.455737,0.0,0.0,0.0,0.0,0.0025110724,0.0025039378,0.0025110724,0.0025018349,1.0000173,1.0000186,1.0,0.0,0.0,0.0,0.0,0.0,0.0
2044744000,2044592000,0.105363846,0.10558082,0.20782246,1.1254852,1.126018,1.0869178,0.0,0.0,0.0,0.0,0.0,0.0,0.0,12.455737,0.0,0.0,0.0,0.0,0.0025110724,0.0025039378,0.0025110724,0.0025018349,1.0000173,1.0000186,1.0,0.0,0.0,0.0,0.0,0.0,0.0
2044760000,2044608000,0.105363846,0.10558082,0.20782246,1.1254852,1.126018,1.0869178,0.0,0.0,0.0,0.0,0.0,0.0,0.0,12.455737,0.0,0.0,0.0,0.0,0.0025111004,0.0025039741,0.0025111004,0.002501845,1.0000174,1.0000186,1.0,0.0,0.0,0.0,0.0,0.0,0.0
2044768000,2044616000,0.105363846,0.10558082,0.20782246,1.1254852,1.126018,1.0869178,0.0,0.0,0.0,0.0,0.0,0.0,0.0,12.455737,0.0,0.0,0.0,0.0,0.0025111004,0.0025039741,0.0025111004,0.002501845,1.0000174,1.0000186,1.0,0.0,0.0,0.0,0.0,0.0,0.0
2044776000,2044624000,0.105363846,0.10558082,0.20782246,1.1254852,1.126018,1.0869178,0.0,0.0,0.0,0.0,0.0,0.0,0.0,12.4572935,0.0,0.0,0.0,0.0,0.0025111004,0.0025039741,0.0025111004,0.002501845,1.0000174,1.0000187,1.0,0.0,0.0,0.0,0.0,0.0,0.0
2044784000,2044632000,0.105363846,0.10558082,0.20782246,1.1254852,1.126018,1.0869178,0.0,0.0,0.0,0.0,0.0,0.0,0.0,12.4572935,0.0,0.0,0.0,0.0,0.0025111004,0.0025039741,0.0025111004,0.002501845,1.0000174,1.0000187,1.0,0.0,0.0,0.0,0.0,0.0,0.0
2044800000,2044648000,0.105363846,0.10558082,0.20782246,1.1254852,1.126018,1.0869178,0.0,0.0,0.0,0.0,0.0,0.0,0.0,12.4572935,0.0,0.0,0.0,0.0,0.0025111004,0.0025039741,0.0025111004,0.002501845,1.0000175,1.0000187,1.0,0.0,0.0,0.0,0.0,0.0,0.0
2044808000,2044656000,0.105363846,0.10558082,0.20782246,1.1254852,1.126018,1.0869178,0.0,0.0,0.0,0.0,0.0,0.0,0.0,12.4572935,0.0,0.0,0.0,0.0,0.0025111004,0.0025039741,0.0025111004,0.002501845,1.0000175,1.0000187,1.0,0.0,0.0,0.0,0.0,0.0,0.0
2044816000,2044664000,0.105363846,0.10558082,0.20782246,1.1254852,1.126018,1.0869178,0.0,0.0,0.0,0.0,0.0,0.0,0.0,12.4572935,0.0,0.0,0.0,0.0,0.0025111004,0.0025039741,0.0025111004,0.002501845,1.0000175,1.0000188,1.0,0.0,0.0,0.0,0.0,0.0,0.0
2044824000,2044672000,0.105363846,0.10558082,0.20782246,1.1254852,1.126018,1.0869178,0.0,0.0,0.0,0.0,0.0,0.0,0.0,12.4572935,0.0,0.0,0.0,0.0,0.0025111283,0.0025040105,0.0025111283,0.0025018544,1.0000176,1.0000188,1.0,0.0,0.0,0.0,0.0,0.0,0.0
2044840000,2044688000,0.105363846,0.10558082,0.20782246,1.1254852,1.126018,1.0869178,0.0,0.0,0.0,0.0,0.0,0.0,0.0,12.4572935,0.0,0.0,0.0,0.0,0.0025111283,0.0025040105,0.0025111283,0.0025018544,1.0000178,1.0000188,1.0,0.0,0.0,0.0,0.0,0.0,0.0
2044848000,2044696000,0.105363846,0.10558082,0.20782246,1.1254852,1.126018,1.0869178,0.0,0.0,0.0,0.0,0.0,0.0,0.0,12.458869,0.0,0.0,0.0,0.0,0.0025111283,0.0025040105,0.0025111283,0.0025018544,1.0000178,1.0000188,1.0,0.0,0.0,0.0,0.0,0.0,0.0
2044856000,2044704000,0.10535549,0.10557602,0.20781901,1.1254832,1.1260223,1.0867854,0.0,0.0,0.0,0.0,0.0,0.0,0.0,12.458869,0.0,0.0,0.0,0.0,0.0025111283,0.0025040105,0.0025111283,0.0025018544,1.0000165,1.0000175,1.0,0.0,0.0,0.0,0.0,0.0,0.0
2044864000,2044712000,0.10535549,0.10557602,0.20781901,1.1254832,1.1260223,1.0867854,0.0,0.0,0.0,0.0,0.0,0.0,0.0,12.458869,0.0,0.0,0.0,0.0,0.0025111283,0.0025040105,0.0025111283,0.0025018544,1.0000165,1.0000176,1.0,0.0,0.0,0.0,0.0,0.0,0.0
2044880000,2044728000,0.10535549,0.10557602,0.20781901,1.1254832,1.1260223,1.0867854,0.0,0.0,0.0,0.0,0.0,0.0,0.0,12.458869,0.0,0.0,0.0,0.0,0.0025111283,0.0025040105,0.0025111283,0.0025018544,1.0000166,1.0000176,1.0,0.0,0.0,0.0,0.0,0.0,0.0
2044888000,2044736000,0.10535549,0.10557602,0.20781901,1.1254832,1.1260223,1.0867854,0.0,0.0,0.0,0.0,0.0,0.0,0.0,12.458869,0.0,0.0,0.0,0.0,0.0025111283,0.0025040105,0.0025111283,0.0025018544,1.0000166,1.0000176,1.0,0.0,0.0,0.0,0.0,0.0,0.0
2044896000,2044744000,0.10535549,0.10557602,0.20781901,1.1254832,1.1260223,1.0867854,0.0,0.0,0.0,0.0,0.0,0.0,0.0,12.458869,0.0,0.0,0.0,0.0,0.0025110205,0.002503844,0.0025110205,0.0025018095,1.0000166,1.0000176,1.0,0.0,0.0,0.0,0.0,0.0,0.0
2044904000,2044752000,0.10535549,0.10557602,0.20781901,1.1254832,1.1260223,1.0867854,0.0,0.0,0.0,0.0,0.0,0.0,0.0,12.458869,0.0,0.0,0.0,0.0,0.0025110205,0.002503844,0.0025110205,0.0025018095,1.0000166,1.0000178,1.0,0.0,0.0,0.0,0.0,0.0,0.0
2044920000,2044768000,0.10535549,0.10557602,0.20781901,1.1254832,1.1260223,1.0867854,0.0,0.0,0.0,0.0,0.0,0.0,0.0,12.452263,0.0,0.0,0.0,0.0,0.0025110205,0.002503844,0.0025110205,0.0025018095,1.0000167,1.0000178,1.0,0.0,0.0,0.0,0.0,0.0,0.0
2044928000,2044776000,0.10535549,0.10557602,0.20781901,1.1254832,1.1260223,1.0867854,0.0,0.0,0.0,0.0,0.0,0.0,0.0,12.452263,0.0,0.0,0.0,0.0,0.0025110205,0.002503844,0.0025110205,0.0025018095,1.0000167,1.0000178,1.0,0.0,0.0,0.0,0.0,0.0,0.0
2044936000,2044784000,0.10535549,0.10557602,0.20781901,1.1254832,1.1260223,1.0867854,0.0,0.0,0.0,0.0,0.0,0.0,0.0,12.452263,0.0,0.0,0.0,0.0,0.0025110205,0.002503844,0.0025110205,0.0025018095,1.0000167,1.0000178,1.0,0.0,0.0,0.0,0.0,0.0,0.0
2044944000,2044792000,0.10535549,0.10557602,0.20781901,1.1254832,1.1260223,1.0867854,0.0,0.0,0.0,0.0,0.0,0.0,0.0,12.452263,0.0,0.0,0.0,0.0,0.0025110205,0.002503844,0.0025110205,0.0025018095,1.0000167,1.0000179,1.0,0.0,0.0,0.0,0.0,0.0,0.0
2044960000,2044808000,0.10535549,0.10557602,0.20781901,1.1254832,1.1260223,1.0867854,0.0,0.0,0.0,0.0,0.0,0.0,0.0,12.452263,0.0,0.0,0.0,0.0,0.0025110205,0.002503844,0.0025110205,0.0025018095,1.0000168,1.0000179,1.0,0.0,0.0,0.0,0.0,0.0,0.0
2044968000,2044816000,0.10535549,0.10557602,0.20781901,1.1254832,1.1260223,1.0867854,0.0,0.0,0.0,0.0,0.0,0.0,0.0,12.452263,0.0,0.0,0.0,0.0,0.002511049,0.0025038794,0.002511049,0.0025018197,1.0000168,1.0000179,1.0,0.0,0.0,0.0,0.0,0.0,0.0
2044976000,2044824000,0.10535549,0.10557602,0.20781901,1.1254832,1.1260223,1.0867854,0.0,0.0,0.0,0.0,0.0,0.0,0.0,12.452263,0.0,0.0,0.0,0.0,0.002511049,0.0025038794,0.002511049,0.0025018197,1.0000168,1.0000179,1.0,0.0,0.0,0.0,0.0,0.0,0.0
2044984000,2044832000,0.10535549,0.10557602,0.20781901,1.1254832,1.1260223,1.0867854,0.0,0.0,0.0,0.0,0.0,0.0,0.0,12.452263,0.0,0.0,0.0,0.0,0.002511049,0.0025038794,0.002511049,0.0025018197,1.0000168,1.000018,1.0,0.0,0.0,0.0,0.0,0.0,0.0
2045000000,2044848000,0.10535549,0.10557602,0.20781901,1.1254832,1.1260223,1.0867854,0.0,0.0,0.0,0.0,0.0,0.0,0.0,12.453763,0.0,0.0,0.0,0.0,0.002511049,0.0025038794,0.002511049,0.0025018197,1.0000169,1.000018,1.0,0.0,0.0,0.0,0.0,0.0,0.0
2045008000,2044856000,0.10535549,0.10557602,0.20781901,1.1254832,1.1260223,1.0867854,0.0,0.0,0.0,0.0,0.0,0.0,0.0,12.453763,0.0,0.0,0.0,0.0,0.002511049,0.0025038794,0.002511049,0.0025018197,1.0000169,1.000018,1.0,0.0,0.0,0.0,0.0,0.0,0.0
2045016000,2044864000,0.10535549,0.10557602,0.20781901,1.1254832,1.1260223,1.0867854,0.0,0.0,0.0,0.0,0.0,0.0,0.0,12.453763,0.0,0.0,0.0,0.0,0.002511049,0.0025038794,0.002511049,0.0025018197,1.0000169,1.0000181,1.0,0.0,0.0,0.0,0.0,0.0,0.0
2045024000,2044872000,0.10535549,0.10557602,0.20781901,1.1254832,1.1260223,1.0867854,0.0,0.0,0.0,0.0,0.0,0.0,0.0,12.453763,0.0,0.0,0.0,0.0,0.002511049,0.0025038794,0.002511049,0.0025018197,1.0000169,1.0000181,1.0,0.0,0.0,0.0,0.0,0.0,0.0
2045040000,2044888000,0.10535549,0.10557602,0.20781901,1.1254832,1.1260223,1.0867854,0.0,0.0,0.0,0.0,0.0,0.0,0.0,12.453763,0.0,0.0,0.0,0.0,0.002511076,0.0025039173,0.002511076,0.0025018284,1.000017,1.0000182,1.0,0.0,0.0,0.0,0.0,0.0,0.0
2045048000,2044896000,0.10535549,0.10557602,0.20781901,1.1254832,1.1260223,1.0867854,0.0,0.0,0.0,0.0,0.0,0.0,0.0,12.453763,0.0,0.0,0.0,0.0,0.002511076,0.0025039173,0.002511076,0.0025018284,1.000017,1.0000182,1.0,0.0,0.0,0.0,0.0,0.0,0.0
2045056000,2044904000,0.10535549,0.10557602,0.20781901,1.1254832,1.1260223,1.0867854,0.0,0.0,0.0,0.0,0.0,0.0,0.0,12.453763,0.0,0.0,0.0,0.0,0.002511076,0.0025039173,0.002511076,0.0025018284,1.000017,1.0000184,1.0,0.0,0.0,0.0,0.0,0.0,0.0
2045064000,2044912000,0.10535549,0.10557602,0.20781901,1.1254832,1.1260223,1.0867854,0.0,0.0,0.0,0.0,0.0,0.0,0.0,12.455284,0.0,0.0,0.0,0.0,0.002511076,0.0025039173,0.002511076,0.0025018284,1.000017,1.0000184,1.0,0.0,0.0,0.0,0.0,0.0,0.0
2045080000,2044928000,0.10535549,0.10557602,0.20781901,1.1254832,1.1260223,1.0867854,0.0,0.0,0.0,0.0,0.0,0.0,0.0,12.455284,0.0,0.0,0.0,0.0,0.002511076,0.0025039173,0.002511076,0.0025018284,1.0000172,1.0000184,1.0,0.0,0.0,0.0,0.0,0.0,0.0
2045088000,2044936000,0.10535549,0.10557602,0.20781901,1.1254832,1.1260223,1.0867854,0.0,0.0,0.0,0.0,0.0,0.0,0.0,12.455284,0.0,0.0,0.0,0.0,0.002511076,0.0025039173,0.002511076,0.0025018284,1.0000172,1.0000184,1.0,0.0,0.0,0.0,0.0,0.0,0.0
2045096000,2044944000,0.10535549,0.10557602,0.20781901,1.1254832,1.1260223,1.0867854,0.0,0.0,0.0,0.0,0.0,0.0,0.0,12.455284,0.0,0.0,0.0,0.0,0.002511076,0.0025039173,0.002511076,0.0025018284,1.0000172,1.0000185,1.0,0.0,0.0,0.0,0.0,0.0,0.0
2045104000,2044952000,0.10535549,0.10557602,0.20781901,1.1254832,1.1260223,1.0867854,0.0,0.0,0.0,0.0,0.0,0.0,0.0,12.455284,0.0,0.0,0.0,0.0,0.002511076,0.0025039173,0.002511076,0.0025018284,1.0000172,1.0000185,1.0,0.0,0.0,0.0,0.0,0.0,0.0
2045120000,2044968000,0.10535549,0.10557602,0.20781901,1.1254832,1.1260223,1.0867854,0.0,0.0,0.0,0.0,0.0,0.0,0.0,12.455284,0.0,0.0,0.0,0.0,0.0025111008,0.002503952,0.0025111008,0.0025018374,1.0000173,1.0000185,1.0,0.0,0.0,0.0,0.0,0.0,0.0
2045128000,2044976000,0.10535549,0.10557602,0.20781901,1.1254832,1.1260223,1.0867854,0.0,0.0,0.0,0.0,0.0,0.0,0.0,12.455284,0.0,0.0,0.0,0.0,0.0025111008,0.002503952,0.0025111008,0.0025018374,1.0000173,1.0000185,1.0,0.0,0.0,0.0,0.0,0.0,0.0
2045136000,2044984000,0.10535549,0.10557602,0.20781901,1.1254832,1.1260223,1.0867854,0.0,0.0,0.0,0.0,0.0,0.0,0.0,12.456825,0.0,0.0,0.0,0.0,0.0025111008,0.002503952,0.0025111008,0.0025018374,1.0000173,1.0000186,1.0,0.0,0.0,0.0,0.0,0.0,0.0
2045144000,2044992000,0.10535549,0.10557602,0.20781901,1.1254832,1.1260223,1.0867854,0.0,0.0,0.0,0.0,0.0,0.0,0.0,12.456825,0.0,0.0,0.0,0.0,0.0025111008,0.002503952,0.0025111008,0.0025018374,1.0000173,1.0000186,1.0,0.0,0.0,0.0,0.0,0.0,0.0
2045160000,2045008000,0.10535549,0.10557602,0.20781901,1.1254832,1.1260223,1.0867854,0.0,0.0,0.0,0.0,0.0,0.0,0.0,12.456825,0.0,0.0,0.0,0.0,0.0025111008,0.002503952,0.0025111008,0.0025018374,1.0000174,1.0000186,1.0,0.0,0.0,0.0,0.0,0.0,0.0
2045168000,2045016000,0.10535549,0.10557602,0.20781901,1.1254832,1.1260223,1.0867854,0.0,0.0,0.0,0.0,0.0,0.0,0.0,12.456825,0.0,0.0,0.0,0.0,0.0025111008,0.002503952,0.0025111008,0.0025018374,1.0000174,1.0000186,1.0,0.0,0.0,0.0,0.0,0.0,0.0
2045176000,2045024000,0.10535549,0.10557602,0.20781901,1.1254832,1.1260223,1.0867854,0.0,0.0,0.0,0.0,0.0,0.0,0.0,12.456825,0.0,0.0,0.0,0.0,0.0025111008,0.002503952,0.0025111008,0.0025018374,1.0000174,1.0000187,1.0,0.0,0.0,0.0,0.0,0.0,0.0
2045184000,2045032000,0.10535549,0.10557602,0.20781901,1.1254832,1.1260223,1.0867854,0.0,0.0,0.0,0.0,0.0,0.0,0.0,12.456825,0.0,0.0,0.0,0.0,0.0025111274,0.0025039893,0.0025111274,0.0025018477,1.0000174,1.0000187,1.0,0.0,0.0,0.0,0.0,0.0,0.0
2045200000,2045048000,0.10535549,0.10557602,0.20781901,1.1254832,1.1260223,1.0867854,0.0,0.0,0.0,0.0,0.0,0.0,0.0,12.456825,0.0,0.0,0.0,0.0,0.0025111274,0.0025039893,0.0025111274,0.0025018477,1.0000175,1.0000187,1.0,0.0,0.0,0.0,0.0,0.0,0.0
2045208000,2045056000,0.10535549,0.10557602,0.20781901,1.1254832,1.1260223,1.0867854,0.0,0.0,0.0,0.0,0.0,0.0,0.0,12.458386,0.0,0.0,0.0,0.0,0.0025111274,0.0025039893,0.0025111274,0.0025018477,1.0000175,1.0000187,1.0,0.0,0.0,0.0,0.0,0.0,0.0
2045216000,2045064000,0.10535549,0.10557602,0.20781901,1.1254832,1.1260223,1.0867854,0.0,0.0,0.0,0.0,0.0,0.0,0.0,12.458386,0.0,0.0,0.0,0.0,0.0025111274,0.0025039893,0.0025111274,0.0025018477,1.0000175,1.0000188,1.0,0.0,0.0,0.0,0.0,0.0,0.0
2045224000,2045072000,0.10535549,0.10557602,0.20781901,1.1254832,1.1260223,1.0867854,0.0,0.0,0.0,0.0,0.0,0.0,0.0,12.458386,0.0,0.0,0.0,0.0,0.0025111274,0.0025039893,0.0025111274,0.0025018477,1.0000175,1.0000188,1.0,0.0,0.0,0.0,0.0,0.0,0.0
2045240000,2045088000,0.10535549,0.10557602,0.20781901,1.1254832,1.1260223,1.0867854,0.0,0.0,0.0,0.0,0.0,0.0,0.0,12.458386,0.0,0.0,0.0,0.0,0.0025111274,0.0025039893,0.0025111274,0.0025018477,1.0000176,1.0000188,1.0,0.0,0.0,0.0,0.0,0.0,0.0
2045248000,2045096000,0.10535549,0.10557602,0.20781901,1.1254832,1.1260223,1.0867854,0.0,0.0,0.0,0.0,0.0,0.0,0.0,12.458386,0.0,0.0,0.0,0.0,0.0025111274,0.0025039893,0.0025111274,0.0025018477,1.0000176,1.0000188,1.0,0.0,0.0,0.0,0.0,0.0,0.0
2045256000,2045104000,0.10535792,0.105581805,0.20783308,1.1254823,1.1260278,1.0872571,0.0,0.0,0.0,0.0,0.0,0.0,0.0,12.458386,0.0,0.0,0.0,0.0,0.0025111535,0.0025040286,0.0025111535,0.0025018563,1.0000165,1.0000175,1.0,0.0,0.0,0.0,0.0,0.0,0.0
2045264000,2045112000,0.10535792,0.105581805,0.20783308,1.1254823,1.1260278,1.0872571,0.0,0.0,0.0,0.0,0.0,0.0,0.0,12.458386,0.0,0.0,0.0,0.0,0.0025111535,0.0025040286,0.0025111535,0.0025018563,1.0000165,1.0000176,1.0,0.0,0.0,0.0,0.0,0.0,0.0
2045280000,2045128000,0.10535792,0.105581805,0.20783308,1.1254823,1.1260278,1.0872571,0.0,0.0,0.0,0.0,0.0,0.0,0.0,12.451806,0.0,0.0,0.0,0.0,0.0025111535,0.0025040286,0.0025111535,0.0025018563,1.0000166,1.0000176,1.0,0.0,0.0,0.0,0.0,0.0,0.0
2045288000,2045136000,0.10535792,0.105581805,0.20783308,1.1254823,1.1260278,1.0872571,0.0,0.0,0.0,0.0,0.0,0.0,0.0,12.451806,0.0,0.0,0.0,0.0,0.0025111535,0.0025040286,0.0025111535,0.0025018563,1.0000166,1.0000176,1.0,0.0,0.0,0.0,0.0,0.0,0.0
2045296000,2045144000,0.10535792,0.105581805,0.20783308,1.1254823,1.1260278,1.0872571,0.0,0.0,0.0,0.0,0.0,0.0,0.0,12.451806,0.0,0.0,0.0,0.0,0.0025111535,0.0025040286,0.0025111535,0.0025018563,1.0000166,1.0000176,1.0,0.0,0.0,0.0,0.0,0.0,0.0
2045304000,2045152000,0.10535792,0.105581805,0.20783308,1.1254823,1.1260278,1.0872571,0.0,0.0,0.0,0.0,0.0,0.0,0.0,12.451806,0.0,0.0,0.0,0.0,0.0025111535,0.0025040286,0.0025111535,0.0025018563,1.0000166,1.0000178,1.0,0.0,0.0,0.0,0.0,0.0,0.0
2045320000,2045168000,0.10535792,0.105581805,0.20783308,1.1254823,1.1260278,1.0872571,0.0,0.0,0.0,0.0,0.0,0.0,0.0,12.451806,0.0,0.0,0.0,0.0,0.0025111535,0.0025040286,0.0025111535,0.0025018563,1.0000167,1.0000178,1.0,0.0,0.0,0.0,0.0,0.0,0.0
2045328000,2045176000,0.10535792,0.105581805,0.20783308,1.1254823,1.1260278,1.0872571,0.0,0.0,0.0,0.0,0.0,0.0,0.0,12.451806,0.0,0.0,0.0,0.0,0.002511045,0.0025038621,0.002511045,0.0025018118,1.0000167,1.0000178,1.0,0.0,0.0,0.0,0.0,0.0,0.0
2045336000,2045184000,0.10535792,0.105581805,0.20783308,1.1254823,1.1260278,1.0872571,0.0,0.0,0.0,0.0,0.0,0.0,0.0,12.451806,0.0,0.0,0.0,0.0,0.002511045,0.0025038621,0.002511045,0.0025018118,1.0000167,1.0000178,1.0,0.0,0.0,0.0,0.0,0.0,0.0
2045344000,2045192000,0.10535792,0.105581805,0.20783308,1.1254823,1.1260278,1.0872571,0.0,0.0,0.0,0.0,0.0,0.0,0.0,12.451806,0.0,0.0,0.0,0.0,0.002511045,0.0025038621,0.002511045,0.0025018118,1.0000167,1.0000179,1.0,0.0,0.0,0.0,0.0,0.0,0.0
2045360000,2045208000,0.10535792,0.105581805,0.20783308,1.1254823,1.1260278,1.0872571,0.0,0.0,0.0,0.0,0.0,0.0,0.0,12.453291,0.0,0.0,0.0,0.0,0.002511045,0.0025038621,0.002511045,0.0025018118,1.0000168,1.0000179,1.0,0.0,0.0,0.0,0.0,0.0,0.0
2045368000,2045216000,0.10535792,0.105581805,0.20783308,1.1254823,1.1260278,1.0872571,0.0,0.0,0.0,0.0,0.0,0.0,0.0,12.453291,0.0,0.0,0.0,0.0,0.002511045,0.0025038621,0.002511045,0.0025018118,1.0000168,1.0000179,1.0,0.0,0.0,0.0,0.0,0.0,0.0
2045376000,2045224000,0.10535792,0.105581805,0.20783308,1.1254823,1.1260278,1.0872571,0.0,0.0,0.0,0.0,0.0,0.0,0.0,12.453291,0.0,0.0,0.0,0.0,0.002511045,0.0025038621,0.002511045,0.0025018118,1.0000168,1.0000179,1.0,0.0,0.0,0.0,0.0,0.0,0.0
2045384000,2045232000,0.10535792,0.105581805,0.20783308,1.1254823,1.1260278,1.0872571,0.0,0.0,0.0,0.0,0.0,0.0,0.0,12.453291,0.0,0.0,0.0,0.0,0.002511045,0.0025038621,0.002511045,0.0025018118,1.0000168,1.000018,1.0,0.0,0.0,0.0,0.0,0.0,0.0
2045400000,2045248000,0.10535792,0.105581805,0.20783308,1.1254823,1.1260278,1.0872571,0.0,0.0,0.0,0.0,0.0,0.0,0.0,12.453291,0.0,0.0,0.0,0.0,0.0025110734,0.0025038982,0.0025110734,0.0025018214,1.0000169,1.000018,1.0,0.0,0.0,0.0,0.0,0.0,0.0
2045408000,2045256000,0.10535792,0.105581805,0.20783308,1.1254823,1.1260278,1.0872571,0.0,0.0,0.0,0.0,0.0,0.0,0.0,12.453291,0.0,0.0,0.0,0.0,0.0025110734,0.0025038982,0.0025110734,0.0025018214,1.0000169,1.000018,1.0,0.0,0.0,0.0,0.0,0.0,0.0
2045416000,2045264000,0.10535792,0.105581805,0.20783308,1.1254823,1.1260278,1.0872571,0.0,0.0,0.0,0.0,0.0,0.0,0.0,12.453291,0.0,0.0,0.0,0.0,0.0025110734,0.0025038982,0.0025110734,0.0025018214,1.0000169,1.0000181,1.0,0.0,0.0,0.0,0.0,0.0,0.0
2045424000,2045272000,0.10535792,0.105581805,0.20783308,1.1254823,1.1260278,1.0872571,0.0,0.0,0.0,0.0,0.0,0.0,0.0,12.454798,0.0,0.0,0.0,0.0,0.0025110734,0.0025038982,0.0025110734,0.0025018214,1.0000169,1.0000181,1.0,0.0,0.0,0.0,0.0,0.0,0.0
2045440000,2045288000,0.10535792,0.105581805,0.20783308,1.1254823,1.1260278,1.0872571,0.0,0.0,0.0,0.0,0.0,0.0,0.0,12.454798,0.0,0.0,0.0,0.0,0.0025110734,0.0025038982,0.0025110734,0.0025018214,1.000017,1.0000182,1.0,0.0,0.0,0.0,0.0,0.0,0.0
2045448000,2045296000,0.10535792,0.105581805,0.20783308,1.1254823,1.1260278,1.0872571,0.0,0.0,0.0,0.0,0.0,0.0,0.0,12.454798,0.0,0.0,0.0,0.0,0.0025110734,0.0025038982,0.0025110734,0.0025018214,1.000017,1.0000182,1.0,0.0,0.0,0.0,0.0,0.0,0.0
2045456000,2045304000,0.10535792,0.105581805,0.20783308,1.1254823,1.1260278,1.0872571,0.0,0.0,0.0,0.0,0.0,0.0,0.0,12.454798,0.0,0.0,0.0,0.0,0.0025110734,0.0025038982,0.0025110734,0.0025018214,1.000017,1.0000184,1.0,0.0,0.0,0.0,0.0,0.0,0.0
2045464000,2045312000,0.10535792,0.105581805,0.20783308,1.1254823,1.1260278,1.0872571,0.0,0.0,0.0,0.0,0.0,0.0,0.0,12.454798,0.0,0.0,0.0,0.0,0.0025110734,0.0025038982,0.0025110734,0.0025018214,1.0000172,1.0000184,1.0,0.0,0.0,0.0,0.0,0.0,0.0
2045480000,2045328000,0.10535792,0.105581805,0.20783308,1.1254823,1.1260278,1.0872571,0.0,0.0,0.0,0.0,0.0,0.0,0.0,12.454798,0.0,0.0,0.0,0.0,0.0025111025,0.0025039378,0.0025111025,0.002501833,1.0000172,1.0000184,1.0,0.0,0.0,0.0,0.0,0.0,0.0
2045488000,2045336000,0.10535792,0.105581805,0.20783308,1.1254823,1.1260278,1.0872571,0.0,0.0,0.0,0.0,0.0,0.0,0.0,12.454798,0.0,0.0,0.0,0.0,0.0025111025,0.0025039378,0.0025111025,0.002501833,1.0000172,1.0000184,1.0,0.0,0.0,0.0,0.0,0.0,0.0
2045496000,2045344000,0.10535792,0.105581805,0.20783308,1.1254823,1.1260278,1.0872571,0.0,0.0,0.0,0.0,0.0,0.0,0.0,12.456324,0.0,0.0,0.0,0.0,0.0025111025,0.0025039378,0.0025111025,0.002501833,1.0000172,1.0000185,1.0,0.0,0.0,0.0,0.0,0.0,0.0
2045504000,2045352000,0.10535792,0.105581805,0.20783308,1.1254823,1.1260278,1.0872571,0.0,0.0,0.0,0.0,0.0,0.0,0.0,12.456324,0.0,0.0,0.0,0.0,0.0025111025,0.0025039378,0.0025111025,0.002501833,1.0000173,1.0000185,1.0,0.0,0.0,0.0,0.0,0.0,0.0
2045520000,2045368000,0.10535792,0.105581805,0.20783308,1.1254823,1.1260278,1.0872571,0.0,0.0,0.0,0.0,0.0,0.0,0.0,12.456324,0.0,0.0,0.0,0.0,0.0025111025,0.0025039378,0.0025111025,0.002501833,1.0000173,1.0000185,1.0,0.0,0.0,0.0,0.0,0.0,0.0
2045528000,2045376000,0.10535792,0.105581805,0.20783308,1.1254823,1.1260278,1.0872571,0.0,0.0,0.0,0.0,0.0,0.0,0.0,12.456324,0.0,0.0,0.0,0.0,0.0025111025,0.0025039378,0.0025111025,0.002501833,1.0000173,1.0000186,1.0,0.0,0.0,0.0,0.0,0.0,0.0
2045536000,2045384000,0.10535792,0.105581805,0.20783308,1.1254823,1.1260278,1.0872571,0.0,0.0,0.0,0.0,0.0,0.0,0.0,12.456324,0.0,0.0,0.0,0.0,0.0025111025,0.0025039378,0.0025111025,0.002501833,1.0000173,1.0000186,1.0,0.0,0.0,0.0,0.0,0.0,0.0
2045544000,2045392000,0.10535792,0.105581805,0.20783308,1.1254823,1.1260278,1.0872571,0.0,0.0,0.0,0.0,0.0,0.0,0.0,12.456324,0.0,0.0,0.0,0.0,0.0025111327,0.0025039762,0.0025111327,0.002501844,1.0000174,1.0000186,1.0,0.0,0.0,0.0,0.0,0.0,0.0
2045560000,2045408000,0.10535792,0.105581805,0.20783308,1.1254823,1.1260278,1.0872571,0.0,0.0,0.0,0.0,0.0,0.0,0.0,12.456324,0.0,0.0,0.0,0.0,0.0025111327,0.0025039762,0.0025111327,0.002501844,1.0000174,1.0000186,1.0,0.0,0.0,0.0,0.0,0.0,0.0
2045568000,2045416000,0.10535792,0.105581805,0.20783308,1.1254823,1.1260278,1.0872571,0.0,0.0,0.0,0.0,0.0,0.0,0.0,12.4578705,0.0,0.0,0.0,0.0,0.0025111327,0.0025039762,0.0025111327,0.002501844,1.0000174,1.0000187,1.0,0.0,0.0,0.0,0.0,0.0,0.0
2045576000,2045424000,0.10535792,0.105581805,0.20783308,1.1254823,1.1260278,1.0872571,0.0,0.0,0.0,0.0,0.0,0.0,0.0,12.4578705,0.0,0.0,0.0,0.0,0.0025111327,0.0025039762,0.0025111327,0.002501844,1.0000175,1.0000187,1.0,0.0,0.0,0.0,0.0,0.0,0.0
2045584000,2045432000,0.10535792,0.105581805,0.20783308,1.1254823,1.1260278,1.0872571,0.0,0.0,0.0,0.0,0.0,0.0,0.0,12.4578705,0.0,0.0,0.0,0.0,0.0025111327,0.0025039762,0.0025111327,0.002501844,1.0000175,1.0000187,1.0,0.0,0.0,0.0,0.0,0.0,0.0
2045600000,2045448000,0.10535792,0.105581805,0.20783308,1.1254823,1.1260278,1.0872571,0.0,0.0,0.0,0.0,0.0,0.0,0.0,12.4578705,0.0,0.0,0.0,0.0,0.0025111327,0.0025039762,0.0025111327,0.002501844,1.0000175,1.0000188,1.0,0.0,0.0,0.0,0.0,0.0,0.0
2045608000,2045456000,0.10535792,0.105581805,0.20783308,1.1254823,1.1260278,1.0872571,0.0,0.0,0.0,0.0,0.0,0.0,0.0,12.4578705,0.0,0.0,0.0,0.0,0.0025111327,0.0025039762,0.0025111327,0.002501844,1.0000175,1.0000188,1.0,0.0,0.0,0.0,0.0,0.0,0.0
2045616000,2045464000,0.10535792,0.105581805,0.20783308,1.1254823,1.1260278,1.0872571,0.0,0.0,0.0,0.0,0.0,0.0,0.0,12.4578705,0.0,0.0,0.0,0.0,0.0025111623,0.0025040146,0.0025111623,0.0025018556,1.0000176,1.0000188,1.0,0.0,0.0,0.0,0.0,0.0,0.0
2045624000,2045472000,0.10535792,0.105581805,0.20783308,1.1254823,1.1260278,1.0872571,0.0,0.0,0.0,0.0,0.0,0.0,0.0,12.4578705,0.0,0.0,0.0,0.0,0.0025111623,0.0025040146,0.0025111623,0.0025018556,1.0000176,1.0000188,1.0,0.0,0.0,0.0,0.0,0.0,0.0
2045640000,2045488000,0.10535792,0.105581805,0.20783308,1.1254823,1.1260278,1.0872571,0.0,0.0,0.0,0.0,0.0,0.0,0.0,12.459436,0.0,0.0,0.0,0.0,0.0025111623,0.0025040146,0.0025111623,0.0025018556,1.0000176,1.000019,1.0,0.0,0.0,0.0,0.0,0.0,0.0
2045648000,2045496000,0.10535792,0.105581805,0.20783308,1.1254823,1.1260278,1.0872571,0.0,0.0,0.0,0.0,0.0,0.0,0.0,12.459436,0.0,0.0,0.0,0.0,0.0025111623,0.0025040146,0.0025111623,0.0025018556,1.0000176,1.000019,1.0,0.0,0.0,0.0,0.0,0.0,0.0
2045656000,2045504000,0.10536394,0.10558218,0.20782797,1.1254952,1.1260371,1.0870981,0.0,0.0,0.0,0.0,0.0,0.0,0.0,12.459436,0.0,0.0,0.0,0.0,0.0025111623,0.0025040146,0.0025111623,0.0025018556,1.0000166,1.0000176,1.0,0.0,0.0,0.0,0.0,0.0,0.0
2045664000,2045512000,0.10536394,0.10558218,0.20782797,1.1254952,1.1260371,1.0870981,0.0,0.0,0.0,0.0,0.0,0.0,0.0,12.459436,0.0,0.0,0.0,0.0,0.0025111623,0.0025040146,0.0025111623,0.0025018556,1.0000166,1.0000176,1.0,0.0,0.0,0.0,0.0,0.0,0.0
2045680000,2045528000,0.10536394,0.10558218,0.20782797,1.1254952,1.1260371,1.0870981,0.0,0.0,0.0,0.0,0.0,0.0,0.0,12.459436,0.0,0.0,0.0,0.0,0.0025111623,0.0025040146,0.0025111623,0.0025018556,1.0000167,1.0000176,1.0,0.0,0.0,0.0,0.0,0.0,0.0
2045688000,2045536000,0.10536394,0.10558218,0.20782797,1.1254952,1.1260371,1.0870981,0.0,0.0,0.0,0.0,0.0,0.0,0.0,12.459436,0.0,0.0,0.0,0.0,0.0025110594,0.002503852,0.0025110594,0.0025018123,1.0000167,1.0000178,1.0,0.0,0.0,0.0,0.0,0.0,0.0
2045696000,2045544000,0.10536394,0.10558218,0.20782797,1.1254952,1.1260371,1.0870981,0.0,0.0,0.0,0.0,0.0,0.0,0.0,12.459436,0.0,0.0,0.0,0.0,0.0025110594,0.002503852,0.0025110594,0.0025018123,1.0000167,1.0000178,1.0,0.0,0.0,0.0,0.0,0.0,0.0
2045704000,2045552000,0.10536394,0.10558218,0.20782797,1.1254952,1.1260371,1.0870981,0.0,0.0,0.0,0.0,0.0,0.0,0.0,12.459436,0.0,0.0,0.0,0.0,0.0025110594,0.002503852,0.0025110594,0.0025018123,1.0000167,1.0000178,1.0,0.0,0.0,0.0,0.0,0.0,0.0
2045720000,2045568000,0.10536394,0.10558218,0.20782797,1.1254952,1.1260371,1.0870981,0.0,0.0,0.0,0.0,0.0,0.0,0.0,12.452789,0.0,0.0,0.0,0.0,0.0025110594,0.002503852,0.0025110594,0.0025018123,1.0000168,1.0000179,1.0,0.0,0.0,0.0,0.0,0.0,0.0
2045728000,2045576000,0.10536394,0.10558218,0.20782797,1.1254952,1.1260371,1.0870981,0.0,0.0,0.0,0.0,0.0,0.0,0.0,12.452789,0.0,0.0,0.0,0.0,0.0025110594,0.002503852,0.0025110594,0.0025018123,1.0000168,1.0000179,1.0,0.0,0.0,0.0,0.0,0.0,0.0
2045736000,2045584000,0.10536394,0.10558218,0.20782797,1.1254952,1.1260371,1.0870981,0.0,0.0,0.0,0.0,0.0,0.0,0.0,12.452789,0.0,0.0,0.0,0.0,0.0025110594,0.002503852,0.0025110594,0.0025018123,1.0000168,1.0000179,1.0,0.0,0.0,0.0,0.0,0.0,0.0
2045744000,2045592000,0.10536394,0.10558218,0.20782797,1.1254952,1.1260371,1.0870981,0.0,0.0,0.0,0.0,0.0,0.0,0.0,12.452789,0.0,0.0,0.0,0.0,0.0025110594,0.002503852,0.0025110594,0.0025018123,1.0000168,1.0000179,1.0,0.0,0.0,0.0,0.0,0.0,0.0
2045760000,2045608000,0.10536394,0.10558218,0.20782797,1.1254952,1.1260371,1.0870981,0.0,0.0,0.0,0.0,0.0,0.0,0.0,12.452789,0.0,0.0,0.0,0.0,0.0025110873,0.0025038933,0.0025110873,0.0025018223,1.0000169,1.000018,1.0,0.0,0.0,0.0,0.0,0.0,0.0
2045768000,2045616000,0.10536394,0.10558218,0.20782797,1.1254952,1.1260371,1.0870981,0.0,0.0,0.0,0.0,0.0,0.0,0.0,12.452789,0.0,0.0,0.0,0.0,0.0025110873,0.0025038933,0.0025110873,0.0025018223,1.0000169,1.000018,1.0,0.0,0.0,0.0,0.0,0.0,0.0
2045776000,2045624000,0.10536394,0.10558218,0.20782797,1.1254952,1.1260371,1.0870981,0.0,0.0,0.0,0.0,0.0,0.0,0.0,12.452789,0.0,0.0,0.0,0.0,0.0025110873,0.0025038933,0.0025110873,0.0025018223,1.0000169,1.000018,1.0,0.0,0.0,0.0,0.0,0.0,0.0
2045784000,2045632000,0.10536394,0.10558218,0.20782797,1.1254952,1.1260371,1.0870981,0.0,0.0,0.0,0.0,0.0,0.0,0.0,12.45428,0.0,0.0,0.0,0.0,0.0025110873,0.0025038933,0.0025110873,0.0025018223,1.0000169,1.000018,1.0,0.0,0.0,0.0,0.0,0.0,0.0
2045800000,2045648000,0.10536394,0.10558218,0.20782797,1.1254952,1.1260371,1.0870981,0.0,0.0,0.0,0.0,0.0,0.0,0.0,12.45428,0.0,0.0,0.0,0.0,0.0025110873,0.0025038933,0.0025110873,0.0025018223,1.000017,1.0000181,1.0,0.0,0.0,0.0,0.0,0.0,0.0
2045808000,2045656000,0.10536394,0.10558218,0.20782797,1.1254952,1.1260371,1.0870981,0.0,0.0,0.0,0.0,0.0,0.0,0.0,12.45428,0.0,0.0,0.0,0.0,0.0025110873,0.0025038933,0.0025110873,0.0025018223,1.000017,1.0000181,1.0,0.0,0.0,0.0,0.0,0.0,0.0
