timestamp,timestamp_sample,control_mode_flags,output_tracking_error[0],output_tracking_error[1],output_tracking_error[2],filter_fault_flags,pos_horiz_accuracy,pos_vert_accuracy,hdg_test_ratio,vel_test_ratio,pos_test_ratio,hgt_test_ratio,tas_test_ratio,hagl_test_ratio,beta_test_ratio,time_slip,accel_device_id,gyro_device_id,baro_device_id,mag_device_id,mag_inclination_deg,mag_inclination_ref_deg,mag_strength_gs,mag_strength_ref_gs,gps_check_fail_flags,solution_status_flags,reset_count_vel_ne,reset_count_vel_d,reset_count_pos_ne,reset_count_pod_d,reset_count_quat,pre_flt_fail_innov_heading,pre_flt_fail_innov_height,pre_flt_fail_innov_pos_horiz,pre_flt_fail_innov_vel_horiz,pre_flt_fail_innov_vel_vert,pre_flt_fail_mag_field_disturbed,health_flags,timeout_flags
2043328000,2043176000,17764060236391,0.00018318852,0.0035920225,0.007932804,0,0.46583548,0.2859354,0.013362599,0.027204892,0.004983668,0.0017715655,nan,nan,nan,0.004,1310988,1310988,6620172,197388,63.52167,63.157204,0.48064172,0.48238713,0,959,3,1,4,3,2,0,0,0,0,0,0,0,0
2043336000,2043184000,17764060236391,0.00018088712,0.0033563394,0.0074298764,0,0.46664488,0.28537604,0.013362599,0.027204892,0.004983668,0.001675347,nan,nan,nan,0.004,1310988,1310988,6620172,197388,63.52167,63.157204,0.48064172,0.48238713,0,959,3,1,4,3,2,0,0,0,0,0,0,0,0
2043344000,2043192000,17764060236391,0.00017870568,0.0031282818,0.006944553,0,0.46745732,0.28576005,0.013362599,0.027204892,0.004983668,0.001675347,nan,nan,nan,0.004,1310988,1310988,6620172,197388,63.52167,63.157204,0.48064172,0.48238713,0,959,3,1,4,3,2,0,0,0,0,0,0,0,0
2043352000,2043200000,17764060236391,0.00018128857,0.0029097588,0.006455455,0,0.46826053,0.2861447,0.0125983115,0.027204892,0.004983668,0.001675347,nan,nan,nan,0.004,1310988,1310988,6620172,197388,63.760906,63.157204,0.4814372,0.48238713,0,959,3,1,4,3,2,0,0,0,0,0,0,0,0
2043360000,2043208000,17764060236391,0.00017926139,0.0027051044,0.006009304,0,0.4690789,0.28653,0.0125983115,0.027204892,0.004983668,0.001675347,nan,nan,nan,0.004,1310988,1310988,6620172,197388,63.760906,63.157204,0.4814372,0.48238713,0,959,3,1,4,3,2,0,0,0,0,0,0,0,0
2043368000,2043216000,17764060236391,0.00017732264,0.0025083558,0.0055811056,0,0.4699003,0.28691593,0.0125983115,0.027204892,0.004983668,0.001675347,nan,nan,nan,0.004,1310988,1310988,6620172,197388,63.760906,63.157204,0.4814372,0.48238713,0,959,3,1,4,3,2,0,0,0,0,0,0,0,0
2043376000,2043224000,17764060236391,0.00017500442,0.0023194102,0.005171519,0,0.4707248,0.28730252,0.0125983115,0.027204892,0.004983668,0.001675347,nan,nan,nan,0.004,1310988,1310988,6620172,197388,63.760906,63.157204,0.4814372,0.48238713,0,959,3,1,4,3,2,0,0,0,0,0,0,0,0
2043384000,2043232000,17764060236391,0.00017277531,0.0021403304,0.004778805,0,0.4715523,0.28768972,0.0125983115,0.027204892,0.004983668,0.001675347,nan,nan,nan,0.004,1310988,1310988,6620172,197388,63.760906,63.157204,0.4814372,0.48238713,0,959,3,1,4,3,2,0,0,0,0,0,0,0,0
2043400000,2043248000,17764060236391,0.00016867819,0.0018124994,0.0040543834,0,0.47321656,0.28846607,0.0125983115,0.027204892,0.004983668,0.001675347,nan,nan,nan,0.004,1310988,1310988,6620172,197388,63.760906,63.157204,0.4814372,0.48238713,0,959,3,1,4,3,2,0,0,0,0,0,0,0,0
2043408000,2043256000,17764060236391,0.00016680238,0.0016787852,0.0037715847,0,0.47405332,0.28788596,0.0125983115,0.027204892,0.004983668,0.0013704806,nan,nan,nan,0.004,1310988,1310988,6620172,197388,63.760906,63.157204,0.4814372,0.48238713,0,959,3,1,4,3,2,0,0,0,0,0,0,0,0
2043416000,2043264000,17764060236391,0.00016141594,0.0015459163,0.0034658462,0,0.47489315,0.28827444,0.0125983115,0.027204892,0.004983668,0.0013704806,nan,nan,nan,0.004,1310988,1310988,6620172,197388,63.760906,63.157204,0.4814372,0.48238713,0,959,3,1,4,3,2,0,0,0,0,0,0,0,0
2043424000,2043272000,17764060236391,0.00014910042,0.0014067427,0.0031567235,0,0.4757222,0.28866354,0.0116466535,0.027204892,0.004983668,0.0013704806,nan,nan,nan,0.004,1310988,1310988,6620172,197388,63.462418,63.157204,0.48237205,0.48238713,0,959,3,1,4,3,2,0,0,0,0,0,0,0,0
2043440000,2043288000,17764060236391,0.00013833834,0.0012244497,0.0026839473,0,0.47741696,0.28944364,0.0116466535,0.027204892,0.004983668,0.0013704806,nan,nan,nan,0.004,1310988,1310988,6620172,197388,63.462418,63.157204,0.48237205,0.48238713,0,959,3,1,4,3,2,0,0,0,0,0,0,0,0
2043448000,2043296000,17764060236391,0.00013269224,0.0011614388,0.002498536,0,0.47826898,0.28983462,0.0116466535,0.027204892,0.004983668,0.0013704806,nan,nan,nan,0.004,1310988,1310988,6620172,197388,63.462418,63.157204,0.48237205,0.48238713,0,959,3,1,4,3,2,0,0,0,0,0,0,0,0
2043456000,2043304000,17764060236391,0.00012711684,0.0011195034,0.002353247,0,0.47912413,0.29022628,0.0116466535,0.027204892,0.004983668,0.0013704806,nan,nan,nan,0.004,1310988,1310988,6620172,197388,63.462418,63.157204,0.48237205,0.48238713,0,959,3,1,4,3,2,0,0,0,0,0,0,0,0
2043464000,2043312000,17764060236391,0.00012162657,0.0010975398,0.0022530174,0,0.4799824,0.29061854,0.0116466535,0.027204892,0.004983668,0.0013704806,nan,nan,nan,0.004,1310988,1310988,6620172,197388,63.462418,63.157204,0.48237205,0.48238713,0,959,3,1,4,3,2,0,0,0,0,0,0,0,0
2043480000,2043328000,17764060236391,9.914689e-05,0.001002571,0.002024466,0,0.4817062,0.29040998,0.0116466535,0.027204892,0.004983668,0.0013306292,nan,nan,nan,0.004,1310988,1310988,6620172,197388,63.462418,63.157204,0.48237205,0.48238713,0,959,3,1,4,3,2,0,0,0,0,0,0,0,0
2043488000,2043336000,17764060236391,9.393501e-05,0.0010620053,0.0020893682,0,0.48257378,0.29080284,0.0116466535,0.027204892,0.004983668,0.0013306292,nan,nan,nan,0.004,1310988,1310988,6620172,197388,63.462418,63.157204,0.48237205,0.48238713,0,959,3,1,4,3,2,0,0,0,0,0,0,0,0
2043496000,2043344000,17764060236391,0.00010721783,0.0014409802,0.0025558611,0,0.48342884,0.29119632,0.016978739,0.027204892,0.004983668,0.0013306292,nan,nan,nan,0.004,1310988,1310988,6620172,197388,64.018326,63.157204,0.47790593,0.48238713,0,959,3,1,4,3,2,0,0,0,0,0,0,0,0
2043504000,2043352000,17764060236391,0.00010219234,0.0014995674,0.002674197,0,0.48430255,0.29159042,0.016978739,0.027204892,0.004983668,0.0013306292,nan,nan,nan,0.004,1310988,1310988,6620172,197388,64.018326,63.157204,0.47790593,0.48238713,0,959,3,1,4,3,2,0,0,0,0,0,0,0,0
2043520000,2043368000,17764060236391,9.1791764e-05,0.0016267849,0.002962581,0,0.4860594,0.2923805,0.016978739,0.027204892,0.004983668,0.0013306292,nan,nan,nan,0.004,1310988,1310988,6620172,197388,64.018326,63.157204,0.47790593,0.48238713,0,959,3,1,4,3,2,0,0,0,0,0,0,0,0
2043528000,2043376000,17764060236391,8.670264e-05,0.0016975538,0.003126954,0,0.48694256,0.2927765,0.016978739,0.027204892,0.004983668,0.0013306292,nan,nan,nan,0.004,1310988,1310988,6620172,197388,64.018326,63.157204,0.47790593,0.48238713,0,959,3,1,4,3,2,0,0,0,0,0,0,0,0
2043536000,2043384000,17764060236391,8.170795e-05,0.0017704382,0.0032977208,0,0.48782888,0.29317313,0.016978739,0.027204892,0.004983668,0.0013306292,nan,nan,nan,0.004,1310988,1310988,6620172,197388,64.018326,63.157204,0.47790593,0.48238713,0,959,3,1,4,3,2,0,0,0,0,0,0,0,0
2043544000,2043392000,17764060236391,7.680154e-05,0.001843056,0.003475934,0,0.4887184,0.2935704,0.016978739,0.027204892,0.004983668,0.0013306292,nan,nan,nan,0.004,1310988,1310988,6620172,197388,64.018326,63.157204,0.47790593,0.48238713,0,959,3,1,4,3,2,0,0,0,0,0,0,0,0
2043560000,2043408000,17764060236391,6.723698e-05,0.001988682,0.0038549409,0,0.49050695,0.29334402,0.016978739,0.027204892,0.004983668,0.0011928144,nan,nan,nan,0.004,1310988,1310988,6620172,197388,64.018326,63.157204,0.47790593,0.48238713,0,959,3,1,4,3,2,0,0,0,0,0,0,0,0
2043568000,2043416000,17764060236391,7.153877e-05,0.0020981398,0.004081302,0,0.49138838,0.2937418,0.016425477,0.027204892,0.004983668,0.0011928144,nan,nan,nan,0.004,1310988,1310988,6620172,197388,63.491905,63.157204,0.47864032,0.48238713,0,959,3,1,4,3,2,0,0,0,0,0,0,0,0
2043576000,2043424000,17764060236391,6.7271474e-05,0.0021664056,0.004258236,0,0.4922904,0.2941402,0.016425477,0.027204892,0.004983668,0.0011928144,nan,nan,nan,0.004,1310988,1310988,6620172,197388,63.491905,63.157204,0.47864032,0.48238713,0,959,3,1,4,3,2,0,0,0,0,0,0,0,0
2043584000,2043432000,17764060236391,6.3523556e-05,0.002235212,0.0044348454,0,0.49319562,0.29453918,0.016425477,0.027204892,0.004983668,0.0011928144,nan,nan,nan,0.004,1310988,1310988,6620172,197388,63.491905,63.157204,0.47864032,0.48238713,0,959,3,1,4,3,2,0,0,0,0,0,0,0,0
2043600000,2043448000,17764060236391,5.6593813e-05,0.0023698332,0.004781791,0,0.4950157,0.29533914,0.016425477,0.027204892,0.004983668,0.0011928144,nan,nan,nan,0.004,1310988,1310988,6620172,197388,63.491905,63.157204,0.47864032,0.48238713,0,959,3,1,4,3,2,0,0,0,0,0,0,0,0
2043608000,2043456000,17764060236391,5.3458352e-05,0.0024359499,0.0049527236,0,0.49593055,0.29574007,0.016425477,0.027204892,0.004983668,0.0011928144,nan,nan,nan,0.004,1310988,1310988,6620172,197388,63.491905,63.157204,0.47864032,0.48238713,0,959,3,1,4,3,2,0,0,0,0,0,0,0,0
2043616000,2043464000,17764060236391,5.0550385e-05,0.0025022593,0.0051206434,0,0.49684864,0.2961416,0.016425477,0.027204892,0.004983668,0.0011928144,nan,nan,nan,0.004,1310988,1310988,6620172,197388,63.491905,63.157204,0.47864032,0.48238713,0,959,3,1,4,3,2,0,0,0,0,0,0,0,0
2043624000,2043472000,17764060236391,4.786447e-05,0.0025692743,0.005294232,0,0.49776992,0.2954954,0.016425477,0.027204892,0.004983668,0.0011100114,nan,nan,nan,0.004,1310988,1310988,6620172,197388,63.491905,63.157204,0.47864032,0.48238713,0,959,3,1,4,3,2,0,0,0,0,0,0,0,0
2043640000,2043488000,17764060236391,7.03462e-05,0.0026654822,0.005583795,0,0.4996024,0.29629874,0.015378862,0.027204892,0.004983668,0.0011100114,nan,nan,nan,0.004,1310988,1310988,6620172,197388,63.40628,63.157204,0.48113346,0.48238713,0,959,3,1,4,3,2,0,0,0,0,0,0,0,0
2043648000,2043496000,17764060236391,6.892819e-05,0.0027233565,0.005737642,0,0.5005331,0.29670137,0.015378862,0.027204892,0.004983668,0.0011100114,nan,nan,nan,0.004,1310988,1310988,6620172,197388,63.40628,63.157204,0.48113346,0.48238713,0,959,3,1,4,3,2,0,0,0,0,0,0,0,0
2043656000,2043504000,17764060236391,0.00012403517,0.0055266726,0.011176795,0,0.45870212,0.28319213,0.015378862,0.022918353,0.004548331,0.001040646,nan,nan,nan,0.004,1310988,1310988,6620172,197388,63.40628,63.157204,0.48113346,0.48238713,0,959,3,1,4,3,2,0,0,0,0,0,0,0,0
2043664000,2043512000,17764060236391,0.00012205253,0.0053847907,0.010895093,0,0.4594847,0.2835719,0.015378862,0.022918353,0.004548331,0.001040646,nan,nan,nan,0.004,1310988,1310988,6620172,197388,63.40628,63.157204,0.48113346,0.48238713,0,959,3,1,4,3,2,0,0,0,0,0,0,0,0
2043680000,2043528000,17764060236391,0.00012333978,0.005176342,0.010425512,0,0.46105736,0.28433338,0.015378862,0.022918353,0.004548331,0.001040646,nan,nan,nan,0.004,1310988,1310988,6620172,197388,63.40628,63.157204,0.48113346,0.48238713,0,959,3,1,4,3,2,0,0,0,0,0,0,0,0
2043688000,2043536000,17764060236391,0.00012159344,0.005059596,0.0102453,0,0.46184886,0.2837868,0.015378862,0.022918353,0.004548331,0.0010979428,nan,nan,nan,0.004,1310988,1310988,6620172,197388,63.40628,63.157204,0.48113346,0.48238713,0,959,3,1,4,3,2,0,0,0,0,0,0,0,0
2043696000,2043544000,17764060236391,0.000119967786,0.0049432013,0.010027958,0,0.46264338,0.28416792,0.015378862,0.022918353,0.004548331,0.0010979428,nan,nan,nan,0.004,1310988,1310988,6620172,197388,63.40628,63.157204,0.48113346,0.48238713,0,959,3,1,4,3,2,0,0,0,0,0,0,0,0
2043704000,2043552000,17764060236391,0.00011880901,0.0048771002,0.009867392,0,0.4634297,0.28454965,0.014473431,0.022918353,0.004548331,0.0010979428,nan,nan,nan,0.004,1310988,1310988,6620172,197388,63.50631,63.157204,0.48155928,0.48238713,0,959,3,1,4,3,2,0,0,0,0,0,0,0,0
2043720000,2043568000,17764060236391,0.00011625055,0.0046837577,0.009512925,0,0.46503344,0.28531507,0.014473431,0.022918353,0.004548331,0.0010979428,nan,nan,nan,0.004,1310988,1310988,6620172,197388,63.50631,63.157204,0.48155928,0.48238713,0,959,3,1,4,3,2,0,0,0,0,0,0,0,0
2043728000,2043576000,17764060236391,0.00011502939,0.0045967167,0.009352626,0,0.4658399,0.28569874,0.014473431,0.022918353,0.004548331,0.0010979428,nan,nan,nan,0.004,1310988,1310988,6620172,197388,63.50631,63.157204,0.48155928,0.48238713,0,959,3,1,4,3,2,0,0,0,0,0,0,0,0
2043736000,2043584000,17764060236391,0.00011390605,0.004513851,0.009207669,0,0.46664935,0.28608304,0.014473431,0.022918353,0.004548331,0.0010979428,nan,nan,nan,0.004,1310988,1310988,6620172,197388,63.50631,63.157204,0.48155928,0.48238713,0,959,3,1,4,3,2,0,0,0,0,0,0,0,0
2043744000,2043592000,17764060236391,0.000112874586,0.004436935,0.009064813,0,0.46746185,0.28552252,0.014473431,0.022918353,0.004548331,0.0010467429,nan,nan,nan,0.004,1310988,1310988,6620172,197388,63.50631,63.157204,0.48155928,0.48238713,0,959,3,1,4,3,2,0,0,0,0,0,0,0,0
2043760000,2043608000,17764060236391,0.00011106715,0.004303318,0.008842797,0,0.46909603,0.2862918,0.014473431,0.022918353,0.004548331,0.0010467429,nan,nan,nan,0.004,1310988,1310988,6620172,197388,63.50631,63.157204,0.48155928,0.48238713,0,959,3,1,4,3,2,0,0,0,0,0,0,0,0
2043768000,2043616000,17764060236391,0.00011028425,0.0042469287,0.008749278,0,0.46991768,0.28667742,0.014473431,0.022918353,0.004548331,0.0010467429,nan,nan,nan,0.004,1310988,1310988,6620172,197388,63.50631,63.157204,0.48155928,0.48238713,0,959,3,1,4,3,2,0,0,0,0,0,0,0,0
2043776000,2043624000,17764060236391,0.00011420091,0.004133669,0.008607296,0,0.47072962,0.28706366,0.013514882,0.022918353,0.004548331,0.0010467429,nan,nan,nan,0.004,1310988,1310988,6620172,197388,63.23168,63.157204,0.47980794,0.48238713,0,959,3,1,4,3,2,0,0,0,0,0,0,0,0
2043784000,2043632000,17764060236391,0.00011315214,0.0040828483,0.008539216,0,0.47155723,0.28745052,0.013514882,0.022918353,0.004548331,0.0010467429,nan,nan,nan,0.004,1310988,1310988,6620172,197388,63.23168,63.157204,0.47980794,0.48238713,0,959,3,1,4,3,2,0,0,0,0,0,0,0,0
2043800000,2043648000,17764060236391,0.00011101311,0.0039957264,0.008423227,0,0.47322163,0.28822622,0.013514882,0.022918353,0.004548331,0.0010467429,nan,nan,nan,0.004,1310988,1310988,6620172,197388,63.23168,63.157204,0.47980794,0.48238713,0,959,3,1,4,3,2,0,0,0,0,0,0,0,0
2043808000,2043656000,17764060236391,0.00010993066,0.003960213,0.008380858,0,0.47405848,0.28861502,0.013514882,0.022918353,0.004548331,0.0010467429,nan,nan,nan,0.004,1310988,1310988,6620172,197388,63.23168,63.157204,0.47980794,0.48238713,0,959,3,1,4,3,2,0,0,0,0,0,0,0,0
2043816000,2043664000,17764060236391,0.00010633393,0.003928972,0.008360148,0,0.4748984,0.28803372,0.013514882,0.022918353,0.004548331,0.0010039287,nan,nan,nan,0.004,1310988,1310988,6620172,197388,63.23168,63.157204,0.47980794,0.48238713,0,959,3,1,4,3,2,0,0,0,0,0,0,0,0
2043824000,2043672000,17764060236391,0.00010278447,0.0038993813,0.008332209,0,0.47574142,0.28842247,0.013514882,0.022918353,0.004548331,0.0010039287,nan,nan,nan,0.004,1310988,1310988,6620172,197388,63.23168,63.157204,0.47980794,0.48238713,0,959,3,1,4,3,2,0,0,0,0,0,0,0,0
2043840000,2043688000,17764060236391,0.000118601354,0.0038828005,0.008337854,0,0.4774225,0.2892019,0.013606021,0.022918353,0.004548331,0.0010039287,nan,nan,nan,0.004,1310988,1310988,6620172,197388,63.463287,63.157204,0.47836974,0.48238713,0,959,3,1,4,3,2,0,0,0,0,0,0,0,0
2043848000,2043696000,17764060236391,0.00011516814,0.003859743,0.00832418,0,0.47827467,0.28959256,0.013606021,0.022918353,0.004548331,0.0010039287,nan,nan,nan,0.004,1310988,1310988,6620172,197388,63.463287,63.157204,0.47836974,0.48238713,0,959,3,1,4,3,2,0,0,0,0,0,0,0,0
2043856000,2043704000,17764060236391,0.00011181723,0.0038383573,0.008316661,0,0.47912994,0.28998387,0.013606021,0.022918353,0.004548331,0.0010039287,nan,nan,nan,0.004,1310988,1310988,6620172,197388,63.463287,63.157204,0.47836974,0.48238713,0,959,3,1,4,3,2,0,0,0,0,0,0,0,0
2043864000,2043712000,17764060236391,0.00010856799,0.0038209804,0.008313802,0,0.47998834,0.2903758,0.013606021,0.022918353,0.004548331,0.0010039287,nan,nan,nan,0.004,1310988,1310988,6620172,197388,63.463287,63.157204,0.47836974,0.48238713,0,959,3,1,4,3,2,0,0,0,0,0,0,0,0
2043880000,2043728000,17764060236391,0.00012101328,0.0037121882,0.008244026,0,0.4817123,0.2911616,0.013606021,0.022918353,0.004548331,0.0010039287,nan,nan,nan,0.004,1310988,1310988,6620172,197388,63.463287,63.157204,0.47836974,0.48238713,0,959,3,1,4,3,2,0,0,0,0,0,0,0,0
2043888000,2043736000,17764060236391,0.00011814245,0.0036942146,0.008211029,0,0.48258004,0.29055887,0.013606021,0.022918353,0.004548331,0.00077705015,nan,nan,nan,0.004,1310988,1310988,6620172,197388,63.463287,63.157204,0.47836974,0.48238713,0,959,3,1,4,3,2,0,0,0,0,0,0,0,0
2043896000,2043744000,17764060236391,0.00011532651,0.0036825074,0.00822116,0,0.4834509,0.290952,0.013606021,0.022918353,0.004548331,0.00077705015,nan,nan,nan,0.004,1310988,1310988,6620172,197388,63.463287,63.157204,0.47836974,0.48238713,0,959,3,1,4,3,2,0,0,0,0,0,0,0,0
2043904000,2043752000,17764060236391,0.00011258197,0.0036727523,0.008234286,0,0.48432487,0.29134578,0.013606021,0.022918353,0.004548331,0.00077705015,nan,nan,nan,0.004,1310988,1310988,6620172,197388,63.463287,63.157204,0.47836974,0.48238713,0,959,3,1,4,3,2,0,0,0,0,0,0,0,0
2043920000,2043768000,17764060236391,9.500645e-05,0.0037546891,0.008376972,0,0.48606595,0.2921352,0.0129671525,0.022918353,0.004548331,0.00077705015,nan,nan,nan,0.004,1310988,1310988,6620172,197388,63.569763,63.157204,0.4807623,0.48238713,0,959,3,1,4,3,2,0,0,0,0,0,0,0,0
2043928000,2043776000,17764060236391,9.226071e-05,0.0037501703,0.008397261,0,0.48694918,0.29253086,0.0129671525,0.022918353,0.004548331,0.00077705015,nan,nan,nan,0.004,1310988,1310988,6620172,197388,63.569763,63.157204,0.4807623,0.48238713,0,959,3,1,4,3,2,0,0,0,0,0,0,0,0
2043936000,2043784000,17764060236391,8.905114e-05,0.003745446,0.008420912,0,0.48783556,0.29292718,0.0129671525,0.022918353,0.004548331,0.00077705015,nan,nan,nan,0.004,1310988,1310988,6620172,197388,63.569763,63.157204,0.4807623,0.48238713,0,959,3,1,4,3,2,0,0,0,0,0,0,0,0
2043944000,2043792000,17764060236391,8.589924e-05,0.0037429093,0.008445602,0,0.4887251,0.2933241,0.0129671525,0.022918353,0.004548331,0.00077705015,nan,nan,nan,0.004,1310988,1310988,6620172,197388,63.569763,63.157204,0.4807623,0.48238713,0,959,3,1,4,3,2,0,0,0,0,0,0,0,0
2043960000,2043808000,17764060236391,7.981554e-05,0.0037397817,0.008477623,0,0.49051377,0.2930996,0.0129671525,0.022918353,0.004548331,0.0004248211,nan,nan,nan,0.004,1310988,1310988,6620172,197388,63.569763,63.157204,0.4807623,0.48238713,0,959,3,1,4,3,2,0,0,0,0,0,0,0,0
2043968000,2043816000,17764060236391,7.690854e-05,0.0037427926,0.00850697,0,0.4914129,0.29349706,0.0129671525,0.022918353,0.004548331,0.0004248211,nan,nan,nan,0.004,1310988,1310988,6620172,197388,63.569763,63.157204,0.4807623,0.48238713,0,959,3,1,4,3,2,0,0,0,0,0,0,0,0
2043976000,2043824000,17764060236391,7.408461e-05,0.003747212,0.008536868,0,0.4923152,0.29389513,0.0129671525,0.022918353,0.004548331,0.0004248211,nan,nan,nan,0.004,1310988,1310988,6620172,197388,63.569763,63.157204,0.4807623,0.48238713,0,959,3,1,4,3,2,0,0,0,0,0,0,0,0
2043984000,2043832000,17764060236391,0.00010432881,0.0037605166,0.008583579,0,0.49320263,0.29429382,0.012686885,0.022918353,0.004548331,0.0004248211,nan,nan,nan,0.004,1310988,1310988,6620172,197388,63.480827,63.157204,0.47969174,0.48238713,0,959,3,1,4,3,2,0,0,0,0,0,0,0,0
2044000000,2043848000,17764060236391,9.881716e-05,0.003765914,0.008642524,0,0.4950228,0.29509312,0.012686885,0.022918353,0.004548331,0.0004248211,nan,nan,nan,0.004,1310988,1310988,6620172,197388,63.480827,63.157204,0.47969174,0.48238713,0,959,3,1,4,3,2,0,0,0,0,0,0,0,0
2044008000,2043856000,17764060236391,9.5637304e-05,0.003770051,0.00867265,0,0.49593773,0.2944563,0.012686885,0.022918353,0.004548331,0.00041514612,nan,nan,nan,0.004,1310988,1310988,6620172,197388,63.480827,63.157204,0.47969174,0.48238713,0,959,3,1,4,3,2,0,0,0,0,0,0,0,0
2044016000,2043864000,17764060236391,9.2575414e-05,0.003774497,0.008703483,0,0.49685585,0.2948561,0.012686885,0.022918353,0.004548331,0.00041514612,nan,nan,nan,0.004,1310988,1310988,6620172,197388,63.480827,63.157204,0.47969174,0.48238713,0,959,3,1,4,3,2,0,0,0,0,0,0,0,0
2044024000,2043872000,17764060236391,8.955165e-05,0.0037784511,0.008733827,0,0.4977772,0.29525656,0.012686885,0.022918353,0.004548331,0.00041514612,nan,nan,nan,0.004,1310988,1310988,6620172,197388,63.480827,63.157204,0.47969174,0.48238713,0,959,3,1,4,3,2,0,0,0,0,0,0,0,0
2044040000,2043888000,17764060236391,8.262196e-05,0.003786569,0.008794636,0,0.49962953,0.2960593,0.012686885,0.022918353,0.004548331,0.00041514612,nan,nan,nan,0.004,1310988,1310988,6620172,197388,63.480827,63.157204,0.47969174,0.48238713,0,959,3,1,4,3,2,0,0,0,0,0,0,0,0
2044048000,2043896000,17764060236391,7.924647e-05,0.003790785,0.0088245105,0,0.5005605,0.2964616,0.012686885,0.022918353,0.004548331,0.00041514612,nan,nan,nan,0.004,1310988,1310988,6620172,197388,63.480827,63.157204,0.47969174,0.48238713,0,959,3,1,4,3,2,0,0,0,0,0,0,0,0
2044056000,2043904000,17764060236391,0.00025235547,0.010521985,0.021086935,0,0.45870784,0.28298405,0.01187194,0.028944151,0.004744836,0.0006535027,nan,nan,nan,0.004,1310988,1310988,6620172,197388,63.457005,63.157204,0.48203185,0.48238713,0,959,3,1,4,3,2,0,0,0,0,0,0,0,0
2044064000,2043912000,17764060236391,0.00025004358,0.0101856,0.020472223,0,0.45949042,0.28336358,0.01187194,0.028944151,0.004744836,0.0006535027,nan,nan,nan,0.004,1310988,1310988,6620172,197388,63.457005,63.157204,0.48203185,0.48238713,0,959,3,1,4,3,2,0,0,0,0,0,0,0,0
2044080000,2043928000,17764060236391,0.0002459909,0.009569627,0.019314287,0,0.46106306,0.28320196,0.01187194,0.028944151,0.004744836,0.00048588577,nan,nan,nan,0.004,1310988,1310988,6620172,197388,63.457005,63.157204,0.48203185,0.48238713,0,959,3,1,4,3,2,0,0,0,0,0,0,0,0
2044088000,2043936000,17764060236391,0.00024396533,0.009265331,0.018764,0,0.46185458,0.28358215,0.01187194,0.028944151,0.004744836,0.00048588577,nan,nan,nan,0.004,1310988,1310988,6620172,197388,63.457005,63.157204,0.48203185,0.48238713,0,959,3,1,4,3,2,0,0,0,0,0,0,0,0
2044096000,2043944000,17764060236391,0.00024203767,0.008972973,0.018234264,0,0.4626491,0.283963,0.01187194,0.028944151,0.004744836,0.00048588577,nan,nan,nan,0.004,1310988,1310988,6620172,197388,63.457005,63.157204,0.48203185,0.48238713,0,959,3,1,4,3,2,0,0,0,0,0,0,0,0
2044104000,2043952000,17764060236391,0.00024020969,0.008690413,0.017725231,0,0.46344665,0.2843445,0.01187194,0.028944151,0.004744836,0.00048588577,nan,nan,nan,0.004,1310988,1310988,6620172,197388,63.457005,63.157204,0.48203185,0.48238713,0,959,3,1,4,3,2,0,0,0,0,0,0,0,0
2044120000,2043968000,17764060236391,0.0002368507,0.008152378,0.016763281,0,0.46505076,0.2851094,0.01187194,0.028944151,0.004744836,0.00048588577,nan,nan,nan,0.004,1310988,1310988,6620172,197388,63.457005,63.157204,0.48203185,0.48238713,0,959,3,1,4,3,2,0,0,0,0,0,0,0,0
2044128000,2043976000,17764060236391,0.00023922602,0.007955961,0.016362559,0,0.46584564,0.28549284,0.011209093,0.028944151,0.004744836,0.00048588577,nan,nan,nan,0.004,1310988,1310988,6620172,197388,63.41537,63.157204,0.48061648,0.48238713,0,959,3,1,4,3,2,0,0,0,0,0,0,0,0
2044136000,2043984000,17764060236391,0.00023751674,0.0077068303,0.015924964,0,0.46665508,0.2858769,0.011209093,0.028944151,0.004744836,0.00048588577,nan,nan,nan,0.004,1310988,1310988,6620172,197388,63.41537,63.157204,0.48061648,0.48238713,0,959,3,1,4,3,2,0,0,0,0,0,0,0,0
2044144000,2043992000,17764060236391,0.00023570473,0.0074694087,0.015502525,0,0.46746758,0.28626162,0.011209093,0.028944151,0.004744836,0.00048588577,nan,nan,nan,0.004,1310988,1310988,6620172,197388,63.41537,63.157204,0.48061648,0.48238713,0,959,3,1,4,3,2,0,0,0,0,0,0,0,0
2044160000,2044008000,17764060236391,0.0002324061,0.007017998,0.014680244,0,0.46910176,0.2860844,0.011209093,0.028944151,0.004744836,0.0009065649,nan,nan,nan,0.004,1310988,1310988,6620172,197388,63.41537,63.157204,0.48061648,0.48238713,0,959,3,1,4,3,2,0,0,0,0,0,0,0,0
2044168000,2044016000,17764060236391,0.00023091485,0.006807526,0.01430977,0,0.4699234,0.28646976,0.011209093,0.028944151,0.004744836,0.0009065649,nan,nan,nan,0.004,1310988,1310988,6620172,197388,63.41537,63.157204,0.48061648,0.48238713,0,959,3,1,4,3,2,0,0,0,0,0,0,0,0
2044176000,2044024000,17764060236391,0.0002295255,0.0066048885,0.013955956,0,0.47074813,0.28685576,0.011209093,0.028944151,0.004744836,0.0009065649,nan,nan,nan,0.004,1310988,1310988,6620172,197388,63.41537,63.157204,0.48061648,0.48238713,0,959,3,1,4,3,2,0,0,0,0,0,0,0,0
2044184000,2044032000,17764060236391,0.00022823586,0.0064111655,0.013618784,0,0.47157592,0.28724238,0.011209093,0.028944151,0.004744836,0.0009065649,nan,nan,nan,0.004,1310988,1310988,6620172,197388,63.41537,63.157204,0.48061648,0.48238713,0,959,3,1,4,3,2,0,0,0,0,0,0,0,0
2044200000,2044048000,17764060236391,0.00023048799,0.006070969,0.013003095,0,0.47322744,0.2880176,0.011015869,0.028944151,0.004744836,0.0009065649,nan,nan,nan,0.004,1310988,1310988,6620172,197388,63.350853,63.157204,0.4809785,0.48238713,0,959,3,1,4,3,2,0,0,0,0,0,0,0,0
2044208000,2044056000,17764060236391,0.00022916557,0.0058993637,0.0127080865,0,0.4740643,0.28840613,0.011015869,0.028944151,0.004744836,0.0009065649,nan,nan,nan,0.004,1310988,1310988,6620172,197388,63.350853,63.157204,0.4809785,0.48238713,0,959,3,1,4,3,2,0,0,0,0,0,0,0,0
2044216000,2044064000,17764060236391,0.00022218248,0.005733679,0.012424582,0,0.4749042,0.28879532,0.011015869,0.028944151,0.004744836,0.0009065649,nan,nan,nan,0.004,1310988,1310988,6620172,197388,63.350853,63.157204,0.4809785,0.48238713,0,959,3,1,4,3,2,0,0,0,0,0,0,0,0
2044224000,2044072000,17764060236391,0.00021527047,0.0055776904,0.01217338,0,0.47574723,0.28821257,0.011015869,0.028944151,0.004744836,0.00071647234,nan,nan,nan,0.004,1310988,1310988,6620172,197388,63.350853,63.157204,0.4809785,0.48238713,0,959,3,1,4,3,2,0,0,0,0,0,0,0,0
2044240000,2044088000,17764060236391,0.0002016104,0.005286864,0.011663405,0,0.4774426,0.2889915,0.011015869,0.028944151,0.004744836,0.00071647234,nan,nan,nan,0.004,1310988,1310988,6620172,197388,63.350853,63.157204,0.4809785,0.48238713,0,959,3,1,4,3,2,0,0,0,0,0,0,0,0
2044248000,2044096000,17764060236391,0.00019487482,0.0051479647,0.011425402,0,0.4782949,0.28938195,0.011015869,0.028944151,0.004744836,0.00071647234,nan,nan,nan,0.004,1310988,1310988,6620172,197388,63.350853,63.157204,0.4809785,0.48238713,0,959,3,1,4,3,2,0,0,0,0,0,0,0,0
2044256000,2044104000,17764060236391,0.00018819912,0.0050162836,0.011198933,0,0.47915035,0.28977302,0.011015869,0.028944151,0.004744836,0.00071647234,nan,nan,nan,0.004,1310988,1310988,6620172,197388,63.350853,63.157204,0.4809785,0.48238713,0,959,3,1,4,3,2,0,0,0,0,0,0,0,0
2044264000,2044112000,17764060236391,0.00017916724,0.0049046306,0.010998927,0,0.47999406,0.2901647,0.010203657,0.028944151,0.004744836,0.00071647234,nan,nan,nan,0.004,1310988,1310988,6620172,197388,63.44256,63.157204,0.4830632,0.48238713,0,959,3,1,4,3,2,0,0,0,0,0,0,0,0
2044280000,2044128000,17764060236391,0.0001652118,0.004690866,0.010615907,0,0.48171803,0.29095,0.010203657,0.028944151,0.004744836,0.00071647234,nan,nan,nan,0.004,1310988,1310988,6620172,197388,63.44256,63.157204,0.4830632,0.48238713,0,959,3,1,4,3,2,0,0,0,0,0,0,0,0
2044288000,2044136000,17764060236391,0.00015876643,0.004588009,0.010433106,0,0.48258576,0.2913436,0.010203657,0.028944151,0.004744836,0.00071647234,nan,nan,nan,0.004,1310988,1310988,6620172,197388,63.44256,63.157204,0.4830632,0.48238713,0,959,3,1,4,3,2,0,0,0,0,0,0,0,0
2044296000,2044144000,17764060236391,0.00015236961,0.004501482,0.010352582,0,0.4834566,0.2907394,0.010203657,0.028944151,0.004744836,0.0014740729,nan,nan,nan,0.004,1310988,1310988,6620172,197388,63.44256,63.157204,0.4830632,0.48238713,0,959,3,1,4,3,2,0,0,0,0,0,0,0,0
2044304000,2044152000,17764060236391,0.00014603305,0.0044084475,0.010187122,0,0.4843306,0.2911329,0.010203657,0.028944151,0.004744836,0.0014740729,nan,nan,nan,0.004,1310988,1310988,6620172,197388,63.44256,63.157204,0.4830632,0.48238713,0,959,3,1,4,3,2,0,0,0,0,0,0,0,0
2044320000,2044168000,17764060236391,0.0001335124,0.004240346,0.009884708,0,0.4860881,0.29192185,0.010203657,0.028944151,0.004744836,0.0014740729,nan,nan,nan,0.004,1310988,1310988,6620172,197388,63.44256,63.157204,0.4830632,0.48238713,0,959,3,1,4,3,2,0,0,0,0,0,0,0,0
2044328000,2044176000,17764060236391,0.00012733274,0.0041638254,0.009746302,0,0.48697156,0.29231727,0.010203657,0.028944151,0.004744836,0.0014740729,nan,nan,nan,0.004,1310988,1310988,6620172,197388,63.44256,63.157204,0.4830632,0.48238713,0,959,3,1,4,3,2,0,0,0,0,0,0,0,0
2044336000,2044184000,17764060236391,0.0001222414,0.004173613,0.009705932,0,0.48784146,0.2927133,0.009749809,0.028944151,0.004744836,0.0014740729,nan,nan,nan,0.004,1310988,1310988,6620172,197388,63.54411,63.157204,0.48115608,0.48238713,0,959,3,1,4,3,2,0,0,0,0,0,0,0,0
2044344000,2044192000,17764060236391,0.00011595689,0.0041023367,0.009581279,0,0.48873103,0.29311,0.009749809,0.028944151,0.004744836,0.0014740729,nan,nan,nan,0.004,1310988,1310988,6620172,197388,63.54411,63.157204,0.48115608,0.48238713,0,959,3,1,4,3,2,0,0,0,0,0,0,0,0
2044360000,2044208000,17764060236391,0.00010350186,0.0039764494,0.009357687,0,0.49051973,0.2939053,0.009749809,0.028944151,0.004744836,0.0014740729,nan,nan,nan,0.004,1310988,1310988,6620172,197388,63.54411,63.157204,0.48115608,0.48238713,0,959,3,1,4,3,2,0,0,0,0,0,0,0,0
2044368000,2044216000,17764060236391,9.7345175e-05,0.003923728,0.009279597,0,0.49141884,0.29327896,0.009749809,0.028944151,0.004744836,0.001436624,nan,nan,nan,0.004,1310988,1310988,6620172,197388,63.54411,63.157204,0.48115608,0.48238713,0,959,3,1,4,3,2,0,0,0,0,0,0,0,0
2044376000,2044224000,17764060236391,9.140988e-05,0.003874369,0.009187574,0,0.49232116,0.29367676,0.009749809,0.028944151,0.004744836,0.001436624,nan,nan,nan,0.004,1310988,1310988,6620172,197388,63.54411,63.157204,0.48115608,0.48238713,0,959,3,1,4,3,2,0,0,0,0,0,0,0,0
2044384000,2044232000,17764060236391,8.569186e-05,0.0038274468,0.0091026,0,0.4932267,0.2940752,0.009749809,0.028944151,0.004744836,0.001436624,nan,nan,nan,0.004,1310988,1310988,6620172,197388,63.54411,63.157204,0.48115608,0.48238713,0,959,3,1,4,3,2,0,0,0,0,0,0,0,0
2044400000,2044248000,17764060236391,7.6923025e-05,0.0038372548,0.009060957,0,0.49502882,0.29487398,0.009192254,0.028944151,0.004744836,0.001436624,nan,nan,nan,0.004,1310988,1310988,6620172,197388,63.57774,63.157204,0.48148984,0.48238713,0,959,3,1,4,3,2,0,0,0,0,0,0,0,0
2044408000,2044256000,17764060236391,7.171006e-05,0.0037981446,0.008993721,0,0.49594375,0.29527432,0.009192254,0.028944151,0.004744836,0.001436624,nan,nan,nan,0.004,1310988,1310988,6620172,197388,63.57774,63.157204,0.48148984,0.48238713,0,959,3,1,4,3,2,0,0,0,0,0,0,0,0
2044416000,2044264000,17764060236391,6.672155e-05,0.003762063,0.008932271,0,0.4968619,0.29567528,0.009192254,0.028944151,0.004744836,0.001436624,nan,nan,nan,0.004,1310988,1310988,6620172,197388,63.57774,63.157204,0.48148984,0.48238713,0,959,3,1,4,3,2,0,0,0,0,0,0,0,0
2044424000,2044272000,17764060236391,6.1926214e-05,0.0037299604,0.00887583,0,0.49778324,0.29607686,0.009192254,0.028944151,0.004744836,0.001436624,nan,nan,nan,0.004,1310988,1310988,6620172,197388,63.57774,63.157204,0.48148984,0.48238713,0,959,3,1,4,3,2,0,0,0,0,0,0,0,0
2044440000,2044288000,17764060236391,5.2801555e-05,0.0036712554,0.0087468885,0,0.4996356,0.29582992,0.009192254,0.028944151,0.004744836,0.0012922625,nan,nan,nan,0.004,1310988,1310988,6620172,197388,63.57774,63.157204,0.48148984,0.48238713,0,959,3,1,4,3,2,0,0,0,0,0,0,0,0
2044448000,2044296000,17764060236391,4.8536982e-05,0.0036466112,0.008707619,0,0.50056666,0.29623196,0.009192254,0.028944151,0.004744836,0.0012922625,nan,nan,nan,0.004,1310988,1310988,6620172,197388,63.57774,63.157204,0.48148984,0.48238713,0,959,3,1,4,3,2,0,0,0,0,0,0,0,0
2044456000,2044304000,17764060236391,0.00023424113,0.008556175,0.018139673,0,0.45872185,0.28278464,0.009192254,0.029254748,0.0046568303,0.0024342653,nan,nan,nan,0.004,1310988,1310988,6620172,197388,63.57774,63.157204,0.48148984,0.48238713,0,959,3,1,4,3,2,0,0,0,0,0,0,0,0
2044464000,2044312000,17764060236391,0.00023045216,0.008245057,0.017540734,0,0.4595046,0.2831639,0.009192254,0.029254748,0.0046568303,0.0024342653,nan,nan,nan,0.004,1310988,1310988,6620172,197388,63.57774,63.157204,0.48148984,0.48238713,0,959,3,1,4,3,2,0,0,0,0,0,0,0,0
2044480000,2044328000,17764060236391,0.00023498887,0.0077351555,0.016490562,0,0.461067,0.28392437,0.009809242,0.029254748,0.0046568303,0.0024342653,nan,nan,nan,0.004,1310988,1310988,6620172,197388,63.589127,63.157204,0.4795501,0.48238713,0,959,3,1,4,3,2,0,0,0,0,0,0,0,0
2044488000,2044336000,17764060236391,0.00023177562,0.007453879,0.01595033,0,0.46185854,0.28430557,0.009809242,0.029254748,0.0046568303,0.0024342653,nan,nan,nan,0.004,1310988,1310988,6620172,197388,63.589127,63.157204,0.4795501,0.48238713,0,959,3,1,4,3,2,0,0,0,0,0,0,0,0
2044496000,2044344000,17764060236391,0.00022886507,0.0071829027,0.015432778,0,0.4626531,0.2846874,0.009809242,0.029254748,0.0046568303,0.0024342653,nan,nan,nan,0.004,1310988,1310988,6620172,197388,63.589127,63.157204,0.4795501,0.48238713,0,959,3,1,4,3,2,0,0,0,0,0,0,0,0
2044504000,2044352000,17764060236391,0.00022612044,0.0069201104,0.014934185,0,0.46345064,0.2850699,0.009809242,0.029254748,0.0046568303,0.0024342653,nan,nan,nan,0.004,1310988,1310988,6620172,197388,63.589127,63.157204,0.4795501,0.48238713,0,959,3,1,4,3,2,0,0,0,0,0,0,0,0
2044520000,2044368000,17764060236391,0.00022107821,0.006422773,0.014004409,0,0.4650548,0.28490007,0.009809242,0.029254748,0.0046568303,0.002405588,nan,nan,nan,0.004,1310988,1310988,6620172,197388,63.589127,63.157204,0.4795501,0.48238713,0,959,3,1,4,3,2,0,0,0,0,0,0,0,0
2044528000,2044376000,17764060236391,0.00021876958,0.006187766,0.013560002,0,0.4658614,0.28528324,0.009809242,0.029254748,0.0046568303,0.002405588,nan,nan,nan,0.004,1310988,1310988,6620172,197388,63.589127,63.157204,0.4795501,0.48238713,0,959,3,1,4,3,2,0,0,0,0,0,0,0,0
2044536000,2044384000,17764060236391,0.00019247372,0.0059691845,0.013117918,0,0.46665925,0.28566703,0.01602782,0.029254748,0.0046568303,0.002405588,nan,nan,nan,0.004,1310988,1310988,6620172,197388,63.028545,63.157204,0.48495755,0.48238713,0,959,3,1,4,3,2,0,0,0,0,0,0,0,0
2044544000,2044392000,17764060236391,0.00019004289,0.0057464167,0.012703705,0,0.46747172,0.28605148,0.01602782,0.029254748,0.0046568303,0.002405588,nan,nan,nan,0.004,1310988,1310988,6620172,197388,63.028545,63.157204,0.48495755,0.48238713,0,959,3,1,4,3,2,0,0,0,0,0,0,0,0
2044560000,2044408000,17764060236391,0.00018559022,0.0053306245,0.011925911,0,0.4691059,0.2868223,0.01602782,0.029254748,0.0046568303,0.002405588,nan,nan,nan,0.004,1310988,1310988,6620172,197388,63.028545,63.157204,0.48495755,0.48238713,0,959,3,1,4,3,2,0,0,0,0,0,0,0,0
2044568000,2044416000,17764060236391,0.00018356333,0.005136398,0.011562133,0,0.46992752,0.28720865,0.01602782,0.029254748,0.0046568303,0.002405588,nan,nan,nan,0.004,1310988,1310988,6620172,197388,63.028545,63.157204,0.48495755,0.48238713,0,959,3,1,4,3,2,0,0,0,0,0,0,0,0
2044576000,2044424000,17764060236391,0.00018166823,0.004952336,0.011269056,0,0.47075227,0.286639,0.01602782,0.029254748,0.0046568303,0.0025621178,nan,nan,nan,0.004,1310988,1310988,6620172,197388,63.028545,63.157204,0.48495755,0.48238713,0,959,3,1,4,3,2,0,0,0,0,0,0,0,0
2044584000,2044432000,17764060236391,0.00017990703,0.004773809,0.010936833,0,0.47158003,0.28702536,0.01602782,0.029254748,0.0046568303,0.0025621178,nan,nan,nan,0.004,1310988,1310988,6620172,197388,63.028545,63.157204,0.48495755,0.48238713,0,959,3,1,4,3,2,0,0,0,0,0,0,0,0
2044600000,2044448000,17764060236391,0.00017675511,0.0044422597,0.010317373,0,0.47324485,0.2878,0.01602782,0.029254748,0.0046568303,0.0025621178,nan,nan,nan,0.004,1310988,1310988,6620172,197388,63.028545,63.157204,0.48495755,0.48238713,0,959,3,1,4,3,2,0,0,0,0,0,0,0,0
2044608000,2044456000,17764060236391,0.00018113745,0.004423092,0.010163995,0,0.47406837,0.28818828,0.016146746,0.029254748,0.0046568303,0.0025621178,nan,nan,nan,0.004,1310988,1310988,6620172,197388,63.575027,63.157204,0.4813527,0.48238713,0,959,3,1,4,3,2,0,0,0,0,0,0,0,0
2044616000,2044464000,17764060236391,0.00017541728,0.00427427,0.009887902,0,0.4749083,0.2885772,0.016146746,0.029254748,0.0046568303,0.0025621178,nan,nan,nan,0.004,1310988,1310988,6620172,197388,63.575027,63.157204,0.4813527,0.48238713,0,959,3,1,4,3,2,0,0,0,0,0,0,0,0
2044624000,2044472000,17764060236391,0.0001698483,0.004132636,0.009625306,0,0.4757513,0.28896672,0.016146746,0.029254748,0.0046568303,0.0025621178,nan,nan,nan,0.004,1310988,1310988,6620172,197388,63.575027,63.157204,0.4813527,0.48238713,0,959,3,1,4,3,2,0,0,0,0,0,0,0,0
2044640000,2044488000,17764060236391,0.00015927112,0.0038707112,0.009210454,0,0.47744662,0.28877214,0.016146746,0.029254748,0.0046568303,0.0027010995,nan,nan,nan,0.004,1310988,1310988,6620172,197388,63.575027,63.157204,0.4813527,0.48238713,0,959,3,1,4,3,2,0,0,0,0,0,0,0,0
2044648000,2044496000,17764060236391,0.00015424355,0.0037498598,0.008984821,0,0.4782989,0.28916228,0.016146746,0.029254748,0.0046568303,0.0027010995,nan,nan,nan,0.004,1310988,1310988,6620172,197388,63.575027,63.157204,0.4813527,0.48238713,0,959,3,1,4,3,2,0,0,0,0,0,0,0,0
2044656000,2044504000,17764060236391,0.0001493955,0.0036381162,0.008773902,0,0.47915435,0.28955308,0.016146746,0.029254748,0.0046568303,0.0027010995,nan,nan,nan,0.004,1310988,1310988,6620172,197388,63.575027,63.157204,0.4813527,0.48238713,0,959,3,1,4,3,2,0,0,0,0,0,0,0,0
2044664000,2044512000,17764060236391,0.0001447282,0.0035337678,0.008576052,0,0.48001292,0.2899445,0.016146746,0.029254748,0.0046568303,0.0027010995,nan,nan,nan,0.004,1310988,1310988,6620172,197388,63.575027,63.157204,0.4813527,0.48238713,0,959,3,1,4,3,2,0,0,0,0,0,0,0,0
2044680000,2044528000,17764060236391,0.00012771392,0.0032401197,0.008109787,0,0.481722,0.29072925,0.015488225,0.029254748,0.0046568303,0.0027010995,nan,nan,nan,0.004,1310988,1310988,6620172,197388,63.333992,63.157204,0.48225343,0.48238713,0,959,3,1,4,3,2,0,0,0,0,0,0,0,0
2044688000,2044536000,17764060236391,0.00012228433,0.0031611011,0.007946058,0,0.4825897,0.29112256,0.015488225,0.029254748,0.0046568303,0.0027010995,nan,nan,nan,0.004,1310988,1310988,6620172,197388,63.333992,63.157204,0.48225343,0.48238713,0,959,3,1,4,3,2,0,0,0,0,0,0,0,0
2044696000,2044544000,17764060236391,0.00011688922,0.0030895812,0.0077969055,0,0.48346052,0.29151654,0.015488225,0.029254748,0.0046568303,0.0027010995,nan,nan,nan,0.004,1310988,1310988,6620172,197388,63.333992,63.157204,0.48225343,0.48238713,0,959,3,1,4,3,2,0,0,0,0,0,0,0,0
2044704000,2044552000,17764060236391,0.00011155346,0.0030318822,0.007812223,0,0.48433444,0.2909109,0.015488225,0.029254748,0.0046568303,0.0030802428,nan,nan,nan,0.004,1310988,1310988,6620172,197388,63.333992,63.157204,0.48225343,0.48238713,0,959,3,1,4,3,2,0,0,0,0,0,0,0,0
2044720000,2044568000,17764060236391,0.00010107541,0.0029202348,0.007554617,0,0.48609182,0.2916993,0.015488225,0.029254748,0.0046568303,0.0030802428,nan,nan,nan,0.004,1310988,1310988,6620172,197388,63.333992,63.157204,0.48225343,0.48238713,0,959,3,1,4,3,2,0,0,0,0,0,0,0,0
2044728000,2044576000,17764060236391,9.592019e-05,0.0028725804,0.0074445554,0,0.48697525,0.2920944,0.015488225,0.029254748,0.0046568303,0.0030802428,nan,nan,nan,0.004,1310988,1310988,6620172,197388,63.333992,63.157204,0.48225343,0.48238713,0,959,3,1,4,3,2,0,0,0,0,0,0,0,0
2044736000,2044584000,17764060236391,9.0813235e-05,0.0028318528,0.007344732,0,0.4878618,0.29249018,0.015488225,0.029254748,0.0046568303,0.0030802428,nan,nan,nan,0.004,1310988,1310988,6620172,197388,63.333992,63.157204,0.48225343,0.48238713,0,959,3,1,4,3,2,0,0,0,0,0,0,0,0
2044744000,2044592000,17764060236391,8.575416e-05,0.0027987973,0.0072553474,0,0.48875156,0.29288658,0.015488225,0.029254748,0.0046568303,0.0030802428,nan,nan,nan,0.004,1310988,1310988,6620172,197388,63.333992,63.157204,0.48225343,0.48238713,0,959,3,1,4,3,2,0,0,0,0,0,0,0,0
2044760000,2044608000,17764060236391,7.556974e-05,0.0027264578,0.0070814975,0,0.4905232,0.2936813,0.014468078,0.029254748,0.0046568303,0.0030802428,nan,nan,nan,0.004,1310988,1310988,6620172,197388,63.33832,63.157204,0.4820819,0.48238713,0,959,3,1,4,3,2,0,0,0,0,0,0,0,0
2044768000,2044616000,17764060236391,7.0748065e-05,0.0027101918,0.007023588,0,0.49142227,0.2940796,0.014468078,0.029254748,0.0046568303,0.0030802428,nan,nan,nan,0.004,1310988,1310988,6620172,197388,63.33832,63.157204,0.4820819,0.48238713,0,959,3,1,4,3,2,0,0,0,0,0,0,0,0
2044776000,2044624000,17764060236391,6.615043e-05,0.0027025864,0.0070315236,0,0.4923245,0.2934518,0.014468078,0.029254748,0.0046568303,0.0030253436,nan,nan,nan,0.004,1310988,1310988,6620172,197388,63.33832,63.157204,0.4820819,0.48238713,0,959,3,1,4,3,2,0,0,0,0,0,0,0,0
2044784000,2044632000,17764060236391,6.178773e-05,0.0026967055,0.006994067,0,0.49322996,0.29384992,0.014468078,0.029254748,0.0046568303,0.0030253436,nan,nan,nan,0.004,1310988,1310988,6620172,197388,63.33832,63.157204,0.4820819,0.48238713,0,959,3,1,4,3,2,0,0,0,0,0,0,0,0
2044800000,2044648000,17764060236391,5.3860163e-05,0.0026936256,0.006941095,0,0.49505043,0.29464814,0.014468078,0.029254748,0.0046568303,0.0030253436,nan,nan,nan,0.004,1310988,1310988,6620172,197388,63.33832,63.157204,0.4820819,0.48238713,0,959,3,1,4,3,2,0,0,0,0,0,0,0,0
2044808000,2044656000,17764060236391,5.0345992e-05,0.0026979484,0.0069251093,0,0.49596548,0.2950482,0.014468078,0.029254748,0.0046568303,0.0030253436,nan,nan,nan,0.004,1310988,1310988,6620172,197388,63.33832,63.157204,0.4820819,0.48238713,0,959,3,1,4,3,2,0,0,0,0,0,0,0,0
2044816000,2044664000,17764060236391,4.7153746e-05,0.002705748,0.006916404,0,0.49688372,0.29544887,0.014468078,0.029254748,0.0046568303,0.0030253436,nan,nan,nan,0.004,1310988,1310988,6620172,197388,63.33832,63.157204,0.4820819,0.48238713,0,959,3,1,4,3,2,0,0,0,0,0,0,0,0
2044824000,2044672000,17764060236391,4.1515286e-05,0.002722964,0.0069280793,0,0.49778602,0.2958502,0.013546165,0.029254748,0.0046568303,0.0030253436,nan,nan,nan,0.004,1310988,1310988,6620172,197388,63.438225,63.157204,0.4792298,0.48238713,0,959,3,1,4,3,2,0,0,0,0,0,0,0,0
2044840000,2044688000,17764060236391,3.4349654e-05,0.002745928,0.0069347676,0,0.49963817,0.29665467,0.013546165,0.029254748,0.0046568303,0.0030253436,nan,nan,nan,0.004,1310988,1310988,6620172,197388,63.438225,63.157204,0.4792298,0.48238713,0,959,3,1,4,3,2,0,0,0,0,0,0,0,0
2044848000,2044696000,17764060236391,3.1149284e-05,0.0027683654,0.007064652,0,0.5005691,0.296004,0.013546165,0.029254748,0.0046568303,0.0031623654,nan,nan,nan,0.004,1310988,1310988,6620172,197388,63.438225,63.157204,0.4792298,0.48238713,0,959,3,1,4,3,2,0,0,0,0,0,0,0,0
2044856000,2044704000,17764060236391,0.0002108136,0.0064054825,0.014302187,0,0.45872688,0.28258663,0.013546165,0.028927132,0.0052940687,0.0030196859,nan,nan,nan,0.004,1310988,1310988,6620172,197388,63.438225,63.157204,0.4792298,0.48238713,0,959,3,1,4,3,2,0,0,0,0,0,0,0,0
2044864000,2044712000,17764060236391,0.00020809611,0.0061088298,0.013692078,0,0.45950958,0.28296566,0.013546165,0.028927132,0.0052940687,0.0030196859,nan,nan,nan,0.004,1310988,1310988,6620172,197388,63.438225,63.157204,0.4792298,0.48238713,0,959,3,1,4,3,2,0,0,0,0,0,0,0,0
2044880000,2044728000,17764060236391,0.0001887493,0.0054583168,0.012450573,0,0.46108246,0.28372568,0.013546165,0.028927132,0.0052940687,0.0030196859,nan,nan,nan,0.004,1310988,1310988,6620172,197388,63.438225,63.157204,0.4792298,0.48238713,0,959,3,1,4,3,2,0,0,0,0,0,0,0,0
2044888000,2044736000,17764060236391,0.00018627488,0.005193071,0.011899822,0,0.4618741,0.28410664,0.013546165,0.028927132,0.0052940687,0.0030196859,nan,nan,nan,0.004,1310988,1310988,6620172,197388,63.438225,63.157204,0.4792298,0.48238713,0,959,3,1,4,3,2,0,0,0,0,0,0,0,0
2044896000,2044744000,17764060236391,0.00018890148,0.0049461583,0.011384303,0,0.46265772,0.28448826,0.012384163,0.028927132,0.0052940687,0.0030196859,nan,nan,nan,0.004,1310988,1310988,6620172,197388,63.578648,63.157204,0.4804988,0.48238713,0,959,3,1,4,3,2,0,0,0,0,0,0,0,0
2044904000,2044752000,17764060236391,0.00018676088,0.004701406,0.010876202,0,0.46345523,0.2848705,0.012384163,0.028927132,0.0052940687,0.0030196859,nan,nan,nan,0.004,1310988,1310988,6620172,197388,63.578648,63.157204,0.4804988,0.48238713,0,959,3,1,4,3,2,0,0,0,0,0,0,0,0
2044920000,2044768000,17764060236391,0.0001827624,0.004238895,0.009919343,0,0.46505928,0.28469962,0.012384163,0.028927132,0.0052940687,0.0029182874,nan,nan,nan,0.004,1310988,1310988,6620172,197388,63.578648,63.157204,0.4804988,0.48238713,0,959,3,1,4,3,2,0,0,0,0,0,0,0,0
2044928000,2044776000,17764060236391,0.00018093386,0.0040213433,0.009469634,0,0.46586585,0.28508255,0.012384163,0.028927132,0.0052940687,0.0029182874,nan,nan,nan,0.004,1310988,1310988,6620172,197388,63.578648,63.157204,0.4804988,0.48238713,0,959,3,1,4,3,2,0,0,0,0,0,0,0,0
2044936000,2044784000,17764060236391,0.00017921215,0.003811127,0.00903851,0,0.4666755,0.2854661,0.012384163,0.028927132,0.0052940687,0.0029182874,nan,nan,nan,0.004,1310988,1310988,6620172,197388,63.578648,63.157204,0.4804988,0.48238713,0,959,3,1,4,3,2,0,0,0,0,0,0,0,0
2044944000,2044792000,17764060236391,0.00017759087,0.0036083972,0.008624115,0,0.4674881,0.28585032,0.012384163,0.028927132,0.0052940687,0.0029182874,nan,nan,nan,0.004,1310988,1310988,6620172,197388,63.578648,63.157204,0.4804988,0.48238713,0,959,3,1,4,3,2,0,0,0,0,0,0,0,0
2044960000,2044808000,17764060236391,0.00017458585,0.0032329645,0.007844518,0,0.46912253,0.28662065,0.012384163,0.028927132,0.0052940687,0.0029182874,nan,nan,nan,0.004,1310988,1310988,6620172,197388,63.578648,63.157204,0.4804988,0.48238713,0,959,3,1,4,3,2,0,0,0,0,0,0,0,0
2044968000,2044816000,17764060236391,0.00016681205,0.0031649393,0.0075847683,0,0.46993178,0.28700677,0.01159381,0.028927132,0.0052940687,0.0029182874,nan,nan,nan,0.004,1310988,1310988,6620172,197388,63.640064,63.157204,0.4764596,0.48238713,0,959,3,1,4,3,2,0,0,0,0,0,0,0,0
2044976000,2044824000,17764060236391,0.00016544225,0.0029999174,0.0072376607,0,0.47075647,0.28739354,0.01159381,0.028927132,0.0052940687,0.0029182874,nan,nan,nan,0.004,1310988,1310988,6620172,197388,63.640064,63.157204,0.4764596,0.48238713,0,959,3,1,4,3,2,0,0,0,0,0,0,0,0
2044984000,2044832000,17764060236391,0.00016423911,0.0028432477,0.006908335,0,0.4715842,0.28778097,0.01159381,0.028927132,0.0052940687,0.0029182874,nan,nan,nan,0.004,1310988,1310988,6620172,197388,63.640064,63.157204,0.4764596,0.48238713,0,959,3,1,4,3,2,0,0,0,0,0,0,0,0
2045000000,2044848000,17764060236391,0.00016211379,0.0025662696,0.006445818,0,0.47324893,0.28759402,0.01159381,0.028927132,0.0052940687,0.0029955197,nan,nan,nan,0.004,1310988,1310988,6620172,197388,63.640064,63.157204,0.4764596,0.48238713,0,959,3,1,4,3,2,0,0,0,0,0,0,0,0
2045008000,2044856000,17764060236391,0.0001611643,0.0024370116,0.0061694086,0,0.4740859,0.28798205,0.01159381,0.028927132,0.0052940687,0.0029955197,nan,nan,nan,0.004,1310988,1310988,6620172,197388,63.640064,63.157204,0.4764596,0.48238713,0,959,3,1,4,3,2,0,0,0,0,0,0,0,0
2045016000,2044864000,17764060236391,0.00015543961,0.0023179066,0.0059104976,0,0.47492597,0.28837073,0.01159381,0.028927132,0.0052940687,0.0029955197,nan,nan,nan,0.004,1310988,1310988,6620172,197388,63.640064,63.157204,0.4764596,0.48238713,0,959,3,1,4,3,2,0,0,0,0,0,0,0,0
2045024000,2044872000,17764060236391,0.00014979925,0.002207027,0.005669459,0,0.4757691,0.28876004,0.01159381,0.028927132,0.0052940687,0.0029955197,nan,nan,nan,0.004,1310988,1310988,6620172,197388,63.640064,63.157204,0.4764596,0.48238713,0,959,3,1,4,3,2,0,0,0,0,0,0,0,0
2045040000,2044888000,17764060236391,0.00013487543,0.0021909948,0.005421039,0,0.47745052,0.28954053,0.012495875,0.028927132,0.0052940687,0.0029955197,nan,nan,nan,0.004,1310988,1310988,6620172,197388,63.73724,63.157204,0.47947833,0.48238713,0,959,3,1,4,3,2,0,0,0,0,0,0,0,0
2045048000,2044896000,17764060236391,0.00012977458,0.002110396,0.005237743,0,0.4783028,0.28993174,0.012495875,0.028927132,0.0052940687,0.0029955197,nan,nan,nan,0.004,1310988,1310988,6620172,197388,63.73724,63.157204,0.47947833,0.48238713,0,959,3,1,4,3,2,0,0,0,0,0,0,0,0
2045056000,2044904000,17764060236391,0.00012464833,0.0020410374,0.0050747553,0,0.4791582,0.2903236,0.012495875,0.028927132,0.0052940687,0.0029955197,nan,nan,nan,0.004,1310988,1310988,6620172,197388,63.73724,63.157204,0.47947833,0.48238713,0,959,3,1,4,3,2,0,0,0,0,0,0,0,0
2045064000,2044912000,17764060236391,0.0001195979,0.0019720367,0.0048239026,0,0.4800167,0.28972805,0.012495875,0.028927132,0.0052940687,0.0027972981,nan,nan,nan,0.004,1310988,1310988,6620172,197388,63.73724,63.157204,0.47947833,0.48238713,0,959,3,1,4,3,2,0,0,0,0,0,0,0,0
2045080000,2044928000,17764060236391,0.00011363674,0.0017954427,0.004531576,0,0.48174104,0.29051226,0.012495875,0.028927132,0.0052940687,0.0027972981,nan,nan,nan,0.004,1310988,1310988,6620172,197388,63.73724,63.157204,0.47947833,0.48238713,0,959,3,1,4,3,2,0,0,0,0,0,0,0,0
2045088000,2044936000,17764060236391,0.000109810004,0.0017602419,0.004448608,0,0.4826089,0.2909053,0.012495875,0.028927132,0.0052940687,0.0027972981,nan,nan,nan,0.004,1310988,1310988,6620172,197388,63.73724,63.157204,0.47947833,0.48238713,0,959,3,1,4,3,2,0,0,0,0,0,0,0,0
2045096000,2044944000,17764060236391,0.00010612258,0.0017375393,0.004385985,0,0.48347995,0.291299,0.012495875,0.028927132,0.0052940687,0.0027972981,nan,nan,nan,0.004,1310988,1310988,6620172,197388,63.73724,63.157204,0.47947833,0.48238713,0,959,3,1,4,3,2,0,0,0,0,0,0,0,0
2045104000,2044952000,17764060236391,0.00010257077,0.0017251222,0.0043413206,0,0.48435414,0.2916933,0.012495875,0.028927132,0.0052940687,0.0027972981,nan,nan,nan,0.004,1310988,1310988,6620172,197388,63.73724,63.157204,0.47947833,0.48238713,0,959,3,1,4,3,2,0,0,0,0,0,0,0,0
2045120000,2044968000,17764060236391,0.0001287957,0.0017236393,0.0043124715,0,0.48609564,0.29248384,0.012087785,0.028927132,0.0052940687,0.0027972981,nan,nan,nan,0.004,1310988,1310988,6620172,197388,63.438976,63.157204,0.4805071,0.48238713,0,959,3,1,4,3,2,0,0,0,0,0,0,0,0
2045128000,2044976000,17764060236391,0.00012668905,0.0017284012,0.00431,0,0.48697907,0.29288006,0.012087785,0.028927132,0.0052940687,0.0027972981,nan,nan,nan,0.004,1310988,1310988,6620172,197388,63.438976,63.157204,0.4805071,0.48238713,0,959,3,1,4,3,2,0,0,0,0,0,0,0,0
2045136000,2044984000,17764060236391,0.00012474191,0.0017396718,0.0043008914,0,0.48786566,0.29226264,0.012087785,0.028927132,0.0052940687,0.0027018823,nan,nan,nan,0.004,1310988,1310988,6620172,197388,63.438976,63.157204,0.4805071,0.48238713,0,959,3,1,4,3,2,0,0,0,0,0,0,0,0
2045144000,2044992000,17764060236391,0.00012295599,0.0017594002,0.004325703,0,0.48875543,0.29265875,0.012087785,0.028927132,0.0052940687,0.0027018823,nan,nan,nan,0.004,1310988,1310988,6620172,197388,63.438976,63.157204,0.4805071,0.48238713,0,959,3,1,4,3,2,0,0,0,0,0,0,0,0
2045160000,2045008000,17764060236391,0.00011989018,0.0018176528,0.0044164406,0,0.4905445,0.29345286,0.012087785,0.028927132,0.0052940687,0.0027018823,nan,nan,nan,0.004,1310988,1310988,6620172,197388,63.438976,63.157204,0.4805071,0.48238713,0,959,3,1,4,3,2,0,0,0,0,0,0,0,0
2045168000,2045016000,17764060236391,0.00011857871,0.0018536366,0.00447494,0,0.4914438,0.29385087,0.012087785,0.028927132,0.0052940687,0.0027018823,nan,nan,nan,0.004,1310988,1310988,6620172,197388,63.438976,63.157204,0.4805071,0.48238713,0,959,3,1,4,3,2,0,0,0,0,0,0,0,0
2045176000,2045024000,17764060236391,0.00011747092,0.0018922235,0.004543898,0,0.49234632,0.2942495,0.012087785,0.028927132,0.0052940687,0.0027018823,nan,nan,nan,0.004,1310988,1310988,6620172,197388,63.438976,63.157204,0.4805071,0.48238713,0,959,3,1,4,3,2,0,0,0,0,0,0,0,0
2045184000,2045032000,17764060236391,0.00014024359,0.001959373,0.0046611736,0,0.493234,0.29464874,0.011760479,0.028927132,0.0052940687,0.0027018823,nan,nan,nan,0.004,1310988,1310988,6620172,197388,63.53846,63.157204,0.48236227,0.48238713,0,959,3,1,4,3,2,0,0,0,0,0,0,0,0
2045200000,2045048000,17764060236391,0.00013894148,0.0020407836,0.0048211333,0,0.4950546,0.29544917,0.011760479,0.028927132,0.0052940687,0.0027018823,nan,nan,nan,0.004,1310988,1310988,6620172,197388,63.53846,63.157204,0.48236227,0.48238713,0,959,3,1,4,3,2,0,0,0,0,0,0,0,0
2045208000,2045056000,17764060236391,0.0001381917,0.002090227,0.0050264928,0,0.49596968,0.2948092,0.011760479,0.028927132,0.0052940687,0.0030502242,nan,nan,nan,0.004,1310988,1310988,6620172,197388,63.53846,63.157204,0.48236227,0.48238713,0,959,3,1,4,3,2,0,0,0,0,0,0,0,0
2045216000,2045064000,17764060236391,0.00013753523,0.002135382,0.0051060356,0,0.496888,0.29520956,0.011760479,0.028927132,0.0052940687,0.0030502242,nan,nan,nan,0.004,1310988,1310988,6620172,197388,63.53846,63.157204,0.48236227,0.48238713,0,959,3,1,4,3,2,0,0,0,0,0,0,0,0
2045224000,2045072000,17764060236391,0.00013695698,0.0021800925,0.005190177,0,0.49780956,0.29561055,0.011760479,0.028927132,0.0052940687,0.0030502242,nan,nan,nan,0.004,1310988,1310988,6620172,197388,63.53846,63.157204,0.48236227,0.48238713,0,959,3,1,4,3,2,0,0,0,0,0,0,0,0
2045240000,2045088000,17764060236391,0.00013269049,0.0022729281,0.0053677494,0,0.49966234,0.2964144,0.011760479,0.028927132,0.0052940687,0.0030502242,nan,nan,nan,0.004,1310988,1310988,6620172,197388,63.53846,63.157204,0.48236227,0.48238713,0,959,3,1,4,3,2,0,0,0,0,0,0,0,0
2045248000,2045096000,17764060236391,0.00013060111,0.002319501,0.0054587736,0,0.5005936,0.2968173,0.011760479,0.028927132,0.0052940687,0.0030502242,nan,nan,nan,0.004,1310988,1310988,6620172,197388,63.53846,63.157204,0.48236227,0.48238713,0,959,3,1,4,3,2,0,0,0,0,0,0,0,0
2045256000,2045104000,17764060236391,0.00018029609,0.0075201285,0.017147806,0,0.4587286,0.28329206,0.010168994,0.026522186,0.005605093,0.003043093,nan,nan,nan,0.004,1310988,1310988,6620172,197388,63.33912,63.157204,0.48101866,0.48238713,0,959,3,1,4,3,2,0,0,0,0,0,0,0,0
2045264000,2045112000,17764060236391,0.00017788449,0.007254024,0.016580964,0,0.45951137,0.28367203,0.010168994,0.026522186,0.005605093,0.003043093,nan,nan,nan,0.004,1310988,1310988,6620172,197388,63.33912,63.157204,0.48101866,0.48238713,0,959,3,1,4,3,2,0,0,0,0,0,0,0,0
2045280000,2045128000,17764060236391,0.00016764965,0.006588228,0.015444474,0,0.46108434,0.2835084,0.010168994,0.026522186,0.005605093,0.0029515103,nan,nan,nan,0.004,1310988,1310988,6620172,197388,63.33912,63.157204,0.48101866,0.48238713,0,959,3,1,4,3,2,0,0,0,0,0,0,0,0
2045288000,2045136000,17764060236391,0.00016556348,0.006354005,0.014936274,0,0.461876,0.28388909,0.010168994,0.026522186,0.005605093,0.0029515103,nan,nan,nan,0.004,1310988,1310988,6620172,197388,63.33912,63.157204,0.48101866,0.48238713,0,959,3,1,4,3,2,0,0,0,0,0,0,0,0
2045296000,2045144000,17764060236391,0.00016363963,0.006130473,0.014451214,0,0.46267068,0.2842704,0.010168994,0.026522186,0.005605093,0.0029515103,nan,nan,nan,0.004,1310988,1310988,6620172,197388,63.33912,63.157204,0.48101866,0.48238713,0,959,3,1,4,3,2,0,0,0,0,0,0,0,0
2045304000,2045152000,17764060236391,0.00016187868,0.005917207,0.013984763,0,0.46346837,0.28465238,0.010168994,0.026522186,0.005605093,0.0029515103,nan,nan,nan,0.004,1310988,1310988,6620172,197388,63.33912,63.157204,0.48101866,0.48238713,0,959,3,1,4,3,2,0,0,0,0,0,0,0,0
2045320000,2045168000,17764060236391,0.00015886228,0.005515283,0.013099524,0,0.46507278,0.2854182,0.010168994,0.026522186,0.005605093,0.0029515103,nan,nan,nan,0.004,1310988,1310988,6620172,197388,63.33912,63.157204,0.48101866,0.48238713,0,959,3,1,4,3,2,0,0,0,0,0,0,0,0
2045328000,2045176000,17764060236391,0.00015751623,0.0053404155,0.012698877,0,0.46586785,0.2858021,0.009527088,0.026522186,0.005605093,0.0029515103,nan,nan,nan,0.004,1310988,1310988,6620172,197388,63.413166,63.157204,0.48057133,0.48238713,0,959,3,1,4,3,2,0,0,0,0,0,0,0,0
2045336000,2045184000,17764060236391,0.00015628761,0.005160767,0.01230443,0,0.46667746,0.28618664,0.009527088,0.026522186,0.005605093,0.0029515103,nan,nan,nan,0.004,1310988,1310988,6620172,197388,63.413166,63.157204,0.48057133,0.48238713,0,959,3,1,4,3,2,0,0,0,0,0,0,0,0
2045344000,2045192000,17764060236391,0.00015521173,0.0049893325,0.011927357,0,0.46749014,0.28657183,0.009527088,0.026522186,0.005605093,0.0029515103,nan,nan,nan,0.004,1310988,1310988,6620172,197388,63.413166,63.157204,0.48057133,0.48238713,0,959,3,1,4,3,2,0,0,0,0,0,0,0,0
2045360000,2045208000,17764060236391,0.00015364063,0.004680264,0.011302733,0,0.46912456,0.2863925,0.009527088,0.026522186,0.005605093,0.0028749723,nan,nan,nan,0.004,1310988,1310988,6620172,197388,63.413166,63.157204,0.48057133,0.48238713,0,959,3,1,4,3,2,0,0,0,0,0,0,0,0
2045368000,2045216000,17763985787623,0.00015314938,0.0045323037,0.0109775225,0,0.46994632,0.2867783,0.009527088,0.026522186,0.005605093,0.0028749723,nan,nan,nan,0.004,1310988,1310988,6620172,197388,63.413166,63.157204,0.48057133,0.48238713,0,831,3,1,4,3,2,0,0,0,0,0,0,0,0
2045376000,2045224000,17763985787623,0.00015284178,0.004392893,0.0106541095,0,0.4707712,0.28716475,0.009527088,0.026522186,0.005605093,0.0028749723,nan,nan,nan,0.004,1310988,1310988,6620172,197388,63.413166,63.157204,0.48057133,0.48238713,0,831,3,1,4,3,2,0,0,0,0,0,0,0,0
2045384000,2045232000,17763985787623,0.0001527203,0.0042606383,0.010361741,0,0.47159913,0.28755185,0.009527088,0.026522186,0.005605093,0.0028749723,nan,nan,nan,0.004,1310988,1310988,6620172,197388,63.413166,63.157204,0.48057133,0.48238713,0,831,3,1,4,3,2,0,0,0,0,0,0,0,0
2045400000,2045248000,17763985787543,0.00014777067,0.0040428797,0.009837112,0,0.4732509,0.28832793,0.009116524,0.026522186,0.005605093,0.0028749723,nan,nan,nan,0.004,1310988,1310988,6620172,197388,63.431404,63.157204,0.47996637,0.48238713,0,831,3,1,4,3,2,0,0,0,0,0,0,0,0
2045408000,2045256000,17763985787543,0.00014769439,0.003932262,0.009586522,0,0.47408783,0.28871694,0.009116524,0.026522186,0.005605093,0.0028749723,nan,nan,nan,0.004,1310988,1310988,6620172,197388,63.431404,63.157204,0.47996637,0.48238713,0,831,3,1,4,3,2,0,0,0,0,0,0,0,0
2045416000,2045264000,17763985787543,0.00014307872,0.003830392,0.009349039,0,0.47492787,0.28910658,0.009116524,0.026522186,0.005605093,0.0028749723,nan,nan,nan,0.004,1310988,1310988,6620172,197388,63.431404,63.157204,0.47996637,0.48238713,0,831,3,1,4,3,2,0,0,0,0,0,0,0,0
2045424000,2045272000,17763985787543,0.00013854846,0.0037363989,0.00912469,0,0.47577098,0.28852117,0.009116524,0.026522186,0.005605093,0.0030919737,nan,nan,nan,0.004,1310988,1310988,6620172,197388,63.431404,63.157204,0.47996637,0.48238713,0,831,3,1,4,3,2,0,0,0,0,0,0,0,0
2045440000,2045288000,17763985787543,0.00012980304,0.0035699622,0.00871348,0,0.47746655,0.289301,0.009116524,0.026522186,0.005605093,0.0030919737,nan,nan,nan,0.004,1310988,1310988,6620172,197388,63.431404,63.157204,0.47996637,0.48238713,0,831,3,1,4,3,2,0,0,0,0,0,0,0,0
2045448000,2045296000,17763985787543,0.00012550909,0.0034976867,0.008529307,0,0.47831896,0.28969187,0.009116524,0.026522186,0.005605093,0.0030919737,nan,nan,nan,0.004,1310988,1310988,6620172,197388,63.431404,63.157204,0.47996637,0.48238713,0,831,3,1,4,3,2,0,0,0,0,0,0,0,0
2045456000,2045304000,17763985787543,0.00012126272,0.0034334145,0.008357794,0,0.4791745,0.29008338,0.009116524,0.026522186,0.005605093,0.0030919737,nan,nan,nan,0.004,1310988,1310988,6620172,197388,63.431404,63.157204,0.47996637,0.48238713,0,831,3,1,4,3,2,0,0,0,0,0,0,0,0
2045464000,2045312000,17763985787543,0.00011707036,0.0033736248,0.008198396,0,0.48003316,0.29047552,0.009116524,0.026522186,0.005605093,0.0030919737,nan,nan,nan,0.004,1310988,1310988,6620172,197388,63.431404,63.157204,0.47996637,0.48238713,0,831,3,1,4,3,2,0,0,0,0,0,0,0,0
2045480000,2045328000,17763985787543,0.00010775693,0.0034280275,0.008085684,0,0.48174462,0.2912617,0.009524684,0.026522186,0.005605093,0.0030919737,nan,nan,nan,0.004,1310988,1310988,6620172,197388,63.755474,63.157204,0.48274428,0.48238713,0,831,3,1,4,3,2,0,0,0,0,0,0,0,0
2045488000,2045336000,17763985787543,0.00010368048,0.0033788756,0.00795675,0,0.48261246,0.29165575,0.009524684,0.026522186,0.005605093,0.0030919737,nan,nan,nan,0.004,1310988,1310988,6620172,197388,63.755474,63.157204,0.48274428,0.48238713,0,831,3,1,4,3,2,0,0,0,0,0,0,0,0
2045496000,2045344000,17763985787543,9.963727e-05,0.0033336307,0.00783725,0,0.4834834,0.29104882,0.009524684,0.026522186,0.005605093,0.0031674155,nan,nan,nan,0.004,1310988,1310988,6620172,197388,63.755474,63.157204,0.48274428,0.48238713,0,831,3,1,4,3,2,0,0,0,0,0,0,0,0
