timestamp,timestamp_sample,lat,lon,alt,alt_ellipsoid,delta_alt,delta_terrain,eph,epv,terrain_alt,lat_lon_valid,alt_valid,lat_lon_reset_counter,alt_reset_counter,terrain_reset_counter,terrain_alt_valid,dead_reckoning
2043328000,0,47.3981697,8.5453873,488.104,0.0,0.0,0.0,0.0,0.0,0.0,0,0,0,0,0,0,0
2043332000,0,47.3981697,8.5453873,488.104,0.0,0.0,0.0,0.0,0.0,0.0,0,0,0,0,0,0,0
2043428000,0,47.3981697,8.5453873,488.104,0.0,0.0,0.0,0.0,0.0,0.0,0,0,0,0,0,0,0
2043528000,0,47.3981697,8.5453873,488.104,0.0,0.0,0.0,0.0,0.0,0.0,0,0,0,0,0,0,0
2043628000,0,47.3981697,8.5453873,488.104,0.0,0.0,0.0,0.0,0.0,0.0,0,0,0,0,0,0,0
2043728000,0,47.3981697,8.5453873,488.104,0.0,0.0,0.0,0.0,0.0,0.0,0,0,0,0,0,0,0
2043824000,0,47.3981697,8.5453873,488.104,0.0,0.0,0.0,0.0,0.0,0.0,0,0,0,0,0,0,0
2043928000,0,47.3981697,8.5453873,488.104,0.0,0.0,0.0,0.0,0.0,0.0,0,0,0,0,0,0,0
2044028000,0,47.3981697,8.5453873,488.104,0.0,0.0,0.0,0.0,0.0,0.0,0,0,0,0,0,0,0
2044128000,0,47.3981697,8.5453873,488.104,0.0,0.0,0.0,0.0,0.0,0.0,0,0,0,0,0,0,0
2044228000,0,47.3981697,8.5453873,488.104,0.0,0.0,0.0,0.0,0.0,0.0,0,0,0,0,0,0,0
2044328000,0,47.3981697,8.5453873,488.104,0.0,0.0,0.0,0.0,0.0,0.0,0,0,0,0,0,0,0
2044428000,0,47.3981697,8.5453873,488.104,0.0,0.0,0.0,0.0,0.0,0.0,0,0,0,0,0,0,0
2044528000,0,47.3981697,8.5453873,488.104,0.0,0.0,0.0,0.0,0.0,0.0,0,0,0,0,0,0,0
2044628000,0,47.3981697,8.5453873,488.104,0.0,0.0,0.0,0.0,0.0,0.0,0,0,0,0,0,0,0
2044728000,0,47.3981697,8.5453873,488.104,0.0,0.0,0.0,0.0,0.0,0.0,0,0,0,0,0,0,0
2044828000,0,47.3981697,8.5453873,488.104,0.0,0.0,0.0,0.0,0.0,0.0,0,0,0,0,0,0,0
2044928000,0,47.3981697,8.5453873,488.104,0.0,0.0,0.0,0.0,0.0,0.0,0,0,0,0,0,0,0
2045028000,0,47.3981697,8.5453873,488.104,0.0,0.0,0.0,0.0,0.0,0.0,0,0,0,0,0,0,0
2045128000,0,47.3981697,8.5453873,488.104,0.0,0.0,0.0,0.0,0.0,0.0,0,0,0,0,0,0,0
2045228000,0,47.3981697,8.5453873,488.104,0.0,0.0,0.0,0.0,0.0,0.0,0,0,0,0,0,0,0
2045328000,0,47.3981697,8.5453873,488.104,0.0,0.0,0.0,0.0,0.0,0.0,0,0,0,0,0,0,0
2045428000,0,47.3981697,8.5453873,488.104,0.0,0.0,0.0,0.0,0.0,0.0,0,0,0,0,0,0,0
2045528000,0,47.3981697,8.5453873,488.104,0.0,0.0,0.0,0.0,0.0,0.0,0,0,0,0,0,0,0
2045628000,0,47.3981697,8.5453873,488.104,0.0,0.0,0.0,0.0,0.0,0.0,0,0,0,0,0,0,0
2045728000,0,47.3981697,8.5453873,488.104,0.0,0.0,0.0,0.0,0.0,0.0,0,0,0,0,0,0,0
2045828000,0,47.3981697,8.5453873,488.104,0.0,0.0,0.0,0.0,0.0,0.0,0,0,0,0,0,0,0
2045928000,0,47.3981697,8.5453873,488.104,0.0,0.0,0.0,0.0,0.0,0.0,0,0,0,0,0,0,0
2046028000,0,47.3981697,8.5453873,488.104,0.0,0.0,0.0,0.0,0.0,0.0,0,0,0,0,0,0,0
2046128000,0,47.3981697,8.5453873,488.104,0.0,0.0,0.0,0.0,0.0,0.0,0,0,0,0,0,0,0
2046228000,0,47.3981697,8.5453873,488.104,0.0,0.0,0.0,0.0,0.0,0.0,0,0,0,0,0,0,0
2046328000,0,47.3981697,8.5453873,488.104,0.0,0.0,0.0,0.0,0.0,0.0,0,0,0,0,0,0,0
2046428000,0,47.3981697,8.5453873,488.104,0.0,0.0,0.0,0.0,0.0,0.0,0,0,0,0,0,0,0
2046528000,0,47.3981697,8.5453873,488.104,0.0,0.0,0.0,0.0,0.0,0.0,0,0,0,0,0,0,0
2046628000,0,47.3981697,8.5453873,488.104,0.0,0.0,0.0,0.0,0.0,0.0,0,0,0,0,0,0,0
2046728000,0,47.3981697,8.5453873,488.104,0.0,0.0,0.0,0.0,0.0,0.0,0,0,0,0,0,0,0
2046828000,0,47.3981697,8.5453873,488.104,0.0,0.0,0.0,0.0,0.0,0.0,0,0,0,0,0,0,0
2046928000,0,47.3981697,8.5453873,488.104,0.0,0.0,0.0,0.0,0.0,0.0,0,0,0,0,0,0,0
2047028000,0,47.3981697,8.5453873,488.104,0.0,0.0,0.0,0.0,0.0,0.0,0,0,0,0,0,0,0
2047128000,0,47.3981697,8.5453873,488.104,0.0,0.0,0.0,0.0,0.0,0.0,0,0,0,0,0,0,0
2047228000,0,47.3981697,8.5453873,488.104,0.0,0.0,0.0,0.0,0.0,0.0,0,0,0,0,0,0,0
2047328000,0,47.3981697,8.5453873,488.104,0.0,0.0,0.0,0.0,0.0,0.0,0,0,0,0,0,0,0
2047428000,0,47.3981697,8.5453873,488.104,0.0,0.0,0.0,0.0,0.0,0.0,0,0,0,0,0,0,0
2047528000,0,47.3981697,8.5453873,488.104,0.0,0.0,0.0,0.0,0.0,0.0,0,0,0,0,0,0,0
2047628000,0,47.3981697,8.5453873,488.104,0.0,0.0,0.0,0.0,0.0,0.0,0,0,0,0,0,0,0
2047728000,0,47.3981697,8.5453873,488.104,0.0,0.0,0.0,0.0,0.0,0.0,0,0,0,0,0,0,0
2047828000,0,47.3981697,8.5453873,488.104,0.0,0.0,0.0,0.0,0.0,0.0,0,0,0,0,0,0,0
2047928000,0,47.3981697,8.5453873,488.104,0.0,0.0,0.0,0.0,0.0,0.0,0,0,0,0,0,0,0
2048028000,0,47.3981697,8.5453873,488.104,0.0,0.0,0.0,0.0,0.0,0.0,0,0,0,0,0,0,0
2048128000,0,47.3981697,8.5453873,488.107,0.0,0.0,0.0,0.0,0.0,0.0,0,0,0,0,0,0,0
2048228000,0,47.3981697,8.5453873,488.114,0.0,0.0,0.0,0.0,0.0,0.0,0,0,0,0,0,0,0
2048328000,0,47.398169599999996,8.5453873,488.127,0.0,0.0,0.0,0.0,0.0,0.0,0,0,0,0,0,0,0
2048428000,0,47.398169499999995,8.5453873,488.148,0.0,0.0,0.0,0.0,0.0,0.0,0,0,0,0,0,0,0
2048528000,0,47.3981694,8.5453874,488.177,0.0,0.0,0.0,0.0,0.0,0.0,0,0,0,0,0,0,0
2048628000,0,47.3981692,8.5453874,488.214,0.0,0.0,0.0,0.0,0.0,0.0,0,0,0,0,0,0,0
2048728000,0,47.398168999999996,8.5453875,488.262,0.0,0.0,0.0,0.0,0.0,0.0,0,0,0,0,0,0,0
2048828000,0,47.3981688,8.5453876,488.319,0.0,0.0,0.0,0.0,0.0,0.0,0,0,0,0,0,0,0
2048928000,0,47.3981685,8.5453877,488.387,0.0,0.0,0.0,0.0,0.0,0.0,0,0,0,0,0,0,0
2049028000,0,47.398168299999995,8.5453877,488.457,0.0,0.0,0.0,0.0,0.0,0.0,0,0,0,0,0,0,0
2049128000,0,47.3981682,8.5453878,488.529,0.0,0.0,0.0,0.0,0.0,0.0,0,0,0,0,0,0,0
2049228000,0,47.398168,8.5453878,488.604,0.0,0.0,0.0,0.0,0.0,0.0,0,0,0,0,0,0,0
2049328000,0,47.398167799999996,8.5453879,488.68,0.0,0.0,0.0,0.0,0.0,0.0,0,0,0,0,0,0,0
2049428000,0,47.398167699999995,8.5453879,488.753,0.0,0.0,0.0,0.0,0.0,0.0,0,0,0,0,0,0,0
2049528000,0,47.3981676,8.5453879,488.834,0.0,0.0,0.0,0.0,0.0,0.0,0,0,0,0,0,0,0
2049628000,0,47.3981676,8.5453879,488.913,0.0,0.0,0.0,0.0,0.0,0.0,0,0,0,0,0,0,0
2049728000,0,47.3981675,8.5453879,488.992,0.0,0.0,0.0,0.0,0.0,0.0,0,0,0,0,0,0,0
2049828000,0,47.3981675,8.5453878,489.07,0.0,0.0,0.0,0.0,0.0,0.0,0,0,0,0,0,0,0
2049928000,0,47.3981675,8.5453878,489.151,0.0,0.0,0.0,0.0,0.0,0.0,0,0,0,0,0,0,0
2050028000,0,47.3981675,8.5453878,489.235,0.0,0.0,0.0,0.0,0.0,0.0,0,0,0,0,0,0,0
2050128000,0,47.3981676,8.5453877,489.317,0.0,0.0,0.0,0.0,0.0,0.0,0,0,0,0,0,0,0
2050228000,0,47.3981676,8.5453876,489.398,0.0,0.0,0.0,0.0,0.0,0.0,0,0,0,0,0,0,0
2050328000,0,47.398167699999995,8.5453876,489.478,0.0,0.0,0.0,0.0,0.0,0.0,0,0,0,0,0,0,0
2050428000,0,47.398167699999995,8.5453875,489.558,0.0,0.0,0.0,0.0,0.0,0.0,0,0,0,0,0,0,0
2050528000,0,47.398167799999996,8.5453874,489.637,0.0,0.0,0.0,0.0,0.0,0.0,0,0,0,0,0,0,0
2050624000,0,47.3981679,8.5453874,489.712,0.0,0.0,0.0,0.0,0.0,0.0,0,0,0,0,0,0,0
2050728000,0,47.398168,8.5453873,489.792,0.0,0.0,0.0,0.0,0.0,0.0,0,0,0,0,0,0,0
2050828000,0,47.3981681,8.5453872,489.865,0.0,0.0,0.0,0.0,0.0,0.0,0,0,0,0,0,0,0
2050928000,0,47.3981682,8.5453872,489.939,0.0,0.0,0.0,0.0,0.0,0.0,0,0,0,0,0,0,0
2051028000,0,47.398168399999996,8.5453871,490.012,0.0,0.0,0.0,0.0,0.0,0.0,0,0,0,0,0,0,0
2051128000,0,47.3981685,8.545387,490.086,0.0,0.0,0.0,0.0,0.0,0.0,0,0,0,0,0,0,0
2051224000,0,47.3981686,8.545387,490.15,0.0,0.0,0.0,0.0,0.0,0.0,0,0,0,0,0,0,0
2051328000,0,47.3981687,8.5453869,490.22,0.0,0.0,0.0,0.0,0.0,0.0,0,0,0,0,0,0,0
2051428000,0,47.3981688,8.5453869,490.285,0.0,0.0,0.0,0.0,0.0,0.0,0,0,0,0,0,0,0
2051528000,0,47.398168899999995,8.5453868,490.351,0.0,0.0,0.0,0.0,0.0,0.0,0,0,0,0,0,0,0
2051628000,0,47.398168999999996,8.5453868,490.412,0.0,0.0,0.0,0.0,0.0,0.0,0,0,0,0,0,0,0
2051728000,0,47.3981691,8.5453867,490.468,0.0,0.0,0.0,0.0,0.0,0.0,0,0,0,0,0,0,0
2051828000,0,47.3981692,8.5453867,490.523,0.0,0.0,0.0,0.0,0.0,0.0,0,0,0,0,0,0,0
2051928000,0,47.3981693,8.5453866,490.566,0.0,0.0,0.0,0.0,0.0,0.0,0,0,0,0,0,0,0
2052028000,0,47.3981694,8.5453866,490.596,0.0,0.0,0.0,0.0,0.0,0.0,0,0,0,0,0,0,0
2052128000,0,47.398169499999995,8.5453866,490.617,0.0,0.0,0.0,0.0,0.0,0.0,0,0,0,0,0,0,0
2052228000,0,47.398169599999996,8.5453865,490.633,0.0,0.0,0.0,0.0,0.0,0.0,0,0,0,0,0,0,0
2052328000,0,47.3981697,8.5453865,490.65,0.0,0.0,0.0,0.0,0.0,0.0,0,0,0,0,0,0,0
2052428000,0,47.3981697,8.5453865,490.67,0.0,0.0,0.0,0.0,0.0,0.0,0,0,0,0,0,0,0
2052528000,0,47.3981698,8.5453865,490.692,0.0,0.0,0.0,0.0,0.0,0.0,0,0,0,0,0,0,0
2052628000,0,47.3981698,8.5453865,490.716,0.0,0.0,0.0,0.0,0.0,0.0,0,0,0,0,0,0,0
2052728000,0,47.3981699,8.5453865,490.739,0.0,0.0,0.0,0.0,0.0,0.0,0,0,0,0,0,0,0
2052828000,0,47.3981699,8.5453865,490.761,0.0,0.0,0.0,0.0,0.0,0.0,0,0,0,0,0,0,0
2052928000,0,47.3981699,8.5453864,490.781,0.0,0.0,0.0,0.0,0.0,0.0,0,0,0,0,0,0,0
2053028000,0,47.39817,8.5453864,490.802,0.0,0.0,0.0,0.0,0.0,0.0,0,0,0,0,0,0,0
2053128000,0,47.39817,8.5453864,490.821,0.0,0.0,0.0,0.0,0.0,0.0,0,0,0,0,0,0,0
2053228000,0,47.39817,8.5453864,490.839,0.0,0.0,0.0,0.0,0.0,0.0,0,0,0,0,0,0,0
2053328000,0,47.39817,8.5453864,490.856,0.0,0.0,0.0,0.0,0.0,0.0,0,0,0,0,0,0,0
2053428000,0,47.39817,8.5453864,490.871,0.0,0.0,0.0,0.0,0.0,0.0,0,0,0,0,0,0,0
2053528000,0,47.39817,8.5453864,490.886,0.0,0.0,0.0,0.0,0.0,0.0,0,0,0,0,0,0,0
2053628000,0,47.39817,8.5453864,490.9,0.0,0.0,0.0,0.0,0.0,0.0,0,0,0,0,0,0,0
2053728000,0,47.39817,8.5453864,490.914,0.0,0.0,0.0,0.0,0.0,0.0,0,0,0,0,0,0,0
2053828000,0,47.39817,8.5453864,490.927,0.0,0.0,0.0,0.0,0.0,0.0,0,0,0,0,0,0,0
2053928000,0,47.39817,8.5453864,490.939,0.0,0.0,0.0,0.0,0.0,0.0,0,0,0,0,0,0,0
2054028000,0,47.3981699,8.545386299999999,490.951,0.0,0.0,0.0,0.0,0.0,0.0,0,0,0,0,0,0,0
2054128000,0,47.3981699,8.545386299999999,490.962,0.0,0.0,0.0,0.0,0.0,0.0,0,0,0,0,0,0,0
2054228000,0,47.3981699,8.545386299999999,490.972,0.0,0.0,0.0,0.0,0.0,0.0,0,0,0,0,0,0,0
2054328000,0,47.3981699,8.545386299999999,490.982,0.0,0.0,0.0,0.0,0.0,0.0,0,0,0,0,0,0,0
2054428000,0,47.3981699,8.545386299999999,490.991,0.0,0.0,0.0,0.0,0.0,0.0,0,0,0,0,0,0,0
2054528000,0,47.3981698,8.545386299999999,491.001,0.0,0.0,0.0,0.0,0.0,0.0,0,0,0,0,0,0,0
2054628000,0,47.3981698,8.545386299999999,491.009,0.0,0.0,0.0,0.0,0.0,0.0,0,0,0,0,0,0,0
2054728000,0,47.3981698,8.545386299999999,491.017,0.0,0.0,0.0,0.0,0.0,0.0,0,0,0,0,0,0,0
2054828000,0,47.3981698,8.545386299999999,491.024,0.0,0.0,0.0,0.0,0.0,0.0,0,0,0,0,0,0,0
2054928000,0,47.3981697,8.545386299999999,491.031,0.0,0.0,0.0,0.0,0.0,0.0,0,0,0,0,0,0,0
2055028000,0,47.3981697,8.545386299999999,491.038,0.0,0.0,0.0,0.0,0.0,0.0,0,0,0,0,0,0,0
2055128000,0,47.3981697,8.545386299999999,491.044,0.0,0.0,0.0,0.0,0.0,0.0,0,0,0,0,0,0,0
2055228000,0,47.398169599999996,8.545386299999999,491.049,0.0,0.0,0.0,0.0,0.0,0.0,0,0,0,0,0,0,0
2055328000,0,47.398169599999996,8.545386299999999,491.054,0.0,0.0,0.0,0.0,0.0,0.0,0,0,0,0,0,0,0
2055424000,0,47.398169599999996,8.545386299999999,491.059,0.0,0.0,0.0,0.0,0.0,0.0,0,0,0,0,0,0,0
2055528000,0,47.398169499999995,8.5453864,491.063,0.0,0.0,0.0,0.0,0.0,0.0,0,0,0,0,0,0,0
2055628000,0,47.398169499999995,8.5453864,491.068,0.0,0.0,0.0,0.0,0.0,0.0,0,0,0,0,0,0,0
2055728000,0,47.398169499999995,8.5453864,491.071,0.0,0.0,0.0,0.0,0.0,0.0,0,0,0,0,0,0,0
2055828000,0,47.3981694,8.5453864,491.075,0.0,0.0,0.0,0.0,0.0,0.0,0,0,0,0,0,0,0
2055928000,0,47.3981694,8.5453864,491.078,0.0,0.0,0.0,0.0,0.0,0.0,0,0,0,0,0,0,0
2056028000,0,47.3981694,8.5453864,491.082,0.0,0.0,0.0,0.0,0.0,0.0,0,0,0,0,0,0,0
2056128000,0,47.3981693,8.5453864,491.085,0.0,0.0,0.0,0.0,0.0,0.0,0,0,0,0,0,0,0
2056228000,0,47.3981693,8.5453864,491.088,0.0,0.0,0.0,0.0,0.0,0.0,0,0,0,0,0,0,0
2056328000,0,47.3981693,8.5453864,491.091,0.0,0.0,0.0,0.0,0.0,0.0,0,0,0,0,0,0,0
2056428000,0,47.3981692,8.5453864,491.093,0.0,0.0,0.0,0.0,0.0,0.0,0,0,0,0,0,0,0
2056528000,0,47.3981692,8.5453864,491.096,0.0,0.0,0.0,0.0,0.0,0.0,0,0,0,0,0,0,0
2056628000,0,47.3981692,8.5453864,491.097,0.0,0.0,0.0,0.0,0.0,0.0,0,0,0,0,0,0,0
2056728000,0,47.3981691,8.5453864,491.099,0.0,0.0,0.0,0.0,0.0,0.0,0,0,0,0,0,0,0
2056828000,0,47.3981691,8.5453864,491.099,0.0,0.0,0.0,0.0,0.0,0.0,0,0,0,0,0,0,0
2056928000,0,47.3981691,8.5453864,491.1,0.0,0.0,0.0,0.0,0.0,0.0,0,0,0,0,0,0,0
2057028000,0,47.3981691,8.5453864,491.1,0.0,0.0,0.0,0.0,0.0,0.0,0,0,0,0,0,0,0
2057128000,0,47.3981691,8.5453864,491.1,0.0,0.0,0.0,0.0,0.0,0.0,0,0,0,0,0,0,0
2057228000,0,47.3981691,8.5453864,491.1,0.0,0.0,0.0,0.0,0.0,0.0,0,0,0,0,0,0,0
2057328000,0,47.3981691,8.5453864,491.1,0.0,0.0,0.0,0.0,0.0,0.0,0,0,0,0,0,0,0
2057428000,0,47.398168999999996,8.5453865,491.1,0.0,0.0,0.0,0.0,0.0,0.0,0,0,0,0,0,0,0
2057528000,0,47.398168999999996,8.5453866,491.102,0.0,0.0,0.0,0.0,0.0,0.0,0,0,0,0,0,0,0
2057628000,0,47.3981688,8.5453868,491.105,0.0,0.0,0.0,0.0,0.0,0.0,0,0,0,0,0,0,0
2057728000,0,47.3981686,8.5453872,491.11,0.0,0.0,0.0,0.0,0.0,0.0,0,0,0,0,0,0,0
2057828000,0,47.3981682,8.5453878,491.116,0.0,0.0,0.0,0.0,0.0,0.0,0,0,0,0,0,0,0
2057928000,0,47.398167699999995,8.5453885,491.122,0.0,0.0,0.0,0.0,0.0,0.0,0,0,0,0,0,0,0
2058028000,0,47.3981668,8.545389499999999,491.13,0.0,0.0,0.0,0.0,0.0,0.0,0,0,0,0,0,0,0
2058128000,0,47.3981658,8.5453906,491.136,0.0,0.0,0.0,0.0,0.0,0.0,0,0,0,0,0,0,0
2058228000,0,47.3981645,8.5453919,491.141,0.0,0.0,0.0,0.0,0.0,0.0,0,0,0,0,0,0,0
2058328000,0,47.398163,8.545393299999999,491.145,0.0,0.0,0.0,0.0,0.0,0.0,0,0,0,0,0,0,0
2058428000,0,47.398161099999996,8.545395,491.147,0.0,0.0,0.0,0.0,0.0,0.0,0,0,0,0,0,0,0
2058528000,0,47.3981591,8.545396799999999,491.147,0.0,0.0,0.0,0.0,0.0,0.0,0,0,0,0,0,0,0
2058628000,0,47.398156799999995,8.5453987,491.147,0.0,0.0,0.0,0.0,0.0,0.0,0,0,0,0,0,0,0
2058728000,0,47.398154299999995,8.5454008,491.146,0.0,0.0,0.0,0.0,0.0,0.0,0,0,0,0,0,0,0
2058828000,0,47.398151299999995,8.545403,491.145,0.0,0.0,0.0,0.0,0.0,0.0,0,0,0,0,0,0,0
2058928000,0,47.3981484,8.5454052,491.142,0.0,0.0,0.0,0.0,0.0,0.0,0,0,0,0,0,0,0
2059028000,0,47.398145,8.5454077,491.136,0.0,0.0,0.0,0.0,0.0,0.0,0,0,0,0,0,0,0
2059128000,0,47.3981415,8.5454101,491.129,0.0,0.0,0.0,0.0,0.0,0.0,0,0,0,0,0,0,0
2059228000,0,47.3981378,8.545412599999999,491.121,0.0,0.0,0.0,0.0,0.0,0.0,0,0,0,0,0,0,0
2059328000,0,47.398134,8.5454151,491.111,0.0,0.0,0.0,0.0,0.0,0.0,0,0,0,0,0,0,0
2059428000,0,47.398130099999996,8.5454178,491.102,0.0,0.0,0.0,0.0,0.0,0.0,0,0,0,0,0,0,0
2059528000,0,47.3981263,8.5454204,491.093,0.0,0.0,0.0,0.0,0.0,0.0,0,0,0,0,0,0,0
2059628000,0,47.398122099999995,8.5454233,491.083,0.0,0.0,0.0,0.0,0.0,0.0,0,0,0,0,0,0,0
2059724000,0,47.3981184,8.5454259,491.074,0.0,0.0,0.0,0.0,0.0,0.0,0,0,0,0,0,0,0
2059828000,0,47.398114,8.5454289,491.065,0.0,0.0,0.0,0.0,0.0,0.0,0,0,0,0,0,0,0
2059928000,0,47.398109999999996,8.5454317,491.059,0.0,0.0,0.0,0.0,0.0,0.0,0,0,0,0,0,0,0
2060028000,0,47.3981061,8.5454344,491.054,0.0,0.0,0.0,0.0,0.0,0.0,0,0,0,0,0,0,0
2060128000,0,47.398102099999996,8.5454372,491.051,0.0,0.0,0.0,0.0,0.0,0.0,0,0,0,0,0,0,0
2060228000,0,47.3980983,8.5454399,491.049,0.0,0.0,0.0,0.0,0.0,0.0,0,0,0,0,0,0,0
2060328000,0,47.3980944,8.545442699999999,491.047,0.0,0.0,0.0,0.0,0.0,0.0,0,0,0,0,0,0,0
2060428000,0,47.398090599999996,8.5454454,491.047,0.0,0.0,0.0,0.0,0.0,0.0,0,0,0,0,0,0,0
2060528000,0,47.398086799999994,8.5454482,491.047,0.0,0.0,0.0,0.0,0.0,0.0,0,0,0,0,0,0,0
2060628000,0,47.3980831,8.5454508,491.047,0.0,0.0,0.0,0.0,0.0,0.0,0,0,0,0,0,0,0
2060728000,0,47.3980794,8.5454536,491.047,0.0,0.0,0.0,0.0,0.0,0.0,0,0,0,0,0,0,0
2060828000,0,47.398075399999996,8.5454566,491.048,0.0,0.0,0.0,0.0,0.0,0.0,0,0,0,0,0,0,0
2060928000,0,47.3980718,8.5454593,491.049,0.0,0.0,0.0,0.0,0.0,0.0,0,0,0,0,0,0,0
2061028000,0,47.3980679,8.545462299999999,491.05,0.0,0.0,0.0,0.0,0.0,0.0,0,0,0,0,0,0,0
2061128000,0,47.3980642,8.545465199999999,491.051,0.0,0.0,0.0,0.0,0.0,0.0,0,0,0,0,0,0,0
2061228000,0,47.3980604,8.545468099999999,491.052,0.0,0.0,0.0,0.0,0.0,0.0,0,0,0,0,0,0,0
2061328000,0,47.3980569,8.5454709,491.052,0.0,0.0,0.0,0.0,0.0,0.0,0,0,0,0,0,0,0
2061428000,0,47.398053,8.5454739,491.052,0.0,0.0,0.0,0.0,0.0,0.0,0,0,0,0,0,0,0
2061528000,0,47.3980494,8.5454768,491.051,0.0,0.0,0.0,0.0,0.0,0.0,0,0,0,0,0,0,0
2061628000,0,47.3980458,8.5454796,491.051,0.0,0.0,0.0,0.0,0.0,0.0,0,0,0,0,0,0,0
2061728000,0,47.3980424,8.5454824,491.052,0.0,0.0,0.0,0.0,0.0,0.0,0,0,0,0,0,0,0
2061828000,0,47.398039,8.5454851,491.053,0.0,0.0,0.0,0.0,0.0,0.0,0,0,0,0,0,0,0
2061928000,0,47.398035899999996,8.545487699999999,491.055,0.0,0.0,0.0,0.0,0.0,0.0,0,0,0,0,0,0,0
2062028000,0,47.398032699999995,8.545490299999999,491.056,0.0,0.0,0.0,0.0,0.0,0.0,0,0,0,0,0,0,0
2062128000,0,47.398029799999996,8.5454928,491.058,0.0,0.0,0.0,0.0,0.0,0.0,0,0,0,0,0,0,0
2062228000,0,47.3980269,8.5454951,491.059,0.0,0.0,0.0,0.0,0.0,0.0,0,0,0,0,0,0,0
2062324000,0,47.3980244,8.5454972,491.061,0.0,0.0,0.0,0.0,0.0,0.0,0,0,0,0,0,0,0
2062428000,0,47.3980215,8.5454996,491.062,0.0,0.0,0.0,0.0,0.0,0.0,0,0,0,0,0,0,0
2062528000,0,47.3980191,8.5455016,491.063,0.0,0.0,0.0,0.0,0.0,0.0,0,0,0,0,0,0,0
2062628000,0,47.3980166,8.5455036,491.064,0.0,0.0,0.0,0.0,0.0,0.0,0,0,0,0,0,0,0
2062728000,0,47.3980142,8.545505499999999,491.065,0.0,0.0,0.0,0.0,0.0,0.0,0,0,0,0,0,0,0
2062828000,0,47.398012,8.545507299999999,491.065,0.0,0.0,0.0,0.0,0.0,0.0,0,0,0,0,0,0,0
2062928000,0,47.39801,8.5455089,491.066,0.0,0.0,0.0,0.0,0.0,0.0,0,0,0,0,0,0,0
2063028000,0,47.398007799999995,8.5455106,491.066,0.0,0.0,0.0,0.0,0.0,0.0,0,0,0,0,0,0,0
2063128000,0,47.398005999999995,8.545512,491.067,0.0,0.0,0.0,0.0,0.0,0.0,0,0,0,0,0,0,0
2063228000,0,47.398004099999994,8.5455135,491.068,0.0,0.0,0.0,0.0,0.0,0.0,0,0,0,0,0,0,0
2063328000,0,47.398002299999995,8.5455148,491.069,0.0,0.0,0.0,0.0,0.0,0.0,0,0,0,0,0,0,0
2063428000,0,47.3980007,8.5455159,491.07,0.0,0.0,0.0,0.0,0.0,0.0,0,0,0,0,0,0,0
2063528000,0,47.3979991,8.5455171,491.071,0.0,0.0,0.0,0.0,0.0,0.0,0,0,0,0,0,0,0
2063628000,0,47.3979976,8.5455182,491.072,0.0,0.0,0.0,0.0,0.0,0.0,0,0,0,0,0,0,0
2063728000,0,47.397996299999996,8.5455191,491.072,0.0,0.0,0.0,0.0,0.0,0.0,0,0,0,0,0,0,0
2063828000,0,47.3979949,8.5455201,491.072,0.0,0.0,0.0,0.0,0.0,0.0,0,0,0,0,0,0,0
2063928000,0,47.3979937,8.545520999999999,491.073,0.0,0.0,0.0,0.0,0.0,0.0,0,0,0,0,0,0,0
2064028000,0,47.3979925,8.5455218,491.073,0.0,0.0,0.0,0.0,0.0,0.0,0,0,0,0,0,0,0
2064128000,0,47.397991399999995,8.5455226,491.073,0.0,0.0,0.0,0.0,0.0,0.0,0,0,0,0,0,0,0
2064228000,0,47.3979904,8.5455233,491.073,0.0,0.0,0.0,0.0,0.0,0.0,0,0,0,0,0,0,0
2064328000,0,47.3979895,8.545524,491.073,0.0,0.0,0.0,0.0,0.0,0.0,0,0,0,0,0,0,0
2064428000,0,47.3979885,8.5455246,491.073,0.0,0.0,0.0,0.0,0.0,0.0,0,0,0,0,0,0,0
2064528000,0,47.397987699999995,8.5455252,491.073,0.0,0.0,0.0,0.0,0.0,0.0,0,0,0,0,0,0,0
2064628000,0,47.3979869,8.545525699999999,491.072,0.0,0.0,0.0,0.0,0.0,0.0,0,0,0,0,0,0,0
2064728000,0,47.3979862,8.5455262,491.072,0.0,0.0,0.0,0.0,0.0,0.0,0,0,0,0,0,0,0
2064828000,0,47.3979855,8.5455267,491.072,0.0,0.0,0.0,0.0,0.0,0.0,0,0,0,0,0,0,0
2064928000,0,47.397985,8.5455271,491.072,0.0,0.0,0.0,0.0,0.0,0.0,0,0,0,0,0,0,0
2065028000,0,47.3979845,8.5455275,491.075,0.0,0.0,0.0,0.0,0.0,0.0,0,0,0,0,0,0,0
2065128000,0,47.397984099999995,8.5455279,491.079,0.0,0.0,0.0,0.0,0.0,0.0,0,0,0,0,0,0,0
2065228000,0,47.397984,8.545528299999999,491.085,0.0,0.0,0.0,0.0,0.0,0.0,0,0,0,0,0,0,0
2065328000,0,47.397984099999995,8.545528599999999,491.091,0.0,0.0,0.0,0.0,0.0,0.0,0,0,0,0,0,0,0
2065428000,0,47.3979844,8.545528899999999,491.095,0.0,0.0,0.0,0.0,0.0,0.0,0,0,0,0,0,0,0
2065528000,0,47.3979849,8.5455293,491.095,0.0,0.0,0.0,0.0,0.0,0.0,0,0,0,0,0,0,0
2065628000,0,47.3979856,8.5455296,491.094,0.0,0.0,0.0,0.0,0.0,0.0,0,0,0,0,0,0,0
2065728000,0,47.3979864,8.54553,491.094,0.0,0.0,0.0,0.0,0.0,0.0,0,0,0,0,0,0,0
2065828000,0,47.3979875,8.5455303,491.095,0.0,0.0,0.0,0.0,0.0,0.0,0,0,0,0,0,0,0
2065928000,0,47.3979886,8.5455307,491.099,0.0,0.0,0.0,0.0,0.0,0.0,0,0,0,0,0,0,0
2066028000,0,47.39799,8.5455313,491.104,0.0,0.0,0.0,0.0,0.0,0.0,0,0,0,0,0,0,0
2066128000,0,47.3979916,8.5455319,491.109,0.0,0.0,0.0,0.0,0.0,0.0,0,0,0,0,0,0,0
2066228000,0,47.397993299999996,8.5455326,491.113,0.0,0.0,0.0,0.0,0.0,0.0,0,0,0,0,0,0,0
2066328000,0,47.3979954,8.5455334,491.115,0.0,0.0,0.0,0.0,0.0,0.0,0,0,0,0,0,0,0
2066428000,0,47.397997499999995,8.5455343,491.116,0.0,0.0,0.0,0.0,0.0,0.0,0,0,0,0,0,0,0
2066528000,0,47.397999999999996,8.5455354,491.117,0.0,0.0,0.0,0.0,0.0,0.0,0,0,0,0,0,0,0
2066628000,0,47.3980026,8.545536499999999,491.117,0.0,0.0,0.0,0.0,0.0,0.0,0,0,0,0,0,0,0
2066728000,0,47.398005399999995,8.545537699999999,491.117,0.0,0.0,0.0,0.0,0.0,0.0,0,0,0,0,0,0,0
2066824000,0,47.3980083,8.5455389,491.116,0.0,0.0,0.0,0.0,0.0,0.0,0,0,0,0,0,0,0
2066928000,0,47.3980117,8.5455404,491.116,0.0,0.0,0.0,0.0,0.0,0.0,0,0,0,0,0,0,0
2067028000,0,47.398015099999995,8.545541799999999,491.114,0.0,0.0,0.0,0.0,0.0,0.0,0,0,0,0,0,0,0
2067128000,0,47.398018799999996,8.5455434,491.112,0.0,0.0,0.0,0.0,0.0,0.0,0,0,0,0,0,0,0
2067228000,0,47.3980227,8.5455451,491.107,0.0,0.0,0.0,0.0,0.0,0.0,0,0,0,0,0,0,0
2067328000,0,47.3980264,8.5455468,491.103,0.0,0.0,0.0,0.0,0.0,0.0,0,0,0,0,0,0,0
2067428000,0,47.3980306,8.545548799999999,491.098,0.0,0.0,0.0,0.0,0.0,0.0,0,0,0,0,0,0,0
2067528000,0,47.3980347,8.5455508,491.093,0.0,0.0,0.0,0.0,0.0,0.0,0,0,0,0,0,0,0
2067628000,0,47.398038799999995,8.545553,491.087,0.0,0.0,0.0,0.0,0.0,0.0,0,0,0,0,0,0,0
2067728000,0,47.3980429,8.5455553,491.081,0.0,0.0,0.0,0.0,0.0,0.0,0,0,0,0,0,0,0
2067828000,0,47.398047,8.5455577,491.075,0.0,0.0,0.0,0.0,0.0,0.0,0,0,0,0,0,0,0
2067928000,0,47.3980509,8.54556,491.069,0.0,0.0,0.0,0.0,0.0,0.0,0,0,0,0,0,0,0
2068028000,0,47.3980551,8.5455626,491.065,0.0,0.0,0.0,0.0,0.0,0.0,0,0,0,0,0,0,0
2068128000,0,47.398058999999996,8.5455651,491.063,0.0,0.0,0.0,0.0,0.0,0.0,0,0,0,0,0,0,0
2068228000,0,47.3980629,8.5455676,491.062,0.0,0.0,0.0,0.0,0.0,0.0,0,0,0,0,0,0,0
2068328000,0,47.3980667,8.545570099999999,491.063,0.0,0.0,0.0,0.0,0.0,0.0,0,0,0,0,0,0,0
2068428000,0,47.398070499999996,8.5455726,491.064,0.0,0.0,0.0,0.0,0.0,0.0,0,0,0,0,0,0,0
2068528000,0,47.398074099999995,8.545575,491.066,0.0,0.0,0.0,0.0,0.0,0.0,0,0,0,0,0,0,0
2068628000,0,47.398078,8.5455776,491.068,0.0,0.0,0.0,0.0,0.0,0.0,0,0,0,0,0,0,0
2068728000,0,47.3980817,8.5455802,491.071,0.0,0.0,0.0,0.0,0.0,0.0,0,0,0,0,0,0,0
2068828000,0,47.3980854,8.545582699999999,491.074,0.0,0.0,0.0,0.0,0.0,0.0,0,0,0,0,0,0,0
2068928000,0,47.3980891,8.545585299999999,491.076,0.0,0.0,0.0,0.0,0.0,0.0,0,0,0,0,0,0,0
2069028000,0,47.3980928,8.5455878,491.079,0.0,0.0,0.0,0.0,0.0,0.0,0,0,0,0,0,0,0
2069128000,0,47.3980965,8.545590299999999,491.082,0.0,0.0,0.0,0.0,0.0,0.0,0,0,0,0,0,0,0
2069228000,0,47.398100199999995,8.545592899999999,491.084,0.0,0.0,0.0,0.0,0.0,0.0,0,0,0,0,0,0,0
2069328000,0,47.398103899999995,8.5455954,491.085,0.0,0.0,0.0,0.0,0.0,0.0,0,0,0,0,0,0,0
2069428000,0,47.398107599999996,8.545597899999999,491.085,0.0,0.0,0.0,0.0,0.0,0.0,0,0,0,0,0,0,0
2069528000,0,47.3981113,8.5456004,491.085,0.0,0.0,0.0,0.0,0.0,0.0,0,0,0,0,0,0,0
2069628000,0,47.3981147,8.5456027,491.086,0.0,0.0,0.0,0.0,0.0,0.0,0,0,0,0,0,0,0
2069728000,0,47.3981182,8.5456051,491.087,0.0,0.0,0.0,0.0,0.0,0.0,0,0,0,0,0,0,0
2069828000,0,47.3981217,8.5456075,491.088,0.0,0.0,0.0,0.0,0.0,0.0,0,0,0,0,0,0,0
2069928000,0,47.3981248,8.545609599999999,491.089,0.0,0.0,0.0,0.0,0.0,0.0,0,0,0,0,0,0,0
2070028000,0,47.398128,8.5456118,491.089,0.0,0.0,0.0,0.0,0.0,0.0,0,0,0,0,0,0,0
2070128000,0,47.398131,8.5456139,491.09,0.0,0.0,0.0,0.0,0.0,0.0,0,0,0,0,0,0,0
2070228000,0,47.3981339,8.5456159,491.09,0.0,0.0,0.0,0.0,0.0,0.0,0,0,0,0,0,0,0
2070324000,0,47.3981366,8.5456177,491.09,0.0,0.0,0.0,0.0,0.0,0.0,0,0,0,0,0,0,0
2070428000,0,47.3981393,8.545619499999999,491.089,0.0,0.0,0.0,0.0,0.0,0.0,0,0,0,0,0,0,0
2070528000,0,47.3981418,8.5456212,491.089,0.0,0.0,0.0,0.0,0.0,0.0,0,0,0,0,0,0,0
2070628000,0,47.3981443,8.5456228,491.089,0.0,0.0,0.0,0.0,0.0,0.0,0,0,0,0,0,0,0
2070728000,0,47.3981467,8.5456244,491.088,0.0,0.0,0.0,0.0,0.0,0.0,0,0,0,0,0,0,0
2070828000,0,47.398148899999995,8.5456258,491.088,0.0,0.0,0.0,0.0,0.0,0.0,0,0,0,0,0,0,0
2070928000,0,47.3981511,8.545627099999999,491.088,0.0,0.0,0.0,0.0,0.0,0.0,0,0,0,0,0,0,0
2071028000,0,47.398153,8.545628299999999,491.088,0.0,0.0,0.0,0.0,0.0,0.0,0,0,0,0,0,0,0
2071128000,0,47.398154999999996,8.5456295,491.088,0.0,0.0,0.0,0.0,0.0,0.0,0,0,0,0,0,0,0
2071228000,0,47.3981569,8.545630599999999,491.088,0.0,0.0,0.0,0.0,0.0,0.0,0,0,0,0,0,0,0
2071328000,0,47.398158699999996,8.5456316,491.089,0.0,0.0,0.0,0.0,0.0,0.0,0,0,0,0,0,0,0
2071428000,0,47.3981603,8.5456325,491.089,0.0,0.0,0.0,0.0,0.0,0.0,0,0,0,0,0,0,0
2071528000,0,47.3981619,8.5456333,491.089,0.0,0.0,0.0,0.0,0.0,0.0,0,0,0,0,0,0,0
2071628000,0,47.3981634,8.5456341,491.089,0.0,0.0,0.0,0.0,0.0,0.0,0,0,0,0,0,0,0
2071728000,0,47.398164799999996,8.5456349,491.089,0.0,0.0,0.0,0.0,0.0,0.0,0,0,0,0,0,0,0
2071828000,0,47.3981662,8.545635599999999,491.088,0.0,0.0,0.0,0.0,0.0,0.0,0,0,0,0,0,0,0
2071928000,0,47.3981674,8.545636199999999,491.087,0.0,0.0,0.0,0.0,0.0,0.0,0,0,0,0,0,0,0
2072028000,0,47.3981686,8.5456368,491.086,0.0,0.0,0.0,0.0,0.0,0.0,0,0,0,0,0,0,0
2072128000,0,47.3981697,8.5456373,491.085,0.0,0.0,0.0,0.0,0.0,0.0,0,0,0,0,0,0,0
2072228000,0,47.398170799999995,8.5456379,491.083,0.0,0.0,0.0,0.0,0.0,0.0,0,0,0,0,0,0,0
2072328000,0,47.3981718,8.5456384,491.082,0.0,0.0,0.0,0.0,0.0,0.0,0,0,0,0,0,0,0
2072428000,0,47.3981728,8.5456389,491.081,0.0,0.0,0.0,0.0,0.0,0.0,0,0,0,0,0,0,0
2072528000,0,47.3981736,8.5456393,491.08,0.0,0.0,0.0,0.0,0.0,0.0,0,0,0,0,0,0,0
2072628000,0,47.398174499999996,8.545639699999999,491.079,0.0,0.0,0.0,0.0,0.0,0.0,0,0,0,0,0,0,0
2072728000,0,47.3981752,8.5456401,491.078,0.0,0.0,0.0,0.0,0.0,0.0,0,0,0,0,0,0,0
2072828000,0,47.3981759,8.5456405,491.078,0.0,0.0,0.0,0.0,0.0,0.0,0,0,0,0,0,0,0
2072928000,0,47.3981766,8.5456408,491.077,0.0,0.0,0.0,0.0,0.0,0.0,0,0,0,0,0,0,0
2073028000,0,47.3981772,8.5456412,491.077,0.0,0.0,0.0,0.0,0.0,0.0,0,0,0,0,0,0,0
2073128000,0,47.3981778,8.5456415,491.076,0.0,0.0,0.0,0.0,0.0,0.0,0,0,0,0,0,0,0
2073228000,0,47.3981783,8.5456418,491.075,0.0,0.0,0.0,0.0,0.0,0.0,0,0,0,0,0,0,0
2073328000,0,47.3981788,8.5456421,491.074,0.0,0.0,0.0,0.0,0.0,0.0,0,0,0,0,0,0,0
2073428000,0,47.398179299999995,8.5456424,491.073,0.0,0.0,0.0,0.0,0.0,0.0,0,0,0,0,0,0,0
2073528000,0,47.3981798,8.545642599999999,491.072,0.0,0.0,0.0,0.0,0.0,0.0,0,0,0,0,0,0,0
2073628000,0,47.3981802,8.545642899999999,491.071,0.0,0.0,0.0,0.0,0.0,0.0,0,0,0,0,0,0,0
2073728000,0,47.398180599999996,8.5456431,491.069,0.0,0.0,0.0,0.0,0.0,0.0,0,0,0,0,0,0,0
2073828000,0,47.3981809,8.5456434,491.068,0.0,0.0,0.0,0.0,0.0,0.0,0,0,0,0,0,0,0
2073928000,0,47.3981813,8.5456436,491.067,0.0,0.0,0.0,0.0,0.0,0.0,0,0,0,0,0,0,0
2074028000,0,47.3981816,8.545643799999999,491.066,0.0,0.0,0.0,0.0,0.0,0.0,0,0,0,0,0,0,0
2074128000,0,47.3981819,8.545644,491.065,0.0,0.0,0.0,0.0,0.0,0.0,0,0,0,0,0,0,0
2074228000,0,47.3981822,8.545644099999999,491.064,0.0,0.0,0.0,0.0,0.0,0.0,0,0,0,0,0,0,0
2074328000,0,47.3981825,8.5456443,491.064,0.0,0.0,0.0,0.0,0.0,0.0,0,0,0,0,0,0,0
2074428000,0,47.3981827,8.5456443,491.065,0.0,0.0,0.0,0.0,0.0,0.0,0,0,0,0,0,0,0
2074528000,0,47.398182899999995,8.5456442,491.066,0.0,0.0,0.0,0.0,0.0,0.0,0,0,0,0,0,0,0
2074628000,0,47.3981831,8.5456439,491.067,0.0,0.0,0.0,0.0,0.0,0.0,0,0,0,0,0,0,0
2074728000,0,47.3981833,8.545643499999999,491.067,0.0,0.0,0.0,0.0,0.0,0.0,0,0,0,0,0,0,0
2074828000,0,47.3981834,8.545642899999999,491.068,0.0,0.0,0.0,0.0,0.0,0.0,0,0,0,0,0,0,0
2074928000,0,47.398183599999996,8.5456422,491.071,0.0,0.0,0.0,0.0,0.0,0.0,0,0,0,0,0,0,0
2075028000,0,47.3981838,8.5456413,491.075,0.0,0.0,0.0,0.0,0.0,0.0,0,0,0,0,0,0,0
2075128000,0,47.398184,8.545640299999999,491.082,0.0,0.0,0.0,0.0,0.0,0.0,0,0,0,0,0,0,0
2075228000,0,47.3981843,8.545638799999999,491.09,0.0,0.0,0.0,0.0,0.0,0.0,0,0,0,0,0,0,0
2075328000,0,47.398184699999995,8.5456372,491.098,0.0,0.0,0.0,0.0,0.0,0.0,0,0,0,0,0,0,0
2075428000,0,47.398185299999994,8.5456352,491.105,0.0,0.0,0.0,0.0,0.0,0.0,0,0,0,0,0,0,0
2075528000,0,47.398185899999994,8.5456329,491.11,0.0,0.0,0.0,0.0,0.0,0.0,0,0,0,0,0,0,0
2075628000,0,47.398186599999995,8.5456301,491.114,0.0,0.0,0.0,0.0,0.0,0.0,0,0,0,0,0,0,0
2075728000,0,47.3981874,8.545627099999999,491.116,0.0,0.0,0.0,0.0,0.0,0.0,0,0,0,0,0,0,0
2075828000,0,47.398188399999995,8.5456235,491.117,0.0,0.0,0.0,0.0,0.0,0.0,0,0,0,0,0,0,0
2075928000,0,47.3981894,8.545619799999999,491.118,0.0,0.0,0.0,0.0,0.0,0.0,0,0,0,0,0,0,0
2076028000,0,47.3981905,8.5456156,491.117,0.0,0.0,0.0,0.0,0.0,0.0,0,0,0,0,0,0,0
2076128000,0,47.3981917,8.5456112,491.114,0.0,0.0,0.0,0.0,0.0,0.0,0,0,0,0,0,0,0
2076228000,0,47.3981929,8.5456068,491.111,0.0,0.0,0.0,0.0,0.0,0.0,0,0,0,0,0,0,0
2076328000,0,47.3981943,8.5456019,491.106,0.0,0.0,0.0,0.0,0.0,0.0,0,0,0,0,0,0,0
2076428000,0,47.398195799999996,8.545596699999999,491.1,0.0,0.0,0.0,0.0,0.0,0.0,0,0,0,0,0,0,0
2076524000,0,47.3981974,8.5455919,491.093,0.0,0.0,0.0,0.0,0.0,0.0,0,0,0,0,0,0,0
2076628000,0,47.398199,8.5455867,491.086,0.0,0.0,0.0,0.0,0.0,0.0,0,0,0,0,0,0,0
2076728000,0,47.3982007,8.5455814,491.079,0.0,0.0,0.0,0.0,0.0,0.0,0,0,0,0,0,0,0
2076828000,0,47.3982023,8.5455764,491.073,0.0,0.0,0.0,0.0,0.0,0.0,0,0,0,0,0,0,0
2076928000,0,47.398204,8.5455714,491.068,0.0,0.0,0.0,0.0,0.0,0.0,0,0,0,0,0,0,0
2077028000,0,47.3982057,8.545566299999999,491.064,0.0,0.0,0.0,0.0,0.0,0.0,0,0,0,0,0,0,0
2077128000,0,47.398207299999996,8.5455617,491.062,0.0,0.0,0.0,0.0,0.0,0.0,0,0,0,0,0,0,0
2077228000,0,47.3982089,8.5455572,491.061,0.0,0.0,0.0,0.0,0.0,0.0,0,0,0,0,0,0,0
2077328000,0,47.3982105,8.5455527,491.061,0.0,0.0,0.0,0.0,0.0,0.0,0,0,0,0,0,0,0
2077428000,0,47.398212,8.5455487,491.06,0.0,0.0,0.0,0.0,0.0,0.0,0,0,0,0,0,0,0
2077528000,0,47.398213399999996,8.5455452,491.06,0.0,0.0,0.0,0.0,0.0,0.0,0,0,0,0,0,0,0
2077628000,0,47.3982149,8.545541799999999,491.059,0.0,0.0,0.0,0.0,0.0,0.0,0,0,0,0,0,0,0
2077728000,0,47.3982162,8.5455389,491.057,0.0,0.0,0.0,0.0,0.0,0.0,0,0,0,0,0,0,0
2077828000,0,47.3982175,8.5455363,491.055,0.0,0.0,0.0,0.0,0.0,0.0,0,0,0,0,0,0,0
2077928000,0,47.3982187,8.545534,491.053,0.0,0.0,0.0,0.0,0.0,0.0,0,0,0,0,0,0,0
2078028000,0,47.3982198,8.545532099999999,491.053,0.0,0.0,0.0,0.0,0.0,0.0,0,0,0,0,0,0,0
2078128000,0,47.3982208,8.545530399999999,491.054,0.0,0.0,0.0,0.0,0.0,0.0,0,0,0,0,0,0,0
2078228000,0,47.3982217,8.5455288,491.055,0.0,0.0,0.0,0.0,0.0,0.0,0,0,0,0,0,0,0
2078328000,0,47.398222499999996,8.5455275,491.057,0.0,0.0,0.0,0.0,0.0,0.0,0,0,0,0,0,0,0
2078428000,0,47.3982232,8.545526299999999,491.059,0.0,0.0,0.0,0.0,0.0,0.0,0,0,0,0,0,0,0
2078528000,0,47.3982238,8.5455253,491.061,0.0,0.0,0.0,0.0,0.0,0.0,0,0,0,0,0,0,0
2078628000,0,47.3982244,8.5455244,491.062,0.0,0.0,0.0,0.0,0.0,0.0,0,0,0,0,0,0,0
2078728000,0,47.3982248,8.5455236,491.063,0.0,0.0,0.0,0.0,0.0,0.0,0,0,0,0,0,0,0
2078828000,0,47.3982252,8.545522799999999,491.064,0.0,0.0,0.0,0.0,0.0,0.0,0,0,0,0,0,0,0
2078928000,0,47.398225499999995,8.545522199999999,491.064,0.0,0.0,0.0,0.0,0.0,0.0,0,0,0,0,0,0,0
2079028000,0,47.3982258,8.545521599999999,491.065,0.0,0.0,0.0,0.0,0.0,0.0,0,0,0,0,0,0,0
2079128000,0,47.398226099999995,8.5455211,491.065,0.0,0.0,0.0,0.0,0.0,0.0,0,0,0,0,0,0,0
2079228000,0,47.3982264,8.5455206,491.065,0.0,0.0,0.0,0.0,0.0,0.0,0,0,0,0,0,0,0
2079328000,0,47.3982266,8.5455202,491.065,0.0,0.0,0.0,0.0,0.0,0.0,0,0,0,0,0,0,0
2079428000,0,47.398226799999996,8.5455197,491.065,0.0,0.0,0.0,0.0,0.0,0.0,0,0,0,0,0,0,0
2079528000,0,47.398227,8.5455194,491.065,0.0,0.0,0.0,0.0,0.0,0.0,0,0,0,0,0,0,0
2079628000,0,47.3982271,8.545518999999999,491.064,0.0,0.0,0.0,0.0,0.0,0.0,0,0,0,0,0,0,0
2079728000,0,47.398227299999995,8.545518699999999,491.064,0.0,0.0,0.0,0.0,0.0,0.0,0,0,0,0,0,0,0
2079828000,0,47.398227399999996,8.545518399999999,491.063,0.0,0.0,0.0,0.0,0.0,0.0,0,0,0,0,0,0,0
2079928000,0,47.3982275,8.545518099999999,491.062,0.0,0.0,0.0,0.0,0.0,0.0,0,0,0,0,0,0,0
2080028000,0,47.3982276,8.545517799999999,491.06,0.0,0.0,0.0,0.0,0.0,0.0,0,0,0,0,0,0,0
2080128000,0,47.3982276,8.545517499999999,491.058,0.0,0.0,0.0,0.0,0.0,0.0,0,0,0,0,0,0,0
2080228000,0,47.3982277,8.5455173,491.056,0.0,0.0,0.0,0.0,0.0,0.0,0,0,0,0,0,0,0
2080328000,0,47.3982278,8.545517,491.054,0.0,0.0,0.0,0.0,0.0,0.0,0,0,0,0,0,0,0
2080428000,0,47.3982278,8.5455168,491.052,0.0,0.0,0.0,0.0,0.0,0.0,0,0,0,0,0,0,0
2080528000,0,47.398227899999995,8.5455166,491.05,0.0,0.0,0.0,0.0,0.0,0.0,0,0,0,0,0,0,0
2080628000,0,47.398227899999995,8.5455163,491.048,0.0,0.0,0.0,0.0,0.0,0.0,0,0,0,0,0,0,0
2080728000,0,47.398227999999996,8.5455161,491.046,0.0,0.0,0.0,0.0,0.0,0.0,0,0,0,0,0,0,0
2080828000,0,47.398227999999996,8.5455158,491.044,0.0,0.0,0.0,0.0,0.0,0.0,0,0,0,0,0,0,0
2080928000,0,47.3982281,8.5455156,491.042,0.0,0.0,0.0,0.0,0.0,0.0,0,0,0,0,0,0,0
2081028000,0,47.3982281,8.5455154,491.041,0.0,0.0,0.0,0.0,0.0,0.0,0,0,0,0,0,0,0
2081128000,0,47.3982282,8.5455151,491.039,0.0,0.0,0.0,0.0,0.0,0.0,0,0,0,0,0,0,0
2081228000,0,47.3982282,8.545514899999999,491.038,0.0,0.0,0.0,0.0,0.0,0.0,0,0,0,0,0,0,0
2081328000,0,47.3982283,8.5455147,491.037,0.0,0.0,0.0,0.0,0.0,0.0,0,0,0,0,0,0,0
2081428000,0,47.3982283,8.5455145,491.037,0.0,0.0,0.0,0.0,0.0,0.0,0,0,0,0,0,0,0
2081528000,0,47.3982284,8.545514299999999,491.036,0.0,0.0,0.0,0.0,0.0,0.0,0,0,0,0,0,0,0
2081628000,0,47.3982284,8.545513999999999,491.035,0.0,0.0,0.0,0.0,0.0,0.0,0,0,0,0,0,0,0
2081728000,0,47.398228499999995,8.5455139,491.034,0.0,0.0,0.0,0.0,0.0,0.0,0,0,0,0,0,0,0
2081828000,0,47.398228499999995,8.5455136,491.031,0.0,0.0,0.0,0.0,0.0,0.0,0,0,0,0,0,0,0
2081928000,0,47.398228599999996,8.545513399999999,491.023,0.0,0.0,0.0,0.0,0.0,0.0,0,0,0,0,0,0,0
2082028000,0,47.398228599999996,8.5455133,491.002,0.0,0.0,0.0,0.0,0.0,0.0,0,0,0,0,0,0,0
2082128000,0,47.3982287,8.545513099999999,490.964,0.0,0.0,0.0,0.0,0.0,0.0,0,0,0,0,0,0,0
2082228000,0,47.3982287,8.5455129,490.907,0.0,0.0,0.0,0.0,0.0,0.0,0,0,0,0,0,0,0
2082328000,0,47.3982288,8.5455128,490.836,0.0,0.0,0.0,0.0,0.0,0.0,0,0,0,0,0,0,0
2082428000,0,47.3982288,8.5455127,490.753,0.0,0.0,0.0,0.0,0.0,0.0,0,0,0,0,0,0,0
2082528000,0,47.3982289,8.5455126,490.674,0.0,0.0,0.0,0.0,0.0,0.0,0,0,0,0,0,0,0
2082628000,0,47.3982289,8.5455125,490.599,0.0,0.0,0.0,0.0,0.0,0.0,0,0,0,0,0,0,0
2082728000,0,47.3982289,8.5455124,490.53,0.0,0.0,0.0,0.0,0.0,0.0,0,0,0,0,0,0,0
2082828000,0,47.398229,8.5455124,490.466,0.0,0.0,0.0,0.0,0.0,0.0,0,0,0,0,0,0,0
2082928000,0,47.398229,8.5455124,490.399,0.0,0.0,0.0,0.0,0.0,0.0,0,0,0,0,0,0,0
2083024000,0,47.398229,8.5455123,490.334,0.0,0.0,0.0,0.0,0.0,0.0,0,0,0,0,0,0,0
2083128000,0,47.398229,8.5455123,490.26,0.0,0.0,0.0,0.0,0.0,0.0,0,0,0,0,0,0,0
2083228000,0,47.398229099999995,8.5455123,490.192,0.0,0.0,0.0,0.0,0.0,0.0,0,0,0,0,0,0,0
2083328000,0,47.398229099999995,8.5455122,490.123,0.0,0.0,0.0,0.0,0.0,0.0,0,0,0,0,0,0,0
2083428000,0,47.398229099999995,8.5455122,490.054,0.0,0.0,0.0,0.0,0.0,0.0,0,0,0,0,0,0,0
2083528000,0,47.398229099999995,8.5455122,489.988,0.0,0.0,0.0,0.0,0.0,0.0,0,0,0,0,0,0,0
2083628000,0,47.398229099999995,8.5455122,489.915,0.0,0.0,0.0,0.0,0.0,0.0,0,0,0,0,0,0,0
2083728000,0,47.398229099999995,8.5455122,489.848,0.0,0.0,0.0,0.0,0.0,0.0,0,0,0,0,0,0,0
2083828000,0,47.398229099999995,8.5455122,489.775,0.0,0.0,0.0,0.0,0.0,0.0,0,0,0,0,0,0,0
2083928000,0,47.398229099999995,8.5455122,489.707,0.0,0.0,0.0,0.0,0.0,0.0,0,0,0,0,0,0,0
2084028000,0,47.398229099999995,8.5455122,489.633,0.0,0.0,0.0,0.0,0.0,0.0,0,0,0,0,0,0,0
2084128000,0,47.398229,8.5455122,489.565,0.0,0.0,0.0,0.0,0.0,0.0,0,0,0,0,0,0,0
2084224000,0,47.398229,8.5455122,489.496,0.0,0.0,0.0,0.0,0.0,0.0,0,0,0,0,0,0,0
2084328000,0,47.398229,8.5455122,489.422,0.0,0.0,0.0,0.0,0.0,0.0,0,0,0,0,0,0,0
2084428000,0,47.398229,8.5455122,489.347,0.0,0.0,0.0,0.0,0.0,0.0,0,0,0,0,0,0,0
2084528000,0,47.398229,8.5455122,489.275,0.0,0.0,0.0,0.0,0.0,0.0,0,0,0,0,0,0,0
2084628000,0,47.398229,8.5455122,489.203,0.0,0.0,0.0,0.0,0.0,0.0,0,0,0,0,0,0,0
2084728000,0,47.3982289,8.5455122,489.131,0.0,0.0,0.0,0.0,0.0,0.0,0,0,0,0,0,0,0
2084828000,0,47.3982289,8.5455122,489.059,0.0,0.0,0.0,0.0,0.0,0.0,0,0,0,0,0,0,0
2084928000,0,47.3982289,8.5455122,488.987,0.0,0.0,0.0,0.0,0.0,0.0,0,0,0,0,0,0,0
2085028000,0,47.3982289,8.5455122,488.914,0.0,0.0,0.0,0.0,0.0,0.0,0,0,0,0,0,0,0
2085128000,0,47.3982289,8.5455122,488.842,0.0,0.0,0.0,0.0,0.0,0.0,0,0,0,0,0,0,0
2085228000,0,47.3982288,8.5455122,488.769,0.0,0.0,0.0,0.0,0.0,0.0,0,0,0,0,0,0,0
2085328000,0,47.3982288,8.5455122,488.699,0.0,0.0,0.0,0.0,0.0,0.0,0,0,0,0,0,0,0
2085428000,0,47.3982288,8.5455121,488.623,0.0,0.0,0.0,0.0,0.0,0.0,0,0,0,0,0,0,0
2085528000,0,47.3982288,8.5455121,488.551,0.0,0.0,0.0,0.0,0.0,0.0,0,0,0,0,0,0,0
2085628000,0,47.3982287,8.5455121,488.478,0.0,0.0,0.0,0.0,0.0,0.0,0,0,0,0,0,0,0
2085728000,0,47.3982287,8.5455121,488.405,0.0,0.0,0.0,0.0,0.0,0.0,0,0,0,0,0,0,0
2085828000,0,47.3982287,8.545512,488.335,0.0,0.0,0.0,0.0,0.0,0.0,0,0,0,0,0,0,0
2085928000,0,47.398228599999996,8.545512,488.263,0.0,0.0,0.0,0.0,0.0,0.0,0,0,0,0,0,0,0
2086028000,0,47.398228599999996,8.5455119,488.188,0.0,0.0,0.0,0.0,0.0,0.0,0,0,0,0,0,0,0
2086128000,0,47.398228599999996,8.5455119,488.119,0.0,0.0,0.0,0.0,0.0,0.0,0,0,0,0,0,0,0
2086228000,0,47.398228599999996,8.5455119,488.104,0.0,0.0,0.0,0.0,0.0,0.0,0,0,0,0,0,0,0
2086328000,0,47.398228599999996,8.5455119,488.104,0.0,0.0,0.0,0.0,0.0,0.0,0,0,0,0,0,0,0
2086428000,0,47.398228599999996,8.5455119,488.104,0.0,0.0,0.0,0.0,0.0,0.0,0,0,0,0,0,0,0
2086528000,0,47.398228599999996,8.5455119,488.104,0.0,0.0,0.0,0.0,0.0,0.0,0,0,0,0,0,0,0
2086628000,0,47.398228599999996,8.5455119,488.104,0.0,0.0,0.0,0.0,0.0,0.0,0,0,0,0,0,0,0
2086728000,0,47.398228599999996,8.5455119,488.104,0.0,0.0,0.0,0.0,0.0,0.0,0,0,0,0,0,0,0
2086828000,0,47.398228599999996,8.5455119,488.104,0.0,0.0,0.0,0.0,0.0,0.0,0,0,0,0,0,0,0
2086928000,0,47.398228599999996,8.5455119,488.104,0.0,0.0,0.0,0.0,0.0,0.0,0,0,0,0,0,0,0
2087028000,0,47.398228599999996,8.5455119,488.104,0.0,0.0,0.0,0.0,0.0,0.0,0,0,0,0,0,0,0
2087128000,0,47.398228599999996,8.5455119,488.104,0.0,0.0,0.0,0.0,0.0,0.0,0,0,0,0,0,0,0
2087228000,0,47.398228599999996,8.5455119,488.104,0.0,0.0,0.0,0.0,0.0,0.0,0,0,0,0,0,0,0
2087328000,0,47.398228599999996,8.5455119,488.104,0.0,0.0,0.0,0.0,0.0,0.0,0,0,0,0,0,0,0
2087428000,0,47.398228599999996,8.5455119,488.104,0.0,0.0,0.0,0.0,0.0,0.0,0,0,0,0,0,0,0
2087528000,0,47.398228599999996,8.5455119,488.104,0.0,0.0,0.0,0.0,0.0,0.0,0,0,0,0,0,0,0
2087628000,0,47.398228599999996,8.5455119,488.104,0.0,0.0,0.0,0.0,0.0,0.0,0,0,0,0,0,0,0
2087728000,0,47.398228599999996,8.5455119,488.104,0.0,0.0,0.0,0.0,0.0,0.0,0,0,0,0,0,0,0
2087828000,0,47.398228599999996,8.5455119,488.104,0.0,0.0,0.0,0.0,0.0,0.0,0,0,0,0,0,0,0
2087928000,0,47.398228599999996,8.5455119,488.104,0.0,0.0,0.0,0.0,0.0,0.0,0,0,0,0,0,0,0
2088028000,0,47.398228599999996,8.5455119,488.104,0.0,0.0,0.0,0.0,0.0,0.0,0,0,0,0,0,0,0
2088128000,0,47.398228599999996,8.5455119,488.104,0.0,0.0,0.0,0.0,0.0,0.0,0,0,0,0,0,0,0
2088228000,0,47.398228599999996,8.5455119,488.104,0.0,0.0,0.0,0.0,0.0,0.0,0,0,0,0,0,0,0
2088328000,0,47.398228599999996,8.5455119,488.104,0.0,0.0,0.0,0.0,0.0,0.0,0,0,0,0,0,0,0
2088428000,0,47.398228599999996,8.5455119,488.104,0.0,0.0,0.0,0.0,0.0,0.0,0,0,0,0,0,0,0
2088528000,0,47.398228599999996,8.5455119,488.104,0.0,0.0,0.0,0.0,0.0,0.0,0,0,0,0,0,0,0
2088628000,0,47.398228599999996,8.5455119,488.104,0.0,0.0,0.0,0.0,0.0,0.0,0,0,0,0,0,0,0
2088728000,0,47.398228599999996,8.5455119,488.104,0.0,0.0,0.0,0.0,0.0,0.0,0,0,0,0,0,0,0
2088828000,0,47.398228599999996,8.5455119,488.104,0.0,0.0,0.0,0.0,0.0,0.0,0,0,0,0,0,0,0
2088928000,0,47.398228599999996,8.5455119,488.104,0.0,0.0,0.0,0.0,0.0,0.0,0,0,0,0,0,0,0
2089028000,0,47.398228599999996,8.5455119,488.104,0.0,0.0,0.0,0.0,0.0,0.0,0,0,0,0,0,0,0
2089128000,0,47.398228599999996,8.5455119,488.104,0.0,0.0,0.0,0.0,0.0,0.0,0,0,0,0,0,0,0
2089228000,0,47.398228599999996,8.5455119,488.104,0.0,0.0,0.0,0.0,0.0,0.0,0,0,0,0,0,0,0
2089328000,0,47.398228599999996,8.5455119,488.104,0.0,0.0,0.0,0.0,0.0,0.0,0,0,0,0,0,0,0
2089428000,0,47.398228599999996,8.5455119,488.104,0.0,0.0,0.0,0.0,0.0,0.0,0,0,0,0,0,0,0
2089528000,0,47.398228599999996,8.5455119,488.104,0.0,0.0,0.0,0.0,0.0,0.0,0,0,0,0,0,0,0
2089628000,0,47.398228599999996,8.5455119,488.104,0.0,0.0,0.0,0.0,0.0,0.0,0,0,0,0,0,0,0
2089728000,0,47.398228599999996,8.5455119,488.104,0.0,0.0,0.0,0.0,0.0,0.0,0,0,0,0,0,0,0
2089828000,0,47.398228599999996,8.5455119,488.104,0.0,0.0,0.0,0.0,0.0,0.0,0,0,0,0,0,0,0
2089928000,0,47.398228599999996,8.5455119,488.104,0.0,0.0,0.0,0.0,0.0,0.0,0,0,0,0,0,0,0
2090028000,0,47.398228599999996,8.5455119,488.104,0.0,0.0,0.0,0.0,0.0,0.0,0,0,0,0,0,0,0
2090128000,0,47.398228599999996,8.5455119,488.104,0.0,0.0,0.0,0.0,0.0,0.0,0,0,0,0,0,0,0
2090228000,0,47.398228599999996,8.5455119,488.104,0.0,0.0,0.0,0.0,0.0,0.0,0,0,0,0,0,0,0
2090328000,0,47.398228599999996,8.5455119,488.104,0.0,0.0,0.0,0.0,0.0,0.0,0,0,0,0,0,0,0
