timestamp,timestamp_sample,position[0],position[1],position[2],q[0],q[1],q[2],q[3],velocity[0],velocity[1],velocity[2],angular_velocity[0],angular_velocity[1],angular_velocity[2],position_variance[0],position_variance[1],position_variance[2],orientation_variance[0],orientation_variance[1],orientation_variance[2],velocity_variance[0],velocity_variance[1],velocity_variance[2],pose_frame,velocity_frame,reset_counter,quality
2015916000,2015916000,-68.55163,-23.071337,-488.05646,0.6230828,-0.00014004884,0.0011091561,0.7821552,-0.029273855,0.01451278,0.013,-0.0003233175,-0.0022749198,-0.011019749,0.120193854,0.12064098,0.08695858,4.1540832e-05,2.6962947e-05,0.0009646387,0.014669203,0.014845057,0.0052643586,1,1,16,0
2015924000,2015924000,-68.55176,-23.071234,-488.0564,0.6231141,-0.0001586023,0.00104945,0.7821303,-0.029025925,0.014651985,0.0134612415,-0.014437965,-0.005736893,-0.00982151,0.12062137,0.12108004,0.086583875,4.1550313e-05,2.6978547e-05,0.000964012,0.014719096,0.014900191,0.005255464,1,1,16,0
2015932000,2015932000,-68.55189,-23.071129,-488.0563,0.62315136,-0.00017094657,0.0010385377,0.7821006,-0.028944626,0.014755883,0.012452769,-0.00391887,0.00065436604,-0.01168596,0.12106332,0.121526495,0.08681841,4.157693e-05,2.7005583e-05,0.00096410466,0.0147784,0.0149603905,0.0052640084,1,1,16,0
2015940000,2015940000,-68.552025,-23.07102,-488.05624,0.6231749,-0.00013238045,0.0010034558,0.7820819,-0.029034851,0.015329696,0.012660014,-0.000723272,-0.013060699,-0.0072918246,0.12150765,0.121975355,0.08705364,4.160219e-05,2.703285e-05,0.0009641993,0.014837843,0.015020884,0.005272554,1,1,16,0
2015948000,2015948000,-68.55216,-23.070908,-488.05615,0.6231455,-0.000114974595,0.0009451511,0.7821054,-0.02916026,0.015219972,0.013740062,-0.00857964,-0.012528047,0.00961917,0.12195436,0.12242663,0.087289564,4.1628366e-05,2.70597e-05,0.00096429273,0.014897453,0.01508131,0.0052811005,1,1,16,0
2015956000,2015956000,-68.55231,-23.0708,-488.05606,0.6231377,-0.00013829573,0.00095199613,0.7821116,-0.029501904,0.014976551,0.013709704,-0.0021878,0.005581363,0.002695107,0.12240227,0.122878954,0.08752617,4.1652984e-05,2.7084036e-05,0.0009642749,0.014956136,0.015140828,0.005289648,1,1,16,0
2015972000,2015972000,-68.552605,-23.070583,-488.05588,0.62314373,-0.00016058778,0.0009886227,0.78210664,-0.029936008,0.015227361,0.012680464,-0.00085600815,0.011973024,0.0025569517,0.12330765,0.123793654,0.08800147,4.1705767e-05,2.7134902e-05,0.000964465,0.015076773,0.015263355,0.005306748,1,1,16,0
2015980000,2015980000,-68.55276,-23.07047,-488.05582,0.6231288,-0.0001731171,0.0010380709,0.78211856,-0.030072503,0.014986685,0.012750727,0.007799368,0.01010869,0.0052202255,0.123763986,0.12425469,0.088240154,4.1731604e-05,2.716256e-05,0.00096455874,0.015137409,0.015324948,0.0053153005,1,1,16,0
2015988000,2015988000,-68.55292,-23.070362,-488.05573,0.62310046,-0.00020569075,0.001020451,0.78214115,-0.030117335,0.01483009,0.01374017,-0.008446033,0.0035839383,0.009481284,0.12422276,0.124718204,0.08847954,4.175777e-05,2.7187956e-05,0.0009646544,0.015197553,0.015386006,0.005323853,1,1,16,0
2015996000,2015996000,-68.553085,-23.07025,-488.0556,0.6231059,-0.0002669601,0.0009882208,0.78213686,-0.030288132,0.014721775,0.013827468,-0.015769772,0.0069128596,-0.0013045861,0.12467009,0.12517835,0.08808795,4.176676e-05,2.720272e-05,0.00096402905,0.015247811,0.015441613,0.0053142835,1,1,16,0
2016012000,2016012000,-68.553154,-23.070456,-488.05557,0.62305075,-0.00023749494,0.0010227851,0.7821807,-0.029390762,0.014909215,0.013600421,-0.001921307,-0.0033405672,0.01001289,0.10514516,0.10543369,0.08044548,4.0620922e-05,2.6018926e-05,0.00096402207,0.012571242,0.012703925,0.004998008,1,1,16,0
2016020000,2016020000,-68.55306,-23.070766,-488.05563,0.6230309,-0.00024266666,0.0010157722,0.7821966,-0.02979471,0.0147587,0.013212725,-0.0019241498,-0.0006690636,0.0070819072,0.105503246,0.105794795,0.08066095,4.0646762e-05,2.6047546e-05,0.00096411305,0.012623983,0.012757382,0.0050065177,1,1,16,0
2016028000,2016028000,-68.55299,-23.071068,-488.0557,0.6230164,-0.00023123829,0.0009894256,0.7822081,-0.030229837,0.014145909,0.013095172,-0.0031226135,-0.006927394,0.0053509255,0.10586332,0.10615791,0.080877066,4.06729e-05,2.6075095e-05,0.00096420466,0.012676825,0.012810828,0.0050150286,1,1,16,0
2016036000,2016036000,-68.552925,-23.071365,-488.05573,0.62298113,-0.00022624123,0.0009934464,0.78223634,-0.030321114,0.013186959,0.012447548,0.0018041736,-0.0009354556,0.012008748,0.10622537,0.10652303,0.08109383,4.069949e-05,2.6101678e-05,0.0009642967,0.012729816,0.012864544,0.0050235405,1,1,16,0
2016052000,2016052000,-68.55282,-23.071943,-488.05585,0.6229417,-0.00025193527,0.0009618463,0.78226763,-0.030081294,0.012664488,0.012416698,0.001671062,-0.0014678759,0.0068156035,0.10695546,0.10725934,0.08152934,4.0750805e-05,2.6153393e-05,0.00096448435,0.012836372,0.012972876,0.005040568,1,1,16,0
2016060000,2016060000,-68.55278,-23.072218,-488.0559,0.62292296,-0.00022476714,0.0009509773,0.78228253,-0.030305997,0.012784166,0.012234784,0.002336802,-0.007593318,0.006682346,0.10732353,0.10763055,0.08174808,4.0776686e-05,2.617981e-05,0.000964578,0.012889893,0.013027138,0.0050490843,1,1,16,0
2016068000,2016068000,-68.55274,-23.072483,-488.05597,0.62288755,-0.0002454941,0.00094492384,0.7823107,-0.030641727,0.012470758,0.012224081,-0.004187992,0.0025267967,0.012008703,0.10768607,0.10800085,0.08142801,4.0787138e-05,2.619628e-05,0.0009639479,0.012936035,0.013077446,0.0050424575,1,1,16,0
2016076000,2016076000,-68.55271,-23.07274,-488.05603,0.62292665,-0.00026077105,0.0009928744,0.78227955,-0.030626683,0.012400824,0.012534477,0.0072632274,0.009850637,-0.011826419,0.10805807,0.10837612,0.08164662,4.081238e-05,2.6223937e-05,0.00096404034,0.012989581,0.013131788,0.005050974,1,1,16,0
2016092000,2016092000,-68.55266,-23.073227,-488.05612,0.6228873,-0.00025295495,0.00097264285,0.7823109,-0.02925402,0.012894559,0.012183934,-0.0021908768,-0.0033321225,0.0013562252,0.10880821,0.10913288,0.08208583,4.086289e-05,2.6275988e-05,0.00096422905,0.0130982455,0.013241946,0.0050680107,1,1,16,0
2016100000,2016100000,-68.55264,-23.073452,-488.05615,0.6228926,-0.0002583344,0.000977404,0.7823067,-0.030174151,0.013049092,0.0121097285,0.00033908707,0.0011952922,-0.001040623,0.10918637,0.109514385,0.08230643,4.088767e-05,2.6303034e-05,0.00096432265,0.013151948,0.013296382,0.00507653,1,1,16,0
2016108000,2016108000,-68.552635,-23.073671,-488.0562,0.62292373,-0.00028680218,0.00099168,0.7822819,-0.030119145,0.012996985,0.011763086,-0.0013919297,0.007187291,-0.009296525,0.1095666,0.109897986,0.08252769,4.0913706e-05,2.6329155e-05,0.00096441654,0.013206482,0.013351623,0.0050850497,1,1,16,0
2016116000,2016116000,-68.552635,-23.073881,-488.05624,0.6228961,-0.00029563592,0.0009672692,0.7823039,-0.029644476,0.012867485,0.011522504,-0.0059191957,-0.0026663572,0.009478925,0.10994891,0.110283695,0.08274961,4.0939296e-05,2.6354284e-05,0.0009645116,0.013261391,0.0134073105,0.0050935713,1,1,16,0
2016132000,2016132000,-68.55264,-23.074276,-488.05634,0.62289697,-0.0002850668,0.0009163548,0.7823034,-0.029811192,0.012945257,0.011939546,0.0006053411,-0.0063947286,-0.0023722115,0.11071982,0.11106148,0.08319547,4.0992236e-05,2.6405052e-05,0.0009646994,0.013371732,0.013519079,0.005110618,1,1,16,0
2016140000,2016140000,-68.55265,-23.07446,-488.05634,0.6228854,-0.0002958121,0.00096224947,0.78231245,-0.030143894,0.013268895,0.012186927,0.0075296033,0.008652166,0.0042856433,0.111099735,0.111450106,0.082860716,4.1002648e-05,2.6422818e-05,0.0009640684,0.013418511,0.013570295,0.0051033692,1,1,16,0
2016148000,2016148000,-68.55266,-23.074633,-488.05637,0.62287706,-0.00028145275,0.0009960594,0.7823191,-0.029652812,0.013364441,0.011520235,0.009126655,0.0018610958,0.0033528926,0.11149034,0.111844294,0.083083816,4.1028925e-05,2.6450964e-05,0.00096415967,0.013473835,0.013626389,0.005111893,1,1,16,0
2016156000,2016156000,-68.55268,-23.0748,-488.05637,0.62288696,-0.00027920963,0.0010095456,0.7823112,-0.029571371,0.013157439,0.01068278,0.0032677245,0.0010620801,-0.0025060007,0.111882284,0.11223972,0.08330758,4.1052568e-05,2.6472479e-05,0.0009641453,0.013528277,0.013681625,0.005120419,1,1,16,0
2016172000,2016172000,-68.55274,-23.075111,-488.05643,0.6228328,-0.00029634155,0.0010637523,0.78235424,-0.030607421,0.0133388415,0.010412758,0.0064656106,0.009183541,0.0041518905,0.11267417,0.1130389,0.0837571,4.1103816e-05,2.652499e-05,0.0009643336,0.013640453,0.013795398,0.0051374733,1,1,16,0
2016180000,2016180000,-68.55279,-23.075262,-488.05643,0.62282336,-0.0002890151,0.001071413,0.78236175,-0.030133596,0.012435899,0.01034932,0.002870481,-0.0008034157,0.0036192744,0.11307335,0.11344177,0.08398288,4.112916e-05,2.6551435e-05,0.00096442766,0.01369659,0.013852248,0.005146001,1,1,16,0
2016188000,2016188000,-68.552826,-23.075409,-488.05646,0.622843,-0.00026002183,0.0010720298,0.78234607,-0.029234271,0.01239833,0.009542159,0.0048677465,-0.006129822,-0.005701682,0.113474704,0.11384685,0.08420933,4.115488e-05,2.6577218e-05,0.00096452254,0.013753223,0.013909696,0.005154529,1,1,16,0
2016196000,2016196000,-68.55287,-23.07555,-488.05646,0.6228522,-0.00022525617,0.001055847,0.78233874,-0.02870177,0.012029735,0.0085211005,0.0024710107,-0.009858106,-0.0023728923,0.11387824,0.11425415,0.084436454,4.1180767e-05,2.6604914e-05,0.000964615,0.013809766,0.013967021,0.005163059,1,1,16,0
2016212000,2016212000,-68.55296,-23.075819,-488.05652,0.62283957,-0.00026126736,0.0010770162,0.7823489,-0.02843346,0.01191549,0.007503936,-0.004985926,0.005721295,0.0024209756,0.114681944,0.115071364,0.08431419,4.1215848e-05,2.6646618e-05,0.0009640842,0.013914884,0.014077665,0.005163707,1,1,16,0
2016220000,2016220000,-68.55301,-23.075947,-488.05655,0.6227996,-0.00022668339,0.001071337,0.7823807,-0.027988646,0.011274642,0.007949448,0.0044682347,-0.008127076,0.013339481,0.11509195,0.11548528,0.084541775,4.12419e-05,2.6673353e-05,0.00096417766,0.01397184,0.014135377,0.0051722387,1,1,16,0
2016228000,2016228000,-68.55306,-23.076075,-488.05658,0.62278825,-0.00017863867,0.0010808065,0.78238964,-0.027506357,0.01073441,0.008198922,0.009528344,-0.008393407,0.004151488,0.115504175,0.115901455,0.08477004,4.1268613e-05,2.6698315e-05,0.0009642723,0.014028793,0.014193153,0.005180772,1,1,16,0
2016236000,2016236000,-68.55311,-23.0762,-488.0566,0.6227957,-0.00020642942,0.0010941481,0.78238374,-0.02755638,0.0101656495,0.0079851,-0.0015238201,0.0070528444,-0.0018405925,0.11591864,0.116319895,0.08499898,4.1294315e-05,2.6724474e-05,0.0009643668,0.014086077,0.014251456,0.005189307,1,1,16,0
2016252000,2016252000,-68.55322,-23.076437,-488.05664,0.622779,-0.00020330567,0.0011566232,0.7823969,-0.026721232,0.011069331,0.0075396067,0.0052672215,0.010381792,0.0034856289,0.11675431,0.11716362,0.085458905,4.1346168e-05,2.6777016e-05,0.0009645555,0.014201671,0.014368583,0.0052063805,1,1,16,0
2016260000,2016260000,-68.55328,-23.076542,-488.05667,0.622755,-0.00019062597,0.0011794266,0.78241605,-0.02650297,0.011444316,0.007933284,0.0065988046,0.00066113897,0.008146219,0.117175534,0.11758892,0.08568989,4.1372758e-05,2.6803327e-05,0.0009646491,0.01425979,0.014427555,0.0052149184,1,1,16,0
2016268000,2016268000,-68.55334,-23.076637,-488.05667,0.6227447,-0.0001800576,0.0011977975,0.7824243,-0.025715245,0.011825633,0.008412936,0.005400332,0.00039505705,0.0037520376,0.11759905,0.11801654,0.08592155,4.1398587e-05,2.6830432e-05,0.0009647426,0.014318027,0.014486747,0.0052234572,1,1,16,0
2016276000,2016276000,-68.5534,-23.076725,-488.05667,0.6227759,-0.00017734127,0.0012285179,0.78239924,-0.02564964,0.011725749,0.008492711,0.0065987264,0.003857119,-0.009563773,0.11802484,0.11844648,0.086153895,4.14243e-05,2.6857904e-05,0.0009648365,0.014376297,0.01454586,0.0052319984,1,1,16,0
2016292000,2016292000,-68.553535,-23.07691,-488.05667,0.6228404,-9.856862e-05,0.0012766157,0.7823479,-0.026438644,0.009428862,0.0073694442,0.016851917,-0.004798416,-0.002240089,0.118871786,0.119308576,0.08602002,4.1460098e-05,2.6898988e-05,0.0009643063,0.014483986,0.014659311,0.005232002,1,1,16,0
2016300000,2016300000,-68.55362,-23.077007,-488.05667,0.62281066,-7.778277e-05,0.0012808933,0.7823716,-0.027516138,0.008649021,0.007646669,0.0042018974,-0.0037331528,0.009877279,0.119304344,0.11974545,0.0862528,4.1486324e-05,2.6923908e-05,0.0009644019,0.01454321,0.014719529,0.0052405437,1,1,16,0
2016308000,2016308000,-68.55371,-23.077106,-488.05667,0.6228038,-7.820338e-05,0.0012251312,0.78237724,-0.027655283,0.008249044,0.007797592,-0.0108448835,-0.008926175,0.0025536045,0.11973924,0.1201847,0.086486265,4.1512547e-05,2.6949683e-05,0.0009644964,0.014602721,0.014779962,0.005249086,1,1,16,0
2016316000,2016316000,-68.5538,-23.077198,-488.05667,0.6228185,-8.673281e-05,0.0011642603,0.7823655,-0.026906813,0.0086411815,0.008573427,-0.013108592,-0.008127301,-0.004370415,0.12017648,0.12062632,0.086720414,4.1538726e-05,2.697576e-05,0.00096459076,0.014661668,0.014839709,0.0052576293,1,1,16,0
2016332000,2016332000,-68.55399,-23.077368,-488.0566,0.6228279,-2.2848379e-05,0.0011627075,0.782358,-0.027374072,0.00885756,0.010604066,0.012590925,-0.0021351555,-0.0018404139,0.12105802,0.12151674,0.08719079,4.159166e-05,2.7027074e-05,0.0009647803,0.014780978,0.01496079,0.0052747177,1,1,16,0
2016340000,2016340000,-68.55409,-23.077446,-488.05658,0.6228233,-3.3858087e-05,0.0011822293,0.78236175,-0.02713252,0.0086456705,0.0107698785,0.002204586,0.00492226,0.0017547884,0.12150235,0.12196556,0.08742701,4.1617466e-05,2.70527e-05,0.0009648759,0.014841251,0.0150221875,0.0052832644,1,1,16,0
2016348000,2016348000,-68.5542,-23.077522,-488.05655,0.6228249,-2.8289107e-05,0.0011763228,0.7823605,-0.027753586,0.008321152,0.010860847,-0.00019226584,-0.00226824,-0.0002426513,0.12194907,0.1224168,0.087663926,4.164304e-05,2.7078704e-05,0.00096497167,0.014901844,0.015083842,0.0052918117,1,1,16,0
2016356000,2016356000,-68.554306,-23.077599,-488.05652,0.6228439,-1.4806165e-05,0.001177742,0.78234535,-0.027483972,0.007978017,0.010619118,0.0024709706,-0.0026676562,-0.005835324,0.12238406,0.12286371,0.08728142,4.165009e-05,2.7091453e-05,0.0009642376,0.014951617,0.015138934,0.005282609,1,1,16,0
2016372000,2016372000,-68.554535,-23.07774,-488.05643,0.6229304,-6.376944e-05,0.0012151178,0.78227633,-0.027474165,0.007979289,0.011026821,-0.0013911638,0.0047894567,-0.01968878,0.123289146,0.12377821,0.08775535,4.1702373e-05,2.714442e-05,0.0009644259,0.015072285,0.015261674,0.005299704,1,1,16,0
2016380000,2016380000,-68.55466,-23.077806,-488.0564,0.6229511,-9.550748e-05,0.0012185525,0.7822598,-0.02801857,0.0077581094,0.011744728,-0.0041873837,0.006520566,-0.006106629,0.12374532,0.124239154,0.08799335,4.1728043e-05,2.7169492e-05,0.00096452236,0.015132723,0.015323203,0.005308253,1,1,16,0
2016388000,2016388000,-68.55478,-23.077873,-488.05634,0.6229271,-0.000117582334,0.0012314026,0.7822789,-0.028679078,0.00703627,0.011999665,-0.0008584943,0.0061210897,0.008141198,0.124203935,0.124702565,0.088232055,4.175485e-05,2.719615e-05,0.0009646157,0.015193667,0.015385109,0.005316803,1,1,16,0
2016396000,2016396000,-68.55492,-23.077942,-488.0563,0.6229248,-0.00013445877,0.0012319395,0.78228074,-0.028574025,0.006778094,0.011486792,-0.0024564348,0.0031914962,0.0012170621,0.12466501,0.12516847,0.08847145,4.1781033e-05,2.7221524e-05,0.0009647112,0.015254963,0.015447521,0.0053253556,1,1,16,0
2016412000,2016412000,-68.554955,-23.078127,-488.05637,0.6229435,-0.000111627705,0.0011559958,0.7822661,-0.028450033,0.0066688852,0.010243456,-0.0056523373,-0.011855274,0.0060106637,0.10514018,0.10542564,0.08076357,4.0631716e-05,2.6031887e-05,0.0009646968,0.012576176,0.012708249,0.005006928,1,1,16,0
2016420000,2016420000,-68.55487,-23.078245,-488.05646,0.62293625,-0.00010820642,0.0011187464,0.78227186,-0.028378956,0.006370704,0.010620774,-0.006454699,-0.00679299,0.0028145579,0.105498284,0.10578675,0.08097987,4.065721e-05,2.6056776e-05,0.000964792,0.012628564,0.012761483,0.0050154408,1,1,16,0
2016428000,2016428000,-68.554794,-23.078354,-488.05655,0.6229344,-6.991509e-05,0.0010884696,0.78227335,-0.028550297,0.006851763,0.011135236,0.00033624863,-0.012518719,0.0010836612,0.10585141,0.106147155,0.080667414,4.0668274e-05,2.6072355e-05,0.00096416543,0.012674244,0.012811208,0.0050091445,1,1,16,0
2016436000,2016436000,-68.55472,-23.078453,-488.05664,0.6229194,-4.765509e-05,0.0011361917,0.7822853,-0.028475802,0.0074078324,0.011195519,0.013118902,0.0027940872,0.0054763565,0.10621337,0.10651222,0.08088361,4.069359e-05,2.6097177e-05,0.00096426095,0.012727455,0.012865088,0.005017653,1,1,16,0
2016452000,2016452000,-68.55461,-23.07863,-488.0568,0.622863,-2.6908801e-05,0.0011784891,0.7823301,-0.03007969,0.007798383,0.011189066,0.008857844,0.0005306518,0.0050768005,0.10694328,0.10724843,0.08131796,4.0744002e-05,2.6145695e-05,0.0009644526,0.012833981,0.01297288,0.0050346763,1,1,16,0
2016460000,2016460000,-68.55457,-23.07871,-488.05685,0.62285787,-2.5280635e-05,0.001158262,0.7823342,-0.029886369,0.008217934,0.011214397,-0.003392662,-0.003730627,0.002280364,0.10731125,0.10761958,0.08153612,4.0768933e-05,2.6172847e-05,0.00096454564,0.0128873605,0.01302698,0.005043191,1,1,16,0
2016468000,2016468000,-68.55454,-23.078783,-488.05692,0.6228511,-5.3455493e-05,0.0011270607,0.7823397,-0.029792242,0.008868574,0.010364231,-0.010183747,0.00039726592,0.0028129471,0.10768124,0.10799278,0.08175494,4.079395e-05,2.6200294e-05,0.0009646389,0.012940585,0.013081081,0.0050517083,1,1,16,0
2016476000,2016476000,-68.55452,-23.078846,-488.057,0.6228608,-5.8931237e-05,0.0011730994,0.78233176,-0.029929522,0.00918164,0.010612534,0.008458437,0.007987284,-0.002513259,0.10805325,0.10836804,0.08197442,4.0818803e-05,2.622639e-05,0.00096473336,0.012993959,0.013135231,0.0050602253,1,1,16,0
2016492000,2016492000,-68.55448,-23.078959,-488.05713,0.6228911,-0.00012463372,0.0011937415,0.78230757,-0.028964141,0.009310025,0.010416921,-0.0096510695,0.005057849,-0.0015812136,0.108803414,0.10912475,0.082415365,4.0870276e-05,2.6275897e-05,0.0009649239,0.013101344,0.013244007,0.005077264,1,1,16,0
2016500000,2016500000,-68.554474,-23.079012,-488.05716,0.6228651,-0.00013889695,0.0011781076,0.7823284,-0.029135657,0.009077758,0.010322812,-0.0049905227,0.00013090552,0.008938335,0.109173544,0.10950305,0.08208854,4.088054e-05,2.6292193e-05,0.0009642964,0.013148067,0.013294907,0.0050703543,1,1,16,0
2016508000,2016508000,-68.55447,-23.079062,-488.0572,0.62287235,-0.00014398164,0.0011980425,0.7823225,-0.028257538,0.009416137,0.009484835,0.0033984378,0.003859601,-0.001846756,0.10955365,0.10988658,0.082309194,4.090606e-05,2.6317623e-05,0.000964391,0.013202698,0.013350392,0.0050788736,1,1,16,0
2016516000,2016516000,-68.55446,-23.07911,-488.05722,0.6229142,-0.00014296423,0.0012273807,0.78228915,-0.027605632,0.00912224,0.008974785,0.0061946777,0.004126143,-0.012898822,0.10993584,0.110272214,0.08253051,4.0932504e-05,2.6343234e-05,0.00096448493,0.013257209,0.01340571,0.0050873957,1,1,16,0
2016532000,2016532000,-68.55445,-23.079185,-488.0573,0.6229045,-0.00014931112,0.0011880517,0.78229713,-0.026690988,0.0099852,0.0077342587,0.0032653296,-0.0015998473,-0.0007814273,0.110706516,0.111049846,0.08297515,4.0984884e-05,2.6395546e-05,0.00096467184,0.013366604,0.013516518,0.0051044393,1,1,16,0
2016540000,2016540000,-68.55445,-23.079212,-488.05734,0.6228911,-0.00016951874,0.0012153422,0.7823076,-0.027140658,0.010752352,0.007656577,0.002466439,0.007987504,0.0046779714,0.11109501,0.111441866,0.08319847,4.1011015e-05,2.642158e-05,0.0009647658,0.013421647,0.013572225,0.0051129623,1,1,16,0
2016548000,2016548000,-68.55447,-23.079235,-488.05737,0.6228661,-0.00016992855,0.0012221311,0.78232753,-0.027537685,0.010391341,0.0070838975,0.0015342853,0.0009300904,0.008406446,0.11148562,0.11183602,0.08342247,4.103703e-05,2.6447831e-05,0.00096485944,0.013477356,0.013628761,0.005121487,1,1,16,0
2016556000,2016556000,-68.55448,-23.079254,-488.05743,0.62285066,-0.00018886238,0.0012184734,0.7823399,-0.027310705,0.010443259,0.00561481,-0.0033926007,0.0029275187,0.005343793,0.11187758,0.112231426,0.08364713,4.106027e-05,2.6472213e-05,0.00096484256,0.013532391,0.013684545,0.005130014,1,1,16,0
2016572000,2016572000,-68.55452,-23.079287,-488.05753,0.62286496,-0.000114404924,0.0012488074,0.78232837,-0.026928457,0.01029916,0.005604723,0.018444166,-0.0054611755,-0.0022447987,0.112660244,0.11302685,0.08353069,4.1094772e-05,2.6516023e-05,0.0009643097,0.013636072,0.013793597,0.005131003,1,1,16,0
2016580000,2016580000,-68.55455,-23.079296,-488.05756,0.6228821,-0.0001558431,0.0012595971,0.78231466,-0.02732728,0.01046537,0.0062639797,-0.0040593552,0.009585687,-0.0051743425,0.113059305,0.11342964,0.08375583,4.1119747e-05,2.654195e-05,0.0009644048,0.013691836,0.013850093,0.0051395316,1,1,16,0
2016588000,2016588000,-68.55459,-23.079308,-488.0576,0.62288886,-0.00020081383,0.0012051708,0.7823094,-0.027757192,0.009581837,0.0065142903,-0.01737533,0.00013110557,-0.0018454422,0.11346053,0.113834634,0.08398164,4.1145762e-05,2.6566137e-05,0.0009645009,0.0137480665,0.013907119,0.0051480616,1,1,16,0
2016596000,2016596000,-68.55463,-23.07932,-488.05762,0.62291974,-0.00015838293,0.0011989487,0.78228486,-0.0274109,0.009227621,0.0071653035,0.0056609386,-0.009456203,-0.009568672,0.11386394,0.11424184,0.08420813,4.1171657e-05,2.659175e-05,0.0009645956,0.013804476,0.013964064,0.0051565925,1,1,16,0
2016612000,2016612000,-68.55472,-23.079348,-488.05765,0.62291497,-0.00011529835,0.001219316,0.7822887,-0.026324175,0.008403305,0.0066060005,0.0064598643,0.0083871735,0.0018828256,0.11467735,0.115062915,0.08466314,4.122322e-05,2.6643105e-05,0.00096478494,0.013917936,0.0140790455,0.005173657,1,1,16,0
2016620000,2016620000,-68.55476,-23.079361,-488.05768,0.6229546,-0.00012234875,0.0012893808,0.78225684,-0.02650511,0.007994739,0.006402368,0.012851416,0.012115691,-0.012498186,0.11508737,0.11547682,0.084891655,4.1249164e-05,2.6670594e-05,0.0009648781,0.013975485,0.014137407,0.005182192,1,1,16,0
2016628000,2016628000,-68.55481,-23.079374,-488.0577,0.62293816,-0.000133955,0.0012603855,0.78227013,-0.02634353,0.008517578,0.006618174,-0.007255336,-0.002398671,0.0054781185,0.11549961,0.11589298,0.08512085,4.127569e-05,2.6695488e-05,0.0009649729,0.0140325185,0.0141952075,0.0051907273,1,1,16,0
2016636000,2016636000,-68.55487,-23.079378,-488.0577,0.62293327,-0.0001600871,0.0012259608,0.78227407,-0.027248863,0.009228977,0.006385385,-0.010584261,-0.00040142584,0.0017497087,0.11591409,0.1163114,0.08535072,4.1302425e-05,2.672098e-05,0.00096506707,0.014090137,0.014253726,0.0051992633,1,1,16,0
2016652000,2016652000,-68.55501,-23.079363,-488.05774,0.6229546,-0.00019764139,0.0011685931,0.7822572,-0.027243491,0.009431102,0.006923951,-0.00059749914,-0.0041300165,0.0032133737,0.116739064,0.117150694,0.08522301,4.133846e-05,2.6765218e-05,0.00096453313,0.014196634,0.014366056,0.005199618,1,1,16,0
2016660000,2016660000,-68.555084,-23.079355,-488.05777,0.6229293,-0.0001712699,0.0011306062,0.7822774,-0.02696721,0.008419533,0.0064537427,-0.0031275451,-0.011187481,0.008406422,0.11716016,0.117575906,0.08545334,4.1364765e-05,2.6790884e-05,0.0009646274,0.014255053,0.014425535,0.0052081556,1,1,16,0
2016668000,2016668000,-68.55515,-23.079353,-488.05777,0.62292004,-0.00017590512,0.0010887317,0.78228474,-0.02646845,0.007976646,0.0065716314,-0.008720136,-0.0057279826,0.0032133413,0.117583536,0.118003435,0.085684344,4.1391173e-05,2.6816117e-05,0.0009647221,0.014313426,0.014484942,0.005216693,1,1,16,0
2016676000,2016676000,-68.55523,-23.07935,-488.0578,0.62294126,-0.00019797083,0.0010634598,0.782268,-0.026530737,0.0078928005,0.006124888,-0.008187499,0.00026409232,-0.0065072365,0.1180092,0.11843329,0.085916035,4.141694e-05,2.6843943e-05,0.0009648153,0.014372127,0.014544468,0.0052252333,1,1,16,0
2016692000,2016692000,-68.55539,-23.079336,-488.05783,0.6229872,-0.00020311523,0.0010677744,0.7822314,-0.026085794,0.0077147447,0.0066256747,0.0040629567,0.003726208,-0.0050425716,0.11886746,0.11930001,0.08638147,4.146958e-05,2.6895617e-05,0.00096500444,0.0144896675,0.014663829,0.0052423174,1,1,16,0
2016700000,2016700000,-68.55547,-23.07933,-488.05783,0.62300116,-0.00013282406,0.0010814245,0.7822201,-0.02610371,0.0074593853,0.007090382,0.013783508,-0.011720073,-0.0042435993,0.11930006,0.119736895,0.08661522,4.1495714e-05,2.6921694e-05,0.0009650991,0.014548842,0.0147238,0.005250859,1,1,16,0
2016708000,2016708000,-68.55556,-23.079323,-488.05783,0.6230097,-0.00013973973,0.00108103,0.78221345,-0.025549967,0.0076726926,0.007630599,-0.0009969805,0.001196298,-0.002512444,0.119734995,0.120176144,0.08684965,4.1522046e-05,2.6948477e-05,0.0009651927,0.014608814,0.014784716,0.005259403,1,1,16,0
2016716000,2016716000,-68.55565,-23.079311,-488.05783,0.6230523,-0.0001454659,0.0010231645,0.7821795,-0.023919873,0.007117417,0.007813781,-0.01204936,-0.007991591,-0.013431217,0.12016022,0.120612785,0.086476095,4.1531075e-05,2.6964313e-05,0.00096456904,0.014658765,0.0148399295,0.0052505634,1,1,16,0
2016732000,2016732000,-68.5558,-23.07928,-488.05786,0.62315524,-0.0001992195,0.0010190471,0.78209746,-0.022866353,0.008344556,0.0087831495,-0.00073041004,0.0094519695,-0.015695808,0.12104152,0.12150306,0.08694511,4.15838e-05,2.7014883e-05,0.0009647598,0.014777207,0.014960134,0.0052676527,1,1,16,0
2016740000,2016740000,-68.555885,-23.079258,-488.05786,0.62317985,-0.00022093792,0.0009939012,0.78207797,-0.023311097,0.008044058,0.009117915,-0.008187323,0.0002639261,-0.0075731785,0.12148572,0.1219518,0.087180644,4.1610034e-05,2.7043685e-05,0.0009648518,0.014836711,0.01502048,0.0052761966,1,1,16,0
2016748000,2016748000,-68.55598,-23.079235,-488.05783,0.6231648,-0.00023793598,0.000978023,0.78208995,-0.023424946,0.008028199,0.009787515,-0.0056572948,0.00079663505,0.0050766864,0.1219323,0.12240296,0.08741687,4.1635627e-05,2.7069198e-05,0.0009649476,0.014896165,0.015080951,0.005284743,1,1,16,0
2016756000,2016756000,-68.55607,-23.079214,-488.05783,0.62315637,-0.00022508505,0.0009799331,0.7820967,-0.02392609,0.007463251,0.009472479,0.0024654674,-0.002266051,0.0029461882,0.12238008,0.122855164,0.08765379,4.165846e-05,2.709237e-05,0.00096493267,0.014955022,0.015140829,0.00529329,1,1,16,0
2016772000,2016772000,-68.55626,-23.07917,-488.0578,0.6231512,-0.00017812583,0.00096006476,0.78210086,-0.023596259,0.0077152103,0.009261437,0.0028646216,-0.0017330202,0.007738619,0.12328521,0.12376963,0.088129714,4.1712534e-05,2.714242e-05,0.0009651225,0.015076313,0.015264087,0.005310388,1,1,16,0
2016780000,2016780000,-68.55636,-23.07914,-488.0578,0.6231475,-0.00018471223,0.0009264673,0.7821038,-0.023367787,0.008053009,0.008643796,-0.007521613,-0.0039967615,0.0014802007,0.12372792,0.12422492,0.088368714,4.1721378e-05,2.7159243e-05,0.00096449896,0.01512709,0.015320407,0.0053189406,1,1,16,0
2016788000,2016788000,-68.55646,-23.079103,-488.05777,0.6231294,-0.00018188971,0.0008908223,0.78211814,-0.023789814,0.008100806,0.008601846,-0.0064566466,-0.006127455,0.006272474,0.12418638,0.12468824,0.087978326,4.174766e-05,2.7187218e-05,0.0009645918,0.015188075,0.015382086,0.0053094304,1,1,16,0
2016796000,2016796000,-68.556564,-23.079071,-488.05777,0.62312305,-0.0001879212,0.0009201353,0.7821233,-0.024048993,0.007123101,0.008418212,0.0048617804,0.005723578,0.0025440208,0.1246473,0.12515403,0.08821701,4.1774194e-05,2.7215961e-05,0.0009646834,0.015248939,0.015443784,0.0053179823,1,1,16,0
2016812000,2016812000,-68.55655,-23.079107,-488.05786,0.62310475,-0.00016122469,0.000935039,0.7821379,-0.024868071,0.0055149337,0.008838373,-0.0024617815,-0.0019997074,0.0026771913,0.105129756,0.105416745,0.080552734,4.06241e-05,2.6029315e-05,0.0009646614,0.012572194,0.0127060255,0.0050010313,1,1,16,0
2016820000,2016820000,-68.556435,-23.07917,-488.05792,0.62309605,-0.00011253447,0.0008759191,0.7821449,-0.024897587,0.0052481145,0.008857192,-0.003663911,-0.018908383,0.0033426862,0.10548777,0.10577779,0.08076845,4.064914e-05,2.605613e-05,0.00096475467,0.0126247285,0.012759397,0.0050095413,1,1,16,0
2016828000,2016828000,-68.55632,-23.079231,-488.058,0.623091,-5.3342854e-05,0.0008949413,0.7821489,-0.02451009,0.0048237974,0.01025082,0.013247048,-0.008788327,0.0021444175,0.10584776,0.10614084,0.08098482,4.067468e-05,2.608286e-05,0.00096484774,0.012677778,0.012813155,0.005018053,1,1,16,0
2016836000,2016836000,-68.55622,-23.079292,-488.05807,0.62308174,-2.4115532e-06,0.00089673983,0.7821563,-0.024892785,0.004319116,0.011464112,0.00858657,-0.009853666,0.0034755883,0.10620973,0.106505886,0.08120185,4.070008e-05,2.6108955e-05,0.0009649416,0.0127307065,0.012866897,0.0050265663,1,1,16,0
2016852000,2016852000,-68.556046,-23.079407,-488.05817,0.62308395,5.6128038e-06,0.0009158988,0.7821545,-0.024975855,0.005041012,0.012289135,0.009784915,0.0042611854,-0.0019837592,0.10693238,0.107239194,0.08110272,4.0735707e-05,2.6148367e-05,0.00096441037,0.012829405,0.0129704615,0.0050285957,1,1,16,0
2016860000,2016860000,-68.55597,-23.079454,-488.05823,0.6230864,2.0676518e-05,0.001011091,0.7821524,-0.02424991,0.005078344,0.01198335,0.021236824,0.011717714,-0.00025297058,0.107300244,0.10761028,0.081320286,4.0761362e-05,2.6174179e-05,0.00096450443,0.012882553,0.013024473,0.0050371103,1,1,16,0
2016868000,2016868000,-68.55589,-23.079498,-488.05826,0.62308043,-1.0591968e-05,0.0010771671,0.7821571,-0.024124255,0.0051074177,0.011693289,0.0083203325,0.016245203,0.0024104172,0.10767013,0.10798341,0.081538506,4.0786465e-05,2.6201516e-05,0.0009645977,0.012936057,0.013079122,0.005045625,1,1,16,0
2016876000,2016876000,-68.555824,-23.079538,-488.0583,0.6230933,-2.1473732e-05,0.0010936349,0.7821469,-0.023637539,0.005968258,0.011799373,0.0017956432,0.0045272815,-0.0035820391,0.10804204,0.10835861,0.08175738,4.0812185e-05,2.622833e-05,0.0009646908,0.012989493,0.013133434,0.005054142,1,1,16,0
2016892000,2016892000,-68.555695,-23.079594,-488.05835,0.6230952,-9.64539e-06,0.0010413214,0.78214526,-0.022280829,0.006561093,0.011560001,-0.0010006598,-0.008522084,0.0046739676,0.10879199,0.109115206,0.08219712,4.0864263e-05,2.6281006e-05,0.00096487784,0.013097283,0.013242729,0.0050711795,1,1,16,0
2016900000,2016900000,-68.55563,-23.079617,-488.05838,0.62313634,2.0593598e-05,0.0010393509,0.78211254,-0.02163622,0.006677488,0.0113386065,0.0045920443,-0.0063915937,-0.012636766,0.10917006,0.10949663,0.08241799,4.0889954e-05,2.6307629e-05,0.0009649714,0.013151231,0.013297412,0.005079699,1,1,16,0
2016908000,2016908000,-68.55557,-23.079634,-488.05844,0.6231546,9.9623685e-05,0.0010754992,0.78209805,-0.021473547,0.007206882,0.010642464,0.019638754,-0.009987191,-0.005312925,0.10955019,0.10988016,0.08209118,4.091546e-05,2.6333091e-05,0.00096506637,0.013205925,0.0133527815,0.00507278,1,1,16,0
2016916000,2016916000,-68.55552,-23.079641,-488.05847,0.6231356,0.000120592784,0.0010558042,0.78211313,-0.022022793,0.0077533023,0.010115551,-0.00033482886,-0.0073238052,0.006537975,0.109924115,0.1102625,0.082311906,4.0925046e-05,2.6349291e-05,0.0009644381,0.013253286,0.013404584,0.0050813,1,1,16,0
2016932000,2016932000,-68.555435,-23.07965,-488.05853,0.62316597,0.00014677222,0.0011052063,0.7820888,-0.021579972,0.0074823406,0.011313691,0.008453641,0.0058586397,-0.007177797,0.11069458,0.11104001,0.08275534,4.097603e-05,2.6401698e-05,0.0009646259,0.013363308,0.013516289,0.0050983448,1,1,16,0
2016940000,2016940000,-68.5554,-23.07965,-488.05856,0.62312937,0.00013110664,0.0010949968,0.78211814,-0.022004886,0.008233663,0.011400854,-0.004196352,0.0013310851,0.012263334,0.11108297,0.11143197,0.082978055,4.1001327e-05,2.6428554e-05,0.0009647197,0.013418536,0.013572218,0.005106868,1,1,16,0
2016948000,2016948000,-68.555374,-23.079643,-488.05856,0.6231605,0.000111272646,0.0010437899,0.78209335,-0.022027867,0.008354975,0.011599005,-0.012851567,-0.0042615463,-0.009441571,0.111473486,0.111826085,0.08320144,4.1027477e-05,2.6453745e-05,0.0009648142,0.013473995,0.01362846,0.0051153908,1,1,16,0
2016956000,2016956000,-68.55536,-23.079636,-488.0586,0.62318814,7.394424e-05,0.0010937076,0.78207123,-0.022152347,0.008238865,0.011482113,0.004192521,0.014913505,-0.008376192,0.11186534,0.112221435,0.08342549,4.105092e-05,2.6475846e-05,0.00096479926,0.01352844,0.013683626,0.0051239138,1,1,16,0
2016972000,2016972000,-68.55534,-23.079613,-488.05862,0.62320715,2.7936703e-05,0.0011022146,0.7820561,-0.023111127,0.008348063,0.009966936,-0.0055266498,0.0022642554,0.0050755003,0.11265704,0.113020465,0.08387561,4.110108e-05,2.6528627e-05,0.0009649882,0.013639917,0.013796535,0.0051409667,1,1,16,0
2016980000,2016980000,-68.55535,-23.0796,-488.05865,0.62320554,1.8588049e-05,0.0011470667,0.78205734,-0.023368822,0.008075525,0.010114195,0.0075228144,0.008655807,0.0008144752,0.11305613,0.113423266,0.08353384,4.112633e-05,2.6552672e-05,0.00096508476,0.013695146,0.013852647,0.005133419,1,1,16,0
2016988000,2016988000,-68.55536,-23.079582,-488.05865,0.6232042,-4.169948e-06,0.001216949,0.7820582,-0.023098078,0.008715554,0.01039355,0.010319056,0.0151806,0.0006812514,0.11344785,0.11382442,0.083759055,4.113565e-05,2.6567697e-05,0.0009644589,0.013742442,0.013904521,0.005141946,1,1,16,0
2016996000,2016996000,-68.555374,-23.079557,-488.0587,0.6232141,-2.3057853e-05,0.0012762075,0.7820503,-0.022665968,0.008996404,0.010261914,0.008854327,0.012783341,-0.0027818417,0.11385114,0.11423155,0.08398494,4.1161307e-05,2.6594318e-05,0.0009645526,0.013798603,0.013961517,0.0051504755,1,1,16,0
2017012000,2017012000,-68.5554,-23.079496,-488.0587,0.62323225,-6.173425e-05,0.0012593509,0.78203577,-0.021284949,0.00960858,0.011229679,-0.008456505,-0.006790617,0.0016124403,0.11466429,0.11505248,0.08443873,4.121414e-05,2.6641877e-05,0.0009647442,0.013911922,0.014076602,0.0051675383,1,1,16,0
2017020000,2017020000,-68.555405,-23.07946,-488.0587,0.6232055,-6.254315e-05,0.0012505687,0.7820572,-0.020661876,0.009729782,0.010352428,-0.0016653149,-0.0013313815,0.008936042,0.11507417,0.115466304,0.08466663,4.1241165e-05,2.6666783e-05,0.00096483855,0.013969068,0.014134612,0.005176071,1,1,16,0
2017028000,2017028000,-68.55541,-23.079422,-488.0587,0.6231941,-4.9830025e-05,0.001219451,0.7820663,-0.02082554,0.009588426,0.010272159,-0.003928908,-0.007456587,0.0040092953,0.11548628,0.11588239,0.084895216,4.126744e-05,2.6692587e-05,0.0009649331,0.01402618,0.014192649,0.0051846066,1,1,16,0
2017036000,2017036000,-68.555435,-23.079386,-488.0587,0.62319183,-4.250586e-05,0.0011858422,0.7820682,-0.021907676,0.009124844,0.010333091,-0.0052606184,-0.0067907744,0.0010796507,0.11590063,0.11630074,0.08512448,4.129329e-05,2.6719637e-05,0.0009650268,0.014083421,0.01425085,0.0051931427,1,1,16,0
2017052000,2017052000,-68.55551,-23.079311,-488.0587,0.62318915,-9.072899e-06,0.001167784,0.7820702,-0.022840513,0.008907575,0.010284263,0.0044599725,-0.0010650252,0.0014791691,0.11673606,0.11714428,0.08499706,4.1344334e-05,2.6771348e-05,0.0009652172,0.014199068,0.014368551,0.005193489,1,1,16,0
2017060000,2017060000,-68.55555,-23.079279,-488.0587,0.6231759,3.878021e-05,0.0011755568,0.7820809,-0.023325,0.007831986,0.010211418,0.009120422,-0.008255638,0.0045418,0.11714628,0.11756505,0.085226774,4.135337e-05,2.678472e-05,0.0009645935,0.014248654,0.014423175,0.005202026,1,1,16,0
2017068000,2017068000,-68.5556,-23.07925,-488.0587,0.6231604,1.1210003e-05,0.0011827198,0.7820932,-0.023981897,0.007521716,0.009591955,-0.0027311267,0.0063919746,0.0052077537,0.11756952,0.117992505,0.08545717,4.1378888e-05,2.6810967e-05,0.000964688,0.014307041,0.014482281,0.005210564,1,1,16,0
2017076000,2017076000,-68.55566,-23.079224,-488.0587,0.62314606,-2.6646712e-05,0.0012308038,0.7821046,-0.024264464,0.006808013,0.00952856,0.0036606656,0.014780894,0.0048084427,0.117995046,0.118422285,0.08568825,4.1404735e-05,2.6836344e-05,0.0009647834,0.014364703,0.014540869,0.0052191024,1,1,16,0
2017092000,2017092000,-68.55579,-23.079176,-488.0587,0.6231181,-4.6321034e-05,0.001294686,0.78212667,-0.024493689,0.0064654956,0.009385869,0.0100522265,0.0045276703,0.005474164,0.11885299,0.119288824,0.08615246,4.145733e-05,2.688822e-05,0.00096497254,0.014481447,0.0146593135,0.0052361833,1,1,16,0
2017100000,2017100000,-68.55586,-23.079153,-488.0587,0.6230999,-7.5969525e-05,0.0013145473,0.78214127,-0.023723224,0.006085096,0.009532036,-0.0006005182,0.008788859,0.006006728,0.11928543,0.11972562,0.08638558,4.148322e-05,2.6916226e-05,0.0009650654,0.014540104,0.014718847,0.005244725,1,1,16,0
2017108000,2017108000,-68.55593,-23.079134,-488.0587,0.62310964,-4.5465444e-05,0.0013184885,0.7821334,-0.023332506,0.005412084,0.0098904185,0.005657964,-0.005459022,-0.002914943,0.11972019,0.120164774,0.08661939,4.151038e-05,2.694186e-05,0.0009651592,0.014599148,0.014778758,0.0052532675,1,1,16,0
2017116000,2017116000,-68.556,-23.079115,-488.05865,0.6231323,-2.6730842e-05,0.0012623613,0.7821156,-0.022939486,0.005142717,0.010377526,-0.007924097,-0.012516396,-0.007042885,0.1201573,0.1206063,0.0868539,4.1537114e-05,2.696804e-05,0.00096525345,0.014658855,0.014839271,0.0052618124,1,1,16,0
2017132000,2017132000,-68.55614,-23.079077,-488.05862,0.6231461,-6.141121e-05,0.0012629259,0.7821045,-0.021850877,0.0062471675,0.010443371,-0.0048613646,0.0002668528,-0.0046451995,0.1210262,0.1214914,0.08671457,4.1573378e-05,2.7009997e-05,0.00096472155,0.014768751,0.014955185,0.005261505,1,1,16,0
2017140000,2017140000,-68.556206,-23.079048,-488.0586,0.6231279,-6.173617e-05,0.001275971,0.78211904,-0.02253956,0.006801918,0.0106102675,0.0025954568,0.0019978792,0.005874327,0.121470235,0.12194004,0.0869495,4.1600626e-05,2.7034874e-05,0.00096481654,0.014828267,0.015015681,0.0052700513,1,1,16,0
2017148000,2017148000,-68.55629,-23.079016,-488.05856,0.62308663,-0.00010071086,0.001262665,0.78215176,-0.023096051,0.006974165,0.009777233,-0.0085895965,0.005460009,0.01319816,0.12191665,0.12239109,0.08718511,4.1627794e-05,2.7059996e-05,0.0009649111,0.014888232,0.015076692,0.005278598,1,1,16,0
2017156000,2017156000,-68.556366,-23.078974,-488.05853,0.62305504,-9.632507e-05,0.0012413904,0.7821771,-0.022593677,0.0073826173,0.009430946,-0.0033966445,-0.004260421,0.010135406,0.122364275,0.122843206,0.0874214,4.165241e-05,2.7084112e-05,0.0009648937,0.014946738,0.015136214,0.005287146,1,1,16,0
2017172000,2017172000,-68.556526,-23.078869,-488.0585,0.62305856,-6.562472e-05,0.0013382294,0.7821741,-0.022882603,0.009062477,0.009059944,0.010981853,0.0039944793,-0.007439946,0.123269066,0.12375747,0.08789608,4.1704297e-05,2.7138398e-05,0.0009650814,0.015067785,0.015259511,0.0053042457,1,1,16,0
2017180000,2017180000,-68.55662,-23.07881,-488.05847,0.62311196,-7.5991935e-05,0.0013454724,0.78213155,-0.023216367,0.008979294,0.009047071,-7.038374e-05,0.0030624676,-0.017160501,0.1237251,0.12421829,0.08813446,4.1730014e-05,2.7165406e-05,0.00096517586,0.01512846,0.0153211,0.0053127958,1,1,16,0
2017188000,2017188000,-68.55671,-23.078749,-488.05844,0.6231278,-5.532622e-05,0.0013505454,0.7821189,-0.023219185,0.00881769,0.009378884,0.0043239216,-0.003329405,-0.0051762704,0.12418358,0.1246816,0.088373534,4.1755848e-05,2.7192611e-05,0.0009652697,0.01518922,0.015382534,0.005321346,1,1,16,0
2017196000,2017196000,-68.5568,-23.07869,-488.0584,0.6231336,-8.480523e-05,0.0014071855,0.78211427,-0.02387117,0.008581455,0.010115024,0.00658763,0.014513886,-0.001980322,0.124630645,0.12514159,0.08798314,4.1764233e-05,2.7208791e-05,0.0009646463,0.015240092,0.015438877,0.0053118235,1,1,16,0
2017212000,2017212000,-68.55707,-23.078661,-488.0585,0.6231198,-0.00016563777,0.0013758114,0.7821253,-0.024862826,0.007388781,0.009558017,-0.008592497,0.0027961144,0.006141983,0.10512056,0.10540935,0.08035867,4.0616746e-05,2.6019356e-05,0.00096460804,0.012566188,0.012702517,0.0049961507,1,1,16,0
2017220000,2017220000,-68.55723,-23.07869,-488.05865,0.6230785,-0.0002445688,0.0013314423,0.7821582,-0.025072744,0.007220612,0.009465818,-0.02097514,0.008389302,0.013065823,0.10547847,0.10577032,0.08057388,4.064262e-05,2.6045334e-05,0.0009647016,0.012619124,0.012756042,0.0050046598,1,1,16,0
2017228000,2017228000,-68.557396,-23.078718,-488.05878,0.623069,-0.0002559272,0.0013360435,0.78216577,-0.025213793,0.006884589,0.009676896,-0.00086801755,0.0027971552,0.0029458562,0.10583836,0.1061333,0.08078973,4.0669125e-05,2.6070475e-05,0.0009647951,0.012671908,0.012809512,0.0050131693,1,1,16,0
2017236000,2017236000,-68.55757,-23.078747,-488.0589,0.6230735,-0.0002489201,0.0013457618,0.782162,-0.025362736,0.0062246947,0.009851716,0.0029935536,7.8954224e-07,-0.0015814423,0.106200226,0.106498286,0.08100624,4.0695268e-05,2.6096157e-05,0.0009648886,0.0127248,0.012863111,0.005021681,1,1,16,0
2017252000,2017252000,-68.55791,-23.078806,-488.0591,0.62311846,-0.00031286682,0.0013673822,0.78212625,-0.024998503,0.005192137,0.010912213,-0.0023326664,0.007857114,-0.0051767635,0.10692996,0.10723433,0.08144124,4.074728e-05,2.6146272e-05,0.0009650774,0.012831259,0.012971211,0.005038708,1,1,16,0
2017260000,2017260000,-68.55808,-23.078838,-488.0592,0.6231033,-0.0003517728,0.0014151391,0.7821382,-0.025517263,0.0048208483,0.010841371,0.003259859,0.01491449,0.0046769353,0.10729784,0.107605405,0.08165973,4.077247e-05,2.61712e-05,0.0009651733,0.012884512,0.013025312,0.0050472226,1,1,16,0
2017268000,2017268000,-68.55826,-23.078869,-488.0593,0.62307656,-0.00036065577,0.0014424241,0.7821594,-0.025408681,0.0044953986,0.010718852,0.003925676,0.005859722,0.0084053865,0.107660204,0.10797558,0.08134056,4.078213e-05,2.6188642e-05,0.00096454576,0.012930524,0.013075638,0.0050406293,1,1,16,0
2017276000,2017276000,-68.55843,-23.078897,-488.0594,0.62305003,-0.00037487483,0.0014731376,0.7821805,-0.02522056,0.0044740764,0.010562929,0.003792023,0.007457329,0.008537009,0.10803201,0.1083507,0.08155892,4.0808187e-05,2.6214386e-05,0.00096463936,0.0129843885,0.013130406,0.0050491462,1,1,16,0
2017292000,2017292000,-68.55877,-23.078959,-488.05954,0.623107,-0.00032515053,0.0014285572,0.78213525,-0.02436121,0.0035899514,0.010279796,-0.004596991,-0.00732335,-0.011569749,0.108781755,0.109107174,0.081997626,4.085962e-05,2.6266198e-05,0.00096482766,0.013092325,0.013239801,0.005066184,1,1,16,0
2017300000,2017300000,-68.558945,-23.078987,-488.0596,0.6231292,-0.00027998872,0.001439841,0.78211755,-0.024801388,0.003916325,0.011481984,0.009251497,-0.0071900776,-0.00704241,0.109159715,0.10948854,0.08221797,4.0885607e-05,2.629321e-05,0.0009649203,0.013147148,0.013295269,0.005074703,1,1,16,0
2017308000,2017308000,-68.55912,-23.079012,-488.05966,0.62313175,-0.00027401518,0.0013959078,0.7821155,-0.025353244,0.003368664,0.010901427,-0.007659665,-0.008122112,-0.000784114,0.10953975,0.109872006,0.082438976,4.0910927e-05,2.6319532e-05,0.00096501445,0.013201873,0.0133508835,0.0050832243,1,1,16,0
2017316000,2017316000,-68.5593,-23.079042,-488.05972,0.62310195,-0.00029644315,0.001362415,0.7821395,-0.025292734,0.0027608129,0.011216568,-0.010056572,-0.0009314731,0.00960219,0.109921865,0.11025758,0.082660645,4.0936957e-05,2.634362e-05,0.00096511067,0.013256534,0.013406313,0.0050917477,1,1,16,0
2017332000,2017332000,-68.55966,-23.079107,-488.05984,0.623075,-0.00030972643,0.0013445028,0.7821608,-0.025832253,0.0026224703,0.01081332,-0.0089911735,-0.0057253675,0.0017459294,0.11069239,0.11103509,0.083105996,4.0989067e-05,2.6393718e-05,0.00096530025,0.013366762,0.01351793,0.0051087956,1,1,16,0
2017340000,2017340000,-68.55985,-23.079134,-488.05988,0.62307304,-0.0003276846,0.0013551215,0.7821624,-0.026836613,0.0023991424,0.010594254,-0.000735364,0.0050604753,0.00068065553,0.11107213,0.1114236,0.08277217,4.099907e-05,2.6409334e-05,0.00096467446,0.013413923,0.013569604,0.0051015816,1,1,16,0
2017348000,2017348000,-68.56005,-23.079163,-488.05994,0.6230554,-0.00035034303,0.0013572181,0.7821765,-0.027542762,0.0017560361,0.0110136075,-0.0031323254,0.00466084,0.005740489,0.11146255,0.11181765,0.08299502,4.1025938e-05,2.6434322e-05,0.00096476835,0.01346883,0.0136251645,0.0051101046,1,1,16,0
2017356000,2017356000,-68.56025,-23.079193,-488.05997,0.6230294,-0.00037039976,0.0013198198,0.7821973,-0.026849616,0.0014462856,0.011005215,-0.010456079,-0.0019969558,0.0084035555,0.1118543,0.112212926,0.08321854,4.1050076e-05,2.6459213e-05,0.00096474984,0.013523468,0.013680511,0.005118628,1,1,16,0
2017372000,2017372000,-68.56064,-23.079256,-488.06006,0.622967,-0.0003294102,0.0012090511,0.7822471,-0.026115334,0.0012217872,0.010339368,-0.0061953035,-0.010120335,0.009067553,0.11264579,0.11301183,0.08366758,4.1102467e-05,2.6515225e-05,0.0009649332,0.013635337,0.013793813,0.00513568,1,1,16,0
2017380000,2017380000,-68.56083,-23.079285,-488.06012,0.62298965,-0.00031297118,0.0012072049,0.78222907,-0.025911842,0.0012621233,0.010165408,0.0021936353,-0.0035955894,-0.0070445626,0.113044776,0.113414556,0.083893105,4.1128507e-05,2.6541324e-05,0.0009650271,0.013691262,0.013850541,0.0051442077,1,1,16,0
2017388000,2017388000,-68.56103,-23.079311,-488.06015,0.6229935,-0.00031099937,0.001219637,0.78222597,-0.025898153,0.00069035473,0.0102284085,0.0027262866,0.0014644242,-0.0010524503,0.11344593,0.11381949,0.084119305,4.1154373e-05,2.6566884e-05,0.0009651217,0.013747385,0.013907477,0.005152736,1,1,16,0
2017396000,2017396000,-68.56122,-23.079348,-488.06018,0.6229804,-0.00032838236,0.0012359377,0.78223646,-0.02626196,-0.0005986625,0.010629383,0.00046262372,0.005858588,0.0044070976,0.11384926,0.114226624,0.084346175,4.1180905e-05,2.6593298e-05,0.000965215,0.013803673,0.013964769,0.005161267,1,1,16,0
2017412000,2017412000,-68.561615,-23.07943,-488.0602,0.622912,-0.00036303818,0.0011847715,0.78229094,-0.026836123,-0.0015427578,0.011361831,-0.016049046,0.0011978779,0.009200682,0.114652544,0.11504355,0.084224634,4.1218558e-05,2.6635407e-05,0.0009646835,0.013908185,0.014074751,0.0051619466,1,1,16,0
2017420000,2017420000,-68.56181,-23.079472,-488.06024,0.6229191,-0.00035986613,0.0011327942,0.7822855,-0.026972609,-0.0015119773,0.0110379895,-0.009657797,-0.008788852,-0.0019848736,0.11506233,0.11545732,0.08445197,4.1244923e-05,2.6660957e-05,0.00096477766,0.013965186,0.014132658,0.005170478,1,1,16,0
2017428000,2017428000,-68.56202,-23.079512,-488.06027,0.62292695,-0.00037605647,0.0011479786,0.7822792,-0.026891679,-0.0013184672,0.010594519,0.00046225765,0.0054591293,-0.0022512486,0.11547434,0.11587334,0.08467999,4.127145e-05,2.6686537e-05,0.0009648717,0.014022401,0.014190797,0.0051790113,1,1,16,0
2017436000,2017436000,-68.56222,-23.079546,-488.06027,0.6229619,-0.00039124495,0.0011473437,0.78225124,-0.02594498,-0.0008581768,0.010734557,-0.0024673163,0.0027957254,-0.010906631,0.11588859,0.11629163,0.08490869,4.1296647e-05,2.671209e-05,0.0009649672,0.014079857,0.014249254,0.005187544,1,1,16,0
2017452000,2017452000,-68.56261,-23.079618,-488.0603,0.6229797,-0.00043107517,0.0012136173,0.78223705,-0.026097253,-0.0018201936,0.010495742,-7.0488306e-05,0.006524375,0.002276064,0.11672383,0.11713505,0.08536811,4.1347554e-05,2.6763606e-05,0.00096515793,0.014194277,0.014365423,0.005204616,1,1,16,0
2017460000,2017460000,-68.562805,-23.079655,-488.0603,0.6229838,-0.0004676368,0.0012014636,0.7822338,-0.026178159,-0.0014763196,0.010595467,-0.00805987,0.005192891,-0.0010528872,0.11714483,0.117560185,0.08559885,4.137293e-05,2.679083e-05,0.0009652522,0.0142525,0.014424404,0.0052131526,1,1,16,0
2017468000,2017468000,-68.563,-23.079685,-488.0603,0.62293965,-0.0004689357,0.0011531451,0.78226906,-0.02668666,-0.00046104722,0.011178078,-0.009657646,-0.0073239817,0.014393593,0.11756811,0.11798764,0.085830264,4.1398845e-05,2.6818469e-05,0.0009653451,0.014310339,0.014483153,0.00522169,1,1,16,0
2017476000,2017476000,-68.56321,-23.07971,-488.0603,0.62296754,-0.0004442386,0.0011153197,0.7822469,-0.026954724,-0.00084789656,0.011055732,-0.0035322236,-0.010786258,-0.00864291,0.11799368,0.118417405,0.08606236,4.142532e-05,2.6844235e-05,0.0009654398,0.014368543,0.014542277,0.005230229,1,1,16,0
2017492000,2017492000,-68.56364,-23.07976,-488.06024,0.62296724,-0.0003721486,0.0010945898,0.7822471,-0.027062926,-2.5081827e-06,0.012530146,0.0064545013,-0.012517182,0.0073362794,0.11884018,0.1192792,0.08592925,4.1460902e-05,2.6887785e-05,0.0009649098,0.0144770015,0.014656366,0.005230269,1,1,16,0
2017500000,2017500000,-68.56385,-23.079775,-488.0602,0.6229679,-0.00036883235,0.0010888657,0.78224665,-0.027218794,0.00046278446,0.012863467,-0.0006029093,-0.0015982221,1.2613895e-05,0.11927251,0.11971591,0.08616179,4.1487365e-05,2.6914506e-05,0.0009650031,0.014535466,0.014715573,0.0052388087,1,1,16,0
2017508000,2017508000,-68.56407,-23.07979,-488.06018,0.6229606,-0.00035989922,0.0010705107,0.7822525,-0.028054873,0.00034087052,0.013055381,-0.0022008182,-0.0046608453,0.0025426398,0.11970716,0.12015498,0.08639502,4.151329e-05,2.694233e-05,0.00096509594,0.014594405,0.014775625,0.0052473503,1,1,16,0
2017516000,2017516000,-68.56429,-23.079803,-488.06015,0.62296295,-0.00034298864,0.0010519163,0.7822507,-0.027975926,0.00012894174,0.012998218,-0.0010023572,-0.0062587513,-0.00052001985,0.12014415,0.12059642,0.08662893,4.1538166e-05,2.6970018e-05,0.0009651903,0.014653979,0.014836318,0.0052558924,1,1,16,0
2017532000,2017532000,-68.564735,-23.079823,-488.06006,0.6229691,-0.00027785552,0.0010027267,0.7822458,-0.028246555,0.0013061248,0.013002036,0.0045904214,-0.010786065,-0.002783611,0.121025205,0.121486485,0.08709881,4.1589443e-05,2.7023256e-05,0.00096537976,0.014772917,0.014957198,0.005272982,1,1,16,0
2017540000,2017540000,-68.564964,-23.079826,-488.06003,0.6229834,-0.00023916284,0.0010627754,0.7822343,-0.02912523,0.001248464,0.013549976,0.017772939,0.0017304772,-0.0043815477,0.12146928,0.12193513,0.087334774,4.1615764e-05,2.704919e-05,0.00096547493,0.01483257,0.015017803,0.0052815275,1,1,16,0
2017548000,2017548000,-68.5652,-23.079823,-488.05997,0.6229948,-0.00021699349,0.0011114739,0.7822252,-0.029230358,0.0019388975,0.013416154,0.012979164,0.003195659,-0.0034494596,0.121902995,0.12238092,0.087571435,4.1625422e-05,2.7065094e-05,0.0009648528,0.014882689,0.01507328,0.005290073,1,1,16,0
2017556000,2017556000,-68.56544,-23.079815,-488.05994,0.6230074,-0.0001462229,0.0011193542,0.7822151,-0.029655494,0.0026595113,0.013624345,0.012579368,-0.0126506975,-0.0037169075,0.122350484,0.12283295,0.08718997,4.164899e-05,2.7088718e-05,0.0009648366,0.014941082,0.015132605,0.005280906,1,1,16,0
2017572000,2017572000,-68.56593,-23.079786,-488.05984,0.6229684,-4.6094323e-05,0.0011650767,0.7822462,-0.03088582,0.00243315,0.0135863265,0.011915384,-0.005460343,0.010527768,0.123255014,0.12374703,0.087663405,4.170089e-05,2.7145396e-05,0.00096502167,0.015061886,0.015255113,0.005298001,1,1,16,0
2017580000,2017580000,-68.56619,-23.079777,-488.0598,0.62295276,-4.535695e-05,0.0011867061,0.7822586,-0.032269537,0.002353795,0.0132147,0.004325381,0.0031950562,0.0054678116,0.123710915,0.124207765,0.08790116,4.1727602e-05,2.7171736e-05,0.0009651157,0.0151227815,0.015317012,0.0053065512,1,1,16,0
2017588000,2017588000,-68.56647,-23.079763,-488.05978,0.6229308,-9.472277e-05,0.0011890099,0.7822761,-0.03356384,0.0028830776,0.012894777,-0.007259263,0.009986107,0.0074651856,0.12416926,0.124670975,0.08813961,4.1754203e-05,2.719851e-05,0.000965209,0.015183482,0.015378949,0.005315103,1,1,16,0
2017596000,2017596000,-68.56674,-23.079746,-488.05972,0.6229839,-9.987834e-05,0.0011982258,0.7822337,-0.03417241,0.0028711606,0.012972833,0.0009964647,0.0023960911,-0.01650334,0.12463005,0.12513667,0.08837876,4.17815e-05,2.7223923e-05,0.0009653039,0.015244443,0.015441,0.005323654,1,1,16,0
2017612000,2017612000,-68.56719,-23.079712,-488.0598,0.62306124,-7.9106e-05,0.0012171471,0.7821721,-0.03446222,0.0027427557,0.01175196,0.008453434,0.0029285278,-0.0066496385,0.10511898,0.105405405,0.08068672,4.0633597e-05,2.6037294e-05,0.0009652605,0.012569204,0.012703987,0.005005699,1,1,16,0
2017620000,2017620000,-68.56736,-23.079685,-488.05994,0.62310344,-6.311957e-05,0.0012444532,0.7821384,-0.033800025,0.003430229,0.01128021,0.007919203,0.0010651458,-0.013041272,0.10547009,0.10576374,0.080377206,4.0643652e-05,2.605521e-05,0.00096463406,0.012614472,0.012753169,0.0049995193,1,1,16,0
2017628000,2017628000,-68.56753,-23.079655,-488.06006,0.6231125,-8.676223e-05,0.0011910184,0.7821313,-0.03371609,0.0034091622,0.011262236,-0.014051799,-0.0037290743,-0.0022571038,0.10582989,0.106126666,0.08059255,4.066834e-05,2.6081292e-05,0.00096472824,0.012667279,0.012806671,0.0050080293,1,1,16,0
2017636000,2017636000,-68.56769,-23.079624,-488.06018,0.62312645,-0.00018670884,0.0011888348,0.7821202,-0.033082947,0.0036232872,0.01088055,-0.015916148,0.01917367,-0.0038552324,0.106191665,0.106491596,0.08080854,4.0693492e-05,2.6106778e-05,0.00096482306,0.0127197085,0.012859807,0.005016541,1,1,16,0
2017652000,2017652000,-68.56803,-23.079563,-488.0604,0.6231503,-0.0002761338,0.0011897691,0.78210115,-0.0328592,0.003116705,0.010435558,-0.008991781,0.0066569815,-0.00052597374,0.106921196,0.10722751,0.0812425,4.074343e-05,2.615726e-05,0.00096501387,0.012825543,0.012967111,0.0050335694,1,1,16,0
2017660000,2017660000,-68.5682,-23.079535,-488.0605,0.6231534,-0.00033481058,0.0012350889,0.7820987,-0.032829985,0.0026784884,0.010064643,-0.00020331453,0.018508099,-0.00039295293,0.10728897,0.10759851,0.08146047,4.0768635e-05,2.6183281e-05,0.0009651078,0.01287888,0.013021011,0.005042084,1,1,16,0
2017668000,2017668000,-68.568375,-23.079508,-488.06058,0.6231535,-0.00035948062,0.0012914576,0.7820984,-0.03252346,0.0024839279,0.009583933,0.007253674,0.013581176,0.00053926324,0.107658766,0.107971564,0.08167909,4.0793748e-05,2.6209127e-05,0.0009652026,0.01293254,0.013075456,0.0050505996,1,1,16,0
2017676000,2017676000,-68.56855,-23.079483,-488.0607,0.6231346,-0.00036124123,0.0012628672,0.7821136,-0.031655673,0.0023501553,0.00924515,-0.005795858,-0.0041288724,0.0066646324,0.1080306,0.10834667,0.08135979,4.0818617e-05,2.623545e-05,0.000965297,0.012986521,0.013130347,0.005043989,1,1,16,0
2017692000,2017692000,-68.56889,-23.079432,-488.0609,0.62314963,-0.00034615348,0.001218011,0.78210175,-0.03156152,0.0026348617,0.008825285,0.0033919148,-0.0067919483,-0.0014580585,0.108772494,0.1091,0.08179745,4.0854084e-05,2.6274365e-05,0.000964769,0.013086676,0.013235158,0.005061024,1,1,16,0
2017700000,2017700000,-68.56906,-23.079403,-488.061,0.6231622,-0.0003133757,0.0012183227,0.78209174,-0.031206591,0.0026695454,0.008509277,0.0052560233,-0.0063923593,-0.0034551213,0.10915035,0.10948128,0.08201727,4.087999e-05,2.6298243e-05,0.0009648652,0.013141061,0.013290307,0.0050695436,1,1,16,0
2017708000,2017708000,-68.56924,-23.079376,-488.06113,0.6231763,-0.00029019383,0.0012330895,0.78208035,-0.030946605,0.0020094041,0.00927821,0.006587627,-0.002264411,-0.00398773,0.10953028,0.10986466,0.08223776,4.0904753e-05,2.6322215e-05,0.00096496206,0.013195423,0.013345353,0.0050780647,1,1,16,0
2017716000,2017716000,-68.56941,-23.079355,-488.0612,0.6231858,-0.0003348492,0.0012310919,0.7820727,-0.031518735,0.0014931678,0.010015241,-0.0072608134,0.008388239,-0.0025229645,0.10991228,0.110250145,0.082458906,4.0929932e-05,2.6346263e-05,0.0009650586,0.013250085,0.013400717,0.005086587,1,1,16,0
2017732000,2017732000,-68.56978,-23.079317,-488.06134,0.62320775,-0.00030757242,0.0012417956,0.7820554,-0.031375557,0.0017101007,0.009314185,0.010981875,0.003860809,-0.0065176515,0.11068258,0.11102748,0.08290319,4.0981122e-05,2.6395757e-05,0.00096524967,0.013360171,0.013511894,0.005103631,1,1,16,0
2017740000,2017740000,-68.56996,-23.079294,-488.06143,0.62323093,-0.00030656357,0.0012714914,0.7820369,-0.030880254,0.0019559285,0.008747147,0.006054871,0.00439348,-0.006917297,0.111070886,0.11141935,0.08257153,4.1007548e-05,2.6422682e-05,0.00096534233,0.013415574,0.013567786,0.005096492,1,1,16,0
2017748000,2017748000,-68.570145,-23.079268,-488.06152,0.6232382,-0.00028450243,0.0012660469,0.782031,-0.030746548,0.0022891767,0.008473388,0.0024596103,-0.0051939655,-0.0018572619,0.11146132,0.11181337,0.082793854,4.1033574e-05,2.6448348e-05,0.00096543663,0.01347091,0.013623784,0.0051050154,1,1,16,0
2017756000,2017756000,-68.57033,-23.07924,-488.0616,0.6232409,-0.00028856247,0.0012201288,0.782029,-0.030795854,0.0029100578,0.008631114,-0.009524513,-0.0063924096,-0.00039253023,0.11185309,0.11220861,0.08301684,4.105696e-05,2.6472137e-05,0.00096541963,0.013525718,0.013679303,0.005113539,1,1,16,0
2017772000,2017772000,-68.57069,-23.079176,-488.06177,0.6232203,-0.00022697159,0.0012176698,0.7820454,-0.030473413,0.0028964786,0.009014069,0.0135108745,0.00093263626,0.0024044856,0.112635404,0.11300375,0.083464816,4.1093288e-05,2.651192e-05,0.00096489093,0.013630087,0.013789221,0.0051305923,1,1,16,0
2017780000,2017780000,-68.57088,-23.079144,-488.06183,0.6232347,-0.00020735853,0.0012195096,0.782034,-0.030466793,0.0030323307,0.009060693,0.0035240555,-0.0035946716,-0.0041204817,0.11303428,0.1134064,0.08368981,4.111886e-05,2.6539847e-05,0.00096498354,0.013686133,0.013846119,0.00513912,1,1,16,0
2017788000,2017788000,-68.57106,-23.07911,-488.0619,0.62328434,-0.00017641268,0.0012279417,0.7819943,-0.030130519,0.002757013,0.008974576,0.0065867887,-0.0047931983,-0.015438812,0.11343532,0.11381124,0.08391547,4.114614e-05,2.6568077e-05,0.0009650743,0.013742593,0.013903567,0.005147649,1,1,16,0
2017796000,2017796000,-68.57124,-23.079077,-488.06192,0.62329733,-0.00021217695,0.0011765446,0.7819841,-0.029698612,0.002735711,0.009601969,-0.015517587,-0.0010648767,-0.003720769,0.113838546,0.1142183,0.08357341,4.117287e-05,2.6594718e-05,0.00096516724,0.013799149,0.013961013,0.0051400624,1,1,16,0
2017812000,2017812000,-68.5716,-23.079008,-488.06204,0.623334,-0.00021488013,0.0011456021,0.7819549,-0.027363822,0.0029707216,0.008472461,-0.0010032769,0.001864748,0.003070115,0.1146516,0.1150391,0.08402505,4.1226613e-05,2.6648087e-05,0.00096535275,0.013912858,0.014076442,0.005157121,1,1,16,0
2017820000,2017820000,-68.57177,-23.078976,-488.06207,0.62329304,-0.00021387912,0.0011453865,0.7819875,-0.026942171,0.002366627,0.008524101,0.00019503143,-0.00026575025,0.013456431,0.11506144,0.11545287,0.08425188,4.125362e-05,2.6673097e-05,0.00096544693,0.013970122,0.01413464,0.005165652,1,1,16,0
2017828000,2017828000,-68.57194,-23.078943,-488.06213,0.6232942,-0.000222763,0.0011516389,0.78198665,-0.0265402,0.0020416183,0.00878664,-7.123019e-05,0.0026636983,7.466489e-06,0.11546325,0.11586473,0.08447939,4.126304e-05,2.668997e-05,0.00096482283,0.014018962,0.014188588,0.0051741838,1,1,16,0
2017836000,2017836000,-68.57211,-23.078909,-488.06216,0.62330776,-0.0002031827,0.0011148643,0.7819758,-0.026432445,0.0024299282,0.009326504,-0.00406562,-0.009587225,-0.0038552727,0.1158774,0.11628295,0.08470757,4.128875e-05,2.6717462e-05,0.0009649158,0.014076317,0.014246849,0.005182717,1,1,16,0
2017852000,2017852000,-68.572464,-23.078829,-488.06223,0.6233469,-0.00018359788,0.0011005293,0.7819446,-0.027492257,0.003205395,0.009499996,0.005122306,0.0005328113,-0.0047873156,0.116712436,0.11712623,0.08516597,4.13397e-05,2.6768403e-05,0.00096510677,0.014191838,0.014364232,0.0051997877,1,1,16,0
2017860000,2017860000,-68.572655,-23.078789,-488.06226,0.62337,-0.00020258613,0.0010931579,0.7819262,-0.02806051,0.0028588069,0.010211715,-0.0043320647,0.0025302148,-0.006917835,0.11713335,0.11755131,0.085396186,4.1365576e-05,2.6793577e-05,0.00096520205,0.014249179,0.014422535,0.0052083232,1,1,16,0
2017868000,2017868000,-68.572845,-23.078749,-488.0623,0.6233935,-0.00016658881,0.0010385577,0.78190756,-0.028321793,0.0032049036,0.011097661,-0.004997782,-0.01557936,-0.0070509627,0.117556535,0.1179787,0.085038505,4.139229e-05,2.6820804e-05,0.0009652952,0.014306728,0.014480825,0.0052000913,1,1,16,0
2017876000,2017876000,-68.573044,-23.078707,-488.06232,0.623386,-0.00017048817,0.0010423848,0.7819135,-0.02847517,0.0031984034,0.011003214,0.00019538128,0.0013317342,0.0028026425,0.117982,0.1184084,0.0852685,4.141775e-05,2.684765e-05,0.00096538936,0.014364833,0.014539788,0.0052086273,1,1,16,0
2017892000,2017892000,-68.57344,-23.078623,-488.06235,0.6233663,-0.00016156379,0.0010599119,0.7819292,-0.0286087,0.0031016166,0.010619918,0.004589649,-0.0030624552,-0.001724691,0.11883984,0.119274795,0.08573053,4.1470637e-05,2.689753e-05,0.00096557994,0.014482778,0.014659744,0.0052257054,1,1,16,0
2017900000,2017900000,-68.57364,-23.078579,-488.06235,0.6233808,-0.00012342274,0.0010840464,0.78191763,-0.028694183,0.004056506,0.009898265,0.010714887,-0.003728221,-0.004254784,0.119260535,0.11970673,0.08596257,4.1479714e-05,2.6913123e-05,0.0009649567,0.014532656,0.0147148715,0.005234246,1,1,16,0
