timestamp,voltage_v,current_a,current_average_a,discharged_mah,remaining,scale,time_remaining_s,temperature,voltage_cell_v[0],voltage_cell_v[1],voltage_cell_v[2],voltage_cell_v[3],voltage_cell_v[4],voltage_cell_v[5],voltage_cell_v[6],voltage_cell_v[7],voltage_cell_v[8],voltage_cell_v[9],voltage_cell_v[10],voltage_cell_v[11],voltage_cell_v[12],voltage_cell_v[13],max_cell_voltage_delta,full_charge_capacity_wh,remaining_capacity_wh,nominal_voltage,internal_resistance_estimate,ocv_estimate,ocv_estimate_filtered,volt_based_soc_estimate,voltage_prediction,prediction_error,estimation_covariance_norm,capacity,cycle_count,average_time_to_empty,manufacture_date,state_of_health,max_error,interface_error,faults,over_discharge_count,connected,cell_count,source,priority,id,is_powering_off,is_required,warning
2015916000,16.2,-1.0,1.4186168,0.0,0.9999466,1.0000058,nan,nan,0.0,0.0,0.0,0.0,0.0,0.0,0.0,0.0,0.0,0.0,0.0,0.0,0.0,0.0,0.0,0.0,0.0,0.0,0.005,16.18,16.18,0.98888874,0.0,0.0,6.0133185,0,0,0,0,0,0,0,0,0,1,4,0,0,1,0,0,0
2015928000,16.2,-1.0,1.4186168,0.0,0.9999466,1.0000058,nan,nan,0.0,0.0,0.0,0.0,0.0,0.0,0.0,0.0,0.0,0.0,0.0,0.0,0.0,0.0,0.0,0.0,0.0,0.0,0.005,16.18,16.18,0.98888874,0.0,0.0,6.0133185,0,0,0,0,0,0,0,0,0,1,4,0,0,1,0,0,0
2016116000,16.19436,-1.0,1.4132369,0.0,0.99966145,1.0000376,nan,nan,0.0,0.0,0.0,0.0,0.0,0.0,0.0,0.0,0.0,0.0,0.0,0.0,0.0,0.0,0.0,0.0,0.0,0.0,0.005,16.17436,16.18,0.98888874,0.0,0.0,6.0133185,0,0,0,0,0,0,0,0,0,1,4,0,0,1,0,0,0
2016316000,16.188362,-1.0,1.4075958,0.0,0.9988289,1.00013,nan,nan,0.0,0.0,0.0,0.0,0.0,0.0,0.0,0.0,0.0,0.0,0.0,0.0,0.0,0.0,0.0,0.0,0.0,0.0,0.005,16.168362,16.18,0.98888874,0.0,0.0,6.0133185,0,0,0,0,0,0,0,0,0,1,4,0,0,1,0,0,0
2016516000,16.182362,-1.0,1.4019772,0.0,0.99754715,1.0002726,nan,nan,0.0,0.0,0.0,0.0,0.0,0.0,0.0,0.0,0.0,0.0,0.0,0.0,0.0,0.0,0.0,0.0,0.0,0.0,0.005,16.162361,16.18,0.98888874,0.0,0.0,6.0133185,0,0,0,0,0,0,0,0,0,1,4,0,0,1,0,0,0
2016716000,16.176363,-1.0,1.396381,0.0,0.9958916,1.0004567,nan,nan,0.0,0.0,0.0,0.0,0.0,0.0,0.0,0.0,0.0,0.0,0.0,0.0,0.0,0.0,0.0,0.0,0.0,0.0,0.005,16.156363,16.18,0.98888874,0.0,0.0,6.0133185,0,0,0,0,0,0,0,0,0,1,4,0,0,1,0,0,0
2016916000,16.170362,-1.0,1.3908073,0.0,0.9939337,1.0006745,nan,nan,0.0,0.0,0.0,0.0,0.0,0.0,0.0,0.0,0.0,0.0,0.0,0.0,0.0,0.0,0.0,0.0,0.0,0.0,0.005,16.150362,16.18,0.98888874,0.0,0.0,6.0133185,0,0,0,0,0,0,0,0,0,1,4,0,0,1,0,0,0
2017116000,16.164364,-1.0,1.3852557,0.0,0.99172497,1.0009203,nan,nan,0.0,0.0,0.0,0.0,0.0,0.0,0.0,0.0,0.0,0.0,0.0,0.0,0.0,0.0,0.0,0.0,0.0,0.0,0.005,16.144363,16.18,0.98888874,0.0,0.0,6.0133185,0,0,0,0,0,0,0,0,0,1,4,0,0,1,0,0,0
2017316000,16.158363,-1.0,1.3797262,0.0,0.9893179,1.0011883,nan,nan,0.0,0.0,0.0,0.0,0.0,0.0,0.0,0.0,0.0,0.0,0.0,0.0,0.0,0.0,0.0,0.0,0.0,0.0,0.005,16.138363,16.18,0.98888874,0.0,0.0,6.0133185,0,0,0,0,0,0,0,0,0,1,4,0,0,1,0,0,0
2017516000,16.152365,-1.0,1.374219,0.0,0.986742,1.0014753,nan,nan,0.0,0.0,0.0,0.0,0.0,0.0,0.0,0.0,0.0,0.0,0.0,0.0,0.0,0.0,0.0,0.0,0.0,0.0,0.005,16.132364,16.18,0.98888874,0.0,0.0,6.0133185,0,0,0,0,0,0,0,0,0,1,4,0,0,1,0,0,0
2017716000,16.146364,-1.0,1.3687336,0.0,0.98402977,1.0017775,nan,nan,0.0,0.0,0.0,0.0,0.0,0.0,0.0,0.0,0.0,0.0,0.0,0.0,0.0,0.0,0.0,0.0,0.0,0.0,0.005,16.126364,16.18,0.98888874,0.0,0.0,6.0133185,0,0,0,0,0,0,0,0,0,1,4,0,0,1,0,0,0
2017916000,16.140366,-1.0,1.3632702,0.0,0.98120594,1.0020926,nan,nan,0.0,0.0,0.0,0.0,0.0,0.0,0.0,0.0,0.0,0.0,0.0,0.0,0.0,0.0,0.0,0.0,0.0,0.0,0.005,16.120365,16.18,0.98888874,0.0,0.0,6.0133185,0,0,0,0,0,0,0,0,0,1,4,0,0,1,0,0,0
2018116000,16.134365,-1.0,1.3578285,0.0,0.9782896,1.002418,nan,nan,0.0,0.0,0.0,0.0,0.0,0.0,0.0,0.0,0.0,0.0,0.0,0.0,0.0,0.0,0.0,0.0,0.0,0.0,0.005,16.114365,16.18,0.98888874,0.0,0.0,6.0133185,0,0,0,0,0,0,0,0,0,1,4,0,0,1,0,0,0
2018316000,16.128366,-1.0,1.3524085,0.0,0.9752989,1.0027522,nan,nan,0.0,0.0,0.0,0.0,0.0,0.0,0.0,0.0,0.0,0.0,0.0,0.0,0.0,0.0,0.0,0.0,0.0,0.0,0.005,16.108366,16.18,0.98888874,0.0,0.0,6.0133185,0,0,0,0,0,0,0,0,0,1,4,0,0,1,0,0,0
2018516000,16.122366,-1.0,1.3470101,0.0,0.97224617,1.0030934,nan,nan,0.0,0.0,0.0,0.0,0.0,0.0,0.0,0.0,0.0,0.0,0.0,0.0,0.0,0.0,0.0,0.0,0.0,0.0,0.005,16.102365,16.18,0.98888874,0.0,0.0,6.0133185,0,0,0,0,0,0,0,0,0,1,4,0,0,1,0,0,0
2018716000,16.116367,-1.0,1.3416334,0.0,0.9691429,1.0034403,nan,nan,0.0,0.0,0.0,0.0,0.0,0.0,0.0,0.0,0.0,0.0,0.0,0.0,0.0,0.0,0.0,0.0,0.0,0.0,0.005,16.096367,16.18,0.98888874,0.0,0.0,6.0133185,0,0,0,0,0,0,0,0,0,1,4,0,0,1,0,0,0
2018916000,16.110367,-1.0,1.3362782,0.0,0.96599865,1.0037923,nan,nan,0.0,0.0,0.0,0.0,0.0,0.0,0.0,0.0,0.0,0.0,0.0,0.0,0.0,0.0,0.0,0.0,0.0,0.0,0.005,16.090366,16.18,0.98888874,0.0,0.0,6.0133185,0,0,0,0,0,0,0,0,0,1,4,0,0,1,0,0,0
2019116000,16.104368,-1.0,1.3309443,0.0,0.9628191,1.0041484,nan,nan,0.0,0.0,0.0,0.0,0.0,0.0,0.0,0.0,0.0,0.0,0.0,0.0,0.0,0.0,0.0,0.0,0.0,0.0,0.005,16.084368,16.18,0.98888874,0.0,0.0,6.0133185,0,0,0,0,0,0,0,0,0,1,4,0,0,1,0,0,0
2019316000,16.098368,-1.0,1.3256317,0.0,0.9596119,1.0045078,nan,nan,0.0,0.0,0.0,0.0,0.0,0.0,0.0,0.0,0.0,0.0,0.0,0.0,0.0,0.0,0.0,0.0,0.0,0.0,0.005,16.078367,16.18,0.98888874,0.0,0.0,6.0133185,0,0,0,0,0,0,0,0,0,1,4,0,0,1,0,0,0
2019516000,16.09237,-1.0,1.3203404,0.0,0.9563818,1.00487,nan,nan,0.0,0.0,0.0,0.0,0.0,0.0,0.0,0.0,0.0,0.0,0.0,0.0,0.0,0.0,0.0,0.0,0.0,0.0,0.005,16.072369,16.18,0.98888874,0.0,0.0,6.0133185,0,0,0,0,0,0,0,0,0,1,4,0,0,1,0,0,0
2019716000,16.086369,-1.0,1.31507,0.0,0.95313454,1.0052346,nan,nan,0.0,0.0,0.0,0.0,0.0,0.0,0.0,0.0,0.0,0.0,0.0,0.0,0.0,0.0,0.0,0.0,0.0,0.0,0.005,16.066368,16.18,0.98888874,0.0,0.0,6.0133185,0,0,0,0,0,0,0,0,0,1,4,0,0,1,0,0,0
2019916000,16.08037,-1.0,1.3098208,0.0,0.9498701,1.0056012,nan,nan,0.0,0.0,0.0,0.0,0.0,0.0,0.0,0.0,0.0,0.0,0.0,0.0,0.0,0.0,0.0,0.0,0.0,0.0,0.005,16.06037,16.18,0.98888874,0.0,0.0,6.0133185,0,0,0,0,0,0,0,0,0,1,4,0,0,1,0,0,0
2020116000,16.07437,-1.0,1.3045925,0.0,0.9465933,1.0059695,nan,nan,0.0,0.0,0.0,0.0,0.0,0.0,0.0,0.0,0.0,0.0,0.0,0.0,0.0,0.0,0.0,0.0,0.0,0.0,0.005,16.054369,16.18,0.98888874,0.0,0.0,6.0133185,0,0,0,0,0,0,0,0,0,1,4,0,0,1,0,0,0
2020316000,16.06837,-1.0,1.2993852,0.0,0.9433079,1.006339,nan,nan,0.0,0.0,0.0,0.0,0.0,0.0,0.0,0.0,0.0,0.0,0.0,0.0,0.0,0.0,0.0,0.0,0.0,0.0,0.005,16.04837,16.18,0.98888874,0.0,0.0,6.0133185,0,0,0,0,0,0,0,0,0,1,4,0,0,1,0,0,0
2020516000,16.06237,-1.0,1.2941985,0.0,0.94001484,1.0067097,nan,nan,0.0,0.0,0.0,0.0,0.0,0.0,0.0,0.0,0.0,0.0,0.0,0.0,0.0,0.0,0.0,0.0,0.0,0.0,0.005,16.04237,16.18,0.98888874,0.0,0.0,6.0133185,0,0,0,0,0,0,0,0,0,1,4,0,0,1,0,0,0
2020716000,16.056372,-1.0,1.2890325,0.0,0.93670845,1.0070821,nan,nan,0.0,0.0,0.0,0.0,0.0,0.0,0.0,0.0,0.0,0.0,0.0,0.0,0.0,0.0,0.0,0.0,0.0,0.0,0.005,16.036371,16.18,0.98888874,0.0,0.0,6.0133185,0,0,0,0,0,0,0,0,0,1,4,0,0,1,0,0,0
2020916000,16.050371,-1.0,1.2838873,0.0,0.933403,1.0074549,nan,nan,0.0,0.0,0.0,0.0,0.0,0.0,0.0,0.0,0.0,0.0,0.0,0.0,0.0,0.0,0.0,0.0,0.0,0.0,0.005,16.03037,16.18,0.98888874,0.0,0.0,6.0133185,0,0,0,0,0,0,0,0,0,1,4,0,0,1,0,0,0
2021116000,16.044373,-1.0,1.2787625,0.0,0.9300947,1.0078281,nan,nan,0.0,0.0,0.0,0.0,0.0,0.0,0.0,0.0,0.0,0.0,0.0,0.0,0.0,0.0,0.0,0.0,0.0,0.0,0.005,16.024372,16.18,0.98888874,0.0,0.0,6.0133185,0,0,0,0,0,0,0,0,0,1,4,0,0,1,0,0,0
2021316000,16.038372,-1.0,1.273658,0.0,0.92677784,1.0082026,nan,nan,0.0,0.0,0.0,0.0,0.0,0.0,0.0,0.0,0.0,0.0,0.0,0.0,0.0,0.0,0.0,0.0,0.0,0.0,0.005,16.018372,16.18,0.98888874,0.0,0.0,6.0133185,0,0,0,0,0,0,0,0,0,1,4,0,0,1,0,0,0
2021516000,16.032373,-1.0,1.2685741,0.0,0.9234581,1.0085776,nan,nan,0.0,0.0,0.0,0.0,0.0,0.0,0.0,0.0,0.0,0.0,0.0,0.0,0.0,0.0,0.0,0.0,0.0,0.0,0.005,16.012373,16.18,0.98888874,0.0,0.0,6.0133185,0,0,0,0,0,0,0,0,0,1,4,0,0,1,0,0,0
2021716000,16.026373,-1.0,1.2635105,0.0,0.9201307,1.0089538,nan,nan,0.0,0.0,0.0,0.0,0.0,0.0,0.0,0.0,0.0,0.0,0.0,0.0,0.0,0.0,0.0,0.0,0.0,0.0,0.005,16.006372,16.18,0.98888874,0.0,0.0,6.0133185,0,0,0,0,0,0,0,0,0,1,4,0,0,1,0,0,0
2021916000,16.020374,-1.0,1.2584671,0.0,0.91680336,1.0093303,nan,nan,0.0,0.0,0.0,0.0,0.0,0.0,0.0,0.0,0.0,0.0,0.0,0.0,0.0,0.0,0.0,0.0,0.0,0.0,0.005,16.000374,16.18,0.98888874,0.0,0.0,6.0133185,0,0,0,0,0,0,0,0,0,1,4,0,0,1,0,0,0
2022116000,16.014374,-1.0,1.2534437,0.0,0.913476,1.0097071,nan,nan,0.0,0.0,0.0,0.0,0.0,0.0,0.0,0.0,0.0,0.0,0.0,0.0,0.0,0.0,0.0,0.0,0.0,0.0,0.005,15.994373,16.18,0.98888874,0.0,0.0,6.0133185,0,0,0,0,0,0,0,0,0,1,4,0,0,1,0,0,0
2022316000,16.008375,-1.0,1.2484404,0.0,0.9101486,1.0100842,nan,nan,0.0,0.0,0.0,0.0,0.0,0.0,0.0,0.0,0.0,0.0,0.0,0.0,0.0,0.0,0.0,0.0,0.0,0.0,0.005,15.988375,16.18,0.98888874,0.0,0.0,6.0133185,0,0,0,0,0,0,0,0,0,1,4,0,0,1,0,0,0
2022516000,16.002375,-1.0,1.2434571,0.0,0.90682125,1.0104614,nan,nan,0.0,0.0,0.0,0.0,0.0,0.0,0.0,0.0,0.0,0.0,0.0,0.0,0.0,0.0,0.0,0.0,0.0,0.0,0.005,15.982374,16.18,0.98888874,0.0,0.0,6.0133185,0,0,0,0,0,0,0,0,0,1,4,0,0,1,0,0,0
2022716000,15.996375,-1.0,1.2384936,0.0,0.90349483,1.0108391,nan,nan,0.0,0.0,0.0,0.0,0.0,0.0,0.0,0.0,0.0,0.0,0.0,0.0,0.0,0.0,0.0,0.0,0.0,0.0,0.005,15.976375,16.18,0.98888874,0.0,0.0,6.0133185,0,0,0,0,0,0,0,0,0,1,4,0,0,1,0,0,0
2022916000,15.9903755,-1.0,1.23355,0.0,0.90016747,1.011217,nan,nan,0.0,0.0,0.0,0.0,0.0,0.0,0.0,0.0,0.0,0.0,0.0,0.0,0.0,0.0,0.0,0.0,0.0,0.0,0.005,15.970375,16.18,0.98888874,0.0,0.0,6.0133185,0,0,0,0,0,0,0,0,0,1,4,0,0,1,0,0,0
2023116000,15.984376,-1.0,1.2286261,0.0,0.8968401,1.0115951,nan,nan,0.0,0.0,0.0,0.0,0.0,0.0,0.0,0.0,0.0,0.0,0.0,0.0,0.0,0.0,0.0,0.0,0.0,0.0,0.005,15.9643755,16.18,0.98888874,0.0,0.0,6.0133185,0,0,0,0,0,0,0,0,0,1,4,0,0,1,0,0,0
2023316000,15.978376,-1.0,1.223722,0.0,0.8935127,1.0119736,nan,nan,0.0,0.0,0.0,0.0,0.0,0.0,0.0,0.0,0.0,0.0,0.0,0.0,0.0,0.0,0.0,0.0,0.0,0.0,0.005,15.958376,16.18,0.98888874,0.0,0.0,6.0133185,0,0,0,0,0,0,0,0,0,1,4,0,0,1,0,0,0
2023516000,15.972377,-1.0,1.2188373,0.0,0.89018536,1.0123523,nan,nan,0.0,0.0,0.0,0.0,0.0,0.0,0.0,0.0,0.0,0.0,0.0,0.0,0.0,0.0,0.0,0.0,0.0,0.0,0.005,15.952376,16.18,0.98888874,0.0,0.0,6.0133185,0,0,0,0,0,0,0,0,0,1,4,0,0,1,0,0,0
2023716000,15.966377,-1.0,1.2139721,0.0,0.8868551,1.0127317,nan,nan,0.0,0.0,0.0,0.0,0.0,0.0,0.0,0.0,0.0,0.0,0.0,0.0,0.0,0.0,0.0,0.0,0.0,0.0,0.005,15.946377,16.18,0.98888874,0.0,0.0,6.0133185,0,0,0,0,0,0,0,0,0,1,4,0,0,1,0,0,0
2023916000,15.960378,-1.0,1.2091265,0.0,0.88352203,1.0131116,nan,nan,0.0,0.0,0.0,0.0,0.0,0.0,0.0,0.0,0.0,0.0,0.0,0.0,0.0,0.0,0.0,0.0,0.0,0.0,0.005,15.940377,16.18,0.98888874,0.0,0.0,6.0133185,0,0,0,0,0,0,0,0,0,1,4,0,0,1,0,0,0
2024116000,15.954378,-1.0,1.2043,0.0,0.8801899,1.0134919,nan,nan,0.0,0.0,0.0,0.0,0.0,0.0,0.0,0.0,0.0,0.0,0.0,0.0,0.0,0.0,0.0,0.0,0.0,0.0,0.005,15.934378,16.18,0.98888874,0.0,0.0,6.0133185,0,0,0,0,0,0,0,0,0,1,4,0,0,1,0,0,0
2024316000,15.948379,-1.0,1.199493,0.0,0.8768568,1.0138724,nan,nan,0.0,0.0,0.0,0.0,0.0,0.0,0.0,0.0,0.0,0.0,0.0,0.0,0.0,0.0,0.0,0.0,0.0,0.0,0.005,15.928378,16.18,0.98888874,0.0,0.0,6.0133185,0,0,0,0,0,0,0,0,0,1,4,0,0,1,0,0,0
2024516000,15.942379,-1.0,1.1947051,0.0,0.87352467,1.0142531,nan,nan,0.0,0.0,0.0,0.0,0.0,0.0,0.0,0.0,0.0,0.0,0.0,0.0,0.0,0.0,0.0,0.0,0.0,0.0,0.005,15.922379,16.18,0.98888874,0.0,0.0,6.0133185,0,0,0,0,0,0,0,0,0,1,4,0,0,1,0,0,0
2024716000,15.936379,-1.0,1.1899363,0.0,0.8701925,1.0146341,nan,nan,0.0,0.0,0.0,0.0,0.0,0.0,0.0,0.0,0.0,0.0,0.0,0.0,0.0,0.0,0.0,0.0,0.0,0.0,0.005,15.916379,16.18,0.98888874,0.0,0.0,6.0133185,0,0,0,0,0,0,0,0,0,1,4,0,0,1,0,0,0
2024916000,15.93038,-1.0,1.1851865,0.0,0.86685944,1.0150155,nan,nan,0.0,0.0,0.0,0.0,0.0,0.0,0.0,0.0,0.0,0.0,0.0,0.0,0.0,0.0,0.0,0.0,0.0,0.0,0.005,15.910379,16.18,0.98888874,0.0,0.0,6.0133185,0,0,0,0,0,0,0,0,0,1,4,0,0,1,0,0,0
2025116000,15.92438,-1.0,1.1804558,0.0,0.8635273,1.0153972,nan,nan,0.0,0.0,0.0,0.0,0.0,0.0,0.0,0.0,0.0,0.0,0.0,0.0,0.0,0.0,0.0,0.0,0.0,0.0,0.005,15.90438,16.18,0.98888874,0.0,0.0,6.0133185,0,0,0,0,0,0,0,0,0,1,4,0,0,1,0,0,0
2025316000,15.918381,-1.0,1.1757438,0.0,0.8601942,1.015779,nan,nan,0.0,0.0,0.0,0.0,0.0,0.0,0.0,0.0,0.0,0.0,0.0,0.0,0.0,0.0,0.0,0.0,0.0,0.0,0.005,15.89838,16.18,0.98888874,0.0,0.0,6.0133185,0,0,0,0,0,0,0,0,0,1,4,0,0,1,0,0,0
2025516000,15.912381,-1.0,1.1710508,0.0,0.85686207,1.0161612,nan,nan,0.0,0.0,0.0,0.0,0.0,0.0,0.0,0.0,0.0,0.0,0.0,0.0,0.0,0.0,0.0,0.0,0.0,0.0,0.005,15.892381,16.18,0.98888874,0.0,0.0,6.0133185,0,0,0,0,0,0,0,0,0,1,4,0,0,1,0,0,0
2025716000,15.906382,-1.0,1.1663764,0.0,0.853529,1.0165437,nan,nan,0.0,0.0,0.0,0.0,0.0,0.0,0.0,0.0,0.0,0.0,0.0,0.0,0.0,0.0,0.0,0.0,0.0,0.0,0.005,15.886381,16.18,0.98888874,0.0,0.0,6.0133185,0,0,0,0,0,0,0,0,0,1,4,0,0,1,0,0,0
2025916000,15.900382,-1.0,1.1617206,0.0,0.85019684,1.0169265,nan,nan,0.0,0.0,0.0,0.0,0.0,0.0,0.0,0.0,0.0,0.0,0.0,0.0,0.0,0.0,0.0,0.0,0.0,0.0,0.005,15.880382,16.18,0.98888874,0.0,0.0,6.0133185,0,0,0,0,0,0,0,0,0,1,4,0,0,1,0,0,0
2026116000,15.894382,-1.0,1.1570835,0.0,0.84686375,1.0173095,nan,nan,0.0,0.0,0.0,0.0,0.0,0.0,0.0,0.0,0.0,0.0,0.0,0.0,0.0,0.0,0.0,0.0,0.0,0.0,0.005,15.874382,16.18,0.98888874,0.0,0.0,6.0133185,0,0,0,0,0,0,0,0,0,1,4,0,0,1,0,0,0
2026316000,15.888383,-1.0,1.1524649,0.0,0.8435316,1.0176929,nan,nan,0.0,0.0,0.0,0.0,0.0,0.0,0.0,0.0,0.0,0.0,0.0,0.0,0.0,0.0,0.0,0.0,0.0,0.0,0.005,15.868382,16.18,0.98888874,0.0,0.0,6.0133185,0,0,0,0,0,0,0,0,0,1,4,0,0,1,0,0,0
2026516000,15.882383,-1.0,1.1478647,0.0,0.8401995,1.0180767,nan,nan,0.0,0.0,0.0,0.0,0.0,0.0,0.0,0.0,0.0,0.0,0.0,0.0,0.0,0.0,0.0,0.0,0.0,0.0,0.005,15.862383,16.18,0.98888874,0.0,0.0,6.0133185,0,0,0,0,0,0,0,0,0,1,4,0,0,1,0,0,0
2026716000,15.876384,-1.0,1.143283,0.0,0.8368664,1.0184605,nan,nan,0.0,0.0,0.0,0.0,0.0,0.0,0.0,0.0,0.0,0.0,0.0,0.0,0.0,0.0,0.0,0.0,0.0,0.0,0.005,15.856383,16.18,0.98888874,0.0,0.0,6.0133185,0,0,0,0,0,0,0,0,0,1,4,0,0,1,0,0,0
2026916000,15.870384,-1.0,1.1387194,0.0,0.83353424,1.0188447,nan,nan,0.0,0.0,0.0,0.0,0.0,0.0,0.0,0.0,0.0,0.0,0.0,0.0,0.0,0.0,0.0,0.0,0.0,0.0,0.005,15.850384,16.18,0.98888874,0.0,0.0,6.0133185,0,0,0,0,0,0,0,0,0,1,4,0,0,1,0,0,0
2027116000,15.864385,-1.0,1.1341741,0.0,0.83020115,1.0192293,nan,nan,0.0,0.0,0.0,0.0,0.0,0.0,0.0,0.0,0.0,0.0,0.0,0.0,0.0,0.0,0.0,0.0,0.0,0.0,0.005,15.844384,16.18,0.98888874,0.0,0.0,6.0133185,0,0,0,0,0,0,0,0,0,1,4,0,0,1,0,0,0
2027316000,15.858385,-1.0,1.1296469,0.0,0.826869,1.0196141,nan,nan,0.0,0.0,0.0,0.0,0.0,0.0,0.0,0.0,0.0,0.0,0.0,0.0,0.0,0.0,0.0,0.0,0.0,0.0,0.005,15.838385,16.18,0.98888874,0.0,0.0,6.0133185,0,0,0,0,0,0,0,0,0,1,4,0,0,1,0,0,0
2027516000,15.8523855,-1.0,1.1251378,0.0,0.8235359,1.0199991,nan,nan,0.0,0.0,0.0,0.0,0.0,0.0,0.0,0.0,0.0,0.0,0.0,0.0,0.0,0.0,0.0,0.0,0.0,0.0,0.005,15.832385,16.18,0.98888874,0.0,0.0,6.0133185,0,0,0,0,0,0,0,0,0,1,4,0,0,1,0,0,0
2027716000,15.846386,-1.0,1.1206466,0.0,0.8202038,1.0203846,nan,nan,0.0,0.0,0.0,0.0,0.0,0.0,0.0,0.0,0.0,0.0,0.0,0.0,0.0,0.0,0.0,0.0,0.0,0.0,0.005,15.8263855,16.18,0.98888874,0.0,0.0,6.0133185,0,0,0,0,0,0,0,0,0,1,4,0,0,1,0,0,0
2027916000,15.840386,-1.0,1.1161733,0.0,0.8168707,1.0207703,nan,nan,0.0,0.0,0.0,0.0,0.0,0.0,0.0,0.0,0.0,0.0,0.0,0.0,0.0,0.0,0.0,0.0,0.0,0.0,0.005,15.820386,16.18,0.98888874,0.0,0.0,6.0133185,0,0,0,0,0,0,0,0,0,1,4,0,0,1,0,0,0
2028116000,15.834387,-1.0,1.1117178,0.0,0.81353855,1.0211562,nan,nan,0.0,0.0,0.0,0.0,0.0,0.0,0.0,0.0,0.0,0.0,0.0,0.0,0.0,0.0,0.0,0.0,0.0,0.0,0.005,15.814386,16.18,0.98888874,0.0,0.0,6.0133185,0,0,0,0,0,0,0,0,0,1,4,0,0,1,0,0,0
2028316000,15.828387,-1.0,1.1072803,0.0,0.8102064,1.0215425,nan,nan,0.0,0.0,0.0,0.0,0.0,0.0,0.0,0.0,0.0,0.0,0.0,0.0,0.0,0.0,0.0,0.0,0.0,0.0,0.005,15.808387,16.18,0.98888874,0.0,0.0,6.0133185,0,0,0,0,0,0,0,0,0,1,4,0,0,1,0,0,0
2028516000,15.822388,-1.0,1.1028605,0.0,0.8068733,1.021929,nan,nan,0.0,0.0,0.0,0.0,0.0,0.0,0.0,0.0,0.0,0.0,0.0,0.0,0.0,0.0,0.0,0.0,0.0,0.0,0.005,15.802387,16.18,0.98888874,0.0,0.0,6.0133185,0,0,0,0,0,0,0,0,0,1,4,0,0,1,0,0,0
2028716000,15.816388,-1.0,1.0984583,0.0,0.8035412,1.0223159,nan,nan,0.0,0.0,0.0,0.0,0.0,0.0,0.0,0.0,0.0,0.0,0.0,0.0,0.0,0.0,0.0,0.0,0.0,0.0,0.005,15.796388,16.18,0.98888874,0.0,0.0,6.0133185,0,0,0,0,0,0,0,0,0,1,4,0,0,1,0,0,0
2028916000,15.810389,-1.0,1.0940737,0.0,0.8002081,1.022703,nan,nan,0.0,0.0,0.0,0.0,0.0,0.0,0.0,0.0,0.0,0.0,0.0,0.0,0.0,0.0,0.0,0.0,0.0,0.0,0.005,15.790388,16.18,0.98888874,0.0,0.0,6.0133185,0,0,0,0,0,0,0,0,0,1,4,0,0,1,0,0,0
2029116000,15.804389,-1.0,1.0897065,0.0,0.79687595,1.0230905,nan,nan,0.0,0.0,0.0,0.0,0.0,0.0,0.0,0.0,0.0,0.0,0.0,0.0,0.0,0.0,0.0,0.0,0.0,0.0,0.005,15.784389,16.18,0.98888874,0.0,0.0,6.0133185,0,0,0,0,0,0,0,0,0,1,4,0,0,1,0,0,0
2029316000,15.798389,-1.0,1.085357,0.0,0.79354286,1.0234783,nan,nan,0.0,0.0,0.0,0.0,0.0,0.0,0.0,0.0,0.0,0.0,0.0,0.0,0.0,0.0,0.0,0.0,0.0,0.0,0.005,15.778389,16.18,0.98888874,0.0,0.0,6.0133185,0,0,0,0,0,0,0,0,0,1,4,0,0,1,0,0,0
2029516000,15.79239,-1.0,1.0810246,0.0,0.7902107,1.0238663,nan,nan,0.0,0.0,0.0,0.0,0.0,0.0,0.0,0.0,0.0,0.0,0.0,0.0,0.0,0.0,0.0,0.0,0.0,0.0,0.005,15.772389,16.18,0.98888874,0.0,0.0,6.0133185,0,0,0,0,0,0,0,0,0,1,4,0,0,1,0,0,0
2029716000,15.78639,-1.0,1.0767096,0.0,0.7868786,1.0242546,nan,nan,0.0,0.0,0.0,0.0,0.0,0.0,0.0,0.0,0.0,0.0,0.0,0.0,0.0,0.0,0.0,0.0,0.0,0.0,0.005,15.76639,16.18,0.98888874,0.0,0.0,6.0133185,0,0,0,0,0,0,0,0,0,1,4,0,0,1,0,0,0
2029916000,15.780391,-1.0,1.0724118,0.0,0.7835455,1.0246432,nan,nan,0.0,0.0,0.0,0.0,0.0,0.0,0.0,0.0,0.0,0.0,0.0,0.0,0.0,0.0,0.0,0.0,0.0,0.0,0.005,15.76039,16.18,0.98888874,0.0,0.0,6.0133185,0,0,0,0,0,0,0,0,0,1,4,0,0,1,0,0,0
2030116000,15.774391,-1.0,1.0681312,0.0,0.78021336,1.025032,nan,nan,0.0,0.0,0.0,0.0,0.0,0.0,0.0,0.0,0.0,0.0,0.0,0.0,0.0,0.0,0.0,0.0,0.0,0.0,0.005,15.754391,16.18,0.98888874,0.0,0.0,6.0133185,0,0,0,0,0,0,0,0,0,1,4,0,0,1,0,0,0
2030316000,15.768392,-1.0,1.0638676,0.0,0.77688026,1.0254214,nan,nan,0.0,0.0,0.0,0.0,0.0,0.0,0.0,0.0,0.0,0.0,0.0,0.0,0.0,0.0,0.0,0.0,0.0,0.0,0.005,15.748391,16.18,0.98888874,0.0,0.0,6.0133185,0,0,0,0,0,0,0,0,0,1,4,0,0,1,0,0,0
2030516000,15.762392,-1.0,1.059621,0.0,0.7735472,1.025811,nan,nan,0.0,0.0,0.0,0.0,0.0,0.0,0.0,0.0,0.0,0.0,0.0,0.0,0.0,0.0,0.0,0.0,0.0,0.0,0.005,15.742392,16.18,0.98888874,0.0,0.0,6.0133185,0,0,0,0,0,0,0,0,0,1,4,0,0,1,0,0,0
2030716000,15.7563925,-1.0,1.0553914,0.0,0.7702141,1.0262008,nan,nan,0.0,0.0,0.0,0.0,0.0,0.0,0.0,0.0,0.0,0.0,0.0,0.0,0.0,0.0,0.0,0.0,0.0,0.0,0.005,15.736392,16.18,0.98888874,0.0,0.0,6.0133185,0,0,0,0,0,0,0,0,0,1,4,0,0,1,0,0,0
2030916000,15.750393,-1.0,1.0511787,0.0,0.766881,1.026591,nan,nan,0.0,0.0,0.0,0.0,0.0,0.0,0.0,0.0,0.0,0.0,0.0,0.0,0.0,0.0,0.0,0.0,0.0,0.0,0.005,15.730392,16.18,0.98888874,0.0,0.0,6.0133185,0,0,0,0,0,0,0,0,0,1,4,0,0,1,0,0,0
2031116000,15.744393,-1.0,1.0469828,0.0,0.7635479,1.0269814,nan,nan,0.0,0.0,0.0,0.0,0.0,0.0,0.0,0.0,0.0,0.0,0.0,0.0,0.0,0.0,0.0,0.0,0.0,0.0,0.005,15.724393,16.18,0.98888874,0.0,0.0,6.0133185,0,0,0,0,0,0,0,0,0,1,4,0,0,1,0,0,0
2031316000,15.738394,-1.0,1.0428036,0.0,0.7602148,1.0273721,nan,nan,0.0,0.0,0.0,0.0,0.0,0.0,0.0,0.0,0.0,0.0,0.0,0.0,0.0,0.0,0.0,0.0,0.0,0.0,0.005,15.718393,16.18,0.98888874,0.0,0.0,6.0133185,0,0,0,0,0,0,0,0,0,1,4,0,0,1,0,0,0
2031516000,15.732394,-1.0,1.0386412,0.0,0.7568817,1.0277631,nan,nan,0.0,0.0,0.0,0.0,0.0,0.0,0.0,0.0,0.0,0.0,0.0,0.0,0.0,0.0,0.0,0.0,0.0,0.0,0.005,15.712394,16.18,0.98888874,0.0,0.0,6.0133185,0,0,0,0,0,0,0,0,0,1,4,0,0,1,0,0,0
2031716000,15.726395,-1.0,1.0344954,0.0,0.7535486,1.0281545,nan,nan,0.0,0.0,0.0,0.0,0.0,0.0,0.0,0.0,0.0,0.0,0.0,0.0,0.0,0.0,0.0,0.0,0.0,0.0,0.005,15.706394,16.18,0.98888874,0.0,0.0,6.0133185,0,0,0,0,0,0,0,0,0,1,4,0,0,1,0,0,0
2031916000,15.720395,-1.0,1.0303661,0.0,0.75021553,1.0285461,nan,nan,0.0,0.0,0.0,0.0,0.0,0.0,0.0,0.0,0.0,0.0,0.0,0.0,0.0,0.0,0.0,0.0,0.0,0.0,0.005,15.700395,16.18,0.98888874,0.0,0.0,6.0133185,0,0,0,0,0,0,0,0,0,1,4,0,0,1,0,0,0
2032116000,15.7143955,-1.0,1.0262532,0.0,0.74688244,1.028938,nan,nan,0.0,0.0,0.0,0.0,0.0,0.0,0.0,0.0,0.0,0.0,0.0,0.0,0.0,0.0,0.0,0.0,0.0,0.0,0.005,15.694395,16.18,0.98888874,0.0,0.0,6.0133185,0,0,0,0,0,0,0,0,0,1,4,0,0,1,0,0,0
2032316000,15.708396,-1.0,1.0221568,0.0,0.74354935,1.0293303,nan,nan,0.0,0.0,0.0,0.0,0.0,0.0,0.0,0.0,0.0,0.0,0.0,0.0,0.0,0.0,0.0,0.0,0.0,0.0,0.005,15.6883955,16.18,0.98888874,0.0,0.0,6.0133185,0,0,0,0,0,0,0,0,0,1,4,0,0,1,0,0,0
2032516000,15.702396,-1.0,1.0180769,0.0,0.74021626,1.0297228,nan,nan,0.0,0.0,0.0,0.0,0.0,0.0,0.0,0.0,0.0,0.0,0.0,0.0,0.0,0.0,0.0,0.0,0.0,0.0,0.005,15.682396,16.18,0.98888874,0.0,0.0,6.0133185,0,0,0,0,0,0,0,0,0,1,4,0,0,1,0,0,0
2032716000,15.696397,-1.0,1.014013,0.0,0.73688316,1.0301157,nan,nan,0.0,0.0,0.0,0.0,0.0,0.0,0.0,0.0,0.0,0.0,0.0,0.0,0.0,0.0,0.0,0.0,0.0,0.0,0.005,15.676396,16.18,0.98888874,0.0,0.0,6.0133185,0,0,0,0,0,0,0,0,0,1,4,0,0,1,0,0,0
2032916000,15.690397,-1.0,1.0099655,0.0,0.7335501,1.0305088,nan,nan,0.0,0.0,0.0,0.0,0.0,0.0,0.0,0.0,0.0,0.0,0.0,0.0,0.0,0.0,0.0,0.0,0.0,0.0,0.005,15.670397,16.18,0.98888874,0.0,0.0,6.0133185,0,0,0,0,0,0,0,0,0,1,4,0,0,1,0,0,0
2033116000,15.684398,-1.0,1.0059342,0.0,0.730217,1.0309023,nan,nan,0.0,0.0,0.0,0.0,0.0,0.0,0.0,0.0,0.0,0.0,0.0,0.0,0.0,0.0,0.0,0.0,0.0,0.0,0.005,15.664397,16.18,0.98888874,0.0,0.0,6.0133185,0,0,0,0,0,0,0,0,0,1,4,0,0,1,0,0,0
2033316000,15.678398,-1.0,1.0019189,0.0,0.7268839,1.031296,nan,nan,0.0,0.0,0.0,0.0,0.0,0.0,0.0,0.0,0.0,0.0,0.0,0.0,0.0,0.0,0.0,0.0,0.0,0.0,0.005,15.658398,16.18,0.98888874,0.0,0.0,6.0133185,0,0,0,0,0,0,0,0,0,1,4,0,0,1,0,0,0
2033516000,15.672399,-1.0,0.9979197,0.0,0.7235508,1.03169,nan,nan,0.0,0.0,0.0,0.0,0.0,0.0,0.0,0.0,0.0,0.0,0.0,0.0,0.0,0.0,0.0,0.0,0.0,0.0,0.005,15.652398,16.18,0.98888874,0.0,0.0,6.0133185,0,0,0,0,0,0,0,0,0,1,4,0,0,1,0,0,0
2033716000,15.666399,-1.0,0.9939365,0.0,0.7202177,1.0320843,nan,nan,0.0,0.0,0.0,0.0,0.0,0.0,0.0,0.0,0.0,0.0,0.0,0.0,0.0,0.0,0.0,0.0,0.0,0.0,0.005,15.646399,16.18,0.98888874,0.0,0.0,6.0133185,0,0,0,0,0,0,0,0,0,1,4,0,0,1,0,0,0
2033916000,15.660399,-1.0,0.9899692,0.0,0.7168846,1.032479,nan,nan,0.0,0.0,0.0,0.0,0.0,0.0,0.0,0.0,0.0,0.0,0.0,0.0,0.0,0.0,0.0,0.0,0.0,0.0,0.005,15.640399,16.18,0.98888874,0.0,0.0,6.0133185,0,0,0,0,0,0,0,0,0,1,4,0,0,1,0,0,0
2034116000,15.6544,-1.0,0.9860177,0.0,0.7135515,1.032874,nan,nan,0.0,0.0,0.0,0.0,0.0,0.0,0.0,0.0,0.0,0.0,0.0,0.0,0.0,0.0,0.0,0.0,0.0,0.0,0.005,15.634399,16.18,0.98888874,0.0,0.0,6.0133185,0,0,0,0,0,0,0,0,0,1,4,0,0,1,0,0,0
2034316000,15.6484,-1.0,0.98208183,0.0,0.7102184,1.0332692,nan,nan,0.0,0.0,0.0,0.0,0.0,0.0,0.0,0.0,0.0,0.0,0.0,0.0,0.0,0.0,0.0,0.0,0.0,0.0,0.005,15.6284,16.18,0.98888874,0.0,0.0,6.0133185,0,0,0,0,0,0,0,0,0,1,4,0,0,1,0,0,0
2034516000,15.642401,-1.0,0.9781618,0.0,0.70688534,1.0336647,nan,nan,0.0,0.0,0.0,0.0,0.0,0.0,0.0,0.0,0.0,0.0,0.0,0.0,0.0,0.0,0.0,0.0,0.0,0.0,0.005,15.6224,16.18,0.98888874,0.0,0.0,6.0133185,0,0,0,0,0,0,0,0,0,1,4,0,0,1,0,0,0
2034716000,15.636401,-1.0,0.9742573,0.0,0.70355225,1.0340606,nan,nan,0.0,0.0,0.0,0.0,0.0,0.0,0.0,0.0,0.0,0.0,0.0,0.0,0.0,0.0,0.0,0.0,0.0,0.0,0.005,15.616401,16.18,0.98888874,0.0,0.0,6.0133185,0,0,0,0,0,0,0,0,0,1,4,0,0,1,0,0,0
2034916000,15.630402,-1.0,0.97036844,0.0,0.70021915,1.0344567,nan,nan,0.0,0.0,0.0,0.0,0.0,0.0,0.0,0.0,0.0,0.0,0.0,0.0,0.0,0.0,0.0,0.0,0.0,0.0,0.005,15.610401,16.18,0.98888874,0.0,0.0,6.0133185,0,0,0,0,0,0,0,0,0,1,4,0,0,1,0,0,0
2035116000,15.624402,-1.0,0.9664951,0.0,0.69688606,1.0348532,nan,nan,0.0,0.0,0.0,0.0,0.0,0.0,0.0,0.0,0.0,0.0,0.0,0.0,0.0,0.0,0.0,0.0,0.0,0.0,0.005,15.604402,16.18,0.98888874,0.0,0.0,6.0133185,0,0,0,0,0,0,0,0,0,1,4,0,0,1,0,0,0
2035316000,15.6184025,-1.0,0.96263725,0.0,0.693553,1.03525,nan,nan,0.0,0.0,0.0,0.0,0.0,0.0,0.0,0.0,0.0,0.0,0.0,0.0,0.0,0.0,0.0,0.0,0.0,0.0,0.005,15.598402,16.18,0.98888874,0.0,0.0,6.0133185,0,0,0,0,0,0,0,0,0,1,4,0,0,1,0,0,0
2035516000,15.612403,-1.0,0.95879483,0.0,0.6902199,1.035647,nan,nan,0.0,0.0,0.0,0.0,0.0,0.0,0.0,0.0,0.0,0.0,0.0,0.0,0.0,0.0,0.0,0.0,0.0,0.0,0.005,15.592402,16.18,0.98888874,0.0,0.0,6.0133185,0,0,0,0,0,0,0,0,0,1,4,0,0,1,0,0,0
2035716000,15.606403,-1.0,0.9549677,0.0,0.6868868,1.0360444,nan,nan,0.0,0.0,0.0,0.0,0.0,0.0,0.0,0.0,0.0,0.0,0.0,0.0,0.0,0.0,0.0,0.0,0.0,0.0,0.005,15.586403,16.18,0.98888874,0.0,0.0,6.0133185,0,0,0,0,0,0,0,0,0,1,4,0,0,1,0,0,0
2035916000,15.600404,-1.0,0.95115584,0.0,0.6835537,1.036442,nan,nan,0.0,0.0,0.0,0.0,0.0,0.0,0.0,0.0,0.0,0.0,0.0,0.0,0.0,0.0,0.0,0.0,0.0,0.0,0.005,15.580403,16.18,0.98888874,0.0,0.0,6.0133185,0,0,0,0,0,0,0,0,0,1,4,0,0,1,0,0,0
2036116000,15.594404,-1.0,0.9473592,0.0,0.6802206,1.0368401,nan,nan,0.0,0.0,0.0,0.0,0.0,0.0,0.0,0.0,0.0,0.0,0.0,0.0,0.0,0.0,0.0,0.0,0.0,0.0,0.005,15.574404,16.18,0.98888874,0.0,0.0,6.0133185,0,0,0,0,0,0,0,0,0,1,4,0,0,1,0,0,0
2036316000,15.588405,-1.0,0.9435777,0.0,0.6768875,1.0372384,nan,nan,0.0,0.0,0.0,0.0,0.0,0.0,0.0,0.0,0.0,0.0,0.0,0.0,0.0,0.0,0.0,0.0,0.0,0.0,0.005,15.568404,16.18,0.98888874,0.0,0.0,6.0133185,0,0,0,0,0,0,0,0,0,1,4,0,0,1,0,0,0
2036516000,15.582405,-1.0,0.93981135,0.0,0.67355347,1.037637,nan,nan,0.0,0.0,0.0,0.0,0.0,0.0,0.0,0.0,0.0,0.0,0.0,0.0,0.0,0.0,0.0,0.0,0.0,0.0,0.005,15.562405,16.18,0.98888874,0.0,0.0,6.0133185,0,0,0,0,0,0,0,0,0,1,4,0,0,1,0,0,0
2036716000,15.576406,-1.0,0.93605995,0.0,0.6702213,1.0380359,nan,nan,0.0,0.0,0.0,0.0,0.0,0.0,0.0,0.0,0.0,0.0,0.0,0.0,0.0,0.0,0.0,0.0,0.0,0.0,0.005,15.556405,16.18,0.98888874,0.0,0.0,6.0133185,0,0,0,0,0,0,0,0,0,1,4,0,0,1,0,0,0
2036916000,15.570406,-1.0,0.9323236,0.0,0.66688824,1.038435,nan,nan,0.0,0.0,0.0,0.0,0.0,0.0,0.0,0.0,0.0,0.0,0.0,0.0,0.0,0.0,0.0,0.0,0.0,0.0,0.005,15.5504055,16.18,0.98888874,0.0,0.0,6.0133185,0,0,0,0,0,0,0,0,0,1,4,0,0,1,0,0,0
2037116000,15.564406,-1.0,0.92860216,0.0,0.66355515,1.0388346,nan,nan,0.0,0.0,0.0,0.0,0.0,0.0,0.0,0.0,0.0,0.0,0.0,0.0,0.0,0.0,0.0,0.0,0.0,0.0,0.005,15.544406,16.18,0.98888874,0.0,0.0,6.0133185,0,0,0,0,0,0,0,0,0,1,4,0,0,1,0,0,0
2037316000,15.558407,-1.0,0.9248955,0.0,0.66022205,1.0392344,nan,nan,0.0,0.0,0.0,0.0,0.0,0.0,0.0,0.0,0.0,0.0,0.0,0.0,0.0,0.0,0.0,0.0,0.0,0.0,0.005,15.538406,16.18,0.98888874,0.0,0.0,6.0133185,0,0,0,0,0,0,0,0,0,1,4,0,0,1,0,0,0
2037516000,15.552407,-1.0,0.9212037,0.0,0.65688896,1.0396345,nan,nan,0.0,0.0,0.0,0.0,0.0,0.0,0.0,0.0,0.0,0.0,0.0,0.0,0.0,0.0,0.0,0.0,0.0,0.0,0.005,15.532407,16.18,0.98888874,0.0,0.0,6.0133185,0,0,0,0,0,0,0,0,0,1,4,0,0,1,0,0,0
2037716000,15.546408,-1.0,0.9175266,0.0,0.65355587,1.0400349,nan,nan,0.0,0.0,0.0,0.0,0.0,0.0,0.0,0.0,0.0,0.0,0.0,0.0,0.0,0.0,0.0,0.0,0.0,0.0,0.005,15.526407,16.18,0.98888874,0.0,0.0,6.0133185,0,0,0,0,0,0,0,0,0,1,4,0,0,1,0,0,0
2037916000,15.540408,-1.0,0.91386425,0.0,0.6502228,1.0404357,nan,nan,0.0,0.0,0.0,0.0,0.0,0.0,0.0,0.0,0.0,0.0,0.0,0.0,0.0,0.0,0.0,0.0,0.0,0.0,0.005,15.520408,16.18,0.98888874,0.0,0.0,6.0133185,0,0,0,0,0,0,0,0,0,1,4,0,0,1,0,0,0
2038116000,15.534409,-1.0,0.91021645,0.0,0.6468897,1.0408367,nan,nan,0.0,0.0,0.0,0.0,0.0,0.0,0.0,0.0,0.0,0.0,0.0,0.0,0.0,0.0,0.0,0.0,0.0,0.0,0.005,15.514408,16.18,0.98888874,0.0,0.0,6.0133185,0,0,0,0,0,0,0,0,0,1,4,0,0,1,0,0,0
2038316000,15.528409,-1.0,0.9065832,0.0,0.6435566,1.0412381,nan,nan,0.0,0.0,0.0,0.0,0.0,0.0,0.0,0.0,0.0,0.0,0.0,0.0,0.0,0.0,0.0,0.0,0.0,0.0,0.005,15.508409,16.18,0.98888874,0.0,0.0,6.0133185,0,0,0,0,0,0,0,0,0,1,4,0,0,1,0,0,0
2038516000,15.522409,-1.0,0.9029645,0.0,0.6402235,1.0416398,nan,nan,0.0,0.0,0.0,0.0,0.0,0.0,0.0,0.0,0.0,0.0,0.0,0.0,0.0,0.0,0.0,0.0,0.0,0.0,0.005,15.502409,16.18,0.98888874,0.0,0.0,6.0133185,0,0,0,0,0,0,0,0,0,1,4,0,0,1,0,0,0
2038716000,15.51641,-1.0,0.8993602,0.0,0.6368904,1.0420418,nan,nan,0.0,0.0,0.0,0.0,0.0,0.0,0.0,0.0,0.0,0.0,0.0,0.0,0.0,0.0,0.0,0.0,0.0,0.0,0.005,15.496409,16.18,0.98888874,0.0,0.0,6.0133185,0,0,0,0,0,0,0,0,0,1,4,0,0,1,0,0,0
2038916000,15.51041,-1.0,0.8957702,0.0,0.6335573,1.042444,nan,nan,0.0,0.0,0.0,0.0,0.0,0.0,0.0,0.0,0.0,0.0,0.0,0.0,0.0,0.0,0.0,0.0,0.0,0.0,0.005,15.49041,16.18,0.98888874,0.0,0.0,6.0133185,0,0,0,0,0,0,0,0,0,1,4,0,0,1,0,0,0
2039116000,15.504411,-1.0,0.8921945,0.0,0.6302242,1.0428467,nan,nan,0.0,0.0,0.0,0.0,0.0,0.0,0.0,0.0,0.0,0.0,0.0,0.0,0.0,0.0,0.0,0.0,0.0,0.0,0.005,15.48441,16.18,0.98888874,0.0,0.0,6.0133185,0,0,0,0,0,0,0,0,0,1,4,0,0,1,0,0,0
2039316000,15.498411,-1.0,0.88863313,0.0,0.62689114,1.0432496,nan,nan,0.0,0.0,0.0,0.0,0.0,0.0,0.0,0.0,0.0,0.0,0.0,0.0,0.0,0.0,0.0,0.0,0.0,0.0,0.005,15.478411,16.18,0.98888874,0.0,0.0,6.0133185,0,0,0,0,0,0,0,0,0,1,4,0,0,1,0,0,0
2039516000,15.492412,-1.0,0.88508606,0.0,0.62355804,1.0436528,nan,nan,0.0,0.0,0.0,0.0,0.0,0.0,0.0,0.0,0.0,0.0,0.0,0.0,0.0,0.0,0.0,0.0,0.0,0.0,0.005,15.472411,16.18,0.98888874,0.0,0.0,6.0133185,0,0,0,0,0,0,0,0,0,1,4,0,0,1,0,0,0
2039716000,15.486412,-1.0,0.8815531,0.0,0.62022495,1.0440563,nan,nan,0.0,0.0,0.0,0.0,0.0,0.0,0.0,0.0,0.0,0.0,0.0,0.0,0.0,0.0,0.0,0.0,0.0,0.0,0.005,15.466412,16.18,0.98888874,0.0,0.0,6.0133185,0,0,0,0,0,0,0,0,0,1,4,0,0,1,0,0,0
2039916000,15.4804125,-1.0,0.8780343,0.0,0.61689186,1.0444602,nan,nan,0.0,0.0,0.0,0.0,0.0,0.0,0.0,0.0,0.0,0.0,0.0,0.0,0.0,0.0,0.0,0.0,0.0,0.0,0.005,15.460412,16.18,0.98888874,0.0,0.0,6.0133185,0,0,0,0,0,0,0,0,0,1,4,0,0,1,0,0,0
2040116000,15.474413,-1.0,0.87452954,0.0,0.61355877,1.0448643,nan,nan,0.0,0.0,0.0,0.0,0.0,0.0,0.0,0.0,0.0,0.0,0.0,0.0,0.0,0.0,0.0,0.0,0.0,0.0,0.005,15.454412,16.18,0.98888874,0.0,0.0,6.0133185,0,0,0,0,0,0,0,0,0,1,4,0,0,1,0,0,0
2040316000,15.468413,-1.0,0.87103873,0.0,0.6102257,1.0452688,nan,nan,0.0,0.0,0.0,0.0,0.0,0.0,0.0,0.0,0.0,0.0,0.0,0.0,0.0,0.0,0.0,0.0,0.0,0.0,0.005,15.448413,16.18,0.98888874,0.0,0.0,6.0133185,0,0,0,0,0,0,0,0,0,1,4,0,0,1,0,0,0
2040516000,15.462414,-1.0,0.8675619,0.0,0.6068926,1.0456736,nan,nan,0.0,0.0,0.0,0.0,0.0,0.0,0.0,0.0,0.0,0.0,0.0,0.0,0.0,0.0,0.0,0.0,0.0,0.0,0.005,15.442413,16.18,0.98888874,0.0,0.0,6.0133185,0,0,0,0,0,0,0,0,0,1,4,0,0,1,0,0,0
2040716000,15.456414,-1.0,0.86409897,0.0,0.6035595,1.0460787,nan,nan,0.0,0.0,0.0,0.0,0.0,0.0,0.0,0.0,0.0,0.0,0.0,0.0,0.0,0.0,0.0,0.0,0.0,0.0,0.005,15.436414,16.18,0.98888874,0.0,0.0,6.0133185,0,0,0,0,0,0,0,0,0,1,4,0,0,1,0,0,0
2040916000,15.450415,-1.0,0.8606498,0.0,0.6002264,1.0464841,nan,nan,0.0,0.0,0.0,0.0,0.0,0.0,0.0,0.0,0.0,0.0,0.0,0.0,0.0,0.0,0.0,0.0,0.0,0.0,0.005,15.430414,16.18,0.98888874,0.0,0.0,6.0133185,0,0,0,0,0,0,0,0,0,1,4,0,0,1,0,0,0
2041116000,15.444415,-1.0,0.85721445,0.0,0.5968933,1.0468899,nan,nan,0.0,0.0,0.0,0.0,0.0,0.0,0.0,0.0,0.0,0.0,0.0,0.0,0.0,0.0,0.0,0.0,0.0,0.0,0.005,15.424415,16.18,0.98888874,0.0,0.0,6.0133185,0,0,0,0,0,0,0,0,0,1,4,0,0,1,0,0,0
2041316000,15.438416,-1.0,0.8537928,0.0,0.59355927,1.0472959,nan,nan,0.0,0.0,0.0,0.0,0.0,0.0,0.0,0.0,0.0,0.0,0.0,0.0,0.0,0.0,0.0,0.0,0.0,0.0,0.005,15.418415,16.18,0.98888874,0.0,0.0,6.0133185,0,0,0,0,0,0,0,0,0,1,4,0,0,1,0,0,0
2041516000,15.432416,-1.0,0.8503848,0.0,0.5902271,1.0477022,nan,nan,0.0,0.0,0.0,0.0,0.0,0.0,0.0,0.0,0.0,0.0,0.0,0.0,0.0,0.0,0.0,0.0,0.0,0.0,0.005,15.4124155,16.18,0.98888874,0.0,0.0,6.0133185,0,0,0,0,0,0,0,0,0,1,4,0,0,1,0,0,0
2041716000,15.426416,-1.0,0.84699035,0.0,0.58689404,1.0481089,nan,nan,0.0,0.0,0.0,0.0,0.0,0.0,0.0,0.0,0.0,0.0,0.0,0.0,0.0,0.0,0.0,0.0,0.0,0.0,0.005,15.406416,16.18,0.98888874,0.0,0.0,6.0133185,0,0,0,0,0,0,0,0,0,1,4,0,0,1,0,0,0
2041916000,15.420417,-1.0,0.8436095,0.0,0.58356094,1.0485159,nan,nan,0.0,0.0,0.0,0.0,0.0,0.0,0.0,0.0,0.0,0.0,0.0,0.0,0.0,0.0,0.0,0.0,0.0,0.0,0.005,15.400416,16.18,0.98888874,0.0,0.0,6.0133185,0,0,0,0,0,0,0,0,0,1,4,0,0,1,0,0,0
2042116000,15.414417,-1.0,0.84024215,0.0,0.58022785,1.0489233,nan,nan,0.0,0.0,0.0,0.0,0.0,0.0,0.0,0.0,0.0,0.0,0.0,0.0,0.0,0.0,0.0,0.0,0.0,0.0,0.005,15.394417,16.18,0.98888874,0.0,0.0,6.0133185,0,0,0,0,0,0,0,0,0,1,4,0,0,1,0,0,0
2042316000,15.408418,-1.0,0.8368882,0.0,0.57689476,1.0493308,nan,nan,0.0,0.0,0.0,0.0,0.0,0.0,0.0,0.0,0.0,0.0,0.0,0.0,0.0,0.0,0.0,0.0,0.0,0.0,0.005,15.388417,16.18,0.98888874,0.0,0.0,6.0133185,0,0,0,0,0,0,0,0,0,1,4,0,0,1,0,0,0
2042516000,15.402418,-1.0,0.83354765,0.0,0.57356167,1.0497388,nan,nan,0.0,0.0,0.0,0.0,0.0,0.0,0.0,0.0,0.0,0.0,0.0,0.0,0.0,0.0,0.0,0.0,0.0,0.0,0.005,15.382418,16.18,0.98888874,0.0,0.0,6.0133185,0,0,0,0,0,0,0,0,0,1,4,0,0,1,0,0,0
2042716000,15.396419,-1.0,0.83022046,0.0,0.5702286,1.050147,nan,nan,0.0,0.0,0.0,0.0,0.0,0.0,0.0,0.0,0.0,0.0,0.0,0.0,0.0,0.0,0.0,0.0,0.0,0.0,0.005,15.376418,16.18,0.98888874,0.0,0.0,6.0133185,0,0,0,0,0,0,0,0,0,1,4,0,0,1,0,0,0
2042916000,15.390419,-1.0,0.8269065,0.0,0.5668955,1.0505556,nan,nan,0.0,0.0,0.0,0.0,0.0,0.0,0.0,0.0,0.0,0.0,0.0,0.0,0.0,0.0,0.0,0.0,0.0,0.0,0.005,15.370419,16.18,0.98888874,0.0,0.0,6.0133185,0,0,0,0,0,0,0,0,0,1,4,0,0,1,0,0,0
2043116000,15.384419,-1.0,0.8236058,0.0,0.5635624,1.0509645,nan,nan,0.0,0.0,0.0,0.0,0.0,0.0,0.0,0.0,0.0,0.0,0.0,0.0,0.0,0.0,0.0,0.0,0.0,0.0,0.005,15.364419,16.18,0.98888874,0.0,0.0,6.0133185,0,0,0,0,0,0,0,0,0,1,4,0,0,1,0,0,0
2043316000,15.37842,-1.0,0.8203183,0.0,0.5602293,1.0513737,nan,nan,0.0,0.0,0.0,0.0,0.0,0.0,0.0,0.0,0.0,0.0,0.0,0.0,0.0,0.0,0.0,0.0,0.0,0.0,0.005,15.358419,16.18,0.98888874,0.0,0.0,6.0133185,0,0,0,0,0,0,0,0,0,1,4,0,0,1,0,0,0
2043516000,15.37242,-1.0,0.8170439,0.0,0.5568962,1.0517833,nan,nan,0.0,0.0,0.0,0.0,0.0,0.0,0.0,0.0,0.0,0.0,0.0,0.0,0.0,0.0,0.0,0.0,0.0,0.0,0.005,15.35242,16.18,0.98888874,0.0,0.0,6.0133185,0,0,0,0,0,0,0,0,0,1,4,0,0,1,0,0,0
2043716000,15.366421,-1.0,0.8137826,0.0,0.5535631,1.0521932,nan,nan,0.0,0.0,0.0,0.0,0.0,0.0,0.0,0.0,0.0,0.0,0.0,0.0,0.0,0.0,0.0,0.0,0.0,0.0,0.005,15.34642,16.18,0.98888874,0.0,0.0,6.0133185,0,0,0,0,0,0,0,0,0,1,4,0,0,1,0,0,0
2043916000,15.360421,-1.0,0.81053424,0.0,0.55023,1.0526032,nan,nan,0.0,0.0,0.0,0.0,0.0,0.0,0.0,0.0,0.0,0.0,0.0,0.0,0.0,0.0,0.0,0.0,0.0,0.0,0.005,15.340421,16.18,0.98888874,0.0,0.0,6.0133185,0,0,0,0,0,0,0,0,0,1,4,0,0,1,0,0,0
2044116000,15.354422,-1.0,0.8072989,0.0,0.54689693,1.0530138,nan,nan,0.0,0.0,0.0,0.0,0.0,0.0,0.0,0.0,0.0,0.0,0.0,0.0,0.0,0.0,0.0,0.0,0.0,0.0,0.005,15.334421,16.18,0.98888874,0.0,0.0,6.0133185,0,0,0,0,0,0,0,0,0,1,4,0,0,1,0,0,0
2044316000,15.348422,-1.0,0.80407643,0.0,0.54356384,1.0534246,nan,nan,0.0,0.0,0.0,0.0,0.0,0.0,0.0,0.0,0.0,0.0,0.0,0.0,0.0,0.0,0.0,0.0,0.0,0.0,0.005,15.328422,16.18,0.98888874,0.0,0.0,6.0133185,0,0,0,0,0,0,0,0,0,1,4,0,0,1,0,0,0
2044516000,15.3424225,-1.0,0.80086696,0.0,0.54023075,1.0538357,nan,nan,0.0,0.0,0.0,0.0,0.0,0.0,0.0,0.0,0.0,0.0,0.0,0.0,0.0,0.0,0.0,0.0,0.0,0.0,0.005,15.322422,16.18,0.98888874,0.0,0.0,6.0133185,0,0,0,0,0,0,0,0,0,1,4,0,0,1,0,0,0
2044716000,15.336423,-1.0,0.7976701,0.0,0.53689766,1.0542471,nan,nan,0.0,0.0,0.0,0.0,0.0,0.0,0.0,0.0,0.0,0.0,0.0,0.0,0.0,0.0,0.0,0.0,0.0,0.0,0.005,15.316422,16.18,0.98888874,0.0,0.0,6.0133185,0,0,0,0,0,0,0,0,0,1,4,0,0,1,0,0,0
2044916000,15.330423,-1.0,0.79448617,0.0,0.53356457,1.054659,nan,nan,0.0,0.0,0.0,0.0,0.0,0.0,0.0,0.0,0.0,0.0,0.0,0.0,0.0,0.0,0.0,0.0,0.0,0.0,0.005,15.310423,16.18,0.98888874,0.0,0.0,6.0133185,0,0,0,0,0,0,0,0,0,1,4,0,0,1,0,0,0
2045116000,15.324424,-1.0,0.7913149,0.0,0.5302315,1.055071,nan,nan,0.0,0.0,0.0,0.0,0.0,0.0,0.0,0.0,0.0,0.0,0.0,0.0,0.0,0.0,0.0,0.0,0.0,0.0,0.005,15.304423,16.18,0.98888874,0.0,0.0,6.0133185,0,0,0,0,0,0,0,0,0,1,4,0,0,1,0,0,0
2045316000,15.318424,-1.0,0.7881563,0.0,0.5268984,1.0554835,nan,nan,0.0,0.0,0.0,0.0,0.0,0.0,0.0,0.0,0.0,0.0,0.0,0.0,0.0,0.0,0.0,0.0,0.0,0.0,0.005,15.298424,16.18,0.98888874,0.0,0.0,6.0133185,0,0,0,0,0,0,0,0,0,1,4,0,0,1,0,0,0
2045516000,15.312425,-1.0,0.7850103,0.0,0.5235653,1.0558962,nan,nan,0.0,0.0,0.0,0.0,0.0,0.0,0.0,0.0,0.0,0.0,0.0,0.0,0.0,0.0,0.0,0.0,0.0,0.0,0.005,15.292424,16.18,0.98888874,0.0,0.0,6.0133185,0,0,0,0,0,0,0,0,0,1,4,0,0,1,0,0,0
2045716000,15.306425,-1.0,0.7818768,0.0,0.5202322,1.0563092,nan,nan,0.0,0.0,0.0,0.0,0.0,0.0,0.0,0.0,0.0,0.0,0.0,0.0,0.0,0.0,0.0,0.0,0.0,0.0,0.005,15.286425,16.18,0.98888874,0.0,0.0,6.0133185,0,0,0,0,0,0,0,0,0,1,4,0,0,1,0,0,0
2045916000,15.300426,-1.0,0.7787559,0.0,0.5168991,1.0567226,nan,nan,0.0,0.0,0.0,0.0,0.0,0.0,0.0,0.0,0.0,0.0,0.0,0.0,0.0,0.0,0.0,0.0,0.0,0.0,0.005,15.280425,16.18,0.98888874,0.0,0.0,6.0133185,0,0,0,0,0,0,0,0,0,1,4,0,0,1,0,0,0
2046116000,15.3,-1.0,0.7756474,0.0,0.51384926,1.0571011,nan,nan,0.0,0.0,0.0,0.0,0.0,0.0,0.0,0.0,0.0,0.0,0.0,0.0,0.0,0.0,0.0,0.0,0.0,0.0,0.005,15.28,16.18,0.98888874,0.0,0.0,6.0133185,0,0,0,0,0,0,0,0,0,1,4,0,0,1,0,0,0
2046316000,15.3,-1.0,0.77255136,0.0,0.5113497,1.0574116,nan,nan,0.0,0.0,0.0,0.0,0.0,0.0,0.0,0.0,0.0,0.0,0.0,0.0,0.0,0.0,0.0,0.0,0.0,0.0,0.005,15.28,16.18,0.98888874,0.0,0.0,6.0133185,0,0,0,0,0,0,0,0,0,1,4,0,0,1,0,0,0
2046516000,15.3,-1.0,0.7694676,0.0,0.5093012,1.0576662,nan,nan,0.0,0.0,0.0,0.0,0.0,0.0,0.0,0.0,0.0,0.0,0.0,0.0,0.0,0.0,0.0,0.0,0.0,0.0,0.005,15.28,16.18,0.98888874,0.0,0.0,6.0133185,0,0,0,0,0,0,0,0,0,1,4,0,0,1,0,0,0
2046716000,15.3,-1.0,0.76639616,0.0,0.5076227,1.0578748,nan,nan,0.0,0.0,0.0,0.0,0.0,0.0,0.0,0.0,0.0,0.0,0.0,0.0,0.0,0.0,0.0,0.0,0.0,0.0,0.005,15.28,16.18,0.98888874,0.0,0.0,6.0133185,0,0,0,0,0,0,0,0,0,1,4,0,0,1,0,0,0
2046916000,15.3,-1.0,0.7633371,0.0,0.5062475,1.0580459,nan,nan,0.0,0.0,0.0,0.0,0.0,0.0,0.0,0.0,0.0,0.0,0.0,0.0,0.0,0.0,0.0,0.0,0.0,0.0,0.005,15.28,16.18,0.98888874,0.0,0.0,6.0133185,0,0,0,0,0,0,0,0,0,1,4,0,0,1,0,0,0
2047116000,15.3,-1.0,0.7602901,0.0,0.5051174,1.0581864,nan,nan,0.0,0.0,0.0,0.0,0.0,0.0,0.0,0.0,0.0,0.0,0.0,0.0,0.0,0.0,0.0,0.0,0.0,0.0,0.005,15.28,16.18,0.98888874,0.0,0.0,6.0133185,0,0,0,0,0,0,0,0,0,1,4,0,0,1,0,0,0
2047316000,15.3,-1.0,0.75725526,0.0,0.50419426,1.0583013,nan,nan,0.0,0.0,0.0,0.0,0.0,0.0,0.0,0.0,0.0,0.0,0.0,0.0,0.0,0.0,0.0,0.0,0.0,0.0,0.005,15.28,16.18,0.98888874,0.0,0.0,6.0133185,0,0,0,0,0,0,0,0,0,1,4,0,0,1,0,0,0
2047516000,15.3,-1.0,0.7542327,0.0,0.5034361,1.0583956,nan,nan,0.0,0.0,0.0,0.0,0.0,0.0,0.0,0.0,0.0,0.0,0.0,0.0,0.0,0.0,0.0,0.0,0.0,0.0,0.005,15.28,16.18,0.98888874,0.0,0.0,6.0133185,0,0,0,0,0,0,0,0,0,1,4,0,0,1,0,0,0
2047716000,15.3,-1.0,0.7512221,0.0,0.5028162,1.0584729,nan,nan,0.0,0.0,0.0,0.0,0.0,0.0,0.0,0.0,0.0,0.0,0.0,0.0,0.0,0.0,0.0,0.0,0.0,0.0,0.005,15.28,16.18,0.98888874,0.0,0.0,6.0133185,0,0,0,0,0,0,0,0,0,1,4,0,0,1,0,0,0
2047916000,15.3,-1.0,0.74822336,0.0,0.50230694,1.0585362,nan,nan,0.0,0.0,0.0,0.0,0.0,0.0,0.0,0.0,0.0,0.0,0.0,0.0,0.0,0.0,0.0,0.0,0.0,0.0,0.005,15.28,16.18,0.98888874,0.0,0.0,6.0133185,0,0,0,0,0,0,0,0,0,1,4,0,0,1,0,0,0
2048116000,15.3,-1.0,0.7452366,0.0,0.50189114,1.058588,nan,nan,0.0,0.0,0.0,0.0,0.0,0.0,0.0,0.0,0.0,0.0,0.0,0.0,0.0,0.0,0.0,0.0,0.0,0.0,0.005,15.28,16.18,0.98888874,0.0,0.0,6.0133185,0,0,0,0,0,0,0,0,0,1,4,0,0,1,0,0,0
2048316000,15.3,-1.0,0.7422617,0.0,0.5015497,1.0586306,nan,nan,0.0,0.0,0.0,0.0,0.0,0.0,0.0,0.0,0.0,0.0,0.0,0.0,0.0,0.0,0.0,0.0,0.0,0.0,0.005,15.28,16.18,0.98888874,0.0,0.0,6.0133185,0,0,0,0,0,0,0,0,0,1,4,0,0,1,0,0,0
2048516000,15.3,-1.0,0.73929876,0.0,0.5012703,1.0586653,nan,nan,0.0,0.0,0.0,0.0,0.0,0.0,0.0,0.0,0.0,0.0,0.0,0.0,0.0,0.0,0.0,0.0,0.0,0.0,0.005,15.28,16.18,0.98888874,0.0,0.0,6.0133185,0,0,0,0,0,0,0,0,0,1,4,0,0,1,0,0,0
2048716000,15.3,-1.0,0.73634773,0.0,0.50104046,1.0586939,nan,nan,0.0,0.0,0.0,0.0,0.0,0.0,0.0,0.0,0.0,0.0,0.0,0.0,0.0,0.0,0.0,0.0,0.0,0.0,0.005,15.28,16.18,0.98888874,0.0,0.0,6.0133185,0,0,0,0,0,0,0,0,0,1,4,0,0,1,0,0,0
2048916000,15.3,-1.0,0.73340863,0.0,0.50085354,1.0587173,nan,nan,0.0,0.0,0.0,0.0,0.0,0.0,0.0,0.0,0.0,0.0,0.0,0.0,0.0,0.0,0.0,0.0,0.0,0.0,0.005,15.28,16.18,0.98888874,0.0,0.0,6.0133185,0,0,0,0,0,0,0,0,0,1,4,0,0,1,0,0,0
2049116000,15.3,-1.0,0.73048115,0.0,0.5007,1.0587364,nan,nan,0.0,0.0,0.0,0.0,0.0,0.0,0.0,0.0,0.0,0.0,0.0,0.0,0.0,0.0,0.0,0.0,0.0,0.0,0.005,15.28,16.18,0.98888874,0.0,0.0,6.0133185,0,0,0,0,0,0,0,0,0,1,4,0,0,1,0,0,0
2049316000,15.3,-1.0,0.7275653,0.0,0.50057316,1.0587521,nan,nan,0.0,0.0,0.0,0.0,0.0,0.0,0.0,0.0,0.0,0.0,0.0,0.0,0.0,0.0,0.0,0.0,0.0,0.0,0.005,15.28,16.18,0.98888874,0.0,0.0,6.0133185,0,0,0,0,0,0,0,0,0,1,4,0,0,1,0,0,0
2049516000,15.3,-1.0,0.7246612,0.0,0.50047016,1.058765,nan,nan,0.0,0.0,0.0,0.0,0.0,0.0,0.0,0.0,0.0,0.0,0.0,0.0,0.0,0.0,0.0,0.0,0.0,0.0,0.005,15.28,16.18,0.98888874,0.0,0.0,6.0133185,0,0,0,0,0,0,0,0,0,1,4,0,0,1,0,0,0
2049716000,15.3,-1.0,0.72176856,0.0,0.5003853,1.0587755,nan,nan,0.0,0.0,0.0,0.0,0.0,0.0,0.0,0.0,0.0,0.0,0.0,0.0,0.0,0.0,0.0,0.0,0.0,0.0,0.005,15.28,16.18,0.98888874,0.0,0.0,6.0133185,0,0,0,0,0,0,0,0,0,1,4,0,0,1,0,0,0
2049916000,15.3,-1.0,0.71888757,0.0,0.50031567,1.0587842,nan,nan,0.0,0.0,0.0,0.0,0.0,0.0,0.0,0.0,0.0,0.0,0.0,0.0,0.0,0.0,0.0,0.0,0.0,0.0,0.005,15.28,16.18,0.98888874,0.0,0.0,6.0133185,0,0,0,0,0,0,0,0,0,1,4,0,0,1,0,0,0
2050116000,15.3,-1.0,0.7160181,0.0,0.50025845,1.0587913,nan,nan,0.0,0.0,0.0,0.0,0.0,0.0,0.0,0.0,0.0,0.0,0.0,0.0,0.0,0.0,0.0,0.0,0.0,0.0,0.005,15.28,16.18,0.98888874,0.0,0.0,6.0133185,0,0,0,0,0,0,0,0,0,1,4,0,0,1,0,0,0
2050316000,15.3,-1.0,0.71316004,0.0,0.50021267,1.058797,nan,nan,0.0,0.0,0.0,0.0,0.0,0.0,0.0,0.0,0.0,0.0,0.0,0.0,0.0,0.0,0.0,0.0,0.0,0.0,0.005,15.28,16.18,0.98888874,0.0,0.0,6.0133185,0,0,0,0,0,0,0,0,0,1,4,0,0,1,0,0,0
2050516000,15.3,-1.0,0.7103134,0.0,0.5001745,1.0588019,nan,nan,0.0,0.0,0.0,0.0,0.0,0.0,0.0,0.0,0.0,0.0,0.0,0.0,0.0,0.0,0.0,0.0,0.0,0.0,0.005,15.28,16.18,0.98888874,0.0,0.0,6.0133185,0,0,0,0,0,0,0,0,0,1,4,0,0,1,0,0,0
2050716000,15.3,-1.0,0.70747805,0.0,0.5001421,1.0588058,nan,nan,0.0,0.0,0.0,0.0,0.0,0.0,0.0,0.0,0.0,0.0,0.0,0.0,0.0,0.0,0.0,0.0,0.0,0.0,0.005,15.28,16.18,0.98888874,0.0,0.0,6.0133185,0,0,0,0,0,0,0,0,0,1,4,0,0,1,0,0,0
2050916000,15.3,-1.0,0.7046541,0.0,0.50011826,1.0588088,nan,nan,0.0,0.0,0.0,0.0,0.0,0.0,0.0,0.0,0.0,0.0,0.0,0.0,0.0,0.0,0.0,0.0,0.0,0.0,0.005,15.28,16.18,0.98888874,0.0,0.0,6.0133185,0,0,0,0,0,0,0,0,0,1,4,0,0,1,0,0,0
2051116000,15.3,-1.0,0.7018414,0.0,0.5000963,1.0588115,nan,nan,0.0,0.0,0.0,0.0,0.0,0.0,0.0,0.0,0.0,0.0,0.0,0.0,0.0,0.0,0.0,0.0,0.0,0.0,0.005,15.28,16.18,0.98888874,0.0,0.0,6.0133185,0,0,0,0,0,0,0,0,0,1,4,0,0,1,0,0,0
2051316000,15.3,-1.0,0.6990399,0.0,0.50007725,1.0588138,nan,nan,0.0,0.0,0.0,0.0,0.0,0.0,0.0,0.0,0.0,0.0,0.0,0.0,0.0,0.0,0.0,0.0,0.0,0.0,0.005,15.28,16.18,0.98888874,0.0,0.0,6.0133185,0,0,0,0,0,0,0,0,0,1,4,0,0,1,0,0,0
2051516000,15.3,-1.0,0.6962496,0.0,0.50006676,1.0588152,nan,nan,0.0,0.0,0.0,0.0,0.0,0.0,0.0,0.0,0.0,0.0,0.0,0.0,0.0,0.0,0.0,0.0,0.0,0.0,0.005,15.28,16.18,0.98888874,0.0,0.0,6.0133185,0,0,0,0,0,0,0,0,0,1,4,0,0,1,0,0,0
2051716000,15.3,-1.0,0.6934705,0.0,0.50005627,1.0588166,nan,nan,0.0,0.0,0.0,0.0,0.0,0.0,0.0,0.0,0.0,0.0,0.0,0.0,0.0,0.0,0.0,0.0,0.0,0.0,0.005,15.28,16.18,0.98888874,0.0,0.0,6.0133185,0,0,0,0,0,0,0,0,0,1,4,0,0,1,0,0,0
2051916000,15.3,-1.0,0.6907024,0.0,0.5000458,1.0588179,nan,nan,0.0,0.0,0.0,0.0,0.0,0.0,0.0,0.0,0.0,0.0,0.0,0.0,0.0,0.0,0.0,0.0,0.0,0.0,0.005,15.28,16.18,0.98888874,0.0,0.0,6.0133185,0,0,0,0,0,0,0,0,0,1,4,0,0,1,0,0,0
2052116000,15.3,-1.0,0.68794537,0.0,0.5000353,1.0588192,nan,nan,0.0,0.0,0.0,0.0,0.0,0.0,0.0,0.0,0.0,0.0,0.0,0.0,0.0,0.0,0.0,0.0,0.0,0.0,0.005,15.28,16.18,0.98888874,0.0,0.0,6.0133185,0,0,0,0,0,0,0,0,0,1,4,0,0,1,0,0,0
2052316000,15.3,-1.0,0.6851993,0.0,0.5000267,1.0588202,nan,nan,0.0,0.0,0.0,0.0,0.0,0.0,0.0,0.0,0.0,0.0,0.0,0.0,0.0,0.0,0.0,0.0,0.0,0.0,0.005,15.28,16.18,0.98888874,0.0,0.0,6.0133185,0,0,0,0,0,0,0,0,0,1,4,0,0,1,0,0,0
2052516000,15.3,-1.0,0.6824643,0.0,0.5000267,1.0588202,nan,nan,0.0,0.0,0.0,0.0,0.0,0.0,0.0,0.0,0.0,0.0,0.0,0.0,0.0,0.0,0.0,0.0,0.0,0.0,0.005,15.28,16.18,0.98888874,0.0,0.0,6.0133185,0,0,0,0,0,0,0,0,0,1,4,0,0,1,0,0,0
2052716000,15.3,-1.0,0.67974013,0.0,0.5000267,1.0588202,nan,nan,0.0,0.0,0.0,0.0,0.0,0.0,0.0,0.0,0.0,0.0,0.0,0.0,0.0,0.0,0.0,0.0,0.0,0.0,0.005,15.28,16.18,0.98888874,0.0,0.0,6.0133185,0,0,0,0,0,0,0,0,0,1,4,0,0,1,0,0,0
2052916000,15.3,-1.0,0.67702687,0.0,0.5000267,1.0588202,nan,nan,0.0,0.0,0.0,0.0,0.0,0.0,0.0,0.0,0.0,0.0,0.0,0.0,0.0,0.0,0.0,0.0,0.0,0.0,0.005,15.28,16.18,0.98888874,0.0,0.0,6.0133185,0,0,0,0,0,0,0,0,0,1,4,0,0,1,0,0,0
2053116000,15.3,-1.0,0.67432445,0.0,0.5000267,1.0588202,nan,nan,0.0,0.0,0.0,0.0,0.0,0.0,0.0,0.0,0.0,0.0,0.0,0.0,0.0,0.0,0.0,0.0,0.0,0.0,0.005,15.28,16.18,0.98888874,0.0,0.0,6.0133185,0,0,0,0,0,0,0,0,0,1,4,0,0,1,0,0,0
2053316000,15.3,-1.0,0.6716328,0.0,0.5000267,1.0588202,nan,nan,0.0,0.0,0.0,0.0,0.0,0.0,0.0,0.0,0.0,0.0,0.0,0.0,0.0,0.0,0.0,0.0,0.0,0.0,0.005,15.28,16.18,0.98888874,0.0,0.0,6.0133185,0,0,0,0,0,0,0,0,0,1,4,0,0,1,0,0,0
2053516000,15.3,-1.0,0.6689519,0.0,0.5000267,1.0588202,nan,nan,0.0,0.0,0.0,0.0,0.0,0.0,0.0,0.0,0.0,0.0,0.0,0.0,0.0,0.0,0.0,0.0,0.0,0.0,0.005,15.28,16.18,0.98888874,0.0,0.0,6.0133185,0,0,0,0,0,0,0,0,0,1,4,0,0,1,0,0,0
2053716000,15.3,-1.0,0.66628176,0.0,0.5000267,1.0588202,nan,nan,0.0,0.0,0.0,0.0,0.0,0.0,0.0,0.0,0.0,0.0,0.0,0.0,0.0,0.0,0.0,0.0,0.0,0.0,0.005,15.28,16.18,0.98888874,0.0,0.0,6.0133185,0,0,0,0,0,0,0,0,0,1,4,0,0,1,0,0,0
2053916000,15.3,-1.0,0.6636222,0.0,0.5000267,1.0588202,nan,nan,0.0,0.0,0.0,0.0,0.0,0.0,0.0,0.0,0.0,0.0,0.0,0.0,0.0,0.0,0.0,0.0,0.0,0.0,0.005,15.28,16.18,0.98888874,0.0,0.0,6.0133185,0,0,0,0,0,0,0,0,0,1,4,0,0,1,0,0,0
2054116000,15.3,-1.0,0.66097325,0.0,0.5000267,1.0588202,nan,nan,0.0,0.0,0.0,0.0,0.0,0.0,0.0,0.0,0.0,0.0,0.0,0.0,0.0,0.0,0.0,0.0,0.0,0.0,0.005,15.28,16.18,0.98888874,0.0,0.0,6.0133185,0,0,0,0,0,0,0,0,0,1,4,0,0,1,0,0,0
2054316000,15.3,-1.0,0.6583349,0.0,0.5000267,1.0588202,nan,nan,0.0,0.0,0.0,0.0,0.0,0.0,0.0,0.0,0.0,0.0,0.0,0.0,0.0,0.0,0.0,0.0,0.0,0.0,0.005,15.28,16.18,0.98888874,0.0,0.0,6.0133185,0,0,0,0,0,0,0,0,0,1,4,0,0,1,0,0,0
2054516000,15.3,-1.0,0.65570706,0.0,0.5000267,1.0588202,nan,nan,0.0,0.0,0.0,0.0,0.0,0.0,0.0,0.0,0.0,0.0,0.0,0.0,0.0,0.0,0.0,0.0,0.0,0.0,0.005,15.28,16.18,0.98888874,0.0,0.0,6.0133185,0,0,0,0,0,0,0,0,0,1,4,0,0,1,0,0,0
2054716000,15.3,-1.0,0.65308976,0.0,0.5000267,1.0588202,nan,nan,0.0,0.0,0.0,0.0,0.0,0.0,0.0,0.0,0.0,0.0,0.0,0.0,0.0,0.0,0.0,0.0,0.0,0.0,0.005,15.28,16.18,0.98888874,0.0,0.0,6.0133185,0,0,0,0,0,0,0,0,0,1,4,0,0,1,0,0,0
2054916000,15.3,-1.0,0.65048283,0.0,0.5000267,1.0588202,nan,nan,0.0,0.0,0.0,0.0,0.0,0.0,0.0,0.0,0.0,0.0,0.0,0.0,0.0,0.0,0.0,0.0,0.0,0.0,0.005,15.28,16.18,0.98888874,0.0,0.0,6.0133185,0,0,0,0,0,0,0,0,0,1,4,0,0,1,0,0,0
2055116000,15.3,-1.0,0.6478864,0.0,0.5000267,1.0588202,nan,nan,0.0,0.0,0.0,0.0,0.0,0.0,0.0,0.0,0.0,0.0,0.0,0.0,0.0,0.0,0.0,0.0,0.0,0.0,0.005,15.28,16.18,0.98888874,0.0,0.0,6.0133185,0,0,0,0,0,0,0,0,0,1,4,0,0,1,0,0,0
2055316000,15.3,-1.0,0.64530027,0.0,0.5000267,1.0588202,nan,nan,0.0,0.0,0.0,0.0,0.0,0.0,0.0,0.0,0.0,0.0,0.0,0.0,0.0,0.0,0.0,0.0,0.0,0.0,0.005,15.28,16.18,0.98888874,0.0,0.0,6.0133185,0,0,0,0,0,0,0,0,0,1,4,0,0,1,0,0,0
2055516000,15.3,-1.0,0.64272445,0.0,0.5000267,1.0588202,nan,nan,0.0,0.0,0.0,0.0,0.0,0.0,0.0,0.0,0.0,0.0,0.0,0.0,0.0,0.0,0.0,0.0,0.0,0.0,0.005,15.28,16.18,0.98888874,0.0,0.0,6.0133185,0,0,0,0,0,0,0,0,0,1,4,0,0,1,0,0,0
2055716000,15.3,-1.0,0.640159,0.0,0.5000267,1.0588202,nan,nan,0.0,0.0,0.0,0.0,0.0,0.0,0.0,0.0,0.0,0.0,0.0,0.0,0.0,0.0,0.0,0.0,0.0,0.0,0.005,15.28,16.18,0.98888874,0.0,0.0,6.0133185,0,0,0,0,0,0,0,0,0,1,4,0,0,1,0,0,0
2055916000,15.3,-1.0,0.63760376,0.0,0.5000267,1.0588202,nan,nan,0.0,0.0,0.0,0.0,0.0,0.0,0.0,0.0,0.0,0.0,0.0,0.0,0.0,0.0,0.0,0.0,0.0,0.0,0.005,15.28,16.18,0.98888874,0.0,0.0,6.0133185,0,0,0,0,0,0,0,0,0,1,4,0,0,1,0,0,0
2056116000,15.3,-1.0,0.6350587,0.0,0.5000267,1.0588202,nan,nan,0.0,0.0,0.0,0.0,0.0,0.0,0.0,0.0,0.0,0.0,0.0,0.0,0.0,0.0,0.0,0.0,0.0,0.0,0.005,15.28,16.18,0.98888874,0.0,0.0,6.0133185,0,0,0,0,0,0,0,0,0,1,4,0,0,1,0,0,0
2056316000,15.3,-1.0,0.63252383,0.0,0.5000267,1.0588202,nan,nan,0.0,0.0,0.0,0.0,0.0,0.0,0.0,0.0,0.0,0.0,0.0,0.0,0.0,0.0,0.0,0.0,0.0,0.0,0.005,15.28,16.18,0.98888874,0.0,0.0,6.0133185,0,0,0,0,0,0,0,0,0,1,4,0,0,1,0,0,0
2056516000,15.3,-1.0,0.62999904,0.0,0.5000267,1.0588202,nan,nan,0.0,0.0,0.0,0.0,0.0,0.0,0.0,0.0,0.0,0.0,0.0,0.0,0.0,0.0,0.0,0.0,0.0,0.0,0.005,15.28,16.18,0.98888874,0.0,0.0,6.0133185,0,0,0,0,0,0,0,0,0,1,4,0,0,1,0,0,0
2056716000,15.3,-1.0,0.6274843,0.0,0.5000267,1.0588202,nan,nan,0.0,0.0,0.0,0.0,0.0,0.0,0.0,0.0,0.0,0.0,0.0,0.0,0.0,0.0,0.0,0.0,0.0,0.0,0.005,15.28,16.18,0.98888874,0.0,0.0,6.0133185,0,0,0,0,0,0,0,0,0,1,4,0,0,1,0,0,0
2056916000,15.3,-1.0,0.6249796,0.0,0.5000267,1.0588202,nan,nan,0.0,0.0,0.0,0.0,0.0,0.0,0.0,0.0,0.0,0.0,0.0,0.0,0.0,0.0,0.0,0.0,0.0,0.0,0.005,15.28,16.18,0.98888874,0.0,0.0,6.0133185,0,0,0,0,0,0,0,0,0,1,4,0,0,1,0,0,0
2057116000,15.3,-1.0,0.6224849,0.0,0.5000267,1.0588202,nan,nan,0.0,0.0,0.0,0.0,0.0,0.0,0.0,0.0,0.0,0.0,0.0,0.0,0.0,0.0,0.0,0.0,0.0,0.0,0.005,15.28,16.18,0.98888874,0.0,0.0,6.0133185,0,0,0,0,0,0,0,0,0,1,4,0,0,1,0,0,0
2057316000,15.3,-1.0,0.62000024,0.0,0.5000267,1.0588202,nan,nan,0.0,0.0,0.0,0.0,0.0,0.0,0.0,0.0,0.0,0.0,0.0,0.0,0.0,0.0,0.0,0.0,0.0,0.0,0.005,15.28,16.18,0.98888874,0.0,0.0,6.0133185,0,0,0,0,0,0,0,0,0,1,4,0,0,1,0,0,0
2057516000,15.3,-1.0,0.61752546,0.0,0.5000267,1.0588202,nan,nan,0.0,0.0,0.0,0.0,0.0,0.0,0.0,0.0,0.0,0.0,0.0,0.0,0.0,0.0,0.0,0.0,0.0,0.0,0.005,15.28,16.18,0.98888874,0.0,0.0,6.0133185,0,0,0,0,0,0,0,0,0,1,4,0,0,1,0,0,0
2057716000,15.3,-1.0,0.6150605,0.0,0.5000267,1.0588202,nan,nan,0.0,0.0,0.0,0.0,0.0,0.0,0.0,0.0,0.0,0.0,0.0,0.0,0.0,0.0,0.0,0.0,0.0,0.0,0.005,15.28,16.18,0.98888874,0.0,0.0,6.0133185,0,0,0,0,0,0,0,0,0,1,4,0,0,1,0,0,0
2057916000,15.3,-1.0,0.6126054,0.0,0.5000267,1.0588202,nan,nan,0.0,0.0,0.0,0.0,0.0,0.0,0.0,0.0,0.0,0.0,0.0,0.0,0.0,0.0,0.0,0.0,0.0,0.0,0.005,15.28,16.18,0.98888874,0.0,0.0,6.0133185,0,0,0,0,0,0,0,0,0,1,4,0,0,1,0,0,0
2058116000,15.3,-1.0,0.6101601,0.0,0.5000267,1.0588202,nan,nan,0.0,0.0,0.0,0.0,0.0,0.0,0.0,0.0,0.0,0.0,0.0,0.0,0.0,0.0,0.0,0.0,0.0,0.0,0.005,15.28,16.18,0.98888874,0.0,0.0,6.0133185,0,0,0,0,0,0,0,0,0,1,4,0,0,1,0,0,0
2058316000,15.3,-1.0,0.6077246,0.0,0.5000267,1.0588202,nan,nan,0.0,0.0,0.0,0.0,0.0,0.0,0.0,0.0,0.0,0.0,0.0,0.0,0.0,0.0,0.0,0.0,0.0,0.0,0.005,15.28,16.18,0.98888874,0.0,0.0,6.0133185,0,0,0,0,0,0,0,0,0,1,4,0,0,1,0,0,0
2058516000,15.3,-1.0,0.6052988,0.0,0.5000267,1.0588202,nan,nan,0.0,0.0,0.0,0.0,0.0,0.0,0.0,0.0,0.0,0.0,0.0,0.0,0.0,0.0,0.0,0.0,0.0,0.0,0.005,15.28,16.18,0.98888874,0.0,0.0,6.0133185,0,0,0,0,0,0,0,0,0,1,4,0,0,1,0,0,0
2058716000,15.3,-1.0,0.6028827,0.0,0.5000267,1.0588202,nan,nan,0.0,0.0,0.0,0.0,0.0,0.0,0.0,0.0,0.0,0.0,0.0,0.0,0.0,0.0,0.0,0.0,0.0,0.0,0.005,15.28,16.18,0.98888874,0.0,0.0,6.0133185,0,0,0,0,0,0,0,0,0,1,4,0,0,1,0,0,0
2058916000,15.3,-1.0,0.6004762,0.0,0.5000267,1.0588202,nan,nan,0.0,0.0,0.0,0.0,0.0,0.0,0.0,0.0,0.0,0.0,0.0,0.0,0.0,0.0,0.0,0.0,0.0,0.0,0.005,15.28,16.18,0.98888874,0.0,0.0,6.0133185,0,0,0,0,0,0,0,0,0,1,4,0,0,1,0,0,0
2059116000,15.3,-1.0,0.5980794,0.0,0.5000267,1.0588202,nan,nan,0.0,0.0,0.0,0.0,0.0,0.0,0.0,0.0,0.0,0.0,0.0,0.0,0.0,0.0,0.0,0.0,0.0,0.0,0.005,15.28,16.18,0.98888874,0.0,0.0,6.0133185,0,0,0,0,0,0,0,0,0,1,4,0,0,1,0,0,0
2059316000,15.3,-1.0,0.5956921,0.0,0.5000267,1.0588202,nan,nan,0.0,0.0,0.0,0.0,0.0,0.0,0.0,0.0,0.0,0.0,0.0,0.0,0.0,0.0,0.0,0.0,0.0,0.0,0.005,15.28,16.18,0.98888874,0.0,0.0,6.0133185,0,0,0,0,0,0,0,0,0,1,4,0,0,1,0,0,0
2059516000,15.3,-1.0,0.59331435,0.0,0.5000267,1.0588202,nan,nan,0.0,0.0,0.0,0.0,0.0,0.0,0.0,0.0,0.0,0.0,0.0,0.0,0.0,0.0,0.0,0.0,0.0,0.0,0.005,15.28,16.18,0.98888874,0.0,0.0,6.0133185,0,0,0,0,0,0,0,0,0,1,4,0,0,1,0,0,0
2059716000,15.3,-1.0,0.59094614,0.0,0.5000267,1.0588202,nan,nan,0.0,0.0,0.0,0.0,0.0,0.0,0.0,0.0,0.0,0.0,0.0,0.0,0.0,0.0,0.0,0.0,0.0,0.0,0.005,15.28,16.18,0.98888874,0.0,0.0,6.0133185,0,0,0,0,0,0,0,0,0,1,4,0,0,1,0,0,0
2059916000,15.3,-1.0,0.5885873,0.0,0.5000267,1.0588202,nan,nan,0.0,0.0,0.0,0.0,0.0,0.0,0.0,0.0,0.0,0.0,0.0,0.0,0.0,0.0,0.0,0.0,0.0,0.0,0.005,15.28,16.18,0.98888874,0.0,0.0,6.0133185,0,0,0,0,0,0,0,0,0,1,4,0,0,1,0,0,0
2060116000,15.3,-1.0,0.5862379,0.0,0.5000267,1.0588202,nan,nan,0.0,0.0,0.0,0.0,0.0,0.0,0.0,0.0,0.0,0.0,0.0,0.0,0.0,0.0,0.0,0.0,0.0,0.0,0.005,15.28,16.18,0.98888874,0.0,0.0,6.0133185,0,0,0,0,0,0,0,0,0,1,4,0,0,1,0,0,0
2060316000,15.3,-1.0,0.5838978,0.0,0.5000267,1.0588202,nan,nan,0.0,0.0,0.0,0.0,0.0,0.0,0.0,0.0,0.0,0.0,0.0,0.0,0.0,0.0,0.0,0.0,0.0,0.0,0.005,15.28,16.18,0.98888874,0.0,0.0,6.0133185,0,0,0,0,0,0,0,0,0,1,4,0,0,1,0,0,0
2060516000,15.3,-1.0,0.58156717,0.0,0.5000267,1.0588202,nan,nan,0.0,0.0,0.0,0.0,0.0,0.0,0.0,0.0,0.0,0.0,0.0,0.0,0.0,0.0,0.0,0.0,0.0,0.0,0.005,15.28,16.18,0.98888874,0.0,0.0,6.0133185,0,0,0,0,0,0,0,0,0,1,4,0,0,1,0,0,0
2060716000,15.3,-1.0,0.57924575,0.0,0.5000267,1.0588202,nan,nan,0.0,0.0,0.0,0.0,0.0,0.0,0.0,0.0,0.0,0.0,0.0,0.0,0.0,0.0,0.0,0.0,0.0,0.0,0.005,15.28,16.18,0.98888874,0.0,0.0,6.0133185,0,0,0,0,0,0,0,0,0,1,4,0,0,1,0,0,0
2060916000,15.3,-1.0,0.5769336,0.0,0.5000267,1.0588202,nan,nan,0.0,0.0,0.0,0.0,0.0,0.0,0.0,0.0,0.0,0.0,0.0,0.0,0.0,0.0,0.0,0.0,0.0,0.0,0.005,15.28,16.18,0.98888874,0.0,0.0,6.0133185,0,0,0,0,0,0,0,0,0,1,4,0,0,1,0,0,0
2061116000,15.3,-1.0,0.57463074,0.0,0.5000267,1.0588202,nan,nan,0.0,0.0,0.0,0.0,0.0,0.0,0.0,0.0,0.0,0.0,0.0,0.0,0.0,0.0,0.0,0.0,0.0,0.0,0.005,15.28,16.18,0.98888874,0.0,0.0,6.0133185,0,0,0,0,0,0,0,0,0,1,4,0,0,1,0,0,0
2061316000,15.3,-1.0,0.57233703,0.0,0.5000267,1.0588202,nan,nan,0.0,0.0,0.0,0.0,0.0,0.0,0.0,0.0,0.0,0.0,0.0,0.0,0.0,0.0,0.0,0.0,0.0,0.0,0.005,15.28,16.18,0.98888874,0.0,0.0,6.0133185,0,0,0,0,0,0,0,0,0,1,4,0,0,1,0,0,0
2061516000,15.3,-1.0,0.57005244,0.0,0.5000267,1.0588202,nan,nan,0.0,0.0,0.0,0.0,0.0,0.0,0.0,0.0,0.0,0.0,0.0,0.0,0.0,0.0,0.0,0.0,0.0,0.0,0.005,15.28,16.18,0.98888874,0.0,0.0,6.0133185,0,0,0,0,0,0,0,0,0,1,4,0,0,1,0,0,0
2061716000,15.3,-1.0,0.56777704,0.0,0.5000267,1.0588202,nan,nan,0.0,0.0,0.0,0.0,0.0,0.0,0.0,0.0,0.0,0.0,0.0,0.0,0.0,0.0,0.0,0.0,0.0,0.0,0.005,15.28,16.18,0.98888874,0.0,0.0,6.0133185,0,0,0,0,0,0,0,0,0,1,4,0,0,1,0,0,0
2061916000,15.3,-1.0,0.5655107,0.0,0.5000267,1.0588202,nan,nan,0.0,0.0,0.0,0.0,0.0,0.0,0.0,0.0,0.0,0.0,0.0,0.0,0.0,0.0,0.0,0.0,0.0,0.0,0.005,15.28,16.18,0.98888874,0.0,0.0,6.0133185,0,0,0,0,0,0,0,0,0,1,4,0,0,1,0,0,0
2062116000,15.3,-1.0,0.5632534,0.0,0.5000267,1.0588202,nan,nan,0.0,0.0,0.0,0.0,0.0,0.0,0.0,0.0,0.0,0.0,0.0,0.0,0.0,0.0,0.0,0.0,0.0,0.0,0.005,15.28,16.18,0.98888874,0.0,0.0,6.0133185,0,0,0,0,0,0,0,0,0,1,4,0,0,1,0,0,0
2062316000,15.3,-1.0,0.5610051,0.0,0.5000267,1.0588202,nan,nan,0.0,0.0,0.0,0.0,0.0,0.0,0.0,0.0,0.0,0.0,0.0,0.0,0.0,0.0,0.0,0.0,0.0,0.0,0.005,15.28,16.18,0.98888874,0.0,0.0,6.0133185,0,0,0,0,0,0,0,0,0,1,4,0,0,1,0,0,0
2062516000,15.3,-1.0,0.55876577,0.0,0.5000267,1.0588202,nan,nan,0.0,0.0,0.0,0.0,0.0,0.0,0.0,0.0,0.0,0.0,0.0,0.0,0.0,0.0,0.0,0.0,0.0,0.0,0.005,15.28,16.18,0.98888874,0.0,0.0,6.0133185,0,0,0,0,0,0,0,0,0,1,4,0,0,1,0,0,0
2062716000,15.3,-1.0,0.55653536,0.0,0.5000267,1.0588202,nan,nan,0.0,0.0,0.0,0.0,0.0,0.0,0.0,0.0,0.0,0.0,0.0,0.0,0.0,0.0,0.0,0.0,0.0,0.0,0.005,15.28,16.18,0.98888874,0.0,0.0,6.0133185,0,0,0,0,0,0,0,0,0,1,4,0,0,1,0,0,0
2062916000,15.3,-1.0,0.5543139,0.0,0.5000267,1.0588202,nan,nan,0.0,0.0,0.0,0.0,0.0,0.0,0.0,0.0,0.0,0.0,0.0,0.0,0.0,0.0,0.0,0.0,0.0,0.0,0.005,15.28,16.18,0.98888874,0.0,0.0,6.0133185,0,0,0,0,0,0,0,0,0,1,4,0,0,1,0,0,0
2063116000,15.3,-1.0,0.55210125,0.0,0.5000267,1.0588202,nan,nan,0.0,0.0,0.0,0.0,0.0,0.0,0.0,0.0,0.0,0.0,0.0,0.0,0.0,0.0,0.0,0.0,0.0,0.0,0.005,15.28,16.18,0.98888874,0.0,0.0,6.0133185,0,0,0,0,0,0,0,0,0,1,4,0,0,1,0,0,0
2063316000,15.3,-1.0,0.5498975,0.0,0.5000267,1.0588202,nan,nan,0.0,0.0,0.0,0.0,0.0,0.0,0.0,0.0,0.0,0.0,0.0,0.0,0.0,0.0,0.0,0.0,0.0,0.0,0.005,15.28,16.18,0.98888874,0.0,0.0,6.0133185,0,0,0,0,0,0,0,0,0,1,4,0,0,1,0,0,0
2063516000,15.3,-1.0,0.5477025,0.0,0.5000267,1.0588202,nan,nan,0.0,0.0,0.0,0.0,0.0,0.0,0.0,0.0,0.0,0.0,0.0,0.0,0.0,0.0,0.0,0.0,0.0,0.0,0.005,15.28,16.18,0.98888874,0.0,0.0,6.0133185,0,0,0,0,0,0,0,0,0,1,4,0,0,1,0,0,0
2063716000,15.3,-1.0,0.5455163,0.0,0.5000267,1.0588202,nan,nan,0.0,0.0,0.0,0.0,0.0,0.0,0.0,0.0,0.0,0.0,0.0,0.0,0.0,0.0,0.0,0.0,0.0,0.0,0.005,15.28,16.18,0.98888874,0.0,0.0,6.0133185,0,0,0,0,0,0,0,0,0,1,4,0,0,1,0,0,0
2063916000,15.3,-1.0,0.5433388,0.0,0.5000267,1.0588202,nan,nan,0.0,0.0,0.0,0.0,0.0,0.0,0.0,0.0,0.0,0.0,0.0,0.0,0.0,0.0,0.0,0.0,0.0,0.0,0.005,15.28,16.18,0.98888874,0.0,0.0,6.0133185,0,0,0,0,0,0,0,0,0,1,4,0,0,1,0,0,0
2064116000,15.3,-1.0,0.54116994,0.0,0.5000267,1.0588202,nan,nan,0.0,0.0,0.0,0.0,0.0,0.0,0.0,0.0,0.0,0.0,0.0,0.0,0.0,0.0,0.0,0.0,0.0,0.0,0.005,15.28,16.18,0.98888874,0.0,0.0,6.0133185,0,0,0,0,0,0,0,0,0,1,4,0,0,1,0,0,0
2064316000,15.3,-1.0,0.53900975,0.0,0.5000267,1.0588202,nan,nan,0.0,0.0,0.0,0.0,0.0,0.0,0.0,0.0,0.0,0.0,0.0,0.0,0.0,0.0,0.0,0.0,0.0,0.0,0.005,15.28,16.18,0.98888874,0.0,0.0,6.0133185,0,0,0,0,0,0,0,0,0,1,4,0,0,1,0,0,0
2064516000,15.3,-1.0,0.53685826,0.0,0.5000267,1.0588202,nan,nan,0.0,0.0,0.0,0.0,0.0,0.0,0.0,0.0,0.0,0.0,0.0,0.0,0.0,0.0,0.0,0.0,0.0,0.0,0.005,15.28,16.18,0.98888874,0.0,0.0,6.0133185,0,0,0,0,0,0,0,0,0,1,4,0,0,1,0,0,0
2064716000,15.3,-1.0,0.5347153,0.0,0.5000267,1.0588202,nan,nan,0.0,0.0,0.0,0.0,0.0,0.0,0.0,0.0,0.0,0.0,0.0,0.0,0.0,0.0,0.0,0.0,0.0,0.0,0.005,15.28,16.18,0.98888874,0.0,0.0,6.0133185,0,0,0,0,0,0,0,0,0,1,4,0,0,1,0,0,0
2064916000,15.3,-1.0,0.532581,0.0,0.5000267,1.0588202,nan,nan,0.0,0.0,0.0,0.0,0.0,0.0,0.0,0.0,0.0,0.0,0.0,0.0,0.0,0.0,0.0,0.0,0.0,0.0,0.005,15.28,16.18,0.98888874,0.0,0.0,6.0133185,0,0,0,0,0,0,0,0,0,1,4,0,0,1,0,0,0
2065116000,15.3,-1.0,0.5304551,0.0,0.5000267,1.0588202,nan,nan,0.0,0.0,0.0,0.0,0.0,0.0,0.0,0.0,0.0,0.0,0.0,0.0,0.0,0.0,0.0,0.0,0.0,0.0,0.005,15.28,16.18,0.98888874,0.0,0.0,6.0133185,0,0,0,0,0,0,0,0,0,1,4,0,0,1,0,0,0
2065316000,15.3,-1.0,0.5283377,0.0,0.5000267,1.0588202,nan,nan,0.0,0.0,0.0,0.0,0.0,0.0,0.0,0.0,0.0,0.0,0.0,0.0,0.0,0.0,0.0,0.0,0.0,0.0,0.005,15.28,16.18,0.98888874,0.0,0.0,6.0133185,0,0,0,0,0,0,0,0,0,1,4,0,0,1,0,0,0
2065516000,15.3,-1.0,0.52622885,0.0,0.5000267,1.0588202,nan,nan,0.0,0.0,0.0,0.0,0.0,0.0,0.0,0.0,0.0,0.0,0.0,0.0,0.0,0.0,0.0,0.0,0.0,0.0,0.005,15.28,16.18,0.98888874,0.0,0.0,6.0133185,0,0,0,0,0,0,0,0,0,1,4,0,0,1,0,0,0
2065716000,15.3,-1.0,0.5241284,0.0,0.5000267,1.0588202,nan,nan,0.0,0.0,0.0,0.0,0.0,0.0,0.0,0.0,0.0,0.0,0.0,0.0,0.0,0.0,0.0,0.0,0.0,0.0,0.005,15.28,16.18,0.98888874,0.0,0.0,6.0133185,0,0,0,0,0,0,0,0,0,1,4,0,0,1,0,0,0
2065916000,15.3,-1.0,0.52203625,0.0,0.5000267,1.0588202,nan,nan,0.0,0.0,0.0,0.0,0.0,0.0,0.0,0.0,0.0,0.0,0.0,0.0,0.0,0.0,0.0,0.0,0.0,0.0,0.005,15.28,16.18,0.98888874,0.0,0.0,6.0133185,0,0,0,0,0,0,0,0,0,1,4,0,0,1,0,0,0
2066116000,15.3,-1.0,0.5199525,0.0,0.5000267,1.0588202,nan,nan,0.0,0.0,0.0,0.0,0.0,0.0,0.0,0.0,0.0,0.0,0.0,0.0,0.0,0.0,0.0,0.0,0.0,0.0,0.005,15.28,16.18,0.98888874,0.0,0.0,6.0133185,0,0,0,0,0,0,0,0,0,1,4,0,0,1,0,0,0
2066316000,15.3,-1.0,0.51787704,0.0,0.5000267,1.0588202,nan,nan,0.0,0.0,0.0,0.0,0.0,0.0,0.0,0.0,0.0,0.0,0.0,0.0,0.0,0.0,0.0,0.0,0.0,0.0,0.005,15.28,16.18,0.98888874,0.0,0.0,6.0133185,0,0,0,0,0,0,0,0,0,1,4,0,0,1,0,0,0
2066516000,15.3,-1.0,0.51580983,0.0,0.5000267,1.0588202,nan,nan,0.0,0.0,0.0,0.0,0.0,0.0,0.0,0.0,0.0,0.0,0.0,0.0,0.0,0.0,0.0,0.0,0.0,0.0,0.005,15.28,16.18,0.98888874,0.0,0.0,6.0133185,0,0,0,0,0,0,0,0,0,1,4,0,0,1,0,0,0
2066716000,15.3,-1.0,0.5137509,0.0,0.5000267,1.0588202,nan,nan,0.0,0.0,0.0,0.0,0.0,0.0,0.0,0.0,0.0,0.0,0.0,0.0,0.0,0.0,0.0,0.0,0.0,0.0,0.005,15.28,16.18,0.98888874,0.0,0.0,6.0133185,0,0,0,0,0,0,0,0,0,1,4,0,0,1,0,0,0
2066916000,15.3,-1.0,0.5117003,0.0,0.5000267,1.0588202,nan,nan,0.0,0.0,0.0,0.0,0.0,0.0,0.0,0.0,0.0,0.0,0.0,0.0,0.0,0.0,0.0,0.0,0.0,0.0,0.005,15.28,16.18,0.98888874,0.0,0.0,6.0133185,0,0,0,0,0,0,0,0,0,1,4,0,0,1,0,0,0
2067116000,15.3,-1.0,0.50965774,0.0,0.5000267,1.0588202,nan,nan,0.0,0.0,0.0,0.0,0.0,0.0,0.0,0.0,0.0,0.0,0.0,0.0,0.0,0.0,0.0,0.0,0.0,0.0,0.005,15.28,16.18,0.98888874,0.0,0.0,6.0133185,0,0,0,0,0,0,0,0,0,1,4,0,0,1,0,0,0
2067316000,15.3,-1.0,0.50762343,0.0,0.5000267,1.0588202,nan,nan,0.0,0.0,0.0,0.0,0.0,0.0,0.0,0.0,0.0,0.0,0.0,0.0,0.0,0.0,0.0,0.0,0.0,0.0,0.005,15.28,16.18,0.98888874,0.0,0.0,6.0133185,0,0,0,0,0,0,0,0,0,1,4,0,0,1,0,0,0
2067516000,15.3,-1.0,0.50559705,0.0,0.5000267,1.0588202,nan,nan,0.0,0.0,0.0,0.0,0.0,0.0,0.0,0.0,0.0,0.0,0.0,0.0,0.0,0.0,0.0,0.0,0.0,0.0,0.005,15.28,16.18,0.98888874,0.0,0.0,6.0133185,0,0,0,0,0,0,0,0,0,1,4,0,0,1,0,0,0
2067716000,15.3,-1.0,0.503579,0.0,0.5000267,1.0588202,nan,nan,0.0,0.0,0.0,0.0,0.0,0.0,0.0,0.0,0.0,0.0,0.0,0.0,0.0,0.0,0.0,0.0,0.0,0.0,0.005,15.28,16.18,0.98888874,0.0,0.0,6.0133185,0,0,0,0,0,0,0,0,0,1,4,0,0,1,0,0,0
2067916000,15.3,-1.0,0.501569,0.0,0.5000267,1.0588202,nan,nan,0.0,0.0,0.0,0.0,0.0,0.0,0.0,0.0,0.0,0.0,0.0,0.0,0.0,0.0,0.0,0.0,0.0,0.0,0.005,15.28,16.18,0.98888874,0.0,0.0,6.0133185,0,0,0,0,0,0,0,0,0,1,4,0,0,1,0,0,0
2068116000,15.3,-1.0,0.49956685,0.0,0.5000267,1.0588202,nan,nan,0.0,0.0,0.0,0.0,0.0,0.0,0.0,0.0,0.0,0.0,0.0,0.0,0.0,0.0,0.0,0.0,0.0,0.0,0.005,15.28,16.18,0.98888874,0.0,0.0,6.0133185,0,0,0,0,0,0,0,0,0,1,4,0,0,1,0,0,0
2068316000,15.3,-1.0,0.49757275,0.0,0.5000267,1.0588202,nan,nan,0.0,0.0,0.0,0.0,0.0,0.0,0.0,0.0,0.0,0.0,0.0,0.0,0.0,0.0,0.0,0.0,0.0,0.0,0.005,15.28,16.18,0.98888874,0.0,0.0,6.0133185,0,0,0,0,0,0,0,0,0,1,4,0,0,1,0,0,0
2068516000,15.3,-1.0,0.49558672,0.0,0.5000267,1.0588202,nan,nan,0.0,0.0,0.0,0.0,0.0,0.0,0.0,0.0,0.0,0.0,0.0,0.0,0.0,0.0,0.0,0.0,0.0,0.0,0.005,15.28,16.18,0.98888874,0.0,0.0,6.0133185,0,0,0,0,0,0,0,0,0,1,4,0,0,1,0,0,0
2068716000,15.3,-1.0,0.49360847,0.0,0.5000267,1.0588202,nan,nan,0.0,0.0,0.0,0.0,0.0,0.0,0.0,0.0,0.0,0.0,0.0,0.0,0.0,0.0,0.0,0.0,0.0,0.0,0.005,15.28,16.18,0.98888874,0.0,0.0,6.0133185,0,0,0,0,0,0,0,0,0,1,4,0,0,1,0,0,0
2068916000,15.3,-1.0,0.49163815,0.0,0.5000267,1.0588202,nan,nan,0.0,0.0,0.0,0.0,0.0,0.0,0.0,0.0,0.0,0.0,0.0,0.0,0.0,0.0,0.0,0.0,0.0,0.0,0.005,15.28,16.18,0.98888874,0.0,0.0,6.0133185,0,0,0,0,0,0,0,0,0,1,4,0,0,1,0,0,0
