timestamp,timestamp_sample,time_last_fuse,device_id,observation[0],observation[1],observation[2],observation_variance[0],observation_variance[1],observation_variance[2],innovation[0],innovation[1],innovation[2],innovation_filtered[0],innovation_filtered[1],innovation_filtered[2],innovation_variance[0],innovation_variance[1],innovation_variance[2],test_ratio[0],test_ratio[1],test_ratio[2],test_ratio_filtered[0],test_ratio_filtered[1],test_ratio_filtered[2],estimator_instance,innovation_rejected,fused
2015852000,2015700000,2015700000,0,-0.036923558,-0.21287622,0.4276798,0.0025000002,0.0025000002,0.0025000002,-0.00071765296,0.0004877001,0.0019057393,-3.4207187e-05,0.0010284531,0.0006382901,0.0025112208,0.002503765,0.002501769,2.2787755e-05,1.0571563e-05,0.00016132378,4.4483822e-06,0.00014308511,8.0486345e-05,0,0,1
2015924000,2015771200,2015772000,0,-0.037139244,-0.21509278,0.43064722,0.0025000002,0.0025000002,0.0025000002,-0.00058881333,0.0026997924,-0.001073271,-0.00010333876,0.0012368213,0.00042509768,0.0025112464,0.0025038032,0.002501779,1.5339932e-05,0.00032352706,5.104233e-05,1.9817717e-06,0.00016557718,6.409131e-05,0,0,1
2015996000,2015843428,2015844000,0,-0.035309978,-0.21245332,0.4292664,0.0025000002,0.0025000002,0.0025000002,-0.0023818936,5.170703e-05,0.0003092885,-0.00039094346,0.0010873841,0.00041046215,0.0025112685,0.0025038393,0.0025017885,0.00025102042,1.2418874e-07,4.244612e-06,-2.9952778e-05,0.0001446933,5.653732e-05,0,0,1
2016068000,2015915200,2015916000,0,-0.03880119,-0.21653166,0.4301506,0.0025000002,0.0025000002,0.0025000002,0.0009173645,0.0038646609,-0.0007274449,-0.00022671737,0.0014359456,0.00026785192,0.0025111595,0.00250367,0.0025017464,3.7236347e-05,0.00066267373,2.3386225e-05,-2.1518827e-05,0.0002097131,4.6504872e-05,0,0,1
2016140000,2015986857,2015988000,0,-0.037137248,-0.21819448,0.42578557,0.0025000002,0.0025000002,0.0025000002,-0.0007414289,0.005430609,0.0035904646,-0.00029123627,0.0019367235,0.0006846488,0.0025111865,0.0025037061,0.0025017564,2.4323024e-05,0.0013089785,0.00057333574,-2.1870332e-05,0.00034750561,0.000112542926,0,0,1
2016212000,2016059200,2016060000,0,-0.036895584,-0.21328805,0.42892447,0.0025000002,0.0025000002,0.0025000002,-0.0010481519,0.0004862398,0.00042885542,-0.00038690888,0.0017534482,0.0006523334,0.0025112075,0.0025037439,0.0025017664,4.860974e-05,1.0513715e-05,8.173229e-06,-2.525014e-05,0.00030491053,9.935081e-05,0,0,1
2016284000,2016131428,2016132000,0,-0.038059644,-0.21300262,0.43005043,0.0025000002,0.0025000002,0.0025000002,9.075063e-05,0.00015692413,-0.00072163343,-0.00032661753,0.0015519278,0.00047891922,0.0025112338,0.0025037804,0.0025017762,3.643927e-07,1.0924383e-06,2.3122506e-05,-2.2017011e-05,0.00026656187,8.389193e-05,0,0,1
2016356000,2016204000,2016204000,0,-0.03740231,-0.2130935,0.42994195,0.0025000002,0.0025000002,0.0025000002,-0.0006374457,0.0003992319,-0.0005427897,-0.0003660142,0.0014058712,0.0003494412,0.00251126,0.0025038188,0.0025017848,1.797845e-05,7.085501e-06,1.3076959e-05,-2.1505135e-05,0.00023367391,7.1601375e-05,0,0,1
2016428000,2016276000,2016276000,0,-0.0349733,-0.2166813,0.42821786,0.0025000002,0.0025000002,0.0025000002,-0.0031452111,0.00409168,0.0012265444,-0.00071584317,0.0017441462,0.00046004468,0.0025111465,0.0025036528,0.002501741,0.00043770854,0.0007435766,6.6988454e-05,-7.389437e-05,0.00029785748,7.1020724e-05,0,0,1
2016500000,2016346400,2016348000,0,-0.039823793,-0.21237814,0.43019715,0.0025000002,0.0025000002,0.0025000002,0.0018771312,-0.00017231703,-0.00071781874,-0.00039581268,0.001507494,0.0003146858,0.0025111737,0.0025036891,0.00250175,0.00015590856,1.33244e-06,2.287654e-05,-4.5531597e-05,0.0002609308,5.943172e-05,0,0,1
2016572000,2016414000,2016420000,0,-0.0373643,-0.2123218,0.42981097,0.0025000002,0.0025000002,0.0025000002,-0.0005602337,-0.00031632185,-0.00037238002,-0.0004153949,0.0012903148,0.00023282657,0.0025111954,0.0025037243,0.00250176,1.3887225e-05,4.432561e-06,6.16728e-06,-4.1762818e-05,0.00022932657,5.1619012e-05,0,0,1
2016644000,2016486000,2016492000,0,-0.035371628,-0.21343611,0.42917487,0.0025000002,0.0025000002,0.0025000002,-0.0026296442,0.0008542985,0.00028550625,-0.0006941116,0.0012356024,0.00023948081,0.0025112217,0.002503762,0.0025017695,0.00030596124,3.2490923e-05,3.6249571e-06,-7.501856e-05,0.00020455006,4.5577803e-05,0,0,1
2016716000,2016557333,2016564000,0,-0.035772562,-0.21107584,0.43081927,0.0025000002,0.0025000002,0.0025000002,-0.0022779736,-0.0015147626,-0.0013665557,-0.0008918625,0.0008923491,3.8841332e-05,0.0025112482,0.002503799,0.0025017792,0.00022959647,0.00010167285,8.3056526e-05,-9.431817e-05,0.00016631701,2.951734e-05,0,0,1
2016780000,2016624000,2016628000,0,-0.034820586,-0.2147568,0.4312949,0.0025000002,0.0025000002,0.0025000002,-0.0031743834,0.002226144,-0.0018086731,-0.0011603956,0.0010494565,-0.00017841559,0.0025112617,0.0025038305,0.002501787,0.0004458454,0.00022023576,0.00014515246,-0.00013567449,0.00017266042,8.9678615e-06,0,0,1
2016852000,2016694857,2016700000,0,-0.036517035,-0.2105909,0.42871508,0.0025000002,0.0025000002,0.0025000002,-0.0013519326,-0.0020936131,0.0007074475,-0.0011841699,0.00065941137,-6.8585636e-05,0.0025111542,0.0025036624,0.002501744,8.0871265e-05,0.00019439745,2.2163964e-05,-0.0001288721,0.00012709976,1.0605813e-05,0,0,1
2016916000,2016762000,2016764000,0,-0.03627327,-0.21202031,0.42736778,0.0025000002,0.0025000002,0.0025000002,-0.0014712785,-0.00078859925,0.002001673,-0.0012181601,0.00048807292,0.00017644752,0.002511173,0.0025036922,0.0025017532,9.577907e-05,2.754625e-05,0.00017785907,-0.00012495427,0.00010879151,3.0406612e-05,0,0,1
2016988000,2016833500,2016836000,0,-0.035341267,-0.21488546,0.429501,0.0025000002,0.0025000002,0.0025000002,-0.002309422,0.0021552742,-8.624792e-05,-0.0013546873,0.0006967963,0.0001436822,0.0025111944,0.0025037292,0.002501762,0.00023598465,0.0002063615,3.2425976e-07,-0.00013884521,0.000120998426,2.6561893e-05,0,0,1
2017060000,2016904000,2016908000,0,-0.03873957,-0.215872,0.42938316,0.0025000002,0.0025000002,0.0025000002,0.0011079949,0.0033159405,0.000119268894,-0.0010503593,0.0010203877,0.00014087486,0.0025112214,0.002503767,0.0025017706,5.431853e-05,0.00048778174,6.4987e-07,-0.00011497484,0.00016632397,2.3359793e-05,0,0,1
2017124000,2016971428,2016972000,0,-0.03921859,-0.2116726,0.42984822,0.0025000002,0.0025000002,0.0025000002,0.0015464358,-0.0009047538,-0.00035727024,-0.00074177975,0.000791527,8.1641716e-05,0.0025112396,0.0025037983,0.002501779,0.00010581155,3.6389905e-05,5.679122e-06,-8.873859e-05,0.0001422353,1.9909072e-05,0,0,1
2017196000,2017042400,2017044000,0,-0.037583526,-0.21364763,0.42893568,0.0025000002,0.0025000002,0.0025000002,-0.00017355464,0.0010854304,0.00055521727,-0.0006711492,0.00082807074,0.00014057479,0.0025112613,0.0025038358,0.0025017885,1.3327174e-06,5.2291296e-05,1.3717712e-05,-7.7874014e-05,0.00013105523,1.9139485e-05,0,0,1
2017268000,2017109333,2017116000,0,-0.034548465,-0.21548097,0.42678055,0.0025000002,0.0025000002,0.0025000002,-0.0033091893,0.0030057728,0.002745539,-0.0009826003,0.0010853752,0.00044825382,0.0025111532,0.00250367,0.002501745,0.00048453762,0.00040140792,0.00033506227,-0.00012588536,0.0001629735,5.6437828e-05,0,0,1
2017340000,2017181333,2017188000,0,-0.03723363,-0.21357511,0.42896613,0.0025000002,0.0025000002,0.0025000002,-0.00067579537,0.0011416376,0.00057569146,-0.00094398146,0.0010924977,0.0004643532,0.0025111798,0.0025037068,0.0025017543,2.0207386e-05,5.7872916e-05,1.4743154e-05,-0.000112583235,0.00014974407,5.118955e-05,0,0,1
2017412000,2017253333,2017260000,0,-0.037560202,-0.21579961,0.42917523,0.0025000002,0.0025000002,0.0025000002,-0.00058024854,0.0032514632,0.00028809905,-0.0008981969,0.0013642919,0.00044235823,0.0025112014,0.0025037422,0.0025017648,1.4897179e-05,0.00046924784,3.7252419e-06,-0.00010028709,0.00018996133,4.521502e-05,0,0,1
2017484000,2017325333,2017332000,0,-0.038604856,-0.21178035,0.43044156,0.0025000002,0.0025000002,0.0025000002,0.00051943876,-0.0007941425,-0.0009845495,-0.0007197532,0.0010925715,0.0002627114,0.0025112284,0.0025037793,0.0025017743,1.1938231e-05,2.8003562e-05,4.307618e-05,-8.616083e-05,0.00016252519,3.4101442e-05,0,0,1
2017548000,2017392000,2017396000,0,-0.035802342,-0.21413215,0.42892295,0.0025000002,0.0025000002,0.0025000002,-0.0022940855,0.0014852136,0.0004969537,-0.0009049696,0.0011388964,0.00029032747,0.0025112454,0.0025038116,0.0025017834,0.00023285604,9.803635e-05,1.0990097e-05,-0.00010341917,0.00015493823,3.138245e-05,0,0,1
2017620000,2017463428,2017468000,0,-0.0344343,-0.21382752,0.43129382,0.0025000002,0.0025000002,0.0025000002,-0.0037174062,0.0010407716,-0.0019481182,-0.0012565217,0.0011268662,1.0548829e-05,0.0025111332,0.0025036444,0.0025017404,0.00061145966,4.824643e-05,0.00016852182,-0.00016692378,0.00014160185,6.3945918e-06,0,0,1
2017692000,2017536000,2017540000,0,-0.038605165,-0.21307579,0.42733842,0.0025000002,0.0025000002,0.0025000002,0.0006917553,0.00034750998,0.0020570755,-0.0010095827,0.0010280379,0.00026996734,0.0025111602,0.0025036812,0.0025017494,2.1173277e-05,5.347926e-06,0.00018797615,-0.00014308297,0.00012433203,2.940958e-05,0,0,1
2017764000,2017606857,2017612000,0,-0.036293324,-0.21410725,0.4296542,0.0025000002,0.0025000002,0.0025000002,-0.001570301,0.001557827,-0.00016543269,-0.0010791812,0.0010938975,0.00021600036,0.0025111826,0.0025037182,0.0025017576,0.00010910509,0.00010781019,1.2064498e-06,-0.00013886551,0.00012228127,2.5609399e-05,0,0,1
2017828000,2017674000,2017676000,0,-0.03491929,-0.21143493,0.43185815,0.0025000002,0.0025000002,0.0025000002,-0.0031181215,-0.0012405515,-0.0024453402,-0.0013205676,0.00081771193,-9.917599e-05,0.0025112014,0.0025037488,0.0025017674,0.0004301917,6.8123794e-05,0.0002657692,-0.00017335507,9.973957e-05,-8.886367e-06,0,0,1
2017900000,2017745500,2017748000,0,-0.038953595,-0.21250531,0.4311449,0.0025000002,0.0025000002,0.0025000002,0.0010262042,-0.00012902915,-0.0017032027,-0.0010269645,0.00069920224,-0.00029985345,0.0025112287,0.0025037853,0.0025017762,4.659494e-05,7.446409e-07,0.00012883572,-0.00014583727,8.716805e-05,-2.3893153e-05,0,0,1
2017972000,2017817000,2017820000,0,-0.036214635,-0.21696131,0.43009305,0.0025000002,0.0025000002,0.0025000002,-0.0015837166,0.004283786,-0.00066038966,-0.0010966194,0.0011477742,-0.00034496532,0.0025112554,0.0025038216,0.002501787,0.00011097408,0.0008146721,1.9371562e-05,-0.00014147555,0.00017818561,-2.332746e-05,0,0,1
2018044000,2017889000,2017892000,0,-0.036840398,-0.21160853,0.43053472,0.0025000002,0.0025000002,0.0025000002,-0.0008617033,-0.0011412203,-0.0011291206,-0.0010670496,0.00085970585,-0.0004436639,0.0025111504,0.002503658,0.002501744,3.2854907e-05,5.7753437e-05,5.6618337e-05,-0.00012780302,0.00014848699,-2.7517919e-05,0,0,1
2018116000,2017960000,2017964000,0,-0.038272217,-0.21193093,0.4282703,0.0025000002,0.0025000002,0.0025000002,0.00065998384,-0.00067587197,0.0012145638,-0.00085230457,0.00066872104,-0.00023747372,0.00251118,0.0025036975,0.0025017536,1.9272862e-05,2.02946e-05,6.5517575e-05,-0.00010951513,0.00012750013,-1.5949581e-05,0,0,1
2018180000,2018028000,2018028000,0,-0.037360933,-0.21232384,0.43132952,0.0025000002,0.0025000002,0.0025000002,-0.00018145109,-0.00020907819,-0.0018021762,-0.00077199115,0.00056364376,-0.00042479148,0.0025111993,0.002503733,0.0025017625,1.456785e-06,1.9381794e-06,0.00014423899,-9.657857e-05,0.000112003996,-3.130817e-05,0,0,1
2018252000,2018097600,2018100000,0,-0.037472203,-0.21303473,0.42634353,0.0025000002,0.0025000002,0.0025000002,4.0925457e-05,0.0005415082,0.003213942,-0.00067266007,0.0005609299,1.9822211e-05,0.0025112291,0.0025037723,0.0025017723,7.410683e-08,1.30092685e-05,0.0004587442,-8.4768486e-05,9.990773e-05,2.857183e-05,0,0,1
2018324000,2018166000,2018172000,0,-0.035062082,-0.21402328,0.43210298,0.0025000002,0.0025000002,0.0025000002,-0.0023181532,0.0015390366,-0.0025373697,-0.0008706751,0.00067877595,-0.00028790848,0.002511257,0.0025038128,0.0025017827,0.00023776645,0.000105274514,0.00028594755,-0.000103179926,0.00010055356,-9.276737e-06,0,0,1
2018396000,2018237333,2018244000,0,-0.039940815,-0.21244341,0.43214497,0.0025000002,0.0025000002,0.0025000002,0.0027052965,-2.2098422e-05,-0.002557665,-0.00042420204,0.00059108884,-0.00057129527,0.0025112869,0.0025038521,0.0025017932,0.0003238105,2.4596726e-08,0.00029053053,-4.986862e-05,8.799601e-05,-4.4392295e-05,0,0,1
2018468000,2018309333,2018316000,0,-0.03682975,-0.2134866,0.42905992,0.0025000002,0.0025000002,0.0025000002,-0.00044136157,0.0010300577,0.0005310178,-0.00042636198,0.0006463693,-0.0004325437,0.0025111807,0.0025036896,0.0025017506,8.619231e-06,4.7105535e-05,1.2523252e-05,-4.4676388e-05,8.284896e-05,-3.72281e-05,0,0,1
2018532000,2018380000,2018380000,0,-0.040650096,-0.2126367,0.42865467,0.0025000002,0.0025000002,0.0025000002,0.0032625839,0.00017386675,0.00092226267,3.0448602e-05,0.0005876438,-0.00026477518,0.0025111998,0.0025037252,0.00250176,0.00047097687,1.3149578e-06,3.7776277e-05,1.9178136e-05,7.275242e-05,-2.7940136e-05,0,0,1
2018604000,2018447200,2018452000,0,-0.038212344,-0.21490958,0.43037114,0.0025000002,0.0025000002,0.0025000002,0.0009315711,0.002356276,-0.0008301735,0.00013721065,0.00079712574,-0.00033176155,0.0025112282,0.0025037643,0.0025017702,3.839754e-05,0.00024628054,3.0608782e-05,2.1455187e-05,9.3311464e-05,-2.8256309e-05,0,0,1
2018676000,2018519428,2018524000,0,-0.035418503,-0.21301223,0.43033662,0.0025000002,0.0025000002,0.0025000002,-0.0017349451,0.00047773123,-0.0007738173,-9.909738e-05,0.0007569266,-0.00038755187,0.0025112566,0.0025038044,0.0025017806,0.00013317965,1.0166893e-05,2.6590267e-05,1.9368053e-06,8.2816754e-05,-2.8046017e-05,0,0,1
2018748000,2018592000,2018596000,0,-0.037799653,-0.21446414,0.43217713,0.0025000002,0.0025000002,0.0025000002,0.00071487436,0.001979947,-0.0025835037,4.0714076e-06,0.0009118968,-0.0006658829,0.0025112855,0.0025038454,0.0025017906,2.2611057e-05,0.00017390147,0.00029643156,4.5572124e-06,9.43615e-05,-6.206318e-05,0,0,1
2018820000,2018664000,2018668000,0,-0.03576364,-0.21399926,0.4290451,0.0025000002,0.0025000002,0.0025000002,-0.0010334171,0.0013706535,0.00050231814,-0.00012652154,0.0009697062,-0.0005188295,0.0025111819,0.0025036796,0.0025017483,4.7253132e-05,8.343634e-05,1.1209066e-05,-1.964369e-06,9.298631e-05,-5.2840103e-05,0,0,1
2018892000,2018735200,2018740000,0,-0.038076594,-0.21484625,0.4321181,0.0025000002,0.0025000002,0.0025000002,0.0012035565,0.002134502,-0.0026192367,3.9272505e-05,0.001114819,-0.00078064855,0.00251121,0.0025037185,0.002501759,6.4092535e-05,0.00020207262,0.00030469903,6.269615e-06,0.0001065839,-8.4234285e-05,0,0,1
2018964000,2018807428,2018812000,0,-0.03916733,-0.21085294,0.42929187,0.0025000002,0.0025000002,0.0025000002,0.0025647224,-0.0019595474,0.00018027425,0.0003580409,0.0007265896,-0.00065935636,0.0025112396,0.0025037576,0.0025017697,0.00029103825,0.00017064458,1.4436456e-06,4.2213804e-05,7.159145e-05,-7.341981e-05,0,0,1
2019036000,2018878400,2018884000,0,-0.035826918,-0.21295384,0.42861852,0.0025000002,0.0025000002,0.0025000002,-0.00075966516,8.5160136e-05,0.00082722306,0.00021910969,0.0006469121,-0.00047457856,0.0025112685,0.002503797,0.0025017804,2.5533407e-05,3.2502643e-07,3.0388948e-05,3.3792803e-05,6.273301e-05,-6.051635e-05,0,0,1
2019100000,2018945333,2018948000,0,-0.036657915,-0.21497485,0.42893183,0.0025000002,0.0025000002,0.0025000002,-1.131359e-05,0.0021075904,0.0005071759,0.00019190555,0.0008193597,-0.00035867715,0.0025112873,0.002503833,0.0025017897,5.663201e-09,0.0001971134,1.1421834e-05,2.9802502e-05,7.859817e-05,-5.2023217e-05,0,0,1
2019172000,2019016666,2019020000,0,-0.03690384,-0.21257582,0.43083256,0.0025000002,0.0025000002,0.0025000002,0.00035125215,-0.0002747923,-0.001375407,0.00021180055,0.0006827264,-0.00048561353,0.0025113167,0.0025038733,0.0025018002,5.45876e-06,3.3556212e-06,8.4011146e-05,2.6763099e-05,6.836594e-05,-5.6017027e-05,0,0,1
2019236000,2019084000,2019084000,0,-0.036556765,-0.21187904,0.4303994,0.0025000002,0.0025000002,0.0025000002,-7.1585295e-05,-0.0009700507,-0.000946939,0.00017816693,0.00048657152,-0.0005403669,0.0025112017,0.002503704,0.0025017557,2.2673761e-07,4.1756746e-05,3.9825773e-05,2.3559813e-05,5.5296034e-05,-5.409537e-05,0,0,1
2019308000,2019155428,2019156000,0,-0.036642488,-0.21204095,0.43022397,0.0025000002,0.0025000002,0.0025000002,0.00013840036,-0.00078591704,-0.00074994564,0.00017319614,0.0003274984,-0.0005665568,0.0025112308,0.0025037436,0.002501766,8.475109e-07,2.74181e-05,2.4974872e-05,2.0720794e-05,4.495684e-05,-5.045533e-05,0,0,1
2019380000,2019227200,2019228000,0,-0.037983667,-0.21129201,0.4304331,0.0025000002,0.0025000002,0.0025000002,0.0014463407,-0.0014969558,-0.0009429455,0.0003330083,9.8391145e-05,-0.0006138015,0.0025112594,0.0025037837,0.002501776,9.255655e-05,9.954097e-05,3.9488405e-05,2.9738017e-05,2.681867e-05,-4.9078702e-05,0,0,1
2019452000,2019299428,2019300000,0,-0.038269572,-0.21241872,0.4273066,0.0025000002,0.0025000002,0.0025000002,0.0016738542,-0.00044965744,0.002139002,0.00050225307,2.910458e-05,-0.00026633817,0.002511287,0.002503824,0.0025017874,0.00012396423,9.007564e-06,0.00020319941,4.163148e-05,2.2296597e-05,-1.723555e-05,0,0,1
2019524000,2019371200,2019372000,0,-0.035677977,-0.21225472,0.42460594,0.0025000002,0.0025000002,0.0025000002,-0.00088333,-0.00057180226,0.0048632324,0.00032832698,-4.6266854e-05,0.000377552,0.0025113155,0.0025038645,0.0025017974,3.4522498e-05,1.4485695e-05,0.0010503947,3.207221e-05,1.7679478e-05,0.00011677934,0,0,1
2019596000,2019438000,2019444000,0,-0.037095964,-0.21511452,0.42619652,0.0025000002,0.0025000002,0.0025000002,0.00050175865,0.0023024976,0.0032744408,0.0003487667,0.00023051142,0.0007189568,0.0025113442,0.0025039052,0.002501808,1.1138866e-05,0.00023519475,0.00047617021,2.9605118e-05,4.3314656e-05,0.0001591352,0,0,1
2019668000,2019510000,2019516000,0,-0.037838392,-0.21371096,0.42801702,0.0025000002,0.0025000002,0.0025000002,0.0011699835,0.00078214705,0.001387924,0.00045213665,0.00029986596,0.0008031597,0.0025112391,0.0025037392,0.0025017655,6.0566006e-05,2.7103182e-05,8.5551685e-05,3.3502292e-05,4.1274052e-05,0.00014987294,0,0,1
2019740000,2019581333,2019588000,0,-0.037178777,-0.21118733,0.42891014,0.0025000002,0.0025000002,0.0025000002,0.0006505627,-0.0018315464,0.00046095252,0.00047691085,3.370896e-05,0.00076042296,0.0025112687,0.0025037779,0.0025017762,1.8725897e-05,0.00014892187,9.4331435e-06,3.1657404e-05,1.75274e-05,0.00013233852,0,0,1
2019812000,2019652666,2019660000,0,-0.037862696,-0.21280947,0.43083167,0.0025000002,0.0025000002,0.0025000002,0.0013307158,-0.00026877224,-0.0014916062,0.0005835115,-4.1497224e-06,0.0004792567,0.0025112974,0.0025038174,0.0025017874,7.834838e-05,3.2234607e-06,9.880505e-05,3.748694e-05,1.493658e-05,0.000103479404,0,0,1
2019876000,2019720000,2019724000,0,-0.037935536,-0.21206689,0.43127942,0.0025000002,0.0025000002,0.0025000002,0.0014578963,-0.0009493977,-0.0019030571,0.0006872878,-0.00011642775,0.0001965141,0.0025113176,0.0025038526,0.0025017962,9.403924e-05,4.0063493e-05,0.00016084254,4.419885e-05,8.4089e-06,7.210837e-05,0,0,1
2019948000,2019791428,2019796000,0,-0.037548296,-0.21211304,0.42904574,0.0025000002,0.0025000002,0.0025000002,0.0010716439,-0.0008408427,0.00036293268,0.00073533197,-0.00020705053,0.00021730996,0.0025113465,0.002503894,0.0025018062,5.081031e-05,3.141681e-05,5.8483724e-06,4.5025277e-05,3.4307204e-06,6.382593e-05,0,0,1
2020020000,2019863200,2019868000,0,-0.037558813,-0.2120442,0.42958775,0.0025000002,0.0025000002,0.0025000002,0.0009922811,-0.0010175556,-0.00024107099,0.00076758565,-0.00030885817,0.00015976983,0.0025112394,0.002503725,0.0025017632,4.3565113e-05,4.599949e-05,2.5813524e-06,4.484199e-05,-2.7740348e-06,5.549012e-05,0,0,1
2020092000,2019935428,2019940000,0,-0.0376101,-0.21401294,0.42863816,0.0025000002,0.0025000002,0.0025000002,0.0008336239,0.0009228289,0.00067672133,0.00077592116,-0.00015344983,0.00022502366,0.0025112673,0.0025037646,0.002501774,3.0747153e-05,3.7754806e-05,2.034039e-05,4.3062904e-05,2.3416137e-06,5.1053437e-05,0,0,1
2020164000,2020007200,2020012000,0,-0.039929654,-0.21314979,0.42965847,0.0025000002,0.0025000002,0.0025000002,0.003207338,1.937151e-06,-0.00036877394,0.0010811262,-0.00013416103,0.00015047894,0.0025112967,0.0025038044,0.0025017848,0.00045514412,2.0405938e-12,6.0419497e-06,9.478963e-05,2.0476816e-06,4.3886506e-05,0,0,1
2020228000,2020074000,2020076000,0,-0.038188245,-0.21213287,0.43076777,0.0025000002,0.0025000002,0.0025000002,0.0014257547,-0.0011503398,-0.0015487969,0.0011217422,-0.0002540106,-4.978817e-05,0.0025113155,0.0025038393,0.002501795,8.993855e-05,5.8798774e-05,0.000106535146,9.421791e-05,-5.1233537e-06,2.6158621e-05,0,0,1
2020300000,2020145333,2020148000,0,-0.040468633,-0.21452092,0.42746186,0.0025000002,0.0025000002,0.0025000002,0.003589707,0.0013475567,0.0018026531,0.0014298765,-5.428595e-05,0.0001814882,0.0025113423,0.0025038817,0.0025018053,0.0005701243,8.035522e-05,0.0001443108,0.00015363656,5.5489563e-06,4.0910352e-05,0,0,1
2020372000,2020217333,2020220000,0,-0.03651069,-0.21402119,0.42912862,0.0025000002,0.0025000002,0.0025000002,-0.00027394097,0.0007341206,8.711219e-05,0.0012154101,4.496838e-05,0.0001696091,0.0025113714,0.0025039217,0.0025018165,3.3201716e-06,2.3922483e-05,3.3704845e-07,0.00013387977,7.861708e-06,3.5803223e-05,0,0,1
2020436000,2020284000,2020284000,0,-0.036879245,-0.21538155,0.4285589,0.0025000002,0.0025000002,0.0025000002,-9.6418546e-05,0.0018808097,0.00053328276,0.0010610766,0.00026095347,0.00021239385,0.0025112547,0.0025037462,0.0025017727,4.1132762e-07,0.00015698849,1.263039e-05,0.00011808075,2.5406112e-05,3.3076994e-05,0,0,1
2020508000,2020355428,2020356000,0,-0.036536656,-0.2143809,0.43007615,0.0025000002,0.0025000002,0.0025000002,-0.0004952814,0.0008518547,-0.0010026991,0.00086653326,0.00033484798,6.05066e-05,0.0025112834,0.002503786,0.0025017834,1.08534e-05,3.2222197e-05,4.4654036e-05,0.00010196409,2.6258116e-05,2.3360684e-05,0,0,1
2020580000,2020427200,2020428000,0,-0.038282,-0.21275468,0.42995968,0.0025000002,0.0025000002,0.0025000002,0.0011516626,-0.00070637465,-0.0008600354,0.0009023243,0.00020406902,-5.5049837e-05,0.0025113125,0.002503826,0.0025017934,5.8682308e-05,2.2181763e-05,3.285322e-05,9.653112e-05,2.0177673e-05,1.6304402e-05,0,0,1
2020652000,2020498857,2020500000,0,-0.039717413,-0.2147829,0.4300682,0.0025000002,0.0025000002,0.0025000002,0.0026849227,0.0013023168,-0.0009702444,0.0011257724,0.00034155673,-0.00016977522,0.0025113416,0.0025038663,0.0025018044,0.0003189446,7.509931e-05,4.181286e-05,0.00012441057,2.706208e-05,9.019424e-06,0,0,1
2020724000,2020571200,2020572000,0,-0.036405303,-0.21375774,0.4299612,0.0025000002,0.0025000002,0.0025000002,-0.00058888947,0.00014151633,-0.0009267032,0.00090904254,0.00031631137,-0.0002654596,0.0025113707,0.002503906,0.0025018158,1.534314e-05,8.9260715e-07,3.8146878e-05,0.00010674598,2.3754312e-05,3.0576994e-06,0,0,1
2020796000,2020638000,2020644000,0,-0.034694683,-0.21382475,0.42793906,0.0025000002,0.0025000002,0.0025000002,-0.0023257877,-0.0013873279,0.00028526783,0.00052780285,0.000115673,-0.0002005526,0.0025113993,0.0025039439,0.0025018444,0.00023932158,8.525679e-05,3.6143813e-06,6.5960325e-05,1.090685e-05,3.123307e-06,0,0,1
2020868000,2020709333,2020716000,0,-0.038923204,-0.22218677,0.42681122,0.0025000002,0.0025000002,0.0025000002,0.0014053144,0.0025927126,-0.000890702,0.00063736335,0.00042484183,-0.00028671784,0.002511291,0.0025038014,0.0025018915,8.737908e-05,0.00029812733,3.5231813e-05,6.863453e-05,4.6767367e-05,-1.6654692e-06,0,0,1
2020940000,2020781333,2020788000,0,-0.04190415,-0.22100948,0.42155915,0.0025000002,0.0025000002,0.0025000002,0.0019967724,-0.003673181,0.0014519095,0.00080847775,-9.1125374e-05,-6.7877e-05,0.002511327,0.0025039378,0.0025021078,0.00017640518,0.0005990551,9.3604256e-05,8.2200066e-05,-3.4524965e-05,1.0326523e-05,0,0,1
2021004000,2020848000,2020852000,0,-0.04079297,-0.22757848,0.42008862,0.0025000002,0.0025000002,0.0025000002,-0.0010146284,9.5158815e-05,0.001222372,0.0005939937,-6.9152324e-05,8.391285e-05,0.002511363,0.0025040559,0.0025022796,4.554724e-05,4.0591536e-07,6.634365e-05,6.7170906e-05,-3.0415431e-05,1.6916802e-05,0,0,1
2021076000,2020918857,2020924000,0,-0.04220466,-0.22674069,0.42273992,0.0025000002,0.0025000002,0.0025000002,-0.0011969362,-0.0017519444,-0.0021412075,0.00037169646,-0.00027795436,-0.00019230052,0.0025114147,0.0025041294,0.0025023655,6.3384214e-05,0.00013609772,0.00020360971,5.0965893e-05,-4.353313e-05,-1.0455813e-05,0,0,1
2021140000,2020986000,2020988000,0,-0.04649144,-0.22803374,0.42366508,0.0025000002,0.0025000002,0.0025000002,0.0028489241,6.3329935e-06,-0.0028357208,0.00066497084,-0.00024445908,-0.00050523406,0.002511438,0.002504147,0.0025023487,0.00035908463,1.0974389e-09,0.00035702207,8.744349e-05,-3.8379196e-05,-5.1485145e-05,0,0,1
2021212000,2021057000,2021060000,0,-0.04230011,-0.22417492,0.42329848,0.0025000002,0.0025000002,0.0025000002,-0.0010890106,-0.002113536,-0.0014905632,0.00044687506,-0.0004767988,-0.00062776444,0.0025114624,0.00250413,0.0025022575,5.2468065e-05,0.00019810574,9.866871e-05,7.004643e-05,-5.824012e-05,-5.7352103e-05,0,0,1
2021276000,2021124000,2021124000,0,-0.047475442,-0.22097036,0.42224163,0.0025000002,0.0025000002,0.0025000002,0.005050553,-0.0031301826,0.0008419454,0.0009908723,-0.00079063524,-0.000454076,0.0025113411,0.0025038936,0.0025020859,0.001128573,0.0004354905,3.1491192e-05,0.00019512806,-0.00010281821,-4.6853864e-05,0,0,1
2021348000,2021194666,2021196000,0,-0.03971295,-0.22009666,0.4237582,0.0025000002,0.0025000002,0.0025000002,-0.0016977458,-0.0010031164,0.0010206997,0.0006579387,-0.0008168382,-0.00027145294,0.002511357,0.0025038738,0.0025019697,0.00012752472,4.4574525e-05,4.6267367e-05,0.00015517372,-9.560585e-05,-3.532259e-05,0,0,1
2021420000,2021262000,2021268000,0,-0.041415565,-0.21985036,0.42951348,0.0025000002,0.0025000002,0.0025000002,0.001295243,0.0015074611,-0.0031734705,0.0007335771,-0.0005410585,-0.0006158798,0.002511375,0.0025038812,0.0025018924,7.422471e-05,0.00010075101,0.00044726022,0.0001455663,-7.230125e-05,-8.421338e-05,0,0,1
2021492000,2021334000,2021340000,0,-0.037148207,-0.21681471,0.43012124,0.0025000002,0.0025000002,0.0025000002,-0.0015726726,0.000987485,-0.0023568869,0.00044327998,-0.00034855292,-0.00083502324,0.0025113998,0.0025039078,0.0025018465,0.00010942543,4.334202e-05,0.0002466958,0.00011346945,-5.7744754e-05,-0.00010466571,0,0,1
2021564000,2021406000,2021412000,0,-0.0372108,-0.21609479,0.42725253,0.0025000002,0.0025000002,0.0025000002,-0.00019957265,0.002123475,0.0015696883,0.00036236146,-3.7380378e-05,-0.00053232827,0.0025114282,0.0025039506,0.0025018312,1.7621333e-06,0.00020010259,0.00010943198,9.8964774e-05,-2.528845e-05,-7.771635e-05,0,0,1
2021636000,2021477200,2021484000,0,-0.0351188,-0.21079855,0.42822742,0.0025000002,0.0025000002,0.0025000002,-0.0015408747,-0.0016792417,0.0014096498,0.00012512336,-0.00024193578,-0.00029025617,0.0025113262,0.0025037779,0.0025017725,0.0001050483,0.00012501529,8.8258384e-05,7.3534575e-05,-3.7719386e-05,-5.7027624e-05,0,0,1
2021700000,2021544000,2021548000,0,-0.032469835,-0.21121693,0.4292807,0.0025000002,0.0025000002,0.0025000002,-0.0036518127,-0.00011704862,0.0009713769,-0.000320006,-0.00022698939,-0.0001415716,0.0025113479,0.0025038237,0.0025017797,0.0005900212,5.8805637e-07,4.1903295e-05,-4.668531e-06,-3.3343287e-05,-4.5368157e-05,0,0,1
2021772000,2021614545,2021620000,0,-0.034705788,-0.21098384,0.43083262,0.0025000002,0.0025000002,0.0025000002,-0.0008885709,0.000507012,-0.00011372566,-0.00039030617,-0.00013617298,-0.00013812775,0.002511379,0.002503874,0.0025017909,3.493248e-05,1.1429416e-05,5.7434363e-07,-8.410515e-06,-2.780737e-05,-3.982963e-05,0,0,1
2021844000,2021688000,2021692000,0,-0.038386017,-0.21461375,0.42697453,0.0025000002,0.0025000002,0.0025000002,0.0033729463,0.0049014986,0.0041674376,9.173638e-05,0.0005088794,0.000413373,0.0025114121,0.002503925,0.002501805,0.0005033364,0.0010652984,0.00077131105,5.714018e-05,0.000112210735,6.4071006e-05,0,0,1
2021916000,2021758909,2021764000,0,-0.035791267,-0.21009028,0.43322796,0.0025000002,0.0025000002,0.0025000002,0.0011428039,0.0009161532,-0.0017927587,0.00022228285,0.00055939006,0.00013935589,0.002511443,0.0025039748,0.0025018188,5.778001e-05,3.719601e-05,0.0001427494,5.7219648e-05,0.00010289363,3.838315e-05,0,0,1
2021988000,2021832000,2021836000,0,-0.035427995,-0.20652868,0.43543035,0.0025000002,0.0025000002,0.0025000002,0.0012162804,-0.0020450354,-0.0036658943,0.0003490555,0.00022714326,-0.00034595854,0.0025114745,0.0025040268,0.0025018349,6.544796e-05,0.00018569344,0.00059684034,5.826907e-05,6.6087756e-05,-4.2632113e-05,0,0,1
2022060000,2021903636,2021908000,0,-0.032888543,-0.20474394,0.43239275,0.0025000002,0.0025000002,0.0025000002,-0.0009261797,-0.0031264424,-0.00025245547,0.00018924622,-0.00019305962,-0.00033424573,0.0025113698,0.0025038556,0.0025017972,3.7952235e-05,0.00043362638,2.831428e-06,4.621086e-05,3.4648256e-06,-3.764439e-05,0,0,1
2022132000,2021976000,2021980000,0,-0.037385646,-0.20459959,0.43012676,0.0025000002,0.0025000002,0.0025000002,0.003555885,-0.0027944744,0.002242446,0.00061489054,-0.00052219594,-8.477975e-06,0.0025113965,0.0025039066,0.0025018132,0.0005594195,0.00034699874,0.00022332423,0.000111095855,-4.0844297e-05,-4.6501154e-06,0,0,1
2022204000,2022046909,2022052000,0,-0.035421107,-0.20581864,0.432733,0.0025000002,0.0025000002,0.0025000002,0.0017799935,-0.0011458546,-0.00014221668,0.0007596006,-0.0005997731,-2.5085286e-05,0.0025114242,0.0025039571,0.0025018293,0.00014017618,5.8357928e-05,8.978988e-07,0.00011470774,-4.3019554e-05,-4.1840763e-06,0,0,1
2022276000,2022120000,2022124000,0,-0.032411426,-0.20981966,0.42626235,0.0025000002,0.0025000002,0.0025000002,-0.00092441496,0.0032792985,0.006557226,0.0005448243,-0.00010498316,0.00081441895,0.0025114552,0.0025040084,0.002501847,3.7806458e-05,0.00047731856,0.0019096135,9.525636e-05,2.3343437e-05,0.00023989822,0,0,1
2022348000,2022190909,2022196000,0,-0.031647656,-0.20343474,0.4322482,0.0025000002,0.0025000002,0.0025000002,-0.0017435064,-0.0027436018,0.00073984265,0.0002606052,-0.00043260126,0.00080515945,0.0025114806,0.0025040584,0.0025018628,0.00013448528,0.0003337948,2.4310984e-05,6.67216e-05,-2.1014446e-05,0.00021312149,0,0,1
2022420000,2022264000,2022268000,0,-0.03675227,-0.20540676,0.4418424,0.0025000002,0.0025000002,0.0025000002,0.0033066603,-0.0007507354,-0.008850545,0.0006490936,-0.00047339703,-0.00042632536,0.002511364,0.002503874,0.0025018184,0.00048375674,2.5126146e-05,0.0034789818,0.00011990951,-2.1538845e-05,-0.00025776273,0,0,1
2022492000,2022336000,2022340000,0,-0.03295455,-0.20250043,0.43341634,0.0025000002,0.0025000002,0.0025000002,-0.0004628551,-0.00345473,-0.0003196299,0.00050912803,-0.0008486408,-0.00041290102,0.0025113933,0.0025039196,0.0025018319,9.478353e-06,0.0005295507,4.5385873e-06,0.00010362293,-8.548438e-05,-0.00022588836,0,0,1
2022556000,2022404000,2022404000,0,-0.030466814,-0.19993438,0.43669987,0.0025000002,0.0025000002,0.0025000002,-0.002779208,-0.0060760975,-0.0036170185,0.00011545405,-0.0014742868,-0.0007964972,0.002511414,0.002503954,0.0025018398,0.00034172853,0.001637457,0.00058104383,5.030621e-05,-0.0002712839,-0.00026840696,0,0,1
2022628000,2022473600,2022476000,0,-0.034445688,-0.20478795,0.43244645,0.0025000002,0.0025000002,0.0025000002,0.00095847517,-0.0015704185,0.00044989586,0.00021846365,-0.0014860989,-0.0006442071,0.0025114391,0.002503987,0.0025018428,4.064401e-05,0.00010950984,8.9866035e-06,4.9125578e-05,-0.00025151655,-0.00023451196,0,0,1
2022700000,2022546000,2022548000,0,-0.03305299,-0.20420808,0.4333725,0.0025000002,0.0025000002,0.0025000002,-0.00062690396,-0.0027087778,-0.0007610321,0.00011153735,-0.001640708,-0.00065898313,0.0025114638,0.002504016,0.0025018433,1.7387318e-05,0.00032550836,2.57216e-05,4.0712694e-05,-0.00026087541,-0.00020810311,0,0,1
2022772000,2022616800,2022620000,0,-0.034414656,-0.20567761,0.4325305,0.0025000002,0.0025000002,0.0025000002,0.0007551237,-0.0016283542,-0.00010687113,0.00019136551,-0.0016392269,-0.0005905056,0.0025114932,0.0025040484,0.002501848,2.5226771e-05,0.00011771526,5.075872e-07,3.8791874e-05,-0.00024311834,-0.0001823537,0,0,1
2022836000,2022684000,2022684000,0,-0.042345263,-0.20697284,0.431401,0.0025000002,0.0025000002,0.0025000002,0.008651581,-0.0006412864,0.00086793303,0.0011937041,-0.0015215393,-0.0004177322,0.0025113623,0.0025038533,0.0025017979,0.0033116092,1.8512357e-05,3.3444816e-05,0.00042654455,-0.00021650776,-0.0001567866,0,0,1
2022908000,2022754545,2022756000,0,-0.033474967,-0.20711797,0.434173,0.0025000002,0.0025000002,0.0025000002,-0.00019994564,-0.00073185563,-0.0020154715,0.0010213864,-0.0014238855,-0.00061528204,0.0025113898,0.0025038891,0.0025018048,1.7687534e-06,2.3760971e-05,0.00018040498,0.00037358576,-0.0001926756,-0.00015970689,0,0,1
2022980000,2022828000,2022828000,0,-0.036306698,-0.2073543,0.4305403,0.0025000002,0.0025000002,0.0025000002,0.0022281518,-0.00052540004,0.0015720725,0.0011759633,-0.0013089556,-0.00033510212,0.0025114128,0.00250393,0.0025018137,0.00021964886,1.230733e-05,0.00010975797,0.00035386768,-0.00016957187,-0.00012519059,0,0,1
2023052000,2022899636,2022900000,0,-0.03380432,-0.20836568,0.43258312,0.0025000002,0.0025000002,0.0025000002,-0.0008378156,0.00019694865,-0.00065529346,0.00092360156,-0.0011201849,-0.00037523237,0.0025114354,0.002503965,0.00250182,3.1055057e-05,1.7288335e-06,1.9073153e-05,0.00030563012,-0.0001481049,-0.00011189222,0,0,1
2023124000,2022972000,2022972000,0,-0.034133695,-0.21084471,0.4339389,0.0025000002,0.0025000002,0.0025000002,-0.0008726168,0.0023269206,-0.002209872,0.0006965056,-0.00068430783,-0.00060718774,0.0025114608,0.002504,0.002501826,3.3688233e-05,0.00024035951,0.00021689036,0.0002627301,-9.8991324e-05,-0.00012516713,0,0,1
2023196000,2023043636,2023044000,0,-0.036177445,-0.2089127,0.43131444,0.0025000002,0.0025000002,0.0025000002,0.0007635836,-0.00010994077,0.0001359582,0.00070491165,-0.00061238144,-0.0005140654,0.0025114852,0.0025040335,0.002501832,2.5795267e-05,5.403777e-07,8.2027975e-07,0.00023303801,-8.66537e-05,-0.00010937871,0,0,1
2023268000,2023112000,2023116000,0,-0.03527065,-0.20873825,0.43273395,0.0025000002,0.0025000002,0.0025000002,-0.00044156786,-0.00044737104,-0.0013874604,0.0005670107,-0.0005925337,-0.00061911915,0.0025113614,0.0025038493,0.0025017855,8.62667e-06,8.881473e-06,8.549655e-05,0.00020397008,-7.72991e-05,-0.00010650611,0,0,0
2023340000,2023182000,2023188000,0,-0.038125735,-0.20842683,0.43243217,0.0025000002,0.0025000002,0.0025000002,0.0023623258,-0.0017288327,-0.0047626495,0.000787488,-0.0007534879,-0.0011251959,0.009143709,0.0053744293,0.005249017,6.7813264e-05,7.4215284e-05,0.00047546954,0.00018724907,-7.692038e-05,-0.00015181741,0,0,1
2023404000,2023252000,2023252000,0,-0.033717994,-0.20886686,0.43305838,0.0025000002,0.0025000002,0.0025000002,-0.0039417017,-0.00059631467,-0.0029684007,0.0002067103,-0.00072438014,-0.0013507297,0.004308321,0.0038369654,0.003809185,0.00040069778,7.72045e-06,0.0002558538,0.00011504507,-6.8422145e-05,-0.00016459382,0,0,1
2023476000,2023320000,2023324000,0,-0.03459366,-0.20969418,0.43193865,0.0025000002,0.0025000002,0.0025000002,-0.0017253079,1.6018748e-05,-0.0010505915,-2.4587629e-05,-0.00063392415,-0.0013147198,0.0035494186,0.0033699947,0.0033591639,9.3182316e-05,3.207892e-08,3.6463083e-05,9.0116446e-05,-6.022692e-05,-0.00014925422,0,0,1
2023548000,2023389333,2023396000,0,-0.034180135,-0.20899116,0.43217176,0.0025000002,0.0025000002,0.0025000002,-0.0014957973,-0.0009254664,-0.0011166036,-0.00020375058,-0.0006685467,-0.0012903867,0.0032392466,0.0031451555,0.003139402,7.674657e-05,2.9785657e-05,4.3993332e-05,6.979598e-05,-5.6519802e-05,-0.00013643561,0,0,1
2023612000,2023456500,2023460000,0,-0.03545526,-0.21177371,0.42875218,0.0025000002,0.0025000002,0.0025000002,-0.0001749545,0.0014618337,0.0022188127,-0.0002003404,-0.00041618999,-0.0008749632,0.0030705428,0.0030127743,0.0030091372,1.1076246e-06,7.886988e-05,0.00018156997,6.139919e-05,-4.0486222e-05,-9.8775665e-05,0,0,1
2023676000,2023524000,2023524000,0,-0.035678037,-0.21020435,0.43181247,0.0025000002,0.0025000002,0.0025000002,-0.00014324262,-0.0009875,-0.0015504956,-0.00019354903,-0.000484105,-0.0009552278,0.0029646074,0.0029255156,0.0029229622,7.69015e-07,3.7012207e-05,9.13008e-05,5.400473e-05,-4.0073013e-05,-9.788659e-05,0,0,1
2023748000,2023595555,2023596000,0,-0.037728716,-0.21245044,0.43013912,0.0025000002,0.0025000002,0.0025000002,0.0015887377,0.0009341091,8.484721e-05,2.9581774e-05,-0.00030687856,-0.00082507136,0.0028917906,0.002863676,0.0028617429,9.6982876e-05,3.3667573e-05,2.7666692e-07,5.938532e-05,-3.084117e-05,-8.559718e-05,0,0,1
2023820000,2023668000,2023668000,0,-0.040989548,-0.21046162,0.4307823,0.0025000002,0.0025000002,0.0025000002,0.004673435,-0.0016686469,-0.00081667304,0.00061727833,-0.0004799838,-0.00082394195,0.0028387466,0.0028175549,0.0028160047,0.00085487624,0.00011060344,2.6282136e-05,0.00016005759,-4.0935374e-05,-7.809065e-05,0,0,1
2023892000,2023739555,2023740000,0,-0.035408642,-0.21265729,0.42960405,0.0025000002,0.0025000002,0.0025000002,-0.0014092203,0.00030738115,0.00025507808,0.00036357378,-0.00038122077,-0.0006888608,0.0027982427,0.0027818996,0.0027805376,7.885511e-05,3.8110832e-06,2.5991694e-06,0.00013014727,-3.5333407e-05,-6.79888e-05,0,0,1
2023964000,2023810666,2023812000,0,-0.035118148,-0.20958039,0.43146288,0.0025000002,0.0025000002,0.0025000002,-0.0020798352,-0.003002748,-0.0017767847,5.9336482e-05,-0.00070742506,-0.000824244,0.0027665093,0.0027533453,0.0027522354,0.00017373335,0.0003634492,0.00012736072,9.2310045e-05,-7.618823e-05,-7.538141e-05,0,0,1
2024036000,2023877500,2023884000,0,-0.038993828,-0.21239987,0.4283365,0.0025000002,0.0025000002,0.0025000002,0.0014798435,-0.0002027303,0.0013180971,0.00022682498,-0.0006480438,-0.0005716273,0.0027408388,0.0027300573,0.0027291218,8.877804e-05,1.6904081e-06,7.075103e-05,9.18936e-05,-6.740438e-05,-5.8151294e-05,0,0,1
2024108000,2023950000,2023956000,0,-0.039312117,-0.21125183,0.4275502,0.0025000002,0.0025000002,0.0025000002,0.0013288708,-0.0014686435,0.0018947423,0.00036638536,-0.00075206516,-0.00025924185,0.0027196882,0.0027107212,0.0027098942,7.2144605e-05,8.850839e-05,0.0001472611,8.939263e-05,-7.007694e-05,-3.213837e-05,0,0,1
2024180000,2024021000,2024028000,0,-0.037308726,-0.21387562,0.43181494,0.0025000002,0.0025000002,0.0025000002,-0.00081585976,0.0006907582,-0.0028109848,0.00021938114,-0.0005726099,-0.00057655666,0.0027019621,0.0026943812,0.0026936338,2.7372173e-05,1.9699479e-05,0.00032598115,7.4873715e-05,-5.8913844e-05,-6.867574e-05,0,0,1
2024244000,2024088000,2024092000,0,-0.040785875,-0.21842006,0.4290175,0.0025000002,0.0025000002,0.0025000002,0.0026545809,0.0048678517,2.193451e-05,0.00050713844,7.012655e-05,-0.0005058829,0.0026869175,0.002680378,0.002679717,0.0002914037,0.0009818039,1.922611e-08,0.00010046015,6.406337e-05,-6.055835e-05,0,0,1
2024316000,2024159111,2024164000,0,-0.037636895,-0.2115737,0.42931512,0.0025000002,0.0025000002,0.0025000002,-0.0006832971,-0.0023899227,-0.00032019615,0.0003589132,-0.00023615285,-0.0004827407,0.0026739736,0.0026682818,0.0026676704,1.9400795e-05,0.00023779707,4.265641e-06,8.553585e-05,2.647769e-05,-5.354915e-05,0,0,1
2024380000,2024226000,2024228000,0,-0.03850309,-0.21579623,0.42808336,0.0025000002,0.0025000002,0.0025000002,0.00018031205,0.0019765943,0.0009242594,0.0003378395,2.4931825e-05,-0.00031673993,0.0026626745,0.0026576864,0.0026571397,1.356716e-06,0.00016333256,3.5711393e-05,7.56033e-05,4.2625623e-05,-4.301702e-05,0,0,1
2024452000,2024298000,2024300000,0,-0.03686515,-0.21308103,0.43208376,0.0025000002,0.0025000002,0.0025000002,-0.001512216,-0.0007136762,-0.0030625165,0.000104965395,-6.798606e-05,-0.00066236174,0.0026527822,0.0026483524,0.002647857,9.578192e-05,2.1343432e-05,0.0003935672,5.4030337e-05,3.4573575e-05,-8.714221e-05,0,0,1
2024524000,2024370000,2024372000,0,-0.03812065,-0.2136957,0.4287287,0.0025000002,0.0025000002,0.0025000002,-0.0003661175,-1.771748e-05,0.00046679378,4.5668246e-05,-6.164775e-05,-0.0005202323,0.0026440055,0.002640079,0.0026396092,5.632953e-06,1.3083625e-08,9.171452e-06,4.6520272e-05,3.022001e-05,-7.501881e-05,0,0,1
2024596000,2024441600,2024444000,0,-0.037481654,-0.21498111,0.42920503,0.0025000002,0.0025000002,0.0025000002,-0.0011986634,0.00095906854,-0.00020998716,-0.00011019973,6.624221e-05,-0.00048138615,0.0026361987,0.0026326785,0.0026322322,6.0558326e-05,3.8841357e-05,1.8635604e-06,3.310735e-05,3.129994e-05,-6.585521e-05,0,0,1
2024668000,2024512000,2024516000,0,-0.040025078,-0.21060619,0.4330016,0.0025000002,0.0025000002,0.0025000002,0.0012862738,-0.0037107766,-0.0041323304,6.215605e-05,-0.00039995855,-0.00093196804,0.002629203,0.002626021,0.002625596,6.9919806e-05,0.0005827085,0.00072256377,3.765082e-05,-4.448231e-05,-0.0001469076,0,0,1
2024732000,2024578666,2024580000,0,-0.039598186,-0.21311188,0.42845932,0.0025000002,0.0025000002,0.0025000002,0.0005653605,-0.0013953596,0.00039938092,0.000121356046,-0.00051708624,-0.0007753292,0.0026228633,0.0026200179,0.0026195936,1.3540439e-05,8.259348e-05,6.7686287e-06,3.481433e-05,-4.8965936e-05,-0.0001288282,0,0,1
2024804000,2024646000,2024652000,0,-0.040706392,-0.22040236,0.43192422,0.0025000002,0.0025000002,0.0025000002,0.0013825638,0.0058371574,-0.003170222,0.0002710424,0.00023703434,-0.0010595715,0.002617131,0.0026145598,0.0026141445,8.115259e-05,0.0014478419,0.00042718707,4.0313982e-05,0.00012868259,-0.0001642389,0,0,1
2024876000,2024717200,2024724000,0,-0.04031786,-0.21427868,0.4292349,0.0025000002,0.0025000002,0.0025000002,0.00089629495,-0.0006109923,-0.00038039684,0.00034898004,0.00013130474,-0.000974906,0.002611955,0.0026095551,0.0026091693,3.4173834e-05,1.5904758e-05,6.1604296e-06,3.9548613e-05,0.00011065979,-0.00014453444,0,0,1
2024940000,2024784000,2024788000,0,-0.03185106,-0.20732547,0.43366215,0.0025000002,0.0025000002,0.0025000002,-0.007247761,-0.007636875,-0.004807502,-0.00054633094,-0.00078410166,-0.0014266403,0.002607197,0.0026049702,0.0026046042,0.0022386767,0.0024870264,0.0009861068,-0.00022895075,-0.00019548951,-0.00024371763,0,0,1
2025012000,2024854909,2024860000,0,-0.037956566,-0.21506672,0.4291294,0.0025000002,0.0025000002,0.0025000002,-0.0006508948,0.00037005544,-8.5264444e-05,-0.00055931817,-0.00064074795,-0.0012600389,0.0026028277,0.002600746,0.0026004098,1.8085633e-05,5.8513115e-06,3.107818e-07,-0.00020276054,-0.00017048224,-0.0002134856,0,0,1
2025084000,2024928000,2024932000,0,-0.04274264,-0.2068165,0.4288925,0.0025000002,0.0025000002,0.0025000002,0.0040598214,-0.0076800883,0.00025439262,2.9798597e-05,-0.0015385824,-0.0010668639,0.0025988093,0.0025968633,0.0025965455,0.00070468814,0.0025239736,2.773949e-06,-8.702616e-05,-0.0004706423,-0.00018590425,0,0,1
2025156000,2025000000,2025004000,0,-0.040927537,-0.21407312,0.42942026,0.0025000002,0.0025000002,0.0025000002,0.002395844,-0.00019554794,-0.000284791,0.0003276225,-0.0013695667,-0.00096841226,0.0025950621,0.0025932845,0.0025929585,0.00024576887,1.6433864e-06,3.4737495e-06,-4.513588e-05,-0.00041160747,-0.00016294097,0,0,1
2025228000,2025072000,2025076000,0,-0.0342788,-0.21453045,0.42949462,0.0025000002,0.0025000002,0.0025000002,-0.0042342003,0.00011110306,-0.00041875243,-0.00024659294,-0.0011831495,-0.00089923484,0.002591619,0.0025899555,0.0025896311,0.0007686509,5.325341e-07,7.5267612e-06,-0.0001362077,-0.00035972972,-0.00014337835,0,0,1
2025300000,2025143636,2025148000,0,-0.03807142,-0.21242012,0.42710933,0.0025000002,0.0025000002,0.0025000002,-0.0002026476,-0.0019503683,0.002015978,-0.00024108583,-0.001279297,-0.000533918,0.002588424,0.002586853,0.0025865368,1.7628079e-06,0.00016338973,0.00017457214,-0.00011935941,-0.00033512487,-0.00010353359,0,0,1
2025372000,2025216000,2025220000,0,-0.04035793,-0.2152694,0.4240782,0.0025000002,0.0025000002,0.0025000002,0.0024663322,0.0008429736,0.004951477,0.00010121317,-0.0010110012,0.00015960837,0.0025854325,0.0025839685,0.002583647,0.00026141314,3.0542975e-05,0.0010543976,-7.121831e-05,-0.00028889347,4.2863714e-05,0,0,1
2025444000,2025286545,2025292000,0,-0.037695095,-0.21490295,0.430031,0.0025000002,0.0025000002,0.0025000002,-0.00020698839,0.0004914254,-0.0011337101,6.31056e-05,-0.0008252389,-3.02025e-07,0.0025826388,0.0025812723,0.0025809472,1.8432567e-06,1.039359e-05,5.533128e-05,-6.2640436e-05,-0.00025188812,3.07224e-05,0,0,1
2025508000,2025356000,2025356000,0,-0.034490906,-0.20880473,0.42749557,0.0025000002,0.0025000002,0.0025000002,-0.0031363468,-0.005666688,0.0014388263,-0.0003271236,-0.0014157165,0.00017520275,0.0025800278,0.0025787393,0.0025784166,0.0004236247,0.0013835068,8.91891e-05,-0.000106668784,-0.0003899088,3.785344e-05,0,0,1
2025580000,2025424800,2025428000,0,-0.03822751,-0.2134291,0.42743593,0.0025000002,0.0025000002,0.0025000002,0.00077400124,-0.00094793737,0.0014215112,-0.0001939355,-0.0013591473,0.0003259431,0.0025775675,0.0025763686,0.002576041,2.582443e-05,3.8761184e-05,8.714886e-05,-9.064288e-05,-0.00034743524,4.3816035e-05,0,0,1
2025644000,2025492000,2025492000,0,-0.036302503,-0.21620391,0.42908213,0.0025000002,0.0025000002,0.0025000002,-0.0011398706,0.0018207878,-0.00028127432,-0.0003060068,-0.0009823937,0.0002540152,0.0025752669,0.0025741265,0.0025738038,5.6059132e-05,0.00014310912,3.412692e-06,-8.6545515e-05,-0.00028931716,3.822053e-05,0,0,1
2025716000,2025562909,2025564000,0,-0.03635784,-0.21449421,0.42909965,0.0025000002,0.0025000002,0.0025000002,-0.0010154028,-0.0002336204,-0.00043651462,-0.00039411642,-0.00088938384,0.00016825262,0.0025731055,0.002572025,0.0025716964,4.4522203e-05,2.356235e-06,8.231427e-06,-8.132606e-05,-0.00025367556,3.2451026e-05,0,0,1
2025788000,2025636000,2025636000,0,-0.035300236,-0.21486713,0.4279472,0.0025000002,0.0025000002,0.0025000002,-0.0017083952,5.9440732e-05,0.0007133484,-0.00056173716,-0.00076836336,0.00023777582,0.0025710654,0.0025700382,0.002569711,0.00012613078,1.5311933e-07,2.2004024e-05,-8.7040375e-05,-0.0002213027,3.1118634e-05,0,0,1
2025860000,2025706909,2025708000,0,-0.03769645,-0.21538323,0.42713735,0.0025000002,0.0025000002,0.0025000002,0.0010626786,0.0005477816,0.0015188158,-0.00035997873,-0.0006049067,0.00039688483,0.0025691404,0.0025681579,0.002567835,4.8839764e-05,1.297715e-05,9.981517e-05,-7.016356e-05,-0.00019220429,3.9650997e-05,0,0,1
2025932000,2025780000,2025780000,0,-0.03676292,-0.20907581,0.4317127,0.0025000002,0.0025000002,0.0025000002,0.0002150141,-0.005744353,-0.003071189,-0.00028664517,-0.0012603889,-4.5480323e-05,0.0025673155,0.0025663795,0.002566054,2.0008388e-06,0.0014286521,0.00040852898,-6.0959843e-05,-0.00034989862,-1.7509072e-05,0,0,1
2026004000,2025851636,2025852000,0,-0.035262294,-0.21384394,0.42868727,0.0025000002,0.0025000002,0.0025000002,-0.0010831461,-0.0006569773,0.00013807416,-0.00038646068,-0.0011847612,-2.2477443e-05,0.0025655788,0.0025646929,0.002564368,5.080965e-05,1.8694816e-05,8.260694e-07,-5.9687845e-05,-0.00030839298,-1.5211358e-05,0,0,1
2026076000,2025924000,2025924000,0,-0.039410572,-0.21529293,0.42840183,0.0025000002,0.0025000002,0.0025000002,0.0032780454,0.001083672,0.0005761087,7.684302e-05,-0.00089798955,5.3193886e-05,0.0025639406,0.0025630854,0.0025627664,0.0004656713,5.088877e-05,1.4386745e-05,6.7333312e-06,-0.00026296897,-1.1469268e-05,0,0,1
2026148000,2025996000,2025996000,0,-0.035849433,-0.21326363,0.4288895,0.0025000002,0.0025000002,0.0025000002,-0.00010571385,-0.0008933544,0.00013646483,5.3863834e-05,-0.00089740346,6.366563e-05,0.002562389,0.0025615606,0.0025612435,4.8459196e-07,3.4616263e-05,8.069509e-07,5.8247815e-06,-0.00023422527,-9.92401e-06,0,0,1
2026220000,2026068000,2026068000,0,-0.039652728,-0.21093619,0.42675298,0.0025000002,0.0025000002,0.0025000002,0.0042847022,-0.0030303597,0.002404809,0.00058641686,-0.0011659137,0.0003583001,0.002560915,0.0025601052,0.002559804,0.00079653267,0.0003986097,0.00025093113,0.00010535444,-0.00025491702,2.29109e-05,0,0,1
2026292000,2026139272,2026140000,0,-0.035863098,-0.21722245,0.42922348,0.0025000002,0.0025000002,0.0025000002,0.00032699527,0.0036810637,5.2034855e-05,0.00055405137,-0.0005612086,0.00032013148,0.002559493,0.002558727,0.0025584153,4.641801e-06,0.0005883982,1.1908399e-07,9.2789516e-05,-0.00014970487,2.0067388e-05,0,0,1
2026364000,2026212000,2026212000,0,-0.03416372,-0.21812376,0.43312562,0.0025000002,0.0025000002,0.0025000002,-0.0015225927,0.004548818,-0.0038377643,0.00029034822,8.769863e-05,-0.0002078003,0.0025581438,0.0025574164,0.0025570898,0.00010069317,0.00089901534,0.000639826,6.822007e-05,-1.6532882e-05,-6.372933e-05,0,0,1
2026436000,2026283636,2026284000,0,-0.035085797,-0.2154931,0.4290873,0.0025000002,0.0025000002,0.0025000002,-0.0008524115,0.0020593554,0.00038519502,0.00014714044,0.00033478875,-0.00013346088,0.002556861,0.002556156,0.0025558157,3.157541e-05,0.00018435561,6.4575843e-06,5.571395e-05,8.64196e-06,-5.4933676e-05,0,0,1
2026508000,2026356000,2026356000,0,-0.033030458,-0.21430314,0.42838216,0.0025000002,0.0025000002,0.0025000002,-0.0034747687,0.0009443611,0.0010930002,-0.00031077772,0.0004118801,2.162384e-05,0.0025556313,0.002554959,0.0025545922,0.0005249417,3.8798727e-05,5.1978306e-05,-1.7698374e-05,1.2454682e-05,-4.1416788e-05,0,0,1
2026580000,2026427272,2026428000,0,-0.035474874,-0.2137862,0.42905506,0.0025000002,0.0025000002,0.0025000002,-0.0009681032,0.00056913495,0.0004775226,-0.00039278576,0.00043150663,7.850383e-05,0.0025544595,0.0025538094,0.002553436,4.0766343e-05,1.4095808e-05,9.92314e-06,-2.0576337e-05,1.265943e-05,-3.501161e-05,0,0,1
2026652000,2026500000,2026500000,0,-0.040450767,-0.21784925,0.43097192,0.0025000002,0.0025000002,0.0025000002,0.0038083156,0.004724145,-0.0014162064,0.00014069205,0.0009765764,-0.0001112576,0.0025533417,0.0025527014,0.0025523202,0.0006311236,0.00097130914,8.726888e-05,6.217994e-05,0.00013439379,-4.1647512e-05,0,0,1
2026724000,2026571272,2026572000,0,-0.035815485,-0.21214025,0.42862982,0.0025000002,0.0025000002,0.0025000002,-0.00095420185,-0.0011633486,0.0009099543,4.0928862e-06,0.00070960587,1.6143298e-05,0.002552274,0.002551642,0.0025512537,3.9637907e-05,5.892722e-05,3.6057816e-05,4.947713e-05,0.000110275025,-3.1952983e-05,0,0,1
2026796000,2026644000,2026644000,0,-0.031607043,-0.20895424,0.42653924,0.0025000002,0.0025000002,0.0025000002,-0.0050737048,-0.0043915957,0.002955526,-0.00064071245,6.1845e-05,0.00038936065,0.0025512502,0.0025506197,0.002550231,0.001121127,0.0008400998,0.00038049847,-9.9172314e-05,-1.0408556e-05,2.0422263e-05,0,0,1
2026868000,2026715636,2026716000,0,-0.03634429,-0.21332666,0.43214267,0.0025000002,0.0025000002,0.0025000002,-0.00037195388,4.707277e-05,-0.0027282536,-0.00060703227,5.99941e-05,-1.3295794e-06,0.0025502606,0.0025496373,0.0025492464,6.027693e-06,9.6575256e-08,0.00032442302,-8.749966e-05,-9.0920785e-06,-2.2792887e-05,0,0,1
2026940000,2026788000,2026788000,0,-0.033073436,-0.2057613,0.4305062,0.0025000002,0.0025000002,0.0025000002,-0.0035973715,-0.0075502396,-0.0010508597,-0.000985101,-0.00090215285,-0.00013410747,0.002549315,0.002548699,0.002548303,0.00056403305,0.0024851153,4.821213e-05,-0.0001477478,-0.0003221358,-2.6006643e-05,0,0,1
2027012000,2026859272,2026860000,0,-0.038615435,-0.21353778,0.42674893,0.0025000002,0.0025000002,0.0025000002,0.001767038,0.0006058365,0.0028236806,-0.00064174365,-0.0007140247,0.00023491403,0.0025484012,0.0025477973,0.0025473947,0.00013613867,1.6003012e-05,0.00034778466,-0.000112330075,-0.00027994954,2.0627625e-05,0,0,1
2027084000,2026932000,2026932000,0,-0.034463983,-0.21069345,0.4281278,0.0025000002,0.0025000002,0.0025000002,-0.0027267695,-0.0023536235,0.001313597,-0.00090651115,-0.00092221866,0.00037185362,0.0025475172,0.002546937,0.00254652,0.00032429275,0.00024164713,7.5255935e-05,-0.0001392462,-0.0002750857,2.7564614e-05,0,0,1
2027156000,2027003272,2027004000,0,-0.03735707,-0.21386683,0.4283713,0.0025000002,0.0025000002,0.0025000002,-0.00020089,0.00089748204,0.00102669,-0.0008184777,-0.0006951976,0.00045355974,0.0025466678,0.0025461067,0.0025456797,1.7607668e-06,3.5147343e-05,4.6014105e-05,-0.0001220935,-0.00023638098,2.9866376e-05,0,0,1
2027228000,2027076000,2027076000,0,-0.038551323,-0.21131462,0.4268432,0.0025000002,0.0025000002,0.0025000002,0.0008275778,-0.0019442737,0.0023835897,-0.00060945295,-0.0008538212,0.0006986223,0.0025458522,0.0025452948,0.0025448652,2.9891104e-05,0.00016503161,0.00024802212,-0.000102793696,-0.00022732066,5.7568934e-05,0,0,1
2027300000,2027146909,2027148000,0,-0.03936555,-0.21483123,0.4280914,0.0025000002,0.0025000002,0.0025000002,0.0016588325,0.0014311075,0.0010072589,-0.00032772354,-0.00057003857,0.00073696824,0.0025450655,0.0025445237,0.0025440822,0.00012013335,8.9418594e-05,4.4319302e-05,-7.510534e-05,-0.00018798048,5.592328e-05,0,0,1
2027372000,2027216000,2027220000,0,-0.039299276,-0.21205014,0.42404494,0.0025000002,0.0025000002,0.0025000002,0.0016764115,-0.0013908297,0.005038351,-8.440977e-05,-0.00066969614,0.0012591698,0.0025443095,0.0025437763,0.002543327,0.00012272946,8.450281e-05,0.0011089593,-5.108703e-05,-0.00017541768,0.00018376805,0,0,1
2027444000,2027285600,2027292000,0,-0.038010996,-0.21465874,0.42888466,0.0025000002,0.0025000002,0.0025000002,0.0004602169,0.0013758093,0.00018975139,-1.7861275e-05,-0.00041976143,0.0011285085,0.0025435782,0.0025430564,0.0025425977,9.25204e-06,8.269482e-05,1.575076e-06,-4.371414e-05,-0.00014387866,0.0001615057,0,0,1
2027516000,2027358000,2027364000,0,-0.034187116,-0.2131116,0.4264378,0.0025000002,0.0025000002,0.0025000002,-0.0032387257,-3.6031008e-05,0.002725333,-0.00042525222,-0.00037121153,0.001330477,0.0025428762,0.00254236,0.0025418936,0.00045833248,5.6395614e-08,0.00032465675,-9.6157135e-05,-0.00012568731,0.00018214186,0,0,1
2027588000,2027429600,2027436000,0,-0.037605982,-0.21255071,0.42898604,0.0025000002,0.0025000002,0.0025000002,0.00036226748,-0.00035859644,0.00026354194,-0.0003266056,-0.00036963314,0.0011968195,0.0025422026,0.0025416808,0.0025412128,5.735959e-06,5.6219046e-06,3.0348506e-06,-8.339376e-05,-0.00011064763,0.00015970648,0,0,1
2027652000,2027500000,2027500000,0,-0.03707188,-0.21644107,0.43133828,0.0025000002,0.0025000002,0.0025000002,-0.00018704118,0.0035368204,-0.002094537,-0.00030938027,0.00011250848,0.000790635,0.002541542,0.0025410124,0.0025405493,1.5294478e-06,0.0005469833,0.00019180737,-7.328989e-05,-2.9481394e-05,0.000116321884,0,0,1
2027724000,2027567111,2027572000,0,-0.037177734,-0.21461938,0.42735904,0.0025000002,0.0025000002,0.0025000002,-0.00013546785,0.001702413,0.001935184,-0.00028879975,0.00030065642,0.0009260992,0.00254091,0.0025403835,0.0025399113,8.0249197e-07,0.00012676322,0.00016385503,-6.471185e-05,-1.099166e-05,0.00012194688,0,0,1
2027788000,2027634000,2027636000,0,-0.039781675,-0.21296638,0.42586052,0.0025000002,0.0025000002,0.0025000002,0.0025394326,-2.5808811e-05,0.003385067,4.4912216e-05,0.00026212353,0.0012162391,0.0025402897,0.002539773,0.002539292,0.000282064,2.9375313e-08,0.0005013906,-2.3794688e-05,-9.698186e-06,0.00016671863,0,0,1
2027860000,2027705600,2027708000,0,-0.03735875,-0.2159239,0.4272965,0.0025000002,0.0025000002,0.0025000002,4.3115768e-05,0.0031403154,0.0019986033,4.468719e-05,0.00062265294,0.0013142828,0.0025396915,0.0025391865,0.0025386938,8.132963e-08,0.00043152887,0.00017488355,-2.080392e-05,4.5570978e-05,0.00016774138,0,0,1
2027932000,2027778000,2027780000,0,-0.043213166,-0.20885143,0.42766082,0.0025000002,0.0025000002,0.0025000002,0.0060727415,-0.003997296,0.0016110837,0.0008071455,3.826263e-05,0.0013517748,0.0025391192,0.0025386128,0.0025381134,0.0016137786,0.0006994485,0.000113572794,0.0001859462,-4.8662794e-05,0.00016088987,0,0,1
2028004000,2027848800,2027852000,0,-0.037321534,-0.21168151,0.42880613,0.0025000002,0.0025000002,0.0025000002,0.00034694857,-0.0011829138,0.00042581558,0.0007500643,-0.00011320933,0.0012369008,0.0025385604,0.0025380598,0.002537551,5.2686605e-06,6.12592e-05,7.932975e-06,0.0001635356,-5.0225208e-05,0.00014191764,0,0,1
2028076000,2027920000,2027924000,0,-0.034031563,-0.21521948,0.42942694,0.0025000002,0.0025000002,0.0025000002,-0.0027768759,0.002047211,-0.00035086274,0.00031043176,0.00015609682,0.0010390083,0.0025380112,0.0025375108,0.002537003,0.00033758016,0.00018353088,5.3860945e-06,0.0001010716,-2.1087546e-05,0.00012355625,0,0,1
2028140000,2027986666,2027988000,0,-0.03873188,-0.21207213,0.42980614,0.0025000002,0.0025000002,0.0025000002,0.0018827821,-0.0010415465,-0.00068718195,0.0004954125,1.51920685e-05,0.0008359126,0.0025374817,0.0025369872,0.0025364717,0.0001552225,4.751653e-05,2.0694064e-05,0.00010744224,-2.419681e-05,0.00010658578,0,0,1
2028212000,2028057333,2028060000,0,-0.03911604,-0.2126933,0.42641836,0.0025000002,0.0025000002,0.0025000002,0.0023040855,-0.00034590065,0.0027459562,0.00071938464,-2.953691e-05,0.0010724316,0.0025369718,0.002536485,0.0025359576,0.00023250862,5.2446035e-06,0.00033035973,0.00012292949,-2.1849915e-05,0.00013429622,0,0,1
2028284000,2028126000,2028132000,0,-0.035984937,-0.21226102,0.4310736,0.0025000002,0.0025000002,0.0025000002,-0.0008795298,-0.0008097738,-0.0019679964,0.0005263144,-0.00012374905,0.00070528657,0.0025364775,0.0025359967,0.002535457,3.388657e-05,2.8728806e-05,0.00016974207,0.00010399382,-2.2680548e-05,9.758335e-05,0,0,1
2028356000,2028198000,2028204000,0,-0.03990027,-0.21548219,0.42863172,0.0025000002,0.0025000002,0.0025000002,0.00319227,0.002344206,0.0004735589,0.0008618892,0.0001868876,0.0006761598,0.002536002,0.0025355155,0.0025349713,0.0004464852,0.00024079009,9.843302e-06,0.00014710461,1.0483587e-05,8.653915e-05,0,0,1
2028428000,2028269500,2028276000,0,-0.036266487,-0.21264209,0.42958105,0.0025000002,0.0025000002,0.0025000002,-0.0003430833,-0.00055859983,-0.0004849136,0.00071113586,9.36221e-05,0.00053088705,0.0025355287,0.0025350333,0.0025344945,5.15808e-06,1.367575e-05,1.0312437e-05,0.00012805512,7.461028e-06,7.442211e-05,0,0,1
2028500000,2028342000,2028348000,0,-0.038955282,-0.21865611,0.42895246,0.0025000002,0.0025000002,0.0025000002,0.0023235057,0.005535513,0.0001835525,0.00091532245,0.000782758,0.0004870079,0.002535079,0.0025345802,0.0025340323,0.00023662111,0.001343237,1.4908512e-06,0.00014180366,0.00017662042,6.518627e-05,0,0,1
2028572000,2028413000,2028420000,0,-0.036086194,-0.21284306,0.4308902,0.0025000002,0.0025000002,0.0025000002,-0.00058034854,-0.0004634261,-0.0018125176,0.00072934583,0.000627802,0.00020106876,0.002534644,0.0025341401,0.0025335834,1.4764485e-05,9.416929e-06,0.0001440854,0.00012233546,0.00015348793,3.9164748e-05,0,0,1
2028644000,2028485000,2028492000,0,-0.03775423,-0.2142137,0.4311661,0.0025000002,0.0025000002,0.0025000002,0.0012849486,0.0009717792,-0.0020190775,0.0007992818,0.0006710882,-7.83749e-05,0.002534218,0.002533714,0.0025331501,7.239107e-05,4.1404957e-05,0.00017879289,0.00011604876,0.00013937958,1.1729522e-05,0,0,1
2028708000,2028552000,2028556000,0,-0.037666854,-0.21400958,0.43059915,0.0025000002,0.0025000002,0.0025000002,0.0012552079,0.00088605285,-0.0013534129,0.0008531567,0.0006964803,-0.00022902431,0.0025337967,0.0025332975,0.0025327264,6.9090296e-05,3.442809e-05,8.03416e-05,0.000110499874,0.0001269779,8.498664e-07,0,0,1
2028780000,2028623200,2028628000,0,-0.03548365,-0.21071577,0.4284095,0.0025000002,0.0025000002,0.0025000002,-0.0012511264,-0.0026016831,0.00073596835,0.0005908581,0.0002853721,-0.00010879338,0.0025333904,0.0025328975,0.0025323094,6.865271e-05,0.0002969127,2.3737537e-05,8.816853e-05,7.414e-05,3.7028112e-06,0,0,1
2028852000,2028695428,2028700000,0,-0.040320482,-0.21409994,0.42841998,0.0025000002,0.0025000002,0.0025000002,0.0037016391,0.0009966344,0.00081539154,0.0009835084,0.00037512736,7.875256e-06,0.0025329809,0.0025324877,0.0025319038,0.00060105434,4.3564218e-05,2.918609e-05,0.00015290621,7.028065e-05,6.919372e-06,0,0,1
2028924000,2028768000,2028772000,0,-0.038773004,-0.21151729,0.4326295,0.0025000002,0.0025000002,0.0025000002,0.0017439456,-0.0016405135,-0.0034564137,0.0010798918,0.00011963837,-0.00043124554,0.0025325955,0.0025321094,0.002531507,0.00013343124,0.00011810924,0.000524435,0.00015043782,4.6402725e-05,-6.0428407e-05,0,0,1
