timestamp,timestamp_sample,time_last_fuse,device_id,observation,observation_variance,innovation,innovation_filtered,innovation_variance,test_ratio,test_ratio_filtered,estimator_instance,innovation_rejected,fused
2015852000,2015700000,2015700000,0,-487.97003,12.372112,-0.0869751,-0.010873511,12.457801,2.4288935e-05,-3.703177e-06,0,0,1
2015924000,2015772000,2015772000,0,-488.16806,12.372131,0.11239624,0.0046429597,12.459326,4.0557297e-05,1.8680714e-06,0,0,1
2015996000,2015844000,2015844000,0,-487.98386,12.372151,-0.071746826,-0.004972538,12.460871,1.6524069e-05,-4.47023e-07,0,0,1
2016068000,2015916000,2015916000,0,-488.1442,12.37217,0.084472656,0.006286297,12.454138,2.29181e-05,2.4940412e-06,0,0,1
2016140000,2015986666,2015988000,0,-488.00253,12.3721895,-0.056915283,-0.0015400015,12.455609,1.0402861e-05,8.97008e-07,0,0,1
2016212000,2016060000,2016060000,0,-488.0876,12.372208,0.029327393,0.002408185,12.4571,2.7617855e-06,1.135528e-06,0,0,1
2016284000,2016132000,2016132000,0,-488.01688,12.372225,-0.040771484,-0.0030270177,12.4586115,5.337076e-06,3.2079475e-07,0,0,1
2016356000,2016204000,2016204000,0,-488.0924,12.372243,0.03579712,0.0018599364,12.460144,4.1137046e-06,7.9822394e-07,0,0,1
2016428000,2016276000,2016276000,0,-488.1108,12.37226,0.0501709,0.007941036,12.453457,8.084885e-06,1.7154259e-06,0,0,1
2016500000,2016346666,2016348000,0,-487.96948,12.372277,-0.09088135,-0.0042962143,12.454914,2.6525817e-05,-1.7817083e-06,0,0,1
2016572000,2016420000,2016420000,0,-488.06427,12.372293,0.005340576,-0.0030635917,12.456392,9.158913e-08,-1.5420986e-06,0,0,1
2016644000,2016492000,2016492000,0,-488.1018,12.37231,0.043670654,0.0028190403,12.4578905,6.123432e-06,-5.772067e-07,0,0,1
2016716000,2016564000,2016564000,0,-488.14832,12.372325,0.0904541,0.013850026,12.45941,2.626752e-05,2.8018496e-06,0,0,1
2016788000,2016634666,2016636000,0,-488.06763,12.372341,0.009613037,0.013325356,12.46095,2.9664025e-07,2.4916276e-06,0,0,1
2016852000,2016696000,2016700000,0,-488.091,12.372222,0.029876709,0.015133834,12.45386,2.8669592e-06,2.532638e-06,0,0,1
2016908000,2016756000,2016756000,0,-488.0954,12.371968,0.03451538,0.017210428,12.454608,3.8260905e-06,2.6712223e-06,0,0,1
2016980000,2016828000,2016828000,0,-488.09036,12.371991,0.029785156,0.01879326,12.456093,2.8489048e-06,2.693588e-06,0,0,1
2017052000,2016900000,2016900000,0,-488.09006,12.372013,0.030090332,0.02021527,12.457598,2.9072316e-06,2.72048e-06,0,0,1
2017124000,2016970666,2016972000,0,-488.0663,12.372035,0.006958008,0.018573612,12.459125,1.5543266e-07,2.4028484e-06,0,0,1
2017196000,2017042666,2017044000,0,-488.04272,12.372056,-0.01586914,0.014238161,12.4606695,8.083984e-07,1.9986355e-06,0,0,1
2017268000,2017116000,2017116000,0,-488.04288,12.372077,-0.020568848,0.009786067,12.453956,1.3588534e-06,1.5691859e-06,0,0,1
2017340000,2017186666,2017188000,0,-488.08536,12.372097,0.022613525,0.011374501,12.455426,1.642245e-06,1.5782329e-06,0,0,1
2017412000,2017258666,2017260000,0,-488.07574,12.372117,0.013458252,0.011636791,12.456919,5.8160305e-07,1.452783e-06,0,0,1
2017484000,2017332000,2017332000,0,-488.0287,12.372137,-0.03286743,0.005944345,12.458432,3.4683915e-06,8.233254e-07,0,0,1
2017556000,2017402666,2017404000,0,-488.15106,12.372156,0.090545654,0.016420588,12.459965,2.6319547e-05,3.980542e-06,0,0,1
2017620000,2017464000,2017468000,0,-488.06567,12.372041,0.00012207031,0.014639735,12.452944,4.7863897e-11,3.5456142e-06,0,0,1
2017676000,2017522666,2017524000,0,-488.1267,12.371791,0.061798096,0.019591875,12.45369,1.226626e-05,4.4613766e-06,0,0,1
2017740000,2017582000,2017588000,0,-488.112,12.371681,0.047424316,0.022544334,12.454807,7.223125e-06,4.754342e-06,0,0,1
2017796000,2017644000,2017644000,0,-488.0693,12.371439,0.005065918,0.02061611,12.455581,8.241614e-08,4.238934e-06,0,0,1
2017868000,2017716000,2017716000,0,-488.11618,12.371471,0.052490234,0.024628237,12.457099,8.847083e-06,4.8189804e-06,0,0,1
2017940000,2017786666,2017788000,0,-488.09692,12.371504,0.033416748,0.025716525,12.458637,3.5852365e-06,4.666205e-06,0,0,1
2018004000,2017848000,2017852000,0,-488.06842,12.371401,0.0051574707,0.023470145,12.45982,8.5392905e-08,4.165684e-06,0,0,1
2018060000,2017908000,2017908000,0,-488.04956,12.371164,-0.0,0.019180018,12.452462,8.8207304e-07,3.624853e-06,0,0,1
2018132000,2017980000,2017980000,0,-488.12488,12.3712015,0.059570312,0.024264112,12.453943,1.1397586e-05,4.6032387e-06,0,0,1
2018204000,2018052000,2018052000,0,-488.16183,12.371239,0.096954346,0.03341393,12.455447,3.0188063e-05,7.823706e-06,0,0,1
2018276000,2018124000,2018124000,0,-488.10455,12.371276,0.039886475,0.034228656,12.456971,5.108564e-06,7.48194e-06,0,0,1
2018348000,2018196000,2018196000,0,-488.04312,12.371312,-0.0,0.02727729,12.458516,1.4153724e-06,6.3619987e-06,0,0,1
2018420000,2018268000,2018268000,0,-488.0903,12.371347,0.022033691,0.026617257,12.451945,1.5595427e-06,5.757494e-06,0,0,1
2018492000,2018340000,2018340000,0,-488.06192,12.371382,-0.0,0.022552337,12.453413,1.0348982e-07,5.0197477e-06,0,0,1
2018564000,2018410666,2018412000,0,-488.08072,12.371415,0.013824463,0.021471558,12.454903,6.137849e-07,4.474154e-06,0,0,1
2018636000,2018484000,2018484000,0,-487.92096,12.3714485,-0.0,0.000144789,12.456413,6.776119e-05,-4.7653234e-06,0,0,1
2018708000,2018556000,2018556000,0,-488.01627,12.371481,-0.0,-0.0060618883,12.457944,7.76077e-06,-5.1423726e-06,0,0,1
2018780000,2018628000,2018628000,0,-488.03085,12.371513,-0.0,-0.009574302,12.459495,3.7038212e-06,-4.9612963e-06,0,0,1
2018852000,2018698666,2018700000,0,-488.1063,12.371545,0.042266846,-0.0031547733,12.452862,5.738396e-06,-3.6363454e-06,0,0,1
2018916000,2018760000,2018764000,0,-487.9791,12.37144,-0.0,-0.012043283,12.4539795,2.2934955e-05,-5.7450025e-06,0,0,1
2018972000,2018820000,2018820000,0,-488.04565,12.371202,-0.0,-0.012606874,12.454754,9.615926e-07,-5.2324945e-06,0,0,1
2019044000,2018892000,2018892000,0,-488.02237,12.37124,-0.0,-0.016025305,12.45627,5.0776284e-06,-5.213001e-06,0,0,1
2019116000,2018962666,2018964000,0,-488.10727,12.371277,0.045959473,-0.008349683,12.457808,6.7821666e-06,-3.7276302e-06,0,0,1
2019180000,2019024000,2019028000,0,-488.07394,12.371178,0.013061523,-0.006010194,12.45899,5.4772784e-07,-3.2604844e-06,0,0,1
2019236000,2019084000,2019084000,0,-488.15366,12.370945,0.08883667,0.0041519697,12.451686,2.5352243e-05,-1.9483537e-07,0,0,1
2019308000,2019156000,2019156000,0,-488.07297,12.370987,0.008392334,0.004685722,12.453166,2.2622767e-07,-1.4183443e-07,0,0,1
2019380000,2019228000,2019228000,0,-488.0682,12.371029,0.0043945312,0.0046490687,12.454668,6.202303e-08,-1.1617406e-07,0,0,1
2019452000,2019298666,2019300000,0,-488.16672,12.371069,0.103515625,0.016891789,12.456189,3.4410154e-05,4.1592475e-06,0,0,1
2019524000,2019372000,2019372000,0,-488.0718,12.371109,0.008636475,0.015835868,12.457731,2.394937e-07,3.6578797e-06,0,0,1
2019596000,2019444000,2019444000,0,-487.97318,12.371149,-0.0,0.0025757952,12.459293,2.5721178e-05,-4.0183295e-08,0,0,1
2019668000,2019516000,2019516000,0,-488.06323,12.371187,-0.0,0.0017829216,12.452693,4.452629e-08,-4.0729965e-08,0,0,1
2019740000,2019588000,2019588000,0,-488.1149,12.371225,0.04849243,0.00766244,12.454182,7.552534e-06,9.150654e-07,0,0,1
2019812000,2019658666,2019660000,0,-488.0534,12.371262,-0.0,0.0051377453,12.455689,5.200732e-07,7.373511e-07,0,0,1
2019884000,2019730666,2019732000,0,-488.03943,12.371298,-0.0,0.0012105033,12.457218,2.1809956e-06,3.700068e-07,0,0,1
2019948000,2019792000,2019796000,0,-488.07724,12.371199,0.012237549,0.0024153702,12.458395,4.808247e-07,3.821153e-07,0,0,1
2020004000,2019850666,2019852000,0,-488.1006,12.370966,0.035827637,0.0059240214,12.459212,4.1210296e-06,7.747419e-07,0,0,1
2020068000,2019910000,2019916000,0,-487.9688,12.370873,-0.0,-0.0057889014,12.452246,3.5073568e-05,-3.028037e-06,0,0,1
2020124000,2019972000,2019972000,0,-488.05902,12.370646,-0.0,-0.0067258873,12.453023,6.5520476e-07,-2.7662657e-06,0,0,1
2020196000,2020044000,2020044000,0,-488.08264,12.370694,0.009338379,-0.0047038123,12.454535,2.800757e-07,-2.3828102e-06,0,0,1
2020268000,2020114666,2020116000,0,-488.06378,12.370741,-0.0,-0.0052852724,12.456067,2.8371392e-07,-2.1228775e-06,0,0,1
2020332000,2020176000,2020180000,0,-488.1108,12.370652,0.037872314,-0.0005696714,12.457251,4.6055497e-06,-1.3876979e-06,0,0,1
2020388000,2020236000,2020236000,0,-488.0682,12.37043,-0.0,-0.001015445,12.458075,7.1841036e-08,-1.2467133e-06,0,0,1
2020460000,2020308000,2020308000,0,-488.0072,12.370482,-0.0,-0.0099878395,12.451535,1.6790644e-05,-3.2032917e-06,0,0,1
2020532000,2020380000,2020380000,0,-488.0924,12.370534,0.013183594,-0.007071156,12.4530325,5.5828053e-07,-2.7298072e-06,0,0,1
2020604000,2020452000,2020452000,0,-488.05472,12.370584,-0.0,-0.009242655,12.454549,1.8999789e-06,-2.6253533e-06,0,0,1
2020676000,2020524000,2020524000,0,-487.97046,12.370633,-0.0,-0.021700753,12.456087,3.7605896e-05,-7.028498e-06,0,0,1
2020748000,2020596000,2020596000,0,-487.9668,12.370682,-0.0,-0.03304014,12.457644,4.012343e-05,-1.1194294e-05,0,0,1
2020820000,2020668000,2020668000,0,-488.0477,12.370729,-0.0,-0.032976147,12.451126,3.3998983e-06,-1.0213181e-05,0,0,1
2020892000,2020738666,2020740000,0,-488.1466,12.370775,0.06338501,-0.021043673,12.452607,1.290544e-05,-7.3503847e-06,0,0,1
2020964000,2020812000,2020812000,0,-488.12723,12.370821,0.038116455,-0.0134766195,12.45411,4.6662963e-06,-5.8133555e-06,0,0,1
2021036000,2020884000,2020884000,0,-488.0799,12.370866,-0.0,-0.014115817,12.455634,1.1056087e-06,-5.220772e-06,0,0,1
2021108000,2020954666,2020956000,0,-488.11765,12.37091,0.005859375,-0.0116422735,12.457177,1.1024094e-07,-4.5606284e-06,0,0,1
2021180000,2021028000,2021028000,0,-488.17392,12.370953,0.044158936,-0.004504853,12.45874,6.2607023e-06,-3.176494e-06,0,0,1
2021252000,2021100000,2021100000,0,-488.10776,12.3709955,-0.0,-0.009315731,12.45215,5.863701e-06,-3.5147436e-06,0,0,1
2021324000,2021172000,2021172000,0,-488.1692,12.371037,-0.0,-0.009245596,12.453638,2.463926e-07,-3.1033428e-06,0,0,1
2021396000,2021244000,2021244000,0,-488.24442,12.371077,0.034057617,-0.003794842,12.455147,3.725115e-06,-2.2438167e-06,0,0,1
2021468000,2021316000,2021316000,0,-488.27225,12.371117,0.024536133,-0.00022870558,12.456676,1.93317e-06,-1.7180421e-06,0,0,1
2021540000,2021388000,2021388000,0,-488.38937,12.371156,0.099823,0.012365214,12.458225,3.1993743e-05,2.5253992e-06,0,0,1
2021612000,2021460000,2021460000,0,-488.28513,12.371195,-0.0,0.005281017,12.458705,6.1916844e-06,1.428144e-06,0,0,1
2021684000,2021532000,2021532000,0,-488.4546,12.371232,0.07846069,0.014492445,12.4531355,1.9773592e-05,3.737361e-06,0,0,1
2021756000,2021604000,2021604000,0,-488.4914,12.371269,0.06365967,0.020681325,12.45463,1.3015411e-05,4.9052273e-06,0,0,1
2021828000,2021674666,2021676000,0,-488.4626,12.3713045,-0.0,0.015913397,12.456144,1.0200048e-06,4.1715016e-06,0,0,1
2021900000,2021748000,2021748000,0,-488.43927,12.371341,-0.0,0.0018202141,12.457681,2.8533743e-05,-1.1760676e-08,0,0,1
2021972000,2021820000,2021820000,0,-488.67966,12.371375,0.0927124,0.013261188,12.459235,2.7595883e-05,3.463327e-06,0,0,1
2022044000,2021892000,2021892000,0,-488.57074,12.371409,-0.0,0.0031639747,12.452607,1.4400351e-05,1.2147523e-06,0,0,1
2022116000,2021964000,2021964000,0,-488.74512,12.371443,0.05331421,0.009476591,12.454086,9.129228e-06,2.2109798e-06,0,0,1
2022188000,2022036000,2022036000,0,-488.7587,12.371475,0.0119018555,0.009781869,12.455586,4.5490967e-07,1.989936e-06,0,0,1
2022260000,2022108000,2022108000,0,-488.8055,12.371508,0.0036010742,0.009003867,12.4571085,4.1639634e-08,1.744696e-06,0,0,1
2022332000,2022180000,2022180000,0,-488.8806,12.371539,0.023254395,0.01079764,12.45865,1.7361973e-06,1.7436262e-06,0,0,1
2022404000,2022252000,2022252000,0,-488.87097,12.37157,-0.0,0.0041066706,12.46021,5.7598836e-06,7.9912854e-07,0,0,1
2022476000,2022324000,2022324000,0,-489.0639,12.371601,0.095062256,0.015555625,12.453521,2.9025792e-05,4.352135e-06,0,0,1
2022548000,2022396000,2022396000,0,-489.0536,12.37163,0.02758789,0.017070176,12.455006,2.4442918e-06,4.111987e-06,0,0,1
2022620000,2022468000,2022468000,0,-489.00638,12.371659,-0.0,0.0052834777,12.456512,1.88263e-05,1.2246503e-06,0,0,1
2022692000,2022540000,2022540000,0,-489.21368,12.371688,0.07388306,0.01391839,12.45804,1.7526692e-05,3.2766554e-06,0,0,1
2022764000,2022612000,2022612000,0,-489.1895,12.371716,-0.0,0.01120224,12.459586,1.8836663e-07,2.8404988e-06,0,0,1
2022836000,2022682666,2022684000,0,-489.29755,12.371743,0.045166016,0.015408,12.452932,6.552574e-06,3.300168e-06,0,0,1
2022900000,2022744000,2022748000,0,-489.39102,12.371635,0.08792114,0.023331128,12.454047,2.4827681e-05,5.6523654e-06,0,0,1
2022956000,2022804000,2022804000,0,-489.3291,12.371393,-0.0,0.018840093,12.454817,1.1093214e-06,4.927899e-06,0,0,1
2023028000,2022876000,2022876000,0,-489.38092,12.371427,-0.0,0.01355301,12.456328,1.7228745e-06,4.090739e-06,0,0,1
2023100000,2022948000,2022948000,0,-489.4422,12.37146,-0.0,0.009595992,12.457862,1.0268615e-06,3.4465654e-06,0,0,1
2023172000,2023020000,2023020000,0,-489.47055,12.371492,-0.0,0.0027374453,12.459414,6.469755e-06,2.1983574e-06,0,0,1
2023244000,2023090666,2023092000,0,-489.56488,12.371525,-0.0,0.0019260886,12.452773,4.6742727e-08,1.9203449e-06,0,0,1
2023308000,2023152000,2023156000,0,-489.64474,12.371421,0.027770996,0.004750025,12.453893,2.4770673e-06,1.981175e-06,0,0,1
2023364000,2023212000,2023212000,0,-489.73367,12.371183,0.07473755,0.012248687,12.454668,1.7939301e-05,3.6909742e-06,0,0,1
2023436000,2023284000,2023284000,0,-489.6766,12.371221,-0.0,0.006151026,12.456185,4.206728e-06,2.6968578e-06,0,0,1
2023508000,2023354666,2023356000,0,-489.7427,12.371258,-0.0,0.0025286258,12.457723,1.7136149e-06,2.1507058e-06,0,0,1
2023572000,2023414000,2023420000,0,-489.82272,12.37116,0.010375977,0.0033610708,12.458906,3.456512e-07,1.959226e-06,0,0,1
2023628000,2023476000,2023476000,0,-489.94,12.370927,0.08850098,0.01275373,12.451596,2.5161184e-05,4.5188726e-06,0,0,1
2023700000,2023548000,2023548000,0,-490.03775,12.37097,0.13449097,0.028077297,12.453077,5.8099115e-05,1.1263239e-05,0,0,1
2023772000,2023620000,2023620000,0,-489.92377,12.371012,-0.0,0.020682512,12.454578,3.0210867e-06,9.465211e-06,0,0,1
2023844000,2023692000,2023692000,0,-490.01328,12.371053,0.009399414,0.019262262,12.4561,2.8371312e-07,8.309498e-06,0,0,1
2023916000,2023764000,2023764000,0,-490.00848,12.371093,-0.0,0.011317588,12.457643,6.1750115e-06,6.4862734e-06,0,0,1
2023988000,2023836000,2023836000,0,-490.0981,12.371133,-0.0,0.009662515,12.459205,1.0763966e-08,5.6684644e-06,0,0,1
2024060000,2023908000,2023908000,0,-490.18732,12.371172,0.040008545,0.013482294,12.452582,5.1416923e-06,5.602157e-06,0,0,1
2024132000,2023980000,2023980000,0,-490.17285,12.371209,-0.0,0.009223026,12.454068,1.3307624e-06,4.729482e-06,0,0,1
2024204000,2024052000,2024052000,0,-490.27164,12.371246,0.033721924,0.012306804,12.455576,3.6519166e-06,4.5938446e-06,0,0,1
2024276000,2024122666,2024124000,0,-490.25723,12.371283,-0.0,0.0077407365,12.457104,1.9379154e-06,3.7850118e-06,0,0,1
2024340000,2024184000,2024188000,0,-490.39832,12.371183,0.078704834,0.015494607,12.45828,1.9888623e-05,5.544568e-06,0,0,1
2024396000,2024244000,2024244000,0,-490.30835,12.370952,-0.0,0.009139124,12.459097,6.1657006e-06,4.2898964e-06,0,0,1
2024468000,2024314666,2024316000,0,-490.32755,12.370994,-0.0,-0.00017036777,12.4525,1.4009353e-05,2.0238865e-06,0,0,1
2024532000,2024376000,2024380000,0,-490.37045,12.3709,-0.0,-0.0060071247,12.453635,9.223866e-06,7.9490405e-07,0,0,1
2024588000,2024436000,2024436000,0,-490.36157,12.370672,-0.0,-0.014499159,12.454423,2.335013e-05,-1.7920638e-06,0,0,1
2024660000,2024506666,2024508000,0,-490.53143,12.37072,0.06097412,-0.005153246,12.4559555,1.1939167e-05,-9.171515e-08,0,0,1
2024732000,2024580000,2024580000,0,-490.52145,12.370767,0.032684326,-0.00031351857,12.457507,3.430109e-06,3.5875428e-07,0,0,1
2024804000,2024652000,2024652000,0,-490.45538,12.370813,-0.0,-0.006278121,12.45908,7.304527e-06,-6.0585455e-07,0,0,1
2024876000,2024724000,2024724000,0,-490.52628,12.370858,0.006011963,-0.0047311177,12.452466,1.1610133e-07,-5.14979e-07,0,0,1
2024948000,2024794666,2024796000,0,-490.545,12.370902,0.012359619,-0.002614759,12.453962,4.9063965e-07,-3.9045247e-07,0,0,1
2025020000,2024866666,2024868000,0,-490.58246,12.370945,0.03616333,0.0022663986,12.455481,4.1998746e-06,1.8735088e-07,0,0,1
2025092000,2024940000,2024940000,0,-490.5727,12.370988,0.010955811,0.0033778439,12.457019,3.8542058e-07,2.1268558e-07,0,0,1
2025164000,2025012000,2025012000,0,-490.60547,12.371029,0.027252197,0.0063830074,12.458575,2.3844852e-06,4.860589e-07,0,0,1
2025236000,2025084000,2025084000,0,-490.63806,12.37107,0.04244995,0.010922901,12.451988,5.788628e-06,1.1535151e-06,0,0,1
2025308000,2025156000,2025156000,0,-490.5719,12.37111,-0.0,0.0044159163,12.453471,5.3392787e-06,3.3624042e-07,0,0,1
2025380000,2025228000,2025228000,0,-490.64743,12.371149,0.018554688,0.0061956216,12.454973,1.1056674e-06,4.3309137e-07,0,0,1
2025452000,2025298666,2025300000,0,-490.66605,12.371187,0.02142334,0.008081282,12.456497,1.4737996e-06,5.61963e-07,0,0,1
2025524000,2025372000,2025372000,0,-490.66583,12.371225,0.006011963,0.007816599,12.458041,1.1604938e-07,5.0492713e-07,0,0,1
2025596000,2025441333,2025444000,0,-490.75497,12.371263,0.08053589,0.016672306,12.459604,2.0822585e-05,2.9791981e-06,0,0,1
2025660000,2025504000,2025508000,0,-490.70724,12.371163,0.021057129,0.017160665,12.452615,1.4242878e-06,2.8060201e-06,0,0,1
2025716000,2025564000,2025564000,0,-490.71173,12.370931,0.014862061,0.016914386,12.453386,7.0946436e-07,2.5813893e-06,0,0,1
2025788000,2025636000,2025636000,0,-490.66934,12.370974,-0.0,0.009695483,12.454895,5.251118e-06,1.5954793e-06,0,0,1
2025860000,2025708000,2025708000,0,-490.7167,12.371016,-0.0,0.0077836257,12.456424,9.6897324e-08,1.3824529e-06,0,0,1
2025932000,2025780000,2025780000,0,-490.6463,12.371057,-0.0,-0.004301542,12.457973,2.4992456e-05,-1.9374656e-06,0,0,1
2026004000,2025852000,2025852000,0,-490.76923,12.371097,0.022827148,-0.000886742,12.45954,1.6728666e-06,-1.4830182e-06,0,0,1
2026076000,2025924000,2025924000,0,-490.80658,12.371137,0.047027588,0.0051444317,12.452892,7.103873e-06,-4.0215082e-07,0,0,1
2026148000,2025996000,2025996000,0,-490.66995,12.371175,-0.0,-0.008198857,12.454386,3.267238e-05,-4.4641374e-06,0,0,1
2026220000,2026068000,2026068000,0,-490.75543,12.371213,-0.0,-0.010451207,12.455899,2.1863377e-06,-4.1774215e-06,0,0,1
2026292000,2026138666,2026140000,0,-490.7745,12.37125,-0.0,-0.011326181,12.457434,9.852702e-07,-3.782135e-06,0,0,1
2026364000,2026212000,2026212000,0,-490.84976,12.371286,0.047943115,-0.0037451643,12.458988,7.3795472e-06,-2.3544667e-06,0,0,1
2026436000,2026282666,2026284000,0,-490.8634,12.371323,0.053009033,0.0032827505,12.452371,9.026257e-06,-9.4518316e-07,0,0,1
2026500000,2026344000,2026348000,0,-490.79715,12.3712225,-0.0,0.0005432328,12.453492,1.5249843e-06,-1.0085349e-06,0,0,1
2026556000,2026402666,2026404000,0,-490.82083,12.370989,-0.0,-4.5789056e-05,12.45427,8.242482e-08,-9.112833e-07,0,0,1
2026628000,2026476000,2026476000,0,-490.78333,12.37103,-0.0,-0.006570391,12.455789,8.3710665e-06,-1.8654491e-06,0,0,1
2026700000,2026548000,2026548000,0,-490.8073,12.371071,-0.0,-0.010187818,12.457328,4.003151e-06,-2.1345304e-06,0,0,1
2026772000,2026620000,2026620000,0,-490.96725,12.371111,0.11654663,0.0057647694,12.458886,4.360941e-05,3.6234474e-06,0,0,1
2026844000,2026692000,2026692000,0,-490.90042,12.371151,0.040740967,0.010167368,12.452278,5.3318e-06,3.8384846e-06,0,0,1
2026916000,2026764000,2026764000,0,-490.7498,12.371189,-0.0,-0.005901726,12.453761,4.4338507e-05,-2.2257518e-06,0,0,1
2026988000,2026836000,2026836000,0,-490.84012,12.371226,-0.0,-0.009476555,12.455265,3.778677e-06,-2.421225e-06,0,0,1
2027060000,2026908000,2026908000,0,-490.9015,12.3712635,0.020263672,-0.00573303,12.45679,1.3185304e-06,-1.9504866e-06,0,0,1
2027132000,2026978666,2026980000,0,-490.84494,12.3713,-0.0,-0.010328841,12.458334,5.894329e-06,-2.4388557e-06,0,0,1
2027204000,2027052000,2027052000,0,-490.8219,12.371335,-0.0,-0.018243244,12.459898,1.6736903e-05,-4.26769e-06,0,0,1
2027276000,2027124000,2027124000,0,-490.84607,12.37137,-0.0,-0.02273844,12.453225,9.3506715e-06,-4.907506e-06,0,0,1
2027348000,2027194666,2027196000,0,-490.87946,12.371405,-0.0,-0.023176454,12.454715,2.217342e-06,-4.574381e-06,0,0,1
2027412000,2027256000,2027260000,0,-490.8093,12.371303,-0.0,-0.031714607,12.455861,3.296572e-05,-7.676552e-06,0,0,1
2027468000,2027314666,2027316000,0,-490.90887,12.371067,-0.0,-0.028993117,12.4566555,1.07960744e-07,-6.8817676e-06,0,0,1
2027540000,2027388000,2027388000,0,-490.9089,12.371108,-0.0,-0.026654774,12.458206,3.6839936e-07,-6.048656e-06,0,0,1
2027612000,2027458666,2027460000,0,-490.88086,12.371147,-0.0,-0.028867677,12.458686,6.3650014e-06,-6.087829e-06,0,0,1
2027684000,2027532000,2027532000,0,-490.91415,12.371186,-0.0,-0.02718164,12.453113,7.903299e-07,-5.4102366e-06,0,0,1
2027756000,2027602666,2027604000,0,-490.89554,12.371223,-0.0,-0.028641518,12.454607,4.877664e-06,-5.3442877e-06,0,0,1
2027828000,2027676000,2027676000,0,-490.92407,12.371261,-0.0,-0.026910244,12.456122,7.3280376e-07,-4.754442e-06,0,0,1
2027900000,2027748000,2027748000,0,-490.8726,12.371297,-0.0,-0.03247718,12.457657,1.6248316e-05,-6.201223e-06,0,0,1
2027972000,2027818666,2027820000,0,-490.93903,12.371332,-0.0,-0.029574096,12.459211,2.6197085e-07,-5.465761e-06,0,0,1
2028044000,2027892000,2027892000,0,-491.01422,12.371367,0.06375122,-0.017637042,12.452581,1.3055022e-05,-3.0968051e-06,0,0,1
2028116000,2027964000,2027964000,0,-490.92908,12.371402,-0.0,-0.018670639,12.454061,2.145932e-06,-2.9771147e-06,0,0,1
2028188000,2028036000,2028036000,0,-491.03262,12.371435,0.074035645,-0.007001317,12.455562,1.7602664e-05,-3.8665326e-07,0,0,1
2028260000,2028108000,2028108000,0,-490.9568,12.371468,-0.0,-0.0068575763,12.457082,1.1024179e-07,-3.518602e-07,0,0,1
2028332000,2028180000,2028180000,0,-490.97562,12.3715,0.009399414,-0.004811242,12.458623,2.836557e-07,-2.718652e-07,0,0,1
2028404000,2028252000,2028252000,0,-490.95206,12.3715315,-0.0,-0.0064182626,12.460183,9.919291e-07,-3.625026e-07,0,0,1
2028476000,2028322666,2028324000,0,-491.03674,12.371563,0.062347412,0.0020970432,12.453492,1.2485493e-05,1.2284745e-06,0,0,1
2028548000,2028396000,2028396000,0,-490.8906,12.371593,-0.0,-0.0093506435,12.454978,2.4533707e-05,-2.0667144e-06,0,0,1
2028620000,2028468000,2028468000,0,-491.06985,12.371623,0.08886719,0.0030124392,12.456485,2.535989e-05,1.3855852e-06,0,0,1
2028692000,2028540000,2028540000,0,-491.00793,12.371653,0.023376465,0.005575743,12.458012,1.7545628e-06,1.4320299e-06,0,0,1
2028764000,2028612000,2028612000,0,-490.93732,12.371681,-0.0,-0.0014413162,12.4595585,8.080926e-06,2.3459495e-07,0,0,1
2028836000,2028682666,2028684000,0,-490.87207,12.37171,-0.0,-0.015838496,12.452905,4.450294e-05,-5.3052877e-06,0,0,1
2028900000,2028744000,2028748000,0,-490.97647,12.371602,-0.0,-0.015815169,12.454019,7.8413444e-07,-4.811285e-06,0,0,1
2028956000,2028804000,2028804000,0,-490.96255,12.371361,-0.0,-0.017491788,12.454788,3.1793704e-06,-4.636437e-06,0,0,1
2029028000,2028876000,2028876000,0,-490.99573,12.371395,-0.0,-0.015386059,12.456301,1.8691797e-09,-4.053065e-06,0,0,1
2029100000,2028948000,2028948000,0,-490.9629,12.3714285,-0.0,-0.017986014,12.457832,4.1707817e-06,-4.0678824e-06,0,0,1
2029172000,2029020000,2029020000,0,-490.9726,12.371462,-0.0,-0.019313725,12.459385,2.6138866e-06,-3.884862e-06,0,0,1
2029244000,2029092000,2029092000,0,-490.9588,12.371494,-0.0,-0.02262164,12.452762,6.6772195e-06,-4.2363476e-06,0,0,1
2029316000,2029164000,2029164000,0,-491.05786,12.371526,0.05154419,-0.013286081,12.454239,8.53301e-06,-2.6290159e-06,0,0,1
2029388000,2029236000,2029236000,0,-490.86954,12.371557,-0.0,-0.029115003,12.455737,6.2080915e-05,-1.01124715e-05,0,0,1
2029460000,2029308000,2029308000,0,-490.98828,12.371588,-0.0,-0.028246697,12.457256,1.584895e-06,-9.03907e-06,0,0,1
2029532000,2029380000,2029380000,0,-491.073,12.371617,0.060821533,-0.017035313,12.458795,1.1876779e-05,-6.406306e-06,0,0,1
2029604000,2029452000,2029452000,0,-491.03955,12.371647,0.025360107,-0.011698827,12.460353,2.0645805e-06,-5.340041e-06,0,0,1
2029676000,2029524000,2029524000,0,-490.9172,12.371676,-0.0,-0.022591628,12.45365,3.0995983e-05,-8.56946e-06,0,0,1
2029748000,2029596000,2029596000,0,-490.93228,12.371704,-0.0,-0.030423103,12.455133,2.309877e-05,-1.0398324e-05,0,0,1
2029820000,2029668000,2029668000,0,-490.99414,12.371732,-0.0,-0.029689768,12.456638,1.9428057e-06,-9.333993e-06,0,0,1
2029892000,2029740000,2029740000,0,-491.00845,12.371759,-0.0,-0.027454572,12.458164,4.5715092e-07,-8.216629e-06,0,0,1
2029964000,2029810666,2029812000,0,-490.96164,12.371786,-0.0,-0.03157887,12.459709,1.1852084e-05,-8.66681e-06,0,0,1
2030036000,2029882666,2029884000,0,-490.9857,12.371812,-0.039001465,-0.032513183,12.453044,4.885919e-06,-8.190894e-06,0,0,1
2030108000,2029956000,2029956000,0,-490.94385,12.371838,-0.08380127,-0.03907334,12.454514,2.2554563e-05,-1.0028122e-05,0,0,1
2030180000,2030026666,2030028000,0,-491.01978,12.371862,-0.011260986,-0.035629317,12.456003,4.0722472e-07,-8.83676e-06,0,0,1
2030252000,2030098666,2030100000,0,-491.03864,12.371887,0.0029296875,-0.030775737,12.457515,2.755949e-08,-7.720972e-06,0,0,1
2030324000,2030170666,2030172000,0,-490.9541,12.371911,-0.087005615,-0.037853625,12.459046,2.4303552e-05,-9.808289e-06,0,0,1
2030396000,2030241333,2030244000,0,-490.99252,12.371935,-0.05392456,-0.039843727,12.460597,9.334572e-06,-9.749628e-06,0,0,1
2030468000,2030316000,2030316000,0,-491.00244,12.371959,-0.04977417,-0.041134,12.453878,7.957258e-06,-9.516743e-06,0,0,1
2030540000,2030388000,2030388000,0,-490.97943,12.371981,-0.078308105,-0.04581326,12.455355,1.9693247e-05,-1.0797702e-05,0,0,1
2030612000,2030460000,2030460000,0,-491.04123,12.372004,-0.020843506,-0.042670213,12.456853,1.395061e-06,-9.614153e-06,0,0,1
2030684000,2030532000,2030532000,0,-491.04144,12.3720255,-0.024627686,-0.040399127,12.458371,1.9473584e-06,-8.649102e-06,0,0,1
2030756000,2030602666,2030604000,0,-491.0464,12.372046,-0.022979736,-0.038242072,12.45991,1.6952554e-06,-7.788001e-06,0,0,1
2030828000,2030676000,2030676000,0,-491.01373,12.372068,-0.055633545,-0.04046658,12.453234,9.9414865e-06,-8.063449e-06,0,0,1
2030900000,2030748000,2030748000,0,-490.92508,12.372088,-0.1459961,-0.053750016,12.454697,6.845565e-05,-1.5665264e-05,0,0,1
2030972000,2030820000,2030820000,0,-491.05328,12.372108,-0.01852417,-0.049315993,12.4561825,1.1019263e-06,-1.3832117e-05,0,0,1
2031044000,2030892000,2030892000,0,-490.97836,12.372128,-0.09454346,-0.05500896,12.457689,2.8700235e-05,-1.5703628e-05,0,0,1
2031116000,2030964000,2030964000,0,-490.95114,12.372148,-0.12219238,-0.06346561,12.459219,4.7935522e-05,-1.976079e-05,0,0,1
2031188000,2031036000,2031036000,0,-491.10724,12.372167,0.033935547,-0.051205326,12.46077,3.6967906e-06,-1.6808088e-05,0,0,1
2031260000,2031108000,2031108000,0,-491.06467,12.372186,-0.009307861,-0.045931518,12.454036,2.782593e-07,-1.472741e-05,0,0,1
2031332000,2031180000,2031180000,0,-491.0272,12.372204,-0.047332764,-0.0461079,12.455512,7.1948566e-06,-1.3779257e-05,0,0,1
2031404000,2031252000,2031252000,0,-491.08398,12.372222,0.009216309,-0.039144013,12.457011,2.727471e-07,-1.2010473e-05,0,0,1
2031476000,2031324000,2031324000,0,-491.1778,12.372239,0.10241699,-0.021325147,12.458532,3.367729e-05,-6.2595664e-06,0,0,1
2031548000,2031394666,2031396000,0,-490.99838,12.372256,-0.07791138,-0.028332261,12.460076,1.9486823e-05,-7.897507e-06,0,0,1
2031620000,2031466666,2031468000,0,-490.9381,12.372273,-0.13748169,-0.04207135,12.453398,6.0710227e-05,-1.4545261e-05,0,0,1
2031692000,2031540000,2031540000,0,-491.03336,12.372291,-0.03967285,-0.04176456,12.454867,5.0548438e-06,-1.33313615e-05,0,0,1
2031764000,2031612000,2031612000,0,-490.96332,12.372306,-0.106781006,-0.04994845,12.456359,3.661482e-05,-1.6262145e-05,0,0,1
2031836000,2031684000,2031684000,0,-491.11932,12.372322,0.05343628,-0.036934987,12.457876,9.168291e-06,-1.30611115e-05,0,0,1
2031908000,2031756000,2031756000,0,-491.04367,12.372337,-0.018737793,-0.034644432,12.459416,1.1271952e-06,-1.155894e-05,0,0,1
2031980000,2031826666,2031828000,0,-491.12366,12.372354,0.065216064,-0.022278633,12.46098,1.365265e-05,-8.436969e-06,0,0,1
2032044000,2031888000,2031892000,0,-491.14648,12.372233,0.09085083,-0.009917575,12.4538555,2.651026e-05,-4.6184705e-06,0,0,1
2032100000,2031945333,2031948000,0,-491.00946,12.371981,-0.04345703,-0.013367788,12.454622,6.0652615e-06,-4.7673025e-06,0,0,1
2032164000,2032008000,2032012000,0,-490.9019,12.371867,-0.14691162,-0.028241223,12.455767,6.931095e-05,-1.1955846e-05,0,0,1
2032220000,2032068000,2032068000,0,-491.04886,12.371621,0.0042419434,-0.024760883,12.456562,5.7781858e-08,-1.0668672e-05,0,0,1
2032292000,2032140000,2032140000,0,-491.03476,12.371651,-0.0057678223,-0.022370148,12.458117,1.0681478e-07,-9.339207e-06,0,0,1
2032364000,2032212000,2032212000,0,-491.04422,12.371679,0.0076293945,-0.018593982,12.459694,1.8686707e-07,-8.140121e-06,0,0,1
2032436000,2032284000,2032284000,0,-491.03943,12.371708,0.010009766,-0.01499351,12.452999,3.2183542e-07,-7.07498e-06,0,0,1
2032508000,2032356000,2032356000,0,-491.03464,12.371736,0.008117676,-0.01208441,12.454497,2.1163973e-07,-6.1577834e-06,0,0,1
2032580000,2032428000,2032428000,0,-490.87494,12.371762,-0.14938354,-0.029366817,12.456018,7.166156e-05,-1.4403015e-05,0,0,1
2032652000,2032500000,2032500000,0,-490.9515,12.371789,-0.07015991,-0.034501612,12.457564,1.5805379e-05,-1.4579536e-05,0,0,1
2032724000,2032572000,2032572000,0,-490.98975,12.371815,-0.030273438,-0.033969395,12.459132,2.942359e-06,-1.3114716e-05,0,0,1
2032796000,2032642666,2032644000,0,-490.98538,12.3718405,-0.03363037,-0.033927415,12.460722,3.6306144e-06,-1.1940293e-05,0,0,1
2032860000,2032702000,2032708000,0,-491.03732,12.371731,0.02078247,-0.028123803,12.453584,1.3872668e-06,-1.0526509e-05,0,0,1
2032916000,2032764000,2032764000,0,-490.99017,12.371488,-0.02609253,-0.027899712,12.45437,2.1866063e-06,-9.606449e-06,0,0,1
2032988000,2032836000,2032836000,0,-491.07495,12.371519,0.0592041,-0.016935596,12.455901,1.1256113e-05,-6.9803923e-06,0,0,1
2033060000,2032908000,2032908000,0,-491.10254,12.371551,0.086639404,-0.0038981847,12.457456,2.410247e-05,-3.0678643e-06,0,0,1
2033132000,2032980000,2032980000,0,-491.05472,12.371581,0.038482666,0.0014364673,12.459033,4.7545122e-06,-2.0832294e-06,0,0,1
2033204000,2033050666,2033052000,0,-490.94168,12.371612,-0.07470703,-0.007992439,12.460632,1.7916074e-05,-4.0438226e-06,0,0,1
2033276000,2033124000,2033124000,0,-490.97998,12.371641,-0.03729248,-0.011740148,12.453846,4.466826e-06,-4.097928e-06,0,0,1
2033348000,2033196000,2033196000,0,-490.95218,12.37167,-0.06484985,-0.018425286,12.455365,1.3505838e-05,-5.2821406e-06,0,0,1
2033420000,2033266666,2033268000,0,-490.99036,12.371698,-0.026519775,-0.019427633,12.456908,2.2583404e-06,-4.907701e-06,0,0,1
2033492000,2033340000,2033340000,0,-491.07513,12.371726,0.058135986,-0.009506626,12.458473,1.0851388e-05,-2.8919876e-06,0,0,1
2033564000,2033412000,2033412000,0,-490.9525,12.371754,-0.06552124,-0.016557416,12.460061,1.378174e-05,-4.2627253e-06,0,0,1
2033636000,2033481333,2033484000,0,-491.1034,12.37178,0.08428955,-0.004276338,12.453296,2.2820395e-05,-9.645605e-07,0,0,1
2033700000,2033544000,2033548000,0,-490.9758,12.371672,-0.04434204,-0.008738653,12.45444,6.31491e-06,-1.5604553e-06,0,0,1
2033756000,2033602666,2033604000,0,-490.97153,12.371429,-0.048583984,-0.012922846,12.455237,7.5804373e-06,-2.192619e-06,0,0,1
2033828000,2033674666,2033676000,0,-490.90625,12.371462,-0.1138916,-0.025632199,12.456788,4.165214e-05,-7.159551e-06,0,0,1
2033892000,2033736000,2033740000,0,-491.03885,12.371359,0.01928711,-0.020724103,12.457986,1.1943907e-06,-6.2467598e-06,0,0,1
2033948000,2033796000,2033796000,0,-490.9682,12.371123,-0.05166626,-0.024039334,12.458825,8.570318e-06,-6.4957126e-06,0,0,1
2034020000,2033868000,2033868000,0,-490.98752,12.371162,-0.03326416,-0.025200501,12.452152,3.5544197e-06,-6.12548e-06,0,0,1
2034092000,2033940000,2033940000,0,-490.99252,12.371201,-0.028564453,-0.025623936,12.453664,2.6206842e-06,-5.684317e-06,0,0,1
2034164000,2034010666,2034012000,0,-491.04916,12.371238,0.027709961,-0.019019559,12.455198,2.4659325e-06,-4.6750656e-06,0,0,1
2034236000,2034084000,2034084000,0,-490.9315,12.371274,-0.09069824,-0.028187836,12.456757,2.641513e-05,-7.4557934e-06,0,0,1
2034308000,2034156000,2034156000,0,-491.0169,12.37131,-0.0051574707,-0.02528891,12.458338,8.540306e-08,-6.528052e-06,0,0,1
2034380000,2034226666,2034228000,0,-491.10614,12.371346,0.08383179,-0.011776412,12.459942,2.256116e-05,-2.925913e-06,0,0,1
2034444000,2034288000,2034292000,0,-491.1382,12.371245,0.112335205,0.0017846078,12.452803,4.0534484e-05,1.822775e-06,0,0,1
2034500000,2034346666,2034348000,0,-491.01974,12.371012,-0.0072631836,0.00083449134,12.4536,1.6944124e-07,1.6135706e-06,0,0,1
2034572000,2034420000,2034420000,0,-491.04327,12.371053,0.01574707,0.0027419294,12.455142,7.963626e-07,1.5090432e-06,0,0,1
2034644000,2034492000,2034492000,0,-490.99615,12.371093,-0.03173828,-0.0015982368,12.456707,3.2346222e-06,9.119385e-07,0,0,1
2034716000,2034562666,2034564000,0,-491.03403,12.371133,0.006286621,-0.0006218489,12.458296,1.2689249e-07,8.147257e-07,0,0,1
2034788000,2034636000,2034636000,0,-490.9964,12.371172,-0.031341553,-0.0045511443,12.459907,3.153452e-06,3.0716404e-07,0,0,1
2034860000,2034708000,2034708000,0,-491.02957,12.37121,-0.0009765625,-0.004101197,12.45314,3.0632414e-09,2.6811446e-07,0,0,1
2034932000,2034780000,2034780000,0,-491.0061,12.371247,-0.024169922,-0.0066273296,12.454669,1.8761964e-06,-1.7987816e-09,0,0,1
2035004000,2034852000,2034852000,0,-490.98758,12.371284,-0.042266846,-0.011113422,12.456222,5.736848e-06,-7.23693e-07,0,0,1
2035076000,2034924000,2034924000,0,-491.04904,12.371319,0.019500732,-0.0072598923,12.457796,1.2210139e-06,-4.789047e-07,0,0,1
2035148000,2034996000,2034996000,0,-491.0723,12.371355,0.042907715,-0.0009450894,12.459395,5.91063e-06,3.2537235e-07,0,0,1
2035220000,2035068000,2035068000,0,-491.01086,12.371389,-0.026306152,-0.0041373908,12.452631,2.2228674e-06,4.6149182e-09,0,0,1
2035292000,2035140000,2035140000,0,-491.03928,12.371423,0.0025634766,-0.003293925,12.454145,2.1105944e-08,6.6907115e-09,0,0,1
2035364000,2035212000,2035212000,0,-491.0768,12.371456,0.040100098,0.0021682591,12.455685,5.1639645e-06,6.55858e-07,0,0,1
2035436000,2035284000,2035284000,0,-491.03418,12.371489,-0.0028076172,0.0015419251,12.457247,2.5311255e-08,5.701164e-07,0,0,1
2035508000,2035354666,2035356000,0,-491.12338,12.37152,0.08642578,0.012053156,12.458832,2.398111e-05,3.4691175e-06,0,0,1
2035580000,2035428000,2035428000,0,-491.12256,12.3715515,0.08538818,0.021433294,12.46044,2.340573e-05,6.0191696e-06,0,0,1
2035652000,2035500000,2035500000,0,-491.12643,12.371583,0.08798218,0.029810075,12.453599,2.4863059e-05,8.391127e-06,0,0,1
2035724000,2035569333,2035572000,0,-491.13025,12.371613,0.09176636,0.03735507,12.455124,2.7044496e-05,1.0662722e-05,0,0,1
2035796000,2035644000,2035644000,0,-491.02606,12.371642,-0.012481689,0.030879734,12.456673,5.002703e-07,9.212305e-06,0,0,1
2035868000,2035716000,2035716000,0,-491.03088,12.371671,-0.0068359375,0.026132308,12.458244,1.5003732e-07,8.033828e-06,0,0,1
2035940000,2035788000,2035788000,0,-490.95584,12.371699,-0.08099365,0.012647922,12.45984,2.105957e-05,4.371722e-06,0,0,1
2036012000,2035860000,2035860000,0,-491.09277,12.371728,0.055725098,0.018070223,12.460228,9.968634e-06,5.0762283e-06,0,0,1
2036084000,2035932000,2035932000,0,-491.07816,12.371755,0.03894043,0.020697242,12.454543,4.8700526e-06,5.0502763e-06,0,0,1
2036156000,2036002666,2036004000,0,-491.11533,12.371781,0.076416016,0.02759694,12.456079,1.8751993e-05,6.74697e-06,0,0,1
2036228000,2036076000,2036076000,0,-491.0911,12.371808,0.05215454,0.030738052,12.457638,8.733907e-06,7.001115e-06,0,0,1
2036300000,2036148000,2036148000,0,-491.0812,12.371834,0.04272461,0.03224685,12.45922,5.860374e-06,6.8575255e-06,0,0,1
2036372000,2036220000,2036220000,0,-490.92117,12.371859,-0.11685181,0.013479188,12.460825,4.383127e-05,4.771182e-07,0,0,1
2036444000,2036292000,2036292000,0,-491.05374,12.371884,0.015106201,0.013683987,12.453947,7.329317e-07,5.093185e-07,0,0,1
2036516000,2036362666,2036364000,0,-491.16162,12.371908,0.12371826,0.027309613,12.455469,4.915498e-05,6.5331474e-06,0,0,1
2036588000,2036436000,2036436000,0,-491.02423,12.371931,-0.013671875,0.022067754,12.457014,6.002086e-07,5.620734e-06,0,0,1
2036660000,2036508000,2036508000,0,-491.03375,12.371955,-0.0032348633,0.01888281,12.458584,3.3597207e-08,4.9090004e-06,0,0,1
2036732000,2036580000,2036580000,0,-491.08072,12.371978,0.04458618,0.022118198,12.460176,6.381699e-06,5.094375e-06,0,0,1
2036804000,2036652000,2036652000,0,-491.12726,12.372001,0.09158325,0.03086205,12.461792,2.6922266e-05,7.841942e-06,0,0,1
2036876000,2036724000,2036724000,0,-491.05124,12.372023,0.01159668,0.028437039,12.454846,4.319057e-07,6.90921e-06,0,0,1
2036948000,2036794666,2036796000,0,-491.08398,12.372045,0.044799805,0.030463252,12.45638,6.4449628e-06,6.8517215e-06,0,0,1
2037020000,2036868000,2036868000,0,-490.9286,12.372066,-0.11026001,0.012463624,12.457936,3.903462e-05,9.824917e-07,0,0,1
2037092000,2036940000,2036940000,0,-490.99072,12.372086,-0.046783447,0.005005951,12.459516,7.0265683e-06,-2.5641612e-08,0,0,1
2037164000,2037010666,2037012000,0,-491.08978,12.372107,0.053222656,0.010976662,12.461119,9.092767e-06,1.1034978e-06,0,0,1
2037228000,2037070000,2037076000,0,-491.00006,12.371991,-0.042541504,0.005299469,12.453855,5.812753e-06,3.6982374e-07,0,0,1
2037284000,2037132000,2037132000,0,-490.93942,12.371743,-0.10247803,-0.0065905754,12.454646,3.3727963e-05,-3.3918536e-06,0,0,1
2037356000,2037204000,2037204000,0,-491.0578,12.37177,0.017242432,-0.0035906169,12.456188,9.547109e-07,-2.8447337e-06,0,0,1
2037428000,2037276000,2037276000,0,-491.05765,12.371797,0.01763916,-0.0009183374,12.457754,9.990243e-07,-2.360904e-06,0,0,1
2037500000,2037346666,2037348000,0,-491.0387,12.371822,-0.0008544922,-0.0009104314,12.459342,2.3441267e-09,-2.068842e-06,0,0,1
2037572000,2037420000,2037420000,0,-491.00113,12.371848,-0.03765869,-0.0056108274,12.460955,4.5523866e-06,-2.386507e-06,0,0,1
2037644000,2037490666,2037492000,0,-490.96393,12.371873,-0.07858276,-0.014646998,12.454061,1.9833695e-05,-4.547005e-06,0,0,1
2037716000,2037562666,2037564000,0,-491.007,12.371898,-0.034240723,-0.017113341,12.45559,3.7651432e-06,-4.448589e-06,0,0,1
2037788000,2037636000,2037636000,0,-491.0355,12.371922,-0.004638672,-0.015517731,12.457143,6.9092174e-08,-3.8884164e-06,0,0,1
2037860000,2037708000,2037708000,0,-491.08716,12.371944,0.04788208,-0.007537335,12.458719,7.3609285e-06,-2.472415e-06,0,0,1
2037932000,2037778666,2037780000,0,-491.0069,12.371968,-0.03189087,-0.010553052,12.4603195,3.264852e-06,-2.570543e-06,0,0,1
2037996000,2037840000,2037844000,0,-491.1011,12.371856,0.06326294,-0.0024875682,12.461556,1.2846548e-05,-8.8599904e-07,0,0,1
2038052000,2037900000,2037900000,0,-491.04883,12.371611,0.0067749023,-0.0014951607,12.453897,1.4742149e-07,-7.7527545e-07,0,0,1
2038124000,2037972000,2037972000,0,-491.09103,12.371639,0.049926758,0.004977528,12.455436,8.005119e-06,3.2994888e-07,0,0,1
2038196000,2038044000,2038044000,0,-491.05298,12.371669,0.012542725,0.0059297904,12.456999,5.051616e-07,3.520036e-07,0,0,1
2038268000,2038116000,2038116000,0,-491.02,12.371696,-0.019714355,0.0027018562,12.458584,1.247833e-06,1.5062558e-07,0,0,1
2038340000,2038188000,2038188000,0,-491.1047,12.371725,0.06625366,0.010701383,12.460195,1.4091426e-05,1.9054115e-06,0,0,1
2038412000,2038258666,2038260000,0,-490.8881,12.371753,-0.1499939,-0.009197635,12.460594,7.222181e-05,-7.2738185e-06,0,0,1
2038484000,2038332000,2038332000,0,-491.0304,12.371779,-0.007080078,-0.008926782,12.454872,1.6098923e-07,-6.364031e-06,0,0,1
2038556000,2038404000,2038404000,0,-491.03516,12.371806,-0.001159668,-0.007949104,12.456423,4.3185104e-09,-5.563508e-06,0,0,1
2038628000,2038474666,2038476000,0,-491.07742,12.371832,0.04220581,-0.001738383,12.457997,5.719476e-06,-4.1663275e-06,0,0,1
2038700000,2038546666,2038548000,0,-490.96902,12.371857,-0.06539917,-0.009751627,12.459595,1.3730949e-05,-5.3702656e-06,0,0,1
2038764000,2038608000,2038612000,0,-491.06827,12.371747,0.03527832,-0.0048314435,12.460833,3.99511e-06,-4.3469604e-06,0,0,1
2038820000,2038668000,2038668000,0,-491.08667,12.371504,0.04949951,0.00098973,12.453217,7.8701005e-06,-3.0379897e-06,0,0,1
2038892000,2038740000,2038740000,0,-491.03458,12.371535,-0.0019836426,0.00061545934,12.454752,1.26372255e-08,-2.657176e-06,0,0,1
2038964000,2038812000,2038812000,0,-491.0111,12.371566,-0.024627686,-0.002561999,12.456312,1.9476804e-06,-2.567869e-06,0,0,1
2039036000,2038884000,2038884000,0,-491.03012,12.371596,-0.004638672,-0.0028233984,12.457896,6.908799e-08,-2.253337e-06,0,0,1
2039108000,2038956000,2038956000,0,-491.09592,12.371626,0.062286377,0.0053722365,12.459504,1.2455047e-05,-4.019322e-07,0,0,1
2039180000,2039028000,2039028000,0,-491.12817,12.371655,0.095214844,0.016681096,12.461135,2.9101253e-05,3.3117553e-06,0,0,1
2039252000,2039100000,2039100000,0,-491.0662,12.371685,0.027954102,0.018100075,12.454217,2.509774e-06,3.2108067e-06,0,0,1
2039324000,2039172000,2039172000,0,-491.02365,12.371713,-0.013946533,0.014066237,12.455765,6.24629e-07,2.7280246e-06,0,0,1
2039396000,2039244000,2039244000,0,-490.99094,12.37174,-0.046020508,0.006502871,12.457337,6.800449e-06,1.5286364e-06,0,0,1
2039468000,2039316000,2039316000,0,-491.05713,12.371767,0.021026611,0.008331034,12.458934,1.419442e-06,1.5148917e-06,0,0,1
2039540000,2039386666,2039388000,0,-491.02875,12.371794,-0.006713867,0.006468013,12.460553,1.4469988e-07,1.3093832e-06,0,0,1
2039612000,2039460000,2039460000,0,-490.99124,12.37182,-0.045043945,-0.0001207781,12.460962,6.513003e-06,3.0883746e-07,0,0,1
2039684000,2039532000,2039532000,0,-491.11374,12.371846,0.07833862,0.00975523,12.455203,1.970884e-05,2.7507958e-06,0,0,1
2039756000,2039604000,2039604000,0,-490.96744,12.371871,-0.06729126,5.7070516e-05,12.456763,1.4540258e-05,5.742995e-07,0,0,1
2039828000,2039676000,2039676000,0,-491.0667,12.371895,0.033325195,0.004244666,12.458347,3.5657015e-06,9.508396e-07,0,0,1
2039900000,2039748000,2039748000,0,-491.05228,12.37192,0.019561768,0.0061726924,12.459957,1.2284561e-06,9.857844e-07,0,0,1
2039972000,2039820000,2039820000,0,-491.0521,12.371943,0.020324707,0.007954065,12.461588,1.3259745e-06,1.0286055e-06,0,0,1
2040044000,2039892000,2039892000,0,-491.0425,12.371966,0.009063721,0.008093742,12.454625,2.6384103e-07,9.323415e-07,0,0,1
2040116000,2039961333,2039964000,0,-491.02832,12.371989,-0.0043640137,0.0065766443,12.456174,6.115719e-08,8.1135386e-07,0,0,1
2040180000,2040024000,2040028000,0,-491.11288,12.371876,0.080963135,0.014861435,12.457374,2.104787e-05,3.0651943e-06,0,0,1
2040236000,2040084000,2040084000,0,-490.99002,12.37163,-0.04168701,0.008802673,12.458214,5.579634e-06,2.1389628e-06,0,0,1
2040308000,2040156000,2040156000,0,-491.06555,12.371659,0.035217285,0.0121275885,12.459832,3.9816173e-06,2.3709053e-06,0,0,1
2040380000,2040228000,2040228000,0,-491.04175,12.371688,0.012145996,0.012129906,12.461473,4.735402e-07,2.1320761e-06,0,0,1
2040452000,2040300000,2040300000,0,-491.03223,12.3717165,0.0014343262,0.010783609,12.4545145,6.6073764e-09,1.8645346e-06,0,0,1
2040524000,2040370666,2040372000,0,-491.03223,12.371744,0.0022277832,0.009724135,12.456073,1.5937665e-08,1.6356215e-06,0,0,1
2040596000,2040441333,2040444000,0,-491.00403,12.371771,-0.024902344,0.0054362593,12.457656,1.9911506e-06,1.1865101e-06,0,0,1
2040668000,2040516000,2040516000,0,-491.04184,12.371798,0.014190674,0.0065737283,12.459263,6.4650766e-07,1.1163471e-06,0,0,1
2040740000,2040586666,2040588000,0,-491.06985,12.371823,0.04321289,0.011110783,12.460892,5.9942868e-06,1.7203861e-06,0,0,1
2040812000,2040660000,2040660000,0,-490.9849,12.371849,-0.041259766,0.004412171,12.461307,5.464494e-06,8.013825e-07,0,0,1
2040884000,2040730666,2040732000,0,-490.86325,12.371875,-0.16226196,-0.016227214,12.455508,8.4553576e-05,-9.768186e-06,0,0,1
2040956000,2040804000,2040804000,0,-490.89304,12.371899,-0.1305542,-0.030850548,12.457078,5.4730008e-05,-1.5519163e-05,0,0,1
2041028000,2040876000,2040876000,0,-491.04456,12.3719225,0.022399902,-0.024147695,12.458673,1.6109441e-06,-1.33629255e-05,0,0,1
2041100000,2040948000,2040948000,0,-491.04898,12.371946,0.027282715,-0.017673938,12.460292,2.3894995e-06,-1.1380103e-05,0,0,1
2041172000,2041018666,2041020000,0,-490.9924,12.371969,-0.028686523,-0.019037634,12.461932,2.6413773e-06,-1.029798e-05,0,0,1
2041244000,2041092000,2041092000,0,-490.90347,12.371993,-0.11767578,-0.031654242,12.454926,4.4472654e-05,-1.4669195e-05,0,0,1
2041316000,2041162666,2041164000,0,-491.05017,12.372015,0.03048706,-0.023959238,12.456484,2.9846651e-06,-1.2483104e-05,0,0,1
2041388000,2041236000,2041236000,0,-491.01703,12.372036,-0.0022277832,-0.02117961,12.458065,1.5935116e-08,-1.0888453e-05,0,0,1
2041460000,2041305333,2041308000,0,-491.0687,12.372058,0.05001831,-0.012509175,12.459673,8.031772e-06,-8.58436e-06,0,0,1
2041524000,2041368000,2041372000,0,-491.01187,12.371943,-0.0064697266,-0.011836532,12.4609165,1.3436367e-07,-7.6432425e-06,0,0,1
2041580000,2041426666,2041428000,0,-491.05887,12.371696,0.041229248,-0.006264048,12.46179,5.4562015e-06,-6.2676586e-06,0,0,1
2041644000,2041486000,2041492000,0,-490.9223,12.37159,-0.09512329,-0.015690213,12.454421,2.9060975e-05,-8.685567e-06,0,0,1
2041700000,2041548000,2041548000,0,-491.00775,12.371349,-0.00881958,-0.014932243,12.455248,2.4980633e-07,-7.754931e-06,0,0,1
2041772000,2041620000,2041620000,0,-491.0313,12.371384,0.015319824,-0.0111242905,12.456838,7.536328e-07,-6.683923e-06,0,0,1
2041844000,2041690666,2041692000,0,-490.96542,12.371417,-0.0501709,-0.01595946,12.45845,8.081644e-06,-6.857004e-06,0,0,1
2041908000,2041750000,2041756000,0,-491.02695,12.371316,0.012054443,-0.012987753,12.459703,4.6649458e-07,-6.080129e-06,0,0,1
2041964000,2041812000,2041812000,0,-490.9846,12.37108,-0.030181885,-0.014884615,12.460586,2.9242483e-06,-5.731971e-06,0,0,1
2042036000,2041882666,2041884000,0,-490.9755,12.371121,-0.036254883,-0.01753091,12.453659,4.221784e-06,-5.5449636e-06,0,0,1
2042108000,2041954666,2041956000,0,-491.0181,12.37116,0.0071411133,-0.014425341,12.455232,1.6377214e-07,-4.8263814e-06,0,0,1
2042180000,2042028000,2042028000,0,-491.05087,12.371198,0.040130615,-0.007447198,12.45683,5.171352e-06,-3.5475914e-06,0,0,1
2042252000,2042100000,2042100000,0,-491.00824,12.371236,-0.0025024414,-0.006824781,12.458452,2.010591e-08,-3.1035722e-06,0,0,1
2042324000,2042170666,2042172000,0,-490.9754,12.371273,-0.03515625,-0.010333088,12.460097,3.967744e-06,-3.2105831e-06,0,0,1
2042388000,2042232000,2042236000,0,-491.07434,12.371174,0.0640564,-0.0022049425,12.461374,1.3171009e-05,-1.4206531e-06,0,0,1
2042444000,2042292000,2042292000,0,-491.06433,12.370942,0.0524292,0.003648715,12.453653,8.828963e-06,-3.2248e-07,0,0,1
2042516000,2042364000,2042364000,0,-490.9605,12.370984,-0.051635742,-0.0033101668,12.455235,8.562664e-06,-1.3597058e-06,0,0,1
2042588000,2042436000,2042436000,0,-491.00797,12.371026,-0.0036010742,-0.0033467845,12.456841,4.1640522e-08,-1.1937955e-06,0,0,1
2042660000,2042506666,2042508000,0,-490.90472,12.371067,-0.106536865,-0.01612489,12.45847,3.6441405e-05,-5.5585333e-06,0,0,1
2042732000,2042580000,2042580000,0,-490.99493,12.371107,-0.015319824,-0.016021915,12.460123,7.53434e-07,-4.9439227e-06,0,0,1
2042804000,2042652000,2042652000,0,-491.07962,12.371147,0.069610596,-0.005242998,12.461799,1.5553565e-05,-2.3638195e-06,0,0,1
2042876000,2042724000,2042724000,0,-490.95218,12.371186,-0.05847168,-0.011943111,12.454774,1.0980327e-05,-3.4484146e-06,0,0,1
2042948000,2042796000,2042796000,0,-491.11237,12.371223,0.10192871,0.0023904033,12.456366,3.336274e-05,1.1851571e-06,0,0,1
2043020000,2042868000,2042868000,0,-490.96112,12.371261,-0.05001831,-0.004206497,12.457982,8.032863e-06,2.484694e-08,0,0,1
2043092000,2042940000,2042940000,0,-490.90997,12.371297,-0.10070801,-0.01635354,12.459621,3.2559907e-05,-4.0767304e-06,0,0,1
2043164000,2043010666,2043012000,0,-490.95322,12.371333,-0.05670166,-0.021349877,12.461285,1.0320215e-05,-4.849866e-06,0,0,1
2043236000,2043082666,2043084000,0,-491.0007,12.371368,-0.0099487305,-0.019914769,12.454279,3.178899e-07,-4.279407e-06,0,0,1
2043308000,2043156000,2043156000,0,-491.01022,12.371403,-0.00036621094,-0.017414352,12.455857,4.3067436e-10,-3.732092e-06,0,0,1
2043380000,2043228000,2043228000,0,-491.029,12.371436,0.0184021,-0.012905987,12.4574585,1.0873398e-06,-3.1254503e-06,0,0,1
2043452000,2043298666,2043300000,0,-491.0241,12.371469,0.013458252,-0.009641283,12.4590845,5.815019e-07,-2.6664156e-06,0,0,1
2043524000,2043372000,2043372000,0,-491.07565,12.371502,0.065093994,-8.204393e-05,12.460734,1.3601856e-05,-5.855736e-07,0,0,1
2043596000,2043444000,2043444000,0,-491.03275,12.371533,0.02166748,0.0026556582,12.462405,1.5068672e-06,-3.2218946e-07,0,0,1
2043668000,2043514666,2043516000,0,-490.9856,12.371565,-0.025024414,-0.0007719861,12.455317,2.0110972e-06,-5.3132817e-07,0,0,1
2043740000,2043588000,2043588000,0,-491.0187,12.371595,0.008270264,0.0003845899,12.456904,2.1962843e-07,-4.352748e-07,0,0,1
2043812000,2043660000,2043660000,0,-490.99982,12.371625,-0.010681152,-0.0010083006,12.458516,3.6629407e-07,-4.2659192e-07,0,0,1
2043884000,2043732000,2043732000,0,-491.06097,12.3716545,0.050445557,0.0054684086,12.460152,8.169256e-06,6.554029e-07,0,0,1
2043956000,2043804000,2043804000,0,-491.03702,12.371684,0.026397705,0.008102865,12.46181,2.2367178e-06,8.544495e-07,0,0,1
2044028000,2043873333,2043876000,0,-491.03674,12.371713,0.025878906,0.01026762,12.45475,2.1508831e-06,1.0123283e-06,0,0,1
2044092000,2043936000,2043940000,0,-491.00363,12.371605,-0.0071411133,0.008328724,12.455951,1.6376268e-07,8.8134124e-07,0,0,1
2044148000,2043996000,2043996000,0,-491.05533,12.371364,0.04486084,0.012242879,12.456797,6.462319e-06,1.4793031e-06,0,0,1
2044220000,2044068000,2044068000,0,-490.9751,12.371398,-0.03564453,0.006215093,12.458415,4.079275e-06,7.79622e-07,0,0,1
2044292000,2044140000,2044140000,0,-490.9097,12.371432,-0.10055542,-0.007224551,12.460057,3.246018e-05,-3.4044087e-06,0,0,1
2044364000,2044212000,2044212000,0,-490.9858,12.371466,-0.023529053,-0.009276866,12.461722,1.7770138e-06,-3.199562e-06,0,0,1
2044436000,2044284000,2044284000,0,-491.0471,12.371498,0.03945923,-0.003142253,12.454662,5.000636e-06,-2.167369e-06,0,0,1
2044508000,2044354666,2044356000,0,-490.98566,12.37153,-0.021972656,-0.005474036,12.456242,1.5503798e-06,-2.0909667e-06,0,0,1
2044580000,2044428000,2044428000,0,-490.9436,12.371561,-0.06359863,-0.012908637,12.457846,1.2987112e-05,-3.4846707e-06,0,0,1
2044652000,2044500000,2044500000,0,-490.92545,12.371592,-0.08105469,-0.021486461,12.459473,2.1091944e-05,-5.700971e-06,0,0,1
2044724000,2044570666,2044572000,0,-490.90274,12.371621,-0.10293579,-0.031572394,12.4611225,3.401227e-05,-9.20678e-06,0,0,1
2044788000,2044630000,2044636000,0,-490.99765,12.371516,-0.0069274902,-0.02895807,12.462404,1.5403165e-07,-8.246467e-06,0,0,1
2044844000,2044692000,2044692000,0,-490.92734,12.371278,-0.07287598,-0.033803105,12.454557,1.7056915e-05,-9.218438e-06,0,0,1
2044916000,2044764000,2044764000,0,-491.00314,12.371313,0.0038452148,-0.029064156,12.456142,4.7480757e-08,-8.052099e-06,0,0,1
2044988000,2044836000,2044836000,0,-490.928,12.371348,-0.07128906,-0.03437918,12.457752,1.6317968e-05,-9.092558e-06,0,0,1
2045060000,2044908000,2044908000,0,-491.05075,12.371384,0.051940918,-0.023513714,12.459386,8.66129e-06,-6.857808e-06,0,0,1
2045132000,2044980000,2044980000,0,-491.0127,12.371418,0.013427734,-0.018863741,12.461042,5.787768e-07,-5.9217346e-06,0,0,1
2045204000,2045052000,2045052000,0,-490.89517,12.371451,-0.10446167,-0.029638305,12.462721,3.5023622e-05,-9.584909e-06,0,0,1
2045276000,2045122666,2045124000,0,-490.976,12.371485,-0.022644043,-0.028772201,12.4555855,1.6466594e-06,-8.60191e-06,0,0,1
2045348000,2045196000,2045196000,0,-490.96683,12.371516,-0.031951904,-0.02917891,12.45718,3.278187e-06,-7.920963e-06,0,0,1
2045420000,2045266666,2045268000,0,-490.89673,12.371548,-0.10211182,-0.038210247,12.458797,3.347618e-05,-1.1085484e-05,0,0,1
2045492000,2045340000,2045340000,0,-490.9165,12.371579,-0.08163452,-0.043764558,12.46044,2.139313e-05,-1.2403914e-05,0,0,1
2045564000,2045410666,2045412000,0,-490.96893,12.37161,-0.028839111,-0.04191633,12.462104,2.6695152e-06,-1.1198496e-05,0,0,1
2045636000,2045482666,2045484000,0,-490.99738,12.371639,0.0016784668,-0.036428872,12.454999,9.047775e-09,-9.787756e-06,0,0,1
2045700000,2045544000,2045548000,0,-490.94104,12.371533,-0.054748535,-0.038430564,12.456205,9.625411e-06,-9.770018e-06,0,0,1
2045756000,2045604000,2045604000,0,-490.88992,12.371294,-0.10549927,-0.045616496,12.457055,3.573909e-05,-1.2552418e-05,0,0,1
2045828000,2045676000,2045676000,0,-490.93323,12.371329,-0.061706543,-0.047641817,12.458678,1.2225045e-05,-1.251121e-05,0,0,1
2045900000,2045748000,2045748000,0,-490.89157,12.371365,-0.10321045,-0.05463647,12.460324,3.4196208e-05,-1.524079e-05,0,0,1
2045972000,2045820000,2045820000,0,-491.0569,12.371399,0.062683105,-0.039868973,12.461993,1.2611696e-05,-1.1734883e-05,0,0,1
2046044000,2045890666,2045892000,0,-490.97174,12.371433,-0.017608643,-0.03711246,12.454896,9.957989e-07,-1.0405054e-05,0,0,1
2046108000,2045952000,2045956000,0,-490.95786,12.371331,-0.03137207,-0.036485236,12.456108,3.1605596e-06,-9.613486e-06,0,0,1
2046164000,2046012000,2046012000,0,-490.98163,12.371096,-0.007446289,-0.033373922,12.456962,1.7804412e-07,-8.602547e-06,0,0,1
2046236000,2046084000,2046084000,0,-490.93942,12.371136,-0.049865723,-0.035449814,12.4585905,7.983536e-06,-8.524629e-06,0,0,1
2046308000,2046154666,2046156000,0,-490.84134,12.371174,-0.14801025,-0.04938826,12.460241,7.03262e-05,-1.6177564e-05,0,0,1
2046380000,2046226666,2046228000,0,-490.97894,12.371213,-0.009918213,-0.044420004,12.461916,3.1574902e-07,-1.4180972e-05,0,0,1
2046444000,2046286000,2046292000,0,-490.96027,12.371116,-0.02645874,-0.042514678,12.454455,2.2484e-06,-1.2915169e-05,0,0,1
2046500000,2046346666,2046348000,0,-490.92294,12.370884,-0.0640564,-0.044845566,12.455299,1.3177434e-05,-1.2943547e-05,0,0,1
2046572000,2046420000,2046420000,0,-490.96112,12.370928,-0.025878906,-0.04241958,12.456909,2.1505102e-06,-1.1563031e-05,0,0,1
2046644000,2046492000,2046492000,0,-490.82993,12.370971,-0.15725708,-0.056874648,12.458543,7.9398655e-05,-2.010178e-05,0,0,1
2046716000,2046564000,2046564000,0,-491.01926,12.371013,0.032684326,-0.04560149,12.460198,3.429368e-06,-1.7139817e-05,0,0,1
2046788000,2046636000,2046636000,0,-490.9626,12.371054,-0.024780273,-0.042980637,12.461877,1.9710094e-06,-1.52304565e-05,0,0,1
2046860000,2046708000,2046708000,0,-490.9863,12.371095,0.00088500977,-0.037459087,12.454785,2.5154743e-09,-1.331302e-05,0,0,1
2046932000,2046780000,2046780000,0,-490.94873,12.371134,-0.037231445,-0.03743043,12.456379,4.4513113e-06,-1.219756e-05,0,0,1
2047004000,2046850666,2046852000,0,-490.93503,12.371173,-0.0513916,-0.039159253,12.457996,8.480004e-06,-1.1737212e-05,0,0,1
2047076000,2046924000,2046924000,0,-491.02002,12.371211,0.03326416,-0.02989572,12.459637,3.5522846e-06,-9.781563e-06,0,0,1
2047148000,2046994666,2046996000,0,-490.96338,12.371249,-0.024475098,-0.02922448,12.4613,1.9228505e-06,-8.8084125e-06,0,0,1
2047212000,2047056000,2047060000,0,-490.9495,12.371151,-0.04046631,-0.030452814,12.461334,5.25633e-06,-8.420296e-06,0,0,1
2047268000,2047116000,2047116000,0,-490.94052,12.370919,-0.04788208,-0.032320235,12.454711,7.3632978e-06,-8.307046e-06,0,0,1
2047340000,2047188000,2047188000,0,-490.941,12.370962,-0.047943115,-0.034286752,12.456309,7.381134e-06,-8.190498e-06,0,0,1
2047412000,2047260000,2047260000,0,-491.05414,12.371004,0.064697266,-0.021827227,12.457931,1.3439587e-05,-5.4678303e-06,0,0,1
2047484000,2047330666,2047332000,0,-490.93143,12.371046,-0.059295654,-0.02646697,12.459576,1.1287622e-05,-6.1884994e-06,0,0,1
2047556000,2047404000,2047404000,0,-490.98834,12.371086,-0.0028076172,-0.023440748,12.461242,2.5303143e-08,-5.4001775e-06,0,0,1
2047628000,2047476000,2047476000,0,-491.00247,12.371126,0.012420654,-0.018926727,12.454186,4.9548845e-07,-4.658066e-06,0,0,1
2047700000,2047548000,2047548000,0,-491.01172,12.371165,0.02053833,-0.013959098,12.455768,1.3546271e-06,-3.9012234e-06,0,0,1
2047772000,2047618666,2047620000,0,-491.0209,12.371203,0.02859497,-0.008689595,12.457373,2.625505e-06,-3.0930137e-06,0,0,1
2047844000,2047689333,2047692000,0,-490.99716,12.371241,0.0039367676,-0.007126044,12.459001,4.9757247e-08,-2.7038373e-06,0,0,1
2047916000,2047764000,2047764000,0,-490.96896,12.371278,-0.024749756,-0.009415909,12.46065,1.9663512e-06,-2.608015e-06,0,0,1
2047988000,2047836000,2047836000,0,-491.02084,12.371314,0.026885986,-0.0048464397,12.462323,2.3201333e-06,-1.9876886e-06,0,0,1
2048060000,2047908000,2047908000,0,-490.91727,12.37135,-0.0753479,-0.013720749,12.455195,1.8232733e-05,-4.0325194e-06,0,0,1
2048132000,2047980000,2047980000,0,-490.96967,12.371385,-0.022705078,-0.014851644,12.456783,1.655389e-06,-3.7333002e-06,0,0,1
2048204000,2048052000,2048052000,0,-491.06848,12.371419,0.07601929,-0.0034133457,12.458395,1.855434e-05,-9.278631e-07,0,0,1
2048276000,2048120000,2048124000,0,-490.9128,12.371452,-0.080444336,-0.012635364,12.460029,2.0774563e-05,-3.3038764e-06,0,0,1
2048340000,2048184000,2048188000,0,-491.05444,12.37135,0.061767578,-0.004192477,12.461297,1.2246666e-05,-1.5392758e-06,0,0,1
2048396000,2048244000,2048244000,0,-490.92236,12.371115,-0.0708313,-0.01133235,12.46219,1.6103342e-05,-3.0997112e-06,0,0,1
2048468000,2048314666,2048316000,0,-490.94186,12.371154,-0.048065186,-0.015881006,12.455073,7.4195054e-06,-3.6346346e-06,0,0,1
2048540000,2048388000,2048388000,0,-490.94232,12.371193,-0.047576904,-0.019935165,12.456666,7.2685957e-06,-4.0994473e-06,0,0,1
2048612000,2048458666,2048460000,0,-490.98502,12.37123,-0.0048217773,-0.018063663,12.458281,7.464766e-08,-3.6010533e-06,0,0,1
2048684000,2048532000,2048532000,0,-491.07428,12.371267,0.084472656,-0.0049484475,12.459918,2.2907469e-05,-2.104016e-07,0,0,1
2048756000,2048602666,2048604000,0,-491.02652,12.371304,0.036010742,0.00012355996,12.461578,4.16247e-06,3.3109438e-07,0,0,1
2048828000,2048676000,2048676000,0,-491.0121,12.37134,0.021057129,0.0028011308,12.454498,1.4240724e-06,4.70895e-07,0,0,1
2048900000,2048748000,2048748000,0,-491.03067,12.371374,0.039215088,0.0073847054,12.456073,4.9383884e-06,1.0332368e-06,0,0,1
2048972000,2048820000,2048820000,0,-490.9833,12.371408,-0.008636475,0.0053680534,12.457671,2.3949482e-07,8.7303283e-07,0,0,1
2049044000,2048892000,2048892000,0,-490.9787,12.371442,-0.013671875,0.0029714191,12.459291,6.000988e-07,6.876037e-07,0,0,1
2049116000,2048962666,2048964000,0,-490.9272,12.371475,-0.06555176,-0.005513857,12.460936,1.3793613e-05,-1.1056162e-06,0,0,1
2049188000,2049036000,2049036000,0,-490.9701,12.371508,-0.022460938,-0.007681524,12.462601,1.6192246e-06,-1.1713108e-06,0,0,1
2049260000,2049108000,2049108000,0,-490.9891,12.37154,-0.0034179688,-0.0071448525,12.455475,3.7517673e-08,-1.0285956e-06,0,0,1
2049332000,2049180000,2049180000,0,-491.04547,12.371571,0.052703857,0.00038855104,12.457056,8.919272e-06,2.2358336e-07,0,0,1
2049404000,2049250666,2049252000,0,-491.1154,12.371601,0.12194824,0.015441379,12.458661,4.77463e-05,6.108357e-06,0,0,1
2049476000,2049324000,2049324000,0,-491.0062,12.371631,0.011413574,0.0149261905,12.460288,4.1819155e-07,5.3805393e-06,0,0,1
2049548000,2049394666,2049396000,0,-490.97324,12.37166,-0.022033691,0.010349421,12.461938,1.5582923e-06,4.5212987e-06,0,0,1
2049612000,2049456000,2049460000,0,-490.95935,12.371554,-0.035736084,0.005313901,12.461963,4.09909e-06,3.5793944e-06,0,0,1
2049668000,2049516000,2049516000,0,-490.94562,12.371315,-0.048187256,-0.00041836547,12.455292,7.457109e-06,2.396912e-06,0,0,1
2049740000,2049586666,2049588000,0,-491.0212,12.37135,0.02798462,0.0030987973,12.456877,2.51472e-06,2.4115002e-06,0,0,1
2049812000,2049660000,2049660000,0,-490.90356,12.371385,-0.08956909,-0.008754167,12.458485,2.5757938e-05,-1.1915959e-06,0,0,1
