timestamp,timestamp_sample,xyz[0],xyz[1],xyz[2]
2015920000,2015920000,0.00033766602,0.0022429847,0.00011968515
2015928000,2015928000,0.002785844,-0.0015903683,0.0003203408
2015940000,2015940000,-0.0020745187,0.003987593,0.00055497856
2015960000,2015960000,-0.0030189177,-0.00067492283,0.00022642138
2015980000,2015980000,-0.0029795615,-0.0031415161,0.00011682419
2016000000,2016000000,-0.0022325616,-0.0016692157,-0.000113882874
2016020000,2016020000,0.0012265461,-0.00019445457,-0.00048659273
2016040000,2016040000,0.0017292858,-0.002147458,-0.00076004455
2016060000,2016060000,-0.0020321545,0.0015518622,-0.0008783452
2016080000,2016080000,-0.0020750978,-0.0019387542,-0.00073563063
2016100000,2016100000,-0.00060690934,-0.0018215016,-0.00074326596
2016120000,2016120000,0.0035952423,0.0030588047,-0.0006478673
2016140000,2016140000,-0.004226964,-0.0048595155,-0.0005407052
2016156000,2016156000,-0.00038751535,-0.0010195529,-0.00047481665
2016180000,2016180000,-0.0006099135,0.00045916263,-0.0007298876
2016200000,2016200000,-0.00041012192,-0.00032294288,-0.00041140788
2016220000,2016220000,-0.0027570603,0.0027179362,-0.0006074692
2016240000,2016240000,-0.0012757118,-0.0025871084,-0.0005777271
2016260000,2016260000,-0.0018813324,-0.0003710317,-0.00066401606
2016280000,2016280000,-0.001137592,-0.00013483164,-0.0003158513
2016300000,2016300000,0.00011445966,-0.00056456553,-0.0001660001
2016320000,2016320000,-0.0002065385,0.002359507,-0.00012513399
2016340000,2016340000,-0.0003400679,-0.0038028834,-8.537512e-05
2016360000,2016360000,-0.0012720792,-0.003619799,6.798356e-05
2016380000,2016380000,0.0005498603,-0.001829168,0.0006228664
2016400000,2016400000,0.0015566072,-0.00095079414,0.00037699754
2016420000,2016420000,0.0003729656,-0.00018296138,0.00025321334
2016440000,2016440000,-0.0031446752,-0.0042919843,1.9650928e-05
2016460000,2016460000,0.0023019619,0.0008510209,-0.000276285
2016480000,2016480000,-0.0062757535,-0.005425784,-0.000190409
2016500000,2016500000,0.00043552765,0.00043929642,-0.00016180602
2016516000,2016516000,-0.0028676833,-0.0017457068,4.7352827e-05
2016540000,2016540000,-0.002562969,-0.0040888675,-4.1514057e-05
2016560000,2016560000,-0.00042541858,-0.00015609706,-0.00030785552
2016580000,2016580000,0.0025430704,-0.005282987,-6.0770974e-05
2016600000,2016600000,-0.0059331823,0.0046447637,0.00018628416
2016620000,2016620000,-0.0040513603,-0.00526443,0.00027226313
2016640000,2016640000,0.004068655,-0.0008250573,0.00017367303
2016660000,2016660000,-0.0011465147,0.0026756823,6.559991e-05
2016680000,2016680000,-0.0012554957,-0.0011101176,0.0001586835
2016700000,2016700000,-0.005796494,0.0033765454,0.00038259092
2016720000,2016720000,0.0031524927,0.0019058273,0.00067277416
2016740000,2016740000,0.0012047979,0.000287565,0.001146764
2016760000,2016760000,-0.002754994,0.0035006327,0.00076966244
2016780000,2016780000,0.0025089514,-9.101746e-05,0.00049898756
2016800000,2016800000,-0.004491436,-0.002036721,0.00023890639
2016820000,2016820000,0.0011011799,0.0057621547,2.0432883e-05
2016840000,2016840000,0.0018539447,0.00012303825,-8.440846e-05
2016860000,2016860000,-0.0080674095,-0.0052336566,-5.237149e-05
2016880000,2016880000,0.00040700706,0.0015440166,5.9965387e-06
2016900000,2016900000,-0.0034333935,0.00081543485,0.00013149063
2016920000,2016920000,-0.0004827351,-0.00032194212,0.00013033884
2016940000,2016940000,0.0005898564,0.00053893897,8.097075e-05
2016960000,2016960000,-0.0049986024,-0.0031032506,0.0004031054
2016980000,2016980000,-0.006687828,-0.0014609983,0.00032274457
2017000000,2017000000,-0.004341412,-0.0022820793,0.00032149395
2017020000,2017020000,-0.0025509007,0.0017619987,0.0002074182
2017040000,2017040000,-0.00036954868,0.0032637054,4.5338013e-05
2017060000,2017060000,-0.0062063085,0.0025101174,-2.1629192e-05
2017080000,2017080000,-0.002700557,-0.0028967008,-0.00023856387
2017100000,2017100000,-0.0031230827,-0.0021457907,-0.00042859654
2017120000,2017120000,-0.0016266337,-0.0019373368,-0.00017377133
2017140000,2017140000,-0.0041820128,-0.00061194156,-0.0001470659
2017160000,2017160000,-0.007830876,-0.00040741416,-0.00061560643
2017176000,2017176000,-0.0040081427,-0.0007328107,-0.00036459597
2017196000,2017196000,-0.0050929426,-0.0047327727,2.1678103e-05
2017220000,2017220000,0.0019228926,-0.0021130422,-0.0002979319
2017236000,2017236000,-0.0070261215,0.00090969785,-0.00031085004
2017260000,2017260000,-0.005716696,-0.004254712,-7.200193e-05
2017280000,2017280000,-0.0064098695,0.0016803809,-0.00040738707
2017300000,2017300000,-0.0073137,0.00010666631,9.796299e-05
2017320000,2017320000,-0.0057644197,-0.0048287082,-0.0001474494
2017340000,2017340000,-0.005288534,-0.0030603725,-0.00023333165
2017360000,2017360000,-0.0028900476,0.002696275,-0.000530854
2017380000,2017380000,-0.006384979,-0.0018109594,-0.0006547604
2017400000,2017400000,-0.003404814,-0.001937221,-0.00066402723
2017420000,2017420000,-0.0029876344,0.0015871996,-0.00088970904
2017440000,2017440000,-0.007886807,-0.004024738,-0.00041867775
2017460000,2017460000,-0.00073576486,-0.0016537902,-0.00034937047
2017480000,2017480000,-0.0048501617,0.0001931482,-0.00035526458
2017500000,2017500000,-0.0036198236,-0.0018116611,-0.00042488653
2017520000,2017520000,-0.0031628965,0.0012884316,-0.00039863863
2017540000,2017540000,-0.010942906,-0.0023142146,-0.00025969915
2017560000,2017560000,-0.006721299,0.004230895,-0.0001331451
2017580000,2017580000,-0.0044271946,-0.0024172456,-0.00048985996
2017600000,2017600000,-0.006875557,0.0025787102,-0.00017452458
2017620000,2017620000,-0.007818414,0.0005053076,0.00031884352
2017640000,2017640000,-0.004882681,-0.006507202,0.00045236835
2017660000,2017660000,-0.0071541294,-0.0053580855,0.00041305655
2017680000,2017680000,-0.0002662274,0.005339604,0.0001863057
2017700000,2017700000,-0.007363905,0.0014833857,0.0002602681
2017720000,2017720000,-0.0013127537,0.00013743647,0.00032529613
2017740000,2017740000,-0.0068339747,-0.0017628289,0.00047715878
2017760000,2017760000,-0.00041239895,0.003809396,0.00043343825
2017780000,2017780000,-0.0055619655,0.00083463505,0.00028871556
2017800000,2017800000,-3.1568576e-05,0.0031282832,0.0007322438
2017820000,2017820000,-0.0051384317,-0.00030454827,0.0004940764
2017840000,2017840000,-0.002560437,0.0027721906,0.0005168322
2017860000,2017860000,-0.0036368635,-0.000654344,0.00072559353
2017876000,2017876000,-0.0065685464,-0.0018152867,0.0007887434
2017900000,2017900000,-0.009640673,0.0015878514,0.0005945119
2017920000,2017920000,-0.007694883,3.9987382e-05,0.0008105324
2017940000,2017940000,-0.003012602,0.00040384306,0.0008935567
2017960000,2017960000,-0.0065679187,-0.00011176293,0.0009142946
2017980000,2017980000,-0.008743965,0.00025187933,0.00074613636
2018000000,2018000000,-0.006466827,-0.00048128603,0.00070252724
2018020000,2018020000,-0.0066722194,0.002825528,0.0002511078
2018036000,2018036000,-0.0079848245,0.0009778754,0.00018763436
2018060000,2018060000,-0.0054708067,0.00052639015,0.00034744336
2018080000,2018080000,-0.0122037195,0.00053563155,0.0005328272
2018096000,2018096000,-0.008433103,0.0019490579,0.0007734949
2018116000,2018116000,-0.009565619,-0.0005044136,0.00038127924
2018140000,2018140000,-0.014833448,-0.0010320174,0.000456651
2018160000,2018160000,-0.0071919933,0.0050702915,0.00019224295
2018176000,2018176000,-0.011275552,3.997539e-05,0.0003269211
2018200000,2018200000,-0.009004056,0.005340892,0.00025077627
2018220000,2018220000,-0.006618472,-7.711485e-05,0.00044550383
2018240000,2018240000,-0.009089037,0.0024044805,0.0006566184
2018260000,2018260000,-0.006694015,-0.00057276787,0.000747772
2018280000,2018280000,-0.013558519,-0.006158636,0.000769904
2018296000,2018296000,-0.011289379,0.0030910333,0.00038004975
2018320000,2018320000,-0.01337256,0.003461653,-2.6696216e-07
2018340000,2018340000,-0.012299161,-0.0036443092,0.00011353069
2018360000,2018360000,-0.014959306,0.00049842295,-0.00019148094
2018380000,2018380000,-0.0131591195,0.004241259,-0.0005853961
2018400000,2018400000,-0.010856478,-0.0021786278,-0.00022329173
2018416000,2018416000,-0.010624435,-0.0014378142,-0.00026456115
2018440000,2018440000,-0.010072071,-0.001714166,-0.00019965105
2018460000,2018460000,-0.011207854,-0.00074558397,0.00014258997
2018476000,2018476000,-0.013536276,0.005271293,-5.2904663e-05
2018500000,2018500000,-0.011734151,-0.00042463758,-9.886465e-05
2018520000,2018520000,-0.016191918,-0.00080765603,-0.00012761622
2018540000,2018540000,-0.01601697,0.00091111375,0.00015927223
2018560000,2018560000,-0.015226609,0.005971425,7.050998e-05
2018580000,2018580000,-0.011808974,-0.0017920539,0.00013191062
2018600000,2018600000,-0.015201038,0.0045539234,-0.00014190935
2018620000,2018620000,-0.010465619,0.0025552744,0.00045408678
2018640000,2018640000,-0.016968809,0.0018315694,0.0004933241
2018656000,2018656000,-0.015617517,0.00023972045,0.0007950198
2018680000,2018680000,-0.014400582,0.0010291528,0.00057936664
2018700000,2018700000,-0.01166306,0.0018845294,0.00067615346
2018720000,2018720000,-0.019315064,0.0006748347,0.00070986
2018740000,2018740000,-0.011985484,0.010727817,9.514811e-05
2018760000,2018760000,-0.014629193,0.002301247,0.00020062132
2018780000,2018780000,-0.014312607,0.0076084384,0.00031468272
2018800000,2018800000,-0.015520943,0.007766349,0.00028516946
2018820000,2018820000,-0.015127253,0.0049927807,0.00022139208
2018840000,2018840000,-0.009246674,0.005516423,0.00041650364
2018856000,2018856000,-0.011565992,-0.0014552681,0.0006566278
2018880000,2018880000,-0.021106921,0.008762345,0.0005384666
2018900000,2018900000,-0.018322963,0.0027529988,0.00020122156
2018920000,2018920000,-0.012195444,0.0071764095,0.00030974898
2018940000,2018940000,-0.020729192,0.0032471302,-0.00019861021
2018960000,2018960000,-0.02077632,0.0072724144,3.121222e-05
2018980000,2018980000,-0.017793316,0.004037826,-2.5632165e-05
2019000000,2019000000,-0.020056682,0.0011679796,0.0003234843
2019020000,2019020000,-0.017271683,0.0060621547,0.00022389735
2019040000,2019040000,-0.02023082,0.0011381761,1.2539909e-05
2019060000,2019060000,-0.0173823,0.0030961912,-0.00049413275
2019080000,2019080000,-0.021495765,0.007967208,-4.214843e-05
2019100000,2019100000,-0.016808117,0.0065905745,0.0002023686
2019120000,2019120000,-0.022461182,0.0009664616,0.00033829844
2019140000,2019140000,-0.01904195,0.007513232,0.00022685615
2019160000,2019160000,-0.020036504,0.0011211804,0.00016960924
2019180000,2019180000,-0.02155362,0.006381234,0.00023351226
2019200000,2019200000,-0.019574173,0.0060880347,0.0002938367
2019220000,2019220000,-0.022595655,0.0038220577,0.00010601938
2019240000,2019240000,-0.02410809,0.0048780497,0.00052753993
2019260000,2019260000,-0.021023847,0.0050340267,0.0004332172
2019280000,2019280000,-0.020928407,0.0025930526,3.7690552e-05
2019300000,2019300000,-0.020356787,0.010829317,-0.00016680502
2019320000,2019320000,-0.024088051,0.00044491794,-2.473261e-05
2019340000,2019340000,-0.020786835,0.0026007316,-0.00045680738
2019360000,2019360000,-0.025911959,0.012436248,-0.00017350371
2019380000,2019380000,-0.023616048,0.0043415776,0.00024162723
2019400000,2019400000,-0.020897988,0.007352492,0.0004062278
2019420000,2019420000,-0.021032933,0.009724181,0.0004151691
2019440000,2019440000,-0.022227751,0.009101627,0.000283094
2019460000,2019460000,-0.018649194,0.0066964845,0.0001790975
2019480000,2019480000,-0.025875742,0.006522077,0.0003821489
2019500000,2019500000,-0.025550645,0.005136584,0.00047455516
2019520000,2019520000,-0.024130829,0.005643239,0.00036156113
2019540000,2019540000,-0.026257558,0.010623248,0.0002760394
2019560000,2019560000,-0.023217512,0.007746095,0.0006663856
2019580000,2019580000,-0.024040172,0.01164539,0.0006537908
2019600000,2019600000,-0.025277838,0.007998122,0.00115393
2019620000,2019620000,-0.019309143,0.010213364,0.00087154965
2019640000,2019640000,-0.021214532,0.0066951956,0.00038283598
2019660000,2019660000,-0.030693734,0.0068261554,0.0007355218
2019680000,2019680000,-0.030648801,0.0063574333,0.00044259685
2019700000,2019700000,-0.020181913,0.00785189,0.0010808703
2019720000,2019720000,-0.025049483,0.015307855,0.0006875805
2019740000,2019740000,-0.02512169,0.004319066,0.0003816834
2019760000,2019760000,-0.027612349,0.013569241,0.00062953983
2019780000,2019780000,-0.028252704,0.012078632,0.0004202007
2019800000,2019800000,-0.026424943,0.004174075,0.00064090965
2019820000,2019820000,-0.024896512,0.0111741545,0.00101882
2019840000,2019840000,-0.032151733,0.011085421,0.0010005417
2019860000,2019860000,-0.026958445,0.009864983,0.00081614504
2019876000,2019876000,-0.029591307,0.008260869,0.0006901913
2019900000,2019900000,-0.026180997,0.011815795,0.0003863056
2019920000,2019920000,-0.031393908,0.010783301,0.0002873466
2019940000,2019940000,-0.02916766,0.011911705,0.0005568853
2019960000,2019960000,-0.034805365,0.012107319,0.000695168
2019980000,2019980000,-0.030470073,0.015794475,0.00061346573
2020000000,2020000000,-0.03217859,0.011772728,0.00040277856
2020020000,2020020000,-0.031687394,0.014408497,0.0006557924
2020040000,2020040000,-0.032625705,0.01354419,0.0002045942
2020060000,2020060000,-0.026740374,0.012418381,0.00018318628
2020080000,2020080000,-0.034269806,0.013956882,0.00023445873
2020100000,2020100000,-0.032522716,0.015329763,0.00012372625
2020116000,2020116000,-0.029431228,0.012448114,-0.00038629488
2020140000,2020140000,-0.031956308,0.014476024,-0.0003901018
2020160000,2020160000,-0.03210835,0.018901136,-0.00040668403
2020180000,2020180000,-0.029784607,0.01244372,-0.00029082326
2020200000,2020200000,-0.031659335,0.017501032,-8.963027e-05
2020216000,2020216000,-0.032949585,0.01326303,0.00010132951
2020240000,2020240000,-0.030827684,0.013412435,0.00010357135
2020260000,2020260000,-0.03418907,0.014087979,0.00015715256
2020280000,2020280000,-0.033988997,0.01726108,0.00043859545
2020300000,2020300000,-0.035970725,0.016497836,0.00055546715
2020320000,2020320000,-0.033204578,0.009559738,0.0007551308
2020340000,2020340000,-0.0409448,0.019370016,0.00075370725
2020360000,2020360000,-0.0357626,0.012779314,0.0004002147
2020380000,2020380000,-0.033919882,0.013672599,0.00032084426
2020400000,2020400000,-0.040523313,0.014365476,0.0007333292
2020420000,2020420000,-0.035977747,0.014934814,0.00065339636
2020440000,2020440000,-0.033138618,0.019918405,0.0002755958
2020460000,2020460000,-0.0377328,0.013413156,0.0005421243
2020476000,2020476000,-0.033429645,0.014910895,0.00056786824
2020500000,2020500000,-0.035895914,0.013954669,0.00068634085
2020520000,2020520000,-0.034747034,0.019215992,0.0009995064
2020536000,2020536000,-0.038752325,0.015885103,0.00089903595
2020560000,2020560000,-0.033881932,0.019076768,0.0007194567
2020580000,2020580000,-0.03585144,0.01962527,0.00062009436
2020596000,2020596000,-0.02963498,0.012328046,0.0007277349
2020620000,2020620000,-0.023784503,0.016242476,0.0005351724
2020640000,2020640000,-0.019426841,0.018147537,0.00040313328
2020660000,2020660000,-0.008115333,0.016389983,0.00033627718
2020680000,2020680000,-0.0029388182,0.013989419,7.9087564e-05
2020700000,2020700000,-0.005959353,0.009714578,0.00020874056
2020720000,2020720000,0.001234082,0.0016405596,0.0004306443
2020740000,2020740000,0.0017563491,-0.001189745,0.00038180573
2020760000,2020760000,0.015025439,0.0013165749,0.00021524291
2020780000,2020780000,0.009556745,-0.0003460185,0.0005511801
2020800000,2020800000,0.0037780884,0.003288289,0.00016556527
2020820000,2020820000,0.007846491,-0.0011232035,0.00017059415
2020840000,2020840000,0.0071072853,-0.0022153563,0.00013789797
2020860000,2020860000,0.0075634588,-0.004064218,0.00020235126
2020880000,2020880000,-0.0006622607,0.00023358967,0.000521636
2020900000,2020900000,0.004052161,-0.007355475,0.00035798745
2020920000,2020920000,0.0030295928,-0.0020226475,0.00026186625
2020940000,2020940000,0.006670054,0.00095765316,0.000496221
2020960000,2020960000,0.0074205454,-0.00089115207,1.8529972e-05
2020980000,2020980000,0.0066930447,0.00071124826,-3.888488e-05
2021000000,2021000000,0.0057029687,0.0014310745,-8.299453e-05
2021020000,2021020000,-0.0015344475,0.0028024225,0.0003176627
2021040000,2021040000,0.0007757505,0.0019893704,0.00012912619
2021060000,2021060000,-0.0030036257,0.0007174108,-0.00017162345
2021080000,2021080000,0.0009902159,0.0006216218,-0.00017314633
2021100000,2021100000,0.0067182034,0.005454473,-0.00015146146
2021120000,2021120000,0.0026283837,0.007844949,0.00047758874
2021140000,2021140000,-0.0009217004,-0.0006732362,0.00013508953
2021160000,2021160000,0.0019024798,-0.0017392295,-9.605036e-05
2021180000,2021180000,-0.004419922,0.0044985376,-0.00037905388
2021200000,2021200000,-0.0035449346,0.002156444,-0.00072361523
2021220000,2021220000,0.0053600804,0.0066438224,-0.0007782243
2021240000,2021240000,-0.002944963,0.0012399985,-0.0006803988
2021260000,2021260000,-0.0046908176,0.005856323,-0.00089234655
2021280000,2021280000,-0.0026459354,0.0050412514,-0.0006754495
2021300000,2021300000,-0.0016551027,0.004446609,-6.1325263e-06
2021320000,2021320000,-0.0034984897,0.0013585526,0.00019317266
2021340000,2021340000,0.002085997,0.0015727021,0.00046822545
2021360000,2021360000,0.0056994855,0.008539051,0.00056521106
2021380000,2021380000,-0.0025943883,0.006083979,0.0005853295
2021400000,2021400000,-0.0040826895,0.00291961,0.0006801482
2021420000,2021420000,-0.005528301,0.0056931633,0.00035249055
2021440000,2021440000,-0.005307481,-0.0043887803,0.00026986952
2021460000,2021460000,-0.0037722865,-0.00081206777,-0.0002806744
2021480000,2021480000,0.004852012,0.0063379863,0.00017521354
2021500000,2021500000,-0.0041399114,-0.0021725397,-0.00010854259
2021520000,2021520000,-0.00060247234,0.010365205,-8.3049374e-05
2021540000,2021540000,-0.00034240622,-0.0012665333,2.3881832e-05
2021560000,2021560000,-0.006039016,0.005467706,0.00013599609
2021576000,2021576000,0.003332262,-0.001264594,0.00028137956
2021600000,2021600000,0.00029759237,0.00730088,6.2383646e-05
2021620000,2021620000,0.003175549,0.0020429408,0.00013306481
2021640000,2021640000,-0.0026242104,0.0051587373,0.00018156698
2021660000,2021660000,-0.0017880526,-0.0025642656,0.00020569291
2021680000,2021680000,9.0431364e-05,0.006748082,0.00044695934
2021700000,2021700000,0.002827881,0.0064454144,0.00071787677
2021716000,2021716000,-0.00030311354,0.00028194697,0.0012087061
2021740000,2021740000,-0.00018113549,0.0036515694,0.0010326569
2021760000,2021760000,-0.0012462675,0.001554881,0.0005543948
2021780000,2021780000,-0.0026000799,-0.0005497886,0.0004157219
2021800000,2021800000,0.0042418754,0.0003505514,0.00026210185
2021820000,2021820000,-0.0021502175,0.0032105036,0.00051687076
2021840000,2021840000,0.00088088395,0.0048356284,0.00016408278
2021860000,2021860000,-0.0020033717,0.001486227,0.00031862603
2021880000,2021880000,0.0027482791,0.0073023876,0.0005937416
2021900000,2021900000,-0.0045090807,0.0035244254,0.00082651904
2021920000,2021920000,-0.0016575526,0.004088731,0.0003202126
2021940000,2021940000,-0.00014576249,-0.0046401643,-9.757512e-05
2021960000,2021960000,-0.0018241301,0.0016235602,3.7183054e-07
2021980000,2021980000,-0.001999424,0.00050635997,-0.00010136781
2022000000,2022000000,0.001955208,0.005698963,-0.00026763717
2022020000,2022020000,0.0043537295,0.0013785707,-0.0004958526
2022040000,2022040000,-0.002865184,0.005660092,-0.0005997456
2022060000,2022060000,0.00064706267,0.0020203735,-0.0008447391
2022080000,2022080000,-0.001003699,0.003001337,-0.0005645837
2022100000,2022100000,-0.0011929689,0.008240136,-0.00030905445
2022120000,2022120000,0.0007947448,0.00057544536,-0.00027791012
2022140000,2022140000,-0.0022073698,-0.0016648938,-0.00037954177
2022160000,2022160000,-0.004667719,0.00035550626,-0.00036123136
2022180000,2022180000,0.0014999205,0.0012451484,-0.0004939884
2022196000,2022196000,-0.0013419649,0.0076214387,-0.00045510926
2022220000,2022220000,0.0013760431,-1.3498124e-05,-0.00010052556
2022240000,2022240000,-0.0074161924,0.0007515346,0.00024143272
2022260000,2022260000,0.006165224,0.0040388154,0.00023283307
2022280000,2022280000,-0.0009262274,-0.00014700543,0.00033131242
2022300000,2022300000,-0.0056429645,0.0035995648,0.00065508514
2022320000,2022320000,0.0006638715,0.006442055,0.00029526168
2022340000,2022340000,-0.0033251743,0.0032556104,0.00016396158
2022360000,2022360000,0.00142265,0.003772049,0.00062268256
2022380000,2022380000,0.0047932207,0.0037051695,0.00021531759
2022400000,2022400000,0.00027428882,0.0048385714,-0.00018896328
2022420000,2022420000,0.000819847,-0.0033678224,-0.0005612127
2022440000,2022440000,-0.00012104632,0.0010061114,-0.00015191635
2022460000,2022460000,-0.001122707,0.0076777497,-0.0005398091
2022476000,2022476000,0.0039601224,0.0048981663,-0.00030358124
2022496000,2022496000,0.0039273715,-0.0008849113,-0.0003016831
2022520000,2022520000,0.00071275857,0.0075030406,-0.0005005395
2022540000,2022540000,-0.000828799,0.0037767217,-0.00039504212
2022560000,2022560000,0.002450359,-0.0014149174,-0.00031409741
2022580000,2022580000,0.0023469864,0.005897339,-0.00025122767
2022600000,2022600000,0.0017818835,0.0015866423,0.0002909811
2022620000,2022620000,0.0004533475,0.0055930503,0.0007350631
2022640000,2022640000,0.0026261155,0.005776161,0.00068863493
2022656000,2022656000,0.0004542722,0.0018777106,0.0007074898
2022680000,2022680000,0.0045048376,0.0019870205,0.00061290717
2022700000,2022700000,0.0036613916,0.0022586826,0.00065676426
2022720000,2022720000,-0.0009664772,0.0074085835,0.0008912106
2022740000,2022740000,0.0028030267,0.0069478923,0.0009506706
2022760000,2022760000,0.0001642661,-0.0009844955,0.00056408736
2022780000,2022780000,0.0005095546,0.0019871606,0.00030965183
2022800000,2022800000,-0.0016459535,-0.0007574846,-8.953046e-05
2022820000,2022820000,-0.0009928952,0.0020396973,-0.00033005638
2022836000,2022836000,-0.001433532,0.004356032,-9.029827e-07
2022860000,2022860000,0.0015392721,0.0018573168,-8.449823e-05
2022880000,2022880000,-0.0023427808,0.0012284783,4.6528905e-05
2022900000,2022900000,-0.003385141,-0.0017578029,0.00031614353
2022920000,2022920000,0.004274372,-0.0011840793,-0.00026638276
2022940000,2022940000,-0.001431884,0.0041924925,-4.595518e-05
2022960000,2022960000,-0.00040966354,0.000119400094,-0.00015319543
2022980000,2022980000,0.00037818996,0.0013448114,0.00044624205
2023000000,2023000000,0.0021443763,0.0018313779,0.0004680969
2023020000,2023020000,0.0060855234,0.0014970291,7.547229e-05
2023040000,2023040000,0.0059169936,0.0022933204,-0.00048041024
2023060000,2023060000,0.0016214335,-0.0009936092,-0.00031984228
2023080000,2023080000,-0.0067311395,0.0013547426,-0.00035788186
2023100000,2023100000,-0.0016100339,-0.00022327487,-0.00020117612
2023120000,2023120000,0.0023338702,0.0042204843,3.3400254e-05
2023140000,2023140000,0.00047175086,0.0044252556,-2.0493964e-05
2023160000,2023160000,-0.0017023226,0.002099036,-2.5055999e-05
2023180000,2023180000,0.0005776432,-0.0009909004,-0.0003466567
2023200000,2023200000,-0.0030345866,0.0002931495,-0.00068255444
2023220000,2023220000,0.00045561604,0.002465232,-0.00010062881
2023240000,2023240000,-0.0021226415,0.0036589103,1.7468097e-05
2023260000,2023260000,0.00031920697,-0.0015905086,-0.00046625087
2023280000,2023280000,0.005538478,-0.002926222,-0.0002633014
2023300000,2023300000,0.0020120605,0.0060444875,-0.00085359503
2023320000,2023320000,-0.0027057873,-0.0006622515,-0.00033835642
2023340000,2023340000,-0.005827221,0.00078311615,-0.0001129666
2023356000,2023356000,-0.0005706741,0.0064108195,0.000121650985
2023380000,2023380000,-0.00011562614,0.004813118,1.2849381e-05
2023400000,2023400000,-0.00084027206,0.0012727833,3.766882e-05
2023420000,2023420000,-0.0006764638,0.00013939192,0.0004856395
2023440000,2023440000,0.0022946585,0.002731304,-0.00013551876
2023460000,2023460000,0.0035008278,0.0018187473,-0.00029376254
2023480000,2023480000,0.00026024482,0.0036935343,-8.2118095e-06
2023500000,2023500000,0.004333874,0.002102808,-8.831357e-05
2023520000,2023520000,0.0059836437,0.000105034036,5.5841774e-05
2023540000,2023540000,-0.007079643,-0.002607695,0.0002005601
2023560000,2023560000,-0.0009773674,0.0033369309,-7.815933e-05
2023580000,2023580000,0.00044779057,-7.633539e-05,0.00013174387
2023600000,2023600000,0.007165218,0.005905429,-0.00017779374
2023620000,2023620000,-0.0060320413,0.007020641,8.7178705e-06
2023640000,2023640000,0.004011046,-0.00019895588,-4.044526e-05
2023660000,2023660000,-0.0015461859,-0.00015983428,0.00035929214
2023680000,2023680000,0.004243997,0.0071842885,0.00031245316
2023700000,2023700000,-0.0016836529,-0.0013050057,-1.095008e-05
2023720000,2023720000,-0.001573574,0.004968163,3.5692792e-05
2023740000,2023740000,0.00300429,-0.0007971241,4.158441e-05
2023760000,2023760000,-0.005255545,-5.085359e-05,0.00022537868
2023780000,2023780000,-0.0020646157,0.0044684485,0.00023907862
2023800000,2023800000,0.0009325098,0.006370565,0.0005585558
2023820000,2023820000,-0.0037685996,0.0021571498,-0.00033460796
2023840000,2023840000,0.0057686954,0.0047302656,-0.00018842718
2023860000,2023860000,0.0019994846,0.00013582635,-0.00047371912
2023880000,2023880000,0.002632946,0.0011710027,-0.00033688635
2023900000,2023900000,0.00033703254,0.0012439389,-0.00059839856
2023916000,2023916000,0.0046599023,0.0038069128,-0.0003474721
2023940000,2023940000,-0.0015073328,0.0010897559,-0.0005071822
2023960000,2023960000,0.0062243687,0.0025076857,-0.00023586443
2023980000,2023980000,0.0012299279,0.004818494,0.0003495842
2024000000,2024000000,0.006825892,0.0018328167,0.00014707353
2024020000,2024020000,-0.0010198125,0.0019251736,0.0005772298
2024040000,2024040000,-0.0017753884,0.0032020775,0.0007293929
2024060000,2024060000,0.003134958,0.000566018,0.0006256014
2024080000,2024080000,0.0019221791,0.001626671,0.0006679417
2024100000,2024100000,0.0003612016,0.0021965867,0.0006149319
2024120000,2024120000,-0.002075099,0.0035665566,0.00076316274
2024140000,2024140000,-0.0050543444,-0.0021931652,0.0006866383
2024160000,2024160000,-0.004213307,0.001979217,0.0002805518
2024180000,2024180000,0.00064982293,0.001317365,0.00028576664
2024200000,2024200000,0.0029130825,0.0016830899,0.00044891998
2024220000,2024220000,0.00056012295,-0.0011695517,0.00028251676
2024240000,2024240000,-0.0034946105,5.7749014e-05,0.00077513856
2024260000,2024260000,-0.00064715475,0.0032977941,0.0008771943
2024280000,2024280000,-0.0016919938,0.0022752115,0.0006868098
2024300000,2024300000,-0.004028906,0.0014326097,0.00019426888
2024320000,2024320000,0.0048030596,0.0024656605,-0.00040725904
2024340000,2024340000,-0.0015816364,-0.0018390833,-0.0007292239
2024360000,2024360000,-0.003152722,0.002986783,-0.00094262394
2024380000,2024380000,0.004208794,0.0020987613,-0.0009317667
2024400000,2024400000,0.00042593118,0.0015865837,-0.00083451864
2024420000,2024420000,0.0033934414,0.002667011,-0.0003735642
2024440000,2024440000,-0.0024206005,-0.0031226438,-0.0004010127
2024460000,2024460000,-0.0016962901,0.006666347,-0.000561088
2024480000,2024480000,-0.0006790938,0.0031195853,-0.000546279
2024500000,2024500000,-0.0005554204,0.0030628871,-0.00078466046
2024520000,2024520000,-0.0016409913,0.0054104775,-0.00044434966
2024540000,2024540000,0.003969596,0.0051300256,-0.00010854936
2024556000,2024556000,0.0016742127,0.0012244694,-0.00057836506
2024580000,2024580000,0.0050963843,-0.002993358,-0.001273782
2024600000,2024600000,-0.005299501,-0.00022359175,-0.0010910099
2024620000,2024620000,0.0012897458,0.0044094906,-0.001081339
2024640000,2024640000,0.0063862056,0.0039806864,-0.001355432
2024660000,2024660000,0.0029366636,0.002580164,-0.0015426588
2024676000,2024676000,-0.0030519916,0.00036301586,-0.0012842783
2024700000,2024700000,0.0023328094,0.0010237441,-0.0010574897
2024720000,2024720000,-0.0035927356,0.0017628366,-0.000954111
2024740000,2024740000,0.001970496,-0.0024238373,-0.00048078556
2024760000,2024760000,-0.0031639622,0.0011656417,0.00011887795
2024780000,2024780000,0.005291568,0.004612582,0.0005649522
2024800000,2024800000,0.0005547792,0.008090624,0.0006059699
2024820000,2024820000,-0.0014083982,-0.00070226064,0.00076890603
2024840000,2024840000,-0.0027963626,-0.000118267606,0.0008961307
2024860000,2024860000,-0.001983381,0.004079801,0.0012953972
2024880000,2024880000,-0.006768065,0.00021645473,0.0014388858
2024900000,2024900000,0.002433037,0.0054747127,0.0012508483
2024920000,2024920000,0.0039179414,-0.0031397955,0.0011394464
2024940000,2024940000,-0.00064936525,0.0038715706,0.001155596
2024960000,2024960000,-2.6271911e-05,0.0009819388,0.001071832
2024980000,2024980000,-0.0038154586,0.0045319037,0.0011379782
2025000000,2025000000,0.00055216026,0.0037765072,0.0010583152
2025020000,2025020000,-0.0011331069,-0.00090104237,0.0007331957
2025040000,2025040000,-0.0027539856,0.0022075598,0.00061545864
2025060000,2025060000,0.006706396,0.0041395975,0.0002859375
2025080000,2025080000,-0.0021781025,0.003289581,0.00023985229
2025100000,2025100000,0.0020747671,0.0059375213,0.0005120085
2025120000,2025120000,-0.0030720592,-0.004532936,4.5261084e-05
2025136000,2025136000,0.0012382844,0.00051478174,0.00041737952
2025160000,2025160000,0.0023504468,0.0050224336,0.00078283047
2025180000,2025180000,0.0023514978,0.001412263,0.0011729072
2025200000,2025200000,0.002114245,-0.0002076358,0.00054439734
2025216000,2025216000,-0.0009009547,0.0045945365,0.0003798864
2025240000,2025240000,-0.0033759084,0.0010870046,0.0007227727
2025260000,2025260000,0.0046966067,0.0069291904,0.00056755636
2025280000,2025280000,0.0016637703,0.00018130336,8.2780956e-05
2025300000,2025300000,-0.0006522914,0.0056166826,0.00015084393
2025320000,2025320000,-0.0020094106,0.0012504421,0.0003336587
2025340000,2025340000,0.0036783656,0.00047554146,0.00046447045
2025360000,2025360000,-0.00027824,0.003002697,0.0004086343
2025380000,2025380000,-0.0020493553,0.004842075,0.00018680962
2025400000,2025400000,0.006004871,0.003387427,-0.00026290794
2025420000,2025420000,0.0029219585,0.005330134,-0.00035181534
2025440000,2025440000,0.002020395,0.0031809858,-0.0004334901
2025460000,2025460000,0.0003057163,0.0010207258,-0.00045873952
2025480000,2025480000,-0.0015250585,0.0066464534,-0.00073177693
2025500000,2025500000,0.0033420743,-0.00047838432,-0.00092544145
2025520000,2025520000,0.0002796618,-0.0009779902,-0.0007661304
2025536000,2025536000,0.0018684095,0.0032067336,-0.00082205917
2025560000,2025560000,-0.005986127,-0.00235501,-0.0004947795
2025580000,2025580000,0.0020745853,0.0031973738,-0.00036445688
2025600000,2025600000,0.002204421,0.0060769767,-0.00011371882
2025620000,2025620000,0.0034690509,0.003972191,-0.00023839224
2025640000,2025640000,0.004842502,-0.00046158605,-0.00025909577
2025660000,2025660000,-0.004331911,0.0019973973,-0.00020823312
2025680000,2025680000,0.0023083081,0.00011691218,2.6442078e-05
2025700000,2025700000,0.004778836,0.0019596512,0.0002470794
2025720000,2025720000,-0.0014115904,0.0025085679,-9.51472e-05
2025740000,2025740000,0.0032781777,-0.0021126645,-0.00025868902
2025760000,2025760000,0.0031115327,0.002120964,8.509794e-05
2025780000,2025780000,0.0019907402,0.006833392,0.0001290219
2025800000,2025800000,4.5874825e-05,0.0021427064,-9.887497e-05
2025820000,2025820000,0.00058640173,-0.001678733,-0.00014275793
2025840000,2025840000,0.0012171102,0.0019005025,-6.283874e-05
2025860000,2025860000,-0.0054166657,0.005576974,-2.3408029e-05
2025880000,2025880000,-0.0020371855,-0.0014346091,-0.00015253818
2025900000,2025900000,0.003074124,-0.002634059,5.4789343e-06
2025920000,2025920000,0.0015736531,0.0005317464,1.6937338e-05
2025940000,2025940000,0.002812285,-0.0030948385,0.0003641543
2025960000,2025960000,-0.0010462631,0.002448964,0.0008766419
2025980000,2025980000,-0.00038930634,-0.000118126394,0.00072123174
2026000000,2026000000,-0.005360344,0.0059364936,0.0008818689
2026020000,2026020000,-0.0045351945,-0.00049808517,0.0011596134
2026040000,2026040000,0.008837618,0.004792862,0.0018060202
2026060000,2026060000,-0.00017298607,0.0062234215,0.001689311
2026080000,2026080000,0.0061579403,-0.00079919235,0.0013168436
2026100000,2026100000,-0.00057000987,0.0015442328,0.00089617545
2026120000,2026120000,-0.0043362933,0.006109877,0.0009643035
2026140000,2026140000,-0.000635683,-0.001352246,0.0005663863
2026160000,2026160000,0.0020093773,0.002385553,8.486807e-05
2026180000,2026180000,0.00017445604,0.0051707057,-0.00033067205
2026200000,2026200000,0.0010348619,0.0013407846,-0.00047131424
2026220000,2026220000,-0.0018603962,0.0055276044,-0.00067960453
2026240000,2026240000,-0.001792135,0.0031693382,-0.0007925419
2026260000,2026260000,0.0022827627,0.0005513311,-0.0007077896
2026280000,2026280000,0.0015998026,0.0012779735,-0.00078005315
2026300000,2026300000,0.0017903972,-0.0016063916,-0.0009908463
2026320000,2026320000,-0.0068850676,-0.0009908917,-0.0007124441
2026340000,2026340000,-0.0033140457,0.0016610532,-0.0012859672
2026360000,2026360000,-0.0034921672,-0.0007310783,-0.0015495498
2026380000,2026380000,0.005131839,0.006313987,-0.0014220587
2026400000,2026400000,-0.0037881788,0.0034949933,-0.0015375647
2026420000,2026420000,-0.00031599007,0.006963513,-0.0016495682
2026440000,2026440000,0.0015348883,-0.0046489304,-0.0017190357
2026460000,2026460000,-0.0024629883,0.0020171972,-0.0015923567
2026480000,2026480000,0.0032991832,0.00026724406,-0.0012985008
2026500000,2026500000,0.008560543,0.004661385,-0.00065893726
2026520000,2026520000,-0.0027162547,4.3289387e-05,-0.00044546352
2026540000,2026540000,0.0023076828,0.00024065364,0.00012280059
2026560000,2026560000,-0.0025540285,0.0027201085,0.00012616263
2026580000,2026580000,-0.0026707477,0.002388695,0.00036334177
2026600000,2026600000,0.001271639,0.004380131,0.0007362833
2026620000,2026620000,0.0015437368,0.003837297,0.00086256355
2026640000,2026640000,0.003913996,0.00042996852,0.0011104393
2026660000,2026660000,-0.0028276579,0.0047814604,0.0011098195
2026680000,2026680000,0.0023092283,0.0024762093,0.00063618703
2026700000,2026700000,-0.0026768127,0.0024730547,0.00097548286
2026720000,2026720000,0.0041282526,0.000708901,0.0012285253
2026740000,2026740000,0.0002711895,0.005076768,0.0014309383
2026760000,2026760000,-0.0024031396,0.00040086976,0.0013058989
2026780000,2026780000,-0.0037271744,0.0029332184,0.0014995516
2026800000,2026800000,-0.0035470002,0.0009551247,0.0016624364
2026820000,2026820000,-0.0006650345,0.0026976948,0.0016175034
2026840000,2026840000,-0.0010820583,0.00035682146,0.0014283333
2026860000,2026860000,0.0020964933,0.00057815993,0.0012804705
2026880000,2026880000,0.00052255247,0.0068034995,0.0008932691
2026900000,2026900000,0.0029259755,0.0029182285,0.00020991398
2026920000,2026920000,0.0035187183,0.00025063346,-0.00017222906
2026940000,2026940000,-0.0024818329,0.0014188456,-0.00019381475
2026960000,2026960000,-0.0012565737,-0.0031395475,-0.00031933223
2026980000,2026980000,-0.004290117,-0.0021750112,-0.0004397564
2027000000,2027000000,0.003534159,0.0013473897,-0.0005717371
2027020000,2027020000,0.0037966724,0.001434472,-0.0010717992
2027040000,2027040000,-1.0351825e-05,0.0010509896,-0.0009835606
2027060000,2027060000,0.006264853,5.8611622e-05,-0.0008390675
2027076000,2027076000,0.0027555488,0.0029775938,-0.0006570931
2027100000,2027100000,-0.004015162,0.0018628994,-0.00083126035
2027120000,2027120000,-4.985131e-05,0.004824989,-0.0010649337
2027136000,2027136000,0.00051409146,0.0021771837,-0.0009017968
2027160000,2027160000,0.0030108807,0.0017108043,-0.0004518259
2027180000,2027180000,0.00093435403,0.00021103746,-0.00017406167
2027200000,2027200000,0.0026593285,0.004001292,-0.0003507488
2027220000,2027220000,0.0017888502,-0.0013535767,-0.000198473
2027240000,2027240000,0.0037974822,0.0012502167,-0.00015703324
2027260000,2027260000,0.00022717874,0.0033862153,-8.880165e-05
2027280000,2027280000,0.0011367843,0.00219088,-1.7525064e-05
2027300000,2027300000,-0.0017473786,0.0014608797,-0.0002976347
2027320000,2027320000,-0.0016249733,0.0056257984,-0.00020037877
2027340000,2027340000,0.00056562,0.0033354932,-0.0003766521
2027360000,2027360000,0.00071701,0.006636573,-0.00042288104
2027380000,2027380000,-0.0031478351,0.0032671904,9.005098e-05
2027400000,2027400000,0.002268645,0.0031283759,0.0006403313
2027420000,2027420000,-0.0013732866,0.00692458,0.00073455216
2027440000,2027440000,-0.0005296944,0.0012031551,0.00061208656
2027460000,2027460000,-0.0018965497,-0.001734495,0.0008115104
2027480000,2027480000,0.0019810214,0.004177615,0.0010849872
2027500000,2027500000,0.0025415933,-0.0014010443,0.00092663773
2027520000,2027520000,-0.0016364888,0.0007253301,0.00080262206
2027540000,2027540000,0.0014582479,0.0009790214,0.0006945242
2027560000,2027560000,0.00035035412,0.0061151087,0.00074086443
2027580000,2027580000,0.001045392,0.0037047318,0.0003938374
2027600000,2027600000,-0.0009558737,0.0011183883,0.00060778484
2027620000,2027620000,0.0023339672,-0.0024125508,2.3392568e-05
2027640000,2027640000,-0.0017960666,0.0009828769,-0.00045539116
2027660000,2027660000,-7.53965e-05,0.0031164347,-0.00072578096
2027680000,2027680000,-0.009195926,-0.0013137052,-0.0006765218
2027700000,2027700000,-0.00026916608,-0.00066492136,-0.00082245964
2027720000,2027720000,0.0013328688,0.0027461946,-0.0008073536
2027740000,2027740000,-0.0027284687,0.0036379169,-0.0005456583
2027760000,2027760000,0.0050271824,0.002300081,-0.00030421876
2027780000,2027780000,0.0011816607,-0.0028269556,8.716105e-05
2027800000,2027800000,0.0032113693,0.007137525,0.000394215
2027816000,2027816000,-0.000199529,0.0035092991,0.0002806426
2027840000,2027840000,-0.003148788,0.00040606933,0.00051129254
2027860000,2027860000,0.0013729292,0.00047309307,0.00047987822
2027880000,2027880000,-0.003156085,0.0022882991,0.0005593713
2027900000,2027900000,0.0022737295,0.0034238142,0.00017373427
2027920000,2027920000,0.004133514,0.0044020624,-0.00014251517
2027940000,2027940000,-0.006422399,0.001319381,-0.00053882884
2027960000,2027960000,0.0009935282,0.0052194623,-0.0008831242
2027980000,2027980000,0.0016051539,0.00057437783,-0.0005565238
2028000000,2028000000,0.0020826976,0.004627351,-0.0006078646
2028020000,2028020000,-0.00060319336,0.005138905,-0.000781202
2028040000,2028040000,-0.0040236376,-0.00052223017,-0.00088659854
2028060000,2028060000,-0.0021925326,-0.0011802964,-0.00086681114
2028080000,2028080000,0.003921003,-0.00066817,-0.00096269546
2028100000,2028100000,-0.0011485515,0.0048370007,-0.0012754576
2028120000,2028120000,0.0031706598,0.0013258163,-0.0012602339
2028140000,2028140000,0.0017885426,0.0016284534,-0.0008624921
2028160000,2028160000,-0.0055732373,0.00065463455,-0.00066063774
2028176000,2028176000,0.0012036883,0.0048109456,-0.00022531369
2028200000,2028200000,0.0006366315,-0.0019664401,2.4921908e-05
2028220000,2028220000,0.00072276057,0.0061593,0.00029225694
2028240000,2028240000,-0.0026005628,0.00062258245,0.00059251365
2028260000,2028260000,-0.0028065816,0.0009552915,0.00046547918
2028280000,2028280000,-0.003742218,0.005640624,0.00082772097
2028300000,2028300000,0.0017645087,0.0007181271,0.00079488935
2028320000,2028320000,-0.0010423178,-0.0028379818,0.00078968966
2028340000,2028340000,0.004315584,0.0002299191,0.0009135321
2028360000,2028360000,-0.001149635,0.0051730312,0.0010048029
2028380000,2028380000,0.001973136,0.002654228,0.0013267131
2028400000,2028400000,0.00047390678,0.0032179828,0.0014188159
2028420000,2028420000,-0.00256502,-0.0025816425,0.0010784302
2028440000,2028440000,0.0012839559,0.008639371,0.0010449087
2028460000,2028460000,0.0006514322,0.0029389379,0.0011797528
2028480000,2028480000,-0.0021193705,0.0055068918,0.00073287875
2028500000,2028500000,-0.0017656906,0.0010528149,0.0007881813
2028520000,2028520000,-0.0042542377,0.0004048876,0.00046849504
2028540000,2028540000,-0.0012489296,0.0035659713,6.950805e-05
2028560000,2028560000,-0.0019034256,-0.0006012673,-7.7532655e-05
2028580000,2028580000,0.000416442,0.00097260874,-0.00024085719
2028600000,2028600000,-0.0012458473,-0.0007273579,-0.00039407163
2028620000,2028620000,-0.0009247537,0.0043760887,-0.00036502667
2028640000,2028640000,-0.0032975897,0.007541106,-0.00070748397
2028660000,2028660000,0.00027620845,-0.0018735465,-0.00075039157
2028680000,2028680000,-0.00094982097,0.0015541632,-0.00085123203
2028700000,2028700000,0.0025221745,0.00067180535,-0.0007472685
2028720000,2028720000,0.0018524386,0.0048286067,-0.0008993996
2028740000,2028740000,-0.00079332717,-0.005437472,-0.0009897163
2028760000,2028760000,-0.0005223079,0.004867232,-0.0009283273
2028780000,2028780000,0.004012624,0.0030630834,-0.0012706527
2028800000,2028800000,-0.005734543,-1.6412e-05,-0.0016128169
2028820000,2028820000,-0.0018008883,0.0047272556,-0.0013210797
2028840000,2028840000,-0.003000694,0.0038092874,-0.0007315064
2028860000,2028860000,-0.004664778,0.0025336475,-0.0007558028
2028880000,2028880000,0.00032407924,0.004056636,-0.0006294732
2028900000,2028900000,0.00038494263,0.010355369,-0.0011949553
2028920000,2028920000,0.0005720728,-0.0006238199,-0.0011634434
2028940000,2028940000,-0.0007198571,-0.0068569053,-0.0013272117
2028960000,2028960000,0.00017266051,-0.001684905,-0.0011316976
2028980000,2028980000,0.0033022582,0.0034903977,-0.001005749
2029000000,2029000000,-0.00038617503,0.0024911899,-0.0006915446
2029016000,2029016000,-0.0033187214,0.0034187539,-0.00031831887
2029040000,2029040000,-0.0035912108,0.003512458,0.0006876997
2029060000,2029060000,0.0030586438,0.003086601,0.0010510143
2029080000,2029080000,-0.00060216436,0.0012992336,0.001542183
2029100000,2029100000,0.0012118255,0.0018410934,0.001575881
2029120000,2029120000,-0.00233423,-0.0003904003,0.0016387446
2029140000,2029140000,-0.0008083539,0.0033065684,0.0017089648
2029160000,2029160000,0.0029439419,0.004456889,0.001491936
2029180000,2029180000,-0.0032997304,-0.002451528,0.0010941938
2029200000,2029200000,0.00048342184,0.0070361714,0.0008516818
2029220000,2029220000,0.0046513057,-2.3250352e-05,0.00039338044
2029240000,2029240000,-0.004388586,-0.0004601042,9.0056696e-05
2029260000,2029260000,-0.0008835157,-0.0022657588,-4.3807828e-05
2029280000,2029280000,-0.0018467021,0.0006364299,-0.00024362646
2029300000,2029300000,-0.00028663338,0.0056914412,-0.00072564516
2029320000,2029320000,-0.0034445436,0.01002485,-0.000455262
2029340000,2029340000,-0.002037059,0.0072889347,-0.00020658688
2029356000,2029356000,0.0013272904,-0.0059030745,-0.0004063446
2029380000,2029380000,0.0011928703,0.0026710725,-0.00015049144
2029400000,2029400000,-0.004691004,0.00029653986,-1.8241528e-05
2029420000,2029420000,-0.005142237,0.010408252,9.687981e-05
2029440000,2029440000,-0.0045000603,0.01295472,-0.0005265268
2029460000,2029460000,-0.0070478013,0.018754438,-0.0010788117
2029480000,2029480000,-0.012453991,0.021040818,-0.0020086817
2029500000,2029500000,-0.012782458,0.011404401,-0.0028705313
2029520000,2029520000,-0.0105741015,0.015722044,-0.004055675
2029540000,2029540000,-0.012808893,0.0045915376,-0.0054262527
2029556000,2029556000,-0.015898816,0.006378374,-0.0068457383
2029580000,2029580000,-0.0074202665,0.0019688648,-0.009290896
2029600000,2029600000,-0.012560366,-0.0012668744,-0.01093603
2029620000,2029620000,-0.01374506,0.0049605374,-0.011796012
2029640000,2029640000,-0.0101548,0.004434048,-0.01341291
2029660000,2029660000,-0.011116991,0.0037121521,-0.014413095
2029680000,2029680000,-0.0029786662,-0.002146584,-0.015288715
2029700000,2029700000,-0.006523835,-0.0008239051,-0.015953183
2029720000,2029720000,-0.0067013795,0.0022983407,-0.016511109
2029740000,2029740000,-0.007254866,0.0007630637,-0.016807051
2029760000,2029760000,0.0028594444,-0.0025895932,-0.017193897
2029780000,2029780000,-0.0029057316,-5.8453297e-06,-0.01782496
2029800000,2029800000,-0.0052660718,0.0044361185,-0.01856821
2029820000,2029820000,-0.0054976214,0.0040062484,-0.018805062
2029840000,2029840000,-0.0030373498,-0.0020595305,-0.01890012
2029860000,2029860000,-0.002005387,-0.0020369338,-0.018524682
2029876000,2029876000,-3.704871e-05,0.0014760639,-0.018162878
2029900000,2029900000,0.0013815588,0.005810245,-0.01763638
2029916000,2029916000,-0.00027155248,0.002056631,-0.017446842
2029940000,2029940000,-0.0026014475,0.0022305925,-0.01675517
2029960000,2029960000,-0.0015945717,-0.00026613259,-0.016047249
2029980000,2029980000,-0.0022496374,0.0048833746,-0.015023331
2030000000,2030000000,-0.002592968,0.0017924282,-0.014518843
2030020000,2030020000,-0.0051494692,0.0068774894,-0.014331235
2030040000,2030040000,-0.0076886965,-0.00025155512,-0.013908625
2030060000,2030060000,-0.0025841524,0.004550456,-0.013621975
2030080000,2030080000,-0.009461527,-0.0019261473,-0.013671338
2030100000,2030100000,-0.004241681,0.0074642533,-0.013208327
2030120000,2030120000,-0.00087276543,-0.0007842254,-0.013506114
2030140000,2030140000,-0.008829266,0.0037614508,-0.013000172
2030160000,2030160000,0.0002583547,-0.0019876559,-0.013116055
2030180000,2030180000,-0.0076963995,0.0026496844,-0.012810465
2030200000,2030200000,-0.0035170019,0.0010706158,-0.013832653
2030220000,2030220000,0.0004897093,0.0008609979,-0.013753445
2030240000,2030240000,0.0070217475,-0.0033022366,-0.014298822
2030260000,2030260000,0.007759446,0.006048264,-0.013954702
2030276000,2030276000,0.006415139,-0.003941668,-0.014300141
2030300000,2030300000,0.0065557268,0.001241897,-0.014708554
2030320000,2030320000,0.00532964,0.002099823,-0.015062235
2030340000,2030340000,0.009703205,0.00601965,-0.015352657
2030360000,2030360000,0.008527311,-0.00065214536,-0.016221667
2030380000,2030380000,0.004764873,-0.00028409227,-0.016731748
2030400000,2030400000,0.000703258,0.00090901845,-0.017299974
2030420000,2030420000,0.002147953,0.0019709533,-0.017827118
2030440000,2030440000,0.005509532,0.009191008,-0.01858561
2030460000,2030460000,-0.0035058646,-0.00396205,-0.019235406
2030480000,2030480000,-0.0012494836,0.0043532727,-0.020201836
2030500000,2030500000,-0.0013547814,-0.0003115745,-0.020422114
2030520000,2030520000,-0.0024118968,0.002817701,-0.02070875
2030540000,2030540000,-0.0017682348,0.001495756,-0.02077007
2030556000,2030556000,0.0028876066,0.0010867994,-0.02097489
2030580000,2030580000,-0.001569185,0.005894549,-0.020464657
2030600000,2030600000,0.00011228974,0.003123876,-0.020055523
2030620000,2030620000,0.00021803993,0.004776637,-0.019562498
2030640000,2030640000,-0.0024840115,-0.005918257,-0.019445108
2030660000,2030660000,-0.0038319891,0.0016228608,-0.019709192
2030680000,2030680000,-0.0030697552,0.0034378862,-0.019524619
2030700000,2030700000,-0.008685535,0.0064095394,-0.018700082
2030720000,2030720000,0.000563137,0.0040644556,-0.019443909
2030740000,2030740000,-0.0039705234,0.0018857971,-0.019042218
2030760000,2030760000,-0.004829576,-0.0011826102,-0.020198999
2030780000,2030780000,-0.0062830485,0.00928605,-0.020322446
2030800000,2030800000,-0.0060820263,0.0024557458,-0.020651754
2030820000,2030820000,-0.008635877,0.003995929,-0.020280834
2030840000,2030840000,-0.008316916,0.002472178,-0.020484062
2030860000,2030860000,-0.006956435,0.0027010876,-0.020239031
2030880000,2030880000,-0.008092467,0.005683831,-0.02047091
2030900000,2030900000,-0.010626201,0.0033198593,-0.020409333
2030916000,2030916000,-0.010183086,0.0009973563,-0.020435363
2030940000,2030940000,-0.009537848,0.0025842548,-0.019850237
2030960000,2030960000,-0.011425425,0.0026172737,-0.020066775
2030980000,2030980000,-0.0077119884,-0.0002943523,-0.019644061
2031000000,2031000000,-0.013567571,0.0070889452,-0.020131253
2031020000,2031020000,-0.008687663,-0.0023369486,-0.020336568
2031040000,2031040000,-0.008404677,-0.00088927464,-0.020717822
2031060000,2031060000,-0.010191691,0.0028612893,-0.02046283
2031080000,2031080000,-0.012768285,0.000107181404,-0.02176536
2031100000,2031100000,-0.011874168,0.0026661349,-0.021566303
2031120000,2031120000,-0.010408895,-0.0013329498,-0.021879582
2031140000,2031140000,-0.013713114,0.0015112506,-0.022407472
2031160000,2031160000,-0.0070703677,0.002111815,-0.022368794
2031180000,2031180000,-0.0066229347,-0.0020635878,-0.02203477
2031200000,2031200000,-0.006438995,0.0005659921,-0.02249026
2031220000,2031220000,-0.012008831,0.0011491881,-0.022154655
2031240000,2031240000,-0.012529731,-0.0028086442,-0.022817004
2031260000,2031260000,-0.015561358,-0.0062752236,-0.02276932
2031280000,2031280000,-0.0050742393,-0.0022027083,-0.023035204
2031300000,2031300000,0.0035670386,0.004863406,-0.022407888
2031320000,2031320000,-0.0031434894,0.0041441815,-0.022223469
2031340000,2031340000,-0.0017393142,0.0026127866,-0.021144418
2031360000,2031360000,-0.0010422182,-0.003112324,-0.021341274
2031380000,2031380000,-0.00440728,0.0028157907,-0.020342313
2031400000,2031400000,-0.0052133766,0.0047709127,-0.02040807
2031420000,2031420000,-0.008024644,-0.0007946326,-0.019554272
2031440000,2031440000,-0.008443313,0.005415202,-0.019533869
2031460000,2031460000,0.00014048698,0.004317099,-0.019211503
2031480000,2031480000,-0.006525642,0.0018909583,-0.019183798
2031500000,2031500000,-0.00011336751,0.0027201527,-0.01860064
2031520000,2031520000,-0.012193393,0.0028264394,-0.018709881
2031540000,2031540000,-0.003848947,-0.0017698251,-0.018270874
2031560000,2031560000,-0.0033527242,0.00094379956,-0.018005373
2031580000,2031580000,-0.010689422,-0.0018005308,-0.018138157
2031600000,2031600000,-0.0050643682,-0.0032813833,-0.018014187
2031620000,2031620000,-0.0034783143,0.00050419645,-0.017172376
2031640000,2031640000,-0.004983127,-0.004353522,-0.017455978
2031660000,2031660000,-0.015829334,0.0018198063,-0.017822266
2031680000,2031680000,-0.010135058,-0.0065172827,-0.01827731
2031700000,2031700000,-0.012026417,-0.0022869038,-0.018635152
2031720000,2031720000,-0.013064173,-0.0016489436,-0.01903824
2031740000,2031740000,-0.006096226,-0.0010613846,-0.019024678
2031760000,2031760000,-0.0130198365,-0.0031299833,-0.019491874
2031780000,2031780000,-0.010428501,-0.0051070065,-0.018901637
2031800000,2031800000,-0.016033506,-0.0054965075,-0.01890745
2031820000,2031820000,-0.0074535515,-0.0081087565,-0.017492503
2031840000,2031840000,-0.011403691,-0.0058643008,-0.015970932
2031860000,2031860000,-0.01137363,-0.011974191,-0.013920796
2031880000,2031880000,-0.0115794,-0.0089567965,-0.012273998
2031900000,2031900000,-0.00929483,-0.00828542,-0.010223233
2031916000,2031916000,-0.010148582,-0.012967506,-0.008129984
2031940000,2031940000,-0.009479585,-0.008724643,-0.005147535
2031960000,2031960000,-0.010108387,-0.0096838605,-0.003022515
2031980000,2031980000,-0.014637257,-0.010283231,-0.00088676787
2032000000,2032000000,-0.011958956,-0.0054781246,0.00072387065
2032020000,2032020000,-0.019053899,-0.0026031148,0.0027623682
2032040000,2032040000,-0.00928195,-0.011126035,0.004643627
2032060000,2032060000,-0.019065546,-0.009321634,0.0061019417
2032080000,2032080000,-0.015811315,-0.01721867,0.0066652936
2032100000,2032100000,-0.0038570121,-0.0143529065,0.0073615774
2032120000,2032120000,-0.004830271,-0.014611971,0.007534726
2032140000,2032140000,-0.0074902177,-0.011530435,0.008408976
2032160000,2032160000,-0.013415072,-0.018706579,0.008437791
2032180000,2032180000,-0.01860283,-0.018445252,0.008624649
2032196000,2032196000,-0.0127056725,-0.024778005,0.008333428
2032220000,2032220000,-0.021714568,-0.019563276,0.008009669
2032240000,2032240000,-0.017407639,-0.023324607,0.007208967
2032260000,2032260000,-0.021994876,-0.025364492,0.0064834156
2032280000,2032280000,-0.017790843,-0.021015389,0.0057103834
2032300000,2032300000,-0.020120345,-0.025979355,0.005340991
2032320000,2032320000,-0.01795781,-0.029937355,0.0040792525
2032340000,2032340000,-0.016258758,-0.022941511,0.003343648
2032360000,2032360000,-0.016703399,-0.021147901,0.0023456484
2032380000,2032380000,-0.014533891,-0.023416845,0.0010365624
2032396000,2032396000,-0.022769518,-0.0255537,0.00036677014
2032420000,2032420000,-0.016729731,-0.018075729,-0.00041238737
2032440000,2032440000,-0.008370933,-0.017758606,-0.001962347
2032460000,2032460000,-0.009448256,-0.019851236,-0.0020648655
2032480000,2032480000,-0.013120499,-0.015292808,-0.002806713
2032500000,2032500000,-0.013593959,-0.021389,-0.002733438
2032520000,2032520000,-0.00927718,-0.02168014,-0.0031618401
2032540000,2032540000,-0.008128134,-0.01528989,-0.0034422148
2032560000,2032560000,-0.008117565,-0.02076498,-0.0035952425
2032580000,2032580000,-0.00812718,-0.0192007,-0.0034775236
2032600000,2032600000,-0.0074747745,-0.019499302,-0.0036916002
2032620000,2032620000,-0.0026248817,-0.010880435,-0.0034245367
2032640000,2032640000,-0.008049059,-0.01488472,-0.0029890467
2032660000,2032660000,-0.008997282,-0.012590414,-0.0025037269
2032680000,2032680000,-0.003323496,-0.021111842,-0.0016039317
2032700000,2032700000,-0.0031058516,-0.024169128,-0.0006390377
2032720000,2032720000,-0.003067254,-0.014457578,0.00021673305
2032736000,2032736000,-0.003544266,-0.010177604,0.001295089
2032760000,2032760000,-0.0002909146,-0.015727606,0.0017729173
2032780000,2032780000,0.0019310329,-0.0178116,0.0025238693
2032800000,2032800000,-0.0042746738,-0.01590611,0.0029450438
2032820000,2032820000,-0.0023689475,-0.014079017,0.003195886
2032840000,2032840000,-0.0010339116,-0.013279999,0.003677158
2032860000,2032860000,-0.002339144,-0.0140431505,0.0039640646
2032880000,2032880000,-0.0034910298,-0.018231302,0.0038322762
2032900000,2032900000,-0.003484332,-0.015854822,0.0044212705
2032916000,2032916000,-0.0026528833,-0.0142009,0.0047243647
2032940000,2032940000,-0.0025039806,-0.021806898,0.0050448244
2032960000,2032960000,-0.0076178457,-0.017278753,0.0049392954
2032980000,2032980000,-0.0067160963,-0.014265287,0.0052647614
2033000000,2033000000,-0.0020889402,-0.018096263,0.004988439
2033020000,2033020000,-0.0019010752,-0.016271582,0.0049721883
2033040000,2033040000,0.0001657246,-0.01418603,0.00531171
2033060000,2033060000,-0.0039758063,-0.016348694,0.0058114543
2033080000,2033080000,-0.00021954131,-0.013433408,0.0058559105
2033100000,2033100000,-0.0023314499,-0.02249515,0.005675188
2033120000,2033120000,-0.005358629,-0.020276628,0.0053878454
2033140000,2033140000,-0.0033856595,-0.018450826,0.005303722
2033160000,2033160000,-0.0011154049,-0.016425563,0.004956422
2033180000,2033180000,-0.003712357,-0.020068644,0.0051515675
2033200000,2033200000,-0.0009725791,-0.01699535,0.0049336716
2033220000,2033220000,-0.0067896284,-0.013019772,0.0048752534
2033240000,2033240000,-0.0032991988,-0.02019657,0.004839305
2033260000,2033260000,-0.00084580795,-0.016393049,0.005171069
2033280000,2033280000,-0.0020598483,-0.013539396,0.005263906
2033296000,2033296000,-0.0017168731,-0.009444241,0.0058486746
2033320000,2033320000,-0.0006661729,-0.013007066,0.005973732
2033340000,2033340000,-9.6566975e-05,-0.01964476,0.005610787
2033360000,2033360000,-5.0437156e-05,-0.015233692,0.0054743923
2033380000,2033380000,-0.0042437254,-0.015637685,0.0051088496
2033396000,2033396000,0.0036329413,-0.016243275,0.004946196
2033420000,2033420000,-0.0020846499,-0.016999977,0.004847842
2033440000,2033440000,0.0024528606,-0.011133123,0.004359783
2033460000,2033460000,0.0034932108,-0.020877771,0.004518114
2033480000,2033480000,0.0062316684,-0.017274532,0.0048360494
2033500000,2033500000,-0.0024181923,-0.011531654,0.0047397832
2033520000,2033520000,0.00010753152,-0.01983252,0.0046894015
2033540000,2033540000,-0.0023420085,-0.016872145,0.0053796177
2033560000,2033560000,-0.0024684942,-0.017526316,0.0055176285
2033580000,2033580000,0.0017903,-0.02593648,0.005595575
2033600000,2033600000,-0.0015700725,-0.021747096,0.0051705525
2033620000,2033620000,0.0005807517,-0.020139003,0.0055780155
2033640000,2033640000,0.0022595553,-0.01568186,0.0061105555
2033660000,2033660000,-0.00236364,-0.013194172,0.005920461
2033680000,2033680000,-0.0025196434,-0.014052127,0.0065019936
2033700000,2033700000,-0.004917893,-0.021406457,0.0065266197
2033720000,2033720000,-0.0007343164,-0.015553061,0.0068967193
2033740000,2033740000,0.0017900197,-0.016182207,0.007310137
2033760000,2033760000,0.0019643623,-0.017364692,0.007283158
2033780000,2033780000,-0.0036183074,-0.01778786,0.007330513
2033800000,2033800000,-0.0015397052,-0.020895943,0.00775166
2033820000,2033820000,-0.00042886147,-0.015829684,0.00802468
2033840000,2033840000,-0.0025128357,-0.019028638,0.008241154
2033860000,2033860000,0.0043471446,-0.02025367,0.008672515
2033880000,2033880000,0.0012500562,-0.012184497,0.00923292
2033900000,2033900000,0.0039284416,-0.021874305,0.008606377
2033920000,2033920000,-0.00040241354,-0.015944693,0.008985478
2033940000,2033940000,-0.0010015131,-0.021294791,0.008955281
2033960000,2033960000,-0.0048053013,-0.020397514,0.009177035
2033980000,2033980000,0.003710413,-0.018851819,0.009352149
2034000000,2034000000,-0.0007804219,-0.013882873,0.009586252
2034020000,2034020000,-0.0001684067,-0.018576458,0.009501773
2034036000,2034036000,-0.0011243001,-0.023145288,0.009702918
2034060000,2034060000,-0.00053242024,-0.021292979,0.009922436
2034080000,2034080000,0.001300409,-0.011332417,0.010367676
2034100000,2034100000,0.0008877399,-0.010635164,0.01081374
2034120000,2034120000,-0.0016085878,-0.014959222,0.0109890085
2034140000,2034140000,-0.00023868564,-0.017402168,0.010320256
2034160000,2034160000,0.0005422095,-0.018327283,0.009735754
2034180000,2034180000,0.0035944222,-0.018467557,0.008688663
2034200000,2034200000,-0.0002323885,-0.01516894,0.007967451
2034220000,2034220000,-0.0030236854,-0.013736552,0.006688308
2034240000,2034240000,0.0005617923,-0.019763688,0.005512175
2034260000,2034260000,0.0008515569,-0.019228218,0.00388836
2034280000,2034280000,0.0020784535,-0.016993204,0.00288141
2034300000,2034300000,-0.0017433016,-0.015893899,0.000863604
2034320000,2034320000,-0.00092128944,-0.01768628,-0.0002905858
2034340000,2034340000,-0.003964936,-0.01717051,-0.001646765
2034360000,2034360000,-0.00049857516,-0.018388662,-0.0029883985
2034380000,2034380000,0.0020905272,-0.013239233,-0.0035350153
2034400000,2034400000,-0.0016843777,-0.016334634,-0.0046151
2034420000,2034420000,0.00341737,-0.01691683,-0.004974331
2034440000,2034440000,0.0015022712,-0.019642226,-0.005480802
2034460000,2034460000,0.0042948793,-0.017806752,-0.005660888
2034480000,2034480000,0.0013418387,-0.010738506,-0.0061885985
2034500000,2034500000,0.0014251054,-0.019101815,-0.006448677
2034520000,2034520000,-0.0034707938,-0.018456427,-0.0066569713
2034540000,2034540000,0.0020201863,-0.018944964,-0.006803715
2034560000,2034560000,-0.0025173146,-0.019704008,-0.006565354
2034580000,2034580000,0.008249737,-0.015015645,-0.006025197
2034596000,2034596000,0.011914657,-0.015750213,-0.0057931384
2034620000,2034620000,0.0036008677,-0.017368712,-0.0050893105
2034640000,2034640000,0.0021986042,-0.019812912,-0.0043983296
2034660000,2034660000,-0.0009456525,-0.019639464,-0.0038586962
2034680000,2034680000,0.005193313,-0.020251252,-0.00329824
2034700000,2034700000,-0.0013505043,-0.018286277,-0.0030783154
2034720000,2034720000,0.0044515193,-0.012979404,-0.0018703953
2034740000,2034740000,-0.0053236107,-0.016103758,-0.0010028454
2034760000,2034760000,0.003022141,-0.016316514,-0.0009207356
2034780000,2034780000,0.0039765295,-0.01986476,-0.00094496034
2034796000,2034796000,-0.0024457858,-0.018085584,-0.00075913215
2034820000,2034820000,-0.0009862228,-0.014437599,9.643919e-05
2034840000,2034840000,0.0077421004,-0.021109471,0.00042290366
2034860000,2034860000,0.0011399173,-0.015292117,0.0008918097
2034880000,2034880000,-0.0016030341,-0.018743336,0.0008306416
2034900000,2034900000,-0.0046809395,-0.021181103,0.0010772187
2034920000,2034920000,0.0015465161,-0.014493527,0.001772694
2034940000,2034940000,0.0035296578,-0.01835885,0.0019896298
2034960000,2034960000,0.00034953322,-0.019013096,0.0018997116
2034980000,2034980000,0.0003781136,-0.017578576,0.0017004355
2035000000,2035000000,-0.0012857919,-0.011224825,0.0017712609
2035020000,2035020000,0.0049092886,-0.01922382,0.0020583163
2035040000,2035040000,-0.009193325,-0.017815828,0.002188133
2035060000,2035060000,0.0073577296,-0.016093487,0.0024144743
2035076000,2035076000,0.0017271691,-0.014122854,0.0023583353
2035100000,2035100000,0.002727177,-0.014816843,0.0016095963
2035120000,2035120000,0.0028365715,-0.018588385,0.0013670976
2035140000,2035140000,-0.0035086826,-0.020453189,0.0009591659
2035160000,2035160000,-0.0021707336,-0.022791894,0.00061126496
2035180000,2035180000,-0.0038478563,-0.020394415,0.0003502668
2035200000,2035200000,-0.00045636314,-0.016004136,-0.00013723515
2035220000,2035220000,0.005197988,-0.017224016,-0.00017910919
