timestamp,timestamp_sample,time_last_fuse,device_id,observation[0],observation[1],observation[2],observation_variance[0],observation_variance[1],observation_variance[2],innovation[0],innovation[1],innovation[2],innovation_filtered[0],innovation_filtered[1],innovation_filtered[2],innovation_variance[0],innovation_variance[1],innovation_variance[2],test_ratio[0],test_ratio[1],test_ratio[2],test_ratio_filtered[0],test_ratio_filtered[1],test_ratio_filtered[2],estimator_instance,innovation_rejected,fused
2015916000,2015764000,2015764000,0,-0.005470962,0.0027586406,-0.9999812,1.0,1.0,1.0,0.0067419447,-0.0048588244,-1.5676022e-05,-0.00084243214,-0.002000766,-2.531493e-05,1.0000271,1.0000416,1.0,0.0007272414,0.00037771507,3.9318024e-09,-8.452795e-05,-0.00026604906,-2.558464e-08,0,0,1
2015924000,2015772000,2015772000,0,0.004297576,-0.0035802838,-0.9999843,1.0,1.0,1.0,-0.0030093559,0.0014705607,-1.2695789e-05,-0.0008765569,-0.0019460996,-2.5116204e-05,1.0000271,1.0000416,1.0,0.00014489565,3.459934e-05,2.578929e-09,-8.547862e-05,-0.00026131445,-2.5222345e-08,0,0,1
2015932000,2015780000,2015780000,0,0.0038691375,-0.0013535408,-0.9999916,1.0,1.0,1.0,-0.0025336046,-0.00071097945,-5.364418e-06,-0.00090265216,-0.0019266489,-2.4805151e-05,1.0000271,1.0000416,1.0,0.000102703656,8.087532e-06,4.604317e-10,-8.574988e-05,-0.0002573266,-2.4832394e-08,0,0,1
2015940000,2015788000,2015788000,0,0.00011156402,-0.008351064,-0.9999651,1.0,1.0,1.0,0.0011028303,0.006342312,-3.2186508e-05,-0.00087106973,-0.001796429,-2.4921394e-05,1.0000271,1.0000416,1.0,1.9459228e-05,0.00064357196,1.6575541e-08,-8.4093044e-05,-0.00024313923,-2.4702365e-08,0,0,1
2015948000,2015796000,2015796000,0,0.005279609,0.0028133187,-0.9999821,1.0,1.0,1.0,-0.004067124,-0.0047940486,-1.513958e-05,-0.0009214013,-0.0018436357,-2.4767349e-05,1.0000271,1.0000416,1.0,0.0002646568,0.00036771112,3.66731e-09,-8.693657e-05,-0.000245101,-2.4371104e-08,0,0,1
2015956000,2015804000,2015804000,0,0.0024968206,-0.0016098734,-0.9999956,1.0,1.0,1.0,-0.0011871667,-0.0003396367,-1.66893e-06,-0.0009255866,-0.0018199506,-2.4403595e-05,1.0000272,1.0000417,1.0,2.2549222e-05,1.8455723e-06,4.456524e-11,-8.592259e-05,-0.0002412702,-2.398801e-08,0,0,1
2015972000,2015820000,2015820000,0,0.0059456257,0.0010798117,-0.9999818,1.0,1.0,1.0,-0.004604945,-0.0031456957,-1.5199184e-05,-0.0010280296,-0.0016983056,-2.4726654e-05,1.0000272,1.0000417,1.0,0.00033927907,0.00015831982,3.6962433e-09,-9.215522e-05,-0.00022273566,-2.4035911e-08,0,0,1
2015980000,2015828000,2015828000,0,0.008694395,-0.006281526,-0.9999424,1.0,1.0,1.0,-0.0074151903,0.0042884573,-5.4836273e-05,-0.0011286148,-0.0016040258,-2.5200821e-05,1.0000272,1.0000417,1.0,0.00087973685,0.0002942416,4.811227e-08,-0.00010455808,-0.00021459429,-2.4415066e-08,0,0,1
2015988000,2015836000,2015836000,0,0.0034535807,-0.0015056757,-0.9999929,1.0,1.0,1.0,-0.0021932626,-0.00055094436,-4.23193e-06,-0.0011453809,-0.0015874419,-2.4870602e-05,1.0000272,1.0000417,1.0,7.6964316e-05,4.856432e-06,2.8654767e-10,-0.00010412353,-0.00021129132,-2.4035089e-08,0,0,1
2015996000,2015844000,2015844000,0,0.00476692,0.008904103,-0.9999489,1.0,1.0,1.0,-0.0035068432,-0.011013292,-4.798174e-05,-0.0011825693,-0.0017358805,-2.5234556e-05,1.0000273,1.0000417,1.0,0.00019676182,0.0019406005,3.6835957e-08,-0.0001055824,-0.00023852453,-2.4236677e-08,0,0,1
2016012000,2015860000,2015860000,0,-0.0010912414,0.003094306,-0.9999946,1.0,1.0,1.0,0.0025842527,-0.0050150454,-2.4437904e-06,-0.0011248273,-0.0020161872,-2.6116071e-05,1.0000261,1.0000405,1.0,0.00010685101,0.0004023946,9.555379e-11,-0.000101009566,-0.00030482933,-2.622869e-08,0,0,1
2016020000,2015868000,2015868000,0,0.00080880016,-0.0006653819,-0.99999946,1.0,1.0,1.0,0.0007292912,-0.00107069,2.0861626e-06,-0.0010956286,-0.0020012974,-2.5671941e-05,1.0000261,1.0000405,1.0,8.509628e-06,1.8341289e-05,6.963319e-11,-9.928485e-05,-0.0003003177,-2.5814543e-08,0,0,1
2016028000,2015876000,2015876000,0,0.00028036768,0.0075836065,-0.99997115,1.0,1.0,1.0,0.0013358654,-0.009202092,-2.6226044e-05,-0.0010573374,-0.0021146957,-2.5680667e-05,1.0000261,1.0000407,1.0,2.8551834e-05,0.0013548009,1.1004886e-08,-9.727167e-05,-0.00031692375,-2.558132e-08,0,0,1
2016036000,2015884000,2015884000,0,-0.0014156252,0.00036055717,-0.9999989,1.0,1.0,1.0,0.0031662758,-0.0019266279,1.66893e-06,-0.0009908238,-0.0021117341,-2.5249965e-05,1.0000262,1.0000407,1.0,0.00016040064,5.938791e-05,4.456524e-11,-9.321384e-05,-0.00031286807,-2.5177762e-08,0,0,1
2016052000,2015900000,2015900000,0,-0.0049287607,-0.005617159,-0.99997205,1.0,1.0,1.0,0.006693113,0.0040797926,-2.527237e-05,-0.0008272565,-0.0017841043,-2.6400887e-05,1.0000262,1.0000407,1.0,0.0007167454,0.0002663045,1.02190825e-08,-7.824993e-05,-0.00025867837,-2.7006225e-08,0,0,1
2016060000,2015908000,2015908000,0,0.003848908,-0.0026937653,-0.99998903,1.0,1.0,1.0,-0.0020500808,0.0012004983,-8.225441e-06,-0.00084651355,-0.0017371026,-2.611466e-05,1.0000262,1.0000408,1.0,6.724354e-05,2.3058199e-05,1.0825261e-09,-7.80766e-05,-0.00025424158,-2.6597977e-08,0,0,1
2016068000,2015916000,2015916000,0,0.007274923,-0.004075361,-0.9999652,1.0,1.0,1.0,-0.0054919105,0.002592498,-3.2186508e-05,-0.0009196694,-0.0016689199,-2.6210279e-05,1.0000262,1.0000408,1.0,0.00048256465,0.000107532345,1.6575541e-08,-8.444649e-05,-0.00024854435,-2.6440144e-08,0,0,1
2016076000,2015924000,2015924000,0,0.0027991813,-0.004258887,-0.999987,1.0,1.0,1.0,-0.0010615026,0.002891605,-1.0550022e-05,-0.000921903,-0.0015971006,-2.596366e-05,1.0000263,1.0000408,1.0,1.802813e-05,0.00013377662,1.7808475e-09,-8.340053e-05,-0.00024252356,-2.605181e-08,0,0,1
2016092000,2015940000,2015940000,0,0.009046171,-0.0013042644,-0.9999583,1.0,1.0,1.0,-0.007406638,-2.5744783e-05,-3.9458275e-05,-0.0010264462,-0.0015362066,-2.5830093e-05,1.0000263,1.0000408,1.0,0.0008777095,1.0604269e-08,2.4911287e-08,-9.4904884e-05,-0.00023481135,-2.5633323e-08,0,0,1
2016100000,2015948000,2015948000,0,0.000516035,0.0011792044,-0.9999992,1.0,1.0,1.0,0.0010236237,-0.0024407613,1.1920929e-06,-0.0009941617,-0.0015504515,-2.5404546e-05,1.0000263,1.0000408,1.0,1.6764447e-05,9.531317e-05,2.2737368e-11,-9.3146315e-05,-0.00023261453,-2.522929e-08,0,0,1
2016108000,2015956000,2015956000,0,-0.000423846,0.004188172,-0.9999911,1.0,1.0,1.0,0.0020085787,-0.0054323226,-6.854534e-06,-0.00094687444,-0.0016115833,-2.511242e-05,1.0000263,1.0000409,1.0,6.454851e-05,0.00047214277,7.517542e-10,-9.066293e-05,-0.00023638664,-2.4843818e-08,0,0,1
2016116000,2015964000,2015964000,0,0.0012115783,-0.0008365565,-0.999999,1.0,1.0,1.0,0.00035757152,-0.00044550427,1.013279e-06,-0.00092633197,-0.0015932198,-2.4700992e-05,1.0000265,1.0000409,1.0,2.0456641e-06,3.175455e-06,1.6427748e-11,-8.920295e-05,-0.00023271402,-2.4452318e-08,0,0,1
2016132000,2015980000,2015980000,0,-0.00082845363,0.0014753643,-0.99999857,1.0,1.0,1.0,0.0025750753,-0.002813199,9.536743e-07,-0.0009300816,-0.0016670325,-2.4311381e-05,1.0000265,1.000041,1.0,0.000106093394,0.00012662023,1.4551915e-11,-9.028296e-05,-0.00023392649,-2.3850912e-08,0,0,1
2016140000,2015988000,2015988000,0,-5.4621596e-05,0.00019908181,-1.0,1.0,1.0,1.0,0.0018298168,-0.0014534551,2.3841858e-06,-0.0008866186,-0.001663669,-2.3890978e-05,1.0000265,1.000041,1.0,5.3570257e-05,3.379912e-05,9.094947e-11,-8.801756e-05,-0.00023077488,-2.3473875e-08,0,0,1
2016148000,2015996000,2015996000,0,0.0009351417,0.0017402855,-0.99999803,1.0,1.0,1.0,0.00089581846,-0.0028685369,2.9802322e-07,-0.00085854874,-0.0016826433,-2.3510049e-05,1.0000265,1.0000411,1.0,1.2839511e-05,0.00013165065,1.4210855e-12,-8.642926e-05,-0.00022921387,-2.3104185e-08,0,0,1
2016156000,2016004000,2016004000,0,0.0030627486,-0.005115074,-0.99998224,1.0,1.0,1.0,-0.001208075,0.0038795052,-1.5258789e-05,-0.0008640531,-0.0015950504,-2.3380107e-05,1.0000266,1.0000411,1.0,2.3350502e-05,0.00024079905,3.7252903e-09,-8.5435895e-05,-0.0002218121,-2.2799005e-08,0,0,1
2016172000,2016020000,2016020000,0,0.0041131424,0.005637251,-0.99997574,1.0,1.0,1.0,-0.0022957441,-0.0068524727,-2.1874905e-05,-0.0008982461,-0.0015610465,-2.3444862e-05,1.0000266,1.0000411,1.0,8.432482e-05,0.0007512712,7.656183e-09,-8.4741325e-05,-0.00021796109,-2.2416973e-08,0,0,1
2016180000,2016028000,2016028000,0,-0.0016789108,0.007350194,-0.99997157,1.0,1.0,1.0,0.0034412136,-0.008540607,-2.6226044e-05,-0.0008299081,-0.0016709608,-2.348866e-05,1.0000266,1.0000411,1.0,0.00018946618,0.0011670236,1.1004886e-08,-8.0423095e-05,-0.00023290695,-2.2237256e-08,0,0,1
2016188000,2016036000,2016036000,0,-0.0069738682,0.003970021,-0.9999678,1.0,1.0,1.0,0.0087289475,-0.005175133,-2.9921532e-05,-0.00067937496,-0.0017261446,-2.3589964e-05,1.0000266,1.0000411,1.0,0.0012190801,0.00042849436,1.4324769e-08,-5.995848e-05,-0.00023598707,-2.211265e-08,0,0,1
2016196000,2016044000,2016044000,0,-0.0015928405,0.0031259006,-0.9999939,1.0,1.0,1.0,0.0033513976,-0.0042401827,-3.9339066e-06,-0.0006158982,-0.0017657357,-2.328042e-05,1.0000267,1.0000412,1.0,0.00017970505,0.00028765452,2.4760993e-10,-5.618425e-05,-0.00023680073,-2.1768319e-08,0,0,1
2016212000,2016060000,2016060000,0,0.0064172405,0.0025287995,-0.9999762,1.0,1.0,1.0,-0.0047324756,-0.0036740052,-2.169609e-05,-0.0006969785,-0.0017197983,-2.3092332e-05,1.0000267,1.0000412,1.0,0.00035833163,0.00021596412,7.531526e-09,-6.075864e-05,-0.00023036213,-2.1247056e-08,0,0,1
2016220000,2016068000,2016068000,0,0.0013484568,0.0052338936,-0.9999854,1.0,1.0,1.0,0.00035678828,-0.006345853,-1.2457371e-05,-0.0006803837,-0.0017926495,-2.2924853e-05,1.0000267,1.0000412,1.0,2.0367117e-06,0.00064429105,2.4829774e-09,-5.9769736e-05,-0.00023688069,-2.0951559e-08,0,0,1
2016228000,2016076000,2016076000,0,0.003402432,6.781308e-05,-0.9999942,1.0,1.0,1.0,-0.0016179004,-0.001237812,-3.516674e-06,-0.0006951477,-0.001783912,-2.2619211e-05,1.0000267,1.0000412,1.0,4.1880514e-05,2.4513845e-05,1.9787194e-10,-5.9488015e-05,-0.00023353632,-2.0624729e-08,0,0,1
2016236000,2016084000,2016084000,0,0.0031539337,-0.011394701,-0.99993,1.0,1.0,1.0,-0.0013894117,0.010224909,-6.771088e-05,-0.00070608105,-0.0015947967,-2.3329316e-05,1.0000267,1.0000414,1.0,3.0886615e-05,0.001672711,7.3356205e-08,-5.90376e-05,-0.00020351668,-2.1455145e-08,0,0,1
2016252000,2016100000,2016100000,0,0.008597439,0.0109572075,-0.99990296,1.0,1.0,1.0,-0.0068492675,-0.012112387,-9.4771385e-05,-0.00087847176,-0.0016449784,-2.4854979e-05,1.0000268,1.0000414,1.0,0.0007505793,0.0023472619,1.4370585e-07,-7.675274e-05,-0.00022562478,-2.364748e-08,0,0,1
2016260000,2016108000,2016108000,0,0.003251672,-0.0005779942,-0.9999946,1.0,1.0,1.0,-0.0014455433,-0.00056601706,-3.1590462e-06,-0.00088740204,-0.0016279869,-2.451331e-05,1.0000268,1.0000414,1.0,3.343263e-05,5.125793e-06,1.5967316e-10,-7.607053e-05,-0.00022215236,-2.3277593e-08,0,0,1
2016268000,2016116000,2016116000,0,0.000998938,-0.0055303248,-0.9999842,1.0,1.0,1.0,0.0007861488,0.004433432,-1.3530254e-05,-0.0008610469,-0.0015325315,-2.4340348e-05,1.0000268,1.0000414,1.0,9.888214e-06,0.00031447213,2.9290845e-09,-7.471685e-05,-0.00021370158,-2.2957144e-08,0,0,1
2016276000,2016124000,2016124000,0,0.009326177,-0.0028140317,-0.9999526,1.0,1.0,1.0,-0.00757912,0.0017845875,-4.541874e-05,-0.00096684333,-0.0014802933,-2.4672292e-05,1.000027,1.0000415,1.0,0.0009190642,5.0953928e-05,3.300579e-08,-8.8013665e-05,-0.00020953378,-2.311539e-08,0,0,1
2016292000,2016140000,2016140000,0,0.0087843845,0.003243653,-0.9999562,1.0,1.0,1.0,-0.007018506,-0.004338866,-4.1663647e-05,-0.0010165515,-0.001591143,-2.4698804e-05,1.000027,1.0000415,1.0,0.0007881296,0.00030119965,2.7773751e-08,-9.670789e-05,-0.00021586487,-2.2851086e-08,0,0,1
2016300000,2016148000,2016148000,0,0.0035069943,-0.00641905,-0.9999732,1.0,1.0,1.0,-0.0017258836,0.005250671,-2.4557114e-05,-0.0010277221,-0.0014833979,-2.4696572e-05,1.000027,1.0000415,1.0,4.76575e-05,0.00044109442,9.648829e-09,-9.5935444e-05,-0.00020551906,-2.2643176e-08,0,0,1
2016308000,2016156000,2016156000,0,0.0008479883,-0.00064319663,-0.9999994,1.0,1.0,1.0,0.0009420166,-0.0005513942,1.66893e-06,-0.0009967026,-0.0014687207,-2.4281368e-05,1.000027,1.0000415,1.0,1.4197942e-05,4.864367e-06,4.456524e-11,-9.420106e-05,-0.00020235914,-2.2285889e-08,0,0,1
2016316000,2016164000,2016164000,0,0.0052043996,0.0036471798,-0.9999798,1.0,1.0,1.0,-0.0034024676,-0.0048575727,-1.7881393e-05,-0.0010345887,-0.0015220884,-2.4180581e-05,1.000027,1.0000415,1.0,0.00018522357,0.00037752054,5.1159077e-09,-9.563448e-05,-0.00020511758,-2.2015495e-08,0,0,1
2016332000,2016180000,2016180000,0,-0.008986295,-0.0036898851,-0.9999528,1.0,1.0,1.0,0.010855958,0.0024045124,-4.4584274e-05,-0.0009144598,-0.0015810783,-2.4998313e-05,1.0000271,1.0000416,1.0,0.0018855782,9.2503025e-05,3.180412e-08,-7.0090406e-05,-0.00021877987,-2.26119e-08,0,0,1
2016340000,2016188000,2016188000,0,0.0004502022,-0.011416092,-0.99993473,1.0,1.0,1.0,0.0013708654,0.010091773,-6.276369e-05,-0.0008784704,-0.0013972538,-2.5593043e-05,1.0000271,1.0000416,1.0,3.0067538e-05,0.0016294344,6.3028494e-08,-6.8513116e-05,-0.00018967413,-2.3248381e-08,0,0,1
2016348000,2016196000,2016196000,0,-0.002700915,-0.0059961793,-0.99997836,1.0,1.0,1.0,0.004443527,0.0046520387,-1.92523e-05,-0.0007946594,-0.0013019894,-2.549319e-05,1.0000271,1.0000416,1.0,0.00031591038,0.00034624903,5.930417e-09,-6.245921e-05,-0.0001812344,-2.2975657e-08,0,0,1
2016356000,2016204000,2016204000,0,0.002501905,-0.001077018,-0.9999962,1.0,1.0,1.0,-0.0007315796,-0.0002984862,-1.3113022e-06,-0.00079366605,-0.0012861863,-2.5112373e-05,1.0000271,1.0000416,1.0,8.563107e-06,1.4254449e-06,2.7512215e-11,-6.161045e-05,-0.00017840276,-2.261427e-08,0,0,1
2016372000,2016220000,2016220000,0,-0.0060614455,-0.0042907503,-0.99997246,1.0,1.0,1.0,0.007816272,0.0029207594,-2.503395e-05,-0.00064874365,-0.0011745436,-2.4781948e-05,1.0000272,1.0000417,1.0,0.0009774792,0.00013648768,1.0027179e-08,-4.430097e-05,-0.00017000975,-2.206925e-08,0,0,1
2016380000,2016228000,2016228000,0,-0.0050028968,-0.005147225,-0.99997425,1.0,1.0,1.0,0.0066909166,0.0037008654,-2.336502e-05,-0.0005331584,-0.0010977655,-2.4759634e-05,1.0000272,1.0000417,1.0,0.0007162744,0.00021913335,8.734787e-09,-3.2323405e-05,-0.00016388152,-2.1859258e-08,0,0,1
2016388000,2016236000,2016236000,0,-0.0037498022,0.0015637983,-0.9999918,1.0,1.0,1.0,0.0054946532,-0.0029980275,-5.6624413e-06,-0.00043823227,-0.0011276909,-2.4458892e-05,1.0000272,1.0000417,1.0,0.00048304631,0.0001438047,5.1301186e-10,-2.4207347e-05,-0.00016356535,-2.1523096e-08,0,0,1
2016396000,2016244000,2016244000,0,0.00083432446,-0.008377639,-0.99996454,1.0,1.0,1.0,0.0008938002,0.0068809073,-3.296137e-05,-0.0004172554,-0.0010015712,-2.459279e-05,1.0000272,1.0000417,1.0,1.2781714e-05,0.0007575186,1.7383229e-08,-2.3624843e-05,-0.00014906008,-2.1457902e-08,0,0,1
2016412000,2016260000,2016260000,0,0.00717015,-0.0047110855,-0.9999633,1.0,1.0,1.0,-0.005303907,0.0031941135,-3.3795834e-05,-0.0006804953,-0.00084838504,-2.6179332e-05,1.0000261,1.0000405,1.0,0.00045009115,0.00016323116,1.8274534e-08,-6.832547e-05,-0.00013654176,-2.4504956e-08,0,0,1
2016420000,2016268000,2016268000,0,0.0055841547,-0.011911505,-0.9999135,1.0,1.0,1.0,-0.003714391,0.010351218,-8.350611e-05,-0.0007282732,-0.0006720133,-2.7082117e-05,1.0000261,1.0000407,1.0,0.00022074145,0.0017142937,1.1157232e-07,-7.072572e-05,-0.00010739474,-2.5876096e-08,0,0,1
2016428000,2016276000,2016276000,0,0.0016531786,-0.0015758809,-0.9999974,1.0,1.0,1.0,0.00024250627,-2.7078902e-05,4.7683716e-07,-0.0007129853,-0.0006618569,-2.6648117e-05,1.0000261,1.0000407,1.0,9.409241e-07,1.1731794e-08,3.637979e-12,-6.959711e-05,-0.00010570367,-2.5468541e-08,0,0,1
2016436000,2016284000,2016284000,0,-0.012084278,0.009947622,-0.99987745,1.0,1.0,1.0,0.013949665,-0.011591442,-0.00011944771,-0.00048207742,-0.0008339764,-2.8109527e-05,1.0000262,1.0000407,1.0,0.0031134088,0.0021496972,2.2828408e-07,-1.9471034e-05,-0.00013789255,-2.8662487e-08,0,0,1
2016452000,2016300000,2016300000,0,-0.0037553061,0.014362511,-0.9998898,1.0,1.0,1.0,0.0055531375,-0.016174974,-0.00010699034,-0.00022582145,-0.0011506663,-2.9492543e-05,1.0000262,1.0000408,1.0,0.00049338443,0.004185906,1.8315092e-07,1.3305302e-05,-0.00020750165,-3.0994176e-08,0,0,1
2016460000,2016308000,2016308000,0,-0.001818519,0.0016699762,-0.99999696,1.0,1.0,1.0,0.003545309,-0.0033957679,5.9604645e-08,-0.00016643357,-0.0011860222,-2.9027155e-05,1.0000262,1.0000408,1.0,0.00020110219,0.00018449231,5.684342e-14,1.6262733e-05,-0.0002071393,-3.050608e-08,0,0,1
2016468000,2016316000,2016316000,0,0.005436833,-0.011633098,-0.99991757,1.0,1.0,1.0,-0.0037745987,0.010012182,-7.969141e-05,-0.00022325508,-0.0010096725,-2.9825016e-05,1.0000262,1.0000409,1.0,0.00022795555,0.0016038351,1.0161153e-07,1.2416776e-05,-0.00017862002,-3.1625852e-08,0,0,1
2016476000,2016324000,2016324000,0,0.0003215613,-0.0027332492,-0.9999961,1.0,1.0,1.0,0.0012515653,0.0011340667,-1.3709068e-06,-0.00020002956,-0.00097591284,-2.9376919e-05,1.0000263,1.0000409,1.0,2.506199e-05,2.0576876e-05,3.007017e-11,1.2615914e-05,-0.00017548306,-3.112828e-08,0,0,1
2016492000,2016340000,2016340000,0,-0.0007879469,-0.0036895403,-0.99999285,1.0,1.0,1.0,0.0023841783,0.0019718916,-4.4107437e-06,-0.0002694655,-0.0010278024,-2.934234e-05,1.0000263,1.0000409,1.0,9.094651e-05,6.2211155e-05,3.1127456e-10,4.190773e-07,-0.00018230263,-3.084434e-08,0,0,1
2016500000,2016348000,2016348000,0,0.00022249021,0.0073544276,-0.9999729,1.0,1.0,1.0,0.0013594178,-0.009071633,-2.4497509e-05,-0.00024381379,-0.0011544769,-2.9266044e-05,1.0000263,1.0000409,1.0,2.9567489e-05,0.0013166587,9.602047e-09,8.781074e-07,-0.0002001665,-3.0509817e-08,0,0,1
2016508000,2016356000,2016356000,0,-0.0025673897,-0.0036842795,-0.99998987,1.0,1.0,1.0,0.004128442,0.0019473272,-7.390976e-06,-0.00017495936,-0.0011056296,-2.8921555e-05,1.0000263,1.0000409,1.0,0.00027269736,6.067085e-05,8.740244e-10,5.1587253e-06,-0.00019605883,-3.004311e-08,0,0,1
2016516000,2016364000,2016364000,0,0.007387557,-0.005364859,-0.99995834,1.0,1.0,1.0,-0.0057450794,0.003617763,-3.886223e-05,-0.0002626778,-0.0010312455,-2.90781e-05,1.0000265,1.000041,1.0,0.00052808103,0.00020940277,2.4164365e-08,-3.238751e-06,-0.0001896736,-2.995053e-08,0,0,1
2016532000,2016380000,2016380000,0,0.001369396,0.006151684,-0.9999802,1.0,1.0,1.0,0.00036472583,-0.007853918,-1.680851e-05,-0.00018681557,-0.0011890477,-2.8482209e-05,1.0000265,1.000041,1.0,2.1283424e-06,0.0009869039,4.520416e-09,8.523887e-07,-0.00020383163,-2.9088206e-08,0,0,1
2016540000,2016388000,2016388000,0,-0.004512904,0.008971226,-0.9999496,1.0,1.0,1.0,0.0062962873,-0.010666762,-4.7326088e-05,-8.471946e-05,-0.0013383031,-2.8778963e-05,1.0000265,1.000041,1.0,0.00063427497,0.0018204022,3.5836138e-08,1.0827547e-05,-0.00022928944,-2.9194473e-08,0,0,1
2016548000,2016396000,2016396000,0,-0.00090467994,-0.0018875651,-0.9999978,1.0,1.0,1.0,0.0027139813,0.00021160801,8.34465e-07,-4.0645435e-05,-0.001313895,-2.831261e-05,1.0000265,1.0000411,1.0,0.000117847994,7.164178e-07,1.114131e-11,1.2512908e-05,-0.00022566729,-2.8734542e-08,0,0,1
2016556000,2016404000,2016404000,0,0.003710483,-0.0029771912,-0.99998873,1.0,1.0,1.0,-0.0019390164,0.0013454903,-8.404255e-06,-7.054104e-05,-0.0012720149,-2.7999093e-05,1.0000266,1.0000411,1.0,6.015495e-05,2.8964316e-05,1.130104e-09,1.1368533e-05,-0.00022165735,-2.8299826e-08,0,0,1
2016572000,2016420000,2016420000,0,-0.0007717203,0.00012187426,-0.9999997,1.0,1.0,1.0,0.0023939714,-0.0016526636,2.2053719e-06,-9.514686e-06,-0.0012921211,-2.7050643e-05,1.0000266,1.0000411,1.0,9.169515e-05,4.3698954e-05,7.781864e-11,1.2917813e-05,-0.00021660035,-2.7412732e-08,0,0,1
2016580000,2016428000,2016428000,0,0.009468375,0.0009448436,-0.99995476,1.0,1.0,1.0,-0.007945902,-0.002478412,-4.2915344e-05,-0.00013449715,-0.0013108029,-2.730048e-05,1.0000266,1.0000411,1.0,0.0010101708,9.827636e-05,2.9467628e-08,-3.193818e-06,-0.00021473698,-2.7445092e-08,0,0,1
2016588000,2016436000,2016436000,0,0.009664116,-0.002520774,-0.9999501,1.0,1.0,1.0,-0.008118973,0.00088210776,-4.7385693e-05,-0.00026023693,-0.0012762689,-2.7616783e-05,1.0000266,1.0000411,1.0,0.0010546555,1.24493135e-05,3.5926462e-08,-1.975227e-05,-0.00021115925,-2.7578656e-08,0,0,1
2016596000,2016444000,2016444000,0,0.011541235,0.011997315,-0.99986136,1.0,1.0,1.0,-0.009984193,-0.013662361,-0.00013613701,-0.00041337011,-0.0014713254,-2.9325764e-05,1.0000267,1.0000412,1.0,0.0015949033,0.0029864383,2.9653256e-07,-4.4557797e-05,-0.00025486443,-3.181415e-08,0,0,1
2016612000,2016460000,2016460000,0,0.0074799773,-0.0037807566,-0.9999649,1.0,1.0,1.0,-0.005947861,0.0020717378,-3.2424927e-05,-0.00052760064,-0.0015215789,-2.9320057e-05,1.0000267,1.0000412,1.0,0.00056601764,6.867073e-05,1.6822014e-08,-5.323618e-05,-0.00026295753,-3.1250124e-08,0,0,1
2016620000,2016468000,2016468000,0,0.010510201,-0.0031404588,-0.99993986,1.0,1.0,1.0,-0.008974556,0.0015127952,-5.77569e-05,-0.00066062354,-0.0014737934,-2.9767882e-05,1.0000267,1.0000412,1.0,0.001288648,3.661528e-05,5.3373753e-08,-7.269149e-05,-0.00025823986,-3.159853e-08,0,0,1
2016628000,2016476000,2016476000,0,0.0071358066,0.0005451468,-0.9999745,1.0,1.0,1.0,-0.005535843,-0.0022405265,-2.2888184e-05,-0.00073739863,-0.0014858679,-2.965954e-05,1.0000267,1.0000412,1.0,0.0004903158,8.031603e-05,8.381903e-09,-7.926825e-05,-0.00025543792,-3.123291e-08,0,0,1
2016636000,2016484000,2016484000,0,0.0038547358,-0.005373843,-0.9999781,1.0,1.0,1.0,-0.0021701509,0.0036459614,-1.9013882e-05,-0.00075996167,-0.0014050517,-2.9491892e-05,1.0000268,1.0000414,1.0,7.535085e-05,0.00021267975,5.784443e-09,-7.9206555e-05,-0.00024806598,-3.0832148e-08,0,0,1
2016652000,2016500000,2016500000,0,0.00047779642,0.0025017795,-0.9999968,1.0,1.0,1.0,0.0012439161,-0.004110694,-3.5762787e-07,-0.0007014956,-0.0013337241,-2.898154e-05,1.0000268,1.0000414,1.0,2.4756573e-05,0.0002703537,2.046363e-12,-7.610535e-05,-0.00023580529,-3.003854e-08,0,0,1
2016660000,2016508000,2016508000,0,0.0045439177,-0.012134882,-0.999916,1.0,1.0,1.0,-0.002790921,0.010498727,-8.112192e-05,-0.00073439995,-0.0011473864,-2.9802648e-05,1.0000268,1.0000414,1.0,0.00012462448,0.0017634992,1.0529226e-07,-7.686943e-05,-0.00020432018,-3.1223635e-08,0,0,1
2016668000,2016516000,2016516000,0,-0.0026058466,-0.0076818247,-0.99996704,1.0,1.0,1.0,0.0043924074,0.005996217,-2.9981136e-05,-0.00065366284,-0.0010348887,-2.9805458e-05,1.0000268,1.0000414,1.0,0.0003086836,0.0005752501,1.4381897e-08,-7.079773e-05,-0.00019204349,-3.095841e-08,0,0,1
2016676000,2016524000,2016524000,0,0.008630888,-0.00059531094,-0.99996257,1.0,1.0,1.0,-0.006873848,-0.0009993864,-3.4689903e-05,-0.0007516185,-0.0010343295,-2.9882378e-05,1.000027,1.0000415,1.0,0.0007559762,1.597971e-05,1.925423e-08,-8.158794e-05,-0.00018927082,-3.0774093e-08,0,0,1
2016692000,2016540000,2016540000,0,0.0136206,0.002884452,-0.99990314,1.0,1.0,1.0,-0.0118117435,-0.004525216,-9.3877316e-05,-0.0009640174,-0.00088174857,-3.2087195e-05,1.000027,1.0000415,1.0,0.0022322165,0.00032762767,1.410072e-07,-0.00011675905,-0.00015065314,-3.487822e-08,0,0,1
2016700000,2016548000,2016548000,0,-0.0005533157,0.0053636325,-0.9999854,1.0,1.0,1.0,0.0023698858,-0.007016871,-1.1622906e-05,-0.000911515,-0.0009783646,-3.176492e-05,1.000027,1.0000415,1.0,8.985931e-05,0.00078775105,2.161471e-09,-0.00011350522,-0.00016068618,-3.4362994e-08,0,0,1
2016708000,2016556000,2016556000,0,0.0027622893,-0.003432556,-0.9999903,1.0,1.0,1.0,-0.0009219857,0.001806302,-6.6161156e-06,-0.0009116799,-0.0009345116,-3.1368876e-05,1.000027,1.0000415,1.0,1.36005565e-05,5.2201467e-05,7.0036776e-10,-0.00011193192,-0.00015733362,-3.3832873e-08,0,0,1
2016716000,2016564000,2016564000,0,-0.0010670751,-0.0014317262,-0.99999845,1.0,1.0,1.0,0.0028645287,-0.0001972036,1.3709068e-06,-0.000852212,-0.00092290045,-3.0853287e-05,1.000027,1.0000415,1.0,0.00013128486,6.222023e-07,3.007017e-11,-0.00010810173,-0.00015486572,-3.32996e-08,0,0,1
2016732000,2016580000,2016580000,0,0.005943428,0.003819265,-0.9999751,1.0,1.0,1.0,-0.004112114,-0.005563347,-2.1755695e-05,-0.00091755454,-0.00094419334,-3.0413796e-05,1.0000271,1.0000416,1.0,0.0002705444,0.0004951927,7.5729645e-09,-0.00010974882,-0.00015637476,-3.2412505e-08,0,0,1
2016740000,2016588000,2016588000,0,-0.0071163853,0.007323215,-0.9999478,1.0,1.0,1.0,0.008949153,-0.008928357,-4.9233437e-05,-0.0007621733,-0.0010699282,-3.071017e-05,1.0000271,1.0000416,1.0,0.0012813627,0.0012753957,3.87829e-08,-8.784155e-05,-0.00017399713,-3.2512826e-08,0,0,1
2016748000,2016596000,2016596000,0,-0.0028851253,-0.003998804,-0.99998784,1.0,1.0,1.0,0.0046427483,0.002348422,-9.179115e-06,-0.00067705644,-0.0010160959,-3.0371097e-05,1.0000271,1.0000416,1.0,0.00034487245,8.8237706e-05,1.3480985e-09,-8.102716e-05,-0.00016986745,-3.2022044e-08,0,0,1
2016756000,2016604000,2016604000,0,-0.0038472887,-0.007986471,-0.99996066,1.0,1.0,1.0,0.005493422,0.0062981676,-3.6597252e-05,-0.0005798835,-0.0009009106,-3.0469146e-05,1.0000272,1.0000416,1.0,0.00048282984,0.00063464424,2.1429742e-08,-7.214752e-05,-0.00015719797,-3.1855237e-08,0,0,1
2016772000,2016620000,2016620000,0,-0.001980153,0.002430246,-0.9999952,1.0,1.0,1.0,0.003793771,-0.0042722514,-1.4901161e-06,-0.00040465812,-0.00089372427,-2.982876e-05,1.0000272,1.0000417,1.0,0.00023027691,0.00029202193,3.5527137e-11,-5.6482033e-05,-0.0001546705,-3.094615e-08,0,0,1
2016780000,2016628000,2016628000,0,0.00855351,-0.004405912,-0.9999538,1.0,1.0,1.0,-0.0067654476,0.0026246582,-4.2915344e-05,-0.00050482806,-0.0008383167,-3.0034847e-05,1.0000272,1.0000417,1.0,0.0007323206,0.000110216686,2.9467628e-08,-6.712516e-05,-0.00015049905,-3.0922866e-08,0,0,1
2016788000,2016636000,2016636000,0,0.013865091,0.008356224,-0.99986905,1.0,1.0,1.0,-0.0120798815,-0.010052917,-0.00012797117,-0.00068711233,-0.0009834284,-3.157715e-05,1.0000272,1.0000417,1.0,0.002334713,0.0016169106,2.6202594e-07,-0.00010283521,-0.00017359214,-3.4562284e-08,0,0,1
2016796000,2016644000,2016644000,0,0.0074718464,0.0037659646,-0.999965,1.0,1.0,1.0,-0.0056680366,-0.0053342576,-3.2126904e-05,-0.0007655521,-0.0010519454,-3.158581e-05,1.0000273,1.0000417,1.0,0.0005140122,0.00045524986,1.6514207e-08,-0.000109310444,-0.0001780277,-3.4278063e-08,0,0,1
2016812000,2016660000,2016660000,0,-0.011031059,-0.0012844497,-0.9999383,1.0,1.0,1.0,0.0127625745,-0.00017555512,-5.9068203e-05,-0.0005106934,-0.00095531845,-3.1753523e-05,1.0000261,1.0000405,1.0,0.002606065,4.930936e-07,5.582484e-08,-6.3928324e-05,-0.00016790495,-3.4138097e-08,0,0,1
2016820000,2016668000,2016668000,0,-0.004739744,-0.005617617,-0.9999729,1.0,1.0,1.0,0.0064258026,0.004227272,-2.4735928e-05,-0.00040145725,-0.00087370287,-3.164301e-05,1.0000261,1.0000405,1.0,0.0006606378,0.00028590564,9.789858e-09,-5.2517833e-05,-0.00016075833,-3.375466e-08,0,0,1
2016828000,2016676000,2016676000,0,0.0013312602,0.000366498,-0.999999,1.0,1.0,1.0,0.00035738456,-0.0016913132,1.2516975e-06,-0.00038950698,-0.00088657864,-3.1124982e-05,1.0000261,1.0000407,1.0,2.0435261e-06,4.576679e-05,2.5067948e-11,-5.16586e-05,-0.00015894744,-3.3222694e-08,0,0,1
2016836000,2016684000,2016684000,0,0.0030440392,-0.0068532955,-0.9999718,1.0,1.0,1.0,-0.001373022,0.005557827,-2.604723e-05,-0.0004049954,-0.00078509195,-3.1045016e-05,1.0000262,1.0000407,1.0,3.0162239e-05,0.000494211,1.0855331e-08,-5.1320076e-05,-0.00014866148,-3.2870453e-08,0,0,1
2016852000,2016700000,2016700000,0,-0.0010999263,0.000105821295,-0.9999994,1.0,1.0,1.0,0.002705386,-0.0015479369,1.7881393e-06,-0.0002890655,-0.0008131782,-3.0049532e-05,1.0000262,1.0000407,1.0,0.00011710274,3.8336184e-05,5.1159077e-11,-4.4072796e-05,-0.00014544312,-3.1842518e-08,0,0,1
2016860000,2016708000,2016708000,0,0.003138952,-0.008373006,-0.99996,1.0,1.0,1.0,-0.0015234916,0.0069388393,-3.772974e-05,-0.0003085053,-0.0006910992,-3.017048e-05,1.0000262,1.0000407,1.0,3.713545e-05,0.00077032857,2.2776533e-08,-4.3963548e-05,-0.00013102152,-3.1699745e-08,0,0,1
2016868000,2016716000,2016716000,0,-0.009655376,-0.019498445,-0.99976325,1.0,1.0,1.0,0.011207454,0.018160785,-0.00023472309,-0.00012715161,-0.00039421915,-3.339178e-05,1.0000262,1.0000408,1.0,0.0020096598,0.0052768104,8.815189e-07,-1.1623022e-05,-4.5858804e-05,-4.508272e-08,0,0,1
2016876000,2016724000,2016724000,0,0.0032704703,-0.008497336,-0.99995863,1.0,1.0,1.0,-0.0017157054,0.00722532,-3.9339066e-05,-0.0001521682,-0.00027422642,-3.348544e-05,1.0000263,1.0000408,1.0,4.7097077e-05,0.00083524996,2.4760993e-08,-1.2181668e-05,-3.1983076e-05,-4.4762693e-08,0,0,1
2016892000,2016740000,2016740000,0,-0.00050648506,0.0057023577,-0.9999837,1.0,1.0,1.0,0.0021400184,-0.0069028465,-1.424551e-05,-0.00028929082,-0.00024366227,-3.4659915e-05,1.0000263,1.0000408,1.0,7.327293e-05,0.00076235755,3.246953e-09,-4.2468513e-05,-2.5356147e-05,-4.752963e-08,0,0,1
2016900000,2016748000,2016748000,0,0.0020972367,0.0007917868,-0.99999744,1.0,1.0,1.0,-0.00045697426,-0.0019471401,-5.364418e-07,-0.0002919315,-0.0002704887,-3.412254e-05,1.0000263,1.0000408,1.0,3.3411195e-06,6.06592e-05,4.604317e-12,-4.1852334e-05,-2.59121e-05,-4.6781203e-08,0,0,1
2016908000,2016756000,2016756000,0,-0.0036180585,0.007072483,-0.9999684,1.0,1.0,1.0,0.0052405754,-0.008247659,-2.9683113e-05,-0.0002048054,-0.00039611344,-3.4052628e-05,1.0000263,1.0000409,1.0,0.00043940652,0.0010883375,1.4097395e-08,-3.4273457e-05,-4.264321e-05,-4.6266496e-08,0,0,1
2016916000,2016764000,2016764000,0,0.0025610877,-0.0028753295,-0.99999255,1.0,1.0,1.0,-0.0010258164,0.0016946844,-5.543232e-06,-0.0002177347,-0.0003631875,-3.360366e-05,1.0000265,1.0000409,1.0,1.6836344e-05,4.5949404e-05,4.9163873e-10,-3.3998855e-05,-4.124805e-05,-4.5545633e-08,0,0,1
2016932000,2016780000,2016780000,0,0.00523704,-0.0044714385,-0.9999762,1.0,1.0,1.0,-0.003746897,0.003327821,-2.1994114e-05,-0.00029749953,-0.00026420743,-3.3047792e-05,1.0000265,1.000041,1.0,0.00022462184,0.00017718301,7.739857e-09,-3.7257978e-05,-3.5888104e-05,-4.4266862e-08,0,0,1
2016940000,2016788000,2016788000,0,0.0034512766,0.0044421004,-0.99998415,1.0,1.0,1.0,-0.0020098074,-0.005534198,-1.41859055e-05,-0.000324465,-0.0003471994,-3.2750755e-05,1.0000265,1.000041,1.0,6.46275e-05,0.0004900175,3.2198386e-09,-3.7688995e-05,-4.303975e-05,-4.3620453e-08,0,0,1
2016948000,2016796000,2016796000,0,-0.009668318,0.005249492,-0.9999395,1.0,1.0,1.0,0.011155955,-0.0063805724,-5.8710575e-05,-0.000143671,-0.00044221315,-3.3159573e-05,1.0000265,1.0000411,1.0,0.0019912326,0.0006513605,5.5150906e-08,-5.7374746e-06,-5.26196e-05,-4.3802036e-08,0,0,1
2016956000,2016804000,2016804000,0,-0.012982081,0.0056234184,-0.99989986,1.0,1.0,1.0,0.014462604,-0.006831852,-9.8347664e-05,8.6349086e-05,-0.00054283737,-3.4186156e-05,1.0000266,1.0000411,1.0,0.0033465817,0.00074675644,1.5475621e-07,4.7054953e-05,-6.355089e-05,-4.5549346e-08,0,0,1
2016972000,2016820000,2016820000,0,-0.00088111334,0.001755463,-0.9999981,1.0,1.0,1.0,0.0021976132,-0.0029213156,-3.5762787e-07,0.0001480029,-0.0007297432,-3.3724056e-05,1.0000266,1.0000411,1.0,7.7270015e-05,0.00013653975,2.046363e-12,4.7714646e-05,-8.943895e-05,-4.4498304e-08,0,0,1
2016980000,2016828000,2016828000,0,-0.004203976,-0.003201917,-0.999986,1.0,1.0,1.0,0.0054505426,0.0019299625,-1.2457371e-05,0.00023150747,-0.0006878581,-3.3389148e-05,1.0000266,1.0000411,1.0,0.00047532198,5.9593636e-05,2.4829774e-09,5.444862e-05,-8.709198e-05,-4.3836646e-08,0,0,1
2016988000,2016836000,2016836000,0,-0.0030883355,0.006647598,-0.9999731,1.0,1.0,1.0,0.004252036,-0.007983778,-2.5331974e-05,0.00029482288,-0.0008027545,-3.3262262e-05,1.0000266,1.0000411,1.0,0.0002892693,0.0010198094,1.02673425e-08,5.8146583e-05,-0.000101780446,-4.3307995e-08,0,0,1
2016996000,2016844000,2016844000,0,0.0036065837,-0.001424563,-0.9999925,1.0,1.0,1.0,-0.0024680858,0.00012183655,-6.0796738e-06,0.0002513125,-0.000788194,-3.283419e-05,1.0000267,1.0000412,1.0,9.746056e-05,2.3749654e-07,5.9139893e-10,5.5696077e-05,-0.000100173864,-4.2635293e-08,0,0,1
2017012000,2016860000,2016860000,0,0.00059203315,-0.00918031,-0.9999576,1.0,1.0,1.0,0.00067509373,0.007629235,-4.0352345e-05,0.00011899226,-0.00067888584,-3.3181826e-05,1.0000267,1.0000412,1.0,7.29183e-06,0.00093124516,2.6052987e-08,3.523066e-05,-8.367676e-05,-4.2275783e-08,0,0,1
2017020000,2016868000,2016868000,0,0.002306755,-0.0018102982,-0.99999577,1.0,1.0,1.0,-0.0009093095,0.00019253732,-1.9669533e-06,0.000102798534,-0.00066516263,-3.2690252e-05,1.0000267,1.0000412,1.0,1.3229147e-05,5.931055e-07,6.190248e-11,3.4467514e-05,-8.2349674e-05,-4.1611e-08,0,0,1
2017028000,2016876000,2016876000,0,0.011617244,-0.008719842,-0.9998945,1.0,1.0,1.0,-0.010183146,0.007087659,-0.00010305643,-5.9184844e-05,-0.00054307096,-3.379838e-05,1.0000267,1.0000412,1.0,0.0016590991,0.0008037254,1.6993005e-07,7.797173e-06,-6.839573e-05,-4.3631772e-08,0,0,1
2017036000,2016884000,2016884000,0,0.006157742,-0.0083689345,-0.99994594,1.0,1.0,1.0,-0.004741312,0.00679158,-5.185604e-05,-0.00013291914,-0.00042756464,-3.4082754e-05,1.0000268,1.0000414,1.0,0.000359671,0.00073797844,4.3024784e-08,2.0102725e-06,-5.5696928e-05,-4.362221e-08,0,0,1
2017052000,2016900000,2016900000,0,0.0016689855,-0.008629166,-0.99996144,1.0,1.0,1.0,-0.000370982,0.007022965,-3.6358833e-05,-0.00014033346,-0.00016447635,-3.4442128e-05,1.0000268,1.0000414,1.0,2.201983e-06,0.0007891199,2.1151436e-08,1.8789402e-06,-2.1548747e-05,-4.334118e-08,0,0,1
2017060000,2016908000,2016908000,0,0.008004357,-0.0040400703,-0.99995977,1.0,1.0,1.0,-0.006783407,0.0022845108,-3.8027763e-05,-0.00024494878,-0.00012590963,-3.4498593e-05,1.0000268,1.0000414,1.0,0.0007362141,8.3500374e-05,2.3137773e-08,-9.744572e-06,-1.989443e-05,-4.3023018e-08,0,0,1
2017068000,2016916000,2016916000,0,0.010146652,0.0047049,-0.9999375,1.0,1.0,1.0,-0.008983996,-0.006457937,-6.03199e-05,-0.00038257157,-0.0002256266,-3.4905228e-05,1.0000268,1.0000414,1.0,0.0012913602,0.0006672516,5.8215846e-08,-2.9927496e-05,-3.0089031e-05,-4.3262276e-08,0,0,1
2017076000,2016924000,2016924000,0,0.0007186897,-0.0029475214,-0.99999547,1.0,1.0,1.0,0.00041561312,0.0011480805,-2.3245811e-06,-0.00037000174,-0.00020399342,-3.4392146e-05,1.000027,1.0000415,1.0,2.7636738e-06,2.1088545e-05,8.645884e-11,-2.9412675e-05,-2.9283085e-05,-4.2582343e-08,0,0,1
2017092000,2016940000,2016940000,0,0.012396294,0.0024497553,-0.9999202,1.0,1.0,1.0,-0.01120377,-0.0042834925,-7.748604e-05,-0.0004902618,-0.00024542797,-3.459961e-05,1.000027,1.0000415,1.0,0.0020083373,0.00029356076,9.606538e-08,-5.806626e-05,-3.2592587e-05,-4.2768523e-08,0,0,1
2017100000,2016948000,2016948000,0,0.003351285,-0.00066318735,-0.99999416,1.0,1.0,1.0,-0.0021923291,-0.0010677429,-3.695488e-06,-0.00051706604,-0.0002583778,-3.411293e-05,1.000027,1.0000415,1.0,7.689884e-05,1.8240444e-05,2.185061e-10,-5.8362835e-05,-3.236657e-05,-4.2098446e-08,0,0,1
2017108000,2016956000,2016956000,0,0.00084148033,0.0011169204,-0.99999905,1.0,1.0,1.0,0.00043728994,-0.002881403,1.4901161e-06,-0.0005020368,-0.00029968529,-3.3552253e-05,1.000027,1.0000415,1.0,3.0594774e-06,0.00013283422,3.5527137e-11,-5.7395555e-05,-3.3948738e-05,-4.143492e-08,0,0,1
2017116000,2016964000,2016964000,0,0.009927126,0.001240623,-0.99994993,1.0,1.0,1.0,-0.008586033,-0.0030088017,-4.7683716e-05,-0.00062934385,-0.00034234853,-3.3774795e-05,1.0000271,1.0000416,1.0,0.0011794876,0.00014484017,3.6379788e-08,-7.5066295e-05,-3.569506e-05,-4.135531e-08,0,0,1
2017132000,2016980000,2016980000,0,-0.00064356433,0.0031211444,-0.99999493,1.0,1.0,1.0,0.0020756684,-0.0049079345,-2.4437904e-06,-0.00052500085,-0.00057058554,-3.3338074e-05,1.0000271,1.0000416,1.0,6.8932524e-05,0.00038538908,9.555379e-11,-6.8845045e-05,-6.761941e-05,-4.0412026e-08,0,0,1
2017140000,2016988000,2016988000,0,0.009303843,-0.0061387066,-0.99993783,1.0,1.0,1.0,-0.007749919,0.004269272,-5.9187412e-05,-0.0006387791,-0.0004943673,-3.374515e-05,1.0000271,1.0000416,1.0,0.0009609539,0.00029161482,5.6050396e-08,-8.2894e-05,-6.196218e-05,-4.06583e-08,0,0,1
2017148000,2016996000,2016996000,0,0.004431186,-0.00719311,-0.9999644,1.0,1.0,1.0,-0.0027745657,0.005252791,-3.2305717e-05,-0.0006724135,-0.0004038609,-3.372248e-05,1.0000271,1.0000416,1.0,0.00012316811,0.00044145065,1.669855e-08,-8.352824e-05,-5.403442e-05,-4.028098e-08,0,0,1
2017156000,2017004000,2017004000,0,0.0035331314,-0.01004111,-0.9999433,1.0,1.0,1.0,-0.0017844056,0.008104533,-5.3346157e-05,-0.00068992516,-0.00026987045,-3.4031516e-05,1.0000272,1.0000417,1.0,5.0944265e-05,0.0010508914,4.5533e-08,-8.3015104e-05,-3.6634014e-05,-4.036369e-08,0,0,1
2017172000,2017020000,2017020000,0,0.0018574457,-0.00900928,-0.9999577,1.0,1.0,1.0,-0.00017790531,0.007165516,-3.9219856e-05,-0.00071570626,-7.2035473e-06,-3.4633405e-05,1.0000272,1.0000417,1.0,5.063911e-07,0.0008214796,2.4611154e-08,-8.247661e-05,-1.9171266e-06,-4.0623004e-08,0,0,1
2017180000,2017028000,2017028000,0,0.00075077266,0.0014428103,-0.9999987,1.0,1.0,1.0,0.00086943666,-0.0032552613,1.6093254e-06,-0.0006907434,-5.8354064e-05,-3.4062654e-05,1.0000272,1.0000417,1.0,1.2094393e-05,0.00016954055,4.1438852e-11,-8.09873e-05,-4.556866e-06,-3.998262e-08,0,0,1
2017188000,2017036000,2017036000,0,-0.0007081255,0.0138076525,-0.9999044,1.0,1.0,1.0,0.0022743733,-0.015578099,-9.286404e-05,-0.0006440486,-0.0003027595,-3.498866e-05,1.0000272,1.0000417,1.0,8.276213e-05,0.0038826724,1.3797967e-07,-7.840857e-05,-6.562955e-05,-4.152588e-08,0,0,1
2017196000,2017044000,2017044000,0,0.005300557,0.0061049336,-0.9999674,1.0,1.0,1.0,-0.003802283,-0.00785253,-2.9861927e-05,-0.00069378456,-0.0004216535,-3.4907924e-05,1.0000273,1.0000417,1.0,0.00023131138,0.0009865544,1.4267755e-08,-8.081649e-05,-8.0132304e-05,-4.109662e-08,0,0,1
2017212000,2017060000,2017060000,0,-0.010161071,0.0079921745,-0.99991643,1.0,1.0,1.0,0.011609649,-0.009876476,-8.070469e-05,-0.0004423503,-0.0006549285,-3.519523e-05,1.0000261,1.0000405,1.0,0.002156487,0.0015606531,1.0421195e-07,-4.2057723e-05,-0.00011073748,-4.1465416e-08,0,0,1
2017220000,2017068000,2017068000,0,-9.1306196e-05,0.007910689,-0.99996877,1.0,1.0,1.0,0.00159133,-0.009773281,-2.8371811e-05,-0.00041032385,-0.0007985246,-3.5087774e-05,1.0000261,1.0000405,1.0,4.0516243e-05,0.0015282106,1.28793545e-08,-4.0757346e-05,-0.00013305989,-4.101524e-08,0,0,1
2017228000,2017076000,2017076000,0,-0.006053152,0.0044159517,-0.9999719,1.0,1.0,1.0,0.0076717385,-0.006307967,-2.4974346e-05,-0.00028304727,-0.0008852875,-3.4928507e-05,1.0000261,1.0000407,1.0,0.00094166456,0.00063662126,9.9794875e-09,-2.5286135e-05,-0.00014098999,-4.052649e-08,0,0,1
2017236000,2017084000,2017084000,0,-0.0005245824,0.0011239484,-0.9999992,1.0,1.0,1.0,0.0022159396,-0.00301342,2.4437904e-06,-0.00024369314,-0.00091880135,-3.4339966e-05,1.0000262,1.0000407,1.0,7.856415e-05,0.00014528529,9.555379e-11,-2.3650698e-05,-0.00014105762,-3.9886775e-08,0,0,1
2017252000,2017100000,2017100000,0,-0.004798476,-0.009755727,-0.99994093,1.0,1.0,1.0,0.006596962,0.007790326,-5.555153e-05,-0.00012154958,-0.0008027017,-3.4099237e-05,1.0000262,1.0000407,1.0,0.00069630024,0.0009709874,4.9375558e-08,-1.1829456e-05,-0.00012264446,-3.9416094e-08,0,0,1
2017260000,2017108000,2017108000,0,-0.0074659446,-0.004277779,-0.9999629,1.0,1.0,1.0,0.009221192,0.002267078,-3.349781e-05,2.5580222e-05,-0.0007543587,-3.4089768e-05,1.0000262,1.0000407,1.0,0.0013604506,8.2230945e-05,1.7953653e-08,9.7812535e-06,-0.00011941807,-3.9078103e-08,0,0,1
2017268000,2017116000,2017116000,0,-0.0025663308,-0.00539704,-0.99998206,1.0,1.0,1.0,0.0042163725,0.0034591528,-1.4722347e-05,9.157695e-05,-0.0006880042,-3.378477e-05,1.0000262,1.0000408,1.0,0.0002844373,0.000191444,3.4679601e-09,1.4106546e-05,-0.000114522605,-3.8517314e-08,0,0,1
2017276000,2017124000,2017124000,0,0.0050734193,-0.009902407,-0.999938,1.0,1.0,1.0,-0.003371863,0.007966048,-5.865097e-05,3.7034588e-05,-0.0005517199,-3.4176363e-05,1.0000263,1.0000408,1.0,0.00018190657,0.0010152853,5.503898e-08,1.1019725e-05,-9.673036e-05,-3.8777497e-08,0,0,1
2017292000,2017140000,2017140000,0,0.0108906375,0.0056543206,-0.99992466,1.0,1.0,1.0,-0.009170214,-0.007572716,-7.200241e-05,-0.0002309646,-0.0005378269,-3.55884e-05,1.0000263,1.0000408,1.0,0.0013454497,0.000917499,8.2949555e-08,-2.5984764e-05,-9.4289026e-05,-4.0742457e-08,0,0,1
2017300000,2017148000,2017148000,0,0.0057400004,0.0050853,-0.99997056,1.0,1.0,1.0,-0.003975711,-0.006935236,-2.6226044e-05,-0.000289937,-0.00063857355,-3.544096e-05,1.0000263,1.0000409,1.0,0.00025289375,0.0007695285,1.1004886e-08,-2.9558134e-05,-0.00010492272,-4.027415e-08,0,0,1
2017308000,2017156000,2017156000,0,0.0055730334,-0.008533577,-0.99994797,1.0,1.0,1.0,-0.003842592,0.0067106,-4.8816204e-05,-0.0003458843,-0.00052283856,-3.5651596e-05,1.0000263,1.000041,1.0,0.00023624199,0.0007204849,3.812835e-08,-3.2812997e-05,-9.192417e-05,-4.0240355e-08,0,0,1
2017316000,2017164000,2017164000,0,0.012780237,-0.00448017,-0.99990827,1.0,1.0,1.0,-0.011010084,0.0025531792,-8.827448e-05,-0.00051382446,-0.00047439733,-3.64803e-05,1.0000265,1.000041,1.0,0.0019395,0.0001042953,1.2467814e-07,-6.2839565e-05,-8.88341e-05,-4.1570082e-08,0,0,1
2017332000,2017180000,2017180000,0,0.0019511484,0.002971702,-0.9999937,1.0,1.0,1.0,-0.00012336369,-0.004985817,-2.6226044e-06,-0.0006713637,-0.0005775964,-3.6612266e-05,1.0000265,1.000041,1.0,2.4349114e-07,0.0003977176,1.1004886e-10,-9.129399e-05,-9.39325e-05,-4.1836056e-08,0,0,1
2017340000,2017188000,2017188000,0,-2.0199646e-05,-0.00097294955,-0.9999995,1.0,1.0,1.0,0.001820705,-0.0010726327,3.1590462e-06,-0.00063211855,-0.0005853923,-3.5985948e-05,1.0000265,1.000041,1.0,5.3038064e-05,1.84079e-05,1.5967316e-10,-8.902104e-05,-9.274313e-05,-4.1174708e-08,0,0,1
2017348000,2017196000,2017196000,0,0.0010437649,0.0073458916,-0.9999724,1.0,1.0,1.0,0.00087327487,-0.009444238,-2.360344e-05,-0.00060841156,-0.0007249017,-3.579095e-05,1.0000265,1.000041,1.0,1.2201421e-05,0.0014270395,8.913958e-09,-8.742699e-05,-0.000113755676,-4.0666666e-08,0,0,1
2017356000,2017204000,2017204000,0,-0.006505185,0.0036712762,-0.99997216,1.0,1.0,1.0,0.008486561,-0.0056902915,-2.3841858e-05,-0.00046518364,-0.0008030968,-3.5602774e-05,1.0000266,1.0000411,1.0,0.0011523167,0.0005180494,9.094947e-09,-6.790347e-05,-0.00012012251,-4.0169475e-08,0,0,1
2017372000,2017220000,2017220000,0,0.0011905915,0.0014031716,-0.99999833,1.0,1.0,1.0,0.0008779826,-0.0031849807,1.9669533e-06,-0.0003954941,-0.0009931144,-3.498866e-05,1.0000266,1.0000411,1.0,1.23333275e-05,0.00016229895,6.190248e-11,-6.382443e-05,-0.00014701171,-3.9202565e-08,0,0,1
2017380000,2017228000,2017228000,0,-0.0011095806,0.0010000649,-0.9999989,1.0,1.0,1.0,0.0032008663,-0.0027750595,2.6226044e-06,-0.00033885852,-0.0010211766,-3.439636e-05,1.0000266,1.0000411,1.0,0.00016392437,0.00012321022,1.1004886e-10,-6.0237835e-05,-0.00014663688,-3.858347e-08,0,0,1
2017388000,2017236000,2017236000,0,-0.005143789,0.0019870074,-0.99998474,1.0,1.0,1.0,0.00723548,-0.0037860048,-1.1503696e-05,-0.0002195776,-0.0010647172,-3.4035846e-05,1.0000266,1.0000411,1.0,0.00083761243,0.0002293319,2.1173605e-09,-4.609846e-05,-0.00014793916,-3.80092e-08,0,0,1
2017396000,2017244000,2017244000,0,0.00216697,-0.010734333,-0.9999401,1.0,1.0,1.0,-1.2976816e-05,0.0089626,-5.596876e-05,-0.00021632404,-0.0009068067,-3.4381246e-05,1.0000267,1.0000412,1.0,2.6942921e-09,0.001285198,5.0120036e-08,-4.537254e-05,-0.00012537008,-3.819992e-08,0,0,1
2017412000,2017260000,2017260000,0,-0.00025994916,0.005754703,-0.9999834,1.0,1.0,1.0,0.002595975,-0.007526363,-1.2397766e-05,3.1647192e-05,-0.0011137414,-3.4588615e-05,1.0000267,1.0000412,1.0,0.0001078225,0.0009063008,2.4592737e-09,-8.312302e-07,-0.00014979347,-3.826348e-08,0,0,1
2017420000,2017268000,2017268000,0,-0.001507376,-0.0021183274,-0.99999666,1.0,1.0,1.0,0.0038905349,0.0003150265,1.1920929e-06,9.2417074e-05,-0.0010912411,-3.402514e-05,1.0000267,1.0000412,1.0,0.00024217373,1.5878016e-06,2.2737368e-11,2.9956198e-06,-0.00014740952,-3.766055e-08,0,0,1
2017428000,2017276000,2017276000,0,0.0020887891,-0.004005901,-0.9999898,1.0,1.0,1.0,0.0003542821,0.0021720175,-5.6028366e-06,9.6540934e-05,-0.0010398512,-3.3577544e-05,1.0000267,1.0000412,1.0,2.008199e-06,7.5479446e-05,5.0226845e-10,2.98007e-06,-0.00014389945,-3.7075377e-08,0,0,1
2017436000,2017284000,2017284000,0,-0.0075974776,-0.004654857,-0.99996024,1.0,1.0,1.0,0.00996433,0.002791746,-3.516674e-05,0.0002519392,-0.0009795111,-3.360257e-05,1.0000268,1.0000414,1.0,0.0015885634,0.00012469638,1.9787194e-08,2.7949885e-05,-0.0001396696,-3.6803122e-08,0,0,1
2017452000,2017300000,2017300000,0,0.008027209,0.0027875095,-0.9999638,1.0,1.0,1.0,-0.005775431,-0.004687674,-3.1769276e-05,0.0001942057,-0.000942825,-3.3363278e-05,1.0000268,1.0000414,1.0,0.00053367537,0.00035157404,1.614859e-08,2.0415038e-05,-0.00013425216,-3.6006874e-08,0,0,1
2017460000,2017308000,2017308000,0,-0.002650177,0.006620256,-0.9999746,1.0,1.0,1.0,0.004837368,-0.008459211,-2.1219254e-05,0.00026732637,-0.0010611933,-3.3172033e-05,1.0000268,1.0000414,1.0,0.00037439205,0.0011448847,7.2041075e-09,2.598948e-05,-0.00015016763,-3.555329e-08,0,0,1
2017468000,2017316000,2017316000,0,-0.005213324,-0.0006705318,-0.99998623,1.0,1.0,1.0,0.0073933033,-0.0010882202,-9.834766e-06,0.0003795465,-0.0010616189,-3.2804517e-05,1.0000268,1.0000414,1.0,0.0008745515,1.8946786e-05,1.5475621e-09,3.935266e-05,-0.00014810116,-3.5017766e-08,0,0,1
2017476000,2017324000,2017324000,0,-0.0038450912,-0.0011971113,-0.9999919,1.0,1.0,1.0,0.0060679647,-0.00058898446,-4.053116e-06,0.00046912787,-0.0010541759,-3.2351738e-05,1.000027,1.0000415,1.0,0.0005891072,5.5502132e-06,2.6284397e-10,4.8010214e-05,-0.00014585626,-3.4470446e-08,0,0,1
2017492000,2017340000,2017340000,0,0.0026348287,0.011473539,-0.99993074,1.0,1.0,1.0,-0.00041577476,-0.013184955,-6.54459e-05,0.0003465838,-0.0013318175,-3.3087454e-05,1.000027,1.0000415,1.0,2.7658239e-06,0.0027813732,6.853065e-08,3.5866266e-05,-0.00019603883,-3.500173e-08,0,0,1
2017500000,2017348000,2017348000,0,-0.0034353232,0.009083618,-0.9999528,1.0,1.0,1.0,0.005691965,-0.010770163,-4.3272972e-05,0.00043076306,-0.0014804528,-3.3247856e-05,1.000027,1.0000415,1.0,0.0005183615,0.0018558655,2.9960802e-08,4.3464617e-05,-0.00022217783,-3.4922344e-08,0,0,1
2017508000,2017356000,2017356000,0,-0.0033130615,-0.009210311,-0.9999522,1.0,1.0,1.0,0.005553996,0.0076071797,-4.3988228e-05,0.0005114439,-0.0013373406,-3.3416996e-05,1.000027,1.0000415,1.0,0.0004935367,0.0009258685,3.0959427e-08,5.0552368e-05,-0.00020409835,-3.4859937e-08,0,0,1
2017516000,2017364000,2017364000,0,-0.005222118,-0.008098955,-0.9999535,1.0,1.0,1.0,0.007340788,0.006568538,-4.3034554e-05,0.0006189926,-0.0012128386,-3.3568453e-05,1.0000271,1.0000415,1.0,0.00086217135,0.0006903024,2.9631565e-08,6.333377e-05,-0.0001900133,-3.47776e-08,0,0,1
2017532000,2017380000,2017380000,0,0.0021693055,-0.00405671,-0.99998945,1.0,1.0,1.0,-0.00015961821,0.0025580965,-7.4505806e-06,0.0005507611,-0.0011091942,-3.2859487e-05,1.0000271,1.0000416,1.0,4.0763655e-07,0.00010469737,8.881784e-10,5.9128295e-05,-0.00018175786,-3.3756027e-08,0,0,1
2017540000,2017388000,2017388000,0,-0.004887433,1.63072e-05,-0.9999881,1.0,1.0,1.0,0.006909233,-0.0015368003,-8.821487e-06,0.00065089454,-0.0011159282,-3.2480937e-05,1.0000271,1.0000416,1.0,0.00076377933,3.778651e-05,1.2450982e-09,7.0225164e-05,-0.0001794906,-3.3244046e-08,0,0,1
2017548000,2017396000,2017396000,0,-0.012744748,0.0067902976,-0.9998958,1.0,1.0,1.0,0.014809335,-0.008310763,-0.00010085106,0.00087386207,-0.0012292326,-3.3557633e-05,1.0000271,1.0000416,1.0,0.0035089673,0.0011050545,1.6273498e-07,0.00012437858,-0.00019406641,-3.528327e-08,0,0,1
2017556000,2017404000,2017404000,0,-0.0054472103,-0.0021249917,-0.99998295,1.0,1.0,1.0,0.0074917963,0.0005994518,-1.3828278e-05,0.0009780815,-0.0012004345,-3.3246935e-05,1.0000272,1.0000416,1.0,0.00089800777,5.7492407e-06,3.0595402e-09,0.00013656172,-0.0001909197,-3.4775812e-08,0,0,1
2017572000,2017420000,2017420000,0,0.0029343101,0.000428122,-0.99999565,1.0,1.0,1.0,-0.0009495381,-0.0017565638,-1.6093254e-06,0.000967279,-0.0013559085,-3.285145e-05,1.0000272,1.0000417,1.0,1.4425569e-05,4.93662e-05,4.1438852e-11,0.00013331117,-0.00021394329,-3.408412e-08,0,0,1
2017580000,2017428000,2017428000,0,0.004390765,-0.0027521967,-0.9999866,1.0,1.0,1.0,-0.0023619141,0.0014199915,-1.0430813e-05,0.0009148508,-0.0013121935,-3.249837e-05,1.0000272,1.0000417,1.0,8.9255795e-05,3.226067e-05,1.7408297e-09,0.00012980618,-0.00021006606,-3.357478e-08,0,0,1
2017588000,2017436000,2017436000,0,0.0052648904,-0.014280791,-0.9998841,1.0,1.0,1.0,-0.0032131763,0.0129684005,-0.0001129508,0.0008498425,-0.0010873022,-3.3765336e-05,1.0000272,1.0000417,1.0,0.00016518754,0.0026907583,2.0412614e-07,0.00012516062,-0.00016438379,-3.6260627e-08,0,0,1
2017596000,2017444000,2017444000,0,-0.005521044,-0.00395732,-0.99997693,1.0,1.0,1.0,0.0076648286,0.0025901205,-1.9848347e-05,0.00095716515,-0.00102939,-3.354617e-05,1.0000273,1.0000417,1.0,0.00093996787,0.00010733511,6.30331e-09,0.00013799223,-0.00016010476,-3.5788858e-08,0,0,1
2017612000,2017460000,2017460000,0,0.006922846,-0.0011517885,-0.9999754,1.0,1.0,1.0,-0.0046788934,-0.0001210419,-2.1338463e-05,0.00090721314,-0.0011142042,-3.3078784e-05,1.0000261,1.0000405,1.0,0.00035026355,2.3440876e-07,7.28528e-09,0.00013113435,-0.00016877416,-3.4847126e-08,0,0,1
2017620000,2017468000,2017468000,0,0.01649477,0.0023443578,-0.9998613,1.0,1.0,1.0,-0.01431645,-0.0035403757,-0.00013566017,0.0006674704,-0.0011524116,-3.469424e-05,1.0000261,1.0000405,1.0,0.0032792862,0.00020054003,2.944589e-07,7.742694e-05,-0.00016927441,-3.89355e-08,0,0,1
2017628000,2017476000,2017476000,0,-0.0018123136,0.0033375223,-0.9999928,1.0,1.0,1.0,0.0039048055,-0.004505225,-4.23193e-06,0.00071845204,-0.0012052117,-3.4214518e-05,1.0000261,1.0000407,1.0,0.00024395372,0.0003247396,2.8654767e-10,8.004941e-05,-0.00017172268,-3.8326856e-08,0,0,1
2017636000,2017484000,2017484000,0,0.0062015154,-3.804144e-05,-0.9999807,1.0,1.0,1.0,-0.004147997,-0.001135467,-1.6450882e-05,0.000641815,-0.0012041134,-3.3934775e-05,1.0000262,1.0000407,1.0,0.00027528687,2.0627725e-05,4.3301043e-09,7.4453565e-05,-0.00016934324,-3.7791473e-08,0,0,1
2017652000,2017500000,2017500000,0,0.008331504,-0.0005773189,-0.99996513,1.0,1.0,1.0,-0.0063902177,-0.00064329855,-3.2305717e-05,0.00041214612,-0.0011433024,-3.4056633e-05,1.0000262,1.0000407,1.0,0.000653341,6.621059e-06,1.669855e-08,4.957877e-05,-0.00016301018,-3.734177e-08,0,0,1
2017660000,2017508000,2017508000,0,0.0029029322,0.009589433,-0.9999498,1.0,1.0,1.0,-0.0009985769,-0.010792572,-4.7564507e-05,0.00038993,-0.0012952595,-3.4269357e-05,1.0000262,1.0000407,1.0,1.5954074e-05,0.001863598,3.6198117e-08,4.8546757e-05,-0.00018979108,-3.7323762e-08,0,0,1
2017668000,2017516000,2017516000,0,-0.0008847008,-0.0015470107,-0.99999845,1.0,1.0,1.0,0.002739372,0.00035180873,8.34465e-07,0.0004269291,-0.0012693214,-3.371654e-05,1.0000262,1.0000408,1.0,0.00012006339,1.9802294e-06,1.114131e-11,4.9673003e-05,-0.00018677107,-3.673581e-08,0,0,1
2017676000,2017524000,2017524000,0,0.0077953655,-0.010661243,-0.9999128,1.0,1.0,1.0,-0.0060180807,0.00949845,-8.4877014e-05,0.00032543286,-0.0010997502,-3.4522218e-05,1.0000263,1.0000409,1.0,0.00057946146,0.0014434698,1.1526572e-07,3.976537e-05,-0.00016109798,-3.79725e-08,0,0,1
2017692000,2017540000,2017540000,0,0.003626227,0.009794903,-0.9999454,1.0,1.0,1.0,-0.0019188183,-0.011133593,-5.221367e-05,0.00013632834,-0.0013895682,-3.5767946e-05,1.0000263,1.0000409,1.0,5.8908267e-05,0.001983229,4.3620275e-08,1.47653145e-05,-0.00021016631,-3.9802323e-08,0,0,1
2017700000,2017548000,2017548000,0,0.010668848,-0.0020866976,-0.99994093,1.0,1.0,1.0,-0.008935454,0.0006441348,-5.6564808e-05,-6.5343775e-06,-0.0013575414,-3.6095455e-05,1.0000263,1.0000409,1.0,0.0012774438,6.638283e-06,5.119324e-08,-5.584435e-06,-0.00020675207,-3.9981707e-08,0,0,1
2017708000,2017556000,2017556000,0,0.011869177,0.0016337518,-0.99992824,1.0,1.0,1.0,-0.010236561,-0.0031769886,-6.914139e-05,-0.00016763716,-0.0013861941,-3.6615864e-05,1.0000263,1.0000409,1.0,0.0016765508,0.0001614855,7.6488504e-08,-3.1898868e-05,-0.00020603921,-4.0556618e-08,0,0,1
2017716000,2017564000,2017564000,0,0.010160864,0.0012002196,-0.9999477,1.0,1.0,1.0,-0.008584366,-0.0028442196,-4.976988e-05,-0.00030018407,-0.0014091552,-3.6823014e-05,1.0000265,1.000041,1.0,0.0011790303,0.00012942805,3.9632653e-08,-4.9963928e-05,-0.00020483274,-4.0542066e-08,0,0,1
2017732000,2017580000,2017580000,0,0.004569708,0.01551093,-0.9998692,1.0,1.0,1.0,-0.0030107826,-0.017285205,-0.00012803078,-0.00021761605,-0.0018381508,-3.892382e-05,1.0000265,1.000041,1.0,0.00014503315,0.004780257,2.6227008e-07,-3.56731e-05,-0.00031534,-4.4980425e-08,0,0,1
2017740000,2017588000,2017588000,0,0.011938381,0.012764635,-0.9998473,1.0,1.0,1.0,-0.010299278,-0.014481012,-0.00014996529,-0.00037638238,-0.002037251,-4.0672505e-05,1.0000265,1.000041,1.0,0.0016971573,0.0033550577,3.598334e-07,-6.1838204e-05,-0.00036320958,-4.993874e-08,0,0,1
2017748000,2017596000,2017596000,0,0.0033006147,0.005832788,-0.9999775,1.0,1.0,1.0,-0.0016417316,-0.0075569954,-1.9669533e-05,-0.00039630913,-0.002124176,-4.034175e-05,1.0000265,1.0000411,1.0,4.312338e-05,0.0009136933,6.1902483e-09,-6.1543484e-05,-0.00037187862,-4.924979e-08,0,0,1
2017756000,2017604000,2017604000,0,-0.0033675882,0.0017405164,-0.99999285,1.0,1.0,1.0,0.0049940627,-0.003452306,-4.4107437e-06,-0.0003114214,-0.0021450913,-3.9775907e-05,1.0000266,1.0000411,1.0,0.00039904,0.00019068681,3.1127456e-10,-5.42902e-05,-0.0003690252,-4.84791e-08,0,0,1
2017772000,2017620000,2017620000,0,0.00836689,-0.011455913,-0.9998993,1.0,1.0,1.0,-0.0067039644,0.009619821,-9.75728e-05,-0.0004753593,-0.0019417044,-4.0310697e-05,1.0000266,1.0000411,1.0,0.00071907113,0.0014805944,1.5232723e-07,-6.870406e-05,-0.00033441393,-4.9423097e-08,0,0,1
2017780000,2017628000,2017628000,0,0.0012046014,-0.0021668354,-0.9999969,1.0,1.0,1.0,0.00042892015,0.00044310698,-2.9802322e-07,-0.00046111867,-0.0019041484,-3.9680577e-05,1.0000266,1.0000411,1.0,2.9434816e-06,3.1413717e-06,1.4210855e-12,-6.7575755e-05,-0.00032909808,-4.8644804e-08,0,0,1
2017788000,2017636000,2017636000,0,0.0027536284,-0.009510617,-0.999951,1.0,1.0,1.0,-0.00096627045,0.00791419,-4.61936e-05,-0.00046907383,-0.0017495288,-3.9783143e-05,1.0000266,1.0000411,1.0,1.493846e-05,0.0010021093,3.414158e-08,-6.674682e-05,-0.0003081342,-4.8416407e-08,0,0,1
2017796000,2017644000,2017644000,0,-0.0047876923,-0.0016533769,-0.9999872,1.0,1.0,1.0,0.0066628656,9.373599e-05,-9.775162e-06,-0.00035675982,-0.001720501,-3.9310577e-05,1.0000267,1.0000412,1.0,0.0007102815,1.4057717e-07,1.5288606e-09,-5.4510154e-05,-0.00030327946,-4.767802e-08,0,0,1
2017812000,2017660000,2017660000,0,-0.0033283564,-0.00015674812,-0.9999945,1.0,1.0,1.0,0.0054056533,-0.0013294774,-2.2649765e-06,-0.0002592876,-0.0016834832,-3.8122485e-05,1.0000267,1.0000412,1.0,0.00046752492,2.8278997e-05,8.20819e-11,-4.5442743e-05,-0.00029422977,-4.618949e-08,0,0,1
2017820000,2017668000,2017668000,0,-0.0010003573,-0.004361883,-0.9999899,1.0,1.0,1.0,0.003186693,0.0028175395,-6.4969063e-06,-0.00020502019,-0.001612601,-3.7624446e-05,1.0000267,1.0000412,1.0,0.00016247586,0.00012701123,6.7535666e-10,-4.2168434e-05,-0.00028759605,-4.5472735e-08,0,0,1
2017828000,2017676000,2017676000,0,-0.0019178174,-0.011427146,-0.9999328,1.0,1.0,1.0,0.0040647807,0.009923167,-6.377697e-05,-0.00013777922,-0.0014309353,-3.8036298e-05,1.0000267,1.0000412,1.0,0.00026435198,0.0015754428,6.508003e-08,-3.7341342e-05,-0.00025825686,-4.5781512e-08,0,0,1
2017836000,2017684000,2017684000,0,0.0026144478,-0.0024988484,-0.9999935,1.0,1.0,1.0,-0.00049264054,0.0010720822,-3.1590462e-06,-0.0001433676,-0.0013915177,-3.748705e-05,1.0000268,1.0000414,1.0,3.8830112e-06,1.8389004e-05,1.5967316e-10,-3.681444e-05,-0.00025390022,-4.5063057e-08,0,0,1
2017852000,2017700000,2017700000,0,0.0014906378,-0.0055826977,-0.9999833,1.0,1.0,1.0,0.00052653893,0.004086664,-1.3649464e-05,-0.00017511779,-0.0012829042,-3.668674e-05,1.0000268,1.0000414,1.0,4.435773e-06,0.0002672021,2.9809257e-09,-3.7640304e-05,-0.00024175779,-4.3727034e-08,0,0,1
2017860000,2017708000,2017708000,0,-0.0069780545,-0.0025170213,-0.9999725,1.0,1.0,1.0,0.008977557,0.0009682677,-2.425909e-05,-3.0981188e-05,-0.0012474527,-3.6491027e-05,1.0000268,1.0000414,1.0,0.0012895098,1.5000056e-05,9.4160555e-09,-1.6740301e-05,-0.00023771437,-4.3186706e-08,0,0,1
2017868000,2017716000,2017716000,0,-0.002691761,0.007584327,-0.9999676,1.0,1.0,1.0,0.004758802,-0.009075041,-2.9146671e-05,4.444847e-05,-0.0013707218,-3.6375368e-05,1.0000268,1.0000414,1.0,0.0003623294,0.0013176474,1.3592455e-08,-1.07707e-05,-0.00025472118,-4.2720654e-08,0,0,1
2017876000,2017724000,2017724000,0,-0.0015093426,0.001694394,-0.9999975,1.0,1.0,1.0,0.0035160438,-0.0031494845,5.9604645e-07,9.9119265e-05,-0.0013987338,-3.5793142e-05,1.000027,1.0000415,1.0,0.0001977957,0.00015870147,5.684342e-12,-7.48619e-06,-0.00025320906,-4.2047798e-08,0,0,1
2017892000,2017740000,2017740000,0,0.0037611672,-0.008053776,-0.9999605,1.0,1.0,1.0,-0.0016874825,0.0064624446,-3.606081e-05,-2.0885294e-05,-0.0011796823,-3.5977966e-05,1.000027,1.0000415,1.0,4.5560326e-05,0.0006681833,2.0806112e-08,-1.6392734e-05,-0.00022918684,-4.1619803e-08,0,0,1
2017900000,2017748000,2017748000,0,0.0058116745,-0.0038702383,-0.9999757,1.0,1.0,1.0,-0.0037774474,0.0022569718,-2.0861626e-05,-8.0043756e-05,-0.0011255618,-3.5739915e-05,1.000027,1.0000415,1.0,0.00022829958,8.149936e-05,6.963319e-09,-1.972985e-05,-0.00022429414,-4.107403e-08,0,0,1
2017908000,2017756000,2017756000,0,0.009933393,-0.002305356,-0.99994797,1.0,1.0,1.0,-0.007949907,0.0007682075,-4.8816204e-05,-0.00020397862,-0.0010957386,-3.594584e-05,1.000027,1.0000415,1.0,0.0010111892,9.441892e-06,3.812835e-08,-3.5343386e-05,-0.00022061326,-4.1027644e-08,0,0,1
2017916000,2017764000,2017764000,0,-0.0017728567,-0.0062046344,-0.9999792,1.0,1.0,1.0,0.003649078,0.0047009094,-1.7940998e-05,-0.00014330057,-0.0010044528,-3.56623e-05,1.0000271,1.0000416,1.0,0.00021304657,0.0003535621,5.1500706e-09,-3.1431733e-05,-0.00021157112,-4.046264e-08,0,0,1
2017932000,2017780000,2017780000,0,0.0035706637,-0.0017522422,-0.99999213,1.0,1.0,1.0,-0.0017149497,0.000112080714,-4.7683716e-06,-0.00020694137,-0.000994113,-3.4735724e-05,1.0000271,1.0000416,1.0,4.7055568e-05,2.0098503e-07,3.6379788e-10,-3.293522e-05,-0.00020549394,-3.9217102e-08,0,0,1
2017940000,2017788000,2017788000,0,-0.0025185223,-0.0047473237,-0.9999855,1.0,1.0,1.0,0.0043364856,0.0030546004,-1.13248825e-05,-0.00013539134,-0.00093035377,-3.4367047e-05,1.0000271,1.0000416,1.0,0.00030087357,0.00014928312,2.0520474e-09,-2.7678387e-05,-0.0001999069,-3.8631825e-08,0,0,1
2017948000,2017796000,2017796000,0,0.0003458711,-0.006544135,-0.99997854,1.0,1.0,1.0,0.0014640046,0.0049755145,-1.847744e-05,-0.000110204,-0.00083734794,-3.4116816e-05,1.0000271,1.0000416,1.0,3.4292025e-05,0.00039607543,5.4626526e-09,-2.6702475e-05,-0.00019052136,-3.8109476e-08,0,0,1
2017956000,2017804000,2017804000,0,0.0028970055,-0.012715504,-0.99991494,1.0,1.0,1.0,-0.0011366382,0.011189105,-8.225441e-05,-0.00012636831,-0.000647955,-3.4874887e-05,1.0000272,1.0000417,1.0,2.067058e-05,0.0020030534,1.0825261e-07,-2.6607484e-05,-0.00015597687,-3.9214093e-08,0,0,1
2017972000,2017820000,2017820000,0,-0.006909005,-0.004733977,-0.99996483,1.0,1.0,1.0,0.008682729,0.0032136268,-3.2424927e-05,8.788345e-05,-0.00030415689,-3.715698e-05,1.0000272,1.0000417,1.0,0.0012062036,0.00016523145,1.6822014e-08,-1.1941793e-06,-7.1603456e-05,-4.6704393e-08,0,0,1
2017980000,2017828000,2017828000,0,-0.0034304983,-0.005357056,-0.99997985,1.0,1.0,1.0,0.0052259145,0.0038371845,-1.7285347e-05,0.00016879733,-0.00023893891,-3.684404e-05,1.0000272,1.0000417,1.0,0.00043695106,0.00023557394,4.7805315e-09,5.705746e-06,-6.676601e-05,-4.6044175e-08,0,0,1
2017988000,2017836000,2017836000,0,0.006218674,-0.0036985846,-0.99997383,1.0,1.0,1.0,-0.004499523,0.0022112033,-2.3663044e-05,9.528047e-05,-0.000200354,-3.6636466e-05,1.0000273,1.0000417,1.0,0.00032392246,7.822746e-05,8.959034e-09,5.1475035e-07,-6.448265e-05,-4.546016e-08,0,0,1
2017996000,2017844000,2017844000,0,0.01524438,0.0031154961,-0.999879,1.0,1.0,1.0,-0.013578026,-0.004565023,-0.00011855364,-0.00012004719,-0.00026908895,-3.79265e-05,1.0000273,1.0000418,1.0,0.002949724,0.000333417,2.2487944e-07,-4.59457e-05,-6.871784e-05,-4.828566e-08,0,0,1
