timestamp,timestamp_sample,control[0],control[1],control[2],control[3],control[4],control[5],control[6],control[7],control[8],control[9],control[10],control[11],reversible_flags
2015920000,2015920000,0.0019999999,0.0,0.0019999999,0.0,nan,nan,nan,nan,nan,nan,nan,nan,0
2015928000,2015928000,0.0,0.0019999999,0.0,0.0019999999,nan,nan,nan,nan,nan,nan,nan,nan,0
2016020000,2016020000,0.0,0.0014120558,0.0017249996,0.0008629443,nan,nan,nan,nan,nan,nan,nan,nan,0
2016120000,2016120000,0.002,0.0,0.0020000003,0.0,nan,nan,nan,nan,nan,nan,nan,nan,0
2016220000,2016220000,0.0019999994,0.0,0.0019999999,1.1641532e-10,nan,nan,nan,nan,nan,nan,nan,nan,0
2016320000,2016320000,0.0019999999,0.0,0.0019999999,0.0,nan,nan,nan,nan,nan,nan,nan,nan,0
2016420000,2016420000,0.0008796514,0.0015673474,0.0008616021,0.00069139886,nan,nan,nan,nan,nan,nan,nan,nan,0
2016516000,2016516000,0.0,0.0019999999,0.0,0.0019999999,nan,nan,nan,nan,nan,nan,nan,nan,0
2016620000,2016620000,0.0,0.0019999999,0.0,0.0019999999,nan,nan,nan,nan,nan,nan,nan,nan,0
2016720000,2016720000,0.0019999999,0.0,0.0020000003,0.0,nan,nan,nan,nan,nan,nan,nan,nan,0
2016820000,2016820000,0.0019999996,0.0,0.002,0.0,nan,nan,nan,nan,nan,nan,nan,nan,0
2016920000,2016920000,0.0011112406,0.0011188472,0.0004334643,0.0013364475,nan,nan,nan,nan,nan,nan,nan,nan,0
2017020000,2017020000,0.021396345,0.016425833,0.01855152,0.018538345,nan,nan,nan,nan,nan,nan,nan,nan,0
2017120000,2017120000,0.03192568,0.033013087,0.03058004,0.034972243,nan,nan,nan,nan,nan,nan,nan,nan,0
2017220000,2017220000,0.047153674,0.051977184,0.049514834,0.050667904,nan,nan,nan,nan,nan,nan,nan,nan,0
2017320000,2017320000,0.06715881,0.06824184,0.061673306,0.074247934,nan,nan,nan,nan,nan,nan,nan,nan,0
2017420000,2017420000,0.090983614,0.08557011,0.08938537,0.09030958,nan,nan,nan,nan,nan,nan,nan,nan,0
2017520000,2017520000,0.1147177,0.10966833,0.112194166,0.11359929,nan,nan,nan,nan,nan,nan,nan,nan,0
2017620000,2017620000,0.13993225,0.13154623,0.131698,0.13865478,nan,nan,nan,nan,nan,nan,nan,nan,0
2017720000,2017720000,0.16078961,0.15937094,0.15899107,0.16002099,nan,nan,nan,nan,nan,nan,nan,nan,0
2017820000,2017820000,0.1911652,0.18662086,0.18531796,0.19072369,nan,nan,nan,nan,nan,nan,nan,nan,0
2017920000,2017920000,0.22449102,0.21700086,0.21562657,0.22300363,nan,nan,nan,nan,nan,nan,nan,nan,0
2018020000,2018020000,0.25606677,0.24551919,0.2490718,0.2516276,nan,nan,nan,nan,nan,nan,nan,nan,0
2018116000,2018116000,0.2873048,0.27863032,0.27724388,0.28734505,nan,nan,nan,nan,nan,nan,nan,nan,0
2018220000,2018220000,0.32256055,0.3162168,0.3153213,0.32188314,nan,nan,nan,nan,nan,nan,nan,nan,0
2018320000,2018320000,0.34009564,0.32195097,0.32684696,0.3352006,nan,nan,nan,nan,nan,nan,nan,nan,0
2018416000,2018416000,0.34280294,0.33424792,0.33268157,0.34530336,nan,nan,nan,nan,nan,nan,nan,nan,0
2018520000,2018520000,0.35856226,0.3436321,0.34271517,0.35992974,nan,nan,nan,nan,nan,nan,nan,nan,0
2018620000,2018620000,0.3699919,0.35611576,0.35892785,0.36557657,nan,nan,nan,nan,nan,nan,nan,nan,0
2018720000,2018720000,0.38451678,0.36459225,0.3642935,0.3823093,nan,nan,nan,nan,nan,nan,nan,nan,0
2018820000,2018820000,0.39857808,0.3765816,0.38325164,0.39112636,nan,nan,nan,nan,nan,nan,nan,nan,0
2018920000,2018920000,0.4104433,0.38828418,0.39788637,0.39974755,nan,nan,nan,nan,nan,nan,nan,nan,0
2019020000,2019020000,0.42642242,0.4007896,0.4089675,0.41745397,nan,nan,nan,nan,nan,nan,nan,nan,0
2019120000,2019120000,0.43880078,0.41525957,0.41602919,0.4368368,nan,nan,nan,nan,nan,nan,nan,nan,0
2019220000,2019220000,0.455888,0.42812064,0.43333867,0.45029566,nan,nan,nan,nan,nan,nan,nan,nan,0
2019320000,2019320000,0.4673019,0.44280124,0.44347408,0.46671635,nan,nan,nan,nan,nan,nan,nan,nan,0
2019420000,2019420000,0.48915568,0.45466235,0.4676815,0.47467074,nan,nan,nan,nan,nan,nan,nan,nan,0
2019520000,2019520000,0.5018019,0.469998,0.47734046,0.4931829,nan,nan,nan,nan,nan,nan,nan,nan,0
2019620000,2019620000,0.5211818,0.48781165,0.50071704,0.50519943,nan,nan,nan,nan,nan,nan,nan,nan,0
2019720000,2019720000,0.54268754,0.49638212,0.5168169,0.51982516,nan,nan,nan,nan,nan,nan,nan,nan,0
2019820000,2019820000,0.5585509,0.51832074,0.53232485,0.54094976,nan,nan,nan,nan,nan,nan,nan,nan,0
2019920000,2019920000,0.57654107,0.5302546,0.5449973,0.5607839,nan,nan,nan,nan,nan,nan,nan,nan,0
2020020000,2020020000,0.62501454,0.5733969,0.59261596,0.6034802,nan,nan,nan,nan,nan,nan,nan,nan,0
2020116000,2020116000,0.6386768,0.5918224,0.6101086,0.62175447,nan,nan,nan,nan,nan,nan,nan,nan,0
2020216000,2020216000,0.65857023,0.6071919,0.6257698,0.6396346,nan,nan,nan,nan,nan,nan,nan,nan,0
2020320000,2020320000,0.67840934,0.63216907,0.6443555,0.6635568,nan,nan,nan,nan,nan,nan,nan,nan,0
2020420000,2020420000,0.70685166,0.6502384,0.670206,0.6845772,nan,nan,nan,nan,nan,nan,nan,nan,0
2020520000,2020520000,0.7278859,0.66651875,0.6919299,0.69894594,nan,nan,nan,nan,nan,nan,nan,nan,0
2020620000,2020620000,0.7404955,0.6940859,0.7161115,0.71658045,nan,nan,nan,nan,nan,nan,nan,nan,0
2020720000,2020720000,0.729603,0.72860664,0.73016655,0.7265227,nan,nan,nan,nan,nan,nan,nan,nan,0
2020820000,2020820000,0.7372966,0.7466991,0.74480957,0.73858386,nan,nan,nan,nan,nan,nan,nan,nan,0
2020920000,2020920000,0.7424285,0.74835205,0.74502933,0.74482673,nan,nan,nan,nan,nan,nan,nan,nan,0
2021020000,2021020000,0.75356466,0.74815565,0.7515581,0.74904066,nan,nan,nan,nan,nan,nan,nan,nan,0
2021120000,2021120000,0.75508857,0.74671036,0.7569617,0.743151,nan,nan,nan,nan,nan,nan,nan,nan,0
2021220000,2021220000,0.7555031,0.7512353,0.76200485,0.7474811,nan,nan,nan,nan,nan,nan,nan,nan,0
2021320000,2021320000,0.75643784,0.7510958,0.752676,0.7541756,nan,nan,nan,nan,nan,nan,nan,nan,0
2021420000,2021420000,0.75131214,0.7378663,0.74529535,0.7426385,nan,nan,nan,nan,nan,nan,nan,nan,0
2021520000,2021520000,0.73241246,0.7171374,0.7319426,0.7179004,nan,nan,nan,nan,nan,nan,nan,nan,0
2021620000,2021620000,0.7311552,0.7314435,0.7340977,0.7280312,nan,nan,nan,nan,nan,nan,nan,nan,0
2021716000,2021716000,0.7196731,0.7192578,0.7175228,0.7171406,nan,nan,nan,nan,nan,nan,nan,nan,0
2021820000,2021820000,0.7284945,0.72194517,0.72557306,0.7230418,nan,nan,nan,nan,nan,nan,nan,nan,0
2021920000,2021920000,0.7254459,0.7180965,0.7233136,0.7190983,nan,nan,nan,nan,nan,nan,nan,nan,0
2022020000,2022020000,0.72399276,0.72624034,0.7290653,0.7229185,nan,nan,nan,nan,nan,nan,nan,nan,0
2022120000,2022120000,0.72130483,0.7212132,0.7225176,0.72098166,nan,nan,nan,nan,nan,nan,nan,nan,0
2022220000,2022220000,0.7241099,0.72546875,0.7256271,0.7243065,nan,nan,nan,nan,nan,nan,nan,nan,0
2022320000,2022320000,0.7238772,0.71549386,0.724083,0.71424556,nan,nan,nan,nan,nan,nan,nan,nan,0
2022420000,2022420000,0.7192725,0.7247158,0.72094375,0.7250261,nan,nan,nan,nan,nan,nan,nan,nan,0
2022520000,2022520000,0.72198087,0.71195865,0.7234532,0.7122536,nan,nan,nan,nan,nan,nan,nan,nan,0
2022620000,2022620000,0.7250103,0.7177222,0.72433436,0.7158029,nan,nan,nan,nan,nan,nan,nan,nan,0
2022720000,2022720000,0.7219759,0.71075016,0.71965426,0.7099253,nan,nan,nan,nan,nan,nan,nan,nan,0
2022820000,2022820000,0.71985126,0.7159055,0.7193727,0.7175493,nan,nan,nan,nan,nan,nan,nan,nan,0
2022920000,2022920000,0.7107699,0.7166168,0.7154125,0.71291465,nan,nan,nan,nan,nan,nan,nan,nan,0
2023020000,2023020000,0.7158681,0.719798,0.7217819,0.7136178,nan,nan,nan,nan,nan,nan,nan,nan,0
2023120000,2023120000,0.7152177,0.71156913,0.7174789,0.7091901,nan,nan,nan,nan,nan,nan,nan,nan,0
2023220000,2023220000,0.7180126,0.714954,0.718618,0.71470386,nan,nan,nan,nan,nan,nan,nan,nan,0
2023320000,2023320000,0.71194506,0.71012133,0.70978206,0.7134789,nan,nan,nan,nan,nan,nan,nan,nan,0
2023420000,2023420000,0.7149177,0.7141644,0.7135042,0.7138633,nan,nan,nan,nan,nan,nan,nan,nan,0
2023520000,2023520000,0.7064847,0.71227765,0.7123276,0.70623755,nan,nan,nan,nan,nan,nan,nan,nan,0
2023616000,2023616000,0.71191925,0.7042456,0.7102336,0.7056194,nan,nan,nan,nan,nan,nan,nan,nan,0
2023720000,2023720000,0.7132004,0.7046237,0.7115868,0.7061113,nan,nan,nan,nan,nan,nan,nan,nan,0
2023820000,2023820000,0.7139338,0.7070708,0.71071213,0.7114739,nan,nan,nan,nan,nan,nan,nan,nan,0
2023916000,2023916000,0.7072423,0.70639384,0.712391,0.7024719,nan,nan,nan,nan,nan,nan,nan,nan,0
2024020000,2024020000,0.7116118,0.70801425,0.7097179,0.70787024,nan,nan,nan,nan,nan,nan,nan,nan,0
2024120000,2024120000,0.7115773,0.70465654,0.7083532,0.7051861,nan,nan,nan,nan,nan,nan,nan,nan,0
2024220000,2024220000,0.6852077,0.687483,0.68533033,0.686363,nan,nan,nan,nan,nan,nan,nan,nan,0
2024320000,2024320000,0.664037,0.6652131,0.66941905,0.66126895,nan,nan,nan,nan,nan,nan,nan,nan,0
2024420000,2024420000,0.65427995,0.65378267,0.6582138,0.65116763,nan,nan,nan,nan,nan,nan,nan,nan,0
2024520000,2024520000,0.6789068,0.669525,0.677961,0.6720396,nan,nan,nan,nan,nan,nan,nan,nan,0
2024620000,2024620000,0.69747746,0.6922655,0.70041037,0.6931504,nan,nan,nan,nan,nan,nan,nan,nan,0
2024720000,2024720000,0.7168218,0.7105453,0.71472263,0.7160131,nan,nan,nan,nan,nan,nan,nan,nan,0
2024820000,2024820000,0.72419685,0.72397506,0.7216245,0.72383267,nan,nan,nan,nan,nan,nan,nan,nan,0
2024920000,2024920000,0.7145031,0.7230927,0.71664083,0.716932,nan,nan,nan,nan,nan,nan,nan,nan,0
2025020000,2025020000,0.70981807,0.7101418,0.7075732,0.70979804,nan,nan,nan,nan,nan,nan,nan,nan,0
2025120000,2025120000,0.7040327,0.70741016,0.70091975,0.7103634,nan,nan,nan,nan,nan,nan,nan,nan,0
2025216000,2025216000,0.70868814,0.701387,0.707214,0.7015199,nan,nan,nan,nan,nan,nan,nan,nan,0
2025320000,2025320000,0.7074877,0.70380676,0.70498616,0.7051303,nan,nan,nan,nan,nan,nan,nan,nan,0
2025420000,2025420000,0.70727646,0.70255095,0.7107099,0.7003595,nan,nan,nan,nan,nan,nan,nan,nan,0
2025520000,2025520000,0.70347893,0.7049592,0.70492864,0.7062145,nan,nan,nan,nan,nan,nan,nan,nan,0
2025620000,2025620000,0.70759714,0.7053607,0.7113991,0.7024005,nan,nan,nan,nan,nan,nan,nan,nan,0
2025720000,2025720000,0.707719,0.7027505,0.70646614,0.7043393,nan,nan,nan,nan,nan,nan,nan,nan,0
2025820000,2025820000,0.7040454,0.706967,0.7048449,0.70667154,nan,nan,nan,nan,nan,nan,nan,nan,0
2025920000,2025920000,0.70500255,0.7058137,0.7065358,0.7042207,nan,nan,nan,nan,nan,nan,nan,nan,0
2026020000,2026020000,0.7084075,0.7048907,0.70213926,0.70706487,nan,nan,nan,nan,nan,nan,nan,nan,0
2026120000,2026120000,0.71121424,0.6985036,0.7054421,0.7008713,nan,nan,nan,nan,nan,nan,nan,nan,0
2026220000,2026220000,0.7101006,0.7002806,0.70929754,0.7034831,nan,nan,nan,nan,nan,nan,nan,nan,0
2026320000,2026320000,0.7065997,0.7010123,0.7008687,0.70925874,nan,nan,nan,nan,nan,nan,nan,nan,0
2026420000,2026420000,0.7094879,0.69893986,0.7116997,0.702552,nan,nan,nan,nan,nan,nan,nan,nan,0
2026520000,2026520000,0.7060096,0.70315266,0.7040003,0.70673484,nan,nan,nan,nan,nan,nan,nan,nan,0
2026620000,2026620000,0.70795965,0.70426476,0.70816886,0.7010102,nan,nan,nan,nan,nan,nan,nan,nan,0
2026720000,2026720000,0.7044909,0.70786685,0.7067006,0.7013197,nan,nan,nan,nan,nan,nan,nan,nan,0
2026820000,2026820000,0.7093418,0.7052474,0.70620716,0.70267135,nan,nan,nan,nan,nan,nan,nan,nan,0
2026920000,2026920000,0.70342594,0.7065172,0.70717573,0.7033755,nan,nan,nan,nan,nan,nan,nan,nan,0
2027020000,2027020000,0.70425415,0.70573556,0.7096563,0.7041176,nan,nan,nan,nan,nan,nan,nan,nan,0
2027120000,2027120000,0.7071103,0.6999873,0.7086908,0.7021666,nan,nan,nan,nan,nan,nan,nan,nan,0
2027220000,2027220000,0.7050354,0.7086753,0.7071115,0.70729995,nan,nan,nan,nan,nan,nan,nan,nan,0
2027320000,2027320000,0.71076375,0.70115066,0.7094605,0.7031614,nan,nan,nan,nan,nan,nan,nan,nan,0
2027420000,2027420000,0.7131669,0.70218587,0.71068203,0.7020773,nan,nan,nan,nan,nan,nan,nan,nan,0
2027520000,2027520000,0.7074511,0.70499235,0.7046013,0.70500845,nan,nan,nan,nan,nan,nan,nan,nan,0
2027620000,2027620000,0.70342547,0.70915526,0.7057021,0.7067961,nan,nan,nan,nan,nan,nan,nan,nan,0
2027720000,2027720000,0.70526075,0.70250815,0.7078171,0.70280224,nan,nan,nan,nan,nan,nan,nan,nan,0
2027816000,2027816000,0.7076669,0.70257217,0.70703965,0.70220864,nan,nan,nan,nan,nan,nan,nan,nan,0
2027920000,2027920000,0.7053344,0.70317084,0.7096479,0.69936055,nan,nan,nan,nan,nan,nan,nan,nan,0
2028020000,2028020000,0.7098397,0.70179117,0.7104377,0.7039512,nan,nan,nan,nan,nan,nan,nan,nan,0
2028120000,2028120000,0.70368683,0.70465744,0.7087571,0.70403653,nan,nan,nan,nan,nan,nan,nan,nan,0
2028220000,2028220000,0.7104519,0.702526,0.71072066,0.70122546,nan,nan,nan,nan,nan,nan,nan,nan,0
2028320000,2028320000,0.704264,0.7074302,0.7020226,0.7068835,nan,nan,nan,nan,nan,nan,nan,nan,0
2028420000,2028420000,0.7068348,0.7081975,0.70264274,0.708582,nan,nan,nan,nan,nan,nan,nan,nan,0
2028520000,2028520000,0.70836264,0.70368505,0.70343065,0.706963,nan,nan,nan,nan,nan,nan,nan,nan,0
2028620000,2028620000,0.7087096,0.70151895,0.7083521,0.70316523,nan,nan,nan,nan,nan,nan,nan,nan,0
2028720000,2028720000,0.70719594,0.70199156,0.7104079,0.70195496,nan,nan,nan,nan,nan,nan,nan,nan,0
2028820000,2028820000,0.70865136,0.6998717,0.7088891,0.70429814,nan,nan,nan,nan,nan,nan,nan,nan,0
2028920000,2028920000,0.70345986,0.7046358,0.7058074,0.70639586,nan,nan,nan,nan,nan,nan,nan,nan,0
2029016000,2029016000,0.70896375,0.7007661,0.70616287,0.7046909,nan,nan,nan,nan,nan,nan,nan,nan,0
2029120000,2029120000,0.70872253,0.70734656,0.7039015,0.70638174,nan,nan,nan,nan,nan,nan,nan,nan,0
2029220000,2029220000,0.70342124,0.70815486,0.7074275,0.7027597,nan,nan,nan,nan,nan,nan,nan,nan,0
2029320000,2029320000,0.714098,0.69640106,0.711382,0.70072436,nan,nan,nan,nan,nan,nan,nan,nan,0
2029420000,2029420000,0.7157785,0.695987,0.71053547,0.70088804,nan,nan,nan,nan,nan,nan,nan,nan,0
2029520000,2029520000,0.72012454,0.6864619,0.7158558,0.70504975,nan,nan,nan,nan,nan,nan,nan,nan,0
2029620000,2029620000,0.70970964,0.6863077,0.71414655,0.7235179,nan,nan,nan,nan,nan,nan,nan,nan,0
2029720000,2029720000,0.7044543,0.69068944,0.72308695,0.7303511,nan,nan,nan,nan,nan,nan,nan,nan,0
2029820000,2029820000,0.7068616,0.69133556,0.73019797,0.7343926,nan,nan,nan,nan,nan,nan,nan,nan,0
2029916000,2029916000,0.70674825,0.69947606,0.7331835,0.73463875,nan,nan,nan,nan,nan,nan,nan,nan,0
2030020000,2030020000,0.7182587,0.70006704,0.73509234,0.7338314,nan,nan,nan,nan,nan,nan,nan,nan,0
2030120000,2030120000,0.71581495,0.71288955,0.73562294,0.74076647,nan,nan,nan,nan,nan,nan,nan,nan,0
2030220000,2030220000,0.7171751,0.7132149,0.7387115,0.7402365,nan,nan,nan,nan,nan,nan,nan,nan,0
2030320000,2030320000,0.71183854,0.71061444,0.74017346,0.73545843,nan,nan,nan,nan,nan,nan,nan,nan,0
2030420000,2030420000,0.71301836,0.70817524,0.7424329,0.7417013,nan,nan,nan,nan,nan,nan,nan,nan,0
2030520000,2030520000,0.7165557,0.705321,0.74586314,0.7491281,nan,nan,nan,nan,nan,nan,nan,nan,0
2030620000,2030620000,0.71974444,0.7086142,0.74990314,0.74752307,nan,nan,nan,nan,nan,nan,nan,nan,0
2030720000,2030720000,0.7209155,0.7111621,0.75123453,0.749492,nan,nan,nan,nan,nan,nan,nan,nan,0
2030820000,2030820000,0.7253599,0.7063929,0.7478459,0.7555107,nan,nan,nan,nan,nan,nan,nan,nan,0
2030916000,2030916000,0.7263299,0.7100344,0.7475195,0.7609941,nan,nan,nan,nan,nan,nan,nan,nan,0
2031020000,2031020000,0.7237399,0.71366453,0.7462599,0.7629451,nan,nan,nan,nan,nan,nan,nan,nan,0
2031120000,2031120000,0.7245511,0.71098834,0.7477274,0.76506025,nan,nan,nan,nan,nan,nan,nan,nan,0
2031220000,2031220000,0.7282461,0.70952344,0.7502583,0.7657306,nan,nan,nan,nan,nan,nan,nan,nan,0
2031320000,2031320000,0.7214904,0.7072994,0.75239146,0.7548608,nan,nan,nan,nan,nan,nan,nan,nan,0
2031420000,2031420000,0.71742177,0.70600575,0.7394012,0.7530648,nan,nan,nan,nan,nan,nan,nan,nan,0
2031520000,2031520000,0.7212413,0.70077217,0.73779804,0.75027275,nan,nan,nan,nan,nan,nan,nan,nan,0
2031620000,2031620000,0.7155096,0.7073201,0.73834765,0.74511105,nan,nan,nan,nan,nan,nan,nan,nan,0
2031720000,2031720000,0.71604407,0.7009642,0.7322406,0.7519843,nan,nan,nan,nan,nan,nan,nan,nan,0
2031820000,2031820000,0.7055156,0.7054931,0.7249052,0.74786276,nan,nan,nan,nan,nan,nan,nan,nan,0
2031916000,2031916000,0.7089277,0.71530366,0.7113167,0.74161845,nan,nan,nan,nan,nan,nan,nan,nan,0
2032020000,2032020000,0.7263896,0.71184134,0.70328355,0.7251945,nan,nan,nan,nan,nan,nan,nan,nan,0
2032120000,2032120000,0.71319944,0.7308466,0.696881,0.72056276,nan,nan,nan,nan,nan,nan,nan,nan,0
2032220000,2032220000,0.71936923,0.7274016,0.6855954,0.7328963,nan,nan,nan,nan,nan,nan,nan,nan,0
2032320000,2032320000,0.706717,0.7322202,0.6826813,0.7418537,nan,nan,nan,nan,nan,nan,nan,nan,0
2032420000,2032420000,0.7097972,0.7186881,0.69385314,0.73608816,nan,nan,nan,nan,nan,nan,nan,nan,0
2032520000,2032520000,0.7000004,0.7207272,0.69564843,0.7362424,nan,nan,nan,nan,nan,nan,nan,nan,0
2032620000,2032620000,0.7044328,0.7164157,0.7070738,0.72586536,nan,nan,nan,nan,nan,nan,nan,nan,0
2032720000,2032720000,0.7052746,0.7227326,0.7019039,0.7253381,nan,nan,nan,nan,nan,nan,nan,nan,0
2032820000,2032820000,0.7071342,0.72544795,0.6998955,0.72140324,nan,nan,nan,nan,nan,nan,nan,nan,0
2032916000,2032916000,0.7086125,0.7271761,0.698753,0.7203557,nan,nan,nan,nan,nan,nan,nan,nan,0
2033020000,2033020000,0.70791,0.7302049,0.698416,0.7221441,nan,nan,nan,nan,nan,nan,nan,nan,0
2033120000,2033120000,0.70764697,0.7322778,0.69409114,0.7268113,nan,nan,nan,nan,nan,nan,nan,nan,0
2033220000,2033220000,0.712451,0.725281,0.6982619,0.72225744,nan,nan,nan,nan,nan,nan,nan,nan,0
2033320000,2033320000,0.70982486,0.72896165,0.7000214,0.71767414,nan,nan,nan,nan,nan,nan,nan,nan,0
2033420000,2033420000,0.70523477,0.72834873,0.6957492,0.72071844,nan,nan,nan,nan,nan,nan,nan,nan,0
2033520000,2033520000,0.7030875,0.73234206,0.6960164,0.7228567,nan,nan,nan,nan,nan,nan,nan,nan,0
2033620000,2033620000,0.7039933,0.73435867,0.6960309,0.7226272,nan,nan,nan,nan,nan,nan,nan,nan,0
2033716000,2033716000,0.7080282,0.7331098,0.7002331,0.71693295,nan,nan,nan,nan,nan,nan,nan,nan,0
2033820000,2033820000,0.7100003,0.7338453,0.6972927,0.7182208,nan,nan,nan,nan,nan,nan,nan,nan,0
2033920000,2033920000,0.7102426,0.73450196,0.69609064,0.71692973,nan,nan,nan,nan,nan,nan,nan,nan,0
2034020000,2034020000,0.7090516,0.7373858,0.69434124,0.71854913,nan,nan,nan,nan,nan,nan,nan,nan,0
2034120000,2034120000,0.71293604,0.73507684,0.6945223,0.7146926,nan,nan,nan,nan,nan,nan,nan,nan,0
2034220000,2034220000,0.7116538,0.72965413,0.6984208,0.7192733,nan,nan,nan,nan,nan,nan,nan,nan,0
2034320000,2034320000,0.7016945,0.72572565,0.7012265,0.7272196,nan,nan,nan,nan,nan,nan,nan,nan,0
2034420000,2034420000,0.6962781,0.72242045,0.70727766,0.7289833,nan,nan,nan,nan,nan,nan,nan,nan,0
2034520000,2034520000,0.69778806,0.7188884,0.70453864,0.735641,nan,nan,nan,nan,nan,nan,nan,nan,0
2034620000,2034620000,0.69671774,0.723654,0.70807505,0.73026496,nan,nan,nan,nan,nan,nan,nan,nan,0
2034720000,2034720000,0.7017242,0.7240513,0.7089974,0.72338164,nan,nan,nan,nan,nan,nan,nan,nan,0
2034820000,2034820000,0.7050355,0.7244989,0.7039108,0.72528315,nan,nan,nan,nan,nan,nan,nan,nan,0
2034920000,2034920000,0.703404,0.7258492,0.70222294,0.72077155,nan,nan,nan,nan,nan,nan,nan,nan,0
2035020000,2035020000,0.70028794,0.73282164,0.70200145,0.723841,nan,nan,nan,nan,nan,nan,nan,nan,0
2035120000,2035120000,0.70113015,0.7305493,0.70184803,0.72500473,nan,nan,nan,nan,nan,nan,nan,nan,0
2035220000,2035220000,0.6984859,0.72795236,0.7039101,0.72316056,nan,nan,nan,nan,nan,nan,nan,nan,0
2035320000,2035320000,0.70047814,0.72349185,0.7020018,0.7225764,nan,nan,nan,nan,nan,nan,nan,nan,0
2035420000,2035420000,0.6959539,0.7287124,0.7026962,0.7261629,nan,nan,nan,nan,nan,nan,nan,nan,0
2035520000,2035520000,0.69860256,0.72730976,0.7014855,0.72843045,nan,nan,nan,nan,nan,nan,nan,nan,0
2035616000,2035616000,0.7032862,0.7203553,0.70395344,0.72044855,nan,nan,nan,nan,nan,nan,nan,nan,0
2035720000,2035720000,0.7070943,0.7231364,0.70501834,0.72145015,nan,nan,nan,nan,nan,nan,nan,nan,0
2035820000,2035820000,0.70537883,0.72501475,0.69827354,0.7273619,nan,nan,nan,nan,nan,nan,nan,nan,0
2035920000,2035920000,0.69782215,0.73178446,0.6959484,0.7286203,nan,nan,nan,nan,nan,nan,nan,nan,0
2036020000,2036020000,0.69919384,0.7273312,0.69987,0.7245404,nan,nan,nan,nan,nan,nan,nan,nan,0
2036120000,2036120000,0.69954485,0.7278648,0.70388687,0.72479284,nan,nan,nan,nan,nan,nan,nan,nan,0
2036220000,2036220000,0.7010718,0.72432405,0.70501864,0.7250402,nan,nan,nan,nan,nan,nan,nan,nan,0
2036320000,2036320000,0.69701463,0.72828144,0.70409936,0.7252765,nan,nan,nan,nan,nan,nan,nan,nan,0
2036416000,2036416000,0.7026821,0.7223528,0.7031538,0.7208161,nan,nan,nan,nan,nan,nan,nan,nan,0
2036520000,2036520000,0.7044639,0.72278446,0.70167196,0.72544193,nan,nan,nan,nan,nan,nan,nan,nan,0
2036620000,2036620000,0.7032866,0.72336936,0.70045936,0.7272143,nan,nan,nan,nan,nan,nan,nan,nan,0
2036720000,2036720000,0.70207137,0.7251274,0.7004288,0.7259112,nan,nan,nan,nan,nan,nan,nan,nan,0
2036820000,2036820000,0.7012016,0.72685724,0.6997687,0.72520405,nan,nan,nan,nan,nan,nan,nan,nan,0
2036920000,2036920000,0.69675404,0.7281147,0.69458497,0.73189706,nan,nan,nan,nan,nan,nan,nan,nan,0
2037020000,2037020000,0.7000373,0.7276992,0.69944155,0.72668827,nan,nan,nan,nan,nan,nan,nan,nan,0
2037120000,2037120000,0.7046615,0.7227814,0.7001511,0.72522426,nan,nan,nan,nan,nan,nan,nan,nan,0
2037220000,2037220000,0.7000658,0.7285788,0.70259595,0.7235573,nan,nan,nan,nan,nan,nan,nan,nan,0
2037320000,2037320000,0.69919574,0.72504455,0.6988655,0.72577906,nan,nan,nan,nan,nan,nan,nan,nan,0
2037420000,2037420000,0.70004165,0.7249245,0.7020064,0.72453344,nan,nan,nan,nan,nan,nan,nan,nan,0
2037520000,2037520000,0.6996431,0.7249736,0.69845885,0.72952574,nan,nan,nan,nan,nan,nan,nan,nan,0
2037620000,2037620000,0.709644,0.71721005,0.701135,0.725873,nan,nan,nan,nan,nan,nan,nan,nan,0
2037720000,2037720000,0.7023818,0.7265926,0.7014365,0.7241299,nan,nan,nan,nan,nan,nan,nan,nan,0
2037820000,2037820000,0.6982219,0.72928876,0.69886094,0.7264321,nan,nan,nan,nan,nan,nan,nan,nan,0
2037920000,2037920000,0.6968293,0.72968346,0.70285684,0.72549284,nan,nan,nan,nan,nan,nan,nan,nan,0
2038020000,2038020000,0.70075035,0.7264493,0.70374024,0.72735006,nan,nan,nan,nan,nan,nan,nan,nan,0
2038120000,2038120000,0.6982869,0.7279725,0.70422477,0.72491115,nan,nan,nan,nan,nan,nan,nan,nan,0
2038220000,2038220000,0.7025033,0.7283923,0.7009794,0.72853374,nan,nan,nan,nan,nan,nan,nan,nan,0
2038320000,2038320000,0.70506245,0.7270503,0.700067,0.72879696,nan,nan,nan,nan,nan,nan,nan,nan,0
2038420000,2038420000,0.7027057,0.7274469,0.7020027,0.72650206,nan,nan,nan,nan,nan,nan,nan,nan,0
2038520000,2038520000,0.7042149,0.7267041,0.7082045,0.72065276,nan,nan,nan,nan,nan,nan,nan,nan,0
2038620000,2038620000,0.7039187,0.7258074,0.706726,0.7248898,nan,nan,nan,nan,nan,nan,nan,nan,0
2038716000,2038716000,0.70581776,0.72159857,0.7073145,0.7247536,nan,nan,nan,nan,nan,nan,nan,nan,0
2038820000,2038820000,0.700907,0.726332,0.70263916,0.7284204,nan,nan,nan,nan,nan,nan,nan,nan,0
2038920000,2038920000,0.70559734,0.7241483,0.7055091,0.72388065,nan,nan,nan,nan,nan,nan,nan,nan,0
2039020000,2039020000,0.70195717,0.72896945,0.7003788,0.72865444,nan,nan,nan,nan,nan,nan,nan,nan,0
2039120000,2039120000,0.7011739,0.72968674,0.69541657,0.7319555,nan,nan,nan,nan,nan,nan,nan,nan,0
2039220000,2039220000,0.7046592,0.72437996,0.69647294,0.729583,nan,nan,nan,nan,nan,nan,nan,nan,0
2039320000,2039320000,0.6982438,0.7270716,0.69685066,0.7293724,nan,nan,nan,nan,nan,nan,nan,nan,0
2039420000,2039420000,0.7052649,0.7222022,0.70543003,0.7227802,nan,nan,nan,nan,nan,nan,nan,nan,0
2039520000,2039520000,0.70388544,0.7254406,0.703659,0.729883,nan,nan,nan,nan,nan,nan,nan,nan,0
2039620000,2039620000,0.69868255,0.7304894,0.7015815,0.7261778,nan,nan,nan,nan,nan,nan,nan,nan,0
2039720000,2039720000,0.70100033,0.7287904,0.69839907,0.7267523,nan,nan,nan,nan,nan,nan,nan,nan,0
2039820000,2039820000,0.7022299,0.72583133,0.7007312,0.72768885,nan,nan,nan,nan,nan,nan,nan,nan,0
2039920000,2039920000,0.69895446,0.72861016,0.69808286,0.7284089,nan,nan,nan,nan,nan,nan,nan,nan,0
2040016000,2040016000,0.7045083,0.723412,0.7005866,0.7263658,nan,nan,nan,nan,nan,nan,nan,nan,0
2040120000,2040120000,0.7007643,0.72908175,0.7011181,0.72813284,nan,nan,nan,nan,nan,nan,nan,nan,0
2040216000,2040216000,0.70303303,0.71959406,0.70315874,0.72201896,nan,nan,nan,nan,nan,nan,nan,nan,0
2040320000,2040320000,0.6954512,0.7312949,0.70547885,0.7232646,nan,nan,nan,nan,nan,nan,nan,nan,0
2040420000,2040420000,0.6987901,0.72891295,0.6969107,0.73517185,nan,nan,nan,nan,nan,nan,nan,nan,0
2040520000,2040520000,0.70517033,0.7233415,0.70747167,0.72468036,nan,nan,nan,nan,nan,nan,nan,nan,0
2040620000,2040620000,0.70448166,0.7261381,0.7040439,0.7232312,nan,nan,nan,nan,nan,nan,nan,nan,0
2040720000,2040720000,0.70070726,0.7295852,0.70212895,0.72503555,nan,nan,nan,nan,nan,nan,nan,nan,0
2040816000,2040816000,0.7061981,0.71784943,0.70824915,0.7162584,nan,nan,nan,nan,nan,nan,nan,nan,0
2040920000,2040920000,0.69952387,0.72876745,0.6962582,0.72921383,nan,nan,nan,nan,nan,nan,nan,nan,0
2041020000,2041020000,0.70044124,0.729033,0.69453615,0.734929,nan,nan,nan,nan,nan,nan,nan,nan,0
2041120000,2041120000,0.7070971,0.72132796,0.70438325,0.7265974,nan,nan,nan,nan,nan,nan,nan,nan,0
2041220000,2041220000,0.70151216,0.7282171,0.702389,0.7273049,nan,nan,nan,nan,nan,nan,nan,nan,0
2041316000,2041316000,0.69623077,0.73411816,0.7018403,0.72929007,nan,nan,nan,nan,nan,nan,nan,nan,0
2041416000,2041416000,0.70612204,0.7225281,0.7033953,0.723723,nan,nan,nan,nan,nan,nan,nan,nan,0
2041520000,2041520000,0.70005465,0.72698694,0.6992368,0.72923636,nan,nan,nan,nan,nan,nan,nan,nan,0
2041620000,2041620000,0.7019157,0.7282759,0.70526296,0.72521126,nan,nan,nan,nan,nan,nan,nan,nan,0
2041720000,2041720000,0.7027556,0.7272514,0.6990556,0.73057514,nan,nan,nan,nan,nan,nan,nan,nan,0
2041820000,2041820000,0.7001016,0.7293894,0.7029496,0.72588724,nan,nan,nan,nan,nan,nan,nan,nan,0
2041920000,2041920000,0.7009087,0.7302304,0.7015534,0.72820836,nan,nan,nan,nan,nan,nan,nan,nan,0
2042016000,2042016000,0.705243,0.72025985,0.7039991,0.72036207,nan,nan,nan,nan,nan,nan,nan,nan,0
2042120000,2042120000,0.6974233,0.7310422,0.7010329,0.72861063,nan,nan,nan,nan,nan,nan,nan,nan,0
2042220000,2042220000,0.70204335,0.7253692,0.7037747,0.7260906,nan,nan,nan,nan,nan,nan,nan,nan,0
2042320000,2042320000,0.6991251,0.72934854,0.7011686,0.72759056,nan,nan,nan,nan,nan,nan,nan,nan,0
2042420000,2042420000,0.7047735,0.7280882,0.6996372,0.72892773,nan,nan,nan,nan,nan,nan,nan,nan,0
2042520000,2042520000,0.7029574,0.7292459,0.701774,0.72766984,nan,nan,nan,nan,nan,nan,nan,nan,0
2042620000,2042620000,0.7003459,0.72980464,0.7008761,0.72868454,nan,nan,nan,nan,nan,nan,nan,nan,0
2042720000,2042720000,0.69957775,0.729532,0.6975458,0.7334082,nan,nan,nan,nan,nan,nan,nan,nan,0
2042820000,2042820000,0.6979664,0.7291084,0.7015831,0.72930783,nan,nan,nan,nan,nan,nan,nan,nan,0
2042920000,2042920000,0.6968619,0.7324313,0.7018075,0.7294199,nan,nan,nan,nan,nan,nan,nan,nan,0
2043020000,2043020000,0.69694,0.7321572,0.7009822,0.73055446,nan,nan,nan,nan,nan,nan,nan,nan,0
2043120000,2043120000,0.7030443,0.72595185,0.70261955,0.72646207,nan,nan,nan,nan,nan,nan,nan,nan,0
2043220000,2043220000,0.69998896,0.73037034,0.7016883,0.72604614,nan,nan,nan,nan,nan,nan,nan,nan,0
2043320000,2043320000,0.7046266,0.72610235,0.7044319,0.72534806,nan,nan,nan,nan,nan,nan,nan,nan,0
2043420000,2043420000,0.70298296,0.7255327,0.7002198,0.72698075,nan,nan,nan,nan,nan,nan,nan,nan,0
2043520000,2043520000,0.6998827,0.7265083,0.6982963,0.7308403,nan,nan,nan,nan,nan,nan,nan,nan,0
2043620000,2043620000,0.7001279,0.7268321,0.6974719,0.7302992,nan,nan,nan,nan,nan,nan,nan,nan,0
2043720000,2043720000,0.6978672,0.72854036,0.7033641,0.72533137,nan,nan,nan,nan,nan,nan,nan,nan,0
2043820000,2043820000,0.69702655,0.7320769,0.70016795,0.73077357,nan,nan,nan,nan,nan,nan,nan,nan,0
2043920000,2043920000,0.69777703,0.7337319,0.7020057,0.72789526,nan,nan,nan,nan,nan,nan,nan,nan,0
2044016000,2044016000,0.7057736,0.72130185,0.7014235,0.7217882,nan,nan,nan,nan,nan,nan,nan,nan,0
2044120000,2044120000,0.6989675,0.7297865,0.6996389,0.7277639,nan,nan,nan,nan,nan,nan,nan,nan,0
2044220000,2044220000,0.69791865,0.73079807,0.69965285,0.7283025,nan,nan,nan,nan,nan,nan,nan,nan,0
2044320000,2044320000,0.6963639,0.731087,0.6986249,0.72946537,nan,nan,nan,nan,nan,nan,nan,nan,0
2044420000,2044420000,0.6971701,0.731878,0.700126,0.73063415,nan,nan,nan,nan,nan,nan,nan,nan,0
2044520000,2044520000,0.701431,0.7297005,0.69877034,0.72915465,nan,nan,nan,nan,nan,nan,nan,nan,0
2044620000,2044620000,0.69945234,0.7314826,0.7007792,0.7296583,nan,nan,nan,nan,nan,nan,nan,nan,0
2044720000,2044720000,0.70208776,0.7287604,0.7012391,0.73093957,nan,nan,nan,nan,nan,nan,nan,nan,0
2044820000,2044820000,0.702885,0.72386074,0.69800967,0.7321921,nan,nan,nan,nan,nan,nan,nan,nan,0
2044920000,2044920000,0.70155704,0.7265873,0.7010812,0.72805446,nan,nan,nan,nan,nan,nan,nan,nan,0
2045020000,2045020000,0.7024467,0.7254064,0.7002889,0.7284974,nan,nan,nan,nan,nan,nan,nan,nan,0
2045120000,2045120000,0.69958735,0.73279405,0.70128286,0.7242602,nan,nan,nan,nan,nan,nan,nan,nan,0
2045220000,2045220000,0.7028308,0.72692764,0.7026095,0.72499126,nan,nan,nan,nan,nan,nan,nan,nan,0
2045320000,2045320000,0.70288146,0.72808486,0.6972911,0.73180926,nan,nan,nan,nan,nan,nan,nan,nan,0
2045420000,2045420000,0.6997891,0.7278683,0.6997071,0.73107564,nan,nan,nan,nan,nan,nan,nan,nan,0
2045516000,2045516000,0.6969971,0.7323881,0.7006352,0.73013616,nan,nan,nan,nan,nan,nan,nan,nan,0
2045616000,2045616000,0.70728445,0.7200696,0.69954395,0.7266243,nan,nan,nan,nan,nan,nan,nan,nan,0
2045720000,2045720000,0.69962764,0.7312772,0.7012173,0.72823274,nan,nan,nan,nan,nan,nan,nan,nan,0
2045820000,2045820000,0.7032301,0.72782356,0.6995775,0.7306195,nan,nan,nan,nan,nan,nan,nan,nan,0
2045920000,2045920000,0.69986033,0.7322441,0.7043224,0.7253009,nan,nan,nan,nan,nan,nan,nan,nan,0
2046020000,2046020000,0.69991124,0.7302629,0.70246464,0.72856873,nan,nan,nan,nan,nan,nan,nan,nan,0
2046120000,2046120000,0.7042393,0.72663814,0.70576674,0.7263643,nan,nan,nan,nan,nan,nan,nan,nan,0
2046220000,2046220000,0.70254976,0.7265009,0.69876224,0.7326543,nan,nan,nan,nan,nan,nan,nan,nan,0
2046320000,2046320000,0.70086634,0.72922885,0.7009596,0.7315405,nan,nan,nan,nan,nan,nan,nan,nan,0
2046420000,2046420000,0.7043479,0.7284014,0.70389473,0.7277506,nan,nan,nan,nan,nan,nan,nan,nan,0
2046520000,2046520000,0.70366627,0.72787935,0.7014292,0.7307485,nan,nan,nan,nan,nan,nan,nan,nan,0
2046620000,2046620000,0.7013822,0.7307607,0.70005065,0.7310717,nan,nan,nan,nan,nan,nan,nan,nan,0
2046720000,2046720000,0.70634604,0.72604865,0.69982946,0.73057383,nan,nan,nan,nan,nan,nan,nan,nan,0
2046820000,2046820000,0.7011701,0.7317506,0.7007792,0.7280226,nan,nan,nan,nan,nan,nan,nan,nan,0
2046920000,2046920000,0.69941556,0.7323301,0.69877946,0.7296326,nan,nan,nan,nan,nan,nan,nan,nan,0
2047020000,2047020000,0.6976723,0.72838145,0.7012757,0.7290205,nan,nan,nan,nan,nan,nan,nan,nan,0
2047120000,2047120000,0.6981023,0.72826755,0.7009789,0.7310981,nan,nan,nan,nan,nan,nan,nan,nan,0
2047220000,2047220000,0.7019218,0.72423035,0.7059789,0.7260094,nan,nan,nan,nan,nan,nan,nan,nan,0
2047320000,2047320000,0.6997748,0.72802097,0.7009484,0.72831506,nan,nan,nan,nan,nan,nan,nan,nan,0
2047420000,2047420000,0.69979346,0.72880584,0.7050061,0.72157127,nan,nan,nan,nan,nan,nan,nan,nan,0
2047520000,2047520000,0.70092976,0.7276657,0.700854,0.7223393,nan,nan,nan,nan,nan,nan,nan,nan,0
2047620000,2047620000,0.6949649,0.7330137,0.6946389,0.7293432,nan,nan,nan,nan,nan,nan,nan,nan,0
2047720000,2047720000,0.7009647,0.7277093,0.6976233,0.7303311,nan,nan,nan,nan,nan,nan,nan,nan,0
2047820000,2047820000,0.70527744,0.72275347,0.7025389,0.7282654,nan,nan,nan,nan,nan,nan,nan,nan,0
2047920000,2047920000,0.69971627,0.72858506,0.70119375,0.7300294,nan,nan,nan,nan,nan,nan,nan,nan,0
2048020000,2048020000,0.70375156,0.7246963,0.7035056,0.72683984,nan,nan,nan,nan,nan,nan,nan,nan,0
2048120000,2048120000,0.6992417,0.729889,0.6993959,0.73049724,nan,nan,nan,nan,nan,nan,nan,nan,0
2048220000,2048220000,0.70289195,0.73012125,0.7017358,0.72930855,nan,nan,nan,nan,nan,nan,nan,nan,0
2048320000,2048320000,0.7003583,0.728373,0.7000191,0.7294449,nan,nan,nan,nan,nan,nan,nan,nan,0
2048420000,2048420000,0.700118,0.730065,0.7027222,0.72489005,nan,nan,nan,nan,nan,nan,nan,nan,0
2048520000,2048520000,0.7014957,0.73088354,0.7019527,0.7298565,nan,nan,nan,nan,nan,nan,nan,nan,0
2048620000,2048620000,0.70270175,0.72857666,0.69926065,0.7304281,nan,nan,nan,nan,nan,nan,nan,nan,0
2048720000,2048720000,0.69887435,0.73211414,0.69933856,0.73045963,nan,nan,nan,nan,nan,nan,nan,nan,0
2048820000,2048820000,0.703971,0.7270351,0.70496094,0.7267243,nan,nan,nan,nan,nan,nan,nan,nan,0
2048920000,2048920000,0.6997466,0.7266771,0.69872946,0.72966206,nan,nan,nan,nan,nan,nan,nan,nan,0
2049020000,2049020000,0.7036519,0.7266902,0.69853663,0.73020804,nan,nan,nan,nan,nan,nan,nan,nan,0
2049120000,2049120000,0.7004233,0.7307621,0.6997872,0.7276802,nan,nan,nan,nan,nan,nan,nan,nan,0
2049216000,2049216000,0.70572335,0.72149587,0.7030248,0.7218585,nan,nan,nan,nan,nan,nan,nan,nan,0
2049320000,2049320000,0.7011111,0.72432995,0.698442,0.72892547,nan,nan,nan,nan,nan,nan,nan,nan,0
2049420000,2049420000,0.697989,0.72941935,0.69889265,0.7293623,nan,nan,nan,nan,nan,nan,nan,nan,0
2049520000,2049520000,0.70262814,0.72574896,0.70030135,0.73126185,nan,nan,nan,nan,nan,nan,nan,nan,0
2049620000,2049620000,0.69956297,0.73064804,0.6986794,0.733353,nan,nan,nan,nan,nan,nan,nan,nan,0
2049720000,2049720000,0.7139315,0.7110109,0.71484566,0.71318996,nan,nan,nan,nan,nan,nan,nan,nan,0
2049820000,2049820000,0.7053284,0.7123721,0.7071637,0.7133702,nan,nan,nan,nan,nan,nan,nan,nan,0
2049920000,2049920000,0.70154643,0.7164075,0.7066821,0.71084946,nan,nan,nan,nan,nan,nan,nan,nan,0
2050020000,2050020000,0.70295745,0.7162793,0.699882,0.7164492,nan,nan,nan,nan,nan,nan,nan,nan,0
2050120000,2050120000,0.6881189,0.7317991,0.68957406,0.7262943,nan,nan,nan,nan,nan,nan,nan,nan,0
2050220000,2050220000,0.68917996,0.7250832,0.6853114,0.7261179,nan,nan,nan,nan,nan,nan,nan,nan,0
2050320000,2050320000,0.687066,0.7270721,0.6896852,0.7225047,nan,nan,nan,nan,nan,nan,nan,nan,0
2050420000,2050420000,0.691514,0.7221047,0.6924461,0.71800107,nan,nan,nan,nan,nan,nan,nan,nan,0
2050520000,2050520000,0.6987087,0.71603155,0.69471383,0.72069603,nan,nan,nan,nan,nan,nan,nan,nan,0
2050620000,2050620000,0.69482666,0.7220786,0.69658613,0.7216729,nan,nan,nan,nan,nan,nan,nan,nan,0
2050720000,2050720000,0.69871193,0.7213639,0.70085824,0.71668047,nan,nan,nan,nan,nan,nan,nan,nan,0
2050820000,2050820000,0.699862,0.7200121,0.6993707,0.7198086,nan,nan,nan,nan,nan,nan,nan,nan,0
2050920000,2050920000,0.69773346,0.7206079,0.7062321,0.71611124,nan,nan,nan,nan,nan,nan,nan,nan,0
2051016000,2051016000,0.7020009,0.71604466,0.7049905,0.7184215,nan,nan,nan,nan,nan,nan,nan,nan,0
2051120000,2051120000,0.70311564,0.71812695,0.7029851,0.7201968,nan,nan,nan,nan,nan,nan,nan,nan,0
2051220000,2051220000,0.7043779,0.71874005,0.7055499,0.71863747,nan,nan,nan,nan,nan,nan,nan,nan,0
2051320000,2051320000,0.7014394,0.7200202,0.7053052,0.7187743,nan,nan,nan,nan,nan,nan,nan,nan,0
2051420000,2051420000,0.7011297,0.72129613,0.70573366,0.7192479,nan,nan,nan,nan,nan,nan,nan,nan,0
2051520000,2051520000,0.7059111,0.7171588,0.71072906,0.71294415,nan,nan,nan,nan,nan,nan,nan,nan,0
2051620000,2051620000,0.7019375,0.71837914,0.70771104,0.7128918,nan,nan,nan,nan,nan,nan,nan,nan,0
2051720000,2051720000,0.70345694,0.71691716,0.7067895,0.7178121,nan,nan,nan,nan,nan,nan,nan,nan,0
2051820000,2051820000,0.7042658,0.71379054,0.70856446,0.715307,nan,nan,nan,nan,nan,nan,nan,nan,0
2051920000,2051920000,0.70403683,0.71641046,0.7043446,0.7196336,nan,nan,nan,nan,nan,nan,nan,nan,0
2052020000,2052020000,0.7019079,0.72087204,0.7075225,0.714519,nan,nan,nan,nan,nan,nan,nan,nan,0
2052120000,2052120000,0.70282745,0.7153932,0.7128867,0.7124858,nan,nan,nan,nan,nan,nan,nan,nan,0
2052220000,2052220000,0.702621,0.7158817,0.7079233,0.7195618,nan,nan,nan,nan,nan,nan,nan,nan,0
2052320000,2052320000,0.70543844,0.7124521,0.71292865,0.7121557,nan,nan,nan,nan,nan,nan,nan,nan,0
2052420000,2052420000,0.71052414,0.71288705,0.7081603,0.71100575,nan,nan,nan,nan,nan,nan,nan,nan,0
2052520000,2052520000,0.7112204,0.7176356,0.705316,0.7054515,nan,nan,nan,nan,nan,nan,nan,nan,0
2052620000,2052620000,0.71173155,0.71601754,0.7036694,0.7067942,nan,nan,nan,nan,nan,nan,nan,nan,0
2052720000,2052720000,0.7110379,0.71220005,0.70536506,0.7070675,nan,nan,nan,nan,nan,nan,nan,nan,0
2052820000,2052820000,0.70820904,0.70844513,0.7086512,0.7070139,nan,nan,nan,nan,nan,nan,nan,nan,0
2052920000,2052920000,0.7072091,0.70681536,0.70499957,0.7142215,nan,nan,nan,nan,nan,nan,nan,nan,0
2053020000,2053020000,0.71312374,0.6980195,0.7106914,0.70661694,nan,nan,nan,nan,nan,nan,nan,nan,0
2053120000,2053120000,0.7058995,0.70604014,0.7135093,0.70523214,nan,nan,nan,nan,nan,nan,nan,nan,0
2053220000,2053220000,0.7034014,0.7073568,0.7079707,0.70493674,nan,nan,nan,nan,nan,nan,nan,nan,0
2053320000,2053320000,0.7045962,0.70766735,0.7072631,0.70279735,nan,nan,nan,nan,nan,nan,nan,nan,0
2053420000,2053420000,0.7083033,0.7051419,0.7073654,0.7038626,nan,nan,nan,nan,nan,nan,nan,nan,0
2053520000,2053520000,0.707618,0.70539165,0.70881236,0.7048377,nan,nan,nan,nan,nan,nan,nan,nan,0
2053620000,2053620000,0.70681435,0.70730776,0.70394886,0.70672834,nan,nan,nan,nan,nan,nan,nan,nan,0
2053720000,2053720000,0.70900655,0.70618755,0.7083498,0.70303303,nan,nan,nan,nan,nan,nan,nan,nan,0
2053820000,2053820000,0.7058191,0.7096326,0.7045118,0.7098052,nan,nan,nan,nan,nan,nan,nan,nan,0
2053916000,2053916000,0.7086982,0.7044947,0.7060817,0.70630693,nan,nan,nan,nan,nan,nan,nan,nan,0
2054020000,2054020000,0.704253,0.7080499,0.7094319,0.7015076,nan,nan,nan,nan,nan,nan,nan,nan,0
2054120000,2054120000,0.7054245,0.70576406,0.70988226,0.7039824,nan,nan,nan,nan,nan,nan,nan,nan,0
2054220000,2054220000,0.7046369,0.7082929,0.70678973,0.708627,nan,nan,nan,nan,nan,nan,nan,nan,0
2054316000,2054316000,0.7105052,0.7014979,0.70642775,0.7069874,nan,nan,nan,nan,nan,nan,nan,nan,0
2054420000,2054420000,0.7056955,0.7068237,0.7072928,0.7057698,nan,nan,nan,nan,nan,nan,nan,nan,0
2054520000,2054520000,0.70735025,0.70533454,0.7143545,0.7007302,nan,nan,nan,nan,nan,nan,nan,nan,0
2054620000,2054620000,0.7096636,0.70354426,0.70648724,0.7060395,nan,nan,nan,nan,nan,nan,nan,nan,0
2054720000,2054720000,0.7099047,0.70366925,0.70799375,0.7049909,nan,nan,nan,nan,nan,nan,nan,nan,0
2054820000,2054820000,0.7115217,0.70229214,0.7086501,0.70345545,nan,nan,nan,nan,nan,nan,nan,nan,0
2054920000,2054920000,0.7091373,0.70789534,0.70832336,0.70347136,nan,nan,nan,nan,nan,nan,nan,nan,0
2055020000,2055020000,0.7140084,0.70111823,0.70522374,0.7055721,nan,nan,nan,nan,nan,nan,nan,nan,0
2055120000,2055120000,0.707734,0.7027936,0.7027048,0.70765615,nan,nan,nan,nan,nan,nan,nan,nan,0
2055220000,2055220000,0.7072292,0.7033829,0.70648736,0.70775133,nan,nan,nan,nan,nan,nan,nan,nan,0
2055320000,2055320000,0.7088524,0.70343435,0.71015066,0.7062431,nan,nan,nan,nan,nan,nan,nan,nan,0
2055420000,2055420000,0.70027596,0.71125275,0.7048014,0.7088087,nan,nan,nan,nan,nan,nan,nan,nan,0
2055520000,2055520000,0.7064931,0.70507437,0.707486,0.70562524,nan,nan,nan,nan,nan,nan,nan,nan,0
2055620000,2055620000,0.70706844,0.70456254,0.7057694,0.7079272,nan,nan,nan,nan,nan,nan,nan,nan,0
2055720000,2055720000,0.70468146,0.70772135,0.70781636,0.70408493,nan,nan,nan,nan,nan,nan,nan,nan,0
2055820000,2055820000,0.7059617,0.7088703,0.7082507,0.7042393,nan,nan,nan,nan,nan,nan,nan,nan,0
2055920000,2055920000,0.7109284,0.70532554,0.7097073,0.7007008,nan,nan,nan,nan,nan,nan,nan,nan,0
2056020000,2056020000,0.7034391,0.70866364,0.7035458,0.70830005,nan,nan,nan,nan,nan,nan,nan,nan,0
2056120000,2056120000,0.70607734,0.7039129,0.7096469,0.7024096,nan,nan,nan,nan,nan,nan,nan,nan,0
2056220000,2056220000,0.70533895,0.7059352,0.70607114,0.7070504,nan,nan,nan,nan,nan,nan,nan,nan,0
2056320000,2056320000,0.7036304,0.70829576,0.70666414,0.70512253,nan,nan,nan,nan,nan,nan,nan,nan,0
2056420000,2056420000,0.70895654,0.7009318,0.708261,0.70155424,nan,nan,nan,nan,nan,nan,nan,nan,0
2056520000,2056520000,0.7076585,0.70242804,0.7082678,0.69979566,nan,nan,nan,nan,nan,nan,nan,nan,0
2056620000,2056620000,0.70923895,0.6985107,0.7017519,0.70605284,nan,nan,nan,nan,nan,nan,nan,nan,0
2056716000,2056716000,0.70382226,0.7051318,0.7051461,0.7027274,nan,nan,nan,nan,nan,nan,nan,nan,0
2056820000,2056820000,0.7016865,0.7095025,0.70742023,0.7043006,nan,nan,nan,nan,nan,nan,nan,nan,0
2056920000,2056920000,0.7090032,0.703556,0.70585907,0.7075917,nan,nan,nan,nan,nan,nan,nan,nan,0
2057020000,2057020000,0.70352966,0.7079334,0.70826876,0.7042771,nan,nan,nan,nan,nan,nan,nan,nan,0
2057120000,2057120000,0.71460783,0.69773656,0.7104387,0.70038754,nan,nan,nan,nan,nan,nan,nan,nan,0
2057220000,2057220000,0.7094183,0.7024934,0.7116792,0.6983838,nan,nan,nan,nan,nan,nan,nan,nan,0
2057320000,2057320000,0.7066197,0.70493853,0.7075898,0.7057648,nan,nan,nan,nan,nan,nan,nan,nan,0
2057420000,2057420000,0.70595163,0.70533186,0.70559144,0.7064662,nan,nan,nan,nan,nan,nan,nan,nan,0
2057520000,2057520000,0.7102712,0.70046926,0.7044282,0.7077481,nan,nan,nan,nan,nan,nan,nan,nan,0
2057620000,2057620000,0.70774126,0.7042151,0.7130313,0.7030253,nan,nan,nan,nan,nan,nan,nan,nan,0
2057720000,2057720000,0.71069884,0.7023637,0.70943385,0.7061698,nan,nan,nan,nan,nan,nan,nan,nan,0
2057820000,2057820000,0.70338124,0.71017313,0.7054365,0.70681477,nan,nan,nan,nan,nan,nan,nan,nan,0
2057920000,2057920000,0.7079096,0.7058774,0.7088022,0.7024261,nan,nan,nan,nan,nan,nan,nan,nan,0
2058020000,2058020000,0.7078274,0.7067874,0.7091805,0.7057221,nan,nan,nan,nan,nan,nan,nan,nan,0
2058120000,2058120000,0.71121204,0.703436,0.7106909,0.70443517,nan,nan,nan,nan,nan,nan,nan,nan,0
2058220000,2058220000,0.71227777,0.7016843,0.7126677,0.7020522,nan,nan,nan,nan,nan,nan,nan,nan,0
2058320000,2058320000,0.7078349,0.70408386,0.7112479,0.700529,nan,nan,nan,nan,nan,nan,nan,nan,0
2058420000,2058420000,0.704774,0.70612925,0.7050736,0.70321435,nan,nan,nan,nan,nan,nan,nan,nan,0
2058516000,2058516000,0.70085937,0.7101918,0.7059646,0.7027913,nan,nan,nan,nan,nan,nan,nan,nan,0
2058620000,2058620000,0.70413035,0.70653164,0.7052081,0.7048811,nan,nan,nan,nan,nan,nan,nan,nan,0
2058720000,2058720000,0.7086702,0.70248866,0.7076161,0.70450705,nan,nan,nan,nan,nan,nan,nan,nan,0
2058820000,2058820000,0.70522916,0.70513594,0.7074681,0.70593494,nan,nan,nan,nan,nan,nan,nan,nan,0
2058920000,2058920000,0.70689076,0.70496947,0.7100484,0.702879,nan,nan,nan,nan,nan,nan,nan,nan,0
2059020000,2059020000,0.7042166,0.70940596,0.7068878,0.7043984,nan,nan,nan,nan,nan,nan,nan,nan,0
2059120000,2059120000,0.70801824,0.7068302,0.70532215,0.70952797,nan,nan,nan,nan,nan,nan,nan,nan,0
2059220000,2059220000,0.70633566,0.7053296,0.70688534,0.70654386,nan,nan,nan,nan,nan,nan,nan,nan,0
2059320000,2059320000,0.710576,0.7026307,0.7097481,0.7030013,nan,nan,nan,nan,nan,nan,nan,nan,0
2059420000,2059420000,0.70726866,0.70615405,0.7051056,0.7046011,nan,nan,nan,nan,nan,nan,nan,nan,0
2059520000,2059520000,0.7059794,0.7064834,0.7069484,0.7049377,nan,nan,nan,nan,nan,nan,nan,nan,0
2059620000,2059620000,0.7090093,0.70416826,0.71237814,0.70215994,nan,nan,nan,nan,nan,nan,nan,nan,0
2059720000,2059720000,0.7066299,0.70794415,0.7080069,0.70482975,nan,nan,nan,nan,nan,nan,nan,nan,0
2059820000,2059820000,0.70453894,0.7066609,0.70899314,0.7051289,nan,nan,nan,nan,nan,nan,nan,nan,0
2059920000,2059920000,0.7073294,0.70333904,0.7073079,0.70808303,nan,nan,nan,nan,nan,nan,nan,nan,0
2060020000,2060020000,0.707237,0.7050484,0.70656115,0.70632756,nan,nan,nan,nan,nan,nan,nan,nan,0
2060120000,2060120000,0.71203977,0.70478386,0.7128767,0.7000264,nan,nan,nan,nan,nan,nan,nan,nan,0
2060216000,2060216000,0.71181345,0.70412606,0.7098514,0.70397776,nan,nan,nan,nan,nan,nan,nan,nan,0
2060316000,2060316000,0.7146782,0.6993781,0.7123505,0.7021178,nan,nan,nan,nan,nan,nan,nan,nan,0
2060420000,2060420000,0.67838985,0.68286014,0.67496234,0.68684113,nan,nan,nan,nan,nan,nan,nan,nan,0
2060520000,2060520000,0.653553,0.65185064,0.6554371,0.6511454,nan,nan,nan,nan,nan,nan,nan,nan,0
2060616000,2060616000,0.6495202,0.63743097,0.6496991,0.6379645,nan,nan,nan,nan,nan,nan,nan,nan,0
2060720000,2060720000,0.6221952,0.6115312,0.6188695,0.61394733,nan,nan,nan,nan,nan,nan,nan,nan,0
2060820000,2060820000,0.6409764,0.64065,0.63494664,0.6458678,nan,nan,nan,nan,nan,nan,nan,nan,0
2060920000,2060920000,0.6864759,0.6819545,0.6810129,0.68778485,nan,nan,nan,nan,nan,nan,nan,nan,0
2061020000,2061020000,0.7196601,0.71347916,0.721705,0.71004486,nan,nan,nan,nan,nan,nan,nan,nan,0
2061116000,2061116000,0.7367813,0.73750114,0.73970413,0.73318416,nan,nan,nan,nan,nan,nan,nan,nan,0
2061220000,2061220000,0.7377305,0.7444575,0.7377104,0.7419608,nan,nan,nan,nan,nan,nan,nan,nan,0
2061320000,2061320000,0.7268336,0.7215522,0.7257413,0.723413,nan,nan,nan,nan,nan,nan,nan,nan,0
2061420000,2061420000,0.71152365,0.71641046,0.7167178,0.71408653,nan,nan,nan,nan,nan,nan,nan,nan,0
2061520000,2061520000,0.7160783,0.7082893,0.7136193,0.7143681,nan,nan,nan,nan,nan,nan,nan,nan,0
2061620000,2061620000,0.7140595,0.7139829,0.71431386,0.71498674,nan,nan,nan,nan,nan,nan,nan,nan,0
2061720000,2061720000,0.71655744,0.7127256,0.7186028,0.70890355,nan,nan,nan,nan,nan,nan,nan,nan,0
2061820000,2061820000,0.7107625,0.7174776,0.7120997,0.71450216,nan,nan,nan,nan,nan,nan,nan,nan,0
2061920000,2061920000,0.7152287,0.71356124,0.7172938,0.71138465,nan,nan,nan,nan,nan,nan,nan,nan,0
2062016000,2062016000,0.7219864,0.7114438,0.7172874,0.7175933,nan,nan,nan,nan,nan,nan,nan,nan,0
2062120000,2062120000,0.714948,0.7115117,0.71588784,0.7142697,nan,nan,nan,nan,nan,nan,nan,nan,0
2062220000,2062220000,0.71512395,0.7115032,0.7133267,0.71547794,nan,nan,nan,nan,nan,nan,nan,nan,0
2062320000,2062320000,0.7170308,0.7141962,0.7160761,0.7115185,nan,nan,nan,nan,nan,nan,nan,nan,0
2062420000,2062420000,0.71849173,0.71432084,0.7159711,0.71101284,nan,nan,nan,nan,nan,nan,nan,nan,0
2062516000,2062516000,0.7181976,0.71206987,0.71521455,0.7121156,nan,nan,nan,nan,nan,nan,nan,nan,0
2062620000,2062620000,0.7144173,0.7168752,0.71366173,0.71861625,nan,nan,nan,nan,nan,nan,nan,nan,0
2062720000,2062720000,0.7136834,0.7153118,0.7133139,0.71793824,nan,nan,nan,nan,nan,nan,nan,nan,0
2062820000,2062820000,0.7172263,0.712954,0.71490234,0.71970373,nan,nan,nan,nan,nan,nan,nan,nan,0
2062920000,2062920000,0.7172792,0.7154725,0.721889,0.71173996,nan,nan,nan,nan,nan,nan,nan,nan,0
2063020000,2063020000,0.7202202,0.7137402,0.71877736,0.7160168,nan,nan,nan,nan,nan,nan,nan,nan,0
2063120000,2063120000,0.7205327,0.71389604,0.72280705,0.7108045,nan,nan,nan,nan,nan,nan,nan,nan,0
2063220000,2063220000,0.7196396,0.71277934,0.716743,0.71351516,nan,nan,nan,nan,nan,nan,nan,nan,0
2063320000,2063320000,0.7171136,0.71528745,0.71199054,0.718033,nan,nan,nan,nan,nan,nan,nan,nan,0
2063420000,2063420000,0.7162176,0.71518344,0.7149292,0.7160002,nan,nan,nan,nan,nan,nan,nan,nan,0
2063520000,2063520000,0.7167648,0.7151235,0.72057915,0.712895,nan,nan,nan,nan,nan,nan,nan,nan,0
2063620000,2063620000,0.71038115,0.71895045,0.7177901,0.71372336,nan,nan,nan,nan,nan,nan,nan,nan,0
2063716000,2063716000,0.7180853,0.71186376,0.7173291,0.7139885,nan,nan,nan,nan,nan,nan,nan,nan,0
2063820000,2063820000,0.721469,0.71361965,0.7210874,0.7127488,nan,nan,nan,nan,nan,nan,nan,nan,0
2063920000,2063920000,0.7192332,0.7167276,0.71789944,0.71618515,nan,nan,nan,nan,nan,nan,nan,nan,0
2064020000,2064020000,0.71898896,0.7180482,0.71639836,0.7165832,nan,nan,nan,nan,nan,nan,nan,nan,0
2064120000,2064120000,0.7194365,0.71267015,0.7215771,0.70963347,nan,nan,nan,nan,nan,nan,nan,nan,0
2064220000,2064220000,0.71687245,0.7144451,0.7188983,0.71567535,nan,nan,nan,nan,nan,nan,nan,nan,0
2064320000,2064320000,0.7170045,0.71368736,0.7196531,0.7128924,nan,nan,nan,nan,nan,nan,nan,nan,0
2064420000,2064420000,0.7193106,0.7110631,0.7207363,0.71158594,nan,nan,nan,nan,nan,nan,nan,nan,0
2064516000,2064516000,0.7171794,0.7143588,0.72271943,0.7100059,nan,nan,nan,nan,nan,nan,nan,nan,0
2064620000,2064620000,0.7158621,0.7180778,0.71504486,0.71882766,nan,nan,nan,nan,nan,nan,nan,nan,0
2064720000,2064720000,0.7220291,0.7122319,0.72026414,0.7131087,nan,nan,nan,nan,nan,nan,nan,nan,0
2064820000,2064820000,0.8649329,0.8613925,0.8606196,0.86482674,nan,nan,nan,nan,nan,nan,nan,nan,0
2064920000,2064920000,0.7805354,0.76703775,0.773773,0.77091706,nan,nan,nan,nan,nan,nan,nan,nan,0
2065020000,2065020000,0.7244093,0.7270933,0.7262699,0.7277501,nan,nan,nan,nan,nan,nan,nan,nan,0
2065120000,2065120000,0.71707183,0.7099502,0.7153921,0.71628493,nan,nan,nan,nan,nan,nan,nan,nan,0
2065220000,2065220000,0.7111046,0.70944655,0.7148789,0.70726544,nan,nan,nan,nan,nan,nan,nan,nan,0
2065320000,2065320000,0.701657,0.69618124,0.70077914,0.69657654,nan,nan,nan,nan,nan,nan,nan,nan,0
2065420000,2065420000,0.69729316,0.6960171,0.69731444,0.69589245,nan,nan,nan,nan,nan,nan,nan,nan,0
2065520000,2065520000,0.7013206,0.6969573,0.7003486,0.69459283,nan,nan,nan,nan,nan,nan,nan,nan,0
2065620000,2065620000,0.7007848,0.70013654,0.7034025,0.6949992,nan,nan,nan,nan,nan,nan,nan,nan,0
2065720000,2065720000,0.6863566,0.69186586,0.6887815,0.6894374,nan,nan,nan,nan,nan,nan,nan,nan,0
2065820000,2065820000,0.68472576,0.69195503,0.69008857,0.6874945,nan,nan,nan,nan,nan,nan,nan,nan,0
2065920000,2065920000,0.6896275,0.6950444,0.69096726,0.6947556,nan,nan,nan,nan,nan,nan,nan,nan,0
2066020000,2066020000,0.70017797,0.69469416,0.6916583,0.7029221,nan,nan,nan,nan,nan,nan,nan,nan,0
2066120000,2066120000,0.6866981,0.68169385,0.6864921,0.6820776,nan,nan,nan,nan,nan,nan,nan,nan,0
2066220000,2066220000,0.685924,0.6822857,0.6873881,0.6806063,nan,nan,nan,nan,nan,nan,nan,nan,0
2066320000,2066320000,0.68986297,0.6915273,0.68597895,0.69366527,nan,nan,nan,nan,nan,nan,nan,nan,0
2066420000,2066420000,0.6999894,0.6942131,0.7004956,0.69054663,nan,nan,nan,nan,nan,nan,nan,nan,0
2066520000,2066520000,0.683341,0.67998195,0.68539566,0.6795035,nan,nan,nan,nan,nan,nan,nan,nan,0
2066620000,2066620000,0.68608475,0.6780043,0.6884326,0.67779833,nan,nan,nan,nan,nan,nan,nan,nan,0
2066720000,2066720000,0.68873596,0.69185233,0.69031453,0.69098735,nan,nan,nan,nan,nan,nan,nan,nan,0
2066820000,2066820000,0.6992808,0.6918417,0.69585687,0.695385,nan,nan,nan,nan,nan,nan,nan,nan,0
2066920000,2066920000,0.6891935,0.6753162,0.6841974,0.67987263,nan,nan,nan,nan,nan,nan,nan,nan,0
2067020000,2067020000,0.68826133,0.6824656,0.6837333,0.686174,nan,nan,nan,nan,nan,nan,nan,nan,0
2067120000,2067120000,0.69856566,0.69100505,0.69784874,0.6904095,nan,nan,nan,nan,nan,nan,nan,nan,0
2067220000,2067220000,0.69701576,0.7005237,0.7012143,0.6990287,nan,nan,nan,nan,nan,nan,nan,nan,0
2067320000,2067320000,0.69128686,0.67998797,0.6902878,0.6831318,nan,nan,nan,nan,nan,nan,nan,nan,0
2067416000,2067416000,0.69554955,0.6889823,0.69820684,0.68843216,nan,nan,nan,nan,nan,nan,nan,nan,0
2067520000,2067520000,0.699357,0.6990917,0.69829845,0.7006286,nan,nan,nan,nan,nan,nan,nan,nan,0
2067620000,2067620000,0.70635784,0.70339257,0.7099762,0.69866306,nan,nan,nan,nan,nan,nan,nan,nan,0
2067720000,2067720000,0.6912434,0.6891111,0.6902257,0.68774724,nan,nan,nan,nan,nan,nan,nan,nan,0
2067820000,2067820000,0.7007748,0.6841588,0.695557,0.6876824,nan,nan,nan,nan,nan,nan,nan,nan,0
2067916000,2067916000,0.68048275,0.6858886,0.68062025,0.6839068,nan,nan,nan,nan,nan,nan,nan,nan,0
2068020000,2068020000,0.69064647,0.692926,0.6934285,0.68819225,nan,nan,nan,nan,nan,nan,nan,nan,0
2068120000,2068120000,0.7055414,0.7015947,0.70720536,0.7026563,nan,nan,nan,nan,nan,nan,nan,nan,0
2068220000,2068220000,0.71611106,0.71322376,0.7166279,0.7152021,nan,nan,nan,nan,nan,nan,nan,nan,0
2068320000,2068320000,0.70353395,0.70249635,0.70465314,0.6995828,nan,nan,nan,nan,nan,nan,nan,nan,0
2068420000,2068420000,0.7098273,0.70168674,0.7047887,0.70587873,nan,nan,nan,nan,nan,nan,nan,nan,0
2068520000,2068520000,0.71757656,0.71035284,0.7164795,0.71187335,nan,nan,nan,nan,nan,nan,nan,nan,0
2068620000,2068620000,0.72009474,0.7208108,0.7199027,0.72126615,nan,nan,nan,nan,nan,nan,nan,nan,0
2068720000,2068720000,0.5073786,0.4974933,0.49792397,0.504249,nan,nan,nan,nan,nan,nan,nan,nan,0
2068820000,2068820000,0.4652709,0.46027893,0.45913035,0.46424827,nan,nan,nan,nan,nan,nan,nan,nan,0
2068920000,2068920000,0.43407223,0.43197697,0.42531332,0.43921426,nan,nan,nan,nan,nan,nan,nan,nan,0
2069020000,2069020000,0.40850285,0.40157035,0.39694357,0.40861624,nan,nan,nan,nan,nan,nan,nan,nan,0
2069120000,2069120000,0.35699502,0.36068964,0.34618348,0.36813667,nan,nan,nan,nan,nan,nan,nan,nan,0
2069220000,2069220000,0.118623495,0.1218758,0.11470363,0.12479704,nan,nan,nan,nan,nan,nan,nan,nan,0
2069320000,2069320000,0.119142994,0.12127019,0.11726425,0.12232253,nan,nan,nan,nan,nan,nan,nan,nan,0
2069416000,2069416000,0.115551636,0.12509207,0.10958938,0.12976687,nan,nan,nan,nan,nan,nan,nan,nan,0
2069520000,2069520000,0.12200782,0.120322175,0.109866336,0.12780362,nan,nan,nan,nan,nan,nan,nan,nan,0
2069620000,2069620000,0.11636926,0.12365497,0.11364972,0.12632601,nan,nan,nan,nan,nan,nan,nan,nan,0
2069720000,2069720000,0.11381782,0.1261482,0.11381326,0.12622069,nan,nan,nan,nan,nan,nan,nan,nan,0
2069820000,2069820000,0.11734352,0.123319015,0.11717874,0.122158684,nan,nan,nan,nan,nan,nan,nan,nan,0
2069920000,2069920000,0.0,0.0020000003,0.0,0.0020000003,nan,nan,nan,nan,nan,nan,nan,nan,0
2070020000,2070020000,0.0,0.0019999996,0.0,0.0019999996,nan,nan,nan,nan,nan,nan,nan,nan,0
2070120000,2070120000,0.0,0.0019999994,0.0,0.0019999999,nan,nan,nan,nan,nan,nan,nan,nan,0
2070220000,2070220000,0.0,0.0020000003,0.0,0.0020000003,nan,nan,nan,nan,nan,nan,nan,nan,0
2070320000,2070320000,0.0,0.0020000006,0.0,0.0020000006,nan,nan,nan,nan,nan,nan,nan,nan,0
2070420000,2070420000,1.3969839e-09,0.0020000003,0.0,0.0019999994,nan,nan,nan,nan,nan,nan,nan,nan,0
2070520000,2070520000,0.0,0.0020000003,0.0,0.0020000003,nan,nan,nan,nan,nan,nan,nan,nan,0
2070620000,2070620000,0.0,0.0019999994,0.0,0.0019999994,nan,nan,nan,nan,nan,nan,nan,nan,0
