timestamp,timestamp_sample,yaw_composite,yaw_variance,yaw[0],yaw[1],yaw[2],yaw[3],yaw[4],innov_vn[0],innov_vn[1],innov_vn[2],innov_vn[3],innov_vn[4],innov_ve[0],innov_ve[1],innov_ve[2],innov_ve[3],innov_ve[4],weight[0],weight[1],weight[2],weight[3],weight[4],yaw_composite_valid
2015916000,2015764000,1.6082692,0.49606195,1.8180289,-0.16849528,1.7424183,1.7655748,1.7784721,-0.00344022,0.014687693,-0.0033713365,-0.0034000902,-0.0034131634,-0.010620732,0.00032202154,-0.009667959,-0.009959164,-0.01012162,0.0007746794,0.13970776,0.0010469152,0.6594457,0.19902493,0
2015924000,2015772000,1.6082692,0.49606195,1.817998,-0.16852589,1.7423877,1.7655443,1.7784414,-0.00344022,0.014687693,-0.0033713365,-0.0034000902,-0.0034131634,-0.010620732,0.00032202154,-0.009667959,-0.009959164,-0.01012162,0.0007746794,0.13970776,0.0010469152,0.6594457,0.19902493,0
2015932000,2015780000,1.6082692,0.49606195,1.8179265,-0.16859758,1.742316,1.7654724,1.7783698,-0.00344022,0.014687693,-0.0033713365,-0.0034000902,-0.0034131634,-0.010620732,0.00032202154,-0.009667959,-0.009959164,-0.01012162,0.0007746794,0.13970776,0.0010469152,0.6594457,0.19902493,0
2015940000,2015788000,1.6082692,0.49606195,1.8179249,-0.16859902,1.7423143,1.765471,1.7783681,-0.00344022,0.014687693,-0.0033713365,-0.0034000902,-0.0034131634,-0.010620732,0.00032202154,-0.009667959,-0.009959164,-0.01012162,0.0007746794,0.13970776,0.0010469152,0.6594457,0.19902493,0
2015948000,2015796000,1.6082692,0.49606195,1.8179616,-0.16856255,1.7423509,1.7655073,1.7784047,-0.00344022,0.014687693,-0.0033713365,-0.0034000902,-0.0034131634,-0.010620732,0.00032202154,-0.009667959,-0.009959164,-0.01012162,0.0007746794,0.13970776,0.0010469152,0.6594457,0.19902493,0
2015956000,2015804000,1.6082692,0.49606195,1.8179932,-0.16853067,1.7423828,1.7655392,1.7784365,-0.00344022,0.014687693,-0.0033713365,-0.0034000902,-0.0034131634,-0.010620732,0.00032202154,-0.009667959,-0.009959164,-0.01012162,0.0007746794,0.13970776,0.0010469152,0.6594457,0.19902493,0
2015964000,2015812000,1.6082692,0.49606195,1.8179519,-0.16857213,1.7423413,1.765498,1.7783954,-0.00344022,0.014687693,-0.0033713365,-0.0034000902,-0.0034131634,-0.010620732,0.00032202154,-0.009667959,-0.009959164,-0.01012162,0.0007746794,0.13970776,0.0010469152,0.6594457,0.19902493,0
2015972000,2015820000,1.6082692,0.49606195,1.8179668,-0.168557,1.7423565,1.765513,1.7784103,-0.00344022,0.014687693,-0.0033713365,-0.0034000902,-0.0034131634,-0.010620732,0.00032202154,-0.009667959,-0.009959164,-0.01012162,0.0007746794,0.13970776,0.0010469152,0.6594457,0.19902493,0
2015980000,2015828000,1.6082692,0.49606195,1.8179597,-0.16856414,1.7423495,1.7655057,1.7784033,-0.00344022,0.014687693,-0.0033713365,-0.0034000902,-0.0034131634,-0.010620732,0.00032202154,-0.009667959,-0.009959164,-0.01012162,0.0007746794,0.13970776,0.0010469152,0.6594457,0.19902493,0
2015988000,2015836000,1.6082692,0.49606195,1.8179649,-0.16855922,1.7423544,1.7655107,1.7784083,-0.00344022,0.014687693,-0.0033713365,-0.0034000902,-0.0034131634,-0.010620732,0.00032202154,-0.009667959,-0.009959164,-0.01012162,0.0007746794,0.13970776,0.0010469152,0.6594457,0.19902493,0
2015996000,2015844000,1.6082692,0.49606195,1.8179725,-0.16855158,1.7423621,1.7655184,1.7784159,-0.00344022,0.014687693,-0.0033713365,-0.0034000902,-0.0034131634,-0.010620732,0.00032202154,-0.009667959,-0.009959164,-0.01012162,0.0007746794,0.13970776,0.0010469152,0.6594457,0.19902493,0
2016004000,2015852000,1.6082692,0.49606195,1.8179808,-0.1685433,1.7423704,1.7655268,1.7784243,-0.00344022,0.014687693,-0.0033713365,-0.0034000902,-0.0034131634,-0.010620732,0.00032202154,-0.009667959,-0.009959164,-0.01012162,0.0007746794,0.13970776,0.0010469152,0.6594457,0.19902493,0
2016012000,2015860000,1.6095234,0.49558675,1.8182627,-0.16857693,1.7426466,1.7658044,1.7787032,-0.008290008,0.008357883,-0.007979347,-0.008080107,-0.008134075,0.042408437,0.045743648,0.043108564,0.042896666,0.042777654,0.00077510066,0.13947344,0.0010470521,0.65961456,0.19908987,0
2016020000,2015868000,1.6095234,0.49558675,1.8182726,-0.16856688,1.7426566,1.7658144,1.7787132,-0.008290008,0.008357883,-0.007979347,-0.008080107,-0.008134075,0.042408437,0.045743648,0.043108564,0.042896666,0.042777654,0.00077510066,0.13947344,0.0010470521,0.65961456,0.19908987,0
2016028000,2015876000,1.6095234,0.49558675,1.8182622,-0.16857716,1.7426463,1.765804,1.778703,-0.008290008,0.008357883,-0.007979347,-0.008080107,-0.008134075,0.042408437,0.045743648,0.043108564,0.042896666,0.042777654,0.00077510066,0.13947344,0.0010470521,0.65961456,0.19908987,0
2016036000,2015884000,1.6095234,0.49558675,1.818366,-0.16847354,1.7427499,1.7659079,1.7788067,-0.008290008,0.008357883,-0.007979347,-0.008080107,-0.008134075,0.042408437,0.045743648,0.043108564,0.042896666,0.042777654,0.00077510066,0.13947344,0.0010470521,0.65961456,0.19908987,0
2016044000,2015892000,1.6095234,0.49558675,1.8182852,-0.16855432,1.7426692,1.765827,1.7787257,-0.008290008,0.008357883,-0.007979347,-0.008080107,-0.008134075,0.042408437,0.045743648,0.043108564,0.042896666,0.042777654,0.00077510066,0.13947344,0.0010470521,0.65961456,0.19908987,0
2016052000,2015900000,1.6095234,0.49558675,1.8182374,-0.168602,1.7426214,1.7657796,1.7786782,-0.008290008,0.008357883,-0.007979347,-0.008080107,-0.008134075,0.042408437,0.045743648,0.043108564,0.042896666,0.042777654,0.00077510066,0.13947344,0.0010470521,0.65961456,0.19908987,0
2016060000,2015908000,1.6095234,0.49558675,1.8182194,-0.1686199,1.7426035,1.7657614,1.7786602,-0.008290008,0.008357883,-0.007979347,-0.008080107,-0.008134075,0.042408437,0.045743648,0.043108564,0.042896666,0.042777654,0.00077510066,0.13947344,0.0010470521,0.65961456,0.19908987,0
2016068000,2015916000,1.6095234,0.49558675,1.8181314,-0.16870809,1.7425153,1.7656735,1.778572,-0.008290008,0.008357883,-0.007979347,-0.008080107,-0.008134075,0.042408437,0.045743648,0.043108564,0.042896666,0.042777654,0.00077510066,0.13947344,0.0010470521,0.65961456,0.19908987,0
2016076000,2015924000,1.6095234,0.49558675,1.8180526,-0.16878656,1.7424369,1.7655948,1.7784935,-0.008290008,0.008357883,-0.007979347,-0.008080107,-0.008134075,0.042408437,0.045743648,0.043108564,0.042896666,0.042777654,0.00077510066,0.13947344,0.0010470521,0.65961456,0.19908987,0
2016084000,2015932000,1.6095234,0.49558675,1.8179595,-0.16888005,1.7423434,1.7655013,1.7784001,-0.008290008,0.008357883,-0.007979347,-0.008080107,-0.008134075,0.042408437,0.045743648,0.043108564,0.042896666,0.042777654,0.00077510066,0.13947344,0.0010470521,0.65961456,0.19908987,0
2016092000,2015940000,1.6095234,0.49558675,1.8179011,-0.16893846,1.742285,1.7654428,1.7783415,-0.008290008,0.008357883,-0.007979347,-0.008080107,-0.008134075,0.042408437,0.045743648,0.043108564,0.042896666,0.042777654,0.00077510066,0.13947344,0.0010470521,0.65961456,0.19908987,0
2016100000,2015948000,1.6095234,0.49558675,1.8179779,-0.16886146,1.7423619,1.7655197,1.7784185,-0.008290008,0.008357883,-0.007979347,-0.008080107,-0.008134075,0.042408437,0.045743648,0.043108564,0.042896666,0.042777654,0.00077510066,0.13947344,0.0010470521,0.65961456,0.19908987,0
2016108000,2015956000,1.6095234,0.49558675,1.8179995,-0.1688399,1.7423832,1.7655413,1.7784399,-0.008290008,0.008357883,-0.007979347,-0.008080107,-0.008134075,0.042408437,0.045743648,0.043108564,0.042896666,0.042777654,0.00077510066,0.13947344,0.0010470521,0.65961456,0.19908987,0
2016116000,2015964000,1.6095234,0.49558675,1.8179709,-0.16886851,1.7423549,1.7655128,1.7784113,-0.008290008,0.008357883,-0.007979347,-0.008080107,-0.008134075,0.042408437,0.045743648,0.043108564,0.042896666,0.042777654,0.00077510066,0.13947344,0.0010470521,0.65961456,0.19908987,0
2016124000,2015972000,1.6095234,0.49558675,1.8179914,-0.16884811,1.7423753,1.7655333,1.7784319,-0.008290008,0.008357883,-0.007979347,-0.008080107,-0.008134075,0.042408437,0.045743648,0.043108564,0.042896666,0.042777654,0.00077510066,0.13947344,0.0010470521,0.65961456,0.19908987,0
2016132000,2015980000,1.6095234,0.49558675,1.8180327,-0.16880643,1.7424169,1.7655747,1.7784737,-0.008290008,0.008357883,-0.007979347,-0.008080107,-0.008134075,0.042408437,0.045743648,0.043108564,0.042896666,0.042777654,0.00077510066,0.13947344,0.0010470521,0.65961456,0.19908987,0
2016140000,2015988000,1.6095234,0.49558675,1.8181088,-0.16873053,1.7424928,1.7656506,1.7785496,-0.008290008,0.008357883,-0.007979347,-0.008080107,-0.008134075,0.042408437,0.045743648,0.043108564,0.042896666,0.042777654,0.00077510066,0.13947344,0.0010470521,0.65961456,0.19908987,0
2016148000,2015996000,1.6095234,0.49558675,1.8180984,-0.1687408,1.7424825,1.7656404,1.7785391,-0.008290008,0.008357883,-0.007979347,-0.008080107,-0.008134075,0.042408437,0.045743648,0.043108564,0.042896666,0.042777654,0.00077510066,0.13947344,0.0010470521,0.65961456,0.19908987,0
2016156000,2016004000,1.6095234,0.49558675,1.8181676,-0.16867156,1.7425518,1.7657096,1.7786086,-0.008290008,0.008357883,-0.007979347,-0.008080107,-0.008134075,0.042408437,0.045743648,0.043108564,0.042896666,0.042777654,0.00077510066,0.13947344,0.0010470521,0.65961456,0.19908987,0
2016164000,2016012000,1.6095234,0.49558675,1.8182478,-0.16859141,1.742632,1.7657896,1.7786887,-0.008290008,0.008357883,-0.007979347,-0.008080107,-0.008134075,0.042408437,0.045743648,0.043108564,0.042896666,0.042777654,0.00077510066,0.13947344,0.0010470521,0.65961456,0.19908987,0
2016172000,2016020000,1.6095234,0.49558675,1.8183044,-0.16853476,1.7426887,1.7658464,1.7787453,-0.008290008,0.008357883,-0.007979347,-0.008080107,-0.008134075,0.042408437,0.045743648,0.043108564,0.042896666,0.042777654,0.00077510066,0.13947344,0.0010470521,0.65961456,0.19908987,0
2016180000,2016028000,1.6095234,0.49558675,1.8183473,-0.16849193,1.7427315,1.7658892,1.7787881,-0.008290008,0.008357883,-0.007979347,-0.008080107,-0.008134075,0.042408437,0.045743648,0.043108564,0.042896666,0.042777654,0.00077510066,0.13947344,0.0010470521,0.65961456,0.19908987,0
2016188000,2016036000,1.6095234,0.49558675,1.8184434,-0.16839586,1.7428274,1.7659854,1.7788843,-0.008290008,0.008357883,-0.007979347,-0.008080107,-0.008134075,0.042408437,0.045743648,0.043108564,0.042896666,0.042777654,0.00077510066,0.13947344,0.0010470521,0.65961456,0.19908987,0
2016196000,2016044000,1.6095234,0.49558675,1.8185012,-0.16833803,1.7428855,1.7660428,1.7789421,-0.008290008,0.008357883,-0.007979347,-0.008080107,-0.008134075,0.042408437,0.045743648,0.043108564,0.042896666,0.042777654,0.00077510066,0.13947344,0.0010470521,0.65961456,0.19908987,0
2016204000,2016052000,1.6095234,0.49558675,1.8185557,-0.16828352,1.74294,1.7660977,1.7789963,-0.008290008,0.008357883,-0.007979347,-0.008080107,-0.008134075,0.042408437,0.045743648,0.043108564,0.042896666,0.042777654,0.00077510066,0.13947344,0.0010470521,0.65961456,0.19908987,0
2016212000,2016060000,1.6095234,0.49558675,1.8186095,-0.1682301,1.7429932,1.7661508,1.77905,-0.008290008,0.008357883,-0.007979347,-0.008080107,-0.008134075,0.042408437,0.045743648,0.043108564,0.042896666,0.042777654,0.00077510066,0.13947344,0.0010470521,0.65961456,0.19908987,0
2016220000,2016068000,1.6095234,0.49558675,1.8187052,-0.16813399,1.7430896,1.7662473,1.7791461,-0.008290008,0.008357883,-0.007979347,-0.008080107,-0.008134075,0.042408437,0.045743648,0.043108564,0.042896666,0.042777654,0.00077510066,0.13947344,0.0010470521,0.65961456,0.19908987,0
2016228000,2016076000,1.6095234,0.49558675,1.8186108,-0.16822873,1.7429949,1.7661523,1.7790511,-0.008290008,0.008357883,-0.007979347,-0.008080107,-0.008134075,0.042408437,0.045743648,0.043108564,0.042896666,0.042777654,0.00077510066,0.13947344,0.0010470521,0.65961456,0.19908987,0
2016236000,2016084000,1.6095234,0.49558675,1.8187108,-0.16812834,1.7430953,1.7662526,1.7791517,-0.008290008,0.008357883,-0.007979347,-0.008080107,-0.008134075,0.042408437,0.045743648,0.043108564,0.042896666,0.042777654,0.00077510066,0.13947344,0.0010470521,0.65961456,0.19908987,0
2016244000,2016092000,1.6095234,0.49558675,1.818722,-0.16811748,1.7431061,1.7662635,1.7791625,-0.008290008,0.008357883,-0.007979347,-0.008080107,-0.008134075,0.042408437,0.045743648,0.043108564,0.042896666,0.042777654,0.00077510066,0.13947344,0.0010470521,0.65961456,0.19908987,0
2016252000,2016100000,1.6095234,0.49558675,1.8187137,-0.16812581,1.7430977,1.7662553,1.7791541,-0.008290008,0.008357883,-0.007979347,-0.008080107,-0.008134075,0.042408437,0.045743648,0.043108564,0.042896666,0.042777654,0.00077510066,0.13947344,0.0010470521,0.65961456,0.19908987,0
2016260000,2016108000,1.6095234,0.49558675,1.818639,-0.16820017,1.7430234,1.7661809,1.7790798,-0.008290008,0.008357883,-0.007979347,-0.008080107,-0.008134075,0.042408437,0.045743648,0.043108564,0.042896666,0.042777654,0.00077510066,0.13947344,0.0010470521,0.65961456,0.19908987,0
2016268000,2016116000,1.6095234,0.49558675,1.8187153,-0.16812427,1.7430992,1.7662568,1.7791559,-0.008290008,0.008357883,-0.007979347,-0.008080107,-0.008134075,0.042408437,0.045743648,0.043108564,0.042896666,0.042777654,0.00077510066,0.13947344,0.0010470521,0.65961456,0.19908987,0
2016276000,2016124000,1.6095234,0.49558675,1.8187422,-0.16809735,1.743126,1.7662838,1.7791826,-0.008290008,0.008357883,-0.007979347,-0.008080107,-0.008134075,0.042408437,0.045743648,0.043108564,0.042896666,0.042777654,0.00077510066,0.13947344,0.0010470521,0.65961456,0.19908987,0
2016284000,2016132000,1.6095234,0.49558675,1.818723,-0.16811635,1.7431071,1.7662647,1.7791636,-0.008290008,0.008357883,-0.007979347,-0.008080107,-0.008134075,0.042408437,0.045743648,0.043108564,0.042896666,0.042777654,0.00077510066,0.13947344,0.0010470521,0.65961456,0.19908987,0
2016292000,2016140000,1.6095234,0.49558675,1.8187574,-0.16808216,1.7431413,1.7662989,1.7791976,-0.008290008,0.008357883,-0.007979347,-0.008080107,-0.008134075,0.042408437,0.045743648,0.043108564,0.042896666,0.042777654,0.00077510066,0.13947344,0.0010470521,0.65961456,0.19908987,0
2016300000,2016148000,1.6095234,0.49558675,1.8187841,-0.16805549,1.7431678,1.7663255,1.7792244,-0.008290008,0.008357883,-0.007979347,-0.008080107,-0.008134075,0.042408437,0.045743648,0.043108564,0.042896666,0.042777654,0.00077510066,0.13947344,0.0010470521,0.65961456,0.19908987,0
2016308000,2016156000,1.6095234,0.49558675,1.8187637,-0.16807556,1.743148,1.7663058,1.7792044,-0.008290008,0.008357883,-0.007979347,-0.008080107,-0.008134075,0.042408437,0.045743648,0.043108564,0.042896666,0.042777654,0.00077510066,0.13947344,0.0010470521,0.65961456,0.19908987,0
2016316000,2016164000,1.6095234,0.49558675,1.818879,-0.16796036,1.7432629,1.7664207,1.7793196,-0.008290008,0.008357883,-0.007979347,-0.008080107,-0.008134075,0.042408437,0.045743648,0.043108564,0.042896666,0.042777654,0.00077510066,0.13947344,0.0010470521,0.65961456,0.19908987,0
2016324000,2016172000,1.6095234,0.49558675,1.8189124,-0.16792725,1.743296,1.7664539,1.7793527,-0.008290008,0.008357883,-0.007979347,-0.008080107,-0.008134075,0.042408437,0.045743648,0.043108564,0.042896666,0.042777654,0.00077510066,0.13947344,0.0010470521,0.65961456,0.19908987,0
2016332000,2016180000,1.6095234,0.49558675,1.8189412,-0.16789831,1.743325,1.7664828,1.7793818,-0.008290008,0.008357883,-0.007979347,-0.008080107,-0.008134075,0.042408437,0.045743648,0.043108564,0.042896666,0.042777654,0.00077510066,0.13947344,0.0010470521,0.65961456,0.19908987,0
2016340000,2016188000,1.6095234,0.49558675,1.8188958,-0.16794398,1.7432793,1.7664373,1.7793361,-0.008290008,0.008357883,-0.007979347,-0.008080107,-0.008134075,0.042408437,0.045743648,0.043108564,0.042896666,0.042777654,0.00077510066,0.13947344,0.0010470521,0.65961456,0.19908987,0
2016348000,2016196000,1.6095234,0.49558675,1.8188767,-0.16796304,1.7432606,1.7664182,1.779317,-0.008290008,0.008357883,-0.007979347,-0.008080107,-0.008134075,0.042408437,0.045743648,0.043108564,0.042896666,0.042777654,0.00077510066,0.13947344,0.0010470521,0.65961456,0.19908987,0
2016356000,2016204000,1.6095234,0.49558675,1.818898,-0.16794161,1.7432818,1.7664396,1.7793386,-0.008290008,0.008357883,-0.007979347,-0.008080107,-0.008134075,0.042408437,0.045743648,0.043108564,0.042896666,0.042777654,0.00077510066,0.13947344,0.0010470521,0.65961456,0.19908987,0
2016364000,2016212000,1.6095234,0.49558675,1.8189174,-0.16792217,1.7433014,1.766459,1.779358,-0.008290008,0.008357883,-0.007979347,-0.008080107,-0.008134075,0.042408437,0.045743648,0.043108564,0.042896666,0.042777654,0.00077510066,0.13947344,0.0010470521,0.65961456,0.19908987,0
2016372000,2016220000,1.6095234,0.49558675,1.8190241,-0.16781561,1.7434078,1.7665657,1.7794645,-0.008290008,0.008357883,-0.007979347,-0.008080107,-0.008134075,0.042408437,0.045743648,0.043108564,0.042896666,0.042777654,0.00077510066,0.13947344,0.0010470521,0.65961456,0.19908987,0
2016380000,2016228000,1.6095234,0.49558675,1.8190573,-0.16778255,1.7434411,1.7665988,1.7794975,-0.008290008,0.008357883,-0.007979347,-0.008080107,-0.008134075,0.042408437,0.045743648,0.043108564,0.042896666,0.042777654,0.00077510066,0.13947344,0.0010470521,0.65961456,0.19908987,0
2016388000,2016236000,1.6095234,0.49558675,1.8190426,-0.16779727,1.7434263,1.766584,1.779483,-0.008290008,0.008357883,-0.007979347,-0.008080107,-0.008134075,0.042408437,0.045743648,0.043108564,0.042896666,0.042777654,0.00077510066,0.13947344,0.0010470521,0.65961456,0.19908987,0
2016396000,2016244000,1.6095234,0.49558675,1.819065,-0.16777483,1.7434489,1.7666065,1.7795054,-0.008290008,0.008357883,-0.007979347,-0.008080107,-0.008134075,0.042408437,0.045743648,0.043108564,0.042896666,0.042777654,0.00077510066,0.13947344,0.0010470521,0.65961456,0.19908987,0
2016404000,2016252000,1.6095234,0.49558675,1.8190929,-0.16774707,1.7434767,1.7666345,1.7795333,-0.008290008,0.008357883,-0.007979347,-0.008080107,-0.008134075,0.042408437,0.045743648,0.043108564,0.042896666,0.042777654,0.00077510066,0.13947344,0.0010470521,0.65961456,0.19908987,0
2016412000,2016260000,1.6105796,0.49525842,1.8191507,-0.16765359,1.7435366,1.7666938,1.7795924,-0.00044414814,0.0024198194,-0.0002733158,-0.0003259331,-0.0003551193,-0.023045594,-0.025658747,-0.023008127,-0.023018226,-0.023024388,0.00077520235,0.13935216,0.0010472041,0.6597079,0.19911754,0
2016420000,2016268000,1.6105796,0.49525842,1.8191807,-0.16762367,1.7435665,1.7667239,1.779622,-0.00044414814,0.0024198194,-0.0002733158,-0.0003259331,-0.0003551193,-0.023045594,-0.025658747,-0.023008127,-0.023018226,-0.023024388,0.00077520235,0.13935216,0.0010472041,0.6597079,0.19911754,0
2016428000,2016276000,1.6105796,0.49525842,1.8191041,-0.16770034,1.7434901,1.7666472,1.7795454,-0.00044414814,0.0024198194,-0.0002733158,-0.0003259331,-0.0003551193,-0.023045594,-0.025658747,-0.023008127,-0.023018226,-0.023024388,0.00077520235,0.13935216,0.0010472041,0.6597079,0.19911754,0
2016436000,2016284000,1.6105796,0.49525842,1.8189635,-0.16784087,1.7433496,1.7665067,1.7794051,-0.00044414814,0.0024198194,-0.0002733158,-0.0003259331,-0.0003551193,-0.023045594,-0.025658747,-0.023008127,-0.023018226,-0.023024388,0.00077520235,0.13935216,0.0010472041,0.6597079,0.19911754,0
2016444000,2016292000,1.6105796,0.49525842,1.8189456,-0.16785909,1.7433313,1.7664884,1.7793868,-0.00044414814,0.0024198194,-0.0002733158,-0.0003259331,-0.0003551193,-0.023045594,-0.025658747,-0.023008127,-0.023018226,-0.023024388,0.00077520235,0.13935216,0.0010472041,0.6597079,0.19911754,0
2016452000,2016300000,1.6105796,0.49525842,1.8190242,-0.16778015,1.7434102,1.7665673,1.779466,-0.00044414814,0.0024198194,-0.0002733158,-0.0003259331,-0.0003551193,-0.023045594,-0.025658747,-0.023008127,-0.023018226,-0.023024388,0.00077520235,0.13935216,0.0010472041,0.6597079,0.19911754,0
2016460000,2016308000,1.6105796,0.49525842,1.8190447,-0.16775967,1.7434307,1.7665879,1.7794863,-0.00044414814,0.0024198194,-0.0002733158,-0.0003259331,-0.0003551193,-0.023045594,-0.025658747,-0.023008127,-0.023018226,-0.023024388,0.00077520235,0.13935216,0.0010472041,0.6597079,0.19911754,0
2016468000,2016316000,1.6105796,0.49525842,1.81901,-0.16779453,1.743396,1.766553,1.7794515,-0.00044414814,0.0024198194,-0.0002733158,-0.0003259331,-0.0003551193,-0.023045594,-0.025658747,-0.023008127,-0.023018226,-0.023024388,0.00077520235,0.13935216,0.0010472041,0.6597079,0.19911754,0
2016476000,2016324000,1.6105796,0.49525842,1.819006,-0.16779864,1.7433916,1.7665489,1.7794473,-0.00044414814,0.0024198194,-0.0002733158,-0.0003259331,-0.0003551193,-0.023045594,-0.025658747,-0.023008127,-0.023018226,-0.023024388,0.00077520235,0.13935216,0.0010472041,0.6597079,0.19911754,0
2016484000,2016332000,1.6105796,0.49525842,1.818991,-0.16781354,1.743377,1.7665339,1.7794327,-0.00044414814,0.0024198194,-0.0002733158,-0.0003259331,-0.0003551193,-0.023045594,-0.025658747,-0.023008127,-0.023018226,-0.023024388,0.00077520235,0.13935216,0.0010472041,0.6597079,0.19911754,0
2016492000,2016340000,1.6105796,0.49525842,1.819005,-0.16779959,1.7433909,1.7665478,1.7794464,-0.00044414814,0.0024198194,-0.0002733158,-0.0003259331,-0.0003551193,-0.023045594,-0.025658747,-0.023008127,-0.023018226,-0.023024388,0.00077520235,0.13935216,0.0010472041,0.6597079,0.19911754,0
2016500000,2016348000,1.6105796,0.49525842,1.819003,-0.16780156,1.7433888,1.7665458,1.7794447,-0.00044414814,0.0024198194,-0.0002733158,-0.0003259331,-0.0003551193,-0.023045594,-0.025658747,-0.023008127,-0.023018226,-0.023024388,0.00077520235,0.13935216,0.0010472041,0.6597079,0.19911754,0
2016508000,2016356000,1.6105796,0.49525842,1.8189563,-0.16784832,1.743342,1.7664993,1.7793976,-0.00044414814,0.0024198194,-0.0002733158,-0.0003259331,-0.0003551193,-0.023045594,-0.025658747,-0.023008127,-0.023018226,-0.023024388,0.00077520235,0.13935216,0.0010472041,0.6597079,0.19911754,0
2016516000,2016364000,1.6105796,0.49525842,1.8189013,-0.16790359,1.743287,1.7664438,1.7793425,-0.00044414814,0.0024198194,-0.0002733158,-0.0003259331,-0.0003551193,-0.023045594,-0.025658747,-0.023008127,-0.023018226,-0.023024388,0.00077520235,0.13935216,0.0010472041,0.6597079,0.19911754,0
2016524000,2016372000,1.6105796,0.49525842,1.8187436,-0.16806106,1.7431295,1.7662865,1.7791848,-0.00044414814,0.0024198194,-0.0002733158,-0.0003259331,-0.0003551193,-0.023045594,-0.025658747,-0.023008127,-0.023018226,-0.023024388,0.00077520235,0.13935216,0.0010472041,0.6597079,0.19911754,0
2016532000,2016380000,1.6105796,0.49525842,1.8186944,-0.1681099,1.7430803,1.7662374,1.779136,-0.00044414814,0.0024198194,-0.0002733158,-0.0003259331,-0.0003551193,-0.023045594,-0.025658747,-0.023008127,-0.023018226,-0.023024388,0.00077520235,0.13935216,0.0010472041,0.6597079,0.19911754,0
2016540000,2016388000,1.6105796,0.49525842,1.8187598,-0.16804478,1.7431453,1.7663025,1.779201,-0.00044414814,0.0024198194,-0.0002733158,-0.0003259331,-0.0003551193,-0.023045594,-0.025658747,-0.023008127,-0.023018226,-0.023024388,0.00077520235,0.13935216,0.0010472041,0.6597079,0.19911754,0
2016548000,2016396000,1.6105796,0.49525842,1.8187695,-0.16803499,1.7431552,1.7663124,1.7792107,-0.00044414814,0.0024198194,-0.0002733158,-0.0003259331,-0.0003551193,-0.023045594,-0.025658747,-0.023008127,-0.023018226,-0.023024388,0.00077520235,0.13935216,0.0010472041,0.6597079,0.19911754,0
2016556000,2016404000,1.6105796,0.49525842,1.8186815,-0.16812322,1.7430669,1.766224,1.7791225,-0.00044414814,0.0024198194,-0.0002733158,-0.0003259331,-0.0003551193,-0.023045594,-0.025658747,-0.023008127,-0.023018226,-0.023024388,0.00077520235,0.13935216,0.0010472041,0.6597079,0.19911754,0
2016564000,2016412000,1.6105796,0.49525842,1.8187293,-0.16807501,1.743115,1.7662724,1.7791705,-0.00044414814,0.0024198194,-0.0002733158,-0.0003259331,-0.0003551193,-0.023045594,-0.025658747,-0.023008127,-0.023018226,-0.023024388,0.00077520235,0.13935216,0.0010472041,0.6597079,0.19911754,0
2016572000,2016420000,1.6105796,0.49525842,1.818752,-0.16805242,1.743138,1.7662948,1.7791934,-0.00044414814,0.0024198194,-0.0002733158,-0.0003259331,-0.0003551193,-0.023045594,-0.025658747,-0.023008127,-0.023018226,-0.023024388,0.00077520235,0.13935216,0.0010472041,0.6597079,0.19911754,0
2016580000,2016428000,1.6105796,0.49525842,1.8187604,-0.1680438,1.7431463,1.7663032,1.7792017,-0.00044414814,0.0024198194,-0.0002733158,-0.0003259331,-0.0003551193,-0.023045594,-0.025658747,-0.023008127,-0.023018226,-0.023024388,0.00077520235,0.13935216,0.0010472041,0.6597079,0.19911754,0
2016588000,2016436000,1.6105796,0.49525842,1.8188044,-0.16800006,1.7431903,1.7663472,1.7792457,-0.00044414814,0.0024198194,-0.0002733158,-0.0003259331,-0.0003551193,-0.023045594,-0.025658747,-0.023008127,-0.023018226,-0.023024388,0.00077520235,0.13935216,0.0010472041,0.6597079,0.19911754,0
2016596000,2016444000,1.6105796,0.49525842,1.8189185,-0.16788597,1.7433041,1.766461,1.7793596,-0.00044414814,0.0024198194,-0.0002733158,-0.0003259331,-0.0003551193,-0.023045594,-0.025658747,-0.023008127,-0.023018226,-0.023024388,0.00077520235,0.13935216,0.0010472041,0.6597079,0.19911754,0
2016604000,2016452000,1.6105796,0.49525842,1.8189588,-0.16784541,1.7433448,1.766502,1.7794002,-0.00044414814,0.0024198194,-0.0002733158,-0.0003259331,-0.0003551193,-0.023045594,-0.025658747,-0.023008127,-0.023018226,-0.023024388,0.00077520235,0.13935216,0.0010472041,0.6597079,0.19911754,0
2016612000,2016460000,1.6105796,0.49525842,1.8189774,-0.16782716,1.743363,1.7665198,1.7794187,-0.00044414814,0.0024198194,-0.0002733158,-0.0003259331,-0.0003551193,-0.023045594,-0.025658747,-0.023008127,-0.023018226,-0.023024388,0.00077520235,0.13935216,0.0010472041,0.6597079,0.19911754,0
2016620000,2016468000,1.6105796,0.49525842,1.8189996,-0.16780454,1.7433858,1.7665424,1.7794414,-0.00044414814,0.0024198194,-0.0002733158,-0.0003259331,-0.0003551193,-0.023045594,-0.025658747,-0.023008127,-0.023018226,-0.023024388,0.00077520235,0.13935216,0.0010472041,0.6597079,0.19911754,0
2016628000,2016476000,1.6105796,0.49525842,1.8189796,-0.1678247,1.7433658,1.7665224,1.7794211,-0.00044414814,0.0024198194,-0.0002733158,-0.0003259331,-0.0003551193,-0.023045594,-0.025658747,-0.023008127,-0.023018226,-0.023024388,0.00077520235,0.13935216,0.0010472041,0.6597079,0.19911754,0
2016636000,2016484000,1.6105796,0.49525842,1.8189244,-0.16788006,1.7433103,1.7664672,1.7793658,-0.00044414814,0.0024198194,-0.0002733158,-0.0003259331,-0.0003551193,-0.023045594,-0.025658747,-0.023008127,-0.023018226,-0.023024388,0.00077520235,0.13935216,0.0010472041,0.6597079,0.19911754,0
2016644000,2016492000,1.6105796,0.49525842,1.8189119,-0.16789252,1.7432978,1.7664548,1.7793531,-0.00044414814,0.0024198194,-0.0002733158,-0.0003259331,-0.0003551193,-0.023045594,-0.025658747,-0.023008127,-0.023018226,-0.023024388,0.00077520235,0.13935216,0.0010472041,0.6597079,0.19911754,0
2016652000,2016500000,1.6105796,0.49525842,1.8189833,-0.16782096,1.7433693,1.7665265,1.7794249,-0.00044414814,0.0024198194,-0.0002733158,-0.0003259331,-0.0003551193,-0.023045594,-0.025658747,-0.023008127,-0.023018226,-0.023024388,0.00077520235,0.13935216,0.0010472041,0.6597079,0.19911754,0
2016660000,2016508000,1.6105796,0.49525842,1.8189685,-0.16783576,1.7433546,1.7665116,1.7794101,-0.00044414814,0.0024198194,-0.0002733158,-0.0003259331,-0.0003551193,-0.023045594,-0.025658747,-0.023008127,-0.023018226,-0.023024388,0.00077520235,0.13935216,0.0010472041,0.6597079,0.19911754,0
2016668000,2016516000,1.6105796,0.49525842,1.8188652,-0.16793904,1.7432513,1.7664082,1.7793067,-0.00044414814,0.0024198194,-0.0002733158,-0.0003259331,-0.0003551193,-0.023045594,-0.025658747,-0.023008127,-0.023018226,-0.023024388,0.00077520235,0.13935216,0.0010472041,0.6597079,0.19911754,0
2016676000,2016524000,1.6105796,0.49525842,1.8189038,-0.16790043,1.7432898,1.7664468,1.7793456,-0.00044414814,0.0024198194,-0.0002733158,-0.0003259331,-0.0003551193,-0.023045594,-0.025658747,-0.023008127,-0.023018226,-0.023024388,0.00077520235,0.13935216,0.0010472041,0.6597079,0.19911754,0
2016684000,2016532000,1.6105796,0.49525842,1.8188977,-0.16790666,1.7432839,1.7664406,1.7793392,-0.00044414814,0.0024198194,-0.0002733158,-0.0003259331,-0.0003551193,-0.023045594,-0.025658747,-0.023008127,-0.023018226,-0.023024388,0.00077520235,0.13935216,0.0010472041,0.6597079,0.19911754,0
2016692000,2016540000,1.6105796,0.49525842,1.818935,-0.16786928,1.743321,1.7664781,1.7793764,-0.00044414814,0.0024198194,-0.0002733158,-0.0003259331,-0.0003551193,-0.023045594,-0.025658747,-0.023008127,-0.023018226,-0.023024388,0.00077520235,0.13935216,0.0010472041,0.6597079,0.19911754,0
2016700000,2016548000,1.6105796,0.49525842,1.8190019,-0.16780208,1.7433882,1.7665452,1.7794437,-0.00044414814,0.0024198194,-0.0002733158,-0.0003259331,-0.0003551193,-0.023045594,-0.025658747,-0.023008127,-0.023018226,-0.023024388,0.00077520235,0.13935216,0.0010472041,0.6597079,0.19911754,0
2016708000,2016556000,1.6105796,0.49525842,1.8190451,-0.1677593,1.7434309,1.7665877,1.7794865,-0.00044414814,0.0024198194,-0.0002733158,-0.0003259331,-0.0003551193,-0.023045594,-0.025658747,-0.023008127,-0.023018226,-0.023024388,0.00077520235,0.13935216,0.0010472041,0.6597079,0.19911754,0
2016716000,2016564000,1.6105796,0.49525842,1.8190312,-0.16777302,1.7434173,1.7665744,1.7794728,-0.00044414814,0.0024198194,-0.0002733158,-0.0003259331,-0.0003551193,-0.023045594,-0.025658747,-0.023008127,-0.023018226,-0.023024388,0.00077520235,0.13935216,0.0010472041,0.6597079,0.19911754,0
2016724000,2016572000,1.6105796,0.49525842,1.8190132,-0.16779122,1.7433993,1.7665561,1.7794546,-0.00044414814,0.0024198194,-0.0002733158,-0.0003259331,-0.0003551193,-0.023045594,-0.025658747,-0.023008127,-0.023018226,-0.023024388,0.00077520235,0.13935216,0.0010472041,0.6597079,0.19911754,0
2016732000,2016580000,1.6105796,0.49525842,1.8189718,-0.16783257,1.7433579,1.7665149,1.7794135,-0.00044414814,0.0024198194,-0.0002733158,-0.0003259331,-0.0003551193,-0.023045594,-0.025658747,-0.023008127,-0.023018226,-0.023024388,0.00077520235,0.13935216,0.0010472041,0.6597079,0.19911754,0
2016740000,2016588000,1.6105796,0.49525842,1.8189571,-0.16784714,1.7433432,1.7665001,1.7793989,-0.00044414814,0.0024198194,-0.0002733158,-0.0003259331,-0.0003551193,-0.023045594,-0.025658747,-0.023008127,-0.023018226,-0.023024388,0.00077520235,0.13935216,0.0010472041,0.6597079,0.19911754,0
2016748000,2016596000,1.6105796,0.49525842,1.8188807,-0.16792376,1.7432665,1.7664236,1.7793221,-0.00044414814,0.0024198194,-0.0002733158,-0.0003259331,-0.0003551193,-0.023045594,-0.025658747,-0.023008127,-0.023018226,-0.023024388,0.00077520235,0.13935216,0.0010472041,0.6597079,0.19911754,0
2016756000,2016604000,1.6105796,0.49525842,1.8188816,-0.1679226,1.7432678,1.7664245,1.7793235,-0.00044414814,0.0024198194,-0.0002733158,-0.0003259331,-0.0003551193,-0.023045594,-0.025658747,-0.023008127,-0.023018226,-0.023024388,0.00077520235,0.13935216,0.0010472041,0.6597079,0.19911754,0
2016764000,2016612000,1.6105796,0.49525842,1.8188967,-0.16790766,1.7432824,1.7664397,1.7793381,-0.00044414814,0.0024198194,-0.0002733158,-0.0003259331,-0.0003551193,-0.023045594,-0.025658747,-0.023008127,-0.023018226,-0.023024388,0.00077520235,0.13935216,0.0010472041,0.6597079,0.19911754,0
2016772000,2016620000,1.6105796,0.49525842,1.8187966,-0.1680078,1.7431827,1.7663395,1.779238,-0.00044414814,0.0024198194,-0.0002733158,-0.0003259331,-0.0003551193,-0.023045594,-0.025658747,-0.023008127,-0.023018226,-0.023024388,0.00077520235,0.13935216,0.0010472041,0.6597079,0.19911754,0
2016780000,2016628000,1.6105796,0.49525842,1.8188404,-0.16796397,1.7432263,1.7663833,1.779282,-0.00044414814,0.0024198194,-0.0002733158,-0.0003259331,-0.0003551193,-0.023045594,-0.025658747,-0.023008127,-0.023018226,-0.023024388,0.00077520235,0.13935216,0.0010472041,0.6597079,0.19911754,0
2016788000,2016636000,1.6105796,0.49525842,1.8188546,-0.16794989,1.7432406,1.7663975,1.779296,-0.00044414814,0.0024198194,-0.0002733158,-0.0003259331,-0.0003551193,-0.023045594,-0.025658747,-0.023008127,-0.023018226,-0.023024388,0.00077520235,0.13935216,0.0010472041,0.6597079,0.19911754,0
2016796000,2016644000,1.6105796,0.49525842,1.8187778,-0.16802624,1.7431638,1.7663211,1.7792195,-0.00044414814,0.0024198194,-0.0002733158,-0.0003259331,-0.0003551193,-0.023045594,-0.025658747,-0.023008127,-0.023018226,-0.023024388,0.00077520235,0.13935216,0.0010472041,0.6597079,0.19911754,0
2016804000,2016652000,1.6105796,0.49525842,1.8188038,-0.16800058,1.7431899,1.7663466,1.7792453,-0.00044414814,0.0024198194,-0.0002733158,-0.0003259331,-0.0003551193,-0.023045594,-0.025658747,-0.023008127,-0.023018226,-0.023024388,0.00077520235,0.13935216,0.0010472041,0.6597079,0.19911754,0
2016812000,2016660000,1.6102777,0.49531716,1.8188648,-0.16792949,1.7432512,1.766408,1.7793065,-0.003956326,0.0025167107,-0.0038711035,-0.0038995915,-0.0039145355,-0.0021065308,0.00015451293,-0.0018092084,-0.0018995663,-0.0019501718,0.00077518495,0.13936345,0.001047195,0.65969956,0.19911455,0
2016820000,2016668000,1.6102777,0.49531716,1.8188905,-0.1679037,1.743277,1.7664336,1.779332,-0.003956326,0.0025167107,-0.0038711035,-0.0038995915,-0.0039145355,-0.0021065308,0.00015451293,-0.0018092084,-0.0018995663,-0.0019501718,0.00077518495,0.13936345,0.001047195,0.65969956,0.19911455,0
2016828000,2016676000,1.6102777,0.49531716,1.8188385,-0.1679557,1.743225,1.7663816,1.7792803,-0.003956326,0.0025167107,-0.0038711035,-0.0038995915,-0.0039145355,-0.0021065308,0.00015451293,-0.0018092084,-0.0018995663,-0.0019501718,0.00077518495,0.13936345,0.001047195,0.65969956,0.19911455,0
2016836000,2016684000,1.6102777,0.49531716,1.8187652,-0.16802907,1.7431515,1.7663082,1.7792069,-0.003956326,0.0025167107,-0.0038711035,-0.0038995915,-0.0039145355,-0.0021065308,0.00015451293,-0.0018092084,-0.0018995663,-0.0019501718,0.00077518495,0.13936345,0.001047195,0.65969956,0.19911455,0
2016844000,2016692000,1.6102777,0.49531716,1.8187248,-0.16806945,1.7431111,1.7662677,1.7791666,-0.003956326,0.0025167107,-0.0038711035,-0.0038995915,-0.0039145355,-0.0021065308,0.00015451293,-0.0018092084,-0.0018995663,-0.0019501718,0.00077518495,0.13936345,0.001047195,0.65969956,0.19911455,0
2016852000,2016700000,1.6102777,0.49531716,1.8186905,-0.16810364,1.743077,1.7662336,1.7791322,-0.003956326,0.0025167107,-0.0038711035,-0.0038995915,-0.0039145355,-0.0021065308,0.00015451293,-0.0018092084,-0.0018995663,-0.0019501718,0.00077518495,0.13936345,0.001047195,0.65969956,0.19911455,0
2016860000,2016708000,1.6102777,0.49531716,1.8186704,-0.16812375,1.7430569,1.7662132,1.7791122,-0.003956326,0.0025167107,-0.0038711035,-0.0038995915,-0.0039145355,-0.0021065308,0.00015451293,-0.0018092084,-0.0018995663,-0.0019501718,0.00077518495,0.13936345,0.001047195,0.65969956,0.19911455,0
2016868000,2016716000,1.6102777,0.49531716,1.8185633,-0.1682311,1.7429496,1.7661059,1.779005,-0.003956326,0.0025167107,-0.0038711035,-0.0038995915,-0.0039145355,-0.0021065308,0.00015451293,-0.0018092084,-0.0018995663,-0.0019501718,0.00077518495,0.13936345,0.001047195,0.65969956,0.19911455,0
2016876000,2016724000,1.6102777,0.49531716,1.81843,-0.1683641,1.7428168,1.7659732,1.778872,-0.003956326,0.0025167107,-0.0038711035,-0.0038995915,-0.0039145355,-0.0021065308,0.00015451293,-0.0018092084,-0.0018995663,-0.0019501718,0.00077518495,0.13936345,0.001047195,0.65969956,0.19911455,0
2016884000,2016732000,1.6102777,0.49531716,1.8183048,-0.16848965,1.7426912,1.7658472,1.7787462,-0.003956326,0.0025167107,-0.0038711035,-0.0038995915,-0.0039145355,-0.0021065308,0.00015451293,-0.0018092084,-0.0018995663,-0.0019501718,0.00077518495,0.13936345,0.001047195,0.65969956,0.19911455,0
2016892000,2016740000,1.6102777,0.49531716,1.818244,-0.16855022,1.7426304,1.7657869,1.7786857,-0.003956326,0.0025167107,-0.0038711035,-0.0038995915,-0.0039145355,-0.0021065308,0.00015451293,-0.0018092084,-0.0018995663,-0.0019501718,0.00077518495,0.13936345,0.001047195,0.65969956,0.19911455,0
2016900000,2016748000,1.6102777,0.49531716,1.8182849,-0.16850953,1.7426711,1.7658275,1.7787263,-0.003956326,0.0025167107,-0.0038711035,-0.0038995915,-0.0039145355,-0.0021065308,0.00015451293,-0.0018092084,-0.0018995663,-0.0019501718,0.00077518495,0.13936345,0.001047195,0.65969956,0.19911455,0
2016908000,2016756000,1.6102777,0.49531716,1.8183084,-0.168486,1.7426947,1.7658509,1.7787496,-0.003956326,0.0025167107,-0.0038711035,-0.0038995915,-0.0039145355,-0.0021065308,0.00015451293,-0.0018092084,-0.0018995663,-0.0019501718,0.00077518495,0.13936345,0.001047195,0.65969956,0.19911455,0
2016916000,2016764000,1.6102777,0.49531716,1.8182646,-0.16852963,1.7426512,1.7658073,1.7787062,-0.003956326,0.0025167107,-0.0038711035,-0.0038995915,-0.0039145355,-0.0021065308,0.00015451293,-0.0018092084,-0.0018995663,-0.0019501718,0.00077518495,0.13936345,0.001047195,0.65969956,0.19911455,0
2016924000,2016772000,1.6102777,0.49531716,1.8183265,-0.16846775,1.7427131,1.7658693,1.7787681,-0.003956326,0.0025167107,-0.0038711035,-0.0038995915,-0.0039145355,-0.0021065308,0.00015451293,-0.0018092084,-0.0018995663,-0.0019501718,0.00077518495,0.13936345,0.001047195,0.65969956,0.19911455,0
2016932000,2016780000,1.6102777,0.49531716,1.8183384,-0.16845588,1.7427249,1.7658815,1.77878,-0.003956326,0.0025167107,-0.0038711035,-0.0038995915,-0.0039145355,-0.0021065308,0.00015451293,-0.0018092084,-0.0018995663,-0.0019501718,0.00077518495,0.13936345,0.001047195,0.65969956,0.19911455,0
2016940000,2016788000,1.6102777,0.49531716,1.8183888,-0.16840565,1.7427751,1.7659312,1.7788303,-0.003956326,0.0025167107,-0.0038711035,-0.0038995915,-0.0039145355,-0.0021065308,0.00015451293,-0.0018092084,-0.0018995663,-0.0019501718,0.00077518495,0.13936345,0.001047195,0.65969956,0.19911455,0
2016948000,2016796000,1.6102777,0.49531716,1.818409,-0.16838536,1.7427955,1.7659519,1.7788504,-0.003956326,0.0025167107,-0.0038711035,-0.0038995915,-0.0039145355,-0.0021065308,0.00015451293,-0.0018092084,-0.0018995663,-0.0019501718,0.00077518495,0.13936345,0.001047195,0.65969956,0.19911455,0
2016956000,2016804000,1.6102777,0.49531716,1.8184422,-0.16835232,1.7428286,1.7659849,1.7788836,-0.003956326,0.0025167107,-0.0038711035,-0.0038995915,-0.0039145355,-0.0021065308,0.00015451293,-0.0018092084,-0.0018995663,-0.0019501718,0.00077518495,0.13936345,0.001047195,0.65969956,0.19911455,0
2016964000,2016812000,1.6102777,0.49531716,1.8184634,-0.16833085,1.7428501,1.7660064,1.778905,-0.003956326,0.0025167107,-0.0038711035,-0.0038995915,-0.0039145355,-0.0021065308,0.00015451293,-0.0018092084,-0.0018995663,-0.0019501718,0.00077518495,0.13936345,0.001047195,0.65969956,0.19911455,0
2016972000,2016820000,1.6102777,0.49531716,1.8184901,-0.16830407,1.742877,1.7660329,1.7789316,-0.003956326,0.0025167107,-0.0038711035,-0.0038995915,-0.0039145355,-0.0021065308,0.00015451293,-0.0018092084,-0.0018995663,-0.0019501718,0.00077518495,0.13936345,0.001047195,0.65969956,0.19911455,0
2016980000,2016828000,1.6102777,0.49531716,1.8185076,-0.16828701,1.7428938,1.76605,1.7789489,-0.003956326,0.0025167107,-0.0038711035,-0.0038995915,-0.0039145355,-0.0021065308,0.00015451293,-0.0018092084,-0.0018995663,-0.0019501718,0.00077518495,0.13936345,0.001047195,0.65969956,0.19911455,0
2016988000,2016836000,1.6102777,0.49531716,1.8185352,-0.16825928,1.742922,1.7660776,1.7789766,-0.003956326,0.0025167107,-0.0038711035,-0.0038995915,-0.0039145355,-0.0021065308,0.00015451293,-0.0018092084,-0.0018995663,-0.0019501718,0.00077518495,0.13936345,0.001047195,0.65969956,0.19911455,0
2016996000,2016844000,1.6102777,0.49531716,1.8185534,-0.16824101,1.7429401,1.7660959,1.7789949,-0.003956326,0.0025167107,-0.0038711035,-0.0038995915,-0.0039145355,-0.0021065308,0.00015451293,-0.0018092084,-0.0018995663,-0.0019501718,0.00077518495,0.13936345,0.001047195,0.65969956,0.19911455,0
2017004000,2016852000,1.6102777,0.49531716,1.8185376,-0.16825694,1.7429241,1.7660801,1.7789788,-0.003956326,0.0025167107,-0.0038711035,-0.0038995915,-0.0039145355,-0.0021065308,0.00015451293,-0.0018092084,-0.0018995663,-0.0019501718,0.00077518495,0.13936345,0.001047195,0.65969956,0.19911455,0
2017012000,2016860000,1.6102777,0.49531716,1.8185354,-0.16825913,1.742922,1.7660779,1.7789769,-0.003956326,0.0025167107,-0.0038711035,-0.0038995915,-0.0039145355,-0.0021065308,0.00015451293,-0.0018092084,-0.0018995663,-0.0019501718,0.00077518495,0.13936345,0.001047195,0.65969956,0.19911455,0
2017020000,2016868000,1.6102777,0.49531716,1.8185549,-0.16823988,1.7429411,1.766097,1.778996,-0.003956326,0.0025167107,-0.0038711035,-0.0038995915,-0.0039145355,-0.0021065308,0.00015451293,-0.0018092084,-0.0018995663,-0.0019501718,0.00077518495,0.13936345,0.001047195,0.65969956,0.19911455,0
2017028000,2016876000,1.6102777,0.49531716,1.8185261,-0.16826858,1.742912,1.7660685,1.7789673,-0.003956326,0.0025167107,-0.0038711035,-0.0038995915,-0.0039145355,-0.0021065308,0.00015451293,-0.0018092084,-0.0018995663,-0.0019501718,0.00077518495,0.13936345,0.001047195,0.65969956,0.19911455,0
2017036000,2016884000,1.6102777,0.49531716,1.8184922,-0.16830252,1.7428786,1.7660347,1.7789335,-0.003956326,0.0025167107,-0.0038711035,-0.0038995915,-0.0039145355,-0.0021065308,0.00015451293,-0.0018092084,-0.0018995663,-0.0019501718,0.00077518495,0.13936345,0.001047195,0.65969956,0.19911455,0
2017044000,2016892000,1.6102777,0.49531716,1.8185295,-0.1682651,1.742916,1.7660719,1.778971,-0.003956326,0.0025167107,-0.0038711035,-0.0038995915,-0.0039145355,-0.0021065308,0.00015451293,-0.0018092084,-0.0018995663,-0.0019501718,0.00077518495,0.13936345,0.001047195,0.65969956,0.19911455,0
2017052000,2016900000,1.6102777,0.49531716,1.8184284,-0.16836625,1.7428149,1.765971,1.7788699,-0.003956326,0.0025167107,-0.0038711035,-0.0038995915,-0.0039145355,-0.0021065308,0.00015451293,-0.0018092084,-0.0018995663,-0.0019501718,0.00077518495,0.13936345,0.001047195,0.65969956,0.19911455,0
2017060000,2016908000,1.6102777,0.49531716,1.8183872,-0.16840778,1.7427734,1.7659293,1.7788285,-0.003956326,0.0025167107,-0.0038711035,-0.0038995915,-0.0039145355,-0.0021065308,0.00015451293,-0.0018092084,-0.0018995663,-0.0019501718,0.00077518495,0.13936345,0.001047195,0.65969956,0.19911455,0
2017068000,2016916000,1.6102777,0.49531716,1.8184392,-0.16835552,1.7428257,1.7659818,1.7788807,-0.003956326,0.0025167107,-0.0038711035,-0.0038995915,-0.0039145355,-0.0021065308,0.00015451293,-0.0018092084,-0.0018995663,-0.0019501718,0.00077518495,0.13936345,0.001047195,0.65969956,0.19911455,0
2017076000,2016924000,1.6102777,0.49531716,1.8184277,-0.16836716,1.7428142,1.7659701,1.7788692,-0.003956326,0.0025167107,-0.0038711035,-0.0038995915,-0.0039145355,-0.0021065308,0.00015451293,-0.0018092084,-0.0018995663,-0.0019501718,0.00077518495,0.13936345,0.001047195,0.65969956,0.19911455,0
2017084000,2016932000,1.6102777,0.49531716,1.8183703,-0.16842449,1.7427568,1.7659128,1.7788116,-0.003956326,0.0025167107,-0.0038711035,-0.0038995915,-0.0039145355,-0.0021065308,0.00015451293,-0.0018092084,-0.0018995663,-0.0019501718,0.00077518495,0.13936345,0.001047195,0.65969956,0.19911455,0
2017092000,2016940000,1.6102777,0.49531716,1.8184685,-0.16832638,1.742855,1.766011,1.77891,-0.003956326,0.0025167107,-0.0038711035,-0.0038995915,-0.0039145355,-0.0021065308,0.00015451293,-0.0018092084,-0.0018995663,-0.0019501718,0.00077518495,0.13936345,0.001047195,0.65969956,0.19911455,0
2017100000,2016948000,1.6102777,0.49531716,1.818393,-0.1684019,1.7427794,1.7659355,1.7788342,-0.003956326,0.0025167107,-0.0038711035,-0.0038995915,-0.0039145355,-0.0021065308,0.00015451293,-0.0018092084,-0.0018995663,-0.0019501718,0.00077518495,0.13936345,0.001047195,0.65969956,0.19911455,0
2017108000,2016956000,1.6102777,0.49531716,1.8183261,-0.16846876,1.7427125,1.7658687,1.7787673,-0.003956326,0.0025167107,-0.0038711035,-0.0038995915,-0.0039145355,-0.0021065308,0.00015451293,-0.0018092084,-0.0018995663,-0.0019501718,0.00077518495,0.13936345,0.001047195,0.65969956,0.19911455,0
2017116000,2016964000,1.6102777,0.49531716,1.8182406,-0.16855398,1.7426274,1.7657833,1.7786821,-0.003956326,0.0025167107,-0.0038711035,-0.0038995915,-0.0039145355,-0.0021065308,0.00015451293,-0.0018092084,-0.0018995663,-0.0019501718,0.00077518495,0.13936345,0.001047195,0.65969956,0.19911455,0
2017124000,2016972000,1.6102777,0.49531716,1.8182815,-0.16851334,1.7426679,1.765824,1.7787228,-0.003956326,0.0025167107,-0.0038711035,-0.0038995915,-0.0039145355,-0.0021065308,0.00015451293,-0.0018092084,-0.0018995663,-0.0019501718,0.00077518495,0.13936345,0.001047195,0.65969956,0.19911455,0
2017132000,2016980000,1.6102777,0.49531716,1.8182877,-0.1685069,1.7426744,1.7658305,1.7787292,-0.003956326,0.0025167107,-0.0038711035,-0.0038995915,-0.0039145355,-0.0021065308,0.00015451293,-0.0018092084,-0.0018995663,-0.0019501718,0.00077518495,0.13936345,0.001047195,0.65969956,0.19911455,0
2017140000,2016988000,1.6102777,0.49531716,1.8182933,-0.16850156,1.7426796,1.7658358,1.7787346,-0.003956326,0.0025167107,-0.0038711035,-0.0038995915,-0.0039145355,-0.0021065308,0.00015451293,-0.0018092084,-0.0018995663,-0.0019501718,0.00077518495,0.13936345,0.001047195,0.65969956,0.19911455,0
2017148000,2016996000,1.6102777,0.49531716,1.818271,-0.1685239,1.7426572,1.7658132,1.7787122,-0.003956326,0.0025167107,-0.0038711035,-0.0038995915,-0.0039145355,-0.0021065308,0.00015451293,-0.0018092084,-0.0018995663,-0.0019501718,0.00077518495,0.13936345,0.001047195,0.65969956,0.19911455,0
2017156000,2017004000,1.6102777,0.49531716,1.8182179,-0.16857703,1.7426041,1.7657602,1.778659,-0.003956326,0.0025167107,-0.0038711035,-0.0038995915,-0.0039145355,-0.0021065308,0.00015451293,-0.0018092084,-0.0018995663,-0.0019501718,0.00077518495,0.13936345,0.001047195,0.65969956,0.19911455,0
2017164000,2017012000,1.6102777,0.49531716,1.8182307,-0.16856407,1.7426172,1.7657734,1.778672,-0.003956326,0.0025167107,-0.0038711035,-0.0038995915,-0.0039145355,-0.0021065308,0.00015451293,-0.0018092084,-0.0018995663,-0.0019501718,0.00077518495,0.13936345,0.001047195,0.65969956,0.19911455,0
2017172000,2017020000,1.6102777,0.49531716,1.8183023,-0.1684925,1.7426888,1.7658448,1.7787435,-0.003956326,0.0025167107,-0.0038711035,-0.0038995915,-0.0039145355,-0.0021065308,0.00015451293,-0.0018092084,-0.0018995663,-0.0019501718,0.00077518495,0.13936345,0.001047195,0.65969956,0.19911455,0
2017180000,2017028000,1.6102777,0.49531716,1.8183347,-0.16846037,1.742721,1.765877,1.778776,-0.003956326,0.0025167107,-0.0038711035,-0.0038995915,-0.0039145355,-0.0021065308,0.00015451293,-0.0018092084,-0.0018995663,-0.0019501718,0.00077518495,0.13936345,0.001047195,0.65969956,0.19911455,0
2017188000,2017036000,1.6102777,0.49531716,1.818343,-0.1684517,1.7427298,1.7658857,1.7787844,-0.003956326,0.0025167107,-0.0038711035,-0.0038995915,-0.0039145355,-0.0021065308,0.00015451293,-0.0018092084,-0.0018995663,-0.0019501718,0.00077518495,0.13936345,0.001047195,0.65969956,0.19911455,0
2017196000,2017044000,1.6102777,0.49531716,1.8183435,-0.16845152,1.7427299,1.765886,1.7787846,-0.003956326,0.0025167107,-0.0038711035,-0.0038995915,-0.0039145355,-0.0021065308,0.00015451293,-0.0018092084,-0.0018995663,-0.0019501718,0.00077518495,0.13936345,0.001047195,0.65969956,0.19911455,0
2017204000,2017052000,1.6102777,0.49531716,1.8183552,-0.1684397,1.7427417,1.7658979,1.7787964,-0.003956326,0.0025167107,-0.0038711035,-0.0038995915,-0.0039145355,-0.0021065308,0.00015451293,-0.0018092084,-0.0018995663,-0.0019501718,0.00077518495,0.13936345,0.001047195,0.65969956,0.19911455,0
2017212000,2017060000,1.6099583,0.49510455,1.8184167,-0.16841137,1.7428036,1.7659594,1.7788582,0.029857099,0.03161778,0.029986111,0.029946558,0.029924547,0.0013261111,-0.00093163183,0.0013321856,0.0013313608,0.0013305101,0.0007752975,0.1392711,0.0010472861,0.6597689,0.19913746,0
2017220000,2017068000,1.6099583,0.49510455,1.8184583,-0.16836968,1.7428453,1.7660011,1.7788999,0.029857099,0.03161778,0.029986111,0.029946558,0.029924547,0.0013261111,-0.00093163183,0.0013321856,0.0013313608,0.0013305101,0.0007752975,0.1392711,0.0010472861,0.6597689,0.19913746,0
2017228000,2017076000,1.6099583,0.49510455,1.818497,-0.16833124,1.7428834,1.7660396,1.7789383,0.029857099,0.03161778,0.029986111,0.029946558,0.029924547,0.0013261111,-0.00093163183,0.0013321856,0.0013313608,0.0013305101,0.0007752975,0.1392711,0.0010472861,0.6597689,0.19913746,0
2017236000,2017084000,1.6099583,0.49510455,1.8185279,-0.16830021,1.7429147,1.7660707,1.7789695,0.029857099,0.03161778,0.029986111,0.029946558,0.029924547,0.0013261111,-0.00093163183,0.0013321856,0.0013313608,0.0013305101,0.0007752975,0.1392711,0.0010472861,0.6597689,0.19913746,0
2017244000,2017092000,1.6099583,0.49510455,1.8185716,-0.16825657,1.7429583,1.7661144,1.7790132,0.029857099,0.03161778,0.029986111,0.029946558,0.029924547,0.0013261111,-0.00093163183,0.0013321856,0.0013313608,0.0013305101,0.0007752975,0.1392711,0.0010472861,0.6597689,0.19913746,0
2017252000,2017100000,1.6099583,0.49510455,1.8186197,-0.16820846,1.7430066,1.7661624,1.7790612,0.029857099,0.03161778,0.029986111,0.029946558,0.029924547,0.0013261111,-0.00093163183,0.0013321856,0.0013313608,0.0013305101,0.0007752975,0.1392711,0.0010472861,0.6597689,0.19913746,0
2017260000,2017108000,1.6099583,0.49510455,1.8185965,-0.16823184,1.7429832,1.7661391,1.779038,0.029857099,0.03161778,0.029986111,0.029946558,0.029924547,0.0013261111,-0.00093163183,0.0013321856,0.0013313608,0.0013305101,0.0007752975,0.1392711,0.0010472861,0.6597689,0.19913746,0
2017268000,2017116000,1.6099583,0.49510455,1.8185403,-0.1682881,1.742927,1.7660829,1.7789816,0.029857099,0.03161778,0.029986111,0.029946558,0.029924547,0.0013261111,-0.00093163183,0.0013321856,0.0013313608,0.0013305101,0.0007752975,0.1392711,0.0010472861,0.6597689,0.19913746,0
2017276000,2017124000,1.6099583,0.49510455,1.8185437,-0.16828477,1.7429303,1.7660862,1.7789847,0.029857099,0.03161778,0.029986111,0.029946558,0.029924547,0.0013261111,-0.00093163183,0.0013321856,0.0013313608,0.0013305101,0.0007752975,0.1392711,0.0010472861,0.6597689,0.19913746,0
2017284000,2017132000,1.6099583,0.49510455,1.8185064,-0.1683219,1.7428932,1.7660493,1.778948,0.029857099,0.03161778,0.029986111,0.029946558,0.029924547,0.0013261111,-0.00093163183,0.0013321856,0.0013313608,0.0013305101,0.0007752975,0.1392711,0.0010472861,0.6597689,0.19913746,0
2017292000,2017140000,1.6099583,0.49510455,1.8185533,-0.16827491,1.74294,1.7660961,1.7789949,0.029857099,0.03161778,0.029986111,0.029946558,0.029924547,0.0013261111,-0.00093163183,0.0013321856,0.0013313608,0.0013305101,0.0007752975,0.1392711,0.0010472861,0.6597689,0.19913746,0
2017300000,2017148000,1.6099583,0.49510455,1.8186591,-0.16816926,1.7430456,1.7662015,1.7791004,0.029857099,0.03161778,0.029986111,0.029946558,0.029924547,0.0013261111,-0.00093163183,0.0013321856,0.0013313608,0.0013305101,0.0007752975,0.1392711,0.0010472861,0.6597689,0.19913746,0
2017308000,2017156000,1.6099583,0.49510455,1.8187402,-0.16808814,1.7431271,1.766283,1.7791814,0.029857099,0.03161778,0.029986111,0.029946558,0.029924547,0.0013261111,-0.00093163183,0.0013321856,0.0013313608,0.0013305101,0.0007752975,0.1392711,0.0010472861,0.6597689,0.19913746,0
2017316000,2017164000,1.6099583,0.49510455,1.8187891,-0.16803913,1.7431756,1.7663317,1.7792306,0.029857099,0.03161778,0.029986111,0.029946558,0.029924547,0.0013261111,-0.00093163183,0.0013321856,0.0013313608,0.0013305101,0.0007752975,0.1392711,0.0010472861,0.6597689,0.19913746,0
2017324000,2017172000,1.6099583,0.49510455,1.8187294,-0.16809884,1.7431164,1.7662722,1.7791709,0.029857099,0.03161778,0.029986111,0.029946558,0.029924547,0.0013261111,-0.00093163183,0.0013321856,0.0013313608,0.0013305101,0.0007752975,0.1392711,0.0010472861,0.6597689,0.19913746,0
2017332000,2017180000,1.6099583,0.49510455,1.818592,-0.16823614,1.7429788,1.7661347,1.7790332,0.029857099,0.03161778,0.029986111,0.029946558,0.029924547,0.0013261111,-0.00093163183,0.0013321856,0.0013313608,0.0013305101,0.0007752975,0.1392711,0.0010472861,0.6597689,0.19913746,0
2017340000,2017188000,1.6099583,0.49510455,1.818551,-0.16827764,1.7429376,1.7660931,1.7789918,0.029857099,0.03161778,0.029986111,0.029946558,0.029924547,0.0013261111,-0.00093163183,0.0013321856,0.0013313608,0.0013305101,0.0007752975,0.1392711,0.0010472861,0.6597689,0.19913746,0
2017348000,2017196000,1.6099583,0.49510455,1.8185346,-0.16829357,1.7429214,1.7660774,1.7789763,0.029857099,0.03161778,0.029986111,0.029946558,0.029924547,0.0013261111,-0.00093163183,0.0013321856,0.0013313608,0.0013305101,0.0007752975,0.1392711,0.0010472861,0.6597689,0.19913746,0
2017356000,2017204000,1.6099583,0.49510455,1.8185189,-0.1683093,1.7429056,1.7660614,1.7789602,0.029857099,0.03161778,0.029986111,0.029946558,0.029924547,0.0013261111,-0.00093163183,0.0013321856,0.0013313608,0.0013305101,0.0007752975,0.1392711,0.0010472861,0.6597689,0.19913746,0
2017364000,2017212000,1.6099583,0.49510455,1.8185682,-0.16826007,1.7429549,1.7661107,1.7790098,0.029857099,0.03161778,0.029986111,0.029946558,0.029924547,0.0013261111,-0.00093163183,0.0013321856,0.0013313608,0.0013305101,0.0007752975,0.1392711,0.0010472861,0.6597689,0.19913746,0
2017372000,2017220000,1.6099583,0.49510455,1.8186733,-0.16815524,1.7430598,1.7662154,1.7791142,0.029857099,0.03161778,0.029986111,0.029946558,0.029924547,0.0013261111,-0.00093163183,0.0013321856,0.0013313608,0.0013305101,0.0007752975,0.1392711,0.0010472861,0.6597689,0.19913746,0
2017380000,2017228000,1.6099583,0.49510455,1.8186965,-0.16813171,1.7430832,1.7662389,1.779138,0.029857099,0.03161778,0.029986111,0.029946558,0.029924547,0.0013261111,-0.00093163183,0.0013321856,0.0013313608,0.0013305101,0.0007752975,0.1392711,0.0010472861,0.6597689,0.19913746,0
2017388000,2017236000,1.6099583,0.49510455,1.8186841,-0.16814442,1.7430707,1.7662265,1.7791251,0.029857099,0.03161778,0.029986111,0.029946558,0.029924547,0.0013261111,-0.00093163183,0.0013321856,0.0013313608,0.0013305101,0.0007752975,0.1392711,0.0010472861,0.6597689,0.19913746,0
2017396000,2017244000,1.6099583,0.49510455,1.8186083,-0.16821991,1.7429953,1.7661508,1.7790498,0.029857099,0.03161778,0.029986111,0.029946558,0.029924547,0.0013261111,-0.00093163183,0.0013321856,0.0013313608,0.0013305101,0.0007752975,0.1392711,0.0010472861,0.6597689,0.19913746,0
2017404000,2017252000,1.6099583,0.49510455,1.8185673,-0.16826129,1.7429538,1.7661097,1.7790083,0.029857099,0.03161778,0.029986111,0.029946558,0.029924547,0.0013261111,-0.00093163183,0.0013321856,0.0013313608,0.0013305101,0.0007752975,0.1392711,0.0010472861,0.6597689,0.19913746,0
2017412000,2017260000,1.6099583,0.49510455,1.8186044,-0.16822396,1.7429913,1.7661468,1.7790457,0.029857099,0.03161778,0.029986111,0.029946558,0.029924547,0.0013261111,-0.00093163183,0.0013321856,0.0013313608,0.0013305101,0.0007752975,0.1392711,0.0010472861,0.6597689,0.19913746,0
2017420000,2017268000,1.6099583,0.49510455,1.8186715,-0.16815683,1.7430581,1.766214,1.7791128,0.029857099,0.03161778,0.029986111,0.029946558,0.029924547,0.0013261111,-0.00093163183,0.0013321856,0.0013313608,0.0013305101,0.0007752975,0.1392711,0.0010472861,0.6597689,0.19913746,0
2017428000,2017276000,1.6099583,0.49510455,1.81874,-0.16808859,1.7431265,1.7662824,1.7791811,0.029857099,0.03161778,0.029986111,0.029946558,0.029924547,0.0013261111,-0.00093163183,0.0013321856,0.0013313608,0.0013305101,0.0007752975,0.1392711,0.0010472861,0.6597689,0.19913746,0
2017436000,2017284000,1.6099583,0.49510455,1.8186878,-0.16814075,1.7430743,1.7662305,1.7791291,0.029857099,0.03161778,0.029986111,0.029946558,0.029924547,0.0013261111,-0.00093163183,0.0013321856,0.0013313608,0.0013305101,0.0007752975,0.1392711,0.0010472861,0.6597689,0.19913746,0
2017444000,2017292000,1.6099583,0.49510455,1.8185953,-0.16823323,1.7429821,1.7661377,1.7790364,0.029857099,0.03161778,0.029986111,0.029946558,0.029924547,0.0013261111,-0.00093163183,0.0013321856,0.0013313608,0.0013305101,0.0007752975,0.1392711,0.0010472861,0.6597689,0.19913746,0
2017452000,2017300000,1.6099583,0.49510455,1.8185387,-0.16828978,1.7429253,1.7660812,1.7789799,0.029857099,0.03161778,0.029986111,0.029946558,0.029924547,0.0013261111,-0.00093163183,0.0013321856,0.0013313608,0.0013305101,0.0007752975,0.1392711,0.0010472861,0.6597689,0.19913746,0
2017460000,2017308000,1.6099583,0.49510455,1.8185323,-0.16829592,1.7429191,1.766075,1.7789737,0.029857099,0.03161778,0.029986111,0.029946558,0.029924547,0.0013261111,-0.00093163183,0.0013321856,0.0013313608,0.0013305101,0.0007752975,0.1392711,0.0010472861,0.6597689,0.19913746,0
2017468000,2017316000,1.6099583,0.49510455,1.8186092,-0.168219,1.7429961,1.7661519,1.7790505,0.029857099,0.03161778,0.029986111,0.029946558,0.029924547,0.0013261111,-0.00093163183,0.0013321856,0.0013313608,0.0013305101,0.0007752975,0.1392711,0.0010472861,0.6597689,0.19913746,0
2017476000,2017324000,1.6099583,0.49510455,1.8186647,-0.16816357,1.7430514,1.7662073,1.7791061,0.029857099,0.03161778,0.029986111,0.029946558,0.029924547,0.0013261111,-0.00093163183,0.0013321856,0.0013313608,0.0013305101,0.0007752975,0.1392711,0.0010472861,0.6597689,0.19913746,0
2017484000,2017332000,1.6099583,0.49510455,1.8186786,-0.16814944,1.7430658,1.7662214,1.7791201,0.029857099,0.03161778,0.029986111,0.029946558,0.029924547,0.0013261111,-0.00093163183,0.0013321856,0.0013313608,0.0013305101,0.0007752975,0.1392711,0.0010472861,0.6597689,0.19913746,0
2017492000,2017340000,1.6099583,0.49510455,1.8186841,-0.168144,1.7430712,1.7662265,1.7791257,0.029857099,0.03161778,0.029986111,0.029946558,0.029924547,0.0013261111,-0.00093163183,0.0013321856,0.0013313608,0.0013305101,0.0007752975,0.1392711,0.0010472861,0.6597689,0.19913746,0
2017500000,2017348000,1.6099583,0.49510455,1.8187301,-0.16809805,1.7431172,1.7662728,1.7791716,0.029857099,0.03161778,0.029986111,0.029946558,0.029924547,0.0013261111,-0.00093163183,0.0013321856,0.0013313608,0.0013305101,0.0007752975,0.1392711,0.0010472861,0.6597689,0.19913746,0
2017508000,2017356000,1.6099583,0.49510455,1.8187975,-0.16803065,1.7431843,1.7663399,1.7792387,0.029857099,0.03161778,0.029986111,0.029946558,0.029924547,0.0013261111,-0.00093163183,0.0013321856,0.0013313608,0.0013305101,0.0007752975,0.1392711,0.0010472861,0.6597689,0.19913746,0
2017516000,2017364000,1.6099583,0.49510455,1.8188884,-0.16793984,1.7432752,1.7664309,1.7793298,0.029857099,0.03161778,0.029986111,0.029946558,0.029924547,0.0013261111,-0.00093163183,0.0013321856,0.0013313608,0.0013305101,0.0007752975,0.1392711,0.0010472861,0.6597689,0.19913746,0
2017524000,2017372000,1.6099583,0.49510455,1.8189607,-0.16786721,1.7433478,1.7665033,1.7794023,0.029857099,0.03161778,0.029986111,0.029946558,0.029924547,0.0013261111,-0.00093163183,0.0013321856,0.0013313608,0.0013305101,0.0007752975,0.1392711,0.0010472861,0.6597689,0.19913746,0
2017532000,2017380000,1.6099583,0.49510455,1.8189046,-0.16792363,1.7432914,1.7664472,1.779346,0.029857099,0.03161778,0.029986111,0.029946558,0.029924547,0.0013261111,-0.00093163183,0.0013321856,0.0013313608,0.0013305101,0.0007752975,0.1392711,0.0010472861,0.6597689,0.19913746,0
2017540000,2017388000,1.6099583,0.49510455,1.8188959,-0.1679321,1.743283,1.7664386,1.7793373,0.029857099,0.03161778,0.029986111,0.029946558,0.029924547,0.0013261111,-0.00093163183,0.0013321856,0.0013313608,0.0013305101,0.0007752975,0.1392711,0.0010472861,0.6597689,0.19913746,0
2017548000,2017396000,1.6099583,0.49510455,1.8189312,-0.16789684,1.7433182,1.7664738,1.7793726,0.029857099,0.03161778,0.029986111,0.029946558,0.029924547,0.0013261111,-0.00093163183,0.0013321856,0.0013313608,0.0013305101,0.0007752975,0.1392711,0.0010472861,0.6597689,0.19913746,0
2017556000,2017404000,1.6099583,0.49510455,1.8190358,-0.16779235,1.7434227,1.7665783,1.7794771,0.029857099,0.03161778,0.029986111,0.029946558,0.029924547,0.0013261111,-0.00093163183,0.0013321856,0.0013313608,0.0013305101,0.0007752975,0.1392711,0.0010472861,0.6597689,0.19913746,0
2017564000,2017412000,1.6099583,0.49510455,1.8191094,-0.16771856,1.7434962,1.7666521,1.779551,0.029857099,0.03161778,0.029986111,0.029946558,0.029924547,0.0013261111,-0.00093163183,0.0013321856,0.0013313608,0.0013305101,0.0007752975,0.1392711,0.0010472861,0.6597689,0.19913746,0
2017572000,2017420000,1.6099583,0.49510455,1.8190937,-0.16773432,1.7434804,1.766636,1.7795349,0.029857099,0.03161778,0.029986111,0.029946558,0.029924547,0.0013261111,-0.00093163183,0.0013321856,0.0013313608,0.0013305101,0.0007752975,0.1392711,0.0010472861,0.6597689,0.19913746,0
