timestamp,timestamp_sample,hover_thrust,hover_thrust_var,accel_innov,accel_innov_var,accel_innov_test_ratio,accel_noise_var,valid
2022476000,2022476000,0.5927679,0.003868416,-4.259216,12.925189,0.15594803,5.168356,0
2022484000,2022484000,0.6162539,0.002976704,-2.0383198,6.716609,0.068730906,5.3021545,0
2022572000,2022572000,0.6732086,0.0012166218,-0.6640291,6.4380445,0.007609879,6.194488,0
2022676000,2022676000,0.68761736,0.00080132723,-0.41910514,6.960748,0.0028038034,6.8194175,0
2022772000,2022772000,0.6938879,0.0006295158,-0.3160109,7.291916,0.001521668,7.1818633,0
2022868000,2022868000,0.69836855,0.00051727105,-0.30752414,7.519064,0.001397501,7.424718,0
2022972000,2022972000,0.7,0.0004422057,-0.32168403,7.633911,0.0015061541,7.5500603,0
2023076000,2023076000,0.7,0.00038274363,-0.34878045,7.66171,0.0017641522,7.5836277,0
2023172000,2023172000,0.7,0.0003406022,-0.31563574,7.629003,0.0014509822,7.554001,0
2023268000,2023268000,0.7,0.0003065496,-0.23194687,7.530824,0.00079376507,7.4569063,0
2023372000,2023372000,0.7,0.00027630842,-0.31112814,7.373216,0.001458744,7.3047404,0
2023468000,2023468000,0.7,0.00025463302,-0.18963143,7.224184,0.0005530818,7.155753,0
2023572000,2023572000,0.7,0.00023578935,-0.3650691,7.04787,0.0021011145,6.984964,0
2023668000,2023668000,0.7,0.00022059729,-0.3532865,6.8815246,0.0020152407,6.819964,0
2023772000,2023772000,0.7,0.00020313513,-0.24171628,6.65057,0.00097613625,6.5907955,0
2023860000,2023860000,0.7,0.00018999679,-0.307302,6.4457417,0.0016278537,6.388458,0
2023964000,2023964000,0.7,0.0001771111,-0.25723857,6.2177634,0.0011824846,6.162796,0
2024076000,2024076000,0.7,0.00016456975,-0.26040483,5.9667587,0.0012627491,5.9144187,0
2024172000,2024172000,0.7,0.00015416887,-0.32153016,5.7361617,0.0020025326,5.687089,0
2024276000,2024276000,0.7,0.00014440263,-0.3603108,5.483917,0.002630396,5.439397,0
2024372000,2024372000,0.7,0.00013657245,-0.44122553,5.2703533,0.004104299,5.229109,0
2024468000,2024468000,0.7,0.00012946397,-0.6145233,5.0755353,0.008267084,5.036514,0
2024572000,2024572000,0.7,0.0001224292,-0.58746606,4.893395,0.007836332,4.853943,0
2024668000,2024668000,0.7,0.00011551761,-0.40244249,4.690283,0.0038367729,4.650213,1
2024772000,2024772000,0.7,0.000108756896,-0.043308526,4.4824367,4.6493275e-05,4.4423594,1
2024876000,2024876000,0.69996953,0.00010235443,0.06351361,4.2755322,0.000104833685,4.2372594,1
2024972000,2024972000,0.6998195,9.648564e-05,-0.0010134429,4.0764756,2.79944e-08,4.040778,1
2025076000,2025076000,0.7,9.0690686e-05,-0.04983501,3.8728247,7.125228e-05,3.8394396,1
2025172000,2025172000,0.7,8.614942e-05,-0.20835015,3.7107062,0.0012998361,3.6791992,1
2025276000,2025276000,0.7,8.149806e-05,-0.19562733,3.5413654,0.0012007313,3.5113611,1
2025372000,2025372000,0.7,7.713523e-05,-0.12757516,3.379213,0.00053514825,3.3505783,1
2025468000,2025468000,0.7,7.303921e-05,-0.1509116,3.223832,0.00078492897,3.196629,1
2025572000,2025572000,0.7,6.919097e-05,-0.26241836,3.0762744,0.0024872578,3.0505693,1
2025668000,2025668000,0.7,6.5556305e-05,-0.11963106,2.9349425,0.0005418085,2.910232,1
2025772000,2025772000,0.7,6.187012e-05,-0.1591186,2.7874794,0.0010092243,2.7642052,1
2025876000,2025876000,0.7,5.841446e-05,-0.07186596,2.6481426,0.00021670185,2.6260133,1
2025972000,2025972000,0.7,5.5411358e-05,-0.0079823285,2.5259657,2.8027814e-06,2.5048993,1
2026076000,2026076000,0.7,5.235146e-05,-0.026510704,2.3989558,3.255201e-05,2.3790343,1
2026172000,2026172000,0.7,4.9695696e-05,-0.16181105,2.2881362,0.0012714287,2.2692046,1
2026276000,2026276000,0.7,4.7181933e-05,-0.20115495,2.1817107,0.002060733,2.163754,1
2026372000,2026372000,0.7,4.5002016e-05,-0.10912657,2.0887978,0.0006334642,2.071574,1
2026476000,2026476000,0.7,4.2744614e-05,-0.13867024,1.9919243,0.0010726331,1.9755176,1
2026572000,2026572000,0.7,4.0784445e-05,-0.111603186,1.9067374,0.0007258047,1.891082,1
2026676000,2026676000,0.7,3.87545e-05,-0.11994098,1.8182169,0.00087911764,1.8032969,1
2026772000,2026772000,0.7,3.6830104e-05,-0.093344755,1.7337817,0.0005583968,1.7195618,1
2026876000,2026876000,0.7,3.5007946e-05,-0.22587845,1.6530331,0.0034294582,1.639579,1
2026972000,2026972000,0.7,3.3280092e-05,-0.17425421,1.5762995,0.0021403525,1.5634351,1
2027076000,2027076000,0.7,3.16441e-05,-0.09945384,1.5030236,0.00073119765,1.4907714,1
2027172000,2027172000,0.7,3.0221063e-05,-0.15331998,1.438938,0.0018151518,1.4272175,1
2027276000,2027276000,0.7,2.8740553e-05,-0.11942418,1.3719867,0.001155027,1.3608118,1
2027372000,2027372000,0.6999988,2.7334543e-05,0.0039819926,1.3083017,1.3466369e-06,1.2977042,1
2027476000,2027476000,0.7,2.6004433e-05,-0.16240929,1.2474629,0.0023493709,1.2373481,1
2027572000,2027572000,0.7,2.4845143e-05,-0.07355946,1.1941818,0.000503459,1.1844975,1
2027676000,2027676000,0.7,2.374149e-05,-0.06016107,1.1431705,0.00035178522,1.1339228,1
2027772000,2027772000,0.7,2.259574e-05,-0.024282243,1.0900021,6.010461e-05,1.0812078,1
2027868000,2027868000,0.7,2.1596878e-05,-0.022012107,1.0435573,5.158987e-05,1.035137,1
2027972000,2027972000,0.7,2.0561834e-05,-0.10794729,1.0041093,0.0012894366,1.0,1
2028076000,2028076000,0.7,1.9683608e-05,-0.083132975,1.0039436,0.0007648827,1.0,1
2028172000,2028172000,0.7,1.880754e-05,-0.12399398,1.0037599,0.0017018798,1.0,1
2028276000,2028276000,0.7,1.8007791e-05,-0.16148323,1.0035992,0.002887035,1.0,1
2028372000,2028372000,0.7,1.727384e-05,-0.13096689,1.0034564,0.0018992496,1.0,1
2028476000,2028476000,0.7,1.6542594e-05,-0.025547512,1.0033163,7.2279785e-05,1.0,1
2028572000,2028572000,0.7,1.5921827e-05,-0.0831807,1.0031857,0.0007663397,1.0,1
2028676000,2028676000,0.7,1.5442347e-05,-0.06782111,1.0030869,0.0005095053,1.0,1
2028772000,2028772000,0.7,1.4946051e-05,-0.010613874,1.0029927,1.2479797e-05,1.0,1
2028876000,2028876000,0.69999564,1.439899e-05,0.021489568,1.0028764,5.1164116e-05,1.0,1
2028972000,2028972000,0.7,1.3968288e-05,-0.082594834,1.0027918,0.00075587945,1.0,1
2029076000,2029076000,0.7,1.352705e-05,-0.21388403,1.0027094,0.005069196,1.0,1
2029172000,2029172000,0.7,1.31461375e-05,-0.03523504,1.0026311,0.00013758335,1.0,1
2029268000,2029268000,0.7,1.2755e-05,-0.14780563,1.0025462,0.0024212245,1.0,1
2029372000,2029372000,0.7,1.24182025e-05,-0.08455459,1.0024831,0.00079241884,1.0,1
2029476000,2029476000,0.7,1.2069955e-05,-0.2488861,1.0024176,0.0068660993,1.0,1
2029572000,2029572000,0.7,1.1767357e-05,-0.080441535,1.0023605,0.00071728916,1.0,1
2029676000,2029676000,0.7,1.1426823e-05,-0.25321707,1.002311,0.0071078944,1.0,1
2029772000,2029772000,0.7,1.1178242e-05,-0.08984281,1.0022663,0.0008948311,1.0,1
2029876000,2029876000,0.7,1.0868709e-05,-0.04012858,1.00221,0.00017852802,1.0,1
2029972000,2029972000,0.6999991,1.0621904e-05,0.00604102,1.0021399,4.046222e-06,1.0,1
2030076000,2030076000,0.69993097,1.0367158e-05,-0.010547094,1.0020891,1.2334363e-05,1.0,1
2030172000,2030172000,0.6998411,1.0125861e-05,0.027306035,1.0020027,8.268103e-05,1.0,1
2030276000,2030276000,0.69970703,9.881827e-06,0.11738521,1.0019152,0.0015281053,1.0,1
2030372000,2030372000,0.6995866,9.673877e-06,0.032572746,1.001817,0.00011767328,1.0,1
2030468000,2030468000,0.69954795,9.477014e-06,0.012556538,1.0017829,1.7487337e-05,1.0,1
2030572000,2030572000,0.69937,9.273538e-06,0.035764292,1.0017304,0.00014187502,1.0,1
2030676000,2030676000,0.69928825,9.109833e-06,0.09018316,1.0017194,0.0009021159,1.0,1
2030772000,2030772000,0.6990869,8.936306e-06,0.124294445,1.0016729,0.0017137009,1.0,1
2030876000,2030876000,0.69890165,8.75527e-06,0.076939434,1.001667,0.00065664714,1.0,1
2030972000,2030972000,0.698675,8.608052e-06,0.283644,1.0016277,0.008924796,1.0,1
2031076000,2031076000,0.6984488,8.439342e-06,0.09741912,1.0016115,0.0010528017,1.0,1
2031172000,2031172000,0.6982909,8.289528e-06,0.15185705,1.0015726,0.0025582619,1.0,1
2031276000,2031276000,0.69806373,8.132873e-06,0.23904243,1.0015596,0.0063391454,1.0,1
2031372000,2031372000,0.69783074,7.99555e-06,0.21682921,1.0014957,0.005216077,1.0,1
2031468000,2031468000,0.69779706,7.887338e-06,0.039084017,1.0014826,0.00016947766,1.0,1
2031572000,2031572000,0.6977106,7.759789e-06,0.06805156,1.0014666,0.0005138037,1.0,1
2031668000,2031668000,0.6977056,7.656368e-06,0.026524581,1.0014728,7.805764e-05,1.0,1
2031772000,2031772000,0.6976064,7.5333587e-06,0.12370596,1.0014619,0.0016978695,1.0,1
2031876000,2031876000,0.69751555,7.413523e-06,-0.016281713,1.0014546,2.9412126e-05,1.0,1
2031972000,2031972000,0.6975645,7.2955972e-06,-0.021326201,1.0014452,5.046117e-05,1.0,1
2032076000,2032076000,0.6975433,7.1712407e-06,-0.060630716,1.0014312,0.00040787,1.0,1
2032172000,2032172000,0.69759434,7.059431e-06,-0.011395708,1.0014228,1.4408628e-05,1.0,1
2032268000,2032268000,0.69764495,6.949814e-06,-0.059079558,1.001417,0.0003872728,1.0,1
2032372000,2032372000,0.6976669,6.8442187e-06,0.096460715,1.001394,0.001032413,1.0,1
2032468000,2032468000,0.6976954,6.7599785e-06,-0.036377825,1.0013744,0.00014683665,1.0,1
2032572000,2032572000,0.6977503,6.6522716e-06,0.0037496313,1.0013465,1.5600921e-06,1.0,1
2032676000,2032676000,0.6978179,6.557162e-06,-0.1035493,1.001328,0.0011898042,1.0,1
2032772000,2032772000,0.6978827,6.481376e-06,-0.12285267,1.0013046,0.0016747904,1.0,1
2032876000,2032876000,0.6979469,6.383851e-06,-0.059073973,1.0012867,0.00038724998,1.0,1
2032972000,2032972000,0.6980642,6.304761e-06,-0.054085072,1.0012685,0.0003246099,1.0,1
2033076000,2033076000,0.69814867,6.213031e-06,-0.23743631,1.0012529,0.0062561617,1.0,1
2033172000,2033172000,0.6982272,6.131028e-06,-0.04238385,1.0012314,0.00019935348,1.0,1
2033268000,2033268000,0.6982654,6.0589673e-06,0.0385753,1.0012144,0.00016513877,1.0,1
2033372000,2033372000,0.69826865,5.9971485e-06,0.007069662,1.0011944,5.5467226e-06,1.0,1
2033468000,2033468000,0.6983419,5.9221456e-06,-0.05964616,1.001183,0.00039482897,1.0,1
2033572000,2033572000,0.69841,5.8499577e-06,-0.09770715,1.0011668,0.0010595068,1.0,1
2033668000,2033668000,0.6984788,5.7788598e-06,-0.22950883,1.0011533,0.0058459584,1.0,1
2033772000,2033772000,0.6985665,5.710544e-06,-0.08110053,1.0011393,0.000729979,1.0,1
2033876000,2033876000,0.69858897,5.6440767e-06,-0.012924407,1.0011287,1.8539105e-05,1.0,1
2033972000,2033972000,0.69863415,5.578745e-06,0.0015410893,1.0011095,2.6359157e-07,1.0,1
2034076000,2034076000,0.6986805,5.5159903e-06,0.0076670274,1.0010998,6.5243034e-06,1.0,1
2034172000,2034172000,0.69873846,5.4601687e-06,-0.0361315,1.0010827,0.00014489706,1.0,1
2034268000,2034268000,0.6987782,5.3998265e-06,-0.08824011,1.0010726,0.00086421927,1.0,1
2034372000,2034372000,0.69876444,5.3420454e-06,-0.001269132,1.0010538,1.7877782e-07,1.0,1
2034476000,2034476000,0.69883907,5.285688e-06,0.03916868,1.0010504,0.00017028619,1.0,1
2034572000,2034572000,0.6988951,5.2298938e-06,0.058559783,1.0010356,0.0003806334,1.0,1
2034668000,2034668000,0.6989287,5.1754128e-06,-0.008223606,1.0010262,7.506486e-06,1.0,1
2034772000,2034772000,0.69899875,5.1178486e-06,0.00047952868,1.0010145,2.5523857e-08,1.0,1
2034868000,2034868000,0.699029,5.0711014e-06,-0.0027714707,1.0010067,8.5259165e-07,1.0,1
2034972000,2034972000,0.69907594,5.016296e-06,0.056781545,1.0009943,0.00035788235,1.0,1
2035068000,2035068000,0.6991459,4.9668056e-06,-0.017092288,1.0009885,3.2428645e-05,1.0,1
2035172000,2035172000,0.6991455,4.919345e-06,0.17219831,1.0009735,0.0032914912,1.0,1
2035276000,2035276000,0.6991728,4.882569e-06,0.06966787,1.0009673,0.00053876906,1.0,1
2035372000,2035372000,0.6992162,4.836623e-06,-0.008285627,1.0009537,7.6206893e-06,1.0,1
2035460000,2035460000,0.6992866,4.7952594e-06,-0.1708961,1.0009519,0.003241967,1.0,1
2035572000,2035572000,0.69931847,4.748178e-06,-0.020014763,1.0009388,4.446834e-05,1.0,1
2035676000,2035676000,0.69936806,4.705822e-06,-0.11788947,1.0009353,0.0015427711,1.0,1
2035772000,2035772000,0.6994048,4.663566e-06,-0.05436808,1.0009228,0.0003281292,1.0,1
2035876000,2035876000,0.69942063,4.6188607e-06,-0.07469924,1.0009162,0.0006194298,1.0,1
2035972000,2035972000,0.69943255,4.5786496e-06,-0.022455584,1.0009025,5.597762e-05,1.0,1
2036076000,2036076000,0.6994832,4.5360707e-06,-0.083714314,1.0008998,0.00077797624,1.0,1
2036172000,2036172000,0.6995137,4.497551e-06,0.13290395,1.0008892,0.0019608631,1.0,1
2036276000,2036276000,0.6995181,4.4568187e-06,-0.018350396,1.0008817,3.738227e-05,1.0,1
2036372000,2036372000,0.6995657,4.427773e-06,-0.080558956,1.0008743,0.0007204529,1.0,1
2036476000,2036476000,0.6995679,4.396204e-06,-0.02793942,1.0008705,8.6659136e-05,1.0,1
2036572000,2036572000,0.69959855,4.3719883e-06,-0.06630163,1.0008631,0.0004880128,1.0,1
2036676000,2036676000,0.69960165,4.3415216e-06,-0.13254914,1.0008582,0.0019504676,1.0,1
2036772000,2036772000,0.69960004,4.3072287e-06,0.06815255,1.0008473,0.00051564863,1.0,1
2036876000,2036876000,0.6996333,4.274389e-06,0.056092054,1.0008465,0.00034929524,1.0,1
2036972000,2036972000,0.6996369,4.241459e-06,-0.012063525,1.000834,1.6156373e-05,1.0,1
2037076000,2037076000,0.69967026,4.2134643e-06,-0.030127771,1.0008327,0.000100769714,1.0,1
2037164000,2037164000,0.69968754,4.184346e-06,-0.04739418,1.0008258,0.00024937277,1.0,1
2037268000,2037268000,0.6996938,4.153962e-06,0.066766486,1.000819,0.00049490173,1.0,1
2037372000,2037372000,0.6997155,4.1242533e-06,-0.068267375,1.00081,0.00051740697,1.0,1
2037468000,2037468000,0.69972485,4.0943182e-06,0.051223528,1.0008057,0.00029130414,1.0,1
2037572000,2037572000,0.6997617,4.072268e-06,-0.03438483,1.0008019,0.00013126325,1.0,1
2037668000,2037668000,0.6997632,4.0496966e-06,0.055070452,1.0007987,0.0003367038,1.0,1
2037772000,2037772000,0.69977236,4.0251834e-06,0.026175806,1.0007906,7.607017e-05,1.0,1
2037868000,2037868000,0.6997786,3.997154e-06,0.039075416,1.0007867,0.00016952088,1.0,1
2037972000,2037972000,0.6998056,3.970441e-06,0.0147004295,1.0007805,2.399268e-05,1.0,1
2038076000,2038076000,0.69980663,3.941129e-06,0.06692696,1.0007774,0.0004973043,1.0,1
2038172000,2038172000,0.6998449,3.9176684e-06,0.071392246,1.0007708,0.0005658808,1.0,1
2038268000,2038268000,0.699879,3.8944995e-06,-0.044319227,1.0007694,0.00021807599,1.0,1
2038372000,2038372000,0.69987804,3.8695957e-06,0.019833779,1.0007612,4.367551e-05,1.0,1
2038476000,2038476000,0.6998912,3.845164e-06,-0.031942986,1.0007606,0.000113286536,1.0,1
2038572000,2038572000,0.6999013,3.826129e-06,-0.057979606,1.0007523,0.00037323416,1.0,1
2038676000,2038676000,0.69990844,3.8081596e-06,-0.037152827,1.0007526,0.00015325495,1.0,1
2038772000,2038772000,0.6999106,3.7840266e-06,0.09200117,1.0007439,0.0009397693,1.0,1
2038868000,2038868000,0.6999276,3.763114e-06,-0.12333268,1.0007415,0.0016888531,1.0,1
2038972000,2038972000,0.69996774,3.7405557e-06,-0.014611859,1.0007371,2.3705461e-05,1.0,1
2039076000,2039076000,0.69998294,3.7156558e-06,0.02320727,1.0007354,5.9797956e-05,1.0,1
2039172000,2039172000,0.69997764,3.6958456e-06,0.030990342,1.0007257,0.00010663386,1.0,1
2039268000,2039268000,0.6999837,3.6790746e-06,-0.015012024,1.0007225,2.5022016e-05,1.0,1
2039372000,2039372000,0.7,3.6581453e-06,-0.04778668,1.0007178,0.00025354762,1.0,1
2039468000,2039468000,0.7,3.6366748e-06,-0.14803305,1.0007169,0.0024331207,1.0,1
2039572000,2039572000,0.6999853,3.616279e-06,0.12618938,1.0007123,0.0017680472,1.0,1
2039676000,2039676000,0.69996226,3.593813e-06,-0.004853443,1.0007075,2.6154726e-06,1.0,1
2039772000,2039772000,0.69999003,3.5734643e-06,-0.06290429,1.000702,0.00043935265,1.0,1
2039876000,2039876000,0.699981,3.5517694e-06,-0.033175267,1.0006995,0.00012220322,1.0,1
2039972000,2039972000,0.6999855,3.5321452e-06,0.022939093,1.0006925,5.8426434e-05,1.0,1
2040060000,2040060000,0.7,3.5168391e-06,-0.099585496,1.0006938,0.001101155,1.0,1
2040172000,2040172000,0.69999903,3.496917e-06,-0.055973582,1.000688,0.00034787646,1.0,1
2040276000,2040276000,0.6999999,3.4789546e-06,-0.081224084,1.0006862,0.0007325364,1.0,1
2040372000,2040372000,0.7,3.4604864e-06,-0.053074144,1.0006795,0.00031277246,1.0,1
2040468000,2040468000,0.7,3.4445547e-06,-0.055204354,1.0006806,0.0003383831,1.0,1
2040572000,2040572000,0.7,3.4250436e-06,-0.07866061,1.0006741,0.00068703585,1.0,1
2040668000,2040668000,0.6999934,3.4096831e-06,-0.009948604,1.000671,1.09898165e-05,1.0,1
2040772000,2040772000,0.69999963,3.3908632e-06,-0.024011211,1.000666,6.401717e-05,1.0,1
2040876000,2040876000,0.69999045,3.3768583e-06,-0.026326884,1.0006655,7.696042e-05,1.0,1
2040972000,2040972000,0.69999814,3.3622373e-06,-5.5056124e-05,1.0006604,3.3657513e-10,1.0,1
2041076000,2041076000,0.6999952,3.3463969e-06,0.06332948,1.0006613,0.00044533034,1.0,1
2041172000,2041172000,0.6999992,3.330006e-06,0.016341286,1.0006547,2.9651435e-05,1.0,1
2041268000,2041268000,0.7,3.3160068e-06,-0.066285655,1.0006535,0.00048787985,1.0,1
2041372000,2041372000,0.7,3.302995e-06,-0.011012683,1.0006522,1.3466682e-05,1.0,1
2041476000,2041476000,0.6999807,3.2901519e-06,0.030037787,1.00065,0.00010018694,1.0,1
2041572000,2041572000,0.6999921,3.2746568e-06,-0.08147604,1.0006437,0.0007371194,1.0,1
2041668000,2041668000,0.6999981,3.259322e-06,0.012052234,1.0006437,1.6129212e-05,1.0,1
2041772000,2041772000,0.6999975,3.2450673e-06,-0.031089162,1.000638,0.00010732441,1.0,1
2041876000,2041876000,0.7,3.2310384e-06,-0.023416657,1.0006391,6.0887734e-05,1.0,1
2041972000,2041972000,0.6999931,3.2163862e-06,-0.0134160435,1.0006324,1.9986275e-05,1.0,1
2042076000,2042076000,0.699996,3.2028106e-06,-0.021777216,1.0006329,5.26608e-05,1.0,1
2042164000,2042164000,0.6999891,3.1897862e-06,0.0050721187,1.0006281,2.8566933e-06,1.0,1
2042276000,2042276000,0.6999928,3.1774287e-06,0.0049495418,1.0006272,2.7202898e-06,1.0,1
2042372000,2042372000,0.69999784,3.1655793e-06,0.048122,1.0006233,0.00025714267,1.0,1
2042476000,2042476000,0.69999534,3.1507325e-06,-0.036512483,1.0006242,0.00014803665,1.0,1
2042572000,2042572000,0.69999456,3.1411444e-06,-0.028245237,1.0006187,8.8588895e-05,1.0,1
2042676000,2042676000,0.7,3.1305644e-06,-0.08271014,1.0006192,0.00075963716,1.0,1
2042772000,2042772000,0.6999792,3.119337e-06,0.03494145,1.0006118,0.00013557315,1.0,1
2042876000,2042876000,0.7,3.1053012e-06,-0.037371118,1.0006144,0.00015508254,1.0,1
2042972000,2042972000,0.7,3.0925307e-06,-0.11663379,1.0006077,0.0015105754,1.0,1
2043076000,2043076000,0.69999576,3.0788945e-06,-0.050655864,1.000608,0.00028493968,1.0,1
2043172000,2043172000,0.69999814,3.0683743e-06,-0.039100498,1.0006027,0.00016976977,1.0,1
2043268000,2043268000,0.7,3.0561519e-06,-0.018512737,1.0006024,3.8057235e-05,1.0,1
2043372000,2043372000,0.69999796,3.0485455e-06,0.04786653,1.0006003,0.00025442557,1.0,1
2043476000,2043476000,0.7,3.0392612e-06,-0.1437344,1.0005994,0.0022941337,1.0,1
2043572000,2043572000,0.6999929,3.031101e-06,0.005675327,1.0005944,3.5766893e-06,1.0,1
2043668000,2043668000,0.69999295,3.021251e-06,0.0810889,1.0005934,0.0007301678,1.0,1
2043772000,2043772000,0.6999974,3.0087738e-06,0.06110759,1.0005928,0.00041465834,1.0,1
2043868000,2043868000,0.6999995,2.9973794e-06,-0.08038235,1.0005907,0.00071750086,1.0,1
2043972000,2043972000,0.6999981,2.9887078e-06,0.046005987,1.0005887,0.00023503395,1.0,1
2044076000,2044076000,0.69999474,2.9801931e-06,-0.059111197,1.0005877,0.00038800904,1.0,1
2044172000,2044172000,0.7,2.9709827e-06,-0.10739749,1.0005832,0.001280833,1.0,1
2044268000,2044268000,0.6999991,2.9618743e-06,-0.07089113,1.000583,0.00055806927,1.0,1
2044364000,2044364000,0.7,2.952861e-06,-0.08303827,1.0005826,0.00076570443,1.0,1
2044476000,2044476000,0.7,2.9421547e-06,-0.0692515,1.0005822,0.0005325533,1.0,1
2044572000,2044572000,0.69999903,2.9333496e-06,0.023377351,1.0005786,6.0687165e-05,1.0,1
2044676000,2044676000,0.7,2.9237656e-06,-0.07082135,1.0005796,0.00055697316,1.0,1
2044772000,2044772000,0.69998264,2.9168484e-06,0.08772556,1.0005747,0.0008545948,1.0,1
2044876000,2044876000,0.6999823,2.9075456e-06,0.049317583,1.000575,0.00027009184,1.0,1
2044972000,2044972000,0.69998837,2.8975608e-06,0.11587636,1.0005705,0.001491075,1.0,1
2045068000,2045068000,0.69997925,2.8893612e-06,0.06897681,1.000569,0.0005283439,1.0,1
2045172000,2045172000,0.69999605,2.880458e-06,0.038872708,1.000567,0.00016780348,1.0,1
2045276000,2045276000,0.7,2.8700315e-06,-0.06268818,1.0005682,0.00043639736,1.0,1
2045372000,2045372000,0.69998837,2.8605205e-06,0.09189549,1.0005634,0.0009377807,1.0,1
2045476000,2045476000,0.6999995,2.8503835e-06,-0.09994159,1.0005637,0.0011091882,1.0,1
2045572000,2045572000,0.69999796,2.8411334e-06,0.050714813,1.0005605,0.0002856168,1.0,1
2045668000,2045668000,0.6999986,2.833587e-06,0.017506056,1.0005591,3.4032302e-05,1.0,1
2045772000,2045772000,0.6999998,2.8269524e-06,0.0044792835,1.000558,2.2280879e-06,1.0,1
2045868000,2045868000,0.69999886,2.8179948e-06,0.025244694,1.0005568,7.07711e-05,1.0,1
2045964000,2045964000,0.7,2.810708e-06,-0.11967916,1.0005561,0.0015905712,1.0,1
2046076000,2046076000,0.7,2.8020484e-06,-0.08406514,1.0005559,0.0007847802,1.0,1
2046172000,2046172000,0.6999928,2.7934132e-06,0.028041154,1.0005509,8.731927e-05,1.0,1
2046268000,2046268000,0.7,2.7848914e-06,-0.051089775,1.0005517,0.00028985846,1.0,1
2046372000,2046372000,0.6999998,2.7757733e-06,-0.0072952416,1.0005481,5.9101544e-06,1.0,1
2046468000,2046468000,0.7,2.7720014e-06,-0.046361767,1.0005492,0.0002386926,1.0,1
2046572000,2046572000,0.7,2.7660606e-06,-0.02314113,1.000547,5.946879e-05,1.0,1
2046676000,2046676000,0.7,2.758689e-06,-0.09878053,1.0005482,0.0010835829,1.0,1
2046772000,2046772000,0.7,2.7505969e-06,-0.013227234,1.0005438,1.9429403e-05,1.0,1
2046876000,2046876000,0.7,2.7419555e-06,-0.016553596,1.0005443,3.0430272e-05,1.0,1
2046972000,2046972000,0.69999665,2.7356016e-06,-0.027817488,1.000539,8.593287e-05,1.0,1
2047076000,2047076000,0.7,2.7286935e-06,-0.069929406,1.00054,0.00054305367,1.0,1
2047172000,2047172000,0.69999766,2.7210608e-06,-0.039679427,1.0005352,0.00017484608,1.0,1
2047276000,2047276000,0.7,2.7128972e-06,-0.032269705,1.0005363,0.00011564175,1.0,1
2047372000,2047372000,0.7,2.7083572e-06,-0.017918423,1.0005329,3.565543e-05,1.0,1
2047476000,2047476000,0.69999605,2.7003994e-06,0.030543894,1.0005326,0.00010360365,1.0,1
2047572000,2047572000,0.6999901,2.693211e-06,0.00017775688,1.0005274,3.5089838e-09,1.0,1
2047668000,2047668000,0.7,2.6861003e-06,-0.024776995,1.0005285,6.817503e-05,1.0,1
2047772000,2047772000,0.6999979,2.6798516e-06,-0.027505284,1.0005274,8.4015766e-05,1.0,1
2047868000,2047868000,0.6999988,2.6756504e-06,0.0115394,1.0005279,1.4787498e-05,1.0,1
2047972000,2047972000,0.7,2.6695086e-06,-0.026128296,1.0005261,7.581432e-05,1.0,1
2048068000,2048068000,0.6999971,2.6640068e-06,-0.04803317,1.0005255,0.0002562193,1.0,1
2048172000,2048172000,0.7,2.6580028e-06,-0.12452153,1.0005246,0.0017219423,1.0,1
2048276000,2048276000,0.6999909,2.6506423e-06,0.018526498,1.000525,3.8116785e-05,1.0,1
2048372000,2048372000,0.7,2.6453695e-06,-0.048400167,1.000521,0.00026015073,1.0,1
2048476000,2048476000,0.7,2.6382365e-06,-0.1123118,1.0005229,0.0014008166,1.0,1
2048572000,2048572000,0.6999975,2.6330554e-06,0.016405366,1.0005201,2.988846e-05,1.0,1
2048660000,2048660000,0.69999754,2.6284813e-06,0.038494058,1.0005214,0.0001645578,1.0,1
2048772000,2048772000,0.7,2.6237174e-06,-0.11095657,1.0005183,0.0013672202,1.0,1
2048876000,2048876000,0.6999946,2.6181915e-06,-0.04133074,1.0005175,0.00018970516,1.0,1
2048972000,2048972000,0.7,2.613319e-06,-0.11504307,1.0005144,0.0014697892,1.0,1
2049076000,2049076000,0.7,2.6065964e-06,-0.07714103,1.0005162,0.00066085206,1.0,1
2049172000,2049172000,0.6999953,2.6004805e-06,0.079157695,1.0005125,0.000695859,1.0,1
2049276000,2049276000,0.6999931,2.5952756e-06,0.04225164,1.0005121,0.00019825414,1.0,1
2049372000,2049372000,0.6999993,2.5906854e-06,-0.012113317,1.0005084,1.629532e-05,1.0,1
2049468000,2049468000,0.7,2.584803e-06,-0.07581463,1.0005102,0.0006383252,1.0,1
2049564000,2049564000,0.7,2.5802515e-06,-0.1420314,1.0005102,0.0022402923,1.0,1
2049676000,2049676000,0.7,2.5773722e-06,-0.12374557,1.0005108,0.001700572,1.0,1
2049772000,2049772000,0.6999976,2.5729819e-06,0.034419507,1.0005033,0.00013156739,1.0,1
2049868000,2049868000,0.7,2.5687123e-06,-0.04664546,1.0005032,0.00024163384,1.0,1
2049972000,2049972000,0.7,2.5639486e-06,-0.07654829,1.0005065,0.0006507417,1.0,1
2050076000,2050076000,0.7,2.5577974e-06,-0.012168534,1.0005103,1.6444188e-05,1.0,1
2050172000,2050172000,0.6999995,2.553364e-06,-0.017665341,1.0005118,3.465607e-05,1.0,1
2050276000,2050276000,0.7,2.5485294e-06,-0.044033647,1.0005099,0.00021533042,1.0,1
2050372000,2050372000,0.7,2.54293e-06,-0.02452787,1.0005081,6.681232e-05,1.0,1
2050476000,2050476000,0.7,2.5369561e-06,-0.1940273,1.0005081,0.004180831,1.0,1
2050572000,2050572000,0.7,2.531442e-06,-0.1630613,1.0005093,0.0029528283,1.0,1
2050676000,2050676000,0.7,2.525503e-06,-0.06416555,1.0005084,0.00045723614,1.0,1
2050772000,2050772000,0.7,2.5200686e-06,-0.17832533,1.0005081,0.00353153,1.0,1
2050876000,2050876000,0.7,2.5167835e-06,-0.12969594,1.000508,0.0018680551,1.0,1
2050972000,2050972000,0.7,2.5114293e-06,-0.20446467,1.0005068,0.0046427366,1.0,1
2051076000,2051076000,0.7,2.5069546e-06,-0.12310806,1.0005069,0.0016831016,1.0,1
2051164000,2051164000,0.7,2.5021268e-06,-0.23748043,1.0005062,0.006263158,1.0,1
2051276000,2051276000,0.7,2.4985482e-06,-0.057349525,1.0005054,0.00036525627,1.0,1
2051372000,2051372000,0.7,2.4933902e-06,-0.21191642,1.0005039,0.004987328,1.0,1
2051476000,2051476000,0.7,2.4878573e-06,-0.13373765,1.0005031,0.0019863073,1.0,1
2051564000,2051564000,0.7,2.4844783e-06,-0.12958063,1.0005023,0.0018647455,1.0,1
2051676000,2051676000,0.7,2.4811663e-06,-0.20843315,1.0005006,0.004824738,1.0,1
2051772000,2051772000,0.7,2.4774515e-06,-0.12238976,1.0005007,0.0016635287,1.0,1
2051868000,2051868000,0.7,2.4738104e-06,-0.16437827,1.0004988,0.0030007495,1.0,1
2051972000,2051972000,0.7,2.4685671e-06,-0.13215199,1.0004989,0.0019394933,1.0,1
2052068000,2052068000,0.7,2.463784e-06,-0.10441731,1.0004966,0.0012108403,1.0,1
2052172000,2052172000,0.7,2.461104e-06,-0.17589815,1.0004973,0.0034360862,1.0,1
2052268000,2052268000,0.7,2.4588226e-06,-0.06292046,1.0004963,0.00043966898,1.0,1
2052364000,2052364000,0.7,2.4553765e-06,-0.06515894,1.0004956,0.0004715094,1.0,1
2052476000,2052476000,0.6999999,2.4511962e-06,0.0009236038,1.0004946,9.47358e-08,1.0,1
2052572000,2052572000,0.7,2.447858e-06,-0.08696219,1.0004928,0.00083985535,1.0,1
2052668000,2052668000,0.7,2.4457674e-06,-0.14028627,1.0004916,0.0021856185,1.0,1
2052772000,2052772000,0.7,2.4421474e-06,-0.06947848,1.0004902,0.00053609937,1.0,1
2052868000,2052868000,0.69999933,2.4377755e-06,0.019548133,1.0004889,4.2438085e-05,1.0,1
2052972000,2052972000,0.7,2.4342723e-06,-0.09227964,1.000488,0.00094570866,1.0,1
2053076000,2053076000,0.7,2.4308288e-06,-0.06522313,1.0004874,0.00047244268,1.0,1
2053172000,2053172000,0.7,2.4266142e-06,-0.03575644,1.0004847,0.00014198928,1.0,1
2053276000,2053276000,0.7,2.4244807e-06,-0.08758405,1.0004838,0.00085191743,1.0,1
2053372000,2053372000,0.7,2.4215558e-06,-0.036432818,1.0004834,0.0001474121,1.0,1
2053468000,2053468000,0.7,2.418655e-06,-0.1347453,1.0004829,0.0020163925,1.0,1
2053572000,2053572000,0.7,2.4142691e-06,-0.09904023,1.0004827,0.0010893595,1.0,1
2053676000,2053676000,0.7,2.4099322e-06,-0.16371183,1.0004818,0.0029765174,1.0,1
2053772000,2053772000,0.7,2.4059718e-06,-0.20751807,1.0004812,0.0047825594,1.0,1
2053876000,2053876000,0.7,2.401711e-06,-0.08017231,1.0004804,0.0007138347,1.0,1
2053972000,2053972000,0.7,2.39785e-06,-0.12168573,1.0004789,0.001644481,1.0,1
2054068000,2054068000,0.7,2.3940497e-06,-0.16514137,1.0004784,0.003028737,1.0,1
2054172000,2054172000,0.7,2.3922314e-06,-0.13110933,1.0004787,0.0019090477,1.0,1
2054276000,2054276000,0.7,2.3881419e-06,-0.01927244,1.0004779,4.1249947e-05,1.0,1
2054372000,2054368000,0.7,2.385571e-06,-0.009816945,1.0004772,1.0702937e-05,1.0,1
2054476000,2054476000,0.7,2.3815826e-06,-0.10358149,1.0004765,0.0011915572,1.0,1
2054572000,2054572000,0.7,2.380195e-06,-0.0028583854,1.0004762,9.073865e-07,1.0,1
2054676000,2054676000,0.7,2.3774023e-06,-0.16577764,1.0004752,0.0030521303,1.0,1
2054772000,2054772000,0.7,2.3783132e-06,-0.062486395,1.0004748,0.00043363296,1.0,1
2054868000,2054868000,0.7,2.3747193e-06,-0.13651896,1.000475,0.0020698416,1.0,1
2054972000,2054972000,0.7,2.3719715e-06,-0.023438059,1.0004746,6.1009112e-05,1.0,1
2055076000,2055076000,0.7,2.369279e-06,-0.045497984,1.0004729,0.00022989867,1.0,1
2055172000,2055172000,0.7,2.36693e-06,-0.11900164,1.0004728,0.0015727443,1.0,1
2055276000,2055276000,0.7,2.3642904e-06,-0.14224045,1.0004728,0.0022469761,1.0,1
2055372000,2055372000,0.7,2.3619443e-06,-0.061840706,1.000472,0.00042471875,1.0,1
2055476000,2055476000,0.7,2.3604694e-06,-0.14707308,1.0004723,0.0024022532,1.0,1
2055572000,2055572000,0.7,2.358191e-06,-0.08940207,1.0004705,0.0008876635,1.0,1
2055676000,2055676000,0.7,2.3556631e-06,-0.042978004,1.0004705,0.0002051378,1.0,1
2055772000,2055772000,0.7,2.3534342e-06,-0.17792654,1.0004708,0.0035158838,1.0,1
2055876000,2055876000,0.7,2.3498203e-06,-0.13697247,1.0004709,0.0020836252,1.0,1
2055972000,2055972000,0.7,2.346542e-06,-0.12796336,1.0004684,0.0018185509,1.0,1
2056068000,2056068000,0.7,2.3444193e-06,-0.02791588,1.0004674,8.654803e-05,1.0,1
2056172000,2056172000,0.7,2.3420616e-06,-0.17940357,1.0004672,0.0035745127,1.0,1
2056268000,2056268000,0.7,2.3388804e-06,-0.09698,1.0004677,0.001044525,1.0,1
2056372000,2056372000,0.6999972,2.3376542e-06,0.04403328,1.0004658,0.00021533637,1.0,1
2056468000,2056468000,0.7,2.3345713e-06,-0.14269105,1.0004644,0.0022612535,1.0,1
2056572000,2056572000,0.7,2.3312832e-06,-0.06475578,1.000463,0.00046570785,1.0,1
2056668000,2056668000,0.7,2.3283067e-06,-0.05533996,1.0004619,0.00034012191,1.0,1
2056772000,2056772000,0.7,2.3272416e-06,-0.24194272,1.0004631,0.00650102,1.0,1
2056876000,2056876000,0.7,2.3250673e-06,-0.06691862,1.0004644,0.00049733586,1.0,1
2056972000,2056972000,0.7,2.322066e-06,-0.09136962,1.0004646,0.0009271702,1.0,1
2057060000,2057060000,0.7,2.3204238e-06,-0.11534102,1.0004631,0.0014774881,1.0,1
2057172000,2057172000,0.7,2.3191453e-06,-0.07000718,1.0004631,0.000544304,1.0,1
2057276000,2057276000,0.7,2.3159923e-06,-0.06323867,1.0004625,0.00044414232,1.0,1
2057372000,2057372000,0.7,2.313102e-06,-0.004248932,1.0004619,2.0050097e-06,1.0,1
2057476000,2057476000,0.7,2.311084e-06,-0.06273705,1.0004612,0.00043712475,1.0,1
2057572000,2057572000,0.7,2.3093178e-06,-0.15294722,1.0004618,0.0025980058,1.0,1
2057676000,2057676000,0.7,2.307303e-06,-0.11723147,1.0004622,0.0015263187,1.0,1
2057772000,2057772000,0.7,2.3044754e-06,-0.13626933,1.0004613,0.0020623074,1.0,1
2057876000,2057876000,0.69999856,2.3014702e-06,-0.07337744,1.0004594,0.00059797504,1.0,1
2057972000,2057972000,0.7,2.298738e-06,-0.20831156,1.0004599,0.0048193065,1.0,1
2058068000,2058068000,0.7,2.297058e-06,-0.0996458,1.0004604,0.0011027462,1.0,1
2058172000,2058172000,0.7,2.2962154e-06,-0.16464913,1.0004596,0.0030107647,1.0,1
2058276000,2058276000,0.7,2.2943482e-06,-0.082147144,1.0004585,0.00074945117,1.0,1
2058372000,2058372000,0.7,2.2917136e-06,-0.06696889,1.0004567,0.00049808715,1.0,1
2058468000,2058468000,0.7,2.2891397e-06,-0.10179117,1.0004551,0.0011507478,1.0,1
2058572000,2058572000,0.7,2.2874046e-06,-0.012141019,1.0004562,1.6370792e-05,1.0,1
2058676000,2058676000,0.7,2.2846448e-06,-0.07975734,1.0004559,0.0007064817,1.0,1
2058772000,2058772000,0.7,2.2821148e-06,-0.12477641,1.0004553,0.0017291186,1.0,1
2058876000,2058876000,0.7,2.2804304e-06,-0.11836328,1.0004557,0.0015559427,1.0,1
2058972000,2058972000,0.7,2.2779257e-06,-0.032065324,1.0004554,0.00011419077,1.0,1
2059076000,2059076000,0.7,2.275237e-06,-0.17033336,1.0004557,0.0032222483,1.0,1
2059172000,2059172000,0.7,2.2727531e-06,-0.047685806,1.0004549,0.00025254468,1.0,1
2059268000,2059268000,0.7,2.2703257e-06,-0.112906456,1.0004538,0.0014157873,1.0,1
2059372000,2059372000,0.7,2.2677282e-06,-0.20229316,1.000453,0.004544888,1.0,1
2059476000,2059476000,0.7,2.266197e-06,-0.11283991,1.0004523,0.001414121,1.0,1
2059572000,2059572000,0.7,2.2638492e-06,-0.118278906,1.0004526,0.0015537299,1.0,1
2059668000,2059668000,0.7,2.2615038e-06,-0.107564874,1.000453,0.0012849959,1.0,1
2059772000,2059772000,0.7,2.2589884e-06,-0.043129954,1.0004523,0.00020659468,1.0,1
2059868000,2059868000,0.7,2.2567124e-06,-0.10257934,1.0004507,0.0011686422,1.0,1
2059972000,2059972000,0.7,2.254272e-06,-0.08537522,1.0004511,0.00080951577,1.0,1
2060068000,2060068000,0.7,2.253054e-06,-0.14196864,1.0004508,0.0022384457,1.0,1
2060172000,2060172000,0.7,2.2506217e-06,-0.1454402,1.0004514,0.0023492565,1.0,1
2060268000,2060268000,0.7,2.2483966e-06,-0.08914151,1.0004505,0.0008825146,1.0,1
2060372000,2060372000,0.6999993,2.246066e-06,0.022779547,1.0004442,5.7630816e-05,1.0,1
2060476000,2060476000,0.69998276,2.2456359e-06,-0.06349653,1.0003954,0.00044780175,1.0,1
2060564000,2060564000,0.7,2.2460913e-06,-0.53387225,1.0003766,0.03165692,1.0,1
2060668000,2060668000,0.7,2.2486852e-06,-0.72093785,1.0003577,0.0577295,1.0,1
2060772000,2060772000,0.7,2.2493073e-06,-0.9843683,1.0003489,0.107627004,1.0,1
2060876000,2060876000,0.7,2.2499114e-06,-1.0583025,1.0004015,0.12439496,1.0,1
2060972000,2060972000,0.7,2.2492154e-06,-0.71136284,1.0004485,0.056201145,1.0,1
2061076000,2061076000,0.7,2.2474323e-06,-0.3919688,1.0004781,0.0170629,1.0,1
2061172000,2061172000,0.7,2.2463346e-06,-0.13732043,1.0005001,0.002094164,1.0,1
2061276000,2061276000,0.69996595,2.242749e-06,0.14724636,1.0004797,0.0024078996,1.0,1
2061372000,2061372000,0.6999601,2.240008e-06,-0.061875224,1.0004677,0.00042519488,1.0,1
2061476000,2061476000,0.7,2.2374086e-06,-0.24455181,1.000456,0.0066420366,1.0,1
2061572000,2061572000,0.7,2.236093e-06,-0.37294027,1.0004609,0.015446709,1.0,1
2061676000,2061676000,0.7,2.2345844e-06,-0.1828552,1.0004568,0.0037134178,1.0,1
2061772000,2061772000,0.7,2.2332742e-06,-0.28492844,1.0004599,0.009016322,1.0,1
2061876000,2061876000,0.7,2.2307913e-06,-0.24174224,1.0004556,0.0064902995,1.0,1
2061972000,2061972000,0.7,2.2284994e-06,-0.26015177,1.0004598,0.0075164265,1.0,1
2062068000,2062068000,0.7,2.228278e-06,-0.36128744,1.0004569,0.014496556,1.0,1
2062172000,2062172000,0.7,2.2258412e-06,-0.25206903,1.0004585,0.0070566307,1.0,1
2062268000,2062268000,0.7,2.2236263e-06,-0.27532756,1.0004562,0.008418967,1.0,1
2062372000,2062372000,0.7,2.2222198e-06,-0.22065818,1.0004597,0.005407518,1.0,1
2062476000,2062476000,0.7,2.2218549e-06,-0.14804432,1.0004541,0.0024341303,1.0,1
2062572000,2062572000,0.7,2.219646e-06,-0.2869961,1.0004593,0.00914766,1.0,1
2062668000,2062668000,0.7,2.2184481e-06,-0.25254357,1.0004567,0.0070832376,1.0,1
2062764000,2062764000,0.7,2.2162678e-06,-0.32241938,1.0004568,0.011545199,1.0,1
2062876000,2062876000,0.7,2.2147249e-06,-0.31150967,1.0004553,0.010777125,1.0,1
2062972000,2062972000,0.7,2.2125275e-06,-0.3875337,1.0004597,0.016679263,1.0,1
2063076000,2063076000,0.7,2.2101656e-06,-0.2861173,1.0004556,0.009091757,1.0,1
2063172000,2063172000,0.7,2.208004e-06,-0.24179928,1.0004587,0.0064933426,1.0,1
2063276000,2063276000,0.7,2.2067436e-06,-0.2714457,1.000453,0.008183267,1.0,1
2063372000,2063372000,0.7,2.2046709e-06,-0.24627419,1.0004567,0.006735921,1.0,1
2063476000,2063476000,0.7,2.2034392e-06,-0.2228561,1.0004528,0.0055158185,1.0,1
2063572000,2063572000,0.7,2.2023812e-06,-0.23960535,1.0004566,0.006376058,1.0,1
2063668000,2063668000,0.7,2.2013685e-06,-0.23781104,1.0004534,0.006280941,1.0,1
2063772000,2063772000,0.7,2.2001657e-06,-0.26332968,1.0004569,0.007701206,1.0,1
2063876000,2063876000,0.7,2.1989508e-06,-0.20481427,1.000454,0.0046588723,1.0,1
2063972000,2063972000,0.7,2.1968951e-06,-0.37555605,1.0004572,0.015664212,1.0,1
2064076000,2064076000,0.7,2.1947199e-06,-0.11986209,1.0004511,0.0015956047,1.0,1
2064172000,2064172000,0.7,2.1937485e-06,-0.26008666,1.0004545,0.007512703,1.0,1
2064268000,2064268000,0.7,2.1937803e-06,-0.22980624,1.0004531,0.0058652214,1.0,1
2064372000,2064372000,0.7,2.1926571e-06,-0.25481007,1.0004541,0.0072109667,1.0,1
2064476000,2064476000,0.7,2.1915716e-06,-0.19962814,1.0004498,0.004425942,1.0,1
2064572000,2064572000,0.7,2.189646e-06,-0.3320452,1.0004547,0.012244878,1.0,1
2064676000,2064676000,0.7,2.1875614e-06,-0.18715252,1.000451,0.0038900308,1.0,1
2064772000,2064772000,0.7,2.1876342e-06,-18.299109,10.907211,3.411172,12.084618,1
2064876000,2064876000,0.69994473,2.1968926e-06,2.2168677,11.765134,0.046413053,11.749623,1
2064972000,2064972000,0.6998934,2.2056608e-06,0.82791305,11.428446,0.0066640736,11.388693,1
2065068000,2065068000,0.6998836,2.2144995e-06,0.014835745,10.922812,2.2389363e-06,10.879404,1
2065172000,2065172000,0.69988936,2.2240438e-06,-0.27568775,10.3734665,0.00081408274,10.331701,1
2065268000,2065268000,0.6998976,2.2329068e-06,-0.28652033,9.928412,0.00091873144,9.888424,1
2065372000,2065372000,0.6999085,2.2424679e-06,-0.49340078,9.4643955,0.0028580136,9.426361,1
2065468000,2065468000,0.6999228,2.2512472e-06,-0.2951148,9.058111,0.0010683209,9.02159,1
2065572000,2065572000,0.69993985,2.2605543e-06,-0.3452758,8.600287,0.0015401988,8.565578,1
2065668000,2065668000,0.69995135,2.2693134e-06,-0.2372917,8.263838,0.0007570783,8.230516,1
2065772000,2065772000,0.69996667,2.2787488e-06,-0.3876989,7.908965,0.0021116743,7.877033,1
2065868000,2065868000,0.6999845,2.2872853e-06,-0.42357647,7.569453,0.0026336415,7.5388875,1
2065972000,2065972000,0.7,2.296554e-06,-0.3692284,7.2446575,0.0020908832,7.2153497,1
2066076000,2066076000,0.7,2.3057414e-06,-0.11263561,6.9338765,0.00020329788,6.906023,1
2066172000,2066172000,0.7,2.3140608e-06,-0.299447,6.6364765,0.0015012737,6.6096087,1
2066268000,2066268000,0.7,2.3221342e-06,-0.5335371,6.326328,0.0049995976,6.3008294,1
2066364000,2066364000,0.7,2.330239e-06,-0.34428185,6.0549297,0.0021750869,6.030359,1
2066468000,2066468000,0.7,2.3388764e-06,-0.1270391,5.772758,0.00031063397,5.749489,1
2066572000,2066572000,0.7,2.3472776e-06,-0.31363213,5.481809,0.0019937684,5.459533,1
2066676000,2066676000,0.7,2.3559253e-06,-0.39585042,5.246557,0.0033185265,5.2252316,1
2066772000,2066772000,0.7,2.3633643e-06,-0.2859444,5.0014515,0.0018164549,4.9810743,1
2066876000,2066876000,0.7,2.3712569e-06,-0.105825275,4.7497587,0.00026197796,4.7305603,1
2066972000,2066972000,0.7,2.378704e-06,-0.44493145,4.5463476,0.004838169,4.5278645,1
2067068000,2067068000,0.7,2.3859943e-06,-0.4499125,4.351404,0.005168734,4.333687,1
2067172000,2067172000,0.7,2.3941664e-06,-0.35142753,4.1813245,0.0032818231,4.1642,1
2067276000,2067276000,0.7,2.4013598e-06,-0.1038591,3.9711826,0.0003018052,3.9550655,1
2067372000,2067372000,0.7,2.4079125e-06,-0.41434944,3.7859232,0.005038708,3.7704344,1
2067476000,2067476000,0.7,2.4150615e-06,-0.34228876,3.6093574,0.0036067239,3.594518,1
2067572000,2067572000,0.7,2.4214064e-06,-0.34369725,3.4546149,0.0037993558,3.4403725,1
2067668000,2067668000,0.7,2.4272024e-06,-0.038897686,3.2945068,5.1028714e-05,3.2811837,1
2067772000,2067772000,0.7,2.4333897e-06,-0.3771246,3.129008,0.0050503393,3.116104,1
2067876000,2067876000,0.7,2.4397066e-06,-0.3162275,2.9832582,0.0037244824,2.9709194,1
2067972000,2067972000,0.7,2.4450273e-06,-0.5834073,2.8450186,0.0132927885,2.8335054,1
2068068000,2068068000,0.7,2.4499882e-06,-0.5246784,2.7141771,0.011269527,2.7030284,1
2068172000,2068172000,0.7,2.4557542e-06,-0.43109402,2.5984235,0.0079467865,2.5876007,1
2068276000,2068276000,0.7,2.4601989e-06,-0.15710981,2.4679952,0.0011112705,2.4578052,1
2068372000,2068372000,0.7,2.464139e-06,-0.41329905,2.3533485,0.00806492,2.3435118,1
2068468000,2068468000,0.7,2.4677138e-06,-0.3238923,2.2434745,0.0051956223,2.2340407,1
2068572000,2068572000,0.7,2.4710246e-06,-0.31450143,2.1302452,0.0051590907,2.1212466,1
2068676000,2068676000,0.69998646,2.4774417e-06,3.4859014,18.528196,0.07287097,18.491508,1
2068772000,2068772000,0.69994724,2.48703e-06,3.0561345,17.974272,0.057736587,17.926275,1
2068868000,2068868000,0.69989514,2.4966228e-06,3.6350937,17.441397,0.08417972,17.402426,1
2068972000,2068972000,0.6998431,2.5071056e-06,3.8998542,17.020918,0.09928217,16.984114,1
2069076000,2069076000,0.69978243,2.5175977e-06,4.56946,16.62828,0.1395211,16.602245,1
2069172000,2069172000,0.699729,2.5273682e-06,8.141859,16.496498,0.4464912,16.594748,1
2069276000,2069276000,0.6996914,2.5381237e-06,8.125293,17.558811,0.41777307,17.62136,1
2069372000,2069372000,0.6996581,2.5480526e-06,8.059316,18.169813,0.39719462,18.204102,1
2069476000,2069476000,0.6996256,2.558811e-06,8.120693,18.491665,0.39624852,18.508213,1
2069572000,2069572000,0.69959325,2.56874e-06,8.18199,18.59566,0.40000346,18.598219,1
2069668000,2069668000,0.6995607,2.578669e-06,8.21621,18.537058,0.40463156,18.527702,1
2069772000,2069772000,0.6995248,2.5894249e-06,8.208109,18.326221,0.40848002,18.305544,1
2069844000,0,nan,nan,nan,nan,nan,nan,0
