timestamp,timestamp_sample,q[0],q[1],q[2],q[3],delta_q_reset[0],delta_q_reset[1],delta_q_reset[2],delta_q_reset[3],quat_reset_counter
2015920000,0,0.62722325,-0.00047301617,0.00069281715,0.7788449,0.0,0.0,0.0,0.0,0
2015924000,0,0.62722325,-0.000473023,0.0006929394,0.7788449,0.0,0.0,0.0,0.0,0
2015932000,0,0.62722325,-0.00047304013,0.0006931825,0.7788449,0.0,0.0,0.0,0.0,0
2015940000,0,0.62722325,-0.0004734519,0.00069271034,0.7788449,0.0,0.0,0.0,0.0,0
2015952000,0,0.62722325,-0.00047347936,0.0006930773,0.7788449,0.0,0.0,0.0,0.0,0
2015960000,0,0.62722325,-0.00047380556,0.000692481,0.7788449,0.0,0.0,0.0,0.0,0
2015972000,0,0.62722325,-0.00047383158,0.00069284346,0.7788449,0.0,0.0,0.0,0.0,0
2015980000,0,0.62722325,-0.0004741393,0.000692239,0.7788449,0.0,0.0,0.0,0.0,0
2015992000,0,0.62722325,-0.00047417957,0.00069260376,0.7788449,0.0,0.0,0.0,0.0,0
2016000000,0,0.62722325,-0.00047420448,0.0006928508,0.7788449,0.0,0.0,0.0,0.0,0
2016012000,0,0.62722325,-0.00047455222,0.0006923721,0.7788449,0.0,0.0,0.0,0.0,0
2016020000,0,0.62722325,-0.00047457428,0.00069261726,0.7788449,0.0,0.0,0.0,0.0,0
2016032000,0,0.62722325,-0.00047490583,0.00069213874,0.7788449,0.0,0.0,0.0,0.0,0
2016040000,0,0.62722325,-0.0004749303,0.000692386,0.7788449,0.0,0.0,0.0,0.0,0
2016052000,0,0.62722325,-0.00047532222,0.0006920186,0.7788449,0.0,0.0,0.0,0.0,0
2016060000,0,0.62722325,-0.0004753455,0.0006922679,0.7788449,0.0,0.0,0.0,0.0,0
2016072000,0,0.62722325,-0.00047574076,0.0006918854,0.7788449,0.0,0.0,0.0,0.0,0
2016080000,0,0.62722325,-0.00047576314,0.00069213327,0.7788449,0.0,0.0,0.0,0.0,0
2016092000,0,0.62722325,-0.00047617772,0.0006918025,0.7788449,0.0,0.0,0.0,0.0,0
2016100000,0,0.62722325,-0.00047619687,0.0006920477,0.7788449,0.0,0.0,0.0,0.0,0
2016112000,0,0.62722325,-0.00047667357,0.000691777,0.7788449,0.0,0.0,0.0,0.0,0
2016120000,0,0.62722325,-0.0004766962,0.0006920254,0.7788449,0.0,0.0,0.0,0.0,0
2016132000,0,0.62722325,-0.00047716295,0.0006917585,0.7788449,0.0,0.0,0.0,0.0,0
2016140000,0,0.62722325,-0.00047760468,0.0006913323,0.7788449,0.0,0.0,0.0,0.0,0
2016152000,0,0.62722325,-0.00047764205,0.00069169694,0.7788449,0.0,0.0,0.0,0.0,0
2016160000,0,0.62722325,-0.00047806275,0.000691287,0.7788449,0.0,0.0,0.0,0.0,0
2016172000,0,0.62722325,-0.00047809826,0.0006916496,0.7788449,0.0,0.0,0.0,0.0,0
2016180000,0,0.62722325,-0.00047850408,0.0006911581,0.7788449,0.0,0.0,0.0,0.0,0
2016192000,0,0.62722325,-0.0004785372,0.0006915267,0.7788449,0.0,0.0,0.0,0.0,0
2016200000,0,0.62722325,-0.0004789047,0.0006909723,0.7788449,0.0,0.0,0.0,0.0,0
2016212000,0,0.62722325,-0.0004789247,0.000691329,0.7788449,0.0,0.0,0.0,0.0,0
2016220000,0,0.62722325,-0.00047930193,0.00069081044,0.7788449,0.0,0.0,0.0,0.0,0
2016232000,0,0.62722325,-0.00047933913,0.0006911726,0.7788449,0.0,0.0,0.0,0.0,0
2016240000,0,0.62722325,-0.00047972906,0.00069068227,0.7788449,0.0,0.0,0.0,0.0,0
2016252000,0,0.62722325,-0.00047976055,0.0006910392,0.7788449,0.0,0.0,0.0,0.0,0
2016260000,0,0.62722325,-0.00048010302,0.0006904813,0.7788449,0.0,0.0,0.0,0.0,0
2016272000,0,0.62722325,-0.0004801377,0.0006908419,0.7788449,0.0,0.0,0.0,0.0,0
2016280000,0,0.62722325,-0.0004801563,0.0006910824,0.7788449,0.0,0.0,0.0,0.0,0
2016292000,0,0.62722325,-0.00048048675,0.0006905351,0.7788449,0.0,0.0,0.0,0.0,0
2016300000,0,0.62722325,-0.00048051175,0.00069078244,0.7788449,0.0,0.0,0.0,0.0,0
2016312000,0,0.6272233,-0.00048084068,0.0006902791,0.7788449,0.0,0.0,0.0,0.0,0
2016320000,0,0.6272233,-0.0004808579,0.00069052156,0.7788449,0.0,0.0,0.0,0.0,0
2016332000,0,0.6272233,-0.0004812598,0.00069018843,0.7788449,0.0,0.0,0.0,0.0,0
2016340000,0,0.6272233,-0.0004812885,0.0006904317,0.7788449,0.0,0.0,0.0,0.0,0
2016352000,0,0.6272233,-0.00048165958,0.00069000595,0.7788449,0.0,0.0,0.0,0.0,0
2016360000,0,0.6272233,-0.0004816889,0.00069024996,0.7788449,0.0,0.0,0.0,0.0,0
2016372000,0,0.6272233,-0.00048209875,0.0006899342,0.7788449,0.0,0.0,0.0,0.0,0
2016380000,0,0.6272233,-0.00048212832,0.00069017836,0.7788449,0.0,0.0,0.0,0.0,0
2016392000,0,0.6272233,-0.00048251424,0.0006897778,0.7788449,0.0,0.0,0.0,0.0,0
2016400000,0,0.6272233,-0.0004825424,0.00069002097,0.7788449,0.0,0.0,0.0,0.0,0
2016412000,0,0.6272233,-0.00048300702,0.0006897631,0.7788449,0.0,0.0,0.0,0.0,0
2016420000,0,0.6272233,-0.00048303208,0.0006900025,0.7788449,0.0,0.0,0.0,0.0,0
2016432000,0,0.6272233,-0.00048350953,0.0006897435,0.7788449,0.0,0.0,0.0,0.0,0
2016440000,0,0.6272233,-0.00048353354,0.0006899932,0.7788449,0.0,0.0,0.0,0.0,0
2016452000,0,0.6272233,-0.00048393864,0.0006896633,0.7788449,0.0,0.0,0.0,0.0,0
2016460000,0,0.6272233,-0.00048395924,0.0006899077,0.7788449,0.0,0.0,0.0,0.0,0
2016472000,0,0.6272233,-0.00048437883,0.0006895612,0.7788449,0.0,0.0,0.0,0.0,0
2016480000,0,0.6272233,-0.00048439865,0.00068980485,0.7788449,0.0,0.0,0.0,0.0,0
2016492000,0,0.6272233,-0.00048486394,0.00068952993,0.7788449,0.0,0.0,0.0,0.0,0
2016500000,0,0.6272233,-0.00048523335,0.0006889942,0.77884483,0.0,0.0,0.0,0.0,0
2016512000,0,0.6272233,-0.00048527066,0.00068935694,0.77884483,0.0,0.0,0.0,0.0,0
2016520000,0,0.6272233,-0.00048528437,0.00068959326,0.77884483,0.0,0.0,0.0,0.0,0
2016532000,0,0.6272233,-0.0004857166,0.00068925327,0.77884483,0.0,0.0,0.0,0.0,0
2016540000,0,0.6272233,-0.0004857386,0.0006894976,0.77884483,0.0,0.0,0.0,0.0,0
2016552000,0,0.6272233,-0.00048614191,0.0006891221,0.77884483,0.0,0.0,0.0,0.0,0
2016560000,0,0.6272233,-0.00048615944,0.00068936223,0.77884483,0.0,0.0,0.0,0.0,0
2016572000,0,0.6272233,-0.00048652967,0.00068893255,0.77884483,0.0,0.0,0.0,0.0,0
2016580000,0,0.6272233,-0.0004865497,0.00068917545,0.77884483,0.0,0.0,0.0,0.0,0
2016588000,0,0.6272233,-0.00048686969,0.0006885447,0.77884483,0.0,0.0,0.0,0.0,0
2016600000,0,0.6272233,-0.00048689812,0.00068890903,0.77884483,0.0,0.0,0.0,0.0,0
2016612000,0,0.6272233,-0.00048726317,0.0006884808,0.77884483,0.0,0.0,0.0,0.0,0
2016620000,0,0.6272233,-0.00048728584,0.00068872824,0.77884483,0.0,0.0,0.0,0.0,0
2016632000,0,0.6272233,-0.00048767967,0.00068832806,0.77884483,0.0,0.0,0.0,0.0,0
2016640000,0,0.6272233,-0.00048769978,0.0006885736,0.77884483,0.0,0.0,0.0,0.0,0
2016652000,0,0.6272233,-0.0004880937,0.0006882188,0.77884483,0.0,0.0,0.0,0.0,0
2016660000,0,0.6272233,-0.00048812272,0.000688462,0.77884483,0.0,0.0,0.0,0.0,0
2016672000,0,0.6272233,-0.0004885118,0.0006880925,0.77884483,0.0,0.0,0.0,0.0,0
2016680000,0,0.6272233,-0.0004885352,0.00068834197,0.77884483,0.0,0.0,0.0,0.0,0
2016692000,0,0.6272233,-0.0004889964,0.0006880664,0.77884483,0.0,0.0,0.0,0.0,0
2016700000,0,0.6272233,-0.0004890188,0.0006883144,0.77884483,0.0,0.0,0.0,0.0,0
2016712000,0,0.6272233,-0.00048943213,0.00068797974,0.77884483,0.0,0.0,0.0,0.0,0
2016720000,0,0.6272233,-0.0004894517,0.0006882253,0.77884483,0.0,0.0,0.0,0.0,0
2016732000,0,0.6272233,-0.00048992457,0.00068796036,0.77884483,0.0,0.0,0.0,0.0,0
2016740000,0,0.6272233,-0.00048995024,0.0006882096,0.77884483,0.0,0.0,0.0,0.0,0
2016752000,0,0.6272233,-0.00049042207,0.00068796123,0.77884483,0.0,0.0,0.0,0.0,0
2016760000,0,0.6272233,-0.00049085595,0.00068751763,0.77884483,0.0,0.0,0.0,0.0,0
2016772000,0,0.6272233,-0.00049089233,0.00068788126,0.77884483,0.0,0.0,0.0,0.0,0
2016780000,0,0.6272233,-0.0004913349,0.00068751833,0.77884483,0.0,0.0,0.0,0.0,0
2016792000,0,0.6272233,-0.00049137115,0.00068788166,0.77884483,0.0,0.0,0.0,0.0,0
2016800000,0,0.6272233,-0.00049182674,0.0006874806,0.77884483,0.0,0.0,0.0,0.0,0
2016812000,0,0.6272233,-0.0004922218,0.00068710296,0.77884483,0.0,0.0,0.0,0.0,0
2016820000,0,0.6272233,-0.0004922482,0.000687344,0.77884483,0.0,0.0,0.0,0.0,0
2016832000,0,0.6272234,-0.0004926687,0.0006869984,0.77884483,0.0,0.0,0.0,0.0,0
2016840000,0,0.6272234,-0.0004926909,0.00068723486,0.77884483,0.0,0.0,0.0,0.0,0
2016852000,0,0.6272234,-0.0004930508,0.00068679015,0.77884483,0.0,0.0,0.0,0.0,0
2016860000,0,0.6272234,-0.000493078,0.00068703137,0.77884483,0.0,0.0,0.0,0.0,0
2016872000,0,0.6272234,-0.00049310457,0.00068739156,0.77884483,0.0,0.0,0.0,0.0,0
2016880000,0,0.6272234,-0.00049346924,0.00068684673,0.77884483,0.0,0.0,0.0,0.0,0
2016892000,0,0.6272234,-0.0004934973,0.0006872115,0.77884483,0.0,0.0,0.0,0.0,0
2016900000,0,0.6272234,-0.00049383135,0.0006866374,0.77884483,0.0,0.0,0.0,0.0,0
2016912000,0,0.6272234,-0.00049386173,0.00068700366,0.77884483,0.0,0.0,0.0,0.0,0
2016920000,0,0.6272234,-0.00049425167,0.0006865252,0.77884483,0.0,0.0,0.0,0.0,0
2016932000,0,0.6272234,-0.0004942899,0.00068688847,0.77884483,0.0,0.0,0.0,0.0,0
2016940000,0,0.6272234,-0.0004946906,0.00068639667,0.77884483,0.0,0.0,0.0,0.0,0
2016952000,0,0.6272234,-0.0004947214,0.0006867641,0.77884483,0.0,0.0,0.0,0.0,0
2016960000,0,0.6272234,-0.0004950852,0.00068624376,0.77884483,0.0,0.0,0.0,0.0,0
2016972000,0,0.6272234,-0.00049511995,0.0006866143,0.77884483,0.0,0.0,0.0,0.0,0
2016980000,0,0.6272234,-0.0004953866,0.00068584277,0.77884483,0.0,0.0,0.0,0.0,0
2016992000,0,0.6272234,-0.0004954287,0.0006862101,0.77884483,0.0,0.0,0.0,0.0,0
2017000000,0,0.6272234,-0.0004954532,0.0006864567,0.77884483,0.0,0.0,0.0,0.0,0
2017012000,0,0.6272234,-0.0004957529,0.0006855146,0.77884483,0.0,0.0,0.0,0.0,0
2017020000,0,0.6272234,-0.00049577333,0.0006857602,0.77884483,0.0,0.0,0.0,0.0,0
2017032000,0,0.6272234,-0.0004958027,0.00068612257,0.77884483,0.0,0.0,0.0,0.0,0
2017040000,0,0.6272234,-0.00049582764,0.0006863697,0.77884483,0.0,0.0,0.0,0.0,0
2017052000,0,0.6272234,-0.00049630174,0.0006861104,0.77884483,0.0,0.0,0.0,0.0,0
2017060000,0,0.6272234,-0.00049674173,0.00068571646,0.77884483,0.0,0.0,0.0,0.0,0
2017072000,0,0.6272234,-0.00049677945,0.0006860795,0.77884483,0.0,0.0,0.0,0.0,0
2017080000,0,0.6272234,-0.00049709465,0.00068547454,0.77884483,0.0,0.0,0.0,0.0,0
2017092000,0,0.6272234,-0.0004971285,0.0006858323,0.77884483,0.0,0.0,0.0,0.0,0
2017100000,0,0.6272234,-0.00049715064,0.0006860755,0.77884483,0.0,0.0,0.0,0.0,0
2017112000,0,0.6272234,-0.0004974562,0.00068519945,0.77884483,0.0,0.0,0.0,0.0,0
2017120000,0,0.6272234,-0.00049747044,0.0006854341,0.77884483,0.0,0.0,0.0,0.0,0
2017132000,0,0.6272234,-0.00049750233,0.00068579544,0.77884483,0.0,0.0,0.0,0.0,0
2017140000,0,0.6272234,-0.00049779477,0.0006849781,0.77884483,0.0,0.0,0.0,0.0,0
2017152000,0,0.6272234,-0.00049782905,0.00068533403,0.77884483,0.0,0.0,0.0,0.0,0
2017160000,0,0.6272234,-0.00049785024,0.000685575,0.77884483,0.0,0.0,0.0,0.0,0
2017172000,0,0.6272234,-0.00049817306,0.00068492,0.7788448,0.0,0.0,0.0,0.0,0
2017180000,0,0.6272234,-0.0004981942,0.0006851631,0.7788448,0.0,0.0,0.0,0.0,0
2017192000,0,0.6272234,-0.00049823057,0.0006855271,0.7788448,0.0,0.0,0.0,0.0,0
2017200000,0,0.6272234,-0.00049850944,0.0006844936,0.7788448,0.0,0.0,0.0,0.0,0
2017212000,0,0.6272234,-0.000498542,0.0006848579,0.7788448,0.0,0.0,0.0,0.0,0
2017220000,0,0.6272234,-0.0004985669,0.0006851019,0.7788448,0.0,0.0,0.0,0.0,0
2017232000,0,0.6272234,-0.0004986054,0.0006854698,0.7788448,0.0,0.0,0.0,0.0,0
2017240000,0,0.6272234,-0.0004989881,0.00068496173,0.7788448,0.0,0.0,0.0,0.0,0
2017252000,0,0.6272234,-0.00049902254,0.00068532757,0.7788448,0.0,0.0,0.0,0.0,0
2017260000,0,0.6272234,-0.00049930555,0.0006843759,0.7788448,0.0,0.0,0.0,0.0,0
2017272000,0,0.6272234,-0.0004993398,0.0006847397,0.7788448,0.0,0.0,0.0,0.0,0
2017280000,0,0.6272234,-0.00049936457,0.00068498345,0.7788448,0.0,0.0,0.0,0.0,0
2017292000,0,0.6272234,-0.00049965223,0.0006839026,0.7788448,0.0,0.0,0.0,0.0,0
2017300000,0,0.6272234,-0.0004996746,0.00068414607,0.7788448,0.0,0.0,0.0,0.0,0
2017312000,0,0.6272234,-0.000499705,0.0006845038,0.7788448,0.0,0.0,0.0,0.0,0
2017320000,0,0.6272234,-0.0004997266,0.00068474293,0.7788448,0.0,0.0,0.0,0.0,0
2017332000,0,0.6272234,-0.0005000264,0.00068415754,0.7788448,0.0,0.0,0.0,0.0,0
2017340000,0,0.6272234,-0.0005000496,0.00068438926,0.7788448,0.0,0.0,0.0,0.0,0
2017352000,0,0.6272234,-0.0005000798,0.0006847443,0.7788448,0.0,0.0,0.0,0.0,0
2017360000,0,0.6272234,-0.00050031784,0.0006832666,0.7788448,0.0,0.0,0.0,0.0,0
2017372000,0,0.6272234,-0.0005003565,0.0006836202,0.7788448,0.0,0.0,0.0,0.0,0
2017380000,0,0.6272234,-0.00050037703,0.00068385614,0.7788448,0.0,0.0,0.0,0.0,0
2017392000,0,0.6272234,-0.0005004165,0.00068421784,0.7788448,0.0,0.0,0.0,0.0,0
2017400000,0,0.6272234,-0.00050043775,0.0006844545,0.7788448,0.0,0.0,0.0,0.0,0
2017412000,0,0.6272234,-0.00050070253,0.0006830711,0.7788448,0.0,0.0,0.0,0.0,0
2017420000,0,0.6272234,-0.0005007341,0.0006833086,0.7788448,0.0,0.0,0.0,0.0,0
2017432000,0,0.6272234,-0.00050077273,0.00068367115,0.7788448,0.0,0.0,0.0,0.0,0
2017440000,0,0.6272234,-0.00050079625,0.0006839102,0.7788448,0.0,0.0,0.0,0.0,0
2017452000,0,0.6272234,-0.0005008305,0.00068426714,0.7788448,0.0,0.0,0.0,0.0,0
2017460000,0,0.6272234,-0.0005008553,0.00068450643,0.7788448,0.0,0.0,0.0,0.0,0
2017472000,0,0.6272234,-0.0005011049,0.0006829671,0.7788448,0.0,0.0,0.0,0.0,0
2017480000,0,0.6272234,-0.0005011277,0.00068320497,0.7788448,0.0,0.0,0.0,0.0,0
2017492000,0,0.6272234,-0.0005011554,0.000683554,0.7788448,0.0,0.0,0.0,0.0,0
2017500000,0,0.6272234,-0.0005011749,0.00068378675,0.7788448,0.0,0.0,0.0,0.0,0
2017512000,0,0.6272234,-0.00050120504,0.00068413524,0.7788448,0.0,0.0,0.0,0.0,0
2017520000,0,0.6272234,-0.0005014592,0.0006828297,0.7788448,0.0,0.0,0.0,0.0,0
2017532000,0,0.6272234,-0.0005015004,0.0006831799,0.7788448,0.0,0.0,0.0,0.0,0
2017540000,0,0.6272234,-0.000501523,0.00068341364,0.7788448,0.0,0.0,0.0,0.0,0
2017552000,0,0.6272234,-0.00050155993,0.0006837658,0.7788448,0.0,0.0,0.0,0.0,0
2017560000,0,0.6272234,-0.0005015838,0.00068400014,0.7788448,0.0,0.0,0.0,0.0,0
2017572000,0,0.6272234,-0.00050180696,0.00068224856,0.7788448,0.0,0.0,0.0,0.0,0
2017580000,0,0.6272234,-0.00050183205,0.0006824868,0.7788448,0.0,0.0,0.0,0.0,0
2017592000,0,0.6272234,-0.0005018694,0.0006828402,0.7788448,0.0,0.0,0.0,0.0,0
2017600000,0,0.6272234,-0.00050189265,0.0006830735,0.7788448,0.0,0.0,0.0,0.0,0
2017612000,0,0.6272234,-0.00050192926,0.00068342517,0.7788448,0.0,0.0,0.0,0.0,0
2017620000,0,0.6272234,-0.00050195225,0.0006836585,0.7788448,0.0,0.0,0.0,0.0,0
2017632000,0,0.6272234,-0.000502182,0.00068204314,0.7788448,0.0,0.0,0.0,0.0,0
2017640000,0,0.6272234,-0.0005022068,0.00068226625,0.7788448,0.0,0.0,0.0,0.0,0
2017652000,0,0.6272234,-0.00050224236,0.0006826118,0.7788448,0.0,0.0,0.0,0.0,0
2017660000,0,0.6272234,-0.00050226145,0.00068283797,0.7788448,0.0,0.0,0.0,0.0,0
2017672000,0,0.6272234,-0.0005022972,0.0006831837,0.7788448,0.0,0.0,0.0,0.0,0
2017680000,0,0.6272234,-0.00050231995,0.0006834126,0.7788448,0.0,0.0,0.0,0.0,0
2017692000,0,0.6272234,-0.0005023572,0.00068375835,0.7788448,0.0,0.0,0.0,0.0,0
2017700000,0,0.6272234,-0.00050262036,0.0006826488,0.7788448,0.0,0.0,0.0,0.0,0
2017712000,0,0.6272234,-0.0005026574,0.00068299694,0.7788448,0.0,0.0,0.0,0.0,0
2017720000,0,0.6272234,-0.000502683,0.0006832285,0.7788448,0.0,0.0,0.0,0.0,0
2017732000,0,0.6272234,-0.0005027178,0.00068357104,0.7788448,0.0,0.0,0.0,0.0,0
2017740000,0,0.6272234,-0.00050297886,0.0006823125,0.7788448,0.0,0.0,0.0,0.0,0
2017752000,0,0.6272234,-0.0005030148,0.0006826581,0.7788448,0.0,0.0,0.0,0.0,0
2017760000,0,0.6272234,-0.00050303736,0.00068288506,0.7788448,0.0,0.0,0.0,0.0,0
2017772000,0,0.6272234,-0.0005030714,0.0006832224,0.7788448,0.0,0.0,0.0,0.0,0
2017780000,0,0.6272234,-0.00050309073,0.0006834433,0.7788448,0.0,0.0,0.0,0.0,0
2017792000,0,0.6272234,-0.00050335185,0.0006822319,0.7788448,0.0,0.0,0.0,0.0,0
2017800000,0,0.6272234,-0.00050337735,0.00068245846,0.7788448,0.0,0.0,0.0,0.0,0
2017812000,0,0.6272234,-0.000503416,0.0006827968,0.7788448,0.0,0.0,0.0,0.0,0
2017820000,0,0.6272234,-0.0005034404,0.00068302156,0.7788448,0.0,0.0,0.0,0.0,0
2017828000,0,0.6272234,-0.0005034678,0.0006832494,0.7788448,0.0,0.0,0.0,0.0,0
2017840000,0,0.6272234,-0.0005037185,0.00068184384,0.7788448,0.0,0.0,0.0,0.0,0
2017852000,0,0.6272234,-0.00050375785,0.00068218185,0.7788448,0.0,0.0,0.0,0.0,0
2017860000,0,0.6272234,-0.00050378323,0.0006824067,0.7788448,0.0,0.0,0.0,0.0,0
2017872000,0,0.6272234,-0.0005038201,0.00068274146,0.7788448,0.0,0.0,0.0,0.0,0
2017880000,0,0.6272234,-0.0005038421,0.00068296085,0.7788448,0.0,0.0,0.0,0.0,0
2017892000,0,0.6272234,-0.0005041158,0.0006819942,0.7788448,0.0,0.0,0.0,0.0,0
2017900000,0,0.6272234,-0.00050413987,0.0006822162,0.7788448,0.0,0.0,0.0,0.0,0
2017912000,0,0.6272234,-0.00050417776,0.0006825456,0.7788448,0.0,0.0,0.0,0.0,0
2017920000,0,0.6272234,-0.00050420535,0.0006827661,0.7788448,0.0,0.0,0.0,0.0,0
2017932000,0,0.6272234,-0.00050439907,0.0006809003,0.7788448,0.0,0.0,0.0,0.0,0
2017940000,0,0.6272234,-0.0005044245,0.00068112195,0.7788448,0.0,0.0,0.0,0.0,0
2017952000,0,0.6272234,-0.0005044643,0.0006814515,0.7788448,0.0,0.0,0.0,0.0,0
2017960000,0,0.6272234,-0.0005044893,0.00068166974,0.7788448,0.0,0.0,0.0,0.0,0
2017972000,0,0.6272234,-0.00050452724,0.0006819966,0.7788448,0.0,0.0,0.0,0.0,0
2017980000,0,0.6272234,-0.0005045488,0.0006822094,0.7788448,0.0,0.0,0.0,0.0,0
2017992000,0,0.6272234,-0.00050458405,0.00068252836,0.7788448,0.0,0.0,0.0,0.0,0
2018000000,0,0.6272234,-0.00050461054,0.0006827433,0.7788448,0.0,0.0,0.0,0.0,0
2018012000,0,0.6272234,-0.00050474965,0.0006802534,0.7788448,0.0,0.0,0.0,0.0,0
2018020000,0,0.6272234,-0.0005047764,0.0006804677,0.7788448,0.0,0.0,0.0,0.0,0
2018032000,0,0.6272234,-0.0005048152,0.00068078726,0.7788448,0.0,0.0,0.0,0.0,0
2018040000,0,0.6272234,-0.0005048421,0.00068100094,0.7788448,0.0,0.0,0.0,0.0,0
2018052000,0,0.6272234,-0.000504882,0.00068132015,0.7788448,0.0,0.0,0.0,0.0,0
2018060000,0,0.6272234,-0.0005049098,0.0006815336,0.7788448,0.0,0.0,0.0,0.0,0
2018072000,0,0.6272234,-0.000504945,0.0006818449,0.7788448,0.0,0.0,0.0,0.0,0
2018080000,0,0.6272234,-0.00050496904,0.0006820513,0.7788448,0.0,0.0,0.0,0.0,0
2018092000,0,0.6272234,-0.0005050096,0.00068236527,0.7788448,0.0,0.0,0.0,0.0,0
2018100000,0,0.6272234,-0.0005050451,0.0006789146,0.7788448,0.0,0.0,0.0,0.0,0
2018112000,0,0.6272234,-0.00050509203,0.00067922095,0.7788448,0.0,0.0,0.0,0.0,0
2018120000,0,0.6272234,-0.00050511915,0.0006794281,0.7788448,0.0,0.0,0.0,0.0,0
2018132000,0,0.6272234,-0.00050515955,0.0006797377,0.7788448,0.0,0.0,0.0,0.0,0
2018140000,0,0.6272234,-0.0005051881,0.0006799457,0.7788448,0.0,0.0,0.0,0.0,0
2018152000,0,0.6272234,-0.0005052282,0.0006802539,0.7788448,0.0,0.0,0.0,0.0,0
2018160000,0,0.6272234,-0.0005052537,0.0006804556,0.7788448,0.0,0.0,0.0,0.0,0
2018172000,0,0.6272234,-0.00050529494,0.0006807598,0.7788448,0.0,0.0,0.0,0.0,0
2018180000,0,0.6272234,-0.00050532393,0.00068096287,0.7788448,0.0,0.0,0.0,0.0,0
2018192000,0,0.6272234,-0.0005053674,0.0006812659,0.7788448,0.0,0.0,0.0,0.0,0
2018200000,0,0.6272234,-0.00050539477,0.0006814666,0.7788448,0.0,0.0,0.0,0.0,0
2018212000,0,0.6272234,-0.0005054371,0.0006817686,0.7788448,0.0,0.0,0.0,0.0,0
2018220000,0,0.6272234,-0.00050546706,0.0006819705,0.7788448,0.0,0.0,0.0,0.0,0
2018232000,0,0.6272234,-0.00050545024,0.000678182,0.7788448,0.0,0.0,0.0,0.0,0
2018240000,0,0.6272234,-0.00050548353,0.00067837216,0.7788448,0.0,0.0,0.0,0.0,0
2018252000,0,0.6272234,-0.0005055253,0.0006786655,0.7788448,0.0,0.0,0.0,0.0,0
2018260000,0,0.6272234,-0.0005055543,0.00067886134,0.7788448,0.0,0.0,0.0,0.0,0
2018272000,0,0.6272234,-0.0005055968,0.0006791545,0.7788448,0.0,0.0,0.0,0.0,0
2018280000,0,0.6272234,-0.0005056258,0.000679351,0.7788448,0.0,0.0,0.0,0.0,0
2018292000,0,0.6272234,-0.0005056712,0.000679647,0.7788448,0.0,0.0,0.0,0.0,0
2018300000,0,0.6272234,-0.00050570193,0.000679845,0.7788448,0.0,0.0,0.0,0.0,0
2018312000,0,0.6272234,-0.00050574145,0.0006801339,0.7788448,0.0,0.0,0.0,0.0,0
2018320000,0,0.6272234,-0.00050576957,0.00068032683,0.7788448,0.0,0.0,0.0,0.0,0
2018332000,0,0.6272234,-0.0005058148,0.00068061915,0.7788448,0.0,0.0,0.0,0.0,0
2018340000,0,0.6272234,-0.0005058447,0.000680813,0.7788448,0.0,0.0,0.0,0.0,0
2018352000,0,0.6272234,-0.00050588866,0.00068110356,0.7788448,0.0,0.0,0.0,0.0,0
2018360000,0,0.6272234,-0.0005059194,0.0006812995,0.7788448,0.0,0.0,0.0,0.0,0
2018372000,0,0.6272234,-0.00050596584,0.0006815935,0.7788448,0.0,0.0,0.0,0.0,0
2018380000,0,0.6272234,-0.00050599495,0.0006817867,0.7788448,0.0,0.0,0.0,0.0,0
2018392000,0,0.6272234,-0.0005059506,0.00067771366,0.7788448,0.0,0.0,0.0,0.0,0
2018400000,0,0.6272234,-0.0005059798,0.0006779058,0.7788448,0.0,0.0,0.0,0.0,0
2018412000,0,0.6272234,-0.0005060235,0.000678193,0.7788448,0.0,0.0,0.0,0.0,0
2018420000,0,0.6272234,-0.00050604984,0.00067838223,0.7788448,0.0,0.0,0.0,0.0,0
2018432000,0,0.6272234,-0.00050609506,0.00067867275,0.7788448,0.0,0.0,0.0,0.0,0
2018440000,0,0.6272234,-0.0005061267,0.0006788677,0.7788448,0.0,0.0,0.0,0.0,0
2018452000,0,0.6272234,-0.00050617167,0.0006791566,0.7788448,0.0,0.0,0.0,0.0,0
2018460000,0,0.6272234,-0.00050620013,0.00067934673,0.7788448,0.0,0.0,0.0,0.0,0
2018472000,0,0.6272234,-0.0005062458,0.00067963323,0.7788448,0.0,0.0,0.0,0.0,0
2018480000,0,0.6272234,-0.0005062766,0.00067982427,0.7788448,0.0,0.0,0.0,0.0,0
2018492000,0,0.6272234,-0.0005063171,0.00068010506,0.7788448,0.0,0.0,0.0,0.0,0
2018500000,0,0.6272234,-0.00050634635,0.0006802945,0.7788448,0.0,0.0,0.0,0.0,0
2018512000,0,0.6272234,-0.00050639384,0.0006805833,0.7788448,0.0,0.0,0.0,0.0,0
2018520000,0,0.6272234,-0.000506425,0.00068077544,0.7788448,0.0,0.0,0.0,0.0,0
2018532000,0,0.6272234,-0.00050646916,0.0006810587,0.7788448,0.0,0.0,0.0,0.0,0
2018540000,0,0.6272234,-0.0005064993,0.00068124686,0.7788448,0.0,0.0,0.0,0.0,0
2018552000,0,0.6272234,-0.0005064247,0.0006770255,0.7788448,0.0,0.0,0.0,0.0,0
2018560000,0,0.6272234,-0.00050645845,0.00067720556,0.7788448,0.0,0.0,0.0,0.0,0
2018572000,0,0.6272234,-0.00050650083,0.0006774862,0.7788448,0.0,0.0,0.0,0.0,0
2018580000,0,0.6272234,-0.00050653267,0.000677676,0.7788448,0.0,0.0,0.0,0.0,0
2018592000,0,0.6272234,-0.0005065803,0.00067795994,0.7788448,0.0,0.0,0.0,0.0,0
2018600000,0,0.6272234,-0.00050660805,0.000678145,0.7788448,0.0,0.0,0.0,0.0,0
2018612000,0,0.6272234,-0.0005066531,0.0006784233,0.7788448,0.0,0.0,0.0,0.0,0
2018620000,0,0.6272234,-0.00050668465,0.00067860994,0.7788448,0.0,0.0,0.0,0.0,0
2018632000,0,0.6272234,-0.0005067283,0.0006788854,0.7788448,0.0,0.0,0.0,0.0,0
2018640000,0,0.6272234,-0.0005067572,0.00067906996,0.7788448,0.0,0.0,0.0,0.0,0
2018652000,0,0.6272234,-0.00050680514,0.00067935156,0.7788448,0.0,0.0,0.0,0.0,0
2018660000,0,0.6272234,-0.0005068379,0.00067953987,0.7788448,0.0,0.0,0.0,0.0,0
2018672000,0,0.6272234,-0.0005068828,0.0006798166,0.7788448,0.0,0.0,0.0,0.0,0
2018680000,0,0.6272234,-0.0005069123,0.0006799996,0.7788448,0.0,0.0,0.0,0.0,0
2018692000,0,0.6272234,-0.0005069589,0.0006802758,0.7788448,0.0,0.0,0.0,0.0,0
2018700000,0,0.6272234,-0.0005069898,0.00068045955,0.7788448,0.0,0.0,0.0,0.0,0
2018712000,0,0.6272234,-0.00050703646,0.00068073644,0.7788448,0.0,0.0,0.0,0.0,0
2018720000,0,0.6272234,-0.0005070683,0.00068092137,0.7788448,0.0,0.0,0.0,0.0,0
2018732000,0,0.6272234,-0.0005069835,0.0006766169,0.7788448,0.0,0.0,0.0,0.0,0
2018740000,0,0.6272234,-0.0005070212,0.0006767937,0.7788448,0.0,0.0,0.0,0.0,0
2018752000,0,0.6272234,-0.0005070676,0.00067706645,0.7788448,0.0,0.0,0.0,0.0,0
2018760000,0,0.6272234,-0.00050709734,0.00067724625,0.7788448,0.0,0.0,0.0,0.0,0
2018772000,0,0.6272234,-0.0005071428,0.0006775163,0.7788448,0.0,0.0,0.0,0.0,0
2018780000,0,0.6272234,-0.0005071759,0.00067769975,0.7788448,0.0,0.0,0.0,0.0,0
2018792000,0,0.6272234,-0.0005072252,0.00067797425,0.7788448,0.0,0.0,0.0,0.0,0
2018800000,0,0.6272234,-0.0005072568,0.0006781551,0.7788448,0.0,0.0,0.0,0.0,0
2018812000,0,0.6272234,-0.00050730247,0.00067842286,0.7788448,0.0,0.0,0.0,0.0,0
2018820000,0,0.6272234,-0.0005073345,0.00067860197,0.7788448,0.0,0.0,0.0,0.0,0
2018832000,0,0.6272234,-0.0005073789,0.0006788671,0.7788448,0.0,0.0,0.0,0.0,0
2018840000,0,0.6272234,-0.00050741027,0.000679046,0.7788448,0.0,0.0,0.0,0.0,0
2018852000,0,0.6272234,-0.00050745934,0.0006793168,0.7788448,0.0,0.0,0.0,0.0,0
2018860000,0,0.6272234,-0.00050749176,0.0006794969,0.7788448,0.0,0.0,0.0,0.0,0
2018872000,0,0.6272234,-0.0005075389,0.0006797639,0.7788448,0.0,0.0,0.0,0.0,0
2018880000,0,0.6272234,-0.0005075692,0.0006799398,0.7788448,0.0,0.0,0.0,0.0,0
2018892000,0,0.6272234,-0.0005076162,0.0006802037,0.7788448,0.0,0.0,0.0,0.0,0
2018900000,0,0.6272234,-0.00050764694,0.00068037875,0.7788448,0.0,0.0,0.0,0.0,0
2018912000,0,0.6272234,-0.0005076965,0.00068064575,0.7788448,0.0,0.0,0.0,0.0,0
2018920000,0,0.6272234,-0.0005074325,0.00067470525,0.7788448,0.0,0.0,0.0,0.0,0
2018932000,0,0.6272234,-0.0005074891,0.0006749637,0.7788448,0.0,0.0,0.0,0.0,0
2018940000,0,0.6272234,-0.000507522,0.00067513954,0.7788448,0.0,0.0,0.0,0.0,0
2018952000,0,0.6272234,-0.00050757173,0.000675403,0.7788448,0.0,0.0,0.0,0.0,0
2018960000,0,0.6272234,-0.00050760305,0.0006755764,0.7788448,0.0,0.0,0.0,0.0,0
2018972000,0,0.6272234,-0.0005076532,0.0006758397,0.7788448,0.0,0.0,0.0,0.0,0
2018980000,0,0.6272234,-0.0005076874,0.0006760156,0.7788448,0.0,0.0,0.0,0.0,0
2018992000,0,0.6272234,-0.0005077367,0.0006762758,0.7788448,0.0,0.0,0.0,0.0,0
2019000000,0,0.6272234,-0.00050776894,0.0006764479,0.7788448,0.0,0.0,0.0,0.0,0
2019012000,0,0.6272234,-0.00050781475,0.0006767026,0.7788448,0.0,0.0,0.0,0.0,0
2019020000,0,0.6272234,-0.0005078481,0.00067687547,0.7788448,0.0,0.0,0.0,0.0,0
2019032000,0,0.6272234,-0.00050789653,0.00067713263,0.7788448,0.0,0.0,0.0,0.0,0
2019040000,0,0.6272234,-0.0005079301,0.00067730516,0.7788448,0.0,0.0,0.0,0.0,0
2019052000,0,0.6272234,-0.0005079816,0.0006775638,0.7788448,0.0,0.0,0.0,0.0,0
2019060000,0,0.6272234,-0.00050801394,0.0006777341,0.7788448,0.0,0.0,0.0,0.0,0
2019072000,0,0.6272234,-0.00050806167,0.000677987,0.7788448,0.0,0.0,0.0,0.0,0
2019080000,0,0.6272234,-0.0005080954,0.0006781577,0.7788448,0.0,0.0,0.0,0.0,0
2019092000,0,0.6272234,-0.00050814694,0.00067841326,0.7788448,0.0,0.0,0.0,0.0,0
2019100000,0,0.6272234,-0.0005081803,0.0006785823,0.7788448,0.0,0.0,0.0,0.0,0
2019112000,0,0.6272234,-0.00050823233,0.00067883637,0.7788448,0.0,0.0,0.0,0.0,0
2019120000,0,0.6272234,-0.0005082652,0.0006790038,0.7788448,0.0,0.0,0.0,0.0,0
2019132000,0,0.6272234,-0.0005083137,0.00067925226,0.7788448,0.0,0.0,0.0,0.0,0
2019140000,0,0.6272234,-0.0005083479,0.0006794197,0.7788448,0.0,0.0,0.0,0.0,0
2019152000,0,0.6272234,-0.0005083999,0.0006796704,0.7788448,0.0,0.0,0.0,0.0,0
2019160000,0,0.6272234,-0.00050843327,0.0006798363,0.7788448,0.0,0.0,0.0,0.0,0
2019172000,0,0.6272234,-0.0005084859,0.0006800861,0.7788448,0.0,0.0,0.0,0.0,0
2019180000,0,0.6272234,-0.00050851953,0.0006802516,0.7788448,0.0,0.0,0.0,0.0,0
2019192000,0,0.6272234,-0.0005081149,0.0006728579,0.7788448,0.0,0.0,0.0,0.0,0
2019200000,0,0.6272234,-0.0005081484,0.00067302195,0.7788448,0.0,0.0,0.0,0.0,0
2019212000,0,0.6272234,-0.0005082013,0.00067326985,0.7788448,0.0,0.0,0.0,0.0,0
2019220000,0,0.6272234,-0.0005082343,0.0006734328,0.7788448,0.0,0.0,0.0,0.0,0
2019232000,0,0.6272234,-0.00050828623,0.00067367754,0.7788448,0.0,0.0,0.0,0.0,0
2019240000,0,0.6272234,-0.00050832,0.0006738399,0.7788448,0.0,0.0,0.0,0.0,0
2019252000,0,0.6272234,-0.00050836883,0.0006740793,0.7788448,0.0,0.0,0.0,0.0,0
2019260000,0,0.6272234,-0.00050840474,0.00067424204,0.7788448,0.0,0.0,0.0,0.0,0
2019272000,0,0.6272234,-0.00050845835,0.00067448587,0.7788448,0.0,0.0,0.0,0.0,0
2019280000,0,0.6272234,-0.0005084923,0.0006746467,0.7788448,0.0,0.0,0.0,0.0,0
2019292000,0,0.6272234,-0.00050854613,0.00067488925,0.7788448,0.0,0.0,0.0,0.0,0
2019300000,0,0.6272234,-0.000508579,0.000675048,0.7788448,0.0,0.0,0.0,0.0,0
2019312000,0,0.6272234,-0.0005086305,0.00067528646,0.7788448,0.0,0.0,0.0,0.0,0
2019320000,0,0.6272234,-0.00050866714,0.00067544676,0.7788448,0.0,0.0,0.0,0.0,0
2019332000,0,0.6272234,-0.00050872023,0.0006756841,0.7788448,0.0,0.0,0.0,0.0,0
2019340000,0,0.6272234,-0.00050875504,0.00067584205,0.7788448,0.0,0.0,0.0,0.0,0
2019352000,0,0.6272234,-0.00050880935,0.00067607977,0.7788448,0.0,0.0,0.0,0.0,0
2019360000,0,0.6272234,-0.0005088429,0.0006762352,0.7788448,0.0,0.0,0.0,0.0,0
2019372000,0,0.6272234,-0.00050889386,0.0006764683,0.7788448,0.0,0.0,0.0,0.0,0
2019380000,0,0.6272234,-0.00050893135,0.0006766256,0.7788448,0.0,0.0,0.0,0.0,0
2019392000,0,0.6272234,-0.0005089856,0.0006768587,0.7788448,0.0,0.0,0.0,0.0,0
2019400000,0,0.6272234,-0.00050902175,0.00067701377,0.7788448,0.0,0.0,0.0,0.0,0
2019412000,0,0.6272234,-0.00050907437,0.00067724416,0.7788448,0.0,0.0,0.0,0.0,0
2019420000,0,0.6272234,-0.00050910836,0.0006773962,0.7788448,0.0,0.0,0.0,0.0,0
2019432000,0,0.6272234,-0.0005091642,0.00067762844,0.7788448,0.0,0.0,0.0,0.0,0
2019440000,0,0.6272234,-0.000509202,0.00067778316,0.7788448,0.0,0.0,0.0,0.0,0
2019452000,0,0.6272234,-0.00050925557,0.00067801104,0.7788448,0.0,0.0,0.0,0.0,0
2019460000,0,0.6272234,-0.00050929264,0.00067816343,0.7788448,0.0,0.0,0.0,0.0,0
2019472000,0,0.6272234,-0.00050934526,0.00067838747,0.7788448,0.0,0.0,0.0,0.0,0
2019480000,0,0.6272234,-0.00050938025,0.00067853625,0.7788448,0.0,0.0,0.0,0.0,0
2019492000,0,0.6272234,-0.0005094377,0.00067876483,0.7788448,0.0,0.0,0.0,0.0,0
2019500000,0,0.6272234,-0.0005094741,0.0006789145,0.7788448,0.0,0.0,0.0,0.0,0
2019512000,0,0.6272234,-0.0005095284,0.00067913753,0.7788448,0.0,0.0,0.0,0.0,0
2019520000,0,0.6272234,-0.0005095638,0.00067928503,0.7788448,0.0,0.0,0.0,0.0,0
2019532000,0,0.6272234,-0.0005096162,0.00067950494,0.7788448,0.0,0.0,0.0,0.0,0
2019540000,0,0.6272234,-0.00050901395,0.00067064236,0.7788448,0.0,0.0,0.0,0.0,0
2019552000,0,0.6272234,-0.00050907995,0.0006708555,0.7788448,0.0,0.0,0.0,0.0,0
2019560000,0,0.6272234,-0.00050911703,0.0006710015,0.7788448,0.0,0.0,0.0,0.0,0
2019572000,0,0.6272234,-0.00050917163,0.00067121803,0.7788448,0.0,0.0,0.0,0.0,0
2019580000,0,0.6272234,-0.0005092073,0.0006713616,0.7788448,0.0,0.0,0.0,0.0,0
2019592000,0,0.6272234,-0.0005092648,0.0006715807,0.7788448,0.0,0.0,0.0,0.0,0
2019600000,0,0.6272234,-0.0005093041,0.0006717263,0.7788448,0.0,0.0,0.0,0.0,0
2019612000,0,0.6272234,-0.0005093613,0.0006719411,0.7788448,0.0,0.0,0.0,0.0,0
2019620000,0,0.6272234,-0.0005093988,0.00067208323,0.7788448,0.0,0.0,0.0,0.0,0
2019632000,0,0.6272234,-0.00050945365,0.0006722944,0.7788448,0.0,0.0,0.0,0.0,0
2019640000,0,0.6272234,-0.0005094907,0.00067243486,0.7788448,0.0,0.0,0.0,0.0,0
2019652000,0,0.6272234,-0.0005095505,0.0006726489,0.7788448,0.0,0.0,0.0,0.0,0
2019660000,0,0.6272234,-0.0005095899,0.00067279063,0.7788448,0.0,0.0,0.0,0.0,0
2019672000,0,0.6272234,-0.00050964643,0.00067300006,0.7788448,0.0,0.0,0.0,0.0,0
2019680000,0,0.6272234,-0.0005096838,0.00067313825,0.7788448,0.0,0.0,0.0,0.0,0
2019692000,0,0.6272234,-0.00050974084,0.00067334453,0.7788448,0.0,0.0,0.0,0.0,0
2019700000,0,0.6272234,-0.00050978095,0.00067348336,0.7788448,0.0,0.0,0.0,0.0,0
2019712000,0,0.6272234,-0.00050984084,0.0006736908,0.7788448,0.0,0.0,0.0,0.0,0
2019720000,0,0.6272234,-0.0005098803,0.0006738285,0.7788448,0.0,0.0,0.0,0.0,0
2019732000,0,0.6272234,-0.0005099362,0.0006740302,0.7788448,0.0,0.0,0.0,0.0,0
2019740000,0,0.6272234,-0.0005099755,0.0006741654,0.7788448,0.0,0.0,0.0,0.0,0
2019752000,0,0.6272234,-0.00051003444,0.0006743675,0.7788448,0.0,0.0,0.0,0.0,0
2019760000,0,0.6272234,-0.000510075,0.00067450304,0.7788448,0.0,0.0,0.0,0.0,0
2019772000,0,0.6272234,-0.00051013386,0.0006747037,0.7788448,0.0,0.0,0.0,0.0,0
2019780000,0,0.6272234,-0.0005101712,0.0006748347,0.7788448,0.0,0.0,0.0,0.0,0
2019792000,0,0.6272234,-0.0005102301,0.0006750321,0.7788448,0.0,0.0,0.0,0.0,0
2019800000,0,0.6272234,-0.0005102695,0.00067516306,0.7788448,0.0,0.0,0.0,0.0,0
2019812000,0,0.6272234,-0.00051033124,0.00067536056,0.7788448,0.0,0.0,0.0,0.0,0
2019820000,0,0.6272234,-0.0005103717,0.00067549164,0.7788448,0.0,0.0,0.0,0.0,0
2019832000,0,0.6272234,-0.00051042956,0.0006756842,0.7788448,0.0,0.0,0.0,0.0,0
2019840000,0,0.6272234,-0.00051046896,0.0006758125,0.7788448,0.0,0.0,0.0,0.0,0
2019852000,0,0.6272234,-0.00051053,0.00067600585,0.7788448,0.0,0.0,0.0,0.0,0
2019860000,0,0.6272234,-0.00051057106,0.00067613355,0.7788448,0.0,0.0,0.0,0.0,0
2019872000,0,0.6272234,-0.0005106328,0.00067632523,0.7788448,0.0,0.0,0.0,0.0,0
2019880000,0,0.6272234,-0.00051067147,0.00067645014,0.7788448,0.0,0.0,0.0,0.0,0
2019892000,0,0.6272234,-0.0005107331,0.0006766401,0.7788448,0.0,0.0,0.0,0.0,0
2019900000,0,0.6272234,-0.0005107733,0.00067676493,0.7788448,0.0,0.0,0.0,0.0,0
2019912000,0,0.6272234,-0.00051083614,0.00067695364,0.7788448,0.0,0.0,0.0,0.0,0
2019920000,0,0.6272234,-0.00051087723,0.0006770782,0.7788448,0.0,0.0,0.0,0.0,0
2019932000,0,0.6272234,-0.0005109371,0.0006772619,0.7788448,0.0,0.0,0.0,0.0,0
2019940000,0,0.6272234,-0.0005109779,0.0006773836,0.7788448,0.0,0.0,0.0,0.0,0
2019952000,0,0.6272234,-0.0005110404,0.0006775661,0.7788448,0.0,0.0,0.0,0.0,0
2019960000,0,0.6272234,-0.0005110835,0.0006776847,0.7788448,0.0,0.0,0.0,0.0,0
2019972000,0,0.6272234,-0.0005111476,0.0006778547,0.7788448,0.0,0.0,0.0,0.0,0
2019980000,0,0.6272234,-0.0005111906,0.00067796535,0.7788448,0.0,0.0,0.0,0.0,0
2019992000,0,0.6272234,-0.0005112548,0.00067812845,0.7788448,0.0,0.0,0.0,0.0,0
2020000000,0,0.6272234,-0.00051129947,0.0006782375,0.7788448,0.0,0.0,0.0,0.0,0
2020012000,0,0.6272234,-0.0005113647,0.000678399,0.7788448,0.0,0.0,0.0,0.0,0
2020020000,0,0.6272234,-0.0005114089,0.0006785065,0.7788448,0.0,0.0,0.0,0.0,0
2020032000,0,0.6272234,-0.0005114739,0.00067866396,0.7788448,0.0,0.0,0.0,0.0,0
2020040000,0,0.6272234,-0.0005105145,0.00066699355,0.77884483,0.0,0.0,0.0,0.0,0
2020052000,0,0.6272234,-0.00051059184,0.0006671401,0.77884483,0.0,0.0,0.0,0.0,0
2020060000,0,0.6272234,-0.00051063596,0.0006672437,0.77884483,0.0,0.0,0.0,0.0,0
2020072000,0,0.6272234,-0.00051070336,0.0006673992,0.77884483,0.0,0.0,0.0,0.0,0
2020080000,0,0.6272234,-0.0005107478,0.0006675013,0.77884483,0.0,0.0,0.0,0.0,0
2020092000,0,0.6272234,-0.0005108139,0.00066765316,0.77884483,0.0,0.0,0.0,0.0,0
2020100000,0,0.6272234,-0.0005108589,0.0006677541,0.77884483,0.0,0.0,0.0,0.0,0
2020112000,0,0.6272234,-0.0005109262,0.00066790363,0.77884483,0.0,0.0,0.0,0.0,0
2020120000,0,0.6272234,-0.000510971,0.0006680018,0.77884483,0.0,0.0,0.0,0.0,0
2020132000,0,0.6272234,-0.0005110384,0.00066814735,0.77884483,0.0,0.0,0.0,0.0,0
2020140000,0,0.6272234,-0.00051108276,0.00066824397,0.77884483,0.0,0.0,0.0,0.0,0
2020152000,0,0.6272234,-0.0005111505,0.0006683892,0.77884483,0.0,0.0,0.0,0.0,0
2020160000,0,0.6272234,-0.0005111968,0.00066848524,0.77884483,0.0,0.0,0.0,0.0,0
2020172000,0,0.6272234,-0.0005112646,0.00066862523,0.77884483,0.0,0.0,0.0,0.0,0
2020180000,0,0.6272234,-0.00051130983,0.0006687173,0.77884483,0.0,0.0,0.0,0.0,0
2020192000,0,0.6272234,-0.0005113788,0.0006688578,0.77884483,0.0,0.0,0.0,0.0,0
2020200000,0,0.6272234,-0.0005114245,0.0006689494,0.77884483,0.0,0.0,0.0,0.0,0
2020212000,0,0.6272234,-0.00051149284,0.0006690834,0.77884483,0.0,0.0,0.0,0.0,0
2020220000,0,0.6272234,-0.00051153917,0.00066917256,0.77884483,0.0,0.0,0.0,0.0,0
2020232000,0,0.6272234,-0.0005116057,0.0006693041,0.77884483,0.0,0.0,0.0,0.0,0
2020240000,0,0.6272234,-0.000511651,0.00066939264,0.77884483,0.0,0.0,0.0,0.0,0
2020252000,0,0.6272234,-0.0005117189,0.00066952396,0.77884483,0.0,0.0,0.0,0.0,0
2020260000,0,0.6272234,-0.00051176373,0.00066961057,0.77884483,0.0,0.0,0.0,0.0,0
2020272000,0,0.6272234,-0.0005118313,0.00066974084,0.77884483,0.0,0.0,0.0,0.0,0
2020280000,0,0.6272234,-0.000511876,0.0006698267,0.77884483,0.0,0.0,0.0,0.0,0
2020292000,0,0.6272234,-0.00051194365,0.00066995417,0.77884483,0.0,0.0,0.0,0.0,0
2020300000,0,0.6272234,-0.000511989,0.0006700391,0.77884483,0.0,0.0,0.0,0.0,0
2020312000,0,0.6272234,-0.00051205914,0.00067016657,0.77884483,0.0,0.0,0.0,0.0,0
2020320000,0,0.6272234,-0.00051210745,0.0006702475,0.77884483,0.0,0.0,0.0,0.0,0
2020332000,0,0.6272234,-0.0005121826,0.0006703643,0.77884483,0.0,0.0,0.0,0.0,0
2020340000,0,0.6272234,-0.0005122344,0.00067044055,0.77884483,0.0,0.0,0.0,0.0,0
2020352000,0,0.6272234,-0.00051231513,0.00067055074,0.77884483,0.0,0.0,0.0,0.0,0
2020360000,0,0.6272234,-0.00051237096,0.0006706199,0.77884483,0.0,0.0,0.0,0.0,0
2020372000,0,0.6272234,-0.0005124557,0.000670718,0.77884483,0.0,0.0,0.0,0.0,0
2020380000,0,0.6272234,-0.00051251455,0.00067078264,0.77884483,0.0,0.0,0.0,0.0,0
2020392000,0,0.6272234,-0.0005126037,0.00067087484,0.77884483,0.0,0.0,0.0,0.0,0
2020400000,0,0.6272234,-0.00051266584,0.0006709348,0.77884483,0.0,0.0,0.0,0.0,0
2020412000,0,0.6272234,-0.0005127583,0.00067101984,0.77884483,0.0,0.0,0.0,0.0,0
2020420000,0,0.6272234,-0.00051282323,0.0006710704,0.77884483,0.0,0.0,0.0,0.0,0
2020432000,0,0.6272234,-0.0005129189,0.00067115406,0.77884483,0.0,0.0,0.0,0.0,0
2020440000,0,0.6272234,-0.00051298307,0.0006712117,0.77884483,0.0,0.0,0.0,0.0,0
2020452000,0,0.6272234,-0.00051307504,0.00067129015,0.77884483,0.0,0.0,0.0,0.0,0
2020460000,0,0.6272234,-0.0005131367,0.000671341,0.77884483,0.0,0.0,0.0,0.0,0
2020472000,0,0.6272234,-0.00051324675,0.00067140925,0.77884483,0.0,0.0,0.0,0.0,0
2020480000,0,0.6272234,-0.0005133184,0.0006714544,0.77884483,0.0,0.0,0.0,0.0,0
2020492000,0,0.6272234,-0.0005134171,0.00067151274,0.77884483,0.0,0.0,0.0,0.0,0
2020500000,0,0.6272234,-0.0005134807,0.0006715512,0.77884483,0.0,0.0,0.0,0.0,0
2020512000,0,0.6272234,-0.00051361264,0.00067165575,0.77884483,0.0,0.0,0.0,0.0,0
2020520000,0,0.6272233,-0.0005145581,0.00067111367,0.7788449,0.0,0.0,0.0,0.0,0
2020532000,0,0.62722313,-0.0005225733,0.0006621061,0.778845,0.0,0.0,0.0,0.0,0
2020540000,0,0.6272231,-0.0005345309,0.00064793136,0.7788451,0.0,0.0,0.0,0.0,0
2020552000,0,0.6272229,-0.0005672063,0.0006084035,0.77884525,0.0,0.0,0.0,0.0,0
2020560000,0,0.6272227,-0.00060309266,0.00056457316,0.77884537,0.0,0.0,0.0,0.0,0
2020572000,0,0.6272225,-0.0006854648,0.00046340202,0.77884555,0.0,0.0,0.0,0.0,0
2020580000,0,0.6272223,-0.0007626165,0.00036835793,0.77884567,0.0,0.0,0.0,0.0,0
2020592000,0,0.62722194,-0.0009121502,0.00018383322,0.7788459,0.0,0.0,0.0,0.0,0
2020600000,0,0.6272216,-0.0010383851,2.7866883e-05,0.77884597,0.0,0.0,0.0,0.0,0
2020612000,0,0.62722105,-0.0012737269,-0.00026358606,0.778846,0.0,0.0,0.0,0.0,0
2020620000,0,0.62722045,-0.0014624395,-0.0004975217,0.7788461,0.0,0.0,0.0,0.0,0
2020632000,0,0.6272175,-0.0017919486,-0.00090682047,0.7788474,0.0,0.0,0.0,0.0,0
2020640000,0,0.6272129,-0.0020437695,-0.0012195605,0.7788501,0.0,0.0,0.0,0.0,0
2020652000,0,0.62720186,-0.0024752193,-0.0017496921,0.7788567,0.0,0.0,0.0,0.0,0
2020660000,0,0.62719303,-0.0028034782,-0.0021349294,0.7788617,0.0,0.0,0.0,0.0,0
2020672000,0,0.6271796,-0.0033584915,-0.0027486617,0.77886844,0.0,0.0,0.0,0.0,0
2020680000,0,0.62717307,-0.0037730802,-0.0031613966,0.7788702,0.0,0.0,0.0,0.0,0
2020692000,0,0.6271698,-0.0044695125,-0.0037716127,0.77886647,0.0,0.0,0.0,0.0,0
2020700000,0,0.6271729,-0.004986092,-0.0041674064,0.77885884,0.0,0.0,0.0,0.0,0
2020712000,0,0.6271797,-0.005835609,-0.0047453996,0.7788441,0.0,0.0,0.0,0.0,0
2020720000,0,0.6271834,-0.006451066,-0.005111118,0.778834,0.0,0.0,0.0,0.0,0
2020732000,0,0.6271875,-0.0074398043,-0.005634367,0.77881825,0.0,0.0,0.0,0.0,0
2020740000,0,0.6271887,-0.008131786,-0.005972619,0.7788079,0.0,0.0,0.0,0.0,0
2020752000,0,0.6271881,-0.009171437,-0.0064733326,0.77879274,0.0,0.0,0.0,0.0,0
2020760000,0,0.6271863,-0.009860549,-0.006788161,0.7787831,0.0,0.0,0.0,0.0,0
2020772000,0,0.6271821,-0.010876215,-0.0072388365,0.7787689,0.0,0.0,0.0,0.0,0
2020780000,0,0.62717855,-0.011526071,-0.007513443,0.77875984,0.0,0.0,0.0,0.0,0
2020792000,0,0.62717223,-0.012412583,-0.007873967,0.77874774,0.0,0.0,0.0,0.0,0
2020800000,0,0.6271676,-0.012950897,-0.0080699045,0.7787407,0.0,0.0,0.0,0.0,0
2020812000,0,0.62716,-0.013699107,-0.008305286,0.7787315,0.0,0.0,0.0,0.0,0
2020820000,0,0.6271544,-0.014164539,-0.008433321,0.7787263,0.0,0.0,0.0,0.0,0
2020832000,0,0.62714547,-0.014822563,-0.008584958,0.7787196,0.0,0.0,0.0,0.0,0
2020840000,0,0.62713933,-0.01523465,-0.008657445,0.7787158,0.0,0.0,0.0,0.0,0
2020852000,0,0.6271301,-0.0158124,-0.008733122,0.7787109,0.0,0.0,0.0,0.0,0
2020860000,0,0.6271239,-0.016162721,-0.008764941,0.77870834,0.0,0.0,0.0,0.0,0
2020872000,0,0.62711495,-0.016622698,-0.008785044,0.7787056,0.0,0.0,0.0,0.0,0
2020880000,0,0.6271092,-0.016885791,-0.008783675,0.7787046,0.0,0.0,0.0,0.0,0
2020892000,0,0.62710047,-0.017214863,-0.008757971,0.77870476,0.0,0.0,0.0,0.0,0
2020900000,0,0.6270942,-0.017397748,-0.008734971,0.77870595,0.0,0.0,0.0,0.0,0
2020912000,0,0.6270842,-0.01761962,-0.008686446,0.7787096,0.0,0.0,0.0,0.0,0
2020920000,0,0.62707716,-0.01772696,-0.008653426,0.77871317,0.0,0.0,0.0,0.0,0
2020932000,0,0.62706643,-0.017825399,-0.008592375,0.77872026,0.0,0.0,0.0,0.0,0
2020940000,0,0.62705946,-0.017852115,-0.008540367,0.7787258,0.0,0.0,0.0,0.0,0
2020952000,0,0.6270491,-0.017842336,-0.008454585,0.77873534,0.0,0.0,0.0,0.0,0
2020960000,0,0.62704223,-0.017807078,-0.008388009,0.7787424,0.0,0.0,0.0,0.0,0
2020972000,0,0.6270318,-0.01772066,-0.00826904,0.778754,0.0,0.0,0.0,0.0,0
2020980000,0,0.6270248,-0.017640734,-0.008172716,0.77876246,0.0,0.0,0.0,0.0,0
2020992000,0,0.62701446,-0.01748172,-0.007998435,0.77877617,0.0,0.0,0.0,0.0,0
2021000000,0,0.6270079,-0.01735055,-0.007862003,0.7787858,0.0,0.0,0.0,0.0,0
2021012000,0,0.62699866,-0.017103313,-0.007642216,0.7788009,0.0,0.0,0.0,0.0,0
2021020000,0,0.62699306,-0.016904479,-0.007490142,0.7788112,0.0,0.0,0.0,0.0,0
2021032000,0,0.6269854,-0.016558612,-0.007246184,0.7788272,0.0,0.0,0.0,0.0,0
2021040000,0,0.6269804,-0.016302066,-0.0070753223,0.7788381,0.0,0.0,0.0,0.0,0
2021052000,0,0.6269726,-0.015890634,-0.0068170493,0.7788552,0.0,0.0,0.0,0.0,0
2021060000,0,0.62696725,-0.015597729,-0.006653857,0.7788669,0.0,0.0,0.0,0.0,0
2021072000,0,0.62695915,-0.015131161,-0.0064077177,0.77888465,0.0,0.0,0.0,0.0,0
2021080000,0,0.6269539,-0.014805481,-0.0062444606,0.7788965,0.0,0.0,0.0,0.0,0
2021092000,0,0.6269462,-0.014313827,-0.006001239,0.7789138,0.0,0.0,0.0,0.0,0
2021100000,0,0.6269413,-0.013980968,-0.005845145,0.77892494,0.0,0.0,0.0,0.0,0
2021112000,0,0.62693447,-0.013465704,-0.005608634,0.7789413,0.0,0.0,0.0,0.0,0
2021120000,0,0.6269307,-0.013112728,-0.0054341555,0.7789515,0.0,0.0,0.0,0.0,0
2021132000,0,0.62692577,-0.012566128,-0.0051529496,0.7789665,0.0,0.0,0.0,0.0,0
2021140000,0,0.62692267,-0.012191984,-0.004954853,0.7789762,0.0,0.0,0.0,0.0,0
2021152000,0,0.626918,-0.011618495,-0.0046326523,0.7789906,0.0,0.0,0.0,0.0,0
2021160000,0,0.626915,-0.0112316385,-0.0044051143,0.7790001,0.0,0.0,0.0,0.0,0
2021172000,0,0.62691015,-0.010653757,-0.0040800893,0.7790139,0.0,0.0,0.0,0.0,0
2021180000,0,0.6269067,-0.010263519,-0.0038765075,0.77902293,0.0,0.0,0.0,0.0,0
2021192000,0,0.62690175,-0.009663491,-0.0035826978,0.779036,0.0,0.0,0.0,0.0,0
2021200000,0,0.62689835,-0.009270056,-0.0033937648,0.77904433,0.0,0.0,0.0,0.0,0
2021212000,0,0.6268937,-0.008699131,-0.0031292294,0.7790558,0.0,0.0,0.0,0.0,0
2021220000,0,0.6268909,-0.008323621,-0.0029638468,0.7790628,0.0,0.0,0.0,0.0,0
2021232000,0,0.62688786,-0.0077662896,-0.0027239302,0.77907187,0.0,0.0,0.0,0.0,0
2021240000,0,0.62688667,-0.0074025816,-0.0025606656,0.77907693,0.0,0.0,0.0,0.0,0
2021252000,0,0.62688667,-0.0068610604,-0.0023061626,0.77908266,0.0,0.0,0.0,0.0,0
2021260000,0,0.6268878,-0.006497642,-0.002131611,0.7790854,0.0,0.0,0.0,0.0,0
2021272000,0,0.62689126,-0.0059572584,-0.0018690507,0.7790876,0.0,0.0,0.0,0.0,0
2021280000,0,0.62689453,-0.0056099924,-0.0017019551,0.7790879,0.0,0.0,0.0,0.0,0
2021292000,0,0.6269009,-0.0051025813,-0.0014609715,0.77908677,0.0,0.0,0.0,0.0,0
2021300000,0,0.62690616,-0.004767451,-0.0013065233,0.779085,0.0,0.0,0.0,0.0,0
2021312000,0,0.62691504,-0.0042802123,-0.0010856525,0.779081,0.0,0.0,0.0,0.0,0
2021320000,0,0.6269215,-0.0039662044,-0.00095108355,0.7790776,0.0,0.0,0.0,0.0,0
2021332000,0,0.6269311,-0.0035189139,-0.000764472,0.7790722,0.0,0.0,0.0,0.0,0
2021340000,0,0.62693757,-0.0032319794,-0.0006525087,0.77906835,0.0,0.0,0.0,0.0,0
2021352000,0,0.6269472,-0.0028248506,-0.0004938684,0.77906233,0.0,0.0,0.0,0.0,0
2021360000,0,0.6269534,-0.002559377,-0.0003936359,0.7790583,0.0,0.0,0.0,0.0,0
2021372000,0,0.6269621,-0.0021525938,-0.00025240958,0.77905256,0.0,0.0,0.0,0.0,0
2021380000,0,0.6269677,-0.0018772198,-0.00015360274,0.7790488,0.0,0.0,0.0,0.0,0
2021392000,0,0.62697566,-0.0014589684,1.401314e-05,0.7790433,0.0,0.0,0.0,0.0,0
2021400000,0,0.6269804,-0.0011814086,0.00013531574,0.77904,0.0,0.0,0.0,0.0,0
2021412000,0,0.6269864,-0.00078031904,0.00032458178,0.77903557,0.0,0.0,0.0,0.0,0
2021420000,0,0.6269896,-0.0005313227,0.0004532256,0.7790331,0.0,0.0,0.0,0.0,0
2021432000,0,0.62699324,-0.00018782941,0.00063270226,0.77903026,0.0,0.0,0.0,0.0,0
2021440000,0,0.6269949,2.1202073e-05,0.0007414616,0.77902883,0.0,0.0,0.0,0.0,0
2021452000,0,0.6269966,0.0003058978,0.0008972562,0.7790273,0.0,0.0,0.0,0.0,0
2021460000,0,0.62699723,0.00047731842,0.0009934664,0.77902657,0.0,0.0,0.0,0.0,0
2021472000,0,0.6269977,0.00072127423,0.001109355,0.7790258,0.0,0.0,0.0,0.0,0
2021480000,0,0.62699795,0.00088047987,0.0011724964,0.7790254,0.0,0.0,0.0,0.0,0
2021492000,0,0.6269985,0.0011173475,0.001265729,0.7790245,0.0,0.0,0.0,0.0,0
2021500000,0,0.62699914,0.0012738658,0.0013427535,0.7790236,0.0,0.0,0.0,0.0,0
2021512000,0,0.6270004,0.0015102683,0.0014657967,0.779022,0.0,0.0,0.0,0.0,0
2021520000,0,0.62700146,0.001671397,0.0015436225,0.7790206,0.0,0.0,0.0,0.0,0
2021532000,0,0.62700367,0.0019103998,0.001647086,0.77901804,0.0,0.0,0.0,0.0,0
2021540000,0,0.62700534,0.0020568445,0.0017116419,0.7790162,0.0,0.0,0.0,0.0,0
2021552000,0,0.6270084,0.0022572328,0.0018006694,0.77901304,0.0,0.0,0.0,0.0,0
2021560000,0,0.6270106,0.0023891705,0.0018514353,0.7790107,0.0,0.0,0.0,0.0,0
2021572000,0,0.62701404,0.0025844604,0.0019220727,0.77900714,0.0,0.0,0.0,0.0,0
2021580000,0,0.6270163,0.00270528,0.001962686,0.7790048,0.0,0.0,0.0,0.0,0
2021592000,0,0.62701935,0.0028727811,0.002012341,0.77900165,0.0,0.0,0.0,0.0,0
2021600000,0,0.627021,0.0029868663,0.0020403892,0.7789998,0.0,0.0,0.0,0.0,0
2021612000,0,0.6270233,0.003159519,0.0020697142,0.7789972,0.0,0.0,0.0,0.0,0
2021620000,0,0.6270249,0.0032718661,0.0020857824,0.7789954,0.0,0.0,0.0,0.0,0
2021632000,0,0.6270273,0.0034375754,0.0021106552,0.7789927,0.0,0.0,0.0,0.0,0
2021640000,0,0.6270288,0.0035516773,0.0021325387,0.77899086,0.0,0.0,0.0,0.0,0
2021652000,0,0.62703097,0.0037258596,0.0021772925,0.77898824,0.0,0.0,0.0,0.0,0
2021660000,0,0.62703216,0.0038378332,0.002209131,0.77898663,0.0,0.0,0.0,0.0,0
2021672000,0,0.62703377,0.003993077,0.0022597061,0.77898437,0.0,0.0,0.0,0.0,0
2021680000,0,0.6270347,0.0040922835,0.0022926652,0.778983,0.0,0.0,0.0,0.0,0
2021692000,0,0.6270362,0.0042399624,0.0023281781,0.7789809,0.0,0.0,0.0,0.0,0
2021700000,0,0.6270371,0.00433807,0.0023472516,0.77897966,0.0,0.0,0.0,0.0,0
2021712000,0,0.627038,0.004479418,0.002372786,0.778978,0.0,0.0,0.0,0.0,0
2021720000,0,0.6270384,0.0045692283,0.0023924096,0.7789771,0.0,0.0,0.0,0.0,0
2021732000,0,0.62703824,0.0047005825,0.0024389618,0.7789763,0.0,0.0,0.0,0.0,0
2021740000,0,0.6270374,0.004790945,0.0024771257,0.7789763,0.0,0.0,0.0,0.0,0
2021752000,0,0.62703466,0.004941394,0.002544682,0.7789774,0.0,0.0,0.0,0.0,0
2021760000,0,0.62703174,0.005048816,0.0025993015,0.7789788,0.0,0.0,0.0,0.0,0
2021772000,0,0.6270263,0.005208905,0.002676751,0.7789819,0.0,0.0,0.0,0.0,0
2021780000,0,0.627022,0.005314392,0.002720517,0.7789845,0.0,0.0,0.0,0.0,0
2021792000,0,0.6270148,0.0054710703,0.0027816177,0.778989,0.0,0.0,0.0,0.0,0
2021800000,0,0.6270095,0.0055747163,0.0028209828,0.77899235,0.0,0.0,0.0,0.0,0
2021812000,0,0.627001,0.005730993,0.0028763027,0.7789979,0.0,0.0,0.0,0.0,0
2021820000,0,0.62699485,0.0058429246,0.002917065,0.7790019,0.0,0.0,0.0,0.0,0
2021832000,0,0.62698495,0.0060155443,0.0029852598,0.77900827,0.0,0.0,0.0,0.0,0
2021840000,0,0.6269778,0.0061250664,0.003035318,0.779013,0.0,0.0,0.0,0.0,0
2021852000,0,0.6269665,0.0062779416,0.003121026,0.7790205,0.0,0.0,0.0,0.0,0
2021860000,0,0.6269586,0.0063714334,0.0031865702,0.77902585,0.0,0.0,0.0,0.0,0
2021872000,0,0.6269467,0.006498821,0.0032860474,0.77903396,0.0,0.0,0.0,0.0,0
2021880000,0,0.6269387,0.006575312,0.0033491552,0.77903944,0.0,0.0,0.0,0.0,0
2021892000,0,0.6269263,0.006690672,0.003435545,0.7790481,0.0,0.0,0.0,0.0,0
2021900000,0,0.62691766,0.006769802,0.0034920245,0.7790541,0.0,0.0,0.0,0.0,0
2021912000,0,0.6269041,0.006883791,0.003572236,0.7790637,0.0,0.0,0.0,0.0,0
2021920000,0,0.6268945,0.006950781,0.0036166033,0.7790706,0.0,0.0,0.0,0.0,0
2021932000,0,0.62687933,0.007038896,0.0036802434,0.7790817,0.0,0.0,0.0,0.0,0
2021940000,0,0.6268688,0.007089437,0.0037251587,0.7790895,0.0,0.0,0.0,0.0,0
2021952000,0,0.62685233,0.0071643004,0.0037965903,0.7791017,0.0,0.0,0.0,0.0,0
2021960000,0,0.62684107,0.007223396,0.0038429257,0.77911,0.0,0.0,0.0,0.0,0
2021972000,0,0.6268244,0.007335512,0.0039035329,0.77912205,0.0,0.0,0.0,0.0,0
2021980000,0,0.6268134,0.0074245776,0.0039364356,0.7791299,0.0,0.0,0.0,0.0,0
2021992000,0,0.6267967,0.007554258,0.0039780033,0.7791419,0.0,0.0,0.0,0.0,0
2022000000,0,0.6267854,0.0076315934,0.0039993096,0.7791501,0.0,0.0,0.0,0.0,0
2022012000,0,0.62676865,0.00773461,0.0040172026,0.7791625,0.0,0.0,0.0,0.0,0
2022020000,0,0.6267577,0.0077948347,0.004025161,0.7791707,0.0,0.0,0.0,0.0,0
2022032000,0,0.62674165,0.007874359,0.004036952,0.7791827,0.0,0.0,0.0,0.0,0
2022040000,0,0.62673134,0.007926477,0.0040479936,0.7791904,0.0,0.0,0.0,0.0,0
2022052000,0,0.6267166,0.008012725,0.0040773363,0.77920127,0.0,0.0,0.0,0.0,0
2022060000,0,0.62670726,0.008072063,0.004103701,0.779208,0.0,0.0,0.0,0.0,0
2022072000,0,0.6266944,0.008155629,0.0041492744,0.77921724,0.0,0.0,0.0,0.0,0
2022080000,0,0.6266866,0.008209693,0.0041808872,0.7792228,0.0,0.0,0.0,0.0,0
2022092000,0,0.6266762,0.008289451,0.004231845,0.77923,0.0,0.0,0.0,0.0,0
2022100000,0,0.6266702,0.008340696,0.004271316,0.77923405,0.0,0.0,0.0,0.0,0
2022112000,0,0.62666285,0.008411572,0.004324164,0.77923894,0.0,0.0,0.0,0.0,0
2022120000,0,0.62665874,0.00844827,0.0043565296,0.7792417,0.0,0.0,0.0,0.0,0
2022132000,0,0.62665325,0.00848035,0.0044067954,0.77924544,0.0,0.0,0.0,0.0,0
2022140000,0,0.62665004,0.008492316,0.004440905,0.7792477,0.0,0.0,0.0,0.0,0
2022152000,0,0.62664557,0.008509616,0.0044902633,0.77925086,0.0,0.0,0.0,0.0,0
2022160000,0,0.626643,0.008526286,0.0045151575,0.7792526,0.0,0.0,0.0,0.0,0
2022172000,0,0.6266399,0.008556907,0.004539908,0.7792546,0.0,0.0,0.0,0.0,0
2022180000,0,0.62663835,0.008575834,0.0045460747,0.77925557,0.0,0.0,0.0,0.0,0
2022192000,0,0.62663686,0.008602955,0.004538355,0.7792565,0.0,0.0,0.0,0.0,0
2022200000,0,0.6266363,0.008623773,0.004526836,0.77925676,0.0,0.0,0.0,0.0,0
2022212000,0,0.6266362,0.008653743,0.0045144125,0.77925664,0.0,0.0,0.0,0.0,0
2022220000,0,0.6266365,0.008666359,0.00451321,0.7792563,0.0,0.0,0.0,0.0,0
2022232000,0,0.6266376,0.008683603,0.0045238873,0.77925515,0.0,0.0,0.0,0.0,0
2022240000,0,0.6266386,0.0086999815,0.0045365784,0.7792541,0.0,0.0,0.0,0.0,0
2022252000,0,0.62664044,0.008733902,0.00455584,0.77925205,0.0,0.0,0.0,0.0,0
2022260000,0,0.6266418,0.008756422,0.004560116,0.77925074,0.0,0.0,0.0,0.0,0
2022272000,0,0.6266438,0.008785422,0.004556051,0.77924883,0.0,0.0,0.0,0.0,0
2022280000,0,0.62664497,0.008804008,0.0045558442,0.77924764,0.0,0.0,0.0,0.0,0
2022292000,0,0.62664634,0.008839122,0.004564067,0.7792461,0.0,0.0,0.0,0.0,0
2022300000,0,0.626647,0.008867923,0.004569934,0.7792452,0.0,0.0,0.0,0.0,0
2022312000,0,0.62664753,0.008920971,0.004574944,0.7792441,0.0,0.0,0.0,0.0,0
2022320000,0,0.6266475,0.0089585455,0.004574465,0.7792438,0.0,0.0,0.0,0.0,0
2022332000,0,0.6266466,0.009006765,0.0045610075,0.77924407,0.0,0.0,0.0,0.0,0
2022340000,0,0.62664557,0.00903337,0.0045508263,0.7792446,0.0,0.0,0.0,0.0,0
2022352000,0,0.6266436,0.0090586,0.004531746,0.77924603,0.0,0.0,0.0,0.0,0
2022360000,0,0.626642,0.0090640895,0.0045140684,0.7792473,0.0,0.0,0.0,0.0,0
2022372000,0,0.6266391,0.009054827,0.0044866954,0.77924985,0.0,0.0,0.0,0.0,0
2022380000,0,0.6266368,0.009037791,0.0044736844,0.779252,0.0,0.0,0.0,0.0,0
2022392000,0,0.6266326,0.008997796,0.0044565704,0.779256,0.0,0.0,0.0,0.0,0
2022400000,0,0.6266293,0.008967473,0.004450445,0.779259,0.0,0.0,0.0,0.0,0
2022412000,0,0.62662417,0.008911797,0.00443941,0.77926385,0.0,0.0,0.0,0.0,0
2022420000,0,0.62662077,0.008865496,0.0044284086,0.7792672,0.0,0.0,0.0,0.0,0
2022432000,0,0.62661594,0.008787464,0.004402207,0.7792721,0.0,0.0,0.0,0.0,0
2022440000,0,0.62661314,0.008739654,0.0043751844,0.779275,0.0,0.0,0.0,0.0,0
2022452000,0,0.62660944,0.008672618,0.0043220543,0.77927905,0.0,0.0,0.0,0.0,0
2022460000,0,0.6266072,0.008627073,0.004280058,0.7792816,0.0,0.0,0.0,0.0,0
2022468000,0,0.6266051,0.008581056,0.004234265,0.779284,0.0,0.0,0.0,0.0,0
2022480000,0,0.6266024,0.008504298,0.004165968,0.7792874,0.0,0.0,0.0,0.0,0
2022492000,0,0.62660044,0.00841745,0.004097177,0.7792903,0.0,0.0,0.0,0.0,0
2022500000,0,0.62659943,0.008360817,0.004053148,0.7792919,0.0,0.0,0.0,0.0,0
2022512000,0,0.62659836,0.00828711,0.003992104,0.7792939,0.0,0.0,0.0,0.0,0
2022520000,0,0.6265979,0.008251486,0.0039557614,0.77929485,0.0,0.0,0.0,0.0,0
2022532000,0,0.6265973,0.008213305,0.003908174,0.779296,0.0,0.0,0.0,0.0,0
2022540000,0,0.626597,0.008187527,0.0038802389,0.77929664,0.0,0.0,0.0,0.0,0
2022552000,0,0.62659687,0.008142514,0.0038407538,0.77929735,0.0,0.0,0.0,0.0,0
2022560000,0,0.6265973,0.008106586,0.0038115515,0.77929753,0.0,0.0,0.0,0.0,0
2022572000,0,0.62659854,0.0080566015,0.0037665742,0.7792973,0.0,0.0,0.0,0.0,0
2022580000,0,0.62659985,0.00803162,0.0037325802,0.7792967,0.0,0.0,0.0,0.0,0
2022592000,0,0.6266025,0.00800386,0.003676329,0.7792951,0.0,0.0,0.0,0.0,0
2022600000,0,0.6266047,0.007987727,0.0036402112,0.77929366,0.0,0.0,0.0,0.0,0
2022612000,0,0.62660843,0.00796219,0.0035977704,0.7792911,0.0,0.0,0.0,0.0,0
2022620000,0,0.6266112,0.007947348,0.0035737383,0.7792892,0.0,0.0,0.0,0.0,0
2022632000,0,0.6266152,0.007926335,0.0035417562,0.77928627,0.0,0.0,0.0,0.0,0
2022640000,0,0.62661755,0.007906646,0.0035212298,0.77928466,0.0,0.0,0.0,0.0,0
2022652000,0,0.62662065,0.007864783,0.0034831928,0.7792828,0.0,0.0,0.0,0.0,0
2022660000,0,0.6266223,0.007828589,0.0034558105,0.7792819,0.0,0.0,0.0,0.0,0
2022672000,0,0.62662405,0.00776513,0.0034221106,0.7792813,0.0,0.0,0.0,0.0,0
2022680000,0,0.6266245,0.007721967,0.0034028497,0.7792815,0.0,0.0,0.0,0.0,0
2022692000,0,0.62662405,0.0076671913,0.003373963,0.7792825,0.0,0.0,0.0,0.0,0
2022700000,0,0.6266231,0.007637018,0.003354369,0.77928364,0.0,0.0,0.0,0.0,0
2022712000,0,0.62662077,0.00759762,0.0033236877,0.7792861,0.0,0.0,0.0,0.0,0
2022720000,0,0.62661856,0.0075718383,0.003300791,0.7792882,0.0,0.0,0.0,0.0,0
2022732000,0,0.6266144,0.0075323177,0.0032661743,0.77929205,0.0,0.0,0.0,0.0,0
2022740000,0,0.62661076,0.0074959155,0.0032423683,0.77929544,0.0,0.0,0.0,0.0,0
2022752000,0,0.6266037,0.0074290656,0.0032133628,0.7793018,0.0,0.0,0.0,0.0,0
2022760000,0,0.626598,0.007377831,0.0032054803,0.77930695,0.0,0.0,0.0,0.0,0
2022772000,0,0.62658775,0.0072981548,0.003216986,0.7793159,0.0,0.0,0.0,0.0,0
2022780000,0,0.62657994,0.0072465483,0.0032360526,0.77932256,0.0,0.0,0.0,0.0,0
2022792000,0,0.6265674,0.0071681673,0.0032632023,0.7793333,0.0,0.0,0.0,0.0,0
2022800000,0,0.6265586,0.007114969,0.0032774226,0.77934074,0.0,0.0,0.0,0.0,0
2022812000,0,0.6265449,0.0070265466,0.003299371,0.77935255,0.0,0.0,0.0,0.0,0
2022820000,0,0.62653553,0.0069616595,0.00331115,0.7793606,0.0,0.0,0.0,0.0,0
2022832000,0,0.62652147,0.006856797,0.0033232123,0.77937275,0.0,0.0,0.0,0.0,0
2022840000,0,0.6265122,0.006783252,0.003327919,0.7793808,0.0,0.0,0.0,0.0,0
2022852000,0,0.6264987,0.0066719553,0.003329865,0.77939266,0.0,0.0,0.0,0.0,0
2022860000,0,0.62648976,0.0065941783,0.0033298435,0.77940047,0.0,0.0,0.0,0.0,0
2022872000,0,0.6264764,0.0064702006,0.0033309686,0.77941227,0.0,0.0,0.0,0.0,0
2022880000,0,0.6264674,0.0063882642,0.0033335118,0.77942014,0.0,0.0,0.0,0.0,0
2022892000,0,0.6264541,0.006267805,0.0033326156,0.7794318,0.0,0.0,0.0,0.0,0
2022900000,0,0.62644535,0.0061865994,0.0033256048,0.7794395,0.0,0.0,0.0,0.0,0
2022912000,0,0.62643224,0.006069847,0.0033118816,0.7794511,0.0,0.0,0.0,0.0,0
2022920000,0,0.62642336,0.0059986743,0.0032976407,0.7794588,0.0,0.0,0.0,0.0,0
2022932000,0,0.62640977,0.00589493,0.0032711518,0.7794706,0.0,0.0,0.0,0.0,0
2022940000,0,0.62640065,0.0058325515,0.003256711,0.7794785,0.0,0.0,0.0,0.0,0
2022952000,0,0.6263868,0.0057485863,0.0032404694,0.7794903,0.0,0.0,0.0,0.0,0
2022960000,0,0.6263776,0.0056915986,0.0032318186,0.77949816,0.0,0.0,0.0,0.0,0
2022972000,0,0.6263636,0.00558777,0.003214501,0.77951026,0.0,0.0,0.0,0.0,0
2022980000,0,0.6263541,0.0055043483,0.003195286,0.77951854,0.0,0.0,0.0,0.0,0
2022992000,0,0.6263396,0.0053701606,0.0031582795,0.77953124,0.0,0.0,0.0,0.0,0
2023000000,0,0.6263297,0.00527838,0.0031290743,0.77953994,0.0,0.0,0.0,0.0,0
2023012000,0,0.6263141,0.005157828,0.003073221,0.77955353,0.0,0.0,0.0,0.0,0
2023020000,0,0.62630314,0.005092846,0.0030296398,0.7795629,0.0,0.0,0.0,0.0,0
2023032000,0,0.626286,0.0050065825,0.0029587531,0.77957755,0.0,0.0,0.0,0.0,0
2023040000,0,0.62627417,0.0049581947,0.0029121207,0.7795875,0.0,0.0,0.0,0.0,0
2023052000,0,0.62625635,0.0048931492,0.002859288,0.77960247,0.0,0.0,0.0,0.0,0
2023060000,0,0.6262444,0.0048536044,0.002839997,0.77961236,0.0,0.0,0.0,0.0,0
2023072000,0,0.62622684,0.004803304,0.0028393771,0.7796268,0.0,0.0,0.0,0.0,0
2023080000,0,0.6262155,0.0047781104,0.002849894,0.779636,0.0,0.0,0.0,0.0,0
2023092000,0,0.62619925,0.0047473777,0.0028679932,0.7796492,0.0,0.0,0.0,0.0,0
2023100000,0,0.62618893,0.004725461,0.0028720119,0.77965754,0.0,0.0,0.0,0.0,0
2023112000,0,0.6261742,0.0046864925,0.0028570138,0.7796697,0.0,0.0,0.0,0.0,0
2023120000,0,0.6261648,0.0046603098,0.0028329904,0.7796775,0.0,0.0,0.0,0.0,0
2023132000,0,0.62615126,0.0046221158,0.0027859928,0.7796888,0.0,0.0,0.0,0.0,0
2023140000,0,0.6261425,0.0045981607,0.0027527213,0.77969605,0.0,0.0,0.0,0.0,0
2023152000,0,0.62612987,0.0045628287,0.0027145697,0.77970654,0.0,0.0,0.0,0.0,0
2023160000,0,0.6261217,0.0045370166,0.002696891,0.77971333,0.0,0.0,0.0,0.0,0
2023172000,0,0.6261097,0.0044949874,0.002674387,0.7797232,0.0,0.0,0.0,0.0,0
2023180000,0,0.6261021,0.004464004,0.0026562288,0.77972966,0.0,0.0,0.0,0.0,0
2023192000,0,0.6260911,0.004407403,0.0026312901,0.77973884,0.0,0.0,0.0,0.0,0
2023200000,0,0.62608427,0.004367291,0.0026141151,0.7797446,0.0,0.0,0.0,0.0,0
2023212000,0,0.62607473,0.004315764,0.0025974654,0.7797526,0.0,0.0,0.0,0.0,0
2023220000,0,0.6260692,0.0042865775,0.002595837,0.77975726,0.0,0.0,0.0,0.0,0
2023232000,0,0.6260623,0.004246241,0.0025893052,0.77976304,0.0,0.0,0.0,0.0,0
2023240000,0,0.62605846,0.00421964,0.0025816897,0.77976626,0.0,0.0,0.0,0.0,0
2023252000,0,0.6260532,0.0041785724,0.0025690699,0.77977073,0.0,0.0,0.0,0.0,0
2023260000,0,0.6260499,0.0041473177,0.0025610419,0.7797736,0.0,0.0,0.0,0.0,0
2023272000,0,0.62604535,0.0040907757,0.0025423628,0.77977765,0.0,0.0,0.0,0.0,0
2023280000,0,0.6260426,0.0040496113,0.0025226832,0.7797801,0.0,0.0,0.0,0.0,0
2023292000,0,0.62603927,0.003993411,0.0024891805,0.7797832,0.0,0.0,0.0,0.0,0
2023300000,0,0.6260373,0.003966824,0.0024698207,0.779785,0.0,0.0,0.0,0.0,0
2023312000,0,0.62603474,0.0039456952,0.002441045,0.7797872,0.0,0.0,0.0,0.0,0
2023320000,0,0.62603337,0.0039344863,0.0024228094,0.7797884,0.0,0.0,0.0,0.0,0
2023332000,0,0.62603223,0.00391559,0.0024035093,0.7797895,0.0,0.0,0.0,0.0,0
2023340000,0,0.62603205,0.0038991652,0.0023901118,0.77978975,0.0,0.0,0.0,0.0,0
2023352000,0,0.6260326,0.0038713918,0.0023605356,0.77978957,0.0,0.0,0.0,0.0,0
2023360000,0,0.62603337,0.0038481033,0.002330041,0.77978915,0.0,0.0,0.0,0.0,0
2023372000,0,0.62603474,0.0037901446,0.0022647206,0.7797885,0.0,0.0,0.0,0.0,0
2023380000,0,0.6260357,0.0037341372,0.0022159116,0.77978814,0.0,0.0,0.0,0.0,0
2023392000,0,0.62603724,0.0036247142,0.002143717,0.7797876,0.0,0.0,0.0,0.0,0
2023400000,0,0.6260383,0.0035359021,0.0020968635,0.7797873,0.0,0.0,0.0,0.0,0
2023412000,0,0.6260398,0.0033895234,0.0020273977,0.77978694,0.0,0.0,0.0,0.0,0
2023420000,0,0.6260408,0.0032871359,0.0019763007,0.7797867,0.0,0.0,0.0,0.0,0
2023432000,0,0.62604195,0.003142601,0.0018941286,0.7797866,0.0,0.0,0.0,0.0,0
2023440000,0,0.6260425,0.0030538111,0.0018336164,0.77978665,0.0,0.0,0.0,0.0,0
2023452000,0,0.6260429,0.0029233175,0.0017467805,0.779787,0.0,0.0,0.0,0.0,0
2023460000,0,0.626043,0.0028385597,0.0016950372,0.77978736,0.0,0.0,0.0,0.0,0
2023472000,0,0.626043,0.0027178389,0.0016269392,0.7797879,0.0,0.0,0.0,0.0,0
2023480000,0,0.6260431,0.0026426376,0.001590095,0.77978826,0.0,0.0,0.0,0.0,0
2023492000,0,0.626043,0.0025450897,0.0015440737,0.7797887,0.0,0.0,0.0,0.0,0
2023500000,0,0.626043,0.0024857135,0.0015155496,0.7797889,0.0,0.0,0.0,0.0,0
2023512000,0,0.6260429,0.002404513,0.0014728477,0.7797893,0.0,0.0,0.0,0.0,0
2023520000,0,0.62604284,0.0023583474,0.0014473236,0.77978957,0.0,0.0,0.0,0.0,0
2023532000,0,0.6260428,0.0022934275,0.001412876,0.77978987,0.0,0.0,0.0,0.0,0
