timestamp,timestamp_sample,gps_hvel[0],gps_hvel[1],gps_vvel,gps_hpos[0],gps_hpos[1],gps_vpos,ev_hvel[0],ev_hvel[1],ev_vvel,ev_hpos[0],ev_hpos[1],ev_vpos,rng_vpos,baro_vpos,aux_hvel[0],aux_hvel[1],flow[0],flow[1],heading,mag_field[0],mag_field[1],mag_field[2],gravity[0],gravity[1],gravity[2],drag[0],drag[1],airspeed,beta,hagl,hagl_rate
2015916000,2015764000,0.00022771342,2.2613442e-06,0.00016910136,1.1777737e-06,3.1225193e-07,8.604e-05,0.0,0.0,0.0,0.0,0.0,0.0,0.0,2.4288935e-05,0.0,0.0,0.0,0.0,0.00016132378,2.2787755e-05,1.0571563e-05,0.00016132378,0.0007272414,0.00037771507,3.9318024e-09,0.0,0.0,0.0,0.0,0.0,0.0
2015924000,2015772000,0.00022771342,2.2613442e-06,0.00016910136,1.1777737e-06,3.1225193e-07,8.604e-05,0.0,0.0,0.0,0.0,0.0,0.0,0.0,4.0557297e-05,0.0,0.0,0.0,0.0,0.00032352706,1.5339932e-05,0.00032352706,5.104233e-05,0.00014489565,3.459934e-05,2.578929e-09,0.0,0.0,0.0,0.0,0.0,0.0
2015932000,2015780000,0.00022771342,2.2613442e-06,0.00016910136,1.1777737e-06,3.1225193e-07,8.604e-05,0.0,0.0,0.0,0.0,0.0,0.0,0.0,4.0557297e-05,0.0,0.0,0.0,0.0,0.00032352706,1.5339932e-05,0.00032352706,5.104233e-05,0.000102703656,8.087532e-06,4.604317e-10,0.0,0.0,0.0,0.0,0.0,0.0
2015940000,2015788000,0.00022771342,2.2613442e-06,0.00016910136,1.1777737e-06,3.1225193e-07,8.604e-05,0.0,0.0,0.0,0.0,0.0,0.0,0.0,4.0557297e-05,0.0,0.0,0.0,0.0,0.00032352706,1.5339932e-05,0.00032352706,5.104233e-05,1.9459228e-05,0.00064357196,1.6575541e-08,0.0,0.0,0.0,0.0,0.0,0.0
2015948000,2015796000,0.00022771342,2.2613442e-06,0.00016910136,1.1777737e-06,3.1225193e-07,8.604e-05,0.0,0.0,0.0,0.0,0.0,0.0,0.0,4.0557297e-05,0.0,0.0,0.0,0.0,0.00032352706,1.5339932e-05,0.00032352706,5.104233e-05,0.0002646568,0.00036771112,3.66731e-09,0.0,0.0,0.0,0.0,0.0,0.0
2015956000,2015804000,0.00022771342,2.2613442e-06,0.00016910136,1.1777737e-06,3.1225193e-07,8.604e-05,0.0,0.0,0.0,0.0,0.0,0.0,0.0,4.0557297e-05,0.0,0.0,0.0,0.0,0.00032352706,1.5339932e-05,0.00032352706,5.104233e-05,2.2549222e-05,1.8455723e-06,4.456524e-11,0.0,0.0,0.0,0.0,0.0,0.0
2015972000,2015820000,0.00022771342,2.2613442e-06,0.00016910136,1.1777737e-06,3.1225193e-07,8.604e-05,0.0,0.0,0.0,0.0,0.0,0.0,0.0,4.0557297e-05,0.0,0.0,0.0,0.0,0.00032352706,1.5339932e-05,0.00032352706,5.104233e-05,0.00033927907,0.00015831982,3.6962433e-09,0.0,0.0,0.0,0.0,0.0,0.0
2015980000,2015828000,0.00022771342,2.2613442e-06,0.00016910136,1.1777737e-06,3.1225193e-07,8.604e-05,0.0,0.0,0.0,0.0,0.0,0.0,0.0,4.0557297e-05,0.0,0.0,0.0,0.0,0.00032352706,1.5339932e-05,0.00032352706,5.104233e-05,0.00087973685,0.0002942416,4.811227e-08,0.0,0.0,0.0,0.0,0.0,0.0
2015988000,2015836000,0.00022771342,2.2613442e-06,0.00016910136,1.1777737e-06,3.1225193e-07,8.604e-05,0.0,0.0,0.0,0.0,0.0,0.0,0.0,4.0557297e-05,0.0,0.0,0.0,0.0,0.00032352706,1.5339932e-05,0.00032352706,5.104233e-05,7.6964316e-05,4.856432e-06,2.8654767e-10,0.0,0.0,0.0,0.0,0.0,0.0
2015996000,2015844000,0.00022771342,2.2613442e-06,0.00016910136,1.1777737e-06,3.1225193e-07,8.604e-05,0.0,0.0,0.0,0.0,0.0,0.0,0.0,1.6524069e-05,0.0,0.0,0.0,0.0,0.00025102042,0.00025102042,1.2418874e-07,4.244612e-06,0.00019676182,0.0019406005,3.6835957e-08,0.0,0.0,0.0,0.0,0.0,0.0
2016012000,2015860000,0.0003407199,0.00080052234,0.0001085737,1.2774912e-07,2.1367975e-06,8.283204e-05,0.0,0.0,0.0,0.0,0.0,0.0,0.0,1.6524069e-05,0.0,0.0,0.0,0.0,0.00025102042,0.00025102042,1.2418874e-07,4.244612e-06,0.00010685101,0.0004023946,9.555379e-11,0.0,0.0,0.0,0.0,0.0,0.0
2016020000,2015868000,0.0003407199,0.00080052234,0.0001085737,1.2774912e-07,2.1367975e-06,8.283204e-05,0.0,0.0,0.0,0.0,0.0,0.0,0.0,1.6524069e-05,0.0,0.0,0.0,0.0,0.00025102042,0.00025102042,1.2418874e-07,4.244612e-06,8.509628e-06,1.8341289e-05,6.963319e-11,0.0,0.0,0.0,0.0,0.0,0.0
2016028000,2015876000,0.0003407199,0.00080052234,0.0001085737,1.2774912e-07,2.1367975e-06,8.283204e-05,0.0,0.0,0.0,0.0,0.0,0.0,0.0,1.6524069e-05,0.0,0.0,0.0,0.0,0.00025102042,0.00025102042,1.2418874e-07,4.244612e-06,2.8551834e-05,0.0013548009,1.1004886e-08,0.0,0.0,0.0,0.0,0.0,0.0
2016036000,2015884000,0.0003407199,0.00080052234,0.0001085737,1.2774912e-07,2.1367975e-06,8.283204e-05,0.0,0.0,0.0,0.0,0.0,0.0,0.0,1.6524069e-05,0.0,0.0,0.0,0.0,0.00025102042,0.00025102042,1.2418874e-07,4.244612e-06,0.00016040064,5.938791e-05,4.456524e-11,0.0,0.0,0.0,0.0,0.0,0.0
2016052000,2015900000,0.0003407199,0.00080052234,0.0001085737,1.2774912e-07,2.1367975e-06,8.283204e-05,0.0,0.0,0.0,0.0,0.0,0.0,0.0,1.6524069e-05,0.0,0.0,0.0,0.0,0.00025102042,0.00025102042,1.2418874e-07,4.244612e-06,0.0007167454,0.0002663045,1.02190825e-08,0.0,0.0,0.0,0.0,0.0,0.0
2016060000,2015908000,0.0003407199,0.00080052234,0.0001085737,1.2774912e-07,2.1367975e-06,8.283204e-05,0.0,0.0,0.0,0.0,0.0,0.0,0.0,1.6524069e-05,0.0,0.0,0.0,0.0,0.00025102042,0.00025102042,1.2418874e-07,4.244612e-06,6.724354e-05,2.3058199e-05,1.0825261e-09,0.0,0.0,0.0,0.0,0.0,0.0
2016068000,2015916000,0.0003407199,0.00080052234,0.0001085737,1.2774912e-07,2.1367975e-06,8.283204e-05,0.0,0.0,0.0,0.0,0.0,0.0,0.0,2.29181e-05,0.0,0.0,0.0,0.0,0.00066267373,3.7236347e-05,0.00066267373,2.3386225e-05,0.00048256465,0.000107532345,1.6575541e-08,0.0,0.0,0.0,0.0,0.0,0.0
2016076000,2015924000,0.0003407199,0.00080052234,0.0001085737,1.2774912e-07,2.1367975e-06,8.283204e-05,0.0,0.0,0.0,0.0,0.0,0.0,0.0,2.29181e-05,0.0,0.0,0.0,0.0,0.00066267373,3.7236347e-05,0.00066267373,2.3386225e-05,1.802813e-05,0.00013377662,1.7808475e-09,0.0,0.0,0.0,0.0,0.0,0.0
2016092000,2015940000,0.0003407199,0.00080052234,0.0001085737,1.2774912e-07,2.1367975e-06,8.283204e-05,0.0,0.0,0.0,0.0,0.0,0.0,0.0,2.29181e-05,0.0,0.0,0.0,0.0,0.00066267373,3.7236347e-05,0.00066267373,2.3386225e-05,0.0008777095,1.0604269e-08,2.4911287e-08,0.0,0.0,0.0,0.0,0.0,0.0
2016100000,2015948000,0.0003407199,0.00080052234,0.0001085737,1.2774912e-07,2.1367975e-06,8.283204e-05,0.0,0.0,0.0,0.0,0.0,0.0,0.0,2.29181e-05,0.0,0.0,0.0,0.0,0.00066267373,3.7236347e-05,0.00066267373,2.3386225e-05,1.6764447e-05,9.531317e-05,2.2737368e-11,0.0,0.0,0.0,0.0,0.0,0.0
2016108000,2015956000,0.0003407199,0.00080052234,0.0001085737,1.2774912e-07,2.1367975e-06,8.283204e-05,0.0,0.0,0.0,0.0,0.0,0.0,0.0,2.29181e-05,0.0,0.0,0.0,0.0,0.00066267373,3.7236347e-05,0.00066267373,2.3386225e-05,6.454851e-05,0.00047214277,7.517542e-10,0.0,0.0,0.0,0.0,0.0,0.0
2016116000,2015964000,0.0003407199,0.00080052234,0.0001085737,1.2774912e-07,2.1367975e-06,8.283204e-05,0.0,0.0,0.0,0.0,0.0,0.0,0.0,2.29181e-05,0.0,0.0,0.0,0.0,0.00066267373,3.7236347e-05,0.00066267373,2.3386225e-05,2.0456641e-06,3.175455e-06,1.6427748e-11,0.0,0.0,0.0,0.0,0.0,0.0
2016132000,2015980000,0.0003407199,0.00080052234,0.0001085737,1.2774912e-07,2.1367975e-06,8.283204e-05,0.0,0.0,0.0,0.0,0.0,0.0,0.0,2.29181e-05,0.0,0.0,0.0,0.0,0.00066267373,3.7236347e-05,0.00066267373,2.3386225e-05,0.000106093394,0.00012662023,1.4551915e-11,0.0,0.0,0.0,0.0,0.0,0.0
2016140000,2015988000,0.0003407199,0.00080052234,0.0001085737,1.2774912e-07,2.1367975e-06,8.283204e-05,0.0,0.0,0.0,0.0,0.0,0.0,0.0,1.0402861e-05,0.0,0.0,0.0,0.0,0.0013089785,2.4323024e-05,0.0013089785,0.00057333574,5.3570257e-05,3.379912e-05,9.094947e-11,0.0,0.0,0.0,0.0,0.0,0.0
2016148000,2015996000,0.0003407199,0.00080052234,0.0001085737,1.2774912e-07,2.1367975e-06,8.283204e-05,0.0,0.0,0.0,0.0,0.0,0.0,0.0,1.0402861e-05,0.0,0.0,0.0,0.0,0.0013089785,2.4323024e-05,0.0013089785,0.00057333574,1.2839511e-05,0.00013165065,1.4210855e-12,0.0,0.0,0.0,0.0,0.0,0.0
2016156000,2016004000,0.0003407199,0.00080052234,0.0001085737,1.2774912e-07,2.1367975e-06,8.283204e-05,0.0,0.0,0.0,0.0,0.0,0.0,0.0,1.0402861e-05,0.0,0.0,0.0,0.0,0.0013089785,2.4323024e-05,0.0013089785,0.00057333574,2.3350502e-05,0.00024079905,3.7252903e-09,0.0,0.0,0.0,0.0,0.0,0.0
2016172000,2016020000,0.0003407199,0.00080052234,0.0001085737,1.2774912e-07,2.1367975e-06,8.283204e-05,0.0,0.0,0.0,0.0,0.0,0.0,0.0,1.0402861e-05,0.0,0.0,0.0,0.0,0.0013089785,2.4323024e-05,0.0013089785,0.00057333574,8.432482e-05,0.0007512712,7.656183e-09,0.0,0.0,0.0,0.0,0.0,0.0
2016180000,2016028000,0.0003407199,0.00080052234,0.0001085737,1.2774912e-07,2.1367975e-06,8.283204e-05,0.0,0.0,0.0,0.0,0.0,0.0,0.0,1.0402861e-05,0.0,0.0,0.0,0.0,0.0013089785,2.4323024e-05,0.0013089785,0.00057333574,0.00018946618,0.0011670236,1.1004886e-08,0.0,0.0,0.0,0.0,0.0,0.0
2016188000,2016036000,0.0003407199,0.00080052234,0.0001085737,1.2774912e-07,2.1367975e-06,8.283204e-05,0.0,0.0,0.0,0.0,0.0,0.0,0.0,1.0402861e-05,0.0,0.0,0.0,0.0,0.0013089785,2.4323024e-05,0.0013089785,0.00057333574,0.0012190801,0.00042849436,1.4324769e-08,0.0,0.0,0.0,0.0,0.0,0.0
2016196000,2016044000,0.0003407199,0.00080052234,0.0001085737,1.2774912e-07,2.1367975e-06,8.283204e-05,0.0,0.0,0.0,0.0,0.0,0.0,0.0,1.0402861e-05,0.0,0.0,0.0,0.0,0.0013089785,2.4323024e-05,0.0013089785,0.00057333574,0.00017970505,0.00028765452,2.4760993e-10,0.0,0.0,0.0,0.0,0.0,0.0
2016212000,2016060000,0.0003407199,0.00080052234,0.0001085737,1.2774912e-07,2.1367975e-06,8.283204e-05,0.0,0.0,0.0,0.0,0.0,0.0,0.0,2.7617855e-06,0.0,0.0,0.0,0.0,4.860974e-05,4.860974e-05,1.0513715e-05,8.173229e-06,0.00035833163,0.00021596412,7.531526e-09,0.0,0.0,0.0,0.0,0.0,0.0
2016220000,2016068000,0.0003407199,0.00080052234,0.0001085737,1.2774912e-07,2.1367975e-06,8.283204e-05,0.0,0.0,0.0,0.0,0.0,0.0,0.0,2.7617855e-06,0.0,0.0,0.0,0.0,4.860974e-05,4.860974e-05,1.0513715e-05,8.173229e-06,2.0367117e-06,0.00064429105,2.4829774e-09,0.0,0.0,0.0,0.0,0.0,0.0
2016228000,2016076000,0.0003407199,0.00080052234,0.0001085737,1.2774912e-07,2.1367975e-06,8.283204e-05,0.0,0.0,0.0,0.0,0.0,0.0,0.0,2.7617855e-06,0.0,0.0,0.0,0.0,4.860974e-05,4.860974e-05,1.0513715e-05,8.173229e-06,4.1880514e-05,2.4513845e-05,1.9787194e-10,0.0,0.0,0.0,0.0,0.0,0.0
2016236000,2016084000,0.0003407199,0.00080052234,0.0001085737,1.2774912e-07,2.1367975e-06,8.283204e-05,0.0,0.0,0.0,0.0,0.0,0.0,0.0,2.7617855e-06,0.0,0.0,0.0,0.0,4.860974e-05,4.860974e-05,1.0513715e-05,8.173229e-06,3.0886615e-05,0.001672711,7.3356205e-08,0.0,0.0,0.0,0.0,0.0,0.0
2016252000,2016100000,0.0003407199,0.00080052234,0.0001085737,1.2774912e-07,2.1367975e-06,8.283204e-05,0.0,0.0,0.0,0.0,0.0,0.0,0.0,2.7617855e-06,0.0,0.0,0.0,0.0,4.860974e-05,4.860974e-05,1.0513715e-05,8.173229e-06,0.0007505793,0.0023472619,1.4370585e-07,0.0,0.0,0.0,0.0,0.0,0.0
2016260000,2016108000,0.0003407199,0.00080052234,0.0001085737,1.2774912e-07,2.1367975e-06,8.283204e-05,0.0,0.0,0.0,0.0,0.0,0.0,0.0,2.7617855e-06,0.0,0.0,0.0,0.0,4.860974e-05,4.860974e-05,1.0513715e-05,8.173229e-06,3.343263e-05,5.125793e-06,1.5967316e-10,0.0,0.0,0.0,0.0,0.0,0.0
2016268000,2016116000,0.0003407199,0.00080052234,0.0001085737,1.2774912e-07,2.1367975e-06,8.283204e-05,0.0,0.0,0.0,0.0,0.0,0.0,0.0,2.7617855e-06,0.0,0.0,0.0,0.0,4.860974e-05,4.860974e-05,1.0513715e-05,8.173229e-06,9.888214e-06,0.00031447213,2.9290845e-09,0.0,0.0,0.0,0.0,0.0,0.0
2016276000,2016124000,0.0003407199,0.00080052234,0.0001085737,1.2774912e-07,2.1367975e-06,8.283204e-05,0.0,0.0,0.0,0.0,0.0,0.0,0.0,2.7617855e-06,0.0,0.0,0.0,0.0,4.860974e-05,4.860974e-05,1.0513715e-05,8.173229e-06,0.0009190642,5.0953928e-05,3.300579e-08,0.0,0.0,0.0,0.0,0.0,0.0
2016292000,2016140000,0.0003407199,0.00080052234,0.0001085737,1.2774912e-07,2.1367975e-06,8.283204e-05,0.0,0.0,0.0,0.0,0.0,0.0,0.0,5.337076e-06,0.0,0.0,0.0,0.0,2.3122506e-05,3.643927e-07,1.0924383e-06,2.3122506e-05,0.0007881296,0.00030119965,2.7773751e-08,0.0,0.0,0.0,0.0,0.0,0.0
2016300000,2016148000,0.0003407199,0.00080052234,0.0001085737,1.2774912e-07,2.1367975e-06,8.283204e-05,0.0,0.0,0.0,0.0,0.0,0.0,0.0,5.337076e-06,0.0,0.0,0.0,0.0,2.3122506e-05,3.643927e-07,1.0924383e-06,2.3122506e-05,4.76575e-05,0.00044109442,9.648829e-09,0.0,0.0,0.0,0.0,0.0,0.0
2016308000,2016156000,0.0003407199,0.00080052234,0.0001085737,1.2774912e-07,2.1367975e-06,8.283204e-05,0.0,0.0,0.0,0.0,0.0,0.0,0.0,5.337076e-06,0.0,0.0,0.0,0.0,2.3122506e-05,3.643927e-07,1.0924383e-06,2.3122506e-05,1.4197942e-05,4.864367e-06,4.456524e-11,0.0,0.0,0.0,0.0,0.0,0.0
2016316000,2016164000,0.0003407199,0.00080052234,0.0001085737,1.2774912e-07,2.1367975e-06,8.283204e-05,0.0,0.0,0.0,0.0,0.0,0.0,0.0,5.337076e-06,0.0,0.0,0.0,0.0,2.3122506e-05,3.643927e-07,1.0924383e-06,2.3122506e-05,0.00018522357,0.00037752054,5.1159077e-09,0.0,0.0,0.0,0.0,0.0,0.0
2016332000,2016180000,0.0003407199,0.00080052234,0.0001085737,1.2774912e-07,2.1367975e-06,8.283204e-05,0.0,0.0,0.0,0.0,0.0,0.0,0.0,5.337076e-06,0.0,0.0,0.0,0.0,2.3122506e-05,3.643927e-07,1.0924383e-06,2.3122506e-05,0.0018855782,9.2503025e-05,3.180412e-08,0.0,0.0,0.0,0.0,0.0,0.0
2016340000,2016188000,0.0003407199,0.00080052234,0.0001085737,1.2774912e-07,2.1367975e-06,8.283204e-05,0.0,0.0,0.0,0.0,0.0,0.0,0.0,5.337076e-06,0.0,0.0,0.0,0.0,2.3122506e-05,3.643927e-07,1.0924383e-06,2.3122506e-05,3.0067538e-05,0.0016294344,6.3028494e-08,0.0,0.0,0.0,0.0,0.0,0.0
2016348000,2016196000,0.0003407199,0.00080052234,0.0001085737,1.2774912e-07,2.1367975e-06,8.283204e-05,0.0,0.0,0.0,0.0,0.0,0.0,0.0,5.337076e-06,0.0,0.0,0.0,0.0,2.3122506e-05,3.643927e-07,1.0924383e-06,2.3122506e-05,0.00031591038,0.00034624903,5.930417e-09,0.0,0.0,0.0,0.0,0.0,0.0
2016356000,2016204000,0.0003407199,0.00080052234,0.0001085737,1.2774912e-07,2.1367975e-06,8.283204e-05,0.0,0.0,0.0,0.0,0.0,0.0,0.0,4.1137046e-06,0.0,0.0,0.0,0.0,1.797845e-05,1.797845e-05,7.085501e-06,1.3076959e-05,8.563107e-06,1.4254449e-06,2.7512215e-11,0.0,0.0,0.0,0.0,0.0,0.0
2016372000,2016220000,0.0003407199,0.00080052234,0.0001085737,1.2774912e-07,2.1367975e-06,8.283204e-05,0.0,0.0,0.0,0.0,0.0,0.0,0.0,4.1137046e-06,0.0,0.0,0.0,0.0,1.797845e-05,1.797845e-05,7.085501e-06,1.3076959e-05,0.0009774792,0.00013648768,1.0027179e-08,0.0,0.0,0.0,0.0,0.0,0.0
2016380000,2016228000,0.0003407199,0.00080052234,0.0001085737,1.2774912e-07,2.1367975e-06,8.283204e-05,0.0,0.0,0.0,0.0,0.0,0.0,0.0,4.1137046e-06,0.0,0.0,0.0,0.0,1.797845e-05,1.797845e-05,7.085501e-06,1.3076959e-05,0.0007162744,0.00021913335,8.734787e-09,0.0,0.0,0.0,0.0,0.0,0.0
2016388000,2016236000,0.0003407199,0.00080052234,0.0001085737,1.2774912e-07,2.1367975e-06,8.283204e-05,0.0,0.0,0.0,0.0,0.0,0.0,0.0,4.1137046e-06,0.0,0.0,0.0,0.0,1.797845e-05,1.797845e-05,7.085501e-06,1.3076959e-05,0.00048304631,0.0001438047,5.1301186e-10,0.0,0.0,0.0,0.0,0.0,0.0
2016396000,2016244000,0.0003407199,0.00080052234,0.0001085737,1.2774912e-07,2.1367975e-06,8.283204e-05,0.0,0.0,0.0,0.0,0.0,0.0,0.0,4.1137046e-06,0.0,0.0,0.0,0.0,1.797845e-05,1.797845e-05,7.085501e-06,1.3076959e-05,1.2781714e-05,0.0007575186,1.7383229e-08,0.0,0.0,0.0,0.0,0.0,0.0
2016412000,2016260000,0.00025423185,3.9375438e-05,6.219345e-05,1.1489001e-09,3.3033307e-06,5.1052695e-05,0.0,0.0,0.0,0.0,0.0,0.0,0.0,4.1137046e-06,0.0,0.0,0.0,0.0,1.797845e-05,1.797845e-05,7.085501e-06,1.3076959e-05,0.00045009115,0.00016323116,1.8274534e-08,0.0,0.0,0.0,0.0,0.0,0.0
2016420000,2016268000,0.00025423185,3.9375438e-05,6.219345e-05,1.1489001e-09,3.3033307e-06,5.1052695e-05,0.0,0.0,0.0,0.0,0.0,0.0,0.0,4.1137046e-06,0.0,0.0,0.0,0.0,1.797845e-05,1.797845e-05,7.085501e-06,1.3076959e-05,0.00022074145,0.0017142937,1.1157232e-07,0.0,0.0,0.0,0.0,0.0,0.0
2016428000,2016276000,0.00025423185,3.9375438e-05,6.219345e-05,1.1489001e-09,3.3033307e-06,5.1052695e-05,0.0,0.0,0.0,0.0,0.0,0.0,0.0,8.084885e-06,0.0,0.0,0.0,0.0,0.0007435766,0.00043770854,0.0007435766,6.6988454e-05,9.409241e-07,1.1731794e-08,3.637979e-12,0.0,0.0,0.0,0.0,0.0,0.0
2016436000,2016284000,0.00025423185,3.9375438e-05,6.219345e-05,1.1489001e-09,3.3033307e-06,5.1052695e-05,0.0,0.0,0.0,0.0,0.0,0.0,0.0,8.084885e-06,0.0,0.0,0.0,0.0,0.0007435766,0.00043770854,0.0007435766,6.6988454e-05,0.0031134088,0.0021496972,2.2828408e-07,0.0,0.0,0.0,0.0,0.0,0.0
2016452000,2016300000,0.00025423185,3.9375438e-05,6.219345e-05,1.1489001e-09,3.3033307e-06,5.1052695e-05,0.0,0.0,0.0,0.0,0.0,0.0,0.0,8.084885e-06,0.0,0.0,0.0,0.0,0.0007435766,0.00043770854,0.0007435766,6.6988454e-05,0.00049338443,0.004185906,1.8315092e-07,0.0,0.0,0.0,0.0,0.0,0.0
2016460000,2016308000,0.00025423185,3.9375438e-05,6.219345e-05,1.1489001e-09,3.3033307e-06,5.1052695e-05,0.0,0.0,0.0,0.0,0.0,0.0,0.0,8.084885e-06,0.0,0.0,0.0,0.0,0.0007435766,0.00043770854,0.0007435766,6.6988454e-05,0.00020110219,0.00018449231,5.684342e-14,0.0,0.0,0.0,0.0,0.0,0.0
2016468000,2016316000,0.00025423185,3.9375438e-05,6.219345e-05,1.1489001e-09,3.3033307e-06,5.1052695e-05,0.0,0.0,0.0,0.0,0.0,0.0,0.0,8.084885e-06,0.0,0.0,0.0,0.0,0.0007435766,0.00043770854,0.0007435766,6.6988454e-05,0.00022795555,0.0016038351,1.0161153e-07,0.0,0.0,0.0,0.0,0.0,0.0
2016476000,2016324000,0.00025423185,3.9375438e-05,6.219345e-05,1.1489001e-09,3.3033307e-06,5.1052695e-05,0.0,0.0,0.0,0.0,0.0,0.0,0.0,8.084885e-06,0.0,0.0,0.0,0.0,0.0007435766,0.00043770854,0.0007435766,6.6988454e-05,2.506199e-05,2.0576876e-05,3.007017e-11,0.0,0.0,0.0,0.0,0.0,0.0
2016492000,2016340000,0.00025423185,3.9375438e-05,6.219345e-05,1.1489001e-09,3.3033307e-06,5.1052695e-05,0.0,0.0,0.0,0.0,0.0,0.0,0.0,8.084885e-06,0.0,0.0,0.0,0.0,0.0007435766,0.00043770854,0.0007435766,6.6988454e-05,9.094651e-05,6.2211155e-05,3.1127456e-10,0.0,0.0,0.0,0.0,0.0,0.0
2016500000,2016348000,0.00025423185,3.9375438e-05,6.219345e-05,1.1489001e-09,3.3033307e-06,5.1052695e-05,0.0,0.0,0.0,0.0,0.0,0.0,0.0,2.6525817e-05,0.0,0.0,0.0,0.0,0.00015590856,0.00015590856,1.33244e-06,2.287654e-05,2.9567489e-05,0.0013166587,9.602047e-09,0.0,0.0,0.0,0.0,0.0,0.0
2016508000,2016356000,0.00025423185,3.9375438e-05,6.219345e-05,1.1489001e-09,3.3033307e-06,5.1052695e-05,0.0,0.0,0.0,0.0,0.0,0.0,0.0,2.6525817e-05,0.0,0.0,0.0,0.0,0.00015590856,0.00015590856,1.33244e-06,2.287654e-05,0.00027269736,6.067085e-05,8.740244e-10,0.0,0.0,0.0,0.0,0.0,0.0
2016516000,2016364000,0.00025423185,3.9375438e-05,6.219345e-05,1.1489001e-09,3.3033307e-06,5.1052695e-05,0.0,0.0,0.0,0.0,0.0,0.0,0.0,2.6525817e-05,0.0,0.0,0.0,0.0,0.00015590856,0.00015590856,1.33244e-06,2.287654e-05,0.00052808103,0.00020940277,2.4164365e-08,0.0,0.0,0.0,0.0,0.0,0.0
2016532000,2016380000,0.00025423185,3.9375438e-05,6.219345e-05,1.1489001e-09,3.3033307e-06,5.1052695e-05,0.0,0.0,0.0,0.0,0.0,0.0,0.0,2.6525817e-05,0.0,0.0,0.0,0.0,0.00015590856,0.00015590856,1.33244e-06,2.287654e-05,2.1283424e-06,0.0009869039,4.520416e-09,0.0,0.0,0.0,0.0,0.0,0.0
2016540000,2016388000,0.00025423185,3.9375438e-05,6.219345e-05,1.1489001e-09,3.3033307e-06,5.1052695e-05,0.0,0.0,0.0,0.0,0.0,0.0,0.0,2.6525817e-05,0.0,0.0,0.0,0.0,0.00015590856,0.00015590856,1.33244e-06,2.287654e-05,0.00063427497,0.0018204022,3.5836138e-08,0.0,0.0,0.0,0.0,0.0,0.0
2016548000,2016396000,0.00025423185,3.9375438e-05,6.219345e-05,1.1489001e-09,3.3033307e-06,5.1052695e-05,0.0,0.0,0.0,0.0,0.0,0.0,0.0,2.6525817e-05,0.0,0.0,0.0,0.0,0.00015590856,0.00015590856,1.33244e-06,2.287654e-05,0.000117847994,7.164178e-07,1.114131e-11,0.0,0.0,0.0,0.0,0.0,0.0
2016556000,2016404000,0.00025423185,3.9375438e-05,6.219345e-05,1.1489001e-09,3.3033307e-06,5.1052695e-05,0.0,0.0,0.0,0.0,0.0,0.0,0.0,2.6525817e-05,0.0,0.0,0.0,0.0,0.00015590856,0.00015590856,1.33244e-06,2.287654e-05,6.015495e-05,2.8964316e-05,1.130104e-09,0.0,0.0,0.0,0.0,0.0,0.0
2016572000,2016420000,0.00025423185,3.9375438e-05,6.219345e-05,1.1489001e-09,3.3033307e-06,5.1052695e-05,0.0,0.0,0.0,0.0,0.0,0.0,0.0,9.158913e-08,0.0,0.0,0.0,0.0,1.3887225e-05,1.3887225e-05,4.432561e-06,6.16728e-06,9.169515e-05,4.3698954e-05,7.781864e-11,0.0,0.0,0.0,0.0,0.0,0.0
2016580000,2016428000,0.00025423185,3.9375438e-05,6.219345e-05,1.1489001e-09,3.3033307e-06,5.1052695e-05,0.0,0.0,0.0,0.0,0.0,0.0,0.0,9.158913e-08,0.0,0.0,0.0,0.0,1.3887225e-05,1.3887225e-05,4.432561e-06,6.16728e-06,0.0010101708,9.827636e-05,2.9467628e-08,0.0,0.0,0.0,0.0,0.0,0.0
2016588000,2016436000,0.00025423185,3.9375438e-05,6.219345e-05,1.1489001e-09,3.3033307e-06,5.1052695e-05,0.0,0.0,0.0,0.0,0.0,0.0,0.0,9.158913e-08,0.0,0.0,0.0,0.0,1.3887225e-05,1.3887225e-05,4.432561e-06,6.16728e-06,0.0010546555,1.24493135e-05,3.5926462e-08,0.0,0.0,0.0,0.0,0.0,0.0
2016596000,2016444000,0.00025423185,3.9375438e-05,6.219345e-05,1.1489001e-09,3.3033307e-06,5.1052695e-05,0.0,0.0,0.0,0.0,0.0,0.0,0.0,9.158913e-08,0.0,0.0,0.0,0.0,1.3887225e-05,1.3887225e-05,4.432561e-06,6.16728e-06,0.0015949033,0.0029864383,2.9653256e-07,0.0,0.0,0.0,0.0,0.0,0.0
2016612000,2016460000,0.00025423185,3.9375438e-05,6.219345e-05,1.1489001e-09,3.3033307e-06,5.1052695e-05,0.0,0.0,0.0,0.0,0.0,0.0,0.0,9.158913e-08,0.0,0.0,0.0,0.0,1.3887225e-05,1.3887225e-05,4.432561e-06,6.16728e-06,0.00056601764,6.867073e-05,1.6822014e-08,0.0,0.0,0.0,0.0,0.0,0.0
2016620000,2016468000,0.00025423185,3.9375438e-05,6.219345e-05,1.1489001e-09,3.3033307e-06,5.1052695e-05,0.0,0.0,0.0,0.0,0.0,0.0,0.0,9.158913e-08,0.0,0.0,0.0,0.0,1.3887225e-05,1.3887225e-05,4.432561e-06,6.16728e-06,0.001288648,3.661528e-05,5.3373753e-08,0.0,0.0,0.0,0.0,0.0,0.0
2016628000,2016476000,0.00025423185,3.9375438e-05,6.219345e-05,1.1489001e-09,3.3033307e-06,5.1052695e-05,0.0,0.0,0.0,0.0,0.0,0.0,0.0,9.158913e-08,0.0,0.0,0.0,0.0,1.3887225e-05,1.3887225e-05,4.432561e-06,6.16728e-06,0.0004903158,8.031603e-05,8.381903e-09,0.0,0.0,0.0,0.0,0.0,0.0
2016636000,2016484000,0.00025423185,3.9375438e-05,6.219345e-05,1.1489001e-09,3.3033307e-06,5.1052695e-05,0.0,0.0,0.0,0.0,0.0,0.0,0.0,9.158913e-08,0.0,0.0,0.0,0.0,1.3887225e-05,1.3887225e-05,4.432561e-06,6.16728e-06,7.535085e-05,0.00021267975,5.784443e-09,0.0,0.0,0.0,0.0,0.0,0.0
2016652000,2016500000,0.00025423185,3.9375438e-05,6.219345e-05,1.1489001e-09,3.3033307e-06,5.1052695e-05,0.0,0.0,0.0,0.0,0.0,0.0,0.0,6.123432e-06,0.0,0.0,0.0,0.0,0.00030596124,0.00030596124,3.2490923e-05,3.6249571e-06,2.4756573e-05,0.0002703537,2.046363e-12,0.0,0.0,0.0,0.0,0.0,0.0
2016660000,2016508000,0.00025423185,3.9375438e-05,6.219345e-05,1.1489001e-09,3.3033307e-06,5.1052695e-05,0.0,0.0,0.0,0.0,0.0,0.0,0.0,6.123432e-06,0.0,0.0,0.0,0.0,0.00030596124,0.00030596124,3.2490923e-05,3.6249571e-06,0.00012462448,0.0017634992,1.0529226e-07,0.0,0.0,0.0,0.0,0.0,0.0
2016668000,2016516000,0.00025423185,3.9375438e-05,6.219345e-05,1.1489001e-09,3.3033307e-06,5.1052695e-05,0.0,0.0,0.0,0.0,0.0,0.0,0.0,6.123432e-06,0.0,0.0,0.0,0.0,0.00030596124,0.00030596124,3.2490923e-05,3.6249571e-06,0.0003086836,0.0005752501,1.4381897e-08,0.0,0.0,0.0,0.0,0.0,0.0
2016676000,2016524000,0.00025423185,3.9375438e-05,6.219345e-05,1.1489001e-09,3.3033307e-06,5.1052695e-05,0.0,0.0,0.0,0.0,0.0,0.0,0.0,6.123432e-06,0.0,0.0,0.0,0.0,0.00030596124,0.00030596124,3.2490923e-05,3.6249571e-06,0.0007559762,1.597971e-05,1.925423e-08,0.0,0.0,0.0,0.0,0.0,0.0
2016692000,2016540000,0.00025423185,3.9375438e-05,6.219345e-05,1.1489001e-09,3.3033307e-06,5.1052695e-05,0.0,0.0,0.0,0.0,0.0,0.0,0.0,6.123432e-06,0.0,0.0,0.0,0.0,0.00030596124,0.00030596124,3.2490923e-05,3.6249571e-06,0.0022322165,0.00032762767,1.410072e-07,0.0,0.0,0.0,0.0,0.0,0.0
2016700000,2016548000,0.00025423185,3.9375438e-05,6.219345e-05,1.1489001e-09,3.3033307e-06,5.1052695e-05,0.0,0.0,0.0,0.0,0.0,0.0,0.0,6.123432e-06,0.0,0.0,0.0,0.0,0.00030596124,0.00030596124,3.2490923e-05,3.6249571e-06,8.985931e-05,0.00078775105,2.161471e-09,0.0,0.0,0.0,0.0,0.0,0.0
2016708000,2016556000,0.00025423185,3.9375438e-05,6.219345e-05,1.1489001e-09,3.3033307e-06,5.1052695e-05,0.0,0.0,0.0,0.0,0.0,0.0,0.0,6.123432e-06,0.0,0.0,0.0,0.0,0.00030596124,0.00030596124,3.2490923e-05,3.6249571e-06,1.36005565e-05,5.2201467e-05,7.0036776e-10,0.0,0.0,0.0,0.0,0.0,0.0
2016716000,2016564000,0.00025423185,3.9375438e-05,6.219345e-05,1.1489001e-09,3.3033307e-06,5.1052695e-05,0.0,0.0,0.0,0.0,0.0,0.0,0.0,2.626752e-05,0.0,0.0,0.0,0.0,0.00022959647,0.00022959647,0.00010167285,8.3056526e-05,0.00013128486,6.222023e-07,3.007017e-11,0.0,0.0,0.0,0.0,0.0,0.0
2016732000,2016580000,0.00025423185,3.9375438e-05,6.219345e-05,1.1489001e-09,3.3033307e-06,5.1052695e-05,0.0,0.0,0.0,0.0,0.0,0.0,0.0,2.626752e-05,0.0,0.0,0.0,0.0,0.00022959647,0.00022959647,0.00010167285,8.3056526e-05,0.0002705444,0.0004951927,7.5729645e-09,0.0,0.0,0.0,0.0,0.0,0.0
2016740000,2016588000,0.00025423185,3.9375438e-05,6.219345e-05,1.1489001e-09,3.3033307e-06,5.1052695e-05,0.0,0.0,0.0,0.0,0.0,0.0,0.0,2.626752e-05,0.0,0.0,0.0,0.0,0.00022959647,0.00022959647,0.00010167285,8.3056526e-05,0.0012813627,0.0012753957,3.87829e-08,0.0,0.0,0.0,0.0,0.0,0.0
2016748000,2016596000,0.00025423185,3.9375438e-05,6.219345e-05,1.1489001e-09,3.3033307e-06,5.1052695e-05,0.0,0.0,0.0,0.0,0.0,0.0,0.0,2.626752e-05,0.0,0.0,0.0,0.0,0.00022959647,0.00022959647,0.00010167285,8.3056526e-05,0.00034487245,8.8237706e-05,1.3480985e-09,0.0,0.0,0.0,0.0,0.0,0.0
2016756000,2016604000,0.00025423185,3.9375438e-05,6.219345e-05,1.1489001e-09,3.3033307e-06,5.1052695e-05,0.0,0.0,0.0,0.0,0.0,0.0,0.0,2.626752e-05,0.0,0.0,0.0,0.0,0.00022959647,0.00022959647,0.00010167285,8.3056526e-05,0.00048282984,0.00063464424,2.1429742e-08,0.0,0.0,0.0,0.0,0.0,0.0
2016772000,2016620000,0.00025423185,3.9375438e-05,6.219345e-05,1.1489001e-09,3.3033307e-06,5.1052695e-05,0.0,0.0,0.0,0.0,0.0,0.0,0.0,2.626752e-05,0.0,0.0,0.0,0.0,0.00022959647,0.00022959647,0.00010167285,8.3056526e-05,0.00023027691,0.00029202193,3.5527137e-11,0.0,0.0,0.0,0.0,0.0,0.0
2016780000,2016628000,0.00025423185,3.9375438e-05,6.219345e-05,1.1489001e-09,3.3033307e-06,5.1052695e-05,0.0,0.0,0.0,0.0,0.0,0.0,0.0,2.626752e-05,0.0,0.0,0.0,0.0,0.0004458454,0.0004458454,0.00022023576,0.00014515246,0.0007323206,0.000110216686,2.9467628e-08,0.0,0.0,0.0,0.0,0.0,0.0
2016788000,2016636000,0.00025423185,3.9375438e-05,6.219345e-05,1.1489001e-09,3.3033307e-06,5.1052695e-05,0.0,0.0,0.0,0.0,0.0,0.0,0.0,2.9664025e-07,0.0,0.0,0.0,0.0,0.0004458454,0.0004458454,0.00022023576,0.00014515246,0.002334713,0.0016169106,2.6202594e-07,0.0,0.0,0.0,0.0,0.0,0.0
2016796000,2016644000,0.00025423185,3.9375438e-05,6.219345e-05,1.1489001e-09,3.3033307e-06,5.1052695e-05,0.0,0.0,0.0,0.0,0.0,0.0,0.0,2.9664025e-07,0.0,0.0,0.0,0.0,0.0004458454,0.0004458454,0.00022023576,0.00014515246,0.0005140122,0.00045524986,1.6514207e-08,0.0,0.0,0.0,0.0,0.0,0.0
2016812000,2016660000,0.00027313377,3.2856304e-05,3.5639525e-05,2.9095392e-07,2.2682722e-09,0.000115711875,0.0,0.0,0.0,0.0,0.0,0.0,0.0,2.9664025e-07,0.0,0.0,0.0,0.0,0.0004458454,0.0004458454,0.00022023576,0.00014515246,0.002606065,4.930936e-07,5.582484e-08,0.0,0.0,0.0,0.0,0.0,0.0
2016820000,2016668000,0.00027313377,3.2856304e-05,3.5639525e-05,2.9095392e-07,2.2682722e-09,0.000115711875,0.0,0.0,0.0,0.0,0.0,0.0,0.0,2.9664025e-07,0.0,0.0,0.0,0.0,0.0004458454,0.0004458454,0.00022023576,0.00014515246,0.0006606378,0.00028590564,9.789858e-09,0.0,0.0,0.0,0.0,0.0,0.0
2016828000,2016676000,0.00027313377,3.2856304e-05,3.5639525e-05,2.9095392e-07,2.2682722e-09,0.000115711875,0.0,0.0,0.0,0.0,0.0,0.0,0.0,2.9664025e-07,0.0,0.0,0.0,0.0,0.0004458454,0.0004458454,0.00022023576,0.00014515246,2.0435261e-06,4.576679e-05,2.5067948e-11,0.0,0.0,0.0,0.0,0.0,0.0
2016836000,2016684000,0.00027313377,3.2856304e-05,3.5639525e-05,2.9095392e-07,2.2682722e-09,0.000115711875,0.0,0.0,0.0,0.0,0.0,0.0,0.0,2.9664025e-07,0.0,0.0,0.0,0.0,0.0004458454,0.0004458454,0.00022023576,0.00014515246,3.0162239e-05,0.000494211,1.0855331e-08,0.0,0.0,0.0,0.0,0.0,0.0
2016852000,2016700000,0.00027313377,3.2856304e-05,3.5639525e-05,2.9095392e-07,2.2682722e-09,0.000115711875,0.0,0.0,0.0,0.0,0.0,0.0,0.0,2.8669592e-06,0.0,0.0,0.0,0.0,0.00019439745,8.0871265e-05,0.00019439745,2.2163964e-05,0.00011710274,3.8336184e-05,5.1159077e-11,0.0,0.0,0.0,0.0,0.0,0.0
2016860000,2016708000,0.00027313377,3.2856304e-05,3.5639525e-05,2.9095392e-07,2.2682722e-09,0.000115711875,0.0,0.0,0.0,0.0,0.0,0.0,0.0,2.8669592e-06,0.0,0.0,0.0,0.0,0.00019439745,8.0871265e-05,0.00019439745,2.2163964e-05,3.713545e-05,0.00077032857,2.2776533e-08,0.0,0.0,0.0,0.0,0.0,0.0
2016868000,2016716000,0.00027313377,3.2856304e-05,3.5639525e-05,2.9095392e-07,2.2682722e-09,0.000115711875,0.0,0.0,0.0,0.0,0.0,0.0,0.0,2.8669592e-06,0.0,0.0,0.0,0.0,0.00019439745,8.0871265e-05,0.00019439745,2.2163964e-05,0.0020096598,0.0052768104,8.815189e-07,0.0,0.0,0.0,0.0,0.0,0.0
2016876000,2016724000,0.00027313377,3.2856304e-05,3.5639525e-05,2.9095392e-07,2.2682722e-09,0.000115711875,0.0,0.0,0.0,0.0,0.0,0.0,0.0,2.8669592e-06,0.0,0.0,0.0,0.0,0.00019439745,8.0871265e-05,0.00019439745,2.2163964e-05,4.7097077e-05,0.00083524996,2.4760993e-08,0.0,0.0,0.0,0.0,0.0,0.0
2016892000,2016740000,0.00027313377,3.2856304e-05,3.5639525e-05,2.9095392e-07,2.2682722e-09,0.000115711875,0.0,0.0,0.0,0.0,0.0,0.0,0.0,2.8669592e-06,0.0,0.0,0.0,0.0,0.00019439745,8.0871265e-05,0.00019439745,2.2163964e-05,7.327293e-05,0.00076235755,3.246953e-09,0.0,0.0,0.0,0.0,0.0,0.0
2016900000,2016748000,0.00027313377,3.2856304e-05,3.5639525e-05,2.9095392e-07,2.2682722e-09,0.000115711875,0.0,0.0,0.0,0.0,0.0,0.0,0.0,2.8669592e-06,0.0,0.0,0.0,0.0,0.00019439745,8.0871265e-05,0.00019439745,2.2163964e-05,3.3411195e-06,6.06592e-05,4.604317e-12,0.0,0.0,0.0,0.0,0.0,0.0
2016908000,2016756000,0.00027313377,3.2856304e-05,3.5639525e-05,2.9095392e-07,2.2682722e-09,0.000115711875,0.0,0.0,0.0,0.0,0.0,0.0,0.0,3.8260905e-06,0.0,0.0,0.0,0.0,0.00019439745,8.0871265e-05,0.00019439745,2.2163964e-05,0.00043940652,0.0010883375,1.4097395e-08,0.0,0.0,0.0,0.0,0.0,0.0
2016916000,2016764000,0.00027313377,3.2856304e-05,3.5639525e-05,2.9095392e-07,2.2682722e-09,0.000115711875,0.0,0.0,0.0,0.0,0.0,0.0,0.0,3.8260905e-06,0.0,0.0,0.0,0.0,0.00017785907,9.577907e-05,2.754625e-05,0.00017785907,1.6836344e-05,4.5949404e-05,4.9163873e-10,0.0,0.0,0.0,0.0,0.0,0.0
2016932000,2016780000,0.00027313377,3.2856304e-05,3.5639525e-05,2.9095392e-07,2.2682722e-09,0.000115711875,0.0,0.0,0.0,0.0,0.0,0.0,0.0,3.8260905e-06,0.0,0.0,0.0,0.0,0.00017785907,9.577907e-05,2.754625e-05,0.00017785907,0.00022462184,0.00017718301,7.739857e-09,0.0,0.0,0.0,0.0,0.0,0.0
2016940000,2016788000,0.00027313377,3.2856304e-05,3.5639525e-05,2.9095392e-07,2.2682722e-09,0.000115711875,0.0,0.0,0.0,0.0,0.0,0.0,0.0,3.8260905e-06,0.0,0.0,0.0,0.0,0.00017785907,9.577907e-05,2.754625e-05,0.00017785907,6.46275e-05,0.0004900175,3.2198386e-09,0.0,0.0,0.0,0.0,0.0,0.0
2016948000,2016796000,0.00027313377,3.2856304e-05,3.5639525e-05,2.9095392e-07,2.2682722e-09,0.000115711875,0.0,0.0,0.0,0.0,0.0,0.0,0.0,3.8260905e-06,0.0,0.0,0.0,0.0,0.00017785907,9.577907e-05,2.754625e-05,0.00017785907,0.0019912326,0.0006513605,5.5150906e-08,0.0,0.0,0.0,0.0,0.0,0.0
2016956000,2016804000,0.00027313377,3.2856304e-05,3.5639525e-05,2.9095392e-07,2.2682722e-09,0.000115711875,0.0,0.0,0.0,0.0,0.0,0.0,0.0,3.8260905e-06,0.0,0.0,0.0,0.0,0.00017785907,9.577907e-05,2.754625e-05,0.00017785907,0.0033465817,0.00074675644,1.5475621e-07,0.0,0.0,0.0,0.0,0.0,0.0
2016972000,2016820000,0.00027313377,3.2856304e-05,3.5639525e-05,2.9095392e-07,2.2682722e-09,0.000115711875,0.0,0.0,0.0,0.0,0.0,0.0,0.0,3.8260905e-06,0.0,0.0,0.0,0.0,0.00017785907,9.577907e-05,2.754625e-05,0.00017785907,7.7270015e-05,0.00013653975,2.046363e-12,0.0,0.0,0.0,0.0,0.0,0.0
2016980000,2016828000,0.00027313377,3.2856304e-05,3.5639525e-05,2.9095392e-07,2.2682722e-09,0.000115711875,0.0,0.0,0.0,0.0,0.0,0.0,0.0,2.8489048e-06,0.0,0.0,0.0,0.0,0.00017785907,9.577907e-05,2.754625e-05,0.00017785907,0.00047532198,5.9593636e-05,2.4829774e-09,0.0,0.0,0.0,0.0,0.0,0.0
2016988000,2016836000,0.00027313377,3.2856304e-05,3.5639525e-05,2.9095392e-07,2.2682722e-09,0.000115711875,0.0,0.0,0.0,0.0,0.0,0.0,0.0,2.8489048e-06,0.0,0.0,0.0,0.0,0.00023598465,0.00023598465,0.0002063615,3.2425976e-07,0.0002892693,0.0010198094,1.02673425e-08,0.0,0.0,0.0,0.0,0.0,0.0
2016996000,2016844000,0.00027313377,3.2856304e-05,3.5639525e-05,2.9095392e-07,2.2682722e-09,0.000115711875,0.0,0.0,0.0,0.0,0.0,0.0,0.0,2.8489048e-06,0.0,0.0,0.0,0.0,0.00023598465,0.00023598465,0.0002063615,3.2425976e-07,9.746056e-05,2.3749654e-07,5.9139893e-10,0.0,0.0,0.0,0.0,0.0,0.0
2017012000,2016860000,0.00027313377,3.2856304e-05,3.5639525e-05,2.9095392e-07,2.2682722e-09,0.000115711875,0.0,0.0,0.0,0.0,0.0,0.0,0.0,2.8489048e-06,0.0,0.0,0.0,0.0,0.00023598465,0.00023598465,0.0002063615,3.2425976e-07,7.29183e-06,0.00093124516,2.6052987e-08,0.0,0.0,0.0,0.0,0.0,0.0
2017020000,2016868000,0.00027313377,3.2856304e-05,3.5639525e-05,2.9095392e-07,2.2682722e-09,0.000115711875,0.0,0.0,0.0,0.0,0.0,0.0,0.0,2.8489048e-06,0.0,0.0,0.0,0.0,0.00023598465,0.00023598465,0.0002063615,3.2425976e-07,1.3229147e-05,5.931055e-07,6.190248e-11,0.0,0.0,0.0,0.0,0.0,0.0
2017028000,2016876000,0.00027313377,3.2856304e-05,3.5639525e-05,2.9095392e-07,2.2682722e-09,0.000115711875,0.0,0.0,0.0,0.0,0.0,0.0,0.0,2.8489048e-06,0.0,0.0,0.0,0.0,0.00023598465,0.00023598465,0.0002063615,3.2425976e-07,0.0016590991,0.0008037254,1.6993005e-07,0.0,0.0,0.0,0.0,0.0,0.0
2017036000,2016884000,0.00027313377,3.2856304e-05,3.5639525e-05,2.9095392e-07,2.2682722e-09,0.000115711875,0.0,0.0,0.0,0.0,0.0,0.0,0.0,2.8489048e-06,0.0,0.0,0.0,0.0,0.00023598465,0.00023598465,0.0002063615,3.2425976e-07,0.000359671,0.00073797844,4.3024784e-08,0.0,0.0,0.0,0.0,0.0,0.0
2017052000,2016900000,0.00027313377,3.2856304e-05,3.5639525e-05,2.9095392e-07,2.2682722e-09,0.000115711875,0.0,0.0,0.0,0.0,0.0,0.0,0.0,2.9072316e-06,0.0,0.0,0.0,0.0,0.00023598465,0.00023598465,0.0002063615,3.2425976e-07,2.201983e-06,0.0007891199,2.1151436e-08,0.0,0.0,0.0,0.0,0.0,0.0
2017060000,2016908000,0.00027313377,3.2856304e-05,3.5639525e-05,2.9095392e-07,2.2682722e-09,0.000115711875,0.0,0.0,0.0,0.0,0.0,0.0,0.0,2.9072316e-06,0.0,0.0,0.0,0.0,0.00048778174,5.431853e-05,0.00048778174,6.4987e-07,0.0007362141,8.3500374e-05,2.3137773e-08,0.0,0.0,0.0,0.0,0.0,0.0
2017068000,2016916000,0.00027313377,3.2856304e-05,3.5639525e-05,2.9095392e-07,2.2682722e-09,0.000115711875,0.0,0.0,0.0,0.0,0.0,0.0,0.0,2.9072316e-06,0.0,0.0,0.0,0.0,0.00048778174,5.431853e-05,0.00048778174,6.4987e-07,0.0012913602,0.0006672516,5.8215846e-08,0.0,0.0,0.0,0.0,0.0,0.0
2017076000,2016924000,0.00027313377,3.2856304e-05,3.5639525e-05,2.9095392e-07,2.2682722e-09,0.000115711875,0.0,0.0,0.0,0.0,0.0,0.0,0.0,2.9072316e-06,0.0,0.0,0.0,0.0,0.00048778174,5.431853e-05,0.00048778174,6.4987e-07,2.7636738e-06,2.1088545e-05,8.645884e-11,0.0,0.0,0.0,0.0,0.0,0.0
2017092000,2016940000,0.00027313377,3.2856304e-05,3.5639525e-05,2.9095392e-07,2.2682722e-09,0.000115711875,0.0,0.0,0.0,0.0,0.0,0.0,0.0,2.9072316e-06,0.0,0.0,0.0,0.0,0.00048778174,5.431853e-05,0.00048778174,6.4987e-07,0.0020083373,0.00029356076,9.606538e-08,0.0,0.0,0.0,0.0,0.0,0.0
2017100000,2016948000,0.00027313377,3.2856304e-05,3.5639525e-05,2.9095392e-07,2.2682722e-09,0.000115711875,0.0,0.0,0.0,0.0,0.0,0.0,0.0,2.9072316e-06,0.0,0.0,0.0,0.0,0.00048778174,5.431853e-05,0.00048778174,6.4987e-07,7.689884e-05,1.8240444e-05,2.185061e-10,0.0,0.0,0.0,0.0,0.0,0.0
2017108000,2016956000,0.00027313377,3.2856304e-05,3.5639525e-05,2.9095392e-07,2.2682722e-09,0.000115711875,0.0,0.0,0.0,0.0,0.0,0.0,0.0,2.9072316e-06,0.0,0.0,0.0,0.0,0.00048778174,5.431853e-05,0.00048778174,6.4987e-07,3.0594774e-06,0.00013283422,3.5527137e-11,0.0,0.0,0.0,0.0,0.0,0.0
2017116000,2016964000,0.00027313377,3.2856304e-05,3.5639525e-05,2.9095392e-07,2.2682722e-09,0.000115711875,0.0,0.0,0.0,0.0,0.0,0.0,0.0,2.9072316e-06,0.0,0.0,0.0,0.0,0.00048778174,5.431853e-05,0.00048778174,6.4987e-07,0.0011794876,0.00014484017,3.6379788e-08,0.0,0.0,0.0,0.0,0.0,0.0
2017132000,2016980000,0.00027313377,3.2856304e-05,3.5639525e-05,2.9095392e-07,2.2682722e-09,0.000115711875,0.0,0.0,0.0,0.0,0.0,0.0,0.0,1.5543266e-07,0.0,0.0,0.0,0.0,0.00010581155,0.00010581155,3.6389905e-05,5.679122e-06,6.8932524e-05,0.00038538908,9.555379e-11,0.0,0.0,0.0,0.0,0.0,0.0
2017140000,2016988000,0.00027313377,3.2856304e-05,3.5639525e-05,2.9095392e-07,2.2682722e-09,0.000115711875,0.0,0.0,0.0,0.0,0.0,0.0,0.0,1.5543266e-07,0.0,0.0,0.0,0.0,0.00010581155,0.00010581155,3.6389905e-05,5.679122e-06,0.0009609539,0.00029161482,5.6050396e-08,0.0,0.0,0.0,0.0,0.0,0.0
2017148000,2016996000,0.00027313377,3.2856304e-05,3.5639525e-05,2.9095392e-07,2.2682722e-09,0.000115711875,0.0,0.0,0.0,0.0,0.0,0.0,0.0,1.5543266e-07,0.0,0.0,0.0,0.0,0.00010581155,0.00010581155,3.6389905e-05,5.679122e-06,0.00012316811,0.00044145065,1.669855e-08,0.0,0.0,0.0,0.0,0.0,0.0
2017156000,2017004000,0.00027313377,3.2856304e-05,3.5639525e-05,2.9095392e-07,2.2682722e-09,0.000115711875,0.0,0.0,0.0,0.0,0.0,0.0,0.0,1.5543266e-07,0.0,0.0,0.0,0.0,0.00010581155,0.00010581155,3.6389905e-05,5.679122e-06,5.0944265e-05,0.0010508914,4.5533e-08,0.0,0.0,0.0,0.0,0.0,0.0
2017172000,2017020000,0.00027313377,3.2856304e-05,3.5639525e-05,2.9095392e-07,2.2682722e-09,0.000115711875,0.0,0.0,0.0,0.0,0.0,0.0,0.0,1.5543266e-07,0.0,0.0,0.0,0.0,0.00010581155,0.00010581155,3.6389905e-05,5.679122e-06,5.063911e-07,0.0008214796,2.4611154e-08,0.0,0.0,0.0,0.0,0.0,0.0
2017180000,2017028000,0.00027313377,3.2856304e-05,3.5639525e-05,2.9095392e-07,2.2682722e-09,0.000115711875,0.0,0.0,0.0,0.0,0.0,0.0,0.0,1.5543266e-07,0.0,0.0,0.0,0.0,0.00010581155,0.00010581155,3.6389905e-05,5.679122e-06,1.2094393e-05,0.00016954055,4.1438852e-11,0.0,0.0,0.0,0.0,0.0,0.0
2017188000,2017036000,0.00027313377,3.2856304e-05,3.5639525e-05,2.9095392e-07,2.2682722e-09,0.000115711875,0.0,0.0,0.0,0.0,0.0,0.0,0.0,1.5543266e-07,0.0,0.0,0.0,0.0,0.00010581155,0.00010581155,3.6389905e-05,5.679122e-06,8.276213e-05,0.0038826724,1.3797967e-07,0.0,0.0,0.0,0.0,0.0,0.0
2017196000,2017044000,0.00027313377,3.2856304e-05,3.5639525e-05,2.9095392e-07,2.2682722e-09,0.000115711875,0.0,0.0,0.0,0.0,0.0,0.0,0.0,8.083984e-07,0.0,0.0,0.0,0.0,5.2291296e-05,1.3327174e-06,5.2291296e-05,1.3717712e-05,0.00023131138,0.0009865544,1.4267755e-08,0.0,0.0,0.0,0.0,0.0,0.0
2017212000,2017060000,1.8637578e-05,3.02105e-05,7.998818e-05,3.793509e-07,9.62243e-09,9.6578406e-05,0.0,0.0,0.0,0.0,0.0,0.0,0.0,8.083984e-07,0.0,0.0,0.0,0.0,5.2291296e-05,1.3327174e-06,5.2291296e-05,1.3717712e-05,0.002156487,0.0015606531,1.0421195e-07,0.0,0.0,0.0,0.0,0.0,0.0
2017220000,2017068000,1.8637578e-05,3.02105e-05,7.998818e-05,3.793509e-07,9.62243e-09,9.6578406e-05,0.0,0.0,0.0,0.0,0.0,0.0,0.0,8.083984e-07,0.0,0.0,0.0,0.0,5.2291296e-05,1.3327174e-06,5.2291296e-05,1.3717712e-05,4.0516243e-05,0.0015282106,1.28793545e-08,0.0,0.0,0.0,0.0,0.0,0.0
2017228000,2017076000,1.8637578e-05,3.02105e-05,7.998818e-05,3.793509e-07,9.62243e-09,9.6578406e-05,0.0,0.0,0.0,0.0,0.0,0.0,0.0,8.083984e-07,0.0,0.0,0.0,0.0,5.2291296e-05,1.3327174e-06,5.2291296e-05,1.3717712e-05,0.00094166456,0.00063662126,9.9794875e-09,0.0,0.0,0.0,0.0,0.0,0.0
2017236000,2017084000,1.8637578e-05,3.02105e-05,7.998818e-05,3.793509e-07,9.62243e-09,9.6578406e-05,0.0,0.0,0.0,0.0,0.0,0.0,0.0,8.083984e-07,0.0,0.0,0.0,0.0,5.2291296e-05,1.3327174e-06,5.2291296e-05,1.3717712e-05,7.856415e-05,0.00014528529,9.555379e-11,0.0,0.0,0.0,0.0,0.0,0.0
2017252000,2017100000,1.8637578e-05,3.02105e-05,7.998818e-05,3.793509e-07,9.62243e-09,9.6578406e-05,0.0,0.0,0.0,0.0,0.0,0.0,0.0,8.083984e-07,0.0,0.0,0.0,0.0,5.2291296e-05,1.3327174e-06,5.2291296e-05,1.3717712e-05,0.00069630024,0.0009709874,4.9375558e-08,0.0,0.0,0.0,0.0,0.0,0.0
2017260000,2017108000,1.8637578e-05,3.02105e-05,7.998818e-05,3.793509e-07,9.62243e-09,9.6578406e-05,0.0,0.0,0.0,0.0,0.0,0.0,0.0,8.083984e-07,0.0,0.0,0.0,0.0,5.2291296e-05,1.3327174e-06,5.2291296e-05,1.3717712e-05,0.0013604506,8.2230945e-05,1.7953653e-08,0.0,0.0,0.0,0.0,0.0,0.0
2017268000,2017116000,1.8637578e-05,3.02105e-05,7.998818e-05,3.793509e-07,9.62243e-09,9.6578406e-05,0.0,0.0,0.0,0.0,0.0,0.0,0.0,1.3588534e-06,0.0,0.0,0.0,0.0,0.00048453762,0.00048453762,0.00040140792,0.00033506227,0.0002844373,0.000191444,3.4679601e-09,0.0,0.0,0.0,0.0,0.0,0.0
2017276000,2017124000,1.8637578e-05,3.02105e-05,7.998818e-05,3.793509e-07,9.62243e-09,9.6578406e-05,0.0,0.0,0.0,0.0,0.0,0.0,0.0,1.3588534e-06,0.0,0.0,0.0,0.0,0.00048453762,0.00048453762,0.00040140792,0.00033506227,0.00018190657,0.0010152853,5.503898e-08,0.0,0.0,0.0,0.0,0.0,0.0
2017292000,2017140000,1.8637578e-05,3.02105e-05,7.998818e-05,3.793509e-07,9.62243e-09,9.6578406e-05,0.0,0.0,0.0,0.0,0.0,0.0,0.0,1.3588534e-06,0.0,0.0,0.0,0.0,0.00048453762,0.00048453762,0.00040140792,0.00033506227,0.0013454497,0.000917499,8.2949555e-08,0.0,0.0,0.0,0.0,0.0,0.0
2017300000,2017148000,1.8637578e-05,3.02105e-05,7.998818e-05,3.793509e-07,9.62243e-09,9.6578406e-05,0.0,0.0,0.0,0.0,0.0,0.0,0.0,1.3588534e-06,0.0,0.0,0.0,0.0,0.00048453762,0.00048453762,0.00040140792,0.00033506227,0.00025289375,0.0007695285,1.1004886e-08,0.0,0.0,0.0,0.0,0.0,0.0
2017308000,2017156000,1.8637578e-05,3.02105e-05,7.998818e-05,3.793509e-07,9.62243e-09,9.6578406e-05,0.0,0.0,0.0,0.0,0.0,0.0,0.0,1.3588534e-06,0.0,0.0,0.0,0.0,0.00048453762,0.00048453762,0.00040140792,0.00033506227,0.00023624199,0.0007204849,3.812835e-08,0.0,0.0,0.0,0.0,0.0,0.0
2017316000,2017164000,1.8637578e-05,3.02105e-05,7.998818e-05,3.793509e-07,9.62243e-09,9.6578406e-05,0.0,0.0,0.0,0.0,0.0,0.0,0.0,1.3588534e-06,0.0,0.0,0.0,0.0,0.00048453762,0.00048453762,0.00040140792,0.00033506227,0.0019395,0.0001042953,1.2467814e-07,0.0,0.0,0.0,0.0,0.0,0.0
2017332000,2017180000,1.8637578e-05,3.02105e-05,7.998818e-05,3.793509e-07,9.62243e-09,9.6578406e-05,0.0,0.0,0.0,0.0,0.0,0.0,0.0,1.3588534e-06,0.0,0.0,0.0,0.0,0.00048453762,0.00048453762,0.00040140792,0.00033506227,2.4349114e-07,0.0003977176,1.1004886e-10,0.0,0.0,0.0,0.0,0.0,0.0
2017340000,2017188000,1.8637578e-05,3.02105e-05,7.998818e-05,3.793509e-07,9.62243e-09,9.6578406e-05,0.0,0.0,0.0,0.0,0.0,0.0,0.0,1.642245e-06,0.0,0.0,0.0,0.0,5.7872916e-05,2.0207386e-05,5.7872916e-05,1.4743154e-05,5.3038064e-05,1.84079e-05,1.5967316e-10,0.0,0.0,0.0,0.0,0.0,0.0
2017348000,2017196000,1.8637578e-05,3.02105e-05,7.998818e-05,3.793509e-07,9.62243e-09,9.6578406e-05,0.0,0.0,0.0,0.0,0.0,0.0,0.0,1.642245e-06,0.0,0.0,0.0,0.0,5.7872916e-05,2.0207386e-05,5.7872916e-05,1.4743154e-05,1.2201421e-05,0.0014270395,8.913958e-09,0.0,0.0,0.0,0.0,0.0,0.0
2017356000,2017204000,1.8637578e-05,3.02105e-05,7.998818e-05,3.793509e-07,9.62243e-09,9.6578406e-05,0.0,0.0,0.0,0.0,0.0,0.0,0.0,1.642245e-06,0.0,0.0,0.0,0.0,5.7872916e-05,2.0207386e-05,5.7872916e-05,1.4743154e-05,0.0011523167,0.0005180494,9.094947e-09,0.0,0.0,0.0,0.0,0.0,0.0
2017372000,2017220000,1.8637578e-05,3.02105e-05,7.998818e-05,3.793509e-07,9.62243e-09,9.6578406e-05,0.0,0.0,0.0,0.0,0.0,0.0,0.0,1.642245e-06,0.0,0.0,0.0,0.0,5.7872916e-05,2.0207386e-05,5.7872916e-05,1.4743154e-05,1.23333275e-05,0.00016229895,6.190248e-11,0.0,0.0,0.0,0.0,0.0,0.0
2017380000,2017228000,1.8637578e-05,3.02105e-05,7.998818e-05,3.793509e-07,9.62243e-09,9.6578406e-05,0.0,0.0,0.0,0.0,0.0,0.0,0.0,1.642245e-06,0.0,0.0,0.0,0.0,5.7872916e-05,2.0207386e-05,5.7872916e-05,1.4743154e-05,0.00016392437,0.00012321022,1.1004886e-10,0.0,0.0,0.0,0.0,0.0,0.0
2017388000,2017236000,1.8637578e-05,3.02105e-05,7.998818e-05,3.793509e-07,9.62243e-09,9.6578406e-05,0.0,0.0,0.0,0.0,0.0,0.0,0.0,1.642245e-06,0.0,0.0,0.0,0.0,5.7872916e-05,2.0207386e-05,5.7872916e-05,1.4743154e-05,0.00083761243,0.0002293319,2.1173605e-09,0.0,0.0,0.0,0.0,0.0,0.0
2017396000,2017244000,1.8637578e-05,3.02105e-05,7.998818e-05,3.793509e-07,9.62243e-09,9.6578406e-05,0.0,0.0,0.0,0.0,0.0,0.0,0.0,1.642245e-06,0.0,0.0,0.0,0.0,5.7872916e-05,2.0207386e-05,5.7872916e-05,1.4743154e-05,2.6942921e-09,0.001285198,5.0120036e-08,0.0,0.0,0.0,0.0,0.0,0.0
2017412000,2017260000,1.8637578e-05,3.02105e-05,7.998818e-05,3.793509e-07,9.62243e-09,9.6578406e-05,0.0,0.0,0.0,0.0,0.0,0.0,0.0,5.8160305e-07,0.0,0.0,0.0,0.0,0.00046924784,1.4897179e-05,0.00046924784,3.7252419e-06,0.0001078225,0.0009063008,2.4592737e-09,0.0,0.0,0.0,0.0,0.0,0.0
2017420000,2017268000,1.8637578e-05,3.02105e-05,7.998818e-05,3.793509e-07,9.62243e-09,9.6578406e-05,0.0,0.0,0.0,0.0,0.0,0.0,0.0,5.8160305e-07,0.0,0.0,0.0,0.0,0.00046924784,1.4897179e-05,0.00046924784,3.7252419e-06,0.00024217373,1.5878016e-06,2.2737368e-11,0.0,0.0,0.0,0.0,0.0,0.0
2017428000,2017276000,1.8637578e-05,3.02105e-05,7.998818e-05,3.793509e-07,9.62243e-09,9.6578406e-05,0.0,0.0,0.0,0.0,0.0,0.0,0.0,5.8160305e-07,0.0,0.0,0.0,0.0,0.00046924784,1.4897179e-05,0.00046924784,3.7252419e-06,2.008199e-06,7.5479446e-05,5.0226845e-10,0.0,0.0,0.0,0.0,0.0,0.0
2017436000,2017284000,1.8637578e-05,3.02105e-05,7.998818e-05,3.793509e-07,9.62243e-09,9.6578406e-05,0.0,0.0,0.0,0.0,0.0,0.0,0.0,5.8160305e-07,0.0,0.0,0.0,0.0,0.00046924784,1.4897179e-05,0.00046924784,3.7252419e-06,0.0015885634,0.00012469638,1.9787194e-08,0.0,0.0,0.0,0.0,0.0,0.0
2017452000,2017300000,1.8637578e-05,3.02105e-05,7.998818e-05,3.793509e-07,9.62243e-09,9.6578406e-05,0.0,0.0,0.0,0.0,0.0,0.0,0.0,5.8160305e-07,0.0,0.0,0.0,0.0,0.00046924784,1.4897179e-05,0.00046924784,3.7252419e-06,0.00053367537,0.00035157404,1.614859e-08,0.0,0.0,0.0,0.0,0.0,0.0
2017460000,2017308000,1.8637578e-05,3.02105e-05,7.998818e-05,3.793509e-07,9.62243e-09,9.6578406e-05,0.0,0.0,0.0,0.0,0.0,0.0,0.0,5.8160305e-07,0.0,0.0,0.0,0.0,0.00046924784,1.4897179e-05,0.00046924784,3.7252419e-06,0.00037439205,0.0011448847,7.2041075e-09,0.0,0.0,0.0,0.0,0.0,0.0
2017468000,2017316000,1.8637578e-05,3.02105e-05,7.998818e-05,3.793509e-07,9.62243e-09,9.6578406e-05,0.0,0.0,0.0,0.0,0.0,0.0,0.0,5.8160305e-07,0.0,0.0,0.0,0.0,0.00046924784,1.4897179e-05,0.00046924784,3.7252419e-06,0.0008745515,1.8946786e-05,1.5475621e-09,0.0,0.0,0.0,0.0,0.0,0.0
2017476000,2017324000,1.8637578e-05,3.02105e-05,7.998818e-05,3.793509e-07,9.62243e-09,9.6578406e-05,0.0,0.0,0.0,0.0,0.0,0.0,0.0,5.8160305e-07,0.0,0.0,0.0,0.0,0.00046924784,1.4897179e-05,0.00046924784,3.7252419e-06,0.0005891072,5.5502132e-06,2.6284397e-10,0.0,0.0,0.0,0.0,0.0,0.0
2017492000,2017340000,1.8637578e-05,3.02105e-05,7.998818e-05,3.793509e-07,9.62243e-09,9.6578406e-05,0.0,0.0,0.0,0.0,0.0,0.0,0.0,3.4683915e-06,0.0,0.0,0.0,0.0,4.307618e-05,1.1938231e-05,2.8003562e-05,4.307618e-05,2.7658239e-06,0.0027813732,6.853065e-08,0.0,0.0,0.0,0.0,0.0,0.0
2017500000,2017348000,1.8637578e-05,3.02105e-05,7.998818e-05,3.793509e-07,9.62243e-09,9.6578406e-05,0.0,0.0,0.0,0.0,0.0,0.0,0.0,3.4683915e-06,0.0,0.0,0.0,0.0,4.307618e-05,1.1938231e-05,2.8003562e-05,4.307618e-05,0.0005183615,0.0018558655,2.9960802e-08,0.0,0.0,0.0,0.0,0.0,0.0
2017508000,2017356000,1.8637578e-05,3.02105e-05,7.998818e-05,3.793509e-07,9.62243e-09,9.6578406e-05,0.0,0.0,0.0,0.0,0.0,0.0,0.0,3.4683915e-06,0.0,0.0,0.0,0.0,4.307618e-05,1.1938231e-05,2.8003562e-05,4.307618e-05,0.0004935367,0.0009258685,3.0959427e-08,0.0,0.0,0.0,0.0,0.0,0.0
2017516000,2017364000,1.8637578e-05,3.02105e-05,7.998818e-05,3.793509e-07,9.62243e-09,9.6578406e-05,0.0,0.0,0.0,0.0,0.0,0.0,0.0,3.4683915e-06,0.0,0.0,0.0,0.0,4.307618e-05,1.1938231e-05,2.8003562e-05,4.307618e-05,0.00086217135,0.0006903024,2.9631565e-08,0.0,0.0,0.0,0.0,0.0,0.0
2017532000,2017380000,1.8637578e-05,3.02105e-05,7.998818e-05,3.793509e-07,9.62243e-09,9.6578406e-05,0.0,0.0,0.0,0.0,0.0,0.0,0.0,3.4683915e-06,0.0,0.0,0.0,0.0,4.307618e-05,1.1938231e-05,2.8003562e-05,4.307618e-05,4.0763655e-07,0.00010469737,8.881784e-10,0.0,0.0,0.0,0.0,0.0,0.0
2017540000,2017388000,1.8637578e-05,3.02105e-05,7.998818e-05,3.793509e-07,9.62243e-09,9.6578406e-05,0.0,0.0,0.0,0.0,0.0,0.0,0.0,3.4683915e-06,0.0,0.0,0.0,0.0,4.307618e-05,1.1938231e-05,2.8003562e-05,4.307618e-05,0.00076377933,3.778651e-05,1.2450982e-09,0.0,0.0,0.0,0.0,0.0,0.0
2017548000,2017396000,1.8637578e-05,3.02105e-05,7.998818e-05,3.793509e-07,9.62243e-09,9.6578406e-05,0.0,0.0,0.0,0.0,0.0,0.0,0.0,3.4683915e-06,0.0,0.0,0.0,0.0,0.00023285604,0.00023285604,9.803635e-05,1.0990097e-05,0.0035089673,0.0011050545,1.6273498e-07,0.0,0.0,0.0,0.0,0.0,0.0
2017556000,2017404000,1.8637578e-05,3.02105e-05,7.998818e-05,3.793509e-07,9.62243e-09,9.6578406e-05,0.0,0.0,0.0,0.0,0.0,0.0,0.0,2.6319547e-05,0.0,0.0,0.0,0.0,0.00023285604,0.00023285604,9.803635e-05,1.0990097e-05,0.00089800777,5.7492407e-06,3.0595402e-09,0.0,0.0,0.0,0.0,0.0,0.0
2017572000,2017420000,1.8637578e-05,3.02105e-05,7.998818e-05,3.793509e-07,9.62243e-09,9.6578406e-05,0.0,0.0,0.0,0.0,0.0,0.0,0.0,2.6319547e-05,0.0,0.0,0.0,0.0,0.00023285604,0.00023285604,9.803635e-05,1.0990097e-05,1.4425569e-05,4.93662e-05,4.1438852e-11,0.0,0.0,0.0,0.0,0.0,0.0
2017580000,2017428000,1.8637578e-05,3.02105e-05,7.998818e-05,3.793509e-07,9.62243e-09,9.6578406e-05,0.0,0.0,0.0,0.0,0.0,0.0,0.0,2.6319547e-05,0.0,0.0,0.0,0.0,0.00023285604,0.00023285604,9.803635e-05,1.0990097e-05,8.9255795e-05,3.226067e-05,1.7408297e-09,0.0,0.0,0.0,0.0,0.0,0.0
2017588000,2017436000,1.8637578e-05,3.02105e-05,7.998818e-05,3.793509e-07,9.62243e-09,9.6578406e-05,0.0,0.0,0.0,0.0,0.0,0.0,0.0,2.6319547e-05,0.0,0.0,0.0,0.0,0.00023285604,0.00023285604,9.803635e-05,1.0990097e-05,0.00016518754,0.0026907583,2.0412614e-07,0.0,0.0,0.0,0.0,0.0,0.0
2017596000,2017444000,1.8637578e-05,3.02105e-05,7.998818e-05,3.793509e-07,9.62243e-09,9.6578406e-05,0.0,0.0,0.0,0.0,0.0,0.0,0.0,2.6319547e-05,0.0,0.0,0.0,0.0,0.00023285604,0.00023285604,9.803635e-05,1.0990097e-05,0.00093996787,0.00010733511,6.30331e-09,0.0,0.0,0.0,0.0,0.0,0.0
2017612000,2017460000,2.4070472e-05,5.7831556e-08,8.120258e-05,8.05796e-06,2.632556e-10,7.4407835e-05,0.0,0.0,0.0,0.0,0.0,0.0,0.0,2.6319547e-05,0.0,0.0,0.0,0.0,0.00023285604,0.00023285604,9.803635e-05,1.0990097e-05,0.00035026355,2.3440876e-07,7.28528e-09,0.0,0.0,0.0,0.0,0.0,0.0
2017620000,2017468000,2.4070472e-05,5.7831556e-08,8.120258e-05,8.05796e-06,2.632556e-10,7.4407835e-05,0.0,0.0,0.0,0.0,0.0,0.0,0.0,4.7863897e-11,0.0,0.0,0.0,0.0,0.00061145966,0.00061145966,4.824643e-05,0.00016852182,0.0032792862,0.00020054003,2.944589e-07,0.0,0.0,0.0,0.0,0.0,0.0
2017628000,2017476000,2.4070472e-05,5.7831556e-08,8.120258e-05,8.05796e-06,2.632556e-10,7.4407835e-05,0.0,0.0,0.0,0.0,0.0,0.0,0.0,4.7863897e-11,0.0,0.0,0.0,0.0,0.00061145966,0.00061145966,4.824643e-05,0.00016852182,0.00024395372,0.0003247396,2.8654767e-10,0.0,0.0,0.0,0.0,0.0,0.0
2017636000,2017484000,2.4070472e-05,5.7831556e-08,8.120258e-05,8.05796e-06,2.632556e-10,7.4407835e-05,0.0,0.0,0.0,0.0,0.0,0.0,0.0,4.7863897e-11,0.0,0.0,0.0,0.0,0.00061145966,0.00061145966,4.824643e-05,0.00016852182,0.00027528687,2.0627725e-05,4.3301043e-09,0.0,0.0,0.0,0.0,0.0,0.0
2017652000,2017500000,2.4070472e-05,5.7831556e-08,8.120258e-05,8.05796e-06,2.632556e-10,7.4407835e-05,0.0,0.0,0.0,0.0,0.0,0.0,0.0,4.7863897e-11,0.0,0.0,0.0,0.0,0.00061145966,0.00061145966,4.824643e-05,0.00016852182,0.000653341,6.621059e-06,1.669855e-08,0.0,0.0,0.0,0.0,0.0,0.0
2017660000,2017508000,2.4070472e-05,5.7831556e-08,8.120258e-05,8.05796e-06,2.632556e-10,7.4407835e-05,0.0,0.0,0.0,0.0,0.0,0.0,0.0,4.7863897e-11,0.0,0.0,0.0,0.0,0.00061145966,0.00061145966,4.824643e-05,0.00016852182,1.5954074e-05,0.001863598,3.6198117e-08,0.0,0.0,0.0,0.0,0.0,0.0
2017668000,2017516000,2.4070472e-05,5.7831556e-08,8.120258e-05,8.05796e-06,2.632556e-10,7.4407835e-05,0.0,0.0,0.0,0.0,0.0,0.0,0.0,4.7863897e-11,0.0,0.0,0.0,0.0,0.00061145966,0.00061145966,4.824643e-05,0.00016852182,0.00012006339,1.9802294e-06,1.114131e-11,0.0,0.0,0.0,0.0,0.0,0.0
2017676000,2017524000,2.4070472e-05,5.7831556e-08,8.120258e-05,8.05796e-06,2.632556e-10,7.4407835e-05,0.0,0.0,0.0,0.0,0.0,0.0,0.0,1.226626e-05,0.0,0.0,0.0,0.0,0.00061145966,0.00061145966,4.824643e-05,0.00016852182,0.00057946146,0.0014434698,1.1526572e-07,0.0,0.0,0.0,0.0,0.0,0.0
2017692000,2017540000,2.4070472e-05,5.7831556e-08,8.120258e-05,8.05796e-06,2.632556e-10,7.4407835e-05,0.0,0.0,0.0,0.0,0.0,0.0,0.0,1.226626e-05,0.0,0.0,0.0,0.0,0.00018797615,2.1173277e-05,5.347926e-06,0.00018797615,5.8908267e-05,0.001983229,4.3620275e-08,0.0,0.0,0.0,0.0,0.0,0.0
2017700000,2017548000,2.4070472e-05,5.7831556e-08,8.120258e-05,8.05796e-06,2.632556e-10,7.4407835e-05,0.0,0.0,0.0,0.0,0.0,0.0,0.0,1.226626e-05,0.0,0.0,0.0,0.0,0.00018797615,2.1173277e-05,5.347926e-06,0.00018797615,0.0012774438,6.638283e-06,5.119324e-08,0.0,0.0,0.0,0.0,0.0,0.0
2017708000,2017556000,2.4070472e-05,5.7831556e-08,8.120258e-05,8.05796e-06,2.632556e-10,7.4407835e-05,0.0,0.0,0.0,0.0,0.0,0.0,0.0,1.226626e-05,0.0,0.0,0.0,0.0,0.00018797615,2.1173277e-05,5.347926e-06,0.00018797615,0.0016765508,0.0001614855,7.6488504e-08,0.0,0.0,0.0,0.0,0.0,0.0
2017716000,2017564000,2.4070472e-05,5.7831556e-08,8.120258e-05,8.05796e-06,2.632556e-10,7.4407835e-05,0.0,0.0,0.0,0.0,0.0,0.0,0.0,1.226626e-05,0.0,0.0,0.0,0.0,0.00018797615,2.1173277e-05,5.347926e-06,0.00018797615,0.0011790303,0.00012942805,3.9632653e-08,0.0,0.0,0.0,0.0,0.0,0.0
2017732000,2017580000,2.4070472e-05,5.7831556e-08,8.120258e-05,8.05796e-06,2.632556e-10,7.4407835e-05,0.0,0.0,0.0,0.0,0.0,0.0,0.0,1.226626e-05,0.0,0.0,0.0,0.0,0.00018797615,2.1173277e-05,5.347926e-06,0.00018797615,0.00014503315,0.004780257,2.6227008e-07,0.0,0.0,0.0,0.0,0.0,0.0
2017740000,2017588000,2.4070472e-05,5.7831556e-08,8.120258e-05,8.05796e-06,2.632556e-10,7.4407835e-05,0.0,0.0,0.0,0.0,0.0,0.0,0.0,7.223125e-06,0.0,0.0,0.0,0.0,0.00018797615,2.1173277e-05,5.347926e-06,0.00018797615,0.0016971573,0.0033550577,3.598334e-07,0.0,0.0,0.0,0.0,0.0,0.0
2017748000,2017596000,2.4070472e-05,5.7831556e-08,8.120258e-05,8.05796e-06,2.632556e-10,7.4407835e-05,0.0,0.0,0.0,0.0,0.0,0.0,0.0,7.223125e-06,0.0,0.0,0.0,0.0,0.00018797615,2.1173277e-05,5.347926e-06,0.00018797615,4.312338e-05,0.0009136933,6.1902483e-09,0.0,0.0,0.0,0.0,0.0,0.0
2017756000,2017604000,2.4070472e-05,5.7831556e-08,8.120258e-05,8.05796e-06,2.632556e-10,7.4407835e-05,0.0,0.0,0.0,0.0,0.0,0.0,0.0,7.223125e-06,0.0,0.0,0.0,0.0,0.00018797615,2.1173277e-05,5.347926e-06,0.00018797615,0.00039904,0.00019068681,3.1127456e-10,0.0,0.0,0.0,0.0,0.0,0.0
2017772000,2017620000,2.4070472e-05,5.7831556e-08,8.120258e-05,8.05796e-06,2.632556e-10,7.4407835e-05,0.0,0.0,0.0,0.0,0.0,0.0,0.0,7.223125e-06,0.0,0.0,0.0,0.0,0.00010910509,0.00010910509,0.00010781019,1.2064498e-06,0.00071907113,0.0014805944,1.5232723e-07,0.0,0.0,0.0,0.0,0.0,0.0
2017780000,2017628000,2.4070472e-05,5.7831556e-08,8.120258e-05,8.05796e-06,2.632556e-10,7.4407835e-05,0.0,0.0,0.0,0.0,0.0,0.0,0.0,7.223125e-06,0.0,0.0,0.0,0.0,0.00010910509,0.00010910509,0.00010781019,1.2064498e-06,2.9434816e-06,3.1413717e-06,1.4210855e-12,0.0,0.0,0.0,0.0,0.0,0.0
2017788000,2017636000,2.4070472e-05,5.7831556e-08,8.120258e-05,8.05796e-06,2.632556e-10,7.4407835e-05,0.0,0.0,0.0,0.0,0.0,0.0,0.0,7.223125e-06,0.0,0.0,0.0,0.0,0.00010910509,0.00010910509,0.00010781019,1.2064498e-06,1.493846e-05,0.0010021093,3.414158e-08,0.0,0.0,0.0,0.0,0.0,0.0
2017796000,2017644000,2.4070472e-05,5.7831556e-08,8.120258e-05,8.05796e-06,2.632556e-10,7.4407835e-05,0.0,0.0,0.0,0.0,0.0,0.0,0.0,8.241614e-08,0.0,0.0,0.0,0.0,0.00010910509,0.00010910509,0.00010781019,1.2064498e-06,0.0007102815,1.4057717e-07,1.5288606e-09,0.0,0.0,0.0,0.0,0.0,0.0
2017812000,2017660000,2.4070472e-05,5.7831556e-08,8.120258e-05,8.05796e-06,2.632556e-10,7.4407835e-05,0.0,0.0,0.0,0.0,0.0,0.0,0.0,8.241614e-08,0.0,0.0,0.0,0.0,0.00010910509,0.00010910509,0.00010781019,1.2064498e-06,0.00046752492,2.8278997e-05,8.20819e-11,0.0,0.0,0.0,0.0,0.0,0.0
2017820000,2017668000,2.4070472e-05,5.7831556e-08,8.120258e-05,8.05796e-06,2.632556e-10,7.4407835e-05,0.0,0.0,0.0,0.0,0.0,0.0,0.0,8.241614e-08,0.0,0.0,0.0,0.0,0.00010910509,0.00010910509,0.00010781019,1.2064498e-06,0.00016247586,0.00012701123,6.7535666e-10,0.0,0.0,0.0,0.0,0.0,0.0
2017828000,2017676000,2.4070472e-05,5.7831556e-08,8.120258e-05,8.05796e-06,2.632556e-10,7.4407835e-05,0.0,0.0,0.0,0.0,0.0,0.0,0.0,8.241614e-08,0.0,0.0,0.0,0.0,0.0004301917,0.0004301917,6.8123794e-05,0.0002657692,0.00026435198,0.0015754428,6.508003e-08,0.0,0.0,0.0,0.0,0.0,0.0
2017836000,2017684000,2.4070472e-05,5.7831556e-08,8.120258e-05,8.05796e-06,2.632556e-10,7.4407835e-05,0.0,0.0,0.0,0.0,0.0,0.0,0.0,8.241614e-08,0.0,0.0,0.0,0.0,0.0004301917,0.0004301917,6.8123794e-05,0.0002657692,3.8830112e-06,1.8389004e-05,1.5967316e-10,0.0,0.0,0.0,0.0,0.0,0.0
2017852000,2017700000,2.4070472e-05,5.7831556e-08,8.120258e-05,8.05796e-06,2.632556e-10,7.4407835e-05,0.0,0.0,0.0,0.0,0.0,0.0,0.0,8.241614e-08,0.0,0.0,0.0,0.0,0.0004301917,0.0004301917,6.8123794e-05,0.0002657692,4.435773e-06,0.0002672021,2.9809257e-09,0.0,0.0,0.0,0.0,0.0,0.0
2017860000,2017708000,2.4070472e-05,5.7831556e-08,8.120258e-05,8.05796e-06,2.632556e-10,7.4407835e-05,0.0,0.0,0.0,0.0,0.0,0.0,0.0,8.241614e-08,0.0,0.0,0.0,0.0,0.0004301917,0.0004301917,6.8123794e-05,0.0002657692,0.0012895098,1.5000056e-05,9.4160555e-09,0.0,0.0,0.0,0.0,0.0,0.0
2017868000,2017716000,2.4070472e-05,5.7831556e-08,8.120258e-05,8.05796e-06,2.632556e-10,7.4407835e-05,0.0,0.0,0.0,0.0,0.0,0.0,0.0,8.847083e-06,0.0,0.0,0.0,0.0,0.0004301917,0.0004301917,6.8123794e-05,0.0002657692,0.0003623294,0.0013176474,1.3592455e-08,0.0,0.0,0.0,0.0,0.0,0.0
2017876000,2017724000,2.4070472e-05,5.7831556e-08,8.120258e-05,8.05796e-06,2.632556e-10,7.4407835e-05,0.0,0.0,0.0,0.0,0.0,0.0,0.0,8.847083e-06,0.0,0.0,0.0,0.0,0.0004301917,0.0004301917,6.8123794e-05,0.0002657692,0.0001977957,0.00015870147,5.684342e-12,0.0,0.0,0.0,0.0,0.0,0.0
2017892000,2017740000,2.4070472e-05,5.7831556e-08,8.120258e-05,8.05796e-06,2.632556e-10,7.4407835e-05,0.0,0.0,0.0,0.0,0.0,0.0,0.0,8.847083e-06,0.0,0.0,0.0,0.0,0.0004301917,0.0004301917,6.8123794e-05,0.0002657692,4.5560326e-05,0.0006681833,2.0806112e-08,0.0,0.0,0.0,0.0,0.0,0.0
2017900000,2017748000,2.4070472e-05,5.7831556e-08,8.120258e-05,8.05796e-06,2.632556e-10,7.4407835e-05,0.0,0.0,0.0,0.0,0.0,0.0,0.0,8.847083e-06,0.0,0.0,0.0,0.0,0.00012883572,4.659494e-05,7.446409e-07,0.00012883572,0.00022829958,8.149936e-05,6.963319e-09,0.0,0.0,0.0,0.0,0.0,0.0
2017908000,2017756000,2.4070472e-05,5.7831556e-08,8.120258e-05,8.05796e-06,2.632556e-10,7.4407835e-05,0.0,0.0,0.0,0.0,0.0,0.0,0.0,8.847083e-06,0.0,0.0,0.0,0.0,0.00012883572,4.659494e-05,7.446409e-07,0.00012883572,0.0010111892,9.441892e-06,3.812835e-08,0.0,0.0,0.0,0.0,0.0,0.0
2017916000,2017764000,2.4070472e-05,5.7831556e-08,8.120258e-05,8.05796e-06,2.632556e-10,7.4407835e-05,0.0,0.0,0.0,0.0,0.0,0.0,0.0,8.847083e-06,0.0,0.0,0.0,0.0,0.00012883572,4.659494e-05,7.446409e-07,0.00012883572,0.00021304657,0.0003535621,5.1500706e-09,0.0,0.0,0.0,0.0,0.0,0.0
2017932000,2017780000,2.4070472e-05,5.7831556e-08,8.120258e-05,8.05796e-06,2.632556e-10,7.4407835e-05,0.0,0.0,0.0,0.0,0.0,0.0,0.0,8.847083e-06,0.0,0.0,0.0,0.0,0.00012883572,4.659494e-05,7.446409e-07,0.00012883572,4.7055568e-05,2.0098503e-07,3.6379788e-10,0.0,0.0,0.0,0.0,0.0,0.0
2017940000,2017788000,2.4070472e-05,5.7831556e-08,8.120258e-05,8.05796e-06,2.632556e-10,7.4407835e-05,0.0,0.0,0.0,0.0,0.0,0.0,0.0,3.5852365e-06,0.0,0.0,0.0,0.0,0.00012883572,4.659494e-05,7.446409e-07,0.00012883572,0.00030087357,0.00014928312,2.0520474e-09,0.0,0.0,0.0,0.0,0.0,0.0
2017948000,2017796000,2.4070472e-05,5.7831556e-08,8.120258e-05,8.05796e-06,2.632556e-10,7.4407835e-05,0.0,0.0,0.0,0.0,0.0,0.0,0.0,3.5852365e-06,0.0,0.0,0.0,0.0,0.00012883572,4.659494e-05,7.446409e-07,0.00012883572,3.4292025e-05,0.00039607543,5.4626526e-09,0.0,0.0,0.0,0.0,0.0,0.0
2017956000,2017804000,2.4070472e-05,5.7831556e-08,8.120258e-05,8.05796e-06,2.632556e-10,7.4407835e-05,0.0,0.0,0.0,0.0,0.0,0.0,0.0,3.5852365e-06,0.0,0.0,0.0,0.0,0.00012883572,4.659494e-05,7.446409e-07,0.00012883572,2.067058e-05,0.0020030534,1.0825261e-07,0.0,0.0,0.0,0.0,0.0,0.0
2017972000,2017820000,2.4070472e-05,5.7831556e-08,8.120258e-05,8.05796e-06,2.632556e-10,7.4407835e-05,0.0,0.0,0.0,0.0,0.0,0.0,0.0,3.5852365e-06,0.0,0.0,0.0,0.0,0.0008146721,0.00011097408,0.0008146721,1.9371562e-05,0.0012062036,0.00016523145,1.6822014e-08,0.0,0.0,0.0,0.0,0.0,0.0
2017980000,2017828000,2.4070472e-05,5.7831556e-08,8.120258e-05,8.05796e-06,2.632556e-10,7.4407835e-05,0.0,0.0,0.0,0.0,0.0,0.0,0.0,3.5852365e-06,0.0,0.0,0.0,0.0,0.0008146721,0.00011097408,0.0008146721,1.9371562e-05,0.00043695106,0.00023557394,4.7805315e-09,0.0,0.0,0.0,0.0,0.0,0.0
2017988000,2017836000,2.4070472e-05,5.7831556e-08,8.120258e-05,8.05796e-06,2.632556e-10,7.4407835e-05,0.0,0.0,0.0,0.0,0.0,0.0,0.0,3.5852365e-06,0.0,0.0,0.0,0.0,0.0008146721,0.00011097408,0.0008146721,1.9371562e-05,0.00032392246,7.822746e-05,8.959034e-09,0.0,0.0,0.0,0.0,0.0,0.0
2017996000,2017844000,2.4070472e-05,5.7831556e-08,8.120258e-05,8.05796e-06,2.632556e-10,7.4407835e-05,0.0,0.0,0.0,0.0,0.0,0.0,0.0,3.5852365e-06,0.0,0.0,0.0,0.0,0.0008146721,0.00011097408,0.0008146721,1.9371562e-05,0.002949724,0.000333417,2.2487944e-07,0.0,0.0,0.0,0.0,0.0,0.0
2018012000,2017860000,0.00032269998,7.74391e-05,1.9510424e-05,1.9453533e-05,1.2062829e-07,4.2685006e-05,0.0,0.0,0.0,0.0,0.0,0.0,0.0,8.5392905e-08,0.0,0.0,0.0,0.0,0.0008146721,0.00011097408,0.0008146721,1.9371562e-05,0.00012704889,0.0010919167,7.697963e-09,0.0,0.0,0.0,0.0,0.0,0.0
2018020000,2017868000,0.00032269998,7.74391e-05,1.9510424e-05,1.9453533e-05,1.2062829e-07,4.2685006e-05,0.0,0.0,0.0,0.0,0.0,0.0,0.0,8.5392905e-08,0.0,0.0,0.0,0.0,0.0008146721,0.00011097408,0.0008146721,1.9371562e-05,0.0003941756,9.408636e-05,6.4173946e-09,0.0,0.0,0.0,0.0,0.0,0.0
2018028000,2017876000,0.00032269998,7.74391e-05,1.9510424e-05,1.9453533e-05,1.2062829e-07,4.2685006e-05,0.0,0.0,0.0,0.0,0.0,0.0,0.0,8.5392905e-08,0.0,0.0,0.0,0.0,0.0008146721,0.00011097408,0.0008146721,1.9371562e-05,9.99275e-07,6.636835e-05,5.1159077e-13,0.0,0.0,0.0,0.0,0.0,0.0
