timestamp,timestamp_sample,control_mode_flags,output_tracking_error[0],output_tracking_error[1],output_tracking_error[2],filter_fault_flags,pos_horiz_accuracy,pos_vert_accuracy,hdg_test_ratio,vel_test_ratio,pos_test_ratio,hgt_test_ratio,tas_test_ratio,hagl_test_ratio,beta_test_ratio,time_slip,accel_device_id,gyro_device_id,baro_device_id,mag_device_id,mag_inclination_deg,mag_inclination_ref_deg,mag_strength_gs,mag_strength_ref_gs,gps_check_fail_flags,solution_status_flags,reset_count_vel_ne,reset_count_vel_d,reset_count_pos_ne,reset_count_pod_d,reset_count_quat,pre_flt_fail_innov_heading,pre_flt_fail_innov_height,pre_flt_fail_innov_pos_horiz,pre_flt_fail_innov_vel_horiz,pre_flt_fail_innov_vel_vert,pre_flt_fail_mag_field_disturbed,health_flags,timeout_flags
2015916000,2015764000,17764060236391,6.804733e-05,0.0012487791,0.0034068946,0,0.49074927,0.2948874,0.011961819,0.015625747,0.0012139365,0.0050873505,nan,nan,nan,0.004,1310988,1310988,6620172,197388,63.08864,63.157204,0.47915512,0.48238713,0,959,2,1,5,5,3,0,0,0,0,0,0,0,0
2015924000,2015772000,17764060236391,8.0965045e-05,0.0012458401,0.0029530786,0,0.4916314,0.29425138,0.01286768,0.015625747,0.0012139365,0.0048085554,nan,nan,nan,0.004,1310988,1310988,6620172,197388,63.014637,63.157204,0.4828056,0.48238713,0,959,2,1,5,5,3,0,0,0,0,0,0,0,0
2015932000,2015780000,17764060236391,7.703319e-05,0.0012521785,0.0029911825,0,0.49253407,0.29464963,0.01286768,0.015625747,0.0012139365,0.0048085554,nan,nan,nan,0.004,1310988,1310988,6620172,197388,63.014637,63.157204,0.4828056,0.48238713,0,959,2,1,5,5,3,0,0,0,0,0,0,0,0
2015940000,2015788000,17764060236391,7.288981e-05,0.0012571147,0.0030297434,0,0.49343997,0.29504853,0.01286768,0.015625747,0.0012139365,0.0048085554,nan,nan,nan,0.004,1310988,1310988,6620172,197388,63.014637,63.157204,0.4828056,0.48238713,0,959,2,1,5,5,3,0,0,0,0,0,0,0,0
2015948000,2015796000,17764060236391,6.90878e-05,0.0012658698,0.0030673495,0,0.49434903,0.29544806,0.01286768,0.015625747,0.0012139365,0.0048085554,nan,nan,nan,0.004,1310988,1310988,6620172,197388,63.014637,63.157204,0.4828056,0.48238713,0,959,2,1,5,5,3,0,0,0,0,0,0,0,0
2015956000,2015804000,17764060236391,0.00014357656,0.0012293272,0.0030331102,0,0.49525875,0.29584822,0.01286768,0.015625747,0.0012139365,0.0048085554,nan,nan,nan,0.004,1310988,1310988,6620172,197388,63.014637,63.157204,0.4828056,0.48238713,0,959,2,1,5,5,3,0,0,0,0,0,0,0,0
2015972000,2015820000,17764060236391,0.00013707325,0.0012570972,0.0031107734,0,0.49709284,0.2966504,0.01286768,0.015625747,0.0012139365,0.0048085554,nan,nan,nan,0.004,1310988,1310988,6620172,197388,63.014637,63.157204,0.4828056,0.48238713,0,959,2,1,5,5,3,0,0,0,0,0,0,0,0
2015980000,2015828000,17764060236391,0.0001340984,0.0012707112,0.0031491222,0,0.49801475,0.29705244,0.01286768,0.015625747,0.0012139365,0.0048085554,nan,nan,nan,0.004,1310988,1310988,6620172,197388,63.014637,63.157204,0.4828056,0.48238713,0,959,2,1,5,5,3,0,0,0,0,0,0,0,0
2015988000,2015836000,17764060236391,0.00013120446,0.001285688,0.0031856326,0,0.49893984,0.2974551,0.01286768,0.015625747,0.0012139365,0.0048085554,nan,nan,nan,0.004,1310988,1310988,6620172,197388,63.014637,63.157204,0.4828056,0.48238713,0,959,2,1,5,5,3,0,0,0,0,0,0,0,0
2015996000,2015844000,17764060236391,0.00016726747,0.0014325519,0.0036593082,0,0.49984843,0.29679614,0.0120288525,0.015625747,0.0012139365,0.0044594673,nan,nan,nan,0.004,1310988,1310988,6620172,197388,63.249077,63.157204,0.4802633,0.48238713,0,959,2,1,5,5,3,0,0,0,0,0,0,0,0
2016012000,2015860000,17764060236391,0.00029800812,0.0069073304,0.013612444,0,0.4588887,0.28362912,0.0120288525,0.020042853,0.0010238872,0.0046537267,nan,nan,nan,0.004,1310988,1310988,6620172,197388,63.249077,63.157204,0.4802633,0.48238713,0,959,2,1,5,5,3,0,0,0,0,0,0,0,0
2016020000,2015868000,17764060236391,0.00029560796,0.006633508,0.013096209,0,0.45967168,0.2840087,0.0120288525,0.020042853,0.0010238872,0.0046537267,nan,nan,nan,0.004,1310988,1310988,6620172,197388,63.249077,63.157204,0.4802633,0.48238713,0,959,2,1,5,5,3,0,0,0,0,0,0,0,0
2016028000,2015876000,17764060236391,0.00029332517,0.0063675256,0.012594126,0,0.46045762,0.28438893,0.0120288525,0.020042853,0.0010238872,0.0046537267,nan,nan,nan,0.004,1310988,1310988,6620172,197388,63.249077,63.157204,0.4802633,0.48238713,0,959,2,1,5,5,3,0,0,0,0,0,0,0,0
2016036000,2015884000,17764060236391,0.00029115716,0.006108951,0.012107522,0,0.46124658,0.2847698,0.0120288525,0.020042853,0.0010238872,0.0046537267,nan,nan,nan,0.004,1310988,1310988,6620172,197388,63.249077,63.157204,0.4802633,0.48238713,0,959,2,1,5,5,3,0,0,0,0,0,0,0,0
2016052000,2015900000,17764060236391,0.00028724317,0.005620076,0.011175653,0,0.46283346,0.28553343,0.0120288525,0.020042853,0.0010238872,0.0046537267,nan,nan,nan,0.004,1310988,1310988,6620172,197388,63.249077,63.157204,0.4802633,0.48238713,0,959,2,1,5,5,3,0,0,0,0,0,0,0,0
2016060000,2015908000,17764060236391,0.0002854503,0.005385768,0.010731128,0,0.4636314,0.2859162,0.0120288525,0.020042853,0.0010238872,0.0046537267,nan,nan,nan,0.004,1310988,1310988,6620172,197388,63.249077,63.157204,0.4802633,0.48238713,0,959,2,1,5,5,3,0,0,0,0,0,0,0,0
2016068000,2015916000,17764060236391,0.00028415307,0.0052643693,0.010507755,0,0.46442106,0.28535593,0.014481474,0.020042853,0.0010238872,0.0051090545,nan,nan,nan,0.004,1310988,1310988,6620172,197388,62.848324,63.157204,0.48313665,0.48238713,0,959,2,1,5,5,3,0,0,0,0,0,0,0,0
2016076000,2015924000,17764060236391,0.00028252427,0.0050409664,0.010082003,0,0.4652249,0.28573874,0.014481474,0.020042853,0.0010238872,0.0051090545,nan,nan,nan,0.004,1310988,1310988,6620172,197388,62.848324,63.157204,0.48313665,0.48238713,0,959,2,1,5,5,3,0,0,0,0,0,0,0,0
2016092000,2015940000,17764060236391,0.00027896214,0.0046159313,0.009264046,0,0.4668416,0.28650627,0.014481474,0.020042853,0.0010238872,0.0051090545,nan,nan,nan,0.004,1310988,1310988,6620172,197388,62.848324,63.157204,0.48313665,0.48238713,0,959,2,1,5,5,3,0,0,0,0,0,0,0,0
2016100000,2015948000,17764060236391,0.00027732115,0.0044131824,0.008875639,0,0.46765453,0.28689098,0.014481474,0.020042853,0.0010238872,0.0051090545,nan,nan,nan,0.004,1310988,1310988,6620172,197388,62.848324,63.157204,0.48313665,0.48238713,0,959,2,1,5,5,3,0,0,0,0,0,0,0,0
2016108000,2015956000,17764060236391,0.00027565358,0.00421447,0.008498342,0,0.46847048,0.28727633,0.014481474,0.020042853,0.0010238872,0.0051090545,nan,nan,nan,0.004,1310988,1310988,6620172,197388,62.848324,63.157204,0.48313665,0.48238713,0,959,2,1,5,5,3,0,0,0,0,0,0,0,0
2016116000,2015964000,17764060236391,0.00027261782,0.0040234234,0.008133517,0,0.46928948,0.28766233,0.014481474,0.020042853,0.0010238872,0.0051090545,nan,nan,nan,0.004,1310988,1310988,6620172,197388,62.848324,63.157204,0.48313665,0.48238713,0,959,2,1,5,5,3,0,0,0,0,0,0,0,0
2016132000,2015980000,17764060236391,0.00026664592,0.0036546362,0.007433847,0,0.47093663,0.28843626,0.014481474,0.020042853,0.0010238872,0.0051090545,nan,nan,nan,0.004,1310988,1310988,6620172,197388,62.848324,63.157204,0.48313665,0.48238713,0,959,2,1,5,5,3,0,0,0,0,0,0,0,0
2016140000,2015988000,17764060236391,0.0002869045,0.0035982814,0.0071713505,0,0.4717519,0.2878554,0.018641502,0.020042853,0.0010238872,0.0047929804,nan,nan,nan,0.004,1310988,1310988,6620172,197388,62.47873,63.157204,0.4798764,0.48238713,0,959,2,1,5,5,3,0,0,0,0,0,0,0,0
2016148000,2015996000,17764060236391,0.00028401744,0.003422104,0.0068494026,0,0.47258294,0.28824264,0.018641502,0.020042853,0.0010238872,0.0047929804,nan,nan,nan,0.004,1310988,1310988,6620172,197388,62.47873,63.157204,0.4798764,0.48238713,0,959,2,1,5,5,3,0,0,0,0,0,0,0,0
2016156000,2016004000,17764060236391,0.00027274652,0.0030632264,0.006369314,0,0.47341526,0.28863052,0.018641502,0.020042853,0.0010238872,0.0047929804,nan,nan,nan,0.004,1310988,1310988,6620172,197388,62.47873,63.157204,0.4798764,0.48238713,0,959,2,1,5,5,3,0,0,0,0,0,0,0,0
2016172000,2016020000,17764060236391,0.00026149015,0.0027538233,0.005780842,0,0.4750927,0.2894082,0.018641502,0.020042853,0.0010238872,0.0047929804,nan,nan,nan,0.004,1310988,1310988,6620172,197388,62.47873,63.157204,0.4798764,0.48238713,0,959,2,1,5,5,3,0,0,0,0,0,0,0,0
2016180000,2016028000,17764060236391,0.0002536571,0.0026063614,0.005497373,0,0.47593603,0.289798,0.018641502,0.020042853,0.0010238872,0.0047929804,nan,nan,nan,0.004,1310988,1310988,6620172,197388,62.47873,63.157204,0.4798764,0.48238713,0,959,2,1,5,5,3,0,0,0,0,0,0,0,0
2016188000,2016036000,17764060236391,0.00024591637,0.002462714,0.005221215,0,0.4767825,0.29018843,0.018641502,0.020042853,0.0010238872,0.0047929804,nan,nan,nan,0.004,1310988,1310988,6620172,197388,62.47873,63.157204,0.4798764,0.48238713,0,959,2,1,5,5,3,0,0,0,0,0,0,0,0
2016196000,2016044000,17764060236391,0.00023812022,0.002322426,0.0049518347,0,0.47763208,0.29057953,0.018641502,0.020042853,0.0010238872,0.0047929804,nan,nan,nan,0.004,1310988,1310988,6620172,197388,62.47873,63.157204,0.4798764,0.48238713,0,959,2,1,5,5,3,0,0,0,0,0,0,0,0
2016212000,2016060000,17764060236391,0.00023498264,0.0020292215,0.0044217505,0,0.4793259,0.29036906,0.017461687,0.020042853,0.0010238872,0.004852234,nan,nan,nan,0.004,1310988,1310988,6620172,197388,63.173843,63.157204,0.48044696,0.48238713,0,959,2,1,5,5,3,0,0,0,0,0,0,0,0
2016220000,2016068000,17764060236391,0.00022733223,0.0019012032,0.004171228,0,0.48018458,0.2907607,0.017461687,0.020042853,0.0010238872,0.004852234,nan,nan,nan,0.004,1310988,1310988,6620172,197388,63.173843,63.157204,0.48044696,0.48238713,0,959,2,1,5,5,3,0,0,0,0,0,0,0,0
2016228000,2016076000,17764060236391,0.00021968031,0.0017765886,0.0039281314,0,0.48104638,0.29115295,0.017461687,0.020042853,0.0010238872,0.004852234,nan,nan,nan,0.004,1310988,1310988,6620172,197388,63.173843,63.157204,0.48044696,0.48238713,0,959,2,1,5,5,3,0,0,0,0,0,0,0,0
2016236000,2016084000,17764060236391,0.00021213325,0.0016575486,0.0036920998,0,0.48191133,0.29154584,0.017461687,0.020042853,0.0010238872,0.004852234,nan,nan,nan,0.004,1310988,1310988,6620172,197388,63.173843,63.157204,0.48044696,0.48238713,0,959,2,1,5,5,3,0,0,0,0,0,0,0,0
2016252000,2016100000,17764060236391,0.0001971919,0.001430146,0.0032427895,0,0.48365062,0.29233354,0.017461687,0.020042853,0.0010238872,0.004852234,nan,nan,nan,0.004,1310988,1310988,6620172,197388,63.173843,63.157204,0.48044696,0.48238713,0,959,2,1,5,5,3,0,0,0,0,0,0,0,0
2016260000,2016108000,17764060236391,0.00018979376,0.001320891,0.0030298457,0,0.484525,0.29272836,0.017461687,0.020042853,0.0010238872,0.004852234,nan,nan,nan,0.004,1310988,1310988,6620172,197388,63.173843,63.157204,0.48044696,0.48238713,0,959,2,1,5,5,3,0,0,0,0,0,0,0,0
2016268000,2016116000,17764060236391,0.00018249318,0.0012169287,0.0028248953,0,0.4854025,0.29312378,0.017461687,0.020042853,0.0010238872,0.004852234,nan,nan,nan,0.004,1310988,1310988,6620172,197388,63.173843,63.157204,0.48044696,0.48238713,0,959,2,1,5,5,3,0,0,0,0,0,0,0,0
2016276000,2016124000,17764060236391,0.00017511524,0.0011171271,0.0026285194,0,0.48628318,0.29351982,0.017461687,0.020042853,0.0010238872,0.004852234,nan,nan,nan,0.004,1310988,1310988,6620172,197388,63.173843,63.157204,0.48044696,0.48238713,0,959,2,1,5,5,3,0,0,0,0,0,0,0,0
2016292000,2016140000,17764060236391,0.00016000286,0.00093338295,0.0023259649,0,0.48803726,0.2932917,0.016326722,0.020042853,0.0010238872,0.004602622,nan,nan,nan,0.004,1310988,1310988,6620172,197388,63.249695,63.157204,0.4814167,0.48238713,0,959,2,1,5,5,3,0,0,0,0,0,0,0,0
2016300000,2016148000,17764060236391,0.00015235764,0.00084719324,0.002169035,0,0.4889272,0.29368827,0.016326722,0.020042853,0.0010238872,0.004602622,nan,nan,nan,0.004,1310988,1310988,6620172,197388,63.249695,63.157204,0.4814167,0.48238713,0,959,2,1,5,5,3,0,0,0,0,0,0,0,0
2016308000,2016156000,17764060236391,0.00014480727,0.0007660495,0.0020248345,0,0.4898203,0.29408547,0.016326722,0.020042853,0.0010238872,0.004602622,nan,nan,nan,0.004,1310988,1310988,6620172,197388,63.249695,63.157204,0.4814167,0.48238713,0,959,2,1,5,5,3,0,0,0,0,0,0,0,0
2016316000,2016164000,17764060236391,0.0001376104,0.00069036864,0.0018955531,0,0.4907166,0.2944833,0.016326722,0.020042853,0.0010238872,0.004602622,nan,nan,nan,0.004,1310988,1310988,6620172,197388,63.249695,63.157204,0.4814167,0.48238713,0,959,2,1,5,5,3,0,0,0,0,0,0,0,0
2016332000,2016180000,17764060236391,0.0001234406,0.000559049,0.0016846578,0,0.49251878,0.29528087,0.016326722,0.020042853,0.0010238872,0.004602622,nan,nan,nan,0.004,1310988,1310988,6620172,197388,63.249695,63.157204,0.4814167,0.48238713,0,959,2,1,5,5,3,0,0,0,0,0,0,0,0
2016340000,2016188000,17764060236391,0.00011672863,0.0005078778,0.0016069332,0,0.49342465,0.29568058,0.016326722,0.020042853,0.0010238872,0.004602622,nan,nan,nan,0.004,1310988,1310988,6620172,197388,63.249695,63.157204,0.4814167,0.48238713,0,959,2,1,5,5,3,0,0,0,0,0,0,0,0
2016348000,2016196000,17764060236391,0.00011023731,0.00046791637,0.0015326104,0,0.49433377,0.29608095,0.016326722,0.020042853,0.0010238872,0.004602622,nan,nan,nan,0.004,1310988,1310988,6620172,197388,63.249695,63.157204,0.4814167,0.48238713,0,959,2,1,5,5,3,0,0,0,0,0,0,0,0
2016356000,2016204000,17764060236391,0.00018193542,0.00043609788,0.0013544996,0,0.49522495,0.2954343,0.015286396,0.020042853,0.0010238872,0.004766145,nan,nan,nan,0.004,1310988,1310988,6620172,197388,63.22769,63.157204,0.4813085,0.48238713,0,959,2,1,5,5,3,0,0,0,0,0,0,0,0
2016372000,2016220000,17764060236391,0.00017000636,0.00039475865,0.0012778457,0,0.49705872,0.2962353,0.015286396,0.020042853,0.0010238872,0.004766145,nan,nan,nan,0.004,1310988,1310988,6620172,197388,63.22769,63.157204,0.4813085,0.48238713,0,959,2,1,5,5,3,0,0,0,0,0,0,0,0
2016380000,2016228000,17764060236391,0.00016417357,0.0003957004,0.0012680038,0,0.4979804,0.29663673,0.015286396,0.020042853,0.0010238872,0.004766145,nan,nan,nan,0.004,1310988,1310988,6620172,197388,63.22769,63.157204,0.4813085,0.48238713,0,959,2,1,5,5,3,0,0,0,0,0,0,0,0
2016388000,2016236000,17764060236391,0.00015835503,0.00041062865,0.0012780307,0,0.4989053,0.29703882,0.015286396,0.020042853,0.0010238872,0.004766145,nan,nan,nan,0.004,1310988,1310988,6620172,197388,63.22769,63.157204,0.4813085,0.48238713,0,959,2,1,5,5,3,0,0,0,0,0,0,0,0
2016396000,2016244000,17764060236391,0.00015303794,0.00043590364,0.0013078044,0,0.49983346,0.2974415,0.015286396,0.020042853,0.0010238872,0.004766145,nan,nan,nan,0.004,1310988,1310988,6620172,197388,63.22769,63.157204,0.4813085,0.48238713,0,959,2,1,5,5,3,0,0,0,0,0,0,0,0
2016412000,2016260000,17764060236391,0.00020161315,0.0036458352,0.007510678,0,0.45887452,0.2841893,0.015286396,0.016506955,0.00094113406,0.004451436,nan,nan,nan,0.004,1310988,1310988,6620172,197388,63.22769,63.157204,0.4813085,0.48238713,0,959,2,1,5,5,3,0,0,0,0,0,0,0,0
2016420000,2016268000,17764060236391,0.0001966442,0.0034632885,0.0071476633,0,0.45965752,0.28456962,0.015286396,0.016506955,0.00094113406,0.004451436,nan,nan,nan,0.004,1310988,1310988,6620172,197388,63.22769,63.157204,0.4813085,0.48238713,0,959,2,1,5,5,3,0,0,0,0,0,0,0,0
2016428000,2016276000,17764060236391,0.00024489322,0.0034238135,0.007069283,0,0.460433,0.2840201,0.017258547,0.016506955,0.00094113406,0.0046595903,nan,nan,nan,0.004,1310988,1310988,6620172,197388,62.788185,63.157204,0.48119065,0.48238713,0,959,2,1,5,5,3,0,0,0,0,0,0,0,0
2016436000,2016284000,17764060236391,0.00024040393,0.0032501214,0.006721301,0,0.46122184,0.28440043,0.017258547,0.016506955,0.00094113406,0.0046595903,nan,nan,nan,0.004,1310988,1310988,6620172,197388,62.788185,63.157204,0.48119065,0.48238713,0,959,2,1,5,5,3,0,0,0,0,0,0,0,0
2016452000,2016300000,17764060236391,0.00023183119,0.0029202588,0.0060518384,0,0.4628085,0.28516304,0.017258547,0.016506955,0.00094113406,0.0046595903,nan,nan,nan,0.004,1310988,1310988,6620172,197388,62.788185,63.157204,0.48119065,0.48238713,0,959,2,1,5,5,3,0,0,0,0,0,0,0,0
2016460000,2016308000,17764060236391,0.00022811568,0.0027605896,0.0057337396,0,0.46360633,0.28554532,0.017258547,0.016506955,0.00094113406,0.0046595903,nan,nan,nan,0.004,1310988,1310988,6620172,197388,62.788185,63.157204,0.48119065,0.48238713,0,959,2,1,5,5,3,0,0,0,0,0,0,0,0
2016468000,2016316000,17764060236391,0.00022436929,0.0026057544,0.005427822,0,0.46440718,0.2859282,0.017258547,0.016506955,0.00094113406,0.0046595903,nan,nan,nan,0.004,1310988,1310988,6620172,197388,62.788185,63.157204,0.48119065,0.48238713,0,959,2,1,5,5,3,0,0,0,0,0,0,0,0
2016476000,2016324000,17764060236391,0.00022078425,0.002457432,0.005133564,0,0.465211,0.28631175,0.017258547,0.016506955,0.00094113406,0.0046595903,nan,nan,nan,0.004,1310988,1310988,6620172,197388,62.788185,63.157204,0.48119065,0.48238713,0,959,2,1,5,5,3,0,0,0,0,0,0,0,0
2016492000,2016340000,17764060236391,0.00021428108,0.0021766992,0.0045728534,0,0.46682778,0.28708076,0.017258547,0.016506955,0.00094113406,0.0046595903,nan,nan,nan,0.004,1310988,1310988,6620172,197388,62.788185,63.157204,0.48119065,0.48238713,0,959,2,1,5,5,3,0,0,0,0,0,0,0,0
2016500000,2016348000,17764060236391,0.00018603014,0.0020320471,0.0041050264,0,0.4676287,0.28651097,0.016153352,0.016506955,0.00094113406,0.004672122,nan,nan,nan,0.004,1310988,1310988,6620172,197388,63.250336,63.157204,0.4814146,0.48238713,0,959,2,1,5,5,3,0,0,0,0,0,0,0,0
2016508000,2016356000,17764060236391,0.0001833186,0.0019025167,0.0038580801,0,0.46844447,0.28689578,0.016153352,0.016506955,0.00094113406,0.004672122,nan,nan,nan,0.004,1310988,1310988,6620172,197388,63.250336,63.157204,0.4814146,0.48238713,0,959,2,1,5,5,3,0,0,0,0,0,0,0,0
2016516000,2016364000,17764060236391,0.00017846219,0.0017768036,0.0036202897,0,0.46926332,0.28728124,0.016153352,0.016506955,0.00094113406,0.004672122,nan,nan,nan,0.004,1310988,1310988,6620172,197388,63.250336,63.157204,0.4814146,0.48238713,0,959,2,1,5,5,3,0,0,0,0,0,0,0,0
2016532000,2016380000,17764060236391,0.00016955787,0.0015389045,0.0031787518,0,0.47091016,0.28805408,0.016153352,0.016506955,0.00094113406,0.004672122,nan,nan,nan,0.004,1310988,1310988,6620172,197388,63.250336,63.157204,0.4814146,0.48238713,0,959,2,1,5,5,3,0,0,0,0,0,0,0,0
2016540000,2016388000,17764060236391,0.00016545285,0.0014274693,0.0029752818,0,0.47173813,0.28844145,0.016153352,0.016506955,0.00094113406,0.004672122,nan,nan,nan,0.004,1310988,1310988,6620172,197388,63.250336,63.157204,0.4814146,0.48238713,0,959,2,1,5,5,3,0,0,0,0,0,0,0,0
2016548000,2016396000,17764060236391,0.00016147316,0.0013210517,0.002782869,0,0.4725692,0.28882948,0.016153352,0.016506955,0.00094113406,0.004672122,nan,nan,nan,0.004,1310988,1310988,6620172,197388,63.250336,63.157204,0.4814146,0.48238713,0,959,2,1,5,5,3,0,0,0,0,0,0,0,0
2016556000,2016404000,17764060236391,0.00014441287,0.0013310859,0.002702515,0,0.47340152,0.28921813,0.016153352,0.016506955,0.00094113406,0.004672122,nan,nan,nan,0.004,1310988,1310988,6620172,197388,63.250336,63.157204,0.4814146,0.48238713,0,959,2,1,5,5,3,0,0,0,0,0,0,0,0
2016572000,2016420000,17764060236391,0.00014017404,0.0011107889,0.0023442216,0,0.47506535,0.28901675,0.015143532,0.016506955,0.00094113406,0.0046256254,nan,nan,nan,0.004,1310988,1310988,6620172,197388,63.29219,63.157204,0.48084727,0.48238713,0,959,2,1,5,5,3,0,0,0,0,0,0,0,0
2016580000,2016428000,17764060236391,0.0001348694,0.0010258526,0.0021995464,0,0.47590855,0.289406,0.015143532,0.016506955,0.00094113406,0.0046256254,nan,nan,nan,0.004,1310988,1310988,6620172,197388,63.29219,63.157204,0.48084727,0.48238713,0,959,2,1,5,5,3,0,0,0,0,0,0,0,0
2016588000,2016436000,17764060236391,0.00012856677,0.00094896194,0.0020682851,0,0.4767548,0.28979585,0.015143532,0.016506955,0.00094113406,0.0046256254,nan,nan,nan,0.004,1310988,1310988,6620172,197388,63.29219,63.157204,0.48084727,0.48238713,0,959,2,1,5,5,3,0,0,0,0,0,0,0,0
2016596000,2016444000,17764060236391,0.00012227803,0.00087730476,0.001952063,0,0.4776042,0.29018638,0.015143532,0.016506955,0.00094113406,0.0046256254,nan,nan,nan,0.004,1310988,1310988,6620172,197388,63.29219,63.157204,0.48084727,0.48238713,0,959,2,1,5,5,3,0,0,0,0,0,0,0,0
2016612000,2016460000,17764060236391,0.0001103317,0.00075653737,0.0017704066,0,0.47931227,0.2909693,0.015143532,0.016506955,0.00094113406,0.0046256254,nan,nan,nan,0.004,1310988,1310988,6620172,197388,63.29219,63.157204,0.48084727,0.48238713,0,959,2,1,5,5,3,0,0,0,0,0,0,0,0
2016620000,2016468000,17764060236391,0.00010453146,0.0007074634,0.001706878,0,0.480171,0.29136172,0.015143532,0.016506955,0.00094113406,0.0046256254,nan,nan,nan,0.004,1310988,1310988,6620172,197388,63.29219,63.157204,0.48084727,0.48238713,0,959,2,1,5,5,3,0,0,0,0,0,0,0,0
2016628000,2016476000,17764060236391,9.897471e-05,0.0006715097,0.00166259,0,0.48103285,0.29175478,0.015143532,0.016506955,0.00094113406,0.0046256254,nan,nan,nan,0.004,1310988,1310988,6620172,197388,63.29219,63.157204,0.48084727,0.48238713,0,959,2,1,5,5,3,0,0,0,0,0,0,0,0
2016636000,2016484000,17764060236391,9.350138e-05,0.0006457525,0.0016378479,0,0.4818978,0.29214847,0.015143532,0.016506955,0.00094113406,0.0046256254,nan,nan,nan,0.004,1310988,1310988,6620172,197388,63.29219,63.157204,0.48084727,0.48238713,0,959,2,1,5,5,3,0,0,0,0,0,0,0,0
2016652000,2016500000,17764060236391,0.00011245245,0.0007315247,0.0016451522,0,0.4836215,0.2919298,0.0143021,0.016506955,0.00094113406,0.00438459,nan,nan,nan,0.004,1310988,1310988,6620172,197388,63.169945,63.157204,0.48062167,0.48238713,0,959,2,1,5,5,3,0,0,0,0,0,0,0,0
2016660000,2016508000,17764060236391,0.00010720181,0.00073519064,0.0016629167,0,0.48449567,0.29232404,0.0143021,0.016506955,0.00094113406,0.00438459,nan,nan,nan,0.004,1310988,1310988,6620172,197388,63.169945,63.157204,0.48062167,0.48238713,0,959,2,1,5,5,3,0,0,0,0,0,0,0,0
2016668000,2016516000,17764060236391,0.00010207091,0.0007466214,0.0016881886,0,0.48537302,0.2927189,0.0143021,0.016506955,0.00094113406,0.00438459,nan,nan,nan,0.004,1310988,1310988,6620172,197388,63.169945,63.157204,0.48062167,0.48238713,0,959,2,1,5,5,3,0,0,0,0,0,0,0,0
2016676000,2016524000,17764060236391,9.7383585e-05,0.0007624122,0.0017268551,0,0.48625353,0.29311436,0.0143021,0.016506955,0.00094113406,0.00438459,nan,nan,nan,0.004,1310988,1310988,6620172,197388,63.169945,63.157204,0.48062167,0.48238713,0,959,2,1,5,5,3,0,0,0,0,0,0,0,0
2016692000,2016540000,17764060236391,8.775668e-05,0.0008135568,0.0018387979,0,0.48802406,0.29390725,0.0143021,0.016506955,0.00094113406,0.00438459,nan,nan,nan,0.004,1310988,1310988,6620172,197388,63.169945,63.157204,0.48062167,0.48238713,0,959,2,1,5,5,3,0,0,0,0,0,0,0,0
2016700000,2016548000,17764060236391,8.318297e-05,0.00084461516,0.001907365,0,0.48891404,0.29430464,0.0143021,0.016506955,0.00094113406,0.00438459,nan,nan,nan,0.004,1310988,1310988,6620172,197388,63.169945,63.157204,0.48062167,0.48238713,0,959,2,1,5,5,3,0,0,0,0,0,0,0,0
2016708000,2016556000,17764060236391,7.8720404e-05,0.00087866746,0.0019857814,0,0.48980725,0.29470265,0.0143021,0.016506955,0.00094113406,0.00438459,nan,nan,nan,0.004,1310988,1310988,6620172,197388,63.169945,63.157204,0.48062167,0.48238713,0,959,2,1,5,5,3,0,0,0,0,0,0,0,0
2016716000,2016564000,17764060236391,9.915013e-05,0.0010194891,0.0019629672,0,0.49068627,0.2940682,0.012896395,0.016506955,0.00094113406,0.0048416555,nan,nan,nan,0.004,1310988,1310988,6620172,197388,63.501263,63.157204,0.48107997,0.48238713,0,959,2,1,5,5,3,0,0,0,0,0,0,0,0
2016732000,2016580000,17764060236391,9.145871e-05,0.0010965284,0.002118842,0,0.49248818,0.29486457,0.012896395,0.016506955,0.00094113406,0.0048416555,nan,nan,nan,0.004,1310988,1310988,6620172,197388,63.501263,63.157204,0.48107997,0.48238713,0,959,2,1,5,5,3,0,0,0,0,0,0,0,0
2016740000,2016588000,17764060236391,8.794406e-05,0.0011358227,0.0022056364,0,0.4933939,0.29526368,0.012896395,0.016506955,0.00094113406,0.0048416555,nan,nan,nan,0.004,1310988,1310988,6620172,197388,63.501263,63.157204,0.48107997,0.48238713,0,959,2,1,5,5,3,0,0,0,0,0,0,0,0
2016748000,2016596000,17764060236391,8.464402e-05,0.0011728059,0.002293715,0,0.4943028,0.29566345,0.012896395,0.016506955,0.00094113406,0.0048416555,nan,nan,nan,0.004,1310988,1310988,6620172,197388,63.501263,63.157204,0.48107997,0.48238713,0,959,2,1,5,5,3,0,0,0,0,0,0,0,0
2016756000,2016604000,17764060236391,0.00010350211,0.0011470972,0.0023133021,0,0.49521232,0.29606384,0.012896395,0.016506955,0.00094113406,0.0048416555,nan,nan,nan,0.004,1310988,1310988,6620172,197388,63.501263,63.157204,0.48107997,0.48238713,0,959,2,1,5,5,3,0,0,0,0,0,0,0,0
2016772000,2016620000,17764060236391,9.787494e-05,0.0012284386,0.002498148,0,0.4970461,0.2968665,0.012896395,0.016506955,0.00094113406,0.0048416555,nan,nan,nan,0.004,1310988,1310988,6620172,197388,63.501263,63.157204,0.48107997,0.48238713,0,959,2,1,5,5,3,0,0,0,0,0,0,0,0
2016780000,2016628000,17764060236391,0.00015359148,0.0013891658,0.002721667,0,0.49794865,0.29726875,0.013140031,0.016506955,0.00094113406,0.0048416555,nan,nan,nan,0.004,1310988,1310988,6620172,197388,63.147205,63.157204,0.4830613,0.48238713,0,959,2,1,5,5,3,0,0,0,0,0,0,0,0
2016788000,2016636000,17764060236391,0.00015133555,0.0014205232,0.0027883938,0,0.49887335,0.2966114,0.013140031,0.016506955,0.00094113406,0.004793964,nan,nan,nan,0.004,1310988,1310988,6620172,197388,63.147205,63.157204,0.4830613,0.48238713,0,959,2,1,5,5,3,0,0,0,0,0,0,0,0
2016796000,2016644000,17764060236391,0.00014952222,0.001453357,0.0028728654,0,0.4998013,0.2970135,0.013140031,0.016506955,0.00094113406,0.004793964,nan,nan,nan,0.004,1310988,1310988,6620172,197388,63.147205,63.157204,0.4830613,0.48238713,0,959,2,1,5,5,3,0,0,0,0,0,0,0,0
2016812000,2016660000,17764060236391,0.00019435685,0.0031821106,0.006884607,0,0.45885345,0.28381813,0.013140031,0.01651576,0.00070219813,0.00545473,nan,nan,nan,0.004,1310988,1310988,6620172,197388,63.147205,63.157204,0.4830613,0.48238713,0,959,2,1,5,5,3,0,0,0,0,0,0,0,0
2016820000,2016668000,17764060236391,0.00019136528,0.0030206155,0.0065472187,0,0.45963633,0.2841979,0.013140031,0.01651576,0.00070219813,0.00545473,nan,nan,nan,0.004,1310988,1310988,6620172,197388,63.147205,63.157204,0.4830613,0.48238713,0,959,2,1,5,5,3,0,0,0,0,0,0,0,0
2016828000,2016676000,17764060236391,0.00018841198,0.0028646335,0.006222387,0,0.4604222,0.28457832,0.013140031,0.01651576,0.00070219813,0.00545473,nan,nan,nan,0.004,1310988,1310988,6620172,197388,63.147205,63.157204,0.4830613,0.48238713,0,959,2,1,5,5,3,0,0,0,0,0,0,0,0
2016836000,2016684000,17764060236391,0.00018569682,0.0027148935,0.0059076725,0,0.46121106,0.28495938,0.013140031,0.01651576,0.00070219813,0.00545473,nan,nan,nan,0.004,1310988,1310988,6620172,197388,63.147205,63.157204,0.4830613,0.48238713,0,959,2,1,5,5,3,0,0,0,0,0,0,0,0
2016852000,2016700000,17764060236391,0.00019179024,0.0023451543,0.005292216,0,0.46278673,0.2847854,0.011352184,0.01651576,0.00070219813,0.0054611983,nan,nan,nan,0.004,1310988,1310988,6620172,197388,63.436047,63.157204,0.47903928,0.48238713,0,959,2,1,5,5,3,0,0,0,0,0,0,0,0
2016860000,2016708000,17764060236391,0.0001894405,0.0022148865,0.005015057,0,0.46358442,0.28516713,0.011352184,0.01651576,0.00070219813,0.0054611983,nan,nan,nan,0.004,1310988,1310988,6620172,197388,63.436047,63.157204,0.47903928,0.48238713,0,959,2,1,5,5,3,0,0,0,0,0,0,0,0
2016868000,2016716000,17764060236391,0.00018713562,0.0020882508,0.004749389,0,0.46438512,0.2855495,0.011352184,0.01651576,0.00070219813,0.0054611983,nan,nan,nan,0.004,1310988,1310988,6620172,197388,63.436047,63.157204,0.47903928,0.48238713,0,959,2,1,5,5,3,0,0,0,0,0,0,0,0
2016876000,2016724000,17764060236391,0.00018424157,0.0019675097,0.0044960086,0,0.46518883,0.28593248,0.011352184,0.01651576,0.00070219813,0.0054611983,nan,nan,nan,0.004,1310988,1310988,6620172,197388,63.436047,63.157204,0.47903928,0.48238713,0,959,2,1,5,5,3,0,0,0,0,0,0,0,0
2016892000,2016740000,17764060236391,0.00017871754,0.0017435235,0.0040254476,0,0.4668053,0.2867004,0.011352184,0.01651576,0.00070219813,0.0054611983,nan,nan,nan,0.004,1310988,1310988,6620172,197388,63.436047,63.157204,0.47903928,0.48238713,0,959,2,1,5,5,3,0,0,0,0,0,0,0,0
2016900000,2016748000,17764060236391,0.00017619359,0.0016396346,0.003808904,0,0.4676181,0.28708532,0.011352184,0.01651576,0.00070219813,0.0054611983,nan,nan,nan,0.004,1310988,1310988,6620172,197388,63.436047,63.157204,0.47903928,0.48238713,0,959,2,1,5,5,3,0,0,0,0,0,0,0,0
2016908000,2016756000,17764060236391,0.00017375617,0.0015435512,0.0036795042,0,0.46843395,0.2865156,0.011352184,0.01651576,0.00070219813,0.005482679,nan,nan,nan,0.004,1310988,1310988,6620172,197388,63.436047,63.157204,0.47903928,0.48238713,0,959,2,1,5,5,3,0,0,0,0,0,0,0,0
2016916000,2016764000,17764060236391,0.00018941033,0.0014672878,0.0034927346,0,0.4692405,0.28690052,0.011178294,0.01651576,0.00070219813,0.005482679,nan,nan,nan,0.004,1310988,1310988,6620172,197388,63.23117,63.157204,0.47844705,0.48238713,0,959,2,1,5,5,3,0,0,0,0,0,0,0,0
2016932000,2016780000,17764060236391,0.00018376787,0.0013045112,0.0031296988,0,0.470887,0.28767228,0.011178294,0.01651576,0.00070219813,0.005482679,nan,nan,nan,0.004,1310988,1310988,6620172,197388,63.23117,63.157204,0.47844705,0.48238713,0,959,2,1,5,5,3,0,0,0,0,0,0,0,0
2016940000,2016788000,17764060236391,0.00017968571,0.0012319714,0.002965563,0,0.47171488,0.28805912,0.011178294,0.01651576,0.00070219813,0.005482679,nan,nan,nan,0.004,1310988,1310988,6620172,197388,63.23117,63.157204,0.47844705,0.48238713,0,959,2,1,5,5,3,0,0,0,0,0,0,0,0
2016948000,2016796000,17764060236391,0.0001756899,0.0011683492,0.0028142724,0,0.47254583,0.2884466,0.011178294,0.01651576,0.00070219813,0.005482679,nan,nan,nan,0.004,1310988,1310988,6620172,197388,63.23117,63.157204,0.47844705,0.48238713,0,959,2,1,5,5,3,0,0,0,0,0,0,0,0
2016956000,2016804000,17764060236391,0.00013149336,0.0009781442,0.0025665294,0,0.47337806,0.28883472,0.011178294,0.01651576,0.00070219813,0.005482679,nan,nan,nan,0.004,1310988,1310988,6620172,197388,63.23117,63.157204,0.47844705,0.48238713,0,959,2,1,5,5,3,0,0,0,0,0,0,0,0
2016972000,2016820000,17764060236391,0.00012273662,0.00089382794,0.0023410122,0,0.47505528,0.28961286,0.011178294,0.01651576,0.00070219813,0.005482679,nan,nan,nan,0.004,1310988,1310988,6620172,197388,63.23117,63.157204,0.47844705,0.48238713,0,959,2,1,5,5,3,0,0,0,0,0,0,0,0
2016980000,2016828000,17764060236391,0.000117617325,0.0008629023,0.0022907706,0,0.4758985,0.2890222,0.011178294,0.01651576,0.00070219813,0.005486093,nan,nan,nan,0.004,1310988,1310988,6620172,197388,63.23117,63.157204,0.47844705,0.48238713,0,959,2,1,5,5,3,0,0,0,0,0,0,0,0
2016988000,2016836000,17764060236391,0.00014926745,0.000980907,0.002339703,0,0.47673082,0.28941157,0.01178326,0.01651576,0.00070219813,0.005486093,nan,nan,nan,0.004,1310988,1310988,6620172,197388,63.048325,63.157204,0.48155567,0.48238713,0,959,2,1,5,5,3,0,0,0,0,0,0,0,0
2016996000,2016844000,17764060236391,0.00014408452,0.0009617453,0.0022676322,0,0.47758004,0.28980157,0.01178326,0.01651576,0.00070219813,0.005486093,nan,nan,nan,0.004,1310988,1310988,6620172,197388,63.048325,63.157204,0.48155567,0.48238713,0,959,2,1,5,5,3,0,0,0,0,0,0,0,0
2017012000,2016860000,17764060236391,0.00013351775,0.0009504992,0.0021681578,0,0.47928777,0.29058343,0.01178326,0.01651576,0.00070219813,0.005486093,nan,nan,nan,0.004,1310988,1310988,6620172,197388,63.048325,63.157204,0.48155567,0.48238713,0,959,2,1,5,5,3,0,0,0,0,0,0,0,0
2017020000,2016868000,17764060236391,0.00012844878,0.0009546211,0.0021411034,0,0.48014632,0.2909753,0.01178326,0.01651576,0.00070219813,0.005486093,nan,nan,nan,0.004,1310988,1310988,6620172,197388,63.048325,63.157204,0.48155567,0.48238713,0,959,2,1,5,5,3,0,0,0,0,0,0,0,0
2017028000,2016876000,17764060236391,0.00012320116,0.0009621741,0.0021282677,0,0.48100796,0.29136783,0.01178326,0.01651576,0.00070219813,0.005486093,nan,nan,nan,0.004,1310988,1310988,6620172,197388,63.048325,63.157204,0.48155567,0.48238713,0,959,2,1,5,5,3,0,0,0,0,0,0,0,0
2017036000,2016884000,17764060236391,0.00011792403,0.00097329903,0.0021281617,0,0.48187277,0.29176098,0.01178326,0.01651576,0.00070219813,0.005486093,nan,nan,nan,0.004,1310988,1310988,6620172,197388,63.048325,63.157204,0.48155567,0.48238713,0,959,2,1,5,5,3,0,0,0,0,0,0,0,0
2017052000,2016900000,17764060236391,0.00010792525,0.0010018226,0.00214855,0,0.48361176,0.29154256,0.01178326,0.01651576,0.00070219813,0.005490179,nan,nan,nan,0.004,1310988,1310988,6620172,197388,63.048325,63.157204,0.48155567,0.48238713,0,959,2,1,5,5,3,0,0,0,0,0,0,0,0
2017060000,2016908000,17764060236391,0.00010004604,0.0010081269,0.0021944046,0,0.48447016,0.29193625,0.012896665,0.01651576,0.00070219813,0.005490179,nan,nan,nan,0.004,1310988,1310988,6620172,197388,62.855705,63.157204,0.48215285,0.48238713,0,959,2,1,5,5,3,0,0,0,0,0,0,0,0
2017068000,2016916000,17764060236391,9.539189e-05,0.0010221293,0.0022195794,0,0.48534733,0.2923306,0.012896665,0.01651576,0.00070219813,0.005490179,nan,nan,nan,0.004,1310988,1310988,6620172,197388,62.855705,63.157204,0.48215285,0.48238713,0,959,2,1,5,5,3,0,0,0,0,0,0,0,0
2017076000,2016924000,17764060236391,9.018263e-05,0.0010404829,0.002254913,0,0.48622763,0.29272556,0.012896665,0.01651576,0.00070219813,0.005490179,nan,nan,nan,0.004,1310988,1310988,6620172,197388,62.855705,63.157204,0.48215285,0.48238713,0,959,2,1,5,5,3,0,0,0,0,0,0,0,0
2017092000,2016940000,17764060236391,8.019311e-05,0.0010876891,0.0023488968,0,0.48799774,0.29351738,0.012896665,0.01651576,0.00070219813,0.005490179,nan,nan,nan,0.004,1310988,1310988,6620172,197388,62.855705,63.157204,0.48215285,0.48238713,0,959,2,1,5,5,3,0,0,0,0,0,0,0,0
2017100000,2016948000,17764060236391,7.546142e-05,0.0011133561,0.0024038716,0,0.48888755,0.29391423,0.012896665,0.01651576,0.00070219813,0.005490179,nan,nan,nan,0.004,1310988,1310988,6620172,197388,62.855705,63.157204,0.48215285,0.48238713,0,959,2,1,5,5,3,0,0,0,0,0,0,0,0
2017108000,2016956000,17764060236391,7.089155e-05,0.0011437407,0.0024647217,0,0.48978055,0.29431173,0.012896665,0.01651576,0.00070219813,0.005490179,nan,nan,nan,0.004,1310988,1310988,6620172,197388,62.855705,63.157204,0.48215285,0.48238713,0,959,2,1,5,5,3,0,0,0,0,0,0,0,0
2017116000,2016964000,17764060236391,6.726834e-05,0.0011742021,0.0025304724,0,0.49067667,0.29470986,0.012896665,0.01651576,0.00070219813,0.005490179,nan,nan,nan,0.004,1310988,1310988,6620172,197388,62.855705,63.157204,0.48215285,0.48238713,0,959,2,1,5,5,3,0,0,0,0,0,0,0,0
2017132000,2016980000,17764060236391,4.586292e-05,0.0011842657,0.0025987132,0,0.49246076,0.29447338,0.011926244,0.01651576,0.00070219813,0.0054405415,nan,nan,nan,0.004,1310988,1310988,6620172,197388,63.31443,63.157204,0.480742,0.48238713,0,959,2,1,5,5,3,0,0,0,0,0,0,0,0
2017140000,2016988000,17764060236391,4.3376127e-05,0.001221074,0.002677178,0,0.49336627,0.29487202,0.011926244,0.01651576,0.00070219813,0.0054405415,nan,nan,nan,0.004,1310988,1310988,6620172,197388,63.31443,63.157204,0.480742,0.48238713,0,959,2,1,5,5,3,0,0,0,0,0,0,0,0
2017148000,2016996000,17764060236391,4.0924573e-05,0.0012573793,0.0027564974,0,0.49427497,0.29527125,0.011926244,0.01651576,0.00070219813,0.0054405415,nan,nan,nan,0.004,1310988,1310988,6620172,197388,63.31443,63.157204,0.480742,0.48238713,0,959,2,1,5,5,3,0,0,0,0,0,0,0,0
2017156000,2017004000,17764060236391,5.064326e-05,0.0013495559,0.0029233238,0,0.4951843,0.2956711,0.011926244,0.01651576,0.00070219813,0.0054405415,nan,nan,nan,0.004,1310988,1310988,6620172,197388,63.31443,63.157204,0.480742,0.48238713,0,959,2,1,5,5,3,0,0,0,0,0,0,0,0
2017172000,2017020000,17764060236391,5.1557894e-05,0.001398008,0.003060193,0,0.49701765,0.29647273,0.011926244,0.01651576,0.00070219813,0.0054405415,nan,nan,nan,0.004,1310988,1310988,6620172,197388,63.31443,63.157204,0.480742,0.48238713,0,959,2,1,5,5,3,0,0,0,0,0,0,0,0
2017180000,2017028000,17764060236391,5.2364867e-05,0.0014225413,0.00313121,0,0.49793914,0.2968745,0.011926244,0.01651576,0.00070219813,0.0054405415,nan,nan,nan,0.004,1310988,1310988,6620172,197388,63.31443,63.157204,0.480742,0.48238713,0,959,2,1,5,5,3,0,0,0,0,0,0,0,0
2017188000,2017036000,17764060236391,5.337124e-05,0.0014475564,0.0032026607,0,0.4988639,0.29727685,0.011926244,0.01651576,0.00070219813,0.0054405415,nan,nan,nan,0.004,1310988,1310988,6620172,197388,63.31443,63.157204,0.480742,0.48238713,0,959,2,1,5,5,3,0,0,0,0,0,0,0,0
2017196000,2017044000,17764060236391,5.223837e-05,0.0014638024,0.003309413,0,0.4997722,0.2966195,0.011447935,0.01651576,0.00070219813,0.0053723506,nan,nan,nan,0.004,1310988,1310988,6620172,197388,63.088535,63.157204,0.48067,0.48238713,0,959,2,1,5,5,3,0,0,0,0,0,0,0,0
2017212000,2017060000,17764060236391,5.29336e-05,0.0018371582,0.0050398805,0,0.4588354,0.28347605,0.011447935,0.011968947,0.00051928597,0.0054842676,nan,nan,nan,0.004,1310988,1310988,6620172,197388,63.088535,63.157204,0.48067,0.48238713,0,959,2,1,5,5,3,0,0,0,0,0,0,0,0
2017220000,2017068000,17764060236391,5.3940585e-05,0.0018303188,0.0049091205,0,0.4596181,0.28385538,0.011447935,0.011968947,0.00051928597,0.0054842676,nan,nan,nan,0.004,1310988,1310988,6620172,197388,63.088535,63.157204,0.48067,0.48238713,0,959,2,1,5,5,3,0,0,0,0,0,0,0,0
2017228000,2017076000,17764060236391,5.482497e-05,0.0018252758,0.004786731,0,0.4604038,0.28423533,0.011447935,0.011968947,0.00051928597,0.0054842676,nan,nan,nan,0.004,1310988,1310988,6620172,197388,63.088535,63.157204,0.48067,0.48238713,0,959,2,1,5,5,3,0,0,0,0,0,0,0,0
2017236000,2017084000,17764060236391,5.5873952e-05,0.0018227766,0.0046746647,0,0.4611925,0.28461593,0.011447935,0.011968947,0.00051928597,0.0054842676,nan,nan,nan,0.004,1310988,1310988,6620172,197388,63.088535,63.157204,0.48067,0.48238713,0,959,2,1,5,5,3,0,0,0,0,0,0,0,0
2017252000,2017100000,17764060236391,5.798723e-05,0.0018219546,0.004479476,0,0.46277887,0.2853791,0.011447935,0.011968947,0.00051928597,0.0054842676,nan,nan,nan,0.004,1310988,1310988,6620172,197388,63.088535,63.157204,0.48067,0.48238713,0,959,2,1,5,5,3,0,0,0,0,0,0,0,0
2017260000,2017108000,17764060236391,5.9180427e-05,0.0018232681,0.0043981415,0,0.46357656,0.28576165,0.011447935,0.011968947,0.00051928597,0.0054842676,nan,nan,nan,0.004,1310988,1310988,6620172,197388,63.088535,63.157204,0.48067,0.48238713,0,959,2,1,5,5,3,0,0,0,0,0,0,0,0
2017268000,2017116000,17764060236391,3.985228e-05,0.0016904051,0.00414669,0,0.464366,0.28520265,0.012766108,0.011968947,0.00051928597,0.005403738,nan,nan,nan,0.004,1310988,1310988,6620172,197388,62.821835,63.157204,0.47934046,0.48238713,0,959,2,1,5,5,3,0,0,0,0,0,0,0,0
2017276000,2017124000,17764060236391,3.8569695e-05,0.001702492,0.004093377,0,0.46516955,0.28558522,0.012766108,0.011968947,0.00051928597,0.005403738,nan,nan,nan,0.004,1310988,1310988,6620172,197388,62.821835,63.157204,0.47934046,0.48238713,0,959,2,1,5,5,3,0,0,0,0,0,0,0,0
2017292000,2017140000,17764060236391,3.6991416e-05,0.0017284915,0.0039950996,0,0.46678573,0.28635228,0.012766108,0.011968947,0.00051928597,0.005403738,nan,nan,nan,0.004,1310988,1310988,6620172,197388,62.821835,63.157204,0.47934046,0.48238713,0,959,2,1,5,5,3,0,0,0,0,0,0,0,0
2017300000,2017148000,17764060236391,3.631362e-05,0.0017437007,0.0039647394,0,0.46759838,0.28673676,0.012766108,0.011968947,0.00051928597,0.005403738,nan,nan,nan,0.004,1310988,1310988,6620172,197388,62.821835,63.157204,0.47934046,0.48238713,0,959,2,1,5,5,3,0,0,0,0,0,0,0,0
2017308000,2017156000,17764060236391,3.574716e-05,0.0017578368,0.0039385017,0,0.4684141,0.2871219,0.012766108,0.011968947,0.00051928597,0.005403738,nan,nan,nan,0.004,1310988,1310988,6620172,197388,62.821835,63.157204,0.47934046,0.48238713,0,959,2,1,5,5,3,0,0,0,0,0,0,0,0
2017316000,2017164000,17764060236391,3.5613426e-05,0.0017709942,0.0039196615,0,0.46923283,0.28750765,0.012766108,0.011968947,0.00051928597,0.005403738,nan,nan,nan,0.004,1310988,1310988,6620172,197388,62.821835,63.157204,0.47934046,0.48238713,0,959,2,1,5,5,3,0,0,0,0,0,0,0,0
2017332000,2017180000,17764060236391,3.565642e-05,0.0017999081,0.0038956504,0,0.4708795,0.2882811,0.012766108,0.011968947,0.00051928597,0.005403738,nan,nan,nan,0.004,1310988,1310988,6620172,197388,62.821835,63.157204,0.47934046,0.48238713,0,959,2,1,5,5,3,0,0,0,0,0,0,0,0
2017340000,2017188000,17764060236391,4.2723106e-05,0.0017762701,0.0039080265,0,0.47169453,0.28770155,0.012236996,0.011968947,0.00051928597,0.005405541,nan,nan,nan,0.004,1310988,1310988,6620172,197388,63.09012,63.157204,0.48063773,0.48238713,0,959,2,1,5,5,3,0,0,0,0,0,0,0,0
2017348000,2017196000,17764060236391,4.310174e-05,0.0017930324,0.00390534,0,0.47252533,0.28808856,0.012236996,0.011968947,0.00051928597,0.005405541,nan,nan,nan,0.004,1310988,1310988,6620172,197388,63.09012,63.157204,0.48063773,0.48238713,0,959,2,1,5,5,3,0,0,0,0,0,0,0,0
2017356000,2017204000,17764060236391,6.607769e-05,0.0018255421,0.0039157066,0,0.4733574,0.28847623,0.012236996,0.011968947,0.00051928597,0.005405541,nan,nan,nan,0.004,1310988,1310988,6620172,197388,63.09012,63.157204,0.48063773,0.48238713,0,959,2,1,5,5,3,0,0,0,0,0,0,0,0
2017372000,2017220000,17764060236391,6.662392e-05,0.0018618826,0.003930919,0,0.47503433,0.28925347,0.012236996,0.011968947,0.00051928597,0.005405541,nan,nan,nan,0.004,1310988,1310988,6620172,197388,63.09012,63.157204,0.48063773,0.48238713,0,959,2,1,5,5,3,0,0,0,0,0,0,0,0
2017380000,2017228000,17764060236391,6.671006e-05,0.00187767,0.0039438093,0,0.47587743,0.28964308,0.012236996,0.011968947,0.00051928597,0.005405541,nan,nan,nan,0.004,1310988,1310988,6620172,197388,63.09012,63.157204,0.48063773,0.48238713,0,959,2,1,5,5,3,0,0,0,0,0,0,0,0
2017388000,2017236000,17764060236391,6.6920125e-05,0.001892473,0.00395979,0,0.47672364,0.29003328,0.012236996,0.011968947,0.00051928597,0.005405541,nan,nan,nan,0.004,1310988,1310988,6620172,197388,63.09012,63.157204,0.48063773,0.48238713,0,959,2,1,5,5,3,0,0,0,0,0,0,0,0
2017396000,2017244000,17764060236391,6.6980836e-05,0.0019084974,0.0039783865,0,0.47757292,0.29042414,0.012236996,0.011968947,0.00051928597,0.005405541,nan,nan,nan,0.004,1310988,1310988,6620172,197388,63.09012,63.157204,0.48063773,0.48238713,0,959,2,1,5,5,3,0,0,0,0,0,0,0,0
2017412000,2017260000,17764060236391,8.517159e-05,0.0018284152,0.0039024274,0,0.4792662,0.2902148,0.013782646,0.011968947,0.00051928597,0.0053800596,nan,nan,nan,0.004,1310988,1310988,6620172,197388,62.883125,63.157204,0.48184192,0.48238713,0,959,2,1,5,5,3,0,0,0,0,0,0,0,0
2017420000,2017268000,17764060236391,8.551202e-05,0.0018457684,0.003925687,0,0.48012462,0.29060623,0.013782646,0.011968947,0.00051928597,0.0053800596,nan,nan,nan,0.004,1310988,1310988,6620172,197388,62.883125,63.157204,0.48184192,0.48238713,0,959,2,1,5,5,3,0,0,0,0,0,0,0,0
2017428000,2017276000,17764060236391,8.4274136e-05,0.0018628406,0.003950968,0,0.48098615,0.29099828,0.013782646,0.011968947,0.00051928597,0.0053800596,nan,nan,nan,0.004,1310988,1310988,6620172,197388,62.883125,63.157204,0.48184192,0.48238713,0,959,2,1,5,5,3,0,0,0,0,0,0,0,0
2017436000,2017284000,17764060236391,8.3387764e-05,0.001877559,0.003979053,0,0.4818508,0.29139096,0.013782646,0.011968947,0.00051928597,0.0053800596,nan,nan,nan,0.004,1310988,1310988,6620172,197388,62.883125,63.157204,0.48184192,0.48238713,0,959,2,1,5,5,3,0,0,0,0,0,0,0,0
2017452000,2017300000,17764060236391,8.192006e-05,0.0019065319,0.004041993,0,0.4835896,0.2921782,0.013782646,0.011968947,0.00051928597,0.0053800596,nan,nan,nan,0.004,1310988,1310988,6620172,197388,62.883125,63.157204,0.48184192,0.48238713,0,959,2,1,5,5,3,0,0,0,0,0,0,0,0
2017460000,2017308000,17764060236391,8.116615e-05,0.0019213689,0.0040744194,0,0.48446363,0.2925728,0.013782646,0.011968947,0.00051928597,0.0053800596,nan,nan,nan,0.004,1310988,1310988,6620172,197388,62.883125,63.157204,0.48184192,0.48238713,0,959,2,1,5,5,3,0,0,0,0,0,0,0,0
2017468000,2017316000,17764060236391,8.018496e-05,0.0019367984,0.00410882,0,0.48534086,0.29296803,0.013782646,0.011968947,0.00051928597,0.0053800596,nan,nan,nan,0.004,1310988,1310988,6620172,197388,62.883125,63.157204,0.48184192,0.48238713,0,959,2,1,5,5,3,0,0,0,0,0,0,0,0
2017476000,2017324000,17764060236391,7.92631e-05,0.0019509759,0.0041436907,0,0.48622125,0.29336387,0.013782646,0.011968947,0.00051928597,0.0053800596,nan,nan,nan,0.004,1310988,1310988,6620172,197388,62.883125,63.157204,0.48184192,0.48238713,0,959,2,1,5,5,3,0,0,0,0,0,0,0,0
2017492000,2017340000,17764060236391,6.744093e-05,0.0020137595,0.004279069,0,0.48797476,0.29313692,0.012748537,0.011968947,0.00051928597,0.0052310885,nan,nan,nan,0.004,1310988,1310988,6620172,197388,63.35509,63.157204,0.4812704,0.48238713,0,959,2,1,5,5,3,0,0,0,0,0,0,0,0
2017500000,2017348000,17764060236391,6.6178436e-05,0.002026235,0.00431712,0,0.48886442,0.2935333,0.012748537,0.011968947,0.00051928597,0.0052310885,nan,nan,nan,0.004,1310988,1310988,6620172,197388,63.35509,63.157204,0.4812704,0.48238713,0,959,2,1,5,5,3,0,0,0,0,0,0,0,0
2017508000,2017356000,17764060236391,6.503341e-05,0.0020382016,0.0043532797,0,0.48975724,0.2939303,0.012748537,0.011968947,0.00051928597,0.0052310885,nan,nan,nan,0.004,1310988,1310988,6620172,197388,63.35509,63.157204,0.4812704,0.48238713,0,959,2,1,5,5,3,0,0,0,0,0,0,0,0
2017516000,2017364000,17764060236391,6.281636e-05,0.002048049,0.0043910774,0,0.49065322,0.2943279,0.012748537,0.011968947,0.00051928597,0.0052310885,nan,nan,nan,0.004,1310988,1310988,6620172,197388,63.35509,63.157204,0.4812704,0.48238713,0,959,2,1,5,5,3,0,0,0,0,0,0,0,0
2017532000,2017380000,17764060236391,5.8563317e-05,0.0020667661,0.004465597,0,0.49245477,0.29512507,0.012748537,0.011968947,0.00051928597,0.0052310885,nan,nan,nan,0.004,1310988,1310988,6620172,197388,63.35509,63.157204,0.4812704,0.48238713,0,959,2,1,5,5,3,0,0,0,0,0,0,0,0
2017540000,2017388000,17764060236391,5.65321e-05,0.0020759485,0.00450165,0,0.49336034,0.29552457,0.012748537,0.011968947,0.00051928597,0.0052310885,nan,nan,nan,0.004,1310988,1310988,6620172,197388,63.35509,63.157204,0.4812704,0.48238713,0,959,2,1,5,5,3,0,0,0,0,0,0,0,0
2017548000,2017396000,17764060236391,9.521931e-05,0.002096699,0.0045402255,0,0.49425086,0.29592472,0.012447419,0.011968947,0.00051928597,0.0052310885,nan,nan,nan,0.004,1310988,1310988,6620172,197388,63.086296,63.157204,0.48073825,0.48238713,0,959,2,1,5,5,3,0,0,0,0,0,0,0,0
2017556000,2017404000,17764060236391,0.00015071084,0.0022068426,0.00455248,0,0.49516,0.29527947,0.012447419,0.011968947,0.00051928597,0.005774967,nan,nan,nan,0.004,1310988,1310988,6620172,197388,63.086296,63.157204,0.48073825,0.48238713,0,959,2,1,5,5,3,0,0,0,0,0,0,0,0
2017572000,2017420000,17764060236391,0.00014628975,0.0022170064,0.0046033417,0,0.496993,0.29608005,0.012447419,0.011968947,0.00051928597,0.005774967,nan,nan,nan,0.004,1310988,1310988,6620172,197388,63.086296,63.157204,0.48073825,0.48238713,0,959,2,1,5,5,3,0,0,0,0,0,0,0,0
2017580000,2017428000,17764060236391,0.00014372847,0.0022211692,0.0046290224,0,0.49791434,0.2964813,0.012447419,0.011968947,0.00051928597,0.005774967,nan,nan,nan,0.004,1310988,1310988,6620172,197388,63.086296,63.157204,0.48073825,0.48238713,0,959,2,1,5,5,3,0,0,0,0,0,0,0,0
2017588000,2017436000,17764060236391,0.00014116883,0.0022250155,0.0046546534,0,0.4988389,0.29688317,0.012447419,0.011968947,0.00051928597,0.005774967,nan,nan,nan,0.004,1310988,1310988,6620172,197388,63.086296,63.157204,0.48073825,0.48238713,0,959,2,1,5,5,3,0,0,0,0,0,0,0,0
2017596000,2017444000,17764060236391,0.00013855076,0.0022287162,0.004680558,0,0.49976668,0.29728565,0.012447419,0.011968947,0.00051928597,0.005774967,nan,nan,nan,0.004,1310988,1310988,6620172,197388,63.086296,63.157204,0.48073825,0.48238713,0,959,2,1,5,5,3,0,0,0,0,0,0,0,0
2017612000,2017460000,17764060236391,0.00013653658,0.0016373377,0.0049336324,0,0.45882937,0.28405407,0.012447419,0.009501815,0.0019056718,0.005574387,nan,nan,nan,0.004,1310988,1310988,6620172,197388,63.086296,63.157204,0.48073825,0.48238713,0,959,2,1,5,5,3,0,0,0,0,0,0,0,0
2017620000,2017468000,17764060236391,0.00019823994,0.0017476217,0.004826584,0,0.45960182,0.28350875,0.012919899,0.009501815,0.0019056718,0.0055183126,nan,nan,nan,0.004,1310988,1310988,6620172,197388,63.28756,63.157204,0.48262024,0.48238713,0,959,2,1,5,5,3,0,0,0,0,0,0,0,0
2017628000,2017476000,17764060236391,0.00019579416,0.0017322144,0.0046626534,0,0.4603874,0.28388828,0.012919899,0.009501815,0.0019056718,0.0055183126,nan,nan,nan,0.004,1310988,1310988,6620172,197388,63.28756,63.157204,0.48262024,0.48238713,0,959,2,1,5,5,3,0,0,0,0,0,0,0,0
2017636000,2017484000,17764060236391,0.00019328852,0.0017199027,0.0045131566,0,0.46117595,0.28426844,0.012919899,0.009501815,0.0019056718,0.0055183126,nan,nan,nan,0.004,1310988,1310988,6620172,197388,63.28756,63.157204,0.48262024,0.48238713,0,959,2,1,5,5,3,0,0,0,0,0,0,0,0
2017652000,2017500000,17764060236391,0.00018918318,0.0017009734,0.00425879,0,0.46276203,0.2850307,0.012919899,0.009501815,0.0019056718,0.0055183126,nan,nan,nan,0.004,1310988,1310988,6620172,197388,63.28756,63.157204,0.48262024,0.48238713,0,959,2,1,5,5,3,0,0,0,0,0,0,0,0
2017660000,2017508000,17764060236391,0.00018716097,0.0016950227,0.0041507655,0,0.46355957,0.28541282,0.012919899,0.009501815,0.0019056718,0.0055183126,nan,nan,nan,0.004,1310988,1310988,6620172,197388,63.28756,63.157204,0.48262024,0.48238713,0,959,2,1,5,5,3,0,0,0,0,0,0,0,0
2017668000,2017516000,17764060236391,0.00018502133,0.0016903923,0.0040526,0,0.46436012,0.28579554,0.012919899,0.009501815,0.0019056718,0.0055183126,nan,nan,nan,0.004,1310988,1310988,6620172,197388,63.28756,63.157204,0.48262024,0.48238713,0,959,2,1,5,5,3,0,0,0,0,0,0,0,0
2017676000,2017524000,17764060236391,0.00018317829,0.0017125576,0.004230947,0,0.4651637,0.28523636,0.012919899,0.009501815,0.0019056718,0.005632921,nan,nan,nan,0.004,1310988,1310988,6620172,197388,63.28756,63.157204,0.48262024,0.48238713,0,959,2,1,5,5,3,0,0,0,0,0,0,0,0
2017692000,2017540000,17764060236391,0.00016903503,0.0016562402,0.004013338,0,0.46676815,0.28600255,0.011961729,0.009501815,0.0019056718,0.005632921,nan,nan,nan,0.004,1310988,1310988,6620172,197388,63.068913,63.157204,0.47907177,0.48238713,0,959,2,1,5,5,3,0,0,0,0,0,0,0,0
2017700000,2017548000,17764060236391,0.00016719537,0.0016558854,0.003935052,0,0.46758062,0.28638658,0.011961729,0.009501815,0.0019056718,0.005632921,nan,nan,nan,0.004,1310988,1310988,6620172,197388,63.068913,63.157204,0.47907177,0.48238713,0,959,2,1,5,5,3,0,0,0,0,0,0,0,0
2017708000,2017556000,17764060236391,0.00016446823,0.0016545539,0.003865372,0,0.46839613,0.28677127,0.011961729,0.009501815,0.0019056718,0.005632921,nan,nan,nan,0.004,1310988,1310988,6620172,197388,63.068913,63.157204,0.47907177,0.48238713,0,959,2,1,5,5,3,0,0,0,0,0,0,0,0
2017716000,2017564000,17764060236391,0.0001602497,0.001655145,0.0038044343,0,0.46921468,0.28715658,0.011961729,0.009501815,0.0019056718,0.005632921,nan,nan,nan,0.004,1310988,1310988,6620172,197388,63.068913,63.157204,0.47907177,0.48238713,0,959,2,1,5,5,3,0,0,0,0,0,0,0,0
2017732000,2017580000,17764060236391,0.00015182508,0.0016617207,0.003705993,0,0.470861,0.28792915,0.011961729,0.009501815,0.0019056718,0.005632921,nan,nan,nan,0.004,1310988,1310988,6620172,197388,63.068913,63.157204,0.47907177,0.48238713,0,959,2,1,5,5,3,0,0,0,0,0,0,0,0
2017740000,2017588000,17764060236391,0.00014767882,0.001681828,0.0038178451,0,0.47168872,0.28735262,0.011961729,0.009501815,0.0019056718,0.005667045,nan,nan,nan,0.004,1310988,1310988,6620172,197388,63.068913,63.157204,0.47907177,0.48238713,0,959,2,1,5,5,3,0,0,0,0,0,0,0,0
2017748000,2017596000,17764060236391,0.00014365702,0.0016862446,0.0037690098,0,0.4725195,0.28773922,0.011961729,0.009501815,0.0019056718,0.005667045,nan,nan,nan,0.004,1310988,1310988,6620172,197388,63.068913,63.157204,0.47907177,0.48238713,0,959,2,1,5,5,3,0,0,0,0,0,0,0,0
2017756000,2017604000,17764060236391,0.00012181406,0.0015485133,0.0036198727,0,0.47335157,0.28812644,0.011961729,0.009501815,0.0019056718,0.005667045,nan,nan,nan,0.004,1310988,1310988,6620172,197388,63.068913,63.157204,0.47907177,0.48238713,0,959,2,1,5,5,3,0,0,0,0,0,0,0,0
2017772000,2017620000,17764060236391,0.00014391533,0.001597143,0.0035820396,0,0.4750149,0.2889028,0.011784121,0.009501815,0.0019056718,0.005667045,nan,nan,nan,0.004,1310988,1310988,6620172,197388,63.101772,63.157204,0.48141652,0.48238713,0,959,2,1,5,5,3,0,0,0,0,0,0,0,0
2017780000,2017628000,17764060236391,0.00013857457,0.0016048861,0.003555389,0,0.47585782,0.28929192,0.011784121,0.009501815,0.0019056718,0.005667045,nan,nan,nan,0.004,1310988,1310988,6620172,197388,63.101772,63.157204,0.48141652,0.48238713,0,959,2,1,5,5,3,0,0,0,0,0,0,0,0
2017788000,2017636000,17764060236391,0.0001330045,0.0016165517,0.0035355424,0,0.47670385,0.28968167,0.011784121,0.009501815,0.0019056718,0.005667045,nan,nan,nan,0.004,1310988,1310988,6620172,197388,63.101772,63.157204,0.48141652,0.48238713,0,959,2,1,5,5,3,0,0,0,0,0,0,0,0
2017796000,2017644000,17764060236391,0.00012761651,0.0016276839,0.0035302648,0,0.47755298,0.28909066,0.011784121,0.009501815,0.0019056718,0.005606256,nan,nan,nan,0.004,1310988,1310988,6620172,197388,63.101772,63.157204,0.48141652,0.48238713,0,959,2,1,5,5,3,0,0,0,0,0,0,0,0
2017812000,2017660000,17764060236391,0.000116636686,0.0016493163,0.0035236117,0,0.47926056,0.28987074,0.011784121,0.009501815,0.0019056718,0.005606256,nan,nan,nan,0.004,1310988,1310988,6620172,197388,63.101772,63.157204,0.48141652,0.48238713,0,959,2,1,5,5,3,0,0,0,0,0,0,0,0
2017820000,2017668000,17764060236391,0.00011144781,0.0016597498,0.0035291333,0,0.48011908,0.29026175,0.011784121,0.009501815,0.0019056718,0.005606256,nan,nan,nan,0.004,1310988,1310988,6620172,197388,63.101772,63.157204,0.48141652,0.48238713,0,959,2,1,5,5,3,0,0,0,0,0,0,0,0
2017828000,2017676000,17764060236391,0.0001525003,0.0018567699,0.0037220037,0,0.48096567,0.29065338,0.013166438,0.009501815,0.0019056718,0.005606256,nan,nan,nan,0.004,1310988,1310988,6620172,197388,63.5433,63.157204,0.4821053,0.48238713,0,959,2,1,5,5,3,0,0,0,0,0,0,0,0
2017836000,2017684000,17764060236391,0.00014734855,0.0018615955,0.00373119,0,0.4818302,0.29104567,0.013166438,0.009501815,0.0019056718,0.005606256,nan,nan,nan,0.004,1310988,1310988,6620172,197388,63.5433,63.157204,0.4821053,0.48238713,0,959,2,1,5,5,3,0,0,0,0,0,0,0,0
2017852000,2017700000,17764060236391,0.00013721292,0.0018685826,0.0037551152,0,0.48356867,0.2918321,0.013166438,0.009501815,0.0019056718,0.005606256,nan,nan,nan,0.004,1310988,1310988,6620172,197388,63.5433,63.157204,0.4821053,0.48238713,0,959,2,1,5,5,3,0,0,0,0,0,0,0,0
2017860000,2017708000,17764060236391,0.00013264103,0.0018727293,0.0037704,0,0.48444262,0.29222625,0.013166438,0.009501815,0.0019056718,0.005606256,nan,nan,nan,0.004,1310988,1310988,6620172,197388,63.5433,63.157204,0.4821053,0.48238713,0,959,2,1,5,5,3,0,0,0,0,0,0,0,0
2017868000,2017716000,17764060236391,0.00012783508,0.0018815694,0.0038173422,0,0.48531973,0.29161364,0.013166438,0.009501815,0.0019056718,0.005674431,nan,nan,nan,0.004,1310988,1310988,6620172,197388,63.5433,63.157204,0.4821053,0.48238713,0,959,2,1,5,5,3,0,0,0,0,0,0,0,0
2017876000,2017724000,17764060236391,0.00012332728,0.0018851034,0.0038275432,0,0.48619995,0.2920077,0.013166438,0.009501815,0.0019056718,0.005674431,nan,nan,nan,0.004,1310988,1310988,6620172,197388,63.5433,63.157204,0.4821053,0.48238713,0,959,2,1,5,5,3,0,0,0,0,0,0,0,0
2017892000,2017740000,17764060236391,0.00011448873,0.0018932199,0.0038528387,0,0.4879699,0.29279777,0.013166438,0.009501815,0.0019056718,0.005674431,nan,nan,nan,0.004,1310988,1310988,6620172,197388,63.5433,63.157204,0.4821053,0.48238713,0,959,2,1,5,5,3,0,0,0,0,0,0,0,0
2017900000,2017748000,17764060236391,9.335351e-05,0.0018922806,0.0038626269,0,0.4888428,0.29319376,0.012076311,0.009501815,0.0019056718,0.005674431,nan,nan,nan,0.004,1310988,1310988,6620172,197388,63.314526,63.157204,0.48224664,0.48238713,0,959,2,1,5,5,3,0,0,0,0,0,0,0,0
2017908000,2017756000,17764060236391,8.9461646e-05,0.0018969771,0.0038802605,0,0.48973548,0.29359034,0.012076311,0.009501815,0.0019056718,0.005674431,nan,nan,nan,0.004,1310988,1310988,6620172,197388,63.314526,63.157204,0.48224664,0.48238713,0,959,2,1,5,5,3,0,0,0,0,0,0,0,0
2017916000,2017764000,17764060236391,8.577367e-05,0.0019002673,0.003898491,0,0.49063134,0.29398757,0.012076311,0.009501815,0.0019056718,0.005674431,nan,nan,nan,0.004,1310988,1310988,6620172,197388,63.314526,63.157204,0.48224664,0.48238713,0,959,2,1,5,5,3,0,0,0,0,0,0,0,0
2017932000,2017780000,17764060236391,7.7297635e-05,0.0019076826,0.0039395015,0,0.49243268,0.29478395,0.012076311,0.009501815,0.0019056718,0.005674431,nan,nan,nan,0.004,1310988,1310988,6620172,197388,63.314526,63.157204,0.48224664,0.48238713,0,959,2,1,5,5,3,0,0,0,0,0,0,0,0
2017940000,2017788000,17763985787623,7.32795e-05,0.0019098057,0.0039492403,0,0.4933381,0.29414904,0.012076311,0.009501815,0.0019056718,0.0056568924,nan,nan,nan,0.004,1310988,1310988,6620172,197388,63.314526,63.157204,0.48224664,0.48238713,0,831,2,1,5,5,3,0,0,0,0,0,0,0,0
2017948000,2017796000,17763985787623,6.944792e-05,0.0019151758,0.003966842,0,0.49424672,0.2945474,0.012076311,0.009501815,0.0019056718,0.0056568924,nan,nan,nan,0.004,1310988,1310988,6620172,197388,63.314526,63.157204,0.48224664,0.48238713,0,831,2,1,5,5,3,0,0,0,0,0,0,0,0
2017956000,2017804000,17763985787623,6.550949e-05,0.0019188285,0.003985522,0,0.49515855,0.2949464,0.012076311,0.009501815,0.0019056718,0.0056568924,nan,nan,nan,0.004,1310988,1310988,6620172,197388,63.314526,63.157204,0.48224664,0.48238713,0,831,2,1,5,5,3,0,0,0,0,0,0,0,0
2017972000,2017820000,17763985787543,9.659481e-05,0.0018682146,0.003959813,0,0.49697298,0.2957463,0.0133486185,0.009501815,0.0019056718,0.0056568924,nan,nan,nan,0.004,1310988,1310988,6620172,197388,62.843967,63.157204,0.48307738,0.48238713,0,831,2,1,5,5,3,0,0,0,0,0,0,0,0
2017980000,2017828000,17763985787543,9.342869e-05,0.0018728225,0.003981083,0,0.49789423,0.29614717,0.0133486185,0.009501815,0.0019056718,0.0056568924,nan,nan,nan,0.004,1310988,1310988,6620172,197388,62.843967,63.157204,0.48307738,0.48238713,0,831,2,1,5,5,3,0,0,0,0,0,0,0,0
2017988000,2017836000,17763985787543,8.917449e-05,0.0018759964,0.0040032114,0,0.4988187,0.29654866,0.0133486185,0.009501815,0.0019056718,0.0056568924,nan,nan,nan,0.004,1310988,1310988,6620172,197388,62.843967,63.157204,0.48307738,0.48238713,0,831,2,1,5,5,3,0,0,0,0,0,0,0,0
2017996000,2017844000,17763985787543,8.486985e-05,0.0018795875,0.004024463,0,0.4997464,0.29695082,0.0133486185,0.009501815,0.0019056718,0.0056568924,nan,nan,nan,0.004,1310988,1310988,6620172,197388,62.843967,63.157204,0.48307738,0.48238713,0,831,2,1,5,5,3,0,0,0,0,0,0,0,0
2018012000,2017860000,17763985787543,0.00015625404,0.0035946995,0.008377255,0,0.4588153,0.28284636,0.0133486185,0.013913312,0.003265511,0.0050677424,nan,nan,nan,0.004,1310988,1310988,6620172,197388,62.843967,63.157204,0.48307738,0.48238713,0,831,2,1,5,5,3,0,0,0,0,0,0,0,0
2018020000,2017868000,17763985787543,0.00015354367,0.003425817,0.007996338,0,0.459598,0.28322497,0.0133486185,0.013913312,0.003265511,0.0050677424,nan,nan,nan,0.004,1310988,1310988,6620172,197388,62.843967,63.157204,0.48307738,0.48238713,0,831,2,1,5,5,3,0,0,0,0,0,0,0,0
2018028000,2017876000,17763985787543,0.00015103618,0.0032617794,0.00762939,0,0.46038365,0.2836042,0.0133486185,0.013913312,0.003265511,0.0050677424,nan,nan,nan,0.004,1310988,1310988,6620172,197388,62.843967,63.157204,0.48307738,0.48238713,0,831,2,1,5,5,3,0,0,0,0,0,0,0,0
2018036000,2017884000,17763985787543,0.00014873272,0.0031026674,0.0072732577,0,0.46117234,0.28398412,0.0133486185,0.013913312,0.003265511,0.0050677424,nan,nan,nan,0.004,1310988,1310988,6620172,197388,62.843967,63.157204,0.48307738,0.48238713,0,831,2,1,5,5,3,0,0,0,0,0,0,0,0
2018052000,2017900000,17763985787543,0.00015121109,0.002714386,0.006519336,0,0.4627477,0.2847458,0.012185523,0.013913312,0.003265511,0.0050677424,nan,nan,nan,0.004,1310988,1310988,6620172,197388,63.42443,63.157204,0.4811398,0.48238713,0,831,2,1,5,5,3,0,0,0,0,0,0,0,0
2018060000,2017908000,17763985787543,0.00014931892,0.0025738524,0.0061981077,0,0.4635452,0.2841954,0.012185523,0.013913312,0.003265511,0.0049991943,nan,nan,nan,0.004,1310988,1310988,6620172,197388,63.42443,63.157204,0.4811398,0.48238713,0,831,2,1,5,5,3,0,0,0,0,0,0,0,0
2018068000,2017916000,17763985787543,0.00014750431,0.0024374202,0.0058907513,0,0.46434572,0.2845766,0.012185523,0.013913312,0.003265511,0.0049991943,nan,nan,nan,0.004,1310988,1310988,6620172,197388,63.42443,63.157204,0.4811398,0.48238713,0,831,2,1,5,5,3,0,0,0,0,0,0,0,0
2018076000,2017924000,17763985787543,0.00014594157,0.0023063398,0.005595018,0,0.46514922,0.28495845,0.012185523,0.013913312,0.003265511,0.0049991943,nan,nan,nan,0.004,1310988,1310988,6620172,197388,63.42443,63.157204,0.4811398,0.48238713,0,831,2,1,5,5,3,0,0,0,0,0,0,0,0
