timestamp,timestamp_sample,xyz[0],xyz[1],xyz[2],xyz_derivative[0],xyz_derivative[1],xyz_derivative[2]
2015920000,2015920000,-0.004987168,-0.007225159,-0.011025355,-0.17531097,-0.7066525,-0.3862508
2015928000,2015928000,-0.013621619,-0.00021795902,-0.0112688895,-0.5363307,0.22983533,-0.19385576
2015932000,2015932000,-0.0048391293,0.0002715433,-0.011667277,0.37753814,0.19388884,-0.16232508
2015940000,2015940000,9.2411254e-05,-0.0136447605,-0.006559768,0.40294403,-0.95327485,0.3647171
2015952000,2015952000,-0.006042415,0.0030897327,0.009912924,-0.04543817,1.2143403,0.82957655
2015960000,2015960000,0.002665494,-0.0020148582,-0.0023793462,0.6096761,0.045161076,-0.48095596
2015972000,2015972000,0.00042164908,0.011854565,0.0019796463,0.016445013,0.87068886,0.21311834
2015980000,2015980000,0.0069240145,0.01039451,0.006204412,0.36857593,0.22063829,0.42786235
2015992000,2015992000,-0.016749717,0.0050728596,0.005236947,-1.3090763,-0.0884577,-0.114435285
2016000000,2016000000,-0.002351778,0.0054579196,0.0015746186,0.6191431,-0.04631638,-0.1720919
2016012000,2016012000,0.00034735585,-0.0034218763,0.011098586,-0.272637,-0.5091247,0.38810164
2016020000,2016020000,-0.0043483377,-0.0017553018,0.0074516544,-0.45316815,-0.17953765,-0.06511811
2016032000,2016032000,0.0035864941,-0.0042868624,0.0072038677,0.53911805,-0.042360336,0.041314602
2016040000,2016040000,-0.0061265356,0.001130115,0.011226193,-0.5245626,0.34095994,0.22313696
2016052000,2016052000,0.0013419732,-0.0013780622,0.006091185,0.6158191,-0.044193458,-0.18443751
2016060000,2016060000,0.003139158,-0.00760248,0.007257573,0.27886146,-0.4444527,0.075522624
2016072000,2016072000,0.0030297793,0.007940662,-0.0012240149,0.3973108,0.8211372,-0.9233264
2016080000,2016080000,0.0046702535,0.0051856255,-0.003690093,0.21247417,0.057981376,-0.3164804
2016092000,2016092000,-0.002352975,-0.004502622,0.0028991723,-0.2129046,-0.37350416,-0.28477085
2016100000,2016100000,-0.00023238172,0.0011991985,-0.0019481346,-0.030469894,0.22470063,-0.33775833
2016112000,2016112000,0.00078047276,0.008183555,-0.003316589,0.16210529,0.4252029,0.028848834
2016120000,2016120000,-0.012254322,-0.008733933,0.012518126,-0.8147127,-0.9164224,0.9869465
2016132000,2016132000,0.0009389584,-0.005789715,-0.0029026968,0.5215287,-0.15396431,-0.40148702
2016140000,2016140000,0.008415465,0.0083106635,0.0042020767,0.76878166,0.8795991,0.29758486
2016152000,2016152000,0.0062453095,-0.0012075658,-0.0033468197,-0.027376711,-0.35469568,-0.5529008
2016156000,2016156000,0.003181067,0.0010476642,-0.0019164138,-0.27447468,-0.047446128,-0.24832761
2016172000,2016172000,0.0068062455,0.009050615,0.0050720326,0.346419,0.5383715,-0.25140882
2016180000,2016180000,0.0030321616,-0.00043739346,0.0018719165,-0.21321341,-0.49183115,-0.3775494
2016192000,2016192000,0.006764437,-0.008798281,-0.0018539195,0.257172,-0.5604605,-0.08354411
2016200000,2016200000,0.0014824099,-0.005632662,-0.002795084,-0.21170652,0.05573654,-0.08580436
2016212000,2016212000,-0.0049170433,0.0067398134,0.0028906493,-0.6101228,0.45947987,0.08811811
2016220000,2016220000,0.0041033938,-0.008408671,0.013134419,0.44199458,-0.8307876,0.80254585
2016232000,2016232000,0.004464212,-0.0013012771,-0.0020944646,-0.12160963,0.41337377,-0.78430295
2016240000,2016240000,0.0029935658,0.0035224915,0.00063465163,-0.015434682,0.34907073,-0.10732057
2016252000,2016252000,0.006563785,0.009302207,0.004012549,0.18796483,0.60684717,0.15251134
2016260000,2016260000,0.0063069905,0.0013787816,0.008679249,-0.0073798895,-0.29872447,0.42154306
2016272000,2016272000,0.008759782,0.0034746379,-0.006091475,0.28504524,0.17305262,-1.0000756
2016280000,2016280000,0.0043528127,-0.0007575425,-0.017362332,-0.17874855,-0.278711,-1.2546425
2016292000,2016292000,0.017036509,-0.0055327266,-0.002070209,0.81369,-0.33167964,0.7307923
2016300000,2016300000,0.004369461,-0.0036283094,0.010986662,-0.6400552,0.025028536,1.1575696
2016312000,2016312000,-0.016069645,-0.0062418473,-0.00076086534,-1.2289056,-0.03364276,-0.35996225
2016320000,2016320000,-0.007521501,-0.012719147,-0.003728783,0.102175176,-0.46773434,-0.28098887
2016332000,2016332000,0.013904864,-0.001243204,-0.0010479357,1.3748646,0.6683943,0.055538636
2016340000,2016340000,0.0023632937,0.005576984,0.0018228295,-0.37169302,0.68631667,0.20648138
2016352000,2016352000,0.0036804925,-0.0059884326,-0.0018146998,0.24680358,-0.48216605,-0.17163105
2016360000,2016360000,0.0017333631,0.005333244,-0.0066753374,-0.027516618,0.6418877,-0.35468268
2016372000,2016372000,-0.0014472562,0.005728476,-0.019351296,-0.20290568,0.035923794,-0.8825543
2016380000,2016380000,-0.0045399917,0.0057011032,-0.0061818664,-0.31826216,-0.0047404347,0.59550196
2016392000,2016392000,0.002290414,0.004518833,0.009585241,0.37330335,-0.10325669,0.87146056
2016400000,2016400000,-0.007320481,0.0027108127,-0.009636817,-0.49800667,-0.16982864,-0.9907154
2016412000,2016412000,-0.005411323,-0.012523595,0.0057068346,-0.075880736,-0.7006705,0.8499724
2016420000,2016420000,-0.0065842285,-0.0067089126,0.0037737966,-0.12414958,0.078849375,0.14152789
2016432000,2016432000,0.010806633,-0.0058980472,0.0031149501,1.1880137,0.28900713,0.14245795
2016440000,2016440000,0.008646614,0.005595062,0.009633241,0.2722401,0.85289127,0.5358577
2016452000,2016452000,0.0087713115,0.00068131636,0.00503453,0.34013152,0.09591275,-0.46037608
2016460000,2016460000,-0.0040367064,-0.004140679,0.0014941988,-0.9329124,-0.37963283,-0.32856447
2016472000,2016472000,-0.00044125316,0.0037881527,-0.0009917541,0.4184289,0.44959322,-0.39557403
2016480000,2016480000,0.013338735,0.01323865,-0.0052986927,1.0725603,0.8359511,-0.48930562
2016492000,2016492000,-0.009390948,0.0046299286,-0.0018138465,-0.7514904,-0.26443252,0.17469755
2016500000,2016500000,-0.005861112,-0.00041165974,0.00954427,-0.19422989,-0.4634133,0.85964763
2016512000,2016512000,0.011470552,0.0068467087,-0.009495871,1.0939825,0.34782884,-0.9796204
2016516000,2016516000,0.0062699253,0.0042925985,-0.014133366,0.2931162,0.017881561,-1.0397499
2016532000,2016532000,0.0018974246,-0.0016014109,0.0008739231,0.4307813,0.0045692315,0.054856718
2016540000,2016540000,0.0036629976,0.008118939,0.004302183,0.33677864,0.6065344,0.33787748
2016552000,2016552000,-0.002675013,0.00044599094,0.005314469,-0.37558794,-0.21989758,-0.02795792
2016560000,2016560000,-0.0020178354,-0.00090966787,0.0030302717,-0.091550514,-0.26515967,-0.21378204
2016572000,2016572000,0.018476808,-0.0060209855,-0.0036324859,1.3217872,-0.30147326,-0.3962751
2016580000,2016580000,-0.0033236872,0.009446367,-0.0043880506,-1.045957,0.93528897,-0.10888259
2016592000,2016592000,-0.0074937902,-0.00445031,-0.0072005237,0.033008575,-0.61431867,-0.42481384
2016600000,2016600000,0.010182188,-0.01627354,-0.0068244003,1.1329082,-1.0828723,-0.08440038
2016612000,2016612000,0.0069723385,0.009087102,0.002332119,0.3709266,1.4138606,0.2800042
2016620000,2016620000,0.01228139,0.013176954,-0.012240916,0.3681659,0.74197114,-0.8109214
2016632000,2016632000,-0.009909162,-0.0023737676,0.006916377,-0.9764092,-0.44713944,0.7430556
2016640000,2016640000,-0.016164375,-0.000394824,-0.005509539,-0.8917246,-0.060810287,-0.59462327
2016652000,2016652000,-0.0005094378,-0.0046675038,0.002792322,0.82566524,-0.5416845,0.5990064
2016660000,2016660000,-0.0021656987,-0.011890281,0.009445985,0.17478418,-0.6395281,0.65474075
2016672000,2016672000,-0.009922473,-0.0027885088,-0.0018619179,-0.3150138,0.33632547,-0.5320765
2016680000,2016680000,-0.0038233723,-0.001788596,-0.011046945,0.32622886,0.1325363,-0.849422
2016692000,2016692000,0.005134645,0.0027786247,-0.005107065,0.8354219,0.22225505,0.0808336
2016700000,2016700000,0.014495799,-0.011673608,-0.0038698567,0.9109762,-0.8622852,0.13782704
2016708000,2016708000,-0.0014463973,0.0006440302,-0.002903871,-0.7695622,0.5433695,0.06362725
2016720000,2016720000,-0.012990713,-0.009425361,-0.012462528,-0.6851682,-0.4645078,-0.34614503
2016732000,2016732000,-0.0010528059,0.010438014,-0.016307361,0.3272736,0.8311173,-0.14600877
2016740000,2016740000,-0.007875697,5.7145953e-06,-0.0069729905,-0.2688178,-0.41604406,0.5902895
2016752000,2016752000,-0.0013261123,0.0038722316,0.009723542,0.40354472,0.26485053,1.0977886
2016760000,2016760000,0.0037150464,-0.010917199,-0.0030796665,0.4821245,-0.9356947,-0.41165736
2016772000,2016772000,0.0025706422,-0.0016380429,0.007594579,0.1699135,0.38070703,0.7818565
2016780000,2016780000,-0.007748997,-0.0038194768,0.0027168337,-0.7020434,-0.073648214,-0.06433743
2016792000,2016792000,0.0008490703,0.0012606692,0.009763519,0.55679804,0.54983485,0.50362086
2016800000,2016800000,0.009045298,0.0028258245,-0.0014893243,0.8038566,0.24948083,-0.5010334
2016812000,2016812000,-0.0025131314,-0.0030204253,0.0037725822,-0.6442352,-0.28555012,0.045788787
2016820000,2016820000,-0.0047160387,-0.019252017,0.0029916617,-0.37957612,-1.2277937,-0.06780265
2016832000,2016832000,0.017741423,-0.0076958565,0.0035920555,1.1080602,0.28626075,0.07632828
2016840000,2016840000,-0.0010204155,-0.008012381,0.0006533446,-0.8469152,0.13535362,-0.19848219
2016852000,2016852000,0.009425432,0.0048444956,-0.002075518,0.66136223,0.7174712,-0.37778103
2016860000,2016860000,0.02308463,0.012502311,-0.0006280424,1.2328529,0.88607454,-0.007306948
2016872000,2016872000,0.00021486174,0.011906109,-0.0016616412,-1.0899642,0.020533148,-0.24509472
2016880000,2016880000,0.0002469114,-0.00012940084,-0.0047583026,-0.4848179,-0.78749293,-0.31694782
2016892000,2016892000,-0.0010497121,-0.009027737,0.0045888484,0.20482361,-0.70637226,0.52971435
2016900000,2016900000,0.006006301,-0.0069299806,-0.012232198,0.51709497,-0.1836381,-0.9848282
2016912000,2016912000,0.009927202,-0.0072509954,0.0034265514,-0.047156572,0.044213742,0.87695974
2016920000,2016920000,0.0030075784,-0.0056278035,0.0039289403,-0.34982693,0.16326387,0.32378602
2016932000,2016932000,0.00912334,0.0064008273,-0.007300669,0.3535055,0.83477503,-0.44527605
2016940000,2016940000,-0.0046589985,0.0018195737,0.011462413,-0.95056707,-0.01957186,1.035052
2016952000,2016952000,-0.0013767267,0.008159525,-0.011167549,0.45715743,0.8307512,-0.8716231
2016960000,2016960000,0.0034610908,0.0138342315,-0.01054565,0.45984417,0.6630247,-0.3629983
2016972000,2016972000,-0.00541912,0.0018861775,0.005248838,-0.3617658,-0.3846153,0.9906138
2016980000,2016980000,0.007007995,0.00867325,0.0021389343,0.68766403,0.31699193,0.17846441
2016992000,2016992000,0.010817597,0.014492313,-0.0055779424,0.35488507,0.29963636,-0.5257991
2017000000,2017000000,0.0072859554,0.015320981,5.290402e-05,-0.09643817,0.23244797,0.14228532
2017008000,2017008000,-0.0104055,-0.0011086713,-0.008175041,-1.269254,-1.1284797,-0.42149815
2017020000,2017020000,-0.002261995,-0.002492486,0.010225772,0.057036035,-0.21777622,0.76004654
2017032000,2017032000,-0.0008730382,-0.0076807933,-0.0009156875,0.21781665,-0.34576488,-0.50542414
2017040000,2017040000,-0.008025697,-0.010106988,0.002906451,-0.36774907,-0.362473,0.04636977
2017052000,2017052000,0.005305838,-0.0015008127,0.0012947059,0.5982654,0.3243174,0.057950564
2017060000,2017060000,0.008780044,-0.007811128,0.005540443,0.41937488,-0.24929313,0.36333477
2017072000,2017072000,0.0025505458,0.015532019,0.0035715797,0.06961241,1.38747,-0.09989943
2017080000,2017080000,-0.0021289673,0.012693023,0.004485758,-0.36068806,0.36726302,0.008592334
2017092000,2017092000,0.009330501,0.0037660424,0.0056531485,0.46629643,-0.39421016,0.12863077
2017100000,2017100000,0.0002502408,0.0087892795,0.0061579347,-0.33429518,0.23202153,0.067346334
2017112000,2017112000,-0.0010257757,-0.015782021,-0.00773805,-0.41040462,-1.5316577,-0.8112228
2017120000,2017120000,-0.0056366306,-0.00058472535,-0.0030385423,-0.37450612,0.52542174,0.035378523
2017132000,2017132000,-0.0034666003,0.0019792886,-0.0037102164,-0.04874166,0.1459397,-0.11788094
2017140000,2017140000,0.002104211,0.0021274483,0.0058431444,0.30409253,0.11001713,0.6355591
2017152000,2017152000,-0.010487514,-0.0036922027,0.01754067,-0.5776464,-0.6254611,0.85243934
2017160000,2017160000,0.0077263312,0.001840209,0.0045058774,1.0735586,0.18971692,-0.4938241
2017172000,2017172000,0.012227564,0.0049334555,-0.0076811165,0.42926475,0.22319509,-1.0629337
2017176000,2017176000,0.007397215,0.005788242,-0.015216289,-0.11828056,0.22001773,-1.3375204
2017192000,2017192000,0.008706461,0.0041047935,-0.0010725282,0.47160354,0.34185594,0.6473697
2017196000,2017196000,0.006836582,0.014549781,-0.0009473278,0.15747309,1.1009924,0.44128755
2017212000,2017212000,-0.010001565,0.001786283,0.0074721347,-0.445574,-0.46303812,0.86248976
2017220000,2017220000,-0.02097235,0.008496799,0.013323765,-0.9878669,0.31382483,0.59833
2017232000,2017232000,0.007195387,-0.0020787485,-0.0014149004,1.4056822,-0.65207523,-0.6329957
2017236000,2017236000,0.0046487832,-0.00049400184,-0.0022178176,0.72249895,-0.30141994,-0.48839778
2017252000,2017252000,-0.002587048,0.009003579,-0.0052759564,0.0019397289,0.31470695,0.06642223
2017260000,2017260000,0.0033452273,0.014537463,0.0050646365,0.39137444,0.4404754,0.6719734
2017272000,2017272000,0.0037994736,0.0075980383,0.009699155,0.11597915,-0.113361485,0.4507144
2017280000,2017280000,0.0075553604,-0.0014747814,0.0037222633,0.35718077,-0.7793988,-0.28251642
2017292000,2017292000,-0.004096872,-0.0087605575,-0.01288427,-0.3861283,-0.42685732,-0.76688135
2017300000,2017300000,0.00922957,-0.0065855775,-0.0070629455,0.7081839,-0.017821983,0.039615557
2017312000,2017312000,-0.014280051,-0.007211615,0.005038118,-1.1926816,-0.024886614,0.7817645
2017320000,2017320000,-0.00038808695,0.0072524897,0.011508603,0.54402775,1.0123769,0.73141694
2017332000,2017332000,-0.007963066,-0.0052123587,0.0009678729,-0.45269403,-0.4202009,-0.37719387
2017340000,2017340000,-0.00094955397,0.0048900982,0.00060200767,0.36565423,0.54784596,-0.13772838
2017352000,2017352000,-0.011093165,-9.428052e-05,0.00927124,-0.7577526,-0.32788256,0.47969145
2017360000,2017360000,-0.009414292,-0.008205033,0.00853964,-0.2012909,-0.75735915,0.17364357
2017372000,2017372000,-0.0057206852,-0.0106872395,0.008712774,0.23700188,-0.02403426,-0.13652703
2017380000,2017380000,0.0024846212,-0.0027487597,-0.0070365723,0.6344764,0.48125273,-1.051156
2017392000,2017392000,0.0050785397,0.004215905,0.0007053136,0.38611537,0.55602205,0.14505775
2017400000,2017400000,-0.00091400865,0.0037989018,0.010141183,-0.18890026,0.14919116,0.7304297
2017412000,2017412000,-0.015817592,0.00016758467,0.009140728,-1.1080561,0.033255965,-0.05955559
2017420000,2017420000,-0.010319505,-0.008216885,-0.0027809937,-0.010776699,-0.5700685,-0.821735
2017432000,2017432000,-0.005379394,0.005142498,-0.0018692801,-0.08396822,0.4868911,-0.12419576
2017440000,2017440000,0.0064386814,0.008882725,-0.016734121,0.8291852,0.5479827,-1.0232178
2017452000,2017452000,0.00016125737,0.0065953736,0.0026816698,-0.18982577,-0.10355184,0.5968064
2017460000,2017460000,-0.008831419,0.004938925,-0.0001737313,-0.7281422,-0.11057858,0.16060008
2017472000,2017472000,-0.0063981013,-0.013823842,0.0078009013,0.07371634,-1.1741855,0.14860766
2017480000,2017480000,-0.0022499512,-0.0058935275,-0.015990134,0.2987103,0.07981648,-1.4659213
2017492000,2017492000,0.006792821,-0.012305017,0.00796312,0.5363444,-0.4439437,0.8778265
2017500000,2017500000,-0.00029772156,-0.0016486751,0.00060075126,-0.24222827,0.6162722,-0.16102438
2017512000,2017512000,-0.0014551186,-0.0072561232,0.002502526,-0.0723528,-0.2674197,0.09806946
2017520000,2017520000,-0.0044453973,-0.007254768,-0.002303413,-0.281951,-0.13291232,-0.2797237
2017532000,2017532000,0.0048764767,-0.010750149,-0.0032050305,0.54465985,-0.13608855,-0.38835046
2017540000,2017540000,0.018400585,0.001768288,-0.0044063036,1.1500309,0.7801206,-0.11530398
2017552000,2017552000,0.011546204,-0.003585795,-0.006963255,-0.091967925,-0.31981075,-0.3572439
2017560000,2017560000,0.011570638,-0.012401717,0.00023730469,-0.05332261,-0.62130105,0.354819
2017572000,2017572000,0.011545268,-0.0044933036,0.011194742,-0.12960118,0.25698388,0.7567171
2017580000,2017580000,0.0035507653,0.0042470912,0.0059585175,-0.62570107,0.7732057,-0.061822966
2017592000,2017592000,-0.0038177911,0.0052042278,-0.004367353,-0.34468198,0.009642259,-0.9116611
2017600000,2017600000,0.00043839304,-0.0019383547,-0.019627785,0.08768166,-0.51496935,-1.334474
2017612000,2017612000,0.008915626,0.0025706463,-0.0056700963,0.73199886,0.26437464,0.6644771
2017620000,2017620000,0.0077742124,0.0011875527,-0.012140811,0.068294466,-0.05806404,-0.28787005
2017628000,2017628000,-0.014894305,-0.00354488,-0.0028576143,-1.4880342,-0.2626381,0.6306261
2017640000,2017640000,-0.009225772,0.022145635,-0.008917747,0.17535251,1.2287395,-0.39246777
2017652000,2017652000,-0.008114182,0.005622735,-0.0006010858,-0.039737374,-0.34195396,0.28098753
2017660000,2017660000,-6.040762e-05,0.01921477,-0.00047754418,0.60873973,0.84704924,0.12841143
2017672000,2017672000,0.0023568983,0.003541274,0.0067155585,0.03185743,-0.9687972,0.6254768
2017680000,2017680000,-0.012979842,-0.010610276,0.0024436559,-1.0331347,-1.3503824,-0.08067124
2017692000,2017692000,0.0037275325,-0.006675508,-0.0020421972,0.73770434,-0.49430162,-0.14690317
2017700000,2017700000,0.0061445935,-0.0071311337,-0.003132396,0.45550016,-0.18272918,-0.14160845
2017708000,2017708000,0.0061097657,-0.0013172308,-0.004484756,0.15620768,0.3712206,-0.19483057
2017720000,2017720000,-0.009672623,0.0001295084,0.0009990622,-0.75774455,-0.1948846,0.35863745
2017732000,2017732000,0.011163826,0.003093505,-0.0062716873,0.98182744,0.46393535,-0.35673428
2017740000,2017740000,0.0070087225,0.00504112,-0.007769578,0.13359407,0.23477754,-0.2975771
2017752000,2017752000,-0.0023820514,-0.005517705,0.0020797702,-0.55252177,-0.39976686,0.5584218
2017760000,2017760000,-0.01317918,-0.012089682,0.001915152,-0.9221761,-0.6706768,0.28394282
2017772000,2017772000,0.014173876,0.0011632167,0.0030569392,1.2219787,0.8220119,0.06743799
2017780000,2017780000,0.0046077985,-0.0029697935,-0.0054848106,-0.12446141,-0.060120154,-0.68282956
2017792000,2017792000,-0.0045569353,0.0013249414,-0.0048624706,-0.842958,0.5017034,0.34592175
2017800000,2017800000,-0.015373028,-0.008939818,-0.012548625,-0.9666243,-0.553408,-0.49304247
2017812000,2017812000,4.419149e-05,0.0016284739,0.003432597,0.41204295,0.35679165,1.0225786
2017820000,2017820000,0.00034897053,0.00016118407,0.014164006,0.21513952,0.09897303,1.0621275
2017832000,2017832000,-0.0018927401,-0.0030598438,-0.0019200839,-0.11424665,-0.34946075,-0.49921286
2017840000,2017840000,-0.0064670867,-0.009857565,-0.0075568557,-0.3692413,-0.5367217,-0.60098976
2017852000,2017852000,0.004951136,0.0015853168,-0.004789829,0.57194716,0.6329035,-0.010856781
2017860000,2017860000,-0.0040159905,0.0025995665,-0.0067972946,-0.4025153,0.2102071,-0.15004793
2017872000,2017872000,-0.00021894224,-0.01027175,-0.0038811143,0.3049891,-0.27524352,0.22319242
2017876000,2017876000,3.8635626e-06,0.0008418668,0.0034621847,0.22159961,0.7462357,0.76263595
2017892000,2017892000,0.005042015,-0.0027146225,-0.001689872,0.37666667,-0.18736763,-0.4591202
2017900000,2017900000,0.011072852,-0.003746492,-0.0052831597,0.5831072,-0.1863104,-0.4579345
2017912000,2017912000,0.006964507,-0.0066075814,-0.0075518847,-0.07849597,-0.33521712,-0.1512253
2017920000,2017920000,0.0075975265,0.0009727484,-0.0025895443,0.056929067,0.33926684,0.20511104
2017932000,2017932000,0.015776,-0.0023354795,-0.00021250482,0.4374507,0.025387911,0.53703773
2017940000,2017940000,-0.0031463245,-0.00027627987,-0.0014258886,-1.135462,0.19616033,0.12469354
2017952000,2017952000,0.0013225195,0.0039332886,-0.0064259446,-0.027366206,0.2621756,-0.327613
2017960000,2017960000,-0.0008682393,0.0035227307,-0.000751498,-0.1990018,0.09716457,0.27800974
2017972000,2017972000,-0.003891731,-0.007949125,0.0006021665,-0.09079394,-0.51578367,0.16092989
2017980000,2017980000,0.0018386452,-0.0015699763,-0.0015296593,0.4186311,0.14462568,-0.07432107
2017992000,2017992000,0.00660544,0.0012427426,-0.00018368836,0.21120524,0.22885889,-0.121560805
2018000000,2018000000,-0.0004236665,0.0023800014,-0.008940598,-0.2758464,0.21897846,-0.6066712
2018012000,2018012000,0.002751671,-0.0029042927,0.015923215,0.03243283,-0.30322137,1.4966098
2018020000,2018020000,-0.0012626497,-0.007188845,0.0048095966,-0.28362995,-0.47269744,-0.26947415
2018032000,2018032000,0.0069645895,-0.0076871007,0.0037957737,0.22509679,0.07332307,0.039408088
2018036000,2018036000,0.0030750607,-0.0066903387,-0.00090043433,-0.17547327,0.13215269,-0.36650786
2018052000,2018052000,0.008168413,-0.00024132234,-0.00012388945,0.021631487,0.59631956,0.6564292
2018060000,2018060000,-0.003135476,-0.0038562617,0.005393217,-0.92546445,0.03767379,0.58676684
2018072000,2018072000,0.0013078547,0.01425539,-0.0053804,0.69504297,1.0330833,-0.3299017
2018080000,2018080000,0.010692635,0.0029689816,-0.009308186,0.69741017,-0.31299245,-0.43460914
2018092000,2018092000,-0.0014059691,-0.008661464,-0.007331975,-0.109861135,-0.85171425,0.18059374
2018096000,2018096000,-0.0010512056,-0.0056938278,-0.0039790487,-0.043443263,-0.31862944,0.40058094
2018112000,2018112000,0.006683071,0.0032801046,0.0012022513,0.58694696,0.38717732,-0.27719396
2018116000,2018116000,0.001959614,0.0019956832,0.00049291266,-0.0044056177,0.15024884,-0.24378991
2018132000,2018132000,0.0020344588,0.0029678897,-0.009959149,0.8886845,0.13341294,-0.8029443
2018140000,2018140000,0.015053648,0.0031024232,-0.001067414,1.1627538,0.10583308,0.2555455
2018152000,2018152000,-0.007149572,-0.00432127,0.0063660536,-0.7961683,-0.5785129,0.46023846
2018160000,2018160000,-0.006590532,-0.014921786,0.0016941731,-0.29001826,-0.9348007,-0.16239068
2018172000,2018172000,0.010173955,-0.008896282,-0.0056887534,0.6529341,-0.08984377,-0.4720256
2018176000,2018176000,0.007834422,-0.00448933,-0.006271053,0.23887044,0.30875358,-0.3628242
2018192000,2018192000,-0.0015057039,0.0039052428,-0.0035816897,-0.20184138,-0.17812902,-0.4178027
2018200000,2018200000,-0.0018276882,-0.012676612,-0.00058177166,-0.17471047,-1.1108823,0.05028538
2018212000,2018212000,0.014440698,-0.0038119296,-0.012337283,0.85990447,-0.04635044,-0.57370114
2018220000,2018220000,-0.0033385186,-0.0006171713,0.0017726314,-0.8876028,0.20269383,0.581917
2018232000,2018232000,0.0009727107,-0.011088055,-0.0110796075,0.14498723,-0.66341823,-0.38409877
2018240000,2018240000,-0.00095791765,-0.008721394,0.0014156755,-0.16799557,-0.096792,0.72258407
2018252000,2018252000,-0.0065475767,-0.008317899,-0.007993788,-0.20981105,0.07881612,-0.25525334
2018260000,2018260000,-0.011654916,-0.0008457187,-0.0029339157,-0.4180949,0.49508289,0.18005814
2018272000,2018272000,0.012294616,-0.0026835501,-0.002762038,1.2433463,0.2203536,0.14787927
2018280000,2018280000,0.012633429,0.017592201,-0.0017311401,0.55874467,1.4615893,0.18546276
2018292000,2018292000,-0.0069196117,-0.0069805584,0.010119979,-0.8578196,-1.2547011,0.6226485
2018300000,2018300000,0.004744812,0.003017921,0.0028235884,0.34292054,0.23619407,-0.23341936
2018312000,2018312000,0.0012696357,-0.00430649,0.011931956,0.14297944,-0.7861622,0.63763165
2018320000,2018320000,0.007838997,-0.008253228,0.0033458716,0.4514591,-0.4318338,-0.38286665
2018332000,2018332000,0.01118338,-0.0032341818,-0.0035218317,0.41603696,0.044790156,-0.1551835
2018340000,2018340000,0.007366336,0.010820173,0.0042734584,-0.21961844,1.0846314,0.40497795
2018352000,2018352000,-0.012687192,-0.008763175,0.0020041347,-0.8271725,-1.2304583,0.002341465
2018360000,2018360000,0.005189633,-3.541165e-06,0.015761493,0.78907263,0.26398894,0.94582903
2018372000,2018372000,-0.015047971,0.009651775,0.006176985,-0.89282566,0.2409454,-0.26144582
2018380000,2018380000,-0.0010269594,-0.0054761535,0.013542006,0.53932977,-0.8744916,0.3888017
2018388000,2018388000,-0.0016821481,-0.003297064,-0.0056593544,0.2054055,-0.23087336,-1.274152
2018400000,2018400000,-0.0037538146,0.008144746,-0.0015962652,-0.16544147,0.6238138,0.24454565
2018412000,2018412000,-0.01911748,-0.0014508821,0.0024725033,-0.93800724,-0.18651026,0.28070626
2018416000,2018416000,-0.0115275895,0.004586779,0.005251538,0.010492384,0.38079572,0.4192114
2018432000,2018432000,0.006936715,-0.008607756,0.004696179,0.41934407,-0.27423477,0.46030575
2018440000,2018440000,-0.0037971528,0.0029113141,-0.0024677499,-0.5731247,0.42511892,-0.40065995
2018452000,2018452000,0.0013174943,-0.013531135,-0.0067475657,0.44306463,-0.45312202,-0.19762437
2018460000,2018460000,-0.0017493537,-0.0028659245,-0.0022604435,-0.1048992,0.56492454,0.28043532
2018472000,2018472000,0.0030760928,-0.0058960607,0.005273782,0.42468038,-0.24460295,0.18271315
2018476000,2018476000,0.0039391196,-0.014497519,-0.0015629819,0.35479307,-0.8821013,-0.45014986
2018492000,2018492000,0.00076507614,-0.0027177383,0.0038418295,0.19769403,0.45597008,0.38913774
2018500000,2018500000,-0.0016683846,-7.100245e-05,0.0054142545,-0.16716334,0.3111218,0.26470047
2018508000,2018508000,-0.0018111125,-0.008642731,0.005653288,0.006998509,-0.3909188,0.096202485
2018520000,2018520000,0.011578811,0.00044056837,-0.004650624,0.59157026,0.53357685,-0.5776108
2018532000,2018532000,-0.0077677593,-0.0069206334,-0.003292614,-0.6085034,-0.16039193,-0.1723555
2018540000,2018540000,0.006967691,-0.001715524,-0.010264261,0.744669,0.2537505,-0.5243656
2018552000,2018552000,-0.0003209692,0.004733784,0.00405078,-0.32752368,0.3902937,0.5607449
2018560000,2018560000,0.0058616707,-0.010339463,0.0027369694,0.36221898,-0.9385729,0.18232284
2018572000,2018572000,0.005599225,-0.00091559236,-0.004702498,-0.03312567,0.5741527,-0.5487649
2018580000,2018580000,-0.0010364524,0.0077608046,0.0013987178,-0.4853274,0.7791883,0.34957916
2018592000,2018592000,-0.0038382192,-0.007778999,0.012017898,-0.22147974,-0.54885405,0.3969906
2018600000,2018600000,0.0032986803,-0.008526655,-0.010149995,0.3601871,-0.4117463,-1.4160881
2018612000,2018612000,0.0045230174,-0.027580095,-0.015461354,0.068262905,-1.1974,-0.683548
2018620000,2018620000,-0.0069614667,-0.013151746,-0.006838404,-0.75322783,0.6303198,0.32722795
2018632000,2018632000,-0.015989318,-0.0077886735,0.00027295694,-0.7253552,0.36571643,0.6473009
2018640000,2018640000,0.0013730223,-0.0030136802,-0.004231344,0.90551776,0.4962018,-0.15074228
2018652000,2018652000,-0.004342517,0.0029911492,-0.010882818,0.027053326,0.553379,-0.22085573
2018656000,2018656000,0.00013785773,0.0052633085,-0.0057945643,0.39268747,0.5582832,0.2785424
2018672000,2018672000,-0.009958295,-0.0021590944,0.003930982,-0.39069217,-0.26145726,0.24337164
2018680000,2018680000,-0.004563174,0.0056163347,-0.005522197,0.2314342,0.44018865,-0.4709395
2018692000,2018692000,-0.001397277,0.0017253454,-0.0027430074,-0.081635594,-0.058007915,-0.15870863
2018700000,2018700000,-0.00956858,0.0064791176,-0.011039091,-0.5178318,0.23844092,-0.65817773
2018712000,2018712000,-0.0058629666,-0.0062829475,-0.0032640668,0.23277032,-0.49710757,0.626461
2018720000,2018720000,0.009754217,0.004997867,0.00746697,1.1596978,0.66667193,0.9196549
2018732000,2018732000,-0.003912962,0.011904715,0.012846439,-0.7028877,0.17021249,0.5232432
2018740000,2018740000,-0.007564819,-0.012650762,0.010816576,-0.4779265,-1.6913922,0.16132373
2018752000,2018752000,-0.001172666,-0.0088377595,-0.005444588,0.0151456,0.15486975,-1.1568989
2018760000,2018760000,-0.0009920103,-0.001529738,-0.011457109,0.13446453,0.46994078,-0.9325588
2018772000,2018772000,0.0017009812,0.00917818,0.005442601,0.11716257,0.8108656,1.1246061
2018780000,2018780000,-8.6117085e-05,-0.0091041755,-0.004408816,-0.19840127,-0.9171565,-0.35342458
2018788000,2018788000,-0.0144287925,-0.014575787,-0.0061903177,-0.931131,-0.7408624,-0.12104793
2018800000,2018800000,-0.002258176,-0.016504476,0.0051318943,0.09678167,-0.4862516,0.39979875
2018812000,2018812000,-0.0082268445,-0.016900212,0.002023097,-0.007516265,-0.4260473,-0.29205653
2018820000,2018820000,-0.0046783746,-0.013691388,-0.00785775,0.22364359,0.20386375,-0.75721395
2018832000,2018832000,-0.0041925926,0.014661515,-0.00044406767,-0.3494131,1.5953052,0.17872559
2018840000,2018840000,-0.018267421,-0.0031697082,-0.010910854,-1.0098846,-0.61271656,-0.67484623
2018848000,2018848000,-0.008873873,-0.0072221267,-0.009094945,0.2229979,-0.43862963,-0.058219202
2018856000,2018856000,-0.016115822,0.011597855,-0.0038359195,-0.43381542,1.1283214,0.3152645
2018872000,2018872000,0.015144756,0.006965314,-0.006923438,1.5274359,-0.067994066,-0.30489737
2018880000,2018880000,0.019201053,-0.008485468,0.006719137,0.8359372,-1.1340032,0.7825033
2018892000,2018892000,-0.0059317434,0.003996114,0.0045561343,-1.1247274,0.6277908,0.11490428
2018900000,2018900000,0.0062408214,0.004894735,0.008670782,0.4286059,0.23510164,0.40035552
2018912000,2018912000,-0.006377615,-0.0016748692,-0.010945448,-0.87664586,-0.29397032,-1.2147003
2018920000,2018920000,-0.011937506,-0.008583002,0.0003152795,-0.73651797,-0.59543884,0.33197284
2018932000,2018932000,0.00010942899,-0.0012194072,0.01408532,0.57923067,0.5179649,0.55115527
2018940000,2018940000,0.009954636,0.0013211487,0.005689183,1.0295941,0.30426854,-0.22013865
2018952000,2018952000,-0.0025537787,0.016760802,-0.008212321,-0.69872445,1.0062754,-1.2896674
2018960000,2018960000,0.010747516,-0.0012899026,-0.0103926845,0.69246435,-0.8562159,-0.647402
2018972000,2018972000,-0.006223824,-0.01743907,0.009861275,-0.93950367,-0.9454079,1.1197164
2018980000,2018980000,0.0015361796,-0.0068528703,-0.0022997607,0.14549726,0.34793973,-0.43691128
2018988000,2018988000,-0.004644706,0.0030273437,-0.010734919,-0.40485233,0.79592675,-0.76569206
2019000000,2019000000,0.004156691,0.00706571,-0.0003903524,0.74208474,0.661318,0.5401078
2019012000,2019012000,0.0013869517,-0.0058624027,-0.0041414835,0.030153729,-0.783296,-0.13261577
2019020000,2019020000,0.0010273727,-0.005300133,0.009888855,-0.13073397,-0.24247886,0.9625393
2019032000,2019032000,0.0018212895,-0.0021887743,4.1041436e-05,0.3524183,0.0774606,-0.38800633
2019040000,2019040000,0.006377442,0.007702802,0.005240755,0.40769142,0.776562,0.19702263
2019052000,2019052000,-0.003952081,0.003091434,0.012898331,-0.6779328,-0.16539617,0.55621666
2019056000,2019056000,-0.0065455963,0.003354756,0.017471712,-0.66804665,-0.08804828,0.75261784
2019072000,2019072000,0.007598835,-0.0027902655,-0.0051824893,0.8834499,-0.7122773,-0.91328657
2019080000,2019080000,0.010829999,-0.008586215,-0.016825967,0.45392412,-0.63625205,-1.1252923
2019092000,2019092000,0.009023468,-0.008049708,-0.0047194883,0.3928831,-0.2639832,0.3613907
2019100000,2019100000,-0.002091924,-0.009258347,0.0009769154,-0.75477666,-0.1627,0.51668835
2019112000,2019112000,-0.0019568645,0.0029997395,0.00012186637,-0.010121107,0.71548176,-0.020709055
2019120000,2019120000,0.0059664557,0.011870525,-0.012758586,0.5378868,0.8842526,-0.8458251
2019132000,2019132000,0.0026885322,-0.011616337,0.00039978215,-0.011885121,-1.0011066,0.43329376
2019140000,2019140000,-0.000697131,-0.009504002,0.009239111,-0.25627673,-0.3537966,0.79507536
2019152000,2019152000,-0.0029044978,-0.0028033035,-0.0022695712,-0.18948258,0.6051296,-0.61224556
2019160000,2019160000,-0.0013949148,0.008500909,-0.0017992952,0.051086605,0.96189594,-0.16724442
2019172000,2019172000,0.0030964431,0.0036257438,-0.0012443903,0.42251554,-0.06267934,-0.21550554
2019180000,2019180000,0.0037835822,-0.0009899641,-0.005905106,0.1486628,-0.37675202,-0.3800072
2019192000,2019192000,-0.0026869322,0.0045711035,0.001591207,-0.309488,0.21211326,0.5136123
2019200000,2019200000,-0.0039662123,-0.00080518203,-0.0013267668,-0.18883303,-0.27113768,-0.033365313
2019208000,2019208000,0.0022786963,-0.006753058,0.00094534474,0.34668952,-0.49501115,0.18056965
2019220000,2019220000,0.005517154,0.004922938,0.007907147,0.22145936,0.3232024,0.4477796
2019232000,2019232000,0.0012900123,0.003004787,-0.01857026,-0.19863272,0.28184387,-1.503198
2019240000,2019240000,0.010416023,0.002856686,-0.0054746126,0.52941656,0.010512436,0.3304237
2019252000,2019252000,-0.0037581497,0.0035568706,-0.000971435,-0.85625553,0.19923417,0.34396818
2019260000,2019260000,-0.00072277023,0.0027355973,0.003827443,-0.06272668,-0.0031465965,0.43858653
2019272000,2019272000,-0.0135973,0.0022275879,0.0046698446,-0.9607274,0.09797766,0.27850804
2019280000,2019280000,-0.0068579484,0.0099079,0.016680704,0.11053133,0.463392,0.9625776
2019292000,2019292000,-0.0061869137,-0.0033705318,0.0066769463,0.08543762,-0.5626234,-0.35791442
2019300000,2019300000,-0.0067287465,-0.0144751435,-0.0057013403,-0.027261168,-0.971817,-1.029697
2019312000,2019312000,-0.008732093,-0.01274745,-0.0004950468,-0.25676304,-0.15892862,-0.06886624
2019320000,2019320000,0.0028274925,0.0074920175,-0.000375767,0.7840668,1.5167432,0.07376552
2019332000,2019332000,0.007754961,-0.0030176467,0.019612411,0.40247706,-0.5816857,0.8979579
2019340000,2019340000,-9.407289e-05,0.0099821435,-0.0051565813,-0.44727033,0.6932957,-1.3711652
2019352000,2019352000,-0.004304612,0.0050700717,-0.0032661385,-0.14248353,-0.2201195,0.050312635
2019360000,2019360000,0.008303759,-0.013042785,0.004766211,0.86817646,-1.3895863,0.54492736
2019372000,2019372000,0.0051906984,-0.008413071,-0.009351628,0.010206625,0.016390963,-0.71232134
2019380000,2019380000,0.007445042,0.00026830228,-0.014608307,0.06493616,0.5980279,-0.6931668
2019392000,2019392000,0.0076081166,0.01150324,0.005318318,0.14923559,0.9963671,0.96124434
2019400000,2019400000,-0.0013493942,0.0011559962,-0.011484395,-0.58944696,-0.36481583,-0.7078198
2019412000,2019412000,0.00024816906,0.009700646,0.0021724082,-0.20809633,0.64397085,0.48367524
2019420000,2019420000,-0.005943993,-0.0033581464,-0.0045937593,-0.48563597,-0.71354145,-0.29954284
2019432000,2019432000,-0.0018732711,0.007039721,0.00089368486,0.094395414,0.3667189,0.58126783
2019440000,2019440000,-0.005032505,-0.0014217815,0.01394006,-0.14079309,-0.4176959,1.1089786
2019452000,2019452000,0.0054256343,-0.026873272,-0.00017379066,0.5251097,-1.5328598,-0.7185172
2019460000,2019460000,-0.010560057,-0.0078661535,-0.0048102196,-0.96172076,0.6955029,-0.50508267
2019472000,2019472000,-0.005939687,0.02065371,-0.004451237,0.29841775,1.8294778,-0.4337342
2019480000,2019480000,0.0026140949,0.010441579,-0.011852598,0.69422936,0.0010415431,-0.6623188
2019492000,2019492000,-0.003373352,0.00022493958,-0.0031123895,-0.31033352,-0.35550612,0.28048933
2019500000,2019500000,0.0023901318,0.008321002,0.000718705,0.3357678,0.39951423,0.3830457
2019512000,2019512000,-0.0041293036,0.008649167,-0.00035750546,-0.47410178,0.17572878,0.05410931
2019520000,2019520000,-0.00205919,0.0111524835,0.0024901107,-0.034682333,0.1444521,0.18123469
2019532000,2019532000,-0.0079673,-0.00015483565,0.0056725214,-0.29987568,-0.56706583,0.6118756
2019540000,2019540000,0.0010983874,-0.0063563595,-0.00093665643,0.5966717,-0.633107,-0.3210023
2019552000,2019552000,0.0038183504,-0.0016454257,-0.014010926,0.004122615,0.16085143,-0.7571641
2019560000,2019560000,-0.0011709469,-0.0016150026,-0.0013202059,-0.3373677,0.07065231,0.67533624
2019572000,2019572000,-0.010045213,0.002037055,0.0014486596,-0.60285705,0.09976414,0.04402411
2019580000,2019580000,-0.0065521114,-0.0092202285,-0.013927972,0.053253025,-0.7965485,-0.96690404
2019588000,2019588000,-0.0017466377,-0.014782851,-0.0073609953,0.28194845,-0.61733353,-0.005529057
2019600000,2019600000,-0.0012546397,-0.0021347308,-0.014017678,0.23528086,0.40484184,-0.035790138
2019612000,2019612000,0.0077828653,0.005670864,0.0031826862,0.19454807,0.6109166,0.69643116
2019620000,2019620000,-0.013664643,-0.0024481735,0.0015388582,-1.2845908,-0.3652724,0.2109068
2019632000,2019632000,0.0009107877,-0.002324365,0.006668379,0.35864517,0.113632195,0.47844294
2019640000,2019640000,-0.011670799,0.0038233257,0.013379416,-0.69291556,0.47763574,0.5739022
2019652000,2019652000,-0.0075015663,0.0030846412,-0.02010814,-0.015788807,-0.03541982,-1.6678898
2019660000,2019660000,0.009531419,0.0073248874,0.0006624405,1.2389541,0.31671673,0.8037925
2019668000,2019668000,0.009482306,-0.007746081,0.009746696,0.45895296,-0.97564286,0.84044516
2019680000,2019680000,0.016912008,0.0056606755,-0.00020865156,0.70773524,0.59865385,-0.16345583
2019692000,2019692000,-0.00056524435,0.0014474405,-0.023359595,-1.1221433,-0.26559263,-1.4361266
2019700000,2019700000,-0.012679353,0.0060821273,-0.009266723,-1.2804377,0.2322738,0.52446693
2019712000,2019712000,0.00416041,-0.0013821746,0.007839656,0.9528337,-0.58231974,0.52985513
2019720000,2019720000,-0.0038134693,-0.015737265,-0.0043716044,-0.24428004,-1.2102231,-0.48989898
2019732000,2019732000,0.0034034597,-0.0044455905,0.007891192,0.287736,0.4785298,0.49221966
2019740000,2019740000,-0.004338859,0.009666615,0.0015720491,-0.36234337,1.2699118,-0.28006795
2019748000,2019748000,-0.0041416623,0.01046482,-0.006450131,-0.21354797,0.4554264,-0.6307364
2019760000,2019760000,-0.0020360788,-0.0065686577,-0.005738352,0.29063678,-0.85571206,-0.071667984
2019772000,2019772000,0.009251718,-0.003547047,0.0024807856,0.7152383,-0.050925292,0.4195169
2019780000,2019780000,0.0046974192,-0.0070133316,0.0062799216,0.006124735,-0.24632546,0.41099536
2019788000,2019788000,0.008116901,-0.0026817883,-0.0024984067,0.25302267,0.18788391,-0.41239795
2019800000,2019800000,0.0009930595,0.01660102,-0.01010302,-0.5257127,1.2269607,-0.46072704
2019812000,2019812000,-0.0010145452,-0.010516242,-0.008049623,-0.23883,-1.5061508,-0.14401855
2019820000,2019820000,-0.007979455,-0.0028394116,-0.015855333,-0.5978621,-0.060976792,-0.5412125
2019828000,2019828000,-0.017215816,-0.0019245388,-0.01108998,-0.82532954,0.07716015,0.13478646
2019840000,2019840000,0.007767638,-0.002259541,0.0038481571,1.1002319,-0.1308146,0.66212046
2019848000,2019848000,0.0068348264,0.007599762,0.0018914617,0.40319747,0.6525421,0.10837938
2019860000,2019860000,-0.00040233112,0.0056139594,0.0038094732,-0.39142656,0.03098803,0.44078195
2019872000,2019872000,-0.0041234493,0.011139327,-0.004139346,-0.17454118,0.46659374,-0.7164791
2019876000,2019876000,0.0006241043,0.010773229,-0.007714879,0.28087226,0.279897,-0.77582276
2019892000,2019892000,-0.0010872739,0.012369805,0.008823602,-0.2282209,0.44359112,0.44903308
2019900000,2019900000,-0.008604473,0.0056594573,0.002030762,-0.65974,-0.3748384,-0.1609502
2019912000,2019912000,-0.0066930186,0.010109894,-0.0006701338,0.23315412,0.36479127,-0.35660416
2019920000,2019920000,0.00058571197,0.008381274,0.0033001998,0.51393914,0.034663018,0.20889229
2019932000,2019932000,0.009786873,0.0023022012,-0.010839618,0.7862735,-0.3295395,-1.1572974
2019940000,2019940000,0.0011743598,0.0033945646,-0.011715859,-0.29401845,-0.107305124,-0.45749062
2019952000,2019952000,-0.012128473,-0.0017783244,0.00044730393,-0.7301918,-0.098900564,0.28418863
2019960000,2019960000,0.0077944687,-0.002090432,-0.014184573,1.201067,-0.0038999168,-0.8631244
2019972000,2019972000,0.0029620305,0.006626092,0.0014087223,-0.2940489,0.1653199,0.77115786
2019980000,2019980000,0.00075236475,-0.00832635,0.006153107,-0.2352873,-0.9691572,0.57426715
2019992000,2019992000,-0.015445989,-0.0022451582,0.0042299707,-1.1045012,-0.111683995,0.15363206
2020000000,2020000000,-0.0022769894,-0.0016063121,0.0021783696,0.50329345,0.060994938,-0.07842034
2020012000,2020012000,-0.00058813137,-0.0023022033,-0.008833183,0.0931564,0.037238266,-0.5882744
2020020000,2020020000,-0.00071668037,-0.008395957,-0.0041313735,-0.013112679,-0.37345538,0.12181335
2020032000,2020032000,0.00043988414,0.005683104,0.009022231,0.40054834,0.40012443,0.656885
2020040000,2020040000,0.002177177,-0.0013059543,0.009844967,0.20863158,-0.26955032,0.29730827
2020052000,2020052000,-0.005434867,-0.0013356585,-0.00057700655,-0.392894,-0.058199503,-0.3686431
2020060000,2020060000,-0.014788574,-6.7473404e-05,-0.0006560755,-0.8140476,0.030951288,-0.26539794
2020072000,2020072000,-0.012138584,0.00450764,-0.0027774542,-0.08811729,0.36549604,0.2691347
2020080000,2020080000,0.0014503067,-0.0004840417,0.012368016,0.8979763,-0.1989864,1.0960219
2020092000,2020092000,0.002981202,0.0021501423,-0.0016825844,0.37128645,0.14648071,-0.51378953
2020100000,2020100000,0.0030872421,-0.0043285782,0.0027055754,0.25891894,-0.33909035,0.052312948
2020112000,2020112000,0.007072747,0.0068234657,0.019686162,-0.07845229,0.48621288,0.89664936
2020116000,2020116000,0.000546362,0.0054102084,0.012747702,-0.5979963,0.20538163,0.016462091
2020132000,2020132000,0.0016022683,-0.0016113471,0.0004930445,-0.0073486306,-0.2923723,-0.053451005
2020140000,2020140000,0.00081337726,-0.00015357873,0.013213429,-0.041960936,-0.012638627,0.7465206
2020148000,2020148000,0.0037079486,-0.0031984083,0.0062717586,0.21311504,-0.27425715,-0.13531804
2020160000,2020160000,0.0037175745,-0.017165529,-0.00028786703,-0.22124124,-0.68810415,-0.3619776
2020172000,2020172000,-0.008899044,-0.00519158,0.006613235,-0.61189485,0.40214533,0.36052758
2020180000,2020180000,-0.010547604,0.0020624036,-0.009084656,-0.36878186,0.65061,-1.0427556
2020192000,2020192000,-0.0019476761,0.0037946156,0.0019830992,0.41131037,0.24281228,0.5755061
2020200000,2020200000,-0.0057698865,-0.0068416265,0.0032337056,-0.13006982,-0.626809,0.3724011
2020212000,2020212000,-0.00041249976,-0.0033689598,-0.008309987,0.2992938,-0.08615135,-0.66053647
2020216000,2020216000,-0.0029159896,0.00092441845,-0.004907563,-0.010184646,0.30171296,-0.15504241
2020228000,2020228000,-0.0069971364,0.01002432,0.0045994837,-0.13954492,0.48592594,0.30565822
2020240000,2020240000,-0.010363815,0.0060918513,-0.006923408,-0.29287553,0.06920294,-0.62695616
2020252000,2020252000,0.0028268127,0.004487208,-0.0012886563,0.93915164,-0.28623894,0.012002478
2020260000,2020260000,0.0014120983,0.00599047,0.0018232444,0.12768579,0.08943974,0.2414634
2020272000,2020272000,-0.013000246,0.006588878,-0.008619323,-0.767228,-0.14565448,-0.5499439
2020280000,2020280000,-0.004456954,-0.0013485845,-0.005185221,0.37966728,-0.5791302,0.0482225
2020292000,2020292000,-0.00021888874,0.018443368,-0.001780107,0.29121596,0.9014326,-0.03569798
2020300000,2020300000,0.0036440366,0.002758295,-0.010239194,0.39402914,-0.66952,-0.56280893
2020308000,2020308000,-0.016298575,-0.0037932622,0.0035133422,-1.2913535,-0.75699204,0.73395294
2020320000,2020320000,-0.010662399,0.016394306,-0.020826437,0.14812493,1.0731642,-1.4756314
2020332000,2020332000,0.019105334,-0.0014674123,0.0030360138,1.6933589,-0.6792737,1.4844259
2020340000,2020340000,0.021637896,-0.009306754,0.010361399,0.858781,-0.8355381,1.0235546
2020352000,2020352000,-0.015789608,0.00019505768,0.00625621,-2.0038211,0.43471304,0.30144182
2020360000,2020360000,-0.0021908116,0.006706118,0.004560255,0.21488965,0.6453221,-0.1309943
2020372000,2020372000,0.005349685,2.1133754e-05,0.00815233,0.15432572,-0.28935024,0.54377806
2020380000,2020380000,-0.0023163408,0.006199785,-0.002435218,-0.49802926,0.3278337,-0.52642256
2020392000,2020392000,0.007823151,0.0019860887,-0.009318612,0.8657971,-0.26060215,-0.86991584
2020400000,2020400000,0.013550429,0.0045331013,-0.017509896,0.7189585,0.07610284,-0.79643154
2020408000,2020408000,0.004790391,0.007826775,0.007188194,-0.40222913,0.23353495,1.3754416
2020420000,2020420000,0.00014675359,0.0039158016,-0.0018707584,-0.1810247,-0.10381614,0.052019417
2020432000,2020432000,-0.012492966,-0.008418963,0.0042032353,-0.75620854,-0.8492317,0.16175772
2020440000,2020440000,-0.014098695,-0.015408933,0.0125393225,-0.4470656,-0.7970789,0.74229956
2020452000,2020452000,0.0003903244,0.004752808,-0.013601412,0.9163938,1.0196223,-1.4797165
2020460000,2020460000,0.0023960897,0.006045008,-0.009462223,0.4491787,0.4524182,-0.3487761
2020472000,2020472000,-0.0035036902,-0.0045631253,-0.0014299769,-0.23823932,-0.2256642,0.26080123
2020476000,2020476000,-0.0070624663,-0.00024006746,-6.397962e-05,-0.45615816,0.21135077,0.28779563
2020492000,2020492000,0.01124212,-0.0014908639,-0.0014925787,0.28218424,0.017783286,0.32660842
2020500000,2020500000,0.0045950375,0.0054539125,-0.0038872214,-0.20586833,0.51971954,-0.11626106
2020512000,2020512000,-0.0004768758,0.011795989,-0.0124664605,-0.63153535,0.55358934,-0.26764905
2020520000,2020520000,-0.002047013,-0.0022390385,-0.0011020579,-0.3201388,-0.7804401,0.61842346
2020532000,2020532000,0.0037018417,0.0034652425,-0.0008009522,0.32318825,0.1793498,0.070054114
2020536000,2020536000,0.006106126,0.0025168404,-0.0044128797,0.41614318,0.040042523,-0.25543728
2020552000,2020552000,0.005563662,-0.007864444,-0.00021537289,0.65912336,-0.31870353,-0.09097389
2020560000,2020560000,-0.0057645706,-0.009900786,-0.00037489235,-0.68493897,-0.26454848,-0.057704613
2020572000,2020572000,-0.028433157,0.004904351,-0.00087923487,-1.1186566,0.6905807,0.02523775
2020580000,2020580000,-0.0137795545,-0.0072111166,0.002261354,0.5251393,-0.49807197,0.14825346
2020588000,2020588000,-0.025376111,0.0024611028,-0.007935888,-0.71917915,0.5055454,-0.65217674
2020596000,2020596000,-0.03121305,0.01222274,0.0006356343,-0.6186036,0.8484563,0.43417835
2020612000,2020612000,-0.059046242,-0.009653018,0.0019868566,-1.2290224,-1.0818923,-0.53840625
2020620000,2020620000,-0.0612772,-0.0005934499,-0.013431211,-0.75493747,0.25465253,-1.1556777
2020632000,2020632000,-0.07401637,-0.00033210646,0.0034749438,-0.9460771,-0.34157753,0.59201884
2020640000,2020640000,-0.08025002,-0.0037022922,0.006995926,-0.8993898,-0.29372534,0.4968627
2020652000,2020652000,-0.11273724,0.0009259626,0.0024262834,-2.291483,0.28183472,-0.14592406
2020660000,2020660000,-0.1270593,0.00074391934,-0.0051149256,-1.9287179,0.0016892657,-0.59762084
2020672000,2020672000,-0.13725027,0.008401515,0.0047506522,-1.2248412,0.596105,0.5973404
2020680000,2020680000,-0.15114738,0.0109476745,0.016125001,-1.5156617,0.4549038,0.95901096
2020692000,2020692000,-0.15463464,0.010364048,-0.0029673453,-0.35993624,0.14470662,-0.90684
2020700000,2020700000,-0.14719225,0.026237285,-0.011605392,0.24816099,1.1277668,-0.9854348
2020712000,2020712000,-0.156147,0.033432197,-0.0034328585,-0.23096731,0.796035,0.32554874
2020720000,2020720000,-0.16084738,0.057630237,-0.00086925575,-0.4642002,2.0130575,0.21567845
2020732000,2020732000,-0.15905583,0.056377865,0.0037846765,0.099123985,0.43285453,0.4299261
2020740000,2020740000,-0.15576212,0.07602211,0.0013892073,0.22972703,1.6279342,0.11135611
2020752000,2020752000,-0.17055467,0.08269096,0.005748842,-1.0998528,0.68069947,0.14024998
2020760000,2020760000,-0.18501563,0.07950013,-0.0009575357,-1.4642342,0.21335158,-0.33568087
2020768000,2020768000,-0.18413348,0.09827021,-0.004304564,-0.5219811,1.3338604,-0.5528338
2020780000,2020780000,-0.16673337,0.0888943,-0.004527539,0.77246654,-0.096848376,0.28276294
2020792000,2020792000,-0.15317047,0.07562908,0.0066310666,1.2960861,-1.0847654,0.69305736
2020800000,2020800000,-0.1321771,0.070654504,0.013809228,2.0500684,-0.7819845,0.7669414
2020812000,2020812000,-0.10974437,0.064810686,0.0017674943,1.4972695,-0.52286136,-0.32549837
2020820000,2020820000,-0.10920197,0.07015483,-0.0061284425,0.7970403,0.19406174,-0.7147847
2020828000,2020828000,-0.101431854,0.0700072,0.0043391846,0.82853466,-0.06768627,0.4163555
2020840000,2020840000,-0.08931617,0.06636059,-0.0011715429,0.9276918,0.1580174,-0.21921617
2020852000,2020852000,-0.074775495,0.07426179,-0.0018492981,1.0067086,0.18140066,-0.22232883
2020860000,2020860000,-0.06905912,0.06987018,-0.0017889272,0.775439,-0.17010143,-0.06706068
2020872000,2020872000,-0.05106214,0.05986425,-0.0050666477,1.9147649,-0.647283,-0.14101458
2020880000,2020880000,-0.026674805,0.04837221,-0.011456208,2.289506,-1.0603728,-0.49464294
2020892000,2020892000,-0.03199935,0.059509803,0.0052524763,0.6592678,0.44350916,0.66623825
2020900000,2020900000,-0.019709319,0.06273642,0.0002325695,1.099767,0.26156163,-0.1038753
2020912000,2020912000,-0.023404159,0.039549816,0.0016615338,0.22193713,-1.291549,0.22966495
2020920000,2020920000,-0.005884187,0.03618448,0.0046531223,1.3688949,-0.7062001,0.25486767
2020932000,2020932000,0.00806161,0.026119815,-0.007844624,0.90245646,-1.0577221,-0.70308006
2020940000,2020940000,0.005373887,0.016229508,-0.008198124,0.33777648,-1.047779,-0.28111863
2020952000,2020952000,0.019391764,0.001809935,0.009442243,0.69898355,-1.351268,1.2511064
2020960000,2020960000,0.015256461,0.0074179177,0.0203165,-0.061801374,-0.14520802,1.0557966
2020972000,2020972000,0.021732103,-0.010401111,-0.003864003,0.621771,-1.3569374,-0.64635473
2020980000,2020980000,0.021945285,-0.008128179,0.011714377,0.28135696,-0.3337208,0.79328525
2020992000,2020992000,0.034512985,0.018496556,-0.00069046114,0.7107041,1.2227051,-0.4357004
2021000000,2021000000,0.035234865,-0.002879215,0.0012572125,0.3679481,-0.98661566,-0.065312505
2021012000,2021012000,0.035666782,-0.0033949849,-0.012926044,0.16481358,-0.2149955,-0.85455865
2021020000,2021020000,0.0617228,-0.017385846,-0.005159978,1.8577213,-1.1187097,0.18645369
2021032000,2021032000,0.06462156,0.009278403,0.0046619675,0.94503415,1.5393784,0.54493535
2021040000,2021040000,0.07167457,-0.015297654,0.0042774915,0.762703,-1.1444238,0.18664724
2021052000,2021052000,0.07112621,-0.019974487,0.007149204,0.47564977,-0.28342986,0.32056332
2021060000,2021060000,0.0890519,-0.022574618,0.011742299,1.4017543,-0.38569048,0.4874554
2021072000,2021072000,0.084531285,-0.025717275,-0.004762324,0.2049872,-0.1429833,-0.87989044
2021080000,2021080000,0.0856465,-0.025811795,0.0043072267,0.14923196,-0.09272552,0.24497563
2021092000,2021092000,0.0798343,-0.037589762,0.002074913,-0.31134865,-0.8019883,-0.5450783
2021100000,2021100000,0.07047201,-0.045838647,-0.008282771,-0.7800987,-0.8574385,-0.74843454
2021112000,2021112000,0.07885725,-0.024962725,-0.019243672,0.22116107,0.8005825,-1.2642987
2021120000,2021120000,0.0797863,-0.05200089,-0.011073305,0.18208052,-1.564389,0.15572062
2021132000,2021132000,0.07626052,-0.041013986,0.01219654,-0.24433988,0.61611056,1.1656148
2021140000,2021140000,0.08812369,-0.035922714,0.001113919,0.8201044,0.5679464,-0.29876554
2021152000,2021152000,0.10862847,-0.033471514,0.004430765,1.1746376,0.60162723,0.20063001
2021160000,2021160000,0.09348105,-0.02756528,0.011569118,-0.48801243,0.49037534,0.52955496
2021172000,2021172000,0.101902924,-0.034784775,0.0062914654,0.3667096,-0.014636993,-0.016058385
2021180000,2021180000,0.109575965,-0.04414424,0.012077275,0.70017576,-0.7588208,0.3898574
2021192000,2021192000,0.10264612,-0.038935836,0.008706865,-0.1425724,0.49300283,-0.0033241573
2021200000,2021200000,0.107234895,-0.04085071,0.015878528,0.23045903,0.007889112,0.530614
2021212000,2021212000,0.09540899,-0.04357595,0.00033807027,-0.61037505,-0.13437872,-0.8809942
2021220000,2021220000,0.08026455,-0.054494753,0.007878002,-1.3582056,-0.78037536,0.23754399
2021232000,2021232000,0.08279556,-0.047741193,0.004890145,-0.1954745,0.11014057,-0.39576685
2021240000,2021240000,0.09027734,-0.0415837,-0.010228228,0.5254423,0.54515135,-1.1954331
2021252000,2021252000,0.0921535,-0.04552316,0.014424614,0.35724035,-0.48456064,0.8973781
2021260000,2021260000,0.09779409,-0.05171216,0.01040761,0.408149,-0.56083596,0.20554267
2021272000,2021272000,0.0851837,-0.03953944,-0.0020149262,-0.34784648,0.5893855,-0.7770058
2021280000,2021280000,0.08700325,-0.04896058,-0.00463777,-0.08262384,-0.41094717,-0.54381526
2021292000,2021292000,0.08630552,-0.03355562,-0.0070664613,-0.18369424,0.75982887,-0.1740733
2021300000,2021300000,0.08123638,-0.044887025,-0.015808657,-0.31310767,-0.5476784,-0.66271144
2021312000,2021312000,0.09138724,-0.040929206,0.003668133,0.32838786,0.6726475,1.2411733
2021320000,2021320000,0.088065915,-0.037969854,-0.0029120287,-0.10389671,0.23691511,-0.06986784
2021332000,2021332000,0.0701951,-0.04614143,-0.004544423,-1.2432528,-0.15482026,-0.10094953
2021340000,2021340000,0.06438724,-0.03988332,-0.0076499986,-0.8359704,0.40616608,-0.21626079
2021352000,2021352000,0.06746255,-0.023759445,-0.003374911,-0.23815441,0.9837273,0.20101424
2021360000,2021360000,0.048632536,-0.04884745,-0.0016050914,-1.5354929,-1.2628522,0.13232176
2021372000,2021372000,0.048021708,-0.042385705,-0.007568052,0.020950079,-0.12074319,-0.21693037
2021380000,2021380000,0.05646849,-0.048463725,0.009633977,0.5751119,-0.45172596,1.1155454
2021392000,2021392000,0.068496205,-0.050982155,-0.0050059366,0.77819306,-0.16060017,-0.5774183
2021400000,2021400000,0.067479275,-0.04185398,-0.008893291,0.30137476,0.5509288,-0.46178743
2021412000,2021412000,0.07259322,-0.03710499,0.006805019,0.4612957,0.4408825,0.68689066
2021420000,2021420000,0.07339848,-0.040538672,0.008294045,0.18979451,-0.039359547,0.35363764
2021432000,2021432000,0.059428457,-0.040463835,0.00029548124,-0.79105306,0.31871003,-0.101979576
2021440000,2021440000,0.06712167,-0.013576509,0.0052812435,0.24951625,2.0081997,0.27639613
2021452000,2021452000,0.048986923,-0.018307509,0.02204917,-1.2966785,-0.08845641,1.022501
2021460000,2021460000,0.0571873,-0.011223005,-0.0008900006,0.074010134,0.51207054,-1.2465994
2021472000,2021472000,0.01863302,-0.036780767,-0.007732305,-2.6569679,-1.4359893,-0.40249452
2021480000,2021480000,0.019153742,-0.037282377,-0.0031714404,-0.92809904,-0.51667887,0.0876912
2021492000,2021492000,0.040060397,-0.013814194,0.0109431185,0.7947672,0.96799016,0.87695867
2021500000,2021500000,0.04513523,-0.00795063,0.0078015383,0.704726,0.8714811,0.18205325
2021512000,2021512000,0.05026983,-0.026634533,-0.0064018243,0.43943584,-1.1636693,-1.0365967
2021520000,2021520000,0.040330287,-0.042142548,0.0060277283,-0.5298065,-1.535912,0.54348254
2021532000,2021532000,0.046332255,-0.016493604,-0.004933105,0.19030455,1.3754636,-0.7362665
2021540000,2021540000,0.035806037,-0.011711525,-0.004504906,-0.58868515,0.81981874,-0.2819211
2021552000,2021552000,0.034720305,-0.022705413,0.0022487747,-0.12588784,-0.34005296,0.43572536
2021560000,2021560000,0.044334073,-0.026995057,-0.0032937576,0.6683881,-0.46028584,-0.25186107
2021572000,2021572000,0.025155246,-0.0122675095,-0.0026178937,-1.2302021,1.0117371,0.2071066
2021576000,2021576000,0.019371223,-0.009621583,0.004455151,-1.3023909,0.89457273,0.72933024
2021592000,2021592000,0.028482143,-0.011076039,0.0024311391,-0.2787331,-0.1546961,-0.04964761
2021600000,2021600000,0.02416346,-0.026799595,0.0028949925,-0.3100225,-1.0233748,-0.019271385
2021612000,2021612000,0.017852379,-0.015755849,-0.0021186767,-0.7178237,0.1575723,-0.47311872
2021620000,2021620000,0.010874233,-0.014405757,-0.0031303938,-0.7714653,0.18962388,-0.21652606
2021632000,2021632000,0.021239689,-0.019931907,0.005852033,0.62569135,-0.34630704,0.4857893
2021640000,2021640000,0.025298286,-0.023844033,-0.008691358,0.52701646,-0.39181298,-0.83002466
2021652000,2021652000,0.025040053,-0.028717183,0.0035556084,-0.034468412,-0.28647065,0.52504504
2021660000,2021660000,0.026990771,-0.0079727825,0.0010385092,0.26712424,1.3656877,0.06361664
2021672000,2021672000,0.019653898,-0.008340956,-0.009582845,-0.7343811,0.10586245,-0.65674895
2021680000,2021680000,0.021331796,-0.023605043,-0.002140876,-0.10447186,-0.92917585,0.27629316
2021692000,2021692000,0.034638885,-0.014873154,-0.0063606906,0.5780103,0.19415021,-0.2450404
2021700000,2021700000,0.01849043,-0.023871133,-0.011167175,-0.86634,-0.64968914,-0.37838635
2021712000,2021712000,0.015319431,-0.0176007,-0.017727833,-0.30313206,0.42985344,-0.54134834
2021716000,2021716000,0.019936863,-0.01164305,-0.017616998,0.18441465,0.7842878,-0.3509924
2021732000,2021732000,0.0019334782,-0.0067835487,-0.0019420749,-0.8536404,0.087278895,0.4055547
2021740000,2021740000,0.013317535,-0.012969883,0.0034715899,0.5307686,-0.31046978,0.48298728
2021752000,2021752000,0.031525355,-0.004046941,0.005051314,1.0650465,0.3493876,0.4495424
2021760000,2021760000,0.026088964,-0.0055539533,0.018899765,0.1193046,0.012985209,1.1901349
2021772000,2021772000,0.01992724,-0.013998957,-0.0065826974,-0.32029638,-0.2860363,-1.5124145
2021780000,2021780000,0.027348582,-0.0042054057,-0.0028406647,0.42288017,0.5176695,-0.33698946
2021792000,2021792000,0.012626836,-0.009722,0.0051625376,-1.0623081,-0.13126713,0.4118226
2021800000,2021800000,0.00623065,-0.0036768776,0.0027010269,-0.77944255,0.32536206,-0.03604462
2021812000,2021812000,0.023368232,-0.019845491,-0.008219675,0.69774777,-0.8127357,-0.6879605
2021820000,2021820000,0.025868038,-0.015924849,-0.0034660855,0.4742412,-0.117088094,0.18122602
2021828000,2021828000,0.01670955,-0.026576202,0.011319146,-0.4324114,-0.7991145,0.99430937
2021840000,2021840000,0.017356712,-0.02583327,0.0015431934,-0.17685737,-0.06488737,-0.3300924
2021852000,2021852000,0.030379172,-0.014707935,0.00083923555,0.52754784,0.62534505,-0.23728384
2021860000,2021860000,0.027924154,-0.012171072,-0.010470297,0.053432703,0.40180495,-0.7769854
2021872000,2021872000,0.02184526,0.0005609223,-0.012895274,-0.16814148,0.9181222,-0.48553738
2021880000,2021880000,0.011111759,-0.019256528,0.003073317,-0.80164325,-0.99549484,0.8997023
2021892000,2021892000,0.03764924,-0.0048069945,-0.009635781,1.3726856,0.7564815,-0.39401627
2021900000,2021900000,0.03532493,-0.011299015,-0.004841457,0.3473786,-0.20389116,0.20544903
2021912000,2021912000,0.016840031,-0.019852657,0.013758009,-0.78822196,-0.6424638,0.9707651
2021920000,2021920000,0.021548694,-0.016504012,0.003360517,-0.06854916,0.044220097,-0.36189705
2021932000,2021932000,0.004059061,0.0003116075,0.012808342,-1.0488255,0.96044165,0.5887302
2021940000,2021940000,0.012239603,0.014342461,0.011330106,0.11648029,1.326566,0.1628611
2021952000,2021952000,0.0068139364,0.016442638,0.00022596969,-0.12938055,0.8132572,-0.64990616
2021960000,2021960000,0.013907546,0.005113408,-0.00971198,0.4242422,-0.5545174,-0.99705553
2021972000,2021972000,0.02415002,-0.012396286,0.005040073,0.6182454,-0.74988663,0.8943812
2021980000,2021980000,0.021675756,-0.002198858,0.014957618,0.12112595,0.37424052,0.97731364
2021992000,2021992000,0.025325196,-0.01217607,-7.322785e-05,0.13932347,-0.5546157,-0.53605884
2022000000,2022000000,0.013237214,-0.015014381,0.009502314,-0.72271204,-0.48500124,0.41465434
2022012000,2022012000,0.017954038,-0.0077881347,0.0069230115,-0.04362698,0.2893777,-0.08598211
2022020000,2022020000,0.003019562,-0.0056033814,0.0071136053,-1.0478138,0.30934483,0.005667379
2022032000,2022032000,0.0009021135,-0.0075480156,0.0071676197,-0.36495838,0.05195636,-0.28948984
2022040000,2022040000,0.014906143,-0.016926927,-0.0014577794,0.82398224,-0.6415481,-0.6343745
2022052000,2022052000,0.014095362,-0.008305116,0.012297961,0.18515661,0.2254207,0.519728
2022060000,2022060000,0.0106648095,-0.0072177732,0.008521628,-0.11236803,0.22170877,-0.074331634
2022068000,2022068000,0.011546823,-0.008297945,0.0010051558,-0.04467331,-0.07144072,-0.5447527
2022080000,2022080000,0.010379766,-0.011374244,-0.0030265765,0.3195635,0.2135945,-0.27141148
2022092000,2022092000,0.020201897,-0.003405033,0.0030722811,0.31243902,0.09396707,0.4038795
2022100000,2022100000,0.017219504,-0.0216513,-0.007900528,-0.11446099,-1.1271688,-0.66212654
2022112000,2022112000,0.017170567,-0.016387621,0.0035644732,-0.045766845,0.010903765,0.60675997
2022120000,2022120000,0.009826976,-0.0078367395,0.008172898,-0.5503441,0.590738,0.5791059
2022132000,2022132000,0.004791814,0.006615141,0.0009937561,-0.42256218,1.0685078,-0.2830496
2022140000,2022140000,0.012827067,0.009084822,0.009101943,0.3503579,0.6016053,0.51027316
2022152000,2022152000,0.016174313,-0.003272131,0.0018706032,0.53315884,-0.624738,-0.60126525
2022160000,2022160000,0.024633516,0.002792794,-0.0072268355,0.75435495,0.22273149,-0.8317102
2022168000,2022168000,0.013486726,0.007860843,0.0043146163,-0.4782616,0.4028185,0.52658725
2022180000,2022180000,0.0070307124,0.0036952845,0.0026103605,-0.47287,0.047409393,-0.36375284
2022192000,2022192000,0.011302887,-0.019003801,0.0046413294,0.33561468,-1.4350481,0.046546247
2022196000,2022196000,0.010577658,-0.017917702,-0.0008794015,0.1626985,-0.86418045,-0.43071052
2022212000,2022212000,-0.00475109,0.0035939943,0.002096317,-0.5085623,0.8742137,0.0993204
2022220000,2022220000,-0.002557375,0.007161679,-0.014311608,-0.09513979,0.6606346,-1.0916533
2022232000,2022232000,0.012749826,0.007200042,-0.0057921777,1.2009617,0.09371876,0.5268079
2022240000,2022240000,0.025174262,0.009594322,0.0046657403,1.2800323,0.21709661,0.90604913
2022252000,2022252000,0.0035437003,-0.0045545665,-0.00907595,-0.9099722,-0.8194765,-0.42303705
2022260000,2022260000,-0.011020579,-0.0053975643,0.013340975,-1.4607055,-0.40611294,1.3698395
