timestamp,timestamp_sample,baro_device_id,baro_alt_meter,baro_pressure_pa,ambient_temperature,rho,temperature_source,calibration_count
2015872000,2015848000,6620172,488.02768,95598.9,15.0,1.1555828,0,1
2015944000,2015920000,6620172,488.18732,95597.06,15.0,1.1555606,0,1
2016016000,2015990666,6620172,488.04648,95598.69,15.0,1.1555803,0,1
2016088000,2016064000,6620172,488.13098,95597.69,15.0,1.1555681,0,1
2016160000,2016136000,6620172,488.06055,95598.5,15.0,1.155578,0,1
2016232000,2016208000,6620172,488.13568,95597.664,15.0,1.1555679,0,1
2016304000,2016280000,6620172,488.15445,95597.4,15.0,1.1555647,0,1
2016376000,2016350666,6620172,488.0136,95599.01,15.0,1.1555841,0,1
2016448000,2016424000,6620172,488.1075,95597.96,15.0,1.1555715,0,1
2016520000,2016496000,6620172,488.14508,95597.54,15.0,1.1555663,0,1
2016592000,2016568000,6620172,488.19202,95597.02,15.0,1.1555601,0,1
2016660000,2016638666,6620172,488.1122,95597.914,15.0,1.1555709,0,1
2016712000,2016700000,6620172,488.13568,95597.62,15.0,1.1555673,0,1
2016784000,2016760000,6620172,488.14038,95597.56,15.0,1.1555667,0,1
2016856000,2016832000,6620172,488.13568,95597.66,15.0,1.1555678,0,1
2016928000,2016904000,6620172,488.13568,95597.65,15.0,1.1555678,0,1
2017000000,2016974666,6620172,488.1122,95597.914,15.0,1.1555709,0,1
2017072000,2017046666,6620172,488.0887,95598.21,15.0,1.1555746,0,1
2017144000,2017120000,6620172,488.0887,95598.21,15.0,1.1555746,0,1
2017216000,2017190666,6620172,488.13098,95597.69,15.0,1.1555681,0,1
2017288000,2017262666,6620172,488.12158,95597.805,15.0,1.1555696,0,1
2017360000,2017336000,6620172,488.07465,95598.336,15.0,1.155576,0,1
2017428000,2017406666,6620172,488.19672,95596.96,15.0,1.1555594,0,1
2017480000,2017468000,6620172,488.1122,95597.92,15.0,1.155571,0,1
2017548000,2017526666,6620172,488.17325,95597.195,15.0,1.1555623,0,1
2017600000,2017586000,6620172,488.15915,95597.34,15.0,1.1555641,0,1
2017672000,2017648000,6620172,488.1169,95597.875,15.0,1.1555704,0,1
2017744000,2017720000,6620172,488.16385,95597.336,15.0,1.155564,0,1
2017812000,2017790666,6620172,488.14508,95597.52,15.0,1.1555661,0,1
2017864000,2017852000,6620172,488.1169,95597.836,15.0,1.1555699,0,1
2017936000,2017912000,6620172,488.0981,95598.086,15.0,1.1555729,0,1
2018008000,2017984000,6620172,488.17325,95597.23,15.0,1.1555625,0,1
2018080000,2018056000,6620172,488.2108,95596.78,15.0,1.1555573,0,1
2018152000,2018128000,6620172,488.15445,95597.41,15.0,1.1555648,0,1
2018224000,2018200000,6620172,488.0934,95598.1,15.0,1.1555731,0,1
2018296000,2018272000,6620172,488.14038,95597.59,15.0,1.155567,0,1
2018368000,2018344000,6620172,488.1122,95597.9,15.0,1.1555707,0,1
2018440000,2018414666,6620172,488.13098,95597.68,15.0,1.155568,0,1
2018512000,2018488000,6620172,487.97134,95599.49,15.0,1.1555899,0,1
2018584000,2018560000,6620172,488.06525,95598.44,15.0,1.1555773,0,1
2018656000,2018632000,6620172,488.07935,95598.28,15.0,1.1555754,0,1
2018724000,2018702666,6620172,488.15445,95597.4,15.0,1.1555647,0,1
2018776000,2018764000,6620172,488.02768,95598.86,15.0,1.1555823,0,1
2018848000,2018824000,6620172,488.0934,95598.09,15.0,1.155573,0,1
2018920000,2018896000,6620172,488.06995,95598.41,15.0,1.1555768,0,1
2018988000,2018966666,6620172,488.15445,95597.4,15.0,1.1555647,0,1
2019040000,2019028000,6620172,488.12158,95597.81,15.0,1.1555697,0,1
2019112000,2019088000,6620172,488.20142,95596.875,15.0,1.1555583,0,1
2019184000,2019160000,6620172,488.12158,95597.805,15.0,1.1555696,0,1
2019256000,2019232000,6620172,488.1169,95597.82,15.0,1.1555698,0,1
2019328000,2019302666,6620172,488.21548,95596.73,15.0,1.1555566,0,1
2019400000,2019376000,6620172,488.12158,95597.78,15.0,1.1555693,0,1
2019472000,2019448000,6620172,488.023,95598.914,15.0,1.155583,0,1
2019544000,2019520000,6620172,488.1122,95597.9,15.0,1.1555707,0,1
2019616000,2019592000,6620172,488.16385,95597.31,15.0,1.1555636,0,1
2019688000,2019662666,6620172,488.1028,95598.0,15.0,1.1555719,0,1
2019756000,2019734666,6620172,488.0887,95598.21,15.0,1.1555746,0,1
2019808000,2019796000,6620172,488.12628,95597.75,15.0,1.155569,0,1
2019876000,2019854666,6620172,488.14975,95597.48,15.0,1.1555656,0,1
2019928000,2019914000,6620172,488.0183,95598.99,15.0,1.155584,0,1
2020000000,2019976000,6620172,488.1075,95597.97,15.0,1.1555716,0,1
2020072000,2020048000,6620172,488.13098,95597.72,15.0,1.1555686,0,1
2020140000,2020118666,6620172,488.1122,95597.9,15.0,1.1555707,0,1
2020192000,2020180000,6620172,488.15915,95597.36,15.0,1.1555642,0,1
2020264000,2020240000,6620172,488.1169,95597.836,15.0,1.1555699,0,1
2020336000,2020312000,6620172,488.05588,95598.56,15.0,1.1555787,0,1
2020408000,2020384000,6620172,488.14038,95597.57,15.0,1.1555668,0,1
2020480000,2020456000,6620172,488.1028,95598.01,15.0,1.155572,0,1
2020552000,2020528000,6620172,488.0183,95598.98,15.0,1.1555837,0,1
2020624000,2020600000,6620172,488.0136,95599.06,15.0,1.1555848,0,1
2020696000,2020672000,6620172,488.0934,95598.125,15.0,1.1555735,0,1
2020768000,2020742666,6620172,488.19202,95597.03,15.0,1.1555603,0,1
2020840000,2020816000,6620172,488.17325,95597.22,15.0,1.1555625,0,1
2020912000,2020888000,6620172,488.12628,95597.75,15.0,1.155569,0,1
2020984000,2020958666,6620172,488.16385,95597.336,15.0,1.155564,0,1
2021056000,2021032000,6620172,488.22018,95596.695,15.0,1.1555562,0,1
2021128000,2021104000,6620172,488.15445,95597.414,15.0,1.1555649,0,1
2021200000,2021176000,6620172,488.21548,95596.75,15.0,1.1555568,0,1
2021272000,2021248000,6620172,488.29062,95595.84,15.0,1.155546,0,1
2021344000,2021320000,6620172,488.3188,95595.56,15.0,1.1555424,0,1
2021416000,2021392000,6620172,488.43616,95594.195,15.0,1.1555259,0,1
2021488000,2021464000,6620172,488.33286,95595.34,15.0,1.1555399,0,1
2021560000,2021536000,6620172,488.5019,95593.44,15.0,1.1555167,0,1
2021632000,2021608000,6620172,488.53946,95593.03,15.0,1.155512,0,1
2021704000,2021678666,6620172,488.5113,95593.336,15.0,1.1555156,0,1
2021776000,2021752000,6620172,488.4878,95593.6,15.0,1.1555188,0,1
2021848000,2021824000,6620172,488.72726,95590.88,15.0,1.1554859,0,1
2021920000,2021896000,6620172,488.61926,95592.12,15.0,1.1555008,0,1
2021992000,2021968000,6620172,488.79297,95590.1,15.0,1.1554765,0,1
2022064000,2022040000,6620172,488.80707,95589.94,15.0,1.1554744,0,1
2022136000,2022112000,6620172,488.854,95589.4,15.0,1.155468,0,1
2022208000,2022184000,6620172,488.92914,95588.56,15.0,1.1554579,0,1
2022280000,2022256000,6620172,488.91974,95588.664,15.0,1.155459,0,1
2022352000,2022328000,6620172,489.11224,95586.44,15.0,1.1554322,0,1
2022424000,2022400000,6620172,489.10284,95586.586,15.0,1.155434,0,1
2022496000,2022472000,6620172,489.0559,95587.086,15.0,1.15544,0,1
2022568000,2022544000,6620172,489.26248,95584.73,15.0,1.1554115,0,1
2022640000,2022616000,6620172,489.239,95585.0,15.0,1.1554148,0,1
2022708000,2022686666,6620172,489.347,95583.76,15.0,1.1553998,0,1
2022760000,2022748000,6620172,489.4409,95582.66,15.0,1.1553864,0,1
2022832000,2022808000,6620172,489.37985,95583.375,15.0,1.1553952,0,1
2022904000,2022880000,6620172,489.4315,95582.805,15.0,1.1553882,0,1
2022976000,2022952000,6620172,489.49252,95582.1,15.0,1.1553798,0,1
2023048000,2023024000,6620172,489.52072,95581.75,15.0,1.1553755,0,1
2023116000,2023094666,6620172,489.6146,95580.664,15.0,1.1553624,0,1
2023168000,2023156000,6620172,489.69443,95579.8,15.0,1.1553519,0,1
2023240000,2023216000,6620172,489.78363,95578.74,15.0,1.1553392,0,1
2023312000,2023288000,6620172,489.7273,95579.41,15.0,1.1553472,0,1
2023380000,2023358666,6620172,489.79303,95578.63,15.0,1.1553378,0,1
2023432000,2023418000,6620172,489.87283,95577.734,15.0,1.155327,0,1
2023504000,2023480000,6620172,489.9902,95576.41,15.0,1.1553109,0,1
2023576000,2023552000,6620172,490.0888,95575.25,15.0,1.1552969,0,1
2023648000,2023624000,6620172,489.97614,95576.555,15.0,1.1553127,0,1
2023720000,2023696000,6620172,490.06534,95575.52,15.0,1.1553003,0,1
2023792000,2023768000,6620172,490.06064,95575.59,15.0,1.1553011,0,1
2023864000,2023840000,6620172,490.14984,95574.57,15.0,1.1552888,0,1
2023936000,2023912000,6620172,490.23904,95573.57,15.0,1.1552767,0,1
2024008000,2023984000,6620172,490.22495,95573.68,15.0,1.155278,0,1
2024080000,2024056000,6620172,490.32355,95572.6,15.0,1.155265,0,1
2024148000,2024126666,6620172,490.30948,95572.73,15.0,1.1552664,0,1
2024200000,2024188000,6620172,490.45032,95571.14,15.0,1.1552472,0,1
2024272000,2024248000,6620172,490.3611,95572.18,15.0,1.1552598,0,1
2024340000,2024318666,6620172,490.37988,95571.91,15.0,1.1552565,0,1
2024392000,2024380000,6620172,490.42215,95571.44,15.0,1.1552509,0,1
2024464000,2024440000,6620172,490.41275,95571.555,15.0,1.1552522,0,1
2024536000,2024510666,6620172,490.5818,95569.63,15.0,1.1552291,0,1
2024608000,2024584000,6620172,490.5724,95569.75,15.0,1.1552304,0,1
2024680000,2024656000,6620172,490.50665,95570.5,15.0,1.1552396,0,1
2024752000,2024728000,6620172,490.5771,95569.66,15.0,1.1552293,0,1
2024824000,2024798666,6620172,490.59586,95569.445,15.0,1.1552268,0,1
2024896000,2024870666,6620172,490.63342,95569.0,15.0,1.1552215,0,1
2024968000,2024944000,6620172,490.62402,95569.1,15.0,1.1552225,0,1
2025040000,2025016000,6620172,490.6569,95568.78,15.0,1.1552187,0,1
2025112000,2025088000,6620172,490.68976,95568.375,15.0,1.1552138,0,1
2025184000,2025160000,6620172,490.62402,95569.09,15.0,1.1552225,0,1
2025256000,2025232000,6620172,490.69916,95568.26,15.0,1.1552124,0,1
2025328000,2025302666,6620172,490.71793,95568.06,15.0,1.1552101,0,1
2025400000,2025376000,6620172,490.71793,95568.086,15.0,1.1552103,0,1
2025468000,2025445333,6620172,490.80713,95567.04,15.0,1.1551977,0,1
2025520000,2025508000,6620172,490.7602,95567.58,15.0,1.1552043,0,1
2025592000,2025568000,6620172,490.7649,95567.5,15.0,1.1552033,0,1
2025664000,2025640000,6620172,490.72263,95568.02,15.0,1.1552095,0,1
2025736000,2025712000,6620172,490.7696,95567.445,15.0,1.1552025,0,1
2025808000,2025784000,6620172,490.69916,95568.25,15.0,1.1552123,0,1
2025880000,2025856000,6620172,490.82123,95566.875,15.0,1.1551957,0,1
2025952000,2025928000,6620172,490.8588,95566.4,15.0,1.15519,0,1
2026024000,2026000000,6620172,490.72263,95568.02,15.0,1.1552095,0,1
2026096000,2026072000,6620172,490.80713,95567.055,15.0,1.1551979,0,1
2026168000,2026142666,6620172,490.82593,95566.81,15.0,1.155195,0,1
2026240000,2026216000,6620172,490.90103,95565.96,15.0,1.1551846,0,1
2026308000,2026286666,6620172,490.91513,95565.79,15.0,1.1551826,0,1
2026360000,2026348000,6620172,490.8494,95566.55,15.0,1.1551918,0,1
2026432000,2026406666,6620172,490.87286,95566.26,15.0,1.1551883,0,1
2026504000,2026480000,6620172,490.8353,95566.71,15.0,1.1551938,0,1
2026576000,2026552000,6620172,490.8588,95566.414,15.0,1.1551902,0,1
2026648000,2026624000,6620172,491.0184,95564.6,15.0,1.1551683,0,1
2026720000,2026696000,6620172,490.9527,95565.375,15.0,1.1551776,0,1
2026792000,2026768000,6620172,490.80246,95567.09,15.0,1.1551983,0,1
2026864000,2026840000,6620172,490.89166,95566.06,15.0,1.1551859,0,1
2026936000,2026912000,6620172,490.9527,95565.4,15.0,1.1551778,0,1
2027008000,2026982666,6620172,490.89633,95565.99,15.0,1.155185,0,1
2027080000,2027056000,6620172,490.87286,95566.26,15.0,1.1551883,0,1
2027152000,2027128000,6620172,490.89633,95566.0,15.0,1.1551851,0,1
2027220000,2027198666,6620172,490.9292,95565.66,15.0,1.1551809,0,1
2027272000,2027260000,6620172,490.8588,95566.42,15.0,1.1551902,0,1
2027344000,2027318666,6620172,490.95737,95565.29,15.0,1.1551765,0,1
2027416000,2027392000,6620172,490.95737,95565.29,15.0,1.1551765,0,1
2027488000,2027462666,6620172,490.9292,95565.65,15.0,1.1551808,0,1
2027560000,2027536000,6620172,490.96207,95565.22,15.0,1.1551757,0,1
2027632000,2027606666,6620172,490.9433,95565.44,15.0,1.1551783,0,1
2027704000,2027680000,6620172,490.97147,95565.15,15.0,1.1551749,0,1
2027776000,2027752000,6620172,490.91983,95565.73,15.0,1.1551818,0,1
2027848000,2027822666,6620172,490.98557,95564.98,15.0,1.1551728,0,1
2027920000,2027896000,6620172,491.06067,95564.1,15.0,1.1551622,0,1
2027992000,2027968000,6620172,490.97617,95565.09,15.0,1.1551741,0,1
2028064000,2028040000,6620172,491.07944,95563.9,15.0,1.1551598,0,1
2028136000,2028112000,6620172,491.00433,95564.75,15.0,1.1551701,0,1
2028208000,2028184000,6620172,491.0231,95564.52,15.0,1.1551673,0,1
2028280000,2028256000,6620172,490.99963,95564.85,15.0,1.1551713,0,1
2028352000,2028326666,6620172,491.08414,95563.875,15.0,1.1551595,0,1
2028424000,2028400000,6620172,490.9386,95565.53,15.0,1.1551795,0,1
2028496000,2028472000,6620172,491.117,95563.49,15.0,1.1551548,0,1
2028568000,2028544000,6620172,491.05597,95564.18,15.0,1.1551632,0,1
2028640000,2028616000,6620172,490.98557,95564.97,15.0,1.1551727,0,1
2028708000,2028686666,6620172,490.91983,95565.75,15.0,1.1551821,0,1
2028760000,2028748000,6620172,491.0231,95564.53,15.0,1.1551675,0,1
2028832000,2028808000,6620172,491.00903,95564.71,15.0,1.1551695,0,1
2028904000,2028880000,6620172,491.0419,95564.32,15.0,1.1551648,0,1
2028976000,2028952000,6620172,491.00903,95564.71,15.0,1.1551695,0,1
2029048000,2029024000,6620172,491.0184,95564.6,15.0,1.1551683,0,1
2029120000,2029096000,6620172,491.00433,95564.76,15.0,1.1551702,0,1
2029192000,2029168000,6620172,491.10294,95563.664,15.0,1.155157,0,1
2029264000,2029240000,6620172,490.91513,95565.805,15.0,1.1551827,0,1
2029336000,2029312000,6620172,491.0325,95564.46,15.0,1.1551665,0,1
2029408000,2029384000,6620172,491.117,95563.48,15.0,1.1551546,0,1
2029480000,2029456000,6620172,491.08414,95563.85,15.0,1.1551591,0,1
2029552000,2029528000,6620172,490.96207,95565.23,15.0,1.1551758,0,1
2029624000,2029600000,6620172,490.97617,95565.09,15.0,1.1551741,0,1
2029696000,2029672000,6620172,491.0372,95564.37,15.0,1.1551654,0,1
2029768000,2029744000,6620172,491.05127,95564.24,15.0,1.1551639,0,1
2029840000,2029814666,6620172,491.00433,95564.74,15.0,1.15517,0,1
2029912000,2029886666,6620172,491.0278,95564.49,15.0,1.1551669,0,1
2029984000,2029960000,6620172,490.98557,95565.0,15.0,1.1551731,0,1
2030052000,2030030666,6620172,491.06067,95564.125,15.0,1.1551625,0,1
2030128000,2030102666,6620172,491.07944,95563.9,15.0,1.1551598,0,1
2030200000,2030174666,6620172,490.99493,95564.9,15.0,1.1551719,0,1
2030272000,2030245333,6620172,491.0325,95564.44,15.0,1.1551663,0,1
2030344000,2030320000,6620172,491.0419,95564.35,15.0,1.1551652,0,1
2030416000,2030392000,6620172,491.0184,95564.586,15.0,1.155168,0,1
2030488000,2030464000,6620172,491.07944,95563.91,15.0,1.1551598,0,1
2030560000,2030536000,6620172,491.07944,95563.94,15.0,1.1551602,0,1
2030632000,2030606666,6620172,491.08414,95563.87,15.0,1.1551594,0,1
2030704000,2030680000,6620172,491.05127,95564.23,15.0,1.1551636,0,1
2030776000,2030752000,6620172,490.96207,95565.25,15.0,1.155176,0,1
2030848000,2030824000,6620172,491.08884,95563.79,15.0,1.1551584,0,1
2030920000,2030896000,6620172,491.01373,95564.664,15.0,1.155169,0,1
2030992000,2030968000,6620172,490.98557,95564.99,15.0,1.155173,0,1
2031064000,2031040000,6620172,491.14047,95563.23,15.0,1.1551516,0,1
2031136000,2031112000,6620172,491.09824,95563.71,15.0,1.1551574,0,1
2031208000,2031184000,6620172,491.06067,95564.12,15.0,1.1551623,0,1
2031280000,2031256000,6620172,491.117,95563.5,15.0,1.155155,0,1
2031352000,2031328000,6620172,491.2109,95562.38,15.0,1.1551415,0,1
2031420000,2031398666,6620172,491.0325,95564.47,15.0,1.1551666,0,1
2031496000,2031470666,6620172,490.97147,95565.19,15.0,1.1551753,0,1
2031568000,2031544000,6620172,491.06537,95564.086,15.0,1.155162,0,1
2031640000,2031616000,6620172,490.99493,95564.875,15.0,1.1551715,0,1
2031712000,2031688000,6620172,491.14987,95563.125,15.0,1.1551503,0,1
2031784000,2031760000,6620172,491.07477,95563.98,15.0,1.1551607,0,1
2031852000,2031830666,6620172,491.15457,95563.06,15.0,1.1551496,0,1
2031904000,2031892000,6620172,491.17804,95562.79,15.0,1.1551464,0,1
2031972000,2031949333,6620172,491.0419,95564.35,15.0,1.1551652,0,1
2032024000,2032012000,6620172,490.9339,95565.555,15.0,1.1551797,0,1
2032096000,2032072000,6620172,491.07944,95563.914,15.0,1.1551598,0,1
2032168000,2032144000,6620172,491.06537,95564.06,15.0,1.1551617,0,1
2032240000,2032216000,6620172,491.07477,95564.0,15.0,1.1551609,0,1
2032312000,2032288000,6620172,491.07007,95564.03,15.0,1.1551614,0,1
2032384000,2032360000,6620172,491.06537,95564.06,15.0,1.1551617,0,1
2032456000,2032432000,6620172,490.90573,95565.9,15.0,1.1551839,0,1
2032528000,2032504000,6620172,490.98087,95565.055,15.0,1.1551737,0,1
2032600000,2032576000,6620172,491.0184,95564.63,15.0,1.1551685,0,1
2032668000,2032646666,6620172,491.01373,95564.66,15.0,1.1551689,0,1
2032720000,2032706000,6620172,491.06537,95564.09,15.0,1.1551621,0,1
2032792000,2032768000,6620172,491.0184,95564.62,15.0,1.1551684,0,1
2032864000,2032840000,6620172,491.10294,95563.664,15.0,1.155157,0,1
2032936000,2032912000,6620172,491.1311,95563.336,15.0,1.1551529,0,1
2033008000,2032984000,6620172,491.08414,95563.875,15.0,1.1551595,0,1
2033080000,2033054666,6620172,490.97147,95565.164,15.0,1.1551751,0,1
2033152000,2033128000,6620172,491.00903,95564.72,15.0,1.1551696,0,1
2033224000,2033200000,6620172,490.98087,95565.04,15.0,1.1551735,0,1
2033296000,2033270666,6620172,491.0184,95564.62,15.0,1.1551684,0,1
2033368000,2033344000,6620172,491.10294,95563.65,15.0,1.1551567,0,1
2033440000,2033416000,6620172,490.98087,95565.055,15.0,1.1551737,0,1
2033508000,2033485333,6620172,491.1311,95563.28,15.0,1.1551522,0,1
2033560000,2033548000,6620172,491.00433,95564.75,15.0,1.1551701,0,1
2033632000,2033606666,6620172,490.99963,95564.85,15.0,1.1551713,0,1
2033700000,2033678666,6620172,490.9339,95565.59,15.0,1.1551802,0,1
2033752000,2033740000,6620172,491.06537,95564.08,15.0,1.1551619,0,1
2033824000,2033800000,6620172,490.99493,95564.9,15.0,1.1551719,0,1
2033896000,2033872000,6620172,491.01373,95564.69,15.0,1.1551694,0,1
2033968000,2033944000,6620172,491.0184,95564.62,15.0,1.1551684,0,1
2034040000,2034014666,6620172,491.07477,95563.99,15.0,1.1551608,0,1
2034112000,2034088000,6620172,490.95737,95565.31,15.0,1.1551769,0,1
2034184000,2034160000,6620172,491.0419,95564.31,15.0,1.1551647,0,1
2034252000,2034230666,6620172,491.1311,95563.29,15.0,1.1551523,0,1
2034304000,2034292000,6620172,491.16397,95562.92,15.0,1.1551479,0,1
2034376000,2034350666,6620172,491.0466,95564.26,15.0,1.1551641,0,1
2034448000,2034424000,6620172,491.07007,95564.01,15.0,1.155161,0,1
2034520000,2034496000,6620172,491.0231,95564.56,15.0,1.1551677,0,1
2034592000,2034566666,6620172,491.06067,95564.15,15.0,1.1551627,0,1
2034664000,2034640000,6620172,491.0231,95564.54,15.0,1.1551675,0,1
2034736000,2034712000,6620172,491.05597,95564.18,15.0,1.1551632,0,1
2034808000,2034784000,6620172,491.0325,95564.46,15.0,1.1551665,0,1
2034880000,2034856000,6620172,491.01373,95564.68,15.0,1.1551692,0,1
2034952000,2034928000,6620172,491.07477,95563.96,15.0,1.1551605,0,1
2035024000,2035000000,6620172,491.09824,95563.71,15.0,1.1551574,0,1
2035096000,2035072000,6620172,491.0372,95564.4,15.0,1.1551658,0,1
2035168000,2035144000,6620172,491.06537,95564.086,15.0,1.155162,0,1
2035240000,2035216000,6620172,491.10294,95563.63,15.0,1.1551565,0,1
2035312000,2035288000,6620172,491.06067,95564.1,15.0,1.1551622,0,1
2035384000,2035358666,6620172,491.14987,95563.1,15.0,1.1551502,0,1
2035456000,2035432000,6620172,491.14987,95563.125,15.0,1.1551503,0,1
2035528000,2035504000,6620172,491.15457,95563.06,15.0,1.1551496,0,1
2035600000,2035573333,6620172,491.15927,95563.02,15.0,1.1551492,0,1
2035672000,2035648000,6620172,491.05597,95564.164,15.0,1.1551629,0,1
2035744000,2035720000,6620172,491.06067,95564.1,15.0,1.1551622,0,1
2035816000,2035792000,6620172,490.98557,95564.96,15.0,1.1551726,0,1
2035888000,2035864000,6620172,491.1217,95563.46,15.0,1.1551545,0,1
2035960000,2035936000,6620172,491.10764,95563.56,15.0,1.1551557,0,1
2036032000,2036006666,6620172,491.14517,95563.15,15.0,1.1551507,0,1
2036104000,2036080000,6620172,491.1217,95563.46,15.0,1.1551545,0,1
2036176000,2036152000,6620172,491.1123,95563.54,15.0,1.1551554,0,1
2036248000,2036224000,6620172,490.9527,95565.375,15.0,1.1551776,0,1
2036320000,2036296000,6620172,491.08414,95563.85,15.0,1.1551591,0,1
2036392000,2036366666,6620172,491.19214,95562.63,15.0,1.1551445,0,1
2036464000,2036440000,6620172,491.05597,95564.195,15.0,1.1551633,0,1
2036536000,2036512000,6620172,491.06537,95564.09,15.0,1.1551621,0,1
2036608000,2036584000,6620172,491.1123,95563.54,15.0,1.1551554,0,1
2036680000,2036656000,6620172,491.15927,95563.0,15.0,1.1551489,0,1
2036752000,2036728000,6620172,491.08414,95563.85,15.0,1.1551591,0,1
2036824000,2036798666,6620172,491.117,95563.5,15.0,1.155155,0,1
2036896000,2036872000,6620172,490.96207,95565.22,15.0,1.1551757,0,1
2036968000,2036944000,6620172,491.0231,95564.53,15.0,1.1551675,0,1
2037036000,2037014666,6620172,491.1217,95563.44,15.0,1.1551541,0,1
2037088000,2037074000,6620172,491.0325,95564.484,15.0,1.1551667,0,1
2037160000,2037136000,6620172,490.97147,95565.164,15.0,1.1551751,0,1
2037232000,2037208000,6620172,491.08884,95563.81,15.0,1.1551588,0,1
2037304000,2037280000,6620172,491.08884,95563.78,15.0,1.1551583,0,1
2037376000,2037350666,6620172,491.07007,95564.01,15.0,1.155161,0,1
2037448000,2037424000,6620172,491.0325,95564.46,15.0,1.1551665,0,1
2037520000,2037494666,6620172,490.99493,95564.88,15.0,1.1551716,0,1
2037592000,2037566666,6620172,491.0372,95564.37,15.0,1.1551654,0,1
2037664000,2037640000,6620172,491.06537,95564.06,15.0,1.1551617,0,1
2037736000,2037712000,6620172,491.117,95563.49,15.0,1.1551548,0,1
2037804000,2037782666,6620172,491.0372,95564.414,15.0,1.1551659,0,1
2037856000,2037844000,6620172,491.1311,95563.28,15.0,1.1551522,0,1
2037928000,2037904000,6620172,491.07944,95563.91,15.0,1.1551598,0,1
2038000000,2037976000,6620172,491.1217,95563.41,15.0,1.1551538,0,1
2038072000,2038048000,6620172,491.08414,95563.87,15.0,1.1551594,0,1
2038144000,2038120000,6620172,491.05127,95564.22,15.0,1.1551636,0,1
2038216000,2038192000,6620172,491.1358,95563.25,15.0,1.155152,0,1
2038288000,2038262666,6620172,490.91983,95565.71,15.0,1.1551816,0,1
2038360000,2038336000,6620172,491.06067,95564.13,15.0,1.1551626,0,1
2038432000,2038408000,6620172,491.06537,95564.06,15.0,1.1551617,0,1
2038504000,2038478666,6620172,491.10764,95563.56,15.0,1.1551557,0,1
2038572000,2038550666,6620172,490.99963,95564.836,15.0,1.1551712,0,1
2038624000,2038612000,6620172,491.09824,95563.73,15.0,1.1551577,0,1
2038696000,2038672000,6620172,491.117,95563.5,15.0,1.155155,0,1
2038768000,2038744000,6620172,491.06537,95564.04,15.0,1.1551615,0,1
2038840000,2038816000,6620172,491.0419,95564.31,15.0,1.1551647,0,1
2038912000,2038888000,6620172,491.06067,95564.12,15.0,1.1551623,0,1
2038984000,2038960000,6620172,491.1264,95563.38,15.0,1.1551535,0,1
2039056000,2039032000,6620172,491.15927,95562.99,15.0,1.1551487,0,1
2039128000,2039104000,6620172,491.09824,95563.69,15.0,1.1551571,0,1
2039200000,2039176000,6620172,491.05597,95564.16,15.0,1.1551628,0,1
2039272000,2039248000,6620172,491.0231,95564.57,15.0,1.1551678,0,1
2039344000,2039320000,6620172,491.08884,95563.79,15.0,1.1551584,0,1
2039416000,2039390666,6620172,491.06067,95564.12,15.0,1.1551623,0,1
2039488000,2039464000,6620172,491.0231,95564.54,15.0,1.1551675,0,1
2039560000,2039536000,6620172,491.14517,95563.16,15.0,1.1551508,0,1
2039632000,2039608000,6620172,490.99963,95564.84,15.0,1.1551712,0,1
2039704000,2039680000,6620172,491.09824,95563.695,15.0,1.1551572,0,1
2039776000,2039752000,6620172,491.08414,95563.85,15.0,1.1551591,0,1
2039848000,2039824000,6620172,491.08414,95563.88,15.0,1.1551596,0,1
2039920000,2039896000,6620172,491.07477,95563.96,15.0,1.1551605,0,1
2039988000,2039965333,6620172,491.06067,95564.1,15.0,1.1551622,0,1
2040040000,2040028000,6620172,491.14517,95563.16,15.0,1.1551508,0,1
2040112000,2040088000,6620172,491.0231,95564.54,15.0,1.1551675,0,1
2040184000,2040160000,6620172,491.09824,95563.73,15.0,1.1551577,0,1
2040256000,2040232000,6620172,491.07477,95564.0,15.0,1.1551609,0,1
2040328000,2040304000,6620172,491.06537,95564.04,15.0,1.1551615,0,1
2040396000,2040374666,6620172,491.06537,95564.086,15.0,1.155162,0,1
2040472000,2040445333,6620172,491.0372,95564.375,15.0,1.1551656,0,1
2040544000,2040520000,6620172,491.07477,95563.96,15.0,1.1551605,0,1
2040616000,2040590666,6620172,491.10294,95563.664,15.0,1.155157,0,1
2040688000,2040664000,6620172,491.0184,95564.62,15.0,1.1551684,0,1
2040760000,2040734666,6620172,490.89633,95565.98,15.0,1.1551849,0,1
2040832000,2040808000,6620172,490.92453,95565.68,15.0,1.1551813,0,1
2040904000,2040880000,6620172,491.07477,95563.98,15.0,1.1551607,0,1
2040976000,2040952000,6620172,491.07944,95563.94,15.0,1.1551602,0,1
2041048000,2041022666,6620172,491.0231,95564.56,15.0,1.1551677,0,1
2041120000,2041096000,6620172,490.9339,95565.586,15.0,1.1551801,0,1
2041192000,2041166666,6620172,491.07944,95563.94,15.0,1.1551602,0,1
2041264000,2041240000,6620172,491.0466,95564.28,15.0,1.1551644,0,1
2041332000,2041309333,6620172,491.09824,95563.71,15.0,1.1551574,0,1
2041384000,2041372000,6620172,491.0419,95564.33,15.0,1.155165,0,1
2041452000,2041430666,6620172,491.08884,95563.81,15.0,1.1551588,0,1
2041504000,2041490000,6620172,490.9527,95565.375,15.0,1.1551776,0,1
2041576000,2041552000,6620172,491.0372,95564.4,15.0,1.1551658,0,1
2041648000,2041624000,6620172,491.06067,95564.1,15.0,1.1551622,0,1
2041716000,2041694666,6620172,490.99493,95564.88,15.0,1.1551716,0,1
2041768000,2041754000,6620172,491.05597,95564.195,15.0,1.1551633,0,1
2041840000,2041816000,6620172,491.01373,95564.664,15.0,1.155169,0,1
2041912000,2041886666,6620172,491.00433,95564.77,15.0,1.1551703,0,1
2041984000,2041958666,6620172,491.0466,95564.27,15.0,1.1551642,0,1
2042056000,2042032000,6620172,491.07944,95563.94,15.0,1.1551602,0,1
2042128000,2042104000,6620172,491.0372,95564.37,15.0,1.1551654,0,1
2042196000,2042174666,6620172,491.00433,95564.77,15.0,1.1551703,0,1
2042248000,2042236000,6620172,491.10294,95563.625,15.0,1.1551564,0,1
2042320000,2042296000,6620172,491.09354,95563.74,15.0,1.1551579,0,1
2042392000,2042368000,6620172,490.99023,95564.945,15.0,1.1551723,0,1
2042464000,2042440000,6620172,491.0372,95564.375,15.0,1.1551656,0,1
2042536000,2042510666,6620172,490.9339,95565.586,15.0,1.1551801,0,1
2042608000,2042584000,6620172,491.0231,95564.56,15.0,1.1551677,0,1
2042680000,2042656000,6620172,491.10764,95563.59,15.0,1.155156,0,1
2042752000,2042728000,6620172,490.98087,95565.055,15.0,1.1551737,0,1
2042824000,2042800000,6620172,491.14047,95563.21,15.0,1.1551514,0,1
2042896000,2042872000,6620172,490.99023,95564.93,15.0,1.1551722,0,1
2042968000,2042944000,6620172,490.9386,95565.54,15.0,1.1551796,0,1
2043040000,2043014666,6620172,490.98087,95565.04,15.0,1.1551735,0,1
2043112000,2043086666,6620172,491.0278,95564.5,15.0,1.155167,0,1
2043184000,2043160000,6620172,491.0372,95564.37,15.0,1.1551654,0,1
2043256000,2043232000,6620172,491.05597,95564.164,15.0,1.1551629,0,1
2043328000,2043302666,6620172,491.05127,95564.23,15.0,1.1551636,0,1
2043400000,2043376000,6620172,491.10294,95563.63,15.0,1.1551565,0,1
2043472000,2043448000,6620172,491.06067,95564.125,15.0,1.1551625,0,1
2043544000,2043518666,6620172,491.01373,95564.664,15.0,1.155169,0,1
2043616000,2043592000,6620172,491.0466,95564.27,15.0,1.1551642,0,1
2043688000,2043664000,6620172,491.0278,95564.51,15.0,1.1551671,0,1
2043760000,2043736000,6620172,491.08884,95563.79,15.0,1.1551584,0,1
2043832000,2043808000,6620172,491.06537,95564.04,15.0,1.1551615,0,1
2043900000,2043877333,6620172,491.06537,95564.04,15.0,1.1551615,0,1
2043952000,2043940000,6620172,491.0325,95564.45,15.0,1.1551665,0,1
2044024000,2044000000,6620172,491.08414,95563.85,15.0,1.1551591,0,1
2044096000,2044072000,6620172,491.00433,95564.75,15.0,1.1551701,0,1
2044168000,2044144000,6620172,490.9386,95565.54,15.0,1.1551796,0,1
2044240000,2044216000,6620172,491.01373,95564.68,15.0,1.1551692,0,1
2044312000,2044288000,6620172,491.07477,95563.98,15.0,1.1551607,0,1
2044384000,2044358666,6620172,491.01373,95564.664,15.0,1.155169,0,1
2044456000,2044432000,6620172,490.97147,95565.16,15.0,1.155175,0,1
2044528000,2044504000,6620172,490.9527,95565.375,15.0,1.1551776,0,1
2044596000,2044574666,6620172,490.9292,95565.63,15.0,1.1551807,0,1
2044648000,2044634000,6620172,491.0231,95564.55,15.0,1.1551676,0,1
2044720000,2044696000,6620172,490.9527,95565.4,15.0,1.1551778,0,1
2044792000,2044768000,6620172,491.0278,95564.5,15.0,1.155167,0,1
2044864000,2044840000,6620172,490.9527,95565.34,15.0,1.1551771,0,1
2044936000,2044912000,6620172,491.07477,95563.96,15.0,1.1551605,0,1
2045008000,2044984000,6620172,491.0372,95564.37,15.0,1.1551654,0,1
2045080000,2045056000,6620172,490.91983,95565.72,15.0,1.1551816,0,1
2045152000,2045126666,6620172,490.99963,95564.81,15.0,1.1551708,0,1
2045224000,2045200000,6620172,490.99023,95564.945,15.0,1.1551723,0,1
2045296000,2045270666,6620172,490.91983,95565.75,15.0,1.1551821,0,1
2045368000,2045344000,6620172,490.9386,95565.51,15.0,1.1551791,0,1
2045440000,2045414666,6620172,490.99023,95564.94,15.0,1.1551722,0,1
2045508000,2045486666,6620172,491.0184,95564.6,15.0,1.1551683,0,1
2045560000,2045548000,6620172,490.96207,95565.25,15.0,1.155176,0,1
2045632000,2045608000,6620172,490.91043,95565.836,15.0,1.1551832,0,1
2045704000,2045680000,6620172,490.9527,95565.38,15.0,1.1551777,0,1
2045776000,2045752000,6620172,490.91043,95565.87,15.0,1.1551836,0,1
2045848000,2045824000,6620172,491.07477,95564.0,15.0,1.1551609,0,1
2045916000,2045894666,6620172,490.99023,95564.945,15.0,1.1551723,0,1
2045968000,2045956000,6620172,490.97617,95565.09,15.0,1.1551741,0,1
2046040000,2046016000,6620172,490.99963,95564.82,15.0,1.1551709,0,1
2046112000,2046088000,6620172,490.95737,95565.31,15.0,1.1551769,0,1
2046184000,2046158666,6620172,490.8588,95566.43,15.0,1.1551902,0,1
2046252000,2046230666,6620172,490.99493,95564.875,15.0,1.1551715,0,1
2046304000,2046290000,6620172,490.97617,95565.125,15.0,1.1551746,0,1
2046376000,2046350666,6620172,490.9386,95565.5,15.0,1.155179,0,1
2046448000,2046424000,6620172,490.97617,95565.07,15.0,1.1551739,0,1
2046520000,2046496000,6620172,490.8447,95566.6,15.0,1.1551924,0,1
2046592000,2046568000,6620172,491.0325,95564.43,15.0,1.1551661,0,1
2046664000,2046640000,6620172,490.97617,95565.07,15.0,1.1551739,0,1
2046736000,2046712000,6620172,490.99963,95564.82,15.0,1.1551709,0,1
2046808000,2046784000,6620172,490.96207,95565.27,15.0,1.1551763,0,1
2046880000,2046854666,6620172,490.948,95565.41,15.0,1.155178,0,1
2046952000,2046928000,6620172,491.0325,95564.44,15.0,1.1551663,0,1
2047020000,2046998666,6620172,490.97617,95565.125,15.0,1.1551746,0,1
2047072000,2047060000,6620172,490.96207,95565.234,15.0,1.1551759,0,1
2047144000,2047120000,6620172,490.9527,95565.37,15.0,1.1551775,0,1
2047216000,2047192000,6620172,490.9527,95565.35,15.0,1.1551772,0,1
2047288000,2047264000,6620172,491.06537,95564.055,15.0,1.1551616,0,1
2047360000,2047334666,6620172,490.9433,95565.48,15.0,1.1551788,0,1
2047432000,2047408000,6620172,490.99963,95564.81,15.0,1.1551708,0,1
2047504000,2047480000,6620172,491.01373,95564.65,15.0,1.1551688,0,1
2047576000,2047552000,6620172,491.0231,95564.52,15.0,1.1551673,0,1
2047644000,2047622666,6620172,491.0325,95564.445,15.0,1.1551664,0,1
2047720000,2047693333,6620172,491.00903,95564.71,15.0,1.1551695,0,1
2047792000,2047768000,6620172,490.98087,95565.055,15.0,1.1551737,0,1
2047864000,2047840000,6620172,491.0325,95564.46,15.0,1.1551665,0,1
2047936000,2047912000,6620172,490.9292,95565.65,15.0,1.1551808,0,1
2048008000,2047984000,6620172,490.98087,95565.06,15.0,1.1551738,0,1
2048080000,2048056000,6620172,491.07944,95563.914,15.0,1.1551598,0,1
2048148000,2048124000,6620172,490.92453,95565.68,15.0,1.1551813,0,1
2048200000,2048188000,6620172,491.06537,95564.05,15.0,1.1551615,0,1
2048272000,2048248000,6620172,490.9339,95565.586,15.0,1.1551801,0,1
2048344000,2048318666,6620172,490.9527,95565.4,15.0,1.1551778,0,1
2048416000,2048392000,6620172,490.9527,95565.4,15.0,1.1551778,0,1
2048488000,2048462666,6620172,490.99493,95564.875,15.0,1.1551715,0,1
2048560000,2048536000,6620172,491.08414,95563.84,15.0,1.155159,0,1
2048632000,2048606666,6620172,491.0372,95564.41,15.0,1.1551658,0,1
2048704000,2048680000,6620172,491.0231,95564.52,15.0,1.1551673,0,1
2048776000,2048752000,6620172,491.0419,95564.35,15.0,1.1551652,0,1
2048848000,2048824000,6620172,490.99493,95564.87,15.0,1.1551714,0,1
2048920000,2048896000,6620172,490.99023,95564.93,15.0,1.1551722,0,1
2048992000,2048966666,6620172,490.9386,95565.49,15.0,1.1551789,0,1
2049064000,2049040000,6620172,490.98087,95565.01,15.0,1.1551732,0,1
2049136000,2049112000,6620172,490.99963,95564.85,15.0,1.1551713,0,1
2049208000,2049184000,6620172,491.05597,95564.18,15.0,1.1551632,0,1
2049280000,2049254666,6620172,491.1264,95563.37,15.0,1.1551533,0,1
2049352000,2049328000,6620172,491.0184,95564.586,15.0,1.155168,0,1
2049420000,2049398666,6620172,490.98557,95565.0,15.0,1.1551731,0,1
2049472000,2049460000,6620172,490.97147,95565.16,15.0,1.155175,0,1
2049544000,2049520000,6620172,490.95737,95565.336,15.0,1.1551771,0,1
2049616000,2049590666,6620172,491.0325,95564.48,15.0,1.1551667,0,1
2049688000,2049664000,6620172,490.91513,95565.78,15.0,1.1551825,0,1
2049756000,2049734666,6620172,491.07944,95563.94,15.0,1.1551602,0,1
2049808000,2049796000,6620172,490.9339,95565.58,15.0,1.15518,0,1
2049880000,2049854666,6620172,491.0372,95564.37,15.0,1.1551654,0,1
2049952000,2049928000,6620172,491.0184,95564.586,15.0,1.155168,0,1
2050024000,2050000000,6620172,491.05127,95564.23,15.0,1.1551636,0,1
2050096000,2050072000,6620172,490.9386,95565.52,15.0,1.1551794,0,1
2050168000,2050144000,6620172,490.95737,95565.336,15.0,1.1551771,0,1
2050240000,2050216000,6620172,491.0419,95564.31,15.0,1.1551647,0,1
2050312000,2050288000,6620172,490.98087,95565.03,15.0,1.1551734,0,1
2050384000,2050360000,6620172,490.97617,95565.1,15.0,1.1551743,0,1
2050456000,2050432000,6620172,491.0184,95564.62,15.0,1.1551684,0,1
2050528000,2050504000,6620172,490.99963,95564.81,15.0,1.1551708,0,1
2050600000,2050574666,6620172,491.0325,95564.43,15.0,1.1551661,0,1
2050672000,2050646666,6620172,491.05597,95564.21,15.0,1.1551635,0,1
2050744000,2050720000,6620172,491.0372,95564.375,15.0,1.1551656,0,1
2050816000,2050790666,6620172,491.07477,95564.0,15.0,1.1551609,0,1
2050888000,2050864000,6620172,490.98557,95564.98,15.0,1.1551728,0,1
2050960000,2050934666,6620172,491.05597,95564.21,15.0,1.1551635,0,1
2051032000,2051008000,6620172,491.01373,95564.68,15.0,1.1551692,0,1
2051104000,2051080000,6620172,490.98557,95564.97,15.0,1.1551727,0,1
2051176000,2051150666,6620172,491.0325,95564.44,15.0,1.1551663,0,1
2051248000,2051224000,6620172,490.99493,95564.875,15.0,1.1551715,0,1
2051316000,2051294666,6620172,490.98557,95564.96,15.0,1.1551726,0,1
2051368000,2051356000,6620172,491.06067,95564.13,15.0,1.1551626,0,1
2051440000,2051416000,6620172,490.9527,95565.35,15.0,1.1551772,0,1
2051512000,2051488000,6620172,491.00433,95564.77,15.0,1.1551703,0,1
2051584000,2051560000,6620172,491.08414,95563.836,15.0,1.1551589,0,1
2051656000,2051632000,6620172,490.96677,95565.21,15.0,1.1551756,0,1
2051728000,2051704000,6620172,490.91513,95565.78,15.0,1.1551825,0,1
2051800000,2051774666,6620172,491.09824,95563.69,15.0,1.1551571,0,1
2051872000,2051848000,6620172,490.97617,95565.07,15.0,1.1551739,0,1
2051944000,2051920000,6620172,490.99493,95564.9,15.0,1.1551719,0,1
2052016000,2051992000,6620172,490.99963,95564.82,15.0,1.1551709,0,1
2052088000,2052064000,6620172,490.97617,95565.07,15.0,1.1551739,0,1
2052160000,2052136000,6620172,490.98087,95565.055,15.0,1.1551737,0,1
2052232000,2052208000,6620172,490.9292,95565.664,15.0,1.155181,0,1
2052304000,2052280000,6620172,490.91513,95565.79,15.0,1.1551826,0,1
2052376000,2052352000,6620172,491.00433,95564.75,15.0,1.1551701,0,1
2052448000,2052424000,6620172,490.92453,95565.695,15.0,1.1551815,0,1
2052520000,2052494666,6620172,491.0184,95564.6,15.0,1.1551683,0,1
2052588000,2052566666,6620172,491.00433,95564.77,15.0,1.1551703,0,1
2052640000,2052628000,6620172,490.86816,95566.31,15.0,1.1551889,0,1
2052712000,2052688000,6620172,490.95737,95565.28,15.0,1.1551764,0,1
2052784000,2052760000,6620172,490.99023,95564.945,15.0,1.1551723,0,1
2052856000,2052832000,6620172,490.91983,95565.73,15.0,1.1551818,0,1
2052928000,2052904000,6620172,490.97617,95565.1,15.0,1.1551743,0,1
2053000000,2052976000,6620172,490.96207,95565.23,15.0,1.1551758,0,1
2053072000,2053048000,6620172,490.97147,95565.13,15.0,1.1551746,0,1
2053144000,2053118666,6620172,490.98087,95565.04,15.0,1.1551735,0,1
2053216000,2053192000,6620172,491.00433,95564.75,15.0,1.1551701,0,1
2053288000,2053264000,6620172,490.98087,95565.02,15.0,1.1551733,0,1
2053356000,2053334666,6620172,490.97147,95565.19,15.0,1.1551753,0,1
2053408000,2053396000,6620172,490.97147,95565.17,15.0,1.1551751,0,1
2053476000,2053454666,6620172,491.0231,95564.54,15.0,1.1551675,0,1
2053528000,2053516000,6620172,490.9339,95565.59,15.0,1.1551802,0,1
2053600000,2053576000,6620172,491.00433,95564.79,15.0,1.1551704,0,1
2053672000,2053648000,6620172,491.0325,95564.445,15.0,1.1551664,0,1
2053744000,2053720000,6620172,491.01373,95564.65,15.0,1.1551688,0,1
2053816000,2053792000,6620172,491.0231,95564.53,15.0,1.1551675,0,1
2053888000,2053864000,6620172,490.99023,95564.94,15.0,1.1551722,0,1
2053960000,2053936000,6620172,490.87756,95566.195,15.0,1.1551875,0,1
2054032000,2054008000,6620172,490.99963,95564.85,15.0,1.1551713,0,1
2054104000,2054080000,6620172,491.0325,95564.43,15.0,1.1551661,0,1
2054176000,2054150666,6620172,490.95737,95565.32,15.0,1.1551769,0,1
2054248000,2054224000,6620172,490.9292,95565.664,15.0,1.155181,0,1
2054320000,2054296000,6620172,490.91043,95565.875,15.0,1.1551836,0,1
2054392000,2054368000,6620172,490.95737,95565.28,15.0,1.1551764,0,1
2054464000,2054440000,6620172,490.96677,95565.21,15.0,1.1551756,0,1
2054536000,2054512000,6620172,490.98557,95565.0,15.0,1.1551731,0,1
2054608000,2054584000,6620172,491.00433,95564.78,15.0,1.1551703,0,1
2054680000,2054656000,6620172,490.9527,95565.375,15.0,1.1551776,0,1
2054752000,2054728000,6620172,491.00433,95564.76,15.0,1.1551702,0,1
2054824000,2054800000,6620172,490.9386,95565.5,15.0,1.155179,0,1
2054896000,2054872000,6620172,490.9527,95565.37,15.0,1.1551775,0,1
2054968000,2054944000,6620172,490.91513,95565.81,15.0,1.1551828,0,1
2055040000,2055016000,6620172,490.9527,95565.37,15.0,1.1551775,0,1
2055112000,2055088000,6620172,490.97147,95565.15,15.0,1.1551749,0,1
2055184000,2055160000,6620172,491.0231,95564.555,15.0,1.1551676,0,1
2055256000,2055232000,6620172,490.9339,95565.6,15.0,1.1551803,0,1
2055328000,2055304000,6620172,490.9527,95565.38,15.0,1.1551777,0,1
2055400000,2055376000,6620172,491.0278,95564.51,15.0,1.1551671,0,1
2055472000,2055448000,6620172,491.0372,95564.37,15.0,1.1551654,0,1
2055544000,2055520000,6620172,490.99023,95564.94,15.0,1.1551722,0,1
2055616000,2055592000,6620172,491.10294,95563.65,15.0,1.1551567,0,1
2055688000,2055664000,6620172,490.91983,95565.73,15.0,1.1551818,0,1
2055760000,2055736000,6620172,490.9433,95565.46,15.0,1.1551787,0,1
2055832000,2055808000,6620172,490.9527,95565.375,15.0,1.1551776,0,1
2055904000,2055880000,6620172,491.00903,95564.71,15.0,1.1551695,0,1
2055972000,2055950666,6620172,490.9339,95565.586,15.0,1.1551801,0,1
2056024000,2056012000,6620172,491.14987,95563.11,15.0,1.1551502,0,1
2056096000,2056070666,6620172,491.01373,95564.66,15.0,1.1551689,0,1
2056168000,2056142666,6620172,491.0231,95564.57,15.0,1.1551678,0,1
2056240000,2056216000,6620172,490.97617,95565.086,15.0,1.1551741,0,1
2056312000,2056288000,6620172,491.1264,95563.38,15.0,1.1551535,0,1
2056384000,2056360000,6620172,490.91983,95565.72,15.0,1.1551816,0,1
2056456000,2056432000,6620172,491.0184,95564.6,15.0,1.1551683,0,1
2056528000,2056504000,6620172,491.05597,95564.21,15.0,1.1551635,0,1
2056600000,2056576000,6620172,490.98087,95565.055,15.0,1.1551737,0,1
2056672000,2056648000,6620172,490.98557,95564.96,15.0,1.1551726,0,1
2056744000,2056720000,6620172,490.95737,95565.32,15.0,1.1551769,0,1
2056816000,2056792000,6620172,490.948,95565.414,15.0,1.1551781,0,1
2056888000,2056864000,6620172,491.0419,95564.32,15.0,1.1551648,0,1
2056960000,2056936000,6620172,491.00433,95564.76,15.0,1.1551702,0,1
2057032000,2057008000,6620172,490.99493,95564.88,15.0,1.1551716,0,1
2057104000,2057080000,6620172,491.0325,95564.48,15.0,1.1551667,0,1
2057172000,2057150666,6620172,490.97147,95565.164,15.0,1.1551751,0,1
2057224000,2057212000,6620172,491.225,95562.28,15.0,1.1551402,0,1
2057296000,2057272000,6620172,490.89166,95566.04,15.0,1.1551856,0,1
2057368000,2057342666,6620172,490.97617,95565.09,15.0,1.1551741,0,1
2057440000,2057416000,6620172,491.0184,95564.625,15.0,1.1551684,0,1
2057512000,2057488000,6620172,491.1217,95563.445,15.0,1.1551542,0,1
2057580000,2057558666,6620172,491.0184,95564.586,15.0,1.155168,0,1
2057632000,2057620000,6620172,491.0278,95564.5,15.0,1.155167,0,1
2057704000,2057680000,6620172,490.99493,95564.875,15.0,1.1551715,0,1
2057772000,2057750666,6620172,490.9433,95565.48,15.0,1.1551788,0,1
2057824000,2057812000,6620172,491.0325,95564.48,15.0,1.1551667,0,1
2057896000,2057870666,6620172,491.01373,95564.66,15.0,1.1551689,0,1
2057968000,2057944000,6620172,490.98557,95564.99,15.0,1.155173,0,1
2058040000,2058016000,6620172,491.05597,95564.16,15.0,1.1551628,0,1
2058112000,2058088000,6620172,491.0466,95564.29,15.0,1.1551645,0,1
2058184000,2058160000,6620172,491.05597,95564.164,15.0,1.1551629,0,1
2058256000,2058232000,6620172,490.97147,95565.19,15.0,1.1551753,0,1
2058328000,2058304000,6620172,490.97147,95565.19,15.0,1.1551753,0,1
2058400000,2058374666,6620172,491.0278,95564.5,15.0,1.155167,0,1
2058472000,2058448000,6620172,491.08414,95563.85,15.0,1.1551591,0,1
2058544000,2058520000,6620172,490.9433,95565.48,15.0,1.1551788,0,1
2058616000,2058590666,6620172,490.97147,95565.19,15.0,1.1551753,0,1
2058688000,2058664000,6620172,490.89166,95566.09,15.0,1.1551863,0,1
2058760000,2058736000,6620172,490.96207,95565.27,15.0,1.1551763,0,1
2058832000,2058808000,6620172,490.97617,95565.086,15.0,1.1551741,0,1
2058904000,2058880000,6620172,491.00433,95564.79,15.0,1.1551704,0,1
2058976000,2058952000,6620172,490.98087,95565.02,15.0,1.1551733,0,1
2059048000,2059024000,6620172,491.00903,95564.73,15.0,1.1551697,0,1
2059120000,2059094666,6620172,490.88696,95566.13,15.0,1.1551868,0,1
2059192000,2059168000,6620172,491.0372,95564.37,15.0,1.1551654,0,1
2059264000,2059240000,6620172,491.05127,95564.23,15.0,1.1551636,0,1
2059336000,2059312000,6620172,491.00433,95564.77,15.0,1.1551703,0,1
2059408000,2059384000,6620172,490.97617,95565.09,15.0,1.1551741,0,1
2059480000,2059456000,6620172,490.97617,95565.086,15.0,1.1551741,0,1
2059552000,2059528000,6620172,491.0325,95564.48,15.0,1.1551667,0,1
2059624000,2059600000,6620172,491.05597,95564.21,15.0,1.1551635,0,1
2059696000,2059670666,6620172,491.00903,95564.71,15.0,1.1551695,0,1
2059768000,2059744000,6620172,490.90103,95565.94,15.0,1.1551844,0,1
2059840000,2059816000,6620172,490.99493,95564.875,15.0,1.1551715,0,1
2059912000,2059888000,6620172,490.99493,95564.914,15.0,1.155172,0,1
2059984000,2059960000,6620172,490.99023,95564.94,15.0,1.1551722,0,1
2060052000,2060030666,6620172,491.00903,95564.73,15.0,1.1551697,0,1
2060104000,2060092000,6620172,491.05127,95564.234,15.0,1.1551638,0,1
2060176000,2060149333,6620172,491.0231,95564.555,15.0,1.1551676,0,1
2060248000,2060224000,6620172,490.8447,95566.586,15.0,1.1551921,0,1
2060320000,2060296000,6620172,491.05597,95564.21,15.0,1.1551635,0,1
2060392000,2060368000,6620172,491.0231,95564.555,15.0,1.1551676,0,1
2060464000,2060440000,6620172,491.00903,95564.73,15.0,1.1551697,0,1
2060536000,2060512000,6620172,491.05597,95564.21,15.0,1.1551635,0,1
2060608000,2060584000,6620172,490.9339,95565.56,15.0,1.1551797,0,1
2060680000,2060656000,6620172,490.98087,95565.02,15.0,1.1551733,0,1
2060752000,2060728000,6620172,490.99493,95564.88,15.0,1.1551716,0,1
2060824000,2060800000,6620172,490.97617,95565.09,15.0,1.1551741,0,1
2060896000,2060872000,6620172,490.90103,95565.94,15.0,1.1551844,0,1
2060968000,2060944000,6620172,490.91513,95565.81,15.0,1.1551828,0,1
2061040000,2061016000,6620172,490.6522,95568.81,15.0,1.1552191,0,1
2061112000,2061088000,6620172,490.72263,95567.98,15.0,1.1552091,0,1
2061180000,2061157333,6620172,490.6804,95568.46,15.0,1.1552149,0,1
2061232000,2061220000,6620172,490.68506,95568.41,15.0,1.1552142,0,1
2061304000,2061278666,6620172,490.53012,95570.23,15.0,1.1552362,0,1
2061376000,2061352000,6620172,490.49728,95570.57,15.0,1.1552404,0,1
2061448000,2061424000,6620172,490.4785,95570.81,15.0,1.1552434,0,1
2061520000,2061496000,6620172,490.46442,95570.96,15.0,1.1552452,0,1
2061592000,2061568000,6620172,490.41275,95571.54,15.0,1.1552521,0,1
2061660000,2061638666,6620172,490.34235,95572.34,15.0,1.1552618,0,1
2061712000,2061700000,6620172,490.29068,95572.94,15.0,1.155269,0,1
2061784000,2061760000,6620172,490.2578,95573.336,15.0,1.1552738,0,1
2061856000,2061832000,6620172,490.23434,95573.625,15.0,1.1552774,0,1
2061928000,2061904000,6620172,490.21558,95573.82,15.0,1.1552796,0,1
2062000000,2061974666,6620172,490.05124,95575.664,15.0,1.1553019,0,1
2062072000,2062048000,6620172,490.06534,95575.52,15.0,1.1553003,0,1
2062144000,2062120000,6620172,490.01367,95576.12,15.0,1.1553074,0,1
2062216000,2062192000,6620172,490.01837,95576.07,15.0,1.1553069,0,1
2062288000,2062262666,6620172,489.9949,95576.31,15.0,1.1553098,0,1
2062360000,2062336000,6620172,489.79303,95578.68,15.0,1.1553384,0,1
2062432000,2062408000,6620172,489.83997,95578.086,15.0,1.1553313,0,1
2062504000,2062480000,6620172,489.73666,95579.28,15.0,1.1553457,0,1
2062576000,2062550666,6620172,489.7226,95579.47,15.0,1.155348,0,1
2062648000,2062622666,6620172,489.51132,95581.85,15.0,1.1553768,0,1
2062720000,2062696000,6620172,489.64746,95580.31,15.0,1.1553582,0,1
2062792000,2062768000,6620172,489.49722,95582.02,15.0,1.1553788,0,1
2062864000,2062840000,6620172,489.5489,95581.44,15.0,1.1553717,0,1
2062936000,2062912000,6620172,489.37985,95583.4,15.0,1.1553954,0,1
2063008000,2062984000,6620172,489.50192,95581.96,15.0,1.1553781,0,1
2063080000,2063056000,6620172,489.37515,95583.43,15.0,1.1553959,0,1
2063152000,2063128000,6620172,489.25308,95584.85,15.0,1.155413,0,1
2063224000,2063200000,6620172,489.18268,95585.68,15.0,1.155423,0,1
2063296000,2063272000,6620172,489.1498,95586.04,15.0,1.1554275,0,1
2063368000,2063344000,6620172,489.18268,95585.65,15.0,1.1554227,0,1
2063440000,2063414666,6620172,489.0606,95587.02,15.0,1.1554393,0,1
2063512000,2063488000,6620172,488.99487,95587.81,15.0,1.1554488,0,1
2063584000,2063560000,6620172,488.98547,95587.875,15.0,1.1554495,0,1
2063656000,2063632000,6620172,488.81177,95589.91,15.0,1.1554741,0,1
2063724000,2063702666,6620172,488.82584,95589.71,15.0,1.1554718,0,1
2063776000,2063764000,6620172,488.7695,95590.35,15.0,1.1554796,0,1
2063848000,2063824000,6620172,488.7695,95590.34,15.0,1.1554794,0,1
2063920000,2063896000,6620172,488.80237,95590.01,15.0,1.1554754,0,1
2063992000,2063968000,6620172,488.72256,95590.9,15.0,1.1554861,0,1
2064064000,2064040000,6620172,488.62866,95591.97,15.0,1.155499,0,1
2064136000,2064112000,6620172,488.5817,95592.5,15.0,1.1555054,0,1
2064204000,2064182666,6620172,488.53946,95592.98,15.0,1.1555111,0,1
2064256000,2064244000,6620172,488.53006,95593.12,15.0,1.1555129,0,1
2064328000,2064304000,6620172,488.3939,95594.664,15.0,1.1555316,0,1
2064400000,2064373333,6620172,488.35635,95595.12,15.0,1.1555371,0,1
2064472000,2064448000,6620172,488.4174,95594.4,15.0,1.1555284,0,1
2064544000,2064520000,6620172,488.3188,95595.52,15.0,1.155542,0,1
2064616000,2064590666,6620172,488.22488,95596.6,15.0,1.155555,0,1
2064688000,2064662666,6620172,488.19202,95597.02,15.0,1.1555601,0,1
2064760000,2064736000,6620172,488.14038,95597.57,15.0,1.1555668,0,1
2064832000,2064808000,6620172,488.13098,95597.71,15.0,1.1555685,0,1
2064900000,2064877333,6620172,488.12158,95597.79,15.0,1.1555694,0,1
2064952000,2064940000,6620172,488.17325,95597.2,15.0,1.1555623,0,1
2065024000,2065000000,6620172,488.2108,95596.77,15.0,1.1555572,0,1
2065096000,2065072000,6620172,488.33286,95595.375,15.0,1.1555402,0,1
2065164000,2065142666,6620172,488.15445,95597.4,15.0,1.1555647,0,1
2065216000,2065204000,6620172,488.19672,95596.94,15.0,1.1555591,0,1
2065288000,2065262666,6620172,488.38452,95594.81,15.0,1.1555334,0,1
2065360000,2065336000,6620172,488.53006,95593.125,15.0,1.1555129,0,1
2065432000,2065408000,6620172,488.44086,95594.15,15.0,1.1555253,0,1
2065504000,2065478666,6620172,488.56293,95592.75,15.0,1.1555084,0,1
2065576000,2065552000,6620172,488.4878,95593.62,15.0,1.1555189,0,1
2065648000,2065624000,6620172,488.5864,95592.49,15.0,1.1555054,0,1
2065720000,2065696000,6620172,488.577,95592.6,15.0,1.1555067,0,1
2065792000,2065768000,6620172,488.5958,95592.37,15.0,1.1555039,0,1
2065864000,2065840000,6620172,488.6944,95591.23,15.0,1.1554902,0,1
2065936000,2065912000,6620172,488.6756,95591.44,15.0,1.1554927,0,1
2066008000,2065984000,6620172,488.71317,95591.03,15.0,1.1554877,0,1
2066080000,2066056000,6620172,488.7695,95590.34,15.0,1.1554794,0,1
2066152000,2066126666,6620172,488.81177,95589.914,15.0,1.1554742,0,1
2066224000,2066200000,6620172,488.83994,95589.586,15.0,1.1554703,0,1
2066296000,2066272000,6620172,488.81647,95589.81,15.0,1.155473,0,1
2066368000,2066342666,6620172,488.80237,95590.0,15.0,1.1554753,0,1
2066440000,2066416000,6620172,488.7695,95590.37,15.0,1.1554798,0,1
2066512000,2066488000,6620172,488.7742,95590.29,15.0,1.1554788,0,1
2066584000,2066560000,6620172,488.81647,95589.81,15.0,1.155473,0,1
2066656000,2066630666,6620172,488.99957,95587.75,15.0,1.1554481,0,1
2066728000,2066704000,6620172,488.80237,95589.99,15.0,1.1554751,0,1
2066800000,2066776000,6620172,488.83054,95589.66,15.0,1.1554711,0,1
2066872000,2066846666,6620172,488.84464,95589.5,15.0,1.1554693,0,1
2066944000,2066920000,6620172,488.88687,95589.03,15.0,1.1554636,0,1
2067016000,2066990666,6620172,488.80707,95589.97,15.0,1.1554749,0,1
2067088000,2067064000,6620172,488.82584,95589.74,15.0,1.1554722,0,1
2067160000,2067134666,6620172,488.7883,95590.13,15.0,1.1554769,0,1
2067228000,2067206666,6620172,488.7883,95590.19,15.0,1.1554775,0,1
2067280000,2067268000,6620172,488.71786,95590.95,15.0,1.1554867,0,1
2067352000,2067328000,6620172,488.84933,95589.44,15.0,1.1554683,0,1
2067424000,2067400000,6620172,488.7695,95590.38,15.0,1.1554798,0,1
2067496000,2067472000,6620172,488.73663,95590.76,15.0,1.1554844,0,1
2067568000,2067542666,6620172,488.6709,95591.52,15.0,1.1554936,0,1
2067640000,2067616000,6620172,488.79297,95590.12,15.0,1.1554767,0,1
2067712000,2067686666,6620172,488.61926,95592.12,15.0,1.1555008,0,1
2067784000,2067760000,6620172,488.64273,95591.85,15.0,1.1554977,0,1
2067856000,2067832000,6620172,488.47842,95593.695,15.0,1.1555198,0,1
2067928000,2067904000,6620172,488.63803,95591.87,15.0,1.1554978,0,1
2068000000,2067976000,6620172,488.47842,95593.69,15.0,1.1555197,0,1
2068072000,2068046666,6620172,488.43616,95594.21,15.0,1.1555262,0,1
2068144000,2068118666,6620172,488.38922,95594.74,15.0,1.1555326,0,1
2068216000,2068192000,6620172,488.3986,95594.62,15.0,1.155531,0,1
2068288000,2068264000,6620172,488.34695,95595.19,15.0,1.155538,0,1
2068360000,2068336000,6620172,488.34225,95595.25,15.0,1.1555387,0,1
2068432000,2068408000,6620172,488.3094,95595.62,15.0,1.1555432,0,1
2068504000,2068480000,6620172,488.33755,95595.32,15.0,1.1555395,0,1
2068576000,2068550666,6620172,488.12158,95597.81,15.0,1.1555697,0,1
2068648000,2068624000,6620172,488.14038,95597.6,15.0,1.155567,0,1
2068716000,2068693333,6620172,488.1122,95597.9,15.0,1.1555707,0,1
2068768000,2068756000,6620172,488.18732,95597.055,15.0,1.1555605,0,1
2068840000,2068816000,6620172,488.12158,95597.81,15.0,1.1555697,0,1
2068912000,2068888000,6620172,488.13098,95597.71,15.0,1.1555685,0,1
2068984000,2068960000,6620172,488.1122,95597.914,15.0,1.1555709,0,1
2069056000,2069030666,6620172,488.1122,95597.9,15.0,1.1555707,0,1
2069128000,2069104000,6620172,488.18732,95597.055,15.0,1.1555605,0,1
2069200000,2069176000,6620172,488.12628,95597.75,15.0,1.155569,0,1
2069272000,2069248000,6620172,488.20142,95596.875,15.0,1.1555583,0,1
2069344000,2069320000,6620172,488.1169,95597.87,15.0,1.1555704,0,1
2069416000,2069392000,6620172,488.1169,95597.84,15.0,1.15557,0,1
2069488000,2069464000,6620172,488.07465,95598.34,15.0,1.1555761,0,1
2069560000,2069536000,6620172,488.16385,95597.336,15.0,1.155564,0,1
2069632000,2069608000,6620172,488.13568,95597.625,15.0,1.1555674,0,1
2069704000,2069680000,6620172,488.17325,95597.195,15.0,1.1555623,0,1
2069776000,2069752000,6620172,488.0981,95598.03,15.0,1.1555723,0,1
2069844000,2069822666,6620172,488.12628,95597.76,15.0,1.155569,0,1
2069896000,2069884000,6620172,488.13568,95597.66,15.0,1.1555678,0,1
2069964000,2069942666,6620172,488.12158,95597.77,15.0,1.1555692,0,1
2070016000,2070004000,6620172,488.0981,95598.05,15.0,1.1555725,0,1
2070088000,2070061333,6620172,488.06055,95598.46,15.0,1.1555775,0,1
2070160000,2070136000,6620172,488.1169,95597.836,15.0,1.1555699,0,1
2070232000,2070206666,6620172,488.07465,95598.336,15.0,1.155576,0,1
2070304000,2070280000,6620172,488.0934,95598.125,15.0,1.1555735,0,1
2070376000,2070352000,6620172,488.12158,95597.81,15.0,1.1555697,0,1
2070448000,2070424000,6620172,488.13098,95597.71,15.0,1.1555685,0,1
2070520000,2070496000,6620172,488.08405,95598.23,15.0,1.1555747,0,1
2070592000,2070566666,6620172,488.18262,95597.1,15.0,1.1555611,0,1
