timestamp,timestamp_sample,ref_timestamp,ref_lat,ref_lon,x,y,z,delta_xy[0],delta_xy[1],delta_z,vx,vy,vz,z_deriv,delta_vxy[0],delta_vxy[1],delta_vz,ax,ay,az,heading,heading_var,unaided_heading,delta_heading,tilt_var,ref_alt,dist_bottom,dist_bottom_var,delta_dist_bottom,eph,epv,evh,evv,vxy_max,vz_max,hagl_min,hagl_max_z,hagl_max_xy,xy_valid,z_valid,v_xy_valid,v_z_valid,xy_reset_counter,z_reset_counter,vxy_reset_counter,vz_reset_counter,heading_reset_counter,heading_good_for_control,xy_global,z_global,dist_bottom_valid,dist_bottom_reset_counter,dist_bottom_sensor_bitfield,dead_reckoning
2015916000,2015916000,66708000,47.398166100000005,8.5470148,-68.55163,-23.071337,-488.05646,86876.08,2880536.2,0.0,-0.029273855,0.01451278,0.013,0.0039435243,-0.0035367864,-0.0033599276,2.4400651e-05,0.011549741,0.059517533,0.043982636,1.7962373,0.0009646085,0.153761,0.04853219,6.853395e-05,0.0,0.1000061,0.010000001,0.0,0.49074927,0.2948874,0.17179716,0.0725559,inf,inf,inf,inf,inf,1,1,1,1,5,4,2,1,3,1,1,1,0,4,0,0
2015924000,2015924000,66708000,47.398166100000005,8.5470148,-68.55176,-23.071234,-488.0564,86876.08,2880536.2,0.0,-0.029025925,0.014651985,0.0134612415,0.00445233,-0.0035367864,-0.0033599276,2.4400651e-05,0.024293354,0.018112043,0.057817433,1.7961571,0.0009639814,0.1536822,0.04853219,6.855943e-05,0.0,0.1000061,0.010000001,0.0,0.4916314,0.29425138,0.17210256,0.07249458,inf,inf,inf,inf,inf,1,1,1,1,5,4,2,1,3,1,1,1,0,4,0,0
2015932000,2015932000,66708000,47.398166100000005,8.5470148,-68.55189,-23.071129,-488.0563,86876.08,2880536.2,0.0,-0.028944626,0.014755883,0.012452769,0.0034925481,-0.0035367864,-0.0033599276,2.4400651e-05,0.003671197,0.013660239,-0.12590782,1.7960619,0.0009640752,0.1535885,0.04853219,6.8611924e-05,0.0,0.1000061,0.010000001,0.0,0.49253407,0.29464963,0.17244938,0.072553486,inf,inf,inf,inf,inf,1,1,1,1,5,4,2,1,3,1,1,1,0,4,0,0
2015940000,2015940000,66708000,47.398166100000005,8.5470148,-68.552025,-23.07102,-488.05624,86876.08,2880536.2,0.0,-0.029034851,0.015329696,0.012660014,0.0037494595,-0.0035367864,-0.0033599276,2.4400651e-05,-0.01757015,0.072375454,0.026046297,1.7960016,0.0009641698,0.15352985,0.04853219,6.8664514e-05,0.0,0.1000061,0.010000001,0.0,0.49343997,0.29504853,0.17279679,0.07261235,inf,inf,inf,inf,inf,1,1,1,1,5,4,2,1,3,1,1,1,0,4,0,0
2015948000,2015948000,66708000,47.398166100000005,8.5470148,-68.55216,-23.070908,-488.05615,86876.08,2880536.2,0.0,-0.02916026,0.015219972,0.013740062,0.0048799855,-0.0035367864,-0.0033599276,2.4400651e-05,-0.02177414,-0.013100093,0.13513629,1.7960767,0.0009642637,0.1536065,0.04853219,6.87171e-05,0.0,0.1000061,0.010000001,0.0,0.49434903,0.29544806,0.17314376,0.07267118,inf,inf,inf,inf,inf,1,1,1,1,5,4,2,1,3,1,1,1,0,4,0,0
2015956000,2015956000,66708000,47.398166100000005,8.5470148,-68.55231,-23.0708,-488.05606,86876.08,2880536.2,0.0,-0.029501904,0.014976551,0.013709704,0.0049007665,-0.0035367864,-0.0033599276,2.4400651e-05,-0.04856872,-0.02963405,-0.0036740673,1.7960964,0.00096424704,0.1536282,0.04853219,6.876474e-05,0.0,0.1000061,0.010000001,0.0,0.49525875,0.29584822,0.17348476,0.07272997,inf,inf,inf,inf,inf,1,1,1,1,5,4,2,1,3,1,1,1,0,4,0,0
2015964000,2015964000,66708000,47.398166100000005,8.5470148,-68.55245,-23.070692,-488.05597,86876.08,2880536.2,0.0,-0.029493792,0.014948032,0.013372278,0.004615046,-0.0035367864,-0.0033599276,2.4400651e-05,-0.0046763686,-0.002810506,-0.04206737,1.7960644,0.0009643414,0.15359983,0.04853219,6.881742e-05,0.0,0.1000061,0.010000001,0.0,0.4961742,0.296249,0.17383493,0.07278872,inf,inf,inf,inf,inf,1,1,1,1,5,4,2,1,3,1,1,1,0,4,0,0
2015972000,2015972000,66708000,47.398166100000005,8.5470148,-68.552605,-23.070583,-488.05588,86876.08,2880536.2,0.0,-0.029936008,0.015227361,0.012680464,0.0039754407,-0.0035367864,-0.0033599276,2.4400651e-05,-0.060791343,0.035632174,-0.08637504,1.796081,0.0009644355,0.15362021,0.04853219,6.887012e-05,0.0,0.1000061,0.010000001,0.0,0.49709284,0.2966504,0.17418417,0.07284743,inf,inf,inf,inf,inf,1,1,1,1,5,4,2,1,3,1,1,1,0,4,0,0
2015980000,2015980000,66708000,47.398166100000005,8.5470148,-68.55276,-23.07047,-488.05582,86876.08,2880536.2,0.0,-0.030072503,0.014986685,0.012750727,0.0040983404,-0.0035367864,-0.0033599276,2.4400651e-05,-0.022399954,-0.029397331,0.008875503,1.7961193,0.0009645299,0.15366217,0.04853219,6.892288e-05,0.0,0.1000061,0.010000001,0.0,0.49801475,0.29705244,0.1745347,0.07290611,inf,inf,inf,inf,inf,1,1,1,1,5,4,2,1,3,1,1,1,0,4,0,0
2015988000,2015988000,66708000,47.398166100000005,8.5470148,-68.55292,-23.070362,-488.05573,86876.08,2880536.2,0.0,-0.030117335,0.01483009,0.01374017,0.0051406696,-0.0035367864,-0.0033599276,2.4400651e-05,-0.010779727,-0.018920932,0.12376438,1.7961917,0.0009646244,0.15373811,0.04853219,6.897567e-05,0.0,0.1000061,0.010000001,0.0,0.49893984,0.2974551,0.17488156,0.072964735,inf,inf,inf,inf,inf,1,1,1,1,5,4,2,1,3,1,1,1,0,4,0,0
2015996000,2015996000,66708000,47.398166100000005,8.5470148,-68.553085,-23.07025,-488.0556,86876.08,2880536.2,0.0,-0.030288132,0.014721775,0.013827468,0.005298621,-0.0035367864,-0.0033599276,2.4400651e-05,-0.026302109,-0.01335059,0.0106403595,1.796178,0.0009639979,0.15372774,0.04853219,6.900064e-05,0.0,0.1000061,0.010000001,0.0,0.49984843,0.29679614,0.17518397,0.07289913,inf,inf,inf,inf,inf,1,1,1,1,5,4,2,1,3,1,1,1,0,4,0,0
2016004000,2016004000,66708000,47.398166100000005,8.5470148,-68.553246,-23.070135,-488.05548,86876.08,2880536.2,0.0,-0.029986821,0.014891764,0.014100555,0.0056424295,-0.0035367864,-0.0033599276,2.4400651e-05,0.032876905,0.021414714,0.03386568,1.7962431,0.0009640919,0.15379712,0.04853219,6.905348e-05,0.0,0.1000061,0.010000001,0.0,0.5007797,0.29719862,0.17553484,0.07295776,inf,inf,inf,inf,inf,1,1,1,1,5,4,2,1,3,1,1,1,0,4,0,0
2016012000,2016012000,66708000,47.398166100000005,8.5470148,-68.553154,-23.070456,-488.05557,86876.08,2880536.2,0.0,-0.029390762,0.014909215,0.013600421,0.005032466,-0.0035367864,-0.0033599276,2.4400651e-05,0.052480415,0.030238636,-0.05774898,1.796319,0.0009639978,0.15387711,0.04853219,6.666411e-05,0.0,0.1000061,0.010000001,0.0,0.4588887,0.28362912,0.15898165,0.07069659,inf,inf,inf,inf,inf,1,1,1,1,5,4,2,1,3,1,1,1,0,4,0,0
2016020000,2016020000,66708000,47.398166100000005,8.5470148,-68.55306,-23.070766,-488.05563,86876.08,2880536.2,0.0,-0.02979471,0.0147587,0.013212725,0.004540777,-0.0035367864,-0.0033599276,2.4400651e-05,-0.071883984,0.008464654,-0.043837816,1.7963697,0.00096409203,0.15393361,0.04853219,6.671519e-05,0.0,0.1000061,0.010000001,0.0,0.45967168,0.2840087,0.1593153,0.07075675,inf,inf,inf,inf,inf,1,1,1,1,5,4,2,1,3,1,1,1,0,4,0,0
2016028000,2016028000,66708000,47.398166100000005,8.5470148,-68.55299,-23.071068,-488.0557,86876.08,2880536.2,0.0,-0.030229837,0.014145909,0.013095172,0.0043249344,-0.0035367864,-0.0033599276,2.4400651e-05,-0.075167,-0.050079856,-0.010209157,1.7964065,0.0009641863,0.15397641,0.04853219,6.676631e-05,0.0,0.1000061,0.010000001,0.0,0.46045762,0.28438893,0.15964854,0.07081687,inf,inf,inf,inf,inf,1,1,1,1,5,4,2,1,3,1,1,1,0,4,0,0
2016036000,2016036000,66708000,47.398166100000005,8.5470148,-68.552925,-23.071365,-488.05573,86876.08,2880536.2,0.0,-0.030321114,0.013186959,0.012447548,0.0035845703,-0.0035367864,-0.0033599276,2.4400651e-05,-0.03159245,-0.094093114,-0.07660361,1.7964973,0.00096428033,0.1540725,0.04853219,6.681745e-05,0.0,0.1000061,0.010000001,0.0,0.46124658,0.2847698,0.15998238,0.07087694,inf,inf,inf,inf,inf,1,1,1,1,5,4,2,1,3,1,1,1,0,4,0,0
2016044000,2016044000,66708000,47.398166100000005,8.5470148,-68.55287,-23.07166,-488.0558,86876.08,2880536.2,0.0,-0.030436058,0.012666579,0.0122838225,0.0033334987,-0.0035367864,-0.0033599276,2.4400651e-05,-0.033980925,-0.039982498,-0.016248317,1.7965491,0.00096437446,0.15412971,0.04853219,6.6868626e-05,0.0,0.1000061,0.010000001,0.0,0.46203852,0.28515127,0.16031738,0.07093697,inf,inf,inf,inf,inf,1,1,1,1,5,4,2,1,3,1,1,1,0,4,0,0
2016052000,2016052000,66708000,47.398166100000005,8.5470148,-68.55282,-23.071943,-488.05585,86876.08,2880536.2,0.0,-0.030081294,0.012664488,0.012416698,0.003384279,-0.0035367864,-0.0033599276,2.4400651e-05,0.025288995,0.024110386,0.020698642,1.7965977,0.00096446864,0.15418431,0.04853219,6.691984e-05,0.0,0.1000061,0.010000001,0.0,0.46283346,0.28553343,0.16065256,0.070996955,inf,inf,inf,inf,inf,1,1,1,1,5,4,2,1,3,1,1,1,0,4,0,0
2016060000,2016060000,66708000,47.398166100000005,8.5470148,-68.55278,-23.072218,-488.0559,86876.08,2880536.2,0.0,-0.030305997,0.012784166,0.012234784,0.003125373,-0.0035367864,-0.0033599276,2.4400651e-05,-0.046602003,0.038657647,-0.018774064,1.7966454,0.00096456334,0.15423748,0.04853219,6.697114e-05,0.0,0.1000061,0.010000001,0.0,0.4636314,0.2859162,0.16098768,0.07105691,inf,inf,inf,inf,inf,1,1,1,1,5,4,2,1,3,1,1,1,0,4,0,0
2016068000,2016068000,66708000,47.398166100000005,8.5470148,-68.55274,-23.072483,-488.05597,86876.08,2880536.2,0.0,-0.030641727,0.012470758,0.012224081,0.003024713,-0.0035367864,-0.0033599276,2.4400651e-05,-0.06065615,-0.016129188,0.0028819775,1.7967359,0.00096393307,0.15433356,0.04853219,6.699822e-05,0.0,0.1000061,0.010000001,0.0,0.46442106,0.28535593,0.16128695,0.07101026,inf,inf,inf,inf,inf,1,1,1,1,5,4,2,1,3,1,1,1,0,4,0,0
2016076000,2016076000,66708000,47.398166100000005,8.5470148,-68.55271,-23.07274,-488.05603,86876.08,2880536.2,0.0,-0.030626683,0.012400824,0.012534477,0.0032504506,-0.0035367864,-0.0033599276,2.4400651e-05,-0.016275218,0.013676184,0.04289159,1.7966361,0.0009640271,0.15423915,0.04853219,6.7049536e-05,0.0,0.1000061,0.010000001,0.0,0.4652249,0.28573874,0.16162106,0.0710702,inf,inf,inf,inf,inf,1,1,1,1,5,4,2,1,3,1,1,1,0,4,0,0
2016084000,2016084000,66708000,47.398166100000005,8.5470148,-68.55268,-23.072989,-488.05606,86876.08,2880536.2,0.0,-0.02973614,0.01252168,0.012629326,0.0032658463,-0.0035367864,-0.0033599276,2.4400651e-05,0.093675286,0.036909804,0.0158241,1.796731,0.0009641211,0.15433928,0.04853219,6.710089e-05,0.0,0.1000061,0.010000001,0.0,0.46603173,0.28612217,0.16196087,0.071130104,inf,inf,inf,inf,inf,1,1,1,1,5,4,2,1,3,1,1,1,0,4,0,0
2016092000,2016092000,66708000,47.398166100000005,8.5470148,-68.55266,-23.073227,-488.05612,86876.08,2880536.2,0.0,-0.02925402,0.012894559,0.012183934,0.0027461464,-0.0035367864,-0.0033599276,2.4400651e-05,0.043117832,0.067822054,-0.051826235,1.7967366,0.0009642156,0.15435037,0.04853219,6.7152316e-05,0.0,0.1000061,0.010000001,0.0,0.4668416,0.28650627,0.16229661,0.07118996,inf,inf,inf,inf,inf,1,1,1,1,5,4,2,1,3,1,1,1,0,4,0,0
2016100000,2016100000,66708000,47.398166100000005,8.5470148,-68.55264,-23.073452,-488.05615,86876.08,2880536.2,0.0,-0.030174151,0.013049092,0.0121097285,0.0026024536,-0.0035367864,-0.0033599276,2.4400651e-05,-0.13167678,0.039955445,-0.005545094,1.796723,0.0009643096,0.15434203,0.04853219,6.7203735e-05,0.0,0.1000061,0.010000001,0.0,0.46765453,0.28689098,0.16262943,0.07124977,inf,inf,inf,inf,inf,1,1,1,1,5,4,2,1,3,1,1,1,0,4,0,0
2016108000,2016108000,66708000,47.398166100000005,8.5470148,-68.552635,-23.073671,-488.0562,86876.08,2880536.2,0.0,-0.030119145,0.012996985,0.011763086,0.0021908598,-0.0035367864,-0.0033599276,2.4400651e-05,-0.009313285,0.013557165,-0.039713454,1.7966435,0.0009644042,0.15426776,0.04853219,6.725525e-05,0.0,0.1000061,0.010000001,0.0,0.46847048,0.28727633,0.16296658,0.07130954,inf,inf,inf,inf,inf,1,1,1,1,5,4,2,1,3,1,1,1,0,4,0,0
2016116000,2016116000,66708000,47.398166100000005,8.5470148,-68.552635,-23.073881,-488.05624,86876.08,2880536.2,0.0,-0.029644476,0.012867485,0.011522504,0.0018897675,-0.0035367864,-0.0033599276,2.4400651e-05,0.043597292,0.0033353441,-0.02656644,1.7967143,0.0009644984,0.15434358,0.04853219,6.730677e-05,0.0,0.1000061,0.010000001,0.0,0.46928948,0.28766233,0.16330555,0.07136926,inf,inf,inf,inf,inf,1,1,1,1,5,4,2,1,3,1,1,1,0,4,0,0
2016124000,2016124000,66708000,47.398166100000005,8.5470148,-68.552635,-23.074083,-488.0563,86876.08,2880536.2,0.0,-0.029523319,0.0133348,0.011574058,0.001885245,-0.0035367864,-0.0033599276,2.4400651e-05,-0.00014668966,0.077397265,0.009843613,1.7967359,0.0009645926,0.15437016,0.04853219,6.735832e-05,0.0,0.1000061,0.010000001,0.0,0.47011152,0.28804895,0.163646,0.07142895,inf,inf,inf,inf,inf,1,1,1,1,5,4,2,1,3,1,1,1,0,4,0,0
2016132000,2016132000,66708000,47.398166100000005,8.5470148,-68.55264,-23.074276,-488.05634,86876.08,2880536.2,0.0,-0.029811192,0.012945257,0.011939546,0.002199029,-0.0035367864,-0.0033599276,2.4400651e-05,-0.05084794,-0.030234594,0.048981044,1.7967123,0.00096468686,0.1543512,0.04853219,6.740992e-05,0.0,0.1000061,0.010000001,0.0,0.47093663,0.28843626,0.16398418,0.07148859,inf,inf,inf,inf,inf,1,1,1,1,5,4,2,1,3,1,1,1,0,4,0,0
2016140000,2016140000,66708000,47.398166100000005,8.5470148,-68.55265,-23.07446,-488.05634,86876.08,2880536.2,0.0,-0.030143894,0.013268895,0.012186927,0.0024107185,-0.0035367864,-0.0033599276,2.4400651e-05,-0.057428185,0.05805976,0.033861022,1.7967417,0.0009640573,0.15438566,0.04853219,6.743658e-05,0.0,0.1000061,0.010000001,0.0,0.4717519,0.2878554,0.1642827,0.07143787,inf,inf,inf,inf,inf,1,1,1,1,5,4,2,1,3,1,1,1,0,4,0,0
2016148000,2016148000,66708000,47.398166100000005,8.5470148,-68.55266,-23.074633,-488.05637,86876.08,2880536.2,0.0,-0.029652812,0.013364441,0.011520235,0.0017117282,-0.0035367864,-0.0033599276,2.4400651e-05,0.045998048,0.029067133,-0.080489084,1.7967632,0.00096415135,0.1544126,0.04853219,6.748823e-05,0.0,0.1000061,0.010000001,0.0,0.47258294,0.28824264,0.16462146,0.07149751,inf,inf,inf,inf,inf,1,1,1,1,5,4,2,1,3,1,1,1,0,4,0,0
2016156000,2016156000,66708000,47.398166100000005,8.5470148,-68.55268,-23.0748,-488.05637,86876.08,2880536.2,0.0,-0.029571371,0.013157439,0.01068278,0.0008452141,-0.0035367864,-0.0033599276,2.4400651e-05,-0.0038669852,-0.009510495,-0.101924405,1.7967378,0.000964135,0.15439257,0.04853219,6.753532e-05,0.0,0.1000061,0.010000001,0.0,0.47341526,0.28863052,0.16495425,0.071557105,inf,inf,inf,inf,inf,1,1,1,1,5,4,2,1,3,1,1,1,0,4,0,0
2016164000,2016164000,66708000,47.398166100000005,8.5470148,-68.552704,-23.07496,-488.0564,86876.08,2880536.2,0.0,-0.029895937,0.013210046,0.011023796,0.0011603272,-0.0035367864,-0.0033599276,2.4400651e-05,-0.05422327,0.02249959,0.045298595,1.7968477,0.0009642292,0.15450773,0.04853219,6.7587054e-05,0.0,0.1000061,0.010000001,0.0,0.47425243,0.28901905,0.16529632,0.07161666,inf,inf,inf,inf,inf,1,1,1,1,5,4,2,1,3,1,1,1,0,4,0,0
2016172000,2016172000,66708000,47.398166100000005,8.5470148,-68.55274,-23.075111,-488.05643,86876.08,2880536.2,0.0,-0.030607421,0.0133388415,0.010412758,0.00052654336,-0.0035367864,-0.0033599276,2.4400651e-05,-0.10220322,0.03159138,-0.073791474,1.7968762,0.0009643235,0.1545411,0.04853219,6.763884e-05,0.0,0.1000061,0.010000001,0.0,0.4750927,0.2894082,0.1656377,0.07167617,inf,inf,inf,inf,inf,1,1,1,1,5,4,2,1,3,1,1,1,0,4,0,0
2016180000,2016180000,66708000,47.398166100000005,8.5470148,-68.55279,-23.075262,-488.05643,86876.08,2880536.2,0.0,-0.030133596,0.012435899,0.01034932,0.0004434686,-0.0035367864,-0.0033599276,2.4400651e-05,0.04633536,-0.097792506,-0.005422625,1.7969003,0.00096441765,0.15456983,0.04853219,6.769064e-05,0.0,0.1000061,0.010000001,0.0,0.47593603,0.289798,0.16597843,0.071735635,inf,inf,inf,inf,inf,1,1,1,1,5,4,2,1,3,1,1,1,0,4,0,0
2016188000,2016188000,66708000,47.398166100000005,8.5470148,-68.552826,-23.075409,-488.05646,86876.08,2880536.2,0.0,-0.029234271,0.01239833,0.009542159,-0.0003802358,-0.0035367864,-0.0033599276,2.4400651e-05,0.09988555,0.009969329,-0.098467335,1.79685,0.00096451223,0.15452406,0.04853219,6.774252e-05,0.0,0.1000061,0.010000001,0.0,0.4767825,0.29018843,0.16632172,0.07179505,inf,inf,inf,inf,inf,1,1,1,1,5,4,2,1,3,1,1,1,0,4,0,0
2016196000,2016196000,66708000,47.398166100000005,8.5470148,-68.55287,-23.07555,-488.05646,86876.08,2880536.2,0.0,-0.02870177,0.012029735,0.0085211005,-0.0014147512,-0.0035367864,-0.0033599276,2.4400651e-05,0.05439458,-0.031807095,-0.12528104,1.7968265,0.0009646063,0.15450498,0.04853219,6.779439e-05,0.0,0.1000061,0.010000001,0.0,0.47763208,0.29057953,0.16666369,0.07185443,inf,inf,inf,inf,inf,1,1,1,1,5,4,2,1,3,1,1,1,0,4,0,0
2016204000,2016204000,66708000,47.398166100000005,8.5470148,-68.55291,-23.07569,-488.0565,86876.08,2880536.2,0.0,-0.028646817,0.011973994,0.0079697445,-0.0019765883,-0.0035367864,-0.0033599276,2.4400651e-05,-0.0049557127,0.0069108177,-0.06664264,1.7968436,0.000964701,0.15452632,0.04853219,6.784635e-05,0.0,0.1000061,0.010000001,0.0,0.47848472,0.29097122,0.16700536,0.07191378,inf,inf,inf,inf,inf,1,1,1,1,5,4,2,1,3,1,1,1,0,4,0,0
2016212000,2016212000,66708000,47.398166100000005,8.5470148,-68.55296,-23.075819,-488.05652,86876.08,2880536.2,0.0,-0.02843346,0.01191549,0.007503936,-0.0024569444,-0.0035367864,-0.0033599276,2.4400651e-05,0.015079264,0.0059956987,-0.05588587,1.796859,0.00096407416,0.15454575,0.04853219,6.787254e-05,0.0,0.1000061,0.010000001,0.0,0.4793259,0.29036906,0.16730975,0.071858935,inf,inf,inf,inf,inf,1,1,1,1,5,4,2,1,3,1,1,1,0,4,0,0
2016220000,2016220000,66708000,47.398166100000005,8.5470148,-68.55301,-23.075947,-488.05655,86876.08,2880536.2,0.0,-0.027988646,0.011274642,0.007949448,-0.0020229355,-0.0035367864,-0.0033599276,2.4400651e-05,0.044344302,-0.06716357,0.05795527,1.7969612,0.0009641684,0.15465221,0.04853219,6.7924535e-05,0.0,0.1000061,0.010000001,0.0,0.48018458,0.2907607,0.16765207,0.07191828,inf,inf,inf,inf,inf,1,1,1,1,5,4,2,1,3,1,1,1,0,4,0,0
2016228000,2016228000,66708000,47.398166100000005,8.5470148,-68.55306,-23.076075,-488.05658,86876.08,2880536.2,0.0,-0.027506357,0.01073441,0.008198922,-0.0017820712,-0.0035367864,-0.0033599276,2.4400651e-05,0.04934646,-0.054949492,0.033378597,1.79699,0.0009642627,0.15468559,0.04853219,6.797657e-05,0.0,0.1000061,0.010000001,0.0,0.48104638,0.29115295,0.16799389,0.07197758,inf,inf,inf,inf,inf,1,1,1,1,5,4,2,1,3,1,1,1,0,4,0,0
2016236000,2016236000,66708000,47.398166100000005,8.5470148,-68.55311,-23.0762,-488.0566,86876.08,2880536.2,0.0,-0.02755638,0.0101656495,0.0079851,-0.0020017666,-0.0035367864,-0.0033599276,2.4400651e-05,-0.01688019,-0.058859896,-0.024603212,1.7969711,0.00096435705,0.1546708,0.04853219,6.802865e-05,0.0,0.1000061,0.010000001,0.0,0.48191133,0.29154584,0.16833755,0.07203685,inf,inf,inf,inf,inf,1,1,1,1,5,4,2,1,3,1,1,1,0,4,0,0
2016244000,2016244000,66708000,47.398166100000005,8.5470148,-68.55317,-23.076324,-488.0566,86876.08,2880536.2,0.0,-0.026933039,0.010127476,0.0075785113,-0.0024115508,-0.0035367864,-0.0033599276,2.4400651e-05,0.067596056,0.0071285362,-0.04876684,1.7969898,0.0009644512,0.15469322,0.04853219,6.808075e-05,0.0,0.1000061,0.010000001,0.0,0.48277938,0.29193938,0.16868345,0.07209607,inf,inf,inf,inf,inf,1,1,1,1,5,4,2,1,3,1,1,1,0,4,0,0
2016252000,2016252000,66708000,47.398166100000005,8.5470148,-68.55322,-23.076437,-488.05664,86876.08,2880536.2,0.0,-0.026721232,0.011069331,0.0075396067,-0.0024510068,-0.0035367864,-0.0033599276,2.4400651e-05,0.016451182,0.12930138,-0.002871733,1.7970136,0.0009645458,0.15472111,0.04853219,6.8132926e-05,0.0,0.1000061,0.010000001,0.0,0.48365062,0.29233354,0.16902737,0.07215525,inf,inf,inf,inf,inf,1,1,1,1,5,4,2,1,3,1,1,1,0,4,0,0
2016260000,2016260000,66708000,47.398166100000005,8.5470148,-68.55328,-23.076542,-488.05667,86876.08,2880536.2,0.0,-0.02650297,0.011444316,0.007933284,-0.0020552825,-0.0035367864,-0.0033599276,2.4400651e-05,0.017549127,0.058117572,0.051137056,1.7970752,0.00096464006,0.1547862,0.04853219,6.818511e-05,0.0,0.1000061,0.010000001,0.0,0.484525,0.29272836,0.1693734,0.072214395,inf,inf,inf,inf,inf,1,1,1,1,5,4,2,1,3,1,1,1,0,4,0,0
2016268000,2016268000,66708000,47.398166100000005,8.5470148,-68.55334,-23.076637,-488.05667,86876.08,2880536.2,0.0,-0.025715245,0.011825633,0.008412936,-0.0015710084,-0.0035367864,-0.0033599276,2.4400651e-05,0.089017265,0.05859894,0.061821654,1.7971016,0.0009647343,0.15481636,0.04853219,6.823732e-05,0.0,0.1000061,0.010000001,0.0,0.4854025,0.29312378,0.1697197,0.07227349,inf,inf,inf,inf,inf,1,1,1,1,5,4,2,1,3,1,1,1,0,4,0,0
2016276000,2016276000,66708000,47.398166100000005,8.5470148,-68.5534,-23.076725,-488.05667,86876.08,2880536.2,0.0,-0.02564964,0.011725749,0.008492711,-0.0014841098,-0.0035367864,-0.0033599276,2.4400651e-05,-0.00096907746,-0.0018523168,0.011777039,1.7970215,0.00096482906,0.15473995,0.04853219,6.828962e-05,0.0,0.1000061,0.010000001,0.0,0.48628318,0.29351982,0.17006515,0.07233255,inf,inf,inf,inf,inf,1,1,1,1,5,4,2,1,3,1,1,1,0,4,0,0
2016284000,2016284000,66708000,47.398166100000005,8.5470148,-68.55347,-23.076815,-488.05667,86876.08,2880536.2,0.0,-0.026234224,0.010368758,0.007931547,-0.002026861,-0.0035367864,-0.0033599276,2.4400651e-05,-0.08193416,-0.15927155,-0.06859051,1.7968782,0.0009642033,0.15459976,0.04853219,6.8315356e-05,0.0,0.1000061,0.010000001,0.0,0.4871505,0.29289576,0.17036906,0.072273515,inf,inf,inf,inf,inf,1,1,1,1,5,4,2,1,3,1,1,1,0,4,0,0
2016292000,2016292000,66708000,47.398166100000005,8.5470148,-68.553535,-23.07691,-488.05667,86876.08,2880536.2,0.0,-0.026438644,0.009428862,0.0073694442,-0.0025686966,-0.0035367864,-0.0033599276,2.4400651e-05,-0.03415735,-0.107432246,-0.06875908,1.7968568,0.0009642977,0.15458176,0.04853219,6.836769e-05,0.0,0.1000061,0.010000001,0.0,0.48803726,0.2932917,0.17071408,0.07233258,inf,inf,inf,inf,inf,1,1,1,1,5,4,2,1,3,1,1,1,0,4,0,0
2016300000,2016300000,66708000,47.398166100000005,8.5470148,-68.55362,-23.077007,-488.05667,86876.08,2880536.2,0.0,-0.027516138,0.008649021,0.007646669,-0.0022693712,-0.0035367864,-0.0033599276,2.4400651e-05,-0.14304419,-0.087710746,0.036106907,1.7969329,0.00096439203,0.15466091,0.04853219,6.842007e-05,0.0,0.1000061,0.010000001,0.0,0.4889272,0.29368827,0.17106356,0.0723916,inf,inf,inf,inf,inf,1,1,1,1,5,4,2,1,3,1,1,1,0,4,0,0
2016308000,2016308000,66708000,47.398166100000005,8.5470148,-68.55371,-23.077106,-488.05667,86876.08,2880536.2,0.0,-0.027655283,0.008249044,0.007797592,-0.0020943973,-0.0035367864,-0.0033599276,2.4400651e-05,-0.025505604,-0.040505122,0.0202707,1.7969507,0.0009644862,0.15468094,0.04853219,6.847248e-05,0.0,0.1000061,0.010000001,0.0,0.4898203,0.29408547,0.17141378,0.07245058,inf,inf,inf,inf,inf,1,1,1,1,5,4,2,1,3,1,1,1,0,4,0,0
2016316000,2016316000,66708000,47.398166100000005,8.5470148,-68.5538,-23.077198,-488.05667,86876.08,2880536.2,0.0,-0.026906813,0.0086411815,0.008573427,-0.0012925767,-0.0035367864,-0.0033599276,2.4400651e-05,0.08568668,0.058237977,0.09833788,1.7969128,0.00096458045,0.15464601,0.04853219,6.852492e-05,0.0,0.1000061,0.010000001,0.0,0.4907166,0.2944833,0.17175965,0.07250951,inf,inf,inf,inf,inf,1,1,1,1,5,4,2,1,3,1,1,1,0,4,0,0
2016324000,2016324000,66708000,47.398166100000005,8.5470148,-68.553894,-23.077286,-488.05664,86876.08,2880536.2,0.0,-0.026746288,0.0085004,0.009356249,-0.0004818803,-0.0035367864,-0.0033599276,2.4400651e-05,0.012425481,-0.008646409,0.09916583,1.7969058,0.0009646747,0.1546416,0.04853219,6.85774e-05,0.0,0.1000061,0.010000001,0.0,0.4916161,0.29488176,0.17210935,0.07256841,inf,inf,inf,inf,inf,1,1,1,1,5,4,2,1,3,1,1,1,0,4,0,0
2016332000,2016332000,66708000,47.398166100000005,8.5470148,-68.55399,-23.077368,-488.0566,86876.08,2880536.2,0.0,-0.027374072,0.00885756,0.010604066,0.00079570734,-0.0035367864,-0.0033599276,2.4400651e-05,-0.08588534,0.05334023,0.15724543,1.7968887,0.000964769,0.15462694,0.04853219,6.8629924e-05,0.0,0.1000061,0.010000001,0.0,0.49251878,0.29528087,0.17245802,0.072627254,inf,inf,inf,inf,inf,1,1,1,1,5,4,2,1,3,1,1,1,0,4,0,0
2016340000,2016340000,66708000,47.398166100000005,8.5470148,-68.55409,-23.077446,-488.05658,86876.08,2880536.2,0.0,-0.02713252,0.0086456705,0.0107698785,0.0009932205,-0.0035367864,-0.0033599276,2.4400651e-05,0.02300079,-0.018037552,0.021951737,1.7969006,0.0009648635,0.15464088,0.04853219,6.868251e-05,0.0,0.1000061,0.010000001,0.0,0.49342465,0.29568058,0.17281042,0.07268607,inf,inf,inf,inf,inf,1,1,1,1,5,4,2,1,3,1,1,1,0,4,0,0
2016348000,2016348000,66708000,47.398166100000005,8.5470148,-68.5542,-23.077522,-488.05655,86876.08,2880536.2,0.0,-0.027753586,0.008321152,0.010860847,0.001116996,-0.0035367864,-0.0033599276,2.4400651e-05,-0.08461107,-0.032353915,0.012554227,1.7968967,0.00096495834,0.1546391,0.04853219,6.873515e-05,0.0,0.1000061,0.010000001,0.0,0.49433377,0.29608095,0.17316376,0.07274484,inf,inf,inf,inf,inf,1,1,1,1,5,4,2,1,3,1,1,1,0,4,0,0
2016356000,2016356000,66708000,47.398166100000005,8.5470148,-68.554306,-23.077599,-488.05652,86876.08,2880536.2,0.0,-0.027483972,0.007978017,0.010619118,0.00090138405,-0.0035367864,-0.0033599276,2.4400651e-05,0.02671508,-0.034755606,-0.028901732,1.7968479,0.0009642237,0.15459225,0.04853219,6.875541e-05,0.0,0.1000061,0.010000001,0.0,0.49522495,0.2954343,0.17346628,0.07268156,inf,inf,inf,inf,inf,1,1,1,1,5,4,2,1,3,1,1,1,0,4,0,0
2016364000,2016364000,66708000,47.398166100000005,8.5470148,-68.55442,-23.077671,-488.0565,86876.08,2880536.2,0.0,-0.02726255,0.008417778,0.010936559,0.0012465622,-0.0035367864,-0.0033599276,2.4400651e-05,0.020907601,0.06286709,0.04095025,1.7967882,0.00096431776,0.15453717,0.04853219,6.880806e-05,0.0,0.1000061,0.010000001,0.0,0.4961402,0.29583448,0.1738179,0.07274034,inf,inf,inf,inf,inf,1,1,1,1,5,4,2,1,3,1,1,1,0,4,0,0
2016372000,2016372000,66708000,47.398166100000005,8.5470148,-68.554535,-23.07774,-488.05643,86876.08,2880536.2,0.0,-0.027474165,0.007979289,0.011026821,0.0013661147,-0.0035367864,-0.0033599276,2.4400651e-05,-0.033017922,-0.047140382,0.012509524,1.7966267,0.0009644119,0.15437993,0.04853219,6.8860754e-05,0.0,0.1000061,0.010000001,0.0,0.49705872,0.2962353,0.17416647,0.072799064,inf,inf,inf,inf,inf,1,1,1,1,5,4,2,1,3,1,1,1,0,4,0,0
2016380000,2016380000,66708000,47.398166100000005,8.5470148,-68.55466,-23.077806,-488.0564,86876.08,2880536.2,0.0,-0.02801857,0.0077581094,0.011744728,0.0021147109,-0.0035367864,-0.0033599276,2.4400651e-05,-0.074420884,-0.020197785,0.09092315,1.7965738,0.00096450624,0.15433106,0.04853219,6.891349e-05,0.0,0.1000061,0.010000001,0.0,0.4979804,0.29663673,0.17451626,0.07285776,inf,inf,inf,inf,inf,1,1,1,1,5,4,2,1,3,1,1,1,0,4,0,0
2016388000,2016388000,66708000,47.398166100000005,8.5470148,-68.55478,-23.077873,-488.05634,86876.08,2880536.2,0.0,-0.028679078,0.00703627,0.011999665,0.0024016693,-0.0035367864,-0.0033599276,2.4400651e-05,-0.08873435,-0.08300412,0.03301119,1.796635,0.0009646004,0.15439615,0.04853219,6.8966256e-05,0.0,0.1000061,0.010000001,0.0,0.4989053,0.29703882,0.17486788,0.07291641,inf,inf,inf,inf,inf,1,1,1,1,5,4,2,1,3,1,1,1,0,4,0,0
2016396000,2016396000,66708000,47.398166100000005,8.5470148,-68.55492,-23.077942,-488.0563,86876.08,2880536.2,0.0,-0.028574025,0.006778094,0.011486792,0.0019221716,-0.0035367864,-0.0033599276,2.4400651e-05,0.0071482314,-0.025259664,-0.063004434,1.796641,0.0009646946,0.1544058,0.04853219,6.9019065e-05,0.0,0.1000061,0.010000001,0.0,0.49983346,0.2974415,0.17522123,0.07297503,inf,inf,inf,inf,inf,1,1,1,1,5,4,2,1,3,1,1,1,0,4,0,0
2016404000,2016404000,66708000,47.398166100000005,8.5470148,-68.555046,-23.078007,-488.05624,86876.08,2880536.2,0.0,-0.028465074,0.006901353,0.01082021,0.0012903142,-0.0035367864,-0.0033599276,2.4400651e-05,0.007820572,0.022203932,-0.082256265,1.7965488,0.0009647893,0.15431735,0.04853219,6.907195e-05,0.0,0.1000061,0.010000001,0.0,0.50076485,0.29784483,0.17557342,0.07303363,inf,inf,inf,inf,inf,1,1,1,1,5,4,2,1,3,1,1,1,0,4,0,0
2016412000,2016412000,66708000,47.398166100000005,8.5470148,-68.554955,-23.078127,-488.05637,86876.08,2880536.2,0.0,-0.028450033,0.0066688852,0.010243456,0.00060785585,-0.0035367864,-0.0033599276,2.4400651e-05,-0.018919533,-0.01728083,-0.06717676,1.7965934,0.0009646826,0.15436503,0.04853219,6.667779e-05,0.0,0.1000061,0.010000001,0.0,0.45887452,0.2841893,0.15901077,0.07075965,inf,inf,inf,inf,inf,1,1,1,1,5,4,2,1,3,1,1,1,0,4,0,0
2016420000,2016420000,66708000,47.398166100000005,8.5470148,-68.55487,-23.078245,-488.05646,86876.08,2880536.2,0.0,-0.028378956,0.006370704,0.010620774,0.0008857724,-0.0035367864,-0.0033599276,2.4400651e-05,-0.01132776,-0.025833996,0.051933803,1.7966119,0.0009647771,0.1543872,0.04853219,6.6728884e-05,0.0,0.1000061,0.010000001,0.0,0.45965752,0.28456962,0.15934254,0.07081978,inf,inf,inf,inf,inf,1,1,1,1,5,4,2,1,3,1,1,1,0,4,0,0
2016428000,2016428000,66708000,47.398166100000005,8.5470148,-68.554794,-23.078354,-488.05655,86876.08,2880536.2,0.0,-0.028550297,0.006851763,0.011135236,0.0012959549,-0.0035367864,-0.0033599276,2.4400651e-05,-0.041815467,0.070606165,0.069153026,1.7966164,0.00096414983,0.15439567,0.04853219,6.675621e-05,0.0,0.1000061,0.010000001,0.0,0.460433,0.2840201,0.15964164,0.07077531,inf,inf,inf,inf,inf,1,1,1,1,5,4,2,1,3,1,1,1,0,4,0,0
2016436000,2016436000,66708000,47.398166100000005,8.5470148,-68.55472,-23.078453,-488.05664,86876.08,2880536.2,0.0,-0.028475802,0.0074078324,0.011195519,0.0012582603,-0.0035367864,-0.0033599276,2.4400651e-05,-0.010511016,0.0796792,0.012234318,1.796655,0.0009642443,0.15443954,0.04853219,6.680738e-05,0.0,0.1000061,0.010000001,0.0,0.46122184,0.28440043,0.15997669,0.0708354,inf,inf,inf,inf,inf,1,1,1,1,5,4,2,1,3,1,1,1,0,4,0,0
2016444000,2016444000,66708000,47.398166100000005,8.5470148,-68.55466,-23.078545,-488.0567,86876.08,2880536.2,0.0,-0.02954765,0.007853837,0.011258677,0.0012296902,-0.0035367864,-0.0033599276,2.4400651e-05,-0.15325265,0.06562504,0.012451782,1.7967638,0.00096433825,0.1545535,0.04853219,6.685854e-05,0.0,0.1000061,0.010000001,0.0,0.46201366,0.28478143,0.16031252,0.07089544,inf,inf,inf,inf,inf,1,1,1,1,5,4,2,1,3,1,1,1,0,4,0,0
2016452000,2016452000,66708000,47.398166100000005,8.5470148,-68.55461,-23.07863,-488.0568,86876.08,2880536.2,0.0,-0.03007969,0.007798383,0.011189066,0.0010744391,-0.0035367864,-0.0033599276,2.4400651e-05,-0.08523252,0.0026547539,-0.004281755,1.7967991,0.0009644326,0.15459403,0.04853219,6.690977e-05,0.0,0.1000061,0.010000001,0.0,0.4628085,0.28516304,0.16064514,0.070955455,inf,inf,inf,inf,inf,1,1,1,1,5,4,2,1,3,1,1,1,0,4,0,0
2016460000,2016460000,66708000,47.398166100000005,8.5470148,-68.55457,-23.07871,-488.05685,86876.08,2880536.2,0.0,-0.029886369,0.008217934,0.011214397,0.0010199691,-0.0035367864,-0.0033599276,2.4400651e-05,0.0059749116,0.061756063,0.007451977,1.7968123,0.0009645264,0.15461263,0.04853219,6.6961e-05,0.0,0.1000061,0.010000001,0.0,0.46360633,0.28554532,0.16097932,0.071015425,inf,inf,inf,inf,inf,1,1,1,1,5,4,2,1,3,1,1,1,0,4,0,0
2016468000,2016468000,66708000,47.398166100000005,8.5470148,-68.55454,-23.078783,-488.05692,86876.08,2880536.2,0.0,-0.029792242,0.008868574,0.010364231,9.553676e-05,-0.0035367864,-0.0033599276,2.4400651e-05,-0.0059011523,0.090375826,-0.102115326,1.7968297,0.0009646208,0.15463516,0.04853219,6.7012304e-05,0.0,0.1000061,0.010000001,0.0,0.46440718,0.2859282,0.16131233,0.07107537,inf,inf,inf,inf,inf,1,1,1,1,5,4,2,1,3,1,1,1,0,4,0,0
2016476000,2016476000,66708000,47.398166100000005,8.5470148,-68.55452,-23.078846,-488.057,86876.08,2880536.2,0.0,-0.029929522,0.00918164,0.010612534,0.00027473373,-0.0035367864,-0.0033599276,2.4400651e-05,-0.034324564,0.047919504,0.035067085,1.7968044,0.0009647148,0.15461525,0.04853219,6.706362e-05,0.0,0.1000061,0.010000001,0.0,0.465211,0.28631175,0.16164526,0.07113526,inf,inf,inf,inf,inf,1,1,1,1,5,4,2,1,3,1,1,1,0,4,0,0
2016484000,2016484000,66708000,47.398166100000005,8.5470148,-68.5545,-23.078905,-488.05707,86876.08,2880536.2,0.0,-0.029560307,0.00934505,0.010219703,-0.00018247109,-0.0035367864,-0.0033599276,2.4400651e-05,0.029467618,0.028951578,-0.04519708,1.7967445,0.00096480927,0.1545603,0.04853219,6.711501e-05,0.0,0.1000061,0.010000001,0.0,0.46601787,0.28669593,0.16197644,0.07119512,inf,inf,inf,inf,inf,1,1,1,1,5,4,2,1,3,1,1,1,0,4,0,0
2016492000,2016492000,66708000,47.398166100000005,8.5470148,-68.55448,-23.078959,-488.05713,86876.08,2880536.2,0.0,-0.028964141,0.009310025,0.010416921,-4.4247892e-05,-0.0035367864,-0.0033599276,2.4400651e-05,0.058310967,0.0038916057,0.028439796,1.796727,0.00096490356,0.15454778,0.04853219,6.7166424e-05,0.0,0.1000061,0.010000001,0.0,0.46682778,0.28708076,0.16231251,0.071254924,inf,inf,inf,inf,inf,1,1,1,1,5,4,2,1,3,1,1,1,0,4,0,0
2016500000,2016500000,66708000,47.398166100000005,8.5470148,-68.554474,-23.079012,-488.05716,86876.08,2880536.2,0.0,-0.029135657,0.009077758,0.010322812,-0.0001723369,-0.0035367864,-0.0033599276,2.4400651e-05,-0.037160102,-0.02070505,-0.008497386,1.7967938,0.00096427574,0.15461919,0.04853219,6.7193345e-05,0.0,0.1000061,0.010000001,0.0,0.4676287,0.28651097,0.16261296,0.07120642,inf,inf,inf,inf,inf,1,1,1,1,5,4,2,1,3,1,1,1,0,4,0,0
2016508000,2016508000,66708000,47.398166100000005,8.5470148,-68.55447,-23.079062,-488.0572,86876.08,2880536.2,0.0,-0.028257538,0.009416137,0.009484835,-0.0010399974,-0.0035367864,-0.0033599276,2.4400651e-05,0.094490394,0.05038057,-0.10158168,1.796775,0.00096436986,0.15460464,0.04853219,6.724482e-05,0.0,0.1000061,0.010000001,0.0,0.46844447,0.28689578,0.16295119,0.07126622,inf,inf,inf,inf,inf,1,1,1,1,5,4,2,1,3,1,1,1,0,4,0,0
2016516000,2016516000,66708000,47.398166100000005,8.5470148,-68.55446,-23.07911,-488.05722,86876.08,2880536.2,0.0,-0.027605632,0.00912224,0.008974785,-0.0015755903,-0.0035367864,-0.0033599276,2.4400651e-05,0.06664937,-0.028900193,-0.0606887,1.7966679,0.0009644642,0.15450141,0.04853219,6.729635e-05,0.0,0.1000061,0.010000001,0.0,0.46926332,0.28728124,0.16328785,0.07132598,inf,inf,inf,inf,inf,1,1,1,1,5,4,2,1,3,1,1,1,0,4,0,0
2016524000,2016524000,66708000,47.398166100000005,8.5470148,-68.55445,-23.079151,-488.05725,86876.08,2880536.2,0.0,-0.027692325,0.009576161,0.008302111,-0.0022698585,-0.0035367864,-0.0033599276,2.4400651e-05,-0.02525049,0.06434073,-0.08111167,1.796703,0.0009645586,0.15453991,0.04853219,6.7347915e-05,0.0,0.1000061,0.010000001,0.0,0.4700852,0.28766733,0.16362534,0.07138569,inf,inf,inf,inf,inf,1,1,1,1,5,4,2,1,3,1,1,1,0,4,0,0
2016532000,2016532000,66708000,47.398166100000005,8.5470148,-68.55445,-23.079185,-488.0573,86876.08,2880536.2,0.0,-0.026690988,0.0099852,0.0077342587,-0.0028555947,-0.0035367864,-0.0033599276,2.4400651e-05,0.1111683,0.05849984,-0.06810109,1.7966933,0.00096465275,0.15453371,0.04853219,6.7399495e-05,0.0,0.1000061,0.010000001,0.0,0.47091016,0.28805408,0.16396073,0.07144536,inf,inf,inf,inf,inf,1,1,1,1,5,4,2,1,3,1,1,1,0,4,0,0
2016540000,2016540000,66708000,47.398166100000005,8.5470148,-68.55445,-23.079212,-488.05734,86876.08,2880536.2,0.0,-0.027140658,0.010752352,0.007656577,-0.0029477016,-0.0035367864,-0.0033599276,2.4400651e-05,-0.06980625,0.1030394,-0.0069192606,1.7967273,0.0009647472,0.15457126,0.04853219,6.745113e-05,0.0,0.1000061,0.010000001,0.0,0.47173813,0.28844145,0.16429812,0.07150498,inf,inf,inf,inf,inf,1,1,1,1,5,4,2,1,3,1,1,1,0,4,0,0
2016548000,2016548000,66708000,47.398166100000005,8.5470148,-68.55447,-23.079235,-488.05737,86876.08,2880536.2,0.0,-0.027537685,0.010391341,0.0070838975,-0.0035314336,-0.0035367864,-0.0033599276,2.4400651e-05,-0.06283591,-0.038196944,-0.06888108,1.7967912,0.0009648414,0.15463826,0.04853219,6.750279e-05,0.0,0.1000061,0.010000001,0.0,0.4725692,0.28882948,0.16463935,0.07156457,inf,inf,inf,inf,inf,1,1,1,1,5,4,2,1,3,1,1,1,0,4,0,0
2016556000,2016556000,66708000,47.398166100000005,8.5470148,-68.55448,-23.079254,-488.05743,86876.08,2880536.2,0.0,-0.027310705,0.010443259,0.00561481,-0.005008168,-0.0035367864,-0.0033599276,2.4400651e-05,0.015096011,0.013135785,-0.18101604,1.7968308,0.0009648251,0.15468106,0.04853219,6.754993e-05,0.0,0.1000061,0.010000001,0.0,0.47340152,0.28921813,0.16497555,0.071624115,inf,inf,inf,inf,inf,1,1,1,1,5,4,2,1,3,1,1,1,0,4,0,0
2016564000,2016564000,66708000,47.398166100000005,8.5470148,-68.5545,-23.079271,-488.05746,86876.08,2880536.2,0.0,-0.027175616,0.01017087,0.0056172246,-0.0050099576,-0.0035367864,-0.0033599276,2.4400651e-05,0.0039889896,-0.027595133,0.0028396023,1.7968143,0.00096491934,0.15466735,0.04853219,6.7601664e-05,0.0,0.1000061,0.010000001,0.0,0.47423872,0.28960744,0.16531761,0.071683615,inf,inf,inf,inf,inf,1,1,1,1,5,4,2,1,3,1,1,1,0,4,0,0
2016572000,2016572000,66708000,47.398166100000005,8.5470148,-68.55452,-23.079287,-488.05753,86876.08,2880536.2,0.0,-0.026928457,0.01029916,0.005604723,-0.005024319,-0.0035367864,-0.0033599276,2.4400651e-05,0.018494362,0.022223258,0.0009192153,1.7967939,0.00096429227,0.15464947,0.04853219,6.762813e-05,0.0,0.1000061,0.010000001,0.0,0.47506535,0.28901675,0.16561905,0.07163102,inf,inf,inf,inf,inf,1,1,1,1,5,4,2,1,3,1,1,1,0,4,0,0
2016580000,2016580000,66708000,47.398166100000005,8.5470148,-68.55455,-23.079296,-488.05756,86876.08,2880536.2,0.0,-0.02732728,0.01046537,0.0062639797,-0.004363787,-0.0035367864,-0.0033599276,2.4400651e-05,-0.061901093,0.026782034,0.08481088,1.7967501,0.00096438656,0.15460822,0.04853219,6.767994e-05,0.0,0.1000061,0.010000001,0.0,0.47590855,0.289406,0.16595761,0.07169053,inf,inf,inf,inf,inf,1,1,1,1,5,4,2,1,3,1,1,1,0,4,0,0
2016588000,2016588000,66708000,47.398166100000005,8.5470148,-68.55459,-23.079308,-488.0576,86876.08,2880536.2,0.0,-0.027757192,0.009581837,0.0065142903,-0.0041092583,-0.0035367864,-0.0033599276,2.4400651e-05,-0.06544952,-0.10462311,0.03361655,1.7967329,0.0009644809,0.15459356,0.04853219,6.773179e-05,0.0,0.1000061,0.010000001,0.0,0.4767548,0.28979585,0.16629848,0.07174999,inf,inf,inf,inf,inf,1,1,1,1,5,4,2,1,3,1,1,1,0,4,0,0
2016596000,2016596000,66708000,47.398166100000005,8.5470148,-68.55463,-23.07932,-488.05762,86876.08,2880536.2,0.0,-0.0274109,0.009227621,0.0071653035,-0.0034512142,-0.0035367864,-0.0033599276,2.4400651e-05,0.031910498,-0.03863916,0.0836309,1.796654,0.0009645753,0.15451679,0.04853219,6.778367e-05,0.0,0.1000061,0.010000001,0.0,0.4776042,0.29018638,0.16663896,0.07180942,inf,inf,inf,inf,inf,1,1,1,1,5,4,2,1,3,1,1,1,0,4,0,0
2016604000,2016604000,66708000,47.398166100000005,8.5470148,-68.55467,-23.079334,-488.05765,86876.08,2880536.2,0.0,-0.026748726,0.008877649,0.0072657773,-0.0033410043,-0.0035367864,-0.0033599276,2.4400651e-05,0.07171875,-0.03828459,0.014741904,1.796653,0.00096466934,0.15451798,0.04853219,6.783558e-05,0.0,0.1000061,0.010000001,0.0,0.47845668,0.29057753,0.16698065,0.0718688,inf,inf,inf,inf,inf,1,1,1,1,5,4,2,1,3,1,1,1,0,4,0,0
2016612000,2016612000,66708000,47.398166100000005,8.5470148,-68.55472,-23.079348,-488.05765,86876.08,2880536.2,0.0,-0.026324175,0.008403305,0.0066060005,-0.00398844,-0.0035367864,-0.0033599276,2.4400651e-05,0.04233654,-0.053997286,-0.08035916,1.7966663,0.0009647636,0.15453348,0.04853219,6.788754e-05,0.0,0.1000061,0.010000001,0.0,0.47931227,0.2909693,0.16732298,0.071928136,inf,inf,inf,inf,inf,1,1,1,1,5,4,2,1,3,1,1,1,0,4,0,0
2016620000,2016620000,66708000,47.398166100000005,8.5470148,-68.55476,-23.079361,-488.05768,86876.08,2880536.2,0.0,-0.02650511,0.007994739,0.006402368,-0.004177124,-0.0035367864,-0.0033599276,2.4400651e-05,-0.033031937,-0.045938477,-0.023408791,1.7965647,0.0009648583,0.15443358,0.04853219,6.7939574e-05,0.0,0.1000061,0.010000001,0.0,0.480171,0.29136172,0.167669,0.07198744,inf,inf,inf,inf,inf,1,1,1,1,5,4,2,1,3,1,1,1,0,4,0,0
2016628000,2016628000,66708000,47.398166100000005,8.5470148,-68.55481,-23.079374,-488.0577,86876.08,2880536.2,0.0,-0.02634353,0.008517578,0.006618174,-0.0039437874,-0.0035367864,-0.0033599276,2.4400651e-05,0.01008156,0.07032072,0.028955283,1.7966071,0.00096495246,0.15447709,0.04853219,6.7991605e-05,0.0,0.1000061,0.010000001,0.0,0.48103285,0.29175478,0.16801108,0.072046705,inf,inf,inf,inf,inf,1,1,1,1,5,4,2,1,3,1,1,1,0,4,0,0
2016636000,2016636000,66708000,47.398166100000005,8.5470148,-68.55487,-23.079378,-488.0577,86876.08,2880536.2,0.0,-0.027248863,0.009228977,0.006385385,-0.0041565476,-0.0035367864,-0.0033599276,2.4400651e-05,-0.12298831,0.09372799,-0.027182976,1.7966195,0.00096504675,0.15449092,0.04853219,6.8043686e-05,0.0,0.1000061,0.010000001,0.0,0.4818978,0.29214847,0.16835636,0.072105914,inf,inf,inf,inf,inf,1,1,1,1,5,4,2,1,3,1,1,1,0,4,0,0
2016644000,2016644000,66708000,47.398166100000005,8.5470148,-68.55494,-23.079372,-488.05774,86876.08,2880536.2,0.0,-0.027677048,0.009534721,0.0065874415,-0.0039419625,-0.0035367864,-0.0033599276,2.4400651e-05,-0.06314182,0.042393044,0.027313361,1.7965415,0.0009644209,0.15441462,0.04853219,6.806966e-05,0.0,0.1000061,0.010000001,0.0,0.48275048,0.2915362,0.16866064,0.07204917,inf,inf,inf,inf,inf,1,1,1,1,5,4,2,1,3,1,1,1,0,4,0,0
2016652000,2016652000,66708000,47.398166100000005,8.5470148,-68.55501,-23.079363,-488.05774,86876.08,2880536.2,0.0,-0.027243491,0.009431102,0.006923951,-0.0035902504,-0.0035367864,-0.0033599276,2.4400651e-05,0.044861566,-0.008911809,0.044053882,1.796565,0.000964515,0.15444025,0.04853219,6.81218e-05,0.0,0.1000061,0.010000001,0.0,0.4836215,0.2919298,0.169005,0.07210838,inf,inf,inf,inf,inf,1,1,1,1,5,4,2,1,3,1,1,1,0,4,0,0
2016660000,2016660000,66708000,47.398166100000005,8.5470148,-68.555084,-23.079355,-488.05777,86876.08,2880536.2,0.0,-0.02696721,0.008419533,0.0064537427,-0.0040425668,-0.0035367864,-0.0033599276,2.4400651e-05,0.025475064,-0.12253963,-0.056850255,1.7966298,0.00096460903,0.15450725,0.04853219,6.817396e-05,0.0,0.1000061,0.010000001,0.0,0.48449567,0.29232404,0.16935344,0.07216755,inf,inf,inf,inf,inf,1,1,1,1,5,4,2,1,3,1,1,1,0,4,0,0
2016668000,2016668000,66708000,47.398166100000005,8.5470148,-68.55515,-23.079353,-488.05777,86876.08,2880536.2,0.0,-0.02646845,0.007976646,0.0065716314,-0.0039050053,-0.0035367864,-0.0033599276,2.4400651e-05,0.053549606,-0.051585574,0.016599426,1.7966532,0.0009647032,0.15453276,0.04853219,6.822618e-05,0.0,0.1000061,0.010000001,0.0,0.48537302,0.2927189,0.16970082,0.07222668,inf,inf,inf,inf,inf,1,1,1,1,5,4,2,1,3,1,1,1,0,4,0,0
2016676000,2016676000,66708000,47.398166100000005,8.5470148,-68.55523,-23.07935,-488.0578,86876.08,2880536.2,0.0,-0.026530737,0.0078928005,0.006124888,-0.004330217,-0.0035367864,-0.0033599276,2.4400651e-05,-0.016313955,-0.006825763,-0.05403999,1.7965991,0.0009647977,0.15448043,0.04853219,6.8278445e-05,0.0,0.1000061,0.010000001,0.0,0.48625353,0.29311436,0.1700488,0.07228577,inf,inf,inf,inf,inf,1,1,1,1,5,4,2,1,3,1,1,1,0,4,0,0
2016684000,2016684000,66708000,47.398166100000005,8.5470148,-68.55531,-23.079344,-488.0578,86876.08,2880536.2,0.0,-0.026071582,0.008069777,0.006213896,-0.0042177364,-0.0035367864,-0.0033599276,2.4400651e-05,0.049117938,0.02565661,0.012869946,1.7965238,0.0009648919,0.154407,0.04853219,6.8330744e-05,0.0,0.1000061,0.010000001,0.0,0.4871372,0.2935105,0.1703976,0.07234483,inf,inf,inf,inf,inf,1,1,1,1,5,4,2,1,3,1,1,1,0,4,0,0
2016692000,2016692000,66708000,47.398166100000005,8.5470148,-68.55539,-23.079336,-488.05783,86876.08,2880536.2,0.0,-0.026085794,0.0077147447,0.0066256747,-0.0037805405,-0.0035367864,-0.0033599276,2.4400651e-05,-0.009805826,-0.040967688,0.053159423,1.7964817,0.00096498645,0.15436658,0.04853219,6.8383095e-05,0.0,0.1000061,0.010000001,0.0,0.48802406,0.29390725,0.17074394,0.07240385,inf,inf,inf,inf,inf,1,1,1,1,5,4,2,1,3,1,1,1,0,4,0,0
2016700000,2016700000,66708000,47.398166100000005,8.5470148,-68.55547,-23.07933,-488.05783,86876.08,2880536.2,0.0,-0.02610371,0.0074593853,0.007090382,-0.0032884686,-0.0035367864,-0.0033599276,2.4400651e-05,-0.010028263,-0.028624007,0.059720125,1.7964457,0.00096508104,0.15433249,0.04853219,6.843549e-05,0.0,0.1000061,0.010000001,0.0,0.48891404,0.29430464,0.1710925,0.07246281,inf,inf,inf,inf,inf,1,1,1,1,5,4,2,1,3,1,1,1,0,4,0,0
2016708000,2016708000,66708000,47.398166100000005,8.5470148,-68.55556,-23.079323,-488.05783,86876.08,2880536.2,0.0,-0.025549967,0.0076726926,0.007630599,-0.0027187578,-0.0035367864,-0.0033599276,2.4400651e-05,0.06166694,0.029846696,0.06910506,1.7964242,0.0009651753,0.15431246,0.04853219,6.8487905e-05,0.0,0.1000061,0.010000001,0.0,0.48980725,0.29470265,0.17144541,0.07252174,inf,inf,inf,inf,inf,1,1,1,1,5,4,2,1,3,1,1,1,0,4,0,0
2016716000,2016716000,66708000,47.398166100000005,8.5470148,-68.55565,-23.079311,-488.05783,86876.08,2880536.2,0.0,-0.023919873,0.007117417,0.007813781,-0.0025256693,-0.0035367864,-0.0033599276,2.4400651e-05,0.1970147,-0.06665093,0.024850944,1.7963148,0.0009645509,0.15420482,0.04853219,6.851343e-05,0.0,0.1000061,0.010000001,0.0,0.49068627,0.2940682,0.17175184,0.07246077,inf,inf,inf,inf,inf,1,1,1,1,5,4,2,1,3,1,1,1,0,4,0,0
2016724000,2016724000,66708000,47.398166100000005,8.5470148,-68.555725,-23.0793,-488.05786,86876.08,2880536.2,0.0,-0.023355134,0.007354375,0.008461686,-0.0018658977,-0.0035367864,-0.0033599276,2.4400651e-05,0.06404213,0.032281697,0.08287839,1.7961797,0.00096464553,0.1540719,0.04853219,6.856594e-05,0.0,0.1000061,0.010000001,0.0,0.4915856,0.29446605,0.17209984,0.072519705,inf,inf,inf,inf,inf,1,1,1,1,5,4,2,1,3,1,1,1,0,4,0,0
2016732000,2016732000,66708000,47.398166100000005,8.5470148,-68.5558,-23.07928,-488.05786,86876.08,2880536.2,0.0,-0.022866353,0.008344556,0.0087831495,-0.0015307682,-0.0035367864,-0.0033599276,2.4400651e-05,0.054754853,0.12633449,0.042011958,1.7960516,0.00096474,0.15394637,0.04853219,6.861847e-05,0.0,0.1000061,0.010000001,0.0,0.49248818,0.29486457,0.1724452,0.072578594,inf,inf,inf,inf,inf,1,1,1,1,5,4,2,1,3,1,1,1,0,4,0,0
2016740000,2016740000,66708000,47.398166100000005,8.5470148,-68.555885,-23.079258,-488.05786,86876.08,2880536.2,0.0,-0.023311097,0.008044058,0.009117915,-0.0011797482,-0.0035367864,-0.0033599276,2.4400651e-05,-0.06172588,-0.035090137,0.04361523,1.7959889,0.0009648345,0.15388569,0.04853219,6.867104e-05,0.0,0.1000061,0.010000001,0.0,0.4933939,0.29526368,0.17279235,0.07263743,inf,inf,inf,inf,inf,1,1,1,1,5,4,2,1,3,1,1,1,0,4,0,0
2016748000,2016748000,66708000,47.398166100000005,8.5470148,-68.55598,-23.079235,-488.05783,86876.08,2880536.2,0.0,-0.023424946,0.008028199,0.009787515,-0.00049152074,-0.0035367864,-0.0033599276,2.4400651e-05,-0.0201753,0.0004051703,0.085411586,1.7960274,0.00096492877,0.15392634,0.04853219,6.8723646e-05,0.0,0.1000061,0.010000001,0.0,0.4943028,0.29566345,0.173139,0.07269624,inf,inf,inf,inf,inf,1,1,1,1,5,4,2,1,3,1,1,1,0,4,0,0
2016756000,2016756000,66708000,47.398166100000005,8.5470148,-68.55607,-23.079214,-488.05783,86876.08,2880536.2,0.0,-0.02392609,0.007463251,0.009472479,-0.0007857431,-0.0035367864,-0.0033599276,2.4400651e-05,-0.06852533,-0.068092994,-0.037723683,1.7960489,0.0009649122,0.15394971,0.04853219,6.87713e-05,0.0,0.1000061,0.010000001,0.0,0.49521232,0.29606384,0.17348155,0.072755,inf,inf,inf,inf,inf,1,1,1,1,5,4,2,1,3,1,1,1,0,4,0,0
2016764000,2016764000,66708000,47.398166100000005,8.5470148,-68.55616,-23.079193,-488.05783,86876.08,2880536.2,0.0,-0.023775283,0.0075565577,0.008892765,-0.0013424726,-0.0035367864,-0.0033599276,2.4400651e-05,0.013153206,0.014092421,-0.070862934,1.7960026,0.0009650064,0.15390608,0.04853219,6.8823974e-05,0.0,0.1000061,0.010000001,0.0,0.4961276,0.29646486,0.17383416,0.07281372,inf,inf,inf,inf,inf,1,1,1,1,5,4,2,1,3,1,1,1,0,4,0,0
2016772000,2016772000,66708000,47.398166100000005,8.5470148,-68.55626,-23.07917,-488.0578,86876.08,2880536.2,0.0,-0.023596259,0.0077152103,0.009261437,-0.0009486211,-0.0035367864,-0.0033599276,2.4400651e-05,0.016856266,0.022163482,0.04763249,1.7960621,0.0009651007,0.15396807,0.04853219,6.8876674e-05,0.0,0.1000061,0.010000001,0.0,0.4970461,0.2968665,0.17418496,0.07287241,inf,inf,inf,inf,inf,1,1,1,1,5,4,2,1,3,1,1,1,0,4,0,0
2016780000,2016780000,66708000,47.398166100000005,8.5470148,-68.55636,-23.07914,-488.0578,86876.08,2880536.2,0.0,-0.023367787,0.008053009,0.008643796,-0.0015389754,-0.0035367864,-0.0033599276,2.4400651e-05,0.023085637,0.0438283,-0.075708136,1.7960714,0.0009644777,0.15397999,0.04853219,6.8901776e-05,0.0,0.1000061,0.010000001,0.0,0.49794865,0.29726875,0.17449212,0.072931066,inf,inf,inf,inf,inf,1,1,1,1,5,4,2,1,3,1,1,1,0,4,0,0
2016788000,2016788000,66708000,47.398166100000005,8.5470148,-68.55646,-23.079103,-488.05777,86876.08,2880536.2,0.0,-0.023789814,0.008100806,0.008601846,-0.0015536024,-0.0035367864,-0.0033599276,2.4400651e-05,-0.058044065,0.007512682,-0.00374997,1.7961173,0.0009645721,0.1540303,0.04853219,6.895455e-05,0.0,0.1000061,0.010000001,0.0,0.49887335,0.2966114,0.17484325,0.07286584,inf,inf,inf,inf,inf,1,1,1,1,5,4,2,1,3,1,1,1,0,4,0,0
2016796000,2016796000,66708000,47.398166100000005,8.5470148,-68.556564,-23.079071,-488.05777,86876.08,2880536.2,0.0,-0.024048993,0.007123101,0.008418212,-0.0017078955,-0.0035367864,-0.0033599276,2.4400651e-05,-0.037505887,-0.12073895,-0.02151029,1.7961342,0.0009646662,0.15405104,0.04853219,6.900735e-05,0.0,0.1000061,0.010000001,0.0,0.4998013,0.2970135,0.17519338,0.072924495,inf,inf,inf,inf,inf,1,1,1,1,5,4,2,1,3,1,1,1,0,4,0,0
2016804000,2016804000,66708000,47.398166100000005,8.5470148,-68.55668,-23.079046,-488.05774,86876.08,2880536.2,0.0,-0.024285592,0.00589109,0.008604096,-0.0014908027,-0.0035367864,-0.0033599276,2.4400651e-05,-0.034516405,-0.15258726,0.024631152,1.7961632,0.0009647606,0.1540843,0.04853219,6.90602e-05,0.0,0.1000061,0.010000001,0.0,0.5007325,0.29741618,0.17554402,0.07298311,inf,inf,inf,inf,inf,1,1,1,1,5,4,2,1,3,1,1,1,0,4,0,0
2016812000,2016812000,66708000,47.398166100000005,8.5470148,-68.55655,-23.079107,-488.05786,86876.08,2880536.2,0.0,-0.024868071,0.0055149337,0.008838373,-0.00133806,-0.0035367864,-0.0033599276,2.4400651e-05,-0.093548104,-0.04015691,0.032277774,1.7961808,0.0009646468,0.15410551,0.04853219,6.666795e-05,0.0,0.1000061,0.010000001,0.0,0.45885345,0.28381813,0.15899126,0.07071797,inf,inf,inf,inf,inf,1,1,1,1,5,4,2,1,3,1,1,1,0,4,0,0
2016820000,2016820000,66708000,47.398166100000005,8.5470148,-68.556435,-23.07917,-488.05792,86876.08,2880536.2,0.0,-0.024897587,0.0052481145,0.008857192,-0.0013948516,-0.0035367864,-0.0033599276,2.4400651e-05,-0.023830242,-0.026693678,0.005252193,1.7962033,0.000964741,0.1541321,0.04853219,6.6719e-05,0.0,0.1000061,0.010000001,0.0,0.45963633,0.2841979,0.15932396,0.07077812,inf,inf,inf,inf,inf,1,1,1,1,5,4,2,1,3,1,1,1,0,4,0,0
2016828000,2016828000,66708000,47.398166100000005,8.5470148,-68.55632,-23.079231,-488.058,86876.08,2880536.2,0.0,-0.02451009,0.0048237974,0.01025082,-7.1057904e-05,-0.0035367864,-0.0033599276,2.4400651e-05,0.028877249,-0.046583056,0.17701322,1.7962161,0.0009648352,0.15414914,0.04853219,6.67701e-05,0.0,0.1000061,0.010000001,0.0,0.4604222,0.28457832,0.1596588,0.07083822,inf,inf,inf,inf,inf,1,1,1,1,5,4,2,1,3,1,1,1,0,4,0,0
2016836000,2016836000,66708000,47.398166100000005,8.5470148,-68.55622,-23.079292,-488.05807,86876.08,2880536.2,0.0,-0.024892785,0.004319116,0.011464112,0.001078033,-0.0035367864,-0.0033599276,2.4400651e-05,-0.06683552,-0.056823768,0.15438347,1.7962397,0.00096492947,0.15417692,0.04853219,6.682124e-05,0.0,0.1000061,0.010000001,0.0,0.46121106,0.28495938,0.1599925,0.07089828,inf,inf,inf,inf,inf,1,1,1,1,5,4,2,1,3,1,1,1,0,4,0,0
2016844000,2016844000,66708000,47.398166100000005,8.5470148,-68.55612,-23.079353,-488.05814,86876.08,2880536.2,0.0,-0.02478379,0.0044631013,0.011872171,0.001427275,-0.0035367864,-0.0033599276,2.4400651e-05,-0.004831827,0.024064923,0.053644177,1.7962538,0.00096502376,0.15419516,0.04853219,6.687242e-05,0.0,0.1000061,0.010000001,0.0,0.46200287,0.28534108,0.1603251,0.070958294,inf,inf,inf,inf,inf,1,1,1,1,5,4,2,1,3,1,1,1,0,4,0,0
2016852000,2016852000,66708000,47.398166100000005,8.5470148,-68.556046,-23.079407,-488.05817,86876.08,2880536.2,0.0,-0.024975855,0.005041012,0.012289135,0.0017845561,-0.0035367864,-0.0033599276,2.4400651e-05,-0.041565817,0.07799262,0.054805536,1.7962341,0.0009643948,0.1541793,0.04853219,6.689962e-05,0.0,0.1000061,0.010000001,0.0,0.46278673,0.2847854,0.16062337,0.07091259,inf,inf,inf,inf,inf,1,1,1,1,5,4,2,1,3,1,1,1,0,4,0,0
2016860000,2016860000,66708000,47.398166100000005,8.5470148,-68.55597,-23.079454,-488.05823,86876.08,2880536.2,0.0,-0.02424991,0.005078344,0.01198335,0.0014241063,-0.0035367864,-0.0033599276,2.4400651e-05,0.0736913,0.010242459,-0.035622153,1.7962278,0.0009644891,0.15417716,0.04853219,6.695088e-05,0.0,0.1000061,0.010000001,0.0,0.46358442,0.28516713,0.16095659,0.0709726,inf,inf,inf,inf,inf,1,1,1,1,5,4,2,1,3,1,1,1,0,4,0,0
2016868000,2016868000,66708000,47.398166100000005,8.5470148,-68.55589,-23.079498,-488.05826,86876.08,2880536.2,0.0,-0.024124255,0.0051074177,0.011693289,0.0010841391,-0.0035367864,-0.0033599276,2.4400651e-05,-0.00084782316,0.009045175,-0.03373902,1.7962431,0.0009645835,0.15419647,0.04853219,6.700218e-05,0.0,0.1000061,0.010000001,0.0,0.46438512,0.2855495,0.16129221,0.07103256,inf,inf,inf,inf,inf,1,1,1,1,5,4,2,1,3,1,1,1,0,4,0,0
2016876000,2016876000,66708000,47.398166100000005,8.5470148,-68.555824,-23.079538,-488.0583,86876.08,2880536.2,0.0,-0.023637539,0.005968258,0.011799373,0.0011448133,-0.0035367864,-0.0033599276,2.4400651e-05,0.04476679,0.11284947,0.015699768,1.7962103,0.0009646779,0.1541681,0.04853219,6.705351e-05,0.0,0.1000061,0.010000001,0.0,0.46518883,0.28593248,0.16162589,0.07109249,inf,inf,inf,inf,inf,1,1,1,1,5,4,2,1,3,1,1,1,0,4,0,0
2016884000,2016884000,66708000,47.398166100000005,8.5470148,-68.555756,-23.079569,-488.05832,86876.08,2880536.2,0.0,-0.023080979,0.0064106113,0.011973755,0.0012780075,-0.0035367864,-0.0033599276,2.4400651e-05,0.053961966,0.060370527,0.024159903,1.7961719,0.0009647723,0.15413412,0.04853219,6.7104884e-05,0.0,0.1000061,0.010000001,0.0,0.46599555,0.28631613,0.1619612,0.07115238,inf,inf,inf,inf,inf,1,1,1,1,5,4,2,1,3,1,1,1,0,4,0,0
2016892000,2016892000,66708000,47.398166100000005,8.5470148,-68.555695,-23.079594,-488.05835,86876.08,2880536.2,0.0,-0.022280829,0.006561093,0.011560001,0.0008270622,-0.0035367864,-0.0033599276,2.4400651e-05,0.084866226,0.023729356,-0.049431805,1.796205,0.0009648668,0.15417156,0.04853219,6.7156296e-05,0.0,0.1000061,0.010000001,0.0,0.4668053,0.2867004,0.16229606,0.07121222,inf,inf,inf,inf,inf,1,1,1,1,5,4,2,1,3,1,1,1,0,4,0,0
2016900000,2016900000,66708000,47.398166100000005,8.5470148,-68.55563,-23.079617,-488.05838,86876.08,2880536.2,0.0,-0.02163622,0.006677488,0.0113386065,0.0005722102,-0.0035367864,-0.0033599276,2.4400651e-05,0.065864965,0.019315382,-0.025459563,1.7960999,0.00096496125,0.15407023,0.04853219,6.7207744e-05,0.0,0.1000061,0.010000001,0.0,0.4676181,0.28708532,0.1626304,0.07127201,inf,inf,inf,inf,inf,1,1,1,1,5,4,2,1,3,1,1,1,0,4,0,0
2016908000,2016908000,66708000,47.398166100000005,8.5470148,-68.55557,-23.079634,-488.05844,86876.08,2880536.2,0.0,-0.021473547,0.007206882,0.010642464,-0.00016175685,-0.0035367864,-0.0033599276,2.4400651e-05,0.006045743,0.07079246,-0.08471915,1.7960535,0.0009650558,0.15402743,0.04853219,6.7259236e-05,0.0,0.1000061,0.010000001,0.0,0.46843395,0.2865156,0.16296843,0.07122345,inf,inf,inf,inf,inf,1,1,1,1,5,4,2,1,3,1,1,1,0,4,0,0
2016916000,2016916000,66708000,47.398166100000005,8.5470148,-68.55552,-23.079641,-488.05847,86876.08,2880536.2,0.0,-0.022022793,0.0077533023,0.010115551,-0.0007226482,-0.0035367864,-0.0033599276,2.4400651e-05,-0.08252114,0.072570935,-0.063638665,1.7961019,0.0009644263,0.15407977,0.04853219,6.7286055e-05,0.0,0.1000061,0.010000001,0.0,0.4692405,0.28690052,0.16327238,0.071283236,inf,inf,inf,inf,inf,1,1,1,1,5,4,2,1,3,1,1,1,0,4,0,0
2016924000,2016924000,66708000,47.398166100000005,8.5470148,-68.55547,-23.079647,-488.0585,86876.08,2880536.2,0.0,-0.021826185,0.007710829,0.010977604,0.00010917327,-0.0035367864,-0.0033599276,2.4400651e-05,0.0111095095,-0.0011750971,0.10991143,1.796086,0.00096452044,0.15406808,0.04853219,6.73376e-05,0.0,0.1000061,0.010000001,0.0,0.47006223,0.28728607,0.16360912,0.07134299,inf,inf,inf,inf,inf,1,1,1,1,5,4,2,1,3,1,1,1,0,4,0,0
2016932000,2016932000,66708000,47.398166100000005,8.5470148,-68.555435,-23.07965,-488.05853,86876.08,2880536.2,0.0,-0.021579972,0.0074823406,0.011313691,0.00041867825,-0.0035367864,-0.0033599276,2.4400651e-05,0.017703796,-0.024554346,0.044096723,1.7960241,0.00096461456,0.15401074,0.04853219,6.738918e-05,0.0,0.1000061,0.010000001,0.0,0.470887,0.28767228,0.16394998,0.07140269,inf,inf,inf,inf,inf,1,1,1,1,5,4,2,1,3,1,1,1,0,4,0,0
2016940000,2016940000,66708000,47.398166100000005,8.5470148,-68.5554,-23.07965,-488.05856,86876.08,2880536.2,0.0,-0.022004886,0.008233663,0.011400854,0.00048287064,-0.0035367864,-0.0033599276,2.4400651e-05,-0.06580526,0.097799145,0.012914649,1.796118,0.00096470874,0.15410861,0.04853219,6.744079e-05,0.0,0.1000061,0.010000001,0.0,0.47171488,0.28805912,0.16428863,0.071462356,inf,inf,inf,inf,inf,1,1,1,1,5,4,2,1,3,1,1,1,0,4,0,0
2016948000,2016948000,66708000,47.398166100000005,8.5470148,-68.555374,-23.079643,-488.05856,86876.08,2880536.2,0.0,-0.022027867,0.008354975,0.011599005,0.00066156726,-0.0035367864,-0.0033599276,2.4400651e-05,-0.015197427,0.018919727,0.026723368,1.7960383,0.000964803,0.15403304,0.04853219,6.7492445e-05,0.0,0.1000061,0.010000001,0.0,0.47254583,0.2884466,0.16462824,0.07152196,inf,inf,inf,inf,inf,1,1,1,1,5,4,2,1,3,1,1,1,0,4,0,0
2016956000,2016956000,66708000,47.398166100000005,8.5470148,-68.55536,-23.079636,-488.0586,86876.08,2880536.2,0.0,-0.022152347,0.008238865,0.011482113,0.0005286165,-0.0035367864,-0.0033599276,2.4400651e-05,-0.02707252,-0.010593591,-0.012720468,1.7959676,0.0009647865,0.15396628,0.04853219,6.753956e-05,0.0,0.1000061,0.010000001,0.0,0.47337806,0.28883472,0.1649608,0.07158152,inf,inf,inf,inf,inf,1,1,1,1,5,4,2,1,3,1,1,1,0,4,0,0
2016964000,2016964000,66708000,47.398166100000005,8.5470148,-68.55534,-23.079626,-488.0586,86876.08,2880536.2,0.0,-0.022450339,0.008818938,0.010684849,-0.00028148424,-0.0035367864,-0.0033599276,2.4400651e-05,-0.048423868,0.07630737,-0.09782798,1.7958812,0.0009648807,0.15388247,0.04853219,6.7591274e-05,0.0,0.1000061,0.010000001,0.0,0.47421512,0.28922346,0.16529934,0.07164104,inf,inf,inf,inf,inf,1,1,1,1,5,4,2,1,3,1,1,1,0,4,0,0
2016972000,2016972000,66708000,47.398166100000005,8.5470148,-68.55534,-23.079613,-488.05862,86876.08,2880536.2,0.0,-0.023111127,0.008348063,0.009966936,-0.0010091587,-0.0035367864,-0.0033599276,2.4400651e-05,-0.09344671,-0.05516884,-0.087968536,1.7959191,0.0009649749,0.15392312,0.04853219,6.7643035e-05,0.0,0.1000061,0.010000001,0.0,0.47505528,0.28961286,0.16563952,0.071700536,inf,inf,inf,inf,inf,1,1,1,1,5,4,2,1,3,1,1,1,0,4,0,0
2016980000,2016980000,66708000,47.398166100000005,8.5470148,-68.55535,-23.0796,-488.05865,86876.08,2880536.2,0.0,-0.023368822,0.008075525,0.010114195,-0.0008758191,-0.0035367864,-0.0033599276,2.4400651e-05,-0.04275086,-0.030489719,0.020255798,1.7959234,0.00096506905,0.15393004,0.04853219,6.769483e-05,0.0,0.1000061,0.010000001,0.0,0.4758985,0.2890222,0.16597527,0.07164788,inf,inf,inf,inf,inf,1,1,1,1,5,4,2,1,3,1,1,1,0,4,0,0
2016988000,2016988000,66708000,47.398166100000005,8.5470148,-68.55536,-23.079582,-488.05865,86876.08,2880536.2,0.0,-0.023098078,0.008715554,0.01039355,-0.000606806,-0.0035367864,-0.0033599276,2.4400651e-05,0.023285365,0.08301297,0.036708076,1.7959265,0.00096444105,0.15393576,0.04853219,6.772121e-05,0.0,0.1000061,0.010000001,0.0,0.47673082,0.28941157,0.16627376,0.07170736,inf,inf,inf,inf,inf,1,1,1,1,5,4,2,1,3,1,1,1,0,4,0,0
2016996000,2016996000,66708000,47.398166100000005,8.5470148,-68.555374,-23.079557,-488.0587,86876.08,2880536.2,0.0,-0.022665968,0.008996404,0.010261914,-0.0007455426,-0.0035367864,-0.0033599276,2.4400651e-05,0.04376871,0.038019184,-0.014724209,1.7959014,0.0009645351,0.15391383,0.04853219,6.777307e-05,0.0,0.1000061,0.010000001,0.0,0.47758004,0.28980157,0.16661368,0.071766816,inf,inf,inf,inf,inf,1,1,1,1,5,4,2,1,3,1,1,1,0,4,0,0
2017004000,2017004000,66708000,47.398166100000005,8.5470148,-68.55538,-23.079529,-488.0587,86876.08,2880536.2,0.0,-0.022004485,0.009250057,0.010877371,-0.00013416645,-0.0035367864,-0.0033599276,2.4400651e-05,0.07273702,0.0345192,0.07860595,1.7958454,0.00096462923,0.1538609,0.04853219,6.782498e-05,0.0,0.1000061,0.010000001,0.0,0.47843236,0.2901922,0.16695382,0.07182623,inf,inf,inf,inf,inf,1,1,1,1,5,4,2,1,3,1,1,1,0,4,0,0
2017012000,2017012000,66708000,47.398166100000005,8.5470148,-68.5554,-23.079496,-488.0587,86876.08,2880536.2,0.0,-0.021284949,0.00960858,0.011229679,0.00021695631,-0.0035367864,-0.0033599276,2.4400651e-05,0.08027701,0.047524616,0.045657154,1.7958548,0.00096472335,0.15387389,0.04853219,6.787693e-05,0.0,0.1000061,0.010000001,0.0,0.47928777,0.29058343,0.1672977,0.07188559,inf,inf,inf,inf,inf,1,1,1,1,5,4,2,1,3,1,1,1,0,4,0,0
2017020000,2017020000,66708000,47.398166100000005,8.5470148,-68.555405,-23.07946,-488.0587,86876.08,2880536.2,0.0,-0.020661876,0.009729782,0.010352428,-0.0006586155,-0.0035367864,-0.0033599276,2.4400651e-05,0.06850305,0.017757827,-0.10809115,1.7959236,0.00096481753,0.1539453,0.04853219,6.7928915e-05,0.0,0.1000061,0.010000001,0.0,0.48014632,0.2909753,0.16764152,0.071944915,inf,inf,inf,inf,inf,1,1,1,1,5,4,2,1,3,1,1,1,0,4,0,0
