timestamp,timestamp_sample,xyz[0],xyz[1],xyz[2],xyz_derivative[0],xyz_derivative[1],xyz_derivative[2]
2015920000,0,4.0812967e-05,4.276416e-05,5.2611654e-08,0.0,0.0,0.0
2015924000,0,4.545284e-05,4.100895e-05,5.6919053e-08,0.0,0.0,0.0
2015932000,0,4.4591186e-05,4.140305e-05,5.6161404e-08,0.0,0.0,0.0
2015940000,0,4.0763975e-05,4.303919e-05,5.2601763e-08,0.0,0.0,0.0
2015952000,0,4.4348755e-05,4.2097552e-05,5.5970414e-08,0.0,0.0,0.0
2015960000,0,4.048998e-05,4.320659e-05,5.2311844e-08,0.0,0.0,0.0
2015972000,0,4.3947326e-05,4.1057432e-05,5.546352e-08,0.0,0.0,0.0
2015980000,0,-0.00037636177,-0.00011129457,-1.7280112e-06,0.0,0.0,0.0
2015992000,0,4.4104472e-05,4.348691e-05,5.5896898e-08,0.0,0.0,0.0
2016000000,0,4.4152006e-05,4.3470856e-05,5.5887867e-08,0.0,0.0,0.0
2016012000,0,4.4936773e-05,4.143016e-05,5.646606e-08,0.0,0.0,0.0
2016020000,0,4.4251712e-05,4.2916672e-05,5.5989148e-08,0.0,0.0,0.0
2016032000,0,4.5054327e-05,4.2871994e-05,5.6755017e-08,0.0,0.0,0.0
2016040000,0,4.4255034e-05,4.3494267e-05,5.607662e-08,0.0,0.0,0.0
2016052000,0,4.0585892e-05,4.4559612e-05,5.262206e-08,0.0,0.0,0.0
2016060000,0,4.453744e-05,4.3913875e-05,5.643514e-08,0.0,0.0,0.0
2016072000,0,4.057521e-05,4.4647222e-05,5.265681e-08,0.0,0.0,0.0
2016080000,0,4.4372682e-05,4.3361702e-05,5.6259157e-08,0.0,0.0,0.0
2016092000,0,4.0683655e-05,4.4256332e-05,5.2750117e-08,0.0,0.0,0.0
2016100000,0,4.434615e-05,4.2187123e-05,5.6136237e-08,0.0,0.0,0.0
2016112000,0,4.0518033e-05,4.4464934e-05,5.2611032e-08,0.0,0.0,0.0
2016120000,0,4.4398712e-05,4.3050226e-05,5.63283e-08,0.0,0.0,0.0
2016132000,0,4.5331075e-05,4.3665674e-05,5.722261e-08,0.0,0.0,0.0
2016140000,0,-0.00034984888,-5.2876258e-06,-1.7809091e-06,0.0,0.0,0.0
2016152000,0,4.447817e-05,4.2769458e-05,5.6436104e-08,0.0,0.0,0.0
2016160000,0,-0.00033692346,-8.6145465e-06,-1.7280624e-06,0.0,0.0,0.0
2016172000,0,4.4293236e-05,4.1520612e-05,5.615234e-08,0.0,0.0,0.0
2016180000,0,4.0465515e-05,4.4109227e-05,5.2651394e-08,0.0,0.0,0.0
2016192000,0,4.3953234e-05,4.2742955e-05,5.5976365e-08,0.0,0.0,0.0
2016200000,0,4.0466784e-05,4.3967655e-05,5.2657015e-08,0.0,0.0,0.0
2016212000,0,4.3852968e-05,3.9595307e-05,5.5563856e-08,0.0,0.0,0.0
2016220000,0,-0.0003647977,-5.6315846e-05,-1.7604975e-06,0.0,0.0,0.0
2016232000,0,4.4067318e-05,4.2802403e-05,5.6162882e-08,0.0,0.0,0.0
2016240000,0,-0.00035809903,-4.5623503e-05,-1.8139781e-06,0.0,0.0,0.0
2016252000,0,4.4110242e-05,4.1269006e-05,5.607344e-08,0.0,0.0,0.0
2016260000,0,-0.0003692774,-8.356718e-05,-1.7610906e-06,0.0,0.0,0.0
2016272000,0,4.412284e-05,4.1794003e-05,5.617546e-08,0.0,0.0,0.0
2016280000,0,4.3896307e-05,4.1222953e-05,5.5873667e-08,0.0,0.0,0.0
2016292000,0,4.5097488e-05,4.3260618e-05,5.7198235e-08,0.0,0.0,0.0
2016300000,0,4.4024375e-05,4.3558543e-05,5.625779e-08,0.0,0.0,0.0
2016312000,0,4.0171202e-05,4.2994892e-05,5.240395e-08,0.0,0.0,0.0
2016320000,0,4.417978e-05,4.1795945e-05,5.6265847e-08,0.0,0.0,0.0
2016332000,0,-0.00034493706,-3.383131e-05,-1.7298986e-06,0.0,0.0,0.0
2016340000,0,4.51067e-05,4.290838e-05,5.7270917e-08,0.0,0.0,0.0
2016352000,0,-0.00037136313,-7.633818e-05,-1.8191855e-06,0.0,0.0,0.0
2016360000,0,4.525501e-05,4.335945e-05,5.7487267e-08,0.0,0.0,0.0
2016372000,0,-0.00034141613,-2.8234972e-05,-1.7009394e-06,0.0,0.0,0.0
2016380000,0,4.5184028e-05,4.319437e-05,5.7436502e-08,0.0,0.0,0.0
2016392000,0,-0.00036663815,-6.262647e-05,-1.8181512e-06,0.0,0.0,0.0
2016400000,0,4.5227807e-05,4.2720538e-05,5.745651e-08,0.0,0.0,0.0
2016412000,0,-0.00033335102,1.7138715e-05,-1.7670569e-06,0.0,0.0,0.0
2016420000,0,4.4981e-05,4.1641582e-05,5.7108775e-08,0.0,0.0,0.0
2016432000,0,4.036811e-05,4.4676726e-05,5.302565e-08,0.0,0.0,0.0
2016440000,0,4.466213e-05,4.431745e-05,5.7175598e-08,0.0,0.0,0.0
2016452000,0,4.5076944e-05,4.151257e-05,5.7275347e-08,0.0,0.0,0.0
2016460000,0,4.4302615e-05,4.2331136e-05,5.665627e-08,0.0,0.0,0.0
2016472000,0,4.5238063e-05,4.2529384e-05,5.7578752e-08,0.0,0.0,0.0
2016480000,0,4.423566e-05,4.1729316e-05,5.654808e-08,0.0,0.0,0.0
2016492000,0,4.507008e-05,4.274887e-05,5.743797e-08,0.0,0.0,0.0
2016500000,0,-0.00036942284,-6.8207555e-05,-1.8251458e-06,0.0,0.0,0.0
2016512000,0,4.4222445e-05,4.2010568e-05,5.6612247e-08,0.0,0.0,0.0
2016520000,0,4.3845386e-05,3.9445316e-05,5.5979946e-08,0.0,0.0,0.0
2016532000,0,4.4943616e-05,4.209374e-05,5.7313336e-08,0.0,0.0,0.0
2016540000,0,4.3936172e-05,4.270636e-05,5.6464962e-08,0.0,0.0,0.0
2016552000,0,4.483912e-05,4.1382475e-05,5.715899e-08,0.0,0.0,0.0
2016560000,0,4.396442e-05,4.11093e-05,5.6345254e-08,0.0,0.0,0.0
2016572000,0,4.501525e-05,4.1638592e-05,5.742417e-08,0.0,0.0,0.0
2016580000,0,4.404269e-05,4.1840973e-05,5.653999e-08,0.0,0.0,0.0
2016588000,0,4.0296334e-05,4.2755102e-05,5.295176e-08,0.0,0.0,0.0
2016600000,0,4.4141616e-05,4.308718e-05,5.6747485e-08,0.0,0.0,0.0
2016612000,0,4.0083432e-05,4.383119e-05,5.2900916e-08,0.0,0.0,0.0
2016620000,0,4.421939e-05,4.331524e-05,5.689629e-08,0.0,0.0,0.0
2016632000,0,4.02674e-05,4.278085e-05,5.299187e-08,0.0,0.0,0.0
2016640000,0,4.4329383e-05,4.291354e-05,5.702976e-08,0.0,0.0,0.0
2016652000,0,-0.00035227186,-4.3624575e-05,-1.9022827e-06,0.0,0.0,0.0
2016660000,0,4.5065975e-05,4.3026695e-05,5.774474e-08,0.0,0.0,0.0
2016672000,0,4.062585e-05,4.460614e-05,5.3601998e-08,0.0,0.0,0.0
2016680000,0,4.456758e-05,4.3955617e-05,5.7433727e-08,0.0,0.0,0.0
2016692000,0,4.0584382e-05,4.4627755e-05,5.3614247e-08,0.0,0.0,0.0
2016700000,0,4.4400156e-05,4.339823e-05,5.7254436e-08,0.0,0.0,0.0
2016712000,0,4.0659026e-05,4.4293913e-05,5.366802e-08,0.0,0.0,0.0
2016720000,0,4.435254e-05,4.234632e-05,5.711054e-08,0.0,0.0,0.0
2016732000,0,4.498351e-05,4.188312e-05,5.7624185e-08,0.0,0.0,0.0
2016740000,0,4.4524397e-05,4.4159242e-05,5.747288e-08,0.0,0.0,0.0
2016752000,0,4.535113e-05,4.3790584e-05,5.824771e-08,0.0,0.0,0.0
2016760000,0,-0.0003541318,-1.4563403e-05,-1.7884415e-06,0.0,0.0,0.0
2016772000,0,4.4459583e-05,4.2664145e-05,5.736317e-08,0.0,0.0,0.0
2016780000,0,-0.00032334734,1.5197157e-05,-1.6897983e-06,0.0,0.0,0.0
2016792000,0,4.431207e-05,4.1688672e-05,5.7136187e-08,0.0,0.0,0.0
2016800000,0,4.0434068e-05,4.3260137e-05,5.3477216e-08,0.0,0.0,0.0
2016812000,0,-0.00036242954,-4.999646e-05,-1.8463061e-06,0.0,0.0,0.0
2016820000,0,4.504516e-05,4.231773e-05,5.7910643e-08,0.0,0.0,0.0
2016832000,0,-0.0003551646,-2.6380485e-05,-1.7897729e-06,0.0,0.0,0.0
2016840000,0,4.4833054e-05,4.125978e-05,5.760202e-08,0.0,0.0,0.0
2016852000,0,-0.0003750367,-8.355232e-05,-1.8425351e-06,0.0,0.0,0.0
2016860000,0,4.492609e-05,4.2146337e-05,5.782141e-08,0.0,0.0,0.0
2016872000,0,4.3988366e-05,4.124988e-05,5.6879813e-08,0.0,0.0,0.0
2016880000,0,4.0371535e-05,4.3124175e-05,5.35365e-08,0.0,0.0,0.0
2016892000,0,4.3994165e-05,4.1651543e-05,5.6965142e-08,0.0,0.0,0.0
2016900000,0,4.0298877e-05,4.257995e-05,5.341615e-08,0.0,0.0,0.0
2016912000,0,4.4242548e-05,4.3752254e-05,5.7434054e-08,0.0,0.0,0.0
2016920000,0,-0.0003536446,-4.2318476e-05,-1.7973431e-06,0.0,0.0,0.0
2016932000,0,4.4138553e-05,4.240798e-05,5.7225243e-08,0.0,0.0,0.0
2016940000,0,4.022985e-05,4.2401476e-05,5.3395528e-08,0.0,0.0,0.0
2016952000,0,4.42247e-05,4.2970634e-05,5.7421914e-08,0.0,0.0,0.0
2016960000,0,4.0513794e-05,4.442307e-05,5.3935654e-08,0.0,0.0,0.0
2016972000,0,4.4156768e-05,4.343384e-05,5.742886e-08,0.0,0.0,0.0
2016980000,0,-0.00042913208,-0.00018101328,-1.6723842e-06,0.0,0.0,0.0
2016992000,0,4.4389086e-05,4.3757216e-05,5.7719635e-08,0.0,0.0,0.0
2017000000,0,4.4138866e-05,4.3417538e-05,5.741882e-08,0.0,0.0,0.0
2017012000,0,4.0220446e-05,4.431513e-05,5.361701e-08,0.0,0.0,0.0
2017020000,0,4.422219e-05,4.25371e-05,5.7419843e-08,0.0,0.0,0.0
2017032000,0,4.3938468e-05,4.161668e-05,5.6986945e-08,0.0,0.0,0.0
2017040000,0,4.4296692e-05,4.3900687e-05,5.7608673e-08,0.0,0.0,0.0
2017052000,0,4.5073182e-05,4.3351516e-05,5.829385e-08,0.0,0.0,0.0
2017060000,0,-0.000337773,5.9454655e-06,-1.8401905e-06,0.0,0.0,0.0
2017072000,0,4.4192944e-05,4.2614913e-05,5.7465503e-08,0.0,0.0,0.0
2017080000,0,-0.0003788401,-0.00010950987,-1.780624e-06,0.0,0.0,0.0
2017092000,0,4.3887932e-05,4.1374504e-05,5.7007608e-08,0.0,0.0,0.0
2017100000,0,4.388119e-05,4.1997548e-05,5.7085455e-08,0.0,0.0,0.0
2017112000,0,4.4422035e-05,4.0252184e-05,5.7337243e-08,0.0,0.0,0.0
2017120000,0,4.3435666e-05,4.019231e-05,5.6397514e-08,0.0,0.0,0.0
2017132000,0,4.3685675e-05,4.182298e-05,5.6873688e-08,0.0,0.0,0.0
2017140000,0,-0.00045314457,-0.00018550987,-1.8508449e-06,0.0,0.0,0.0
2017152000,0,4.377787e-05,4.1909345e-05,5.701505e-08,0.0,0.0,0.0
2017160000,0,4.354426e-05,4.1855703e-05,5.677053e-08,0.0,0.0,0.0
2017172000,0,3.9713006e-05,4.2255964e-05,5.2992117e-08,0.0,0.0,0.0
2017180000,0,4.3750224e-05,4.343101e-05,5.714191e-08,0.0,0.0,0.0
2017192000,0,4.3577882e-05,4.3380645e-05,5.6958456e-08,0.0,0.0,0.0
2017200000,0,3.944795e-05,4.195534e-05,5.2684953e-08,0.0,0.0,0.0
2017212000,0,4.363019e-05,4.2901665e-05,5.6985957e-08,0.0,0.0,0.0
2017220000,0,4.3602424e-05,4.3209515e-05,5.7002566e-08,0.0,0.0,0.0
2017232000,0,4.3813077e-05,4.3590182e-05,5.7254468e-08,0.0,0.0,0.0
2017240000,0,3.991721e-05,4.4373835e-05,5.350371e-08,0.0,0.0,0.0
2017252000,0,4.3545104e-05,4.252349e-05,5.6870466e-08,0.0,0.0,0.0
2017260000,0,3.936959e-05,4.286994e-05,5.2748234e-08,0.0,0.0,0.0
2017272000,0,4.3261534e-05,4.2684853e-05,5.6636242e-08,0.0,0.0,0.0
2017280000,0,4.3559823e-05,4.3219083e-05,5.6939964e-08,0.0,0.0,0.0
2017292000,0,3.9524046e-05,4.4267705e-05,5.3062784e-08,0.0,0.0,0.0
2017300000,0,4.3561264e-05,4.275388e-05,5.694323e-08,0.0,0.0,0.0
2017312000,0,4.31329e-05,4.048527e-05,5.6212013e-08,0.0,0.0,0.0
2017320000,0,4.3247546e-05,4.2075753e-05,5.650608e-08,0.0,0.0,0.0
2017332000,0,-0.00040851123,-0.00014816596,-1.7064872e-06,0.0,0.0,0.0
2017340000,0,4.3727556e-05,4.0305993e-05,5.677877e-08,0.0,0.0,0.0
2017352000,0,4.2903273e-05,4.1066487e-05,5.6080435e-08,0.0,0.0,0.0
2017360000,0,-0.00069264806,-0.00041294543,-1.7513236e-06,0.0,0.0,0.0
2017372000,0,4.2940046e-05,4.1396797e-05,5.6172144e-08,0.0,0.0,0.0
2017380000,0,4.2691572e-05,4.1171657e-05,5.583801e-08,0.0,0.0,0.0
2017392000,0,4.2875006e-05,4.2987725e-05,5.6246723e-08,0.0,0.0,0.0
2017400000,0,4.2781547e-05,4.1370007e-05,5.597863e-08,0.0,0.0,0.0
2017412000,0,-0.0007075349,-0.0004156627,-1.8290604e-06,0.0,0.0,0.0
2017420000,0,4.3806172e-05,4.2789303e-05,5.7135956e-08,0.0,0.0,0.0
2017432000,0,4.299102e-05,4.278968e-05,5.6360257e-08,0.0,0.0,0.0
2017440000,0,4.278947e-05,4.1711504e-05,5.6018596e-08,0.0,0.0,0.0
2017452000,0,4.2945252e-05,4.303016e-05,5.6311507e-08,0.0,0.0,0.0
2017460000,0,4.281992e-05,4.2491854e-05,5.6103893e-08,0.0,0.0,0.0
2017472000,0,4.3494776e-05,4.148288e-05,5.6646495e-08,0.0,0.0,0.0
2017480000,0,4.2695156e-05,4.1594027e-05,5.5896813e-08,0.0,0.0,0.0
2017492000,0,4.227074e-05,3.9800543e-05,5.5209025e-08,0.0,0.0,0.0
2017500000,0,4.216137e-05,4.0275732e-05,5.5164794e-08,0.0,0.0,0.0
2017512000,0,4.1931024e-05,3.9909122e-05,5.4877273e-08,0.0,0.0,0.0
2017520000,0,-0.00062946975,-0.00035101562,-1.7966686e-06,0.0,0.0,0.0
2017532000,0,4.2188887e-05,4.177399e-05,5.5416894e-08,0.0,0.0,0.0
2017540000,0,4.191897e-05,4.0776868e-05,5.499784e-08,0.0,0.0,0.0
2017552000,0,4.180854e-05,4.2248314e-05,5.506097e-08,0.0,0.0,0.0
2017560000,0,4.181799e-05,4.0482933e-05,5.4841585e-08,0.0,0.0,0.0
2017572000,0,3.77208e-05,4.3234475e-05,5.1015405e-08,0.0,0.0,0.0
2017580000,0,4.2162916e-05,4.2556443e-05,5.544164e-08,0.0,0.0,0.0
2017592000,0,4.1851046e-05,4.1148476e-05,5.4931185e-08,0.0,0.0,0.0
2017600000,0,4.188514e-05,4.2038857e-05,5.5038566e-08,0.0,0.0,0.0
2017612000,0,4.1781386e-05,4.013307e-05,5.4720065e-08,0.0,0.0,0.0
2017620000,0,4.175792e-05,4.117514e-05,5.4835716e-08,0.0,0.0,0.0
2017632000,0,-0.0007842887,-0.00049914897,-1.7458193e-06,0.0,0.0,0.0
2017640000,0,4.196498e-05,3.902961e-05,5.466783e-08,0.0,0.0,0.0
2017652000,0,4.099228e-05,3.912483e-05,5.375233e-08,0.0,0.0,0.0
2017660000,0,4.1138373e-05,3.9925715e-05,5.404768e-08,0.0,0.0,0.0
2017672000,0,4.1058793e-05,4.0809726e-05,5.4074786e-08,0.0,0.0,0.0
2017680000,0,4.0912328e-05,3.9948467e-05,5.381399e-08,0.0,0.0,0.0
2017692000,0,4.1058913e-05,4.1329233e-05,5.4100738e-08,0.0,0.0,0.0
2017700000,0,3.7088157e-05,4.0788622e-05,5.0048648e-08,0.0,0.0,0.0
2017712000,0,4.0972558e-05,4.145123e-05,5.4024618e-08,0.0,0.0,0.0
2017720000,0,4.101561e-05,4.1024923e-05,5.400069e-08,0.0,0.0,0.0
2017732000,0,4.0925126e-05,4.092626e-05,5.390238e-08,0.0,0.0,0.0
2017740000,0,3.6925772e-05,4.080135e-05,4.9835354e-08,0.0,0.0,0.0
2017752000,0,4.072357e-05,4.0932082e-05,5.36827e-08,0.0,0.0,0.0
2017760000,0,4.0575535e-05,3.943066e-05,5.3340038e-08,0.0,0.0,0.0
2017772000,0,3.995257e-05,4.0497045e-05,5.286072e-08,0.0,0.0,0.0
2017780000,0,3.9966097e-05,3.811888e-05,5.2548025e-08,0.0,0.0,0.0
2017792000,0,4.0905743e-05,4.0353843e-05,5.3722253e-08,0.0,0.0,0.0
2017800000,0,3.9987106e-05,4.0201194e-05,5.2812577e-08,0.0,0.0,0.0
2017812000,0,3.9850285e-05,4.1039482e-05,5.2775192e-08,0.0,0.0,0.0
2017820000,0,3.9972056e-05,3.9991068e-05,5.2754544e-08,0.0,0.0,0.0
2017828000,0,3.9976418e-05,4.1060503e-05,5.289449e-08,0.0,0.0,0.0
2017840000,0,4.0540453e-05,3.9109e-05,5.3141964e-08,0.0,0.0,0.0
2017852000,0,3.9671944e-05,3.951758e-05,5.2322036e-08,0.0,0.0,0.0
2017860000,0,3.9845334e-05,4.051831e-05,5.2634764e-08,0.0,0.0,0.0
2017872000,0,3.953995e-05,3.906548e-05,5.2144145e-08,0.0,0.0,0.0
2017880000,0,3.9325107e-05,4.0484625e-05,5.2039667e-08,0.0,0.0,0.0
2017892000,0,3.5351597e-05,3.926329e-05,4.7934588e-08,0.0,0.0,0.0
2017900000,0,3.909587e-05,3.9920524e-05,5.1797485e-08,0.0,0.0,0.0
2017912000,0,3.863309e-05,3.8605638e-05,5.112636e-08,0.0,0.0,0.0
2017920000,0,3.8504782e-05,3.992529e-05,5.1164832e-08,0.0,0.0,0.0
2017932000,0,3.4780966e-05,4.1153788e-05,4.74865e-08,0.0,0.0,0.0
2017940000,0,3.8899234e-05,3.972562e-05,5.148535e-08,0.0,0.0,0.0
2017952000,0,3.860471e-05,4.0268053e-05,5.1197517e-08,0.0,0.0,0.0
2017960000,0,3.8616137e-05,3.9516348e-05,5.1140862e-08,0.0,0.0,0.0
2017972000,0,3.8317135e-05,3.83478e-05,5.068665e-08,0.0,0.0,0.0
2017980000,0,3.8046874e-05,3.8442806e-05,5.0365344e-08,0.0,0.0,0.0
2017992000,0,3.7706584e-05,3.7457583e-05,4.9928282e-08,0.0,0.0,0.0
2018000000,0,3.7725287e-05,3.9144375e-05,5.015235e-08,0.0,0.0,0.0
2018012000,0,3.7997605e-05,3.6917532e-05,5.00607e-08,0.0,0.0,0.0
2018020000,0,3.7418766e-05,3.896654e-05,4.973522e-08,0.0,0.0,0.0
2018032000,0,3.739912e-05,3.8483315e-05,4.9665662e-08,0.0,0.0,0.0
2018040000,0,3.745801e-05,3.972251e-05,4.9825985e-08,0.0,0.0,0.0
2018052000,0,3.7269452e-05,3.863632e-05,4.950798e-08,0.0,0.0,0.0
2018060000,0,3.713751e-05,3.8770544e-05,4.9377952e-08,0.0,0.0,0.0
2018072000,0,3.6468256e-05,3.7040823e-05,4.846248e-08,0.0,0.0,0.0
2018080000,0,3.644673e-05,3.6571655e-05,4.8358253e-08,0.0,0.0,0.0
2018092000,0,3.6447254e-05,3.847125e-05,4.8621605e-08,0.0,0.0,0.0
2018100000,0,-0.0013912339,-0.0011066698,-1.4335626e-06,0.0,0.0,0.0
2018112000,0,3.618004e-05,3.7124315e-05,4.8089888e-08,0.0,0.0,0.0
2018120000,0,3.6058173e-05,3.7580332e-05,4.8006807e-08,0.0,0.0,0.0
2018132000,0,3.591132e-05,3.6764373e-05,4.7719308e-08,0.0,0.0,0.0
2018140000,0,3.6017012e-05,3.8343303e-05,4.8027427e-08,0.0,0.0,0.0
2018152000,0,3.5608035e-05,3.6446392e-05,4.733809e-08,0.0,0.0,0.0
2018160000,0,3.5270332e-05,3.66592e-05,4.6992188e-08,0.0,0.0,0.0
2018172000,0,3.5128374e-05,3.7508908e-05,4.6968225e-08,0.0,0.0,0.0
2018180000,0,3.494288e-05,3.737686e-05,4.6746827e-08,0.0,0.0,0.0
2018192000,0,3.4772704e-05,3.761873e-05,4.6543104e-08,0.0,0.0,0.0
2018200000,0,3.481154e-05,3.683677e-05,4.6513623e-08,0.0,0.0,0.0
2018212000,0,3.4637902e-05,3.6367128e-05,4.6234078e-08,0.0,0.0,0.0
2018220000,0,3.4588582e-05,3.7591923e-05,4.631889e-08,0.0,0.0,0.0
2018232000,0,-0.0015389047,-0.001268497,-1.2185993e-06,0.0,0.0,0.0
2018240000,0,3.4419638e-05,3.554288e-05,4.5798334e-08,0.0,0.0,0.0
2018252000,0,3.365537e-05,3.664732e-05,4.5156806e-08,0.0,0.0,0.0
2018260000,0,3.3534256e-05,3.6094985e-05,4.4957627e-08,0.0,0.0,0.0
2018272000,0,3.356948e-05,3.5244306e-05,4.488048e-08,0.0,0.0,0.0
2018280000,0,3.377418e-05,3.7294754e-05,4.532231e-08,0.0,0.0,0.0
2018292000,0,3.3678527e-05,3.710469e-05,4.520801e-08,0.0,0.0,0.0
2018300000,0,3.3772154e-05,3.6895082e-05,4.528046e-08,0.0,0.0,0.0
2018312000,0,3.317124e-05,3.387276e-05,4.4264453e-08,0.0,0.0,0.0
2018320000,0,3.3129847e-05,3.4993594e-05,4.438745e-08,0.0,0.0,0.0
2018332000,0,3.31528e-05,3.6467696e-05,4.4586976e-08,0.0,0.0,0.0
2018340000,0,3.3115528e-05,3.677622e-05,4.4556604e-08,0.0,0.0,0.0
2018352000,0,3.3203927e-05,3.674965e-05,4.4635357e-08,0.0,0.0,0.0
2018360000,0,3.3299675e-05,3.6193665e-05,4.4689436e-08,0.0,0.0,0.0
2018372000,0,3.326553e-05,3.6551974e-05,4.468033e-08,0.0,0.0,0.0
2018380000,0,3.2965785e-05,3.637962e-05,4.436295e-08,0.0,0.0,0.0
2018392000,0,3.3507928e-05,3.5673464e-05,4.472593e-08,0.0,0.0,0.0
2018400000,0,3.2791744e-05,3.6070254e-05,4.4104233e-08,0.0,0.0,0.0
2018412000,0,3.266111e-05,3.544013e-05,4.3871324e-08,0.0,0.0,0.0
2018420000,0,3.2678086e-05,3.3751065e-05,4.3685336e-08,0.0,0.0,0.0
2018432000,0,3.3048218e-05,3.6308782e-05,4.4387754e-08,0.0,0.0,0.0
2018440000,0,3.294922e-05,3.6705183e-05,4.4330463e-08,0.0,0.0,0.0
2018452000,0,3.278879e-05,3.6179295e-05,4.4083304e-08,0.0,0.0,0.0
2018460000,0,3.252132e-05,3.6167658e-05,4.379482e-08,0.0,0.0,0.0
2018472000,0,3.2399665e-05,3.5972997e-05,4.3669157e-08,0.0,0.0,0.0
2018480000,0,3.2352316e-05,3.5791643e-05,4.3603997e-08,0.0,0.0,0.0
2018492000,0,3.210538e-05,3.3240027e-05,4.298967e-08,0.0,0.0,0.0
2018500000,0,3.237261e-05,3.4930414e-05,4.348295e-08,0.0,0.0,0.0
2018512000,0,3.2506843e-05,3.635423e-05,4.380925e-08,0.0,0.0,0.0
2018520000,0,3.2614957e-05,3.6752543e-05,4.3938577e-08,0.0,0.0,0.0
2018532000,0,3.2121072e-05,3.6287176e-05,4.33733e-08,0.0,0.0,0.0
2018540000,0,3.1902873e-05,3.5191617e-05,4.303589e-08,0.0,0.0,0.0
2018552000,0,-0.0016844558,-0.001424542,-1.0838714e-06,0.0,0.0,0.0
2018560000,0,3.2525208e-05,3.409507e-05,4.3420517e-08,0.0,0.0,0.0
2018572000,0,3.2129785e-05,3.5823374e-05,4.3276092e-08,0.0,0.0,0.0
2018580000,0,3.190649e-05,3.5883444e-05,4.303787e-08,0.0,0.0,0.0
2018592000,0,3.1901363e-05,3.6064404e-05,4.303923e-08,0.0,0.0,0.0
2018600000,0,3.1610845e-05,3.421719e-05,4.2530342e-08,0.0,0.0,0.0
2018612000,0,3.146356e-05,3.5237863e-05,4.251176e-08,0.0,0.0,0.0
2018620000,0,3.1351185e-05,3.531197e-05,4.2391346e-08,0.0,0.0,0.0
2018632000,0,3.113815e-05,3.478849e-05,4.2063213e-08,0.0,0.0,0.0
2018640000,0,3.1490985e-05,3.5417772e-05,4.2531408e-08,0.0,0.0,0.0
2018652000,0,3.1513697e-05,3.5318484e-05,4.2544187e-08,0.0,0.0,0.0
2018660000,0,3.1548938e-05,3.5889927e-05,4.261359e-08,0.0,0.0,0.0
2018672000,0,3.1138876e-05,3.5030265e-05,4.2138616e-08,0.0,0.0,0.0
2018680000,0,3.105096e-05,3.4961467e-05,4.2031356e-08,0.0,0.0,0.0
2018692000,0,3.0896314e-05,3.43246e-05,4.1782524e-08,0.0,0.0,0.0
2018700000,0,3.1059753e-05,3.58111e-05,4.2084135e-08,0.0,0.0,0.0
2018712000,0,3.1144613e-05,3.5711917e-05,4.2186855e-08,0.0,0.0,0.0
2018720000,0,3.0972085e-05,3.4828365e-05,4.1889383e-08,0.0,0.0,0.0
2018732000,0,-0.0017116723,-0.0014523757,-1.0543326e-06,0.0,0.0,0.0
2018740000,0,3.114749e-05,3.449331e-05,4.195257e-08,0.0,0.0,0.0
2018752000,0,3.056721e-05,3.5004774e-05,4.145913e-08,0.0,0.0,0.0
2018760000,0,3.0208994e-05,3.318145e-05,4.0818737e-08,0.0,0.0,0.0
2018772000,0,3.045309e-05,3.4267316e-05,4.1196586e-08,0.0,0.0,0.0
2018780000,0,3.0534964e-05,3.5298974e-05,4.1413205e-08,0.0,0.0,0.0
2018792000,0,3.0509509e-05,3.5487403e-05,4.139383e-08,0.0,0.0,0.0
2018800000,0,3.0169607e-05,3.4421108e-05,4.0919556e-08,0.0,0.0,0.0
2018812000,0,2.9785248e-05,3.345526e-05,4.0387448e-08,0.0,0.0,0.0
2018820000,0,2.9847088e-05,3.430695e-05,4.0556635e-08,0.0,0.0,0.0
2018832000,0,2.9853363e-05,3.331612e-05,4.0403705e-08,0.0,0.0,0.0
2018840000,0,2.9966093e-05,3.4559675e-05,4.069951e-08,0.0,0.0,0.0
2018852000,0,2.9953693e-05,3.4117817e-05,4.063051e-08,0.0,0.0,0.0
2018860000,0,2.9841725e-05,3.4065502e-05,4.0506677e-08,0.0,0.0,0.0
2018872000,0,2.9629195e-05,3.4225628e-05,4.0325155e-08,0.0,0.0,0.0
2018880000,0,2.9565519e-05,3.403589e-05,4.02333e-08,0.0,0.0,0.0
2018892000,0,2.9212928e-05,3.3953966e-05,3.983998e-08,0.0,0.0,0.0
2018900000,0,2.9388657e-05,3.4540026e-05,4.003764e-08,0.0,0.0,0.0
2018912000,0,2.9516383e-05,3.4501045e-05,4.0192017e-08,0.0,0.0,0.0
2018920000,0,-0.0022599313,-0.0019998976,-7.732515e-07,0.0,0.0,0.0
2018932000,0,2.9254037e-05,3.364084e-05,3.9746812e-08,0.0,0.0,0.0
2018940000,0,2.890092e-05,3.310316e-05,3.928021e-08,0.0,0.0,0.0
2018952000,0,2.9062634e-05,3.4465855e-05,3.9615536e-08,0.0,0.0,0.0
2018960000,0,2.879875e-05,3.3002387e-05,3.9166213e-08,0.0,0.0,0.0
2018972000,0,2.907013e-05,3.4414727e-05,3.962402e-08,0.0,0.0,0.0
2018980000,0,2.8891229e-05,3.4560457e-05,3.9414694e-08,0.0,0.0,0.0
2018992000,0,2.8732988e-05,3.387287e-05,3.916266e-08,0.0,0.0,0.0
2019000000,0,2.8411876e-05,3.368562e-05,3.883416e-08,0.0,0.0,0.0
2019012000,0,2.8281853e-05,3.2623244e-05,3.854098e-08,0.0,0.0,0.0
2019020000,0,2.8394456e-05,3.3115055e-05,3.873034e-08,0.0,0.0,0.0
2019032000,0,2.8317258e-05,3.321245e-05,3.8640252e-08,0.0,0.0,0.0
2019040000,0,2.8288872e-05,3.3435725e-05,3.8613923e-08,0.0,0.0,0.0
2019052000,0,2.8142404e-05,3.3632055e-05,3.8499348e-08,0.0,0.0,0.0
2019060000,0,2.796248e-05,3.2550543e-05,3.8170093e-08,0.0,0.0,0.0
2019072000,0,2.7754048e-05,3.1995638e-05,3.788668e-08,0.0,0.0,0.0
2019080000,0,2.789785e-05,3.2869466e-05,3.8141245e-08,0.0,0.0,0.0
2019092000,0,2.7730024e-05,3.3632456e-05,3.8011066e-08,0.0,0.0,0.0
2019100000,0,2.7649023e-05,3.2853466e-05,3.7825977e-08,0.0,0.0,0.0
2019112000,0,2.7503209e-05,3.329031e-05,3.7741682e-08,0.0,0.0,0.0
2019120000,0,2.7358608e-05,3.2144504e-05,3.7441634e-08,0.0,0.0,0.0
2019132000,0,2.7200937e-05,3.2602995e-05,3.7318493e-08,0.0,0.0,0.0
2019140000,0,2.7264581e-05,3.2921464e-05,3.7436003e-08,0.0,0.0,0.0
2019152000,0,2.7074106e-05,3.3235e-05,3.7258406e-08,0.0,0.0,0.0
2019160000,0,2.7078531e-05,3.276886e-05,3.7164323e-08,0.0,0.0,0.0
2019172000,0,2.6916601e-05,3.299505e-05,3.704651e-08,0.0,0.0,0.0
2019180000,0,2.6962258e-05,3.215114e-05,3.698746e-08,0.0,0.0,0.0
2019192000,0,2.7151356e-05,3.2150772e-05,3.7088522e-08,0.0,0.0,0.0
2019200000,0,2.6665744e-05,3.2760734e-05,3.6670727e-08,0.0,0.0,0.0
2019212000,0,2.6735208e-05,3.2970216e-05,3.6743852e-08,0.0,0.0,0.0
2019220000,0,2.6602987e-05,3.2476604e-05,3.653847e-08,0.0,0.0,0.0
2019232000,0,2.6392148e-05,3.2719592e-05,3.636151e-08,0.0,0.0,0.0
2019240000,0,2.6281963e-05,3.1566316e-05,3.6075743e-08,0.0,0.0,0.0
2019252000,0,2.5970287e-05,3.1055464e-05,3.56772e-08,0.0,0.0,0.0
2019260000,0,2.6044705e-05,3.2656662e-05,3.59639e-08,0.0,0.0,0.0
2019272000,0,2.6162015e-05,3.2429954e-05,3.6045154e-08,0.0,0.0,0.0
2019280000,0,2.5979782e-05,3.2474254e-05,3.5842326e-08,0.0,0.0,0.0
2019292000,0,2.586574e-05,3.239491e-05,3.573019e-08,0.0,0.0,0.0
2019300000,0,2.5666379e-05,3.0620984e-05,3.527859e-08,0.0,0.0,0.0
2019312000,0,2.558987e-05,3.1870786e-05,3.535272e-08,0.0,0.0,0.0
2019320000,0,2.5422532e-05,3.2292668e-05,3.5205794e-08,0.0,0.0,0.0
2019332000,0,2.513741e-05,3.13886e-05,3.4793327e-08,0.0,0.0,0.0
2019340000,0,2.5213441e-05,3.1552518e-05,3.4888025e-08,0.0,0.0,0.0
2019352000,0,2.5140327e-05,3.1679996e-05,3.4818584e-08,0.0,0.0,0.0
2019360000,0,2.4985915e-05,3.1390733e-05,3.4616225e-08,0.0,0.0,0.0
2019372000,0,2.491795e-05,3.1928215e-05,3.4595843e-08,0.0,0.0,0.0
2019380000,0,2.467499e-05,3.1940188e-05,3.431548e-08,0.0,0.0,0.0
2019392000,0,2.4624405e-05,3.1445343e-05,3.4162827e-08,0.0,0.0,0.0
2019400000,0,2.4520536e-05,3.160114e-05,3.4107742e-08,0.0,0.0,0.0
2019412000,0,2.4278996e-05,2.9847934e-05,3.362921e-08,0.0,0.0,0.0
2019420000,0,2.4164623e-05,2.9409443e-05,3.3430855e-08,0.0,0.0,0.0
2019432000,0,2.4324e-05,3.174751e-05,3.3906943e-08,0.0,0.0,0.0
2019440000,0,2.4146642e-05,3.1532938e-05,3.366846e-08,0.0,0.0,0.0
2019452000,0,2.392813e-05,3.0678737e-05,3.3320088e-08,0.0,0.0,0.0
2019460000,0,2.3806522e-05,3.105124e-05,3.322424e-08,0.0,0.0,0.0
2019472000,0,2.3617424e-05,3.0174944e-05,3.2841186e-08,0.0,0.0,0.0
2019480000,0,2.3607554e-05,3.094662e-05,3.2980157e-08,0.0,0.0,0.0
2019492000,0,2.3693854e-05,3.1440435e-05,3.3152666e-08,0.0,0.0,0.0
2019500000,0,2.3302073e-05,2.99262e-05,3.2541365e-08,0.0,0.0,0.0
2019512000,0,2.332064e-05,3.0795996e-05,3.2647456e-08,0.0,0.0,0.0
2019520000,0,2.307884e-05,2.9474444e-05,3.221522e-08,0.0,0.0,0.0
2019532000,0,2.2930544e-05,2.9446803e-05,3.205795e-08,0.0,0.0,0.0
2019540000,0,-0.0032854897,-0.0030447592,-2.38072e-07,0.0,0.0,0.0
2019552000,0,2.2851766e-05,3.0254954e-05,3.196941e-08,0.0,0.0,0.0
2019560000,0,2.268681e-05,3.0551633e-05,3.1796013e-08,0.0,0.0,0.0
2019572000,0,2.2274748e-05,2.9105664e-05,3.1184427e-08,0.0,0.0,0.0
2019580000,0,2.2322643e-05,2.8852663e-05,3.119419e-08,0.0,0.0,0.0
2019592000,0,2.240514e-05,3.051536e-05,3.150545e-08,0.0,0.0,0.0
2019600000,0,2.2096901e-05,3.043942e-05,3.1142513e-08,0.0,0.0,0.0
2019612000,0,2.1873268e-05,2.9637678e-05,3.07802e-08,0.0,0.0,0.0
2019620000,0,2.1765341e-05,2.9490897e-05,3.0654437e-08,0.0,0.0,0.0
2019632000,0,2.173799e-05,2.902373e-05,3.0555086e-08,0.0,0.0,0.0
2019640000,0,2.1490814e-05,2.8890348e-05,3.0269554e-08,0.0,0.0,0.0
2019652000,0,2.143613e-05,3.0142366e-05,3.0358272e-08,0.0,0.0,0.0
2019660000,0,2.1467677e-05,3.0080568e-05,3.0372608e-08,0.0,0.0,0.0
2019672000,0,2.1215972e-05,2.872624e-05,2.9936814e-08,0.0,0.0,0.0
2019680000,0,2.0906147e-05,2.819557e-05,2.9511364e-08,0.0,0.0,0.0
2019692000,0,2.0742964e-05,2.846506e-05,2.9337864e-08,0.0,0.0,0.0
2019700000,0,2.0755642e-05,2.9752375e-05,2.9532256e-08,0.0,0.0,0.0
2019712000,0,2.06514e-05,2.9367062e-05,2.9363624e-08,0.0,0.0,0.0
2019720000,0,2.0600459e-05,2.918028e-05,2.9273673e-08,0.0,0.0,0.0
2019732000,0,2.0192578e-05,2.8340526e-05,2.8716537e-08,0.0,0.0,0.0
2019740000,0,2.0111926e-05,2.9123968e-05,2.8697745e-08,0.0,0.0,0.0
2019752000,0,2.0133655e-05,2.9394161e-05,2.8770806e-08,0.0,0.0,0.0
2019760000,0,2.0029704e-05,2.9113455e-05,2.8627264e-08,0.0,0.0,0.0
2019772000,0,1.9746114e-05,2.7986363e-05,2.8160045e-08,0.0,0.0,0.0
2019780000,0,1.9579442e-05,2.7625281e-05,2.791716e-08,0.0,0.0,0.0
2019792000,0,1.9375968e-05,2.8363294e-05,2.7799926e-08,0.0,0.0,0.0
2019800000,0,1.9290434e-05,2.856208e-05,2.7712275e-08,0.0,0.0,0.0
2019812000,0,1.914964e-05,2.8571969e-05,2.754974e-08,0.0,0.0,0.0
2019820000,0,1.9167548e-05,2.8282542e-05,2.7542788e-08,0.0,0.0,0.0
2019832000,0,1.8867251e-05,2.7849675e-05,2.7140846e-08,0.0,0.0,0.0
2019840000,0,1.8723787e-05,2.7411012e-05,2.6912646e-08,0.0,0.0,0.0
2019852000,0,1.8552651e-05,2.802108e-05,2.6813698e-08,0.0,0.0,0.0
2019860000,0,1.8326506e-05,2.7557722e-05,2.6513462e-08,0.0,0.0,0.0
2019872000,0,1.8486437e-05,2.8339135e-05,2.6748442e-08,0.0,0.0,0.0
2019880000,0,1.8219347e-05,2.7179003e-05,2.6315616e-08,0.0,0.0,0.0
2019892000,0,1.8195462e-05,2.8164377e-05,2.6393955e-08,0.0,0.0,0.0
2019900000,0,1.8048422e-05,2.7821907e-05,2.6191632e-08,0.0,0.0,0.0
2019912000,0,1.7885088e-05,2.7719036e-05,2.6006559e-08,0.0,0.0,0.0
2019920000,0,1.785719e-05,2.7720956e-05,2.592977e-08,0.0,0.0,0.0
2019932000,0,1.7527986e-05,2.7278362e-05,2.5519848e-08,0.0,0.0,0.0
2019940000,0,1.7276912e-05,2.6852447e-05,2.5182427e-08,0.0,0.0,0.0
2019952000,0,1.7132787e-05,2.7499913e-05,2.5113243e-08,0.0,0.0,0.0
2019960000,0,1.6007752e-05,2.674957e-05,2.370094e-08,0.0,0.0,0.0
2019972000,0,1.51731765e-05,2.605905e-05,2.2628134e-08,0.0,0.0,0.0
2019980000,0,1.4736302e-05,2.5700683e-05,2.2093495e-08,0.0,0.0,0.0
2019992000,0,1.428491e-05,2.482662e-05,2.1486656e-08,0.0,0.0,0.0
2020000000,0,1.4188767e-05,2.5991516e-05,2.1501233e-08,0.0,0.0,0.0
2020012000,0,1.4089337e-05,2.5237596e-05,2.12758e-08,0.0,0.0,0.0
2020020000,0,1.3958468e-05,2.565739e-05,2.1178572e-08,0.0,0.0,0.0
2020032000,0,1.3636402e-05,2.4968538e-05,2.0738526e-08,0.0,0.0,0.0
2020040000,0,-0.004257119,-0.004058301,4.9511294e-07,0.0,0.0,0.0
2020052000,0,1.3485302e-05,2.5155481e-05,2.0532248e-08,0.0,0.0,0.0
2020060000,0,1.32188725e-05,2.4790179e-05,2.0192992e-08,0.0,0.0,0.0
2020072000,0,1.31534625e-05,2.4942845e-05,2.0126597e-08,0.0,0.0,0.0
2020080000,0,1.2832757e-05,2.4445279e-05,1.9720273e-08,0.0,0.0,0.0
2020092000,0,1.2866365e-05,2.4496003e-05,1.9730704e-08,0.0,0.0,0.0
2020100000,0,1.2548388e-05,2.475186e-05,1.9407759e-08,0.0,0.0,0.0
2020112000,0,1.2253335e-05,2.4305757e-05,1.9040996e-08,0.0,0.0,0.0
2020120000,0,1.1998787e-05,2.4008255e-05,1.8706869e-08,0.0,0.0,0.0
2020132000,0,1.18502485e-05,2.4213668e-05,1.856794e-08,0.0,0.0,0.0
2020140000,0,1.1819561e-05,2.3822648e-05,1.846462e-08,0.0,0.0,0.0
2020152000,0,1.1693608e-05,2.4062198e-05,1.8341394e-08,0.0,0.0,0.0
2020160000,0,1.1461692e-05,2.4370167e-05,1.8116737e-08,0.0,0.0,0.0
2020172000,0,1.0909434e-05,2.35709e-05,1.7379522e-08,0.0,0.0,0.0
2020180000,0,1.0860808e-05,2.2981412e-05,1.724323e-08,0.0,0.0,0.0
2020192000,0,1.0872859e-05,2.3529703e-05,1.7323083e-08,0.0,0.0,0.0
2020200000,0,1.0523895e-05,2.3069086e-05,1.6896056e-08,0.0,0.0,0.0
2020212000,0,1.01876585e-05,2.2596105e-05,1.6403252e-08,0.0,0.0,0.0
2020220000,0,1.0094101e-05,2.3086564e-05,1.6366009e-08,0.0,0.0,0.0
2020232000,0,1.01618125e-05,2.258724e-05,1.634138e-08,0.0,0.0,0.0
2020240000,0,1.00956195e-05,2.259418e-05,1.6254205e-08,0.0,0.0,0.0
2020252000,0,9.8871415e-06,2.2321174e-05,1.5991606e-08,0.0,0.0,0.0
2020260000,0,9.817765e-06,2.2419268e-05,1.5911791e-08,0.0,0.0,0.0
2020272000,0,9.853211e-06,2.2297583e-05,1.588746e-08,0.0,0.0,0.0
2020280000,0,9.713829e-06,2.2317272e-05,1.5730459e-08,0.0,0.0,0.0
2020292000,0,9.362784e-06,2.2229286e-05,1.535958e-08,0.0,0.0,0.0
2020300000,0,9.525163e-06,2.23087e-05,1.5566899e-08,0.0,0.0,0.0
2020312000,0,9.143205e-06,2.274005e-05,1.5200847e-08,0.0,0.0,0.0
2020320000,0,7.912373e-06,2.1934684e-05,1.3765585e-08,0.0,0.0,0.0
2020332000,0,6.893054e-06,2.1736096e-05,1.2669469e-08,0.0,0.0,0.0
2020340000,0,6.5369227e-06,2.1783615e-05,1.2250142e-08,0.0,0.0,0.0
2020352000,0,5.565112e-06,2.1529651e-05,1.1142084e-08,0.0,0.0,0.0
2020360000,0,4.5420447e-06,2.1582082e-05,1.0008457e-08,0.0,0.0,0.0
2020372000,0,3.6165154e-06,2.1161224e-05,8.9837595e-09,0.0,0.0,0.0
2020380000,0,3.2030212e-06,2.1736712e-05,8.583145e-09,0.0,0.0,0.0
2020392000,0,2.4320059e-06,2.0421106e-05,7.588367e-09,0.0,0.0,0.0
2020400000,0,1.8600589e-06,2.1300384e-05,7.0727912e-09,0.0,0.0,0.0
2020412000,0,7.406135e-07,2.051629e-05,5.7471925e-09,0.0,0.0,0.0
2020420000,0,-4.4751732e-07,2.0679508e-05,4.4267363e-09,0.0,0.0,0.0
2020432000,0,1.7555469e-06,2.0896086e-05,6.8954584e-09,0.0,0.0,0.0
2020440000,0,9.872923e-07,2.0921487e-05,6.0353074e-09,0.0,0.0,0.0
2020452000,0,4.766806e-07,1.9969182e-05,5.308361e-09,0.0,0.0,0.0
2020460000,0,2.3465928e-07,2.0060059e-05,5.0476983e-09,0.0,0.0,0.0
2020472000,0,-2.2976699e-06,2.0252097e-05,2.2515123e-09,0.0,0.0,0.0
2020480000,0,-2.0408816e-06,2.0217338e-05,2.4551334e-09,0.0,0.0,0.0
2020492000,0,-2.8832076e-06,1.8252776e-05,1.1356941e-09,0.0,0.0,0.0
2020500000,0,-1.9935524e-06,1.8123254e-05,1.950625e-09,0.0,0.0,0.0
2020512000,0,-8.9293377e-07,2.9487726e-05,6.0310383e-09,0.0,0.0,0.0
2020520000,0,-0.00046152738,0.00010074314,2.776252e-05,0.0,0.0,0.0
2020532000,0,-0.002910261,0.00010184176,2.894387e-05,0.0,0.0,0.0
2020540000,0,-0.0052895914,0.00010736492,3.070652e-05,0.0,0.0,0.0
2020552000,0,-0.010398375,0.00010975186,3.1917414e-05,0.0,0.0,0.0
2020560000,0,-0.015492082,0.000114744245,3.356129e-05,0.0,0.0,0.0
2020572000,0,-0.025199637,0.000117697775,3.5204754e-05,0.0,0.0,0.0
2020580000,0,-0.032391526,0.0001187601,3.5654735e-05,0.0,0.0,0.0
2020592000,0,-0.04344388,0.00012411407,3.6405283e-05,0.0,0.0,0.0
2020600000,0,-0.052538484,0.00012646994,3.7349593e-05,0.0,0.0,0.0
2020612000,0,-0.06747722,6.6050365e-05,2.2089092e-05,0.0,0.0,0.0
2020620000,0,-0.07767842,5.8769732e-05,0.000103066144,0.0,0.0,0.0
2020632000,0,-0.09251047,-1.7689166e-05,0.0006685435,0.0,0.0,0.0
2020640000,0,-0.10309501,-2.907314e-05,0.0014164253,0.0,0.0,0.0
2020652000,0,-0.11916056,0.0013264188,0.0022536658,0.0,0.0,0.0
2020660000,0,-0.12877198,0.0044085137,0.0024200587,0.0,0.0,0.0
2020672000,0,-0.1414295,0.010260918,0.0021860565,0.0,0.0,0.0
2020680000,0,-0.14672889,0.01797619,0.0012361521,0.0,0.0,0.0
2020692000,0,-0.15469496,0.031061398,-0.0006131195,0.0,0.0,0.0
2020700000,0,-0.15914907,0.041023202,-0.0021406908,0.0,0.0,0.0
2020712000,0,-0.16557579,0.0551449,-0.00226641,0.0,0.0,0.0
2020720000,0,-0.16837499,0.06479686,-0.0020712037,0.0,0.0,0.0
2020732000,0,-0.17289937,0.07787617,-0.0017738885,0.0,0.0,0.0
2020740000,0,-0.1747966,0.08217461,-0.0014303981,0.0,0.0,0.0
2020752000,0,-0.1719625,0.08429705,-0.0010002998,0.0,0.0,0.0
2020760000,0,-0.16850783,0.08481927,-0.0007092995,0.0,0.0,0.0
2020772000,0,-0.16206199,0.08515891,-0.00044155735,0.0,0.0,0.0
2020780000,0,-0.15295602,0.08206717,-0.00023582664,0.0,0.0,0.0
2020792000,0,-0.13223836,0.07618087,9.92674e-05,0.0,0.0,0.0
2020800000,0,-0.11946179,0.07347902,0.00031549993,0.0,0.0,0.0
2020812000,0,-0.10384202,0.07263813,0.0006542781,0.0,0.0,0.0
2020820000,0,-0.0961596,0.06965132,0.00083751365,0.0,0.0,0.0
2020832000,0,-0.08448831,0.06968808,0.0011478107,0.0,0.0,0.0
2020840000,0,-0.07700657,0.06844257,0.0012301886,0.0,0.0,0.0
2020852000,0,-0.0667071,0.066489324,0.001400363,0.0,0.0,0.0
2020860000,0,-0.059194803,0.06198783,0.0014422279,0.0,0.0,0.0
2020872000,0,-0.04666554,0.055129103,0.0015234129,0.0,0.0,0.0
2020880000,0,-0.03902018,0.05018161,0.00156293,0.0,0.0,0.0
2020892000,0,-0.027853971,0.042810373,0.001786482,0.0,0.0,0.0
2020900000,0,-0.022851503,0.038204636,0.0019516336,0.0,0.0,0.0
2020912000,0,-0.014175123,0.031035598,0.0022229045,0.0,0.0,0.0
2020920000,0,-0.009072323,0.024439624,0.0023492828,0.0,0.0,0.0
2020932000,0,0.001145149,0.016635615,0.002485621,0.0,0.0,0.0
2020940000,0,0.007407115,0.012197672,0.002532948,0.0,0.0,0.0
2020952000,0,0.014547225,0.0057098353,0.0026048294,0.0,0.0,0.0
2020960000,0,0.01971905,0.0028366677,0.0026797613,0.0,0.0,0.0
2020972000,0,0.026874917,0.0007003137,0.0028626472,0.0,0.0,0.0
2020980000,0,0.032866217,-0.0010278511,0.0029844618,0.0,0.0,0.0
2020992000,0,0.042301234,-0.0029588914,0.0031108211,0.0,0.0,0.0
2021000000,0,0.04868346,-0.0048757656,0.003130227,0.0,0.0,0.0
2021012000,0,0.057044093,-0.011655351,0.003057178,0.0,0.0,0.0
2021020000,0,0.062065095,-0.01583521,0.0029599182,0.0,0.0,0.0
2021032000,0,0.070738375,-0.02127861,0.0029119793,0.0,0.0,0.0
2021040000,0,0.07414062,-0.023671256,0.0029279483,0.0,0.0,0.0
2021052000,0,0.07707614,-0.028869838,0.0030472344,0.0,0.0,0.0
2021060000,0,0.07804344,-0.032224745,0.003026246,0.0,0.0,0.0
2021072000,0,0.08214434,-0.036374677,0.0030211688,0.0,0.0,0.0
2021080000,0,0.08300072,-0.03792485,0.0029623213,0.0,0.0,0.0
2021092000,0,0.08261236,-0.03921262,0.0028310006,0.0,0.0,0.0
2021100000,0,0.08263576,-0.04083807,0.0027452363,0.0,0.0,0.0
2021112000,0,0.08601458,-0.042767573,0.0025471179,0.0,0.0,0.0
2021120000,0,0.0904164,-0.040886138,0.0024126903,0.0,0.0,0.0
2021132000,0,0.094969824,-0.042192053,0.0022565087,0.0,0.0,0.0
2021140000,0,0.097998925,-0.041585714,0.0022877743,0.0,0.0,0.0
2021152000,0,0.10351432,-0.040595736,0.0022800518,0.0,0.0,0.0
2021160000,0,0.10516639,-0.039729167,0.002304712,0.0,0.0,0.0
2021172000,0,0.10131671,-0.042009912,0.0022101945,0.0,0.0,0.0
2021180000,0,0.10076828,-0.044797353,0.002227383,0.0,0.0,0.0
2021192000,0,0.10058555,-0.047653675,0.0020864622,0.0,0.0,0.0
2021200000,0,0.09745037,-0.04689987,0.002051181,0.0,0.0,0.0
2021212000,0,0.09261251,-0.046670415,0.0018239508,0.0,0.0,0.0
2021220000,0,0.09067731,-0.047468357,0.0016679271,0.0,0.0,0.0
2021232000,0,0.08893111,-0.046235114,0.0012862774,0.0,0.0,0.0
2021240000,0,0.08877188,-0.0450523,0.0010037909,0.0,0.0,0.0
2021252000,0,0.09020332,-0.043268587,0.0005516008,0.0,0.0,0.0
2021260000,0,0.091102675,-0.043682437,0.00018794283,0.0,0.0,0.0
2021272000,0,0.08985522,-0.042005282,-0.00024829071,0.0,0.0,0.0
2021280000,0,0.08616401,-0.04106125,-0.0006030537,0.0,0.0,0.0
2021292000,0,0.083590806,-0.04078966,-0.0009942712,0.0,0.0,0.0
2021300000,0,0.08216491,-0.041094173,-0.0013006006,0.0,0.0,0.0
2021312000,0,0.0779758,-0.040365033,-0.0015898503,0.0,0.0,0.0
2021320000,0,0.0745608,-0.039716486,-0.0017473828,0.0,0.0,0.0
2021332000,0,0.06926123,-0.03850728,-0.0017752111,0.0,0.0,0.0
2021340000,0,0.066029646,-0.037829805,-0.0018473191,0.0,0.0,0.0
2021352000,0,0.06176566,-0.036057897,-0.0018399089,0.0,0.0,0.0
2021360000,0,0.060970176,-0.036135625,-0.0017911097,0.0,0.0,0.0
2021372000,0,0.060977798,-0.039149653,-0.0016667618,0.0,0.0,0.0
2021380000,0,0.06308771,-0.037596416,-0.0016336091,0.0,0.0,0.0
2021392000,0,0.06646926,-0.03632285,-0.0015284995,0.0,0.0,0.0
2021400000,0,0.06721577,-0.034544487,-0.0013568349,0.0,0.0,0.0
2021412000,0,0.06579857,-0.031040348,-0.0011159917,0.0,0.0,0.0
2021420000,0,0.063384645,-0.027581422,-0.00090737577,0.0,0.0,0.0
2021432000,0,0.05700251,-0.024981495,-0.0006473185,0.0,0.0,0.0
2021440000,0,0.05298526,-0.023153912,-0.00046514426,0.0,0.0,0.0
2021452000,0,0.048513226,-0.019125082,-0.00029212903,0.0,0.0,0.0
2021460000,0,0.04447261,-0.01841001,-0.00017132839,0.0,0.0,0.0
2021472000,0,0.039105147,-0.020025432,-9.2568036e-05,0.0,0.0,0.0
2021480000,0,0.03668634,-0.021471497,-6.4878564e-05,0.0,0.0,0.0
2021492000,0,0.037831284,-0.019875156,-0.00018171637,0.0,0.0,0.0
2021500000,0,0.039946657,-0.018133061,-0.00023920836,0.0,0.0,0.0
2021512000,0,0.04081949,-0.018007984,-0.00033926158,0.0,0.0,0.0
2021520000,0,0.040227167,-0.019712206,-0.0004289262,0.0,0.0,0.0
2021532000,0,0.03727897,-0.01972771,-0.0005354036,0.0,0.0,0.0
2021540000,0,0.03490576,-0.01795031,-0.0006147002,0.0,0.0,0.0
2021552000,0,0.03140035,-0.016705936,-0.00072418357,0.0,0.0,0.0
2021560000,0,0.03039281,-0.018108979,-0.0007632613,0.0,0.0,0.0
2021572000,0,0.029001676,-0.017693307,-0.00079309416,0.0,0.0,0.0
2021580000,0,0.026029134,-0.016916595,-0.00076928566,0.0,0.0,0.0
2021592000,0,0.023503067,-0.016781153,-0.00063641375,0.0,0.0,0.0
2021600000,0,0.02314774,-0.01824896,-0.0005553443,0.0,0.0,0.0
2021612000,0,0.021366907,-0.01961477,-0.00052365335,0.0,0.0,0.0
2021620000,0,0.020566529,-0.019206464,-0.00055462413,0.0,0.0,0.0
2021632000,0,0.020802194,-0.01878918,-0.0005432881,0.0,0.0,0.0
2021640000,0,0.022679234,-0.018740516,-0.0005504116,0.0,0.0,0.0
2021652000,0,0.024187572,-0.017553722,-0.0004843888,0.0,0.0,0.0
2021660000,0,0.02357977,-0.01648937,-0.00046160072,0.0,0.0,0.0
2021672000,0,0.022548899,-0.014181973,-0.00039160348,0.0,0.0,0.0
2021680000,0,0.02165995,-0.014224583,-0.00038128547,0.0,0.0,0.0
2021692000,0,0.01948287,-0.016102158,-0.0003615292,0.0,0.0,0.0
2021700000,0,0.019018192,-0.01602514,-0.00032534933,0.0,0.0,0.0
2021712000,0,0.017614469,-0.015569947,-0.00022262515,0.0,0.0,0.0
2021720000,0,0.018123353,-0.013868346,-0.00016177208,0.0,0.0,0.0
2021732000,0,0.0205075,-0.01172086,2.9761353e-05,0.0,0.0,0.0
2021740000,0,0.021970069,-0.0116836075,0.00021838992,0.0,0.0,0.0
2021752000,0,0.02604958,-0.012756299,0.0006104702,0.0,0.0,0.0
2021760000,0,0.027722321,-0.012227221,0.0008419283,0.0,0.0,0.0
2021772000,0,0.026018007,-0.01312423,0.0011236125,0.0,0.0,0.0
2021780000,0,0.024795365,-0.0138151115,0.0012939757,0.0,0.0,0.0
2021792000,0,0.02418908,-0.014057332,0.0014782491,0.0,0.0,0.0
2021800000,0,0.023679985,-0.014046943,0.0016082809,0.0,0.0,0.0
2021812000,0,0.024010116,-0.014804995,0.0017571235,0.0,0.0,0.0
2021820000,0,0.025963632,-0.015578751,0.0018576769,0.0,0.0,0.0
2021832000,0,0.027087845,-0.01474879,0.0020366588,0.0,0.0,0.0
2021840000,0,0.026869837,-0.013023911,0.0021586288,0.0,0.0,0.0
2021852000,0,0.027219666,-0.009666333,0.0022836,0.0,0.0,0.0
2021860000,0,0.027418915,-0.007395988,0.002355825,0.0,0.0,0.0
2021872000,0,0.025463747,-0.0055455887,0.0023493927,0.0,0.0,0.0
2021880000,0,0.023997549,-0.00489155,0.0023946294,0.0,0.0,0.0
2021892000,0,0.023068145,-0.006537174,0.0025335103,0.0,0.0,0.0
2021900000,0,0.023477968,-0.0064525967,0.0026231792,0.0,0.0,0.0
2021912000,0,0.021279624,-0.006388803,0.0027981228,0.0,0.0,0.0
2021920000,0,0.01854368,-0.0059103225,0.0029728087,0.0,0.0,0.0
2021932000,0,0.017174028,-0.003923086,0.0031671347,0.0,0.0,0.0
2021940000,0,0.01652567,-0.0024877375,0.003282276,0.0,0.0,0.0
2021952000,0,0.017645208,-0.0024063648,0.0034202323,0.0,0.0,0.0
2021960000,0,0.01853762,-0.004896558,0.0034573348,0.0,0.0,0.0
2021972000,0,0.020107236,-0.010023356,0.003407232,0.0,0.0,0.0
2021980000,0,0.020349428,-0.01267698,0.0033930351,0.0,0.0,0.0
2021992000,0,0.017962443,-0.011872542,0.0034964662,0.0,0.0,0.0
2022000000,0,0.015673257,-0.011768029,0.0035351545,0.0,0.0,0.0
2022012000,0,0.011951943,-0.011195485,0.003504689,0.0,0.0,0.0
2022020000,0,0.010751418,-0.01019678,0.003447465,0.0,0.0,0.0
2022032000,0,0.009545993,-0.0085639665,0.0033312142,0.0,0.0,0.0
2022040000,0,0.010731229,-0.00837602,0.0032180646,0.0,0.0,0.0
2022052000,0,0.013818311,-0.0079776,0.0029912018,0.0,0.0,0.0
2022060000,0,0.014591446,-0.0072072567,0.0028369378,0.0,0.0,0.0
2022072000,0,0.014637531,-0.0055989493,0.002542159,0.0,0.0,0.0
2022080000,0,0.01460491,-0.005639878,0.0023139403,0.0,0.0,0.0
2022092000,0,0.015413163,-0.0044183317,0.001966704,0.0,0.0,0.0
2022100000,0,0.015634364,-0.0036974822,0.0017080315,0.0,0.0,0.0
2022112000,0,0.013431551,-0.0034972078,0.0013328549,0.0,0.0,0.0
2022120000,0,0.011615812,-0.0014204107,0.0011576394,0.0,0.0,0.0
2022132000,0,0.0090818945,0.0021469716,0.001001257,0.0,0.0,0.0
2022140000,0,0.00840751,0.0032546588,0.0009163584,0.0,0.0,0.0
2022152000,0,0.008120096,0.0023242207,0.00080411416,0.0,0.0,0.0
2022160000,0,0.0072701103,0.00010876199,0.000713052,0.0,0.0,0.0
2022172000,0,0.0057143327,-0.0019107949,0.00055329304,0.0,0.0,0.0
2022180000,0,0.0036480904,-0.0029985497,0.00043422938,0.0,0.0,0.0
2022192000,0,0.0011507556,-0.0049662194,0.00026517146,0.0,0.0,0.0
2022200000,0,0.0011307086,-0.0061130715,0.00016237018,0.0,0.0,0.0
2022212000,0,0.0015194267,-0.0042767837,-8.543862e-06,0.0,0.0,0.0
2022220000,0,0.0018915152,-0.0021334996,-0.00014369034,0.0,0.0,0.0
2022232000,0,0.0039067846,-0.000917655,-0.00030979977,0.0,0.0,0.0
2022240000,0,0.005423372,-0.0013699032,-0.0004092952,0.0,0.0,0.0
2022252000,0,0.005873819,-0.0029582207,-0.00045550606,0.0,0.0,0.0
2022260000,0,0.0038117196,-0.0039466685,-0.0004553945,0.0,0.0,0.0
2022272000,0,0.0021978489,-0.004153741,-0.00041443823,0.0,0.0,0.0
2022280000,0,0.0033166762,-0.0034987568,-0.00037510187,0.0,0.0,0.0
2022292000,0,0.005248606,-0.0040216655,-0.0003002963,0.0,0.0,0.0
2022300000,0,0.0057278774,-0.0049879597,-0.00023500693,0.0,0.0,0.0
2022312000,0,0.0065930723,-0.0070155617,-9.8491284e-05,0.0,0.0,0.0
2022320000,0,0.0052909944,-0.00747992,4.7800124e-05,0.0,0.0,0.0
2022332000,0,0.0027162,-0.0076084686,0.00026290913,0.0,0.0,0.0
2022340000,0,0.0019445876,-0.0064500063,0.00036182825,0.0,0.0,0.0
2022352000,0,-0.00084129476,-0.004665521,0.00048999186,0.0,0.0,0.0
2022360000,0,-0.0031445872,-0.0035848964,0.00058212504,0.0,0.0,0.0
2022372000,0,-0.0049259514,-0.00042359822,0.0007152274,0.0,0.0,0.0
2022380000,0,-0.005310529,0.0018287092,0.0008361175,0.0,0.0,0.0
2022392000,0,-0.006697366,0.0040634335,0.0010218858,0.0,0.0,0.0
2022400000,0,-0.005763814,0.0052394085,0.0011071508,0.0,0.0,0.0
2022412000,0,-0.008194346,0.006501243,0.001156423,0.0,0.0,0.0
2022420000,0,-0.009815245,0.00756104,0.0011629988,0.0,0.0,0.0
2022432000,0,-0.012267766,0.0068996074,0.001083242,0.0,0.0,0.0
2022440000,0,-0.012872969,0.004453835,0.0009967256,0.0,0.0,0.0
2022452000,0,-0.014556239,0.002816703,0.0009082969,0.0,0.0,0.0
2022460000,0,-0.015552124,0.0020991804,0.0008688776,0.0,0.0,0.0
2022468000,0,-0.01630381,0.0017484878,0.00082411384,0.0,0.0,0.0
2022480000,0,-0.017306197,0.0036889962,0.0006909567,0.0,0.0,0.0
2022492000,0,-0.018098395,0.004037986,0.00056243147,0.0,0.0,0.0
2022500000,0,-0.017168507,0.0040871683,0.00045480567,0.0,0.0,0.0
2022512000,0,-0.014747209,0.0026056138,0.00034676428,0.0,0.0,0.0
2022520000,0,-0.011939548,0.0008377528,0.00025975105,0.0,0.0,0.0
2022532000,0,-0.009705726,-5.1522038e-05,0.00022778824,0.0,0.0,0.0
2022540000,0,-0.009364473,0.0009158795,0.00018630797,0.0,0.0,0.0
2022552000,0,-0.010561837,0.0018992588,5.433895e-05,0.0,0.0,0.0
2022560000,0,-0.011382586,0.0026146239,-5.8703667e-05,0.0,0.0,0.0
2022572000,0,-0.01094382,0.0010123017,-0.00021411601,0.0,0.0,0.0
2022580000,0,-0.0103678685,-0.0009041569,-0.00032875247,0.0,0.0,0.0
2022592000,0,-0.010177471,-0.0029164348,-0.0005061016,0.0,0.0,0.0
2022600000,0,-0.009290348,-0.0021815456,-0.00063079305,0.0,0.0,0.0
2022612000,0,-0.0077592055,-0.00089682906,-0.00075478404,0.0,0.0,0.0
2022620000,0,-0.0067128986,-0.0008485476,-0.0008082653,0.0,0.0,0.0
2022632000,0,-0.00647466,-0.00031165156,-0.0007736424,0.0,0.0,0.0
2022640000,0,-0.0073547447,0.00088191155,-0.00066296355,0.0,0.0,0.0
2022652000,0,-0.010322161,0.0017925769,-0.00052164285,0.0,0.0,0.0
2022660000,0,-0.011124863,0.0031762656,-0.0004125436,0.0,0.0,0.0
2022672000,0,-0.010893039,0.005414954,-0.000199462,0.0,0.0,0.0
2022680000,0,-0.010307956,0.005207892,-1.9601946e-05,0.0,0.0,0.0
2022692000,0,-0.009176052,0.003545974,0.00025386247,0.0,0.0,0.0
2022700000,0,-0.008258905,0.0026131496,0.00042210802,0.0,0.0,0.0
2022712000,0,-0.008319398,0.0016846958,0.00065690064,0.0,0.0,0.0
2022720000,0,-0.008289356,0.001301503,0.00080694107,0.0,0.0,0.0
2022732000,0,-0.009349323,0.0019962313,0.0010824027,0.0,0.0,0.0
2022740000,0,-0.0105788205,0.003845388,0.0013222453,0.0,0.0,0.0
2022752000,0,-0.01061855,0.006738332,0.0017045197,0.0,0.0,0.0
2022760000,0,-0.009087685,0.009429399,0.0019582394,0.0,0.0,0.0
2022772000,0,-0.00569431,0.012357984,0.0023285476,0.0,0.0,0.0
2022780000,0,-0.0041263374,0.013183534,0.0025267683,0.0,0.0,0.0
2022792000,0,-0.0051213778,0.012837964,0.0027382856,0.0,0.0,0.0
2022800000,0,-0.005684646,0.012693348,0.0028461018,0.0,0.0,0.0
2022812000,0,-0.0068602767,0.014278425,0.0029781894,0.0,0.0,0.0
2022820000,0,-0.008237021,0.014496587,0.0030197385,0.0,0.0,0.0
2022832000,0,-0.009780673,0.015163474,0.003016437,0.0,0.0,0.0
2022840000,0,-0.010882438,0.014984337,0.0029712445,0.0,0.0,0.0
2022852000,0,-0.0115785,0.014661549,0.0029157868,0.0,0.0,0.0
2022860000,0,-0.012386299,0.015377004,0.002896449,0.0,0.0,0.0
2022872000,0,-0.012708683,0.016480135,0.0029170094,0.0,0.0,0.0
2022880000,0,-0.012226121,0.01633237,0.002910889,0.0,0.0,0.0
2022892000,0,-0.013166125,0.015205205,0.0028643683,0.0,0.0,0.0
2022900000,0,-0.0142922355,0.014582685,0.0028419076,0.0,0.0,0.0
2022912000,0,-0.013561482,0.013132926,0.0028744233,0.0,0.0,0.0
2022920000,0,-0.014195622,0.011269009,0.0029274167,0.0,0.0,0.0
2022932000,0,-0.013807748,0.0105811795,0.0029694904,0.0,0.0,0.0
2022940000,0,-0.012119307,0.009660775,0.002992513,0.0,0.0,0.0
2022952000,0,-0.01051955,0.009212361,0.0029977749,0.0,0.0,0.0
2022960000,0,-0.010724382,0.010063027,0.003004708,0.0,0.0,0.0
2022972000,0,-0.014730912,0.012583116,0.0030682003,0.0,0.0,0.0
2022980000,0,-0.01734925,0.013366132,0.0031056984,0.0,0.0,0.0
2022992000,0,-0.019496681,0.013635431,0.0032050447,0.0,0.0,0.0
2023000000,0,-0.020194301,0.0130640585,0.0032868136,0.0,0.0,0.0
2023012000,0,-0.019423893,0.007976631,0.0035054283,0.0,0.0,0.0
2023020000,0,-0.018423392,0.005333964,0.0036458478,0.0,0.0,0.0
2023032000,0,-0.018159643,0.002958742,0.0038335721,0.0,0.0,0.0
2023040000,0,-0.016059905,0.0020328963,0.0038918226,0.0,0.0,0.0
2023052000,0,-0.012406445,0.003671096,0.0038977389,0.0,0.0,0.0
2023060000,0,-0.008992269,0.005105453,0.0038467692,0.0,0.0,0.0
2023072000,0,-0.0037282587,0.0068412167,0.0037164502,0.0,0.0,0.0
2023080000,0,-0.0013575514,0.0064635435,0.003587751,0.0,0.0,0.0
2023092000,0,-0.0010972818,0.0055153123,0.003392102,0.0,0.0,0.0
2023100000,0,-0.0032959715,0.004758328,0.0032717634,0.0,0.0,0.0
2023112000,0,-0.0072563067,0.002652056,0.0031332304,0.0,0.0,0.0
2023120000,0,-0.009178772,0.0010181983,0.0030423792,0.0,0.0,0.0
2023132000,0,-0.010426486,-0.00040385072,0.0029178797,0.0,0.0,0.0
2023140000,0,-0.009979083,-0.00040411123,0.002846312,0.0,0.0,0.0
2023152000,0,-0.008039875,0.001218856,0.0027029812,0.0,0.0,0.0
2023160000,0,-0.007303637,0.0025985695,0.0026434285,0.0,0.0,0.0
2023172000,0,-0.0076438305,0.003105068,0.0025514048,0.0,0.0,0.0
2023180000,0,-0.0085858265,0.0033772332,0.0024685604,0.0,0.0,0.0
2023192000,0,-0.009467817,0.005363557,0.0023170502,0.0,0.0,0.0
2023200000,0,-0.009564463,0.004951781,0.0022162332,0.0,0.0,0.0
2023212000,0,-0.006099387,0.0052775107,0.0019666709,0.0,0.0,0.0
2023220000,0,-0.0047340943,0.0053909845,0.00172652,0.0,0.0,0.0
2023232000,0,-0.005280902,0.004246686,0.0013751489,0.0,0.0,0.0
2023240000,0,-0.005758023,0.0039228825,0.0012070783,0.0,0.0,0.0
2023252000,0,-0.0059939204,0.004281763,0.0011138226,0.0,0.0,0.0
2023260000,0,-0.0066763847,0.0049786773,0.001075239,0.0,0.0,0.0
2023272000,0,-0.009301276,0.005629565,0.0009612339,0.0,0.0,0.0
2023280000,0,-0.010507896,0.004612703,0.00088488136,0.0,0.0,0.0
2023292000,0,-0.009669004,0.0034193622,0.0007062954,0.0,0.0,0.0
2023300000,0,-0.007265852,0.0016135415,0.0006413767,0.0,0.0,0.0
2023312000,0,-0.005777638,-0.00086955534,0.00055234827,0.0,0.0,0.0
2023320000,0,-0.005017051,-0.00050044665,0.00042605313,0.0,0.0,0.0
2023332000,0,-0.0045321095,0.000911653,0.00019124098,0.0,0.0,0.0
2023340000,0,-0.0054845535,0.0010443392,4.557843e-05,0.0,0.0,0.0
2023352000,0,-0.0073722154,0.00024637592,-0.00014486747,0.0,0.0,0.0
2023360000,0,-0.010470558,-0.0002897463,-0.0002194617,0.0,0.0,0.0
2023372000,0,-0.016427014,0.0015216891,-0.0002205214,0.0,0.0,0.0
2023380000,0,-0.018786231,0.0038824398,-0.00024041005,0.0,0.0,0.0
2023392000,0,-0.021904044,0.00811203,-0.00025513757,0.0,0.0,0.0
2023400000,0,-0.023294166,0.010551312,-0.0002543507,0.0,0.0,0.0
2023412000,0,-0.025010286,0.01207484,-0.00024338032,0.0,0.0,0.0
2023420000,0,-0.026170801,0.011805067,-0.00024005183,0.0,0.0,0.0
2023432000,0,-0.025686914,0.009091662,-0.00013548663,0.0,0.0,0.0
2023440000,0,-0.025625171,0.007607055,-6.59775e-05,0.0,0.0,0.0
2023452000,0,-0.024312077,0.008273065,1.1704328e-05,0.0,0.0,0.0
2023460000,0,-0.023029717,0.008419616,3.6172063e-05,0.0,0.0,0.0
2023472000,0,-0.020680651,0.0087585235,5.247606e-05,0.0,0.0,0.0
2023480000,0,-0.018313723,0.0087956,4.372779e-05,0.0,0.0,0.0
2023492000,0,-0.015491128,0.0075780004,4.2641725e-05,0.0,0.0,0.0
2023500000,0,-0.014641127,0.006965503,5.1412768e-05,0.0,0.0,0.0
2023512000,0,-0.01363721,0.005476702,5.2806576e-05,0.0,0.0,0.0
2023520000,0,-0.011742453,0.00491163,4.1096584e-05,0.0,0.0,0.0
2023532000,0,-0.011142004,0.004868553,3.516875e-05,0.0,0.0,0.0
2023540000,0,-0.010426474,0.004359228,3.2933218e-05,0.0,0.0,0.0
2023552000,0,-0.010471018,0.0019899672,4.0395016e-06,0.0,0.0,0.0
2023560000,0,-0.013701935,-0.00042717473,-1.1026761e-05,0.0,0.0,0.0
2023572000,0,-0.016433856,-0.004225852,-4.9118007e-05,0.0,0.0,0.0
2023580000,0,-0.017875206,-0.0055630654,-5.9484486e-05,0.0,0.0,0.0
2023592000,0,-0.01863732,-0.004131738,-0.00012504953,0.0,0.0,0.0
2023600000,0,-0.017915849,-0.0037935923,-0.0001321889,0.0,0.0,0.0
2023612000,0,-0.015026431,-0.004530723,-8.377848e-05,0.0,0.0,0.0
2023620000,0,-0.011406514,-0.0041013234,-0.00011451188,0.0,0.0,0.0
2023632000,0,-0.005777787,-0.0030300664,-0.00014646673,0.0,0.0,0.0
2023640000,0,-0.0061623473,-0.0011897434,-8.000119e-05,0.0,0.0,0.0
2023652000,0,-0.009059981,0.00015804042,-2.0983469e-05,0.0,0.0,0.0
2023660000,0,-0.0093049845,6.6631355e-06,3.214281e-05,0.0,0.0,0.0
2023672000,0,-0.009331679,0.00014077192,0.000113571405,0.0,0.0,0.0
2023680000,0,-0.010049804,-7.0993715e-06,0.00018198068,0.0,0.0,0.0
2023692000,0,-0.010295277,0.0036455945,0.0002833689,0.0,0.0,0.0
2023700000,0,-0.009239558,0.0070846695,0.00032524255,0.0,0.0,0.0
2023712000,0,-0.008256715,0.01121367,0.0003185602,0.0,0.0,0.0
2023720000,0,-0.008444403,0.011810363,0.00027502282,0.0,0.0,0.0
2023732000,0,-0.0073976563,0.015062272,0.00018771629,0.0,0.0,0.0
2023740000,0,-0.007289091,0.017665613,0.00014588045,0.0,0.0,0.0
2023752000,0,-0.006502554,0.0203544,0.00014795171,0.0,0.0,0.0
2023760000,0,-0.0052406723,0.02035458,0.00018114233,0.0,0.0,0.0
2023772000,0,-0.0035242594,0.01873055,0.00021970361,0.0,0.0,0.0
2023780000,0,-0.0039068074,0.01717673,0.00024938263,0.0,0.0,0.0
2023792000,0,-0.005457935,0.013617772,0.0002977017,0.0,0.0,0.0
2023800000,0,-0.006903098,0.012944447,0.00034113583,0.0,0.0,0.0
2023812000,0,-0.0070604132,0.014113457,0.00040211235,0.0,0.0,0.0
2023820000,0,-0.0073482185,0.016068723,0.00053203944,0.0,0.0,0.0
2023832000,0,-0.0076948,0.0180375,0.00067613646,0.0,0.0,0.0
2023840000,0,-0.009366148,0.018826986,0.00067502225,0.0,0.0,0.0
2023852000,0,-0.010834007,0.018742971,0.0006223008,0.0,0.0,0.0
2023860000,0,-0.009359873,0.01923066,0.000553876,0.0,0.0,0.0
2023872000,0,-0.009026449,0.01931043,0.0003514251,0.0,0.0,0.0
2023880000,0,-0.008812624,0.018369194,0.00022740151,0.0,0.0,0.0
2023892000,0,-0.008982662,0.014316267,4.319147e-05,0.0,0.0,0.0
2023900000,0,-0.0086071,0.011977751,-8.074776e-05,0.0,0.0,0.0
2023912000,0,-0.009643448,0.007944286,-0.00031019683,0.0,0.0,0.0
2023920000,0,-0.010807003,0.006104708,-0.00047933796,0.0,0.0,0.0
2023932000,0,-0.0132887615,0.0044686063,-0.0007346621,0.0,0.0,0.0
2023940000,0,-0.013423183,0.004336547,-0.0009216915,0.0,0.0,0.0
2023952000,0,-0.014489317,0.003036149,-0.0011607779,0.0,0.0,0.0
2023960000,0,-0.01558389,0.0023474183,-0.0013122748,0.0,0.0,0.0
2023972000,0,-0.017525598,0.00290116,-0.0014658745,0.0,0.0,0.0
2023980000,0,-0.016835844,0.0033636265,-0.0015307678,0.0,0.0,0.0
2023992000,0,-0.014172347,0.0037203503,-0.0015447702,0.0,0.0,0.0
2024000000,0,-0.012936841,0.0046814918,-0.0015063365,0.0,0.0,0.0
2024012000,0,-0.010252648,0.004709406,-0.0014826909,0.0,0.0,0.0
2024020000,0,-0.0068659345,0.0048675505,-0.0014835335,0.0,0.0,0.0
2024032000,0,-0.004905168,0.0034143836,-0.0015171829,0.0,0.0,0.0
2024040000,0,-0.0049398956,0.0028284905,-0.001456228,0.0,0.0,0.0
2024052000,0,-0.0063316836,0.0035910972,-0.0012497514,0.0,0.0,0.0
2024060000,0,-0.0077048764,0.004212517,-0.0010871917,0.0,0.0,0.0
2024072000,0,-0.008599789,0.0025011196,-0.0008063391,0.0,0.0,0.0
2024080000,0,-0.007684247,0.0015310321,-0.0005904847,0.0,0.0,0.0
2024092000,0,-0.0041992743,0.0017057715,-0.0003089732,0.0,0.0,0.0
2024100000,0,-0.0014719447,0.0015877361,-0.000133121,0.0,0.0,0.0
2024112000,0,0.0016291242,0.0021773435,0.00014187658,0.0,0.0,0.0
2024120000,0,0.002857666,0.002393552,0.00030328202,0.0,0.0,0.0
2024132000,0,0.004533377,0.003667872,0.0005011592,0.0,0.0,0.0
2024140000,0,0.004739823,0.004941363,0.0006912942,0.0,0.0,0.0
2024152000,0,0.0062211854,0.0062681516,0.0009942008,0.0,0.0,0.0
2024160000,0,0.0057320455,0.005722497,0.0011791224,0.0,0.0,0.0
2024172000,0,0.0052292696,0.0044163764,0.001406858,0.0,0.0,0.0
2024180000,0,0.004390172,0.0037526933,0.0015473508,0.0,0.0,0.0
2024192000,0,0.0040376037,0.002546674,0.0016949372,0.0,0.0,0.0
2024200000,0,0.0039950837,0.0019402227,0.0017773367,0.0,0.0,0.0
2024212000,0,0.004244673,0.002959579,0.0019077802,0.0,0.0,0.0
2024220000,0,0.0048638936,0.0036812737,0.002007256,0.0,0.0,0.0
2024232000,0,0.003659854,0.0042769797,0.0021461295,0.0,0.0,0.0
2024240000,0,0.0027871036,0.0040418045,0.0022363511,0.0,0.0,0.0
2024252000,0,0.0021130594,0.0026885949,0.002352456,0.0,0.0,0.0
2024260000,0,0.001190069,0.0015719233,0.0024655154,0.0,0.0,0.0
2024272000,0,0.00088510383,0.00023715531,0.0026890214,0.0,0.0,0.0
2024280000,0,0.00057494926,-9.6333715e-05,0.0028607924,0.0,0.0,0.0
2024292000,0,-0.000970773,-1.536941e-05,0.0031288324,0.0,0.0,0.0
2024300000,0,-0.002374846,0.00014745395,0.003309485,0.0,0.0,0.0
2024312000,0,-0.003451669,0.0015259958,0.0035294066,0.0,0.0,0.0
2024320000,0,-0.004828731,0.0024592057,0.0036482355,0.0,0.0,0.0
2024332000,0,-0.006113589,0.0041529494,0.0037512786,0.0,0.0,0.0
2024340000,0,-0.0055974605,0.004933785,0.0037583134,0.0,0.0,0.0
2024352000,0,-0.006773926,0.0056681773,0.0036724168,0.0,0.0,0.0
2024360000,0,-0.0082020145,0.005107865,0.0035672162,0.0,0.0,0.0
2024372000,0,-0.009380559,0.004093649,0.0033428245,0.0,0.0,0.0
2024380000,0,-0.010723973,0.0040031313,0.0031515043,0.0,0.0,0.0
2024392000,0,-0.012225629,0.0048250174,0.0028443385,0.0,0.0,0.0
2024400000,0,-0.011841696,0.0054992866,0.0026468341,0.0,0.0,0.0
2024412000,0,-0.009535571,0.0061818273,0.0023312995,0.0,0.0,0.0
2024420000,0,-0.008268353,0.006447139,0.00212148,0.0,0.0,0.0
2024432000,0,-0.007979005,0.006757001,0.0018132774,0.0,0.0,0.0
2024440000,0,-0.007172977,0.007223263,0.0016551836,0.0,0.0,0.0
2024452000,0,-0.008202479,0.00627435,0.0014355553,0.0,0.0,0.0
2024460000,0,-0.009486185,0.0042680246,0.0012720498,0.0,0.0,0.0
2024472000,0,-0.007692223,0.0052836896,0.00092211517,0.0,0.0,0.0
2024480000,0,-0.007216583,0.0075503015,0.0007126639,0.0,0.0,0.0
2024492000,0,-0.007868876,0.008205922,0.0004411122,0.0,0.0,0.0
2024500000,0,-0.008807236,0.008675095,0.00028201053,0.0,0.0,0.0
2024512000,0,-0.0097910045,0.007651105,1.9135818e-05,0.0,0.0,0.0
2024520000,0,-0.010046835,0.0076140133,-0.00015441068,0.0,0.0,0.0
2024532000,0,-0.010281546,0.008560777,-0.00040200813,0.0,0.0,0.0
2024540000,0,-0.011376781,0.010092196,-0.0005195768,0.0,0.0,0.0
2024552000,0,-0.01246354,0.010386643,-0.0006308284,0.0,0.0,0.0
2024560000,0,-0.011216616,0.011453596,-0.0006904429,0.0,0.0,0.0
2024572000,0,-0.009282313,0.013786394,-0.0007742471,0.0,0.0,0.0
2024580000,0,-0.00790432,0.013589851,-0.0008961229,0.0,0.0,0.0
2024592000,0,-0.00535545,0.009842027,-0.0011630231,0.0,0.0,0.0
2024600000,0,-0.0027956152,0.006439985,-0.001414514,0.0,0.0,0.0
2024612000,0,-0.003944998,0.004239398,-0.0017666889,0.0,0.0,0.0
2024620000,0,-0.0077298856,0.0026004745,-0.0020505367,0.0,0.0,0.0
2024632000,0,-0.014388774,-0.002050821,-0.0025406936,0.0,0.0,0.0
2024640000,0,-0.016452411,-0.0028912083,-0.002870407,0.0,0.0,0.0
2024652000,0,-0.0150550995,-0.001855606,-0.0033971514,0.0,0.0,0.0
2024660000,0,-0.011228122,-0.0007349984,-0.003785883,0.0,0.0,0.0
2024672000,0,-0.0040544188,-0.0006157827,-0.0043949317,0.0,0.0,0.0
2024680000,0,-0.00026078982,-0.00034832093,-0.0048052697,0.0,0.0,0.0
2024692000,0,0.00091468944,-0.0018059243,-0.0053966627,0.0,0.0,0.0
2024700000,0,7.758208e-05,-0.002651556,-0.005745605,0.0,0.0,0.0
2024712000,0,-0.001186353,-0.0042515136,-0.0062114606,0.0,0.0,0.0
2024720000,0,-0.0010608361,-0.0052746795,-0.0065083443,0.0,0.0,0.0
2024732000,0,-0.0007475735,-0.0058546723,-0.0069197696,0.0,0.0,0.0
2024740000,0,-0.0024592762,-0.0055967546,-0.0071707075,0.0,0.0,0.0
2024752000,0,-0.0047956775,-0.0038254822,-0.0075049754,0.0,0.0,0.0
2024760000,0,-0.0044187536,-0.004568801,-0.0076345694,0.0,0.0,0.0
2024772000,0,-0.0012318869,-0.0051519475,-0.0077600493,0.0,0.0,0.0
2024780000,0,-0.0010665458,-0.0048587373,-0.0077855247,0.0,0.0,0.0
2024792000,0,6.795542e-05,-0.002522473,-0.0077339117,0.0,0.0,0.0
2024800000,0,0.00285148,-0.00025356072,-0.0076341825,0.0,0.0,0.0
2024812000,0,0.0048895483,0.0045850277,-0.007392553,0.0,0.0,0.0
2024820000,0,0.005833841,0.008548161,-0.007231108,0.0,0.0,0.0
2024832000,0,0.0056435354,0.009165693,-0.0070102043,0.0,0.0,0.0
2024840000,0,0.00450817,0.00764302,-0.0068716067,0.0,0.0,0.0
2024852000,0,0.0055378666,0.006316767,-0.006669769,0.0,0.0,0.0
2024860000,0,0.005353518,0.0052402336,-0.0065128524,0.0,0.0,0.0
2024872000,0,0.005554519,0.0032300744,-0.0061820066,0.0,0.0,0.0
2024880000,0,0.0051723556,0.0028070773,-0.005854589,0.0,0.0,0.0
2024892000,0,0.0025260323,0.0028648432,-0.005266716,0.0,0.0,0.0
2024900000,0,-0.0007707065,0.0022728574,-0.0048743505,0.0,0.0,0.0
2024912000,0,-0.0036714773,-0.0011072321,-0.00423219,0.0,0.0,0.0
2024920000,0,-0.00409254,-0.0023859674,-0.003850317,0.0,0.0,0.0
2024932000,0,-0.005297763,-0.0028756286,-0.0033008072,0.0,0.0,0.0
2024940000,0,-0.0049795425,-0.004606574,-0.0029074769,0.0,0.0,0.0
2024952000,0,-0.004821879,-0.008976417,-0.0023258238,0.0,0.0,0.0
2024960000,0,-0.004984255,-0.010916089,-0.0019413087,0.0,0.0,0.0
2024972000,0,-0.0038112279,-0.01125666,-0.0014478503,0.0,0.0,0.0
2024980000,0,-0.0027854186,-0.011216851,-0.0011465701,0.0,0.0,0.0
2024992000,0,-0.0019076042,-0.009688078,-0.0006859229,0.0,0.0,0.0
2025000000,0,-0.0025992536,-0.008008352,-0.0003747335,0.0,0.0,0.0
2025012000,0,-0.0038473227,-0.0061031273,6.326311e-05,0.0,0.0,0.0
2025020000,0,-0.004237428,-0.005036944,0.00035172614,0.0,0.0,0.0
2025032000,0,-0.0036489994,-0.003743561,0.00073300104,0.0,0.0,0.0
2025040000,0,-0.0037115503,-0.0037917453,0.000948109,0.0,0.0,0.0
2025052000,0,-0.0027506284,-0.0040286533,0.0012635727,0.0,0.0,0.0
2025060000,0,-0.0030080997,-0.004495659,0.0014597947,0.0,0.0,0.0
2025072000,0,-0.0036530457,-0.00560471,0.0016875112,0.0,0.0,0.0
2025080000,0,-0.0017677634,-0.005556394,0.0017599298,0.0,0.0,0.0
2025092000,0,0.0013601953,-0.0053582443,0.0019287425,0.0,0.0,0.0
2025100000,0,0.0020000793,-0.004990879,0.002048758,0.0,0.0,0.0
