timestamp,x,y,z,vx,vy,vz,acceleration[0],acceleration[1],acceleration[2],thrust[0],thrust[1],thrust[2],yaw,yawspeed
2015916000,nan,nan,nan,nan,nan,nan,0.0,0.0,100.0,-0.0,-0.0,-0.001,1.7962373,0.0
2015924000,nan,nan,nan,nan,nan,nan,0.0,0.0,100.0,-0.0,-0.0,-0.001,1.7961571,0.0
2016012000,nan,nan,nan,nan,nan,nan,0.0,0.0,100.0,-0.0,-0.0,-0.001,1.796319,0.0
2016116000,nan,nan,nan,nan,nan,nan,0.0,0.0,100.0,-0.0,-0.0,-0.001,1.7967143,0.0
2016212000,nan,nan,nan,nan,nan,nan,0.0,0.0,100.0,-0.0,-0.0,-0.001,1.796859,0.0
2016316000,nan,nan,nan,nan,nan,nan,0.0,0.0,100.0,-0.0,-0.0,-0.001,1.7969128,0.0
2016412000,nan,nan,nan,nan,nan,nan,0.0,0.0,100.0,-0.0,-0.0,-0.001,1.7965934,0.0
2016516000,nan,nan,nan,nan,nan,nan,0.0,0.0,100.0,-0.0,-0.0,-0.001,1.7966679,0.0
2016620000,nan,nan,nan,nan,nan,nan,0.0,0.0,100.0,-0.0,-0.0,-0.001,1.7965647,0.0
2016716000,nan,nan,nan,nan,nan,nan,0.0,0.0,100.0,-0.0,-0.0,-0.001,1.7963148,0.0
2016820000,nan,nan,nan,nan,nan,nan,0.0,0.0,100.0,-0.0,-0.0,-0.001,1.7962033,0.0
2016916000,nan,nan,nan,nan,nan,nan,0.0,0.0,100.0,-0.0,-0.0,-0.001,1.7961019,0.0
2017020000,-68.55557,-23.079632,-488.0423,-0.00011165817,-8.376552e-05,2.2626715,0.02842333,-0.021473447,9.420949,5.681973e-05,-4.292655e-05,-0.0196653,1.7960535,0.0
2017116000,-68.55557,-23.07962,-488.04852,0.00049844926,-0.000314528,2.0882185,0.038128965,0.00046745967,9.140202,0.00013272288,1.6271775e-06,-0.033979416,1.7960535,0.0
2017220000,-68.55557,-23.079597,-488.04446,0.0017138652,-0.0006033273,1.8992274,0.053538177,-0.008960233,8.802051,0.0002790768,-4.670673e-05,-0.051220328,1.7960535,0.0
2017316000,-68.555565,-23.07957,-488.05112,0.0037372545,-0.000156531,1.7247741,0.051384974,0.0048045865,8.444533,0.00036364447,3.40014e-05,-0.06944862,1.7960535,0.0
2017420000,-68.55554,-23.079533,-488.0486,0.006191943,0.00038069632,1.5357832,0.059799965,0.013611801,8.027649,0.00055219413,0.00012569164,-0.090703815,1.7960535,0.0
2017516000,-68.55551,-23.079487,-488.05325,0.008621111,0.00082547707,1.3613299,0.06633093,0.00028637133,7.599324,0.00076144736,3.2874057e-06,-0.1125423,1.7960535,0.0
2017612000,-68.55547,-23.079428,-488.05063,0.011459809,0.00088771456,1.1868767,0.090324454,-0.0045003453,7.149988,0.0012481454,-6.2187864e-05,-0.13545206,1.7960535,0.0
2017716000,-68.555435,-23.079367,-488.0558,0.013649674,0.00069263205,0.9978863,0.07406689,0.005042209,6.6276073,0.0012220073,8.318987e-05,-0.16208607,1.7960535,0.0
2017820000,-68.5554,-23.07929,-488.05524,0.015973652,0.00049734296,0.8088963,0.057753917,-0.00014631543,6.0651336,0.001123577,-2.8465022e-06,-0.19076425,1.7960535,0.0
2017916000,-68.55536,-23.07921,-488.05862,0.018221399,0.00018066016,0.6344441,0.07932164,-0.01546861,5.491272,0.0017786301,-0.00034685287,-0.22002307,1.7960535,0.0
2018020000,-68.555305,-23.079115,-488.05786,0.020327821,3.587868e-05,0.44545412,0.08205465,0.005152249,4.841195,0.002117279,0.0001329449,-0.25316775,1.7952642,0.0
2018116000,-68.55525,-23.07902,-488.06064,0.019857528,0.0012429457,0.27100182,0.09394546,0.00814903,4.211462,0.002733615,0.00023711959,-0.28527522,1.7950218,0.0
2018212000,-68.55519,-23.078907,-488.06094,0.020333158,0.0023031125,0.09654951,0.08273213,0.0046556406,3.5503197,0.0026890554,0.00015132301,-0.3189841,1.7948437,0.0
2018316000,-68.55514,-23.078793,-488.06238,0.021435646,0.0030390252,0.035702318,0.09081915,0.00053948676,3.3168225,0.0030655623,1.8210148e-05,-0.3308891,1.7948164,0.0
2018412000,-68.55508,-23.078663,-488.06314,0.022969415,0.0033996566,-0.016556934,0.09678599,0.011523645,3.114768,0.0033681337,0.00040102063,-0.34119102,1.7950376,0.0
2018516000,-68.555016,-23.078533,-488.06506,0.022665765,0.0036299455,-0.06460927,0.08952665,0.003457922,2.9169216,0.0032066046,0.00012385348,-0.3512784,1.795097,0.0
2018620000,-68.55494,-23.078384,-488.0674,0.023387752,0.0036281534,-0.117677316,0.0944808,-0.0070154807,2.6927576,0.0034947314,-0.00025949423,-0.36270756,1.794893,0.0
2018716000,-68.554855,-23.07824,-488.06754,0.024830822,0.003227816,-0.16505717,0.0948394,-0.020090755,2.4662552,0.003617839,-0.0007664021,-0.37425599,1.7945535,0.0
2018820000,-68.554756,-23.078072,-488.06967,0.026451483,0.0029196683,-0.21884595,0.09310201,-0.002707413,2.2051706,0.003677854,-0.000106952255,-0.38756758,1.79469,0.0
2018916000,-68.554665,-23.077908,-488.06827,0.026713084,0.0044634803,-0.2653427,0.10254571,-0.01141976,1.9728892,0.004175325,-0.0004649752,-0.39941067,1.7945198,0.0
2019012000,-68.554565,-23.077723,-488.07068,0.027819106,0.0053656604,-0.31976068,0.108682424,-0.009135441,1.698848,0.0045802393,-0.0003849979,-0.41338286,1.7945418,0.0
2019116000,-68.554474,-23.077543,-488.068,0.029812904,0.0058330456,-0.36549452,0.13038036,-0.0031657666,1.4339749,0.005674662,-0.00013778651,-0.42688763,1.7946609,0.0
2019220000,-68.554375,-23.07734,-488.071,0.031694356,0.0060682297,-0.4204801,0.12628064,-0.006671179,1.1369104,0.0056927144,-0.00030073588,-0.4420337,1.7947011,0.0
2019316000,-68.55428,-23.077145,-488.0693,0.030383056,0.0063199,-0.46527892,0.12484149,-0.008248134,0.87231076,0.005800599,-0.00038323892,-0.45552453,1.7947257,0.0
2019420000,-68.55418,-23.076923,-488.07437,0.030452548,0.0061293105,-0.52129513,0.13262743,-0.0247076,0.55501413,0.006380735,-0.0011886881,-0.47170216,1.794604,0.0
2019516000,-68.55407,-23.07671,-488.0714,0.031554807,0.0053771473,-0.56533366,0.13719276,-0.022430629,0.27450252,0.006800303,-0.0011118304,-0.48600426,1.7945673,0.0
2019620000,-68.55394,-23.076471,-488.07724,0.03230556,0.004302225,-0.6218818,0.13137461,-0.032163285,-0.08362889,0.0067543588,-0.0016536099,-0.5042639,1.7941545,0.0
2019716000,-68.55381,-23.076242,-488.0743,0.030736445,0.0031590797,-0.66521496,0.13672885,-0.03385161,-0.379565,0.0072423737,-0.0017930815,-0.51935244,1.794018,0.0
2019820000,-68.55367,-23.075994,-488.0814,0.030718332,0.0015798449,-0.72273,0.14221945,-0.040308855,-0.7473872,0.0078024147,-0.0022114164,-0.53810614,1.793721,0.0
2019916000,-68.55354,-23.075766,-488.07718,0.031892605,-0.00011617923,-0.7652422,0.1698652,-0.060586974,-1.0505655,0.009589668,-0.0034204118,-0.55356395,1.7938303,0.0
2020012000,-68.553406,-23.075518,-488.08484,0.033764943,-0.0016399564,-0.8234475,0.1751614,-0.045436144,-1.9324021,0.010689452,-0.0027727997,-0.5985251,1.7936465,0.0
2020116000,-68.553276,-23.075289,-488.08228,0.0323796,-4.584063e-05,-0.8649391,0.15354198,-0.07146278,-2.2817855,0.009649433,-0.004491119,-0.6163387,1.794075,0.0
2020212000,-68.55314,-23.075048,-488.09204,0.03248102,8.747331e-05,-0.924112,0.1713096,-0.059783336,-2.6920028,0.011132302,-0.0038849313,-0.63725394,1.7941465,0.0
2020316000,-68.553024,-23.07483,-488.08694,0.03382585,-0.0006037685,-0.9649553,0.17714721,-0.06717552,-3.046349,0.011839585,-0.004489658,-0.6553206,1.7939621,0.0
2020412000,-68.5529,-23.074596,-488.09644,0.035475038,-0.0014518981,-1.0246645,0.18064988,-0.056007907,-3.4880748,0.012485976,-0.003871098,-0.6778423,1.7938628,0.0
2020516000,-68.552795,-23.07439,-488.09174,0.03230906,-0.00012011151,-1.064641,0.15995385,-0.068618424,-3.8643317,0.011371621,-0.0048782993,-0.6970261,1.7935804,0.0
2020620000,-68.5527,-23.07417,-488.10336,0.030852105,-6.2691746e-05,-1.1251473,0.15241782,-0.06237669,-4.2606707,0.011149198,-0.004562787,-0.7172338,1.7935519,0.0
2020716000,-68.552605,-23.073975,-488.09943,0.030292094,-0.0005885104,-1.1643438,0.12000408,-0.06306569,-4.4880686,0.008921896,-0.0046887198,-0.72882783,1.7936319,0.0
2020820000,-68.552505,-23.073774,-488.11786,0.028395563,-0.0011891782,-1.2253199,0.047182985,-0.07060484,-4.7340894,0.0035642013,-0.005333487,-0.7413714,1.7935351,0.0
2020916000,-68.552414,-23.073599,-488.12326,0.021720301,0.00072915165,-1.2635232,-0.0536689,-0.040674392,-4.7912602,-0.0040704925,-0.0030849304,-0.7442863,1.7932588,0.0
2021020000,-68.552315,-23.07342,-488.15817,0.012415154,0.0022741589,-1.3255492,-0.13988957,-0.019745605,-4.892263,-0.010691507,-0.0015091212,-0.749436,1.7932173,0.0
2021116000,-68.55222,-23.073267,-488.1791,0.0017218271,0.0035759266,-1.3633156,-0.20353197,0.0015457552,-4.884601,-0.015547293,0.000118076336,-0.7490454,1.7933415,0.0
2021212000,-68.55215,-23.073118,-488.2335,-0.010265075,0.0052714096,-1.4301453,-0.24858692,0.007680353,-4.9781246,-0.019108731,0.0005903842,-0.75381374,1.7941108,0.0
2021316000,-68.55209,-23.072998,-488.27048,-0.02209616,0.009876264,-1.4634968,-0.26663217,0.03647498,-4.937989,-0.020438682,0.002795989,-0.7517674,1.7942215,0.0
2021412000,-68.55203,-23.07289,-488.3438,-0.033276536,0.013607971,-1.5261884,-0.24828665,0.027885634,-4.7863646,-0.018838758,0.0021158236,-0.7440367,1.7939961,0.0
2021516000,-68.55199,-23.072813,-488.39648,-0.04461989,0.016946115,-1.5184326,-0.24949238,0.049281847,-4.386256,-0.018410891,0.003636675,-0.7236368,1.7943313,0.0
2021612000,-68.55195,-23.072746,-488.48215,-0.054595355,0.019862967,-1.5360107,-0.24593756,0.045124166,-4.5295825,-0.018331314,0.0033633956,-0.7309444,1.7943741,0.0
2021716000,-68.55191,-23.072678,-488.53696,-0.070340425,0.024320865,-1.5029558,-0.2652661,0.052113883,-4.2648807,-0.019406622,0.0038126034,-0.7174484,1.7937921,0.0
2021812000,-68.55187,-23.072605,-488.62317,-0.082208164,0.027340606,-1.4967645,-0.27092052,0.05668911,-4.4026995,-0.020013643,0.0041877804,-0.7244752,1.7938979,0.0
2021916000,-68.551834,-23.072544,-488.68118,-0.09256806,0.029806873,-1.4569149,-0.2557587,0.05379474,-4.324829,-0.018790929,0.0039523705,-0.7205049,1.7938035,0.0
2022012000,-68.551796,-23.07248,-488.76953,-0.10048005,0.031482376,-1.449192,-0.26552397,0.05335973,-4.41844,-0.01963843,0.003946541,-0.7252777,1.794264,0.0
2022116000,-68.55176,-23.072424,-488.82922,-0.111928016,0.033544574,-1.408285,-0.25535446,0.069048144,-4.322907,-0.018758269,0.005072258,-0.7204069,1.7945712,0.0
2022220000,-68.55172,-23.072365,-488.91876,-0.11980472,0.03485043,-1.3928981,-0.24686657,0.03747964,-4.3889623,-0.018221969,0.0027664858,-0.7237748,1.7948054,0.0
2022316000,-68.5517,-23.072317,-488.98135,-0.12434621,0.03523838,-1.356969,-0.22907959,0.047518253,-4.282275,-0.01677943,0.0034805774,-0.7183353,1.7946203,0.0
2022412000,-68.551674,-23.072268,-489.07248,-0.12668607,0.035398703,-1.3457116,-0.19616444,0.047401916,-4.360755,-0.014448268,0.003491334,-0.72233665,1.7950336,0.0
2022516000,-68.55166,-23.072222,-489.1367,-0.13098638,0.03720628,-1.3024852,-0.18261735,0.04926379,-4.2467804,-0.013341387,0.0035990407,-0.71652555,1.7952428,0.0
2022620000,-68.551636,-23.072172,-489.22815,-0.13157411,0.038147476,-1.2831343,-0.1717904,0.045295913,-4.307926,-0.012605354,0.0033236493,-0.7196431,1.7948931,0.0
2022716000,-68.55162,-23.072126,-489.29306,-0.12992425,0.03803129,-1.2452459,-0.15765938,0.028187338,-4.2114725,-0.011487914,0.0020538815,-0.7147253,1.7946337,0.0
2022812000,-68.5516,-23.072084,-489.38416,-0.12689987,0.03708005,-1.2304281,-0.13558072,0.012524258,-4.277671,-0.009928454,0.0009171401,-0.71810055,1.7949233,0.0
2022916000,-68.55158,-23.072048,-489.44867,-0.12591156,0.035486113,-1.1856793,-0.11496677,0.005644436,-4.180386,-0.008358354,0.00041036372,-0.71314037,1.7950163,0.0
2023012000,-68.55158,-23.07201,-489.53757,-0.12244561,0.03357815,-1.1692581,-0.12056515,0.014259467,-4.2700415,-0.008825391,0.0010437956,-0.7177115,1.7949339,0.0
2023116000,-68.55158,-23.071978,-489.60095,-0.11701523,0.031235864,-1.1244082,-0.096561365,0.0071928417,-4.1722474,-0.007018888,0.00052283594,-0.7127254,1.7952546,0.0
2023220000,-68.55158,-23.071945,-489.687,-0.10997016,0.029065166,-1.1005992,-0.07476129,0.014076659,-4.231969,-0.005457819,0.0010276424,-0.71577036,1.7955443,0.0
2023316000,-68.55158,-23.071918,-489.74835,-0.10156986,0.028699309,-1.0617297,-0.04307153,0.013591312,-4.129421,-0.0031213763,0.0009849567,-0.7105419,1.8018255,0.0
2023420000,-68.55158,-23.071894,-489.8318,-0.091596685,0.027705977,-1.0366946,-0.043611117,-8.650683e-05,-4.187274,-0.0031834973,-6.3147722e-06,-0.71349156,1.8027104,0.0
2023516000,-68.55158,-23.07187,-489.89178,-0.08224692,0.026212547,-0.997577,-0.019982338,0.008943095,-4.093944,-0.0014474986,0.000647828,-0.7087331,1.8030688,0.0
2023620000,-68.55158,-23.071846,-489.9719,-0.071773656,0.023898488,-0.9712591,-0.017404292,-0.013719764,-4.148951,-0.0012503498,-0.0009856479,-0.7115376,1.802401,0.0
2023716000,-68.55158,-23.071823,-490.0294,-0.06155407,0.019934982,-0.93208534,0.011463129,-0.013994454,-4.0875225,0.0008489124,-0.001036372,-0.7084056,1.8014742,0.0
2023820000,-68.55158,-23.071798,-490.10547,-0.050928637,0.015622309,-0.90464026,0.016215796,-0.028462987,-4.123987,0.0011832006,-0.0020768286,-0.7102648,1.8009354,0.0
2023916000,-68.55158,-23.07178,-490.16028,-0.04165849,0.0120719345,-0.8655248,0.018401546,-0.01737713,-4.05366,0.001315609,-0.001242369,-0.7066791,1.8014221,0.0
2024020000,-68.55158,-23.071764,-490.232,-0.03223617,0.009034896,-0.83712274,0.03972784,-0.02432929,-4.0918913,0.0028684791,-0.0017566539,-0.7086284,1.8013823,0.0
2024116000,-68.55158,-23.07175,-490.29343,-0.024256239,0.0077041993,-0.8076134,0.022647766,-0.017410267,-4.059766,0.0016306816,-0.0012535718,-0.7069905,1.8013257,0.0
2024220000,-68.55158,-23.071735,-490.37308,-0.01647194,0.0061094975,-0.76925504,0.03739544,-0.019464359,-3.6470916,0.0026155137,-0.0013613772,-0.6859499,1.8016285,0.0
2024316000,-68.55158,-23.071722,-490.43948,-0.010006209,0.004514251,-0.6926115,0.03675843,-0.0379588,-3.2473493,0.0024920166,-0.0025733954,-0.6655687,1.8015941,0.002422724
2024420000,-68.55158,-23.071712,-490.4995,-0.0029756967,0.0023469634,-0.5682841,0.047025,-0.037581448,-3.0568972,0.003144608,-0.0025131085,-0.6558584,1.801594,0.0
2024516000,-68.55158,-23.071703,-490.5424,0.004439519,-7.271997e-05,-0.46461296,0.06257316,-0.041524857,-3.4536614,0.0043142946,-0.002863056,-0.67608774,1.801594,0.0
2024620000,-68.55158,-23.071693,-490.5781,0.011513551,-0.0024225533,-0.38598365,0.055147193,-0.03524571,0.044775546,0.0039204336,-0.0025056303,-0.6968039,1.801594,0.0
2024716000,-68.55158,-23.071684,-490.60416,0.016967477,-0.00430718,-0.34122634,0.05420334,-0.039882503,-0.20129043,0.00394845,-0.0029052468,-0.7143681,1.801594,0.0
2024820000,-68.55158,-23.071674,-490.62805,0.022273222,-0.005667973,-0.31632012,0.05787138,-0.03316524,-0.3122322,0.004267521,-0.0024456538,-0.72228247,1.801594,0.0
2024916000,-68.55158,-23.071665,-490.64825,0.028637044,-0.0047559054,-0.3030153,0.058105044,-0.025187094,-0.23545085,0.0042536976,-0.0018438724,-0.7167064,1.801594,0.0
2025020000,-68.55158,-23.071655,-490.66898,0.0338991,-0.0040818183,-0.2881787,0.05908738,-0.0139195295,-0.12155349,0.0042661624,-0.0010050026,-0.7085196,1.801594,0.0
2025116000,-68.55158,-23.071646,-490.6871,0.037559364,-0.003545526,-0.27359718,0.061306864,-0.012655658,-0.07498067,0.0044108164,-0.0009105307,-0.7053521,1.801594,0.0
2025212000,-68.55158,-23.07164,-490.70578,0.04058182,-0.0026372527,-0.26013222,0.05462886,0.0017871032,-0.0746503,0.003932236,0.00012863734,-0.7053285,1.801594,0.0
2025316000,-68.55158,-23.071636,-490.72214,0.047489155,0.00036545834,-0.2448732,0.057924997,0.00094432326,-0.071257636,0.0041594575,6.7809626e-05,-0.70508635,1.801594,0.0
2025412000,-68.55158,-23.07163,-490.73892,0.051852454,0.0025917408,-0.2327301,0.06181481,0.015568369,-0.0729811,0.0044424958,0.0011188646,-0.7052094,1.801594,0.0
2025516000,-68.55158,-23.071627,-490.7537,0.055056084,0.004600774,-0.21920244,0.057715964,0.023225203,-0.065952845,0.0041437694,0.0016674743,-0.7047077,1.801594,0.0
2025620000,-68.55158,-23.07162,-490.7689,0.056998584,0.007218439,-0.20726232,0.053177003,0.019321786,-0.09055002,0.0038224785,0.0013888921,-0.70646346,1.801594,0.0
2025716000,-68.55158,-23.071617,-490.78226,0.058078576,0.011117362,-0.19726542,0.053091872,0.04206407,-0.06828538,0.0038151746,0.0030227185,-0.7048742,1.801594,0.0
2025820000,-68.55158,-23.071611,-490.796,0.058006138,0.014528676,-0.18634129,0.036708307,0.040379796,-0.07638958,0.0026418893,0.0029061255,-0.7054527,1.801594,0.0
2025916000,-68.55158,-23.07161,-490.8081,0.05702046,0.01700519,-0.1770304,0.03089078,0.050613422,-0.07443298,0.0022228959,0.0036421344,-0.705313,1.801594,0.0
2026020000,-68.55158,-23.07161,-490.8206,0.05588258,0.0191326,-0.16734666,0.014499967,0.040278915,-0.07520099,0.0010401616,0.0028894257,-0.70536786,1.801594,0.0
2026116000,-68.55158,-23.07161,-490.8315,0.05780332,0.019942569,-0.15811278,0.02377608,0.033299886,-0.05794113,0.0017011277,0.0023825353,-0.70413584,1.801594,0.0
2026220000,-68.55158,-23.07161,-490.84277,0.058115028,0.020065797,-0.14885919,0.026653355,0.024968822,-0.078913674,0.0019067092,0.0017862021,-0.70563287,1.801594,0.0
2026316000,-68.55158,-23.07161,-490.8527,0.057158325,0.019632747,-0.14094424,0.009480092,0.012112486,-0.06050019,0.000686837,0.00087755517,-0.7043185,1.801594,0.0
2026420000,-68.55158,-23.07161,-490.863,0.056143653,0.01865067,-0.13283506,0.013421175,0.011718882,-0.07847014,0.00097104616,0.0008478822,-0.7056012,1.801594,0.0
2026516000,-68.55158,-23.07161,-490.872,0.05925305,0.017606977,-0.12622887,0.014479775,0.016651733,-0.0635072,0.0010344294,0.0011895932,-0.7045277,1.801594,0.0
2026620000,-68.55158,-23.07161,-490.88126,0.06070266,0.016309611,-0.118995,0.028630508,0.005983802,-0.07485926,0.0020644476,0.0004314714,-0.7053434,1.801594,0.0
2026716000,-68.55158,-23.07161,-490.8894,0.06048525,0.014885403,-0.113032214,0.009396852,-0.001984377,-0.06824423,0.0007143522,-0.00015085308,-0.7048713,1.801594,0.0
2026820000,-68.55158,-23.07161,-490.8978,0.05969526,0.013033569,-0.106672935,0.02725143,-0.017341074,-0.08020423,0.0019610405,-0.0012478812,-0.70572495,1.801594,0.0
2026916000,-68.55158,-23.07161,-490.9052,0.06165947,0.01121435,-0.10093435,0.033290725,-0.013508508,-0.07287873,0.0023983463,-0.0009731864,-0.7052021,1.801594,0.0
2027012000,-68.55158,-23.07161,-490.9128,0.062290065,0.009637934,-0.0958043,0.037648983,-0.0055255014,-0.08325411,0.0026961872,-0.00039570223,-0.7059357,1.801594,0.0
2027116000,-68.55158,-23.07161,-490.9195,0.061550803,0.0081792995,-0.089898705,0.032187413,0.00023287768,-0.06337405,0.002307609,1.6695676e-05,-0.7045236,1.801594,0.0
2027212000,-68.55158,-23.07161,-490.9264,0.060007017,0.0072153336,-0.08547908,0.018165564,0.00025479821,-0.09847787,0.0013369371,1.8752471e-05,-0.70702934,1.801594,0.0
2027316000,-68.55158,-23.07161,-490.9325,0.060478155,0.008295282,-0.0809183,0.0047920793,-0.0035851963,-0.08596741,0.0003904353,-0.00029210435,-0.70613635,1.801594,0.0
2027420000,-68.55158,-23.07161,-490.9388,0.059260525,0.008516353,-0.07670605,0.014874518,-0.007158814,-0.094300285,0.0010993589,-0.0005290999,-0.70673114,1.801594,0.0
2027516000,-68.55158,-23.07161,-490.94434,0.05712965,0.008358715,-0.07290304,0.022917178,-0.002221548,-0.07764864,0.0016265012,-0.00015766997,-0.70554256,1.801594,0.0
2027612000,-68.55158,-23.07161,-490.95,0.054911807,0.008293492,-0.069376945,0.005108928,0.013409472,-0.08782603,0.0003784322,0.000993276,-0.706269,1.801594,0.0
2027716000,-68.55158,-23.07161,-490.95496,0.057644293,0.010228694,-0.065105125,0.01852602,0.01000831,-0.0634502,0.0013365377,0.0007220376,-0.70452905,1.801594,0.0
2027820000,-68.55158,-23.07161,-490.9601,0.05819515,0.011549635,-0.06126213,0.008570181,0.017590946,-0.083239466,0.0006132461,0.0012587339,-0.7059416,1.801594,0.0
2027916000,-68.55158,-23.07161,-490.96463,0.057223946,0.012332415,-0.05788912,0.017118927,0.014653971,-0.060546137,0.00122542,0.0010489718,-0.7043218,1.801594,0.0
2028020000,-68.55158,-23.07161,-490.96927,0.05573814,0.012852461,-0.05468273,0.022333931,0.02116678,-0.08917666,0.0016126966,0.0015284185,-0.7063654,1.801594,0.0
2028116000,-68.55158,-23.07161,-490.9734,0.05676736,0.0138164405,-0.05239498,0.015976345,0.0245848,-0.07065953,0.0011487307,0.0017676958,-0.7050437,1.801594,0.0
2028220000,-68.55158,-23.07161,-490.97766,0.056238275,0.0143980915,-0.049731255,0.009023572,0.022730658,-0.08503777,0.00064862595,0.001633909,-0.70607,1.801594,0.0
2028316000,-68.55158,-23.07161,-490.98135,0.05454952,0.0145376185,-0.047096554,0.019806921,0.02159707,-0.069686264,0.0014247695,0.0015535401,-0.7049742,1.801594,0.0
2028420000,-68.55158,-23.07161,-490.98523,0.0527448,0.014367297,-0.044424057,0.00935919,0.030678015,-0.09061145,0.00067523826,0.002213329,-0.70646787,1.801594,0.0
2028516000,-68.55158,-23.07161,-490.98862,0.054361098,0.014013965,-0.041793976,0.013118556,0.02063229,-0.07896873,0.0009426522,0.0014825622,-0.7056368,1.801594,0.0
2028620000,-68.55158,-23.07161,-490.99203,0.05412918,0.013443195,-0.038915634,0.011390999,0.009467232,-0.08021962,0.0008380435,0.0006965107,-0.7057261,1.801594,0.0
2028716000,-68.55158,-23.07161,-490.9951,0.052541893,0.012671296,-0.036328882,0.0006067725,0.017217029,-0.07588459,4.3740733e-05,0.0012411332,-0.7054166,1.801594,0.0
2028820000,-68.55158,-23.07161,-490.99826,0.05031679,0.011687393,-0.033968925,0.003108036,0.0046189525,-0.076435156,0.0002719556,0.00040416198,-0.70545596,1.801594,0.0
2028916000,-68.55158,-23.07161,-491.00104,0.050389282,0.010542225,-0.03192997,0.009628138,0.012516961,-0.07241975,0.0006802586,0.00088436325,-0.7051693,1.801594,0.0
2029020000,-68.55158,-23.07161,-491.0039,0.048939705,0.009445979,-0.029951096,0.0055380524,-0.0014213263,-0.074083135,0.00047173703,-0.00012107005,-0.70528805,1.801594,0.0
2029116000,-68.55158,-23.07161,-491.00647,0.04673635,0.008284504,-0.028506279,0.004518739,-0.0041059833,-0.090204984,0.0003610356,-0.0003280575,-0.70643884,1.801594,0.0
2029220000,-68.55158,-23.07161,-491.0091,0.045105573,0.0072263093,-0.026892662,-0.0030298247,0.0015456325,-0.074805975,-0.0002169334,0.00011066623,-0.70533967,1.801594,0.0
2029316000,-68.55158,-23.07161,-491.0114,0.046794344,0.0070940377,-0.02508068,0.01427342,0.0037130178,-0.08106055,0.0010546903,0.00027436198,-0.7057861,1.801594,0.0
2029420000,-68.551575,-23.071617,-491.0138,0.04807077,0.005900974,-0.023519453,0.10569715,-0.07896067,-0.0803982,0.0076087415,-0.005684082,-0.70573884,1.8013148,-0.013962634
2029516000,-68.55052,-23.072588,-491.01587,0.07421224,-0.01652269,-0.022459486,0.51453906,-0.3007223,-0.07196528,0.036997315,-0.021623075,-0.70512325,1.798366,-0.047472954
2029612000,-68.54464,-23.076235,-491.01804,0.14564589,-0.04728132,-0.021164272,1.0082196,-0.33359152,-0.060281627,0.0724091,-0.023958135,-0.7043029,1.791541,-0.0837758
2029716000,-68.5314,-23.082024,-491.01993,0.25662893,-0.07618315,-0.019550297,1.4806896,-0.32331154,-0.050533146,0.1062365,-0.02319695,-0.703607,1.78189,-0.11728612
2029820000,-68.50498,-23.090855,-491.02188,0.4193623,-0.10785166,-0.017524831,1.989923,-0.33862075,-0.0026630312,0.14207816,-0.024177125,-0.7001836,1.7678046,-0.15358898
2029916000,-68.46644,-23.101284,-491.02356,0.6077323,-0.13678627,-0.014514778,2.446487,-0.33189952,0.053374834,0.17368013,-0.023562092,-0.69619006,1.7514517,-0.18709932
2030020000,-68.40635,-23.114946,-491.02524,0.85362226,-0.16734141,-0.009908482,2.9511409,-0.32409576,0.1430107,0.20756464,-0.022794852,-0.6897379,1.7301058,-0.22340219
2030116000,-68.33209,-23.129536,-491.0267,1.1235758,-0.19512825,-0.004325837,3.424503,-0.31788453,0.2249003,0.23880193,-0.02216714,-0.6838501,1.7070506,-0.2569125
2030220000,-68.22954,-23.14732,-491.02814,1.4398733,-0.22301899,0.0030250112,3.7680733,-0.3013546,0.31568292,0.2602289,-0.020812009,-0.67726207,1.678444,-0.29321533
2030316000,-68.1141,-23.165436,-491.02936,1.7285438,-0.24662405,0.010591037,3.8176692,-0.28266,0.36660653,0.26217982,-0.01941178,-0.6734753,1.6486868,-0.32672563
2030420000,-67.96717,-23.186882,-491.03058,2.033817,-0.26986945,0.017883217,3.8399212,-0.2385954,0.34363165,0.26433152,-0.016424369,-0.6750676,1.6128194,-0.36302847
2030516000,-67.81358,-23.208105,-491.03162,2.3194408,-0.28799936,0.023071438,3.905558,-0.19925906,0.3304877,0.26917028,-0.013732894,-0.675872,1.5763601,-0.39653876
2030612000,-67.6281,-23.23266,-491.03262,2.6198623,-0.3067382,0.027127974,3.956673,-0.15227266,0.29599378,0.27365097,-0.010531465,-0.67824614,1.5332323,-0.4328416
2030716000,-67.43902,-23.25684,-491.0335,2.855932,-0.31609425,0.030070199,3.8917468,-0.08829856,0.2701318,0.26983982,-0.006122307,-0.6799581,1.490071,-0.4663519
2030820000,-67.212875,-23.28494,-491.03436,3.1182828,-0.32679033,0.032109052,3.8924327,-0.031692117,0.25352854,0.27027065,-0.0022005388,-0.68092376,1.4396828,-0.50265473
2030916000,-66.98629,-23.312422,-491.0351,3.3666885,-0.3343139,0.032518156,3.923329,0.014743865,0.23951878,0.27274337,0.0010249692,-0.681742,1.3898196,-0.53616506
2031020000,-66.719864,-23.344067,-491.0358,3.6213355,-0.34023935,0.03293938,3.9496698,0.06835133,0.2405596,0.27445334,0.0047495742,-0.681441,1.332171,-0.57246786
2031116000,-66.45398,-23.375076,-491.03638,3.8467941,-0.3442426,0.033326052,3.9619002,0.13373876,0.23665729,0.27533564,0.009294288,-0.6815213,1.2756058,-0.6059782
2031212000,-66.14128,-23.410961,-491.03693,4.115284,-0.35216916,0.0333697,4.0589514,0.15341043,0.22439179,0.28237528,0.010672539,-0.68223417,1.2106963,-0.642281
2031316000,-65.83283,-23.445864,-491.03738,4.322155,-0.35049704,0.0336802,3.854156,0.21947664,0.23490304,0.267737,0.015246403,-0.6812397,1.1474288,-0.6757913
2031412000,-65.47668,-23.485825,-491.03778,4.5652127,-0.3573707,0.033914972,3.6138127,0.25845918,0.19661376,0.25198436,0.018021872,-0.6837992,1.0752586,-0.7120941
2031516000,-65.13035,-23.524632,-491.0381,4.7013927,-0.35483557,0.03255447,3.214361,0.3020881,0.10844565,0.22617233,0.021255849,-0.69002604,1.005289,-0.74560446
2031620000,-64.73542,-23.569113,-491.03833,4.8493953,-0.35904205,0.029414674,2.8700025,0.31635436,0.022035666,0.20373055,0.022456795,-0.69613695,0.9258582,-0.78190726
2031716000,-64.35722,-23.612175,-491.03848,4.9594007,-0.3661316,0.025045207,2.5666034,0.32548913,-0.037689954,0.18329614,0.02324508,-0.7003499,0.8491865,-0.8154176
2031820000,-63.93289,-23.661283,-491.03857,5.045551,-0.37512696,0.019964071,2.231429,0.3237861,-0.05934134,0.15967782,0.023169663,-0.7017501,0.76542723,-0.787739
2031916000,-63.531837,-23.708698,-491.03857,5.0933332,-0.3845855,0.015392292,1.9036176,0.32956102,-0.10784385,0.13689362,0.023699507,-0.7052202,0.69141287,-0.75422865
2032020000,-63.088333,-23.76253,-491.0385,5.1126785,-0.39694047,0.010291578,1.565938,0.3000196,-0.12926264,0.1128512,0.021621272,-0.7067269,0.61486095,-0.71792585
2032116000,-62.674698,-23.814245,-491.03836,5.097365,-0.4058169,0.006218806,1.2266333,0.4386622,-0.15324274,0.08861765,0.031690985,-0.70847857,0.54754865,-0.6844155
2032220000,-62.22416,-23.871187,-491.03812,5.060881,-0.39869165,0.0011184132,1.194706,0.49640444,-0.16707632,0.08643645,0.03591464,-0.7095094,0.4782572,-0.6481127
2032316000,-61.778313,-23.92753,-491.0379,5.056761,-0.3968923,-0.0031244196,1.2893884,0.46081334,-0.1460264,0.0930945,0.033270963,-0.70804626,0.41764683,-0.6146024
2032412000,-61.282734,-23.99016,-491.03766,5.1014624,-0.40331405,-0.0061752945,1.4899292,0.37157446,-0.116919115,0.107263856,0.026750606,-0.70600396,0.3556159,-0.5782996
2032516000,-60.83661,-24.04654,-491.03745,5.0527964,-0.40126112,-0.0094700735,1.4757986,0.33576885,-0.09147133,0.10597819,0.02411181,-0.704222,0.30170763,-0.54478925
2032612000,-60.340336,-24.109255,-491.0372,5.0952797,-0.41224897,-0.011544352,1.6217294,0.27484307,-0.0820323,0.1163574,0.019719705,-0.7036183,0.24693726,-0.50848645
2032716000,-59.89282,-24.16581,-491.037,5.061947,-0.4162715,-0.013313195,1.621894,0.21974593,-0.075021096,0.116297275,0.015756799,-0.70318353,0.19973105,-0.47497612
2032812000,-59.422405,-24.225258,-491.03674,5.0886083,-0.42906797,-0.014472284,1.7175144,0.19126128,-0.06655896,0.12305962,0.013703838,-0.7026439,0.15222129,-0.4386733
2032916000,-58.97229,-24.28214,-491.03653,5.0498605,-0.4362381,-0.015753137,1.656183,0.15852539,-0.06994052,0.118719,0.0113634635,-0.70296323,0.11171689,-0.40517887
2033020000,-58.484703,-24.34376,-491.0363,5.052843,-0.44984776,-0.01675918,1.6841241,0.12158164,-0.07702229,0.12082718,0.008722854,-0.7035769,0.07145858,-0.36899808
2033116000,-58.042774,-24.399605,-491.03607,5.051861,-0.4624558,-0.01712436,1.7010705,0.08137648,-0.079634435,0.12209158,0.0058406643,-0.70385784,0.03763581,-0.3356188
2033220000,-57.561905,-24.460375,-491.03583,5.053974,-0.4778524,-0.017001793,1.7321861,0.02741605,-0.06410886,0.12413955,0.0019648098,-0.7028071,0.004608914,-0.29948628
2033316000,-57.114746,-24.51688,-491.0356,5.051825,-0.4957223,-0.01629897,1.7193801,0.0015840875,-0.057013027,0.12313829,0.00011344894,-0.7023318,-0.022547117,-0.266219
2033412000,-56.63505,-24.577497,-491.03537,5.084325,-0.5172596,-0.015382718,1.7790554,-0.04431921,-0.03906536,0.1271819,-0.0031683107,-0.701063,-0.048363894,-0.23020461
2033516000,-56.188343,-24.633951,-491.03516,5.0533037,-0.531627,-0.014527028,1.7484304,-0.069844946,-0.048037868,0.12512325,-0.0049983263,-0.7017937,-0.06887229,-0.19699688
2033620000,-55.699947,-24.695671,-491.0349,5.0624285,-0.5520317,-0.013763347,1.7736588,-0.111855805,-0.050500624,0.1269729,-0.008007547,-0.70203835,-0.08749603,-0.16109513
2033716000,-55.245422,-24.753113,-491.0347,5.066966,-0.57646453,-0.012754824,1.7695162,-0.17179191,-0.05365254,0.12672989,-0.0123034585,-0.70233643,-0.10138952,-0.12823294
2033812000,-54.74837,-24.815926,-491.03445,5.114773,-0.6042062,-0.012112923,1.8721476,-0.20749457,-0.0482769,0.13401723,-0.01485345,-0.70200765,-0.11288909,-0.092768185
2033916000,-54.290913,-24.873737,-491.03424,5.092029,-0.6225053,-0.011561979,1.8251916,-0.23087204,-0.040857278,0.13056652,-0.016515613,-0.70152545,-0.120242216,-0.060265586
2034020000,-53.796146,-24.936264,-491.034,5.103814,-0.6442237,-0.010736946,1.8584766,-0.2558004,-0.032614347,0.13284424,-0.018284656,-0.7009807,-0.12472506,-0.025822489
2034116000,-53.343163,-24.993505,-491.03378,5.1052127,-0.6641992,-0.00978937,1.825191,-0.28203502,-0.03383465,0.13049024,-0.020163817,-0.7011153,-0.125917,-0.00069484
2034212000,-52.852985,-25.05545,-491.03354,5.143758,-0.6865394,-0.008964453,1.8938869,-0.31808278,-0.037483625,0.13546167,-0.02275111,-0.70142776,-0.12614769,0.0
2034316000,-52.404648,-25.112114,-491.03333,5.1083913,-0.69869936,-0.0082916375,1.8118227,-0.30908358,-0.02741804,0.12946306,-0.022085445,-0.70073,-0.12633407,-0.0008640615
2034420000,-51.91969,-25.173397,-491.03308,5.107347,-0.7137155,-0.0071006515,1.8077327,-0.33478743,-0.032648787,0.12924659,-0.023936138,-0.7011405,-0.12651764,0.0
2034516000,-51.475174,-25.229574,-491.03287,5.0992155,-0.72889805,-0.0055124117,1.7842733,-0.34935632,-0.038619004,0.12765752,-0.024995027,-0.7016265,-0.12672132,-0.0010579431
2034620000,-50.993816,-25.290403,-491.03262,5.091518,-0.74253875,-0.0043520415,1.7762911,-0.34753722,-0.039770268,0.12711015,-0.024869518,-0.70175713,-0.126911,0.0
2034716000,-50.55192,-25.346249,-491.0324,5.083067,-0.7522276,-0.0035878378,1.7666454,-0.33307287,-0.045831703,0.12650709,-0.0238509,-0.7022416,-0.12705171,0.0
2034820000,-50.073055,-25.406763,-491.03217,5.0741124,-0.7605627,-0.0030378883,1.7568691,-0.33887517,-0.04939176,0.12586248,-0.024277087,-0.70254934,-0.12717678,0.0
2034916000,-49.632698,-25.462414,-491.03195,5.0634103,-0.767423,-0.0019380213,1.7376742,-0.34400025,-0.037392803,0.124338016,-0.024614688,-0.7017062,-0.12728857,0.0
2035020000,-49.155373,-25.522734,-491.0317,5.0529513,-0.7724641,-0.0013881074,1.7350342,-0.32480985,-0.05121958,0.12433656,-0.023276625,-0.702768,-0.12738009,0.0
2035116000,-48.715683,-25.5783,-491.0315,5.043185,-0.7749629,-0.0012953256,1.7296722,-0.32451686,-0.048978418,0.123930976,-0.023251627,-0.70264715,-0.12743828,0.0
2035220000,-48.238743,-25.638575,-491.03125,5.033216,-0.77665156,-0.00037920335,1.7293162,-0.30994064,-0.028473336,0.12364849,-0.022161182,-0.701189,-0.12748234,0.0
2035316000,-47.799328,-25.694109,-491.03104,5.0209484,-0.77993655,0.0024906988,1.6999047,-0.31228265,-0.018763166,0.12143019,-0.022307448,-0.700523,-0.1275559,0.0
2035420000,-47.314266,-25.755407,-491.0308,5.017074,-0.78226864,0.004505442,1.7031429,-0.30145594,-0.034073558,0.12186387,-0.021569882,-0.70168906,-0.12760605,0.0
2035516000,-46.86637,-25.812008,-491.03058,5.0142264,-0.7824718,0.005361482,1.7192471,-0.29947415,-0.041742444,0.12312121,-0.021446375,-0.70228755,-0.12762572,0.0
2035612000,-46.381615,-25.87327,-491.03033,5.04674,-0.78603774,0.0060950983,1.7849977,-0.2990262,-0.035602674,0.12775464,-0.021401698,-0.7018754,-0.12762994,0.0
2035716000,-45.92447,-25.931042,-491.03012,5.015487,-0.7827474,0.0070122066,1.7367733,-0.2897533,-0.035069723,0.12430396,-0.02073816,-0.7018794,-0.1276496,0.0
2035820000,-45.439705,-25.992306,-491.02988,5.011396,-0.78107846,0.007623783,1.7417474,-0.2971555,-0.033827215,0.12465123,-0.02126646,-0.7018291,-0.12764819,0.0
2035916000,-44.982338,-26.050106,-491.02966,5.0174804,-0.7796705,0.0078695435,1.7526675,-0.28215733,-0.022700077,0.12529211,-0.020170445,-0.7010418,-0.12763226,0.0
2036012000,-44.496696,-26.111479,-491.02942,5.05036,-0.7808937,0.00796237,1.813901,-0.281886,-0.015934745,0.12958108,-0.020137314,-0.7005661,-0.1276023,0.0
2036116000,-44.04766,-26.168228,-491.0292,5.01178,-0.77545226,0.0089406185,1.7363119,-0.27582443,-0.035943355,0.12430497,-0.019746654,-0.70207095,-0.12760745,0.0
2036220000,-43.552643,-26.23079,-491.02896,5.01706,-0.7741728,0.009399405,1.7587792,-0.28759602,-0.026774371,0.12579896,-0.020570677,-0.7014328,-0.1275934,0.0
2036316000,-43.10296,-26.28762,-491.02875,5.0149326,-0.77114683,0.009828395,1.7582428,-0.27528927,-0.027820185,0.12577875,-0.019693265,-0.70153373,-0.12756905,0.0
2036420000,-42.60718,-26.350277,-491.0285,5.020861,-0.7677057,0.009707712,1.761926,-0.26446104,-0.029382385,0.12606506,-0.018922076,-0.70166034,-0.1275264,0.0
2036516000,-42.164116,-26.406271,-491.0283,5.013146,-0.7615483,0.009923162,1.7539247,-0.24885225,-0.025332248,0.12544356,-0.01779832,-0.70138675,-0.1274664,0.0
2036620000,-41.66678,-26.469118,-491.02805,5.020434,-0.7562231,0.010015909,1.758317,-0.23771341,-0.019789446,0.12568858,-0.016992308,-0.7010009,-0.12739277,0.0
2036716000,-41.21355,-26.526394,-491.02783,5.0207343,-0.7501967,0.009895785,1.756343,-0.23851787,-0.02092876,0.12556471,-0.017052151,-0.70109874,-0.12731908,0.0
2036820000,-40.721474,-26.588577,-491.0276,5.0215936,-0.74361587,0.010049945,1.7677183,-0.22113955,-0.020563392,0.12637621,-0.015809521,-0.70108837,-0.12723692,0.0
2036916000,-40.272358,-26.645336,-491.02737,5.019046,-0.73683363,0.011119887,1.7842773,-0.21532014,-0.01065542,0.12743287,-0.015378137,-0.70039016,-0.1271556,0.0
2037020000,-39.777454,-26.70788,-491.02713,5.023434,-0.7303087,0.011853763,1.7857223,-0.2009872,-0.018552357,0.12764527,-0.014366772,-0.7009897,-0.12706628,0.0
2037116000,-39.32509,-26.765047,-491.02692,5.0221624,-0.72358996,0.011672648,1.7824435,-0.20535979,-0.015847396,0.12737742,-0.014675472,-0.7008046,-0.12698112,0.0
2037220000,-38.82762,-26.827919,-491.02667,5.0276527,-0.7176757,0.011643724,1.7907903,-0.1977513,-0.019652518,0.12802804,-0.01413773,-0.7011012,-0.12689449,0.0
2037316000,-38.37255,-26.885427,-491.02646,5.0313964,-0.7123666,0.013049679,1.8136303,-0.20200783,-0.0069754515,0.12949434,-0.014423486,-0.70020163,-0.12681818,0.0
2037420000,-37.87768,-26.94797,-491.0262,5.035687,-0.7069796,0.013814165,1.8110603,-0.19037382,-0.0051660277,0.12929095,-0.013590719,-0.7000931,-0.12673992,0.0
2037516000,-37.420513,-27.005743,-491.026,5.0384917,-0.70209426,0.014121623,1.8211858,-0.1987572,-0.0077540465,0.13005073,-0.014193236,-0.7002926,-0.12666917,0.0
2037612000,-36.923367,-27.068567,-491.02576,5.07862,-0.70221037,0.013940201,1.8896403,-0.19759515,-0.0096953325,0.13496768,-0.0141132455,-0.700441,-0.12659696,0.0
2037716000,-36.46491,-27.126503,-491.02554,5.050813,-0.6928137,0.014797093,1.8537074,-0.18980713,-0.0035316646,0.13232145,-0.013548824,-0.7000173,-0.12652282,0.0
2037820000,-35.9669,-27.189436,-491.0253,5.0579886,-0.6883874,0.015073534,1.8533133,-0.1884868,0.0030619279,0.13220435,-0.013445529,-0.69954765,-0.12644865,0.0
2037916000,-35.508305,-27.247393,-491.0251,5.061522,-0.6845045,0.014984449,1.8586484,-0.1932204,-0.00797545,0.13273922,-0.013799234,-0.700363,-0.12638766,0.0
2038020000,-35.00982,-27.310392,-491.02484,5.0659795,-0.6804219,0.014620094,1.8666394,-0.18605025,-0.016571209,0.13343196,-0.013299327,-0.701003,-0.1263257,0.0
2038116000,-34.551186,-27.368351,-491.02463,5.0712743,-0.6749044,0.015446606,1.8657068,-0.16158636,-0.009594736,0.13327165,-0.011542479,-0.70051,-0.1262353,0.0
2038220000,-34.0527,-27.43135,-491.02438,5.0756664,-0.6695808,0.015540076,1.8723094,-0.16926008,-0.02199974,0.13391869,-0.012106486,-0.7014295,-0.12614769,0.0
2038316000,-33.593994,-27.48932,-491.02417,5.076163,-0.6650035,0.014962841,1.8641503,-0.16826399,-0.022147212,0.1333402,-0.0120357005,-0.70145565,-0.12607802,0.0
2038420000,-33.094795,-27.552408,-491.02393,5.0779786,-0.6612746,0.014415527,1.8544078,-0.1725122,-0.018224824,0.13259129,-0.012334729,-0.7011805,-0.12601733,0.0
2038516000,-32.6362,-27.610363,-491.0237,5.0812945,-0.6592109,0.013960445,1.8611782,-0.17210524,-0.019532677,0.1330957,-0.01230751,-0.70128727,-0.12598082,0.0
2038612000,-32.137886,-27.673342,-491.02347,5.119375,-0.66214436,0.013321615,1.9214025,-0.19509752,-0.0272505,0.13751334,-0.013962984,-0.70185477,-0.1259495,0.0
2038716000,-31.679386,-27.731287,-491.02325,5.0804863,-0.65601414,0.012469852,1.8326533,-0.20332453,-0.027540464,0.13116777,-0.014552466,-0.7018885,-0.12593243,0.0
2038820000,-31.180002,-27.794401,-491.023,5.079397,-0.65517867,0.011861635,1.8387451,-0.20009609,-0.019347392,0.13149351,-0.0143094,-0.7012987,-0.1259253,0.0
2038916000,-30.721066,-27.852398,-491.0228,5.08153,-0.6536749,0.012566382,1.8595192,-0.20111147,-0.03038673,0.13313629,-0.014399008,-0.7021278,-0.1258973,0.0
2039020000,-30.222176,-27.915443,-491.02255,5.0822315,-0.6525443,0.012568579,1.8577834,-0.19613244,-0.021780737,0.132897,-0.014030383,-0.70152193,-0.12587878,0.0
2039116000,-29.763044,-27.973467,-491.02234,5.0791764,-0.6514845,0.012296829,1.8462487,-0.20849179,-0.01749462,0.13201585,-0.014908188,-0.7012244,-0.12586834,0.0
2039212000,-29.262865,-28.036678,-491.0221,5.113718,-0.6556845,0.012329659,1.9005936,-0.21441577,-0.008326135,0.13577572,-0.015317557,-0.7005736,-0.12586644,0.0
2039316000,-28.802948,-28.0948,-491.02188,5.078069,-0.649935,0.014285825,1.8531424,-0.21128911,0.003985904,0.13222165,-0.015075471,-0.6997043,-0.12584697,0.0
2039420000,-28.3027,-28.158022,-491.02164,5.077774,-0.6493965,0.015081688,1.8466775,-0.20862953,-0.012738579,0.13198748,-0.0149113685,-0.70090926,-0.12583984,0.0
2039516000,-27.842167,-28.216217,-491.02142,5.0740848,-0.64873576,0.01477965,1.849035,-0.20647089,-0.03560865,0.13246387,-0.0147914635,-0.7025417,-0.125837,0.0
2039612000,-27.340345,-28.279638,-491.02118,5.1082587,-0.6531353,0.014202362,1.887492,-0.21219923,-0.017188495,0.13496041,-0.015172776,-0.70120186,-0.1258389,0.0
2039716000,-26.878532,-28.338001,-491.02097,5.070339,-0.64714473,0.014571872,1.8281711,-0.20463243,-0.007892879,0.13059482,-0.014617851,-0.700534,-0.12582085,0.0
2039812000,-26.375784,-28.401537,-491.02072,5.105834,-0.6509464,0.014360933,1.904118,-0.20540063,-0.012512054,0.13608722,-0.014679976,-0.70087993,-0.12580897,0.0
2039916000,-25.91275,-28.460054,-491.0205,5.0647097,-0.6453277,0.013967646,1.8163105,-0.1907444,-0.009133322,0.12976672,-0.013627776,-0.70063865,-0.12580232,0.0
2040012000,-25.40809,-28.523829,-491.02026,5.099065,-0.64948446,0.013573779,1.8779737,-0.21039174,-0.011670837,0.13420816,-0.015035511,-0.7008251,-0.12580043,0.0
2040116000,-24.944012,-28.582474,-491.02005,5.063028,-0.6437316,0.013516362,1.8194656,-0.21265896,-0.023986317,0.13019153,-0.015216774,-0.70171213,-0.12578094,0.0
2040212000,-24.439281,-28.646261,-491.0198,5.099963,-0.6482272,0.013214171,1.8766941,-0.2224062,-0.011556975,0.13411598,-0.015894026,-0.70082206,-0.1257762,0.0
2040316000,-23.974747,-28.704967,-491.0196,5.059627,-0.6437824,0.012851697,1.8118083,-0.21172862,-0.0124072395,0.12949035,-0.015132291,-0.7008852,-0.12578808,0.0
2040420000,-23.468752,-28.768915,-491.01935,5.058179,-0.6438783,0.012336042,1.8268086,-0.21726517,-0.024894157,0.13072903,-0.015547806,-0.7017769,-0.12580091,0.0
2040516000,-23.00357,-28.827702,-491.01913,5.059444,-0.6409682,0.011943221,1.8408269,-0.20154679,-0.027114255,0.13176122,-0.014426154,-0.7019334,-0.12574388,0.0
2040620000,-22.497768,-28.891623,-491.0189,5.060158,-0.6389717,0.01142769,1.827517,-0.21626696,-0.016488053,0.13066618,-0.015462935,-0.7011696,-0.12570253,0.0
2040716000,-22.032366,-28.95044,-491.01868,5.05744,-0.63782465,0.010943439,1.8366452,-0.21093716,-0.014969797,0.13130021,-0.01507972,-0.7010685,-0.1256873,0.0
2040820000,-21.525553,-29.014488,-491.01843,5.0567145,-0.6368586,0.010458587,1.8299471,-0.20226024,-0.006818575,0.13071126,-0.014447244,-0.70047826,-0.12567493,0.0
2040916000,-21.059822,-29.073347,-491.01822,5.058094,-0.6344795,0.010035544,1.8465587,-0.20655595,-0.004520136,0.13186738,-0.014750678,-0.7003172,-0.12562406,0.0
2041020000,-20.553566,-29.137327,-491.01797,5.0587373,-0.6330555,0.008879424,1.8458221,-0.22026448,-0.01928119,0.1320139,-0.0157534,-0.70137626,-0.12559219,0.0
2041116000,-20.087774,-29.196192,-491.01776,5.0559034,-0.63249904,0.007846154,1.8332739,-0.21369162,-0.020742403,0.13113579,-0.015285561,-0.701479,-0.12558647,0.0
2041212000,-19.5805,-29.260294,-491.01752,5.091211,-0.6369859,0.006995386,1.9033942,-0.21526767,-0.022396611,0.13617443,-0.015400884,-0.7015969,-0.12558647,0.0
2041316000,-19.113747,-29.319284,-491.0173,5.0520396,-0.62822473,0.0061149118,1.8288695,-0.20524149,-0.03294534,0.13098362,-0.014699395,-0.7023516,-0.12551412,0.0
2041420000,-18.605907,-29.383463,-491.01706,5.0502863,-0.62575155,0.0051117437,1.8318031,-0.1902108,-0.032483097,0.13118634,-0.013622128,-0.70231205,-0.12546602,0.0
2041516000,-18.138348,-29.442553,-491.01685,5.046294,-0.62400496,0.004750265,1.8281263,-0.19097295,-0.010638541,0.1306282,-0.013645914,-0.70073134,-0.12543744,0.0
2041612000,-17.629538,-29.506853,-491.0166,5.0813828,-0.62747866,0.004540764,1.8984959,-0.19103904,-0.028045757,0.13590239,-0.013675385,-0.70200187,-0.12541409,0.0
2041716000,-17.16199,-29.565935,-491.0164,5.0454493,-0.61728644,0.0038743145,1.8419574,-0.18061005,-0.02327765,0.13179095,-0.012922539,-0.7016588,-0.12530397,0.0
2041812000,-16.654772,-29.630035,-491.01614,5.0822005,-0.6186549,0.0035123331,1.9085124,-0.18778671,-0.018255271,0.13648246,-0.013429094,-0.7012986,-0.12522382,0.0
2041916000,-16.187977,-29.68903,-491.01593,5.0416303,-0.6115789,0.00296807,1.8272241,-0.16054173,-0.028780043,0.13081051,-0.011493142,-0.70205426,-0.12518229,0.0
2042020000,-15.679281,-29.753315,-491.0157,5.0396423,-0.61027443,0.002392617,1.8154706,-0.16820043,-0.016664986,0.12980686,-0.012026397,-0.7011776,-0.1251546,0.0
2042116000,-15.210576,-29.812553,-491.01547,5.037397,-0.6092048,0.001360374,1.8194455,-0.18539193,-0.020688167,0.13014536,-0.013261126,-0.70147306,-0.12512977,0.0
2042220000,-14.698528,-29.877266,-491.01523,5.037865,-0.609962,0.00075488794,1.814779,-0.1952946,-0.019551778,0.12979695,-0.013967895,-0.7013929,-0.12513645,0.0
2042316000,-14.227896,-29.936747,-491.015,5.0352983,-0.6112357,0.00045538507,1.8049705,-0.19303042,-0.021499325,0.12912162,-0.013808756,-0.7015346,-0.12516367,0.0
2042412000,-13.715507,-30.0015,-491.01477,5.0719104,-0.61757034,9.426987e-05,1.8875207,-0.20613524,-0.032414526,0.1351768,-0.0147625925,-0.7023137,-0.12519853,0.0
2042516000,-13.244647,-30.061005,-491.01456,5.035022,-0.6101198,0.00019174814,1.8281711,-0.18727286,-0.0329978,0.13093401,-0.013412523,-0.7023554,-0.12513503,0.0
2042612000,-12.732448,-30.125732,-491.0143,5.0735555,-0.6138615,0.0003191398,1.9129112,-0.19448712,-0.022063347,0.13685018,-0.01391366,-0.70156986,-0.12510063,0.0
2042716000,-12.26178,-30.185217,-491.0141,5.0344324,-0.6087173,0.00023373542,1.8462827,-0.18165156,-0.02103521,0.1320698,-0.012994046,-0.7014978,-0.12508869,0.0
2042820000,-11.749502,-30.249954,-491.01385,5.034812,-0.6086269,0.0004834421,1.8518587,-0.18880048,-0.016437136,0.13240726,-0.01349917,-0.7011728,-0.12508869,0.0
2042916000,-11.278952,-30.30942,-491.01364,5.035123,-0.60514975,0.00052036694,1.8461213,-0.1762666,-0.025431767,0.1321182,-0.012614569,-0.7018153,-0.12499693,0.0
2043012000,-10.767002,-30.374117,-491.0134,5.0733976,-0.60802007,0.0007703188,1.9169679,-0.1810161,-0.024648184,0.13717753,-0.012953447,-0.7017594,-0.12493763,0.0
2043116000,-10.296742,-30.433548,-491.01318,5.0336866,-0.60200095,0.00080748973,1.8414328,-0.16415389,-0.019028533,0.13169688,-0.011740072,-0.70135826,-0.12490702,0.0
2043212000,-9.784735,-30.498253,-491.01294,5.070131,-0.6066015,0.0006915056,1.8999329,-0.19277552,-0.01893511,0.13587853,-0.013786832,-0.70134926,-0.12489602,0.0
2043316000,-9.314219,-30.55772,-491.01273,5.0299573,-0.60128474,0.00085105235,1.8357283,-0.18958832,-0.028471395,0.13141498,-0.013572131,-0.70203227,-0.124880224,0.0
2043420000,-8.801983,-30.622456,-491.01248,5.0288076,-0.60228115,0.001132109,1.8344179,-0.1931735,-0.009697322,0.13106845,-0.013802172,-0.70068055,-0.12489649,0.0
2043516000,-8.330941,-30.681982,-491.01227,5.0255938,-0.6038467,0.0015666557,1.8299382,-0.1984262,-0.008540935,0.13073482,-0.0141760055,-0.700608,-0.124934286,0.0
2043612000,-7.8182225,-30.746777,-491.01202,5.0615416,-0.61058766,0.0021227226,1.9021988,-0.2162676,-0.0065101366,0.1358685,-0.015447362,-0.70046,-0.12498402,0.0
2043716000,-7.346535,-30.806389,-491.0118,5.02108,-0.6055268,0.00237455,1.823902,-0.20666988,-0.0133376345,0.13036737,-0.0147721805,-0.70095205,-0.12497446,0.0
2043812000,-6.8334985,-30.871225,-491.01157,5.0570893,-0.61121774,0.002198567,1.9064934,-0.20256989,-0.024246741,0.13642158,-0.014495147,-0.7017266,-0.12499598,0.0
2043916000,-6.3612638,-30.930906,-491.01135,5.01635,-0.6078802,0.0020235477,1.8157679,-0.20651178,-0.034460913,0.1300652,-0.014792639,-0.7024598,-0.12503088,0.0
2044020000,-5.847768,-30.9958,-491.0111,5.013329,-0.60961694,0.0020310762,1.8132209,-0.19619866,-0.012790973,0.12959427,-0.014022682,-0.7008991,-0.12508105,0.0
2044116000,-5.374692,-31.055582,-491.0109,5.0051804,-0.60942584,0.002375308,1.7984765,-0.19923922,-0.017734502,0.12860782,-0.01424746,-0.701265,-0.12509346,0.0
2044220000,-4.860648,-31.120543,-491.01065,4.9991345,-0.6105882,0.0025969099,1.786825,-0.22013912,-0.01870523,0.12778631,-0.015743436,-0.7013305,-0.12513502,0.0
2044316000,-4.3844366,-31.180727,-491.01044,4.9961534,-0.6128225,0.002575545,1.7888281,-0.2160395,-0.018554946,0.12792811,-0.015450073,-0.7013226,-0.12519805,0.0
2044420000,-3.8685405,-31.245928,-491.0102,4.993546,-0.6152429,0.0020348052,1.796437,-0.2178096,-0.02871533,0.12860471,-0.01559272,-0.70204574,-0.12527248,0.0
2044516000,-3.3923285,-31.306107,-491.00998,4.9903135,-0.6156654,0.001403634,1.7914891,-0.20942505,-0.03313555,0.12830862,-0.014999277,-0.7023652,-0.12528823,0.0
2044620000,-2.8764324,-31.371305,-491.00974,4.9880176,-0.6168013,0.0005887253,1.7866942,-0.21967778,-0.03896395,0.12804142,-0.01574296,-0.70278126,-0.12532161,0.0
2044716000,-2.4002204,-31.431482,-491.00952,4.986838,-0.6186138,-0.0001334846,1.7993919,-0.22974867,-0.042246096,0.12899429,-0.016470157,-0.7030155,-0.12537216,0.0
2044820000,-1.884324,-31.49668,-491.00928,4.9859242,-0.6208284,-0.00094786054,1.8036879,-0.22719653,-0.020667275,0.12901518,-0.016251039,-0.70145714,-0.12543935,0.0
2044916000,-1.4081118,-31.556858,-491.00906,4.9830127,-0.6211911,-0.0024324532,1.8074443,-0.21426079,-0.020425633,0.12928137,-0.015325467,-0.70144117,-0.12545602,0.0
2045012000,-0.89221513,-31.622057,-491.00882,5.0191393,-0.6269334,-0.0033683209,1.8607401,-0.22181262,-0.02073516,0.13309824,-0.015866196,-0.7014681,-0.12548983,0.0
2045116000,-0.41600293,-31.682236,-491.0086,4.9806423,-0.6235344,-0.0038147105,1.8079593,-0.21085256,-0.023869481,0.12936574,-0.015087231,-0.7016994,-0.12552792,0.0
2045212000,0.09989359,-31.747435,-491.00836,5.0178313,-0.6293817,-0.0039870073,1.8703327,-0.2244124,-0.021269934,0.13379364,-0.016053267,-0.7015147,-0.12556458,0.0
2045316000,0.5761058,-31.80762,-491.00815,4.9748745,-0.62263936,-0.0045242906,1.7884234,-0.21315895,-0.033948213,0.12810008,-0.015268015,-0.7024232,-0.12552173,0.0
2045420000,1.0920024,-31.872816,-491.0079,4.97143,-0.6220631,-0.004756932,1.7808762,-0.22054848,-0.026115982,0.12745608,-0.015784504,-0.70185643,-0.12551317,0.0
2045516000,1.5682145,-31.933008,-491.0077,4.9696293,-0.62245,-0.0049883192,1.7956833,-0.21940309,-0.03437444,0.12862514,-0.015715886,-0.7024536,-0.12552698,0.0
2045612000,2.084111,-31.998209,-491.00745,5.0062017,-0.6280086,-0.0053117573,1.864933,-0.22925006,-0.033476736,0.1335734,-0.016419737,-0.70238876,-0.12555744,0.0
2045716000,2.5603232,-32.058395,-491.00723,4.9637094,-0.62315404,-0.00600012,1.7854524,-0.20727517,-0.035060976,0.12790139,-0.0148482155,-0.70250267,-0.12557076,0.0
2045820000,3.0762203,-32.123604,-491.007,4.9611855,-0.62366277,-0.006688938,1.7879531,-0.2126109,-0.0356803,0.1280884,-0.015231377,-0.70254403,-0.12559456,0.0
2045916000,3.552433,-32.183784,-491.00677,4.9600515,-0.6244735,-0.0071628117,1.7866822,-0.20965762,-0.03928582,0.12804441,-0.015025329,-0.7028042,-0.12562597,0.0
2046012000,4.0683293,-32.248985,-491.00653,4.9971194,-0.63010657,-0.0076065725,1.8391713,-0.22123218,-0.04027512,0.13181865,-0.01585634,-0.70287216,-0.12566069,0.0
2046116000,4.544541,-32.30917,-491.00632,4.9543114,-0.62322235,-0.009422266,1.7851732,-0.21476258,-0.04133194,0.12796235,-0.015394321,-0.70294684,-0.12560979,0.0
2046220000,5.0604367,-32.374363,-491.00607,4.9518824,-0.622317,-0.010231225,1.775488,-0.21094783,-0.03848616,0.12723199,-0.0151165845,-0.7027471,-0.1255841,0.0
2046316000,5.5366483,-32.434547,-491.00586,4.9512587,-0.62240124,-0.010794643,1.7845099,-0.22034776,-0.04332474,0.12794128,-0.015797937,-0.7030925,-0.12558599,0.0
2046412000,6.052544,-32.499744,-491.0056,4.988797,-0.62733215,-0.01117523,1.848355,-0.22422719,-0.04946386,0.13260163,-0.016086139,-0.7035307,-0.12559313,0.0
2046516000,6.5287557,-32.559937,-491.0054,4.9448934,-0.61622065,-0.012134207,1.7607037,-0.20059593,-0.05061365,0.12632768,-0.0143924365,-0.7036128,-0.12539066,0.0007845296
2046620000,7.0446515,-32.625134,-491.00516,4.941642,-0.6120575,-0.012513543,1.786475,-0.19454977,-0.04600542,0.12811679,-0.013952109,-0.70328385,-0.12523241,0.0
2046716000,7.520863,-32.68531,-491.0049,4.9408374,-0.6095637,-0.012677761,1.7878809,-0.18039197,-0.043211542,0.12818082,-0.012933072,-0.7030814,-0.12512547,0.0
2046820000,8.036759,-32.75051,-491.0046,4.9406323,-0.6070698,-0.012426617,1.783181,-0.18206222,-0.041367013,0.12782073,-0.013050458,-0.70295274,-0.12502706,0.0
2046916000,8.512971,-32.810688,-491.0043,4.9367456,-0.60152686,-0.012516071,1.7912767,-0.17053384,-0.031570833,0.12827194,-0.012211798,-0.7022457,-0.1248008,0.0013031939
2047020000,9.028867,-32.87588,-491.004,4.935313,-0.59746444,-0.01195928,1.7753965,-0.15584436,-0.024258561,0.12704124,-0.0111516835,-0.7017285,-0.12461052,0.0
2047116000,9.505078,-32.936073,-491.0037,4.935716,-0.5952997,-0.011224486,1.7940595,-0.16777614,-0.028113414,0.12842709,-0.012010194,-0.7020067,-0.12448817,0.0
2047220000,10.020974,-33.00127,-491.0034,4.9363503,-0.59387624,-0.010270439,1.7837845,-0.16712692,-0.028038848,0.12769066,-0.011963635,-0.7020006,-0.12440221,0.0
2047316000,10.497186,-33.06145,-491.00308,4.93206,-0.59063965,-0.0095963655,1.7858613,-0.16212663,-0.02549392,0.12780643,-0.011602706,-0.7018197,-0.124247916,3.3933902e-05
2047412000,11.013081,-33.12666,-491.00278,4.9680543,-0.59383357,-0.008855348,1.842007,-0.16656916,-0.020055894,0.13175085,-0.011913977,-0.70142853,-0.12414351,0.0
2047516000,11.489292,-33.186832,-491.00247,4.9306035,-0.58886904,-0.007570562,1.7768773,-0.17837419,-0.0033203326,0.12687498,-0.012736512,-0.7002281,-0.124098256,0.0
2047620000,12.005188,-33.252026,-491.00217,4.9312196,-0.58906925,-0.0062185237,1.7842579,-0.17644805,-0.0057537984,0.12743524,-0.012602271,-0.7004107,-0.12408236,0.0
2047716000,12.4814,-33.312214,-491.00186,4.927911,-0.58591664,-0.0057572937,1.7826436,-0.17440303,-0.026569005,0.12759018,-0.012482649,-0.7018965,-0.1239031,0.0001584494
2047820000,12.997295,-33.37741,-491.00156,4.927038,-0.5845178,-0.00522847,1.7785813,-0.17653981,-0.030299978,0.12734774,-0.012640382,-0.7021628,-0.12378582,0.0
2047916000,13.473507,-33.4376,-491.00125,4.928098,-0.58494025,-0.0046446817,1.7988653,-0.18371782,-0.030792607,0.12880653,-0.013154989,-0.70219797,-0.12374961,0.0
2048020000,13.989403,-33.502796,-491.00095,4.929323,-0.58604825,-0.004145505,1.7951099,-0.18686609,-0.03166115,0.12854898,-0.013381602,-0.70225996,-0.12375733,0.0
2048116000,14.465614,-33.562977,-491.00064,4.924776,-0.58503747,-0.0042020148,1.7799346,-0.1868556,-0.03339266,0.12748466,-0.0133832,-0.7023836,-0.12367812,0.0
2048220000,14.98151,-33.628162,-491.00034,4.922959,-0.5857207,-0.0044647763,1.7865938,-0.19517568,-0.04698901,0.12813821,-0.013998405,-0.70335406,-0.12366701,0.0
2048316000,15.457721,-33.688335,-491.00003,4.92348,-0.5875687,-0.0042459536,1.7833737,-0.19515428,-0.026819237,0.12764397,-0.013968057,-0.70190614,-0.12371242,0.0
2048420000,15.9736185,-33.753525,-490.99973,4.924512,-0.5893928,-0.003927718,1.7783123,-0.19543771,-0.02513012,0.127261,-0.013986069,-0.70179105,-0.12377327,0.0
2048516000,16.44983,-33.813717,-490.99942,4.921738,-0.58796173,-0.004684656,1.7695665,-0.17404896,-0.04873236,0.12693934,-0.012485353,-0.7034782,-0.123647675,0.0
2048620000,16.965727,-33.878918,-490.9991,4.921148,-0.5878765,-0.0053111035,1.7646328,-0.19103,-0.039281145,0.12646395,-0.013690331,-0.70280194,-0.12357468,0.0
2048716000,17.441938,-33.9391,-490.9988,4.922273,-0.5890463,-0.0053041377,1.7805117,-0.17629842,-0.04177002,0.12763451,-0.012637806,-0.70298153,-0.123575166,0.0
2048812000,17.957834,-34.00429,-490.9985,4.9619956,-0.5955056,-0.0049829334,1.8570504,-0.20994785,-0.042332336,0.13312843,-0.015050763,-0.70302063,-0.12360756,0.0
2048916000,18.434044,-34.06447,-490.9982,4.921916,-0.591528,-0.004059272,1.7773473,-0.19656108,-0.020370029,0.12713069,-0.014059687,-0.7014526,-0.12360756,0.0
2049020000,18.94994,-34.12967,-490.9979,4.9221516,-0.5937026,-0.0031868292,1.7923553,-0.21095018,-0.029154379,0.12831873,-0.015102395,-0.7020808,-0.123680055,0.0
2049116000,19.426151,-34.18986,-490.9976,4.924196,-0.5967073,-0.0025363902,1.7889892,-0.20922439,-0.02730279,0.12805364,-0.014976023,-0.70194787,-0.12381069,-0.00039101578
2049220000,19.942047,-34.255054,-490.99728,4.9250364,-0.59981894,-0.0019973167,1.7935554,-0.20998786,-0.026653375,0.12837204,-0.015029685,-0.70190173,-0.12397009,0.0
2049316000,20.41826,-34.31523,-490.99698,4.919475,-0.60161257,-0.0013145781,1.7776569,-0.20265841,-0.012720117,0.12705244,-0.014484373,-0.7008995,-0.12410402,-3.5784906e-05
2049420000,20.934156,-34.380417,-490.99667,4.916793,-0.60403293,-0.0003454073,1.779831,-0.20616493,-0.02008306,0.12730467,-0.014746207,-0.70143354,-0.12426474,0.0
2049516000,21.410368,-34.4406,-490.99637,4.916818,-0.6065379,0.0003700999,1.7815403,-0.20828837,-0.035407048,0.12762552,-0.014921311,-0.70252734,-0.12442332,-0.0005980625
2049620000,21.926264,-34.505795,-490.99606,4.9174232,-0.6096384,0.0005798852,1.7778846,-0.21889484,-0.04443249,0.12748049,-0.015695518,-0.7031716,-0.12462442,-3.1367876e-05
2049716000,22.402359,-34.56594,-490.99573,4.907295,-0.6114471,0.00012276298,1.5314909,-0.17348719,-0.05269683,0.10990531,-0.012450066,-0.70375973,-0.12494163,-0.0022110448
2049820000,22.915644,-34.63067,-490.99533,4.85922,-0.6085993,-0.00043084566,1.071398,-0.15138257,-0.07168579,0.07703534,-0.010884664,-0.7051169,-0.12529217,-0.000763773
2049916000,23.383408,-34.689728,-490.99496,4.7740655,-0.6028796,-0.0015781913,0.5948384,-0.11157639,-0.10419902,0.042911112,-0.008049022,-0.70743775,-0.12560028,-0.0023029863
2050020000,23.879385,-34.75269,-490.99457,4.6335936,-0.59293586,-0.0030808211,0.06317294,-0.08263424,-0.123136416,0.0045643533,-0.0059704655,-0.70878947,-0.12592104,0.0
2050116000,24.323603,-34.809666,-490.9942,4.4592505,-0.5776377,-0.0035845113,-0.19880974,-0.055444583,-0.123064786,-0.014368059,-0.0040070023,-0.70878434,-0.12585172,0.0
2050220000,24.788229,-34.869946,-490.9938,4.263928,-0.5595205,-0.00368077,-0.26684225,-0.021634161,-0.08709652,-0.019215716,-0.001557909,-0.7062076,-0.1257895,0.0
2050316000,25.201817,-34.9241,-490.99344,4.084084,-0.5415397,-0.0035667298,-0.29405606,0.0115338415,-0.09053725,-0.021183692,0.00083089387,-0.70646256,-0.12570205,0.0
2050420000,25.633429,-34.98103,-490.99313,3.888191,-0.5204532,-0.0031638695,-0.32730925,0.01774168,-0.08287427,-0.023560435,0.0012770849,-0.7059156,-0.1255379,0.0
2050516000,26.016827,-35.031868,-490.99283,3.696458,-0.49811894,-0.0020212587,-0.38663125,0.04952073,-0.10073267,-0.027882146,0.0035712172,-0.7071903,-0.12528966,0.0024440926
2050620000,26.416115,-35.085022,-490.99255,3.4972353,-0.47389793,-0.0018052349,-0.43403935,0.059084684,-0.115533054,-0.03134667,0.0042671436,-0.70824677,-0.12492437,0.0013272641
2050716000,26.77008,-35.132263,-490.99234,3.320683,-0.45165068,-0.002038522,-0.46676004,0.083146326,-0.124107614,-0.033738762,0.006010056,-0.7088588,-0.124546535,0.0029867215
2050820000,27.13799,-35.181416,-490.9921,3.1329796,-0.4276367,-0.0025252176,-0.48360348,0.08531681,-0.12481695,-0.03495878,0.00616739,-0.70890945,-0.12407353,0.0011102003
2050916000,27.46349,-35.224907,-490.99188,2.950688,-0.4056226,-0.0030331628,-0.55168974,0.09622483,-0.12882861,-0.039896045,0.0069586034,-0.7091958,-0.12397069,0.0002732235
2051012000,27.80114,-35.269978,-490.99164,2.7912767,-0.38564032,-0.0033062354,-0.5486982,0.096313536,-0.12666312,-0.039672717,0.006963791,-0.70904124,-0.12375927,0.0
2051116000,28.09928,-35.309692,-490.99142,2.6020036,-0.36096722,-0.0038446982,-0.60029113,0.097213656,-0.13696837,-0.0434469,0.0070359726,-0.7097768,-0.12349712,0.002225106
2051212000,28.407948,-35.350677,-490.99118,2.4571016,-0.34156114,-0.0043924293,-0.5966953,0.10538874,-0.14669982,-0.04322934,0.0076351967,-0.71047145,-0.12321827,0.0
2051316000,28.679974,-35.38662,-490.99097,2.2705786,-0.3205736,-0.0045951987,-0.67254144,0.096545726,-0.1340671,-0.04866223,0.006985637,-0.7095697,-0.1238666,-0.005112149
2051420000,28.961056,-35.42352,-490.99075,2.1070797,-0.30070728,-0.0048377533,-0.6774814,0.089354105,-0.14378789,-0.049067754,0.0064716246,-0.7102636,-0.12451734,-0.0036251736
2051516000,29.208296,-35.4557,-490.9906,1.9659904,-0.28213695,-0.0052541457,-0.6584811,0.10868191,-0.14362241,-0.0476908,0.007871337,-0.71025175,-0.1250178,-0.0028486827
2051612000,29.463285,-35.488518,-490.99045,1.8407972,-0.26401737,-0.005496701,-0.63542503,0.12088304,-0.121744685,-0.04591918,0.008735648,-0.70869017,-0.12543222,-0.0057074707
2051716000,29.687155,-35.516922,-490.9903,1.6861963,-0.24506289,-0.005607918,-0.6592952,0.10858475,-0.13815027,-0.04772283,0.007859865,-0.70986116,-0.12672068,-0.013226211
2051820000,29.91762,-35.545654,-490.99014,1.5511048,-0.22610618,-0.005728402,-0.6369804,0.09654487,-0.122296564,-0.04603419,0.006977239,-0.7087295,-0.12823617,-0.012418192
2051916000,30.119589,-35.570286,-490.99,1.4352267,-0.20818815,-0.005961689,-0.62087274,0.10018094,-0.13397467,-0.04492428,0.007248758,-0.70956314,-0.12960222,-0.012718692
2052012000,30.32714,-35.59493,-490.98984,1.3324964,-0.18997431,-0.0062196096,-0.5892354,0.11700965,-0.13834089,-0.04265315,0.00847001,-0.70987475,-0.13111119,-0.014018086
2052116000,30.50871,-35.615788,-490.9897,1.2072537,-0.17069,-0.0067861923,-0.5976434,0.11934517,-0.13456053,-0.04324507,0.008635736,-0.7096049,-0.13317661,-0.022517487
2052220000,30.694986,-35.636517,-490.98953,1.0979173,-0.15515262,-0.007313536,-0.58601373,0.065390125,-0.14249685,-0.042437114,0.00473533,-0.71017146,-0.13576487,-0.022995345
2052316000,30.85768,-35.654606,-490.98938,1.0046073,-0.1480792,-0.0076387087,-0.5599419,-0.0056590512,-0.13834667,-0.040531356,-0.00040963004,-0.70987517,-0.13812456,-0.02265764
2052420000,31.024328,-35.673485,-490.98923,0.91010976,-0.14190538,-0.008071076,-0.52634573,-0.015879385,-0.13266517,-0.038079645,-0.0011488292,-0.7094696,-0.13885975,0.0
2052516000,31.16966,-35.690254,-490.98907,0.8274206,-0.13995366,-0.008842405,-0.5120716,-0.018157639,-0.12492709,-0.037017956,-0.0013126262,-0.7089173,-0.13885975,0.0
2052612000,31.318316,-35.70771,-490.98895,0.7547839,-0.13742192,-0.009168316,-0.4632108,-0.012338899,-0.1227583,-0.033478234,-0.0008917852,-0.70876247,-0.13885975,0.0
2052716000,31.447777,-35.723164,-490.9889,0.6741751,-0.13191871,-0.009184634,-0.43068618,-0.0036944225,-0.11629184,-0.031107461,-0.00026683952,-0.7083009,-0.13885975,0.0
