timestamp,x,y,z,vx,vy,vz,roll,pitch,yaw
1592244000,-46.252556,-106.05669,-488.15652,-0.05056077,0.0007653944,-0.010252336,,,
1592252000,-46.252724,-106.05677,-488.15652,-0.050108224,0.00077511795,-0.010581134,0.002914176551970685,0.0015100374502929445,1.5675864289863375
1592260000,-46.252895,-106.056854,-488.15652,-0.050107773,0.00087527896,-0.010329964,0.002927532844629675,0.001485080422029017,1.5675510835810882
1592268000,-46.25307,-106.05694,-488.15656,-0.049781553,0.00064028276,-0.010266572,0.0028610265267942025,0.0014878919715727175,1.5674719873917609
1592276000,-46.25325,-106.05702,-488.15656,-0.049819753,0.00014332977,-0.00924466,,,
1592284000,-46.253437,-106.057106,-488.15656,-0.05032399,-0.0003719422,-0.009518936,,,
1592300000,-46.25383,-106.05728,-488.1566,-0.050444245,-0.0013648511,-0.00925299,0.0029683569576325116,0.0014462806669856628,1.5675712892772156
1592308000,-46.254036,-106.057365,-488.1566,-0.050596844,-0.001538799,-0.009271859,0.002936534223094652,0.0015071957490534007,1.567569977980468
1592316000,-46.254246,-106.05745,-488.15662,-0.050645802,-0.001005785,-0.009120259,,,
1592324000,-46.254467,-106.05753,-488.15662,-0.0513177,-0.002150582,-0.009323846,,,
1592340000,-46.25493,-106.057724,-488.15665,-0.052021667,-0.004349015,-0.009978508,0.0029371205174695742,0.001755118689069512,1.5676984849291178
1592348000,-46.25517,-106.05782,-488.15668,-0.05170808,-0.0043185214,-0.010513954,0.0029708109960734945,0.001827295489497442,1.5677496855223825
1592356000,-46.25541,-106.057915,-488.1567,-0.05147333,-0.0045958078,-0.010486524,,,
1592364000,-46.255653,-106.058014,-488.15674,-0.05199614,-0.0040373513,-0.010803674,,,
1592380000,-46.25617,-106.05818,-488.1568,-0.051970735,-0.0031588483,-0.011605013,0.002962011226852589,0.0019321889066267225,1.5676454356633007
1592388000,-46.25642,-106.05826,-488.15683,-0.052404113,-0.0029535764,-0.011492208,0.003115561312785456,0.001982613135726321,1.5677718576622812
1592396000,-46.25624,-106.05833,-488.15665,-0.053441428,-0.0021355588,-0.011685503,,,
1592404000,-46.256084,-106.058395,-488.1565,-0.053841546,-0.0018354207,-0.011670939,,,
1592420000,-46.25582,-106.05852,-488.1562,-0.054334,-0.0027198337,-0.010994371,0.0028488263325953567,0.0020368064401300777,1.567760711262418
1592428000,-46.255714,-106.058586,-488.15604,-0.054341193,-0.0029933087,-0.011171285,0.0028054494780880563,0.002075533010125527,1.567867284816371
1592436000,-46.25562,-106.05865,-488.1559,-0.05426407,-0.0030764642,-0.011633115,,,
1592444000,-46.25553,-106.05871,-488.1558,-0.0539752,-0.0027516338,-0.011633636,,,
1592460000,-46.255394,-106.05882,-488.15555,-0.05419462,-0.0029045732,-0.011903778,0.0028249584053422865,0.0021416693999871147,1.5682221722640801
1592468000,-46.255344,-106.058876,-488.15543,-0.05396256,-0.0033995882,-0.011581643,0.0027463285098415892,0.0020301104498054246,1.5682586513315613
1592476000,-46.255302,-106.05894,-488.1553,-0.054286566,-0.003705741,-0.010632623,,,
1592484000,-46.255272,-106.059,-488.1552,-0.053330414,-0.0032692535,-0.010690946,,,
1592500000,-46.255245,-106.059105,-488.155,-0.05417732,-0.003816568,-0.010547712,0.0027406260286210703,0.002119066848302184,1.5681707335151391
1592508000,-46.25525,-106.059166,-488.1549,-0.054029237,-0.0045610983,-0.009868302,0.0027045971067448534,0.0021141780923263475,1.56811774458279
1592516000,-46.25526,-106.05923,-488.15482,-0.053616982,-0.004828022,-0.009699504,,,
1592524000,-46.25528,-106.05929,-488.15472,-0.053431727,-0.004748899,-0.009426755,,,
1592540000,-46.255333,-106.0594,-488.15457,-0.053734403,-0.003611794,-0.009876118,0.002799715550614611,0.001913712131076886,1.5681901062434116
1592548000,-46.25538,-106.05945,-488.15448,-0.05415655,-0.004006068,-0.010064011,0.002818241431756377,0.0019391869939782394,1.5683186738810406
1592556000,-46.255432,-106.0595,-488.15442,-0.05427434,-0.0038093934,-0.0099533815,,,
1592564000,-46.255497,-106.05955,-488.15436,-0.053842127,-0.0038639717,-0.0093229525,,,
1592580000,-46.25565,-106.05965,-488.1542,-0.054054815,-0.0037716932,-0.0078063356,0.0029264962274688183,0.0019803819152879303,1.5684032530689531
1592588000,-46.255737,-106.05969,-488.15414,-0.05397789,-0.003430541,-0.0078096827,0.0029624321225039897,0.001920837576776324,1.5684366916672234
1592596000,-46.255833,-106.05973,-488.15408,-0.054443706,-0.003615613,-0.008122676,,,
1592604000,-46.25594,-106.05977,-488.15402,-0.054666553,-0.0032689539,-0.008419281,,,
1592620000,-46.256184,-106.05984,-488.1539,-0.055086814,-0.003066405,-0.009751883,0.0030663471770411665,0.002069620263230612,1.568314739535703
1592628000,-46.25632,-106.05987,-488.15387,-0.055625156,-0.0029802807,-0.010183854,0.0030911082644098525,0.002045041677147541,1.568330236874009
1592636000,-46.25647,-106.0599,-488.15384,-0.056288432,-0.0033970631,-0.010897823,,,
1592644000,-46.25663,-106.05992,-488.1538,-0.056844074,-0.0028184045,-0.011007455,,,
1592660000,-46.25697,-106.05997,-488.15372,-0.05584105,-0.0030935635,-0.009465841,0.002917218281868252,0.0021642950030538806,1.5681365794667137
1592668000,-46.25715,-106.06,-488.15366,-0.056255262,-0.0034777434,-0.00971556,0.002837241055308224,0.0021511321248040803,1.568170554075402
1592676000,-46.25734,-106.06002,-488.15363,-0.056742664,-0.0037612056,-0.009750712,,,
1592684000,-46.257538,-106.06004,-488.1536,-0.056626573,-0.0036246465,-0.009516353,,,
1592700000,-46.25795,-106.06008,-488.15353,-0.05621817,-0.0027631496,-0.008951283,0.002842461532901781,0.002175300234993949,1.5681955883115095
1592708000,-46.258163,-106.060104,-488.1535,-0.056581985,-0.003682145,-0.009189729,0.002856931535771182,0.0022046879564791714,1.5682331989596163
1592716000,-46.25839,-106.06013,-488.15347,-0.057442117,-0.0034516936,-0.009570246,,,
1592724000,-46.25863,-106.06014,-488.15347,-0.05812659,-0.0027439026,-0.00906726,,,
1592740000,-46.25913,-106.06018,-488.15344,-0.058293067,-0.0037148127,-0.008046709,0.0027365177201593904,0.0022760747094865306,1.5681364000188232
1592748000,-46.259384,-106.0602,-488.1534,-0.05752844,-0.004050355,-0.007748377,0.002761974519005972,0.0022545701832303888,1.5680819212738903
1592756000,-46.25964,-106.06023,-488.1534,-0.05747396,-0.0038899053,-0.007789794,,,
1592764000,-46.2599,-106.06025,-488.15338,-0.0576452,-0.004268724,-0.0076384125,,,
1592780000,-46.26045,-106.0603,-488.15335,-0.05851602,-0.0049939333,-0.0070342687,0.0027294848412056953,0.0024978551445631577,1.5678300880701674
1592788000,-46.260735,-106.06033,-488.15335,-0.058732502,-0.006246268,-0.00726195,0.002803363069486468,0.0025754601760986824,1.5677701844078262
1592796000,-46.26051,-106.06038,-488.1532,-0.058761235,-0.006991507,-0.0070582433,,,
1592804000,-46.260296,-106.06043,-488.15305,-0.058934987,-0.0067986287,-0.007303351,,,
1592820000,-46.259922,-106.060524,-488.15277,-0.05943438,-0.006142272,-0.007941786,0.0027115160418234655,0.002324075434787615,1.5677750143588272
1592828000,-46.259766,-106.06057,-488.15265,-0.059855122,-0.006656547,-0.008155315,0.0026606059773947506,0.0022982358209438425,1.567825559716708
1592836000,-46.259624,-106.06061,-488.15253,-0.059387874,-0.00597599,-0.007254809,,,
1592844000,-46.25949,-106.060646,-488.15237,-0.059100423,-0.005496968,-0.0065989355,,,
1592860000,-46.25926,-106.06072,-488.15213,-0.057624917,-0.005823396,-0.005670115,0.0026052860651101578,0.002493578730813129,1.5679115685657838
1592868000,-46.25916,-106.06076,-488.15204,-0.05742974,-0.005906016,-0.0055590714,0.0026620730571539314,0.002516951508324721,1.567904832904237
1592876000,-46.25907,-106.0608,-488.15192,-0.05730538,-0.0059539913,-0.00595663,,,
1592884000,-46.259,-106.06083,-488.15182,-0.057625514,-0.0052738367,-0.005905709,,,
1592900000,-46.258896,-106.0609,-488.15164,-0.057009984,-0.005270066,-0.0062142056,0.002735280034831917,0.0025649906787950567,1.5678104180299604
1592908000,-46.258858,-106.06093,-488.15155,-0.057042684,-0.0053726174,-0.0054661604,0.0027337181999264755,0.002631122255375956,1.567779661174779
1592916000,-46.258827,-106.06096,-488.15146,-0.056492925,-0.0052714054,-0.0057363594,,,
1592924000,-46.25881,-106.06099,-488.1514,-0.056014705,-0.0051865517,-0.0063041435,,,
1592940000,-46.258804,-106.06105,-488.15128,-0.056210693,-0.004864839,-0.006716317,0.002665136800099383,0.002321494034477675,1.5677069454466022
1592948000,-46.258816,-106.06108,-488.1512,-0.056594536,-0.0055222,-0.006688801,0.0026648715673488078,0.0023897813562629056,1.5676944873636116
1592956000,-46.258835,-106.06112,-488.15115,-0.056179237,-0.006364613,-0.0065728254,,,
1592964000,-46.258865,-106.061165,-488.1511,-0.056322895,-0.0069732103,-0.006265162,,,
1592980000,-46.25896,-106.06125,-488.151,-0.05615503,-0.006758702,-0.00541278,0.0027003978269510994,0.002465725580943267,1.5679850017528456
1592988000,-46.259018,-106.0613,-488.15094,-0.05501344,-0.0073196515,-0.0052354657,0.0026472465097980946,0.002513107462240487,1.56790805155158
1592996000,-46.259075,-106.06135,-488.15088,-0.054592606,-0.0077878367,-0.004841675,,,
1593004000,-46.259144,-106.0614,-488.15082,-0.054383896,-0.008037057,-0.0046166265,,,
1593020000,-46.259296,-106.061516,-488.15067,-0.05437945,-0.009348542,-0.0037825492,0.0025362508744114463,0.0027730069737306297,1.5680124180424138
1593028000,-46.259388,-106.061584,-488.15057,-0.054338686,-0.009862494,-0.0038029053,0.0026170520414277804,0.0027042485671704016,1.5679672380674037
1593036000,-46.259487,-106.06165,-488.1505,-0.053802863,-0.009760173,-0.0033768208,,,
1593044000,-46.25959,-106.06171,-488.15042,-0.053822402,-0.0098243095,-0.0030596848,,,
1593060000,-46.259827,-106.06184,-488.1503,-0.054916784,-0.010692376,-0.0022509473,0.0023722719507000664,0.0026541977153831577,1.5679743313536052
1593068000,-46.259964,-106.061905,-488.1502,-0.054819096,-0.0109107345,-0.0026112047,0.0023261732021884946,0.0026777204460733542,1.5680146838477873
1593076000,-46.260113,-106.06197,-488.15015,-0.055748135,-0.011115909,-0.0030607693,,,
1593084000,-46.260265,-106.06204,-488.15012,-0.055812977,-0.0103336675,-0.0034102052,,,
1593100000,-46.260605,-106.06218,-488.15,-0.05714878,-0.010386839,-0.0033949914,0.002248188070833958,0.00261859755341492,1.5681331789901942
1593108000,-46.26079,-106.06224,-488.14996,-0.057631955,-0.0101882955,-0.0033701395,0.00220676209280529,0.002651852636887313,1.5681300199444224
1593116000,-46.260994,-106.0623,-488.1499,-0.058277104,-0.0096567655,-0.0035906225,,,
1593124000,-46.261208,-106.062355,-488.1499,-0.059136372,-0.00933399,-0.0035310434,,,
1593140000,-46.26167,-106.06247,-488.14984,-0.059977345,-0.009013227,-0.0024518103,0.0021588249031897874,0.0027537171140839764,1.5682345065958985
1593148000,-46.261913,-106.06252,-488.1498,-0.0604513,-0.009180322,-0.0020147115,0.002185032808801746,0.0027306053261779133,1.568187180488635
1593156000,-46.262165,-106.06258,-488.1498,-0.06110361,-0.009429923,-0.0017210316,,,
1593164000,-46.26243,-106.06263,-488.14978,-0.06154393,-0.009778174,-0.0017391316,,,
1593180000,-46.262974,-106.06275,-488.14972,-0.061427034,-0.011010685,-0.0015951794,0.002288858188403819,0.002869794824734735,1.5681134479372039
1593188000,-46.263252,-106.06282,-488.1497,-0.061339073,-0.011518822,-0.0020029556,0.0022654763295249596,0.0029179064519042593,1.5680820357912815
1593196000,-46.263035,-106.06271,-488.14957,-0.061129685,-0.011541866,-0.0023523096,,,
1593204000,-46.262836,-106.062614,-488.1494,-0.061000243,-0.0114774825,-0.0016397691,,,
1593220000,-46.26248,-106.06242,-488.14917,-0.060084883,-0.011810294,-0.001606569,0.002168245850886828,0.0029207809912800307,1.5680841219549047
1593228000,-46.262318,-106.06234,-488.14905,-0.059875652,-0.01252825,-0.0012350314,0.002097056565835784,0.002895908054085738,1.5680297023997474
1593236000,-46.262165,-106.062256,-488.14893,-0.059824307,-0.012690932,-0.0014307833,,,
1593244000,-46.262035,-106.06219,-488.1488,-0.05987998,-0.012954483,-0.000822518,,,
1593260000,-46.26182,-106.06206,-488.14856,-0.059791967,-0.013031714,-0.00030476364,0.002220575514882875,0.0029098339463877712,1.5680208810745042
1593268000,-46.26173,-106.062,-488.14847,-0.059486937,-0.013734798,-0.00046621982,0.002299211150376007,0.0028461607880670326,1.5681489133528188
1593276000,-46.261658,-106.06195,-488.14835,-0.059762143,-0.014735647,-0.000822724,,,
1593284000,-46.261597,-106.06191,-488.14825,-0.05933856,-0.014453717,-0.00070621516,,,
1593300000,-46.2615,-106.06184,-488.14807,-0.05851691,-0.014605615,-0.00047830582,0.002134718053813545,0.002693710148193813,1.5681986250485447
1593308000,-46.26147,-106.061806,-488.148,-0.05912545,-0.0143410275,-0.00036659517,0.0020820357991135304,0.0027251945547180864,1.5681728156093109
1593316000,-46.261456,-106.061775,-488.14792,-0.05956893,-0.01401393,-0.00040930358,,,
1593324000,-46.261456,-106.061745,-488.14783,-0.059516292,-0.014312162,-0.00018421734,,,
1593340000,-46.26149,-106.06171,-488.14767,-0.05929916,-0.014667229,-0.0009339843,0.0021089553514952973,0.0028793902808659892,1.5683167013139359
1593348000,-46.261524,-106.06168,-488.1476,-0.05972014,-0.014433226,-0.0007017215,0.002102366761882888,0.0028948540253438365,1.568316045662186
1593356000,-46.26157,-106.06167,-488.14755,-0.05927726,-0.014063256,-0.0015161568,,,
1593364000,-46.261623,-106.06165,-488.1475,-0.058893356,-0.013298874,-0.0012979268,,,
1593380000,-46.261738,-106.06162,-488.14737,-0.057480514,-0.013872092,-0.00015418358,0.0019693608306941834,0.002993369754283255,1.5683176542505077
1593388000,-46.261803,-106.061615,-488.14728,-0.057430863,-0.013562271,-5.545233e-06,0.0020508022155798816,0.0030612783823275244,1.5683704041477218
1593396000,-46.26188,-106.06161,-488.14722,-0.056871135,-0.013574486,-0.0006476275,,,
1593404000,-46.26196,-106.06161,-488.14716,-0.0563534,-0.013356488,-0.00071630714,,,
1593420000,-46.262146,-106.06159,-488.14703,-0.05635912,-0.012821737,9.9505436e-05,0.0019092104132819368,0.003135349150532733,1.5685308604529258
1593428000,-46.26225,-106.06159,-488.14694,-0.05598098,-0.013268375,0.00021843707,0.0019101612562715013,0.0031280328773400775,1.568497899010425
1593436000,-46.26236,-106.0616,-488.14688,-0.05580524,-0.013772971,-2.5239506e-06,,,
1593444000,-46.262478,-106.0616,-488.14682,-0.055501085,-0.013292778,-6.240556e-05,,,
1593460000,-46.262737,-106.06161,-488.14667,-0.05542725,-0.011752746,0.0006485877,0.0015902222200430962,0.003180749955462488,1.568635824757837
1593468000,-46.26288,-106.0616,-488.1466,-0.0546849,-0.011730957,0.00017147152,0.0014961541312347464,0.003089413770356263,1.568656568123176
1593476000,-46.26302,-106.0616,-488.14655,-0.05498619,-0.011748839,0.0007969345,,,
1593484000,-46.263172,-106.0616,-488.14645,-0.054817908,-0.011336493,0.0010654989,,,
1593500000,-46.263496,-106.0616,-488.14633,-0.054589164,-0.011340912,0.0021691013,0.001459141875440043,0.0034088299969807947,1.5684803728608636
1593508000,-46.263668,-106.061615,-488.14624,-0.054156616,-0.012312369,0.003213024,0.0014987661731053926,0.0034264518871600803,1.568459689707448
1593516000,-46.263844,-106.06163,-488.14615,-0.053616356,-0.012766234,0.0030335092,,,
1593524000,-46.264023,-106.06165,-488.14606,-0.052933425,-0.0129637495,0.0029433859,,,
1593540000,-46.264393,-106.06171,-488.1459,-0.05341459,-0.01399115,0.0038875765,0.001752548001075429,0.0035148661313213394,1.5684251778064728
1593548000,-46.26459,-106.061745,-488.1458,-0.053981707,-0.014056475,0.004482595,0.0017909378850116452,0.0034783813464206036,1.5684755444547325
1593556000,-46.2648,-106.06178,-488.14572,-0.054188963,-0.015188108,0.0051664556,,,
1593564000,-46.26502,-106.06184,-488.14563,-0.053829413,-0.016009256,0.005479039,,,
1593580000,-46.26547,-106.06195,-488.14548,-0.054427553,-0.017038383,0.004966737,0.0019473082083994017,0.003397988175267601,1.5685566081186806
1593588000,-46.265705,-106.06202,-488.1454,-0.05530875,-0.017034942,0.0053716376,0.0018794420790454237,0.003394716885856775,1.5685474885794943
1593596000,-46.2655,-106.06197,-488.1452,-0.055090148,-0.017366199,0.005056234,,,
1593604000,-46.26531,-106.061935,-488.14505,-0.055260904,-0.01737447,0.0048306356,,,
1593620000,-46.264984,-106.06188,-488.1447,-0.05615552,-0.01780695,0.004283812,0.001932099622526066,0.0035240669568502615,1.5683344586742984
1593628000,-46.264847,-106.06186,-488.14456,-0.05587225,-0.017844928,0.004505303,0.0020283043283467607,0.0036422553443176088,1.568409619805989
1593636000,-46.264725,-106.061844,-488.1444,-0.055723287,-0.018434333,0.0043452797,,,
1593644000,-46.26462,-106.06184,-488.14426,-0.05588061,-0.019237706,0.0040375097,,,
1593660000,-46.264477,-106.06183,-488.14395,-0.05653897,-0.018920533,0.003989486,0.001977355286177177,0.0035908287724121567,1.5686036348987955
1593668000,-46.264423,-106.06183,-488.1438,-0.056295928,-0.019003863,0.0039904034,0.0020315029004651175,0.0035673239027274387,1.5686347490368822
1593676000,-46.26438,-106.06184,-488.14365,-0.056215737,-0.019171493,0.003435801,,,
1593684000,-46.264355,-106.061844,-488.14352,-0.056026075,-0.018700054,0.003304284,,,
1593700000,-46.264324,-106.06187,-488.14325,-0.054709673,-0.018623065,0.0035669198,0.0022492192965961355,0.0031907479868666204,1.5689361149417664
1593708000,-46.264313,-106.06188,-488.1431,-0.053652868,-0.018894957,0.004324657,0.0022697384052419558,0.0031980377186815066,1.5690339865325273
1593716000,-46.264313,-106.061905,-488.14297,-0.053158946,-0.019373043,0.0039871605,,,
1593724000,-46.264313,-106.06193,-488.14285,-0.053269647,-0.01966353,0.0037642252,,,
1593740000,-46.26436,-106.06199,-488.14264,-0.053758424,-0.019484054,0.0033724697,0.002218318438547924,0.003050563000411666,1.5692679370292368
1593748000,-46.2644,-106.06202,-488.14252,-0.053523086,-0.0197036,0.0034581712,0.002298357567407547,0.0030824297491151204,1.5692963683617893
1593756000,-46.264446,-106.06206,-488.14243,-0.053255655,-0.02024774,0.0036592258,,,
1593764000,-46.264503,-106.0621,-488.1423,-0.05297197,-0.020736659,0.0037446443,,,
1593780000,-46.264633,-106.06222,-488.14212,-0.052349117,-0.021888947,0.0027220284,0.00225472826587763,0.0028727017273030954,1.5692834349200258
1593788000,-46.264713,-106.06229,-488.14203,-0.052260444,-0.022053014,0.002767205,0.0022413011790763672,0.002780266894016349,1.569221863333448
1593796000,-46.2648,-106.06235,-488.14194,-0.05198141,-0.022064578,0.0034903523,,,
1593804000,-46.264896,-106.062416,-488.14185,-0.051784076,-0.021500364,0.0032635757,,,
1593820000,-46.265114,-106.06254,-488.1417,-0.05232628,-0.02071965,0.003975429,0.0022376662409204244,0.002823308368574146,1.5692125051907784
1593828000,-46.265236,-106.0626,-488.1416,-0.05218917,-0.020414626,0.0035280234,0.002301528629244799,0.0028258031588727535,1.5691331712016017
1593836000,-46.265366,-106.06267,-488.1415,-0.052428078,-0.020594077,0.0035182429,,,
1593844000,-46.265495,-106.06274,-488.14145,-0.052416377,-0.020440388,0.0035831798,,,
1593860000,-46.265778,-106.062874,-488.1413,-0.05268208,-0.019832008,0.0034865797,0.002296468098476696,0.0031427774159858706,1.568909114286471
1593868000,-46.265934,-106.062935,-488.1412,-0.05345688,-0.019135859,0.0029431174,0.0023743582067369397,0.0031708329498476096,1.5688901000065316
1593876000,-46.2661,-106.062996,-488.14114,-0.053632636,-0.019158557,0.0033291262,,,
1593884000,-46.266277,-106.063065,-488.14108,-0.05381099,-0.018722257,0.0032919997,,,
1593900000,-46.266647,-106.063194,-488.14093,-0.052772887,-0.019516222,0.004530705,0.0024859725744346087,0.0032649412549765906,1.5689469030879575
1593908000,-46.26683,-106.06327,-488.14084,-0.051688325,-0.019246707,0.0047484646,0.002583746759373493,0.0033558381378528913,1.5689971495577177
1593916000,-46.267014,-106.06334,-488.14078,-0.051198762,-0.019288737,0.004231083,,,
1593924000,-46.26719,-106.06342,-488.14072,-0.051671535,-0.019446012,0.0042382395,,,
1593940000,-46.26757,-106.06358,-488.14056,-0.052257914,-0.019270057,0.0043613007,0.0027418334351744385,0.0031434270166903946,1.5693207463087293
1593948000,-46.26777,-106.06367,-488.14047,-0.05195423,-0.018697713,0.004159276,0.002777684716119175,0.0030823568727774524,1.5693506684754934
1593956000,-46.267975,-106.06374,-488.1404,-0.051313907,-0.018456712,0.003569193,,,
1593964000,-46.268177,-106.06382,-488.14032,-0.0510066,-0.0182308,0.0030659807,,,
1593980000,-46.2686,-106.06399,-488.1402,-0.0506636,-0.019016594,0.0023793643,0.002750650477906275,0.0030499518171288307,1.569236763511902
1593988000,-46.26882,-106.06408,-488.14017,-0.051266994,-0.019267498,0.0017692021,0.0027812575261194944,0.0030542533833055785,1.5691796022785345
1593996000,-46.26851,-106.06407,-488.14,-0.051360514,-0.019214014,0.0018263632,,,
1594004000,-46.268215,-106.06407,-488.1399,-0.05053779,-0.020128613,0.0017781589,,,
1594020000,-46.267662,-106.0641,-488.13962,-0.049585972,-0.020894034,0.0016065394,0.002489289128384415,0.0030691583396496576,1.569254823596505
1594028000,-46.26741,-106.06412,-488.1395,-0.049568567,-0.020725293,0.0018712494,0.0024069487982820727,0.0030597058367955797,1.5692560157854145
1594036000,-46.26717,-106.06414,-488.13937,-0.048991397,-0.020777976,0.0015936388,,,
1594044000,-46.26694,-106.06417,-488.13928,-0.04839987,-0.01989755,0.0016045496,,,
1594060000,-46.266533,-106.064224,-488.13907,-0.049855284,-0.020869656,0.0026555902,0.002316810643527409,0.003203014033515411,1.5693682514844112
1594068000,-46.26636,-106.064255,-488.13898,-0.050095703,-0.01945446,0.0027187879,0.0023583730393770593,0.0031946043804719046,1.5694356648556964
1594076000,-46.2662,-106.064285,-488.1389,-0.05006225,-0.019540908,0.002704326,,,
1594084000,-46.266056,-106.064316,-488.1388,-0.05001953,-0.019319871,0.002358048,,,
1594100000,-46.265804,-106.06438,-488.13864,-0.050228663,-0.017719466,0.0019389923,0.0022111322908147813,0.0033136317610751613,1.5696022601117265
1594108000,-46.265705,-106.0644,-488.13858,-0.05070581,-0.01834707,0.0021558374,0.0021926897073317425,0.003259807079131662,1.569520541989975
1594116000,-46.26562,-106.06444,-488.1385,-0.05094902,-0.01873825,0.0024936376,,,
1594124000,-46.265545,-106.064476,-488.1384,-0.050083864,-0.019193841,0.0020720875,,,
1594140000,-46.265423,-106.06457,-488.13824,-0.050098084,-0.019516012,0.0018094657,0.002381852269394072,0.003124285216987138,1.569309898398418
1594148000,-46.265377,-106.06462,-488.13815,-0.05033969,-0.01982571,0.0017576319,0.0023882701592088306,0.0030743961225206573,1.5693165148034824
1594156000,-46.265343,-106.064674,-488.1381,-0.050543465,-0.019837271,0.0015799324,,,
1594164000,-46.265324,-106.06473,-488.13803,-0.05081846,-0.02072638,0.0022043765,,,
1594180000,-46.265324,-106.06487,-488.13788,-0.050882787,-0.021028228,0.0012016927,0.0024113506528768906,0.0030810327586195457,1.569171257504087
1594188000,-46.265335,-106.06494,-488.13782,-0.050400984,-0.021385584,0.00029502544,0.002436600545368525,0.003100483989158644,1.5691895560955487
1594196000,-46.265358,-106.06502,-488.13776,-0.050901897,-0.021961067,0.00061217556,,,
1594204000,-46.265396,-106.06511,-488.1377,-0.05088038,-0.022158429,0.0007637326,,,
1594220000,-46.265457,-106.0653,-488.1376,-0.04950999,-0.023236932,0.00039888217,0.0025839112941225856,0.002915140412093541,1.5690482932598664
1594228000,-46.2655,-106.06541,-488.13754,-0.04953324,-0.022979667,-0.00035671363,0.0025894027493746463,0.0028666685948230413,1.5691073024207345
1594236000,-46.265553,-106.06551,-488.1375,-0.049992595,-0.02312808,-0.00064102333,,,
1594244000,-46.265617,-106.06563,-488.13748,-0.05015123,-0.024003688,-0.0011924909,,,
1594260000,-46.265785,-106.065865,-488.1374,-0.050741326,-0.024182212,-0.0021198762,0.002522119657882128,0.0029131059292907694,1.5691998686862878
1594268000,-46.265884,-106.06599,-488.1374,-0.051042,-0.023849243,-0.0028797474,0.0024495247206093454,0.0028936237430699703,1.569221684143615
1594276000,-46.265995,-106.06611,-488.13736,-0.05098206,-0.023999551,-0.0026194388,,,
1594284000,-46.26611,-106.06623,-488.13733,-0.050800137,-0.02389769,-0.0033659695,,,
1594300000,-46.266354,-106.06649,-488.13733,-0.049696945,-0.024785416,-0.0033789421,0.0023704244577424775,0.002731829088605312,1.5692886212584252
1594308000,-46.266483,-106.06662,-488.1373,-0.050027084,-0.0245769,-0.0033064964,0.002379399118264438,0.0027892846926421216,1.5692611429922443
1594316000,-46.26662,-106.06675,-488.1373,-0.050365143,-0.023609469,-0.003667383,,,
1594324000,-46.266773,-106.06688,-488.1373,-0.050671894,-0.023208464,-0.0040529617,,,
1594340000,-46.26711,-106.067116,-488.13733,-0.051896073,-0.02174761,-0.00457617,0.002443515831281174,0.003028838171177587,1.5692058881091926
1594348000,-46.2673,-106.06723,-488.13736,-0.05203878,-0.021817131,-0.0040755114,0.00237130461116647,0.0030447657232920383,1.5692254385916633
1594356000,-46.267498,-106.06735,-488.13736,-0.052116953,-0.022247422,-0.004186986,,,
1594364000,-46.2677,-106.06747,-488.1374,-0.052231736,-0.022211757,-0.0044771223,,,
1594380000,-46.268135,-106.06771,-488.13742,-0.05284025,-0.021657752,-0.004464478,0.002422991670075039,0.0028342684493144134,1.5691220844110145
1594388000,-46.268368,-106.067825,-488.13745,-0.05317414,-0.02116244,-0.0042577963,0.0024354663385767403,0.002898305288453058,1.5691092689768487
1594396000,-46.267906,-106.06762,-488.1374,-0.053268842,-0.021639358,-0.0035042823,,,
1594404000,-46.26747,-106.06744,-488.13736,-0.053366724,-0.022608187,-0.0030659093,,,
1594420000,-46.266674,-106.067085,-488.13724,-0.053709347,-0.021435892,-0.0039038293,0.0022844807164641846,0.0028350558857148963,1.5693181251919723
1594428000,-46.266308,-106.06691,-488.1372,-0.054076258,-0.020570518,-0.004151435,0.002251147168173583,0.0027777006247526725,1.5694068771064473
1594436000,-46.265965,-106.06674,-488.13718,-0.053874936,-0.020281222,-0.004231566,,,
1594444000,-46.265636,-106.066574,-488.13715,-0.053843953,-0.020743037,-0.004242646,,,
1594460000,-46.26504,-106.066284,-488.1371,-0.05357415,-0.021103023,-0.003631215,0.0024630088745938813,0.0026757960939095336,1.5694635617689054
1594468000,-46.26477,-106.06615,-488.13705,-0.0530758,-0.020536633,-0.003350663,0.002481165603049249,0.0026771097291060733,1.5695291869673589
1594476000,-46.26451,-106.06602,-488.13702,-0.052114107,-0.020981407,-0.0027671873,,,
1594484000,-46.264263,-106.0659,-488.13696,-0.05159961,-0.021325167,-0.0025567892,,,
1594500000,-46.26383,-106.065674,-488.1369,-0.052431773,-0.020063203,-0.002219461,0.0025054684239413597,0.0029455968865261368,1.5697688574517075
1594508000,-46.26364,-106.06557,-488.13687,-0.052672762,-0.019952545,-0.0021245007,0.0025162925935948315,0.0029801507355280603,1.569756340306764
1594516000,-46.26347,-106.06546,-488.13684,-0.052752778,-0.019475257,-0.0017201366,,,
1594524000,-46.263313,-106.06535,-488.1368,-0.052846547,-0.019145414,-0.0019142446,,,
1594540000,-46.26305,-106.06516,-488.13675,-0.052858237,-0.019183543,-0.0026081477,0.002377925104304405,0.0029330426039882833,1.5696975103711315
1594548000,-46.26294,-106.06508,-488.13675,-0.052452814,-0.01964213,-0.0026966608,0.0023764311063490247,0.002912035136618805,1.5697584862057403
1594556000,-46.262836,-106.065,-488.13672,-0.05224143,-0.019612357,-0.0032221733,,,
1594564000,-46.262745,-106.06493,-488.13672,-0.052609097,-0.020037262,-0.0036303352,,,
1594580000,-46.262604,-106.06481,-488.13672,-0.052448884,-0.020696305,-0.0040287497,0.002424423056866533,0.0030846777396668786,1.5697764266613954
1594588000,-46.26255,-106.064766,-488.1367,-0.052414022,-0.021006262,-0.004065486,0.002397038512617525,0.0030587281763480123,1.5698083155189309
1594596000,-46.262512,-106.06472,-488.1367,-0.052961987,-0.021163298,-0.0039674942,,,
1594604000,-46.26249,-106.06468,-488.1367,-0.05333962,-0.021115694,-0.004158062,,,
1594620000,-46.26249,-106.06464,-488.13672,-0.053121455,-0.022115953,-0.0043527447,0.002160428380107449,0.002786349850974186,1.5699219231784771
1594628000,-46.2625,-106.06462,-488.13672,-0.053182002,-0.022176035,-0.004128099,0.002090040757778558,0.002718367702128536,1.569867325303332
1594636000,-46.26251,-106.064606,-488.13675,-0.052997082,-0.022464896,-0.0045068874,,,
1594644000,-46.262527,-106.0646,-488.13675,-0.052502245,-0.022365222,-0.004820522,,,
1594660000,-46.262585,-106.0646,-488.13678,-0.052104954,-0.02363825,-0.004720018,0.0021009916310984725,0.0027734854425432638,1.5700039992063044
1594668000,-46.26263,-106.06461,-488.1368,-0.05196147,-0.024515472,-0.004077909,0.0020551112963680222,0.00275899470633192,1.570020152120573
1594676000,-46.262684,-106.064644,-488.1368,-0.05216608,-0.02502456,-0.0040156697,,,
1594684000,-46.26275,-106.06468,-488.13684,-0.05242163,-0.025687566,-0.004566051,,,
1594700000,-46.262917,-106.064766,-488.13687,-0.05233025,-0.025003435,-0.004089259,0.002065573535167373,0.002827878386691238,1.5699013594517564
1594708000,-46.26301,-106.06481,-488.1369,-0.05259633,-0.024727842,-0.004250105,0.0020404853344310704,0.0028139739181595284,1.569817554976819
1594716000,-46.263115,-106.06485,-488.1369,-0.052734,-0.024438763,-0.0035590376,,,
1594724000,-46.263233,-106.064896,-488.13693,-0.053340092,-0.024309695,-0.0030821625,,,
1594740000,-46.263504,-106.064995,-488.13696,-0.05397975,-0.023929654,-0.0043046717,0.001987054481657005,0.0029205786605877183,1.5696924438925157
1594748000,-46.263657,-106.06505,-488.137,-0.054387048,-0.024111046,-0.0042255134,0.0019031273609482684,0.002919767707998211,1.569628785837095
1594756000,-46.26382,-106.06511,-488.13702,-0.054834772,-0.02438916,-0.003595473,,,
1594764000,-46.263996,-106.06517,-488.13702,-0.055272065,-0.024269005,-0.0033594517,,,
1594780000,-46.264378,-106.0653,-488.1371,-0.054890465,-0.024138557,-0.0031625754,0.0018322184082202493,0.003013846370436875,1.5694950320991181
1594788000,-46.26458,-106.06537,-488.1371,-0.054321673,-0.024392933,-0.0039953995,0.0018236581583966878,0.0029812790378394953,1.5694850185615203
1594796000,-46.264347,-106.06527,-488.137,-0.053879503,-0.024695162,-0.0037600836,,,
1594804000,-46.264126,-106.065186,-488.1369,-0.053674296,-0.025167372,-0.004345179,,,
1594820000,-46.26374,-106.065056,-488.13675,-0.05350355,-0.026464386,-0.0044911685,0.0019928731341135896,0.0032881192043066336,1.5695887893979277
1594828000,-46.263573,-106.065,-488.1367,-0.053969037,-0.026176985,-0.0046341484,0.002005804826727616,0.0033157372601524127,1.569636235061073
1594836000,-46.26342,-106.06495,-488.1366,-0.053736094,-0.02630092,-0.0042798333,,,
1594844000,-46.263287,-106.06491,-488.13654,-0.05396838,-0.027042408,-0.003966422,,,
1594860000,-46.26306,-106.06485,-488.13638,-0.053276576,-0.02660481,-0.0033208882,0.0018096493017817795,0.0031404067226732976,1.569666455366194
1594868000,-46.262966,-106.06483,-488.13632,-0.0532593,-0.026462521,-0.0024905603,0.0018363621515870743,0.0030193723980765823,1.5695631008511457
1594876000,-46.262882,-106.06481,-488.13626,-0.052856345,-0.026222978,-0.0022938747,,,
1594884000,-46.262814,-106.0648,-488.1362,-0.053236336,-0.02598332,-0.0032024719,,,
1594900000,-46.262722,-106.06477,-488.13608,-0.05402798,-0.025834922,-0.002736094,0.0018673015826557696,0.0032581621218987257,1.5695421784969064
1594908000,-46.2627,-106.06477,-488.13602,-0.053725474,-0.025794877,-0.0030627132,0.0018287765681239854,0.0031582900674382705,1.569602022403874
1594916000,-46.262665,-106.06478,-488.136,-0.053463545,-0.025565764,-0.0039554005,,,
1594924000,-46.26264,-106.06479,-488.13596,-0.053535804,-0.025500974,-0.004695179,,,
1594940000,-46.262634,-106.06483,-488.1359,-0.05372098,-0.025097392,-0.0046876525,0.0017663112921308692,0.003218403752723355,1.569716761775146
1594948000,-46.262646,-106.06484,-488.13586,-0.05394041,-0.025079653,-0.0052368348,0.0016181923348409957,0.0032241540009637776,1.5697534784028806
1594956000,-46.262676,-106.06487,-488.13586,-0.054894473,-0.025248915,-0.0052914,,,
1594964000,-46.262726,-106.0649,-488.13583,-0.055718508,-0.026101045,-0.0052773333,,,
1594980000,-46.26285,-106.065,-488.13583,-0.054604076,-0.027021756,-0.0064639887,0.0016406178249726482,0.003337410886199737,1.569704959482152
1594988000,-46.262928,-106.065056,-488.13583,-0.054739457,-0.027045835,-0.006454832,0.00166124725716464,0.003486216377915556,1.5697134228672975
1594996000,-46.263012,-106.06511,-488.13583,-0.0546245,-0.026283098,-0.0052425005,,,
1595004000,-46.263107,-106.06516,-488.1358,-0.054580327,-0.026265362,-0.006043713,,,
1595020000,-46.26332,-106.065285,-488.13583,-0.05438581,-0.026367886,-0.006564643,0.0016395538662904328,0.0037336070686162016,1.56977183494693
1595028000,-46.26344,-106.06535,-488.13583,-0.0539242,-0.026505211,-0.006562478,0.0016043310365867335,0.003804904741973111,1.5697906697748283
1595036000,-46.263565,-106.06543,-488.13586,-0.053990126,-0.026885362,-0.006870082,,,
1595044000,-46.263702,-106.065506,-488.13586,-0.054183442,-0.02712966,-0.006871835,,,
1595060000,-46.26399,-106.065674,-488.1359,-0.05394133,-0.027370414,-0.0059108646,0.0014599043775121675,0.00382336043001613,1.5697811925725493
1595068000,-46.264145,-106.065765,-488.1359,-0.05349843,-0.027581897,-0.0057995757,0.001448606536120236,0.003783072055383799,1.5697918619954991
1595076000,-46.2643,-106.06586,-488.13593,-0.053013045,-0.02706044,-0.005313061,,,
1595084000,-46.264465,-106.065956,-488.13593,-0.052723344,-0.026789041,-0.004998027,,,
1595100000,-46.26481,-106.06617,-488.13596,-0.051798586,-0.029867785,-0.006174742,0.001438487533545774,0.0038497070410583615,1.5695567791889287
1595108000,-46.264988,-106.0663,-488.13596,-0.05233911,-0.030277126,-0.0059331697,0.0014830727904544703,0.0037713037793811184,1.5695685218935471
1595116000,-46.265182,-106.06643,-488.136,-0.05349969,-0.030353228,-0.0061566345,,,
1595124000,-46.265392,-106.06657,-488.13602,-0.05335905,-0.03011339,-0.0057177134,,,
1595140000,-46.26582,-106.06683,-488.13608,-0.05331699,-0.029488109,-0.0059830113,0.0014521389684431008,0.003476366883512148,1.569528408855259
1595148000,-46.266045,-106.06697,-488.1361,-0.053287275,-0.029989358,-0.006507117,0.001588887198091362,0.003598396515715118,1.5695720393190795
1595156000,-46.266273,-106.06711,-488.13617,-0.053279564,-0.029919159,-0.006607184,,,
1595164000,-46.26651,-106.06725,-488.1362,-0.053021993,-0.029409058,-0.0070013935,,,
1595180000,-46.267006,-106.067535,-488.13632,-0.054192327,-0.029007455,-0.0072009154,0.0016129834833221038,0.0034111795046660866,1.569274074422721
1595188000,-46.267273,-106.06768,-488.13635,-0.054294426,-0.02831159,-0.0076097758,0.0016071965952725727,0.0034610092818669076,1.5692747298047438
1595196000,-46.266968,-106.06756,-488.13632,-0.053875856,-0.028415838,-0.008935441,,,
1595204000,-46.266685,-106.06745,-488.13632,-0.05394146,-0.028039137,-0.008893085,,,
1595220000,-46.266186,-106.06725,-488.1363,-0.054920517,-0.027446678,-0.009426628,0.0015947146503473035,0.003558538913951332,1.5693858927644935
1595228000,-46.265965,-106.06716,-488.1363,-0.054663707,-0.027567225,-0.009404089,0.0016450622486545404,0.003503839669800681,1.5694068145200495
1595236000,-46.265762,-106.06708,-488.13626,-0.054452233,-0.027400494,-0.008880141,,,
1595244000,-46.265575,-106.067,-488.13626,-0.054858625,-0.027786143,-0.00881814,,,
1595260000,-46.26526,-106.06688,-488.13626,-0.05481468,-0.028205302,-0.009483438,0.0016229337663168587,0.0035080271546621524,1.5694122980100746
1595268000,-46.265125,-106.066826,-488.1363,-0.05462906,-0.028318921,-0.009175657,0.0015619609729545163,0.003499092223874134,1.569523640383112
1595276000,-46.265003,-106.06679,-488.1363,-0.054518767,-0.02912826,-0.009133857,,,
1595284000,-46.2649,-106.066765,-488.1363,-0.054717384,-0.02993557,-0.009767124,,,
1595300000,-46.264732,-106.06675,-488.13632,-0.05402301,-0.030950475,-0.009942092,0.0017279918375724347,0.0036240359933755145,1.5695031953439262
1595308000,-46.264664,-106.06675,-488.13635,-0.053700443,-0.030765722,-0.010116355,0.0017689612267791054,0.00365161636259711,1.569477267021892
1595316000,-46.264606,-106.06676,-488.13638,-0.05290245,-0.030847974,-0.009414554,,,
1595324000,-46.264557,-106.06677,-488.1364,-0.0526677,-0.030806912,-0.009646258,,,
1595340000,-46.264492,-106.06683,-488.13647,-0.052043807,-0.031937953,-0.01016884,0.0018947155867920346,0.0035958679585660976,1.5693712893798057
1595348000,-46.26447,-106.06687,-488.1365,-0.05122491,-0.031704206,-0.009685026,0.0018476501209935008,0.0035967231510504807,1.5694234438092045
1595356000,-46.26446,-106.06692,-488.13654,-0.051452037,-0.031345084,-0.009635785,,,
1595364000,-46.26446,-106.06697,-488.13657,-0.0510707,-0.031881984,-0.009397942,,,
1595380000,-46.264484,-106.0671,-488.13663,-0.04981497,-0.032816418,-0.009163783,0.00163352305860804,0.0036795194400528605,1.5695878341343839
1595388000,-46.264507,-106.06718,-488.13666,-0.050151497,-0.033562955,-0.008656543,0.0015785872746843118,0.003778645913212355,1.5696568564645776
1595396000,-46.264545,-106.06727,-488.1367,-0.050440565,-0.033867773,-0.008127367,,,
1595404000,-46.264595,-106.06737,-488.13672,-0.05082041,-0.034189012,-0.008254285,,,
1595420000,-46.264736,-106.06757,-488.13678,-0.05116992,-0.034112,-0.007425119,0.0014665937531065276,0.0036277091537552054,1.569604464215379
1595428000,-46.26482,-106.06768,-488.13678,-0.050862618,-0.033674747,-0.0074655833,0.0014192105532806454,0.003772141975660311,1.5695157712313266
1595436000,-46.264915,-106.067795,-488.1368,-0.050776333,-0.03397132,-0.007268569,,,
1595444000,-46.265015,-106.06791,-488.13684,-0.05047948,-0.033635225,-0.006653135,,,
1595460000,-46.26524,-106.068146,-488.1369,-0.050963324,-0.033407,-0.0064588794,0.0011983415355014831,0.003965752349760261,1.5692749653226794
1595468000,-46.26537,-106.068275,-488.13693,-0.05085813,-0.033945903,-0.006726188,0.0011552494759602095,0.003945223976978139,1.5693030991713168
1595476000,-46.265507,-106.068405,-488.13696,-0.05121849,-0.03381138,-0.0073453425,,,
1595484000,-46.265633,-106.068535,-488.137,-0.05129363,-0.033734944,-0.0066192145,,,
1595500000,-46.265926,-106.06881,-488.13705,-0.052191865,-0.03500983,-0.0055585587,0.0010877027929701545,0.004059983395277503,1.569192352169632
1595508000,-46.266087,-106.06896,-488.13705,-0.052130584,-0.035062946,-0.0055892267,0.0011164234835782025,0.004102667195694097,1.569169284531546
1595516000,-46.266254,-106.069115,-488.1371,-0.052261714,-0.035446897,-0.0060973275,,,
1595524000,-46.266426,-106.069275,-488.13712,-0.05152407,-0.035707906,-0.006319708,,,
1595540000,-46.266796,-106.06961,-488.1372,-0.05205306,-0.036317404,-0.0057233786,0.0008826232555915925,0.0039467951303937075,1.5692121415187223
1595548000,-46.26699,-106.069786,-488.13724,-0.05186557,-0.036225732,-0.005492072,0.0008615097762497284,0.003949361409748746,1.5690960308306758
1595556000,-46.267197,-106.06996,-488.13727,-0.052964576,-0.035908606,-0.006253651,,,
1595564000,-46.267414,-106.07014,-488.13733,-0.05369141,-0.036560465,-0.006997446,,,
1595580000,-46.267895,-106.070526,-488.13742,-0.05536982,-0.03805043,-0.0054625864,0.0010115192137344288,0.003909548459297321,1.5692034394685352
1595588000,-46.26815,-106.07073,-488.13745,-0.055314872,-0.038754236,-0.005637236,0.0010659516954507691,0.003927163629701037,1.569206836860117
1595596000,-46.267864,-106.07082,-488.13736,-0.054762777,-0.040079277,-0.005508068,,,
1595604000,-46.267593,-106.07093,-488.1373,-0.054331668,-0.04033032,-0.0054891435,,,
1595620000,-46.267105,-106.07115,-488.13715,-0.053206954,-0.0392929,-0.005223319,0.0011805748170080782,0.0038741425665009452,1.5693189545520079
1595628000,-46.266884,-106.07126,-488.1371,-0.051915966,-0.03855756,-0.0051853945,0.0011589650281636247,0.0037649330220812165,1.569476014530308
1595636000,-46.266674,-106.07137,-488.13702,-0.05146676,-0.03886938,-0.0052964957,,,
1595644000,-46.266476,-106.071495,-488.137,-0.050951917,-0.03920443,-0.004488919,,,
1595660000,-46.26613,-106.07175,-488.13687,-0.051833957,-0.03934236,-0.0041876575,0.0011216083807629091,0.00385551318190824,1.5693844606465337
1595668000,-46.265987,-106.07189,-488.1368,-0.05240537,-0.0401786,-0.0047292775,0.001115696760720012,0.003881936863737815,1.5693830300416516
1595676000,-46.265865,-106.072044,-488.13678,-0.05296541,-0.040717024,-0.004678931,,,
1595684000,-46.265755,-106.072205,-488.13675,-0.05246773,-0.0407061,-0.0047426545,,,
1595700000,-46.265583,-106.072525,-488.1367,-0.052443624,-0.04067412,-0.00505476,0.0010002882314326185,0.0038911290869741177,1.5692055260236228
1595708000,-46.265522,-106.07269,-488.13666,-0.0522421,-0.040802337,-0.0046941247,0.0009839571400454934,0.0038644083100839175,1.5692008768329486
1595716000,-46.265465,-106.07286,-488.13663,-0.051762763,-0.04054479,-0.00509239,,,
1595724000,-46.265423,-106.07304,-488.1366,-0.051453263,-0.040357795,-0.0053136037,,,
1595740000,-46.26537,-106.0734,-488.13657,-0.0520922,-0.041324984,-0.0047116093,0.001104818891074524,0.004108052613864619,1.5693005352631388
1595748000,-46.26536,-106.07359,-488.13654,-0.051983237,-0.041289818,-0.004794603,0.0010333242387944093,0.004056900226502913,1.5693108472950519
1595756000,-46.265373,-106.07379,-488.1365,-0.052692223,-0.041831695,-0.004108756,,,
1595764000,-46.2654,-106.074,-488.1365,-0.05263957,-0.042556178,-0.0034616727,,,
1595780000,-46.265476,-106.07443,-488.13644,-0.051957954,-0.043299325,-0.004269436,0.0007820048689856756,0.004119240686616179,1.5689899320912912
1595788000,-46.26553,-106.07466,-488.13644,-0.05182375,-0.044451468,-0.0045267977,0.0007813514543521078,0.0042355266379727015,1.5689848647979474
1595796000,-46.265587,-106.0749,-488.1364,-0.05140766,-0.044528168,-0.0041332627,,,
1595804000,-46.265656,-106.07514,-488.1364,-0.050898694,-0.044094697,-0.004216353,,,
1595820000,-46.2658,-106.07563,-488.13638,-0.04946304,-0.044758692,-0.0039369315,0.0005994365449271204,0.004291006027930053,1.5688168967868767
1595828000,-46.26588,-106.07588,-488.13635,-0.04887625,-0.04496092,-0.0035540157,0.0006621615789149224,0.004367013372446637,1.5687797023832672
1595836000,-46.26596,-106.07614,-488.13635,-0.04859511,-0.04579574,-0.0028910376,,,
1595844000,-46.266052,-106.07641,-488.13632,-0.049054086,-0.046108697,-0.002680259,,,
1595860000,-46.266273,-106.07695,-488.1363,-0.048868246,-0.04547378,-0.0025965013,0.0007243999656760446,0.004456080342274805,1.5687983579429037
1595868000,-46.266388,-106.07722,-488.1363,-0.046966985,-0.04497993,-0.0024829414,0.0007474151265773807,0.004445946986623222,1.5687927550619318
1595876000,-46.266495,-106.077484,-488.13626,-0.046323586,-0.045314174,-0.0025183035,,,
1595884000,-46.266613,-106.07777,-488.13626,-0.04607386,-0.045904562,-0.0016953881,,,
1595900000,-46.26685,-106.078316,-488.13623,-0.045844052,-0.04508396,-0.001955216,0.0006967990895088369,0.004406797527351609,1.5687496012056583
1595908000,-46.266983,-106.0786,-488.1362,-0.04655652,-0.04638153,-0.0014691792,0.0008361588928476366,0.00439474935619791,1.5686576305561992
1595916000,-46.267128,-106.078896,-488.13617,-0.046325736,-0.047920007,-0.0007532614,,,
1595924000,-46.26728,-106.0792,-488.13617,-0.04642323,-0.048845164,-0.0004901106,,,
1595940000,-46.2676,-106.07984,-488.1361,-0.04595834,-0.049617596,-0.00066416216,0.0009785428662107592,0.004413728031691117,1.5686014819276788
1595948000,-46.26777,-106.08016,-488.1361,-0.045728575,-0.049821846,-0.000572751,0.0009940477851167002,0.004436941474164801,1.5685607116576565
1595956000,-46.26794,-106.08049,-488.13608,-0.045463946,-0.04970404,-0.00043516024,,,
1595964000,-46.26812,-106.08082,-488.13605,-0.04537616,-0.048992787,0.00039882015,,,
1595980000,-46.268486,-106.08146,-488.13602,-0.044407476,-0.048108693,-0.00012272576,0.001034463937612354,0.004574574187108626,1.5685900959113739
1595988000,-46.268673,-106.08178,-488.13602,-0.043307826,-0.047718402,0.00036423633,0.001019682763847738,0.0045765621159535716,1.5685806781713452
1595996000,-46.268307,-106.08164,-488.13586,-0.042888448,-0.04812028,0.00041642314,,,
1596004000,-46.267963,-106.08152,-488.1357,-0.042814765,-0.048267346,0.00092653447,,,
1596020000,-46.267338,-106.081314,-488.1354,-0.04392944,-0.048088297,0.0020290837,0.0007767767274471658,0.0045017249194879965,1.5686799813253023
1596028000,-46.267056,-106.08123,-488.13525,-0.04372389,-0.04780853,0.001849631,0.0007865844982193181,0.004443152991303093,1.568673842504764
1596036000,-46.266785,-106.081154,-488.1351,-0.04337062,-0.047195923,0.0014043866,,,
1596044000,-46.26653,-106.08109,-488.13498,-0.042065453,-0.047809146,0.0014512665,,,
1596060000,-46.266037,-106.081,-488.13474,-0.04101612,-0.04733198,-0.0002596171,0.0007574767577517361,0.004336576531176643,1.5689636447343012
1596068000,-46.265816,-106.08097,-488.1346,-0.04084219,-0.046936035,-0.00064496155,0.0007505744052582725,0.004257816647803891,1.568967817636156
1596076000,-46.265602,-106.08095,-488.13452,-0.040524486,-0.04773314,-0.00029824863,,,
1596084000,-46.265408,-106.08094,-488.1344,-0.040493876,-0.048233457,-0.0006859359,,,
1596100000,-46.265045,-106.08097,-488.13422,-0.039437313,-0.048871778,-0.0009964969,0.0007801833971726347,0.004148614851613073,1.5688035464388919
1596108000,-46.26488,-106.08099,-488.13412,-0.038967527,-0.04881669,-0.00058537605,0.0008810003650772746,0.004097610071605987,1.5687866783348057
1596116000,-46.264725,-106.08103,-488.13403,-0.038431577,-0.04965022,-0.00015208233,,,
1596124000,-46.26458,-106.081085,-488.13397,-0.0378654,-0.050024264,0.00022124074,,,
1596140000,-46.264317,-106.081215,-488.1338,-0.03775858,-0.050699867,-0.00024480402,0.0008138582020976293,0.004441377407295178,1.5684889467418979
1596148000,-46.264202,-106.0813,-488.13373,-0.037089158,-0.05072142,-0.00066015986,0.0008538589189800675,0.004503361269838347,1.5684181946850262
1596156000,-46.26409,-106.08139,-488.13364,-0.03670432,-0.050700802,-0.0006306695,,,
1596164000,-46.263996,-106.08149,-488.13358,-0.037107438,-0.050463594,-0.0007647271,,,
1596180000,-46.263832,-106.0817,-488.13348,-0.038196817,-0.05040703,-0.001401559,0.0009671910294798677,0.004203108407568159,1.5684478214872783
1596188000,-46.26377,-106.081825,-488.13345,-0.037927758,-0.050630387,-0.001543158,0.0009900962191290784,0.004210061257765453,1.5684775645234084
1596196000,-46.263718,-106.081955,-488.13342,-0.03746292,-0.050881375,-0.0018193176,,,
1596204000,-46.263676,-106.08209,-488.1334,-0.0374487,-0.051674172,-0.0016573536,,,
1596220000,-46.263607,-106.082405,-488.13333,-0.036152776,-0.05248876,-0.0029001534,0.0010258093623260376,0.004119858158722606,1.5684144431148692
1596228000,-46.26358,-106.08258,-488.1333,-0.036168847,-0.053338226,-0.0019298345,0.001005742683606329,0.004094327131991633,1.5684575976835837
1596236000,-46.263565,-106.08276,-488.1333,-0.03643287,-0.053159937,-0.0024099285,,,
1596244000,-46.263557,-106.08295,-488.13327,-0.036333486,-0.052723084,-0.0023268508,,,
1596260000,-46.26356,-106.08333,-488.13324,-0.03567751,-0.052334886,-0.0023132497,0.001009694894758317,0.0038902457208261484,1.5683439326261805
1596268000,-46.263577,-106.083534,-488.1332,-0.035553686,-0.05255666,-0.0028078747,0.0010041336073757469,0.0039579277817417885,1.5683984705525689
1596276000,-46.263596,-106.08374,-488.1332,-0.035569772,-0.052631654,-0.0032409707,,,
1596284000,-46.263626,-106.08395,-488.1332,-0.03550199,-0.05259966,-0.00388555,,,
1596300000,-46.263702,-106.08439,-488.1332,-0.035316378,-0.05324111,-0.0042007263,0.0010065830107543697,0.003988183431358173,1.5683621707132351
1596308000,-46.26374,-106.08462,-488.1332,-0.035327047,-0.05327546,-0.0043286146,0.0010139959792748068,0.003998987790704109,1.5683141285468878
1596316000,-46.263786,-106.084854,-488.1332,-0.03589855,-0.053663243,-0.0045746486,,,
1596324000,-46.263844,-106.08509,-488.13324,-0.036070906,-0.054017916,-0.0053098914,,,
1596340000,-46.263973,-106.085594,-488.13327,-0.035824,-0.05377175,-0.0049849334,0.001192300595932145,0.003969920051089195,1.567972531096746
1596348000,-46.264053,-106.085846,-488.13327,-0.036352694,-0.05394217,-0.004816079,0.0012395376235216546,0.004028159842672516,1.567887294593708
1596356000,-46.26414,-106.08611,-488.1333,-0.03649802,-0.054159258,-0.0050451504,,,
1596364000,-46.264236,-106.08638,-488.1333,-0.03616794,-0.054737963,-0.00563267,,,
1596380000,-46.26445,-106.08694,-488.13336,-0.03716122,-0.054782704,-0.0055850223,0.0013518055072965858,0.0043596726180341735,1.567846400732988
1596388000,-46.26457,-106.08723,-488.1334,-0.037090562,-0.055827036,-0.005622371,0.001312291126348817,0.004371439525230371,1.5677998489104483
1596396000,-46.264267,-106.08701,-488.13336,-0.03706606,-0.055551864,-0.005378226,,,
1596404000,-46.263985,-106.08681,-488.13333,-0.036678158,-0.055198904,-0.0055135516,,,
1596420000,-46.26345,-106.08645,-488.1333,-0.036119837,-0.054667536,-0.0049989345,0.0011866954920118492,0.004457377221839527,1.5676940481275872
1596428000,-46.263203,-106.08629,-488.13327,-0.035390895,-0.054815836,-0.0051239613,0.001203078420167754,0.004474339103372575,1.5677243872324043
1596436000,-46.26297,-106.08614,-488.13324,-0.035237163,-0.055080384,-0.0055018887,,,
1596444000,-46.26275,-106.08603,-488.13324,-0.03519993,-0.055399533,-0.0050609442,,,
1596460000,-46.26236,-106.08584,-488.13318,-0.035759903,-0.05666012,-0.004374226,0.0011723335324253204,0.004390439153740223,1.5678570701958987
1596468000,-46.26218,-106.08577,-488.13318,-0.035080742,-0.056728307,-0.004655742,0.0012273660135507757,0.004379989148314523,1.5678905091000055
1596476000,-46.262012,-106.08572,-488.13318,-0.03499516,-0.05674145,-0.0048508276,,,
1596484000,-46.26186,-106.08567,-488.13315,-0.03540606,-0.056263164,-0.0045927614,,,
1596500000,-46.261585,-106.08562,-488.13315,-0.03437257,-0.056851983,-0.0060601966,0.0012521199959555735,0.00444084328853131,1.5680616355086239
1596508000,-46.261463,-106.08562,-488.13318,-0.034483686,-0.05711974,-0.0060442076,0.001185499415636036,0.004343373853002472,1.5679966665648948
1596516000,-46.261345,-106.085625,-488.13318,-0.033982396,-0.057083175,-0.005886829,,,
1596524000,-46.26124,-106.08564,-488.13318,-0.033890564,-0.05767031,-0.00590366,,,
1596540000,-46.261055,-106.085724,-488.1332,-0.03361226,-0.05792784,-0.0067713773,0.0011563236314732406,0.004260483979850738,1.5678462235006876
1596548000,-46.260975,-106.08578,-488.13324,-0.033853978,-0.057468593,-0.007636157,0.0011147397884227878,0.004260002016044638,1.5678691715729876
1596556000,-46.26091,-106.08584,-488.13327,-0.034161106,-0.057069343,-0.007935776,,,
1596564000,-46.260857,-106.08591,-488.13333,-0.034254096,-0.057280906,-0.007936328,,,
1596580000,-46.260777,-106.08609,-488.1334,-0.034309473,-0.059231672,-0.008582678,0.0010136596434695134,0.004380605689773701,1.5678490235268099
1596588000,-46.26075,-106.08621,-488.13345,-0.035058457,-0.059117097,-0.009006347,0.0010288568180009106,0.004442536915339673,1.5678410357584525
1596596000,-46.26074,-106.086334,-488.13348,-0.035596408,-0.059446584,-0.009509806,,,
1596604000,-46.26073,-106.08647,-488.13354,-0.034798108,-0.059196796,-0.0088297445,,,
1596620000,-46.26074,-106.08677,-488.13364,-0.034368973,-0.05905996,-0.007807288,0.000863775229499905,0.004490282109022359,1.5678157623663909
1596628000,-46.260754,-106.08692,-488.13367,-0.03417863,-0.058841888,-0.0068779006,0.0008112412540239662,0.004467676355080006,1.5677960331208203
1596636000,-46.260773,-106.08709,-488.13373,-0.03381064,-0.059527673,-0.0065145623,,,
1596644000,-46.260796,-106.08727,-488.13376,-0.03372416,-0.059579726,-0.006608835,,,
1596660000,-46.260868,-106.087654,-488.13382,-0.033970613,-0.059529625,-0.007306808,0.0009125887104307849,0.004293223527405846,1.5678382953405405
1596668000,-46.26092,-106.08785,-488.13388,-0.0339478,-0.059767444,-0.00711862,0.0008563245798650921,0.004275509143794593,1.5678317391510272
1596676000,-46.26098,-106.088066,-488.1339,-0.034028407,-0.059733793,-0.0067591704,,,
1596684000,-46.261044,-106.08828,-488.13397,-0.034326967,-0.059907332,-0.0058863787,,,
1596700000,-46.261196,-106.088745,-488.13403,-0.033949643,-0.060813222,-0.0059783426,0.0010588329878447745,0.004308275702062586,1.567686003313632
1596708000,-46.261276,-106.089,-488.13406,-0.033498824,-0.0608358,-0.0064431764,0.001064523129443779,0.0043200118727023465,1.5676150727278424
1596716000,-46.26136,-106.08925,-488.13412,-0.032664392,-0.060888473,-0.0062188776,,,
1596724000,-46.261448,-106.08951,-488.13416,-0.032205176,-0.0613362,-0.006638974,,,
1596740000,-46.261654,-106.09006,-488.13425,-0.03248021,-0.06202094,-0.006952169,0.0011113407320062086,0.004371908916293362,1.5677698078389541
1596748000,-46.261772,-106.09035,-488.1343,-0.033018887,-0.06267394,-0.0061493185,0.0012064599407945757,0.004403235649607404,1.5678378176193353
1596756000,-46.26189,-106.090645,-488.13434,-0.032662272,-0.06316803,-0.0053100195,,,
1596764000,-46.262016,-106.09096,-488.13437,-0.03263423,-0.063891165,-0.004129348,,,
1596780000,-46.262283,-106.09161,-488.13443,-0.032738842,-0.06475439,-0.0040785857,0.001357099397638419,0.004392954680272704,1.5682438497727416
1596788000,-46.26243,-106.09195,-488.13446,-0.033331007,-0.06483338,-0.0036710277,0.0013916066673095309,0.004336400975220654,1.5682591092643614
1596796000,-46.262127,-106.09153,-488.13437,-0.033073574,-0.06551921,-0.0038377552,,,
1596804000,-46.26184,-106.091125,-488.1343,-0.03338341,-0.06526365,-0.0045304084,,,
1596820000,-46.261322,-106.09039,-488.13416,-0.033228684,-0.06461207,-0.0046840487,0.0013380330877181682,0.004459275741775981,1.5683633578814162
1596828000,-46.26108,-106.09006,-488.1341,-0.033148065,-0.064266145,-0.0048433854,0.0013362817615660586,0.004563285508355596,1.568353879512539
1596836000,-46.260857,-106.08974,-488.13403,-0.032522928,-0.06357318,-0.0049912846,,,
1596844000,-46.26064,-106.08944,-488.134,-0.03274811,-0.06346806,-0.0050498005,,,
1596860000,-46.260265,-106.0889,-488.1339,-0.034314048,-0.063378535,-0.005286197,0.0014092503561061137,0.004441040265198221,1.5682341931482533
1596868000,-46.2601,-106.08865,-488.13385,-0.034449413,-0.06377142,-0.005751373,0.0014282591055332792,0.0044067644650791805,1.5682945736545488
1596876000,-46.259953,-106.08843,-488.13382,-0.03428849,-0.06406221,-0.0060695503,,,
1596884000,-46.259808,-106.088234,-488.1338,-0.033189442,-0.06400669,-0.0068269144,,,
1596900000,-46.25954,-106.08789,-488.13376,-0.033313274,-0.064286046,-0.006494491,0.001484073244953287,0.0042183822331971375,1.5682251955467092
1596908000,-46.25943,-106.08774,-488.13373,-0.033219695,-0.064071886,-0.007151928,0.0014402299781529244,0.004021386278725601,1.5682530924929903
1596916000,-46.259327,-106.08761,-488.13373,-0.033213567,-0.06431725,-0.008238846,,,
1596924000,-46.259235,-106.087494,-488.13373,-0.0335357,-0.064354375,-0.009647342,,,
1596940000,-46.259094,-106.08731,-488.13376,-0.033920094,-0.06416382,-0.011499726,0.0014803231023857372,0.0033647211427206883,1.5683894752282423
1596948000,-46.259033,-106.087234,-488.1338,-0.033328824,-0.0633108,-0.012592952,0.001515584406808759,0.0030846993930197576,1.5684770973600128
1596956000,-46.25898,-106.08717,-488.13385,-0.033435643,-0.063148364,-0.014473355,,,
1596964000,-46.258938,-106.08711,-488.1339,-0.033911955,-0.062050506,-0.017102746,,,
1596980000,-46.258884,-106.08703,-488.13412,-0.033145227,-0.06200371,-0.022762489,0.0016052164932444518,0.001249358732241809,1.5685874946149128
1596988000,-46.25886,-106.087006,-488.13428,-0.032054618,-0.061249766,-0.025518019,0.0015373143269927843,0.0005920929016047377,1.5686171193714897
1596996000,-46.258842,-106.08699,-488.13443,-0.031201577,-0.060329016,-0.028335325,,,
1597004000,-46.258823,-106.086975,-488.1346,-0.030973967,-0.059688006,-0.03097453,,,
1597020000,-46.258816,-106.08697,-488.1351,-0.030038077,-0.0584274,-0.037143424,0.0008446171656704267,-0.0023971721205542666,1.5687714901572323
1597028000,-46.258823,-106.086975,-488.13538,-0.029418888,-0.05800331,-0.040178243,0.0004788798171431333,-0.003354883992504105,1.5687807237191707
1597036000,-46.25884,-106.08699,-488.13568,-0.029361445,-0.05703536,-0.044019993,,,
1597044000,-46.258858,-106.087006,-488.13602,-0.02920786,-0.056383584,-0.047547173,,,
1597060000,-46.25892,-106.08706,-488.13678,-0.02969201,-0.05491448,-0.05528663,-0.0014627248908482221,-0.007385335478180694,1.5684829458333671
1597068000,-46.258965,-106.08709,-488.1372,-0.030089278,-0.05398439,-0.059201278,-0.002281428335358265,-0.008555221424871074,1.5684374441613527
1597076000,-46.259018,-106.08713,-488.13766,-0.030219477,-0.052962527,-0.063560195,,,
1597084000,-46.259075,-106.087166,-488.13815,-0.029519811,-0.052246884,-0.067402765,,,
1597100000,-46.259197,-106.08724,-488.13925,-0.029578881,-0.04986047,-0.07611391,-0.0055184607561019955,-0.014142325317539743,1.5681473478441206
1597108000,-46.25927,-106.08729,-488.13986,-0.029963497,-0.049151372,-0.08076052,-0.00650701858927714,-0.01571942596661348,1.5681145584370677
1597116000,-46.259346,-106.087326,-488.1405,-0.029625757,-0.047371477,-0.084557354,,,
1597124000,-46.259426,-106.08736,-488.14117,-0.028862027,-0.045211192,-0.08776435,,,
1597140000,-46.259583,-106.08741,-488.1426,-0.02668456,-0.04162341,-0.09675744,-0.01096115326475153,-0.022609513521907515,1.5680693699844255
1597148000,-46.25965,-106.087425,-488.1434,-0.024944806,-0.0389315,-0.10127562,-0.012241630475944471,-0.024486610081211748,1.5681119986913206
1597156000,-46.259716,-106.087425,-488.14423,-0.024414662,-0.037069425,-0.10514269,,,
1597164000,-46.25979,-106.08742,-488.14508,-0.02332561,-0.03464948,-0.10985948,,,
1597180000,-46.25992,-106.08735,-488.1469,-0.020701637,-0.028053232,-0.11983691,-0.01793326196978393,-0.03199963976047701,1.5679432569402647
1597188000,-46.25997,-106.08729,-488.1479,-0.019718094,-0.025453027,-0.12563527,-0.019228327356939294,-0.033738818467037794,1.5679097555895587
1597196000,-46.259476,-106.08668,-488.1487,-0.018480761,-0.022064531,-0.13147528,,,
1597204000,-46.258984,-106.08606,-488.14957,-0.017101446,-0.01883637,-0.13745427,,,
1597220000,-46.25801,-106.0848,-488.15146,-0.012784114,-0.011533745,-0.14835815,-0.0238840519095612,-0.039643202544255636,1.5680771093608232
1597228000,-46.257523,-106.08416,-488.1525,-0.010275551,-0.008074004,-0.1537002,-0.02484317674733391,-0.040826817270147205,1.5680367727070734
1597236000,-46.257034,-106.08351,-488.15356,-0.008334729,-0.0056965956,-0.1597741,,,
1597244000,-46.256542,-106.082855,-488.15472,-0.0056127617,-0.0021043424,-0.16587867,,,
1597260000,-46.255543,-106.081505,-488.15714,-0.0013849449,0.0062951786,-0.17745805,-0.028343720713371306,-0.044843897885485845,1.5679167885886174
1597268000,-46.255043,-106.08081,-488.15842,0.001220483,0.009725044,-0.18362445,-0.02893848517424222,-0.0457099207755911,1.5679089188619164
1597276000,-46.25453,-106.0801,-488.15976,0.0042434945,0.013180168,-0.18920794,,,
1597284000,-46.25401,-106.07938,-488.16116,0.007309842,0.016994836,-0.19572385,,,
1597300000,-46.252937,-106.077896,-488.1641,0.012896116,0.023504661,-0.2082773,-0.030805090306850275,-0.04819602924645908,1.5682036706126774
1597308000,-46.25238,-106.07715,-488.16568,0.016095893,0.027008817,-0.21452393,-0.031116522177997572,-0.04862351911319741,1.5681352886255628
1597316000,-46.251812,-106.07638,-488.16727,0.01909676,0.0309474,-0.22102493,,,
1597324000,-46.251232,-106.075584,-488.16895,0.021610579,0.03460231,-0.22769015,,,
1597340000,-46.25005,-106.07396,-488.17245,0.026692579,0.042414613,-0.24103887,-0.03187048133664053,-0.04914369929581409,1.5680283392885255
1597348000,-46.249447,-106.07312,-488.17432,0.02885211,0.046818756,-0.2486444,-0.03209003360601508,-0.04901201563926689,1.5681098157946332
1597356000,-46.248837,-106.07226,-488.1762,0.031037776,0.05135159,-0.25597465,,,
1597364000,-46.24822,-106.07137,-488.1782,0.033479974,0.05536928,-0.26312068,,,
1597380000,-46.246944,-106.069534,-488.1823,0.038272344,0.06376872,-0.27793443,-0.031940676291733604,-0.0481662892687448,1.568443265277729
1597388000,-46.246296,-106.06859,-488.18448,0.040275306,0.06799542,-0.2854562,-0.031757502297980265,-0.04779089190765093,1.568424868987911
1597396000,-46.24564,-106.06761,-488.1867,0.04279459,0.07249313,-0.2928145,,,
1597404000,-46.244976,-106.06662,-488.189,0.04495249,0.07607211,-0.30019405,,,
1597420000,-46.243603,-106.064575,-488.19376,0.051553883,0.08308234,-0.31519547,-0.030423271221179004,-0.04554346548478651,1.5683615726564486
1597428000,-46.242893,-106.06353,-488.19623,0.05335497,0.08701534,-0.3226913,-0.030053213075317477,-0.044770760360142874,1.5682756215019156
1597436000,-46.242184,-106.06246,-488.1988,0.054975405,0.091053575,-0.33026937,,,
1597444000,-46.241463,-106.06137,-488.20142,0.057773974,0.094228655,-0.33826706,,,
1597460000,-46.239986,-106.059135,-488.20682,0.06287959,0.10098167,-0.3529545,-0.028194295860782176,-0.04138998698474172,1.568206966646406
