timestamp,x,y,z,vx,vy,vz,roll,pitch,yaw
625256000,-107008.36,-2875729.8,-488.0604,0.052492037,0.012090016,0.011616686,-0.0016565026753041167,0.003117032507122033,1.7956618024794841
625264000,-107008.36,-2875729.8,-488.06055,0.051913273,0.012217283,0.011126377,,,
625272000,-107008.36,-2875729.8,-488.0607,0.05097012,0.011692523,0.010542764,,,
625280000,-107008.36,-2875729.8,-488.06082,0.04992424,0.010852422,0.010353849,,,
625288000,-107008.36,-2875729.8,-488.06097,0.049802173,0.010334864,0.010172822,-0.001918896600216575,0.0031188744392972663,1.7956727564107169
625296000,-107008.36,-2875729.8,-488.0611,0.049720444,0.0100424215,0.010256215,-0.0018593353183089575,0.003136602484050373,1.7957769494648688
625304000,-107008.36,-2875729.8,-488.06122,0.04905715,0.009945801,0.009601685,,,
625312000,-107008.36,-2875729.8,-488.06134,0.048386488,0.009253262,0.009251952,,,
625328000,-107008.37,-2875729.8,-488.06155,0.047538944,0.0080698775,0.009458477,-0.0018795633871801804,0.003395101757128632,1.7958353084123322
625336000,-107008.37,-2875729.8,-488.06168,0.047548514,0.008176133,0.009132374,-0.0019846334718820508,0.0033997372091653733,1.7958466740179138
625344000,-107008.37,-2875729.8,-488.06177,0.046902686,0.00788902,0.009055852,,,
625352000,-107008.37,-2875729.8,-488.06186,0.046180684,0.007861457,0.00871132,,,
625368000,-107008.37,-2875729.8,-488.062,0.046514187,0.00779776,0.009668474,-0.0022015960181724797,0.0035995583481513403,1.7957833847188258
625376000,-107008.37,-2875729.8,-488.0621,0.04685975,0.0071709175,0.0096482355,-0.0022259545828908498,0.0034905270306797406,1.7958401595875995
625384000,-107008.37,-2875729.8,-488.06216,0.04671515,0.0068479776,0.0092580505,,,
625392000,-107008.37,-2875729.8,-488.06223,0.046673786,0.0068646106,0.00936629,,,
625408000,-107008.37,-2875729.8,-488.06238,0.04750487,0.007853312,0.01011313,-0.002375729403916674,0.0033276999317896653,1.7959121648351217
625416000,-107008.37,-2875729.8,-488.06244,0.04708372,0.007934304,0.010431576,-0.0024798799334669643,0.0033368015650125133,1.7959372635369941
625424000,-107008.37,-2875729.8,-488.0625,0.0472676,0.007279559,0.010199471,,,
625432000,-107008.37,-2875729.8,-488.06253,0.04690872,0.007543771,0.01066798,,,
625448000,-107008.37,-2875729.8,-488.06262,0.047007263,0.007929529,0.010883076,-0.0025614070982281217,0.003238497840482141,1.7960236493441966
625456000,-107008.37,-2875729.8,-488.06265,0.047605067,0.008935808,0.011326796,-0.002522248536702324,0.00325794069878142,1.7959860993186363
625464000,-107008.37,-2875729.8,-488.06268,0.047969975,0.009047368,0.011346761,,,
625472000,-107008.37,-2875729.8,-488.0627,0.048311684,0.009380301,0.011573531,,,
625488000,-107008.37,-2875729.8,-488.06274,0.047743715,0.009077855,0.011783609,-0.0027082236305258716,0.00341194738459744,1.796081427468319
625496000,-107008.37,-2875729.8,-488.06274,0.047630467,0.008198883,0.012172413,-0.002768854924884949,0.0033855766007537913,1.796045776528149
625504000,-107008.37,-2875729.8,-488.06274,0.04665665,0.0077223787,0.012423767,,,
625512000,-107008.37,-2875729.8,-488.06274,0.04678708,0.008097327,0.012184165,,,
625528000,-107008.37,-2875729.8,-488.06274,0.04752279,0.007814638,0.011591806,-0.002905580450579186,0.0031636738373082575,1.7960481004974926
625536000,-107008.36,-2875729.8,-488.06274,0.047831047,0.008130494,0.011776453,-0.002753121260351018,0.0032078068769374186,1.7960546051482797
625544000,-107008.36,-2875729.8,-488.06274,0.048373852,0.007974179,0.011769448,,,
625552000,-107008.36,-2875729.8,-488.06274,0.048135508,0.008189058,0.012683742,,,
625568000,-107008.36,-2875729.8,-488.06274,0.047875963,0.00845448,0.012078113,-0.0027057765783488784,0.0031521402810357176,1.7961111341278237
625576000,-107008.36,-2875729.8,-488.0627,0.04815025,0.008713061,0.0129959555,-0.0027528486342649466,0.0031570544290521947,1.7961613182365248
625584000,-107008.36,-2875729.8,-488.0627,0.04770618,0.00911749,0.013049658,,,
625592000,-107008.36,-2875729.8,-488.06268,0.047064655,0.008932179,0.013516729,,,
625608000,-107008.36,-2875729.8,-488.06262,0.046839863,0.009241212,0.013577641,-0.002357804194514537,0.0035139997631459486,1.7962202221368122
625616000,-107008.36,-2875729.8,-488.06277,0.046366066,0.009392567,0.013783089,-0.0023340382388583733,0.0035114090405904456,1.7962602293009613
625624000,-107008.36,-2875729.8,-488.06296,0.04552624,0.009392962,0.01346784,,,
625632000,-107008.36,-2875729.8,-488.0631,0.044986423,0.0087709725,0.013358386,,,
625648000,-107008.36,-2875729.8,-488.0634,0.044888876,0.008851659,0.013187557,-0.002365818888285685,0.0034728436689447206,1.796376149919271
625656000,-107008.36,-2875729.8,-488.06354,0.04489977,0.008832384,0.013275239,-0.002345660026337973,0.0034472998989533133,1.7964141780626033
625664000,-107008.36,-2875729.8,-488.06366,0.044334497,0.008629323,0.013684265,,,
625672000,-107008.36,-2875729.8,-488.06375,0.04339407,0.007960603,0.013932466,,,
625688000,-107008.37,-2875729.8,-488.06396,0.0428968,0.0074322163,0.014803485,-0.002196372864151909,0.003446825620114445,1.796336571303325
625696000,-107008.37,-2875729.8,-488.06406,0.043524634,0.0070626084,0.015040297,-0.0021587998733936095,0.0034647616030181344,1.7962926727350657
625704000,-107008.37,-2875729.8,-488.06415,0.04410533,0.0073421625,0.015046767,,,
625712000,-107008.37,-2875729.8,-488.0642,0.04400579,0.0068547428,0.015169925,,,
625728000,-107008.37,-2875729.8,-488.06436,0.043597393,0.00605433,0.014346791,-0.0022822879348603424,0.0033355682542296305,1.796266175928088
625736000,-107008.37,-2875729.8,-488.06442,0.043127082,0.005234988,0.014019036,-0.0023510800163795602,0.0033740551433775233,1.7963435007606743
625744000,-107008.37,-2875729.8,-488.06448,0.043807436,0.0053148293,0.013272294,,,
625752000,-107008.37,-2875729.8,-488.06458,0.043614827,0.005208039,0.012949918,,,
625768000,-107008.37,-2875729.8,-488.0647,0.042512972,0.0058260844,0.012218037,-0.002541715596188232,0.0035194007689843673,1.7966132711411835
625776000,-107008.37,-2875729.8,-488.06476,0.042557333,0.0053388076,0.011958674,-0.0026747472503234784,0.003472626436644294,1.7966739142613002
625784000,-107008.37,-2875729.8,-488.06482,0.0423615,0.0054149325,0.011712494,,,
625792000,-107008.37,-2875729.8,-488.06488,0.042186365,0.005006215,0.011181508,,,
625808000,-107008.37,-2875729.8,-488.065,0.040897276,0.0052285977,0.011327083,-0.0025483461644524993,0.0033818547816084586,1.7968174000975161
625816000,-107008.37,-2875729.8,-488.06506,0.04014979,0.0054130475,0.010646203,-0.002487402229909479,0.003357432105418953,1.796821912401886
625824000,-107008.37,-2875729.8,-488.06512,0.04005889,0.0055196094,0.009877678,,,
625832000,-107008.37,-2875729.8,-488.0652,0.04019952,0.0055051623,0.009250117,,,
625848000,-107008.37,-2875729.8,-488.06534,0.03942549,0.0056245252,0.007807455,-0.002549626047362561,0.0032441994272353254,1.796668451224271
625856000,-107008.36,-2875729.8,-488.0654,0.03897325,0.006072029,0.008726343,-0.0026035995047586492,0.0032783370049201347,1.7966718912015445
625864000,-107008.36,-2875729.8,-488.06543,0.038804725,0.006303845,0.008761764,,,
625872000,-107008.36,-2875729.8,-488.0655,0.038986325,0.0066420673,0.008502054,,,
625888000,-107008.36,-2875729.8,-488.06558,0.037874114,0.006252254,0.008006385,-0.0023040855608340966,0.0032222708569358293,1.7963978049138836
625896000,-107008.36,-2875729.8,-488.06564,0.038082372,0.006204451,0.008281271,-0.0022788121302046178,0.0030358401193159184,1.796413446625531
625904000,-107008.36,-2875729.8,-488.06567,0.037894525,0.006343027,0.009230529,,,
625912000,-107008.36,-2875729.8,-488.0657,0.037771743,0.0061134496,0.009415533,,,
625928000,-107008.36,-2875729.8,-488.06577,0.037554707,0.00625959,0.009331445,-0.002068891943303847,0.0030339555794073143,1.7966009242900363
625936000,-107008.36,-2875729.8,-488.06577,0.03729388,0.006075752,0.009623514,-0.002110420699606977,0.0030499066477738777,1.7965704599009347
625944000,-107008.36,-2875729.8,-488.0658,0.03687136,0.005484317,0.009670094,,,
625952000,-107008.36,-2875729.8,-488.06583,0.036797628,0.0047480525,0.008875988,,,
625968000,-107008.36,-2875729.8,-488.0659,0.035993066,0.0040363995,0.008899707,-0.002294268343519551,0.003212904962982266,1.7966125528394148
625976000,-107008.36,-2875729.8,-488.06592,0.03603536,0.00414187,0.0077706487,-0.002307458444838957,0.003232050726218412,1.7966299183444094
625984000,-107008.36,-2875729.8,-488.06595,0.036644503,0.003865528,0.0072147613,,,
625992000,-107008.36,-2875729.8,-488.06598,0.03745806,0.003564729,0.0066410466,,,
626008000,-107008.36,-2875729.8,-488.06604,0.037851848,0.0038294292,0.00652727,-0.002296370762067614,0.0031086035313236293,1.7964589755955793
626016000,-107008.36,-2875729.8,-488.06625,0.037496347,0.0039054097,0.00685991,-0.002352631349463395,0.0030624984206192936,1.7964114676009912
626024000,-107008.36,-2875729.8,-488.0664,0.037694614,0.003675486,0.0075654024,,,
626032000,-107008.36,-2875729.8,-488.0666,0.03783187,0.003684194,0.007840917,,,
626048000,-107008.36,-2875729.8,-488.0669,0.037495017,0.0036629746,0.0079309,-0.0022578564949353574,0.0032925863172171815,1.796445893877418
626056000,-107008.36,-2875729.8,-488.06705,0.03748739,0.0035218836,0.008230573,-0.0022211278458036713,0.0033526502027463423,1.796399837271713
626064000,-107008.36,-2875729.8,-488.06717,0.03668211,0.0031394537,0.008189584,,,
626072000,-107008.36,-2875729.8,-488.06732,0.03571929,0.002838032,0.008106433,,,
626088000,-107008.36,-2875729.8,-488.0676,0.036027916,0.00200542,0.007290672,-0.002112113938676986,0.0032377260028519307,1.7964704211925802
626096000,-107008.36,-2875729.8,-488.06772,0.036158517,0.0015880083,0.007282364,-0.0021712953995302693,0.0033202548979987686,1.7964796687281284
626104000,-107008.36,-2875729.8,-488.06784,0.035826504,0.0015211452,0.0074551217,,,
626112000,-107008.37,-2875729.8,-488.06793,0.035973694,0.0014262082,0.007506189,,,
626128000,-107008.37,-2875729.8,-488.06815,0.034861863,0.0017564284,0.0067222756,-0.002062278974542283,0.003342284990078268,1.7964950818838694
626136000,-107008.37,-2875729.8,-488.06827,0.03399653,0.0024482412,0.0065477397,-0.002111276707823792,0.0032765849449165516,1.7964148351922753
626144000,-107008.37,-2875729.8,-488.06836,0.033301335,0.0021456664,0.0072059715,,,
626152000,-107008.37,-2875729.8,-488.06845,0.03394407,0.0013596261,0.006883866,,,
626168000,-107008.37,-2875729.8,-488.0686,0.033879686,0.0014616968,0.0072550196,-0.0018492002212925262,0.0029452602119549955,1.796519033847216
626176000,-107008.37,-2875729.8,-488.0687,0.034641936,0.001729483,0.0070102676,-0.0017882867782436484,0.0028701100787245563,1.7965410011562644
626184000,-107008.37,-2875729.8,-488.06876,0.034892164,0.0018187477,0.0067082765,,,
626192000,-107008.37,-2875729.8,-488.06882,0.034527116,0.0014750395,0.007029972,,,
626208000,-107008.37,-2875729.8,-488.06894,0.034865446,0.001956506,0.006593913,-0.0018618587130233826,0.002746585018836375,1.7966803630704944
626216000,-107008.37,-2875729.8,-488.069,0.03492475,0.0018701581,0.0070672547,-0.0017433472058402052,0.002707385505915808,1.7965172966497425
626224000,-107008.37,-2875729.8,-488.06906,0.03487395,0.0023926578,0.0069652665,,,
626232000,-107008.37,-2875729.8,-488.0691,0.035202798,0.0024798552,0.0073256237,,,
626248000,-107008.37,-2875729.8,-488.06918,0.03618284,0.0033762252,0.008134094,-0.001740219530609452,0.0027225039538187664,1.79672521766385
626256000,-107008.37,-2875729.8,-488.0692,0.03592372,0.0031309493,0.008362182,-0.0017091781158867316,0.0027390326628399858,1.7967617847840465
626264000,-107008.37,-2875729.8,-488.06918,0.035704367,0.0026340275,0.00932874,,,
626272000,-107008.37,-2875729.8,-488.06918,0.034977283,0.002450082,0.0092117395,,,
626288000,-107008.37,-2875729.8,-488.06915,0.033744793,0.0025592893,0.0097546205,-0.001706315298256854,0.002971113141252819,1.7967386196736261
626296000,-107008.37,-2875729.8,-488.06912,0.033066712,0.0019961065,0.009736343,-0.0015714038389759626,0.00297264005135677,1.7967051933816605
626304000,-107008.37,-2875729.8,-488.06912,0.031573273,0.0013913866,0.008859835,,,
626312000,-107008.37,-2875729.8,-488.0691,0.031501677,0.00093186274,0.008896381,,,
626328000,-107008.37,-2875729.8,-488.06903,0.030209823,0.00022961297,0.009580953,-0.0014662448059038066,0.0030469648189221715,1.7966114632250971
626336000,-107008.37,-2875729.8,-488.069,0.029785402,-0.0002943743,0.009701267,-0.0013926256963349855,0.0031347503071743805,1.796562703859023
626344000,-107008.37,-2875729.8,-488.06894,0.02975916,8.048595e-05,0.009499573,,,
626352000,-107008.36,-2875729.8,-488.0689,0.029626666,-0.000115370465,0.008873452,,,
626368000,-107008.36,-2875729.8,-488.06885,0.028254304,0.00015821791,0.0076038945,-0.0013667401590788408,0.0030863422538617512,1.7967936153026554
626376000,-107008.36,-2875729.8,-488.06882,0.02847898,-0.0006253745,0.007302025,-0.00127629486669346,0.002972934816254122,1.796781897187074
626384000,-107008.36,-2875729.8,-488.0688,0.028048804,5.5044886e-05,0.007670633,,,
626392000,-107008.36,-2875729.8,-488.06873,0.02780854,-6.8057016e-05,0.008348441,,,
626408000,-107008.36,-2875729.8,-488.06866,0.027466288,0.00032665176,0.007812934,-0.0015343620522866345,0.0029793877461215083,1.7966936221631058
626416000,-107008.36,-2875729.8,-488.0687,0.0276694,0.0013020984,0.008283495,-0.0014677713391953286,0.003066326640036924,1.7966818947091059
626424000,-107008.36,-2875729.8,-488.0687,0.027227994,0.0057155886,0.021764949,,,
626432000,-107008.37,-2875729.8,-488.0687,0.027927017,0.0016919686,0.007371721,,,
626448000,-107008.37,-2875729.8,-488.06876,0.02713627,0.0012927852,0.007938527,-0.0012036210873839375,0.002672350188063199,1.7965174890008264
626456000,-107008.37,-2875729.8,-488.0688,0.026475826,0.0012907214,0.007800657,-0.001182898468026077,0.0026656201943378913,1.7965335364163115
626464000,-107008.37,-2875729.8,-488.06882,0.02607933,0.0013374239,0.007271126,,,
626472000,-107008.37,-2875729.8,-488.06888,0.025419183,0.0013839607,0.007281718,,,
626488000,-107008.37,-2875729.8,-488.06894,0.025647072,0.0015460427,0.006287562,-0.001271207321018484,0.0025606507013447586,1.7964828208805588
626496000,-107008.37,-2875729.8,-488.06897,0.024947941,0.00072791823,0.0053441064,-0.0012572177007611437,0.002394987464353593,1.7964264806975438
626504000,-107008.37,-2875729.8,-488.06903,0.02433002,0.00040856117,0.0050276327,,,
626512000,-107008.37,-2875729.8,-488.06906,0.023925524,0.0009245619,0.0051557724,,,
626528000,-107008.37,-2875729.8,-488.06915,0.023618054,0.00029295194,0.00449866,-0.0012642248856464622,0.0023577637929239393,1.7963446171044077
626536000,-107008.37,-2875729.8,-488.06918,0.023619927,0.0002453434,0.0035817393,-0.0012713129573767017,0.0023521011031378243,1.7964781885261434
626544000,-107008.37,-2875729.8,-488.06924,0.02266334,0.00017382827,0.002438619,,,
626552000,-107008.37,-2875729.8,-488.0693,0.022441022,3.569801e-05,0.001790644,,,
626568000,-107008.37,-2875729.8,-488.0694,0.022015056,-0.0005913409,0.0010330259,-0.0011863488271153556,0.002051180968435838,1.7968563733322571
626576000,-107008.37,-2875729.8,-488.06946,0.021406308,-0.00062231114,0.00072077196,-0.0012396044505679253,0.002005958645129324,1.7968875213488917
626584000,-107008.37,-2875729.8,-488.06952,0.021076147,-0.00032111368,-2.691085e-05,,,
626592000,-107008.37,-2875729.8,-488.06958,0.020425612,-0.0004320962,-0.00021933716,,,
626608000,-107008.37,-2875729.8,-488.0697,0.02016057,-0.0006510611,0.0001888152,-0.0011768450938028166,0.0019412283404887023,1.7968622930951137
626616000,-107008.37,-2875729.8,-488.06973,0.020503042,-6.725479e-05,0.0008599588,-0.0010838030618670726,0.001943887620702633,1.7967513633691268
626624000,-107008.37,-2875729.8,-488.0698,0.021146722,0.0009922785,0.001353978,,,
626632000,-107008.37,-2875729.8,-488.06982,0.021100838,0.0013081987,0.0010584986,,,
626648000,-107008.37,-2875729.8,-488.06992,0.020275462,0.000699768,0.00069766905,-0.001064192356891663,0.001985225966351372,1.7965237763599382
626656000,-107008.37,-2875729.8,-488.06998,0.019629255,0.0009827673,0.0008699991,-0.0011324265473513732,0.0019180320787675674,1.7965476826249414
626664000,-107008.37,-2875729.8,-488.07004,0.0195103,0.0014146069,0.00084220845,,,
626672000,-107008.37,-2875729.8,-488.07007,0.019837229,0.0015478587,0.0006483462,,,
626688000,-107008.37,-2875729.8,-488.07016,0.019655352,0.002471149,-0.00031997781,-0.0012075780499911826,0.001859992650848336,1.7962826485709071
626696000,-107008.37,-2875729.8,-488.07022,0.019632122,0.0024480764,-0.0013271357,-0.0011281267081674003,0.0019047605914206205,1.7962999244853382
626704000,-107008.37,-2875729.8,-488.07028,0.019618895,0.0022814213,-0.0014191238,,,
626712000,-107008.37,-2875729.8,-488.07034,0.01964034,0.0019089095,-0.00095495745,,,
626728000,-107008.37,-2875729.8,-488.07043,0.019898593,0.0020739578,-0.0009396383,-0.0013904596812280947,0.0020405289441964873,1.7964164293995175
626736000,-107008.37,-2875729.8,-488.07047,0.01909096,0.002672315,-0.0005007607,-0.0013657775152750204,0.002100291343415175,1.7963914335800608
626744000,-107008.37,-2875729.8,-488.0705,0.019178547,0.0023954601,-0.00039369156,,,
626752000,-107008.37,-2875729.8,-488.07053,0.01936835,0.0026775957,-0.00079475687,,,
626768000,-107008.37,-2875729.8,-488.0706,0.01967334,0.002346579,7.636751e-05,-0.0012147946018941486,0.002081541217863699,1.7961266318455216
626776000,-107008.37,-2875729.8,-488.07062,0.019811498,0.0022390052,7.405681e-05,-0.0012968218040167341,0.002047570456062729,1.796067695568392
626784000,-107008.37,-2875729.8,-488.07065,0.020403255,0.0024957587,0.00041684866,,,
626792000,-107008.37,-2875729.8,-488.07068,0.020640943,0.0024145066,-0.00016185927,,,
626808000,-107008.37,-2875729.8,-488.07077,0.021340648,0.0020649747,-0.00019726796,-0.001139094544189889,0.0018919806107773843,1.7961189882247508
626816000,-107008.37,-2875729.8,-488.07092,0.020871699,0.0021926293,-0.00092855975,-0.0010455207060885384,0.0018783732652907046,1.796090127709625
626824000,-107008.37,-2875729.8,-488.07108,0.020518482,0.0023550382,-0.0012758125,,,
626832000,-107008.37,-2875729.8,-488.07123,0.020903595,0.0023217315,-0.0012808605,,,
626848000,-107008.37,-2875729.8,-488.0715,0.020777255,0.0022447468,-0.0019791536,-0.0011444184899418956,0.0020585358711660605,1.7961662636255966
626856000,-107008.37,-2875729.8,-488.07162,0.02077607,0.0018556443,-0.0023263681,-0.0010896445261351765,0.002085556623859945,1.796064863257925
626864000,-107008.37,-2875729.8,-488.07178,0.020074576,0.0007156228,-0.00081264216,,,
626872000,-107008.37,-2875729.8,-488.0719,0.02038931,4.3184322e-05,-0.00048011914,,,
626888000,-107008.37,-2875729.8,-488.07217,0.019485507,0.0002170105,-0.0005645329,-0.0009411898976226009,0.002166031923726821,1.795618096269238
626896000,-107008.37,-2875729.8,-488.0723,0.018851615,-0.0004805156,8.619618e-06,-0.0009194733689469137,0.002249611343606448,1.7955600398505838
626904000,-107008.37,-2875729.8,-488.0724,0.01880541,-0.0007028877,1.7362152e-05,,,
626912000,-107008.37,-2875729.8,-488.0725,0.01879434,-0.0005115538,0.00024157153,,,
626928000,-107008.37,-2875729.8,-488.07272,0.017054437,-0.0005883254,-0.0004830892,-0.0012631661485115802,0.002300379032684056,1.7953727584312733
626936000,-107008.37,-2875729.8,-488.0728,0.016631167,-0.00061642635,4.4065222e-05,-0.001289315835742152,0.002351836606795069,1.7952449943815987
626944000,-107008.37,-2875729.8,-488.0729,0.016847797,9.3596536e-05,0.00093542115,,,
626952000,-107008.37,-2875729.8,-488.073,0.016982477,-1.2821285e-05,0.0014650326,,,
626968000,-107008.37,-2875729.8,-488.07315,0.017060002,0.0011228767,0.0016898947,-0.0013499527653809637,0.002328449635925427,1.795376636628524
626976000,-107008.37,-2875729.8,-488.07324,0.01658502,0.0016009371,0.001764187,-0.0014321860072512803,0.002205477254280094,1.7954405900204946
626984000,-107008.37,-2875729.8,-488.0733,0.01621878,0.0008897206,0.0016115989,,,
626992000,-107008.37,-2875729.8,-488.07336,0.01578818,-0.0004226177,0.00125465,,,
627008000,-107008.37,-2875729.8,-488.0735,0.014730525,-0.0003291069,0.0013085019,-0.0012997874754177411,0.0024036581024806255,1.795212358570807
627016000,-107008.37,-2875729.8,-488.07355,0.014885504,-0.00043165497,0.0020586706,-0.0012600891436083106,0.002448999675494148,1.7951981872663556
627024000,-107008.37,-2875729.8,-488.0736,0.015036305,-0.0006456212,0.0023115503,,,
627032000,-107008.37,-2875729.8,-488.07364,0.014989637,-0.0007771295,0.0018939978,,,
627048000,-107008.37,-2875729.8,-488.07373,0.015142866,-0.0017632148,0.001885775,-0.0010794375409266463,0.0023255001293461105,1.7952680874869755
627056000,-107008.37,-2875729.8,-488.0738,0.0154528385,-0.0023774146,0.0020840599,-0.001033727719966086,0.0024161627741709005,1.795211853896583
627064000,-107008.37,-2875729.8,-488.07382,0.015077677,-0.002982916,0.0022338573,,,
627072000,-107008.37,-2875729.8,-488.07385,0.014583133,-0.002995086,0.0025732832,,,
627088000,-107008.37,-2875729.8,-488.0739,0.014003526,-0.0039065364,0.0030835327,-0.0010112048695423985,0.0025029387847281146,1.7950351111218523
627096000,-107008.37,-2875729.8,-488.07394,0.013891228,-0.004108099,0.0034873902,-0.0010605971736247016,0.002593598675142812,1.79498798179624
627104000,-107008.37,-2875729.8,-488.07397,0.014110962,-0.003254997,0.0039089536,,,
627112000,-107008.37,-2875729.8,-488.074,0.01346968,-0.0032983047,0.0038910015,,,
627128000,-107008.37,-2875729.8,-488.074,0.014433951,-0.0035186464,0.0043975245,-0.0010159582693104272,0.0025592667514641016,1.7951595149206607
627136000,-107008.37,-2875729.8,-488.074,0.014873338,-0.0028845065,0.0052200053,-0.0011283171813608343,0.0025988448328861324,1.7951458350165521
627144000,-107008.37,-2875729.8,-488.074,0.014727254,-0.002103841,0.0047054836,,,
627152000,-107008.37,-2875729.8,-488.074,0.014323294,-0.0024037978,0.005002508,,,
627168000,-107008.37,-2875729.8,-488.07397,0.01445095,-0.00320692,0.004991312,-0.0011560110577186994,0.0026230665201373384,1.795263551760417
627176000,-107008.37,-2875729.8,-488.07397,0.014939168,-0.0021851873,0.0048471307,-0.001247462637956732,0.002616745146467479,1.7952007238974252
627184000,-107008.37,-2875729.8,-488.07394,0.015391711,-0.0018333433,0.0045466633,,,
627192000,-107008.37,-2875729.8,-488.07394,0.014746964,-0.0019678932,0.0049973405,,,
627208000,-107008.37,-2875729.8,-488.07394,0.013709615,-0.0026057542,0.0051941783,-0.0013027349963698244,0.0025451420344643288,1.7954424294618485
627216000,-107008.37,-2875729.8,-488.07413,0.013628336,-0.00359317,0.0049762614,-0.0013358073222124573,0.002473895400316249,1.795438717314044
627224000,-107008.37,-2875729.8,-488.07428,0.014118699,-0.0038114476,0.005401086,,,
627232000,-107008.37,-2875729.8,-488.07443,0.01480874,-0.0038219697,0.0055211014,,,
627248000,-107008.37,-2875729.8,-488.07474,0.015367155,-0.0034246107,0.005126966,-0.0013141918868805026,0.0023473192141777286,1.7956594878667012
627256000,-107008.37,-2875729.8,-488.07486,0.015178517,-0.003324387,0.005025036,-0.001346589528646948,0.0023329381572649095,1.795755728411372
627264000,-107008.37,-2875729.8,-488.075,0.015753157,-0.0030416297,0.0047628735,,,
627272000,-107008.37,-2875729.8,-488.07513,0.015447844,-0.0037529124,0.004051689,,,
627288000,-107008.37,-2875729.8,-488.0754,0.01652804,-0.0029128764,0.003355349,-0.001241274052376144,0.002379385205635593,1.7956455622990146
627296000,-107008.37,-2875729.8,-488.07556,0.016206456,-0.0027964136,0.0028288092,-0.0012293520405029876,0.002382004324968254,1.7956432347262283
627304000,-107008.37,-2875729.8,-488.07568,0.015859889,-0.0024400307,0.002963923,,,
627312000,-107008.37,-2875729.8,-488.0758,0.015513184,-0.002390648,0.0021576467,,,
627328000,-107008.37,-2875729.8,-488.07605,0.016195025,-0.002781787,0.002343089,-0.0012682372008209035,0.002373343000541643,1.795621718815763
627336000,-107008.37,-2875729.8,-488.07617,0.0161666,-0.0025022847,0.0016651023,-0.0012927678491997155,0.0023311881973886142,1.795572298615225
627344000,-107008.375,-2875729.8,-488.0763,0.016488882,-0.0016915067,0.0012415848,,,
627352000,-107008.375,-2875729.8,-488.07642,0.016158527,-0.0014361227,0.0008813381,,,
627368000,-107008.375,-2875729.8,-488.07666,0.017505419,-0.00023910255,-0.0006283608,-0.0015051073311369797,0.002380981497050195,1.7953607719433446
627376000,-107008.375,-2875729.8,-488.07678,0.017577792,0.00037271995,-0.000688429,-0.0015614653177077752,0.002364548962455166,1.7954011275640265
627384000,-107008.375,-2875729.8,-488.0769,0.016839314,0.0010354212,-0.0004523523,,,
627392000,-107008.375,-2875729.8,-488.07703,0.016422227,0.0012369319,-0.00046274488,,,
627408000,-107008.375,-2875729.8,-488.07727,0.016838897,0.0012808484,-0.0019714998,-0.0014281776650483117,0.002441297381946378,1.7952317926346446
627416000,-107008.375,-2875729.8,-488.0774,0.016180528,0.00093681255,-0.002314574,-0.0014529076688360515,0.002514428314655185,1.7952460302671298
627424000,-107008.375,-2875729.8,-488.0775,0.016221352,0.0009352877,-0.0029098974,,,
627432000,-107008.375,-2875729.8,-488.07764,0.016063273,0.00079269696,-0.0027238969,,,
627448000,-107008.375,-2875729.8,-488.07788,0.015242999,0.0007372863,-0.0023795876,-0.0015238177830599591,0.0026227747823373048,1.7952051465885785
627456000,-107008.375,-2875729.8,-488.07797,0.014666238,0.00048410377,-0.0029866728,-0.0015711974191293281,0.0025681825646019646,1.7952053790297835
627464000,-107008.375,-2875729.8,-488.0781,0.014609973,0.0005079558,-0.0029747968,,,
627472000,-107008.375,-2875729.8,-488.07822,0.0154278455,0.00023180233,-0.0035486494,,,
627488000,-107008.375,-2875729.8,-488.07843,0.016414462,-0.0007671045,-0.00441692,-0.0014720010129894818,0.0025729898347844945,1.795396127039995
627496000,-107008.375,-2875729.8,-488.07855,0.016198292,-0.0017730823,-0.004677821,-0.001401432888901025,0.002731533858247643,1.7953701651004863
627504000,-107008.375,-2875729.8,-488.07864,0.01668745,-0.0018548197,-0.004440806,,,
627512000,-107008.375,-2875729.8,-488.07877,0.01756141,-0.0011274272,-0.0040654615,,,
627528000,-107008.375,-2875729.8,-488.07898,0.017743636,-0.00062309316,-0.005023061,-0.0013131615594015047,0.0025495886485240216,1.7949871916795197
627536000,-107008.375,-2875729.8,-488.07907,0.018238904,-0.00037034354,-0.004698117,-0.0012289471430942237,0.002497332670969211,1.7949628700259384
627544000,-107008.375,-2875729.8,-488.0792,0.01819701,-0.0005744223,-0.0043821265,,,
627552000,-107008.375,-2875729.8,-488.07928,0.018136125,-0.00071367837,-0.0048366953,,,
627568000,-107008.37,-2875729.8,-488.07947,0.020070663,-0.00040952503,-0.0045353277,-0.0011047225365243278,0.0024465800921966213,1.7951919682122608
627576000,-107008.37,-2875729.8,-488.07956,0.020679712,-0.00031514335,-0.004188042,-0.001095046914998691,0.002504256377469886,1.7952564395735893
627584000,-107008.37,-2875729.8,-488.07965,0.021094656,-0.0009024349,-0.0042125294,,,
627592000,-107008.37,-2875729.8,-488.07974,0.021494182,-0.0009874172,-0.0042951675,,,
627608000,-107008.37,-2875729.8,-488.07993,0.021196323,-0.002215388,-0.0050569065,-0.0009410663114653091,0.002578317250412949,1.7952985151477088
627616000,-107008.37,-2875729.8,-488.08008,0.021460498,-0.0017280802,-0.0061622746,-0.0009273648992145268,0.002514601075538941,1.7953286673658495
627624000,-107008.37,-2875729.8,-488.08026,0.021418218,-0.0017837283,-0.005891712,,,
627632000,-107008.37,-2875729.8,-488.08044,0.021610752,-0.0020878369,-0.005600651,,,
627648000,-107008.37,-2875729.8,-488.08078,0.02175504,-0.002178782,-0.0055489545,-0.0009835496724364188,0.0025741835614477393,1.7953568173446455
627656000,-107008.37,-2875729.8,-488.08093,0.021658802,-0.0023944476,-0.006127456,-0.0009752586176597162,0.002649677292541071,1.7954736707074483
627664000,-107008.37,-2875729.8,-488.0811,0.021111587,-0.0025155556,-0.005762743,,,
627672000,-107008.37,-2875729.8,-488.08124,0.020430284,-0.0032368049,-0.006157454,,,
627688000,-107008.37,-2875729.8,-488.08154,0.019983977,-0.0041546286,-0.004947615,-0.0009779063025419565,0.002431767129751242,1.7957756041438326
627696000,-107008.37,-2875729.8,-488.08167,0.019355817,-0.0045417747,-0.00462732,-0.0010402089784910288,0.002387945481399332,1.7958219064715424
627704000,-107008.37,-2875729.8,-488.0818,0.018761745,-0.0044090343,-0.004700026,,,
627712000,-107008.37,-2875729.8,-488.08194,0.018203797,-0.0048295585,-0.004981538,,,
627728000,-107008.37,-2875729.8,-488.08218,0.017615618,-0.004850707,-0.004973658,-0.0008736664186345465,0.0025256810553942704,1.795747118802262
627736000,-107008.37,-2875729.8,-488.0823,0.017663145,-0.0047438806,-0.0050284048,-0.0008084971659579657,0.00251801275376143,1.7956733902619124
627744000,-107008.37,-2875729.8,-488.08243,0.017922383,-0.0055569457,-0.0047401846,,,
627752000,-107008.37,-2875729.8,-488.08252,0.017730033,-0.005919062,-0.005425088,,,
627768000,-107008.37,-2875729.8,-488.08276,0.017827988,-0.006716218,-0.0057101413,-0.0010036049017135846,0.0025034517122430816,1.7954749357758175
627776000,-107008.37,-2875729.8,-488.0829,0.017848842,-0.0065500513,-0.0051157493,-0.0009722647564409209,0.0025119027926878757,1.7955202951904345
627784000,-107008.37,-2875729.8,-488.08298,0.018672675,-0.0062618405,-0.0046013626,,,
627792000,-107008.37,-2875729.8,-488.0831,0.018563254,-0.0067211115,-0.0047421665,,,
627808000,-107008.37,-2875729.8,-488.08328,0.018158615,-0.007225177,-0.005679482,-0.0007689251524868505,0.002616843866998388,1.7955837738437377
627816000,-107008.37,-2875729.8,-488.0834,0.018286422,-0.007096405,-0.006006634,-0.0007165379832602825,0.0026358869181899777,1.7956347181025707
627824000,-107008.37,-2875729.8,-488.0835,0.018559782,-0.0068390463,-0.0063106474,,,
627832000,-107008.37,-2875729.8,-488.08362,0.01925184,-0.0057984036,-0.0067159915,,,
627848000,-107008.37,-2875729.8,-488.08383,0.018912716,-0.0058510248,-0.006722931,-0.0007740121524159744,0.002489242712279257,1.7957740668792999
627856000,-107008.37,-2875729.8,-488.08395,0.018845746,-0.0063235494,-0.0073973993,-0.0007859285864603968,0.002431491224622824,1.7957778288113015
627864000,-107008.37,-2875729.8,-488.08408,0.019046955,-0.0057257297,-0.007594602,,,
627872000,-107008.37,-2875729.8,-488.08417,0.019422919,-0.0054718577,-0.008058598,,,
627888000,-107008.37,-2875729.8,-488.0844,0.019642495,-0.004888319,-0.0067164674,-0.0006365365752024835,0.0022772106931408763,1.7959965306791177
627896000,-107008.37,-2875729.8,-488.0845,0.019284008,-0.00510941,-0.0062501486,-0.0005677732994464198,0.0022406901821797284,1.795989999432059
627904000,-107008.37,-2875729.8,-488.0846,0.018348688,-0.0063182064,-0.0065242,,,
627912000,-107008.37,-2875729.8,-488.0847,0.018146846,-0.0068781725,-0.0069469074,,,
627928000,-107008.37,-2875729.8,-488.08487,0.01773028,-0.0061006956,-0.0075942557,-0.0005940836036344899,0.002299950855997687,1.7957591949106262
627936000,-107008.37,-2875729.8,-488.08496,0.017614923,-0.0059641027,-0.007347024,-0.0006640583114078234,0.0024082323065449025,1.79574799872224
627944000,-107008.37,-2875729.8,-488.08505,0.01772668,-0.00620121,-0.0071319197,,,
627952000,-107008.37,-2875729.8,-488.08514,0.018073587,-0.00597385,-0.006299535,,,
627968000,-107008.37,-2875729.8,-488.0853,0.01803246,-0.0057941466,-0.00601336,-0.0008040818490273749,0.002329798194671312,1.795592599277812
627976000,-107008.37,-2875729.8,-488.0854,0.01844299,-0.0053370115,-0.005712069,-0.0007678129915234116,0.0022856529214197456,1.7955562778928713
627984000,-107008.37,-2875729.8,-488.08545,0.019061958,-0.005755582,-0.0047811684,,,
627992000,-107008.37,-2875729.8,-488.0855,0.019225974,-0.005999645,-0.0040329006,,,
628008000,-107008.37,-2875729.8,-488.08563,0.019434987,-0.005178966,-0.0040520267,-0.0008019970906200266,0.002737487592896182,1.795454548739438
628016000,-107008.37,-2875729.8,-488.0857,0.018824523,-0.004890943,-0.0039431276,-0.0008401217457691735,0.0027605036874798,1.7955566332211461
628024000,-107008.37,-2875729.8,-488.0858,0.01765082,-0.0049272724,-0.0037047563,,,
628032000,-107008.37,-2875729.8,-488.08585,0.017012255,-0.005349376,-0.0037277539,,,
628048000,-107008.37,-2875729.8,-488.086,0.016478721,-0.0042755464,-0.004830065,-0.0009467890346526138,0.0027236136287805655,1.7955796499670817
628056000,-107008.37,-2875729.8,-488.0861,0.016467704,-0.0041970043,-0.0052117556,-0.0009631203002875728,0.002675223328476118,1.7955934460572929
628064000,-107008.37,-2875729.8,-488.08618,0.016248971,-0.0044709346,-0.0060044895,,,
628072000,-107008.37,-2875729.8,-488.08627,0.016177695,-0.005032169,-0.00624067,,,
628088000,-107008.37,-2875729.8,-488.08646,0.016740493,-0.0058311103,-0.0064056586,-0.0007848976698107001,0.0026093462290135106,1.79559420638353
628096000,-107008.37,-2875729.8,-488.08652,0.016714223,-0.006582585,-0.0057834946,-0.0008195597815233575,0.0027504947257724886,1.795569951183143
628104000,-107008.37,-2875729.8,-488.0866,0.016768109,-0.0066224057,-0.0050861826,,,
628112000,-107008.37,-2875729.8,-488.08667,0.0173364,-0.0067516076,-0.0054507116,,,
628128000,-107008.37,-2875729.8,-488.08682,0.016839664,-0.006347215,-0.0058770017,-0.0010087585736024268,0.0027471286804403292,1.7953727251030762
628136000,-107008.37,-2875729.8,-488.08688,0.015971204,-0.0058927094,-0.0062255035,-0.0010574964661647117,0.002645301690920154,1.7952975854026687
628144000,-107008.37,-2875729.8,-488.08698,0.016369866,-0.0060532824,-0.0062255566,,,
628152000,-107008.37,-2875729.8,-488.08704,0.016904665,-0.0067598345,-0.0060037076,,,
628168000,-107008.37,-2875729.8,-488.0872,0.016875848,-0.0063209943,-0.0069589973,-0.0011649422676738232,0.0025533253596868874,1.7950942167399861
628176000,-107008.37,-2875729.8,-488.08728,0.016054036,-0.0060496423,-0.0068656304,-0.0010741106567269732,0.00252925734550364,1.7950463737511066
628184000,-107008.37,-2875729.8,-488.08734,0.015517936,-0.005699721,-0.007063841,,,
628192000,-107008.37,-2875729.8,-488.08743,0.01474781,-0.0052335053,-0.007822671,,,
628208000,-107008.37,-2875729.8,-488.0876,0.015206671,-0.003984889,-0.007422225,-0.0009620848793736583,0.002380248078444425,1.7951393406128426
628216000,-107008.37,-2875729.8,-488.08768,0.016190177,-0.003528345,-0.008125443,-0.0009461366830253919,0.0024052879216975923,1.7950806764832858
628224000,-107008.37,-2875729.8,-488.08774,0.016100667,-0.0033889085,-0.007953107,,,
628232000,-107008.37,-2875729.8,-488.08783,0.016556531,-0.0038577795,-0.0071417657,,,
628248000,-107008.37,-2875729.8,-488.08792,0.015977811,-0.0038640648,-0.004866889,-0.0010428055284567497,0.00229831102544036,1.7952457049645956
628256000,-107008.37,-2875729.8,-488.08798,0.015325223,-0.0038783534,-0.005216636,-0.001108898964209766,0.0023193158979424476,1.795298176557304
628264000,-107008.37,-2875729.8,-488.08804,0.015057712,-0.0036260313,-0.005393864,,,
628272000,-107008.37,-2875729.8,-488.0881,0.014381775,-0.003994146,-0.005718817,,,
628288000,-107008.37,-2875729.8,-488.0882,0.013535816,-0.003564165,-0.006719367,-0.0010756091557392732,0.002207535249349198,1.7954802981712135
628296000,-107008.37,-2875729.8,-488.08826,0.013616274,-0.0036442482,-0.0074216872,-0.0010503058413870404,0.002297927319526376,1.7955571445083243
628304000,-107008.37,-2875729.8,-488.08832,0.013999058,-0.003405994,-0.007290991,,,
628312000,-107008.37,-2875729.8,-488.08838,0.014763146,-0.0033639874,-0.0069151283,,,
628328000,-107008.37,-2875729.8,-488.0885,0.015584775,-0.003655749,-0.006199274,-0.0007230344917023354,0.002301590686561199,1.7957141575494948
628336000,-107008.37,-2875729.8,-488.0886,0.01591119,-0.003927856,-0.005782362,-0.0007897493622732484,0.002249284681386944,1.7957257821262358
628344000,-107008.37,-2875729.8,-488.08865,0.015483476,-0.0031496137,-0.005545578,,,
628352000,-107008.37,-2875729.8,-488.0887,0.014404817,-0.0040022237,-0.005890573,,,
628368000,-107008.37,-2875729.8,-488.08884,0.013881858,-0.004068531,-0.0056521646,-0.000956468623094245,0.0022961685122041054,1.795984311786794
628376000,-107008.37,-2875729.8,-488.0889,0.013627585,-0.004343085,-0.005647177,-0.0009509691353503253,0.0021534364550215277,1.7959986488888258
628384000,-107008.37,-2875729.8,-488.08896,0.013589248,-0.004531957,-0.005953167,,,
628392000,-107008.37,-2875729.8,-488.08902,0.014073421,-0.0045940927,-0.0059042326,,,
628408000,-107008.37,-2875729.8,-488.0891,0.015213529,-0.00466117,-0.005954373,-0.0008024845295345817,0.0023092652706325277,1.7961078357340663
628416000,-107008.37,-2875729.8,-488.08923,0.0152394045,-0.004389626,-0.0057114116,-0.0007918399795475801,0.002230552477790225,1.796127797465926
628424000,-107008.37,-2875729.8,-488.08932,0.015248803,-0.004830055,-0.005600709,,,
628432000,-107008.37,-2875729.8,-488.08945,0.015484033,-0.004314856,-0.006037113,,,
628448000,-107008.37,-2875729.8,-488.08963,0.01547353,-0.0028135597,-0.0045112376,-0.000601695367751572,0.0022029535968028538,1.7961995239789248
628456000,-107008.37,-2875729.8,-488.08972,0.015817292,-0.0026525056,-0.0038491776,-0.0005246834694713921,0.002256808157070743,1.796212466665889
628464000,-107008.37,-2875729.8,-488.0898,0.01583493,-0.0031924665,-0.0040092343,,,
628472000,-107008.37,-2875729.8,-488.08987,0.015969826,-0.0030144958,-0.004424176,,,
628488000,-107008.37,-2875729.8,-488.09006,0.015370988,-0.0033684648,-0.00486439,-0.0004268977901251607,0.002556500015874513,1.7961956496069975
628496000,-107008.37,-2875729.8,-488.09012,0.01503729,-0.0028698458,-0.0052604885,-0.000501329376701105,0.0025837787770129576,1.7961840649729202
628504000,-107008.37,-2875729.8,-488.0902,0.014858427,-0.0028392314,-0.005597519,,,
628512000,-107008.37,-2875729.8,-488.0903,0.014480022,-0.003126533,-0.004463653,,,
628528000,-107008.37,-2875729.8,-488.09045,0.014192911,-0.0037649297,-0.0040809903,-0.0005171992776883211,0.0027474884051423214,1.7964436709682026
628536000,-107008.375,-2875729.8,-488.0905,0.014076814,-0.0044617755,-0.0034045936,-0.0004640967032966258,0.0027598703857166164,1.7963567007015537
628544000,-107008.375,-2875729.8,-488.09058,0.013907064,-0.004265527,-0.0031756072,,,
628552000,-107008.375,-2875729.8,-488.09064,0.013365946,-0.004517725,-0.0032711863,,,
628568000,-107008.375,-2875729.8,-488.09076,0.012582784,-0.0045560854,-0.004041745,-0.00025187538257059124,0.00255079052421474,1.7963789766026206
628576000,-107008.375,-2875729.8,-488.09082,0.012701736,-0.0045250985,-0.0036817656,-0.0001974344866070231,0.002503606545106331,1.7964161646597163
628584000,-107008.375,-2875729.8,-488.09085,0.012889434,-0.004202398,-0.0037339814,,,
628592000,-107008.375,-2875729.8,-488.0909,0.01291415,-0.003991131,-0.003474571,,,
628608000,-107008.375,-2875729.8,-488.091,0.012352918,-0.0032937143,-0.0033868235,6.688274540286189e-05,0.002213866395682222,1.7961981659144304
628616000,-107008.375,-2875729.8,-488.09106,0.012155866,-0.0033734173,-0.004888324,0.00017841997688732822,0.002262667588009282,1.796158636991509
628624000,-107008.375,-2875729.8,-488.09113,0.012237204,-0.0038154148,-0.0052538514,,,
628632000,-107008.375,-2875729.8,-488.0912,0.011674429,-0.004153331,-0.0045230184,,,
628648000,-107008.375,-2875729.8,-488.0913,0.010862326,-0.0052318885,-0.004003102,0.00020548983203628384,0.002428272564302946,1.7960175055142122
628656000,-107008.375,-2875729.8,-488.09134,0.011067185,-0.005635589,-0.004683901,0.00015633694387588192,0.0024760870418774994,1.7961403189965932
628664000,-107008.375,-2875729.8,-488.0914,0.0110948095,-0.006493272,-0.004233434,,,
628672000,-107008.375,-2875729.8,-488.09146,0.011590899,-0.0063862093,-0.0036221512,,,
628688000,-107008.375,-2875729.8,-488.09152,0.011796283,-0.0059246426,-0.00332906,0.00025020562917428595,0.0025461632329762535,1.7962338071770987
628696000,-107008.375,-2875729.8,-488.09158,0.0121034,-0.005720697,-0.0035987578,0.00025077365782465427,0.0026026020336891763,1.796299029119986
628704000,-107008.375,-2875729.8,-488.0916,0.0119471755,-0.006478282,-0.0033966938,,,
628712000,-107008.375,-2875729.8,-488.09164,0.011450137,-0.0069250274,-0.003248098,,,
628728000,-107008.375,-2875729.8,-488.09174,0.010420532,-0.0069409735,-0.0044324654,8.218305333193149e-05,0.0024110537564759013,1.7961372143316312
628736000,-107008.375,-2875729.8,-488.0918,0.010039914,-0.0070053805,-0.004456832,-9.443624473872323e-05,0.002309941412625059,1.796143741942946
628744000,-107008.375,-2875729.8,-488.09183,0.010016263,-0.0068224585,-0.003945068,,,
628752000,-107008.375,-2875729.8,-488.09186,0.010355987,-0.0063728173,-0.004582669,,,
628768000,-107008.375,-2875729.8,-488.09195,0.01078058,-0.006423809,-0.00377767,-6.53765753903309e-05,0.0018928633897435285,1.7960893639520334
628776000,-107008.375,-2875729.8,-488.09198,0.010496396,-0.0067718346,-0.0037337446,1.9953682744465422e-05,0.0019612096715337715,1.796136871729893
628784000,-107008.375,-2875729.8,-488.09204,0.009637792,-0.0062994855,-0.0031360819,,,
628792000,-107008.375,-2875729.8,-488.09204,0.009081668,-0.0061485707,-0.0027243034,,,
628808000,-107008.375,-2875729.8,-488.0921,0.008043027,-0.006451204,-0.0024594371,4.072693876149343e-05,0.002056810126781883,1.796513728882272
628816000,-107008.375,-2875729.8,-488.0921,0.008070114,-0.0054871,-0.0020948818,0.00010767734709188557,0.002009109548579266,1.796499169099337
628824000,-107008.375,-2875729.8,-488.09207,0.008066892,-0.00531606,-0.0018250297,,,
628832000,-107008.375,-2875729.8,-488.09207,0.007931094,-0.0053728013,-0.0017187474,,,
628848000,-107008.375,-2875729.8,-488.09204,0.008166773,-0.0061263638,-0.0022961397,0.00023667003745793212,0.002132529379367692,1.79643583672478
628856000,-107008.375,-2875729.8,-488.09204,0.008594828,-0.0057284986,-0.0024266585,0.00023651271013362034,0.0021490117312312385,1.7964883883509675
628864000,-107008.375,-2875729.8,-488.09204,0.008570969,-0.005285065,-0.0028978265,,,
628872000,-107008.375,-2875729.8,-488.09204,0.008425969,-0.0056892075,-0.0025678982,,,
628888000,-107008.375,-2875729.8,-488.092,0.008846905,-0.0060165473,-0.0012589184,0.00029290000985292047,0.0021639259656195194,1.796548798889096
628896000,-107008.375,-2875729.8,-488.092,0.008699249,-0.0061854883,-0.0007487087,0.0003405373590007628,0.0022006909431231307,1.796576922279609
628904000,-107008.375,-2875729.8,-488.09198,0.00803676,-0.0058577578,-0.0004172378,,,
628912000,-107008.375,-2875729.8,-488.09195,0.007946859,-0.0052281367,-0.0002686488,,,
628928000,-107008.375,-2875729.8,-488.09192,0.0076465,-0.0044903797,-0.0005890957,0.00015216324254380177,0.002245639475623777,1.7964125913660292
628936000,-107008.375,-2875729.8,-488.09192,0.007975694,-0.0038890254,-0.00020662519,7.180293368251256e-05,0.0022078742515924997,1.7963957668480242
628944000,-107008.375,-2875729.8,-488.0919,0.007781642,-0.0042542256,-5.2450305e-05,,,
628952000,-107008.375,-2875729.8,-488.09186,0.0070194816,-0.0047569503,-0.0007844414,,,
628968000,-107008.375,-2875729.8,-488.09183,0.0064057335,-0.004789214,-0.00031166803,-0.00014081690744904008,0.0022347434398213733,1.7964504898614255
628976000,-107008.375,-2875729.8,-488.09183,0.0060465573,-0.004531292,-0.00026212147,-0.0001677811404506902,0.002208721524370652,1.7965154127145786
628984000,-107008.375,-2875729.8,-488.09183,0.0067610345,-0.0047561685,-0.0002781096,,,
628992000,-107008.375,-2875729.8,-488.0918,0.006533411,-0.005545442,-0.0006050334,,,
629008000,-107008.375,-2875729.8,-488.0918,0.006601896,-0.0056549376,-0.00055845815,2.312934515907639e-05,0.002378634557516237,1.796667296314488
629016000,-107008.375,-2875729.8,-488.09177,0.0071558272,-0.0060669184,-4.3661345e-05,0.00020967261016476235,0.002354871329808016,1.7965400866944077
629024000,-107008.375,-2875729.8,-488.09177,0.007366956,-0.0061980705,0.00041745973,,,
629032000,-107008.375,-2875729.8,-488.09174,0.0072479183,-0.006426099,8.3622115e-05,,,
629048000,-107008.375,-2875729.8,-488.0917,0.007194245,-0.0075407233,0.00017824523,0.00029374478459650693,0.0022610990039504584,1.7963696624629983
629056000,-107008.375,-2875729.8,-488.09167,0.0073849712,-0.0070360447,0.0010249871,0.00029941295200729774,0.002271514942373891,1.7964052467101592
629064000,-107008.375,-2875729.8,-488.09164,0.0070600105,-0.006504522,0.0012105742,,,
629072000,-107008.375,-2875729.8,-488.0916,0.00704592,-0.0060834875,0.0021049534,,,
629088000,-107008.375,-2875729.8,-488.09155,0.0063827178,-0.0057876403,0.0039039014,0.0006147679556716496,0.0025519742390598013,1.7965513266075075
629096000,-107008.375,-2875729.8,-488.0915,0.0055772876,-0.006692624,0.004691044,0.0006649030478550892,0.002597675087783969,1.7965311554628638
629104000,-107008.375,-2875729.8,-488.09143,0.0049633957,-0.0073444024,0.005218787,,,
629112000,-107008.375,-2875729.8,-488.09137,0.0049213637,-0.0069963704,0.0050828056,,,
629128000,-107008.375,-2875729.8,-488.09128,0.005929079,-0.006188138,0.0053396975,0.0010805534173368315,0.002681558440182635,1.796526759336753
629136000,-107008.375,-2875729.8,-488.09122,0.00606632,-0.0064920434,0.00511811,0.0011508259838068308,0.002799798201408757,1.7965199099720064
629144000,-107008.375,-2875729.8,-488.0912,0.00464548,-0.007348724,0.0050951843,,,
629152000,-107008.375,-2875729.8,-488.09113,0.003986708,-0.00729555,0.004594871,,,
629168000,-107008.375,-2875729.8,-488.09103,0.0036331844,-0.008895605,0.005394518,0.001099898246813543,0.0030202804417272136,1.7966923308201128
629176000,-107008.375,-2875729.8,-488.09097,0.0030923563,-0.009191943,0.005584485,0.0011362264952850295,0.0029744703411382664,1.796773247830273
629184000,-107008.375,-2875729.8,-488.0909,0.0026564735,-0.009137667,0.0053757816,,,
629192000,-107008.375,-2875729.8,-488.09088,0.0031451257,-0.00873481,0.005644245,,,
629208000,-107008.375,-2875729.8,-488.09076,0.004608773,-0.008724571,0.005977214,0.001290515176550637,0.003088749268528798,1.7969625255868913
629216000,-107008.375,-2875729.8,-488.0908,0.0046339766,-0.009139146,0.0057883053,0.0013086100105038493,0.0031335679873589744,1.7970319248534454
629224000,-107008.375,-2875729.8,-488.09082,0.0048317257,-0.0095632775,0.0056238454,,,
629232000,-107008.375,-2875729.8,-488.09085,0.0050614844,-0.009740846,0.005258042,,,
629248000,-107008.375,-2875729.8,-488.0909,0.0036316921,-0.009454673,0.004972399,0.0013375340740787113,0.0031162141034348756,1.797222417914784
629256000,-107008.375,-2875729.8,-488.09094,0.0030508116,-0.009232772,0.0043967282,0.0013855740630475907,0.0031155905799443257,1.7973014226160708
629264000,-107008.375,-2875729.8,-488.09097,0.0025275818,-0.009428821,0.003928277,,,
629272000,-107008.375,-2875729.8,-488.091,0.0026266081,-0.009454376,0.003813772,,,
629288000,-107008.375,-2875729.8,-488.09103,0.0022411768,-0.010488418,0.0049784817,0.0012812924953743302,0.003181925290499377,1.7972218236984565
629296000,-107008.375,-2875729.8,-488.09106,0.0023834982,-0.010908062,0.004766126,0.0013268854895106944,0.0030845303571682904,1.797219040546253
629304000,-107008.375,-2875729.8,-488.0911,0.0027996923,-0.011920517,0.0042447294,,,
629312000,-107008.375,-2875729.8,-488.0911,0.0030447156,-0.012269635,0.004526185,,,
629328000,-107008.375,-2875729.8,-488.09113,0.0032440624,-0.012371789,0.0038962695,0.0013689613513024528,0.0030804732639277545,1.7973449457990371
629336000,-107008.375,-2875729.8,-488.09116,0.0028143649,-0.012019733,0.0031523216,0.0013997017672626802,0.003151382879190051,1.7973781398664008
629344000,-107008.375,-2875729.8,-488.0912,0.0025490744,-0.011266129,0.0033505836,,,
629352000,-107008.375,-2875729.8,-488.09122,0.0019235032,-0.010932902,0.0033210835,,,
629368000,-107008.375,-2875729.8,-488.09125,0.0016628536,-0.010040887,0.0039752563,0.0014770969794026363,0.0031217541027166885,1.797605356462365
629376000,-107008.375,-2875729.8,-488.09125,0.0013380031,-0.010448647,0.0033075502,0.001517493732667469,0.003227797353833698,1.7976687558905278
629384000,-107008.375,-2875729.8,-488.09128,0.0009812191,-0.0105898855,0.0024812238,,,
629392000,-107008.375,-2875729.8,-488.0913,0.0011218339,-0.010231114,0.0022372755,,,
629408000,-107008.375,-2875729.8,-488.09137,-0.00019889341,-0.010109089,0.0011358795,0.0014425276820273073,0.003412253325844149,1.7979154111550821
629416000,-107008.375,-2875729.8,-488.0914,-0.00051023276,-0.009861159,0.0008504627,0.0013892066309522904,0.0033574036999203306,1.7979935625220194
629424000,-107008.375,-2875729.8,-488.09143,-0.00078796846,-0.009671896,0.00038360944,,,
629432000,-107008.375,-2875729.8,-488.09146,-0.000978778,-0.010346876,-0.00039606472,,,
629448000,-107008.375,-2875729.8,-488.09155,-0.00079188123,-0.009926183,-0.00032314833,0.0013895760663663948,0.003054401929949119,1.7978698593487314
629456000,-107008.375,-2875729.8,-488.09158,-0.00020286365,-0.009825732,-0.0011146812,0.0013784672280749352,0.0030912901614734887,1.797836397261421
629464000,-107008.375,-2875729.8,-488.09164,0.0005095664,-0.0100812465,-0.002268788,,,
629472000,-107008.375,-2875729.8,-488.09167,0.00036869073,-0.010487584,-0.0025357408,,,
629488000,-107008.375,-2875729.8,-488.09177,-0.0011175885,-0.011259797,-0.002551143,0.0013734498443759547,0.0031253478612328534,1.7980718118510277
629496000,-107008.375,-2875729.8,-488.09183,-0.0011918094,-0.01152797,-0.0025258104,0.001277322204247069,0.0031141633211747735,1.798116358097606
629504000,-107008.375,-2875729.8,-488.0919,-0.0013616511,-0.01128172,-0.0028371334,,,
629512000,-107008.375,-2875729.8,-488.09192,-0.0011496654,-0.011686113,-0.0031127012,,,
629528000,-107008.375,-2875729.8,-488.09204,-0.0008610116,-0.01110432,-0.0034235525,0.001193737103999177,0.00306637786301934,1.79813333482564
629536000,-107008.375,-2875729.8,-488.09207,-0.00021962903,-0.010526075,-0.003065088,0.0012435621633442933,0.002994424947489361,1.7981889873976795
629544000,-107008.375,-2875729.8,-488.09213,0.00024404225,-0.01025013,-0.0027820105,,,
629552000,-107008.375,-2875729.8,-488.0922,0.00021364816,-0.010953745,-0.0034074243,,,
629568000,-107008.375,-2875729.8,-488.09232,0.00072764297,-0.011112506,-0.003546114,0.0012390691868033987,0.002925487217186871,1.7979566732194543
629576000,-107008.375,-2875729.8,-488.09238,0.00047364086,-0.010600442,-0.004040471,0.0012478981062875223,0.0030028369236332793,1.797843482828928
629584000,-107008.375,-2875729.8,-488.09244,0.00018761461,-0.009932574,-0.0037498598,,,
629592000,-107008.375,-2875729.8,-488.0925,0.000121981575,-0.009659316,-0.0035392495,,,
629608000,-107008.375,-2875729.8,-488.0926,0.00070524344,-0.008958088,-0.002840554,0.0013726492023850036,0.002887767562253318,1.797741648754038
629616000,-107008.375,-2875729.8,-488.0927,0.001022583,-0.008652727,-0.0037717565,0.001408365029193655,0.0030011915020602396,1.7977176936962986
629624000,-107008.375,-2875729.8,-488.0928,0.0010376606,-0.009732563,-0.003639561,,,
629632000,-107008.375,-2875729.8,-488.0929,0.0005596391,-0.009866174,-0.0041370676,,,
629648000,-107008.375,-2875729.8,-488.0931,-0.0003524974,-0.009111982,-0.004535838,0.0014975522351888327,0.0030780886011698085,1.7979360019347517
629656000,-107008.375,-2875729.8,-488.0932,-0.00041580322,-0.009220404,-0.004367021,0.001492511526420118,0.003024273971165921,1.7980229722446033
629664000,-107008.375,-2875729.8,-488.09332,-0.0007015503,-0.010135122,-0.003697097,,,
629672000,-107008.375,-2875729.8,-488.0934,-0.0012068005,-0.010822377,-0.0044543757,,,
629688000,-107008.375,-2875729.8,-488.0936,-0.0023400912,-0.009998802,-0.0049262512,0.0014509211132405389,0.0029187474397703267,1.7983396517362353
629696000,-107008.375,-2875729.8,-488.0937,-0.0024697063,-0.009404943,-0.0047627436,0.0014202908080062243,0.0028926085972151953,1.798424062060853
629704000,-107008.375,-2875729.8,-488.09378,-0.0022433493,-0.009038849,-0.0054460093,,,
629712000,-107008.375,-2875729.8,-488.09387,-0.0019785066,-0.008723132,-0.005314853,,,
629728000,-107008.375,-2875729.8,-488.0941,-0.0035666698,-0.008042007,-0.005950778,0.0015112515729998914,0.003071201671008583,1.7988889634009306
629736000,-107008.375,-2875729.8,-488.09418,-0.003312004,-0.008014942,-0.006172283,0.0016348376605582313,0.002979113936069412,1.7988883910892477
629744000,-107008.375,-2875729.8,-488.09427,-0.004269942,-0.008434769,-0.006769253,,,
629752000,-107008.375,-2875729.8,-488.09436,-0.0052677444,-0.0081071,-0.0067172693,,,
629768000,-107008.375,-2875729.8,-488.09457,-0.004705688,-0.007554439,-0.007457297,0.0016193962649902677,0.003215534100191475,1.7990397406049174
629776000,-107008.375,-2875729.8,-488.09467,-0.004823734,-0.0077289646,-0.007944742,0.0015204584380275634,0.003167047337404551,1.7990728809862744
629784000,-107008.375,-2875729.8,-488.0948,-0.0047124117,-0.007660448,-0.007954145,,,
629792000,-107008.375,-2875729.8,-488.09488,-0.004968088,-0.0076974737,-0.007795117,,,
629808000,-107008.375,-2875729.8,-488.0951,-0.004426264,-0.008061936,-0.007897619,0.001596989551800483,0.003456833439292821,1.7992617537033413
629816000,-107008.375,-2875729.8,-488.09518,-0.0040593017,-0.008224818,-0.007404013,0.0016824122935473044,0.0034446705268828927,1.799289037198794
629824000,-107008.375,-2875729.8,-488.09528,-0.0038860287,-0.008869978,-0.006831636,,,
629832000,-107008.375,-2875729.8,-488.09537,-0.0047397646,-0.00913852,-0.00636968,,,
629848000,-107008.375,-2875729.8,-488.09555,-0.006320534,-0.009085992,-0.0059741363,0.001704492777599042,0.003454896043937831,1.7993419516326123
629856000,-107008.375,-2875729.8,-488.0956,-0.0065872273,-0.009152516,-0.0063364306,0.0016558975120280462,0.003453426873811879,1.7994048462470837
629864000,-107008.375,-2875729.8,-488.0957,-0.0065899272,-0.008932561,-0.0070206425,,,
629872000,-107008.375,-2875729.8,-488.0958,-0.006527777,-0.008905641,-0.0076082307,,,
629888000,-107008.375,-2875729.8,-488.09598,-0.0067922864,-0.009453583,-0.008531264,0.0016721373924408693,0.003340406501959002,1.799519421168163
629896000,-107008.375,-2875729.8,-488.0961,-0.0071195387,-0.009351046,-0.00823715,0.001673276788118954,0.0033040942672081988,1.7994598641435442
629904000,-107008.375,-2875729.8,-488.0962,-0.008026843,-0.009253217,-0.009091544,,,
629912000,-107008.375,-2875729.8,-488.09628,-0.009036058,-0.008427402,-0.009373618,,,
629928000,-107008.375,-2875729.8,-488.0965,-0.008276056,-0.008951838,-0.009381538,0.0018185467259306937,0.0031766618943679928,1.799521953980497
629936000,-107008.375,-2875729.8,-488.0966,-0.00880513,-0.00921342,-0.010033162,0.0018212630750521106,0.003198817705327352,1.7995936946490252
629944000,-107008.375,-2875729.8,-488.09668,-0.009098661,-0.009574746,-0.01082821,,,
629952000,-107008.375,-2875729.8,-488.09683,-0.009622168,-0.009334985,-0.01171845,,,
629968000,-107008.375,-2875729.8,-488.0971,-0.009727719,-0.009299016,-0.014225431,0.0016248787211461696,0.0031623858117443776,1.7996445756960622
629976000,-107008.375,-2875729.8,-488.09726,-0.009492471,-0.008855744,-0.015609538,0.001651848123093505,0.0029770985450805814,1.799613819461344
629984000,-107008.375,-2875729.8,-488.0974,-0.009500034,-0.008654922,-0.016604446,,,
629992000,-107008.375,-2875729.8,-488.09756,-0.009381074,-0.00780171,-0.018065399,,,
630008000,-107008.375,-2875729.8,-488.09796,-0.008506062,-0.008201369,-0.022193085,0.0014946836811912298,0.001542615617563948,1.7995078199473307
630016000,-107008.375,-2875729.8,-488.09805,-0.008045802,-0.007985115,-0.024638724,0.0014398339215273097,0.0010590429534798555,1.7995409140579455
630024000,-107008.375,-2875729.8,-488.0982,-0.008371224,-0.008321805,-0.028084483,,,
630032000,-107008.375,-2875729.8,-488.09836,-0.008552637,-0.00745381,-0.03197281,,,
630048000,-107008.375,-2875729.8,-488.0988,-0.008607477,-0.0063869306,-0.038779974,0.0009775187896059966,-0.0012081304477210221,1.7993555822637313
630056000,-107008.375,-2875729.8,-488.09906,-0.008813546,-0.0064598476,-0.04213481,0.0008731958989901098,-0.001766659423475915,1.799323573483187
630064000,-107008.375,-2875729.8,-488.09933,-0.009547737,-0.006283721,-0.04640897,,,
630072000,-107008.375,-2875729.8,-488.09967,-0.009754899,-0.005489072,-0.050434094,,,
630088000,-107008.375,-2875729.8,-488.10043,-0.010299897,-0.006591035,-0.060690764,-5.662465267708781e-05,-0.004087106061990864,1.7993623820335427
630096000,-107008.375,-2875729.8,-488.1009,-0.00971489,-0.0061944365,-0.06625326,-0.00025466898234548414,-0.0046722397697609745,1.7993567305216775
630104000,-107008.375,-2875729.8,-488.10138,-0.009085675,-0.00636063,-0.071082145,,,
630112000,-107008.375,-2875729.8,-488.1019,-0.008865751,-0.0060900683,-0.075444825,,,
630128000,-107008.375,-2875729.8,-488.1031,-0.008638159,-0.0042344076,-0.085413985,-0.0010283176859320184,-0.006697383486182506,1.7992622284345288
630136000,-107008.375,-2875729.8,-488.10373,-0.009922863,-0.00307396,-0.09112253,-0.001160594367482518,-0.007045939656490258,1.7993036701496694
630144000,-107008.375,-2875729.8,-488.10443,-0.010565644,-0.0022636973,-0.09704999,,,
630152000,-107008.375,-2875729.8,-488.1052,-0.010534677,-0.001073312,-0.103583366,,,
630168000,-107008.375,-2875729.8,-488.10684,-0.011452746,0.0013628952,-0.11527166,-0.0018045544421793484,-0.00871172018363467,1.7994252996223414
630176000,-107008.375,-2875729.8,-488.10776,-0.011838148,0.002175133,-0.12114896,-0.001833670889927927,-0.009072126467540865,1.7993588252184984
630184000,-107008.375,-2875729.8,-488.1087,-0.01206963,0.0021863915,-0.12767611,,,
630192000,-107008.375,-2875729.8,-488.1097,-0.01196759,0.0029053418,-0.13459459,,,
630208000,-107008.375,-2875729.8,-488.11188,-0.012144925,0.004551243,-0.14744951,-0.002136444470561663,-0.010293821989010828,1.799116441309161
630216000,-107008.375,-2875729.8,-488.11304,-0.012582406,0.0053598024,-0.15372221,-0.002270221620404442,-0.010438737048688163,1.7990926748412104
630224000,-107008.375,-2875729.8,-488.11426,-0.012557332,0.0057034334,-0.1606966,,,
630232000,-107008.375,-2875729.8,-488.11554,-0.012813859,0.006863709,-0.16773918,,,
630248000,-107008.375,-2875729.8,-488.11826,-0.013574542,0.008608345,-0.18067348,-0.0030575366814914393,-0.011240463848180761,1.7990993539367566
630256000,-107008.375,-2875729.8,-488.11972,-0.0145789925,0.009577611,-0.18718836,-0.003182850037963123,-0.011306306950212395,1.799089726788822
630264000,-107008.375,-2875729.8,-488.12122,-0.014995366,0.010561667,-0.1952452,,,
630272000,-107008.375,-2875729.8,-488.12277,-0.015141572,0.011059256,-0.20254189,,,
630288000,-107008.375,-2875729.8,-488.12607,-0.016212773,0.013077971,-0.21703845,-0.003457943361593168,-0.011382248154158836,1.7992233436981226
630296000,-107008.375,-2875729.8,-488.1278,-0.015389817,0.014235564,-0.22464888,-0.0034313909102998323,-0.011359297950945925,1.7992614359232768
630304000,-107008.375,-2875729.8,-488.1296,-0.01475579,0.015639013,-0.23220418,,,
630312000,-107008.375,-2875729.8,-488.13147,-0.014699245,0.016742513,-0.23922269,,,
630328000,-107008.375,-2875729.8,-488.13538,-0.016617658,0.019121855,-0.25388804,-0.003799565060703874,-0.010967204408912759,1.7995552869414755
630336000,-107008.375,-2875729.8,-488.1374,-0.017052313,0.020144425,-0.26112437,-0.0039060056365510737,-0.010868414998308585,1.7995884449898167
630344000,-107008.38,-2875729.8,-488.1395,-0.017880306,0.020968046,-0.26863205,,,
630352000,-107008.38,-2875729.8,-488.14166,-0.017614048,0.022387234,-0.27604544,,,
630368000,-107008.38,-2875729.8,-488.14615,-0.016550833,0.024361651,-0.29077652,-0.004276842524185611,-0.010521752251400207,1.7994817376012207
630376000,-107008.38,-2875729.8,-488.14847,-0.0168477,0.025890283,-0.29890406,-0.004293254634323388,-0.010349879418308741,1.7993689309153804
630384000,-107008.38,-2875729.8,-488.15088,-0.016227907,0.026500782,-0.30693483,,,
630392000,-107008.38,-2875729.8,-488.15335,-0.016462795,0.026924703,-0.31482586,,,
630408000,-107008.38,-2875729.8,-488.15845,-0.016931407,0.029658826,-0.32917634,-0.004605303549098951,-0.009293765439996809,1.7995859074267617
630416000,-107008.38,-2875729.8,-488.1609,-0.016721651,0.030626541,-0.3367868,-0.0046019746326434316,-0.009068833175442447,1.7996334844432744
630424000,-107008.38,-2875729.8,-488.16336,-0.016305339,0.030677537,-0.34473825,,,
630432000,-107008.38,-2875729.8,-488.16592,-0.015746752,0.030601626,-0.35246283,,,
630448000,-107008.38,-2875729.8,-488.17126,-0.015680267,0.031628307,-0.36743593,-0.0050356021007784465,-0.008355382258927282,1.79960735384262
630456000,-107008.38,-2875729.8,-488.174,-0.015222714,0.03207504,-0.3749656,-0.005051089781204051,-0.00815386605894029,1.7996387176752147
630464000,-107008.38,-2875729.8,-488.17685,-0.015289838,0.03278951,-0.38196495,,,
630472000,-107008.38,-2875729.8,-488.17972,-0.015351443,0.033775486,-0.38856643,,,
630488000,-107008.38,-2875729.8,-488.1857,-0.0154715795,0.035840843,-0.40341723,-0.004978704020740192,-0.00681529347801616,1.7994797197641035
