timestamp,timestamp_sample,device_id,bias,bias_var,innov,innov_var,innov_test_ratio
2043264000,2043112000,6620172,-0.18826038,0.11958849,-0.012359992,12.451303,1.3632612e-06
2043336000,2043184000,6620172,-0.18824737,0.11963333,0.0013402104,12.452785,1.6026439e-08
2043408000,2043256000,6620172,-0.18755843,0.11967745,0.07099883,12.454288,4.497188e-05
2043480000,2043328000,6620172,-0.18779838,0.11972085,-0.024721846,12.4558115,5.4518923e-06
2043552000,2043400000,6620172,-0.18744826,0.11976355,0.036064982,12.457355,1.1601206e-05
2043624000,2043470666,6620172,-0.18724874,0.119805574,0.020547628,12.458919,3.7653083e-06
2043688000,2043532000,6620172,-0.18767573,0.11971355,-0.043982953,12.451949,1.7261913e-05
2043744000,2043592000,6620172,-0.18760158,0.11949081,0.007652536,12.4527235,5.225212e-07
2043816000,2043662666,6620172,-0.18772127,0.11953768,-0.012349591,12.454231,1.3606477e-06
2043888000,2043733333,6620172,-0.18725789,0.11958379,0.04779817,12.455759,2.0380267e-05
2043952000,2043796000,6620172,-0.18676507,0.11949654,0.05087483,12.456938,2.3086182e-05
2044008000,2043856000,6620172,-0.18678899,0.119278476,-0.0024744272,12.45776,5.4609337e-08
2044080000,2043928000,6620172,-0.18661867,0.119329184,0.017599538,12.451221,2.764064e-06
2044152000,2043998666,6620172,-0.18618703,0.11937905,0.044589862,12.452713,1.7740496e-05
2044224000,2044072000,6620172,-0.18650027,0.11942809,-0.032349348,12.454224,9.336238e-06
2044296000,2044144000,6620172,-0.18750136,0.119476326,-0.10335569,12.455755,9.529194e-05
2044368000,2044214666,6620172,-0.18772368,0.11952377,-0.022947863,12.457308,4.6969703e-06
2044440000,2044286666,6620172,-0.18736158,0.11957044,0.037363574,12.458879,1.2450172e-05
2044512000,2044358666,6620172,-0.18755415,0.119615585,-0.019852772,12.452271,3.5168289e-06
2044576000,2044420000,6620172,-0.18816233,0.119527385,-0.062751025,12.453408,3.513265e-05
2044632000,2044478666,6620172,-0.18881334,0.11930839,-0.06730032,12.454202,4.040879e-05
2044704000,2044552000,6620172,-0.18982798,0.11935894,-0.10485731,12.455737,9.808114e-05
2044776000,2044624000,6620172,-0.19015458,0.11940866,-0.0337438,12.4572935,1.0155978e-05
2044848000,2044696000,6620172,-0.19093846,0.11945756,-0.08096358,12.458869,5.845993e-05
2044920000,2044768000,6620172,-0.19092643,0.11950489,0.0012411922,12.452263,1.3746347e-08
2044992000,2044840000,6620172,-0.19160675,0.11955145,-0.070181966,12.453763,4.394485e-05
2045064000,2044912000,6620172,-0.19110325,0.11959725,0.05192779,12.455284,2.4054898e-05
2045136000,2044981333,6620172,-0.19093747,0.1196423,0.01709202,12.456825,2.6057746e-06
2045208000,2045056000,6620172,-0.19197169,0.11968663,-0.10660891,12.458386,0.00010136376
2045280000,2045128000,6620172,-0.19215259,0.11972948,-0.018630117,12.451806,3.0971078e-06
2045352000,2045200000,6620172,-0.1923866,0.11977164,-0.024094969,12.453291,5.179956e-06
2045424000,2045272000,6620172,-0.1933121,0.119813114,-0.095272094,12.454798,8.0975246e-05
2045496000,2045342666,6620172,-0.1940571,0.11985393,-0.07667692,12.456324,5.2444135e-05
2045568000,2045416000,6620172,-0.1943036,0.119894095,-0.02536428,12.4578705,5.737976e-06
2045640000,2045488000,6620172,-0.19423895,0.11993363,0.006651014,12.459436,3.9448895e-07
2045712000,2045560000,6620172,-0.19453886,0.11997177,-0.030828193,12.452789,8.479827e-06
2045784000,2045632000,6620172,-0.19566621,0.1200093,-0.115855426,12.45428,0.00011974893
2045856000,2045702666,6620172,-0.19633402,0.12004625,-0.06861602,12.455792,4.1998825e-05
2045920000,2045764000,6620172,-0.19723004,0.119950026,-0.09214865,12.456956,7.573968e-05
2045976000,2045824000,6620172,-0.19657262,0.11972317,0.06774396,12.457765,4.093158e-05
2046048000,2045896000,6620172,-0.19675441,0.11976602,-0.018728897,12.459335,3.128146e-06
2046120000,2045964000,6620172,-0.19705676,0.11980741,-0.031120345,12.452699,8.641375e-06
2046184000,2046028000,6620172,-0.19685942,0.11971553,0.02032946,12.453835,3.68728e-06
2046240000,2046086666,6620172,-0.1972622,0.119492926,-0.04157442,12.454625,1.5419815e-05
2046304000,2046146000,6620172,-0.19839367,0.119407326,-0.11688575,12.455794,0.000121873476
2046360000,2046208000,6620172,-0.19906478,0.11919088,-0.06945911,12.45661,4.303443e-05
2046432000,2046277333,6620172,-0.19923645,0.11924393,-0.017762616,12.458184,2.8139516e-06
2046504000,2046352000,6620172,-0.1997984,0.11929534,-0.058087766,12.451623,3.0109317e-05
2046576000,2046424000,6620172,-0.19999598,0.119345896,-0.020416439,12.453121,3.7191119e-06
2046648000,2046496000,6620172,-0.2015125,0.11939561,-0.15666296,12.45464,0.00021895704
2046720000,2046568000,6620172,-0.20115343,0.11944452,0.03708379,12.45618,1.226707e-05
2046792000,2046640000,6620172,-0.2013481,0.11949262,-0.020099014,12.45774,3.6030287e-06
2046864000,2046712000,6620172,-0.20133989,0.11953917,0.00084760785,12.451202,6.411153e-09
2046936000,2046784000,6620172,-0.20174043,0.11958496,-0.041305378,12.452685,1.52232615e-05
2047008000,2046854666,6620172,-0.20227098,0.11963001,-0.05469878,12.454189,2.6692995e-05
2047080000,2046928000,6620172,-0.2019284,0.119674325,0.035309315,12.455713,1.1121605e-05
2047152000,2047000000,6620172,-0.20222789,0.119717926,-0.030859679,12.457258,8.494108e-06
2047224000,2047072000,6620172,-0.20298013,0.119760826,-0.07749623,12.458822,5.3560132e-05
2047296000,2047144000,6620172,-0.20316654,0.119802274,-0.019187838,12.452216,3.2852083e-06
2047368000,2047216000,6620172,-0.20394371,0.11984305,-0.079975545,12.453705,5.7065463e-05
2047440000,2047288000,6620172,-0.20316188,0.11988318,0.080439076,12.455214,5.7721878e-05
2047512000,2047360000,6620172,-0.2033057,0.119922675,-0.014794663,12.456744,1.9523743e-06
2047584000,2047430666,6620172,-0.20317428,0.119961545,0.013516888,12.458294,1.6294924e-06
2047656000,2047504000,6620172,-0.20358461,0.11999971,-0.04218705,12.458773,1.5872325e-05
2047728000,2047576000,6620172,-0.20288266,0.120036595,0.072114885,12.453192,4.6400924e-05
2047800000,2047648000,6620172,-0.20292899,0.12007291,-0.004758939,12.454685,2.0204358e-07
2047872000,2047720000,6620172,-0.20297994,0.12010866,-0.0052314103,12.456201,2.4412344e-07
2047944000,2047792000,6620172,-0.2034456,0.12014385,-0.04781352,12.457737,2.039012e-05
2048016000,2047864000,6620172,-0.20345289,0.12017851,-0.00074751675,12.459292,4.983173e-09
2048088000,2047934666,6620172,-0.20394562,0.12021187,-0.050544918,12.452653,2.2795577e-05
2048160000,2048008000,6620172,-0.20375046,0.12024472,0.020016178,12.454132,3.5744263e-06
2048232000,2048080000,6620172,-0.20329708,0.12027707,0.04649338,12.455633,1.928297e-05
2048304000,2048150666,6620172,-0.20384187,0.12030893,-0.055858195,12.457154,2.782995e-05
2048376000,2048224000,6620172,-0.2040617,0.12034032,-0.02253753,12.458695,4.529993e-06
2048448000,2048296000,6620172,-0.20476767,0.12037124,-0.07236652,12.460257,4.669882e-05
2048520000,2048368000,6620172,-0.20507105,0.12040092,-0.03107217,12.453556,8.614048e-06
2048592000,2048440000,6620172,-0.20547937,0.120430164,-0.04181616,12.455042,1.5599138e-05
2048664000,2048512000,6620172,-0.20484275,0.12045898,0.06519006,12.456549,3.7907274e-05
2048736000,2048584000,6620172,-0.20409125,0.120487384,0.07694358,12.458076,5.280211e-05
2048808000,2048656000,6620172,-0.20437722,0.12051538,-0.029276669,12.459623,7.643564e-06
2048880000,2048728000,6620172,-0.20340319,0.12054218,0.09964089,12.452961,8.858498e-05
2048952000,2048798666,6620172,-0.2031955,0.12056861,0.021243766,12.4544325,4.026211e-06
2049016000,2048860000,6620172,-0.20323415,0.120462075,-0.003957823,12.455563,1.3973552e-07
2049072000,2048920000,6620172,-0.20330954,0.12022513,-0.0077338666,12.456345,5.335317e-07
2049144000,2048990666,6620172,-0.20381555,0.12025808,-0.05190897,12.457877,2.4032463e-05
2049216000,2049064000,6620172,-0.20356901,0.120290525,0.025287718,12.45943,5.7026746e-06
2049288000,2049136000,6620172,-0.20293817,0.120321706,0.064652994,12.452784,3.7296522e-05
2049360000,2049206666,6620172,-0.20214513,0.120352425,0.081264585,12.454259,5.891722e-05
2049432000,2049280000,6620172,-0.20120007,0.12038268,0.09682897,12.455757,8.363691e-05
2049504000,2049350666,6620172,-0.20075266,0.12041249,0.045835078,12.457274,1.873831e-05
2049576000,2049422666,6620172,-0.20052437,0.12044187,0.023384497,12.458814,4.876821e-06
2049648000,2049496000,6620172,-0.20101906,0.12047082,-0.05066581,12.460371,2.2890565e-05
2049720000,2049566666,6620172,-0.20083687,0.12049857,0.018646017,12.453668,3.1019326e-06
2049792000,2049638666,6620172,-0.20092425,0.12052591,-0.008940965,12.455151,7.1314406e-07
2049856000,2049700000,6620172,-0.20089866,0.12042028,0.0026210248,12.45629,6.127891e-08
2049912000,2049760000,6620172,-0.20070331,0.12018421,0.020051494,12.457079,3.5862022e-06
2049984000,2049829333,6620172,-0.19996177,0.12021802,0.07610004,12.458622,5.1648443e-05
2050048000,2049892000,6620172,-0.19949374,0.12011872,0.04807578,12.459809,2.0610987e-05
2050104000,2049952000,6620172,-0.19831139,0.11988809,0.12161288,12.452438,0.00013196605
2050176000,2050024000,6620172,-0.19834247,0.11992722,-0.0031961799,12.453925,9.114097e-08
2050248000,2050096000,6620172,-0.1980613,0.11996573,0.028908879,12.455433,7.4552318e-06
2050320000,2050166666,6620172,-0.19856864,0.12000364,-0.05215232,12.456961,2.4260104e-05
2050384000,2050228000,6620172,-0.19764775,0.119908355,0.09474784,12.4581375,8.006506e-05
2050440000,2050286666,6620172,-0.19753718,0.119682424,0.011398971,12.458955,1.1587965e-06
2050512000,2050358666,6620172,-0.19740358,0.119725406,0.013760328,12.452351,1.6895217e-06
2050584000,2050432000,6620172,-0.19686079,0.119767696,0.05589357,12.453842,2.7872622e-05
2050656000,2050504000,6620172,-0.19645683,0.1198093,0.041587353,12.455355,1.5428508e-05
2050728000,2050574666,6620172,-0.1957276,0.11985024,0.07505791,12.456888,5.0250554e-05
2050800000,2050648000,6620172,-0.19485614,0.11989053,0.08967902,12.458442,7.172581e-05
2050872000,2050720000,6620172,-0.19409925,0.119929425,0.077821225,12.451865,5.404048e-05
2050944000,2050790666,6620172,-0.19300786,0.1199677,0.11219007,12.4533415,0.00011230017
2051016000,2050862666,6620172,-0.19272384,0.12000537,0.029189497,12.45484,7.601032e-06
2051088000,2050933333,6620172,-0.1917657,0.12004245,0.09845504,12.45636,8.6465385e-05
2051152000,2050996000,6620172,-0.19127142,0.11994635,0.05083552,12.457529,2.3049428e-05
2051208000,2051054666,6620172,-0.19094402,0.119719625,0.033739686,12.458342,1.01526475e-05
2051280000,2051126666,6620172,-0.19039631,0.119761825,0.056392014,12.451774,2.8376673e-05
2051352000,2051200000,6620172,-0.18969816,0.11980335,0.071866035,12.453256,4.6081008e-05
2051424000,2051272000,6620172,-0.18934439,0.119844206,0.036408365,12.454759,1.1825637e-05
2051496000,2051344000,6620172,-0.18868226,0.11988442,0.06812857,12.456283,4.1402596e-05
2051568000,2051414666,6620172,-0.18871023,0.11992399,-0.0028765798,12.457827,7.3801985e-08
2051640000,2051488000,6620172,-0.18817446,0.11996294,0.05510427,12.45939,2.7078913e-05
2051712000,2051560000,6620172,-0.18690072,0.120000504,0.13089296,12.452755,0.00015287084
2051784000,2051632000,6620172,-0.18680021,0.12003748,0.010326013,12.454245,9.512736e-07
2051856000,2051704000,6620172,-0.18715699,0.12007388,-0.036649495,12.455753,1.198184e-05
2051928000,2051774666,6620172,-0.18570586,0.120109715,0.14904054,12.457283,0.00019812668
2052000000,2051846666,6620172,-0.18545824,0.120145,0.025427535,12.458833,5.766186e-06
2052072000,2051918666,6620172,-0.18514057,0.12017897,0.032595694,12.4522295,9.480491e-06
2052144000,2051992000,6620172,-0.184748,0.12021241,0.04027362,12.453704,1.4471059e-05
2052216000,2052062666,6620172,-0.18458828,0.12024535,0.016382515,12.455198,2.3942418e-06
2052288000,2052136000,6620172,-0.18438964,0.12027779,0.020373195,12.456714,3.7023062e-06
2052360000,2052206666,6620172,-0.18472323,0.12030975,-0.034207776,12.45825,1.0436386e-05
2052432000,2052280000,6620172,-0.1851203,0.12034123,-0.04071012,12.459806,1.47792025e-05
2052504000,2052352000,6620172,-0.1846386,0.12037145,0.049347594,12.453141,2.172754e-05
2052576000,2052424000,6620172,-0.1849886,0.12040123,-0.035850897,12.454621,1.1466399e-05
2052648000,2052496000,6620172,-0.18438502,0.120430574,0.061819658,12.456122,3.4090062e-05
2052720000,2052566666,6620172,-0.18394907,0.12045949,0.044645026,12.457645,1.7777378e-05
2052792000,2052640000,6620172,-0.18441142,0.12048799,-0.047343656,12.459187,1.9989015e-05
2052864000,2052712000,6620172,-0.18396677,0.120515294,0.045495406,12.4525585,1.8468601e-05
2052936000,2052784000,6620172,-0.18413793,0.120542206,-0.01751028,12.454023,2.7354827e-06
2053008000,2052854666,6620172,-0.1842233,0.12056874,-0.008733168,12.455511,6.8036127e-07
2053072000,2052916000,6620172,-0.18424843,0.1204623,-0.0025748014,12.456655,5.9134855e-08
2053128000,2052974666,6620172,-0.18410346,0.12022545,0.014875874,12.457444,1.9737563e-06
2053192000,2053036000,6620172,-0.18384919,0.1201259,0.026113957,12.45862,6.0818115e-06
2053248000,2053096000,6620172,-0.18351486,0.119895786,0.034404606,12.4594345,1.0555828e-05
2053320000,2053168000,6620172,-0.18327314,0.11993466,0.024853975,12.452801,5.5116566e-06
2053392000,2053240000,6620172,-0.18233222,0.11997292,0.096725285,12.454292,8.3467705e-05
2053464000,2053312000,6620172,-0.18280026,0.120010585,-0.048106015,12.455804,2.0643556e-05
2053536000,2053384000,6620172,-0.18259653,0.12004766,0.020935029,12.457336,3.9091237e-06
2053608000,2053456000,6620172,-0.18195307,0.12008416,0.06611094,12.458889,3.8978473e-05
2053752000,2053600000,6620172,-0.18168324,0.120153934,0.02768664,12.453761,6.8390773e-06
2053824000,2053670666,6620172,-0.180824,0.12018802,0.08817738,12.455258,6.936161e-05
2053896000,2053744000,6620172,-0.18025108,0.120221585,0.0587842,12.456777,3.0822866e-05
2053968000,2053814666,6620172,-0.1797732,0.120254636,0.04902549,12.458315,2.1435919e-05
2054032000,2053876000,6620172,-0.17974176,0.1201546,0.0032290071,12.459499,9.2981146e-08
2054088000,2053936000,6620172,-0.18057966,0.11992324,-0.0861579,12.452151,6.6237415e-05
2054160000,2054006666,6620172,-0.18025394,0.119961664,0.033484936,12.453633,1.0003692e-05
2054232000,2054080000,6620172,-0.17959611,0.119999476,0.06761356,12.455135,4.0782757e-05
2054304000,2054152000,6620172,-0.1797057,0.1200367,-0.011260822,12.456658,1.1310874e-06
2054376000,2054224000,6620172,-0.18010858,0.12007334,-0.04139416,12.458202,1.5282001e-05
2054448000,2054296000,6620172,-0.18066327,0.120109424,-0.056982487,12.459766,2.8955455e-05
2054520000,2054368000,6620172,-0.18073612,0.12014417,-0.0074775964,12.453109,4.9888877e-07
2054592000,2054440000,6620172,-0.18077587,0.12017839,-0.0040783286,12.4545965,1.4838577e-07
2054664000,2054512000,6620172,-0.18064272,0.12021207,0.013661608,12.456106,1.6648643e-06
2054736000,2054584000,6620172,-0.18033655,0.12024525,0.031411767,12.457636,8.800485e-06
2054808000,2054656000,6620172,-0.18054502,0.12027793,-0.021384642,12.459186,4.0782306e-06
2054880000,2054726666,6620172,-0.1803056,0.12030934,0.024539158,12.45256,5.373016e-06
2054952000,2054798666,6620172,-0.18066734,0.12034027,-0.03707111,12.454035,1.22607935e-05
2055016000,2054860000,6620172,-0.18046947,0.120238155,0.020297468,12.455169,3.6752897e-06
2055072000,2054918666,6620172,-0.18122075,0.12000553,-0.07722096,12.455954,5.319256e-05
2055144000,2054992000,6620172,-0.18205069,0.12004272,-0.085289255,12.457489,6.488071e-05
2055216000,2055062666,6620172,-0.18217976,0.12007932,-0.01326181,12.459044,1.5684776e-06
2055288000,2055134666,6620172,-0.18135376,0.120114595,0.08479817,12.452431,6.416177e-05
2055360000,2055206666,6620172,-0.18194732,0.120149314,-0.06092529,12.45391,3.3116692e-05
2055432000,2055280000,6620172,-0.18192708,0.120183505,0.0020767152,12.45541,3.847276e-08
2055504000,2055350666,6620172,-0.18189068,0.12021717,0.0037349463,12.45693,1.2442715e-07
2055576000,2055422666,6620172,-0.18156402,0.12025032,0.033514217,12.458472,1.0017304e-05
2055648000,2055496000,6620172,-0.18122442,0.12028298,0.034835503,12.460032,1.0821376e-05
2055720000,2055566666,6620172,-0.18049455,0.12031436,0.074809626,12.453357,4.9932816e-05
2055792000,2055640000,6620172,-0.18058106,0.12034527,-0.008867025,12.454843,7.0141516e-07
2055864000,2055712000,6620172,-0.18146968,0.12037573,-0.0910559,12.456349,7.3957606e-05
2055936000,2055784000,6620172,-0.18127297,0.12040573,0.02015376,12.457877,3.6226438e-06
2056008000,2055856000,6620172,-0.18146631,0.1204353,-0.019807354,12.459423,3.4987463e-06
2056080000,2055926666,6620172,-0.18155745,0.120463654,-0.009329587,12.452783,7.7663316e-07
2056152000,2056000000,6620172,-0.18097982,0.120491594,0.059120923,12.454254,3.118331e-05
2056224000,2056072000,6620172,-0.18075278,0.12051913,0.023234457,12.455747,4.8156257e-06
2056296000,2056142666,6620172,-0.18050319,0.120546274,0.025540382,12.45726,5.8182145e-06
2056368000,2056216000,6620172,-0.18073472,0.12057304,-0.023689926,12.458794,5.0050558e-06
2056440000,2056288000,6620172,-0.17951167,0.12059943,0.1251317,12.460347,0.00013962461
2056512000,2056360000,6620172,-0.18030384,0.120624654,-0.08098638,12.4536495,5.8517377e-05
2056584000,2056430666,6620172,-0.18018855,0.12064953,0.011785775,12.455127,1.2391552e-06
2056656000,2056502666,6620172,-0.17972477,0.120674066,0.04740657,12.456626,2.0046296e-05
2056728000,2056574666,6620172,-0.17997372,0.120698266,-0.02544491,12.458146,5.7743873e-06
2056800000,2056646666,6620172,-0.18014471,0.12072214,-0.017475009,12.459686,2.7232354e-06
2056872000,2056717333,6620172,-0.18069963,0.12074491,-0.056671694,12.453027,2.8655959e-05
2056944000,2056790666,6620172,-0.18135345,0.12076737,-0.06676741,12.454491,3.9770453e-05
2057016000,2056862666,6620172,-0.18104455,0.120789535,0.03154266,12.4559765,8.875162e-06
2057080000,2056924000,6620172,-0.1812534,0.12067883,-0.02134803,12.457117,4.064953e-06
2057136000,2056984000,6620172,-0.1810525,0.1204378,0.020578355,12.457905,3.7768853e-06
2057208000,2057056000,6620172,-0.18132165,0.12046675,-0.027565658,12.459451,6.776342e-06
2057280000,2057126666,6620172,-0.18137218,0.12049449,-0.005171269,12.452809,2.386077e-07
2057352000,2057200000,6620172,-0.18023494,0.120521836,0.11636974,12.45428,0.00012081448
2057424000,2057270666,6620172,-0.1814158,0.120548785,-0.12082097,12.4557705,0.00013021815
2057496000,2057342666,6620172,-0.18175596,0.12057535,-0.034801245,12.457282,1.0802487e-05
2057560000,2057402000,6620172,-0.18163891,0.12046896,0.011986673,12.458445,1.2814185e-06
2057616000,2057464000,6620172,-0.18153454,0.12023216,0.010709956,12.459248,1.0229186e-06
2057688000,2057536000,6620172,-0.1802751,0.12026446,0.12913586,12.452623,0.00014879569
2057760000,2057606666,6620172,-0.18029943,0.12029628,-0.002494678,12.454099,5.5523156e-08
2057832000,2057678666,6620172,-0.18040094,0.120327614,-0.010404915,12.455597,9.657617e-07
2057904000,2057752000,6620172,-0.18099605,0.12035849,-0.060993105,12.457114,3.318192e-05
2057976000,2057824000,6620172,-0.18103004,0.1203889,-0.0034827143,12.458652,1.08173815e-07
2058048000,2057894666,6620172,-0.18083942,0.12041888,0.019531012,12.460209,3.4015875e-06
2058120000,2057968000,6620172,-0.18077183,0.12044763,0.0069197416,12.453524,4.2721356e-07
2058192000,2058040000,6620172,-0.18034747,0.120475955,0.043442726,12.455007,1.6836339e-05
2058264000,2058110666,6620172,-0.17997998,0.12050387,0.03761676,12.456511,1.2621874e-05
2058328000,2058172000,6620172,-0.17974778,0.1203988,0.023791015,12.457667,5.048318e-06
2058384000,2058232000,6620172,-0.18014163,0.120163284,-0.04043655,12.458468,1.4582804e-05
2058456000,2058302666,6620172,-0.18052758,0.120197535,-0.039615452,12.458942,1.3996052e-05
2058528000,2058376000,6620172,-0.18034355,0.120230585,0.018875971,12.4533615,3.1789928e-06
2058600000,2058448000,6620172,-0.1796325,0.12026314,0.07292168,12.454852,4.743864e-05
2058672000,2058520000,6620172,-0.18027471,0.1202952,-0.0658509,12.456364,3.8680282e-05
2058744000,2058590666,6620172,-0.18068571,0.12032677,-0.0421374,12.457897,1.5836098e-05
2058816000,2058661333,6620172,-0.18192068,0.120357886,-0.12659578,12.459453,0.00014292132
2058888000,2058734666,6620172,-0.18243755,0.120387755,-0.052942604,12.452811,2.500925e-05
2058960000,2058808000,6620172,-0.18281029,0.120417185,-0.03817402,12.454291,1.3000924e-05
2059032000,2058878666,6620172,-0.182899,0.12044618,-0.00908424,12.455792,7.3614484e-07
2059104000,2058952000,6620172,-0.18320353,0.120474756,-0.031181812,12.457318,8.672327e-06
2059176000,2059022666,6620172,-0.18325056,0.12050292,-0.0048152655,12.458865,2.0678522e-07
2059248000,2059094666,6620172,-0.18450122,0.12053069,-0.12802874,12.460434,0.0001461636
2059312000,2059156000,6620172,-0.18497694,0.12042468,-0.048714116,12.453368,2.1172898e-05
2059368000,2059216000,6620172,-0.18412805,0.12018825,0.08710706,12.454142,6.769404e-05
2059440000,2059286666,6620172,-0.18443516,0.120221704,-0.03150916,12.455656,8.856549e-06
2059504000,2059348000,6620172,-0.18396248,0.12012205,0.048540384,12.456826,2.101631e-05
2059560000,2059406666,6620172,-0.18455532,0.119891845,-0.06100212,12.45764,3.319033e-05
2059632000,2059478666,6620172,-0.18472248,0.11993141,-0.017196387,12.459221,2.6371877e-06
2059704000,2059552000,6620172,-0.18403457,0.11996957,0.07070881,12.452582,4.4611326e-05
2059776000,2059622666,6620172,-0.18435217,0.12000713,-0.032640234,12.454085,9.505001e-06
2059848000,2059693333,6620172,-0.18488269,0.120044105,-0.05450891,12.45561,2.6504978e-05
2059912000,2059756000,6620172,-0.1858589,0.1199479,-0.100395635,12.456789,8.990442e-05
2059968000,2059816000,6620172,-0.18605134,0.11972108,-0.019829571,12.457613,3.5071093e-06
2060040000,2059888000,6620172,-0.18624847,0.119763955,-0.020308524,12.459203,3.6781037e-06
2060112000,2059958666,6620172,-0.18645068,0.11980537,-0.020813301,12.452553,3.8652806e-06
2060184000,2060032000,6620172,-0.18644308,0.11984613,0.0007817298,12.454063,5.452049e-09
2060256000,2060104000,6620172,-0.18596067,0.119886234,0.049632773,12.455597,2.1975058e-05
2060328000,2060176000,6620172,-0.1866571,0.11992571,-0.07163821,12.45715,4.577499e-05
2060400000,2060248000,6620172,-0.18751249,0.11996456,-0.087970585,12.458725,6.9017435e-05
2060472000,2060320000,6620172,-0.18736862,0.12000203,0.014782995,12.452093,1.9500242e-06
2060544000,2060390666,6620172,-0.18685393,0.12003891,0.05287765,12.453588,2.4946365e-05
2060616000,2060464000,6620172,-0.18666384,0.12007522,0.01952605,12.455106,3.4012521e-06
2060688000,2060534666,6620172,-0.18643129,0.120110966,0.023883075,12.456645,5.0878803e-06
2060760000,2060608000,6620172,-0.18647677,0.12014616,-0.0046697855,12.458204,1.9448937e-07
2060832000,2060678666,6620172,-0.18711601,0.12018083,-0.065628946,12.459785,3.8409424e-05
2060904000,2060750666,6620172,-0.18651554,0.12021418,0.061597213,12.453078,3.385345e-05
2060976000,2060824000,6620172,-0.1861535,0.12024702,0.037131995,12.45458,1.2300561e-05
2061048000,2060896000,6620172,-0.18589047,0.12027937,0.026973814,12.456104,6.4902283e-06
2061120000,2060966666,6620172,-0.18554038,0.12031124,0.03589657,12.45765,1.1492837e-05
2061192000,2061038666,6620172,-0.1860685,0.12034263,-0.05414468,12.459217,2.614438e-05
2061256000,2061100000,6620172,-0.18655089,0.12024085,-0.04949668,12.459281,2.184825e-05
2061312000,2061160000,6620172,-0.18633857,0.120007895,0.021816999,12.452958,4.2469287e-06
2061384000,2061229333,6620172,-0.18604364,0.120044746,0.030302197,12.454466,8.191823e-06
2061456000,2061304000,6620172,-0.18653078,0.12008102,-0.05004035,12.4559965,2.2336735e-05
2061528000,2061376000,6620172,-0.18654884,0.12011674,-0.001854226,12.457548,3.066551e-08
2061600000,2061448000,6620172,-0.18656167,0.120151915,-0.001317367,12.45912,1.5476889e-08
2061672000,2061520000,6620172,-0.18598099,0.12018577,0.05957803,12.452447,3.167197e-05
2061744000,2061592000,6620172,-0.18553916,0.120219104,0.045325473,12.453939,1.8328858e-05
2061816000,2061664000,6620172,-0.18592276,0.12025193,-0.039344877,12.455454,1.3809385e-05
2061888000,2061734666,6620172,-0.18552034,0.12028427,0.041269436,12.456989,1.5191529e-05
2061952000,2061796000,6620172,-0.18553813,0.12018352,-0.0018270761,12.458173,2.9772576e-08
2062008000,2061854666,6620172,-0.18528394,0.11995225,0.026144817,12.458998,6.096009e-06
2062072000,2061916000,6620172,-0.18446513,0.11985738,0.08424024,12.451981,6.3322535e-05
2062128000,2061976000,6620172,-0.18494011,0.11963186,-0.04896383,12.452761,2.1391568e-05
2062200000,2062048000,6620172,-0.18477544,0.119676,0.016971365,12.454277,2.5696413e-06
2062272000,2062120000,6620172,-0.18461883,0.11971943,0.016135305,12.455814,2.3224147e-06
2062344000,2062190666,6620172,-0.18396895,0.11976217,0.06694305,12.457373,3.9970724e-05
2062408000,2062252000,6620172,-0.18324453,0.11967161,0.0746855,12.458575,4.9746403e-05
2062464000,2062312000,6620172,-0.18280564,0.11944955,0.045305073,12.451238,1.8316337e-05
2062536000,2062382666,6620172,-0.18333462,0.11949708,-0.054590598,12.452737,2.6590615e-05
2062608000,2062454666,6620172,-0.18331435,0.119543836,0.0020907223,12.454257,3.8997108e-08
2062680000,2062528000,6620172,-0.18316469,0.11958983,0.015437156,12.455798,2.1257908e-06
2062752000,2062600000,6620172,-0.18384095,0.119635075,-0.069734484,12.45736,4.3373715e-05
2062824000,2062672000,6620172,-0.18368995,0.11967959,0.01556702,12.458943,2.1611615e-06
2062896000,2062744000,6620172,-0.18404248,0.11972262,-0.03631127,12.452293,1.1764975e-05
2062968000,2062816000,6620172,-0.18343444,0.119764954,0.06261304,12.453798,3.4977216e-05
2063040000,2062885333,6620172,-0.18425205,0.11980661,-0.0841742,12.455326,6.320631e-05
2063104000,2062948000,6620172,-0.18355174,0.119715,0.07216099,12.456505,4.644792e-05
2063160000,2063008000,6620172,-0.18340997,0.119492665,0.014636949,12.45733,1.9108809e-06
2063232000,2063078666,6620172,-0.18299751,0.11953995,0.04257135,12.458918,1.616263e-05
2063304000,2063152000,6620172,-0.18305065,0.119585685,-0.0054790527,12.452273,2.6786736e-07
2063376000,2063224000,6620172,-0.183653,0.11963068,-0.062097058,12.453786,3.4403143e-05
2063448000,2063296000,6620172,-0.18397753,0.11967494,-0.033449054,12.455319,9.980914e-06
2063520000,2063368000,6620172,-0.1840289,0.11971849,-0.00529249,12.456874,2.498438e-07
2063592000,2063440000,6620172,-0.18417574,0.11976135,-0.015128821,12.458449,2.0412851e-06
2063664000,2063510666,6620172,-0.1846436,0.11980274,-0.048154578,12.451831,2.0691856e-05
2063728000,2063572000,6620172,-0.18396893,0.11971087,0.069500774,12.4529705,4.3098666e-05
2063784000,2063630666,6620172,-0.18517724,0.11948828,-0.12471637,12.453767,0.0001387726
2063856000,2063704000,6620172,-0.18564603,0.119535305,-0.04837379,12.455307,2.0874844e-05
2063928000,2063774666,6620172,-0.18565838,0.119581565,-0.0012741387,12.45687,1.4480447e-08
2064000000,2063846666,6620172,-0.18594669,0.11962707,-0.029734686,12.458452,7.8853345e-06
2064072000,2063920000,6620172,-0.18555364,0.11967108,0.04049991,12.451833,1.46363345e-05
2064144000,2063992000,6620172,-0.18525822,0.11971437,0.03043279,12.453338,8.263333e-06
2064216000,2064064000,6620172,-0.18551585,0.11975697,-0.026533768,12.454866,6.2808185e-06
2064288000,2064134666,6620172,-0.18495125,0.119798884,0.05813548,12.456414,3.01472e-05
2064352000,2064196000,6620172,-0.18553773,0.119707525,-0.0604406,12.457612,3.258219e-05
2064408000,2064256000,6620172,-0.1857054,0.11948544,-0.017312616,12.458449,2.6731227e-06
2064480000,2064328000,6620172,-0.18573788,0.11953219,-0.003351003,12.451827,1.00201454e-07
2064552000,2064398666,6620172,-0.18604554,0.119578175,-0.031730384,12.453339,8.983019e-06
2064624000,2064472000,6620172,-0.1851214,0.119623415,0.095286265,12.454873,8.099884e-05
2064696000,2064541333,6620172,-0.18535349,0.119667925,-0.023924008,12.456429,5.105424e-06
2064768000,2064614666,6620172,-0.18576461,0.11971172,-0.04236868,12.458005,1.6010277e-05
2064840000,2064688000,6620172,-0.18589549,0.11975481,-0.013484657,12.459602,1.6215604e-06
2064912000,2064760000,6620172,-0.185424,0.11979644,0.04853587,12.4529,2.1019028e-05
2064984000,2064832000,6620172,-0.18551,0.1198374,-0.008850902,12.454419,6.9889046e-07
2065056000,2064902666,6620172,-0.18605667,0.11987771,-0.05625026,12.45596,2.8224698e-05
2065120000,2064964000,6620172,-0.1856016,0.11978478,0.046866,12.457151,1.9590905e-05
2065176000,2065024000,6620172,-0.1854881,0.11956115,0.011712447,12.457984,1.2235029e-06
2065248000,2065096000,6620172,-0.18549222,0.119607165,-0.00042498112,12.459586,1.6106202e-09
2065320000,2065166666,6620172,-0.18610981,0.11965166,-0.06365329,12.452882,3.615175e-05
2065384000,2065228000,6620172,-0.18757294,0.11956282,-0.15092632,12.454044,0.00020322498
2065440000,2065288000,6620172,-0.18667962,0.1193432,0.09232758,12.454858,7.604691e-05
2065512000,2065358666,6620172,-0.18597189,0.11939314,0.07312371,12.456425,4.769584e-05
2065584000,2065430666,6620172,-0.18593232,0.11944226,0.0040871203,12.4580145,1.4898534e-07
2065648000,2065492000,6620172,-0.18530865,0.119357966,0.06447236,12.459244,3.7069178e-05
2065704000,2065550666,6620172,-0.18576531,0.119142026,-0.047265813,12.451841,1.9935089e-05
2065776000,2065624000,6620172,-0.18561691,0.11919557,0.015355155,12.453371,2.1036765e-06
2065848000,2065694666,6620172,-0.18587263,0.11924823,-0.02644974,12.454924,6.2410722e-06
2065920000,2065768000,6620172,-0.18625964,0.11930001,-0.040018484,12.456497,1.4285084e-05
2065992000,2065840000,6620172,-0.18592505,0.11935094,0.03458728,12.458093,1.0669369e-05
2066064000,2065912000,6620172,-0.18605673,0.11940026,-0.013598874,12.451466,1.6502241e-06
2066136000,2065984000,6620172,-0.18612805,0.11944877,-0.007363677,12.452982,4.838086e-07
2066208000,2066056000,6620172,-0.18582498,0.11949649,0.03128186,12.45452,8.730027e-06
2066280000,2066128000,6620172,-0.18538073,0.119543426,0.045840845,12.456081,1.8744819e-05
2066352000,2066200000,6620172,-0.18483654,0.119589604,0.056138784,12.4576645,2.8109094e-05
2066424000,2066272000,6620172,-0.18468748,0.11963504,0.015372425,12.45927,2.1074134e-06
2066496000,2066344000,6620172,-0.18485013,0.11967896,-0.016759053,12.452556,2.5060974e-06
2066568000,2066414666,6620172,-0.18542923,0.11972217,-0.05965671,12.454082,3.175151e-05
2066632000,2066476000,6620172,-0.18636718,0.11963208,-0.09670578,12.455264,8.3427534e-05
2066688000,2066536000,6620172,-0.18669897,0.11941124,-0.034274906,12.456095,1.04792e-05
2066760000,2066606666,6620172,-0.18552768,0.11945998,0.12096411,12.457688,0.00013050679
2066832000,2066680000,6620172,-0.18542412,0.11950793,0.010692477,12.459305,1.0195778e-06
2066904000,2066752000,6620172,-0.18609248,0.11955432,-0.068939894,12.452576,4.2407195e-05
2066976000,2066824000,6620172,-0.18556604,0.11959995,0.05428706,12.454113,2.6292832e-05
2067048000,2066896000,6620172,-0.1851387,0.11964485,0.044056028,12.455675,1.731414e-05
2067120000,2066966666,6620172,-0.18558086,0.119689025,-0.04557419,12.45726,1.8525625e-05
2067192000,2067040000,6620172,-0.18554914,0.11973249,0.0032688528,12.458869,9.529489e-08
2067264000,2067110666,6620172,-0.1855254,0.11977448,0.0024436712,12.452147,5.3284243e-08
2067336000,2067182666,6620172,-0.1855692,0.1198158,-0.0045075566,12.453674,1.8127686e-07
2067408000,2067256000,6620172,-0.18604049,0.119856454,-0.048500627,12.455227,2.0984593e-05
2067480000,2067326666,6620172,-0.18528645,0.11989647,0.07758102,12.456803,5.3686097e-05
2067544000,2067388000,6620172,-0.1855643,0.11980326,-0.028611258,12.458028,7.3009955e-06
2067600000,2067448000,6620172,-0.18494478,0.11957936,0.06392123,12.458889,3.6439164e-05
2067672000,2067520000,6620172,-0.1854829,0.119624324,-0.0554727,12.452144,2.7458196e-05
2067744000,2067592000,6620172,-0.18492505,0.11966856,0.05749218,12.453682,2.9490171e-05
2067816000,2067664000,6620172,-0.18488073,0.11971208,0.004566163,12.455243,1.859979e-07
2067888000,2067736000,6620172,-0.18483861,0.1197549,0.0043387413,12.456828,1.6791037e-07
2067960000,2067808000,6620172,-0.18566275,0.11979705,-0.08487575,12.458435,6.4248234e-05
2068032000,2067878666,6620172,-0.18569867,0.119838536,-0.0036988258,12.460064,1.2200144e-07
2068104000,2067952000,6620172,-0.18546255,0.11987857,0.024291202,12.453218,5.2647038e-06
2068176000,2068022666,6620172,-0.18588056,0.11991797,-0.04299204,12.454761,1.648915e-05
2068248000,2068096000,6620172,-0.18653764,0.11995675,-0.06756793,12.456325,4.0723848e-05
2068320000,2068166666,6620172,-0.1867058,0.11999492,-0.017289266,12.457911,2.6660323e-06
2068392000,2068238666,6620172,-0.18658023,0.120032504,0.0129081905,12.4595175,1.4858912e-06
2068464000,2068310666,6620172,-0.18642753,0.12006871,0.015681788,12.452694,2.1942462e-06
2068536000,2068384000,6620172,-0.18567596,0.12010435,0.077174604,12.454214,5.3136137e-05
2068608000,2068454666,6620172,-0.18493545,0.12013945,0.076026306,12.455756,5.156027e-05
2068680000,2068528000,6620172,-0.18489473,0.12017401,0.0041798353,12.45732,1.5583005e-07
2068752000,2068598666,6620172,-0.18485796,0.12020805,0.0037728995,12.458905,1.2694865e-07
2068816000,2068660000,6620172,-0.18446095,0.12010898,0.04078448,12.460131,1.4832854e-05
2068872000,2068720000,6620172,-0.1840793,0.119878545,0.039258316,12.452551,1.3751893e-05
2068944000,2068790666,6620172,-0.18320633,0.11991788,0.08977999,12.45407,7.191264e-05
2069016000,2068864000,6620172,-0.18312849,0.11995659,0.008004919,12.455612,5.716185e-07
2069088000,2068936000,6620172,-0.18324226,0.1199947,-0.011695728,12.457176,1.2200913e-06
2069160000,2069006666,6620172,-0.18281369,0.12003221,0.044051588,12.458761,1.730636e-05
2069224000,2069068000,6620172,-0.18308498,0.11993655,-0.027910188,12.459987,6.9464904e-06
2069280000,2069128000,6620172,-0.18237002,0.119709454,0.073648944,12.452425,4.8399026e-05
2069352000,2069198666,6620172,-0.18199225,0.11975206,0.038906887,12.453945,1.3505277e-05
2069424000,2069272000,6620172,-0.18089218,0.11979398,0.11326666,12.455489,0.00011444607
2069496000,2069342666,6620172,-0.18090123,0.119835235,-0.0009315461,12.457054,7.740176e-09
2069568000,2069416000,6620172,-0.18044703,0.11987584,0.046745956,12.45864,1.9488345e-05
2069640000,2069488000,6620172,-0.18040258,0.119915806,0.0045742244,12.460246,1.865803e-07
2069712000,2069558666,6620172,-0.18022168,0.11995435,0.018598378,12.453393,3.0861706e-06
2069784000,2069632000,6620172,-0.1795348,0.119992286,0.070602536,12.454916,4.4468994e-05
2069856000,2069704000,6620172,-0.17972454,0.12002963,-0.019500852,12.45646,3.3921108e-06
2069928000,2069774666,6620172,-0.17908858,0.1200664,0.06534466,12.458024,3.8082773e-05
2070000000,2069848000,6620172,-0.1788318,0.1201026,0.026378617,12.459608,6.2052195e-06
2070072000,2069918666,6620172,-0.17858177,0.12013745,0.025664076,12.452808,5.876808e-06
2070136000,2069980000,6620172,-0.1777439,0.120039165,0.086082995,12.453949,6.6112734e-05
2070192000,2070038666,6620172,-0.17874639,0.1198103,-0.10320093,12.454743,9.501451e-05
2070264000,2070112000,6620172,-0.1785453,0.119851165,0.02069585,12.4562845,3.820635e-06
2070336000,2070182666,6620172,-0.17816344,0.11989138,0.039293587,12.457846,1.3770759e-05
2070408000,2070256000,6620172,-0.17842416,0.11993097,-0.026823133,12.459426,6.416208e-06
2070480000,2070326666,6620172,-0.1778391,0.119969144,0.06013803,12.45266,3.2269614e-05
2070552000,2070400000,6620172,-0.17804001,0.120006725,-0.020647228,12.45416,3.8033522e-06
2070624000,2070470666,6620172,-0.17768805,0.12004372,0.036163792,12.45568,1.166643e-05
2070696000,2070544000,6620172,-0.17752096,0.120080136,0.017165586,12.457222,2.628171e-06
2070768000,2070614666,6620172,-0.17689434,0.12011599,0.06436178,12.458783,3.6943493e-05
2070840000,2070686666,6620172,-0.17663863,0.120151296,0.026259571,12.460364,6.148965e-06
2070912000,2070758666,6620172,-0.17658834,0.12018527,0.0051603615,12.453558,2.375879e-07
2070976000,2070820000,6620172,-0.17758808,0.120086126,-0.102678016,12.4546995,9.405441e-05
2071032000,2070880000,6620172,-0.17665122,0.11985642,0.09641132,12.455492,8.2918734e-05
2071104000,2070952000,6620172,-0.17673205,0.11989646,-0.0083158165,12.457035,6.168117e-07
2071176000,2071024000,6620172,-0.1758497,0.11993587,0.09076403,12.458598,7.347098e-05
2071248000,2071094666,6620172,-0.1752989,0.119974665,0.056648046,12.460182,2.8615608e-05
2071320000,2071168000,6620172,-0.17439006,0.12001207,0.09338972,12.453407,7.7815734e-05
2071392000,2071240000,6620172,-0.17422448,0.12004888,0.017010912,12.454914,2.5814993e-06
2071464000,2071312000,6620172,-0.17451712,0.12008512,-0.030060187,12.45644,8.06022e-06
2071536000,2071384000,6620172,-0.1742094,0.1201208,0.031603307,12.457988,8.907886e-06
2071608000,2071456000,6620172,-0.17322078,0.12015594,0.10151653,12.459557,9.190274e-05
2071680000,2071528000,6620172,-0.17257708,0.12018975,0.06604305,12.452833,3.8917377e-05
2071752000,2071598666,6620172,-0.17230994,0.120223045,0.027404964,12.454323,6.7003243e-06
2071824000,2071672000,6620172,-0.17190997,0.120255835,0.041023314,12.455835,1.5012262e-05
2071896000,2071742666,6620172,-0.17188077,0.12028813,0.002995178,12.457368,8.0015944e-08
2071968000,2071814666,6620172,-0.17148338,0.12031995,0.040746734,12.458921,1.4806849e-05
2072040000,2071886666,6620172,-0.17136456,0.12035129,0.012181625,12.460495,1.3232217e-06
2072104000,2071948000,6620172,-0.17072111,0.12024879,0.06598736,12.453366,3.885011e-05
2072160000,2072005333,6620172,-0.17077303,0.120015785,-0.0053347945,12.454142,2.5390958e-07
2072232000,2072080000,6620172,-0.17068455,0.1200526,0.0090909,12.45566,7.3723265e-07
2072304000,2072152000,6620172,-0.17059363,0.12008884,0.009338111,12.457197,7.777772e-07
2072376000,2072222666,6620172,-0.17109312,0.12012452,-0.051299676,12.458756,2.3469944e-05
2072448000,2072294666,6620172,-0.17185321,0.120159656,-0.07805239,12.460336,5.4325046e-05
2072520000,2072368000,6620172,-0.17262587,0.12019347,-0.079275936,12.453582,5.607199e-05
2072592000,2072438666,6620172,-0.17310612,0.12022676,-0.04926744,12.455085,2.1653634e-05
2072656000,2072500000,6620172,-0.17348169,0.120126955,-0.038563803,12.456243,1.3265699e-05
2072712000,2072560000,6620172,-0.17425743,0.1198966,-0.07981421,12.457048,5.6820205e-05
2072784000,2072632000,6620172,-0.17414883,0.119936004,0.01117149,12.458612,1.113038e-06
2072856000,2072704000,6620172,-0.1734335,0.119974695,0.07356289,12.459078,4.8260204e-05
2072928000,2072776000,6620172,-0.17337765,0.1200121,0.0057394058,12.453458,2.939012e-07
2073000000,2072846666,6620172,-0.1735968,0.12004892,-0.022514686,12.454967,4.522168e-06
2073072000,2072918666,6620172,-0.17372145,0.120085165,-0.012804568,12.456494,1.4624852e-06
2073144000,2072992000,6620172,-0.17357065,0.12012085,0.015487805,12.458044,2.139377e-06
2073216000,2073064000,6620172,-0.17328338,0.12015599,0.029497162,12.459615,7.759135e-06
2073288000,2073133333,6620172,-0.17393385,0.12018981,-0.06673737,12.452912,3.9739713e-05
2073352000,2073196000,6620172,-0.17452477,0.120090514,-0.060685292,12.454044,3.2855947e-05
2073408000,2073254666,6620172,-0.1740079,0.11986066,0.05318688,12.454832,2.5236472e-05
2073480000,2073328000,6620172,-0.17431821,0.119900554,-0.031924725,12.456367,9.0911835e-06
2073552000,2073400000,6620172,-0.17512313,0.11993982,-0.08279239,12.45792,6.1135404e-05
2073624000,2073470666,6620172,-0.17440426,0.11997847,0.073926836,12.459495,4.8737278e-05
2073696000,2073544000,6620172,-0.17364515,0.12001574,0.077999234,12.452803,5.42839e-05
2073768000,2073616000,6620172,-0.17326134,0.12005243,0.039428845,12.454301,1.3869674e-05
2073840000,2073686666,6620172,-0.1728812,0.12008854,0.039045036,12.455818,1.35993105e-05
2073912000,2073758666,6620172,-0.17332757,0.120124094,-0.04583828,12.457357,1.8740804e-05
2073984000,2073830666,6620172,-0.1736252,0.120159104,-0.030560374,12.458916,8.329032e-06
2074048000,2073892000,6620172,-0.17240524,0.12006098,0.12537691,12.460117,0.00014017498
2074104000,2073952000,6620172,-0.17314443,0.119831495,-0.07606888,12.452676,5.16308e-05
2074176000,2074022666,6620172,-0.1725,0.11987175,0.06630239,12.454177,3.921939e-05
2074240000,2074082000,6620172,-0.17250194,0.11977876,-0.0001989752,12.455336,3.5318315e-10
2074296000,2074142666,6620172,-0.17286411,0.11955508,-0.03736745,12.456141,1.2455492e-05
2074360000,2074204000,6620172,-0.17440017,0.11946842,-0.15861782,12.457333,0.00022440699
2074416000,2074264000,6620172,-0.17436485,0.11925094,0.003654316,12.458163,1.1910108e-07
2074488000,2074334666,6620172,-0.1744379,0.119302206,-0.0075504333,12.451567,5.0871813e-07
2074560000,2074408000,6620172,-0.17492522,0.119352624,-0.050354585,12.453069,2.2623464e-05
2074632000,2074480000,6620172,-0.17518817,0.11940221,-0.02716218,12.454594,6.581989e-06
2074704000,2074550666,6620172,-0.17554587,0.11945098,-0.036939517,12.456139,1.2171847e-05
2074776000,2074624000,6620172,-0.1767199,0.11949895,-0.12120706,12.457705,0.00013103137
2074848000,2074694666,6620172,-0.17719483,0.119546145,-0.04901862,12.4592905,2.1428234e-05
2074920000,2074766666,6620172,-0.17822051,0.119591795,-0.10576415,12.4526205,9.980992e-05
2074992000,2074840000,6620172,-0.17860092,0.1196367,-0.039217234,12.45413,1.37213865e-05
2075064000,2074910666,6620172,-0.17876336,0.11968088,-0.016742095,12.45566,2.5004051e-06
2075136000,2074984000,6620172,-0.17926694,0.11972435,-0.051888496,12.457211,2.4014793e-05
2075208000,2075056000,6620172,-0.17874993,0.11976712,0.053259864,12.458782,2.5297757e-05
2075280000,2075128000,6620172,-0.17917237,0.119808435,-0.04347907,12.45214,1.6868404e-05
2075352000,2075200000,6620172,-0.17986898,0.119849086,-0.071682125,12.453633,4.5844066e-05
2075424000,2075272000,6620172,-0.18033649,0.119889095,-0.048097327,12.455149,2.0637186e-05
2075496000,2075344000,6620172,-0.1807601,0.11992847,-0.04357098,12.456685,1.6933614e-05
2075568000,2075414666,6620172,-0.18085918,0.11996723,-0.010188386,12.458241,9.257879e-07
2075640000,2075486666,6620172,-0.18131734,0.12000538,-0.04710713,12.45982,1.9788778e-05
2075712000,2075560000,6620172,-0.18046375,0.12004215,0.087689415,12.45311,6.8607886e-05
2075784000,2075629333,6620172,-0.1800631,0.120078355,0.041151002,12.454611,1.51073455e-05
2075848000,2075692000,6620172,-0.1803281,0.11998139,-0.02724281,12.455769,6.6204993e-06
2075904000,2075752000,6620172,-0.17991808,0.11975382,0.04223606,12.456575,1.5912032e-05
2075976000,2075822666,6620172,-0.17952883,0.11979596,0.040086538,12.45814,1.4331821e-05
2076048000,2075896000,6620172,-0.17915572,0.11983743,0.03841555,12.459726,1.3160219e-05
2076120000,2075968000,6620172,-0.17889538,0.119877465,0.026781455,12.453023,6.3995735e-06
2076192000,2076040000,6620172,-0.17904581,0.119916864,-0.015471071,12.454534,2.1353583e-06
2076264000,2076112000,6620172,-0.1796827,0.11995564,-0.06549154,12.456066,3.8260183e-05
2076336000,2076182666,6620172,-0.17946814,0.119993806,0.02205941,12.457621,4.3402047e-06
2076408000,2076256000,6620172,-0.17918704,0.12003138,0.02889441,12.459199,7.4455197e-06
2076480000,2076328000,6620172,-0.17839736,0.12006759,0.08110355,12.452518,5.8692152e-05
2076552000,2076398666,6620172,-0.17822625,0.12010324,0.01756972,12.454018,2.7540873e-06
2076624000,2076472000,6620172,-0.1782919,0.12013834,-0.0067407936,12.455539,4.0533774e-07
2076696000,2076544000,6620172,-0.17940788,0.1201729,-0.11455478,12.457084,0.00011704895
2076768000,2076614666,6620172,-0.18004574,0.12020694,-0.06546517,12.45865,3.8221442e-05
2076840000,2076688000,6620172,-0.18039614,0.12024046,-0.03595768,12.460238,1.1529605e-05
2076912000,2076760000,6620172,-0.17999189,0.12027268,0.041449606,12.453482,1.5328778e-05
2076984000,2076830666,6620172,-0.1801458,0.12030442,-0.015778378,12.45499,2.2209501e-06
2077056000,2076902666,6620172,-0.18025923,0.12033569,-0.011626661,12.456521,1.2057874e-06
2077128000,2076974666,6620172,-0.17988175,0.1203665,0.038688183,12.458074,1.3349447e-05
2077200000,2077046666,6620172,-0.17985126,0.12039685,0.003123939,12.459646,8.702758e-08
2077272000,2077118666,6620172,-0.17917106,0.12042598,0.06965229,12.452921,4.3286956e-05
2077344000,2077192000,6620172,-0.17963363,0.12045467,-0.047360927,12.454412,2.0011268e-05
2077416000,2077264000,6620172,-0.18035288,0.120482944,-0.07363175,12.455925,4.8362832e-05
2077488000,2077336000,6620172,-0.18118742,0.12051082,-0.08542471,12.4574585,6.5087115e-05
2077560000,2077408000,6620172,-0.18172377,0.120538294,-0.054896563,12.459012,2.6875972e-05
2077632000,2077478666,6620172,-0.18155538,0.120565385,0.017234027,12.460584,2.6484552e-06
2077696000,2077540000,6620172,-0.1815258,0.12045871,0.0030275434,12.453441,8.178034e-08
2077752000,2077600000,6620172,-0.18217425,0.12022162,-0.06652108,12.454212,3.9478426e-05
2077824000,2077672000,6620172,-0.1824282,0.12025443,-0.026047185,12.455723,6.052157e-06
2077896000,2077744000,6620172,-0.1830249,0.12028674,-0.06119363,12.457253,3.340009e-05
2077968000,2077814666,6620172,-0.18418819,0.12031857,-0.11928223,12.458803,0.00012689155
2078032000,2077876000,6620172,-0.18430996,0.12021733,-0.012497604,12.459994,1.3928142e-06
2078088000,2077936000,6620172,-0.18368387,0.11998479,0.06434536,12.452548,3.6943136e-05
2078160000,2078008000,6620172,-0.18329245,0.12002205,0.040220737,12.454037,1.4432694e-05
2078232000,2078080000,6620172,-0.18341063,0.12005873,-0.012142122,12.455546,1.3151761e-06
2078304000,2078150666,6620172,-0.1835767,0.12009484,-0.017059341,12.457076,2.595768e-06
2078376000,2078222666,6620172,-0.1839287,0.1201304,-0.03614986,12.458625,1.1654686e-05
2078448000,2078294666,6620172,-0.18323384,0.12016541,0.07134935,12.460195,4.5395493e-05
2078520000,2078368000,6620172,-0.18319392,0.1201991,0.0040956587,12.453458,1.4966321e-07
2078592000,2078440000,6620172,-0.18262246,0.12023227,0.058621168,12.454951,3.065663e-05
2078664000,2078510666,6620172,-0.18184762,0.12026494,0.07947305,12.456466,5.6338125e-05
2078736000,2078584000,6620172,-0.18160276,0.12029712,0.025109336,12.458,5.623149e-06
2078808000,2078656000,6620172,-0.18151295,0.12032882,0.009208962,12.459556,7.5626906e-07
2078880000,2078726666,6620172,-0.18082315,0.120359264,0.07067311,12.452867,4.456527e-05
2078944000,2078788000,6620172,-0.18088765,0.12025666,-0.0066158175,12.453987,3.904956e-07
2079000000,2078848000,6620172,-0.18077679,0.12002357,0.0113930255,12.454764,1.1579775e-06
2079072000,2078920000,6620172,-0.18072192,0.12006029,0.005636409,12.456284,2.8338312e-07
2079144000,2078992000,6620172,-0.18044744,0.12009644,0.028195068,12.457824,7.090251e-06
2079216000,2079064000,6620172,-0.18055087,0.12013203,-0.010623112,12.459385,1.0063857e-06
2079288000,2079136000,6620172,-0.18139982,0.120166294,-0.087118804,12.452717,6.7720044e-05
2079360000,2079208000,6620172,-0.18095988,0.12020004,0.045138836,12.454201,1.8177841e-05
2079432000,2079278666,6620172,-0.18154214,0.12023327,-0.05973226,12.455708,3.1827825e-05
2079504000,2079352000,6620172,-0.18116018,0.12026599,0.03917764,12.457235,1.3690282e-05
2079576000,2079424000,6620172,-0.18152255,0.12029822,-0.037162572,12.458783,1.2316672e-05
2079648000,2079496000,6620172,-0.18128888,0.120329976,0.023960292,12.460351,5.11931e-06
2079720000,2079566666,6620172,-0.18085894,0.12036047,0.044051334,12.453625,1.73133e-05
2079784000,2079628000,6620172,-0.18067107,0.120257914,0.019268364,12.454757,3.3121646e-06
2079840000,2079686666,6620172,-0.18049252,0.12002487,0.018348068,12.455542,3.00314e-06
2079912000,2079758666,6620172,-0.1817399,0.120061636,-0.12816226,12.457075,0.00014650814
2079984000,2079832000,6620172,-0.18160139,0.12009784,0.01422891,12.458629,1.8056375e-06
2080056000,2079902666,6620172,-0.18182345,0.12013338,-0.022805348,12.459099,4.638144e-06
2080128000,2079974666,6620172,-0.18200187,0.120167695,-0.01831083,12.453491,2.9914547e-06
2080200000,2080046666,6620172,-0.18369007,0.12020148,-0.17322274,12.4549885,0.00026768495
2080264000,2080108000,6620172,-0.18370548,0.12010216,-0.0015821457,12.456142,2.2328877e-08
2080320000,2080168000,6620172,-0.18477227,0.11987227,-0.10978207,12.4569435,0.00010750009
2080392000,2080240000,6620172,-0.18527424,0.11991215,-0.05164741,12.458502,2.378969e-05
2080464000,2080312000,6620172,-0.18532617,0.11995062,-0.0053385496,12.451899,2.5431297e-07
2080536000,2080381333,6620172,-0.18679157,0.119988486,-0.15061133,12.453379,0.00020238837
2080608000,2080453333,6620172,-0.18741114,0.120025754,-0.063666195,12.454882,3.6160607e-05
2080672000,2080516000,6620172,-0.18770072,0.11992984,-0.02978246,12.456039,7.912225e-06
2080728000,2080576000,6620172,-0.1879416,0.11970329,-0.024823695,12.456845,5.4964503e-06
2080800000,2080648000,6620172,-0.18913782,0.11974644,-0.12324615,12.458408,0.00013546954
2080872000,2080718666,6620172,-0.18883018,0.119788125,0.031667113,12.451813,8.948327e-06
2080936000,2080780000,6620172,-0.18848255,0.119696535,0.035815045,12.452942,1.14450195e-05
2080992000,2080840000,6620172,-0.18882336,0.11947422,-0.035180777,12.453728,1.104254e-05
2081064000,2080910666,6620172,-0.18897821,0.119521506,-0.01598011,12.455255,2.278056e-06
2081136000,2080984000,6620172,-0.18908723,0.11956803,-0.01124762,12.456801,1.1284237e-06
2081208000,2081056000,6620172,-0.18992749,0.1196138,-0.08666961,12.458368,6.699309e-05
2081280000,2081128000,6620172,-0.18955922,0.11965805,0.03794995,12.451777,1.2851344e-05
2081352000,2081198666,6620172,-0.18906292,0.119701594,0.051131487,12.453266,2.332658e-05
2081424000,2081272000,6620172,-0.1892184,0.11974443,-0.016015202,12.454778,2.2881597e-06
2081496000,2081344000,6620172,-0.18914866,0.119786575,0.0071810484,12.456309,4.5998516e-07
2081568000,2081416000,6620172,-0.18927078,0.11982805,-0.012572527,12.457861,1.4098053e-06
2081640000,2081486666,6620172,-0.19004014,0.119868875,-0.079192355,12.459434,5.592754e-05
2081704000,2081548000,6620172,-0.19046395,0.11977567,-0.043632954,12.452419,1.6987638e-05
2081760000,2081608000,6620172,-0.1910683,0.11955177,-0.062343672,12.4531975,3.4678586e-05
2081832000,2081680000,6620172,-0.19103341,0.11959751,0.0035988241,12.454713,1.1554337e-07
2081904000,2081752000,6620172,-0.19150735,0.1196425,-0.048865274,12.456248,2.1299573e-05
2081976000,2081822666,6620172,-0.19224714,0.119686775,-0.076253876,12.457804,5.186088e-05
2082048000,2081894666,6620172,-0.19349371,0.11973033,-0.12846209,12.459379,0.00014716721
2082120000,2081968000,6620172,-0.19367795,0.11977242,-0.01896967,12.452726,3.210795e-06
2082192000,2082040000,6620172,-0.1931673,0.11981383,0.052564666,12.454226,2.4650662e-05
2082264000,2082112000,6620172,-0.19371271,0.11985458,-0.056130797,12.455746,2.8105425e-05
2082336000,2082184000,6620172,-0.19401537,0.119894676,-0.031140804,12.457287,8.649553e-06
2082408000,2082256000,6620172,-0.19374852,0.11993414,0.027450427,12.458847,6.720133e-06
2082480000,2082328000,6620172,-0.19483441,0.119972214,-0.11161037,12.452224,0.00011115261
2082552000,2082398666,6620172,-0.19546686,0.12000969,-0.06499225,12.453708,3.7686168e-05
2082616000,2082460000,6620172,-0.19729692,0.11991397,-0.18823065,12.45485,0.00031608195
2082672000,2082520000,6620172,-0.19768602,0.119687624,-0.040099323,12.455646,1.43438365e-05
2082744000,2082592000,6620172,-0.19833237,0.11973096,-0.06659621,12.45719,3.9558192e-05
2082816000,2082662666,6620172,-0.19880936,0.1197736,-0.04913467,12.458755,2.1530741e-05
2082888000,2082736000,6620172,-0.19905351,0.11981478,-0.025128633,12.452141,5.6344456e-06
2082960000,2082808000,6620172,-0.19948398,0.119855314,-0.044293657,12.453629,1.7504297e-05
2083032000,2082880000,6620172,-0.19978131,0.1198952,-0.030588046,12.455137,8.346654e-06
2083104000,2082952000,6620172,-0.20099562,0.11993445,-0.1248952,12.456667,0.00013913844
2083176000,2083024000,6620172,-0.20215534,0.119973086,-0.11925584,12.458217,0.00012684138
2083248000,2083096000,6620172,-0.20289229,0.12001112,-0.07576825,12.459786,5.1194274e-05
2083320000,2083166666,6620172,-0.20333542,0.120047785,-0.045520797,12.453108,1.8488405e-05
2083384000,2083228000,6620172,-0.20386349,0.11995127,-0.054293975,12.454242,2.6299258e-05
2083440000,2083288000,6620172,-0.20407227,0.11972414,-0.021508828,12.4550295,4.1271114e-06
2083512000,2083358666,6620172,-0.20413359,0.119766705,-0.006315917,12.456563,3.5582138e-07
2083584000,2083432000,6620172,-0.20509349,0.11980859,-0.09884493,12.458117,8.713927e-05
2083656000,2083502666,6620172,-0.20603399,0.11984971,-0.09681691,12.458595,8.3597035e-05
2083728000,2083576000,6620172,-0.20794426,0.119889505,-0.19649287,12.453022,0.00034448976
2083800000,2083648000,6620172,-0.20753981,0.119928665,0.04159294,12.454519,1.5433689e-05
2083872000,2083720000,6620172,-0.20886071,0.11996721,-0.13581346,12.4560375,0.00016453686
2083944000,2083792000,6620172,-0.20928405,0.120005146,-0.04351966,12.457578,1.6892536e-05
2084016000,2083864000,6620172,-0.20986578,0.120042495,-0.059789434,12.459135,3.1880012e-05
2084088000,2083936000,6620172,-0.21078794,0.12007849,-0.09469965,12.4525,8.001984e-05
2084160000,2084008000,6620172,-0.21154048,0.120113924,-0.07726748,12.453981,5.3265107e-05
2084232000,2084080000,6620172,-0.21217018,0.12014881,-0.06464361,12.455485,3.7277605e-05
2084304000,2084150666,6620172,-0.21327254,0.120183155,-0.1131472,12.457009,0.00011419086
2084368000,2084212000,6620172,-0.21352428,0.12008438,-0.0258632,12.458182,5.9657814e-06
2084424000,2084272000,6620172,-0.21440364,0.11985504,-0.09052235,12.458997,7.30779e-05
2084496000,2084344000,6620172,-0.21470435,0.11989467,-0.030927166,12.452374,8.534647e-06
2084568000,2084416000,6620172,-0.2152494,0.119933665,-0.056047603,12.453861,2.8026416e-05
2084640000,2084486666,6620172,-0.2157195,0.11997205,-0.048330918,12.455368,2.0837759e-05
2084704000,2084548000,6620172,-0.21726207,0.11987723,-0.15873118,12.456531,0.00022474234
2084760000,2084608000,6620172,-0.21800168,0.11965175,-0.07625599,12.457338,5.1865696e-05
2084832000,2084678666,6620172,-0.21797785,0.11969594,0.0024560243,12.458905,5.3795123e-08
2084904000,2084752000,6620172,-0.219256,0.11973865,-0.13163152,12.4522915,0.00015460659
2084976000,2084824000,6620172,-0.2201302,0.119780675,-0.09000914,12.453783,7.228187e-05
2085048000,2084896000,6620172,-0.22188194,0.119822025,-0.18032146,12.455296,0.00029006696
2085120000,2084966666,6620172,-0.22240661,0.11986271,-0.053996965,12.456828,2.6006908e-05
2085184000,2085028000,6620172,-0.2237298,0.119770154,-0.136297,12.458009,0.00016568435
2085240000,2085088000,6620172,-0.22543855,0.11954689,-0.17635565,12.458831,0.00027736966
2085312000,2085158666,6620172,-0.2268165,0.11959249,-0.14208464,12.452226,0.00018013778
2085376000,2085220000,6620172,-0.2279354,0.119504735,-0.11546865,12.453363,0.00011895947
2085432000,2085280000,6620172,-0.22921224,0.11928617,-0.13201943,12.454156,0.00015549589
2085504000,2085350666,6620172,-0.22945115,0.11933715,-0.02469401,12.455692,5.439674e-06
2085576000,2085424000,6620172,-0.23006997,0.119387284,-0.06394485,12.457248,3.64709e-05
2085648000,2085494666,6620172,-0.2304304,0.11943659,-0.0372335,12.458823,1.2363693e-05
2085720000,2085568000,6620172,-0.23160526,0.11948433,-0.121254176,12.452221,0.000131191
2085792000,2085638666,6620172,-0.2332429,0.11953128,-0.16896847,12.453721,0.0002547239
2085864000,2085710666,6620172,-0.23379056,0.11957747,-0.056490988,12.455242,2.8468437e-05
2085928000,2085772000,6620172,-0.23495057,0.11949029,-0.11975558,12.456415,0.00012792516
2085984000,2085832000,6620172,-0.23549852,0.11927229,-0.056675404,12.457233,2.8650036e-05
2086056000,2085902666,6620172,-0.23651333,0.11932372,-0.104925066,12.45773,9.819221e-05
2086128000,2085976000,6620172,-0.23728022,0.11937364,-0.07922153,12.452213,5.6001212e-05
2086200000,2086048000,6620172,-0.23819947,0.11942274,-0.094934136,12.453717,8.040875e-05
2086272000,2086118666,6620172,-0.23958865,0.11947103,-0.14342284,12.455243,0.00018350247
2086344000,2086192000,6620172,-0.2402374,0.119518526,-0.066960424,12.456788,3.9993352e-05
2086416000,2086264000,6620172,-0.24141002,0.11956525,-0.12099917,12.458353,0.00013057548
2086488000,2086336000,6620172,-0.2429983,0.11961045,-0.16374135,12.451777,0.000239245
2086560000,2086406666,6620172,-0.24327706,0.119654916,-0.028730214,12.453267,7.3646465e-06
2086632000,2086480000,6620172,-0.24321525,0.11969866,0.006369099,12.454777,3.618908e-07
2086704000,2086552000,6620172,-0.24464203,0.11974169,-0.1469825,12.456307,0.00019270787
2086776000,2086622666,6620172,-0.24585676,0.11978404,-0.12510894,12.457858,0.00013960173
2086848000,2086696000,6620172,-0.24608639,0.11982571,-0.02364397,12.459429,4.9854016e-06
2086920000,2086766666,6620172,-0.24743733,0.119865954,-0.13898441,12.452785,0.00017235475
2086992000,2086838666,6620172,-0.24788919,0.11990555,-0.046477467,12.454279,1.9271869e-05
2087056000,2086900000,6620172,-0.24858823,0.11981191,-0.071965545,12.455431,4.620064e-05
2087112000,2086960000,6620172,-0.24898121,0.11958759,-0.0405353,12.456233,1.4656747e-05
2087184000,2087032000,6620172,-0.24962646,0.11963292,-0.06654003,12.457788,3.9489583e-05
2087256000,2087102666,6620172,-0.25096726,0.119677424,-0.13822144,12.458275,0.0001703925
2087320000,2087164000,6620172,-0.25175962,0.11958793,-0.081704855,12.452371,5.9566377e-05
2087376000,2087224000,6620172,-0.25215435,0.11936766,-0.040781885,12.453152,1.4839278e-05
2087448000,2087296000,6620172,-0.25243574,0.11941696,-0.029065132,12.454672,7.536502e-06
2087520000,2087366666,6620172,-0.2530139,0.11946545,-0.059698045,12.456211,3.1790092e-05
2087584000,2087428000,6620172,-0.25342417,0.11938053,-0.042396247,12.457399,1.6031898e-05
2087640000,2087488000,6620172,-0.253532,0.11916475,-0.011163235,12.458228,1.111428e-06
2087712000,2087560000,6620172,-0.25427175,0.119217694,-0.076515615,12.451649,5.2243322e-05
2087784000,2087630666,6620172,-0.2547112,0.11926976,-0.04544139,12.453151,1.8423894e-05
2087848000,2087692000,6620172,-0.2561685,0.11918834,-0.15080637,12.45431,0.00020289772
2087904000,2087750666,6620172,-0.25735238,0.118975975,-0.122737736,12.455121,0.00013438963
2087976000,2087824000,6620172,-0.2585491,0.11903304,-0.12402579,12.456682,0.0001372079
2088048000,2087896000,6620172,-0.2594407,0.11908915,-0.09237254,12.458263,7.610018e-05
2088120000,2087966666,6620172,-0.2600984,0.11914356,-0.06807396,12.451703,4.1351446e-05
2088192000,2088040000,6620172,-0.26140743,0.11919706,-0.13543993,12.453209,0.00016367022
2088264000,2088112000,6620172,-0.26235667,0.11924967,-0.09818119,12.454735,8.599626e-05
2088336000,2088184000,6620172,-0.2624972,0.11930141,-0.014529318,12.456282,1.8830398e-06
2088408000,2088256000,6620172,-0.26338598,0.11935229,-0.09187293,12.457848,7.5281736e-05
2088480000,2088326666,6620172,-0.26426554,0.119401574,-0.09083155,12.451307,7.3623414e-05
2088552000,2088400000,6620172,-0.26533723,0.11945004,-0.11064291,12.452798,0.000109228946
2088624000,2088472000,6620172,-0.2653684,0.11949771,-0.0032174587,12.4543085,9.235573e-08
2088696000,2088544000,6620172,-0.26587546,0.1195446,-0.052319586,12.455841,2.4418167e-05
2088768000,2088614666,6620172,-0.2659884,0.11959073,-0.011651397,12.457393,1.2108388e-06
2088832000,2088676000,6620172,-0.26689294,0.1195035,-0.09338659,12.4585905,7.777815e-05
2088888000,2088734666,6620172,-0.26728484,0.11928469,-0.040510625,12.451296,1.4644712e-05
2088960000,2088808000,6620172,-0.26746488,0.11933542,-0.018603832,12.45279,3.0881304e-06
2089032000,2088880000,6620172,-0.26748163,0.11938531,-0.0017306805,12.454306,2.6722171e-08
2089104000,2088950666,6620172,-0.268109,0.11943438,-0.064793766,12.455842,3.7449918e-05
2089176000,2089024000,6620172,-0.2687,0.119482644,-0.061023086,12.457398,3.3213793e-05
2089248000,2089096000,6620172,-0.26921153,0.11953012,-0.052802682,12.458974,2.4864925e-05
2089320000,2089168000,6620172,-0.26912734,0.11957606,0.008682966,12.452361,6.7273186e-07
2089392000,2089240000,6620172,-0.2695643,0.11962125,-0.045051128,12.453861,1.8107763e-05
2089464000,2089312000,6620172,-0.26973924,0.1196657,-0.018033355,12.455382,2.9010387e-06
2089536000,2089384000,6620172,-0.2701592,0.11970943,-0.04327956,12.4569235,1.6707534e-05
2089608000,2089454666,6620172,-0.2710009,0.11975247,-0.086713344,12.458485,6.706009e-05
2089680000,2089528000,6620172,-0.271737,0.11979404,-0.07577035,12.451898,5.1229545e-05
2089752000,2089600000,6620172,-0.27261707,0.11983495,-0.09056768,12.453383,7.318408e-05
2089824000,2089670666,6620172,-0.2735472,0.11987521,-0.09569958,12.454889,8.1702936e-05
2089896000,2089742666,6620172,-0.27343103,0.11991482,0.011950523,12.456415,1.2739085e-06
2089960000,2089804000,6620172,-0.27438256,0.11982121,-0.09796789,12.457592,8.560338e-05
2090016000,2089864000,6620172,-0.27478638,0.11959692,-0.041657478,12.45841,1.5476788e-05
2090088000,2089936000,6620172,-0.2751754,0.11964151,-0.04009399,12.45183,1.4344414e-05
2090160000,2090008000,6620172,-0.27644244,0.11968538,-0.13055581,12.45332,0.00015207742
2090232000,2090080000,6620172,-0.27661234,0.119728535,-0.017502874,12.45483,2.7329925e-06
