timestamp,yaw_sp_move_rate,q_d[0],q_d[1],q_d[2],q_d[3],thrust_body[0],thrust_body[1],thrust_body[2]
2043328000,0.0,0.07634602,0.0,0.0,0.9970814,0.0,0.0,-0.001
2043336000,0.0,0.07636848,0.0,0.0,0.9970797,0.0,0.0,-0.001
2043376000,0.0,0.076416984,0.0,0.0,0.997076,0.0,0.0,-0.001
2043424000,0.0,0.07646299,0.0,0.0,0.9970724,0.0,0.0,-0.001
2043472000,0.0,0.076469876,0.0,0.0,0.9970719,0.0,0.0,-0.001
2043528000,0.0,0.07628921,0.0,0.0,0.99708575,0.0,0.0,-0.001
2043576000,0.0,0.076306805,0.0,0.0,0.9970844,0.0,0.0,-0.001
2043624000,0.0,0.07637787,0.0,0.0,0.99707896,0.0,0.0,-0.001
2043672000,0.0,0.07633318,0.0,0.0,0.9970824,0.0,0.0,-0.001
2043728000,0.0,0.07623976,0.0,0.0,0.9970895,0.0,0.0,-0.001
2043776000,0.0,0.07617106,0.0,0.0,0.9970948,0.0,0.0,-0.001
2043824000,0.0,0.07610545,0.0,0.0,0.99709976,0.0,0.0,-0.001
2043872000,0.0,0.076215275,0.0,0.0,0.9970914,0.0,0.0,-0.001
2043920000,0.0,0.07623393,0.0,0.0,0.99709,0.0,0.0,-0.001
2043976000,0.0,0.07638454,0.0,0.0,0.9970784,0.0,0.0,-0.001
2044024000,0.0,0.07640296,0.0,0.0,0.997077,0.0,0.0,-0.001
2044080000,0.0,0.0764518,0.0,0.0,0.9970733,0.0,0.0,-0.001
2044120000,0.0,0.07638049,0.0,0.0,0.9970787,0.0,0.0,-0.001
2044176000,0.0,0.07641247,0.0,0.0,0.9970763,0.0,0.0,-0.001
2044224000,0.0,0.07647986,0.0,0.0,0.99707115,0.0,0.0,-0.001
2044272000,0.0,0.07642994,0.0,0.0,0.99707496,0.0,0.0,-0.001
2044320000,0.0,0.07650673,0.0,0.0,0.99706906,0.0,0.0,-0.001
2044376000,0.0,0.07650247,0.0030764285,-0.004258232,0.99705553,0.0,0.0,-0.0074866973
2044424000,0.0,0.076502934,0.0032332619,-0.004236464,0.9970551,0.0,0.0,-0.0138809215
2044472000,0.0,0.07650078,0.0029305331,-0.0038903246,0.9970576,0.0,0.0,-0.020704148
2044528000,0.0,0.07649917,0.0028214648,-0.003473687,0.9970596,0.0,0.0,-0.029586367
2044576000,0.0,0.076497614,0.0026438108,-0.0031048288,0.99706143,0.0,0.0,-0.037365906
2044624000,0.0,0.0764987,0.0025313657,-0.003600514,0.99705994,0.0,0.0,-0.045776144
2044680000,0.0,0.07650083,0.0030417044,-0.0037961933,0.9970576,0.0,0.0,-0.05598059
2044720000,0.0,0.07650134,0.0030840584,-0.003909491,0.9970571,0.0,0.0,-0.063969955
2044776000,0.0,0.07650217,0.0036305606,-0.0036893506,0.99705595,0.0,0.0,-0.07438093
2044824000,0.0,0.076502584,0.0035602872,-0.0038512188,0.9970556,0.0,0.0,-0.08414442
2044872000,0.0,0.07650081,0.0037061102,-0.0032896602,0.9970572,0.0,0.0,-0.094384626
2044920000,0.0,0.07649971,0.0040415283,-0.0028415038,0.9970574,0.0,0.0,-0.104925334
2044976000,0.0,0.0765015,0.0037896037,-0.0034097699,0.9970565,0.0,0.0,-0.11798789
2045024000,0.0,0.07649887,0.003824337,-0.002730928,0.99705863,0.0,0.0,-0.12936692
2045072000,0.0,0.076498434,0.003820128,-0.002625661,0.9970589,0.0,0.0,-0.14110698
2045120000,0.0,0.07649882,0.0043820282,-0.0025057562,0.9970569,0.0,0.0,-0.15411265
2045176000,0.0,0.07650071,0.0041462798,-0.003025494,0.9970563,0.0,0.0,-0.16919094
2045224000,0.0,0.07649977,0.004444067,-0.0026927993,0.9970561,0.0,0.0,-0.18250106
2045280000,0.0,0.07649862,0.004371933,-0.0024635678,0.9970571,0.0,0.0,-0.19936582
2045320000,0.0,0.07649982,0.004096018,-0.0028421408,0.9970571,0.0,0.0,-0.21141198
2045376000,0.0,0.076256365,0.0037697826,-0.0029304463,0.9970768,0.0,0.0,-0.22844566
2045424000,0.0,0.07612687,0.0039758775,-0.0033053115,0.9970848,0.0,0.0,-0.24381158
2045480000,0.0,0.0761341,0.0044858768,-0.0029488567,0.9970831,0.0,0.0,-0.26224175
2045528000,0.0,0.07616962,0.004670239,-0.0033835277,0.9970782,0.0,0.0,-0.27889457
2045576000,0.0,0.07613464,0.004415682,-0.0031679412,0.99708277,0.0,0.0,-0.29556778
2045624000,0.0,0.076200314,0.0049272785,-0.0036513645,0.9970737,0.0,0.0,-0.31167752
2045680000,0.0,0.0761744,0.0052149077,-0.0034762346,0.99707484,0.0,0.0,-0.3154491
2045720000,0.0,0.07621127,0.0046734167,-0.0026075304,0.99707735,0.0,0.0,-0.31954914
2045776000,0.0,0.07619627,0.0047051096,-0.0026920314,0.9970781,0.0,0.0,-0.32615295
2045824000,0.0,0.076184236,0.0050371103,-0.0026103717,0.9970776,0.0,0.0,-0.33180264
2045880000,0.0,0.076327614,0.004204931,-0.0021402999,0.9970717,0.0,0.0,-0.33597523
2045928000,0.0,0.076426506,0.0050362768,-0.0024102177,0.9970596,0.0,0.0,-0.34323478
2045976000,0.0,0.07637655,0.0043647434,-0.0031205865,0.99706465,0.0,0.0,-0.34788564
2046024000,0.0,0.07635179,0.004402338,-0.0023397785,0.99706846,0.0,0.0,-0.35370937
2046080000,0.0,0.07640571,0.005354039,-0.0026017746,0.9970591,0.0,0.0,-0.35855314
2046128000,0.0,0.07643283,0.0057348623,-0.0025221051,0.997055,0.0,0.0,-0.3658719
2046176000,0.0,0.07636798,0.0055776495,-0.0020796116,0.99706197,0.0,0.0,-0.37067208
2046224000,0.0,0.07637076,0.005205635,-0.0024820878,0.9970628,0.0,0.0,-0.37730727
2046272000,0.0,0.07643606,0.0055911364,-0.0027408071,0.99705505,0.0,0.0,-0.3829747
2046328000,0.0,0.07632228,0.006007701,-0.0031641326,0.99706006,0.0,0.0,-0.39118773
2046376000,0.0,0.076405905,0.005796932,-0.0031189995,0.99705505,0.0,0.0,-0.3966454
2046424000,0.0,0.07648575,0.0058920286,-0.00299072,0.9970488,0.0,0.0,-0.40380007
2046472000,0.0,0.07657257,0.005827119,-0.0033146017,0.99704146,0.0,0.0,-0.40960854
2046528000,0.0,0.07640991,0.005524923,-0.0029688869,0.9970567,0.0,0.0,-0.41895887
2046576000,0.0,0.07645139,0.0063478453,-0.0032293028,0.9970479,0.0,0.0,-0.42507216
2046624000,0.0,0.076520495,0.006953906,-0.0033090515,0.99703825,0.0,0.0,-0.43232903
2046680000,0.0,0.07667146,0.0068336516,-0.0029703423,0.9970286,0.0,0.0,-0.43935466
2046728000,0.0,0.07670472,0.0071816985,-0.003016743,0.9970234,0.0,0.0,-0.44889253
2046776000,0.0,0.07687811,0.0072746417,-0.0032539724,0.9970086,0.0,0.0,-0.45573416
2046824000,0.0,0.07708526,0.0071219536,-0.0033698694,0.99699336,0.0,0.0,-0.46327
2046880000,0.0,0.07723736,0.007016759,-0.0029446562,0.9969837,0.0,0.0,-0.47072384
2046920000,0.0,0.077399485,0.0077980817,-0.0028760554,0.9969655,0.0,0.0,-0.4766416
2046976000,0.0,0.077400774,0.0072755376,-0.0018010896,0.99697185,0.0,0.0,-0.4873891
2047024000,0.0,0.077271305,0.007084823,-0.0020480521,0.9969829,0.0,0.0,-0.494772
2047080000,0.0,0.07726567,0.0075311298,-0.0024283193,0.9969792,0.0,0.0,-0.502711
2047128000,0.0,0.07727087,0.0076849097,-0.002764012,0.99697673,0.0,0.0,-0.5134502
2047176000,0.0,0.07716823,0.008154236,-0.0021966838,0.99698234,0.0,0.0,-0.52065396
2047224000,0.0,0.0771426,0.0077742836,-0.002385766,0.9969869,0.0,0.0,-0.5290176
2047280000,0.0,0.077114545,0.007828282,-0.0017917093,0.9969899,0.0,0.0,-0.5371497
2047328000,0.0,0.07714749,0.008275136,-0.001885292,0.9969836,0.0,0.0,-0.548692
2047376000,0.0,0.07719885,0.007825265,-0.0015079741,0.9969839,0.0,0.0,-0.58197063
2047424000,0.0,0.07718101,0.00820437,-0.0017124207,0.9969819,0.0,0.0,-0.5901273
2047472000,0.0,0.07717803,0.008357531,-0.0017026793,0.9969809,0.0,0.0,-0.59784484
2047528000,0.0,0.07733026,0.008316296,-0.0023119317,0.99696815,0.0,0.0,-0.60977876
2047576000,0.0,0.077347994,0.00899126,-0.0018461864,0.9969619,0.0,0.0,-0.61780375
2047624000,0.0,0.07744466,0.008744829,-0.0017775767,0.9969567,0.0,0.0,-0.6264702
2047680000,0.0,0.07732793,0.008705479,-0.001349036,0.9969668,0.0,0.0,-0.63599825
2047728000,0.0,0.07738847,0.008543155,-0.0010359905,0.9969639,0.0,0.0,-0.6489371
2047776000,0.0,0.07740315,0.008685383,-0.0007281755,0.9969618,0.0,0.0,-0.6576722
2047824000,0.0,0.07734297,0.008379567,-0.0010344018,0.9969688,0.0,0.0,-0.6669927
2047880000,0.0,0.07731877,0.008838191,-0.0012912155,0.9969664,0.0,0.0,-0.6767294
2047928000,0.0,0.07725298,0.009042411,-0.0009979171,0.99697006,0.0,0.0,-0.6903154
2047976000,0.0,0.07729513,0.008991318,-0.0012001808,0.996967,0.0,0.0,-0.6993919
2048024000,0.0,0.07726168,0.0084276255,-0.0007681924,0.99697495,0.0,0.0,-0.7072553
2048080000,0.0,0.07729685,0.00787412,-0.0006588621,0.9969768,0.0,0.0,-0.713985
2048120000,0.0,0.07721798,0.0068395073,-0.00039975098,0.9969907,0.0,0.0,-0.71992826
2048176000,0.0,0.07733414,0.0055022966,-0.00035085808,0.99698997,0.0,0.0,-0.7308471
2048224000,0.0,0.07742385,0.0038166926,7.869573e-05,0.996991,0.0,0.0,-0.73575056
2048280000,0.0,0.07736398,0.0005773971,0.0007078686,0.9970025,0.0,0.0,-0.7381401
2048328000,0.0,0.07738002,-0.0025123116,0.0018041166,0.9969969,0.0,0.0,-0.7451648
2048376000,0.0,0.07750889,-0.005959767,0.002930633,0.9969696,0.0,0.0,-0.7467344
2048424000,0.0,0.077672735,-0.00908186,0.003041605,0.9969329,0.0,0.0,-0.7475144
2048480000,0.0,0.07754268,-0.011768051,0.0041580894,0.9969109,0.0,0.0,-0.7474074
2048528000,0.0,0.0775593,-0.014613377,0.005010617,0.99686813,0.0,0.0,-0.7535938
2048576000,0.0,0.07759884,-0.01594494,0.0050125755,0.99684453,0.0,0.0,-0.75309265
2048624000,0.0,0.07756112,-0.018038321,0.0048214663,0.99681276,0.0,0.0,-0.75280195
2048680000,0.0,0.07752273,-0.018850483,0.0051753973,0.99679893,0.0,0.0,-0.7503164
2048720000,0.0,0.07754141,-0.019791275,0.006041947,0.9967744,0.0,0.0,-0.7510051
2048776000,0.0,0.077435866,-0.020491265,0.005614615,0.9967709,0.0,0.0,-0.7555502
2048824000,0.0,0.07734194,-0.020889625,0.004933318,0.99677354,0.0,0.0,-0.7440238
2048880000,0.0,0.077170774,-0.021150194,0.0059828637,0.99677557,0.0,0.0,-0.73116225
2048920000,0.0,0.07717122,-0.02172444,0.0054343734,0.9967663,0.0,0.0,-0.7237497
2048976000,0.0,0.077158,-0.021676287,0.0047342735,0.996772,0.0,0.0,-0.7291744
2049024000,0.0,0.077330574,-0.021343628,0.004901885,0.996765,0.0,0.0,-0.7297705
2049072000,0.0,0.07743144,-0.021445975,0.004738203,0.9967558,0.0,0.0,-0.7302568
2049120000,0.0,0.07753213,-0.021507377,0.005029601,0.99674517,0.0,0.0,-0.7267176
2049176000,0.0,0.07756761,-0.020178705,0.005165478,0.9967694,0.0,0.0,-0.7242518
2049224000,0.0,0.077532426,-0.020536177,0.004903939,0.9967662,0.0,0.0,-0.7207968
2049272000,0.0,0.07739187,-0.020906288,0.0051219165,0.99676836,0.0,0.0,-0.7200427
2049320000,0.0,0.07720835,-0.020502906,0.0051667676,0.99679077,0.0,0.0,-0.7196489
2049376000,0.0,0.0771118,-0.020079382,0.004835191,0.9968085,0.0,0.0,-0.7247897
2049424000,0.0,0.07713412,-0.01967073,0.0048384387,0.9968149,0.0,0.0,-0.7215514
2049480000,0.0,0.07689384,-0.019139314,0.0046756724,0.99684465,0.0,0.0,-0.7205606
2049528000,0.0,0.07685939,-0.01862443,0.0040153298,0.9968599,0.0,0.0,-0.7262968
2049576000,0.0,0.07679513,-0.018139355,0.0041910396,0.9968731,0.0,0.0,-0.72537094
2049624000,0.0,0.07682003,-0.01768147,0.003599446,0.9968817,0.0,0.0,-0.7217159
2049672000,0.0,0.07685003,-0.017051335,0.003559416,0.99689054,0.0,0.0,-0.7208242
2049728000,0.0,0.07669496,-0.016614165,0.0034264808,0.99691033,0.0,0.0,-0.7256242
2049776000,0.0,0.076521486,-0.015705995,0.003014182,0.99693966,0.0,0.0,-0.7243759
2049824000,0.0,0.07648601,-0.014859616,0.002403926,0.996957,0.0,0.0,-0.72077733
2049880000,0.0,0.07656416,-0.014209256,0.002884907,0.9969592,0.0,0.0,-0.71840334
2049928000,0.0,0.07662267,-0.013099635,0.0023035058,0.9969715,0.0,0.0,-0.72336626
2049976000,0.0,0.07665956,-0.012088065,0.0017433674,0.9969825,0.0,0.0,-0.72181755
2050024000,0.0,0.07673656,-0.01151164,0.0018386735,0.9969833,0.0,0.0,-0.717869
2050080000,0.0,0.07678594,-0.011481296,0.0015713306,0.99698025,0.0,0.0,-0.71555537
2050120000,0.0,0.07673041,-0.010850147,0.0008593857,0.99699247,0.0,0.0,-0.7154424
2050176000,0.0,0.07667569,-0.010597149,0.0011432049,0.99699914,0.0,0.0,-0.719275
2050224000,0.0,0.076674506,-0.010060127,0.00062447845,0.9970053,0.0,0.0,-0.7153196
2050280000,0.0,0.07662152,-0.009862849,0.00038471073,0.9970114,0.0,0.0,-0.713831
2050320000,0.0,0.07664391,-0.009250249,0.0007881659,0.99701536,0.0,0.0,-0.71377724
2050376000,0.0,0.07668721,-0.008487729,0.00022425246,0.99701905,0.0,0.0,-0.7172897
2050424000,0.0,0.076764815,-0.008183936,-0.0002799815,0.9970156,0.0,0.0,-0.71413374
2050472000,0.0,0.07675241,-0.0077972333,-0.00034512824,0.99701965,0.0,0.0,-0.71339357
2050528000,0.0,0.076578215,-0.007946648,-0.00017810728,0.9970319,0.0,0.0,-0.71779966
2050576000,0.0,0.076473795,-0.008237451,-0.00067179074,0.99703735,0.0,0.0,-0.7168974
2050624000,0.0,0.076471835,-0.0076446817,-0.001036388,0.99704194,0.0,0.0,-0.7134132
2050680000,0.0,0.0766475,-0.007400839,-0.0006015694,0.9970306,0.0,0.0,-0.7111955
2050728000,0.0,0.07293859,-0.0072442805,-0.0006242818,0.99731,0.0,0.0,-0.715706
2050776000,0.0,0.073075265,-0.006172589,-0.0009223877,0.99730694,0.0,0.0,-0.7143536
2050824000,0.0,0.07302185,-0.005304594,-0.0011296766,0.9973156,0.0,0.0,-0.710944
2050880000,0.0,0.073006764,-0.0048291576,-0.00080018886,0.99731946,0.0,0.0,-0.7092607
2050928000,0.0,0.07303135,-0.0047300314,-0.0008679971,0.997318,0.0,0.0,-0.71344864
2050976000,0.0,0.07300673,-0.0042618904,-0.00050411036,0.9973222,0.0,0.0,-0.71211207
2051024000,0.0,0.07285679,-0.003219269,-0.0007958414,0.997337,0.0,0.0,-0.70884144
2051080000,0.0,0.07289047,-0.003093586,-0.001090121,0.99733454,0.0,0.0,-0.707583
2051128000,0.0,0.07303802,-0.0026513743,-0.0011070041,0.997325,0.0,0.0,-0.71168745
2051176000,0.0,0.07326337,-0.0032260232,-0.0010327973,0.9973069,0.0,0.0,-0.71110946
2051224000,0.0,0.07330289,-0.0025032295,-0.0010605749,0.99730605,0.0,0.0,-0.70802546
2051272000,0.0,0.07378033,-0.001787527,-0.0012893894,0.99727213,0.0,0.0,-0.7069495
2051328000,0.0,0.07392225,-0.0023223998,-0.0015824264,0.9972601,0.0,0.0,-0.7098877
2051376000,0.0,0.07417087,-0.0010349881,-0.0012692555,0.99724424,0.0,0.0,-0.7089996
2051424000,0.0,0.07437113,-0.0012096432,-0.0018504984,0.9972282,0.0,0.0,-0.70650333
2051472000,0.0,0.07449204,3.6082358e-05,-0.0016005306,0.9972203,0.0,0.0,-0.70550835
2051520000,0.0,0.07465685,2.9849236e-05,-0.0010353706,0.9972088,0.0,0.0,-0.7049792
2051576000,0.0,0.074813075,0.0006119701,-0.0013083025,0.99719656,0.0,0.0,-0.70791763
2051624000,0.0,0.07470006,0.00028724634,-0.0008139703,0.99720573,0.0,0.0,-0.70429176
2051680000,0.0,0.07469647,0.0008710757,-0.0015004204,0.9972048,0.0,0.0,-0.69595927
2051728000,0.0009615056,0.07461582,0.0011202579,-0.0014119048,0.99721074,0.0,0.0,-0.6830257
2051776000,0.0,0.074616306,0.0013497155,-0.0015715604,0.99721014,0.0,0.0,-0.67451274
2051824000,0.0,0.07461763,0.0017796629,-0.0019963358,0.99720865,0.0,0.0,-0.6615181
2051872000,0.0,0.07461669,0.0009709676,-0.0023567197,0.997209,0.0,0.0,-0.65440685
2051928000,0.0,0.074617766,0.0021081415,-0.0018259647,0.99720836,0.0,0.0,-0.65597594
2051976000,0.0,0.0746173,0.0020315303,-0.001660488,0.9972088,0.0,0.0,-0.6669286
2052024000,0.0,0.07461693,0.001867144,-0.0015634696,0.9972093,0.0,0.0,-0.67754227
2052080000,0.0,0.07461716,0.0022083137,-0.0015086111,0.9972087,0.0,0.0,-0.68701303
2052120000,0.0,0.07461727,0.0022295327,-0.001546078,0.9972086,0.0,0.0,-0.69653314
2052176000,0.0,0.07461609,0.0021188026,-0.0010552309,0.99720955,0.0,0.0,-0.7086089
2052224000,0.0,0.07461574,0.0018692601,-0.00095739693,0.9972102,0.0,0.0,-0.71713567
2052280000,0.0,0.07461533,0.0016831824,-0.0007708203,0.9972107,0.0,0.0,-0.719622
2052328000,0.0,0.07461564,0.0019330841,-0.0008905838,0.9972101,0.0,0.0,-0.72465837
2052376000,0.0,0.07461595,0.0016274953,-0.0011596424,0.9972104,0.0,0.0,-0.72192895
2052424000,0.0,0.0746162,0.0020456528,-0.0011397055,0.9972096,0.0,0.0,-0.7178478
2052472000,0.0,0.074616015,0.0024546767,-0.0009583869,0.9972089,0.0,0.0,-0.7135542
2052528000,0.0,0.07461531,0.0016662588,-0.0007689237,0.99721074,0.0,0.0,-0.7099887
2052576000,0.0,0.07461572,0.0016456294,-0.0010085603,0.9972105,0.0,0.0,-0.70784765
2052624000,0.0,0.07461522,0.0020229376,-0.0006615713,0.99721014,0.0,0.0,-0.7068997
2052680000,0.0,0.074614845,0.0022906845,-0.00048620044,0.99720967,0.0,0.0,-0.70559084
2052720000,0.0,0.074614584,0.0023434835,-0.00037513097,0.99720967,0.0,0.0,-0.70546436
2052776000,0.0,0.074616194,0.0021789065,-0.0010876716,0.99720937,0.0,0.0,-0.705378
2052824000,0.0,0.0746156,0.001665525,-0.00094430504,0.9972105,0.0,0.0,-0.70517427
2052880000,0.0,0.07461649,0.0021910414,-0.0012196836,0.99720913,0.0,0.0,-0.70445645
2052920000,0.0,0.074616216,0.0016437588,-0.0013072102,0.99721014,0.0,0.0,-0.70512015
2052976000,0.0,0.07461459,0.0011273124,-0.00036038336,0.99721175,0.0,0.0,-0.7051249
2053024000,0.0,0.07461516,0.0010788046,-0.0008793928,0.99721146,0.0,0.0,-0.70463806
2053072000,0.0,0.0746146,0.0015036487,-0.0003510363,0.9972113,0.0,0.0,-0.7052765
2053120000,0.0,0.07461453,0.00032447636,-0.00058459386,0.99721223,0.0,0.0,-0.7050622
2053176000,0.0,0.07461439,0.00014502103,-0.00035774364,0.9972124,0.0,0.0,-0.7046001
2053224000,0.0,0.0746144,0.00034068973,-0.00025048843,0.99721235,0.0,0.0,-0.70439893
2053280000,0.0,0.07461545,0.00085830915,-0.0013403367,0.99721116,0.0,0.0,-0.7042567
2053328000,0.0,0.07461492,0.00062538136,-0.0009592707,0.99721175,0.0,0.0,-0.70505166
2053376000,0.0,0.07461439,0.0001761335,-0.00034349473,0.9972124,0.0,0.0,-0.70515925
2053424000,0.0,0.074614346,0.0004131543,-9.0096604e-05,0.9972124,0.0,0.0,-0.7050745
2053480000,0.0,0.074614525,0.00075911713,-0.00033044617,0.9972121,0.0,0.0,-0.7049216
2053520000,0.0,0.07461446,0.00043246188,-0.00033316662,0.99721235,0.0,0.0,-0.70525485
2053576000,0.0,0.074614674,0.0004615556,-0.0007495511,0.9972121,0.0,0.0,-0.705939
2053624000,0.0,0.074614264,-0.00013844944,-0.0006309234,0.99721223,0.0,0.0,-0.70536745
2053672000,0.0,0.07461455,0.0005292854,-0.00044350204,0.99721223,0.0,0.0,-0.7052432
2053720000,0.0,0.07461448,0.00031513118,-0.00047803542,0.9972123,0.0,0.0,-0.70484346
2053776000,0.0,0.07461437,4.191543e-05,-0.00054430356,0.99721235,0.0,0.0,-0.7058848
2053824000,0.0,0.074614435,9.0459485e-05,-0.00082296453,0.9972121,0.0,0.0,-0.7059074
2053872000,0.0,0.07461517,0.0007159647,-0.0012059634,0.99721146,0.0,0.0,-0.7051812
2053928000,0.0,0.07461455,0.00019313136,-0.0009415798,0.997212,0.0,0.0,-0.706072
2053976000,0.0,0.07461471,0.00029496397,-0.0011461701,0.99721175,0.0,0.0,-0.70559555
2054024000,0.0,0.074614406,5.6022316e-05,-0.0008613475,0.9972121,0.0,0.0,-0.70486957
2054080000,0.0,0.07461443,2.8591332e-05,-0.0011831704,0.99721175,0.0,0.0,-0.704977
2054128000,0.0,0.074613795,-0.00078582857,-0.00062908843,0.99721205,0.0,0.0,-0.7054616
2054176000,0.0,0.074613966,-0.00039202833,-0.0010042929,0.99721193,0.0,0.0,-0.7059739
2054224000,0.0,0.07461389,-0.00046005842,-0.0010198256,0.9972119,0.0,0.0,-0.70540154
2054280000,0.0,0.0746143,-6.891014e-05,-0.0012784285,0.99721164,0.0,0.0,-0.70483744
2054328000,0.0,0.07461487,0.0002400539,-0.0017440802,0.9972109,0.0,0.0,-0.7059752
2054376000,0.0,0.07461424,-0.00014038883,-0.0009817167,0.997212,0.0,0.0,-0.7060958
2054424000,0.0,0.07461399,-0.00047100347,-0.00074365054,0.9972121,0.0,0.0,-0.7050542
2054472000,0.0,0.07461383,-0.0006803978,-0.0006789188,0.99721205,0.0,0.0,-0.7050567
2054528000,0.0,0.07461389,-0.00054111826,-0.0007943947,0.99721205,0.0,0.0,-0.70614225
2054576000,0.0,0.07461397,-0.00049189065,-0.00073000265,0.9972121,0.0,0.0,-0.7057155
2054624000,0.0,0.074614175,-0.0002333155,-0.0007943662,0.9972121,0.0,0.0,-0.7042976
2054672000,0.0,0.07461302,-0.0009690142,-0.001331549,0.9972112,0.0,0.0,-0.7043233
2054728000,0.0,0.07461387,-0.00040587847,-0.0012623786,0.99721164,0.0,0.0,-0.70634025
2054776000,0.0,0.07461299,-0.0013326282,-0.0008871876,0.9972113,0.0,0.0,-0.7057674
2054824000,0.0,0.07461342,-0.0006997625,-0.0013211764,0.9972114,0.0,0.0,-0.7048991
2054872000,0.0,0.07461344,-0.001067714,-0.000747475,0.9972117,0.0,0.0,-0.70489025
2054928000,0.0,0.074614,-0.0006537342,-0.00044551137,0.9972122,0.0,0.0,-0.7068446
2054976000,0.0,0.074614055,-0.0008183273,-0.0002745881,0.9972121,0.0,0.0,-0.70604366
2055024000,0.0,0.07461233,-0.0016010203,-0.0011186738,0.9972107,0.0,0.0,-0.7046325
2055080000,0.0,0.07461292,-0.001362444,-0.0009088208,0.9972113,0.0,0.0,-0.7038817
2055128000,0.0,0.074612,-0.0016927454,-0.0012431233,0.99721044,0.0,0.0,-0.70514137
2055176000,0.0,0.07461339,-0.001465241,-0.00048708805,0.9972114,0.0,0.0,-0.7059661
2055224000,0.0,0.07461354,-0.0014539838,-0.00038846798,0.9972114,0.0,0.0,-0.70492834
2055280000,0.0,0.07461207,-0.0019226896,-0.000991075,0.99721026,0.0,0.0,-0.70514375
2055328000,0.0,0.07461257,-0.0016566734,-0.00091198256,0.9972108,0.0,0.0,-0.7069003
2055376000,0.0,0.07461255,-0.0015326183,-0.0010384355,0.99721086,0.0,0.0,-0.7057542
2055424000,0.0,0.07461347,-0.0014230185,-0.0004584679,0.9972114,0.0,0.0,-0.7051176
2055480000,0.0,0.07461344,-0.0012612048,-0.00058865367,0.9972116,0.0,0.0,-0.7055853
2055520000,0.0,0.07461353,-0.0010478194,-0.0006721569,0.99721175,0.0,0.0,-0.7051099
2055576000,0.0,0.07461369,-0.0013644506,-0.0003243874,0.9972116,0.0,0.0,-0.7056257
2055624000,0.0,0.07461419,-0.0010354742,-2.6008403e-05,0.99721193,0.0,0.0,-0.70565796
2055680000,0.0,0.07461401,-0.0011332898,-0.00016418366,0.9972118,0.0,0.0,-0.7051018
2055720000,0.0,0.07461409,-0.0008390182,-0.00020274734,0.9972121,0.0,0.0,-0.7051831
2055776000,0.0,0.0746142,-0.00065571227,-0.00013067605,0.99721223,0.0,0.0,-0.7063957
2055824000,0.0,0.074614495,-0.00096693344,0.00027985458,0.99721193,0.0,0.0,-0.70639366
2055880000,0.0,0.07461373,-0.0014748765,-0.00024477128,0.9972114,0.0,0.0,-0.7067261
2055928000,0.0,0.07461425,-0.0015008566,0.00011138028,0.99721134,0.0,0.0,-0.70638317
2055976000,0.0,0.074613735,-0.0013721247,-0.00029021793,0.9972116,0.0,0.0,-0.70582116
2056024000,0.0,0.074613884,-0.0014885362,-0.00013940608,0.99721134,0.0,0.0,-0.70565706
2056080000,0.0,0.07461294,-0.0020408656,-0.0004645534,0.99721044,0.0,0.0,-0.7049679
2056120000,0.0,0.07461239,-0.0026949584,-0.0004333344,0.99720895,0.0,0.0,-0.7049452
2056176000,0.0,0.074613385,-0.0020885435,-0.00022074732,0.9972103,0.0,0.0,-0.70537335
2056224000,0.0,0.07461243,-0.0026081027,-0.0004487177,0.9972091,0.0,0.0,-0.7058992
2056280000,0.0,0.07461224,-0.002397414,-0.0006258466,0.99720955,0.0,0.0,-0.70607233
2056320000,0.0,0.07461106,-0.0023033954,-0.0012080969,0.9972093,0.0,0.0,-0.7054091
2056376000,0.0,0.07461232,-0.0030359363,-0.00033349518,0.99720794,0.0,0.0,-0.7045946
2056424000,0.0,0.07461296,-0.0029465517,-0.00014180866,0.99720824,0.0,0.0,-0.70496154
2056480000,0.0,0.07461119,-0.0033655695,-0.00057065656,0.99720687,0.0,0.0,-0.70485616
2056528000,0.0,0.07460964,-0.0037306063,-0.00086331996,0.99720544,0.0,0.0,-0.7048124
2056576000,0.0,0.0746086,-0.0038504018,-0.0010854716,0.99720484,0.0,0.0,-0.70391035
2056624000,0.0,0.0746072,-0.003737439,-0.0015372788,0.9972048,0.0,0.0,-0.7035745
2056680000,0.0,0.074611045,-0.0031878154,-0.0006908435,0.9972074,0.0,0.0,-0.70370036
2056728000,0.0,0.07461033,-0.0032707157,-0.0008810863,0.99720705,0.0,0.0,-0.7043109
2056776000,0.0,0.07461145,-0.0028407853,-0.00071624515,0.9972084,0.0,0.0,-0.70499307
2056824000,0.0,0.07461051,-0.0032833316,-0.00081475434,0.99720705,0.0,0.0,-0.7055697
2056872000,0.0,0.07461209,-0.0026601122,-0.0005610511,0.99720895,0.0,0.0,-0.7054936
2056920000,0.0,0.07461033,-0.003297561,-0.00086544553,0.997207,0.0,0.0,-0.7055917
2056976000,0.0,0.074610956,-0.0033265122,-0.00066182483,0.9972069,0.0,0.0,-0.7055108
2057024000,0.0,0.07461044,-0.0035220406,-0.00072762446,0.99720633,0.0,0.0,-0.7048753
2057072000,0.0,0.07461085,-0.0031069831,-0.0007927516,0.99720764,0.0,0.0,-0.70482427
2057128000,-0.013962634,0.07476443,0.0016871168,-0.0059564603,0.99718195,0.0,0.0,-0.7040977
2057176000,-0.027925268,0.07532369,0.011422906,-0.014170389,0.996993,0.0,0.0,-0.7049251
2057224000,-0.047472954,0.07681229,0.025105651,-0.025671856,0.9963988,0.0,0.0,-0.7059552
2057280000,-0.061435588,0.07841856,0.03580798,-0.034322873,0.9956858,0.0,0.0,-0.7079445
2057328000,-0.0837758,0.08195597,0.053899493,-0.04857484,0.99399126,0.0,0.0,-0.7117141
2057376000,-0.09773844,0.08469458,0.064270325,-0.057241894,0.992683,0.0,0.0,-0.7132182
2057424000,-0.11728612,0.088939294,0.079666674,-0.06521696,0.9907017,0.0,0.0,-0.7161633
2057480000,-0.13124876,0.09169245,0.08873181,-0.064283825,0.9897408,0.0,0.0,-0.7147536
2057528000,-0.15358898,0.09692447,0.10646107,-0.06509714,0.9874381,0.0,0.0,-0.71712565
2057576000,-0.16755162,0.10010047,0.11558205,-0.06287609,0.98623896,0.0,0.0,-0.7177848
2057624000,-0.18709932,0.10505503,0.13048024,-0.060906757,0.98398614,0.0,0.0,-0.72076446
2057680000,-0.20106196,0.10844612,0.13751999,-0.057390448,0.98287034,0.0,0.0,-0.7201164
2057728000,-0.22340219,0.11514334,0.15584892,-0.057355903,0.97936887,0.0,0.0,-0.7257911
2057776000,-0.23736483,0.119119525,0.1637264,-0.05474274,0.9777563,0.0,0.0,-0.7260197
2057824000,-0.2569125,0.12509264,0.17810431,-0.052081853,0.97463745,0.0,0.0,-0.72987163
2057880000,-0.27087513,0.12914197,0.18244709,-0.04751233,0.9735389,0.0,0.0,-0.72729653
2057928000,-0.29321533,0.13715437,0.19168139,-0.0465756,0.97070986,0.0,0.0,-0.7299038
2057976000,-0.30717796,0.14227879,0.19106686,-0.044005815,0.9702132,0.0,0.0,-0.7276239
2058024000,-0.32672563,0.15014637,0.19526993,-0.04292853,0.968237,0.0,0.0,-0.7291887
2058080000,-0.33619496,0.15594056,0.19244279,-0.040133644,0.968007,0.0,0.0,-0.72718793
2058120000,-0.32223234,0.16177128,0.19361593,-0.038988724,0.9668624,0.0,0.0,-0.72857755
2058176000,-0.29989213,0.17034273,0.19787928,-0.037030473,0.96460146,0.0,0.0,-0.73132235
2058224000,-0.28034446,0.17723559,0.20098881,-0.03509278,0.9627874,0.0,0.0,-0.73416096
2058280000,-0.26638183,0.18207656,0.19568974,-0.031874597,0.96308756,0.0,0.0,-0.73125833
2058328000,-0.24404162,0.18888214,0.20145075,-0.03065032,0.9606257,0.0,0.0,-0.735056
2058376000,-0.23007898,0.19304387,0.19884117,-0.028356764,0.96041244,0.0,0.0,-0.73407733
2058424000,-0.21053128,0.19823182,0.20158008,-0.027199527,0.9588169,0.0,0.0,-0.7359006
2058480000,-0.19656864,0.20169505,0.19768618,-0.023617797,0.95900023,0.0,0.0,-0.73407626
2058520000,-0.182606,0.20462695,0.19943431,-0.02161252,0.9580641,0.0,0.0,-0.73559505
2058576000,-0.16026577,0.20902899,0.20340787,-0.020599378,0.956299,0.0,0.0,-0.738358
2058624000,-0.14071807,0.21235402,0.20675093,-0.019875528,0.9548638,0.0,0.0,-0.7402738
2058672000,-0.12675543,0.21475182,0.20396356,-0.017836694,0.9549672,0.0,0.0,-0.73849624
2058728000,-0.104415216,0.21765052,0.20750456,-0.017616713,0.9535511,0.0,0.0,-0.74097985
2058776000,-0.09045258,0.22030728,0.20017375,-0.01742121,0.9545112,0.0,0.0,-0.73628783
2058824000,-0.070904896,0.22338313,0.19558845,-0.019952022,0.9546974,0.0,0.0,-0.7343066
2058880000,-0.05694226,0.22589445,0.18380196,-0.019901851,0.95644784,0.0,0.0,-0.72950494
2058928000,-0.034602046,0.22801507,0.18204348,-0.023389786,0.956202,0.0,0.0,-0.73113227
2058976000,-0.020639412,0.2297996,0.17266682,-0.025351606,0.9574631,0.0,0.0,-0.72918403
2059024000,-0.0010917243,0.23105472,0.1677461,-0.028619787,0.95794356,0.0,0.0,-0.7298488
2059080000,0.01287091,0.23211636,0.15502682,-0.029079689,0.9598141,0.0,0.0,-0.72793734
2059128000,0.035211124,0.23247837,0.15155934,-0.03484357,0.96008825,0.0,0.0,-0.7297461
2059176000,0.04679801,0.23274456,0.14150445,-0.037504945,0.96145713,0.0,0.0,-0.7274397
2059224000,0.027250318,0.23277758,0.1358503,-0.042680927,0.9620487,0.0,0.0,-0.7275772
2059272000,0.013287684,0.23324305,0.12677066,-0.045810852,0.96303076,0.0,0.0,-0.72613853
2059328000,-0.00905253,0.23350473,0.11933056,-0.045834478,0.9639164,0.0,0.0,-0.7246556
2059376000,-0.010939181,0.23373865,0.10695976,-0.04119584,0.9655199,0.0,0.0,-0.72112674
2059424000,-0.0051939217,0.23369512,0.09985789,-0.03570824,0.96650916,0.0,0.0,-0.71943986
2059472000,-0.0047630323,0.23378247,0.08818903,-0.030714141,0.96779394,0.0,0.0,-0.71717846
2059528000,-0.0038320841,0.23370908,0.07864161,-0.023257181,0.96884197,0.0,0.0,-0.7168774
2059576000,-0.0035047554,0.23380281,0.066654496,-0.017356882,0.9698413,0.0,0.0,-0.7158014
2059624000,-0.0037597234,0.23381472,0.05788722,-0.010380211,0.97050095,0.0,0.0,-0.7154478
2059672000,-0.008403702,0.23384939,0.05122912,-0.0047747083,0.97091055,0.0,0.0,-0.7155
2059728000,-0.013441221,0.23454133,0.055343352,-0.01248409,0.9704492,0.0,0.0,-0.7177612
2059776000,-0.01313081,0.23502679,0.058631476,-0.017743992,0.97005665,0.0,0.0,-0.7180358
2059824000,-0.012762672,0.23534463,0.06305855,-0.018385928,0.9696899,0.0,0.0,-0.71705455
2059872000,-0.012430099,0.23572789,0.06255911,-0.019992696,0.96959734,0.0,0.0,-0.71543217
2059928000,-0.011692912,0.23613404,0.06903392,-0.022375355,0.9690069,0.0,0.0,-0.7154595
2059976000,-0.011334003,0.23646705,0.068213664,-0.023183564,0.96896476,0.0,0.0,-0.71446985
2060024000,-0.011042986,0.23679397,0.074193105,-0.025368711,0.9683907,0.0,0.0,-0.71428645
2060080000,-0.0136772,0.2372231,0.069134444,-0.025997406,0.96864325,0.0,0.0,-0.713225
2060120000,-0.01595089,0.23757349,0.06961183,-0.026612267,0.9685065,0.0,0.0,-0.7136403
2060176000,-0.015868858,0.23815982,0.07381787,-0.028668713,0.9679922,0.0,0.0,-0.71443677
2060224000,-0.0151149295,0.23861139,0.07803035,-0.030088741,0.9675074,0.0,0.0,-0.71520156
2060280000,-0.014287444,0.2389696,0.07332025,-0.028915048,0.9678231,0.0,0.0,-0.713561
2060328000,-0.012684245,0.23936948,0.08034855,-0.030557247,0.9671156,0.0,0.0,-0.7151823
2060376000,-0.011749728,0.23967722,0.07818361,-0.030218542,0.96722746,0.0,0.0,-0.71442413
2060424000,-0.010735769,0.23998624,0.08157199,-0.031014567,0.96684575,0.0,0.0,-0.7145566
2060480000,-0.012002485,0.24032545,0.07472238,-0.029793166,0.9673534,0.0,0.0,-0.71203125
2060520000,-0.013093538,0.24056122,0.07515806,-0.029374061,0.96727383,0.0,0.0,-0.7126158
2060576000,-0.0118728625,0.2410029,0.07833171,-0.030525789,0.9668763,0.0,0.0,-0.71333
2060624000,-0.010645652,0.24124731,0.081242114,-0.030280963,0.9665829,0.0,0.0,-0.7146147
2060680000,-0.009517108,0.24152333,0.07539287,-0.028632084,0.96703804,0.0,0.0,-0.71313745
2060720000,-0.008408692,0.24168186,0.075704046,-0.028109645,0.96698946,0.0,0.0,-0.7129974
2060776000,-0.0063293674,0.24185888,0.07971467,-0.028283851,0.96661776,0.0,0.0,-0.71392715
2060824000,-0.005225065,0.24199316,0.08267592,-0.028695626,0.96632326,0.0,0.0,-0.714432
2060880000,-0.009775415,0.24221098,0.07621491,-0.027102334,0.9668457,0.0,0.0,-0.7125473
2060928000,-0.011213525,0.2426007,0.08150996,-0.02917738,0.96625555,0.0,0.0,-0.7146653
2060976000,-0.01029116,0.24291255,0.078473724,-0.028830087,0.96643895,0.0,0.0,-0.7139688
2061024000,-0.008992409,0.24316087,0.0815434,-0.029361207,0.9661063,0.0,0.0,-0.71409863
2061080000,-0.007865096,0.24336927,0.07564904,-0.02707182,0.9666001,0.0,0.0,-0.7121962
2061128000,-0.0055123973,0.24347891,0.07377115,-0.024014484,0.9667984,0.0,0.0,-0.71137625
2061176000,-0.004251716,0.24374723,0.062210456,-0.020919072,0.96761537,0.0,0.0,-0.70876485
2061224000,-0.0032244641,0.24404024,0.05243709,-0.019503852,0.96814996,0.0,0.0,-0.7077511
2061280000,-0.0074087726,0.244279,0.03719561,-0.017376915,0.96883553,0.0,0.0,-0.70794123
2061328000,-0.0068538915,0.24467231,0.027504846,-0.018101439,0.9690466,0.0,0.0,-0.7084619
2061376000,-0.0053566853,0.2447905,0.015245734,-0.01610298,0.9693224,0.0,0.0,-0.7086256
2061424000,-0.003878643,0.24488954,0.0043683946,-0.016617429,0.9693988,0.0,0.0,-0.7083594
2061480000,-0.002693834,0.24480604,-0.007610755,-0.013912167,0.9694423,0.0,0.0,-0.7091007
2061520000,-0.0013204268,0.24485184,-0.009041572,-0.011930367,0.96944493,0.0,0.0,-0.70944357
2061576000,0.0,0.24492098,-0.0076112654,-0.010376903,0.9694576,0.0,0.0,-0.7101987
2061624000,0.0,0.24492764,-0.0062467586,-0.008479519,0.96948415,0.0,0.0,-0.7098135
2061680000,-0.0035044937,0.24489489,-0.010393328,-0.0049926867,0.9694811,0.0,0.0,-0.70863307
2061728000,0.0,0.24498731,-0.007650248,-0.004584332,0.9694853,0.0,0.0,-0.7081813
2061776000,0.0,0.24496923,-0.009691783,-0.0027632646,0.96947855,0.0,0.0,-0.70724416
2061824000,0.0030283413,0.24491975,-0.008616612,-0.0012172495,0.96950436,0.0,0.0,-0.7069683
2061872000,0.004286379,0.24482846,-0.0102823395,0.0005005315,0.9695118,0.0,0.0,-0.70677876
2061920000,0.0055984454,0.24471106,-0.010740752,0.0016561521,0.9695352,0.0,0.0,-0.7070841
2061976000,0.0073945257,0.24445689,-0.009085623,0.0015549493,0.96961635,0.0,0.0,-0.7066154
2062024000,0.009495028,0.24419363,-0.007102771,0.0019773925,0.9696985,0.0,0.0,-0.7059299
2062080000,0.0058812136,0.24398215,-0.011973673,0.0035351478,0.9696994,0.0,0.0,-0.70655954
2062120000,0.0033230756,0.24388273,-0.01299744,0.0036845605,0.96971065,0.0,0.0,-0.70664567
2062176000,0.004803874,0.24370654,-0.012011843,0.0038780007,0.96976686,0.0,0.0,-0.7063493
2062224000,0.0071287365,0.24350557,-0.010787297,0.0041302852,0.96983075,0.0,0.0,-0.70638007
2062280000,0.008491025,0.24332409,-0.014687903,0.005744198,0.96981686,0.0,0.0,-0.7064519
2062320000,0.009612098,0.24312405,-0.015424078,0.006608341,0.96985006,0.0,0.0,-0.7071061
2062376000,0.011269908,0.2427533,-0.013802431,0.007030743,0.9699644,0.0,0.0,-0.7072662
2062424000,0.013229851,0.24238856,-0.012430237,0.0077655837,0.9700686,0.0,0.0,-0.7068304
2062480000,0.009770127,0.24211049,-0.016651416,0.008687384,0.9700669,0.0,0.0,-0.70630336
2062528000,0.004176191,0.24188566,-0.015623959,0.008483827,0.9701418,0.0,0.0,-0.7070966
2062576000,0.0054183626,0.24175696,-0.018113123,0.009354578,0.9701227,0.0,0.0,-0.7079134
2062624000,0.007217764,0.24155428,-0.01747307,0.010078835,0.9701776,0.0,0.0,-0.70830154
2062680000,0.008131623,0.24136895,-0.02117121,0.010763293,0.9701427,0.0,0.0,-0.70783657
2062728000,0.008713484,0.24105762,-0.018974487,0.010732973,0.9702659,0.0,0.0,-0.7078125
2062776000,0.009060288,0.24085458,-0.019976936,0.011327132,0.97028947,0.0,0.0,-0.7085308
2062824000,0.009763061,0.24056661,-0.019098246,0.011893249,0.97037184,0.0,0.0,-0.7088069
2062872000,0.004086785,0.24038078,-0.02121763,0.012519443,0.970366,0.0,0.0,-0.70935327
2062928000,0.0,0.24037161,-0.02173714,0.0135133825,0.9703434,0.0,0.0,-0.7097763
2062976000,0.0,0.24035548,-0.02354275,0.014352569,0.9702932,0.0,0.0,-0.7103878
2063024000,0.0017812146,0.24032529,-0.022869302,0.015402992,0.97030073,0.0,0.0,-0.7105033
2063080000,0.0022974352,0.24021164,-0.024329396,0.013020365,0.9703283,0.0,0.0,-0.71049136
2063128000,6.178534e-05,0.2400701,-0.021865057,0.010078422,0.970457,0.0,0.0,-0.70989037
2063176000,0.0,0.24002169,-0.022934504,0.010528743,0.9704395,0.0,0.0,-0.7097674
2063224000,0.0009934239,0.23989914,-0.021055711,0.006837856,0.97054535,0.0,0.0,-0.70846
2063280000,-0.005585054,0.23982407,-0.02303473,0.0040927436,0.97053444,0.0,0.0,-0.70877826
2063328000,-0.010857816,0.24019457,-0.022253824,0.003673318,0.97046274,0.0,0.0,-0.70828956
2063376000,-0.010621029,0.24044268,-0.022799855,0.0041550132,0.9703867,0.0,0.0,-0.7085799
2063424000,-0.010561038,0.24078293,-0.022589117,0.0044223657,0.970306,0.0,0.0,-0.70826864
2063480000,-0.0099876,0.24097194,-0.023292452,0.0027045284,0.9702488,0.0,0.0,-0.7086833
2063528000,-0.008433072,0.24132493,-0.021743257,0.0021036896,0.97019845,0.0,0.0,-0.7084958
2063576000,-0.007473977,0.24152043,-0.023134165,0.0031786212,0.9701147,0.0,0.0,-0.70813316
2063624000,-0.006093201,0.24177168,-0.022035448,0.0034967437,0.9700766,0.0,0.0,-0.70711726
2063672000,-0.010535622,0.24191272,-0.022838427,0.003646698,0.9700224,0.0,0.0,-0.70677197
2063728000,-0.024353713,0.24257162,-0.022325834,0.0039481074,0.96986854,0.0,0.0,-0.7068184
2063776000,-0.02390865,0.24307168,-0.02281397,0.004017887,0.9697317,0.0,0.0,-0.707625
2063824000,-0.022904841,0.24375594,-0.022506228,0.0039693313,0.9695673,0.0,0.0,-0.7082523
2063880000,-0.021749126,0.24423794,-0.023864679,0.005464549,0.96940625,0.0,0.0,-0.7086355
2063920000,-0.020023433,0.2446267,-0.023480134,0.0028777479,0.96932876,0.0,0.0,-0.7083867
2063976000,-0.016648242,0.24527958,-0.02192645,0.003098087,0.9691995,0.0,0.0,-0.7086085
2064024000,-0.013211392,0.24575195,-0.020602198,0.0033510637,0.969108,0.0,0.0,-0.7082598
2064080000,-0.017058183,0.24603005,-0.020859577,0.00356198,0.9690312,0.0,0.0,-0.7069633
2064120000,-0.019850709,0.24644895,-0.020564927,0.0031798433,0.9689324,0.0,0.0,-0.7070399
2064176000,0.0024895053,0.24671823,-0.020241458,0.0029810872,0.96887124,0.0,0.0,-0.70674646
2064224000,0.0,0.24672335,-0.0199388,0.0030699875,0.96887594,0.0,0.0,-0.70748186
2064280000,0.0,0.24672721,-0.020748293,0.0038022257,0.9688554,0.0,0.0,-0.70717424
2064328000,0.0,0.2467657,-0.018570606,0.004703025,0.9688858,0.0,0.0,-0.7064593
2064376000,0.0,0.2467137,-0.018379988,0.0014078957,0.96891314,0.0,0.0,-0.7065572
2064424000,0.0,0.24672224,-0.017484682,0.0012911424,0.96892756,0.0,0.0,-0.70660204
2064480000,0.0,0.24671468,-0.018026115,0.0012059021,0.96891975,0.0,0.0,-0.7062655
2064520000,0.0,0.24670388,-0.017636295,0.00019427808,0.96893036,0.0,0.0,-0.70668983
2064576000,-0.00837758,0.24676946,-0.016758557,0.000628719,0.9689292,0.0,0.0,-0.70734185
2064624000,-0.027925268,0.24699363,-0.028746866,-0.0026811294,0.9685869,0.0,0.0,-0.70826006
2064672000,-0.0418879,0.24737553,-0.037943307,-0.004387302,0.96816653,0.0,0.0,-0.70906514
2064720000,-0.055850536,0.24790639,-0.04828814,-0.0057841283,0.9675625,0.0,0.0,-0.70953757
2064776000,-0.07819075,0.24905157,-0.06374779,-0.010047054,0.96633774,0.0,0.0,-0.7117037
2064824000,-0.09773844,0.25034955,-0.07786754,-0.013569662,0.9649236,0.0,0.0,-0.7140459
2064880000,-0.11170107,0.2514371,-0.087357715,-0.016932797,0.96377456,0.0,0.0,-0.71498173
2064928000,-0.1340413,0.253072,-0.10283822,-0.026830677,0.9615919,0.0,0.0,-0.7179441
2064976000,-0.14800394,0.25403792,-0.110279754,-0.038064253,0.9601324,0.0,0.0,-0.71875226
2065024000,-0.16755164,0.25609943,-0.123402886,-0.043927006,0.95773447,0.0,0.0,-0.72183055
2065072000,-0.18151428,0.25800842,-0.13155976,-0.04691057,0.95599324,0.0,0.0,-0.7224769
2065128000,-0.2038545,0.2608172,-0.14805625,-0.051804144,0.95255977,0.0,0.0,-0.726439
2065176000,-0.21781714,0.26597872,-0.14125806,-0.050973244,0.95220965,0.0,0.0,-0.7191517
2065224000,-0.23736484,0.27321583,-0.13386181,-0.0503113,0.95126384,0.0,0.0,-0.71340173
2065280000,-0.25132748,0.27928615,-0.12532541,-0.048362598,0.9507649,0.0,0.0,-0.7091021
2065328000,-0.2736677,0.28847227,-0.116622254,-0.04829222,0.9491316,0.0,0.0,-0.7075905
2065376000,-0.28763032,0.2951822,-0.10693695,-0.04700832,0.94827324,0.0,0.0,-0.70766366
2065424000,-0.307178,0.3042365,-0.09809758,-0.046142645,0.94640785,0.0,0.0,-0.708537
2065480000,-0.32114062,0.31162766,-0.08733348,-0.04293569,0.9452077,0.0,0.0,-0.7089484
2065520000,-0.33510324,0.3181401,-0.08332944,-0.045359895,0.9432844,0.0,0.0,-0.710419
2065576000,-0.35744345,0.3272419,-0.08852356,-0.05981504,0.9388815,0.0,0.0,-0.71685725
2065624000,-0.37699112,0.33568776,-0.09287206,-0.07296997,0.9345394,0.0,0.0,-0.72076756
2065680000,-0.39095375,0.34227118,-0.09429145,-0.082041904,0.93125117,0.0,0.0,-0.72230643
2065728000,-0.41329396,0.3523722,-0.10158527,-0.09973347,0.9249689,0.0,0.0,-0.72731185
2065776000,-0.42725658,0.35967004,-0.10269305,-0.108711354,0.92101765,0.0,0.0,-0.7270373
2065824000,-0.44680426,0.3694962,-0.10913365,-0.11871369,0.9151336,0.0,0.0,-0.7285349
2065872000,-0.46076688,0.37716824,-0.112582065,-0.12139694,0.9112257,0.0,0.0,-0.7265847
2065920000,-0.4747295,0.38518107,-0.11554198,-0.12341847,0.9072229,0.0,0.0,-0.7246284
2065976000,-0.49706972,0.3984772,-0.11974253,-0.12887587,0.9001492,0.0,0.0,-0.7252927
2066024000,-0.5166174,0.41124335,-0.12057243,-0.13217892,0.89379525,0.0,0.0,-0.7248204
2066072000,-0.53058004,0.42147854,-0.11755802,-0.1323612,0.88939106,0.0,0.0,-0.7226703
2066128000,-0.5529202,0.4374424,-0.11604575,-0.13751179,0.8810608,0.0,0.0,-0.72391546
2066176000,-0.56688285,0.44848248,-0.11172435,-0.13754153,0.87604994,0.0,0.0,-0.7230363
2066224000,-0.58643055,0.46320903,-0.11031285,-0.14149055,0.8678991,0.0,0.0,-0.72529346
2066272000,-0.6003932,0.47459897,-0.106361985,-0.14150165,0.8622182,0.0,0.0,-0.72589743
2066328000,-0.62273335,0.49214867,-0.104867734,-0.1466272,0.8516413,0.0,0.0,-0.7287361
2066376000,-0.636696,0.50406843,-0.10028781,-0.14731948,0.8450766,0.0,0.0,-0.7284557
2066424000,-0.6562437,0.51987916,-0.09967758,-0.15157636,0.8347542,0.0,0.0,-0.7314423
2066480000,-0.6702063,0.532563,-0.09260003,-0.15131928,0.82758945,0.0,0.0,-0.72921485
2066528000,-0.6925465,0.5510526,-0.09282322,-0.16012256,0.81368655,0.0,0.0,-0.73298466
2066576000,-0.7065091,0.56345713,-0.08885961,-0.16089654,0.8054391,0.0,0.0,-0.7316221
2066624000,-0.7260568,0.58042645,-0.08680735,-0.16736051,0.792187,0.0,0.0,-0.7337529
2066680000,-0.74001944,0.593413,-0.07997844,-0.16565703,0.7835957,0.0,0.0,-0.73137784
2066728000,-0.7623596,0.61288947,-0.079139486,-0.17496797,0.7664787,0.0,0.0,-0.736435
2066776000,-0.77632225,0.62555414,-0.075050525,-0.17439768,0.75672644,0.0,0.0,-0.73452735
2066824000,-0.79586995,0.64336294,-0.06899193,-0.17844991,0.7412691,0.0,0.0,-0.7346427
2066880000,-0.8098326,0.6567423,-0.05704145,-0.17221321,0.7319689,0.0,0.0,-0.7286469
2066920000,-0.8237952,0.6695939,-0.04883164,-0.170676,0.7211999,0.0,0.0,-0.7270138
2066976000,-0.8461354,0.68974274,-0.037487533,-0.17100838,0.7025708,0.0,0.0,-0.7281007
2067024000,-0.8656831,0.70710474,-0.02648535,-0.17131302,0.6855313,0.0,0.0,-0.72876465
2067080000,-0.8796457,0.7193806,-0.015452982,-0.16237651,0.6751938,0.0,0.0,-0.7261481
2067120000,-0.8817229,0.7313483,-0.00757543,-0.15838906,0.6633138,0.0,0.0,-0.7257101
2067176000,-0.85938275,0.7494556,0.0039794724,-0.15576589,0.6434574,0.0,0.0,-0.7266733
2067224000,-0.83983505,0.7642657,0.0133793885,-0.15272145,0.6264144,0.0,0.0,-0.7270226
2067280000,-0.8258724,0.7743549,0.02316934,-0.14190656,0.6161982,0.0,0.0,-0.7238199
2067320000,-0.8119098,0.7840083,0.029676182,-0.13709529,0.60469425,0.0,0.0,-0.7235814
2067376000,-0.7895696,0.7985956,0.038990438,-0.13175993,0.58597285,0.0,0.0,-0.72409844
2067424000,-0.7700219,0.8107544,0.04512552,-0.12606911,0.56986624,0.0,0.0,-0.7241769
2067480000,-0.7560593,0.81994045,0.04550302,-0.10914283,0.5601027,0.0,0.0,-0.71846855
2067528000,-0.7337191,0.8331239,0.046182614,-0.10277886,0.54148704,0.0,0.0,-0.71806854
2067576000,-0.7197565,0.8416115,0.044081457,-0.0889498,0.5308812,0.0,0.0,-0.7153764
2067624000,-0.7002088,0.85270053,0.04009889,-0.07738644,0.5150779,0.0,0.0,-0.71392494
2067680000,-0.68624616,0.86045647,0.03886126,-0.06030574,0.50444806,0.0,0.0,-0.7119975
2067720000,-0.67228353,0.8677742,0.03316229,-0.053646524,0.4929405,0.0,0.0,-0.71190727
2067776000,-0.64994335,0.87864184,0.021429002,-0.050392944,0.474331,0.0,0.0,-0.71307373
2067824000,-0.63039565,0.8865711,0.02561077,-0.056976456,0.4583551,0.0,0.0,-0.71592087
2067880000,-0.616433,0.89213294,0.027287938,-0.056470774,0.44739836,0.0,0.0,-0.7161658
2067928000,-0.59409285,0.90036595,0.02634891,-0.0632054,0.42971152,0.0,0.0,-0.7165548
2067976000,-0.5801302,0.9054092,0.025491728,-0.062277716,0.41917276,0.0,0.0,-0.71555316
2068024000,-0.5605825,0.91175747,0.0250435,-0.0670506,0.40444455,0.0,0.0,-0.7154662
2068080000,-0.5466199,0.91639286,0.025445597,-0.06169136,0.39467818,0.0,0.0,-0.7136359
2068128000,-0.5242797,0.9225441,0.025803745,-0.07021437,0.3785717,0.0,0.0,-0.71504706
2068176000,-0.5103171,0.9264445,0.026073175,-0.06895759,0.3691419,0.0,0.0,-0.7147269
2068224000,-0.4907694,0.9312377,0.025737008,-0.073867515,0.355918,0.0,0.0,-0.7156244
2068280000,-0.47680676,0.93493015,0.023956036,-0.069931366,0.34704658,0.0,0.0,-0.7138052
2068320000,-0.46284413,0.93801844,0.024260959,-0.071659766,0.33822727,0.0,0.0,-0.7133805
2068376000,-0.44050393,0.94254357,0.023746671,-0.07593745,0.32447073,0.0,0.0,-0.7136332
2068424000,-0.42095625,0.9460602,0.02338064,-0.08081098,0.3128787,0.0,0.0,-0.7140031
2068480000,-0.40699363,0.9490187,0.02313333,-0.07465283,0.30537745,0.0,0.0,-0.71170086
2068520000,-0.393031,0.95137805,0.0226286,-0.07559638,0.29774654,0.0,0.0,-0.7121335
2068576000,-0.3706908,0.9547066,0.022733564,-0.07874312,0.28603837,0.0,0.0,-0.7130492
2068624000,-0.35114312,0.9571974,0.023171108,-0.08311934,0.27627409,0.0,0.0,-0.7134265
2068680000,-0.3371805,0.9595637,0.022078922,-0.076743096,0.26992697,0.0,0.0,-0.7117736
2068728000,-0.3148403,0.9617533,0.022472503,-0.08419923,0.2596844,0.0,0.0,-0.7136224
2068776000,-0.30087766,0.96347815,0.02094762,-0.08298739,0.25374037,0.0,0.0,-0.71303076
2068824000,-0.28133,0.96511644,0.021677706,-0.08753864,0.2457995,0.0,0.0,-0.7147174
2068880000,-0.26736736,0.96692383,0.02105472,-0.08161298,0.24073696,0.0,0.0,-0.7123076
2068920000,-0.25340474,0.9681335,0.02088366,-0.08199891,0.2357068,0.0,0.0,-0.71154445
2068976000,-0.23106451,0.9696264,0.020514261,-0.085948266,0.22807167,0.0,0.0,-0.71246445
2069024000,-0.21151681,0.9706945,0.02086999,-0.089643516,0.22199251,0.0,0.0,-0.7130778
2069072000,-0.19755417,0.97207606,0.018527966,-0.08472493,0.21805169,0.0,0.0,-0.7113648
2069120000,-0.18359153,0.9738273,0.015073353,-0.073627576,0.21450448,0.0,0.0,-0.70865554
2069176000,-0.1612513,0.97565067,0.013727913,-0.06393257,0.20935589,0.0,0.0,-0.7077683
2069224000,-0.1417036,0.9770664,0.01303277,-0.05454937,0.20541617,0.0,0.0,-0.70789397
2069280000,-0.12774096,0.97831196,0.011920902,-0.039465792,0.20299256,0.0,0.0,-0.707066
2069328000,-0.106279604,0.9793663,0.013060886,-0.029762663,0.19946232,0.0,0.0,-0.7077435
2069376000,-0.09469334,0.98007244,0.012366127,-0.017351873,0.19749434,0.0,0.0,-0.70806646
2069424000,-0.07924282,0.980693,0.012748737,-0.0060455953,0.19504407,0.0,0.0,-0.70838845
2069480000,-0.068911485,0.98105043,0.009831495,0.0026893502,0.19348426,0.0,0.0,-0.7090985
2069520000,-0.059350297,0.98131555,0.008097933,0.0035948306,0.19220132,0.0,0.0,-0.7088428
2069576000,-0.046245925,0.9816652,0.0052254894,0.0027118928,0.19052258,0.0,0.0,-0.70868844
2069624000,-0.037856612,0.98190546,0.0029233492,0.0013175089,0.18934453,0.0,0.0,-0.70745325
2069680000,-0.033250757,0.98203385,0.0010391684,0.0061902185,0.18860038,0.0,0.0,-0.70699984
2069728000,-0.028166037,0.9822383,-0.000424732,0.0035961957,0.18760306,0.0,0.0,-0.7061511
2069776000,-0.027183738,0.98233604,-0.0023815485,0.0054528317,0.18703094,0.0,0.0,-0.70558006
2069824000,-0.027637469,0.98249036,-0.003186346,0.004264879,0.1862373,0.0,0.0,-0.7050198
2069880000,-0.028443972,0.9825677,-0.0046942406,0.008258666,0.18566221,0.0,0.0,-0.7052683
2069920000,-0.029409971,0.98267907,-0.0050648567,0.008256206,0.18506216,0.0,0.0,-0.70526505
2069976000,-0.031006379,0.98286986,-0.0061780945,0.0070953527,0.18406071,0.0,0.0,-0.70546013
2070024000,-0.032581568,0.9830463,-0.0065628663,0.00606622,0.18313953,0.0,0.0,-0.7052605
2070080000,-0.03349012,0.98311204,-0.008030755,0.011307129,0.18247862,0.0,0.0,-0.7064492
2070128000,-0.034746528,0.98334396,-0.008218246,0.009050917,0.18134284,0.0,0.0,-0.7064405
2070176000,-0.035631478,0.9834321,-0.009481744,0.01191714,0.18063603,0.0,0.0,-0.7068704
2070224000,-0.036919665,0.98362416,-0.009914674,0.011442845,0.17959465,0.0,0.0,-0.70716083
2070280000,-0.037694685,0.9837218,-0.010001677,0.014488293,0.17883381,0.0,0.0,-0.7073497
2070320000,-0.038274802,0.983857,-0.010135885,0.014815081,0.17805389,0.0,0.0,-0.707022
2070376000,-0.039007336,0.9840899,-0.010501099,0.014323223,0.17678158,0.0,0.0,-0.70718014
2070424000,-0.03967589,0.98432124,-0.010483726,0.012276514,0.1756448,0.0,0.0,-0.70738256
2070472000,-0.04030137,0.9844157,-0.012393786,0.014035262,0.1748573,0.0,0.0,-0.7079307
2070528000,-0.041676328,0.98463744,-0.01309847,0.014460121,0.17351802,0.0,0.0,-0.709148
2070576000,-0.0424986,0.98475856,-0.013671073,0.015785094,0.17266862,0.0,0.0,-0.7096083
2070624000,-0.043451138,0.98498267,-0.014040567,0.014867707,0.17143796,0.0,0.0,-0.7092507
2070680000,-0.044030212,0.9850797,-0.014691719,0.017586078,0.17056648,0.0,0.0,-0.71029675
2070728000,-0.044654198,0.98535955,-0.014954362,0.015724933,0.16910265,0.0,0.0,-0.7099015
2070776000,-0.0449026,0.98549885,-0.0153558785,0.016337147,0.16819455,0.0,0.0,-0.7088675
2070824000,-0.045148175,0.9857328,-0.015393789,0.015435646,0.16689971,0.0,0.0,-0.7086589
2070880000,-0.04538835,0.98580766,-0.01622476,0.018981863,0.16601112,0.0,0.0,-0.70882
2070928000,-0.045780286,0.9860763,-0.016588744,0.01773785,0.16451086,0.0,0.0,-0.70849943
2070976000,-0.04580296,0.986187,-0.017809281,0.01876195,0.1636031,0.0,0.0,-0.7096161
2071024000,-0.045748897,0.9863882,-0.018563366,0.018712379,0.16230696,0.0,0.0,-0.70931983
2071080000,-0.045549423,0.98650646,-0.018477172,0.020469498,0.16138324,0.0,0.0,-0.7095816
2071128000,-0.04467977,0.9867705,-0.01873233,0.019170675,0.15989219,0.0,0.0,-0.7101088
2071176000,-0.043872975,0.98690295,-0.0186537,0.01994375,0.15898684,0.0,0.0,-0.7101015
2071224000,-0.042420123,0.98719054,-0.015863722,0.018453028,0.15767911,0.0,0.0,-0.7091769
2071280000,-0.042119723,0.9873604,-0.012914257,0.019454695,0.15676153,0.0,0.0,-0.70896155
2071328000,-0.042268783,0.9876608,-0.00923105,0.018067028,0.15528846,0.0,0.0,-0.70869255
2071376000,-0.041509856,0.9877935,-0.009267633,0.018195475,0.15442505,0.0,0.0,-0.70785695
2071424000,-0.039957654,0.9880302,-0.005715641,0.017230365,0.15318893,0.0,0.0,-0.70762694
2071480000,-0.038489148,0.9881195,-0.0060989163,0.01904053,0.15238139,0.0,0.0,-0.70752007
2071520000,-0.037007615,0.988243,-0.006113973,0.018847682,0.15160191,0.0,0.0,-0.7072243
2071576000,-0.034601763,0.9884358,-0.006370568,0.018135741,0.15041652,0.0,0.0,-0.70712054
2071624000,-0.032911487,0.9885874,-0.006944381,0.017664254,0.14944823,0.0,0.0,-0.7064538
2071680000,-0.032139182,0.98868024,-0.006961055,0.01816681,0.14877152,0.0,0.0,-0.7067948
2071728000,-0.031567425,0.98885155,-0.007822954,0.017028274,0.14772077,0.0,0.0,-0.7070515
2071776000,-0.03134533,0.98897964,-0.0039619124,0.01719875,0.1469958,0.0,0.0,-0.70736676
2071824000,-0.031042833,0.98912925,-0.004224834,0.016189931,0.14609389,0.0,0.0,-0.7073068
2071872000,-0.030865818,0.98921925,-0.004793895,0.016276024,0.14545566,0.0,0.0,-0.7071109
2071928000,-0.030972004,0.98938364,-0.004616684,0.015588556,0.14441523,0.0,0.0,-0.70672977
2071976000,-0.031250004,0.9894599,-0.0055894447,0.01630605,0.14377774,0.0,0.0,-0.7066525
2072024000,-0.03207721,0.9896028,-0.005085144,0.015991053,0.14284533,0.0,0.0,-0.70727766
2072080000,-0.030685408,0.9896748,-0.004644091,0.017618185,0.14216837,0.0,0.0,-0.7072864
2072128000,-0.026236456,0.98983467,-0.004898273,0.01608174,0.1412259,0.0,0.0,-0.7077327
2072176000,-0.017367061,0.9898968,-0.004421038,0.016609782,0.14074421,0.0,0.0,-0.7082596
2072224000,0.0021806266,0.98993486,-0.0039221556,0.016306164,0.14052656,0.0,0.0,-0.7077325
2072280000,0.0,0.9899142,-0.0042191916,0.01743827,0.14052793,0.0,0.0,-0.70814025
2072320000,0.0,0.9899154,-0.0047453693,0.017152859,0.14053774,0.0,0.0,-0.7082023
2072376000,0.0,0.9899242,-0.004903737,0.01655674,0.1405418,0.0,0.0,-0.7084434
2072424000,0.0,0.98996776,-0.0011523794,0.015003668,0.1404897,0.0,0.0,-0.7080493
2072480000,0.0,0.9899725,-0.00062481465,0.014786034,0.14048332,0.0,0.0,-0.7080831
2072528000,0.0,0.989989,-0.0005682355,0.013574708,0.14048903,0.0,0.0,-0.7076425
2072576000,0.0,0.9899851,-0.00047332043,0.013890812,0.14048612,0.0,0.0,-0.7074421
2072624000,0.0,0.9899959,-0.00080228335,0.012988195,0.14049488,0.0,0.0,-0.70808583
2072672000,0.0,0.98999643,-0.0005653017,0.012993783,0.14049189,0.0,0.0,-0.7071621
2072728000,0.0,0.9900008,-0.0014939707,0.012426144,0.14050569,0.0,0.0,-0.707839
2072776000,0.0,0.9899945,-0.002309761,0.012694123,0.14051469,0.0,0.0,-0.7067876
2072824000,0.0,0.9900031,-0.0023117969,0.01198364,0.14051683,0.0,0.0,-0.7065024
2072880000,0.0,0.9900036,-0.002457993,0.011887006,0.1405188,0.0,0.0,-0.7063141
2072928000,0.0,0.99001503,-0.0025130855,0.010841719,0.1405219,0.0,0.0,-0.70525616
2072976000,0.0,0.9900158,-0.0027854166,0.010660961,0.14052513,0.0,0.0,-0.7058551
2073024000,0.0,0.99003357,0.0004571825,0.009707447,0.14049618,0.0,0.0,-0.7059506
2073072000,0.0,0.9900314,0.0006746477,0.0099511305,0.14049304,0.0,0.0,-0.7065654
2073128000,0.0,0.9900309,3.7520604e-05,0.0099394815,0.1404991,0.0,0.0,-0.70654863
2073176000,0.0,0.9900278,5.9685346e-05,0.010269706,0.14049749,0.0,0.0,-0.70674706
2073224000,0.0,0.9900357,-0.00025066637,0.009379405,0.14050394,0.0,0.0,-0.70632535
2073272000,0.0,0.99003786,-0.00093827426,0.008982683,0.14051127,0.0,0.0,-0.7062467
2073328000,0.0,0.99005276,-0.00083662156,0.0070958748,0.14051522,0.0,0.0,-0.70645237
2073376000,0.0,0.99004906,-0.0019114986,0.0072575854,0.14052248,0.0,0.0,-0.70655525
2073424000,0.0,0.9900495,-0.0015606185,0.007339009,0.14051984,0.0,0.0,-0.7064172
2073480000,0.0,0.99004537,-0.002182429,0.0076470603,0.14052401,0.0,0.0,-0.7063049
2073528000,0.0,0.9900469,-0.0024458119,0.007312568,0.14052631,0.0,0.0,-0.70567584
2073576000,0.0,0.9900448,-0.002251897,0.0076930337,0.1405245,0.0,0.0,-0.70584035
2073624000,0.0,0.99004394,-0.0022318535,0.007812232,0.14052422,0.0,0.0,-0.70578843
2073680000,0.0,0.9900458,-0.002874662,0.0072520794,0.14052944,0.0,0.0,-0.70619965
2073728000,0.0,0.99005264,-0.002774148,0.0062999832,0.14052887,0.0,0.0,-0.7056467
2073776000,0.0,0.9900543,-0.0033305248,0.005667537,0.14053202,0.0,0.0,-0.7060585
2073824000,0.0,0.99006337,-0.00041022903,0.0054437155,0.14051597,0.0,0.0,-0.7073959
2073880000,0.0,0.99006367,-0.0004740081,0.005377916,0.14051642,0.0,0.0,-0.7071826
2073928000,0.0,0.99006563,-0.0012111185,0.004739668,0.14052089,0.0,0.0,-0.7063721
2073976000,0.0,0.9900583,-0.0018142242,0.00587603,0.14052318,0.0,0.0,-0.70602936
2074024000,-0.019547688,0.9900042,-0.009996806,0.009964556,0.14032993,0.0,0.0,-0.7065598
2074072000,-0.03351032,0.98991096,-0.019422717,0.010938559,0.1399265,0.0,0.0,-0.70741934
2074128000,-0.055850536,0.9896029,-0.034975313,0.013916869,0.13881351,0.0,0.0,-0.70921534
2074176000,-0.06981317,0.9893105,-0.04519247,0.015214083,0.13780726,0.0,0.0,-0.70970386
2074224000,-0.089360856,0.9887607,-0.05949862,0.017588684,0.13602522,0.0,0.0,-0.71141446
2074280000,-0.10332349,0.9883238,-0.06900107,0.0193768,0.13445963,0.0,0.0,-0.711719
2074328000,-0.1256637,0.98744535,-0.084979124,0.02137959,0.13142739,0.0,0.0,-0.71464384
2074376000,-0.13962634,0.98843646,-0.07753106,0.021324279,0.12855953,0.0,0.0,-0.71130687
2074424000,-0.15917404,0.98965263,-0.06909441,0.020334054,0.12409739,0.0,0.0,-0.70832735
2074480000,-0.17313668,0.9907171,-0.060359932,0.01814576,0.12044518,0.0,0.0,-0.70647216
2074528000,-0.1954769,0.9921022,-0.049122114,0.01638724,0.11424406,0.0,0.0,-0.70559764
2074576000,-0.20943955,0.9926794,-0.048461888,0.011728391,0.110006936,0.0,0.0,-0.7069422
2074624000,-0.22898725,0.9928296,-0.059758652,0.0015238649,0.10351782,0.0,0.0,-0.70928085
2074672000,-0.24294989,0.99290615,-0.06651844,-0.006599999,0.09833194,0.0,0.0,-0.71059924
2074728000,-0.26529008,0.9925976,-0.0802493,-0.018682828,0.089224756,0.0,0.0,-0.7133598
2074776000,-0.2792527,0.99232674,-0.087730885,-0.026598606,0.082966514,0.0,0.0,-0.71487075
2074824000,-0.29880038,0.99142295,-0.10108271,-0.03855079,0.07332518,0.0,0.0,-0.71760315
2074880000,-0.312763,0.9909716,-0.10718293,-0.04594312,0.06615388,0.0,0.0,-0.717922
2074920000,-0.32672563,0.9900994,-0.11545117,-0.054490652,0.058353037,0.0,0.0,-0.71962637
2074976000,-0.34906584,0.98825616,-0.12880573,-0.068900265,0.044850864,0.0,0.0,-0.72277707
2075024000,-0.3686135,0.9862968,-0.14004412,-0.081048906,0.03220897,0.0,0.0,-0.7264355
2075080000,-0.38257614,0.98603505,-0.14355566,-0.08080149,0.024449605,0.0,0.0,-0.7227261
2075120000,-0.39653876,0.98515064,-0.15016235,-0.08169599,0.015976122,0.0,0.0,-0.72314095
2075176000,-0.41887897,0.9831671,-0.16183585,-0.08479161,0.001408701,0.0,0.0,-0.72567624
2075224000,-0.43842664,0.98130447,-0.17120342,-0.0871211,-0.01186791,0.0,0.0,-0.72806644
2075272000,-0.45238927,0.9812712,-0.16939513,-0.089278355,-0.021010509,0.0,0.0,-0.72568905
2075328000,-0.47472948,0.98004216,-0.17094418,-0.09451673,-0.03690564,0.0,0.0,-0.72731346
2075376000,-0.4886921,0.9800569,-0.16747977,-0.09633364,-0.046463963,0.0,0.0,-0.727048
2075424000,-0.5082398,0.97871196,-0.16813292,-0.10059209,-0.061117902,0.0,0.0,-0.72951263
2075472000,-0.52220243,0.97859037,-0.16435896,-0.101477675,-0.07105803,0.0,0.0,-0.72820085
2075528000,-0.5445426,0.97651327,-0.16459402,-0.10699009,-0.088790566,0.0,0.0,-0.73164827
2075576000,-0.55850524,0.9761093,-0.15988956,-0.108561076,-0.099299565,0.0,0.0,-0.73035824
2075624000,-0.57805294,0.9736519,-0.16030358,-0.11370986,-0.11564927,0.0,0.0,-0.73334414
2075680000,-0.59201556,0.97322625,-0.15402962,-0.114617065,-0.12636651,0.0,0.0,-0.7316957
2075728000,-0.61435574,0.9688091,-0.15712205,-0.12347106,-0.14654844,0.0,0.0,-0.73760986
2075776000,-0.62831837,0.96788055,-0.150551,-0.12510078,-0.15777022,0.0,0.0,-0.73526084
2075824000,-0.6478661,0.9656896,-0.14270583,-0.12941243,-0.17415795,0.0,0.0,-0.73432803
2075880000,-0.6618287,0.96568537,-0.12983473,-0.12833583,-0.1847287,0.0,0.0,-0.7285691
2075928000,-0.6841689,0.96192914,-0.12163007,-0.13474628,-0.20430833,0.0,0.0,-0.7298388
2075976000,-0.6845303,0.96088445,-0.110555634,-0.13402845,-0.21567324,0.0,0.0,-0.7284022
2076024000,-0.6649826,0.9576771,-0.10074417,-0.13728653,-0.23207237,0.0,0.0,-0.7285646
2076080000,-0.65102,0.95655715,-0.0880547,-0.13554218,-0.24263795,0.0,0.0,-0.72713274
2076120000,-0.63705736,0.9542399,-0.08020236,-0.13671197,-0.25358158,0.0,0.0,-0.72710997
2076176000,-0.6147172,0.95049995,-0.07119054,-0.13400061,-0.2711559,0.0,0.0,-0.7258808
2076224000,-0.5951695,0.9473379,-0.065435864,-0.12719607,-0.28651384,0.0,0.0,-0.7236084
2076272000,-0.58120686,0.94580835,-0.0582856,-0.11725379,-0.29715458,0.0,0.0,-0.72055787
2076328000,-0.5588667,0.94187564,-0.05268956,-0.10695094,-0.31409496,0.0,0.0,-0.7184608
2076376000,-0.54490405,0.93994826,-0.045493267,-0.09627618,-0.3242815,0.0,0.0,-0.716756
2076424000,-0.52535635,0.9362278,-0.041252587,-0.08501332,-0.33844995,0.0,0.0,-0.71575725
2076480000,-0.5113937,0.9340859,-0.03384467,-0.07118815,-0.34823892,0.0,0.0,-0.71503574
2076520000,-0.49743113,0.9312725,-0.029964784,-0.061880603,-0.3577771,0.0,0.0,-0.71439993
2076576000,-0.47509092,0.9264131,-0.025672097,-0.04872876,-0.3724583,0.0,0.0,-0.71353555
2076624000,-0.45554325,0.9220011,-0.020770365,-0.03993597,-0.3845616,0.0,0.0,-0.71354884
2076680000,-0.44158062,0.91899186,-0.0124163665,-0.03180256,-0.39279577,0.0,0.0,-0.71292764
2076720000,-0.427618,0.91574144,-0.006929839,-0.027751407,-0.40074864,0.0,0.0,-0.71289134
2076776000,-0.4052778,0.9104877,0.0013397689,-0.022820145,-0.41290382,0.0,0.0,-0.71314204
2076824000,-0.38573012,0.90590334,0.0074290326,-0.019121146,-0.42298743,0.0,0.0,-0.7128424
2076880000,-0.3717675,0.90260905,0.017058523,-0.011151763,-0.4299786,0.0,0.0,-0.71239865
2076920000,-0.35780486,0.8993087,0.02313852,-0.007224366,-0.43664205,0.0,0.0,-0.7119261
2076976000,-0.33546466,0.89410067,0.031525414,-0.0013903741,-0.44675305,0.0,0.0,-0.71237195
2077024000,-0.315917,0.88960105,0.03889692,0.0041220714,-0.45506042,0.0,0.0,-0.7121471
2077080000,-0.30195436,0.8862233,0.046334624,0.012441663,-0.46076715,0.0,0.0,-0.7113913
2077120000,-0.28799173,0.8829839,0.052169546,0.018055813,-0.46614558,0.0,0.0,-0.71177727
2077176000,-0.26565152,0.87796223,0.06065086,0.025805164,-0.47417074,0.0,0.0,-0.71302575
2077224000,-0.24610384,0.87366855,0.06772736,0.03352425,-0.4806167,0.0,0.0,-0.7143354
2077280000,-0.2321412,0.8703363,0.07443495,0.043037575,-0.48489377,0.0,0.0,-0.71692705
2077328000,-0.20980097,0.86531717,0.08477919,0.05213681,-0.49124384,0.0,0.0,-0.7216477
2077376000,-0.19583833,0.86212057,0.09116699,0.06013546,-0.4947933,0.0,0.0,-0.7246973
2077424000,-0.17629063,0.859696,0.08909241,0.062767915,-0.4990446,0.0,0.0,-0.7248572
2077480000,-0.16232799,0.858515,0.08459881,0.06446615,-0.5016364,0.0,0.0,-0.7240096
2077520000,-0.14836535,0.8575418,0.07962155,0.065323584,-0.5039993,0.0,0.0,-0.7236122
2077576000,-0.12602513,0.8564318,0.07054499,0.06423434,-0.50736773,0.0,0.0,-0.72360337
2077624000,-0.10647744,0.8555349,0.06352587,0.06385384,-0.5098501,0.0,0.0,-0.7250903
2077680000,-0.092514805,0.8548458,0.05926575,0.06607138,-0.5112345,0.0,0.0,-0.72685754
2077720000,-0.07855217,0.85435265,0.05479856,0.06685041,-0.51245457,0.0,0.0,-0.72735864
2077776000,-0.056211956,0.8538353,0.047869816,0.06683824,-0.51401013,0.0,0.0,-0.72732776
2077824000,-0.03666427,0.85360307,0.04203261,0.06704852,-0.5148783,0.0,0.0,-0.72699594
2077880000,-0.022701636,0.8535587,0.038091525,0.06739027,-0.5152137,0.0,0.0,-0.7258992
2077920000,-0.008739002,0.85368043,0.033810895,0.06708835,-0.51535,0.0,0.0,-0.7242902
2077976000,0.013601212,0.85405755,0.028193727,0.06657591,-0.51512957,0.0,0.0,-0.722531
2078024000,0.0331489,0.85469395,0.023428189,0.06461076,-0.51456285,0.0,0.0,-0.7209843
2078080000,0.047111534,0.8552014,0.020943258,0.06507993,-0.51376694,0.0,0.0,-0.72012085
2078128000,0.06945175,0.85637534,0.016086243,0.06419744,-0.512095,0.0,0.0,-0.7187329
2078176000,0.06665922,0.8571884,0.013683129,0.0641699,-0.51080626,0.0,0.0,-0.7185743
2078224000,0.047111534,0.8581407,0.010445224,0.06274441,-0.5094591,0.0,0.0,-0.71719265
2078280000,0.0331489,0.8586088,0.011026554,0.059964053,-0.50899285,0.0,0.0,-0.71440935
2078320000,0.019186266,0.8590004,0.009810067,0.05649358,-0.5087539,0.0,0.0,-0.71312153
2078376000,-0.003153948,0.85938925,0.009718673,0.045565985,-0.5091949,0.0,0.0,-0.7102156
2078424000,0.0,0.85948175,0.00948585,0.041190263,-0.5094158,0.0,0.0,-0.7093312
