timestamp,timestamp_sample,xyz[0],xyz[1],xyz[2],xyz_derivative[0],xyz_derivative[1],xyz_derivative[2]
3888000,3888000,0.0061039166,0.0059683435,-0.00043343042,0.45981124,0.1773299,0.18570122
3892000,3892000,0.0024273344,-0.0068544913,-0.0030121717,-0.0014652014,-0.95433426,-0.09207232
3900000,3900000,-0.008480638,-0.006048107,-0.0009036922,-0.6395626,-0.26790017,0.23036078
3908000,3908000,0.007119308,0.00037779627,0.0042251023,0.7572205,0.3619541,0.36483213
3920000,3920000,0.004313029,-0.002135706,-0.0044136723,-0.11282915,-0.44011164,-0.29784533
3928000,3928000,0.00042468985,-0.0021638074,-0.00014698405,-0.2982007,-0.0023542077,0.1668985
3940000,3940000,-0.0049951132,0.00016739599,-0.0039669313,-0.39000693,-0.3121124,0.05761605
3948000,3948000,-0.004228091,-0.009322751,0.002706196,-0.103406265,-0.70808864,0.43378237
3960000,3960000,0.0018724983,0.017678821,0.007273288,0.18865004,1.2339435,0.24755295
3968000,3968000,0.000976913,0.007269035,-0.0042452095,0.026426427,-0.16362189,-0.6206876
3980000,3980000,-0.003461325,-0.0055666724,0.010123754,-0.42935762,-1.0283843,0.5478991
3988000,3988000,-0.01392316,-0.016544446,0.00024947565,-0.88062674,-1.0584548,-0.49424562
4000000,4000000,-0.008539007,-0.005262353,-0.0035450873,0.0669374,0.31251788,-0.28910747
4008000,4008000,-0.012384399,-0.008401802,0.008660261,-0.19575518,-0.065800525,0.7537173
4020000,4020000,-0.0041306578,-0.000769777,-0.0068089217,0.48097992,0.22137778,-0.7011087
4028000,4028000,-0.0011974624,0.009892596,0.008663913,0.32641545,0.91237015,0.80028886
4040000,4040000,-0.0050501446,-0.0036378382,0.009390986,0.22389966,-0.46169037,0.006864778
4048000,4048000,-0.00014626543,0.00022064369,-0.012097439,0.41429847,0.11649867,-1.4226124
4060000,4060000,0.0010204262,0.006120636,-0.0010106905,-0.13557976,0.09833913,0.2877358
4068000,4068000,-0.008000972,0.0036745535,0.012888726,-0.6438273,-0.071829386,1.1156237
4080000,4080000,0.0017005339,0.0056241835,0.0076133045,0.46525216,-0.12884218,0.030253371
4088000,4088000,0.0015142646,0.0010645299,0.00031453327,0.14411929,-0.28777522,-0.5030167
4100000,4100000,-0.0055075604,-0.014609157,0.0026254058,-0.15035233,-1.338618,-0.13423946
4108000,4108000,-0.00028857985,-0.018648066,-0.009609054,0.25994372,-0.7373399,-0.88141835
4120000,4120000,-0.013223001,0.0021903093,-0.0030434392,-0.8172841,1.0211409,0.18001334
4128000,4128000,-0.006807358,0.0018698357,0.0030628408,0.18237388,0.4050803,0.51282823
4140000,4140000,0.004864435,-0.004247345,-0.0058213333,0.8772204,-0.41401285,-0.28004032
4148000,4148000,0.0036513242,-0.007822917,-0.006065715,0.1681099,-0.37236685,-0.14809136
4160000,4160000,-0.00019922387,-0.011385531,0.0023220433,-0.4073515,-0.39464092,0.40350705
4168000,4168000,-0.0043592495,-0.013245467,0.00060145836,-0.34359127,-0.20920485,0.10835655
4180000,4180000,0.012952183,-0.0062398612,0.003518098,1.0871104,0.26789352,0.0053089904
4188000,4188000,0.010650896,-0.013952987,-0.00354956,0.2195006,-0.44084987,-0.46321404
4200000,4200000,0.0038895328,-0.0036806518,-0.010592651,-0.20706666,0.5682757,-0.37502348
4208000,4208000,0.0060743946,-0.0047802133,0.0057774223,0.028290786,0.19149558,0.9255892
4220000,4220000,-0.0022877783,-0.006197588,-0.00709497,-0.42499,-0.06783492,-0.49485248
4228000,4228000,-0.0042103706,-0.009582357,0.00213839,-0.26503837,-0.305773,0.50781393
4240000,4240000,0.00017711014,-0.011164315,0.0056501883,-0.008644789,-0.080043286,0.09849566
4248000,4248000,-0.0038303998,0.0067418003,0.00484039,-0.2536367,1.2313088,0.01471839
4260000,4260000,0.00075716135,0.0040434734,-0.0029536446,0.24034494,-0.13728575,-0.4704991
4268000,4268000,-0.0015876647,0.00012664177,-0.002998134,-0.15222862,-0.23915681,-0.18383752
4280000,4280000,-0.0041332627,0.0014316658,-0.010457737,0.08238742,-0.050893508,-0.49181074
4288000,4288000,-1.0619406e-06,0.0034005686,-0.0050461343,0.34867376,0.17377692,0.15931353
4300000,4300000,-0.012826557,0.001751753,-0.0021445092,-0.7723335,-0.1531123,-0.075139344
4308000,4308000,7.681665e-05,-0.008901731,-0.00396757,0.5938385,-0.8732921,-0.044857994
4320000,4320000,-0.00913946,-0.002145168,0.0042989673,-0.22113803,0.46198177,0.12992753
4328000,4328000,0.008011053,-0.0069763525,-0.012159998,1.088063,-0.25581095,-1.0466907
4340000,4340000,-0.018550877,0.011114305,-0.011494558,-1.326333,1.5482342,-0.044134412
4348000,4348000,0.006032887,0.0074935765,0.0013629171,1.2352207,0.25157878,0.9273124
4360000,4360000,-0.010023341,-0.0057391683,-0.0016966177,-0.8250257,-0.29201406,-0.14627075
4368000,4368000,-4.289241e-05,-0.0014491174,-0.0010212543,0.36062473,0.11868313,0.07565096
4380000,4380000,-0.00757273,0.004475035,0.008316662,-0.28774995,0.35229754,0.19338763
4388000,4388000,-0.0023814605,-0.0042921808,-0.004192332,0.24797794,-0.53308463,-0.7115011
4400000,4400000,0.0067312825,-0.010588106,0.008175292,0.4958534,-0.13414128,0.64300334
4408000,4408000,-0.005150991,0.007998034,0.012542404,-0.6225575,1.0863767,0.43760446
4420000,4420000,0.0016989869,0.001938822,-0.000115284485,0.36753392,0.120342,-0.39939463
4428000,4428000,0.0048397155,0.0017643293,-0.0077315685,0.40175512,-0.052636314,-0.70002824
4440000,4440000,0.00555351,-0.0048107705,0.011118664,0.039610386,-0.21134014,0.90755236
4448000,4448000,0.0063969325,-0.015761064,0.0069074132,0.13776211,-0.8493012,0.020410344
4460000,4460000,0.016101304,-0.0045623383,0.0032145532,0.35502493,0.42872685,-0.26106918
4468000,4468000,0.0002727327,0.014564027,0.0039098337,-0.94196993,1.4962546,-0.11918533
4480000,4480000,-0.005523782,-0.009289446,-0.008357436,-0.5106693,-1.0215468,-0.42408463
4488000,4488000,0.0024779052,-0.010490739,0.017245926,0.35944834,-0.43902728,1.5467103
4500000,4500000,2.9348303e-07,0.0013765234,-0.002429535,0.10314828,0.34056544,-0.64611906
4508000,4508000,0.006364843,-0.0020335773,-0.0020187718,0.4610342,-0.07072247,-0.30040002
4520000,4520000,-0.010912438,-0.004643249,-4.903203e-05,-0.7655924,-0.104679875,0.17260739
4528000,4528000,-0.00069416827,-0.0043380246,-0.00075827533,0.39910495,-0.030751318,0.041433077
4540000,4540000,-0.0073658843,0.009627934,0.005556377,-0.6066885,0.76925933,0.26463723
4548000,4548000,-0.0018079723,0.0059793442,0.01176681,0.19509935,0.035014145,0.48476106
4560000,4560000,0.013598099,-0.0062983437,-0.0045165373,1.2101395,-0.6871692,-0.6566546
4568000,4568000,0.0045332923,0.010930055,-0.009016114,-0.29587948,0.82563066,-0.6317153
4580000,4580000,0.0002920631,-0.0047244728,-0.0009002988,0.026591957,-0.39787093,0.3567117
4588000,4588000,0.00917246,-0.009077541,-0.0059796656,0.5583395,-0.46707052,-0.17870231
4600000,4600000,-0.018439965,0.008296507,-0.0123652,-1.5213392,0.9619045,-0.24532007
4608000,4608000,-0.017727425,0.009718223,-0.009210619,-0.5514731,0.48773405,0.08747796
4620000,4620000,-0.008265178,0.015326571,-0.0009702849,0.45852613,0.6189597,0.46175835
4628000,4628000,0.0053394847,-0.0057020625,0.010000691,1.051875,-1.2278197,0.9298777
4640000,4640000,-0.013749312,0.00735496,-0.014789013,-0.6266686,0.5844585,-1.2834558
4648000,4648000,0.00090149196,0.008397728,0.004101541,0.806127,0.3016818,0.8820648
4660000,4660000,0.0034707473,0.0048374822,0.0121977385,0.026710868,0.007883689,0.46788353
4668000,4668000,0.005118994,-0.006981629,0.007482974,0.24904427,-0.9096553,-0.08953727
4680000,4680000,-0.008126747,-0.0033294105,0.0021965029,-1.1154772,0.47211313,-0.53579354
4688000,4688000,0.00016789918,0.014216413,-0.0043956367,0.23845077,1.2094213,-0.6092009
4700000,4700000,0.0055811782,0.009024865,0.012035409,0.055598855,0.33554345,0.6344106
4708000,4708000,-0.009211254,-0.0051660677,0.010908956,-0.99511254,-0.96548957,0.22899026
4720000,4720000,-0.003227518,0.0068642804,-0.0039957864,0.4808079,0.8223822,-0.9609046
4728000,4728000,0.006577012,0.00554967,0.011725498,0.812558,0.20390914,0.7272478
4740000,4740000,-0.007200128,0.003707322,0.005106516,-0.28643975,-0.0032565345,-0.25224847
4748000,4748000,0.008883046,-0.0031317465,-0.00095003704,0.9143427,-0.48258746,-0.5039434
4760000,4760000,0.006395814,0.0015456026,-0.0035746736,0.1481372,0.1744501,-0.49440402
4768000,4768000,0.0057572145,0.0002641601,-0.01117215,-0.012351185,-0.0357817,-0.6590617
4780000,4780000,-0.0017899717,0.0065929214,-0.004004036,-0.20024478,0.18465617,0.09446661
4788000,4788000,-0.008970179,-0.006703983,0.0011409151,-0.6394027,-0.8399352,0.38535136
4800000,4800000,0.009528185,-0.0018157288,0.0006701767,0.9904995,0.05402976,0.13836226
4808000,4808000,0.011994564,-0.003498401,0.009358651,0.63134664,-0.058489386,0.68537426
4820000,4820000,0.0039617904,0.0017665168,-0.011965106,-0.6332398,0.30745283,-0.88203704
4828000,4828000,-0.0028263864,-0.0014703108,-0.004436227,-0.6830509,-0.11760603,0.123164356
4840000,4840000,0.0045114723,-0.00070323213,0.0052808626,0.13808556,0.24941634,0.48898602
4848000,4848000,0.0050506284,0.006126034,0.0056523588,0.15905108,0.5194091,0.21877384
4860000,4860000,0.008324231,-0.008749573,-0.00095107604,0.043917805,-0.79345936,-0.10679062
4864000,4864000,0.0093116,-0.00956011,0.006757577,0.111798264,-0.5958218,0.5735897
4880000,4880000,-0.0063842973,-0.0055573927,-0.012224963,-0.6556676,-0.2755785,-0.8583102
4888000,4888000,0.0134660425,0.0040650098,-0.00086543243,1.0557032,0.6184832,0.43615258
4900000,4900000,-0.005745333,0.010156644,-0.0040948316,-0.8757458,0.5596161,-0.15462597
4908000,4908000,-0.020643577,0.0030244743,-0.0060672117,-1.353559,-0.3145341,-0.19551082
4920000,4920000,-0.0113310395,0.008483669,-0.006740545,0.07057698,0.3577761,-0.055779777
4928000,4928000,-0.008172875,0.0029797615,-4.863474e-05,0.2937688,-0.21119516,0.45000404
4940000,4940000,3.8401224e-05,-0.0072621363,0.010802237,0.42079693,-0.696601,0.6917982
4948000,4948000,-0.0025974656,-0.009582451,0.009197925,-0.06826761,-0.4392655,0.19374813
4960000,4960000,0.010213809,0.0020405096,0.008055623,0.66295946,0.6918535,0.17909463
4964000,4964000,-0.00029420864,0.006679229,0.009476043,-0.4375701,0.84834665,0.23797213
4980000,4980000,-0.010168996,-0.0018126033,0.0027892345,-0.36090156,0.066333055,0.10653788
4988000,4988000,0.006769772,0.011755604,-0.0089695025,1.0087962,0.93630046,-0.81343424
5000000,5000000,0.003946797,0.0011751959,-0.004660115,0.06925058,-0.33034146,0.13175008
5008000,5008000,-0.006773874,0.0025020181,0.0021365932,-0.64483374,-0.044601228,0.5694936
5020000,5020000,0.0072820107,0.008104904,0.0028568762,0.64807445,0.5038408,-0.027327588
5028000,5028000,0.0055839126,0.0051831203,0.001868258,0.06397706,-0.021275846,-0.106436454
5040000,5040000,0.0062833913,0.0065882183,0.0011960836,0.19319572,-0.1468319,0.1561439
5048000,5048000,-0.0032273745,-0.0054333946,0.007995875,-0.6216384,-0.84148496,0.5224091
5060000,5060000,0.0010852212,-0.01069154,0.009494808,0.31776243,-0.50368845,0.12599395
5068000,5068000,0.0027987873,0.0011749176,0.019497782,0.29484096,0.66630596,0.75852245
5080000,5080000,-0.005321772,-0.0017326546,0.0070982007,-0.58654135,-0.29760122,-0.48154914
5088000,5088000,0.0005106036,-0.01033175,0.015067164,0.16426566,-0.69215167,0.2750708
5100000,5100000,-0.003003419,0.0029998187,0.0050486964,-0.15373853,0.64459133,-0.35513008
5108000,5108000,0.0017486562,-0.0032163737,0.023654595,0.28026992,-0.2767184,1.1430626
5120000,5120000,-0.002310312,0.0052846605,0.0001641429,-0.20536268,0.86255854,-0.8989465
5124000,5124000,-0.002738072,0.0074391067,0.0045061805,-0.17243922,0.7541947,-0.23512386
5140000,5140000,-0.003452688,-0.0019624971,0.006825235,-0.26251584,-0.080329336,0.3322534
5148000,5148000,0.0015660533,0.003421665,0.022216298,0.35742673,0.29941335,1.1663485
5160000,5160000,0.010666394,-0.016050434,0.013612909,0.56439567,-1.1488822,-0.35652575
5168000,5168000,-0.0002026885,-0.013242539,-0.0101831425,-0.5107108,-0.27606437,-1.7211041
5180000,5180000,-0.010736079,-0.0011879983,0.014433236,-0.84903514,0.56292087,1.2355492
5188000,5188000,-0.0094308155,0.003930373,0.004804387,-0.23652324,0.59309995,-0.24812166
5200000,5200000,-0.0070660524,0.010925567,0.0046235477,0.0033968128,0.76968855,-0.17478694
5208000,5208000,0.0047907354,0.0038614597,-0.023189116,0.8559917,-0.19079426,-1.978452
5220000,5220000,-3.899564e-05,0.00045081833,0.006310201,-0.06378688,-0.24472617,1.2208656
5228000,5228000,-0.0023692492,0.0124533735,0.007382125,-0.15847082,0.72320396,0.55234885
5240000,5240000,-0.010641626,-0.0005011556,0.009754941,-0.517371,-0.6486486,0.50224406
5248000,5248000,0.0039031492,-0.0030337744,0.0112236785,0.7795602,-0.31326234,0.29632837
5260000,5260000,-0.0030197846,0.005870247,0.015293177,-0.2114437,0.047320064,0.16034961
5268000,5268000,0.00078215194,0.013728682,0.008522766,0.17653984,0.6248575,-0.41228592
5280000,5280000,0.003021261,0.02029833,0.011963692,0.09492162,0.46504927,0.31690595
5288000,5288000,-0.00054324337,-0.00017903256,-0.013809889,-0.23346812,-1.2121913,-1.7949699
5300000,5300000,0.008772823,-0.006698122,-0.0027890676,0.5600724,-0.5752334,0.28181383
5308000,5308000,-0.0044219997,0.009053778,-0.005689506,-0.7191674,0.855688,-0.02905193
5320000,5320000,0.021017872,0.005718905,-0.0028825093,1.2845845,-0.11125028,0.116141304
5328000,5328000,0.024874229,-0.00661583,0.0034481243,0.74289256,-0.9275066,0.44832614
5340000,5340000,0.012735628,-0.013564763,-0.021196842,-0.22439575,-0.61191225,-1.3128644
5348000,5348000,0.0033878512,0.008142178,-0.004304437,-0.7812457,1.2979724,0.7185749
5360000,5360000,0.0025053201,0.0043612444,-0.0032030963,-0.041913092,-0.016234849,0.18584384
5368000,5368000,0.019301984,0.014533722,0.0017710718,1.1279919,0.6952598,0.40770268
5380000,5380000,0.0054415455,-8.543604e-06,-0.003522186,-0.53550243,-0.56265473,0.078919105
5388000,5388000,0.004232524,-0.00031640928,0.0056399414,-0.2912207,-0.2805098,0.5049969
5400000,5400000,0.016240925,0.0028697993,-0.0049615544,0.5713293,0.03084624,-0.076931
5408000,5408000,-0.0021821065,0.001671828,0.0051306244,-1.0621893,-0.08602268,0.60021406
5420000,5420000,-0.007097046,-0.0011612078,0.003945269,-0.3932454,-0.09334256,0.1579592
5428000,5428000,0.006654762,0.0025191288,0.0040239855,0.6966235,0.18706892,0.03617433
5440000,5440000,0.016545989,-0.0020365296,-0.002255221,0.9142061,-0.039746907,-0.22358733
5448000,5448000,0.007368923,0.00074002333,0.0004460906,-0.18146016,0.13602948,0.1016303
5460000,5460000,-0.00424286,0.0039648046,-0.010956619,-1.0827093,0.4426283,-0.7814685
5468000,5468000,-0.017551646,0.020976061,-0.00547884,-1.316178,1.349788,0.026975477
5480000,5480000,0.004155652,0.0031631147,-0.012278533,0.86774886,-0.6826302,-0.29536507
5488000,5488000,0.008870772,0.004084244,0.010270695,0.7389344,-0.32023904,1.4678319
5500000,5500000,-0.0023392271,0.0037412783,0.011837363,-0.6284268,0.0010651291,0.33999175
5508000,5508000,-0.004417826,0.0012217602,-0.0071602263,-0.3868091,-0.09830988,-1.1455603
5520000,5520000,0.0017474509,0.0092380475,0.0071645314,0.46362576,0.35176766,0.52804434
5528000,5528000,0.006840123,0.014254695,-0.010678301,0.5179835,0.47219652,-1.1587592
5540000,5540000,-0.0038990187,-0.0013853883,-0.0068165557,-0.3890759,-0.49355507,0.646775
5548000,5548000,0.008135404,0.0160005,0.009604348,0.71674365,0.95146555,1.1988299
5560000,5560000,0.013719767,0.0058138836,-0.010312168,0.2738912,-0.2066027,-0.59627545
5568000,5568000,-0.0028370647,0.014289255,0.005835815,-1.0158317,0.41422006,0.86356175
5580000,5580000,0.0030425899,0.009353199,-0.006361479,0.1437664,-0.23309352,-0.5842072
5588000,5588000,0.0011737237,0.0030061896,-0.006847119,-0.15354076,-0.50498444,-0.28584105
5600000,5600000,0.011666756,0.0024875104,-0.009814289,1.1157415,-0.25941676,-0.10021881
5608000,5608000,0.004037472,-0.0033013397,-0.005217072,-0.21883333,-0.5269211,0.2576179
5620000,5620000,0.001857325,-0.004223313,-0.001021343,-0.19749016,-0.11328692,0.34686956
5628000,5628000,-0.007354359,0.0063957307,-0.005509679,-0.60326314,0.73060346,-0.11913903
5640000,5640000,0.0043571484,0.008337793,0.0013784262,0.28268653,0.17818956,0.490418
5648000,5648000,-0.0070486395,0.007195819,-0.0033867117,-0.69163954,-0.0024912914,-0.22858918
5660000,5660000,-0.008338831,-0.00017732696,0.0016564307,-0.102366775,-0.37100887,0.3453682
5668000,5668000,0.009396056,0.013666075,-0.006474378,1.1581149,0.75690293,-0.4471716
5680000,5680000,-0.005730314,0.0019360249,-0.0122991195,-0.38008958,-0.24150985,-0.36188143
5688000,5688000,-0.0068685515,0.0015493765,-0.0013077758,-0.30364794,-0.11771888,0.6701804
5700000,5700000,0.0013753786,-0.0026830034,0.0039606756,0.6346063,-0.40410146,0.42430982
5704000,5704000,0.0061900876,-0.007395314,0.007699241,0.8249669,-0.6630051,0.5950214
5720000,5720000,-0.007788806,-0.00057427946,-0.010525858,-0.7800625,0.46366116,-1.2440429
5728000,5728000,-0.00071203813,0.0009412564,-0.0086653875,0.14596334,0.26420158,-0.32712477
5740000,5740000,0.00045450137,-0.0048891446,-0.006092454,0.27740234,-0.31582287,0.16612259
5748000,5748000,0.007874314,-0.0052157906,-0.004979201,0.59575325,-0.08641401,0.08223423
5760000,5760000,-0.008834296,0.0047230553,-0.0017370037,-0.98397,0.5165094,0.41668108
5768000,5768000,-0.008726173,-0.009724326,0.024278441,-0.41228724,-0.7946385,1.8871166
5780000,5780000,-0.003972794,0.015440771,0.011138438,0.42388737,1.2190757,-0.18266942
5788000,5788000,0.011639914,-0.0025756042,0.013170994,1.2857704,-0.7573677,-0.018844632
5800000,5800000,0.010146701,-0.0070713046,-0.0056174328,0.0821147,-0.36535993,-1.0932465
5808000,5808000,0.0015984692,-0.0056146327,-0.02421506,-0.58245385,-4.216984e-05,-1.73317
5820000,5820000,-0.006950792,0.0036125109,-0.0038274575,-0.60036296,0.3340273,0.77786034
5828000,5828000,0.0030483585,-0.00091581343,0.0018243329,0.4946438,-0.12922026,0.7209466
5840000,5840000,0.010504677,0.0038593074,-0.017483898,0.3489427,0.29110307,-0.954455
5848000,5848000,-0.00023197416,-0.00069310114,-0.00013506628,-0.5776448,-0.22621278,0.930143
5860000,5860000,0.006893306,0.015026066,0.0108317,0.20018005,1.1110713,0.53991115
5868000,5868000,-0.002513953,0.0051576183,0.02084612,-0.6035191,-0.36953583,1.0370336
5880000,5880000,-0.014131868,-0.018849766,0.011794004,-0.68266255,-1.0439491,-0.44701466
5888000,5888000,0.00045369798,0.0011762725,0.0077483314,0.81166023,0.88626266,-0.47770932
5900000,5900000,0.00948811,0.00018686819,8.906709e-05,0.82415617,0.24775743,-0.59661067
5908000,5908000,0.01054467,-0.0032749407,-0.0080740405,0.26175958,-0.25911176,-0.78149486
5920000,5920000,-0.0037549618,0.0016499287,0.003111249,-0.57424736,0.5550631,0.54881954
5928000,5928000,-0.00078463554,-0.004404594,0.016077584,-0.0015474558,-0.21557416,1.1195368
5940000,5940000,0.009947546,0.0041592796,0.0016178663,0.5366467,0.3606316,-0.8478907
5948000,5948000,-0.0029932067,4.5284745e-05,-0.0031431867,-0.6767123,-0.10040393,-0.587083
5960000,5960000,0.006469243,0.0012818237,0.0011943205,0.21089843,-0.07221863,-0.013567445
5968000,5968000,-0.0013234026,-0.0010235567,0.0013565293,-0.4185579,-0.13749309,0.010595889
5980000,5980000,-0.013733091,0.0039562117,0.0148674,-0.808182,0.21786016,0.7730048
5988000,5988000,-0.008642451,-0.0036770403,0.0060180146,0.0051111877,-0.4521703,-0.29225048
6000000,6000000,-0.007584635,0.002126257,-0.003547524,0.13917992,0.41157302,-0.7021879
6008000,6008000,0.0021637818,0.0014658734,-0.0071288804,0.7356229,0.1059308,-0.5171725
6020000,6020000,-0.0031666586,0.0037833243,0.002233143,0.042701423,0.111712724,0.24053934
6028000,6028000,0.0012054099,0.011904893,-0.002215757,0.28290796,0.64332974,-0.179325
6040000,6040000,-0.010099031,0.0024652374,0.010456149,-0.5013456,-0.47320604,0.4876207
6048000,6048000,0.009365336,0.0075785774,-0.0036246325,1.0687964,0.16744171,-0.6860298
6060000,6060000,0.005803375,0.0011819238,0.0011341015,0.28394198,-0.27821326,0.06465613
6068000,6068000,0.0093091475,0.005277998,0.012090381,0.36880696,0.13892742,0.8027273
6080000,6080000,0.009677048,-0.0002095917,0.0010306365,0.016127348,-0.20613426,-0.5403895
6088000,6088000,-0.0030259748,0.01058568,-0.0010987958,-0.84682256,0.68567014,-0.36004466
6100000,6100000,-0.006906942,0.0046154214,0.0052793105,-0.6338067,-0.66601336,0.3906554
6108000,6108000,-0.00011703107,-0.008710741,0.004763872,0.2202689,-1.1241335,0.04283605
6120000,6120000,-0.006007488,0.0009702591,0.0038208333,-0.14111415,0.399391,0.19531026
6128000,6128000,-0.0002920055,-0.0014355843,0.005022645,0.3199827,-0.015617387,0.08950141
6140000,6140000,-0.0031209562,-0.002418952,-0.020964043,-0.31671667,-0.05975874,-1.4346199
6148000,6148000,-0.016161375,0.0073168115,-0.009336015,-0.9757527,0.59825766,0.19256039
6160000,6160000,-0.0017010189,0.005039087,0.002496948,0.43883693,-0.0056429347,0.8070766
6168000,6168000,-0.011278394,0.002064405,-0.0023854398,-0.40768844,-0.21419498,-0.0433507
6180000,6180000,0.0032723437,0.0034834282,0.00032192242,0.5413115,0.20007414,0.2055985
6188000,6188000,-0.013155705,0.0031316648,-0.0039571663,-0.8475826,0.08269763,-0.18654379
6200000,6200000,-0.0073250877,0.010083909,0.0058469623,0.19828188,0.3629011,0.41106206
6208000,6208000,-0.0073752077,0.008382571,-0.0051600216,0.08616754,0.06733257,-0.56323135
6220000,6220000,-0.00068284187,0.015708081,0.0029143163,0.2032961,0.21017313,0.40129986
6228000,6228000,-0.0021582604,0.0077684075,-0.0062777153,0.00317703,-0.4627676,-0.5688063
6240000,6240000,-0.015712423,-0.0075096143,-0.0032796646,-0.9644735,-0.9637137,0.3112342
6248000,6248000,-0.0050120014,-0.0049796943,0.0011299738,0.4641229,-0.2132586,0.2990073
6260000,6260000,-0.00019636293,0.0004580033,-0.0033635427,0.068523824,0.24005604,-0.07172184
6268000,6268000,-0.005004999,-0.0032968665,-0.010072429,-0.298444,-0.22069883,-0.5155669
6280000,6280000,-0.0017019968,0.008063124,0.008273302,0.12868524,0.6086928,1.1844301
6288000,6288000,0.0020384567,0.00044923817,0.006018343,0.27811742,-0.28095883,0.20369422
6300000,6300000,-0.0064503876,0.00028326313,-0.0025717977,-0.33654535,0.04107702,-0.12521327
6308000,6308000,0.0012197496,-0.0064603463,0.014589282,0.4035856,-0.481562,1.1719148
6320000,6320000,-0.013245972,7.953303e-05,-0.0054460387,-0.77910334,0.3271481,-0.9243585
6324000,6324000,-0.010032935,0.0021974538,-0.0059196884,-0.24978542,0.3948304,-0.65476054
6340000,6340000,-0.009435114,0.0027513853,0.0020196442,-0.20826918,-0.63866127,0.6590145
6348000,6348000,0.007363204,-0.010485915,-0.0028325487,1.1349814,-1.2502806,-0.115451984
6360000,6360000,0.008154075,-0.012194394,-0.009900928,0.20305037,-0.006585948,-0.43069574
6368000,6368000,0.012295516,-0.005011095,-0.0026008436,0.36008027,0.4418709,0.38117936
6380000,6380000,0.0022515852,-0.010261064,-0.0070784884,-0.42754084,-0.13880457,-0.32587498
6388000,6388000,0.0015273719,-0.006845262,-0.010696948,-0.3416271,0.22363478,-0.2729601
6400000,6400000,0.011184443,0.0019589607,0.0085852835,0.683097,0.46940553,0.6732342
6408000,6408000,-0.002100803,-0.00067080325,-0.0023745312,-0.683377,0.098207735,-0.39533472
6420000,6420000,0.0006411498,0.013851729,-0.0022175587,0.10506785,0.61263824,-0.21901129
6424000,6424000,0.0051225624,0.013174255,-0.008377697,0.4446921,0.35104826,-0.66090834
6440000,6440000,-0.0052604396,0.008768333,0.007900476,-0.6426468,0.3607412,0.6797565
6448000,6448000,-0.00018005611,0.0005619773,0.0041539934,0.072488576,-0.4004389,0.08801324
6460000,6460000,0.002791264,-0.0037547778,-0.0058923843,-0.06843567,-0.59950656,-0.57551503
6468000,6468000,-0.01464681,0.0043957974,0.0015541569,-1.1935022,0.36383006,0.2841276
6480000,6480000,-0.015585335,4.393136e-05,0.009286034,-0.38940555,-0.11201883,0.578338
6488000,6488000,-0.017582526,-0.0032983108,0.0051424108,-0.24367619,-0.25050405,-0.020710502
6500000,6500000,0.0011629033,0.0012057677,0.008194321,0.94316465,0.26449767,0.059204314
6508000,6508000,-0.0024934926,0.006577307,0.005135601,0.18081354,0.46651202,-0.19802757
6520000,6520000,0.0047469344,0.0035732787,0.0014003813,0.31520993,-0.04750211,-0.16361171
6528000,6528000,-0.001713356,-0.011300848,0.00446292,-0.25656182,-1.0944226,0.15692188
6540000,6540000,-0.0029094133,0.0008467193,-0.003144984,-0.6491006,0.6370922,-0.7589443
6548000,6548000,-0.0014165387,-0.00084111316,0.0030046336,-0.016106486,-0.0043408913,0.22968966
6560000,6560000,-0.0058087204,-0.0029636784,0.011300356,-0.402775,0.43076402,0.43696555
6568000,6568000,0.007577317,0.014549428,0.017409246,0.7717466,1.2730141,0.64634895
6580000,6580000,0.0044727665,0.0036467616,0.008234051,-0.15026036,-0.05367749,-0.4598483
6588000,6588000,-0.0059474586,-6.4847496e-05,-0.0021172743,-0.75766796,-0.34037387,-0.8766935
6600000,6600000,-0.005345455,-0.0047909985,-0.004610376,-0.3440463,-0.27488875,-0.47321627
6608000,6608000,-0.00804903,-0.00407686,-0.009073994,-0.26257122,-0.17087679,-0.550306
6620000,6620000,0.010714563,-0.0028096377,-0.003995115,1.2043734,0.4363821,0.3446841
6628000,6628000,0.008995141,0.009472522,-0.0013911312,0.27533627,0.9491283,0.25476432
6640000,6640000,-0.0042608664,-0.004095201,0.0018029278,-0.681465,-0.3204939,0.47402745
6644000,6644000,-0.0048606778,0.010716019,0.0060489345,-0.50366825,1.0253444,0.67054415
6656000,6656000,0.0032156573,-0.0072466414,0.0049172323,-0.020517468,-1.1603949,0.28370366
6668000,6668000,-0.014776077,0.013245617,-0.0076124654,-0.6598694,1.0653298,-0.76747334
6680000,6680000,0.010134099,0.00041875875,-0.014456914,1.2389607,-0.76952124,-0.45537004
6688000,6688000,-0.00024185769,-0.010052514,0.0033498816,-0.3100227,-0.9917463,1.0497077
6700000,6700000,-6.483271e-05,0.009135531,0.009156346,0.14528549,0.8794211,0.6967484
6708000,6708000,0.009304966,-0.0009189758,-0.016625274,0.752014,-0.41005334,-1.6664166
6720000,6720000,0.007580154,-0.008141097,-0.014177707,0.026547194,-0.54043335,0.18613814
6728000,6728000,0.0013439344,-0.010604523,0.0036923336,-0.4501189,-0.34055898,1.303887
6740000,6740000,0.0027132868,-0.0046580406,0.019892238,0.011112072,0.36596307,1.0277386
6748000,6748000,0.0007065219,0.0040908293,-0.003487965,-0.12291172,0.6854767,-1.1887975
6760000,6760000,0.015146837,0.0031823874,0.0017892974,0.7153789,0.08668267,0.302234
6768000,6768000,0.0028470207,0.0033134948,0.006236131,-0.47946006,0.08781461,0.4312259
6780000,6780000,0.0076023354,-0.014977746,0.008032829,-0.05021593,-1.307416,0.30768836
6788000,6788000,-0.0009276271,-0.023232646,0.00064625056,-0.6453879,-1.0091461,-0.36883292
6800000,6800000,0.018331511,0.00031302057,0.015864354,1.0597842,0.9493249,0.3453171
6808000,6808000,0.003644461,0.007891543,-0.004300316,-0.6203935,0.948536,-1.1552987
6820000,6820000,4.32964e-05,-0.0032894404,0.0035606083,-0.22034594,-0.3804933,0.23315507
6828000,6828000,-0.0048643947,-0.006897591,0.00944588,-0.5340747,-0.42885295,0.44384915
6840000,6840000,0.004482817,-0.009163258,0.0040882183,0.58018345,-0.28069183,-0.32749087
6848000,6848000,-0.008099516,-0.013551755,-0.0021809768,-0.6477143,-0.28794438,-0.5657685
6860000,6860000,0.008205297,0.000560931,0.0032096994,0.8285439,0.50943047,0.24680196
6868000,6868000,0.00037962222,0.00067503855,0.0038911956,-0.27715188,0.3416154,0.17323023
6876000,6876000,-0.00218131,0.010232888,0.008137262,-0.21790859,0.7514605,0.3446564
6888000,6888000,0.01067633,-0.006171189,0.0076204217,0.66765904,-0.8801315,0.41074964
6900000,6900000,-0.002920769,0.008334594,0.005453937,-0.5464168,0.79425395,-0.38409036
6908000,6908000,0.0070320787,0.0033964217,-0.007538891,0.44188762,-0.11915568,-1.0696073
6920000,6920000,-0.0010512681,-0.016215222,-0.0020483178,-0.23171616,-1.1129106,0.2455986
6928000,6928000,-0.00039258203,-0.014226455,0.0032956586,-0.07325978,-0.36877468,0.37307376
6940000,6940000,0.00349653,0.009468632,0.00083909754,0.12895083,1.3673376,0.204757
6948000,6948000,0.009102687,-0.0035626949,-0.0030685794,0.46126592,-0.33551168,-0.25788164
6960000,6960000,0.003493112,0.0047950833,-0.007372987,-0.36717874,0.34106624,-0.14216894
6968000,6968000,-0.0051003215,0.0005531884,-0.008511167,-0.7153026,-0.16616267,-0.13509165
6980000,6980000,-0.001151805,0.011558991,0.01317334,-0.033691876,0.5818473,1.3771129
6988000,6988000,-0.0035957266,0.007831243,0.018518735,-0.10033584,0.06272782,0.8280675
7000000,7000000,0.0002623048,-0.0010689481,-0.012901941,-0.03601381,-0.6625407,-1.5605676
7004000,7004000,0.0008247966,0.001938109,-0.012354925,0.02307316,-0.18943985,-0.9927946
7020000,7020000,-0.0017418335,-0.0027389175,-0.006606322,-0.17284802,-0.19665843,0.08275083
7028000,7028000,0.0057005803,0.0016201226,-0.005938862,0.44766217,0.19706601,0.047482524
7040000,7040000,0.0121065695,-0.004846743,-0.0026622608,0.32205287,-0.0765735,0.23933801
7048000,7048000,0.0017359818,0.0030415726,-0.0048421016,-0.5836111,0.50097305,-0.072345056
7060000,7060000,0.002238474,0.0022773196,-0.00030026643,-0.2063043,0.09039993,0.33008754
7068000,7068000,-0.003823753,0.006339592,0.0050890683,-0.4300493,0.30635786,0.537831
7080000,7080000,0.023041874,0.006010792,0.018219886,1.3215594,0.21798155,0.79072887
7088000,7088000,0.017135361,-0.0018445649,-0.0034632492,0.10395223,-0.5307553,-1.2424965
7100000,7100000,0.0023548184,0.01244575,0.014417548,-0.7288486,0.7310681,1.328074
7108000,7108000,0.010457259,-0.0053373864,0.0024417653,0.23954192,-0.7661098,-0.3955449
7120000,7120000,-0.0076510007,0.005594988,0.0035893782,-0.9906043,-0.012504579,0.05684761
7128000,7128000,0.0051625073,0.0011677719,-0.01245567,0.4668637,-0.20147012,-1.0281403
7140000,7140000,0.01393706,-0.0070518265,0.011255086,0.95384014,-0.6241336,1.1549361
7148000,7148000,0.008285755,-0.009807499,0.017832605,-0.09256524,-0.43963575,0.9950305
7160000,7160000,-0.0026125724,-0.00080491643,0.004082321,-0.52131855,0.40741223,-0.7741304
7168000,7168000,-0.0009368319,0.0019533348,-0.008013966,-0.08270845,0.41976306,-1.055938
7180000,7180000,0.016364366,-0.0063689584,0.0010420777,0.9640816,-0.256791,0.001702632
7188000,7188000,0.012026854,0.0014661524,-0.0056816903,0.1212222,0.41527432,-0.38753194
7200000,7200000,-0.0020848885,0.0060940767,0.011167902,-0.6367184,0.04381703,0.7728833
7204000,7204000,-0.0010258383,-0.00511873,0.009688242,-0.33516297,-0.9085425,0.39060456
7220000,7220000,0.00020441611,-0.002835874,-0.00904769,0.15842262,-0.3135905,-0.8916076
7228000,7228000,-0.0015920976,-0.006759183,-0.0014280137,-0.092362866,-0.2725348,0.26297003
7240000,7240000,0.005511126,-0.000726773,-0.005841483,0.68243366,0.05489833,-0.3918851
7248000,7248000,0.019952124,0.004338058,-0.000828689,1.2083951,0.47465324,0.10364356
7260000,7260000,0.0014174771,0.005211604,0.009193546,-0.94445646,-0.13881005,0.82207793
7268000,7268000,0.010768039,-0.005314347,-0.007879221,0.29634947,-0.76425594,-0.9010743
7280000,7280000,-0.010002539,0.008693157,-0.009755699,-1.3173373,0.66488993,-0.13445567
7288000,7288000,-0.00058971357,0.002809376,0.013288752,0.19083488,-0.1876643,1.5592575
7300000,7300000,0.0022294093,0.0072980993,0.0044213543,-0.1050728,0.26640314,-0.26813692
7308000,7308000,0.0021924516,0.0009531618,0.004667597,-0.0037430823,-0.29804724,-0.012614435
7320000,7320000,0.008275565,0.0012475253,-0.0011259484,0.4390527,-0.16939677,-0.61561203
7328000,7328000,0.0017591139,-0.004761893,-0.016029201,-0.29719424,-0.42070714,-1.312804
7336000,7336000,-0.0024302155,0.006991219,-0.014183925,-0.309815,0.63755715,-0.32227314
7348000,7348000,-0.0020810831,-0.0017667483,0.004600817,-0.1944769,-0.12350027,0.97985077
7356000,7356000,0.0020584958,-0.0022494167,-0.0015556433,0.2418176,-0.19966358,-0.10260731
7368000,7368000,0.010299689,0.006358715,-0.00457773,0.32772654,0.6657912,0.22655071
7380000,7380000,-0.0017377876,0.0028244036,0.0006765197,-0.61200255,-0.053288948,0.30680165
7388000,7388000,-0.004696608,0.01047511,0.010828139,-0.40400365,0.47431868,0.79140115
7400000,7400000,0.017405175,0.0015981068,0.0065496857,1.2574415,-0.25099096,0.019227717
7408000,7408000,0.0032204771,-0.012744049,0.011995928,-0.53659123,-1.1835258,0.32437554
7420000,7420000,-0.014010501,0.0077868854,-9.356637e-05,-1.0399556,1.236529,-0.30786034
7428000,7428000,-0.016961899,-9.238109e-05,0.009055855,-0.5926849,-0.15197158,0.4183678
7440000,7440000,0.007129514,-0.020288382,-0.0026741147,1.2634112,-1.1293005,-0.46832868
7444000,7444000,0.004858703,-0.023001378,0.0014817063,0.6508831,-0.97841877,0.035874646
7460000,7460000,0.0012388825,0.0016971049,-0.0010174727,0.07831433,0.60998166,0.18441232
7468000,7468000,-0.0050539724,-0.0011970056,0.012073947,-0.3876858,-0.0018132187,0.89508766
7480000,7480000,-0.003808444,-0.0011722449,-0.011660883,-0.11959259,0.09577534,-1.0902312
7488000,7488000,-0.00020660655,-0.004583929,-0.002905753,0.19102925,-0.23334473,0.22594166
7500000,7500000,0.0007741827,0.01680331,0.0008090738,0.30566007,1.2651284,-0.01614169
7508000,7508000,-0.0013443971,0.0022356897,-0.0111521445,-0.107127726,-0.5802238,-0.88242567
7520000,7520000,0.0024255058,-0.0013602064,0.0021353196,0.39237857,-0.24694775,1.0232116
7528000,7528000,0.0040601436,0.0032523104,0.001605445,0.35199413,0.23346579,0.3220312
7540000,7540000,0.009119854,-0.010512334,0.0011911098,0.12264544,-0.79661655,0.26055062
7548000,7548000,0.0047230744,-0.0041749664,0.005916858,-0.18672892,0.16563326,0.40365165
7560000,7560000,-0.0019506562,0.010999938,-0.00877526,-0.65513444,0.77429336,-0.7591596
7568000,7568000,-0.010067208,-0.0024388123,-0.006391153,-0.7674184,-0.6055255,-0.19505869
7576000,7576000,-0.01438322,-0.0041663786,0.0023480342,-0.6998528,-0.32234466,0.56684566
7588000,7588000,-0.0004341707,0.003505168,-0.0060883164,0.6145449,0.19391388,-0.3566862
7600000,7600000,-0.012265041,0.0020540706,-0.008600131,-0.33661282,0.13105665,-0.0904814
7608000,7608000,-0.013673544,-0.002899454,-0.00022689305,-0.19833103,-0.3177477,0.49645332
7620000,7620000,0.0073879496,0.00968949,-0.013863781,1.0966325,0.9643463,-0.6045236
7628000,7628000,0.0074594626,0.0019312096,-0.013524071,0.4546302,-0.2320047,-0.1793541
7640000,7640000,-0.0041510845,0.011669318,-0.013525353,-0.6752556,0.70002985,-0.291223
7648000,7648000,0.0037459002,0.02055811,-0.008215029,0.36808115,0.8690513,0.28873575
7660000,7660000,0.010024221,-0.005684213,-0.0072399443,0.20137525,-1.1629252,-0.19252177
7668000,7668000,0.00302971,-0.006615009,-0.014672718,-0.37285477,-0.5409186,-0.5218563
7680000,7680000,-0.002667851,-0.010640296,-0.0024794415,-0.52054834,-0.6197973,0.7357825
7684000,7684000,-0.0040651592,-0.010582456,0.005525111,-0.4632729,-0.4076312,1.1590581
7700000,7700000,-0.014460098,0.013051034,0.012865429,-0.65786207,1.0187429,0.62174284
7708000,7708000,8.963577e-05,0.024078442,0.010648883,0.6979684,1.2083223,-0.05576507
7720000,7720000,0.004744378,-0.0038805192,-0.016484411,0.46109486,-1.4579527,-1.4492869
7728000,7728000,0.005830153,0.00055743277,-0.008602859,0.26673073,-0.19344556,0.019797798
7736000,7736000,-0.0073004747,0.0027926955,0.003430897,-0.8226546,-0.07859613,0.79554355
7748000,7748000,-0.012549322,0.0030303171,-0.00015360909,-0.3736018,0.070785075,-0.1404669
7760000,7760000,0.007183885,-0.0041487943,-0.01392786,0.9527254,-0.22911493,-0.66278493
7768000,7768000,0.021223174,0.00058015814,-0.0048201084,1.4397267,0.17586832,0.2995073
7780000,7780000,0.013406904,0.0015294696,0.0007493705,-0.25325072,0.29517567,0.43183368
7788000,7788000,0.008555446,-0.010567077,-0.0010567767,-0.3536695,-0.68688184,0.061241243
7800000,7800000,0.010226269,-6.0918683e-05,-0.0011033458,-0.25503254,0.3267606,0.053580295
7808000,7808000,0.0015122335,0.005793972,-0.005595334,-0.6910705,0.6089989,-0.31600457
7816000,7816000,0.009470123,0.0173223,0.004820046,0.28434515,0.9913931,0.6609598
7828000,7828000,0.0021173295,0.0073136017,0.007585875,-0.45265415,-0.10834656,0.37719172
7840000,7840000,0.010674387,0.0063380534,0.0019976804,0.5723818,-0.36744407,-0.483119
7848000,7848000,0.007954197,0.002148032,0.0006701276,-0.064751744,-0.45549595,-0.27670264
7860000,7860000,-0.0013092516,-0.016379032,0.0039249663,-0.2938462,-1.0813291,0.020309415
7868000,7868000,-0.0070755747,-0.006825258,0.004447443,-0.68586284,0.22618198,0.009405602
7880000,7880000,-0.0071771317,0.005811155,-0.009530951,0.23574924,0.89305174,-0.7084338
7888000,7888000,0.0014412747,-0.008859455,0.0037718094,0.58458203,-0.71125644,0.6455461
7900000,7900000,-0.016205886,-0.011385563,0.0042870613,-0.99335134,-0.38007784,0.06452196
7904000,7904000,-0.014231274,-0.011928019,-0.0018783084,-0.49593174,-0.298302,-0.47265756
7920000,7920000,0.0018064652,0.006750567,0.0053650006,0.594427,0.9374461,0.6780266
7928000,7928000,0.002549858,-0.0039022912,0.0033742394,0.1825499,-0.32643175,0.16039273
7940000,7940000,-0.007613583,-0.017066086,-0.0020179257,-0.17837375,-1.0100348,-0.45493418
7948000,7948000,-0.0005724898,-0.010697509,0.0071934606,0.29397273,0.10209959,0.5396892
7960000,7960000,0.0025041646,0.009710979,-0.010084974,0.4340049,1.2508827,-1.0998777
7968000,7968000,0.008456143,-0.0067191664,-0.0023065566,0.5324663,-0.6694513,0.13775794
7980000,7980000,-0.0017472792,-0.014323374,-0.008879332,-0.028511882,-0.4186294,-0.57315433
7988000,7988000,0.01867421,-0.010060543,-0.008361788,1.2891902,0.06080321,-0.11759037
7996000,7996000,0.0053254603,-0.0009541891,-0.0004759491,-0.35464042,0.71501136,0.5161737
8008000,8008000,-0.019999884,-0.0018061032,-0.0056865467,-1.9315562,-0.075965755,-0.39737427
8020000,8020000,-0.014205305,-0.0072152466,0.00026647345,0.0028882027,-0.05208433,0.25583962
8028000,8028000,-0.011235107,0.00711253,-0.005251917,0.15673989,0.9763902,-0.31557825
8040000,8040000,-0.005761109,0.004547922,-0.013434588,0.60081375,0.103778094,-0.63634336
8048000,8048000,0.0005266041,0.010781397,-0.018704787,0.6722821,0.43379566,-0.57479113
8060000,8060000,0.0031006052,0.008819406,-0.005619207,0.41865468,0.023433316,0.6697917
8068000,8068000,0.006765652,-0.0032981352,-0.011117524,0.4533442,-0.78905344,-0.1597798
8080000,8080000,0.0038548561,-0.0014739869,-0.0061275167,-0.13431156,-0.10780638,0.43522373
8088000,8088000,-0.0045855795,0.008766756,0.009779621,-0.7488488,0.6270517,1.1779189
8100000,8100000,0.0076617515,-0.0057781003,-0.015924817,0.8301228,-0.40046248,-1.3113449
8108000,8108000,0.0014136223,0.0033336815,-0.024601659,-0.14778394,0.41886863,-1.0991123
8120000,8120000,0.0021367113,0.001721612,-0.0045231828,0.110545054,-0.09020912,1.1844275
8128000,8128000,0.0007186682,-0.0033017923,0.005068786,-0.09128453,-0.4441696,1.0446479
8140000,8140000,-0.011308113,-0.0049316143,-0.011942393,-0.7800877,0.16760291,-0.57417935
8148000,8148000,-0.013040851,0.006675131,0.0039623617,-0.43173945,0.8484043,0.7996441
8160000,8160000,0.006380754,0.0031778044,-0.005115106,1.3249289,0.17651208,-0.16923442
8168000,8168000,0.0013887299,0.008740733,-0.0025265263,0.07069504,0.47980413,0.15180813
8180000,8180000,0.013317236,0.011530606,0.005565889,0.8468063,0.1914443,0.5140761
8184000,8184000,0.0013057744,0.0050853924,0.007694158,-0.44095182,-0.4115949,0.52009434
8200000,8200000,0.0024160063,0.005658159,-0.0024435478,0.34738085,0.0120654125,-0.09944594
8208000,8208000,-0.0064910143,0.010473026,0.002961517,-0.44325536,0.3219478,0.30063263
8220000,8220000,-0.0062759886,-0.011341806,0.004593624,-0.047607467,-1.3208312,0.27839133
8228000,8228000,-0.0010743183,-0.011042741,0.02424861,0.33259243,-0.5039966,1.4694451
8240000,8240000,-0.0029632258,-0.0051397127,-0.0076850494,-0.07911031,0.3779107,-1.5529456
8248000,8248000,0.00070884277,0.007910878,-0.0040950715,0.2710175,1.0781323,-0.36318085
8260000,8260000,-0.0013817452,0.007440148,-0.0031686502,-0.06918083,0.0076801786,-0.06201289
8268000,8268000,0.0024843127,-0.0019587153,-0.002745422,0.27749476,-0.5967997,0.11294209
8280000,8280000,0.004689098,0.003960744,0.001094558,0.25973636,0.19987082,-0.17073369
8288000,8288000,-0.003912205,-0.008068912,-0.002600179,-0.569511,-0.7442186,-0.22413097
8300000,8300000,0.001458631,-0.0032484545,0.0008401686,0.5548854,0.09413172,-0.029112993
8308000,8308000,0.0047292076,-0.004706238,-0.00977929,0.31808883,-0.024533251,-0.7812581
8320000,8320000,0.011692439,0.015701627,-0.0020845039,0.57205385,1.3798614,0.23498154
8328000,8328000,0.015569992,0.0054360116,-0.0070017185,0.62590337,-0.23210377,-0.2703767
8340000,8340000,-0.0013047456,0.018184917,0.00044506782,-1.1697571,1.0982132,0.761119
8348000,8348000,-0.0037517603,0.0020343508,0.014460997,-0.56690586,-0.7412718,1.1794058
8360000,8360000,0.013144322,0.007941116,-0.0024134764,0.81667036,0.07198172,-0.48566365
8368000,8368000,0.005167213,-0.010381184,-0.0071433363,-0.30796713,-1.1741304,-0.547888
8380000,8380000,0.009016073,0.00085834705,-0.008726784,0.5846918,0.16103348,-0.08913344
8388000,8388000,0.010236779,-0.0077927667,0.013892267,0.18479812,-0.45419124,1.4117373
8400000,8400000,-0.01245112,0.0069413777,0.005176787,-1.1803946,0.5814215,0.27367198
8408000,8408000,-0.0060464176,0.0013270448,-0.003266416,-0.051291227,-0.12195695,-0.5639547
8420000,8420000,0.0013483017,0.005602062,-0.013397173,0.54623085,0.29735395,-0.28440106
8428000,8428000,0.0057674744,-0.0035552897,-0.0026817843,0.48286858,-0.5962337,0.42313117
8440000,8440000,0.002571519,-0.005317168,-0.023170156,-0.06718333,-0.050909385,-0.8319372
8448000,8448000,0.006517551,-0.0046811993,-0.008289091,0.25852334,0.008761262,0.6696243
8460000,8460000,0.0057195057,0.00195972,-0.0037995363,0.15471146,0.51126057,0.37944394
8468000,8468000,0.00027332158,-0.00046655285,-0.0032908798,-0.42948315,0.016570443,0.28225654
8480000,8480000,0.0023976834,-0.0010818555,-0.00030534712,0.044036627,0.004071259,-0.06137377
8488000,8488000,-0.0077330116,0.0029494797,0.0052845967,-0.6721342,0.23475304,0.41570255
8500000,8500000,-0.0071408856,0.0010266685,0.0018897252,-0.015749872,0.25340515,-0.1829668
8508000,8508000,0.0016621661,0.0072176224,-0.0030555397,0.5976613,0.36529064,-0.42359817
8516000,8516000,-0.0034238778,-0.0019008312,-0.003411372,-0.13947189,-0.36433953,-0.15976655
8528000,8528000,0.0016043583,-0.0027627908,-0.00046693988,0.2878375,-0.30890477,-0.11862946
8540000,8540000,-0.004695387,0.0006113635,-0.006402592,-0.2602421,0.04709676,-0.022050679
8548000,8548000,0.0016323817,0.012810746,-0.0015335213,0.3585768,0.96837664,0.27313033
8560000,8560000,0.0023345263,0.0023422278,-0.01412073,0.21190137,-0.6390238,-0.8005247
8568000,8568000,0.00017784223,-0.008926812,-0.0004922155,-0.087586835,-0.91670036,0.6505613
8580000,8580000,0.010389067,0.0053552664,-0.0021048628,0.50067157,0.46896484,0.19919075
8588000,8588000,-0.005612175,0.0072572306,0.0040733153,-0.8904046,0.38250485,0.4896644
8600000,8600000,0.0016954155,0.004848291,-0.008682041,0.40309632,-0.45481288,-0.531451
8608000,8608000,0.0020955936,-0.0035018583,-0.0075176773,0.14562386,-0.6443578,-0.18813238
8620000,8620000,0.0012907658,0.003213102,-0.0076278658,0.030975971,0.23578267,-0.16373235
8628000,8628000,0.0085673295,0.0028117546,-0.0076833204,0.54362047,0.0086655915,0.014185011
8640000,8640000,0.0011771247,0.010941975,-0.0051026773,-0.31718272,0.5383094,0.06960159
8648000,8648000,-0.0020880087,0.007410543,0.002599684,-0.3919747,-0.092024036,0.56238914
8660000,8660000,-0.0032998302,0.0048922873,-0.0009412111,0.021258175,-0.024810102,-0.18779609
8668000,8668000,-0.0024935189,-0.0052691777,-0.0103427535,-0.07255727,-0.6987494,-0.5827475
8680000,8680000,0.017246468,-0.004764875,-0.0072819577,1.5683235,-0.18816671,-0.2983234
8688000,8688000,0.010240395,-0.0060474975,-0.0017557547,0.10973632,-0.25505248,0.2383682
8700000,8700000,0.00787846,0.0037705982,-0.009641281,0.16153544,0.8323577,-0.278332
8708000,8708000,-0.0047610495,0.0033303555,0.011685804,-0.903309,0.27064016,1.354296
8720000,8720000,-0.002604073,0.010134721,0.006130704,0.0739907,0.6283891,0.02890585
8728000,8728000,-0.0022502171,0.0140876705,0.0024216266,0.01822102,0.4233029,-0.24516508
8740000,8740000,0.005894675,0.004729643,-0.0043739914,0.38876808,-0.060013168,-0.41291276
8748000,8748000,-0.006849222,0.0071025463,0.012878974,-0.6960207,0.032788824,1.0197475
8760000,8760000,-0.0024264401,0.005619488,0.0003830655,0.05217192,-0.00024068999,-0.48532906
8768000,8768000,-0.012562808,0.0025029653,-0.01686835,-0.7018821,-0.19252424,-1.4072195
8780000,8780000,0.0012406106,-0.0020089597,-0.014203875,0.65183556,-0.5000371,-0.20034714
8788000,8788000,0.011933015,0.0059373337,-0.006671705,1.0518274,0.4672916,0.41521037
8800000,8800000,-0.005047398,-0.0025862544,-0.0043923524,-0.9246347,-0.8084664,0.38569283
8808000,8808000,-0.007152157,-0.0072369976,0.0063171284,-0.5598814,-0.61602414,0.873566
8820000,8820000,-0.0024333068,-0.0017037946,0.0057598315,0.38407695,0.12917441,0.31577402
8828000,8828000,0.0019335209,0.003342388,0.0019209356,0.29876918,0.42331755,-0.15554951
8840000,8840000,0.005548953,0.0139871985,0.006786397,0.7440829,0.6973435,0.22802965
8848000,8848000,0.021846322,0.0074832034,0.0035993159,1.3007869,-0.17034352,-0.15968126
8860000,8860000,0.012988976,0.004763493,-0.0006373853,0.118674845,-0.048854496,-0.22436753
8868000,8868000,0.022589644,0.012380672,-0.0068368264,0.6530114,0.47627842,-0.500081
8880000,8880000,-0.00012443634,0.0013832776,-0.015276852,-1.0316783,-0.5229879,-0.8986932
8888000,8888000,0.006707448,-0.0030597912,-0.014631115,0.028977394,-0.51899487,-0.24723054
8900000,8900000,0.003285597,-0.0023124313,0.00304524,-0.4241705,-0.3186509,0.8200926
8908000,8908000,0.009652937,-0.001399671,-0.0057850718,0.34434497,0.008300756,-0.26936328
8920000,8920000,0.011602641,-0.0008922271,-0.008276302,-0.012675345,-0.14248706,-0.27289194
8928000,8928000,0.002737859,-0.0029015304,-0.010518126,-0.6171123,-0.19326733,-0.24146663
8940000,8940000,-0.00020255774,-0.005045813,-0.010388494,-0.31134814,-0.21999347,-0.22231033
8948000,8948000,-0.0058962842,-0.0029597343,-0.0068236035,-0.6271886,0.19325602,0.22408506
8960000,8960000,-0.003695112,0.0087444205,0.007998434,0.18342608,0.34562418,0.9979887
8968000,8968000,0.009366028,0.0043519153,0.008371259,0.9858873,-0.14922938,0.48194724
8980000,8980000,0.008541744,0.0019216291,0.004512007,0.072378755,-0.085217535,-0.15772687
8988000,8988000,-0.003860483,0.009595803,-0.0020976602,-0.8085151,0.4152648,-0.5157532
8996000,8996000,0.0014640341,0.0072927806,0.0006041005,0.051870644,0.05187195,-0.020366669
9008000,9008000,-0.00196272,0.00079844915,0.0015716245,-0.45196813,-0.31849885,0.1584782
9020000,9020000,0.005099475,0.0047868085,-0.0152633935,0.66076136,0.38224295,-1.0762151
9028000,9028000,0.0072927177,0.011632219,-0.00062979164,0.3347618,0.53746194,0.62832505
9040000,9040000,0.0029706052,0.005769385,0.0107686585,0.018279701,-0.05295552,0.6990683
9048000,9048000,-0.004375753,-0.0012789217,0.008704283,-0.5822346,-0.6167339,0.12213277
9056000,9056000,-0.0052165417,-0.003503299,-0.0026730578,-0.19080168,-0.33195695,-0.6933552
9068000,9068000,0.00878648,0.0060622664,0.0032888143,0.56603616,0.47809863,0.14070453
9080000,9080000,0.0063505396,0.0037579723,0.00052054523,-0.12578285,-0.12366109,-0.21915364
9088000,9088000,0.0038638988,0.002474706,0.0003708488,-0.24016635,-0.047742724,-0.09140686
9100000,9100000,0.0059814826,-0.0019441228,-0.0018390793,0.24279767,-0.46913913,-0.130968
9108000,9108000,0.0045941425,0.0022643975,-0.007822247,-0.054152906,0.12257876,-0.42052507
9120000,9120000,0.012445227,-0.0016149266,0.0040338268,0.5836512,-0.31823987,0.28307432
9128000,9128000,0.0052761673,-0.002294052,-0.0029993868,-0.31522357,-0.10745113,-0.32670835
9140000,9140000,0.006204756,0.0025029283,0.0077518895,-0.12365791,0.09220689,0.5724672
9148000,9148000,0.0009096077,-0.009691769,-0.0004901292,-0.3518287,-0.79132634,-0.3927667
9160000,9160000,-0.0019814807,-0.0077925455,0.008758962,-0.58306146,-0.19556423,0.25782675
9168000,9168000,-0.015856247,-0.011798802,-0.005978768,-1.1491293,-0.33877027,-0.83539516
9180000,9180000,0.0049195667,-0.0062888097,-0.0032446408,0.9091648,0.35057762,-0.02139985
9188000,9188000,0.011452836,-0.009512156,-0.006313442,0.81995875,-0.15213412,-0.28204593
9200000,9200000,-0.0065057166,0.003812702,0.00027045337,-0.83430034,1.0768901,0.49957606
9208000,9208000,0.005324657,0.00073424156,0.012521529,0.4758594,0.15669511,1.0481155
9220000,9220000,-0.0037094287,0.007021724,-0.010264602,-0.57109207,0.43217376,-1.2506075
9228000,9228000,-0.0025755668,0.0005377755,-0.009652589,-0.059465885,-0.14935517,-0.4503135
9240000,9240000,-0.007717343,0.008408997,-0.00011018227,-0.5241278,0.23336013,0.48957393
9248000,9248000,0.0034960057,-0.00037433958,0.011545464,0.5973505,-0.46426407,1.0021231
9260000,9260000,0.0021484639,-0.0059590098,0.00078952825,0.1981302,-0.740406,-0.5972015
9268000,9268000,-0.0033569369,-0.0072102547,0.0056177536,-0.3205275,-0.30881137,0.14822254
9280000,9280000,0.0004124491,0.0057101,-0.011641479,0.27021867,0.6151092,-0.9987561
9288000,9288000,0.0040262532,0.00020073405,-0.0025093073,0.33697033,-0.10543949,0.27130002
9300000,9300000,-0.0008848907,0.0032202108,-0.009691254,-0.30005753,-0.0011633873,-0.33800274
9308000,9308000,-0.0036369788,0.00112488,0.010195006,-0.31892896,-0.11676755,1.1871142
9320000,9320000,-0.012162035,0.006501153,-0.0075276187,-0.7131876,0.3351839,-0.46354303
9328000,9328000,-0.0012848638,0.009724796,0.0028146838,0.54305506,0.30483127,0.45939088
9336000,9336000,0.0076377853,-0.016424702,-0.0044729733,0.7990275,-1.7349797,-0.2896752
9348000,9348000,-0.0016913296,-0.0029141288,-0.0074595334,-0.6429115,0.7766099,-0.49533147
9360000,9360000,-0.009569631,0.0062488504,-0.0046824478,-0.51695096,0.47130156,0.34410685
9368000,9368000,0.0058763996,-9.1933674e-05,0.00034190784,0.8103837,-0.22350678,0.4541099
9376000,9376000,0.009919685,-0.00449716,-0.0014275359,0.674772,-0.36092326,0.063875936
9388000,9388000,-0.0007323539,0.01996789,-0.000725837,-0.5486718,1.3424883,0.22117946
9400000,9400000,-0.009957656,-0.008169916,-0.0044382317,-0.5842757,-1.6799227,-0.3197876
9408000,9408000,0.0034551318,-0.011228009,-0.006369777,0.68975836,-0.8315254,-0.26079923
9420000,9420000,0.019026453,-0.001740086,0.0058888574,1.346221,0.06583847,0.74951047
9428000,9428000,0.0147869475,-0.0018262033,0.0038375945,0.024576187,0.08470541,0.15755108
9440000,9440000,-0.007843697,-9.6489486e-05,-0.0038422134,-0.75463796,-0.008926622,-0.5005319
9448000,9448000,-0.013889028,-0.008403195,-0.004787466,-0.7499139,-0.53306645,-0.26229572
9460000,9460000,0.0014156512,-0.00026839302,-0.0014401604,0.5869964,0.12030762,0.2380709
9468000,9468000,-0.0034022625,-0.0036236315,-0.00023272389,-0.076949716,-0.122023396,0.24532154
9480000,9480000,-0.003987164,0.0041786022,0.0043221265,-0.11258162,0.27345645,0.119202085
9488000,9488000,0.011021506,0.0046524378,0.006289783,1.0403321,0.17287543,0.22690287
9500000,9500000,0.011053843,-0.010827313,0.0043046027,0.37907407,-0.89260757,-0.07121711
9508000,9508000,0.00789994,-0.00044203945,0.0071539422,-0.13274682,0.4035073,0.21869513
9520000,9520000,-0.0027569341,0.0009731415,-0.0064760963,-0.7267332,-0.110618636,-0.87805736
9528000,9528000,-0.014001878,0.012483319,-0.0047060754,-1.0853459,0.83373046,-0.264696
9540000,9540000,-0.0065858155,0.006021389,-0.00394976,-0.014457703,-0.40874064,-0.17471524
9548000,9548000,-0.012141546,0.0074309767,-0.0016077538,-0.2707113,-0.018497558,0.09991624
9560000,9560000,0.004490302,-0.008104051,0.0040460005,0.97209764,-0.93726563,0.28099835
9568000,9568000,0.007093489,0.0018338587,-0.006343313,0.5433005,0.32478815,-0.56149256
9580000,9580000,-0.0028057653,0.011236725,0.001960453,-0.53487635,0.44007832,0.4632406
9588000,9588000,-0.008673718,-0.004639676,-0.000640917,-0.6187978,-0.9134146,0.018998234
9596000,9596000,0.0013687385,-0.004904244,-0.0008769794,0.527822,-0.35719,-0.047775783
9608000,9608000,-0.0040178,0.009180156,0.0027186763,-0.57222086,0.889385,0.31714514
9620000,9620000,-0.0039565363,0.004801711,0.00477565,-0.08871256,-0.21623337,0.100502215
9628000,9628000,-0.0010227392,0.004693111,-0.0006713639,0.19524918,-0.018985178,-0.2517697
9640000,9640000,-0.0068368185,0.0064704437,0.0018158075,-0.4380969,-0.050017085,-0.3031624
9648000,9648000,0.0013099718,0.015668835,-0.020337513,0.49674076,0.5594048,-1.6273932
9660000,9660000,-0.007503529,-0.015005779,0.0018871268,-0.70204073,-1.616974,1.0310993
9668000,9668000,-0.014749806,-0.009023909,0.008967113,-0.7335994,-0.29758596,0.813821
9680000,9680000,-0.0037456194,-0.004872687,-0.009113321,0.371528,0.25003853,-0.40007925
9688000,9688000,-0.002214848,-0.018293941,0.006326935,0.3480333,-0.90435874,0.7842805
9700000,9700000,0.0024763239,-0.0104127275,-0.010074798,0.2344654,0.5247433,-0.40984786
9708000,9708000,0.00379265,-0.005024111,-0.00012787918,0.19854996,0.6180021,0.39216357
9720000,9720000,4.734978e-05,0.0026604452,0.0021481432,-0.24645339,0.42507076,0.4564208
9728000,9728000,-0.004222442,0.006113625,0.00029738207,-0.40282524,0.49211556,0.010640361
9740000,9740000,-0.0036781146,-0.00066357455,-0.01308045,-0.16834606,-0.23953454,-0.9458624
9748000,9748000,-0.0009755541,0.010044608,-0.0254411,0.20162055,0.5632367,-1.2048837
9760000,9760000,0.0079153795,-0.0157974,0.009590433,0.33904445,-1.2951154,1.8480814
9768000,9768000,-0.00221964,0.0030960732,0.014932767,-0.56081295,0.75414443,1.1290636
9780000,9780000,0.011765225,0.0036323485,0.01131328,0.77177656,0.15219313,-0.13987488
9788000,9788000,0.008990133,-0.0064100707,-0.0026684136,0.18180236,-0.6571363,-0.96494514
9800000,9800000,0.0045846393,-0.017616414,-0.007070096,-0.21427478,-0.7641531,-0.5166587
9808000,9808000,0.012756741,0.0020574054,0.009960924,0.5202124,1.1241864,0.9692794
9820000,9820000,0.0047954093,0.005482166,0.0040652733,-0.50690186,0.29508978,-0.15903062
9828000,9828000,-0.0012072723,-0.012512321,0.0036638265,-0.58974123,-1.1270707,-0.041082997
9840000,9840000,-0.0030517846,0.0065280464,0.01916993,-0.40239787,1.0022893,0.7243202
9848000,9848000,-0.01114103,0.010826694,6.3602594e-05,-0.67313814,0.65721476,-1.039161
9860000,9860000,7.341569e-05,-0.00059686974,-0.005781966,0.2909185,-0.35954773,-0.32108724
9868000,9868000,-0.0018695085,-0.010744221,-0.0065264334,0.067647696,-0.8889461,-0.28228715
9880000,9880000,-0.0019726104,-0.0068869796,0.0029120883,0.05895421,-0.055527713,0.4714625
9888000,9888000,0.0025623268,-0.010047054,0.0061019063,0.35716513,-0.21847956,0.5135132
9900000,9900000,-0.018216722,-0.008754607,0.007934552,-1.1050215,-0.215572,0.06427013
9904000,9904000,-0.008818213,-0.014080677,0.00013765696,0.05059707,-0.5888682,-0.6092659
9920000,9920000,-0.0042657563,0.01586148,0.007849973,-0.4794522,1.4358472,0.23573048
9928000,9928000,-0.0014147515,0.0035707029,0.011338273,0.052036613,-0.21468133,0.34069157
9940000,9940000,0.0030871555,0.009693615,0.019000001,0.056697994,0.45069942,0.5898174
9948000,9948000,0.0033187806,0.018344818,0.00626328,0.046619736,0.76400167,-0.6919469
9960000,9960000,-0.00022413337,0.0063078813,0.0054577487,-0.08119556,-0.38347232,-0.09827081
9968000,9968000,-0.0023220077,0.0050071524,0.0070547224,-0.21906215,-0.32153088,-0.0028296467
9980000,9980000,0.0024345652,-0.006547869,-0.008048738,0.3932894,-0.91707605,-0.97100013
9988000,9988000,0.0048649726,-0.008422947,-0.0015155261,0.21981782,-0.4769191,0.061091445
10000000,10000000,-0.0020271754,0.001140056,-0.0072076283,-0.15614954,0.4761908,-0.43860537
10008000,10008000,0.010591613,0.0027205525,-0.0036519377,0.8023187,0.26008657,0.13225746
10020000,10020000,0.0048297048,0.007732876,-0.004596159,0.026277274,0.48751998,-0.17731974
10028000,10028000,0.009835593,-0.00013956217,0.00021517376,0.236323,-0.3556474,0.32770258
10040000,10040000,-0.0006191216,-0.007059073,-0.005116297,-0.061280668,-0.5345943,-0.3112715
10044000,10044000,0.0035299822,-0.0064272825,-0.004014343,0.30619875,-0.30293128,-0.11499376
10060000,10060000,-0.00024189643,0.010640001,-0.0027534482,0.14592978,0.5067042,0.26285934
10068000,10068000,0.0116176335,0.0041727307,0.0028644071,0.96557057,-0.1639494,0.44876862
10080000,10080000,0.004526986,-0.0071639,-0.0050311605,-0.3904212,-1.0342735,-0.10002206
10088000,10088000,0.0036691013,-0.009335678,-0.002163195,-0.2133813,-0.43017048,0.12604442
10100000,10100000,0.012498003,0.0027970076,-0.0013486824,0.4827618,0.31996366,0.043969978
10108000,10108000,0.0004169619,-0.008333338,-0.0006537421,-0.6905907,-0.63467276,0.15787813
10120000,10120000,0.0056292876,-0.0038131946,0.003984235,0.3220228,0.07513266,0.27306023
10128000,10128000,0.011212784,-0.0032015636,0.019017795,0.41656625,0.045061674,1.1444896
10140000,10140000,0.004065918,-0.0023250661,-0.0048172656,-0.1290916,0.26202497,-1.2657032
10148000,10148000,0.0036613476,0.014135027,-0.0073199295,-0.1126365,1.2727394,-0.7238896
10160000,10160000,-0.014367483,0.0103472825,-0.0010204513,-0.968962,-0.098340936,0.48295802
10168000,10168000,-0.0075846897,0.0055304496,0.0111676585,-0.039785273,-0.32507545,0.9554279
10180000,10180000,0.0039752964,-0.0027279288,0.00012207162,0.96370643,-0.6133988,-0.09036214
10188000,10188000,-0.010839996,-0.00080094475,0.014528384,-0.66969466,-0.08257024,0.9088435
10200000,10200000,-0.011520063,0.020050319,-0.0035466275,-0.29562908,0.87987614,-0.9627271
10208000,10208000,-0.010940655,0.0078108557,-0.017432565,-0.10947186,-0.46409848,-1.3366934
10220000,10220000,0.0025661795,0.0046305736,-0.004214958,0.91660905,-0.1658386,0.31227717
10228000,10228000,-0.0020946143,0.009384348,0.000673893,0.08569914,0.26239425,0.48333025
10240000,10240000,0.0031302164,0.0019440363,0.00021263804,0.3653516,-0.43037513,0.048445784
10244000,10244000,0.0017687038,0.004681949,-0.0016414567,0.12927713,-0.05744427,-0.12281372
10260000,10260000,0.0060643256,-0.0022569513,0.008936099,0.73017883,-0.7490786,0.22189616
10268000,10268000,0.0011053099,0.00073603354,-0.01661405,-0.04896933,-0.08355087,-1.6940913
10280000,10280000,-0.0029642186,-0.005421786,-0.009262833,-0.09252432,-0.55904126,-0.055546116
10288000,10288000,0.010393313,-0.01479052,-0.0017119539,0.87052,-0.7444581,0.44468656
10300000,10300000,-0.0045423526,-0.004068637,-0.0081748925,-0.9278201,-0.004003765,0.09444821
10308000,10308000,-0.006514199,-0.008408424,0.0011766948,-0.38803262,-0.23017557,0.6506235
10320000,10320000,0.00019584637,-0.0014182491,-0.000976662,-0.1304959,0.1803101,0.023581821
10328000,10328000,-0.006149331,-0.0047647865,0.0046184016,-0.4557754,-0.06140562,0.41633093
10340000,10340000,-0.002139051,0.010165494,-0.0052948957,0.30767697,0.7296917,-0.39383173
10348000,10348000,0.0070966957,-0.0032568865,-0.003824122,0.712916,-0.6762741,-0.17245026
10360000,10360000,-0.0053258454,-0.0017170608,0.0036812236,-0.63980496,-0.0017543007,0.95877224
10368000,10368000,-0.0061873053,-0.009194917,0.015411685,-0.3110906,-0.57266444,1.0459304
10380000,10380000,0.0036767297,0.0075234273,0.00025031593,0.6604037,0.9620268,-0.5080764
10388000,10388000,0.012823668,0.0021787314,-0.00020692674,0.8793593,-0.015691694,-0.16722658
10400000,10400000,-0.010749413,-0.0037974212,0.0044544805,-1.2487185,-0.3090195,0.07028075
10408000,10408000,0.0020810082,0.0071007195,-0.00042618893,0.5250265,0.6609113,-0.3017426
10420000,10420000,0.014454748,-0.0010830341,-0.012565745,0.57031024,-0.3925537,-0.9437842
10428000,10428000,0.0057650986,0.021573061,0.0038026606,-0.32466882,1.4836565,0.8754662
10440000,10440000,0.0027975312,-0.007969254,-0.014278061,-0.16897053,-1.6591477,-1.1639082
10448000,10448000,0.005587615,-0.013876935,-0.011663537,0.1292397,-1.0765824,-0.16641493
10460000,10460000,0.022444155,-0.0069440855,0.009647205,0.87194145,0.075641654,1.3018146
10468000,10468000,-0.0038455722,-0.003201563,0.0247964,-1.4926767,0.30392516,1.5362296
10480000,10480000,-0.0062998715,-0.006467401,-0.0006594007,-0.30258912,-0.41230193,-1.0471699
10488000,10488000,-1.9718893e-05,-0.024751797,-0.0031854217,0.30781972,-1.3444518,-0.56997883
10500000,10500000,0.004118824,0.016722383,-0.006297497,-0.051843405,1.9659731,-0.5962592
10508000,10508000,-0.0030666662,-0.0025654896,0.0011322296,-0.38544026,-0.5660845,0.3000511
10520000,10520000,0.0027764642,-0.0048736227,0.002486264,0.14607468,-0.3356126,0.09511753
10528000,10528000,0.008265164,-0.003398329,0.00026022075,0.35663795,-0.010561495,-0.069653645
10540000,10540000,-0.008629065,-0.005664369,0.0019449552,-0.7332627,-0.3168425,-0.037773643
10548000,10548000,-0.009349141,-0.016444681,-0.0055064526,-0.36529636,-0.77458596,-0.5926876
10560000,10560000,-0.00025665108,0.0026864458,-0.008725411,0.62443304,0.7098742,-0.120716974
10568000,10568000,0.015817871,-0.00068881025,0.000583695,1.2860197,0.033555824,0.55150646
10580000,10580000,-0.0060993307,-0.010255977,-0.00426683,-0.72839004,-0.5488259,-0.09035819
10588000,10588000,-0.0055082208,0.0017164345,-0.004789408,-0.35654548,0.6012125,-0.17485467
10600000,10600000,-0.0057068,-0.0061206697,7.069213e-05,-0.18682262,-0.17898946,0.73884654
10608000,10608000,-0.0019291234,-0.0028936958,-0.00448909,0.31721184,0.07858783,-0.17240286
