timestamp,roll,pitch,yaw,thrust_body[0],thrust_body[1],thrust_body[2],reset_integral
5088000,-0.005772497,0.006617197,-0.0001360849,0.0,0.0,-0.001,0
5092000,-0.005626689,0.0069989306,-0.00016163365,0.0,0.0,-0.001,0
5108000,-0.0051395013,0.008098693,-0.0004989773,0.0,0.0,-0.001,0
5124000,-0.004659613,0.009029194,-0.00012037983,0.0,0.0,-0.001,0
5148000,-0.0041040624,0.010243796,-0.00045458195,0.0,0.0,-0.001,0
5168000,-0.004157877,0.011960399,0.00011894875,0.0,0.0,-0.001,0
5188000,-0.0032454596,0.012657891,-4.611397e-05,0.0,0.0,-0.001,0
5208000,-0.0028226431,0.012732965,0.00029606782,0.0,0.0,-0.001,0
5228000,-0.002583033,0.012639924,-0.00011658165,0.0,0.0,-0.001,0
5248000,-0.00215437,0.0129141165,-0.00010838878,0.0,0.0,-0.001,0
5268000,-0.0019891306,0.012262439,-0.00019204797,0.0,0.0,-0.001,0
5288000,-0.0020779467,0.011444742,0.00026578567,0.0,0.0,-0.001,0
5304000,-0.002323327,0.011662778,0.00011842151,0.0,0.0,-0.001,0
5328000,-0.0037588296,0.011276362,-2.7144153e-05,0.0,0.0,-0.001,0
5348000,-0.0044610887,0.011552045,0.00022009952,0.0,0.0,-0.001,0
5368000,-0.005107652,0.010678508,4.7802867e-05,0.0,0.0,-0.001,0
5388000,-0.0056676,0.010463819,-8.2132465e-07,0.0,0.0,-0.001,0
5408000,-0.006305333,0.010086005,2.369679e-05,0.0,0.0,-0.001,0
5428000,-0.0062324903,0.0098976195,4.159317e-05,0.0,0.0,-0.001,0
5448000,-0.0070490222,0.00983513,5.070954e-05,0.0,0.0,-0.001,0
5464000,-0.0069292355,0.009338071,0.00010179475,0.0,0.0,-0.001,0
5484000,-0.0068051666,0.008298953,0.00019327848,0.0,0.0,-0.001,0
5508000,-0.006995764,0.007930756,0.00028496858,0.0,0.0,-0.001,0
5528000,-0.007131455,0.006869588,0.0002764027,0.0,0.0,-0.001,0
5544000,-0.0069878516,0.006690201,-0.00011134159,0.0,0.0,-0.001,0
5568000,-0.0076454286,0.005733918,-5.4205186e-05,0.0,0.0,-0.001,0
5588000,-0.007633231,0.005198109,0.00019861979,0.0,0.0,-0.001,0
5608000,-0.0077671125,0.005206587,8.88583e-05,0.0,0.0,-0.001,0
5628000,-0.0075085433,0.0053609605,0.00019389496,0.0,0.0,-0.001,0
5648000,-0.007358301,0.0048161726,0.00011800998,0.0,0.0,-0.001,0
5668000,-0.007041375,0.004460982,0.00018687046,0.0,0.0,-0.001,0
5688000,-0.00640706,0.0045296284,-2.169446e-05,0.0,0.0,-0.001,0
5708000,-0.0063172863,0.0050294506,-0.00021908944,0.0,0.0,-0.001,0
5728000,-0.0059797247,0.0053305514,5.5224635e-05,0.0,0.0,-0.001,0
5748000,-0.0059646983,0.005842012,0.00010472862,0.0,0.0,-0.001,0
5768000,-0.0053558107,0.0062718512,-0.0002741348,0.0,0.0,-0.001,0
5788000,-0.0050962246,0.0060804295,-0.00034912338,0.0,0.0,-0.001,0
5808000,-0.0055628666,0.0068231802,0.00026413263,0.0,0.0,-0.001,0
5828000,-0.0052061924,0.006900517,-4.0553045e-05,0.0,0.0,-0.001,0
5848000,-0.0055461177,0.007025632,-0.00011161785,0.0,0.0,-0.001,0
5868000,-0.0056121293,0.006633593,-0.0004994273,0.0,0.0,-0.001,0
5888000,-0.0048019527,0.0076642977,-0.0001013875,0.0,0.0,-0.001,0
5908000,-0.005294931,0.007986742,0.00014185905,0.0,0.0,-0.001,0
5924000,-0.0050026253,0.008329133,-0.0002528429,0.0,0.0,-0.001,0
5944000,-0.0052868137,0.008493337,0.00011599064,0.0,0.0,-0.001,0
5964000,-0.0054066237,0.008641021,0.0001193285,0.0,0.0,-0.001,0
5988000,-0.0045500486,0.008797072,1.9192696e-05,0.0,0.0,-0.001,0
6008000,-0.00416335,0.008968191,0.00017523766,0.0,0.0,-0.001,0
6028000,-0.003999646,0.0085187955,0.00027662516,0.0,0.0,-0.001,0
6048000,-0.0039218506,0.008117605,0.00014019012,0.0,0.0,-0.001,0
6068000,-0.004380575,0.0079514235,-3.0875206e-05,0.0,0.0,-0.001,0
6084000,-0.0048694666,0.007892594,0.00017774105,0.0,0.0,-0.001,0
6108000,-0.0046879756,0.0074676448,5.3822994e-05,0.0,0.0,-0.001,0
6124000,-0.0043725874,0.0076533984,-1.9609928e-05,0.0,0.0,-0.001,0
6148000,-0.003900568,0.007523947,0.00032794476,0.0,0.0,-0.001,0
6168000,-0.0034030974,0.007140048,0.00012642145,0.0,0.0,-0.001,0
6188000,-0.0031221802,0.0069600823,0.00021862984,0.0,0.0,-0.001,0
6208000,-0.0024647736,0.0061925063,0.00011473894,0.0,0.0,-0.001,0
6228000,-0.0024536857,0.0050473604,0.00013685226,0.0,0.0,-0.001,0
6248000,-0.0017928217,0.005349144,3.963709e-05,0.0,0.0,-0.001,0
6268000,-0.0017643488,0.0053991564,0.00019943714,0.0,0.0,-0.001,0
6288000,-0.001740108,0.005027923,-3.5881996e-05,0.0,0.0,-0.001,0
6308000,-0.0015210684,0.005192551,-0.0004030466,0.0,0.0,-0.001,0
6328000,-0.00091134943,0.0049074073,5.799532e-05,0.0,0.0,-0.001,0
6348000,-0.0006927389,0.0047343997,-4.673004e-05,0.0,0.0,-0.001,0
6368000,-0.0015047558,0.0057268515,-8.428097e-05,0.0,0.0,-0.001,0
6388000,-0.0017396174,0.0064556384,0.000100553036,0.0,0.0,-0.001,0
6408000,-0.0019542112,0.0064874077,-5.9247017e-05,0.0,0.0,-0.001,0
6424000,-0.0020188794,0.0056406083,6.0081482e-05,0.0,0.0,-0.001,0
6448000,-0.0020176303,0.005438883,-0.00012516975,0.0,0.0,-0.001,0
6468000,-0.001751511,0.0053177252,-0.00016146898,0.0,0.0,-0.001,0
6488000,-0.0003715481,0.005361282,-9.804964e-05,0.0,0.0,-0.001,0
6504000,-0.00013667787,0.0052174823,-0.00012266636,0.0,0.0,-0.001,0
6528000,-0.00018336182,0.005171395,-0.000102221966,0.0,0.0,-0.001,0
6548000,-0.0002461532,0.0053178705,-0.00018441677,0.0,0.0,-0.001,0
6568000,-0.00026671356,0.005230804,-0.00026077032,0.0,0.0,-0.001,0
6584000,-0.0004595297,0.0050109755,-7.0929527e-06,0.0,0.0,-0.001,0
6608000,0.00010233163,0.0053371293,0.000105559826,0.0,0.0,-0.001,0
6628000,-0.00036412315,0.0053763106,1.3768673e-05,0.0,0.0,-0.001,0
6644000,-0.00022625853,0.005188807,-0.00016063452,0.0,0.0,-0.001,0
6668000,0.00027468358,0.0047794078,0.00013810396,0.0,0.0,-0.001,0
6688000,5.656667e-05,0.0047762543,-8.094311e-05,0.0,0.0,-0.001,0
6704000,7.667532e-05,0.00445487,3.129244e-05,0.0,0.0,-0.001,0
6728000,-0.000569277,0.0051614824,-7.760525e-05,0.0,0.0,-0.001,0
6748000,-0.0006677336,0.0053855395,4.5895576e-05,0.0,0.0,-0.001,0
6764000,-0.0012934905,0.0051954524,-0.00011098385,0.0,0.0,-0.001,0
6788000,-0.0017865144,0.006274931,-1.2516975e-05,0.0,0.0,-0.001,0
6808000,-0.0025209538,0.006218735,2.7120113e-05,0.0,0.0,-0.001,0
6828000,-0.0023855497,0.0065096137,-0.00021654367,0.0,0.0,-0.001,0
6844000,-0.002322442,0.007268694,-2.2530556e-05,0.0,0.0,-0.001,0
6868000,-0.0023660639,0.0073672007,-1.66893e-05,0.0,0.0,-0.001,0
6884000,-0.0024781846,0.006867497,8.34465e-05,0.0,0.0,-0.001,0
6904000,-0.0026333355,0.006510931,5.465746e-05,0.0,0.0,-0.001,0
6924000,-0.0026386273,0.007171267,-3.33786e-05,0.0,0.0,-0.001,0
6948000,-0.002986142,0.0071775615,0.000121831894,0.0,0.0,-0.001,0
6968000,-0.0030450493,0.0067364112,0.000118911266,0.0,0.0,-0.001,0
6988000,-0.0027610925,0.005855797,-0.00034672022,0.0,0.0,-0.001,0
7008000,-0.0028882297,0.0054452997,8.636713e-05,0.0,0.0,-0.001,0
7028000,-0.0029055509,0.0053158444,0.00020819902,0.0,0.0,-0.001,0
7044000,-0.0034997251,0.005444446,0.00013017654,0.0,0.0,-0.001,0
7068000,-0.0034281728,0.0048456294,-3.5464764e-05,0.0,0.0,-0.001,0
7088000,-0.004802059,0.004519165,0.00014144182,0.0,0.0,-0.001,0
7108000,-0.0053116414,0.004147451,5.799532e-05,0.0,0.0,-0.001,0
7128000,-0.0052261534,0.0035369052,0.00016105175,0.0,0.0,-0.001,0
7148000,-0.005808554,0.0038855965,-0.00029289722,0.0,0.0,-0.001,0
7168000,-0.005669237,0.0038118758,7.7188015e-05,0.0,0.0,-0.001,0
7188000,-0.00659972,0.0038857125,0.0001873374,0.0,0.0,-0.001,0
7208000,-0.0064601637,0.0035510536,5.841255e-06,0.0,0.0,-0.001,0
7228000,-0.006312253,0.003617925,7.301569e-05,0.0,0.0,-0.001,0
7248000,-0.006956334,0.0033509731,5.00679e-05,0.0,0.0,-0.001,0
7268000,-0.007647359,0.0029565778,0.00024241209,0.0,0.0,-0.001,0
7288000,-0.0073826867,0.0024334586,-0.00014394522,0.0,0.0,-0.001,0
7308000,-0.0076274695,0.0019600797,-2.002716e-05,0.0,0.0,-0.001,0
7328000,-0.007905735,0.0018466793,0.0002490878,0.0,0.0,-0.001,0
7348000,-0.007701043,0.0015569923,3.963709e-05,0.0,0.0,-0.001,0
7368000,-0.008164419,0.0012974839,3.4213066e-05,0.0,0.0,-0.001,0
7388000,-0.00794642,0.00060531707,-0.00014853477,0.0,0.0,-0.001,0
7404000,-0.008560607,0.00049340725,-0.00015687943,0.0,0.0,-0.001,0
7428000,-0.007315874,0.0005994262,-0.00011265278,0.0,0.0,-0.001,0
7448000,-0.007245714,0.0016963435,3.7550926e-05,0.0,0.0,-0.001,0
7468000,-0.007053717,0.0014917094,-0.00017774105,0.0,0.0,-0.001,0
7488000,-0.0068166438,0.0015953416,4.5895576e-06,0.0,0.0,-0.001,0
7508000,-0.0065879393,0.0008454614,0.00027370453,0.0,0.0,-0.001,0
7528000,-0.006558868,0.0006876814,5.00679e-05,0.0,0.0,-0.001,0
7544000,-0.007026584,0.0010836439,-4.4226646e-05,0.0,0.0,-0.001,0
7568000,-0.0067306827,0.0006274765,0.000116825104,0.0,0.0,-0.001,0
7588000,-0.0060046716,0.0004947302,0.00020569563,0.0,0.0,-0.001,0
7608000,-0.0048251487,0.00049590925,4.339218e-05,0.0,0.0,-0.001,0
7628000,-0.005108973,0.00021198741,0.00036466122,0.0,0.0,-0.001,0
7648000,-0.0051008267,-0.00088071055,9.3877316e-05,0.0,0.0,-0.001,0
7664000,-0.0055870507,-0.00070517557,0.00019943714,0.0,0.0,-0.001,0
7684000,-0.0054242285,-0.00014902884,-5.5909157e-05,0.0,0.0,-0.001,0
7708000,-0.0046537314,-0.0013768537,-0.00020569563,0.0,0.0,-0.001,0
7724000,-0.0048065567,-0.0014606124,0.00040596724,0.0,0.0,-0.001,0
7748000,-0.0039801174,-0.0017712021,4.839897e-05,0.0,0.0,-0.001,0
7768000,-0.0047550285,-0.0015708781,7.677078e-05,0.0,0.0,-0.001,0
7788000,-0.0057772966,-0.001145032,6.300211e-05,0.0,0.0,-0.001,0
7808000,-0.0064120265,-0.0012746118,9.638071e-05,0.0,0.0,-0.001,0
7828000,-0.0068972846,-0.0021468468,-0.000115156174,0.0,0.0,-0.001,0
7844000,-0.0074447743,-0.0026771843,2.336502e-05,0.0,0.0,-0.001,0
7868000,-0.0071920753,-0.0018028356,-8.5532665e-05,0.0,0.0,-0.001,0
7884000,-0.00671749,-0.0018022431,0.00010806322,0.0,0.0,-0.001,0
7908000,-0.0060393065,-0.0007507866,0.00015896559,0.0,0.0,-0.001,0
7928000,-0.00605421,-0.0007730266,-3.4213066e-05,0.0,0.0,-0.001,0
7948000,-0.005585038,0.00018622633,-0.000202775,0.0,0.0,-0.001,0
7968000,-0.005821536,0.00026274682,-4.506111e-05,0.0,0.0,-0.001,0
7988000,-0.006188222,0.0012970394,0.00013309717,0.0,0.0,-0.001,0
8008000,-0.0057854354,0.0013979084,7.092953e-05,0.0,0.0,-0.001,0
8028000,-0.0046040686,0.0016643328,6.80089e-05,0.0,0.0,-0.001,0
8048000,-0.0041055074,0.0011238818,0.00016146898,0.0,0.0,-0.001,0
8064000,-0.0042129117,0.0008017513,8.3863735e-05,0.0,0.0,-0.001,0
8088000,-0.004372953,0.0006572531,-9.7215176e-05,0.0,0.0,-0.001,0
8108000,-0.0043825055,0.00086566387,0.000477314,0.0,0.0,-0.001,0
8128000,-0.0043730503,0.0008067825,-2.4616718e-05,0.0,0.0,-0.001,0
8148000,-0.003507434,0.0010150474,-0.00014227629,0.0,0.0,-0.001,0
8164000,-0.0035173958,0.0007895859,7.176399e-05,0.0,0.0,-0.001,0
8184000,-0.0036869945,-2.4919864e-06,-0.00010347366,0.0,0.0,-0.001,0
8204000,-0.003346978,-0.0005644484,-5.8412552e-05,0.0,0.0,-0.001,0
8228000,-0.002802411,-0.00021715392,-0.0005624294,0.0,0.0,-0.001,0
8244000,-0.0026174835,8.7199965e-05,0.00012809038,0.0,0.0,-0.001,0
8268000,-0.0026293688,-0.00057789765,7.593632e-05,0.0,0.0,-0.001,0
8284000,-0.0027832366,-0.00063927553,0.00011307001,0.0,0.0,-0.001,0
8308000,-0.0025799833,-0.0002033877,0.00019818544,0.0,0.0,-0.001,0
8328000,-0.0034576776,-0.0008634684,0.00010639429,0.0,0.0,-0.001,0
8348000,-0.0036281024,-0.0014764278,-0.00033837557,0.0,0.0,-0.001,0
8368000,-0.0042411266,-0.0015433043,7.0512295e-05,0.0,0.0,-0.001,0
8388000,-0.0047478816,-0.0013250749,-0.00035715103,0.0,0.0,-0.001,0
8404000,-0.0042344974,-0.0016270682,-0.0001360178,0.0,0.0,-0.001,0
8428000,-0.0042399126,-0.0017416427,6.0498714e-05,0.0,0.0,-0.001,0
8444000,-0.0044989805,-0.0013350359,0.00034463406,0.0,0.0,-0.001,0
8468000,-0.004847744,-0.0011995428,9.095669e-05,0.0,0.0,-0.001,0
8488000,-0.0046635075,-0.0012967988,-9.137392e-05,0.0,0.0,-0.001,0
8504000,-0.0042405175,-0.0014751418,1.41859055e-05,0.0,0.0,-0.001,0
8528000,-0.00415905,-0.0014185613,6.759167e-05,0.0,0.0,-0.001,0
8548000,-0.0039585736,-0.0018664188,6.133318e-05,0.0,0.0,-0.001,0
8564000,-0.0039732633,-0.0019926073,0.00023114681,0.0,0.0,-0.001,0
8588000,-0.0041191136,-0.0023239325,-7.3850155e-05,0.0,0.0,-0.001,0
8608000,-0.0040198034,-0.0027129152,0.00010305643,0.0,0.0,-0.001,0
8628000,-0.0042739636,-0.0028973792,0.0001873374,0.0,0.0,-0.001,0
8648000,-0.0042912047,-0.0035819013,-3.296137e-05,0.0,0.0,-0.001,0
8668000,-0.0039220084,-0.0036036852,0.0002490878,0.0,0.0,-0.001,0
8688000,-0.00453852,-0.0032523875,2.0444393e-05,0.0,0.0,-0.001,0
8708000,-0.004620982,-0.0032486902,-0.00025743246,0.0,0.0,-0.001,0
8728000,-0.0042695464,-0.0040739737,-1.9192696e-05,0.0,0.0,-0.001,0
8748000,-0.0042436677,-0.004448152,-0.00031000376,0.0,0.0,-0.001,0
8768000,-0.0036619317,-0.004768513,0.00020194054,0.0,0.0,-0.001,0
8788000,-0.0038888808,-0.004998764,0.00012892485,0.0,0.0,-0.001,0
8804000,-0.0038295167,-0.0050547305,-7.0512295e-05,0.0,0.0,-0.001,0
8828000,-0.0034332583,-0.0049343198,-6.592274e-05,0.0,0.0,-0.001,0
8844000,-0.0038287449,-0.0056529115,-0.00016230345,0.0,0.0,-0.001,0
8868000,-0.005342479,-0.0063149156,0.00012266636,0.0,0.0,-0.001,0
8888000,-0.0056758146,-0.0063744965,8.803606e-05,0.0,0.0,-0.001,0
8908000,-0.0062396587,-0.0063048666,8.136034e-05,0.0,0.0,-0.001,0
8924000,-0.0069109662,-0.0062813,0.00019317865,0.0,0.0,-0.001,0
8944000,-0.0069130505,-0.005777193,7.635355e-05,0.0,0.0,-0.001,0
8968000,-0.0066372394,-0.0063621555,-0.00012934208,0.0,0.0,-0.001,0
8988000,-0.006933829,-0.006658803,-2.0861626e-05,0.0,0.0,-0.001,0
9004000,-0.007123109,-0.0068468926,-9.596348e-06,0.0,0.0,-0.001,0
9028000,-0.0071450127,-0.007176585,-6.0498714e-05,0.0,0.0,-0.001,0
9048000,-0.007067165,-0.0073199496,-9.8884106e-05,0.0,0.0,-0.001,0
9068000,-0.0072253863,-0.007303826,-0.000121831894,0.0,0.0,-0.001,0
9088000,-0.0077361525,-0.007518924,-3.2126904e-05,0.0,0.0,-0.001,0
9104000,-0.007983832,-0.007508408,9.846687e-05,0.0,0.0,-0.001,0
9124000,-0.008573755,-0.0074002002,1.1265278e-05,0.0,0.0,-0.001,0
9148000,-0.008835053,-0.0071677174,-9.596348e-06,0.0,0.0,-0.001,0
9168000,-0.008283133,-0.006397465,4.464388e-05,0.0,0.0,-0.001,0
9188000,-0.008499842,-0.0056131063,0.00011640787,0.0,0.0,-0.001,0
9208000,-0.008404661,-0.005439069,-0.00015562773,0.0,0.0,-0.001,0
9228000,-0.008127829,-0.0056467806,0.00015938282,0.0,0.0,-0.001,0
9248000,-0.007871022,-0.0060088467,-0.00013393164,0.0,0.0,-0.001,0
9268000,-0.0076309685,-0.0056869914,-0.00014519691,0.0,0.0,-0.001,0
9288000,-0.0075471834,-0.00580079,-1.6272068e-05,0.0,0.0,-0.001,0
9308000,-0.0073932745,-0.0060382388,-0.00023114681,0.0,0.0,-0.001,0
9324000,-0.0067617004,-0.0064518987,-2.1278858e-05,0.0,0.0,-0.001,0
9344000,-0.007187437,-0.005546475,2.8371811e-05,0.0,0.0,-0.001,0
9368000,-0.0066851666,-0.0059156944,2.2947788e-05,0.0,0.0,-0.001,0
9388000,-0.006929304,-0.0065065003,4.5895576e-05,0.0,0.0,-0.001,0
9408000,-0.0064975354,-0.0062912423,8.2194805e-05,0.0,0.0,-0.001,0
9428000,-0.0074818195,-0.006175956,-3.963709e-05,0.0,0.0,-0.001,0
9448000,-0.006497,-0.005957035,5.7578087e-05,0.0,0.0,-0.001,0
9468000,-0.0062567196,-0.0058806334,5.5491924e-05,0.0,0.0,-0.001,0
9488000,-0.0063742236,-0.006247973,-7.843971e-05,0.0,0.0,-0.001,0
9508000,-0.0069983136,-0.0059087733,-0.00013309717,0.0,0.0,-0.001,0
9528000,-0.0065280357,-0.006495391,6.341934e-05,0.0,0.0,-0.001,0
9548000,-0.0057359585,-0.0072216783,3.33786e-05,0.0,0.0,-0.001,0
9568000,-0.005888633,-0.0070683397,7.593632e-05,0.0,0.0,-0.001,0
9584000,-0.0057553677,-0.007565771,3.0457973e-05,0.0,0.0,-0.001,0
9604000,-0.0057721063,-0.0073346742,1.7940998e-05,0.0,0.0,-0.001,0
9624000,-0.005344823,-0.007937455,4.5478344e-05,0.0,0.0,-0.001,0
9644000,-0.0050254865,-0.008748391,0.00023531914,0.0,0.0,-0.001,0
9664000,-0.0047208397,-0.008440209,-0.00014436245,0.0,0.0,-0.001,0
9688000,-0.0040840274,-0.0073772175,-5.8412552e-05,0.0,0.0,-0.001,0
9704000,-0.0042349817,-0.006514771,-6.633997e-05,0.0,0.0,-0.001,0
9724000,-0.0042824,-0.0066372827,-0.000118494034,0.0,0.0,-0.001,0
9748000,-0.0039568963,-0.0071084895,0.000500679,0.0,0.0,-0.001,0
9764000,-0.004313128,-0.0065525887,-0.0003258586,0.0,0.0,-0.001,0
9788000,-0.004812017,-0.0065562422,-5.00679e-06,0.0,0.0,-0.001,0
9808000,-0.005436496,-0.0057979235,-0.00016772747,0.0,0.0,-0.001,0
9828000,-0.0057486296,-0.005639309,-0.0001335144,0.0,0.0,-0.001,0
9848000,-0.0052857967,-0.005957247,2.2530556e-05,0.0,0.0,-0.001,0
9868000,-0.0051527927,-0.0055913525,0.00011014938,0.0,0.0,-0.001,0
9888000,-0.0050584646,-0.0048754807,-0.00013267994,0.0,0.0,-0.001,0
9908000,-0.004554628,-0.004067418,-1.0430813e-05,0.0,0.0,-0.001,0
9928000,-0.0044427947,-0.004669081,-0.00014811754,0.0,0.0,-0.001,0
9948000,-0.0047711055,-0.005558585,-0.00018399954,0.0,0.0,-0.001,0
9968000,-0.0046706568,-0.0060679563,-6.7174435e-05,0.0,0.0,-0.001,0
9988000,-0.004836681,-0.0056829317,-2.7954578e-05,0.0,0.0,-0.001,0
10008000,-0.005069729,-0.005664472,-1.7940998e-05,0.0,0.0,-0.001,0
10024000,-0.0055302395,-0.005923415,1.8775463e-05,0.0,0.0,-0.001,0
10048000,-0.005442495,-0.005634757,6.508827e-05,0.0,0.0,-0.001,0
10068000,-0.0056835725,-0.006231989,-0.00010305643,0.0,0.0,-0.001,0
10088000,-0.0061967056,-0.0058988193,1.3768673e-05,0.0,0.0,-0.001,0
10108000,-0.0066809794,-0.005789813,-1.001358e-05,0.0,0.0,-0.001,0
10128000,-0.0071699126,-0.005515616,-0.00024366379,0.0,0.0,-0.001,0
10148000,-0.0074345986,-0.005748568,0.00011765957,0.0,0.0,-0.001,0
10164000,-0.0068030944,-0.006479736,-0.00019317865,0.0,0.0,-0.001,0
10188000,-0.0061173993,-0.006588506,-0.00031751394,0.0,0.0,-0.001,0
10208000,-0.00529358,-0.0077931858,0.00019693375,0.0,0.0,-0.001,0
10228000,-0.005043911,-0.008325459,-7.0929527e-06,0.0,0.0,-0.001,0
10244000,-0.005113277,-0.008679991,3.8802624e-05,0.0,0.0,-0.001,0
10268000,-0.004997962,-0.009055313,0.00036215782,0.0,0.0,-0.001,0
10284000,-0.0049450956,-0.008625294,0.000120162964,0.0,0.0,-0.001,0
10308000,-0.004951563,-0.008180844,-5.4240227e-06,0.0,0.0,-0.001,0
10328000,-0.004890315,-0.0079868715,-6.508827e-05,0.0,0.0,-0.001,0
10344000,-0.004707983,-0.008451928,-2.336502e-05,0.0,0.0,-0.001,0
10368000,-0.004431798,-0.007974899,-9.5546246e-05,0.0,0.0,-0.001,0
10388000,-0.004708132,-0.00819733,1.5854836e-05,0.0,0.0,-0.001,0
10404000,-0.0042832764,-0.008161852,-2.8371811e-05,0.0,0.0,-0.001,0
10428000,-0.005215034,-0.009103417,-7.593632e-05,0.0,0.0,-0.001,0
10448000,-0.0054356763,-0.008786479,5.507469e-05,0.0,0.0,-0.001,0
10468000,-0.006207443,-0.008292844,-0.00052696466,0.0,0.0,-0.001,0
10488000,-0.005730388,-0.007377381,1.0430813e-05,0.0,0.0,-0.001,0
10508000,-0.0058695804,-0.007717285,-5.9247017e-05,0.0,0.0,-0.001,0
10528000,-0.0061898404,-0.007483556,-2.503395e-05,0.0,0.0,-0.001,0
10548000,-0.005508132,-0.006722342,6.175041e-05,0.0,0.0,-0.001,0
10568000,-0.005759967,-0.0066901143,-2.002716e-05,0.0,0.0,-0.001,0
10588000,-0.005386898,-0.0063106706,4.0471554e-05,0.0,0.0,-0.001,0
10608000,-0.0050278325,-0.0058571785,0.00012099743,0.0,0.0,-0.001,0
10624000,-0.0050125318,-0.0054786173,4.9233437e-05,0.0,0.0,-0.001,0
10644000,-0.0049372185,-0.0052968324,3.129244e-05,0.0,0.0,-0.001,0
10668000,-0.0047387322,-0.0052608103,0.00013059378,0.0,0.0,-0.001,0
10688000,-0.0038998711,-0.0043210024,-7.3850155e-05,0.0,0.0,-0.001,0
10708000,-0.0033728299,-0.004397582,-4.7564507e-05,0.0,0.0,-0.001,0
10724000,-0.003487851,-0.004843204,-5.340576e-05,0.0,0.0,-0.001,0
10748000,-0.0032731,-0.004999016,7.843971e-05,0.0,0.0,-0.001,0
10768000,-0.0029662699,-0.005050147,-6.508827e-05,0.0,0.0,-0.001,0
10788000,-0.0025757437,-0.005165963,0.00013184547,0.0,0.0,-0.001,0
10808000,-0.0036735665,-0.005270217,-6.0081482e-05,0.0,0.0,-0.001,0
10828000,-0.0028590322,-0.0064659216,0.00032293797,0.0,0.0,-0.001,0
10848000,-0.0029352552,-0.007006529,2.0444393e-05,0.0,0.0,-0.001,0
10868000,-0.002241229,-0.007520443,-6.258488e-05,0.0,0.0,-0.001,0
10884000,-0.0025766853,-0.007138164,-3.129244e-05,0.0,0.0,-0.001,0
10908000,-0.0013318965,-0.0068547186,-0.000102221966,0.0,0.0,-0.001,0
10928000,-0.0008263653,-0.0067236302,8.511543e-05,0.0,0.0,-0.001,0
10948000,-0.000979742,-0.006886046,-0.00015562773,0.0,0.0,-0.001,0
10968000,-0.0008893886,-0.0077219885,-9.3877316e-05,0.0,0.0,-0.001,0
10988000,-0.0012620278,-0.007166529,1.5437603e-05,0.0,0.0,-0.001,0
11008000,-0.0020316415,-0.006996259,-0.000110566616,0.0,0.0,-0.001,0
11024000,-0.0018304428,-0.007727269,-5.00679e-05,0.0,0.0,-0.001,0
11044000,-0.0010993907,-0.0070140883,4.9233437e-05,0.0,0.0,-0.001,0
11068000,-0.00074536377,-0.0071457326,-0.00011640787,0.0,0.0,-0.001,0
11084000,-0.00084616337,-0.007069476,1.5437603e-05,0.0,0.0,-0.001,0
11104000,-0.0007947888,-0.006683436,3.8802624e-05,0.0,0.0,-0.001,0
11128000,-0.0012356252,-0.005831324,-0.00015312433,0.0,0.0,-0.001,0
11148000,-0.0018515321,-0.005437513,4.005432e-05,0.0,0.0,-0.001,0
11168000,-0.0017922876,-0.0047491286,0.0002849698,0.0,0.0,-0.001,0
11184000,-0.0020983564,-0.0050303056,-9.846687e-05,0.0,0.0,-0.001,0
11204000,-0.0011992869,-0.0046518855,-0.00012809038,0.0,0.0,-0.001,0
11228000,-0.0012031749,-0.0052214423,0.00014895201,0.0,0.0,-0.001,0
11244000,-0.002093053,-0.0057590413,0.00010806322,0.0,0.0,-0.001,0
11268000,-0.0027351184,-0.0061979983,-0.00010514259,0.0,0.0,-0.001,0
11288000,-0.003325259,-0.0062503098,-0.0002219677,0.0,0.0,-0.001,0
11308000,-0.0032302965,-0.007060926,-4.4226646e-05,0.0,0.0,-0.001,0
11328000,-0.002939697,-0.006996385,1.835823e-05,0.0,0.0,-0.001,0
11348000,-0.0031257356,-0.006677658,-1.0848045e-05,0.0,0.0,-0.001,0
11368000,-0.0035282867,-0.006513416,-0.00013101101,0.0,0.0,-0.001,0
11388000,-0.0038242708,-0.0060701035,-0.0001001358,0.0,0.0,-0.001,0
11408000,-0.0034813627,-0.0054928884,-4.130602e-05,0.0,0.0,-0.001,0
11428000,-0.003562613,-0.005471413,-0.00031417608,0.0,0.0,-0.001,0
11448000,-0.0030942762,-0.0054788655,-0.00018066168,0.0,0.0,-0.001,0
11468000,-0.0022585494,-0.0050850334,0.00015103817,0.0,0.0,-0.001,0
11488000,-0.0021004719,-0.004971505,4.839897e-05,0.0,0.0,-0.001,0
11508000,-0.0025012556,-0.0042873854,3.7133694e-05,0.0,0.0,-0.001,0
11524000,-0.0025343597,-0.00356737,-3.2544136e-05,0.0,0.0,-0.001,0
11548000,-0.0026909146,-0.00473445,0.00011014938,0.0,0.0,-0.001,0
11568000,-0.002397254,-0.0047805253,7.3850155e-05,0.0,0.0,-0.001,0
11584000,-0.0015169294,-0.004854028,1.0430813e-05,0.0,0.0,-0.001,0
11608000,-0.0005069738,-0.0044747787,-9.5546246e-05,0.0,0.0,-0.001,0
11628000,0.00018713193,-0.0039729285,-2.8371811e-05,0.0,0.0,-0.001,0
11648000,0.00041685905,-0.0037560617,-7.0929527e-06,0.0,0.0,-0.001,0
11668000,8.731999e-05,-0.0036974617,-6.80089e-05,0.0,0.0,-0.001,0
11688000,0.0005098805,-0.003722927,1.66893e-05,0.0,0.0,-0.001,0
11708000,0.00087565347,-0.0048348997,1.4603138e-05,0.0,0.0,-0.001,0
11724000,0.0014272335,-0.005447085,0.0002720356,0.0,0.0,-0.001,0
11748000,0.001478398,-0.00529587,0.00023823977,0.0,0.0,-0.001,0
11764000,0.0016768042,-0.0055590793,6.3836575e-05,0.0,0.0,-0.001,0
11788000,0.0020973505,-0.00596564,-8.761883e-05,0.0,0.0,-0.001,0
11808000,0.0022377146,-0.006870873,1.0848045e-05,0.0,0.0,-0.001,0
11828000,0.0018253536,-0.0070052557,-0.0003901124,0.0,0.0,-0.001,0
11848000,0.0022143524,-0.0075175753,3.7133694e-05,0.0,0.0,-0.001,0
11868000,0.0027413825,-0.007789816,-1.2516975e-05,0.0,0.0,-0.001,0
11888000,0.002366254,-0.0074127195,0.000121831894,0.0,0.0,-0.001,0
11908000,0.0025099,-0.0075237993,-0.00028038025,0.0,0.0,-0.001,0
11924000,0.0024512694,-0.0068577016,-3.671646e-05,0.0,0.0,-0.001,0
11944000,0.0028225407,-0.0067905528,-0.00015562773,0.0,0.0,-0.001,0
11964000,0.0028261635,-0.0060892175,-6.341934e-05,0.0,0.0,-0.001,0
11988000,0.0034751247,-0.005699899,-2.3782253e-05,0.0,0.0,-0.001,0
12008000,0.003682463,-0.005955154,-2.5868416e-05,0.0,0.0,-0.001,0
12024000,0.0038006734,-0.0060606846,-8.761883e-05,0.0,0.0,-0.001,0
12048000,0.003741231,-0.004728319,2.3782253e-05,0.0,0.0,-0.001,0
12068000,0.0042669848,-0.004420408,0.00012099743,0.0,0.0,-0.001,0
12088000,0.0041870517,-0.004749166,-0.00016105175,0.0,0.0,-0.001,0
12108000,0.0038292804,-0.0043312716,-0.00017273426,0.0,0.0,-0.001,0
12124000,0.0040473393,-0.0037536619,-0.00019401312,0.0,0.0,-0.001,0
12148000,0.003428557,-0.0044823745,-0.00014352798,0.0,0.0,-0.001,0
12168000,0.0034678495,-0.0041472237,4.297495e-05,0.0,0.0,-0.001,0
12188000,0.0033004573,-0.004153882,2.4199486e-05,0.0,0.0,-0.001,0
12208000,0.0038484838,-0.004454746,0.00014185905,0.0,0.0,-0.001,0
12228000,0.0045212265,-0.00475773,-0.000274539,0.0,0.0,-0.001,0
12248000,0.0049363165,-0.004587188,8.177757e-05,0.0,0.0,-0.001,0
12268000,0.0054053175,-0.0048670657,1.50203705e-05,0.0,0.0,-0.001,0
12284000,0.005817091,-0.0043579536,5.507469e-05,0.0,0.0,-0.001,0
12308000,0.0048353686,-0.0059503815,0.000115156174,0.0,0.0,-0.001,0
12324000,0.0052581797,-0.0066956934,2.3782253e-05,0.0,0.0,-0.001,0
12348000,0.005680444,-0.007261822,-0.0001860857,0.0,0.0,-0.001,0
12368000,0.0060596047,-0.006885926,-1.5854836e-05,0.0,0.0,-0.001,0
12388000,0.0056588408,-0.00729665,0.00013685226,0.0,0.0,-0.001,0
12408000,0.0054653455,-0.007983937,2.9206276e-06,0.0,0.0,-0.001,0
12428000,0.005564763,-0.008175851,2.002716e-05,0.0,0.0,-0.001,0
12448000,0.0057715597,-0.0077290186,-0.0001335144,0.0,0.0,-0.001,0
12468000,0.0053976905,-0.007868656,-7.259846e-05,0.0,0.0,-0.001,0
12488000,0.0046901577,-0.008066576,0.00018817186,0.0,0.0,-0.001,0
12508000,0.004623701,-0.007981759,-0.00011765957,0.0,0.0,-0.001,0
12528000,0.0048158,-0.009244967,8.094311e-05,0.0,0.0,-0.001,0
12548000,0.0044844984,-0.0093635805,0.00010305643,0.0,0.0,-0.001,0
12568000,0.004137532,-0.009141526,-0.00024867058,0.0,0.0,-0.001,0
12588000,0.0038874994,-0.009477979,-7.5519085e-05,0.0,0.0,-0.001,0
12608000,0.0037270323,-0.009064075,-0.00014770031,0.0,0.0,-0.001,0
12624000,0.0037442697,-0.008911974,-0.000118494034,0.0,0.0,-0.001,0
12644000,0.003823374,-0.009353235,-2.002716e-05,0.0,0.0,-0.001,0
12668000,0.003847684,-0.00849263,-5.8829784e-05,0.0,0.0,-0.001,0
12688000,0.00322909,-0.008068776,5.632639e-05,0.0,0.0,-0.001,0
12708000,0.0031987731,-0.007864221,0.00013977289,0.0,0.0,-0.001,0
12728000,0.003566886,-0.0072341347,-7.259846e-05,0.0,0.0,-0.001,0
12748000,0.0034471606,-0.0062969546,6.592274e-05,0.0,0.0,-0.001,0
12764000,0.0032974128,-0.0060959114,-0.00010097027,0.0,0.0,-0.001,0
12784000,0.003250928,-0.0056744562,1.9192696e-05,0.0,0.0,-0.001,0
12808000,0.0036544618,-0.004527872,-8.46982e-05,0.0,0.0,-0.001,0
12828000,0.0037745454,-0.0042061927,2.9206276e-05,0.0,0.0,-0.001,0
12848000,0.0037726632,-0.0035655657,-8.5532665e-05,0.0,0.0,-0.001,0
12868000,0.0039684502,-0.0035213945,4.0888786e-05,0.0,0.0,-0.001,0
12888000,0.0040420806,-0.0027238147,-7.3850155e-05,0.0,0.0,-0.001,0
12908000,0.004000018,-0.0027882615,-0.00029748678,0.0,0.0,-0.001,0
12924000,0.0036399723,-0.0024266038,4.5895576e-06,0.0,0.0,-0.001,0
12948000,0.0036517866,-0.0024107131,0.0003671646,0.0,0.0,-0.001,0
12968000,0.0037874563,-0.0019383798,4.172325e-05,0.0,0.0,-0.001,0
12988000,0.003775674,-0.0010712865,-0.00023907423,0.0,0.0,-0.001,0
13008000,0.0043832446,-0.0004957053,-3.963709e-05,0.0,0.0,-0.001,0
13028000,0.005035264,-0.0004057926,-0.00017982721,0.0,0.0,-0.001,0
13044000,0.006043989,-0.0013574853,-0.00015354156,0.0,0.0,-0.001,0
13064000,0.006240093,-0.0016229984,2.2947788e-05,0.0,0.0,-0.001,0
13088000,0.0067774164,-0.001835152,-9.596348e-05,0.0,0.0,-0.001,0
13108000,0.007223849,-0.001652563,6.3836575e-05,0.0,0.0,-0.001,0
13128000,0.006981749,-0.0015826272,0.00014185905,0.0,0.0,-0.001,0
13144000,0.0064948476,-0.0019313227,8.094311e-05,0.0,0.0,-0.001,0
13168000,0.0065294425,-0.0022293688,0.00017982721,0.0,0.0,-0.001,0
13188000,0.006638022,-0.002243831,-0.000310421,0.0,0.0,-0.001,0
13208000,0.0069750594,-0.0022956545,-4.965067e-05,0.0,0.0,-0.001,0
13228000,0.0074429037,-0.0017714878,-4.130602e-05,0.0,0.0,-0.001,0
13248000,0.0070578856,-0.0013118684,-3.46303e-05,0.0,0.0,-0.001,0
13268000,0.00804469,-0.0017730575,-0.00016605854,0.0,0.0,-0.001,0
13284000,0.007745848,-0.0022211364,8.761883e-05,0.0,0.0,-0.001,0
13308000,0.0077567147,-0.0017339517,-0.000113487244,0.0,0.0,-0.001,0
13324000,0.007792264,-0.0017987965,-0.00018191338,0.0,0.0,-0.001,0
13344000,0.0071282284,-0.0018749675,6.5505505e-05,0.0,0.0,-0.001,0
13368000,0.006669596,-0.0020264091,-5.841255e-06,0.0,0.0,-0.001,0
13384000,0.00634118,-0.0019600666,-8.678436e-05,0.0,0.0,-0.001,0
13408000,0.0062194974,-0.0014901103,-0.00013685226,0.0,0.0,-0.001,0
13428000,0.0055462895,-0.0010997192,0.00023072958,0.0,0.0,-0.001,0
13448000,0.005007198,-0.0019420795,-5.0902367e-05,0.0,0.0,-0.001,0
13468000,0.004623164,-0.0020219313,0.00018525124,0.0,0.0,-0.001,0
13484000,0.0043402934,-0.0019285743,-0.00013309717,0.0,0.0,-0.001,0
13508000,0.004669639,-0.0013522465,0.00020486116,0.0,0.0,-0.001,0
13524000,0.0046232017,-0.0019408226,0.00014311075,0.0,0.0,-0.001,0
13548000,0.0047959494,-0.0016888973,-0.00017815828,0.0,0.0,-0.001,0
13564000,0.0055563804,-0.0013375289,4.4226646e-05,0.0,0.0,-0.001,0
13584000,0.005578614,-0.0020047417,-6.759167e-05,0.0,0.0,-0.001,0
13608000,0.005972945,-0.0025562497,4.5895576e-05,0.0,0.0,-0.001,0
13628000,0.005250588,-0.0024625002,0.00017273426,0.0,0.0,-0.001,0
13648000,0.0046608513,-0.0023159997,-0.00015813112,0.0,0.0,-0.001,0
13668000,0.004574961,-0.0010835215,-0.000116825104,0.0,0.0,-0.001,0
13688000,0.0043494245,-0.0015739537,-5.841255e-06,0.0,0.0,-0.001,0
13704000,0.004326836,-0.0019359412,-4.130602e-05,0.0,0.0,-0.001,0
13724000,0.0042332867,-0.0020322776,-1.2934208e-05,0.0,0.0,-0.001,0
13748000,0.004804693,-0.002042465,0.00014603138,0.0,0.0,-0.001,0
13764000,0.004647784,-0.0021657818,-0.0001322627,0.0,0.0,-0.001,0
13788000,0.0049605416,-0.0025397977,0.00012141466,0.0,0.0,-0.001,0
13808000,0.004914237,-0.0017785408,-0.00014144182,0.0,0.0,-0.001,0
13824000,0.0051584286,-0.0018914585,9.804964e-05,0.0,0.0,-0.001,0
13848000,0.0053896285,-0.0019456671,0.00014686584,0.0,0.0,-0.001,0
13868000,0.006179747,-0.0018838323,-0.00019818544,0.0,0.0,-0.001,0
13884000,0.00615463,-0.0016038346,4.172325e-07,0.0,0.0,-0.001,0
13908000,0.0064299502,-0.002513554,-0.0006245971,0.0,0.0,-0.001,0
13924000,0.0066893217,-0.0029752569,0.00014269352,0.0,0.0,-0.001,0
13948000,0.007048538,-0.0023874205,0.00043141842,0.0,0.0,-0.001,0
13968000,0.0072218385,-0.0020844743,-5.0902367e-05,0.0,0.0,-0.001,0
13988000,0.007856213,-0.0025785642,-0.00021195412,0.0,0.0,-0.001,0
14008000,0.0083124265,-0.002049902,1.001358e-05,0.0,0.0,-0.001,0
14024000,0.008228683,-0.0019120772,-7.969141e-05,0.0,0.0,-0.001,0
14048000,0.007845656,-0.0012358734,-0.00012767315,0.0,0.0,-0.001,0
14068000,0.008251938,-0.0005983354,-8.5532665e-05,0.0,0.0,-0.001,0
14088000,0.008428264,-0.00063689635,-0.00012642145,0.0,0.0,-0.001,0
14108000,0.007943788,-0.0006157658,-0.00014394522,0.0,0.0,-0.001,0
14128000,0.007535411,-0.00082256366,-5.9247017e-05,0.0,0.0,-0.001,0
14148000,0.0067113796,-0.00075693196,6.67572e-06,0.0,0.0,-0.001,0
14164000,0.006765322,-0.0001513455,-6.67572e-06,0.0,0.0,-0.001,0
14188000,0.00613568,-0.00010406179,1.8775463e-05,0.0,0.0,-0.001,0
14208000,0.005827097,0.00014635315,5.00679e-05,0.0,0.0,-0.001,0
14228000,0.0056027574,0.0004446695,-0.00025951862,0.0,0.0,-0.001,0
14244000,0.005887869,0.00042988453,-0.00035881996,0.0,0.0,-0.001,0
14268000,0.0055429963,0.0003491533,-0.00014644861,0.0,0.0,-0.001,0
14288000,0.0060700886,0.0005610301,0.00015980005,0.0,0.0,-0.001,0
14308000,0.006388992,0.0006388861,0.000115573406,0.0,0.0,-0.001,0
14328000,0.0072558094,0.0006066107,-1.5437603e-05,0.0,0.0,-0.001,0
14348000,0.0072943754,0.00054235733,0.0,0.0,0.0,-0.001,0
14368000,0.007147023,0.0009650651,2.9206276e-05,0.0,0.0,-0.001,0
14388000,0.0066656047,0.0012063244,-2.4199486e-05,0.0,0.0,-0.001,0
14404000,0.006732455,0.00077638705,0.00021529198,0.0,0.0,-0.001,0
14424000,0.0075856857,0.0010554751,-2.169609e-05,0.0,0.0,-0.001,0
14448000,0.008361454,0.0014440238,1.2934208e-05,0.0,0.0,-0.001,0
14464000,0.007633291,0.001256139,-4.464388e-05,0.0,0.0,-0.001,0
14484000,0.0073900465,0.0016605502,-6.5505505e-05,0.0,0.0,-0.001,0
14508000,0.007444584,0.0014123444,-0.00037300587,0.0,0.0,-0.001,0
14524000,0.008058147,0.000830058,-7.510185e-05,0.0,0.0,-0.001,0
14544000,0.0071186377,0.0013875172,-0.00011432171,0.0,0.0,-0.001,0
14564000,0.0068042064,0.0013819246,-0.00020194054,0.0,0.0,-0.001,0
14588000,0.007665273,0.0012430323,-0.00026077032,0.0,0.0,-0.001,0
14608000,0.0075086188,0.0008021635,-4.3809414e-05,0.0,0.0,-0.001,0
14624000,0.00762944,0.00064515206,-7.3850155e-05,0.0,0.0,-0.001,0
14648000,0.006806744,0.0009900434,8.0525875e-05,0.0,0.0,-0.001,0
14668000,0.007390638,0.0007150718,9.179115e-06,0.0,0.0,-0.001,0
14688000,0.0068525188,0.00065471325,-0.00012266636,0.0,0.0,-0.001,0
14708000,0.0070089623,0.0006578623,-7.0929527e-06,0.0,0.0,-0.001,0
14728000,0.0061048605,0.0009168205,-4.0471554e-05,0.0,0.0,-0.001,0
14744000,0.0060703675,0.00079692877,2.3782253e-05,0.0,0.0,-0.001,0
14768000,0.0074565355,0.0008141927,0.00025242567,0.0,0.0,-0.001,0
14788000,0.0072749685,-8.354755e-05,-0.00020986795,0.0,0.0,-0.001,0
14804000,0.007966986,-0.00049260654,0.00015354156,0.0,0.0,-0.001,0
14828000,0.0073268935,-0.0015485797,0.00024700165,0.0,0.0,-0.001,0
14844000,0.007601655,-0.0015390255,8.428097e-05,0.0,0.0,-0.001,0
14868000,0.008310825,-0.0019213497,-8.136034e-05,0.0,0.0,-0.001,0
14884000,0.008111197,-0.0015190458,-6.508827e-05,0.0,0.0,-0.001,0
14908000,0.0074084997,-0.002099453,0.00016230345,0.0,0.0,-0.001,0
14928000,0.0073664933,-0.0023019114,2.2530556e-05,0.0,0.0,-0.001,0
14948000,0.0074755116,-0.0015224961,3.46303e-05,0.0,0.0,-0.001,0
14968000,0.008264845,-0.0017021492,4.8816204e-05,0.0,0.0,-0.001,0
14988000,0.0075971456,-0.0020846294,8.3863735e-05,0.0,0.0,-0.001,0
15008000,0.00819487,-0.0026080664,8.803606e-05,0.0,0.0,-0.001,0
15028000,0.007936089,-0.0018913737,-0.00025826693,0.0,0.0,-0.001,0
15044000,0.007798302,-0.0023644462,-9.596348e-05,0.0,0.0,-0.001,0
15068000,0.007555321,-0.0031702742,-8.970499e-05,0.0,0.0,-0.001,0
15088000,0.007683723,-0.0037178162,5.966425e-05,0.0,0.0,-0.001,0
15108000,0.007846066,-0.0039194683,-0.00012975931,0.0,0.0,-0.001,0
15128000,0.00735114,-0.0039257626,-1.66893e-05,0.0,0.0,-0.001,0
15148000,0.0071999026,-0.0037496167,-6.300211e-05,0.0,0.0,-0.001,0
15168000,0.0072852997,-0.003365965,-0.00010639429,0.0,0.0,-0.001,0
15188000,0.006884143,-0.002722778,-0.00037384033,0.0,0.0,-0.001,0
15204000,0.006876421,-0.0027236368,3.4213066e-05,0.0,0.0,-0.001,0
15228000,0.0066761198,-0.0033459053,-9.846687e-05,0.0,0.0,-0.001,0
15248000,0.0058330745,-0.0030358636,2.8789043e-05,0.0,0.0,-0.001,0
15268000,0.0060872035,-0.0033437405,-0.00040888786,0.0,0.0,-0.001,0
15284000,0.006146519,-0.003587184,-0.0002782941,0.0,0.0,-0.001,0
15304000,0.006127478,-0.0039962893,4.5895576e-06,0.0,0.0,-0.001,0
15328000,0.0070661753,-0.0032171092,-0.0001026392,0.0,0.0,-0.001,0
15348000,0.0069699306,-0.0028416722,-8.136034e-05,0.0,0.0,-0.001,0
15368000,0.0063221483,-0.0027817474,2.8371811e-05,0.0,0.0,-0.001,0
15384000,0.0054593943,-0.002586164,2.9623508e-05,0.0,0.0,-0.001,0
15408000,0.0058845878,-0.0009316348,-6.592274e-05,0.0,0.0,-0.001,0
15428000,0.00627786,-0.00080257,0.00010848045,0.0,0.0,-0.001,0
15444000,0.005594676,-0.0009793816,-0.00010806322,0.0,0.0,-0.001,0
15468000,0.0052863033,-0.0009855963,-0.00020360947,0.0,0.0,-0.001,0
15488000,0.0049972315,-0.0008234109,9.346008e-05,0.0,0.0,-0.001,0
15508000,0.0058336733,-0.00010609068,-4.506111e-05,0.0,0.0,-0.001,0
15524000,0.005571899,-0.0002745816,0.00017815828,0.0,0.0,-0.001,0
15548000,0.0055756327,8.471776e-06,2.7954578e-05,0.0,0.0,-0.001,0
15568000,0.005603524,3.1893374e-05,7.259846e-05,0.0,0.0,-0.001,0
15584000,0.0051971674,0.00045290124,-3.0457973e-05,0.0,0.0,-0.001,0
15608000,0.005192495,-0.00019477564,-0.00021195412,0.0,0.0,-0.001,0
15628000,0.005230236,-0.0008321034,-7.760525e-05,0.0,0.0,-0.001,0
15648000,0.0049723503,-0.0011745016,2.7120113e-05,0.0,0.0,-0.001,0
15668000,0.0051598633,-0.0011909115,-7.843971e-05,0.0,0.0,-0.001,0
15688000,0.0044192374,-0.0016778104,-4.2140484e-05,0.0,0.0,-0.001,0
15708000,0.0035481374,-0.0020122975,0.00021320581,0.0,0.0,-0.001,0
15728000,0.0033428087,-0.0024929985,-6.633997e-05,0.0,0.0,-0.001,0
15748000,0.003535424,-0.0019491948,-6.92606e-05,0.0,0.0,-0.001,0
15768000,0.002916898,-0.0015772774,-1.2516975e-06,0.0,0.0,-0.001,0
15788000,0.0027502496,-0.0020157585,5.00679e-05,0.0,0.0,-0.001,0
15804000,0.0031755744,-0.0022926284,-0.00023531914,0.0,0.0,-0.001,0
15828000,0.0035240701,-0.0025161505,0.0002478361,0.0,0.0,-0.001,0
15848000,0.0029390992,-0.0026760525,0.00012892485,0.0,0.0,-0.001,0
15868000,0.0021276814,-0.0025305687,4.9233437e-05,0.0,0.0,-0.001,0
15884000,0.0015248249,-0.0026571844,-0.0003387928,0.0,0.0,-0.001,0
15908000,0.0021611769,-0.002566012,-0.00012850761,0.0,0.0,-0.001,0
15928000,0.0020095846,-0.0032182392,-2.5451183e-05,0.0,0.0,-0.001,0
15944000,0.0016166789,-0.003496973,-0.0001514554,0.0,0.0,-0.001,0
15968000,0.001531451,-0.003981784,9.596348e-06,0.0,0.0,-0.001,0
15984000,0.0021120366,-0.0043628043,-7.0512295e-05,0.0,0.0,-0.001,0
16004000,0.0017577267,-0.005086123,-4.965067e-05,0.0,0.0,-0.001,0
16028000,0.0015570691,-0.005444762,-0.00025117397,0.0,0.0,-0.001,0
16044000,0.0015929239,-0.005734087,8.5532665e-05,0.0,0.0,-0.001,0
16068000,0.0010694033,-0.0058515966,2.7537346e-05,0.0,0.0,-0.001,0
16088000,0.0014022803,-0.0063182604,-8.970499e-05,0.0,0.0,-0.001,0
16108000,0.001618301,-0.0065971944,-9.346008e-05,0.0,0.0,-0.001,0
16128000,0.0011930407,-0.005926029,-8.2194805e-05,0.0,0.0,-0.001,0
16148000,0.0012571095,-0.005917739,-0.00019192696,0.0,0.0,-0.001,0
16164000,0.0014410482,-0.0061976537,0.00040471554,0.0,0.0,-0.001,0
16188000,0.0015527965,-0.007033655,-0.00015771389,0.0,0.0,-0.001,0
16204000,0.0017067601,-0.006760273,-8.59499e-05,0.0,0.0,-0.001,0
16228000,0.00078250375,-0.0070429556,-0.00035715103,0.0,0.0,-0.001,0
16248000,0.0007031241,-0.00695764,5.966425e-05,0.0,0.0,-0.001,0
16268000,0.00071252603,-0.0070829988,-3.5881996e-05,0.0,0.0,-0.001,0
16288000,0.00024989923,-0.0074020145,0.00014561415,0.0,0.0,-0.001,0
16304000,-0.00011510076,-0.0073051997,6.300211e-05,0.0,0.0,-0.001,0
16324000,-0.00045598135,-0.007202667,3.7550926e-05,0.0,0.0,-0.001,0
16344000,-0.0005416651,-0.0071851495,-9.262562e-05,0.0,0.0,-0.001,0
16368000,-0.00032805,-0.007757402,0.00012767315,0.0,0.0,-0.001,0
16388000,-6.991066e-05,-0.007929686,-9.012222e-05,0.0,0.0,-0.001,0
16408000,0.0007489349,-0.0081473235,2.002716e-05,0.0,0.0,-0.001,0
16428000,0.0009409508,-0.007979591,-8.428097e-05,0.0,0.0,-0.001,0
16448000,0.0013315596,-0.008402476,-6.0498714e-05,0.0,0.0,-0.001,0
16464000,0.0013960716,-0.008306663,0.000112235546,0.0,0.0,-0.001,0
16488000,0.0013905771,-0.00863954,5.9247017e-05,0.0,0.0,-0.001,0
16508000,0.0015657272,-0.009289097,0.00036507845,0.0,0.0,-0.001,0
16528000,0.0014602928,-0.00969894,-4.506111e-05,0.0,0.0,-0.001,0
16548000,0.0012443801,-0.009969427,-0.00025075674,0.0,0.0,-0.001,0
16568000,0.0012510587,-0.01058598,1.5854836e-05,0.0,0.0,-0.001,0
16588000,0.0016459585,-0.01109834,0.00016230345,0.0,0.0,-0.001,0
16604000,0.0023287209,-0.010796353,7.8856945e-05,0.0,0.0,-0.001,0
16624000,0.0028021825,-0.010950418,2.8371811e-05,0.0,0.0,-0.001,0
16644000,0.0023967056,-0.010714838,0.00018274784,0.0,0.0,-0.001,0
16668000,0.0013878951,-0.010261077,0.00011014938,0.0,0.0,-0.001,0
16684000,0.002328075,-0.010812283,-0.00024491549,0.0,0.0,-0.001,0
16704000,0.002745519,-0.010795657,4.4226646e-05,0.0,0.0,-0.001,0
16724000,0.003045169,-0.010304109,0.0002837181,0.0,0.0,-0.001,0
16744000,0.0034848037,-0.010909345,0.00010180473,0.0,0.0,-0.001,0
16764000,0.0034850552,-0.010346218,0.000166893,0.0,0.0,-0.001,0
16788000,0.0040968237,-0.010009148,0.00015604496,0.0,0.0,-0.001,0
16808000,0.0033893692,-0.010014916,-0.00010973215,0.0,0.0,-0.001,0
16828000,0.0039315852,-0.010125466,-2.2947788e-05,0.0,0.0,-0.001,0
16844000,0.0036077243,-0.0108777825,0.00021237135,0.0,0.0,-0.001,0
16868000,0.0033282666,-0.010795,-8.2194805e-05,0.0,0.0,-0.001,0
16884000,0.0029288724,-0.010654302,5.2571297e-05,0.0,0.0,-0.001,0
16908000,0.002055325,-0.010981159,0.00022238493,0.0,0.0,-0.001,0
16928000,0.002054092,-0.010624982,-2.5451183e-05,0.0,0.0,-0.001,0
16948000,0.0027048248,-0.010619298,-0.00025993586,0.0,0.0,-0.001,0
16968000,0.0030419368,-0.010577626,2.2113323e-05,0.0,0.0,-0.001,0
16988000,0.003316523,-0.011582417,-4.3809414e-05,0.0,0.0,-0.001,0
17012000,0.0027984502,-0.011451611,0.00015062094,0.0,0.0,-0.001,0
17028000,0.0024305726,-0.010996776,-0.0001527071,0.0,0.0,-0.001,0
17044000,0.0028468603,-0.0106984135,-0.0003233552,0.0,0.0,-0.001,0
17068000,0.0025830097,-0.0104950005,0.00014102459,0.0,0.0,-0.001,0
17084000,0.0020930173,-0.009739405,-1.335144e-05,0.0,0.0,-0.001,0
17108000,0.001516535,-0.009572361,4.130602e-05,0.0,0.0,-0.001,0
17128000,0.0016918292,-0.009531006,-6.92606e-05,0.0,0.0,-0.001,0
17148000,0.001951555,-0.009418554,-0.000118494034,0.0,0.0,-0.001,0
17168000,0.0026888822,-0.008831382,-4.339218e-05,0.0,0.0,-0.001,0
17188000,0.003230139,-0.007911088,-5.173683e-05,0.0,0.0,-0.001,0
17208000,0.0031914741,-0.0082557155,0.00020319223,0.0,0.0,-0.001,0
17224000,0.0034380234,-0.008388584,-1.7523766e-05,0.0,0.0,-0.001,0
17248000,0.0035929736,-0.0076929163,5.841255e-06,0.0,0.0,-0.001,0
17268000,0.00397754,-0.007543269,-0.00012892485,0.0,0.0,-0.001,0
17284000,0.0042820955,-0.0076989904,-9.5546246e-05,0.0,0.0,-0.001,0
17308000,0.004647731,-0.007877925,-1.0430813e-05,0.0,0.0,-0.001,0
17324000,0.0045297304,-0.0076708035,3.129244e-05,0.0,0.0,-0.001,0
17348000,0.004808355,-0.0078040743,4.464388e-05,0.0,0.0,-0.001,0
17364000,0.005965435,-0.007459385,-0.00010681152,0.0,0.0,-0.001,0
17388000,0.0055196816,-0.00737341,-0.00025826693,0.0,0.0,-0.001,0
17408000,0.0060629984,-0.00716131,-6.7174435e-05,0.0,0.0,-0.001,0
17424000,0.006259034,-0.007374307,-2.5451183e-05,0.0,0.0,-0.001,0
17448000,0.0061748787,-0.008130318,-0.0001718998,0.0,0.0,-0.001,0
17468000,0.006515816,-0.007473119,4.005432e-05,0.0,0.0,-0.001,0
17488000,0.0066762553,-0.007471074,8.0525875e-05,0.0,0.0,-0.001,0
17508000,0.006911677,-0.00769299,-0.00017607212,0.0,0.0,-0.001,0
17528000,0.0068768035,-0.007627516,-7.677078e-05,0.0,0.0,-0.001,0
17548000,0.0067668036,-0.007853633,0.00011307001,0.0,0.0,-0.001,0
17564000,0.006516533,-0.00756418,-2.1278858e-05,0.0,0.0,-0.001,0
17588000,0.006653298,-0.007572715,-0.00012725592,0.0,0.0,-0.001,0
17608000,0.0067162095,-0.007957546,-6.2167645e-05,0.0,0.0,-0.001,0
17628000,0.0068460717,-0.007767528,0.00017899275,0.0,0.0,-0.001,0
17644000,0.006197158,-0.008003315,9.179115e-05,0.0,0.0,-0.001,0
17664000,0.0062581757,-0.007985578,-3.3795834e-05,0.0,0.0,-0.001,0
17688000,0.0055246074,-0.00816307,0.00016063452,0.0,0.0,-0.001,0
17708000,0.005574404,-0.0074030994,-0.00022614002,0.0,0.0,-0.001,0
17728000,0.005332814,-0.006882386,7.843971e-05,0.0,0.0,-0.001,0
17748000,0.005530345,-0.006267137,-0.00015771389,0.0,0.0,-0.001,0
17768000,0.005491088,-0.006277377,0.00022989511,0.0,0.0,-0.001,0
17788000,0.005739224,-0.006944216,-2.002716e-05,0.0,0.0,-0.001,0
17808000,0.0064947293,-0.0074039814,-6.2167645e-05,0.0,0.0,-0.001,0
17828000,0.0064987773,-0.0073261573,0.0001681447,0.0,0.0,-0.001,0
17848000,0.0071163313,-0.006754857,-3.2544136e-05,0.0,0.0,-0.001,0
17868000,0.007797285,-0.0066116443,7.009506e-05,0.0,0.0,-0.001,0
17888000,0.007311925,-0.0066008056,-4.8816204e-05,0.0,0.0,-0.001,0
17908000,0.0069573848,-0.0062476075,-0.00010430813,0.0,0.0,-0.001,0
17928000,0.0071461615,-0.006247697,8.59499e-05,0.0,0.0,-0.001,0
17948000,0.006203377,-0.0062922635,3.9219856e-05,0.0,0.0,-0.001,0
17968000,0.0053855935,-0.006747884,2.7537346e-05,0.0,0.0,-0.001,0
17984000,0.0047821174,-0.0065950025,-1.7523766e-05,0.0,0.0,-0.001,0
18004000,0.0043628174,-0.0062397867,1.41859055e-05,0.0,0.0,-0.001,0
18024000,0.0036873883,-0.006047853,0.00011765957,0.0,0.0,-0.001,0
18048000,0.0032254003,-0.005790048,4.172325e-05,0.0,0.0,-0.001,0
18068000,0.0031567493,-0.0052801496,0.00014644861,0.0,0.0,-0.001,0
18084000,0.0027433056,-0.0046489993,0.00026202202,0.0,0.0,-0.001,0
18108000,0.0025776103,-0.005025158,-4.2557716e-05,0.0,0.0,-0.001,0
18124000,0.0021962652,-0.005418114,-0.000105559826,0.0,0.0,-0.001,0
18148000,0.0016440446,-0.005364957,0.00017482042,0.0,0.0,-0.001,0
18168000,0.0016559156,-0.0052732346,-5.00679e-06,0.0,0.0,-0.001,0
18188000,0.0014425039,-0.0053692367,0.00019443035,0.0,0.0,-0.001,0
18208000,0.0014944869,-0.0050475686,3.129244e-05,0.0,0.0,-0.001,0
18224000,0.0011360375,-0.005087932,-8.34465e-06,0.0,0.0,-0.001,0
18244000,0.0013880958,-0.005608585,-6.300211e-05,0.0,0.0,-0.001,0
18268000,0.0017822299,-0.005888058,-0.0002591014,0.0,0.0,-0.001,0
18284000,0.0016276597,-0.0062601687,9.179115e-06,0.0,0.0,-0.001,0
18308000,0.0016350178,-0.006496027,-0.00010764599,0.0,0.0,-0.001,0
18328000,0.00095719285,-0.006852177,-0.000120162964,0.0,0.0,-0.001,0
18348000,0.00036055106,-0.006812206,-0.000115156174,0.0,0.0,-0.001,0
18368000,0.0003454627,-0.006832489,-1.7940998e-05,0.0,0.0,-0.001,0
18388000,-4.6988716e-05,-0.0070519233,-0.00023573637,0.0,0.0,-0.001,0
18408000,0.00048074964,-0.007300102,-6.2584877e-06,0.0,0.0,-0.001,0
18428000,0.00034519983,-0.008083683,-0.00032794476,0.0,0.0,-0.001,0
18448000,0.00049901754,-0.008678169,0.00025367737,0.0,0.0,-0.001,0
18468000,0.0013102142,-0.008337661,-0.00022697449,0.0,0.0,-0.001,0
18488000,0.0016494265,-0.008117351,7.009506e-05,0.0,0.0,-0.001,0
18508000,0.0022060622,-0.007681613,-0.000110566616,0.0,0.0,-0.001,0
18528000,0.0027296967,-0.0069614993,-3.7133694e-05,0.0,0.0,-0.001,0
18548000,0.0033438918,-0.007116036,-0.00016105175,0.0,0.0,-0.001,0
18564000,0.0029784157,-0.0072589526,0.00020360947,0.0,0.0,-0.001,0
18588000,0.0028582555,-0.0069776736,-1.8775463e-05,0.0,0.0,-0.001,0
18604000,0.0025654049,-0.0066695707,-6.258488e-05,0.0,0.0,-0.001,0
18628000,0.0027180358,-0.006721158,0.00020235777,0.0,0.0,-0.001,0
18648000,0.0026646142,-0.0072056064,-7.3850155e-05,0.0,0.0,-0.001,0
18668000,0.004174743,-0.007265351,-2.7120113e-05,0.0,0.0,-0.001,0
18684000,0.0038832175,-0.007338688,-1.835823e-05,0.0,0.0,-0.001,0
18708000,0.0037397114,-0.007429028,-3.629923e-05,0.0,0.0,-0.001,0
18728000,0.0035175357,-0.007802702,-4.0471554e-05,0.0,0.0,-0.001,0
18744000,0.0030598156,-0.0076633813,2.7120113e-05,0.0,0.0,-0.001,0
18768000,0.0023342632,-0.0079865735,9.5546246e-05,0.0,0.0,-0.001,0
18784000,0.0021895682,-0.007796838,-2.1278858e-05,0.0,0.0,-0.001,0
18808000,0.0013582972,-0.008280134,0.00017982721,0.0,0.0,-0.001,0
18828000,0.0014824136,-0.007882823,0.00013893843,0.0,0.0,-0.001,0
18848000,0.0018361276,-0.007742147,-7.009506e-05,0.0,0.0,-0.001,0
18868000,0.0010084526,-0.0069846073,-7.3850155e-05,0.0,0.0,-0.001,0
18888000,0.0007398976,-0.00677843,3.963709e-05,0.0,0.0,-0.001,0
18908000,0.0013020057,-0.0061171018,0.00028288364,0.0,0.0,-0.001,0
18924000,0.0012346082,-0.0060077235,0.00012975931,0.0,0.0,-0.001,0
18944000,0.007984991,-0.015649416,4.130602e-05,0.0,0.0,-0.008070291,0
18968000,0.006636834,-0.015808333,-0.00016605854,0.0,0.0,-0.011074014,0
18988000,0.007680596,-0.015966343,2.0861626e-06,0.0,0.0,-0.013256721,0
19008000,0.007928079,-0.012949215,8.636713e-05,0.0,0.0,-0.016451396,0
19024000,0.008505259,-0.014145147,-2.0861626e-05,0.0,0.0,-0.018799447,0
19048000,0.012130146,-0.01585231,7.510185e-05,0.0,0.0,-0.022474546,0
19068000,0.015979154,-0.011878351,-0.00015228987,0.0,0.0,-0.024961483,0
19088000,0.014350338,-0.013723967,6.467104e-05,0.0,0.0,-0.028712979,0
19108000,0.014200584,-0.013604646,-0.00016981363,0.0,0.0,-0.03100851,0
19124000,0.0142486915,-0.0144957155,0.00012433529,0.0,0.0,-0.033397745,0
19148000,0.014473228,-0.01666757,-0.00014144182,0.0,0.0,-0.037019208,0
19164000,0.012777673,-0.013629456,-0.00024658442,0.0,0.0,-0.03977804,0
19184000,0.012724581,-0.01641776,-5.2571297e-05,0.0,0.0,-0.04388175,0
19208000,0.016668014,-0.018654108,-5.173683e-05,0.0,0.0,-0.048178654,0
19228000,0.018884623,-0.022330392,9.3877316e-05,0.0,0.0,-0.051037718,0
19248000,0.015614718,-0.021799859,0.0001180768,0.0,0.0,-0.055163447,0
19268000,0.014331032,-0.020808145,-0.00014269352,0.0,0.0,-0.057853445,0
19288000,0.012559852,-0.017796537,5.799532e-05,0.0,0.0,-0.062389653,0
19308000,0.013951109,-0.017425077,0.00031793118,0.0,0.0,-0.06557494,0
19324000,0.015464875,-0.019416235,0.00019025803,0.0,0.0,-0.0687737,0
19348000,0.016314398,-0.022153823,0.00024449825,0.0,0.0,-0.073645286,0
19368000,0.013190741,-0.024952278,-7.802248e-05,0.0,0.0,-0.078451164,0
19384000,0.013387047,-0.028081002,-4.0471554e-05,0.0,0.0,-0.08192323,0
19408000,0.016780732,-0.031184552,0.00019025803,0.0,0.0,-0.08703877,0
19428000,0.015914664,-0.033717602,-3.129244e-05,0.0,0.0,-0.090454176,0
19448000,0.012409714,-0.03173252,6.7174435e-05,0.0,0.0,-0.09581949,0
19468000,0.009755753,-0.033165157,-0.000116825104,0.0,0.0,-0.09918421,0
19484000,0.009999478,-0.034157667,-9.179115e-06,0.0,0.0,-0.10282186,0
19508000,0.009827229,-0.031974353,-0.00015687943,0.0,0.0,-0.10800876,0
19528000,0.011155112,-0.03249727,0.00013059378,0.0,0.0,-0.113745205,0
19548000,0.010725496,-0.029927114,0.0002553463,0.0,0.0,-0.11763984,0
19568000,0.011158786,-0.030631179,-3.0040741e-05,0.0,0.0,-0.1229573,0
19588000,0.0063239792,-0.031016938,0.00010514259,0.0,0.0,-0.12669331,0
19608000,0.008045324,-0.030378595,-5.8412552e-05,0.0,0.0,-0.13285269,0
19628000,0.009895984,-0.032512736,0.00011640787,0.0,0.0,-0.1369734,0
19648000,0.01254728,-0.03393842,0.00015938282,0.0,0.0,-0.14306858,0
19668000,0.013771196,-0.033777855,3.129244e-05,0.0,0.0,-0.14715412,0
19688000,0.010289708,-0.03442116,0.000102221966,0.0,0.0,-0.15352446,0
19708000,0.008428692,-0.03657652,-7.510185e-05,0.0,0.0,-0.15762174,0
19728000,0.008198791,-0.03725528,7.593632e-05,0.0,0.0,-0.16418946,0
19748000,0.0078627085,-0.039020523,0.00038468838,0.0,0.0,-0.16863509,0
19764000,0.008346231,-0.038629178,0.0001502037,0.0,0.0,-0.17308208,0
19788000,0.00947762,-0.033630982,-7.843971e-05,0.0,0.0,-0.17952047,0
19808000,0.014411609,-0.031520538,9.012222e-05,0.0,0.0,-0.18629335,0
19828000,0.013374368,-0.032225486,5.4240227e-05,0.0,0.0,-0.19080915,0
19844000,0.01428273,-0.03281011,-3.33786e-05,0.0,0.0,-0.19549946,0
19868000,0.014105913,-0.03237275,0.00031334162,0.0,0.0,-0.20237754,0
19888000,0.017083831,-0.030224439,-9.512901e-05,0.0,0.0,-0.20950818,0
19904000,0.01901265,-0.03292591,-2.8371811e-05,0.0,0.0,-0.214295,0
19928000,0.01283275,-0.034874734,-7.5519085e-05,0.0,0.0,-0.22126204,0
19948000,0.012497506,-0.03471029,0.00014895201,0.0,0.0,-0.22607268,0
19968000,0.0075063272,-0.034101482,-6.759167e-05,0.0,0.0,-0.23344806,0
19988000,0.009001313,-0.0369295,3.7550926e-05,0.0,0.0,-0.23849928,0
20008000,0.010601892,-0.039606966,1.3768673e-05,0.0,0.0,-0.24604245,0
20028000,0.0124363825,-0.036052678,-0.00013935566,0.0,0.0,-0.25132746,0
20048000,0.015992846,-0.039169062,7.468462e-05,0.0,0.0,-0.25909162,0
20068000,0.016637523,-0.03615382,-1.9609928e-05,0.0,0.0,-0.26441285,0
20084000,0.013493677,-0.033568542,0.00021612644,0.0,0.0,-0.26960596,0
20108000,0.012690919,-0.036362246,-0.0004723072,0.0,0.0,-0.27750927,0
20128000,0.01120669,-0.038489625,-0.00014686584,0.0,0.0,-0.2861968,0
20148000,0.012905613,-0.042046275,0.0002591014,0.0,0.0,-0.29180518,0
20164000,0.012701516,-0.040431928,6.67572e-05,0.0,0.0,-0.29749432,0
20188000,0.012002296,-0.039348055,7.468462e-05,0.0,0.0,-0.306118,0
20208000,0.012833343,-0.0378233,-8.428097e-05,0.0,0.0,-0.31479323,0
20228000,0.015929285,-0.035827786,1.1265278e-05,0.0,0.0,-0.3170297,0
20248000,0.015598908,-0.039362878,-9.262562e-05,0.0,0.0,-0.3211701,0
20268000,0.016211063,-0.039696887,-9.846687e-05,0.0,0.0,-0.3210689,0
20288000,0.016375696,-0.03768704,-6.67572e-05,0.0,0.0,-0.32505652,0
20308000,0.01901536,-0.035085812,-1.001358e-05,0.0,0.0,-0.32477403,0
20328000,0.017768959,-0.03638979,-0.0001335144,0.0,0.0,-0.3286793,0
20344000,0.017227314,-0.038249373,4.2140484e-05,0.0,0.0,-0.32866025,0
20364000,0.017911252,-0.041355655,-0.00032627583,0.0,0.0,-0.33096355,0
20388000,0.016659638,-0.0423247,5.799532e-05,0.0,0.0,-0.33265978,0
20408000,0.018336255,-0.043219056,2.5451183e-05,0.0,0.0,-0.33673647,0
20428000,0.01869453,-0.042791195,-0.00039178133,0.0,0.0,-0.33692706,0
20448000,0.022355514,-0.03992905,3.4213066e-05,0.0,0.0,-0.34056395,0
20468000,0.022486493,-0.03905496,-3.129244e-05,0.0,0.0,-0.3406344,0
20488000,0.022901164,-0.0356293,6.633997e-05,0.0,0.0,-0.34482995,0
20504000,0.021688009,-0.036383845,0.0001385212,0.0,0.0,-0.34499583,0
20528000,0.021012314,-0.0378203,4.8816204e-05,0.0,0.0,-0.349589,0
20544000,0.023143515,-0.040129058,-5.8829784e-05,0.0,0.0,-0.3497037,0
20568000,0.021711916,-0.041200794,-2.7537346e-05,0.0,0.0,-0.35398072,0
20588000,0.019463334,-0.039825164,0.00021988153,0.0,0.0,-0.35407823,0
20608000,0.022043746,-0.04027903,-0.0001385212,0.0,0.0,-0.35844907,0
20628000,0.020345185,-0.041967135,0.00011140108,0.0,0.0,-0.3585935,0
20644000,0.019799227,-0.042781334,-0.00026535988,0.0,0.0,-0.36126706,0
20668000,0.01974922,-0.039566297,1.1265278e-05,0.0,0.0,-0.3628479,0
20688000,0.016786762,-0.042836428,5.507469e-05,0.0,0.0,-0.3676303,0
20708000,0.017475562,-0.041231718,2.5868416e-05,0.0,0.0,-0.3677172,0
20724000,0.016206192,-0.041492004,-3.296137e-05,0.0,0.0,-0.37077054,0
20748000,0.018115083,-0.039759777,5.5491924e-05,0.0,0.0,-0.37220636,0
20764000,0.022717772,-0.046797313,-1.7106533e-05,0.0,0.0,-0.37533665,0
20788000,0.02077997,-0.048081372,0.00011599064,0.0,0.0,-0.37745735,0
20808000,0.02044431,-0.045555502,9.930134e-05,0.0,0.0,-0.38228914,0
20824000,0.021575047,-0.043255482,-5.5491924e-05,0.0,0.0,-0.3826163,0
20848000,0.023319582,-0.04521702,7.5519085e-05,0.0,0.0,-0.3876925,0
20868000,0.021839734,-0.04816441,-7.3850155e-05,0.0,0.0,-0.3880257,0
20888000,0.01749941,-0.046754844,3.0875206e-05,0.0,0.0,-0.39239514,0
20908000,0.018570233,-0.045553967,0.00016480684,0.0,0.0,-0.39270216,0
20928000,0.01920024,-0.045576047,7.0929527e-06,0.0,0.0,-0.39752558,0
20948000,0.020831631,-0.045944,-0.000117242336,0.0,0.0,-0.39807117,0
20964000,0.023878813,-0.047288127,9.8884106e-05,0.0,0.0,-0.40131187,0
20988000,0.02554044,-0.04494751,-0.00025743246,0.0,0.0,-0.40323532,0
21008000,0.025654009,-0.048165582,-0.00011640787,0.0,0.0,-0.40827852,0
21028000,0.02641476,-0.049984585,4.5895576e-06,0.0,0.0,-0.40875342,0
21048000,0.023471177,-0.049199253,-3.33786e-05,0.0,0.0,-0.4136528,0
21068000,0.024461633,-0.049843658,0.00020569563,0.0,0.0,-0.41413754,0
21088000,0.0277959,-0.04807934,-5.0902367e-05,0.0,0.0,-0.41915685,0
21108000,0.025957836,-0.05033445,7.8856945e-05,0.0,0.0,-0.41995022,0
21128000,0.026137467,-0.051250875,0.00018149614,0.0,0.0,-0.42538732,0
21148000,0.02951844,-0.04809865,-7.927418e-05,0.0,0.0,-0.4259482,0
21168000,0.028974123,-0.047679245,5.173683e-05,0.0,0.0,-0.43112257,0
21188000,0.02966285,-0.046901774,-0.00014561415,0.0,0.0,-0.43181366,0
21208000,0.027564801,-0.046752617,0.00017857552,0.0,0.0,-0.43691584,0
21228000,0.027227646,-0.04708368,0.00012558699,0.0,0.0,-0.43755838,0
21248000,0.028949872,-0.04906314,0.00011765957,0.0,0.0,-0.442731,0
21268000,0.028808074,-0.047006864,-4.464388e-05,0.0,0.0,-0.4432519,0
21288000,0.029126696,-0.045280986,0.00013267994,0.0,0.0,-0.44851014,0
21308000,0.028974531,-0.048016626,9.137392e-05,0.0,0.0,-0.44921798,0
21328000,0.029099826,-0.050498728,5.3822994e-05,0.0,0.0,-0.4549105,0
21348000,0.027862897,-0.047591668,2.2947788e-05,0.0,0.0,-0.45585278,0
21368000,0.030110111,-0.045670923,0.0002540946,0.0,0.0,-0.46140543,0
21388000,0.032183066,-0.05056896,6.258488e-05,0.0,0.0,-0.46248657,0
21408000,0.03301314,-0.0506067,2.169609e-05,0.0,0.0,-0.46774334,0
21428000,0.036089066,-0.052721597,-0.0001885891,0.0,0.0,-0.4685835,0
21448000,0.03534074,-0.054546617,8.136034e-05,0.0,0.0,-0.47394165,0
21468000,0.036571182,-0.05180952,0.00020986795,0.0,0.0,-0.475185,0
21488000,0.038302183,-0.05003787,-3.5464764e-05,0.0,0.0,-0.48062325,0
21504000,0.03868577,-0.052029643,-2.670288e-05,0.0,0.0,-0.48134914,0
21528000,0.037157755,-0.05396427,0.00013935566,0.0,0.0,-0.48669422,0
21544000,0.036443062,-0.05528313,3.0040741e-05,0.0,0.0,-0.4875977,0
21568000,0.04168067,-0.05393461,-3.129244e-05,0.0,0.0,-0.4934145,0
21588000,0.040443417,-0.05429177,-0.00026118755,0.0,0.0,-0.49436218,0
21608000,0.04044796,-0.05255066,0.00018066168,0.0,0.0,-0.5000591,0
21628000,0.042764097,-0.050126646,0.00027954578,0.0,0.0,-0.5013625,0
21648000,0.04172866,-0.04806314,5.841255e-06,0.0,0.0,-0.50723904,0
21668000,0.04107193,-0.051575724,8.177757e-05,0.0,0.0,-0.50829685,0
21688000,0.041250926,-0.051661596,0.0001347661,0.0,0.0,-0.5138411,0
21708000,0.041110244,-0.05042654,2.8789043e-05,0.0,0.0,-0.5147681,0
21728000,0.041019768,-0.051816583,0.00014019012,0.0,0.0,-0.52047604,0
21748000,0.04137486,-0.051962975,-0.00016105175,0.0,0.0,-0.521626,0
21768000,0.04327832,-0.055097897,0.00019359589,0.0,0.0,-0.52731574,0
21788000,0.04448201,-0.05277045,-1.0430813e-05,0.0,0.0,-0.52841336,0
21808000,0.046885002,-0.056103036,0.00011140108,0.0,0.0,-0.5348288,0
21824000,0.046727523,-0.05490717,6.0498714e-05,0.0,0.0,-0.53589225,0
21848000,0.047348376,-0.055676475,-5.4240227e-05,0.0,0.0,-0.54199606,0
21868000,0.050018493,-0.056162324,0.00012558699,0.0,0.0,-0.5431036,0
21888000,0.04508238,-0.050129376,6.967783e-05,0.0,0.0,-0.5491251,0
21904000,0.04766234,-0.049060196,9.3877316e-05,0.0,0.0,-0.5502184,0
21928000,0.050844546,-0.047448162,0.00022864342,0.0,0.0,-0.58224344,0
21948000,0.049652938,-0.046800114,0.00031459332,0.0,0.0,-0.5835856,0
21968000,0.05093888,-0.04379084,7.259846e-05,0.0,0.0,-0.5895412,0
21988000,0.053142305,-0.043678053,0.00039470196,0.0,0.0,-0.5906691,0
22008000,0.05019711,-0.04565899,0.0001001358,0.0,0.0,-0.5966094,0
22024000,0.055154923,-0.043179203,7.802248e-05,0.0,0.0,-0.60059315,0
22044000,0.055661086,-0.04405616,-9.179115e-06,0.0,0.0,-0.60208654,0
22068000,0.05958411,-0.04247819,0.00037634373,0.0,0.0,-0.60609114,0
22088000,0.05929179,-0.039695237,0.00018107891,0.0,0.0,-0.6116205,0
22104000,0.05923605,-0.04091493,0.0002603531,0.0,0.0,-0.61282945,0
22128000,0.06278502,-0.041627936,0.00016897917,0.0,0.0,-0.61905205,0
22148000,0.06369172,-0.043293346,0.00024032593,0.0,0.0,-0.6205961,0
22168000,0.061962932,-0.040383272,0.00014352798,0.0,0.0,-0.6269209,0
22188000,0.06292765,-0.03725761,6.467104e-05,0.0,0.0,-0.6285407,0
22208000,0.06329656,-0.037623275,0.00023156404,0.0,0.0,-0.63465065,0
22224000,0.061739072,-0.036642797,0.00031250715,0.0,0.0,-0.63625,0
22248000,0.06273414,-0.038875356,4.2557716e-05,0.0,0.0,-0.6425937,0
22268000,0.06356576,-0.04033128,9.638071e-05,0.0,0.0,-0.64417094,0
22284000,0.062133603,-0.04111852,0.0005198717,0.0,0.0,-0.6494001,0
22308000,0.064659424,-0.0412232,0.0003759265,0.0,0.0,-0.6521707,0
22328000,0.06650983,-0.042602602,1.3768673e-05,0.0,0.0,-0.65858847,0
22348000,0.06543746,-0.04365132,-0.00010973215,0.0,0.0,-0.6598521,0
22368000,0.064495414,-0.039201878,5.340576e-05,0.0,0.0,-0.6666175,0
22388000,0.06446697,-0.040239945,-0.000118911266,0.0,0.0,-0.66827196,0
22404000,0.064455844,-0.03862677,-0.0001205802,0.0,0.0,-0.6740199,0
22428000,0.06448178,-0.036631603,0.000220716,0.0,0.0,-0.67655635,0
22448000,0.06308752,-0.038495753,7.5519085e-05,0.0,0.0,-0.6834702,0
22468000,0.065489,-0.04135534,0.00020736456,0.0,0.0,-0.6850266,0
22488000,0.067378275,-0.0414818,0.00012475252,0.0,0.0,-0.69185734,0
22508000,0.06942452,-0.04133694,0.0002657771,0.0,0.0,-0.69365066,0
22528000,0.07210019,-0.042861648,0.000107228756,0.0,0.0,-0.7006007,0
22548000,0.07459277,-0.040901713,0.00019276142,0.0,0.0,-0.70217556,0
22564000,0.07451292,-0.042834617,5.2154064e-05,0.0,0.0,-0.7080427,0
22584000,0.07139847,-0.040409613,0.00023198128,0.0,0.0,-0.71014,0
22608000,0.07193478,-0.03316805,5.7160854e-05,0.0,0.0,-0.7156618,0
22628000,0.06946713,-0.027780272,0.00031375885,0.0,0.0,-0.7164403,0
22648000,0.0616647,-0.022664845,0.00012975931,0.0,0.0,-0.72165143,0
22668000,0.05222314,-0.014187877,0.00021111965,0.0,0.0,-0.7219791,0
22684000,0.04684661,-0.010029698,0.0003016591,0.0,0.0,-0.72672564,0
22708000,0.035920635,0.0008509774,0.00021737814,0.0,0.0,-0.72694606,0
22728000,0.021316906,0.014181346,9.137392e-05,0.0,0.0,-0.7317971,0
22748000,0.0056654387,0.02925571,0.00013142824,0.0,0.0,-0.7315953,0
22768000,-0.011679133,0.04183989,-0.00025868416,0.0,0.0,-0.73630863,0
22788000,-0.023646519,0.057917964,-0.0006033182,0.0,0.0,-0.73588777,0
22808000,-0.043366745,0.07905516,-0.0007969141,0.0,0.0,-0.73968035,0
22824000,-0.050086048,0.092187114,-0.0008870363,0.0,0.0,-0.7391225,0
22848000,-0.06957264,0.10963882,-0.0010952353,0.0,0.0,-0.742946,0
22868000,-0.07988679,0.122398295,-0.0013109446,0.0,0.0,-0.74171996,0
22884000,-0.090470344,0.1348602,-0.0013409853,0.0,0.0,-0.745893,0
22908000,-0.101290435,0.14864773,-0.001663506,0.0,0.0,-0.7439775,0
22924000,-0.10759256,0.1570552,-0.0017248392,0.0,0.0,-0.747644,0
22944000,-0.11323279,0.16365412,-0.0015412569,0.0,0.0,-0.7451739,0
