timestamp,timestamp_sample,position[0],position[1],position[2],q[0],q[1],q[2],q[3],velocity[0],velocity[1],velocity[2],angular_velocity[0],angular_velocity[1],angular_velocity[2],position_variance[0],position_variance[1],position_variance[2],orientation_variance[0],orientation_variance[1],orientation_variance[2],velocity_variance[0],velocity_variance[1],velocity_variance[2],pose_frame,velocity_frame,reset_counter,quality
3884000,3884000,-0.0003989103,0.00054141606,-2.5270085e-05,0.99998707,0.0031440642,0.0039818175,-0.00035319335,-0.006945825,0.010109502,0.0011126697,0.0039948737,0.009986786,-0.0073237084,100.57771,100.57771,100.23105,0.010255602,0.010255875,0.00025726375,25.02336,25.02336,10.001073,1,1,4,0
3892000,3892000,-0.00045448492,0.00062636205,-1.2822406e-05,0.9999871,0.0031504799,0.0039710626,-0.00037450303,-0.0068419836,0.010977391,0.0016435491,0.0023969267,-0.007190497,-0.0015980115,100.64014,100.64014,100.25601,0.010281854,0.010282132,0.00028350312,25.025923,25.025923,10.001181,1,1,4,0
3900000,3900000,-0.00051230815,0.0007131035,5.5466808e-06,0.99998724,0.0031117816,0.0039711427,-0.0003948561,-0.0073568663,0.010655972,0.0022369386,-0.008921633,-0.0042609307,-0.0015979366,100.705765,100.705765,100.28226,0.010309387,0.01030968,0.0003110038,25.028603,25.028603,10.001294,1,1,4,0
3908000,3908000,-0.0005764933,0.00079828827,2.9525982e-05,0.99998707,0.003140464,0.0039839614,-0.00039222543,-0.008261899,0.010795595,0.002893825,0.0078563,-0.0007988862,0.0039948104,100.7746,100.7746,100.309784,0.010338198,0.010338505,0.0003397992,25.031397,25.031397,10.001411,1,1,4,0
3916000,3916000,-0.00064822036,0.000885702,5.974942e-05,0.99998677,0.003170228,0.0040302374,-0.00042031644,-0.009109304,0.011256291,0.0033441884,0.008122618,0.007723174,-0.0038616133,100.846634,100.846634,100.33859,0.010368297,0.0103686135,0.00036985724,25.034336,25.034336,10.001534,1,1,4,0
3924000,3924000,-0.00072797213,0.0009766008,9.393702e-05,0.9999869,0.0031734703,0.004006631,-0.00044107498,-0.010253262,0.011488385,0.0037291355,0.0014646932,-0.009587381,-0.0021305394,100.92189,100.92189,100.368675,0.01039966,0.010399994,0.00040122043,25.037413,25.037413,10.001663,1,1,4,0
3940000,3940000,-0.0009134857,0.0011584841,0.00017039491,0.99998665,0.0031466777,0.004069095,-0.00049773627,-0.012049034,0.011705025,0.0041115526,-0.004793766,-0.0009320443,-0.004127832,101.082016,101.082016,100.43267,0.010466248,0.010466603,0.00046774637,25.04389,25.04389,10.001934,1,1,4,0
3948000,3948000,-0.001017653,0.0012508593,0.00021145462,0.9999869,0.0031279128,0.0040485756,-0.00049944094,-0.012835915,0.011576849,0.00408801,-0.0041278913,-0.008388962,0.0022636887,101.166885,101.166885,100.46659,0.010501452,0.010501815,0.0005029529,25.047377,25.047377,10.002078,1,1,4,0
3956000,3956000,-0.0011259449,0.0013430205,0.00025281357,0.9999865,0.0031386928,0.0041147806,-0.00047127058,-0.012995311,0.011692992,0.0039756508,0.0031957042,0.0134489555,0.0095874285,101.25497,101.25497,100.50179,0.010537941,0.010538313,0.0005394266,25.051016,25.051016,10.002226,1,1,4,0
3964000,3964000,-0.0012367055,0.0014370355,0.00029612405,0.99998635,0.0031387254,0.0041678348,-0.00048582105,-0.013402793,0.012060168,0.0043365047,0.0005324927,0.010253171,-0.001198438,101.34626,101.34626,100.53828,0.010575732,0.010576094,0.0005771503,25.054752,25.054752,10.002379,1,1,4,0
3980000,3980000,-0.0014762327,0.0016382886,0.0003828399,0.9999862,0.0031323337,0.0042014304,-0.00045689062,-0.014739468,0.013630988,0.0038747198,-0.0029292738,-0.0041280207,0.00958739,101.538475,101.538475,100.61509,0.010655142,0.010655462,0.00065649144,25.0627,25.0627,10.002704,1,1,4,0
3988000,3988000,-0.0016008122,0.0017501573,0.00042312613,0.9999865,0.0030782754,0.0041480726,-0.00046392798,-0.014797737,0.014545128,0.0034972688,-0.01304934,-0.01597909,0.00039930726,101.6394,101.6394,100.65542,0.01069676,0.010697083,0.000698072,25.066874,25.066874,10.002872,1,1,4,0
3996000,3996000,-0.0017273589,0.0018682999,0.0004655207,0.99998677,0.0030391812,0.0041256812,-0.00048224608,-0.01516532,0.015292665,0.004130801,-0.009321077,-0.00812264,-0.0025299701,101.74354,101.74354,100.69703,0.010739649,0.01073997,0.00074095407,25.071173,25.071173,10.003047,1,1,4,0
4004000,4004000,-0.0018595898,0.0019900694,0.00051183207,0.999987,0.002988508,0.0041054357,-0.00048732688,-0.01592209,0.015489988,0.0044230986,-0.012250611,-0.0074567306,0.00066581374,101.85088,101.85088,100.73992,0.010783834,0.010784141,0.00078509573,25.075672,25.075672,10.003227,1,1,4,0
4020000,4020000,-0.0021429805,0.0022459917,0.00060401927,0.99998724,0.0029262868,0.0041071773,-0.0005037881,-0.017766658,0.0166457,0.0034501052,-0.004926907,-0.00119847,-0.0070573324,102.075226,102.075226,100.82953,0.010876019,0.010876336,0.0008772296,25.085009,25.085009,10.003601,1,1,4,0
4028000,4028000,-0.002298735,0.0023807539,0.00064292044,0.99998707,0.0029202474,0.0041540787,-0.00047357607,-0.018883692,0.017194625,0.0029630596,-0.0011984527,0.009720475,0.009187969,102.19222,102.19222,100.87625,0.010924036,0.010924355,0.0009252076,25.089846,25.089846,10.003797,1,1,4,0
4036000,4036000,-0.002462828,0.0025167002,0.0006783927,0.99998724,0.0028701436,0.004148802,-0.00042269923,-0.019704971,0.017414136,0.0026761782,-0.012250388,-0.0031956993,0.014248078,102.31243,102.31243,100.924255,0.010973317,0.010973644,0.0009744879,25.09482,25.09482,10.003996,1,1,4,0
4044000,4044000,-0.002631359,0.0026574507,0.00071359705,0.99998724,0.0028661687,0.0041485596,-0.0004424491,-0.019958008,0.018027365,0.002629673,-0.0006657701,-0.0018642041,-0.0034621118,102.43586,102.43586,100.97354,0.011023901,0.011024218,0.0010250227,25.099958,25.099958,10.004201,1,1,4,0
4060000,4060000,-0.002979471,0.0029429637,0.000785555,0.9999868,0.002887197,0.0042132847,-0.0004945763,-0.021009754,0.018647468,0.0023324192,0.0007989506,0.005193171,-0.00093204295,102.692375,102.692375,101.07596,0.0111289015,0.011129208,0.001129937,25.110662,25.110662,10.004626,1,1,4,0
4068000,4068000,-0.0031606127,0.0030933602,0.0008155698,0.99998695,0.0028586918,0.004234969,-0.00045179404,-0.021513004,0.019330865,0.0017431115,-0.006924223,0.0039947964,0.011851045,102.82546,102.82546,101.12909,0.011183305,0.011183614,0.0011843349,25.116245,25.116245,10.004847,1,1,4,0
4076000,4076000,-0.0033462462,0.003245528,0.00084470253,0.99998677,0.0028472315,0.004282394,-0.00042785253,-0.02202255,0.019135997,0.0018083255,-0.002663202,0.010519531,0.0070572877,102.96178,102.96178,101.1835,0.011239012,0.011239304,0.0012399826,25.121983,25.121983,10.005073,1,1,4,0
4084000,4084000,-0.0035345526,0.003396548,0.0008750196,0.99998665,0.0028570977,0.0042868312,-0.00041019637,-0.022133911,0.019127311,0.002152377,0.002663194,-0.00013313591,0.005459467,103.10131,103.10131,101.2392,0.011295974,0.011296282,0.0012969332,25.127893,25.127893,10.005303,1,1,4,0
4100000,4100000,-0.0038419159,0.0036316412,0.000916434,0.9999869,0.002817255,0.004256343,-0.00039673306,-0.024629831,0.01904393,0.0025197132,-0.0050598276,-0.014381102,0.0030628338,0.25130308,0.25130308,50.351215,0.011413311,0.01141364,0.0006016596,24.353348,24.353348,9.941361,1,1,4,0
4108000,4108000,-0.0040142136,0.0037515634,0.0009395944,0.9999872,0.0028142454,0.0041906373,-0.00043745688,-0.025778351,0.01972893,0.0024700472,-0.00053249736,-0.017443707,-0.009321083,0.2563273,0.2563273,50.381744,0.011474103,0.011474448,0.00062751287,24.359638,24.359638,9.9416065,1,1,4,0
4116000,4116000,-0.004196637,0.0038795797,0.0009624241,0.9999873,0.0027895456,0.0041714367,-0.00046117525,-0.026627414,0.020731024,0.0026147582,-0.0059921155,-0.0057257395,-0.005193246,0.26446995,0.26446995,50.413548,0.01153618,0.011536539,0.0006539029,24.366047,24.366047,9.941857,1,1,4,0
4124000,4124000,-0.0043871026,0.004015175,0.0009887244,0.9999874,0.0027351577,0.004184377,-0.00046790682,-0.027508235,0.021340191,0.003091558,-0.013448963,0.002396883,-0.0010652288,0.27573225,0.27573225,50.446625,0.011599541,0.01159991,0.00068083376,24.37266,24.37266,9.942114,1,1,4,0
4140000,4140000,-0.0047930535,0.004303897,0.0010464753,0.9999874,0.00273299,0.0041859145,-0.00049605675,-0.029291427,0.022901818,0.0032297259,0.0034620243,-0.004128022,-0.0058589173,0.30762085,0.30762085,50.516598,0.011730158,0.011730514,0.00073625386,24.386366,24.386366,9.94264,1,1,4,0
4148000,4148000,-0.005006811,0.0044597555,0.0010783419,0.9999875,0.0027457639,0.0041596573,-0.0005221658,-0.029737087,0.023684982,0.003547282,0.0033289709,-0.0071904617,-0.0059921974,0.3282498,0.3282498,50.553493,0.011797382,0.011797735,0.0007647811,24.39338,24.39338,9.942912,1,1,4,0
4156000,4156000,-0.0052273357,0.0046196575,0.0011151467,0.9999875,0.0027805357,0.004128253,-0.0005199317,-0.03049819,0.023745386,0.0045519727,0.008788372,-0.00838902,0.0010652862,0.35200357,0.35200357,50.59166,0.011865889,0.0118662445,0.00079385046,24.400581,24.400581,9.943188,1,1,4,0
4164000,4164000,-0.00545258,0.0047827885,0.0011597046,0.99998784,0.0027487287,0.004068956,-0.00052474975,-0.030630358,0.024336843,0.005194292,-0.007856265,-0.015313229,-0.00079894654,0.37888354,0.37888354,50.6311,0.011935663,0.011936024,0.0008234729,24.407978,24.407978,9.943469,1,1,4,0
4180000,4180000,-0.005915735,0.005116827,0.0012507061,0.999988,0.00279356,0.004011808,-0.0004930612,-0.031889718,0.0242247,0.0048823087,0.011851107,-0.007323569,0.0031959398,0.44202793,0.44202793,50.713802,0.012079036,0.012079413,0.0008843848,24.423384,24.423384,9.944049,1,1,4,0
4188000,4188000,-0.006156828,0.005281999,0.0012957177,0.999988,0.0028316136,0.003957148,-0.00050664577,-0.032356616,0.024012681,0.004907047,0.009587375,-0.013981565,-0.0030628156,0.47829527,0.47829527,50.757065,0.012152651,0.012153036,0.0009156357,24.431297,24.431297,9.944345,1,1,4,0
4196000,4196000,-0.0064044413,0.0054480983,0.0013412673,0.99998814,0.0028471951,0.003925842,-0.0005577258,-0.03348077,0.023981292,0.0050088675,0.0039948933,-0.008122596,-0.012516842,0.5176947,0.5176947,50.8016,0.012227552,0.012227932,0.0009474451,24.439356,24.439356,9.944648,1,1,4,0
4204000,4204000,-0.0066621318,0.005614434,0.0013886095,0.9999882,0.0028731236,0.003906455,-0.00056071946,-0.03437927,0.024148475,0.0053054863,0.006524664,-0.005060118,-0.00053265825,0.56022775,0.56022775,50.84741,0.01230371,0.012304099,0.000979818,24.447552,24.447552,9.944954,1,1,4,0
4220000,4220000,-0.007191118,0.0059549008,0.0014913452,0.99998826,0.0028754792,0.0038677661,-0.0005810008,-0.03544776,0.024541473,0.0056321677,-0.0018641962,-0.0067910766,-0.0067910627,0.654701,0.654701,50.942837,0.01245988,0.012460293,0.0010461695,24.464632,24.464632,9.945583,1,1,4,0
4228000,4228000,-0.0074691684,0.0061292592,0.0015416571,0.9999885,0.0028573172,0.003831901,-0.00057280983,-0.036757696,0.025148135,0.0053237583,-0.0045274757,-0.009054688,0.0021306027,0.7066445,0.7066445,50.992462,0.012539878,0.012540312,0.001080171,24.473364,24.473364,9.945905,1,1,4,0
4236000,4236000,-0.007754304,0.006309152,0.0015929537,0.9999886,0.002869638,0.0037814146,-0.00053696294,-0.037208654,0.025548447,0.006036334,0.0030626892,-0.012650046,0.009054699,0.7617281,0.7617281,51.04336,0.012621173,0.012621605,0.0011147056,24.482239,24.482239,9.946232,1,1,4,0
4244000,4244000,-0.0080441125,0.006494502,0.0016519983,0.9999887,0.0028574197,0.0037676215,-0.00052211434,-0.03774852,0.026661035,0.00682473,-0.0030626974,-0.003462122,0.0037283713,0.8199535,0.8199535,51.095535,0.012703734,0.012704182,0.0011497835,24.491295,24.491295,9.946565,1,1,4,0
4260000,4260000,-0.008638835,0.006882255,0.0017780615,0.99998856,0.00284844,0.0038297575,-0.0005180221,-0.038798846,0.027155425,0.007302139,0.00039942248,0.003595248,-0.0025300223,0.9458366,0.9458366,51.203705,0.012872765,0.012873174,0.0012215095,24.51,24.51,9.9472475,1,1,4,0
4268000,4268000,-0.008945493,0.007082433,0.0018461784,0.9999885,0.0028436503,0.0038332695,-0.0005284374,-0.03972549,0.028042965,0.007960715,-0.0011984132,0.00093212654,-0.002663158,1.013498,1.013498,51.2597,0.012959189,0.012959596,0.0012582013,24.519608,24.519608,9.947596,1,1,4,0
4276000,4276000,-0.009257772,0.0072871665,0.0019184654,0.99998856,0.0028084302,0.0038410295,-0.00056208135,-0.040138505,0.02838519,0.008309883,-0.008788473,0.0019972196,-0.008522112,1.0843083,1.0843083,51.31697,0.013046877,0.013047306,0.001295442,24.529356,24.529356,9.947949,1,1,4,0
4284000,4284000,-0.009576453,0.0074969353,0.0019901413,0.99998856,0.0027977389,0.0038422858,-0.00059150485,-0.041032623,0.02894286,0.0076385285,-0.0026631781,0.0003994972,-0.007456846,1.1582694,1.1582694,51.375515,0.013135847,0.0131362835,0.0013332375,24.539343,24.539343,9.948309,1,1,4,0
4300000,4300000,-0.0101057,0.007825686,0.0021124515,0.99998856,0.002746778,0.0038721412,-0.0005999024,-0.041591648,0.028866997,0.008350999,-0.0131826615,0.0009318871,-0.0018642164,0.21008052,0.21008052,33.99184,0.013246458,0.013246908,0.0005861768,7.843596,7.843596,9.850793,1,1,4,0
4308000,4308000,-0.0103116855,0.00794577,0.0021730368,0.9999887,0.002750211,0.0038396788,-0.00061438186,-0.0415351,0.02908631,0.008678567,0.0009269994,-0.007862828,-0.003728385,0.2236527,0.2236527,34.03322,0.013339045,0.013339476,0.0006025512,7.8484707,7.8484707,9.851164,1,1,4,0
4316000,4316000,-0.010518971,0.008065777,0.0022389,0.999989,0.002701658,0.003796921,-0.00057431473,-0.041848682,0.028767964,0.009517712,-0.012122522,-0.010392816,0.009853465,0.23823166,0.23823166,34.075855,0.013432923,0.013433338,0.00061912136,7.8535447,7.8535447,9.851541,1,1,4,0
4324000,4324000,-0.010731174,0.008182787,0.0023085594,0.999989,0.0027029598,0.0037958021,-0.00059873087,-0.042711366,0.028428342,0.009550952,0.0003944597,-6.5386794e-06,-0.006258441,0.25381833,0.25381833,34.119755,0.013528064,0.013528467,0.00063593825,7.858855,7.858855,9.851923,1,1,4,0
4340000,4340000,-0.0111660315,0.0084075555,0.0024564005,0.99998915,0.0026441212,0.0037808449,-0.00070266007,-0.04347792,0.02741791,0.010204932,-0.018646793,0.011445272,-0.0107862335,0.28801903,0.28801903,34.211338,0.013722192,0.013722542,0.0006702668,7.8700047,7.8700047,9.852701,1,1,4,0
4348000,4348000,-0.011296568,0.0084554795,0.002477799,0.9999889,0.002671117,0.0038018934,-0.00070251845,-0.043707997,0.026782159,0.010262544,0.0067861504,0.0055860775,-0.00013338513,0.12524122,0.12524122,33.333576,0.013650592,0.013650904,0.0006877251,1e-06,1e-06,1e-06,1,1,4,0
4356000,4356000,-0.011421188,0.008496482,0.0025030295,0.9999892,0.0026573502,0.0037598088,-0.00068958354,-0.042717244,0.026115963,0.010841766,-0.0032186434,-0.009888913,0.003062457,0.12524122,0.12524122,33.333576,0.013749989,0.013750285,0.00070545875,9.474818e-05,9.474891e-05,1.1406368e-05,1,1,4,0
4364000,4364000,-0.011536192,0.008533161,0.002530388,0.9999893,0.002634444,0.0037555995,-0.0007063216,-0.04177104,0.025941698,0.0107674105,-0.005482424,-0.0004346596,-0.004394186,0.12523828,0.12523828,33.333576,0.013850658,0.013850951,0.00072341686,0.0003610741,0.0003610755,2.6918045e-05,1,1,4,0
4380000,4380000,-0.011738201,0.008600181,0.00258404,0.99998933,0.0025943504,0.00376549,-0.00063852925,-0.04069708,0.02554087,0.010507587,-0.007746168,0.0042258636,0.0075900275,0.12522373,0.12522373,33.333576,0.014055844,0.014056126,0.00075998204,0.0014290272,0.0014290368,7.340901e-05,1,1,4,0
4388000,4388000,-0.011836091,0.008626089,0.0026058806,0.9999894,0.0025836958,0.0037478956,-0.00065265055,-0.04134187,0.024679791,0.0094384905,-0.0024198443,-0.0037635572,-0.003728351,0.12521222,0.12521222,33.333576,0.014160362,0.014160622,0.00077860383,0.0022232903,0.0022233033,0.00010430722,1,1,4,0
4396000,4396000,-0.011935092,0.00864574,0.002620827,0.9999897,0.002606641,0.0036774853,-0.00064572383,-0.04099289,0.024276083,0.008703336,0.0059691262,-0.016946202,0.001598003,0.12519811,0.12519811,33.333576,0.014266151,0.014266411,0.00079745904,0.003195193,0.003195208,0.00014038336,1,1,4,0
4404000,4404000,-0.0120240105,0.008662811,0.0026311819,0.9999897,0.0026106602,0.0036900295,-0.0005847129,-0.039839115,0.024228992,0.008283852,0.0011752079,0.003826308,0.01504696,0.12518154,0.12518154,33.333576,0.014373185,0.014373468,0.00081656507,0.0043567577,0.0043567773,0.00018153203,1,1,4,0
4420000,4420000,-0.012185116,0.00868298,0.0026408457,0.9999897,0.0025905976,0.0036983595,-0.00056756614,-0.039257377,0.022858579,0.007073718,0.0019744234,0.0024948886,0.0013316115,0.1251418,0.1251418,33.333576,0.0145911155,0.01459141,0.0008554299,0.0072242944,0.007224327,0.00027931633,1,1,4,0
4428000,4428000,-0.012259064,0.008683727,0.0026397726,0.99998957,0.0026038536,0.0037052785,-0.000598228,-0.03905165,0.022421831,0.006846802,0.0035722302,0.0023616897,-0.00785634,0.12511913,0.12511913,33.333576,0.014701999,0.014702308,0.00087519054,0.008941202,0.008941241,0.00033582823,1,1,4,0
4436000,4436000,-0.012330196,0.008683262,0.0026394723,0.9999896,0.002633798,0.0036774313,-0.00057472073,-0.03905445,0.022763593,0.007184275,0.007700127,-0.0062936307,0.005725859,0.125095,0.125095,33.333576,0.0148141645,0.014814479,0.00089518254,0.010873497,0.010873545,0.00039758458,1,1,4,0
4444000,4444000,-0.012400811,0.008687371,0.0026422932,0.9999898,0.002647833,0.00363676,-0.00052936043,-0.039323695,0.023660524,0.0072951852,0.0037056473,-0.009489348,0.011185253,0.1250697,0.1250697,33.33357,0.014927598,0.014927924,0.0009154151,0.012988763,0.012988822,0.00046424867,1,1,4,0
4460000,4460000,-0.012545799,0.008695109,0.0026412152,0.9999898,0.0027625114,0.003559807,-0.0004927712,-0.039754517,0.022756282,0.0067064534,0.015822884,-0.005228216,0.003861632,0.12501724,0.12501724,33.333553,0.015158327,0.015158662,0.00095650717,0.017762583,0.017762657,0.00061324774,1,1,4,0
4468000,4468000,-0.012618018,0.008692656,0.0026412297,0.9999896,0.0027653107,0.0036129924,-0.000471654,-0.040121585,0.022803387,0.007028513,0.0009090246,0.013946436,0.00506016,0.12499096,0.12499096,33.333546,0.015275622,0.015275953,0.0009773729,0.020435875,0.020435968,0.00069540937,1,1,4,0
4476000,4476000,-0.012691512,0.0086922115,0.0026414255,0.9999896,0.0027470556,0.0036014272,-0.00052096375,-0.040411856,0.023179859,0.0068327133,-0.0042841705,-0.0022988452,-0.012516758,0.12496531,0.12496531,33.333538,0.015394175,0.015394508,0.0009984979,0.023337174,0.023337295,0.00078285113,1,1,4,0
4484000,4484000,-0.012766432,0.0086920755,0.0026439251,0.99998987,0.0027343787,0.0035523986,-0.0004958437,-0.040665057,0.022997042,0.0074599693,-0.0029526616,-0.011619762,0.006125383,0.12494079,0.12494079,33.33353,0.01551403,0.0155143365,0.0010198285,0.026421724,0.02642186,0.0008751533,1,1,4,0
4500000,4500000,-0.012918012,0.008691059,0.0026469864,0.9999899,0.002732466,0.0035402046,-0.00045882195,-0.041154113,0.023120547,0.0065270006,-0.00028927627,0.00063064636,-0.0023968169,0.12489749,0.12489749,33.333515,0.015757494,0.015757848,0.0010632222,0.033239853,0.033240054,0.0010756812,1,1,4,0
4508000,4508000,-0.013098016,0.008734186,0.0026463096,0.9999899,0.0027554056,0.0035302057,-0.0004614737,-0.028347462,0.017747141,0.006493912,0.005969181,-0.0018992926,-0.0007989133,100.0,100.0,25.0001,0.015881147,0.015881505,0.0005214162,25.0,25.0,0.0011832039,1,1,6,0
4516000,4516000,-0.013065762,0.008689229,0.0026445608,0.9999901,0.0027181346,0.0035070172,-0.00047568724,-0.02831067,0.018056285,0.0062749377,-0.00907773,-0.005228165,-0.0037284626,100.0016,100.0016,25.000095,0.016006086,0.016006457,0.00053210056,25.000109,25.000109,0.0012959278,1,1,6,0
4524000,4524000,-0.013030471,0.008647076,0.0026416972,0.99999017,0.0026947788,0.0034881167,-0.0004782396,-0.028697887,0.01864924,0.006081993,-0.005615564,-0.0041630487,-0.00079888507,100.0064,100.0064,25.000092,0.016132295,0.016132671,0.0005428981,25.00042,25.00042,0.0014137496,1,1,6,0
4540000,4540000,-0.012964738,0.008558233,0.0026450583,0.9999901,0.0026894563,0.0035317724,-0.0004361697,-0.029759536,0.018021315,0.007444794,-0.0075668273,0.009320741,0.0049159243,100.0256,100.0256,25.000084,0.00997928,0.009979642,0.00012058045,25.001062,25.001062,0.0016643151,1,1,6,0
4548000,4548000,-0.012935465,0.008511228,0.002653884,0.99999,0.0027050825,0.0035753527,-0.00037389048,-0.030380718,0.017809551,0.0076734396,-0.0010420252,0.0053261286,0.012239559,100.04,100.04,25.00008,0.009982189,0.00998252,0.00012290973,25.00165,25.00165,0.0017976491,1,1,6,0
4556000,4556000,-0.012903649,0.008458302,0.0026872726,0.99998987,0.0027286909,0.0035885153,-0.00037394048,-0.030576713,0.01786542,0.00819391,0.0009552684,-0.0023971826,-0.0033398843,100.0,100.0,25.000027,0.009981141,0.0099716475,0.00012520564,1e-06,1e-06,1e-06,1,1,6,0
4564000,4564000,-0.012871235,0.008408811,0.00272161,0.9999894,0.002813194,0.003624179,-0.00037829342,-0.030995084,0.018377678,0.008004817,0.016665477,0.0042555523,-0.0044047297,100.0,100.0,25.000027,0.009984074,0.009974587,0.00012759281,7.358436e-05,7.364514e-05,9.181951e-06,1,1,6,0
4580000,4580000,-0.0128126135,0.00830505,0.0027745648,0.9999893,0.0028305112,0.0036496331,-0.00039106308,-0.032001015,0.017689677,0.006764871,0.0017516821,-0.0034676965,-0.00041037603,100.0,100.0,25.000027,0.009990018,0.009980527,0.00013245913,0.0006062913,0.0006068369,2.7179845e-05,1,1,6,0
4588000,4588000,-0.0127886105,0.008250913,0.0027949277,0.99998915,0.0028836762,0.0036314034,-0.00040473268,-0.032751225,0.017665468,0.0069476133,0.008675888,-0.009459808,-0.006802023,100.0,100.0,25.000027,0.0099930465,0.009983537,0.00013491944,0.001061667,0.001062632,3.6991627e-05,1,1,6,0
4596000,4596000,-0.0127690425,0.008198323,0.0028141355,0.99998915,0.002868262,0.003656747,-0.0004498838,-0.033292826,0.01812645,0.0068359803,-0.008501309,0.0013261623,-0.014791582,100.0,100.0,25.000027,0.009996107,0.00998658,0.00013739394,0.0016457443,0.0016472491,4.7375113e-05,1,1,6,0
4604000,4604000,-0.012750618,0.008147754,0.002829535,0.9999891,0.002810035,0.0037143058,-0.00047071488,-0.03327631,0.017919496,0.006152571,-0.019287298,0.009315464,-0.008799384,100.0,100.0,25.000027,0.0099992,0.009989641,0.00013989725,0.002363457,0.0023656292,5.8304246e-05,1,1,6,0
4620000,4620000,-0.012718409,0.008038136,0.0028485276,0.99998873,0.0027535409,0.00384726,-0.0004733667,-0.03377722,0.017053535,0.0053938306,-0.009433532,0.01584023,-0.0018753547,100.0,100.0,25.000027,0.010005419,0.009995854,0.0001450092,0.0041720923,0.004175951,8.177394e-05,1,1,6,0
4628000,4628000,-0.012704516,0.007979862,0.0028498748,0.9999887,0.0027942555,0.0038431736,-0.00041933198,-0.034343958,0.0167859,0.0049859383,0.0052139037,-0.006264056,0.00997583,100.0,100.0,25.000027,0.010008584,0.009999016,0.00014757623,0.005272717,0.005277603,9.436091e-05,1,1,6,0
4636000,4636000,-0.012694779,0.007925782,0.0028453819,0.9999886,0.002761467,0.003871556,-0.0004266037,-0.03457212,0.017923934,0.004043143,-0.013161974,0.0017252851,-0.0054705837,100.0,100.0,25.000027,0.010011791,0.010002213,0.00015015458,0.0064893933,0.0064954152,0.00010747519,1,1,6,0
4644000,4644000,-0.012686054,0.007881393,0.002833344,0.99998844,0.0027512228,0.003925848,-0.00045083062,-0.03468204,0.018804332,0.0035299566,-0.007569278,0.008117084,-0.0097315265,100.0,100.0,25.000027,0.010015006,0.010005423,0.0001527719,0.007851889,0.007859185,0.00012113714,1,1,6,0
4660000,4660000,-0.012680396,0.007810953,0.0028016174,0.99998796,0.0028380754,0.0040103192,-0.00032634268,-0.03553861,0.019630535,0.0036029571,0.0025505617,0.0049211546,0.01077492,100.0,100.0,25.000027,0.010021526,0.010011929,0.00015808569,0.010956485,0.010966686,0.00015014414,1,1,6,0
4668000,4668000,-0.012684823,0.007781066,0.0027854857,0.99998784,0.0028804266,0.004006723,-0.00028084332,-0.035609405,0.019515136,0.0035655526,0.0053470563,-0.0065302486,0.0077122417,100.0,100.0,25.000027,0.010024835,0.010015239,0.00016075712,0.012702442,0.012714277,0.00016544966,1,1,6,0
4676000,4676000,-0.012693783,0.0077533005,0.0027675,0.9999879,0.0029214197,0.0039661257,-0.00022894453,-0.03569858,0.019558247,0.0033864744,0.0049474956,-0.015851531,0.009309877,100.000015,100.000015,25.000027,0.01002817,0.010018574,0.00016345666,0.0145771485,0.014590739,0.00018137397,1,1,6,0
4684000,4684000,-0.0127119925,0.007731261,0.0027452912,0.99998766,0.0029033287,0.004042112,-0.0002301588,-0.036932666,0.020173123,0.0026509005,-0.0098330565,0.013176948,-0.0041391808,100.00003,100.00003,25.000027,0.010031529,0.010021926,0.00016618802,0.016560638,0.016576089,0.00019775581,1,1,6,0
4700000,4700000,-0.012788299,0.0077076927,0.0026972236,0.99998695,0.0030021998,0.0041431985,-0.00014178822,-0.0389592,0.021013618,0.00339861,0.0049473597,0.010114314,0.011440797,100.00006,100.00006,25.000027,0.010038314,0.010028739,0.00017172514,0.020916602,0.020936139,0.00023226303,1,1,6,0
4708000,4708000,-0.012842194,0.007707266,0.002673175,0.999987,0.0029904568,0.0041462258,-8.576168e-05,-0.038953017,0.021885065,0.0028820788,-0.00810184,-0.004799325,0.010375515,100.00008,100.00008,25.000027,0.010041764,0.01003218,0.00017452013,0.02328069,0.02330244,0.00025031794,1,1,6,0
4716000,4716000,-0.012855427,0.0076902155,0.0026431023,0.99998707,0.0029546528,0.0041529923,-5.4478893e-05,-0.03907936,0.021988118,0.0032101688,-0.013960989,-0.003734176,0.0042498675,9.9999896e-05,9.9999896e-05,20.00002,0.010045216,0.0100356145,0.00015100291,0.025789602,0.025813697,0.00026899786,1,1,6,0
4724000,4724000,-0.012876294,0.007676174,0.0026160786,0.99998677,0.0029923692,0.0042072353,-3.490285e-05,-0.039288186,0.021816306,0.0034753198,0.0045481557,0.008250123,0.001453731,0.00010165046,0.000101652004,20.00002,0.010048716,0.010039118,0.00015341539,0.028438011,0.028464591,0.00028811806,1,1,6,0
4740000,4740000,-0.01293769,0.0076580984,0.0025558756,0.9999864,0.0029826674,0.0042772708,5.1969422e-05,-0.039368216,0.022301583,0.0032089064,-0.0075150253,0.004210742,0.0048621525,0.00011624021,0.00011625531,20.00002,0.009944828,0.009935522,9.5683914e-05,0.03381192,0.033843335,0.00032815142,1,1,6,0
4748000,4748000,-0.012978054,0.0076569756,0.0025231645,0.9999863,0.0030189576,0.004285807,5.0064406e-05,-0.039476898,0.02236701,0.0025365467,0.009262904,-0.003112961,-0.00033100738,0.00013025827,0.0001302864,20.00002,0.009946646,0.009937347,9.7163516e-05,0.036805514,0.03683971,0.00034902504,1,1,6,0
4756000,4756000,-0.013025671,0.0076582273,0.0024863617,0.9999861,0.003039207,0.00430551,6.004455e-05,-0.039875284,0.02198331,0.0024287344,0.0054013096,-0.00018348478,0.0027316748,0.00014949513,0.00014954113,20.00002,0.00994847,0.009939198,9.865673e-05,0.039948687,0.0399858,0.00037024703,1,1,6,0
4764000,4764000,-0.01304958,0.007645517,0.0024479704,0.9999859,0.003067098,0.004333376,1.6283353e-05,-0.039787203,0.021270998,0.0023381545,0.0075318287,0.0019470705,-0.0105841495,0.00010003896,0.00010003897,20.00002,0.00044689118,0.00044681184,9.908104e-05,1e-06,1e-06,1.0031126e-06,1,1,6,0
4780000,4780000,-0.013087032,0.0076172547,0.0023672262,0.99998736,0.0029322547,0.0040959143,-2.6554222e-05,-0.03847409,0.021522732,0.0021262476,-0.0011702813,0.006750171,-0.004724955,0.00010004108,0.000100041085,20.00002,0.00044707526,0.0004469963,0.0001021347,1.8096955e-05,1.8097526e-05,1.7328694e-05,1,1,6,0
4788000,4788000,-0.013098394,0.0076097935,0.0023288599,0.9999883,0.002831476,0.0039310204,-2.3122513e-05,-0.03843858,0.022093318,0.0024766233,-0.009159611,-0.0061661457,0.0014003653,0.00010004427,0.00010004428,20.00002,0.000447188,0.00044710946,0.00010367874,2.760668e-05,2.7608414e-05,2.5920297e-05,1,1,6,0
4796000,4796000,-0.013109281,0.0076046926,0.0022902526,0.99998903,0.0027778496,0.0037826474,-2.9380753e-05,-0.03800592,0.022078604,0.0021682985,0.0028243759,-0.0019050394,-0.0008632887,0.00010005052,0.00010005053,20.00002,0.000447315,0.0004472366,0.00010523455,3.774857e-05,3.7751855e-05,3.4798853e-05,1,1,6,0
4804000,4804000,-0.013114462,0.0076004993,0.0022496656,0.9999896,0.002748066,0.0036235524,-1.7084041e-05,-0.037439864,0.021989297,0.0018333436,0.008949443,-0.004434983,0.003930286,0.00010006122,0.000100061225,20.00002,0.00044745547,0.00044737727,0.00010680204,4.8520546e-05,4.8525086e-05,4.3963173e-05,1,1,6,0
4820000,4820000,-0.013110855,0.0075840675,0.0021659797,0.9999908,0.002696198,0.003337909,-6.153323e-05,-0.036633156,0.021137541,0.0017094039,0.0036230632,0.0014242618,-0.012048622,0.00010010209,0.000100102094,20.00002,0.0004477782,0.00044770027,0.000109971756,7.196844e-05,7.197757e-05,6.3150095e-05,1,1,6,0
4828000,4828000,-0.013103049,0.0075743953,0.0021233668,0.99999154,0.0026226148,0.0031883924,-8.24771e-05,-0.036119282,0.021267695,0.0013965103,-0.0014369187,-0.0016383836,-0.004059148,0.00010013562,0.00010013564,20.00002,0.00044796016,0.00044788228,0.00011157394,8.4682266e-05,8.469434e-05,7.3172996e-05,1,1,6,0
4836000,4836000,-0.013092682,0.007567263,0.0020760389,0.9999922,0.0025729307,0.0030190481,-7.0475406e-05,-0.03623344,0.021464447,0.0005448612,0.0046883873,-0.006431928,0.0043298276,0.00010018036,0.0001001804,20.00002,0.00044815594,0.00044807838,0.00011318764,9.8097145e-05,9.811055e-05,8.348087e-05,1,1,6,0
4844000,4844000,-0.013083518,0.0075581875,0.0020234156,0.99999267,0.002512404,0.0028959021,-5.457914e-05,-0.03661693,0.020842059,4.3010805e-05,0.0021582951,0.0052857776,0.005395087,0.00010023833,0.000100238365,20.00002,0.0004483655,0.00044828808,0.00011481313,0.00011209652,0.00011211179,9.407531e-05,1,1,6,0
4860000,4860000,-0.013393189,0.0075402358,0.0016784668,0.9999937,0.0024454677,0.0025828118,-6.879912e-05,-0.03527459,0.020383244,0.00046214758,0.007218108,-0.007897167,-0.00086343853,2.0,2.0,1.0,0.00044882565,0.00044874853,0.00011809856,0.00014217426,0.00014219603,0.00011612433,1,1,9,0
4868000,4868000,-0.013369038,0.007523381,0.0016174316,0.9999942,0.0024024455,0.0024258674,-4.3867338e-05,-0.034749076,0.019890621,0.000467586,0.00708475,-0.0027037465,0.008058275,2.0,2.0,1.0,0.00044907624,0.00044899937,0.000119758515,0.00015819182,0.00015821808,0.00012757751,1,1,9,0
4876000,4876000,-0.013339316,0.0075034774,0.0015563965,0.9999948,0.002310095,0.0022707058,-9.439514e-05,-0.034309268,0.019580718,0.0006545286,-0.0050325356,-0.0021708612,-0.010717056,2.0,2.0,1.0,0.00044934047,0.00044926378,0.00012143029,0.00017490027,0.000174931,0.00013931638,1,1,9,0
4884000,4884000,-0.013301152,0.0074818623,0.0015258789,0.9999953,0.0022549618,0.0021091157,-0.00012790166,-0.032906525,0.019529136,0.00027641765,0.004421929,-0.003635614,-0.00632273,2.0,2.0,1.0,0.00044961835,0.00044954187,0.0001231136,0.00019239495,0.00019243149,0.00015134261,1,1,9,0
4900000,4900000,-0.013192096,0.0074353246,0.0014343262,0.999996,0.0021221319,0.0018775662,-0.00016043252,-0.031289097,0.01864526,-2.9067713e-05,-0.004765969,0.00928143,-0.0045917765,2.0,2.0,1.0,0.0004502154,0.00045013928,0.00012651511,0.00022944575,0.00022949566,0.00017625505,1,1,9,0
4908000,4908000,-0.013122671,0.0074069537,0.001373291,0.9999966,0.0019694092,0.0017410845,-0.00019146314,-0.029575525,0.01883404,2.2850436e-05,-0.019812835,0.0030232116,-0.005656878,2.0,2.0,1.0,0.0004505344,0.00045045838,0.00012823328,0.00024903627,0.00024909133,0.00018913874,1,1,9,0
4916000,4916000,-0.013036981,0.0073787705,0.0013122559,0.99999696,0.0018513697,0.0016131415,-0.00022996153,-0.028123843,0.01852561,-0.00043595379,-0.011157171,0.0052870032,-0.0075214123,2.0,2.0,1.0000001,0.00045086697,0.000450791,0.00012996313,0.00026936014,0.00026941887,0.0002023076,1,1,9,0
4924000,4924000,-0.012941165,0.007346231,0.0012817383,0.99999744,0.0017292005,0.0014840971,-0.00025349096,-0.027347455,0.018001134,-0.0005183408,-0.012222238,0.0051539517,-0.003792745,2.0,2.0,1.0000004,0.00045121287,0.0004511371,0.00013170438,0.0002904483,0.00029051377,0.00021576477,1,1,9,0
4940000,4940000,-0.012720427,0.0072775627,0.001159668,0.99999803,0.0015741261,0.0011743993,-0.00021515148,-0.025697814,0.017507475,-0.0002993916,-0.0009802723,-0.006911242,0.010395662,2.0000007,2.0000007,1.0000008,0.00044815667,0.00044808543,9.7052696e-05,0.0003305794,0.0003306448,0.00024353761,1,1,9,0
4948000,4948000,-0.012598049,0.0072369236,0.0011291504,0.9999984,0.0015012784,0.0009969247,-0.00018889141,-0.024707207,0.016902955,9.5332885e-05,-0.0020458193,-0.008908746,0.008930815,2.0000012,2.0000012,1.0000011,0.00044835717,0.000448286,9.832334e-05,0.0003533793,0.0003534506,0.00025785278,1,1,9,0
4956000,4956000,-0.012465163,0.0071927276,0.0010681152,0.99999857,0.0014765373,0.0008380322,-0.00018334827,-0.023594962,0.016549736,-0.0004514078,0.009538882,-0.005180104,0.0037378902,2.0000017,2.0000017,1.0000013,0.00044856672,0.00044849567,9.960232e-05,0.0003769086,0.00037698646,0.00027245455,1,1,9,0
4964000,4964000,-0.012322538,0.007142519,0.0010375977,0.99999875,0.0014115534,0.0007280521,-0.00015151071,-0.022630803,0.015484079,-0.0010943522,-0.0009806461,0.0061381967,0.010262579,2.0000021,2.0000021,1.0000015,0.00044878543,0.00044871436,0.00010088965,0.00040109988,0.00040118396,0.00028734186,1,1,9,0
4980000,4980000,-0.012010276,0.007036548,0.00091552734,0.99999917,0.001223688,0.00044869553,-0.00017223443,-0.021084884,0.015715832,-0.00075637846,-0.0101690525,-0.0011794881,0.0041369037,2.000003,2.000003,1.0000024,0.0004489649,0.0004488943,0.0001034886,0.0004471112,0.00044720515,0.00031564603,1,1,9,0
4988000,4988000,-0.011845104,0.006981214,0.00088500977,0.9999993,0.0011951069,0.00036984647,-0.00021779873,-0.020592738,0.014914309,-0.0015768552,0.0067419116,0.011071135,-0.009178845,2.0000036,2.0000036,1.0000029,0.0004492097,0.00044913925,0.00010480059,0.00047353256,0.0004736305,0.0003313315,1,1,9,0
4996000,4996000,-0.011674899,0.0069220127,0.0008239746,0.9999993,0.0011603858,0.000261639,-0.00025473422,-0.020152776,0.0147700375,-0.001465988,0.0047444557,0.0028151628,-0.0070482967,2.0000043,2.0000043,1.0000033,0.0004494635,0.00044939318,0.00010612079,0.0005006363,0.00050073536,0.0003472998,1,1,9,0
5004000,5004000,-0.011500257,0.006861877,0.00076293945,0.99999946,0.0010961792,0.00015495958,-0.00027606997,-0.019722046,0.014521014,-0.001340003,-0.0031116775,0.0022823822,-0.0031866538,2.0000052,2.0000052,1.0000038,0.00044972642,0.00044965604,0.00010744937,0.00052829785,0.00052840495,0.00036355987,1,1,9,0
5020000,5020000,-0.011131221,0.0067418725,0.0006713867,0.9999995,0.0010172415,-3.0136302e-05,-0.00025428107,-0.018112695,0.014335959,-0.0015251314,0.0062093516,0.007875261,0.002006493,2.0000072,2.0000072,1.0000051,0.00045027919,0.00045020896,0.00011013131,0.00058605126,0.000586171,0.000396933,1,1,9,0
5028000,5028000,-0.010934664,0.0066763754,0.00064086914,0.9999995,0.0009935203,-0.00011754677,-0.000250026,-0.017011466,0.013358619,-0.0013306926,0.0055437204,0.0042800023,0.0030717696,2.000008,2.000008,1.0000058,0.0004505691,0.00045049918,0.00011148454,0.00061605545,0.0006161811,0.00041404716,1,1,9,0
5036000,5036000,-0.010728843,0.0066020866,0.000579834,0.9999995,0.00096648163,-0.00016759257,-0.00027323666,-0.01599112,0.012113289,-0.001518689,0.004212243,0.012668932,-0.0038525783,2.000009,2.000009,1.0000066,0.0004508678,0.000450798,0.000112846086,0.0006470042,0.0006471427,0.00043145235,1,1,9,0
5044000,5044000,-0.010515666,0.006519423,0.0005493164,0.9999995,0.0009376831,-0.0002718631,-0.0002590036,-0.01525776,0.011286572,-0.0017528974,0.0032800494,-0.0018449073,0.0054685404,2.0000105,2.0000105,1.0000074,0.0004511757,0.0004511059,0.000114215945,0.00067871495,0.00067886367,0.00044914067,1,1,9,0
5060000,5060000,-0.010067734,0.006350623,0.00045776367,0.9999995,0.0008360671,-0.0005205585,-0.00019636063,-0.013471087,0.0110781025,-0.0019665207,0.0018154259,-0.010766089,0.00906394,2.0000134,2.0000134,1.0000093,0.00045181846,0.0004517492,0.00011698,0.00074443035,0.00074460235,0.00048537648,1,1,9,0
5068000,5068000,-0.00983215,0.0062597403,0.00039672852,0.9999995,0.00080477213,-0.0006036774,-0.00012393908,-0.012373706,0.009652503,-0.002131202,0.0011491884,0.0005529318,0.01984965,2.0000148,2.0000148,1.0000103,0.00045215295,0.00045208394,0.000118374395,0.0007786638,0.00077885005,0.00050392514,1,1,9,0
5076000,5076000,-0.009588124,0.0061603207,0.00036621094,0.9999995,0.00077552925,-0.00066473347,-9.4965304e-05,-0.011240506,0.008947164,-0.0016233885,0.0011494849,0.0050804503,0.00893075,2.0000165,2.0000165,1.0000114,0.00045249655,0.00045242778,0.000119777076,0.0008136118,0.00081380655,0.00052275346,1,1,9,0
5084000,5084000,-0.009334402,0.0060555893,0.00030517578,0.9999995,0.00073231995,-0.00077039003,-4.6117904e-05,-0.010117329,0.007972511,-0.0014837789,-0.002845233,-0.007036546,0.013857613,2.0000184,2.0000184,1.0000126,0.00045284885,0.0004527803,0.00012118811,0.00084955525,0.00084976305,0.0005418708,1,1,9,0
5100000,5100000,-0.008795686,0.0058412175,0.00024414062,0.9999994,0.0006622228,-0.0009340028,-9.646874e-07,-0.0066066715,0.008499995,-0.001703805,-0.003244726,0.002684073,0.005734863,2.0000224,2.0000224,1.0000153,0.00045358046,0.00045351233,0.00012403511,0.0009232233,0.0009234468,0.0005809531,1,1,9,0
5108000,5108000,-0.008506196,0.0057381243,0.00018310547,0.99999934,0.0006424901,-0.0010123034,8.751989e-05,-0.005552622,0.008048741,-0.0022457696,0.0016826054,-0.0030414886,0.023578055,2.0000248,2.0000248,1.0000167,0.0004539594,0.0004538913,0.0001254711,0.0009617605,0.000961996,0.0006009258,1,1,9,0
5116000,5116000,-0.008210186,0.005629908,0.00015258789,0.9999993,0.00061544304,-0.0010996555,8.729324e-05,-0.004433755,0.0072223432,-0.0025430105,-0.00058128784,-0.006237153,0.0013406242,2.0000272,2.0000272,1.0000182,0.0004543473,0.00045427924,0.00012691515,0.0010012266,0.0010014707,0.0006211822,1,1,9,0
5124000,5124000,-0.007803169,0.0055161086,9.1552734e-05,0.99999917,0.00058256375,-0.001128591,0.000108112916,-0.016757756,0.0064210887,-0.003088304,-0.002445181,0.007478323,0.0065338505,100.0,100.0,1.0000199,0.00045474392,0.0004546762,0.00012836746,25.0,25.0,0.0006417248,1,1,11,0
5140000,5140000,-0.0074031814,0.005266859,3.0517578e-05,0.9999991,0.0005288651,-0.0012483897,0.00012259431,-0.014643593,0.0041912105,-0.002339339,-0.0033867923,-0.0012576077,0.006877487,100.0064,100.0064,1.0000234,0.00045066635,0.00045060087,0.00010259277,25.000017,25.000017,0.00068365544,1,1,11,0
5148000,5148000,-0.007199953,0.005134124,-3.0517578e-05,0.9999991,0.0005132263,-0.0012803869,0.00020310962,-0.014430894,0.0038301405,-0.0028845542,0.0010076815,0.0036695176,0.021524854,100.0144,100.0144,1.0000253,0.00045094162,0.00045087625,0.00010374387,25.000027,25.000027,0.0007050482,1,1,11,0
5156000,5156000,-0.006999708,0.0050004097,-6.1035156e-05,0.99999887,0.0005256131,-0.0013544932,0.00027907276,-0.014286035,0.0036215805,-0.0033670287,0.007665732,-0.007649346,0.020326385,100.0256,100.0256,1.0000273,0.0004512236,0.00045115832,0.00010490131,25.000038,25.000038,0.0007267262,1,1,11,0
5164000,5164000,-0.006800942,0.004863517,-0.00012207031,0.99999875,0.0005319984,-0.0014542585,0.00027161156,-0.013483108,0.0028865635,-0.0040536006,0.0058015753,-0.014839836,-0.00057947723,100.04,100.04,1.0000294,0.00045151217,0.000451447,0.00010606519,25.00005,25.00005,0.00074869423,1,1,11,0
5180000,5180000,-0.0063952007,0.004583428,-0.00021362305,0.9999987,0.00045520574,-0.0015661216,0.0002865491,-0.011830933,0.0020928395,-0.002478116,-0.010444293,-0.0013908719,0.013801721,100.00012,100.00012,1.0000335,0.00045210906,0.00045204328,0.00010841227,0.039936103,0.039936103,0.0007780513,1,1,11,0
5188000,5188000,-0.006189701,0.004442679,-0.00024414062,0.9999987,0.00040614247,-0.0015821183,0.00029407153,-0.011100587,0.0024036334,-0.002021087,-0.0089793345,0.0039353934,0.0030159,100.00016,100.00016,1.000036,0.0004524175,0.00045235173,0.00010959541,0.039944354,0.039944354,0.000800586,1,1,11,0
5196000,5196000,-0.005983565,0.004302789,-0.0002746582,0.9999987,0.00036622878,-0.0015948837,0.00032844438,-0.010369245,0.0018254321,-0.0026799077,-0.006981625,0.0040688114,0.009673787,100.000206,100.000206,1.0000386,0.00045273246,0.00045266675,0.000110785026,0.039953418,0.039953418,0.000823401,1,1,11,0
5204000,5204000,-0.0057739243,0.0041580503,-0.00033569336,0.9999987,0.00034299464,-0.0015826632,0.00028422262,-0.0091013,0.0009524976,-0.0029679486,-0.0031201371,0.009661206,-0.010033619,100.00025,100.00025,1.0000414,0.000453054,0.00045298846,0.00011198093,0.03996331,0.03996331,0.0008465006,1,1,11,0
5220000,5220000,-0.0053368337,0.0038616569,-0.00039672852,0.9999987,0.00034097917,-0.0016126201,0.00023155373,-0.0063748755,0.0004553263,-0.002626318,-0.0003236812,0.00087308476,0.005945417,100.00037,100.00037,1.0000472,0.00045371687,0.00045365156,0.00011439227,0.039985545,0.03998555,0.00089354854,1,1,11,0
5228000,5228000,-0.0051110894,0.0037109219,-0.00045776367,0.9999986,0.00032326378,-0.0015799117,0.00025182267,-0.0055265212,-0.000542684,-0.0026124355,-0.0024538254,0.012990607,0.0059453845,100.00043,100.00043,1.0000503,0.00045405817,0.00045399298,0.00011560749,0.039997894,0.039997898,0.00091749855,1,1,11,0
5236000,5236000,-0.0048870603,0.003553203,-0.00048828125,0.99999875,0.00028036203,-0.0015758969,0.0002658268,-0.0054542264,-0.0014817346,-0.002011431,-0.008978322,0.005267589,0.0043476243,100.000496,100.000496,1.0000535,0.0004544061,0.00045434106,0.00011682919,0.040011115,0.04001112,0.0009417317,1,1,11,0
5244000,5244000,-0.00466567,0.0033925038,-0.0005187988,0.9999987,0.00026118974,-0.0016139905,0.00030985434,-0.00471307,-0.0017724595,-0.0015798127,-0.003252189,-0.005784204,0.011804501,100.00057,100.00057,1.000057,0.0004547605,0.00045469558,0.00011805731,0.040025152,0.040025156,0.00096624903,1,1,11,0
5260000,5260000,-0.0042169318,0.0030651104,-0.000579834,0.9999986,0.00024939765,-0.0015818956,0.00042190298,-0.0034877835,-0.0030213732,-0.0010945564,-0.00365222,0.0047359862,0.015000184,100.00073,100.00073,0.5000161,0.00045548918,0.00045542442,0.00012053278,0.040056083,0.04005609,0.0010161103,1,1,11,0
5268000,5268000,-0.00399427,0.0028985012,-0.00064086914,0.9999987,0.00024931892,-0.0015326946,0.00045580385,-0.0026866384,-0.0030762102,-0.0017386078,0.0010080956,0.014589825,0.00914119,100.000824,100.000824,0.50001806,0.0004558631,0.00045579846,0.000121780125,0.040072855,0.040072866,0.0010414739,1,1,11,0
5276000,5276000,-0.0037736339,0.0027354767,-0.0007019043,0.9999988,0.0002611023,-0.0014599438,0.00047709057,-0.002775311,-0.00255886,-0.0017333275,0.0038048923,0.020049412,0.0059454623,100.000916,100.000916,0.50002015,0.00045624387,0.00045617923,0.0001230339,0.040090565,0.04009058,0.0010671203,1,1,11,0
5284000,5284000,-0.0035536608,0.0025786078,-0.00076293945,0.99999887,0.00026605566,-0.0014234043,0.00049689756,-0.0021367583,-0.00221534,-0.001352064,0.001940588,0.010595416,0.005545907,100.001015,100.001015,0.5000225,0.00045663098,0.00045656646,0.00012429415,0.04010905,0.040109064,0.0010930479,1,1,11,0
5300000,5300000,-0.003107202,0.0022750353,-0.0008544922,0.99999887,0.00029453545,-0.0014679052,0.00041602182,-0.0012156898,-0.0019329606,-0.00069488975,0.008732504,-0.0060490575,-0.0012450481,100.00123,100.00123,0.5000275,0.00045742476,0.00045736044,0.00012683388,0.040148985,0.040148996,0.001145745,1,1,11,0
5308000,5308000,-0.0028763018,0.0021284448,-0.00088500977,0.9999989,0.00027359938,-0.0014342484,0.0003851,0.00047472547,-0.0018204426,-0.0003669514,-0.0049826596,0.00886447,-0.0072371936,100.00134,100.00134,0.5000303,0.00045783145,0.0004577672,0.00012811353,0.040170416,0.040170427,0.0011725092,1,1,11,0
5316000,5316000,-0.0026365765,0.0019813885,-0.00091552734,0.999999,0.0003324643,-0.0013984021,0.00037041708,0.0015082471,-0.0024489656,-0.00016074283,0.014857641,0.009130421,-0.003242717,100.001465,100.001465,0.5000332,0.00045824455,0.0004581804,0.00012939965,0.040192854,0.040192865,0.0011995662,1,1,11,0
5324000,5324000,-0.0023949263,0.0018332489,-0.0009765625,0.99999887,0.00042747066,-0.001392373,0.00037455696,0.0014835247,-0.0025454368,-0.00072292954,0.02377951,0.0014070675,0.0014178683,100.00159,100.00159,0.5000363,0.00045866397,0.0004585999,0.000130692,0.040216036,0.040216055,0.0012269056,1,1,11,0
5340000,5340000,-0.0019584692,0.0015646993,-0.0010375977,0.99999875,0.00054488995,-0.0014783968,0.00025930867,0.00050718687,-0.0020630509,-0.0015705359,0.013825368,-0.013152037,-0.020354904,0.000102574784,0.00010257479,0.5000431,0.00045395302,0.00045389018,0.00010952568,0.040254638,0.040254664,0.0012824287,1,1,11,0
5348000,5348000,-0.0017437908,0.0014393063,-0.0010986328,0.9999988,0.00055797526,-0.0014438747,0.0002192002,0.0010157491,-0.0018222228,-0.0025225158,0.0033056764,0.0076206103,-0.0037101498,0.00011030174,0.00011030176,0.50004673,0.00045427104,0.00045420835,0.0001106007,0.040279843,0.04027987,0.0013106157,1,1,11,0
5356000,5356000,-0.0015274854,0.0013134965,-0.001159668,0.99999887,0.00054954755,-0.0014133719,0.00017479566,0.0017559517,-0.0023963056,-0.0025311192,-0.0021539845,0.0064222114,-0.004775473,0.00012318502,0.00012318505,0.5000506,0.00045459403,0.00045453146,0.00011168092,0.040305905,0.040305935,0.0013390937,1,1,11,0
5364000,5364000,-0.0013055356,0.001189065,-0.0011901855,0.9999989,0.0005967979,-0.0013693372,0.0001507104,0.0029171342,-0.0020226482,-0.0018955418,0.01169483,0.009618191,0.0002845459,0.00014122901,0.00014122904,0.50005466,0.0004549225,0.0004548599,0.00011276654,0.04033283,0.040332865,0.0013678549,1,1,11,0
5380000,5380000,-0.00084826816,0.0009504237,-0.0012817383,0.999999,0.0006877807,-0.0013159809,7.157903e-05,0.0043764184,-0.0021269433,-0.0012638486,0.005303171,0.00016453848,-0.0039765527,0.00019281766,0.00019281775,0.5000634,0.00045559448,0.00045553196,0.00011495336,0.04038948,0.040389523,0.0014262199,1,1,11,0
5388000,5388000,-0.0006211085,0.0008364966,-0.0013427734,0.999999,0.0007085425,-0.0013079271,7.08207e-05,0.0050072125,-0.0024858608,-0.0021265387,0.0049040085,0.00016475646,0.006143437,0.00016290296,0.00016290302,0.5000659,0.00045570332,0.0004556401,0.00011605457,0.020104233,0.020104244,0.0014046893,1,1,11,0
5396000,5396000,-0.0003952578,0.000720951,-0.001373291,0.99999887,0.0007654514,-0.0012843523,1.3856279e-06,0.0050501353,-0.0029510753,-0.002645485,0.013830156,0.003896798,-0.01103392,0.00018216927,0.00018216934,0.5000707,0.0004560509,0.0004559879,0.00011716117,0.020123648,0.020123662,0.001433801,1,1,11,0
5404000,5404000,-0.00017024737,0.0006055708,-0.0014343262,0.99999887,0.00079952984,-0.0012667999,-1.1121861e-05,0.0057461015,-0.003210137,-0.0028893559,0.008104334,0.0022990017,0.0032140499,0.00020401429,0.00020401436,0.50007564,0.00045640368,0.00045634064,0.00011827301,0.020144042,0.020144058,0.0014631955,1,1,11,0
5420000,5420000,0.00027775907,0.00038525215,-0.001373291,0.999999,0.00074935646,-0.0012567623,-3.5351448e-05,0.006141001,-0.0025727567,-0.003257357,-0.006542748,-0.00076348364,0.00414611,0.0002554539,0.00025545398,0.48047385,0.00045712455,0.0004570617,0.000120512355,0.020187827,0.020187847,0.0015227896,1,1,11,0
5428000,5428000,0.0004991837,0.0002799757,-0.0013427734,0.999999,0.00077901105,-0.0012372344,-4.3720604e-05,0.006605095,-0.00295869,-0.0032810555,0.0069061317,0.0025655495,0.004279276,0.0002850558,0.0002850559,0.4804793,0.00045749248,0.0004574296,0.00012163986,0.020211153,0.020211173,0.0015529954,1,1,11,0
5436000,5436000,0.0007219845,0.00017772414,-0.0013122559,0.99999887,0.0008209695,-0.0012484244,-8.1972496e-05,0.007511541,-0.0024568164,-0.003201496,0.009968426,-0.005158012,-0.0031774743,0.00031725087,0.000317251,0.480485,0.00045786562,0.00045780273,0.0001227727,0.020235388,0.02023541,0.0015834895,1,1,11,0
5444000,5444000,0.00094911724,8.1283055e-05,-0.0012817383,0.99999887,0.0008634653,-0.0012333529,-0.00011119798,0.008444227,-0.002162634,-0.00392646,0.010101318,0.0013668493,-0.00091385597,0.00035204316,0.00035204334,0.48049092,0.00045824377,0.00045818102,0.00012391084,0.020260556,0.020260578,0.0016142577,1,1,11,0
5460000,5460000,0.0014072299,-8.843475e-05,-0.0012512207,0.99999887,0.000897378,-0.0012081913,-0.00020290603,0.009641098,-0.0004950876,-0.0033548404,-0.0038805066,0.003763795,-0.011167057,0.00042943674,0.000429437,0.48050353,0.00045901554,0.0004589529,0.00012620281,0.020314105,0.020314135,0.0016766472,1,1,11,0
5468000,5468000,0.0016355364,-0.00016211126,-0.0012207031,0.999999,0.00083550037,-0.0011181735,-0.00024514977,0.009843967,-0.0004089274,-0.0027407182,-0.015998159,0.020009432,-0.004109803,0.00047204716,0.00047204748,0.4805102,0.0004594092,0.0004593465,0.00012735685,0.020342404,0.020342434,0.0017082586,1,1,11,0
5476000,5476000,0.0018633917,-0.00023412278,-0.0012207031,0.99999905,0.00083280675,-0.0010776082,-0.00032418757,0.010471303,-0.00043960765,-0.0022406029,-0.0012176371,0.0076257978,-0.013297681,0.0005172731,0.0005172735,0.48051715,0.00045980766,0.00045974486,0.00012851614,0.02037194,0.02037197,0.0017401305,1,1,11,0
5484000,5484000,0.0020916623,-0.0003014801,-0.0012512207,0.99999905,0.0008502871,-0.0010376633,-0.00035959925,0.010863575,-0.000105091916,-0.002549503,0.0038426807,0.0074925143,-0.0023786146,0.0005651198,0.0005651202,0.46239004,0.00046021113,0.0004601483,0.00012968072,0.020402443,0.02040247,0.0017722525,1,1,11,0
5500000,5500000,0.0025437945,-0.00043263444,-0.0013427734,0.99999905,0.0008850022,-0.0010024841,-0.00031009593,0.011471233,-0.00095125084,-0.0025473577,-0.0022831366,0.0053610196,0.011203544,0.0006686967,0.0006686973,0.46240476,0.0004610335,0.00046097074,0.00013202538,0.020467006,0.02046704,0.0018373858,1,1,11,0
5508000,5508000,0.0027708611,-0.0004981891,-0.001373291,0.99999917,0.000874132,-0.000991643,-0.00036187057,0.01257255,-0.0007741508,-0.0029743852,-0.003215418,0.0003011247,-0.0067728804,0.00072443835,0.000724439,0.46241254,0.00046145212,0.00046138946,0.00013320548,0.020500686,0.020500721,0.0018703773,1,1,11,0
5516000,5516000,0.0029997253,-0.0005595734,-0.0014038086,0.99999917,0.000853665,-0.00094844744,-0.00036927895,0.013043479,-0.00047002776,-0.003043228,-0.0056120674,0.008424034,0.0041460427,0.00078282313,0.00078282383,0.46242058,0.00046187572,0.000461813,0.0001343909,0.020535242,0.020535285,0.0019036507,1,1,11,0
5524000,5524000,0.0032267447,-0.00061422255,-0.0014648438,0.9999992,0.00087842037,-0.00089097256,-0.0003802218,0.013040376,0.000120165176,-0.0024994018,0.005705886,0.012019644,0.003080864,0.00084385695,0.00084385776,0.46242893,0.00046230445,0.00046224156,0.00013558166,0.020571014,0.020571062,0.0019371981,1,1,11,0
5540000,5540000,0.0036609243,-0.0007088832,-0.0015258789,0.99999917,0.00086888345,-0.0008650969,-0.0005437175,0.0135162715,-0.00048636066,-0.0024000704,-0.0041511697,-0.0019305476,-0.00569493,9.06855e-05,9.0685506e-05,0.46244657,0.00045681727,0.00045675624,0.00011720729,0.003967127,0.0039671343,0.0020051186,1,1,11,0
5548000,5548000,0.0038639023,-0.0007501419,-0.0015563965,0.99999917,0.0008937213,-0.0008046435,-0.0005283424,0.013530617,-0.0003628583,-0.0029484231,0.0073034023,0.015118989,0.008286581,9.7241194e-05,9.724121e-05,0.46245587,0.00045715828,0.00045709722,0.00011822996,0.003991218,0.0039912267,0.002039488,1,1,11,0
5556000,5556000,0.0040629273,-0.00078936806,-0.0015869141,0.99999905,0.00095420977,-0.0007918575,-0.0005820671,0.013470158,-0.00064337254,-0.0032198282,0.016225291,0.003267709,-0.009157161,0.000104309765,0.000104309795,0.44564632,0.0004575036,0.0004574425,0.000119257056,0.004016283,0.004016294,0.002074114,1,1,11,0
5564000,5564000,0.004260867,-0.0008287026,-0.0016479492,0.99999917,0.0009677416,-0.00073938916,-0.0006058053,0.014404751,-0.0008185713,-0.004437549,0.004507806,0.013254678,-0.0018330824,0.00011189543,0.000111895475,0.4456559,0.0004578528,0.0004577919,0.00012028841,0.00404235,0.0040423633,0.002109038,1,1,11,0
5580000,5580000,0.0046668774,-0.0009085106,-0.001739502,0.99999917,0.0009554862,-0.0006593463,-0.00064114353,0.01564566,-0.001138866,-0.0054658833,0.0027761373,0.009259976,-0.0059612356,0.00012863592,0.00012863598,0.4456761,0.000458564,0.00045850323,0.00012236462,0.0040976484,0.004097666,0.0021797225,1,1,11,0
5588000,5588000,0.004867462,-0.0009452459,-0.0018005371,0.99999917,0.00095372286,-0.0006503961,-0.00067724107,0.015404252,-0.0012876246,-0.0063928775,0.0007790273,0.002602238,-0.0054285424,0.00013780016,0.00013780025,0.44568667,0.00045892585,0.00045886516,0.00012340953,0.0041268263,0.0041268487,0.0022154886,1,1,11,0
5596000,5596000,0.005061534,-0.0009825488,-0.0018615723,0.99999905,0.00092998805,-0.0006347531,-0.00074141426,0.01559167,-0.0014404354,-0.0077108205,-0.004680691,0.0043333615,-0.0126191685,0.00013869739,0.00013869746,0.4456861,0.00045884273,0.0004587807,0.00012445882,0.0037658988,0.0037659209,0.002131551,1,1,11,0
5604000,5604000,0.0052549927,-0.0010187306,-0.0019226074,0.999999,0.0009832563,-0.0006400362,-0.00078036264,0.015728433,-0.0014170043,-0.0073323217,0.0146254795,-0.0008535579,-0.0064939484,0.00014797472,0.0001479748,0.4456968,0.00045921037,0.00045914834,0.00012551261,0.003795036,0.0037950615,0.0021663518,1,1,11,0
5620000,5620000,0.005627856,-0.0010790568,-0.0020446777,0.999999,0.0009778751,-0.00068767124,-0.00082857674,0.015589061,-0.00092494953,-0.006187347,0.003173138,-0.004714754,-0.0007681586,0.00016801555,0.00016801571,0.44571924,0.00045995842,0.0004598966,0.00012763297,0.0038563628,0.003856395,0.0022367532,1,1,11,0
5628000,5628000,0.005807504,-0.0011071926,-0.002105713,0.999999,0.00093799783,-0.0006709176,-0.000863873,0.015049261,-0.0014040471,-0.0057630115,-0.008544733,0.0048726224,-0.006094573,0.00017878965,0.00017878985,0.43008792,0.00046033843,0.0004602766,0.00012869989,0.0038886482,0.0038886843,0.0022723149,1,1,11,0
5636000,5636000,0.00598347,-0.0011377626,-0.002166748,0.999999,0.0009550057,-0.0006385467,-0.0008893596,0.015744554,-0.0016636647,-0.0056862496,0.0057030944,0.008867628,-0.0038307805,0.00019007362,0.00019007387,0.43009964,0.00046072254,0.00046066075,0.0001297713,0.0039222874,0.003922327,0.002308184,1,1,11,0
5644000,5644000,0.0061632404,-0.0011674004,-0.0022583008,0.999999,0.00094255165,-0.0006134236,-0.0008843408,0.01641758,-0.0016835759,-0.006222038,-0.0016207566,0.0071366676,0.0036261436,0.00020187348,0.00020187379,0.4301117,0.0004611108,0.00046104912,0.00013084729,0.0039569535,0.0039569964,0.0023443198,1,1,11,0
5660000,5660000,0.006517981,-0.0012307207,-0.0023498535,0.9999991,0.0008518626,-0.0006077096,-0.00091809116,0.016587399,-0.0023623572,-0.0068700914,-0.008411407,-0.0011189039,0.002693972,0.00022704533,0.00022704575,0.30076623,0.0004619,0.0004618384,0.00013301236,0.0040298295,0.004029882,0.0024169409,1,1,11,0
5668000,5668000,0.006693337,-0.0012584404,-0.0024108887,0.999999,0.00087964797,-0.00055844866,-0.00095197844,0.016845956,-0.0017061317,-0.0073095243,0.00849952,0.013395809,-0.0066271387,0.00024043024,0.00024043073,0.3007755,0.00046230052,0.000462239,0.00013410144,0.004067944,0.004068001,0.0024538764,1,1,11,0
5676000,5676000,0.006865667,-0.0012822455,-0.0024719238,0.999999,0.00084280095,-0.000571192,-0.0010055442,0.016581183,-0.0016646266,-0.007985307,-0.0076127048,-0.0020502752,-0.011687074,0.0002543567,0.0002543573,0.30078512,0.00046270512,0.00046264363,0.00013519505,0.004106983,0.004107043,0.0024910714,1,1,11,0
5684000,5684000,0.007032554,-0.0013034621,-0.002532959,0.999999,0.00082338415,-0.00056725147,-0.0010483309,0.016349131,-0.0013746396,-0.008076499,-0.003218775,0.002210675,-0.00915706,0.00026883153,0.0002688322,0.30079514,0.00046311383,0.0004630524,0.00013629314,0.004147435,0.004147499,0.0025285378,1,1,11,0
5700000,5700000,0.007352515,-0.0013353678,-0.0026245117,0.999999,0.0007716322,-0.0005818864,-0.0010341973,0.01610079,-0.001210467,-0.008101284,0.0009094768,-0.0037812584,0.0030935085,0.00029945574,0.00029945662,0.2936099,0.00046394335,0.00046388205,0.00013850257,0.0042319866,0.004232057,0.0026042315,1,1,11,0
5708000,5708000,0.007511891,-0.0013499043,-0.0026550293,0.999999,0.0007890247,-0.0006294795,-0.0009955228,0.016843244,-0.00093194965,-0.007688558,0.005969443,-0.010572355,0.010816627,0.00031562042,0.0003156214,0.2936208,0.0004643642,0.00046430284,0.0001396141,0.0042761127,0.0042761858,0.002642495,1,1,11,0
5716000,5716000,0.007668536,-0.0013616341,-0.0026855469,0.999999,0.0007735759,-0.0006594289,-0.0009979433,0.01619171,-0.000963548,-0.006746601,-0.0022861194,-0.0061782054,0.00043021212,0.00033236397,0.0003323651,0.29363212,0.00046478913,0.00046472775,0.00014072996,0.0043219007,0.0043219817,0.0026810453,1,1,11,0
5724000,5724000,0.007821623,-0.0013702707,-0.0026855469,0.99999905,0.00075032975,-0.0006615469,-0.0010505089,0.016553594,-0.0004128577,-0.0062238444,-0.004283451,0.0007463892,-0.012219724,0.00034969504,0.00034969635,0.29364386,0.00046521824,0.00046515695,0.00014185018,0.004368978,0.0043690666,0.0027198622,1,1,11,0
5740000,5740000,0.008140859,-0.0013678371,-0.0027160645,0.9999989,0.0007247613,-0.00069783645,-0.0011110947,0.017391881,0.0022234048,-0.0057840445,7.038082e-05,-0.004248556,-0.0068626185,0.00038547334,0.00038547497,0.2936686,0.0004599419,0.00045988153,0.00012533758,0.004424919,0.0044250134,0.0027982679,1,1,11,0
5748000,5748000,0.008265238,-0.001357038,-0.0027160645,0.9999988,0.0007447667,-0.00073108816,-0.0011303021,0.017524688,0.002643904,-0.004782961,0.0075275023,-0.004914329,-0.005264703,8.0179605e-05,8.017968e-05,0.2936816,0.00045799676,0.0004579381,0.00012632135,0.0015631953,0.0015632416,0.0028378705,1,1,11,0
5756000,5756000,0.008387089,-0.0013451797,-0.002746582,0.9999988,0.0007359273,-0.0007346162,-0.0011592535,0.017346593,0.0026698117,-0.004946593,0.00033109466,0.0021787502,-0.007795032,8.4122235e-05,8.4122345e-05,0.293695,0.00045834493,0.0004582863,0.00012730937,0.0015985062,0.0015985555,0.0028777434,1,1,11,0
5764000,5764000,0.008506951,-0.0013319652,-0.002746582,0.99999887,0.0006898252,-0.00075360655,-0.0011005248,0.017430335,0.0026063381,-0.0047748517,-0.008989848,-0.001682505,0.014042999,8.827779e-05,8.8277935e-05,0.29370886,0.00045869662,0.00045863813,0.00012830117,0.0016346994,0.0016347505,0.0029178758,1,1,11,0
5780000,5780000,0.008740469,-0.0013124794,-0.0027160645,0.9999991,0.00060644775,-0.0007351657,-0.0009740169,0.017067486,0.0017957106,-0.005630221,-0.004063262,0.015760994,0.011379499,9.725328e-05,9.725352e-05,0.28686377,0.0004594106,0.0004593523,0.00013029623,0.0017110034,0.0017110574,0.0029988773,1,1,11,0
5788000,5788000,0.008851944,-0.0013013044,-0.0027160645,0.99999917,0.0006363155,-0.0007606503,-0.00091211946,0.016832853,0.0025036251,-0.006425365,0.0099187065,-0.0032807176,0.014575435,0.00010208678,0.000102087084,0.28687868,0.00045977274,0.0004597145,0.00013129956,0.001750948,0.0017510073,0.0030398308,1,1,11,0
5796000,5796000,0.0089612985,-0.0012855316,-0.002746582,0.99999905,0.00068126846,-0.00079615373,-0.0009042542,0.016903525,0.0026255953,-0.007603904,0.013647072,-0.0058106487,0.000993387,0.0001071602,0.00010716058,0.28689402,0.00046013852,0.0004600803,0.00013230671,0.0017923076,0.0017923726,0.0030810516,1,1,11,0
5804000,5804000,0.009067596,-0.0012698491,-0.002746582,0.999999,0.0007002892,-0.00084215414,-0.0009605934,0.017011102,0.0023541953,-0.007692523,0.0071224575,-0.008473321,-0.0151188,0.000109698776,0.00010969915,0.2868863,0.00045941124,0.00045935123,0.00013331749,0.0017542217,0.0017542846,0.0028964207,1,1,11,0
5820000,5820000,0.009276506,-0.0012441601,-0.0027770996,0.99999887,0.0006479764,-0.0008484362,-0.0010501811,0.017270405,0.002130541,-0.008675194,-0.006057686,0.002996058,-0.0038003728,0.000120611294,0.00012061184,0.28691703,0.00046014803,0.0004600882,0.00013535094,0.0018397358,0.0018398071,0.0029752625,1,1,11,0
5828000,5828000,0.009383393,-0.0012273956,-0.0028076172,0.99999887,0.0006498711,-0.0008632451,-0.0010434897,0.017889412,0.0026640953,-0.00835853,0.0027304725,-0.00086541404,0.0004606603,0.00012645032,0.00012645098,0.2869331,0.00046052152,0.00046046174,0.00013637346,0.0018843771,0.0018844502,0.003015055,1,1,11,0
5836000,5836000,0.0094947815,-0.0012069859,-0.0028076172,0.99999887,0.00069029664,-0.00086949556,-0.0010828975,0.0185024,0.0028448463,-0.008478425,0.012317859,0.0012651519,-0.011124096,0.0001325552,0.00013255597,0.28694963,0.00046089847,0.00046083875,0.00013739981,0.0019299608,0.0019300361,0.0030551024,1,1,11,0
5844000,5844000,0.009607094,-0.0011870953,-0.00289917,0.9999988,0.00069889735,-0.0008676582,-0.0011317306,0.018530924,0.0025600984,-0.007939698,0.0043282397,0.003262366,-0.013520948,0.00013893394,0.00013893483,0.28040254,0.00046127886,0.00046121934,0.00013842998,0.0019769063,0.0019769836,0.0030953083,1,1,11,0
5860000,5860000,0.009824062,-0.0011482533,-0.0030212402,0.70161116,0.0011007756,-7.511226e-05,0.7125592,0.018055644,0.0021222949,-0.007390394,0.007257277,0.0147139,0.008982937,0.00015254704,0.00015254824,0.2804372,0.00046178934,0.00046153466,0.08999954,0.0020763255,0.0020763583,0.0031766777,1,1,12,0
