timestamp,timestamp_sample,accel_device_id,gyro_device_id,delta_angle[0],delta_angle[1],delta_angle[2],delta_velocity[0],delta_velocity[1],delta_velocity[2],delta_angle_dt,delta_velocity_dt,delta_angle_clipping,delta_velocity_clipping,accel_calibration_count,gyro_calibration_count
4260000,4260000,1310988,1310988,8.522073e-06,-5.326333e-06,-1.4913726e-05,-0.00012928691,6.703835e-05,-0.039068587,4000,4000,0,0,0,1
4760000,4760000,1310988,1310988,2.556637e-05,7.575611e-11,-3.3023192e-05,-0.00014844054,-0.00045968607,-0.039082948,4000,4000,0,0,0,1
5260000,5260000,1310988,1310988,-1.3848333e-05,-1.0652466e-06,4.90022e-05,-0.0003256114,-0.00013407464,-0.039039854,4000,4000,0,0,0,1
5760000,5760000,1310988,1310988,-4.900211e-05,1.3848592e-05,1.7044278e-05,-3.8307233e-05,6.8312905e-10,-0.039140414,4000,4000,0,0,0,1
6260000,6260000,1310988,1310988,-1.5978956e-05,4.261065e-06,-9.587399e-06,9.576808e-06,-0.0002202659,-0.03916914,4000,4000,0,0,0,1
6760000,6760000,1310988,1310988,4.687169e-05,2.1303908e-06,2.5566273e-05,-0.00062249246,-0.00014365141,-0.039375048,4000,4000,0,0,0,1
7260000,7260000,1310988,1310988,-1.0652522e-05,-1.2424492e-10,4.7936937e-05,0.00012928691,-0.00041180206,-0.039169136,4000,4000,0,0,0,1
7760000,7760000,1310988,1310988,2.7696942e-05,-6.3916477e-06,-4.048e-05,0.00012928691,0.000119710785,-0.039121255,4000,4000,0,0,0,1
8260000,8260000,1310988,1310988,-3.1958277e-06,1.0652639e-05,-1.1717909e-05,-6.224924e-05,0.0004788411,-0.039207447,4000,4000,0,0,0,1
8760000,8760000,1310988,1310988,-1.2783182e-05,2.0240019e-05,1.0652891e-06,-0.00017238254,-0.000114921,-0.039135627,4000,4000,0,0,0,1
9260000,9260000,1310988,1310988,2.130538e-05,-4.793687e-05,-1.4913691e-05,-0.00030166947,2.8731112e-05,-0.039667144,4000,4000,0,0,0,1
9760000,9760000,1310988,1310988,1.9174528e-05,-5.5393906e-05,5.219788e-05,-0.000114921684,-0.0003447644,-0.038939293,4000,4000,0,0,0,1
10260000,10260000,1310988,1310988,2.7696906e-05,-1.3848422e-05,2.6631595e-05,5.746084e-05,8.1403545e-05,-0.039221816,4000,4000,0,0,0,1
10760000,10760000,1310988,1310988,-1.8109436e-05,3.3023232e-05,5.326328e-06,0.0001388637,-2.872974e-05,-0.039193086,4000,4000,0,0,0,1
11260000,11260000,1310988,1310988,3.195927e-06,5.965482e-05,3.8349503e-05,-8.140285e-05,-0.0004788397,-0.039001547,4000,4000,0,0,0,1
11760000,11760000,1310988,1310988,3.1957557e-06,2.9827404e-05,-8.522143e-06,0.00015322893,0.00014844122,-0.03930322,4000,4000,0,0,0,1
12260000,12260000,1310988,1310988,-3.8349557e-05,-2.2370481e-05,6.391658e-06,-0.00042137952,0.00021069044,-0.03931758,4000,4000,0,0,0,1
12760000,12760000,1310988,1310988,1.171789e-05,-5.326353e-06,5.326339e-06,-0.00022984337,6.7038345e-05,-0.03925534,4000,4000,0,0,0,1
13260000,13260000,1310988,1310988,-3.834952e-05,1.0712435e-10,1.0653268e-06,-0.00024899698,-0.0006607991,-0.03887705,4000,4000,0,0,0,1
13760000,13760000,1310988,1310988,-1.0652722e-06,1.9174722e-05,1.4913754e-05,5.267244e-05,-9.0978996e-05,-0.0391452,4000,4000,0,0,0,1
14260000,14260000,1310988,1310988,-2.3435881e-05,4.2610583e-05,3.834948e-05,-8.619127e-05,-0.00014843987,-0.039389405,4000,4000,0,0,0,1
14760000,14760000,1310988,1310988,-7.563375e-05,-7.4568293e-06,-2.5566489e-05,2.8730423e-05,9.0980364e-05,-0.03918351,4000,4000,0,0,0,1
15260000,15260000,1310988,1310988,-6.0720053e-05,2.9827408e-05,1.0652808e-05,-0.00011013329,0.00023942089,-0.039135627,4000,4000,0,0,0,1
15760000,15760000,1310988,1310988,4.687165e-05,-1.3848486e-05,-6.3914235e-06,0.00040222594,-0.0002489963,-0.03923139,4000,4000,0,0,0,1
16260000,16260000,1310988,1310988,6.3918233e-06,2.556649e-05,6.924212e-05,-0.00011492169,0.00047405268,-0.03904943,4000,4000,0,0,0,1
16760000,16760000,1310988,1310988,-8.522046e-06,-9.587234e-06,-4.4741155e-05,0.00012928691,-0.00027772674,-0.039288856,4000,4000,0,0,0,1
17260000,17260000,1310988,1310988,2.1305848e-06,2.5566293e-05,-3.7284295e-05,0.00025378537,-0.00017238186,-0.039394196,4000,4000,0,0,0,1
17760000,17760000,1310988,1310988,3.1958762e-06,-6.3915663e-06,-3.8349517e-05,4.788404e-06,4.7890944e-06,-0.039547425,4000,4000,0,0,0,1
18260000,18260000,1310988,1310988,1.0652714e-05,-1.4913772e-05,5.432846e-05,-0.00019632454,0.00016759483,-0.039106894,4000,4000,0,0,0,1
18760000,18760000,1310988,1310988,-1.9174688e-05,4.2610678e-05,-4.261052e-05,8.140285e-05,-0.00017717025,-0.039006334,4000,4000,0,0,0,1
19260000,19260000,1310988,1310988,2.0240032e-05,2.7696855e-05,9.587426e-06,-8.619127e-05,0.00014844122,-0.039279275,4000,4000,0,0,0,1
19760000,19760000,1310988,1310988,-3.728431e-05,-1.2782928e-05,-3.5153767e-05,-4.3095635e-05,-1.915293e-05,-0.03928406,4000,4000,0,0,0,1
20260000,20260000,1310988,1310988,-4.2610558e-05,3.7284288e-05,7.724895e-11,0.0004884172,0.0001292876,-0.039432503,4000,4000,0,0,0,1
20760000,20760000,1310988,1310988,-4.261105e-06,3.089266e-05,-6.391605e-06,-0.00022984338,-0.00028251513,-0.03895367,4000,4000,0,0,0,1
21260000,21260000,1310988,1310988,7.6698954e-05,4.261079e-05,2.8762057e-05,0.00041180276,-0.0003303992,-0.03938941,4000,4000,0,0,0,1
21760000,21760000,1310988,1310988,-2.4501245e-05,5.113266e-05,2.4500998e-05,-0.00034955345,0.00010055717,-0.039442085,4000,4000,0,0,0,1
22260000,22260000,1310988,1310988,-2.1305555e-06,-8.522105e-06,4.4741115e-05,-0.00010534487,-4.309495e-05,-0.039245754,4000,4000,0,0,0,1
22760000,22760000,1310988,1310988,0.00065300387,-0.00067538104,7.563351e-05,-0.00052672444,-1.91529e-05,-0.04126168,4000,4000,0,0,0,1
23260000,23260000,1310988,1310988,-0.00021305242,0.00036432076,1.7044329e-05,1.915362e-05,-0.0006368569,-0.04314352,4000,4000,0,0,0,1
23760000,23760000,1310988,1310988,-9.693908e-05,6.3915904e-05,2.2370396e-05,-3.3518827e-05,-0.00013407464,-0.039442085,4000,4000,0,0,0,1
24260000,24260000,1310988,1310988,-1.8109453e-05,-7.5633776e-05,1.2783341e-05,-4.788404e-06,0.00011013398,-0.039442085,4000,4000,0,0,0,1
24760000,24760000,1310988,1310988,5.1132978e-05,-8.8416775e-05,-7.456855e-05,0.00030166947,-4.7883364e-05,-0.038709454,4000,4000,0,0,0,1
25260000,25260000,1310988,1310988,2.8762106e-05,2.6631622e-05,1.49137695e-05,-9.57681e-06,0.00016759483,-0.038709454,4000,4000,0,0,0,1
25760000,25760000,1310988,1310988,3.3023276e-05,-1.597871e-05,7.456854e-05,0.00049320556,5.267311e-05,-0.038503557,4000,4000,0,0,0,1
26260000,26260000,1310988,1310988,1.1717961e-05,-4.154529e-05,4.4741126e-05,0.00034476508,3.83079e-05,-0.038154006,4000,4000,0,0,0,1
26760000,26760000,1310988,1310988,9.587411e-06,9.587368e-06,-2.1305283e-05,0.00026336222,-5.746016e-05,-0.03891536,4000,4000,0,0,0,1
27260000,27260000,1310988,1310988,4.900216e-05,-6.391495e-06,-1.0652749e-05,-0.000272939,0.0002585745,-0.03945645,4000,4000,0,0,0,1
27760000,27760000,1310988,1310988,5.8589416e-05,-5.6459176e-05,-1.4913673e-05,-0.00017238254,0.00022026726,-0.038699877,4000,4000,0,0,0,1
28260000,28260000,1310988,1310988,-0.0012133332,-0.0005038759,-0.00016405607,0.00010534488,-9.576738e-05,-0.039609674,4000,4000,0,0,0,1
28760000,28760000,1310988,1310988,-0.001840775,8.095844e-05,-0.0012378407,-0.0008571242,0.0009912002,-0.040098097,4000,4000,0,0,0,1
29260000,29260000,1310988,1310988,-0.00019919519,-2.4500727e-05,-0.0019995025,-0.0010055647,0.0026623535,-0.039590526,4000,4000,0,0,0,1
29760000,29760000,1310988,1310988,-1.5981832e-05,8.526148e-06,-0.0026674224,-0.002901773,0.0036391874,-0.04018428,4000,4000,0,0,0,1
30260000,30260000,1310988,1310988,0.001220782,0.00035579072,-0.0026450579,-0.0052337255,0.0032225966,-0.03929843,4000,4000,0,0,0,1
30760000,30760000,1310988,1310988,0.0005827047,0.001201615,-0.0014956322,-0.0065361713,0.002044649,-0.03866157,4000,4000,0,0,0,1
31260000,31260000,1310988,1310988,-0.00019600557,-0.00031318597,-0.0010535478,-0.0069862814,0.00020590205,-0.03878607,4000,4000,0,0,0,1
31760000,31760000,1310988,1310988,-0.00021518489,-0.00015446193,-0.00022370515,-0.006847417,-0.00052672374,-0.038628053,4000,4000,0,0,0,1
32260000,32260000,1310988,1310988,-0.0003217113,-1.2783885e-05,0.00039095097,-0.006339847,-0.0006655875,-0.038532287,4000,4000,0,0,0,1
32760000,32760000,1310988,1310988,-7.030731e-05,-2.6631738e-05,-0.000120374956,-0.006737284,-0.0003064572,-0.038417365,4000,4000,0,0,0,1
33260000,33260000,1310988,1310988,-6.498114e-05,1.0653811e-06,8.522027e-06,-0.006095638,-0.00059854984,-0.0384844,4000,4000,0,0,0,1
33760000,33760000,1310988,1310988,5.0067665e-05,5.3262967e-05,-3.51538e-05,-0.0069288206,-0.0002011123,-0.038307235,4000,4000,0,0,0,1
34260000,34260000,1310988,1310988,4.4740846e-05,9.054743e-05,-5.5394048e-05,-0.007240067,-0.000100555815,-0.038455673,4000,4000,0,0,0,1
34760000,34760000,1310988,1310988,2.8762317e-05,-8.096012e-05,3.5153535e-05,-0.0067468607,0.000608128,-0.038604114,4000,4000,0,0,0,1
35260000,35260000,1310988,1310988,-3.408864e-05,2.343578e-05,-6.1785264e-05,-0.0069767046,8.619195e-05,-0.038757343,4000,4000,0,0,0,1
35760000,35760000,1310988,1310988,-2.0240077e-05,-3.0892425e-05,-3.7284433e-05,-0.0070150117,0.00057460915,-0.03839821,4000,4000,0,0,0,1
36260000,36260000,1310988,1310988,7.3503346e-05,-2.98273e-05,-1.5978727e-05,-0.0065026525,-0.00024420794,-0.03855144,4000,4000,0,0,0,1
36760000,36760000,1310988,1310988,3.621904e-05,-2.9827579e-05,-3.728408e-05,-0.007101203,0.0007230497,-0.03835033,4000,4000,0,0,0,1
37260000,37260000,1310988,1310988,-4.4741e-05,6.1785424e-05,-3.1957645e-06,-0.0070389537,-0.00023463114,-0.038503557,4000,4000,0,0,0,1
37760000,37760000,1310988,1310988,-2.1305252e-05,2.2370607e-05,2.0240012e-05,-0.007125145,0.00043574543,-0.03858017,4000,4000,0,0,0,1
38260000,38260000,1310988,1310988,6.0720093e-05,-2.130697e-06,1.3848351e-05,-0.007101203,0.00046926425,-0.038881842,4000,4000,0,0,0,1
38760000,38760000,1310988,1310988,-3.089269e-05,-3.195661e-06,3.9414783e-05,-0.006856994,6.681694e-10,-0.03828329,4000,4000,0,0,0,1
39260000,39260000,1310988,1310988,-2.6631704e-05,-6.39152e-06,3.302314e-05,-0.007321469,0.000105345534,-0.03806302,4000,4000,0,0,0,1
39760000,39760000,1310988,1310988,1.3848546e-05,-5.3263222e-05,2.3435763e-05,-0.006981493,0.00024420928,-0.03876692,4000,4000,0,0,0,1
40260000,40260000,1310988,1310988,0.0018663469,0.0017374392,0.00066366885,-0.006497864,0.00016759484,-0.039762903,4000,4000,0,0,0,1
40760000,40760000,1310988,1310988,0.00056033087,0.00084476126,0.0010705849,-0.005511453,-0.0008906424,-0.041338295,4000,4000,0,0,0,1
41260000,41260000,1310988,1310988,0.0003653823,0.0003866904,0.002280732,-0.0047165784,-0.0025761602,-0.041611236,4000,4000,0,0,0,1
41760000,41760000,1310988,1310988,-0.00017150572,0.0002673861,0.0029955239,-0.0039695865,-0.002250549,-0.040979158,4000,4000,0,0,0,1
42260000,42260000,1310988,1310988,-0.00023009915,0.00010119745,0.0035079163,-0.0053869546,-0.0031028846,-0.03975812,4000,4000,0,0,0,1
42760000,42760000,1310988,1310988,-0.0010759145,0.0009693879,0.0020463758,-0.006157887,-0.002782062,-0.039149992,4000,4000,0,0,0,1
43260000,43260000,1310988,1310988,-0.0013805865,4.3676184e-05,0.0015606094,-0.006713342,-0.0020542243,-0.039039854,4000,4000,0,0,0,1
43760000,43760000,1310988,1310988,7.1373e-05,-0.00012356983,0.0007978833,-0.0064404034,-5.2671752e-05,-0.039461236,4000,4000,0,0,0,1
44260000,44260000,1310988,1310988,6.924256e-05,-0.00010652654,0.0001331578,-0.006555325,0.00039264976,-0.038479608,4000,4000,0,0,0,1
44760000,44760000,1310988,1310988,0.00024927218,-9.5873016e-05,-0.00052411016,-0.0065457486,0.00082360615,-0.038972817,4000,4000,0,0,0,1
45260000,45260000,1310988,1310988,0.00012676528,5.96546e-05,0.00031851462,-0.006526595,0.000383073,-0.038594533,4000,4000,0,0,0,1
45760000,45760000,1310988,1310988,0.0005187748,0.0017044261,-5.322016e-06,-0.0064930758,0.00032082372,-0.03904943,4000,4000,0,0,0,1
46260000,46260000,1310988,1310988,-0.000101199716,5.0068018e-05,0.00021305298,-0.00512838,0.00041180343,-0.03903507,4000,4000,0,0,0,1
46760000,46760000,1310988,1310988,-5.2198346e-05,0.00018216031,0.00018109477,-0.0040701427,9.577495e-06,-0.039207444,4000,4000,0,0,0,1
47260000,47260000,1310988,1310988,-5.00678e-05,9.6940035e-05,0.00027270732,-0.0030166944,0.00022026726,-0.03963841,4000,4000,0,0,0,1
47760000,47760000,1310988,1310988,0.00013422224,1.0649596e-06,0.00029081773,-0.0023894138,0.000857125,-0.039394196,4000,4000,0,0,0,1
48260000,48260000,1310988,1310988,-4.3675016e-05,-0.00011398265,0.00039840923,-0.0015035588,0.0005123599,-0.039557006,4000,4000,0,0,0,1
48760000,48760000,1310988,1310988,0.0009949569,7.2439085e-05,-3.302546e-05,-0.0013215996,0.00072304974,-0.03963841,4000,4000,0,0,0,1
49260000,49260000,1310988,1310988,0.00057311606,0.0007744449,0.00087245123,-0.0008283939,-0.00081402797,-0.039662346,4000,4000,0,0,0,1
49760000,49760000,1310988,1310988,0.00015979035,-0.0008756433,0.0018855203,-0.00016759415,-0.001632845,-0.03991613,4000,4000,0,0,0,1
50260000,50260000,1310988,1310988,0.00074995006,-0.0011494103,0.0027441245,-0.0011683707,-0.0023606827,-0.04074453,4000,4000,0,0,0,1
50760000,50760000,1310988,1310988,1.064703e-05,-0.00029827873,0.0030466563,-0.003404555,-0.002911349,-0.040117245,4000,4000,0,0,0,1
51260000,51260000,1310988,1310988,0.00027696573,0.00086606346,0.0016341145,-0.005937621,-0.001680729,-0.039102107,4000,4000,0,0,0,1
51760000,51760000,1310988,1310988,-0.0006189138,0.0016543564,0.0011824457,-0.006933609,-0.0010390829,-0.038594533,4000,4000,0,0,0,1
52260000,52260000,1310988,1310988,0.00033236365,-0.00033449224,0.0005006742,-0.0069144554,-0.00020111229,-0.038848322,4000,4000,0,0,0,1
52760000,52760000,1310988,1310988,0.00012143978,-0.00014807153,-0.00016724704,-0.0065601137,0.00049799465,-0.038838744,4000,4000,0,0,0,1
53260000,53260000,1310988,1310988,8.202557e-05,-7.882967e-05,0.00014061476,-0.006703765,0.0005171483,-0.03870945,4000,4000,0,0,0,1
53760000,53760000,1310988,1310988,6.924249e-05,0.00013422317,-1.0651188e-06,-0.0069288206,0.00037349618,-0.038589746,4000,4000,0,0,0,1
54260000,54260000,1310988,1310988,-9.26779e-05,-5.858975e-05,3.1955003e-06,-0.0069383974,-4.787733e-06,-0.038575385,4000,4000,0,0,0,1
54760000,54760000,1310988,1310988,-0.000117179115,1.2783036e-05,-3.7284248e-05,-0.0069288206,0.0002633629,-0.03859932,4000,4000,0,0,0,1
55260000,55260000,1310988,1310988,0.00011930785,0.0013464945,-4.4741388e-05,-0.005865795,0.000134076,-0.039092526,4000,4000,0,0,0,1
55760000,55760000,1310988,1310988,-4.474113e-05,-9.58742e-06,3.0892636e-05,-0.0052816095,0.00015322962,-0.038924936,4000,4000,0,0,0,1
56260000,56260000,1310988,1310988,-8.202658e-05,0.00020559561,-2.5566047e-05,-0.0042233723,-0.000114921,-0.039499544,4000,4000,0,0,0,1
56760000,56760000,1310988,1310988,0.00014700646,-7.456456e-06,2.5566691e-05,-0.0034524393,-0.00018195868,-0.039394196,4000,4000,0,0,0,1
57260000,57260000,1310988,1310988,-9.587415e-06,-1.704419e-05,2.3435836e-05,-0.0027293903,-0.00045489764,-0.03876213,4000,4000,0,0,0,1
57760000,57760000,1310988,1310988,-4.5806453e-05,-3.089245e-05,6.0720136e-05,-0.0019009964,-0.00011970942,-0.0390638,4000,4000,0,0,0,1
58260000,58260000,1310988,1310988,-9.587301e-06,4.900219e-05,-8.522096e-06,-0.0014030023,-5.7460165e-05,-0.03915478,4000,4000,0,0,0,1
58760000,58760000,1310988,1310988,7.243777e-05,-2.130514e-05,7.456878e-05,-0.0007996635,0.00011971079,-0.03963841,4000,4000,0,0,0,1
59260000,59260000,1310988,1310988,-3.0892577e-05,-4.3675933e-05,4.367583e-05,-0.00064643443,-7.182546e-05,-0.034294546,4000,4000,0,0,0,1
59760000,59760000,1310988,1310988,2.2371009e-05,0.0006796387,-1.3850794e-05,-0.0007517794,0.00010055716,-0.038757347,4000,4000,0,0,0,1
60260000,60260000,1310988,1310988,-0.00011717837,-0.0002684469,-1.49145235e-05,-0.00027293898,0.00053630193,-0.03925534,4000,4000,0,0,0,1
60760000,60760000,1310988,1310988,1.7044398e-05,-0.00010439589,-1.5978916e-05,-0.00015322893,2.3942705e-05,-0.03891057,4000,4000,0,0,0,1
61260000,61260000,1310988,1310988,-1.5978962e-05,4.5806377e-05,1.0653357e-06,0.00014365211,-0.0002489963,-0.03942293,4000,4000,0,0,0,1
61760000,61760000,1310988,1310988,1.9174764e-05,3.089266e-05,5.3263543e-06,-0.0002442086,0.00029209335,-0.03909732,4000,4000,0,0,0,1
62260000,62260000,1310988,1310988,-4.474123e-05,-1.2783218e-05,4.0479907e-05,0.00046447522,-0.00029209198,-0.03936068,4000,4000,0,0,0,1
62760000,62760000,1310988,1310988,-7.4568843e-06,3.8349623e-05,-4.1545223e-05,-4.7883996e-06,4.309632e-05,-0.039221816,4000,4000,0,0,0,1
63260000,63260000,1310988,1310988,-0.0011835056,0.0012974953,-2.5560013e-05,-0.027791899,-0.028242001,-0.06972395,4000,4000,0,0,0,1
63760000,63760000,1310988,1310988,-2.0239988e-05,1.8109491e-05,-1.8109546e-05,-5.7460846e-05,0.00019153682,-0.03898239,4000,4000,0,0,0,1
64260000,64260000,1310988,1310988,3.941481e-05,-1.2783177e-05,1.491364e-05,0.00011492168,0.00025378607,-0.03925534,4000,4000,0,0,0,1
64760000,64760000,1310988,1310988,2.1305237e-05,2.3435856e-05,-1.384846e-05,-0.00052193605,-0.0002442079,-0.03908774,4000,4000,0,0,0,1
65260000,65260000,1310988,1310988,4.154545e-05,4.4740984e-05,1.0653215e-06,0.00019153614,-0.0003351876,-0.03935589,4000,4000,0,0,0,1
65760000,65760000,1310988,1310988,-5.326315e-06,-5.5393753e-05,4.261083e-06,-4.788404e-06,-0.00051714695,-0.039236177,4000,4000,0,0,0,1
66260000,66260000,1310988,1310988,2.130298e-06,-2.5566293e-05,6.178539e-05,0.0001388637,-0.00030166877,-0.03947081,4000,4000,0,0,0,1
66760000,66760000,1310988,1310988,-2.1307437e-06,4.2609327e-06,-8.948223e-05,-9.097968e-05,0.00020590208,-0.03979164,4000,4000,0,0,0,1
67260000,67260000,1310988,1310988,4.048008e-05,-3.1958132e-06,-2.4501025e-05,-0.00049799395,0.00015322962,-0.03953785,4000,4000,0,0,0,1
