timestamp,timestamp_sample,lat,lon,alt,alt_ellipsoid,delta_alt,delta_terrain,eph,epv,terrain_alt,lat_lon_valid,alt_valid,lat_lon_reset_counter,alt_reset_counter,terrain_reset_counter,terrain_alt_valid,dead_reckoning
3888000,0,47.3977508,8.5456074,488.104,0.0,0.0,0.0,0.0,0.0,0.0,0,0,0,0,0,0,0
3892000,0,47.3977508,8.5456074,488.104,0.0,0.0,0.0,0.0,0.0,0.0,0,0,0,0,0,0,0
3988000,0,47.3977508,8.5456074,488.104,0.0,0.0,0.0,0.0,0.0,0.0,0,0,0,0,0,0,0
4088000,0,47.3977508,8.5456074,488.104,0.0,0.0,0.0,0.0,0.0,0.0,0,0,0,0,0,0,0
4188000,0,47.3977508,8.5456074,488.104,0.0,0.0,0.0,0.0,0.0,0.0,0,0,0,0,0,0,0
4288000,0,47.3977508,8.5456074,488.104,0.0,0.0,0.0,0.0,0.0,0.0,0,0,0,0,0,0,0
4388000,0,47.3977508,8.5456074,488.104,0.0,0.0,0.0,0.0,0.0,0.0,0,0,0,0,0,0,0
4488000,0,47.3977508,8.5456074,488.104,0.0,0.0,0.0,0.0,0.0,0.0,0,0,0,0,0,0,0
4588000,0,47.3977508,8.5456074,488.104,0.0,0.0,0.0,0.0,0.0,0.0,0,0,0,0,0,0,0
4688000,0,47.3977508,8.5456074,488.104,0.0,0.0,0.0,0.0,0.0,0.0,0,0,0,0,0,0,0
4788000,0,47.3977508,8.5456074,488.104,0.0,0.0,0.0,0.0,0.0,0.0,0,0,0,0,0,0,0
4888000,0,47.3977508,8.5456074,488.104,0.0,0.0,0.0,0.0,0.0,0.0,0,0,0,0,0,0,0
4988000,0,47.3977508,8.5456074,488.104,0.0,0.0,0.0,0.0,0.0,0.0,0,0,0,0,0,0,0
5088000,0,47.3977508,8.5456074,488.104,0.0,0.0,0.0,0.0,0.0,0.0,0,0,0,0,0,0,0
5188000,0,47.3977508,8.5456074,488.104,0.0,0.0,0.0,0.0,0.0,0.0,0,0,0,0,0,0,0
5288000,0,47.3977508,8.5456074,488.104,0.0,0.0,0.0,0.0,0.0,0.0,0,0,0,0,0,0,0
5388000,0,47.3977508,8.5456074,488.104,0.0,0.0,0.0,0.0,0.0,0.0,0,0,0,0,0,0,0
5484000,0,47.3977508,8.5456074,488.104,0.0,0.0,0.0,0.0,0.0,0.0,0,0,0,0,0,0,0
5588000,0,47.3977508,8.5456074,488.104,0.0,0.0,0.0,0.0,0.0,0.0,0,0,0,0,0,0,0
5688000,0,47.3977508,8.5456074,488.104,0.0,0.0,0.0,0.0,0.0,0.0,0,0,0,0,0,0,0
5788000,0,47.3977508,8.5456074,488.104,0.0,0.0,0.0,0.0,0.0,0.0,0,0,0,0,0,0,0
5888000,0,47.3977508,8.5456074,488.104,0.0,0.0,0.0,0.0,0.0,0.0,0,0,0,0,0,0,0
5988000,0,47.3977508,8.5456074,488.104,0.0,0.0,0.0,0.0,0.0,0.0,0,0,0,0,0,0,0
6088000,0,47.3977508,8.5456074,488.104,0.0,0.0,0.0,0.0,0.0,0.0,0,0,0,0,0,0,0
6188000,0,47.3977508,8.5456074,488.104,0.0,0.0,0.0,0.0,0.0,0.0,0,0,0,0,0,0,0
6288000,0,47.3977508,8.5456074,488.104,0.0,0.0,0.0,0.0,0.0,0.0,0,0,0,0,0,0,0
6388000,0,47.3977508,8.5456074,488.104,0.0,0.0,0.0,0.0,0.0,0.0,0,0,0,0,0,0,0
6488000,0,47.3977508,8.5456074,488.104,0.0,0.0,0.0,0.0,0.0,0.0,0,0,0,0,0,0,0
6588000,0,47.3977508,8.5456074,488.104,0.0,0.0,0.0,0.0,0.0,0.0,0,0,0,0,0,0,0
6688000,0,47.3977508,8.5456074,488.104,0.0,0.0,0.0,0.0,0.0,0.0,0,0,0,0,0,0,0
6788000,0,47.3977508,8.5456074,488.104,0.0,0.0,0.0,0.0,0.0,0.0,0,0,0,0,0,0,0
6888000,0,47.3977508,8.5456074,488.104,0.0,0.0,0.0,0.0,0.0,0.0,0,0,0,0,0,0,0
6988000,0,47.3977508,8.5456074,488.104,0.0,0.0,0.0,0.0,0.0,0.0,0,0,0,0,0,0,0
7088000,0,47.3977508,8.5456074,488.104,0.0,0.0,0.0,0.0,0.0,0.0,0,0,0,0,0,0,0
7188000,0,47.3977508,8.5456074,488.104,0.0,0.0,0.0,0.0,0.0,0.0,0,0,0,0,0,0,0
7288000,0,47.3977508,8.5456074,488.104,0.0,0.0,0.0,0.0,0.0,0.0,0,0,0,0,0,0,0
7388000,0,47.3977508,8.5456074,488.104,0.0,0.0,0.0,0.0,0.0,0.0,0,0,0,0,0,0,0
7488000,0,47.3977508,8.5456074,488.104,0.0,0.0,0.0,0.0,0.0,0.0,0,0,0,0,0,0,0
7588000,0,47.3977508,8.5456074,488.104,0.0,0.0,0.0,0.0,0.0,0.0,0,0,0,0,0,0,0
7688000,0,47.3977508,8.5456074,488.104,0.0,0.0,0.0,0.0,0.0,0.0,0,0,0,0,0,0,0
7788000,0,47.3977508,8.5456074,488.104,0.0,0.0,0.0,0.0,0.0,0.0,0,0,0,0,0,0,0
7888000,0,47.3977508,8.5456074,488.104,0.0,0.0,0.0,0.0,0.0,0.0,0,0,0,0,0,0,0
7984000,0,47.3977508,8.5456074,488.104,0.0,0.0,0.0,0.0,0.0,0.0,0,0,0,0,0,0,0
8088000,0,47.3977508,8.5456074,488.104,0.0,0.0,0.0,0.0,0.0,0.0,0,0,0,0,0,0,0
8188000,0,47.3977508,8.5456074,488.104,0.0,0.0,0.0,0.0,0.0,0.0,0,0,0,0,0,0,0
8288000,0,47.3977508,8.5456074,488.104,0.0,0.0,0.0,0.0,0.0,0.0,0,0,0,0,0,0,0
8388000,0,47.3977508,8.5456074,488.104,0.0,0.0,0.0,0.0,0.0,0.0,0,0,0,0,0,0,0
8488000,0,47.3977508,8.5456074,488.104,0.0,0.0,0.0,0.0,0.0,0.0,0,0,0,0,0,0,0
8588000,0,47.3977508,8.5456074,488.104,0.0,0.0,0.0,0.0,0.0,0.0,0,0,0,0,0,0,0
8688000,0,47.3977508,8.5456074,488.104,0.0,0.0,0.0,0.0,0.0,0.0,0,0,0,0,0,0,0
8788000,0,47.3977508,8.5456074,488.104,0.0,0.0,0.0,0.0,0.0,0.0,0,0,0,0,0,0,0
8888000,0,47.3977508,8.5456074,488.104,0.0,0.0,0.0,0.0,0.0,0.0,0,0,0,0,0,0,0
8988000,0,47.3977508,8.5456074,488.104,0.0,0.0,0.0,0.0,0.0,0.0,0,0,0,0,0,0,0
9088000,0,47.3977508,8.5456074,488.104,0.0,0.0,0.0,0.0,0.0,0.0,0,0,0,0,0,0,0
9184000,0,47.3977508,8.5456074,488.104,0.0,0.0,0.0,0.0,0.0,0.0,0,0,0,0,0,0,0
9288000,0,47.3977508,8.5456074,488.104,0.0,0.0,0.0,0.0,0.0,0.0,0,0,0,0,0,0,0
9388000,0,47.3977508,8.5456074,488.104,0.0,0.0,0.0,0.0,0.0,0.0,0,0,0,0,0,0,0
9484000,0,47.3977508,8.5456074,488.104,0.0,0.0,0.0,0.0,0.0,0.0,0,0,0,0,0,0,0
9588000,0,47.3977508,8.5456074,488.104,0.0,0.0,0.0,0.0,0.0,0.0,0,0,0,0,0,0,0
9688000,0,47.3977508,8.5456074,488.104,0.0,0.0,0.0,0.0,0.0,0.0,0,0,0,0,0,0,0
9788000,0,47.3977508,8.5456074,488.104,0.0,0.0,0.0,0.0,0.0,0.0,0,0,0,0,0,0,0
9888000,0,47.3977508,8.5456074,488.104,0.0,0.0,0.0,0.0,0.0,0.0,0,0,0,0,0,0,0
9988000,0,47.3977508,8.5456074,488.104,0.0,0.0,0.0,0.0,0.0,0.0,0,0,0,0,0,0,0
10088000,0,47.3977508,8.5456074,488.104,0.0,0.0,0.0,0.0,0.0,0.0,0,0,0,0,0,0,0
10188000,0,47.3977508,8.5456074,488.104,0.0,0.0,0.0,0.0,0.0,0.0,0,0,0,0,0,0,0
10288000,0,47.3977508,8.5456074,488.104,0.0,0.0,0.0,0.0,0.0,0.0,0,0,0,0,0,0,0
10388000,0,47.3977508,8.5456074,488.104,0.0,0.0,0.0,0.0,0.0,0.0,0,0,0,0,0,0,0
10488000,0,47.3977508,8.5456074,488.104,0.0,0.0,0.0,0.0,0.0,0.0,0,0,0,0,0,0,0
10588000,0,47.3977508,8.5456074,488.104,0.0,0.0,0.0,0.0,0.0,0.0,0,0,0,0,0,0,0
10688000,0,47.3977508,8.5456074,488.104,0.0,0.0,0.0,0.0,0.0,0.0,0,0,0,0,0,0,0
10788000,0,47.3977508,8.5456074,488.104,0.0,0.0,0.0,0.0,0.0,0.0,0,0,0,0,0,0,0
10888000,0,47.3977508,8.5456074,488.104,0.0,0.0,0.0,0.0,0.0,0.0,0,0,0,0,0,0,0
10988000,0,47.3977508,8.5456074,488.104,0.0,0.0,0.0,0.0,0.0,0.0,0,0,0,0,0,0,0
11084000,0,47.3977508,8.5456074,488.104,0.0,0.0,0.0,0.0,0.0,0.0,0,0,0,0,0,0,0
11188000,0,47.3977508,8.5456074,488.104,0.0,0.0,0.0,0.0,0.0,0.0,0,0,0,0,0,0,0
11288000,0,47.3977508,8.5456074,488.104,0.0,0.0,0.0,0.0,0.0,0.0,0,0,0,0,0,0,0
11388000,0,47.3977508,8.5456074,488.104,0.0,0.0,0.0,0.0,0.0,0.0,0,0,0,0,0,0,0
11488000,0,47.3977508,8.5456074,488.104,0.0,0.0,0.0,0.0,0.0,0.0,0,0,0,0,0,0,0
11588000,0,47.3977508,8.5456074,488.104,0.0,0.0,0.0,0.0,0.0,0.0,0,0,0,0,0,0,0
11684000,0,47.3977508,8.5456074,488.104,0.0,0.0,0.0,0.0,0.0,0.0,0,0,0,0,0,0,0
11788000,0,47.3977508,8.5456074,488.104,0.0,0.0,0.0,0.0,0.0,0.0,0,0,0,0,0,0,0
11888000,0,47.3977508,8.5456074,488.104,0.0,0.0,0.0,0.0,0.0,0.0,0,0,0,0,0,0,0
11984000,0,47.3977508,8.5456074,488.104,0.0,0.0,0.0,0.0,0.0,0.0,0,0,0,0,0,0,0
12088000,0,47.3977508,8.5456074,488.104,0.0,0.0,0.0,0.0,0.0,0.0,0,0,0,0,0,0,0
12188000,0,47.3977508,8.5456074,488.104,0.0,0.0,0.0,0.0,0.0,0.0,0,0,0,0,0,0,0
12288000,0,47.3977508,8.5456074,488.104,0.0,0.0,0.0,0.0,0.0,0.0,0,0,0,0,0,0,0
12388000,0,47.3977508,8.5456074,488.104,0.0,0.0,0.0,0.0,0.0,0.0,0,0,0,0,0,0,0
12488000,0,47.3977508,8.5456074,488.104,0.0,0.0,0.0,0.0,0.0,0.0,0,0,0,0,0,0,0
12584000,0,47.3977508,8.5456074,488.104,0.0,0.0,0.0,0.0,0.0,0.0,0,0,0,0,0,0,0
12688000,0,47.3977508,8.5456074,488.104,0.0,0.0,0.0,0.0,0.0,0.0,0,0,0,0,0,0,0
12788000,0,47.3977508,8.5456074,488.104,0.0,0.0,0.0,0.0,0.0,0.0,0,0,0,0,0,0,0
12888000,0,47.3977508,8.5456074,488.104,0.0,0.0,0.0,0.0,0.0,0.0,0,0,0,0,0,0,0
12988000,0,47.3977508,8.5456074,488.104,0.0,0.0,0.0,0.0,0.0,0.0,0,0,0,0,0,0,0
13088000,0,47.3977508,8.5456074,488.104,0.0,0.0,0.0,0.0,0.0,0.0,0,0,0,0,0,0,0
13188000,0,47.3977508,8.5456074,488.104,0.0,0.0,0.0,0.0,0.0,0.0,0,0,0,0,0,0,0
13288000,0,47.3977508,8.5456074,488.104,0.0,0.0,0.0,0.0,0.0,0.0,0,0,0,0,0,0,0
13388000,0,47.3977508,8.5456074,488.104,0.0,0.0,0.0,0.0,0.0,0.0,0,0,0,0,0,0,0
13488000,0,47.3977508,8.5456074,488.104,0.0,0.0,0.0,0.0,0.0,0.0,0,0,0,0,0,0,0
13588000,0,47.3977508,8.5456074,488.104,0.0,0.0,0.0,0.0,0.0,0.0,0,0,0,0,0,0,0
13688000,0,47.3977508,8.5456074,488.104,0.0,0.0,0.0,0.0,0.0,0.0,0,0,0,0,0,0,0
13788000,0,47.3977508,8.5456074,488.104,0.0,0.0,0.0,0.0,0.0,0.0,0,0,0,0,0,0,0
13888000,0,47.3977508,8.5456074,488.104,0.0,0.0,0.0,0.0,0.0,0.0,0,0,0,0,0,0,0
13988000,0,47.3977508,8.5456074,488.104,0.0,0.0,0.0,0.0,0.0,0.0,0,0,0,0,0,0,0
14088000,0,47.3977508,8.5456074,488.104,0.0,0.0,0.0,0.0,0.0,0.0,0,0,0,0,0,0,0
14188000,0,47.3977508,8.5456074,488.104,0.0,0.0,0.0,0.0,0.0,0.0,0,0,0,0,0,0,0
14288000,0,47.3977508,8.5456074,488.104,0.0,0.0,0.0,0.0,0.0,0.0,0,0,0,0,0,0,0
14388000,0,47.3977508,8.5456074,488.104,0.0,0.0,0.0,0.0,0.0,0.0,0,0,0,0,0,0,0
14488000,0,47.3977508,8.5456074,488.104,0.0,0.0,0.0,0.0,0.0,0.0,0,0,0,0,0,0,0
14588000,0,47.3977508,8.5456074,488.104,0.0,0.0,0.0,0.0,0.0,0.0,0,0,0,0,0,0,0
14688000,0,47.3977508,8.5456074,488.104,0.0,0.0,0.0,0.0,0.0,0.0,0,0,0,0,0,0,0
14788000,0,47.3977508,8.5456074,488.104,0.0,0.0,0.0,0.0,0.0,0.0,0,0,0,0,0,0,0
14888000,0,47.3977508,8.5456074,488.104,0.0,0.0,0.0,0.0,0.0,0.0,0,0,0,0,0,0,0
14988000,0,47.3977508,8.5456074,488.104,0.0,0.0,0.0,0.0,0.0,0.0,0,0,0,0,0,0,0
15088000,0,47.3977508,8.5456074,488.104,0.0,0.0,0.0,0.0,0.0,0.0,0,0,0,0,0,0,0
15188000,0,47.3977508,8.5456074,488.104,0.0,0.0,0.0,0.0,0.0,0.0,0,0,0,0,0,0,0
15284000,0,47.3977508,8.5456074,488.104,0.0,0.0,0.0,0.0,0.0,0.0,0,0,0,0,0,0,0
15384000,0,47.3977508,8.5456074,488.104,0.0,0.0,0.0,0.0,0.0,0.0,0,0,0,0,0,0,0
15488000,0,47.3977508,8.5456074,488.104,0.0,0.0,0.0,0.0,0.0,0.0,0,0,0,0,0,0,0
15588000,0,47.3977508,8.5456074,488.104,0.0,0.0,0.0,0.0,0.0,0.0,0,0,0,0,0,0,0
15688000,0,47.3977508,8.5456074,488.104,0.0,0.0,0.0,0.0,0.0,0.0,0,0,0,0,0,0,0
15788000,0,47.3977508,8.5456074,488.104,0.0,0.0,0.0,0.0,0.0,0.0,0,0,0,0,0,0,0
15888000,0,47.3977508,8.5456074,488.104,0.0,0.0,0.0,0.0,0.0,0.0,0,0,0,0,0,0,0
15988000,0,47.3977508,8.5456074,488.104,0.0,0.0,0.0,0.0,0.0,0.0,0,0,0,0,0,0,0
16088000,0,47.3977508,8.5456074,488.104,0.0,0.0,0.0,0.0,0.0,0.0,0,0,0,0,0,0,0
16184000,0,47.3977508,8.5456074,488.104,0.0,0.0,0.0,0.0,0.0,0.0,0,0,0,0,0,0,0
16288000,0,47.3977508,8.5456074,488.104,0.0,0.0,0.0,0.0,0.0,0.0,0,0,0,0,0,0,0
16388000,0,47.3977508,8.5456074,488.104,0.0,0.0,0.0,0.0,0.0,0.0,0,0,0,0,0,0,0
16488000,0,47.3977508,8.5456074,488.104,0.0,0.0,0.0,0.0,0.0,0.0,0,0,0,0,0,0,0
16588000,0,47.3977508,8.5456074,488.104,0.0,0.0,0.0,0.0,0.0,0.0,0,0,0,0,0,0,0
16688000,0,47.3977508,8.5456074,488.104,0.0,0.0,0.0,0.0,0.0,0.0,0,0,0,0,0,0,0
16788000,0,47.3977508,8.5456074,488.104,0.0,0.0,0.0,0.0,0.0,0.0,0,0,0,0,0,0,0
16888000,0,47.3977508,8.5456074,488.104,0.0,0.0,0.0,0.0,0.0,0.0,0,0,0,0,0,0,0
16988000,0,47.3977508,8.5456074,488.104,0.0,0.0,0.0,0.0,0.0,0.0,0,0,0,0,0,0,0
17088000,0,47.3977508,8.5456074,488.104,0.0,0.0,0.0,0.0,0.0,0.0,0,0,0,0,0,0,0
17188000,0,47.3977508,8.5456074,488.104,0.0,0.0,0.0,0.0,0.0,0.0,0,0,0,0,0,0,0
17288000,0,47.3977508,8.5456074,488.104,0.0,0.0,0.0,0.0,0.0,0.0,0,0,0,0,0,0,0
17388000,0,47.3977508,8.5456074,488.104,0.0,0.0,0.0,0.0,0.0,0.0,0,0,0,0,0,0,0
17488000,0,47.3977508,8.5456074,488.104,0.0,0.0,0.0,0.0,0.0,0.0,0,0,0,0,0,0,0
17588000,0,47.3977508,8.5456074,488.104,0.0,0.0,0.0,0.0,0.0,0.0,0,0,0,0,0,0,0
17688000,0,47.3977508,8.5456074,488.104,0.0,0.0,0.0,0.0,0.0,0.0,0,0,0,0,0,0,0
17788000,0,47.3977508,8.5456074,488.104,0.0,0.0,0.0,0.0,0.0,0.0,0,0,0,0,0,0,0
17888000,0,47.3977508,8.5456074,488.104,0.0,0.0,0.0,0.0,0.0,0.0,0,0,0,0,0,0,0
17988000,0,47.3977508,8.5456074,488.104,0.0,0.0,0.0,0.0,0.0,0.0,0,0,0,0,0,0,0
18088000,0,47.3977508,8.5456074,488.104,0.0,0.0,0.0,0.0,0.0,0.0,0,0,0,0,0,0,0
18188000,0,47.3977508,8.5456074,488.104,0.0,0.0,0.0,0.0,0.0,0.0,0,0,0,0,0,0,0
18284000,0,47.3977508,8.5456074,488.104,0.0,0.0,0.0,0.0,0.0,0.0,0,0,0,0,0,0,0
18384000,0,47.3977508,8.5456074,488.104,0.0,0.0,0.0,0.0,0.0,0.0,0,0,0,0,0,0,0
18488000,0,47.3977508,8.5456074,488.104,0.0,0.0,0.0,0.0,0.0,0.0,0,0,0,0,0,0,0
18588000,0,47.3977508,8.5456074,488.104,0.0,0.0,0.0,0.0,0.0,0.0,0,0,0,0,0,0,0
18688000,0,47.3977508,8.5456074,488.104,0.0,0.0,0.0,0.0,0.0,0.0,0,0,0,0,0,0,0
18788000,0,47.3977508,8.5456074,488.104,0.0,0.0,0.0,0.0,0.0,0.0,0,0,0,0,0,0,0
18888000,0,47.3977508,8.5456074,488.104,0.0,0.0,0.0,0.0,0.0,0.0,0,0,0,0,0,0,0
18988000,0,47.3977508,8.5456074,488.104,0.0,0.0,0.0,0.0,0.0,0.0,0,0,0,0,0,0,0
19084000,0,47.3977508,8.5456074,488.104,0.0,0.0,0.0,0.0,0.0,0.0,0,0,0,0,0,0,0
19188000,0,47.3977508,8.5456074,488.104,0.0,0.0,0.0,0.0,0.0,0.0,0,0,0,0,0,0,0
19288000,0,47.3977508,8.5456074,488.104,0.0,0.0,0.0,0.0,0.0,0.0,0,0,0,0,0,0,0
19388000,0,47.3977508,8.5456074,488.104,0.0,0.0,0.0,0.0,0.0,0.0,0,0,0,0,0,0,0
19484000,0,47.3977508,8.5456074,488.104,0.0,0.0,0.0,0.0,0.0,0.0,0,0,0,0,0,0,0
19588000,0,47.3977508,8.5456074,488.104,0.0,0.0,0.0,0.0,0.0,0.0,0,0,0,0,0,0,0
19688000,0,47.3977508,8.5456074,488.104,0.0,0.0,0.0,0.0,0.0,0.0,0,0,0,0,0,0,0
19788000,0,47.3977508,8.5456074,488.104,0.0,0.0,0.0,0.0,0.0,0.0,0,0,0,0,0,0,0
19888000,0,47.3977508,8.5456074,488.104,0.0,0.0,0.0,0.0,0.0,0.0,0,0,0,0,0,0,0
19988000,0,47.3977508,8.5456074,488.104,0.0,0.0,0.0,0.0,0.0,0.0,0,0,0,0,0,0,0
20088000,0,47.3977508,8.5456074,488.104,0.0,0.0,0.0,0.0,0.0,0.0,0,0,0,0,0,0,0
20188000,0,47.3977508,8.5456074,488.104,0.0,0.0,0.0,0.0,0.0,0.0,0,0,0,0,0,0,0
20288000,0,47.3977508,8.5456074,488.104,0.0,0.0,0.0,0.0,0.0,0.0,0,0,0,0,0,0,0
20388000,0,47.3977508,8.5456074,488.104,0.0,0.0,0.0,0.0,0.0,0.0,0,0,0,0,0,0,0
20488000,0,47.3977508,8.5456074,488.104,0.0,0.0,0.0,0.0,0.0,0.0,0,0,0,0,0,0,0
20588000,0,47.3977508,8.5456074,488.104,0.0,0.0,0.0,0.0,0.0,0.0,0,0,0,0,0,0,0
20688000,0,47.3977508,8.5456074,488.104,0.0,0.0,0.0,0.0,0.0,0.0,0,0,0,0,0,0,0
20788000,0,47.3977508,8.5456074,488.104,0.0,0.0,0.0,0.0,0.0,0.0,0,0,0,0,0,0,0
20888000,0,47.3977508,8.5456074,488.104,0.0,0.0,0.0,0.0,0.0,0.0,0,0,0,0,0,0,0
20984000,0,47.3977508,8.5456074,488.104,0.0,0.0,0.0,0.0,0.0,0.0,0,0,0,0,0,0,0
21088000,0,47.3977508,8.5456074,488.104,0.0,0.0,0.0,0.0,0.0,0.0,0,0,0,0,0,0,0
21188000,0,47.3977508,8.5456074,488.104,0.0,0.0,0.0,0.0,0.0,0.0,0,0,0,0,0,0,0
21288000,0,47.3977508,8.5456074,488.104,0.0,0.0,0.0,0.0,0.0,0.0,0,0,0,0,0,0,0
21388000,0,47.3977508,8.5456074,488.104,0.0,0.0,0.0,0.0,0.0,0.0,0,0,0,0,0,0,0
21488000,0,47.3977508,8.5456074,488.104,0.0,0.0,0.0,0.0,0.0,0.0,0,0,0,0,0,0,0
21588000,0,47.3977508,8.5456074,488.104,0.0,0.0,0.0,0.0,0.0,0.0,0,0,0,0,0,0,0
21688000,0,47.3977508,8.5456074,488.104,0.0,0.0,0.0,0.0,0.0,0.0,0,0,0,0,0,0,0
21788000,0,47.3977508,8.5456074,488.104,0.0,0.0,0.0,0.0,0.0,0.0,0,0,0,0,0,0,0
21888000,0,47.3977508,8.5456074,488.104,0.0,0.0,0.0,0.0,0.0,0.0,0,0,0,0,0,0,0
21988000,0,47.3977508,8.5456074,488.104,0.0,0.0,0.0,0.0,0.0,0.0,0,0,0,0,0,0,0
22088000,0,47.3977508,8.5456074,488.104,0.0,0.0,0.0,0.0,0.0,0.0,0,0,0,0,0,0,0
22184000,0,47.3977508,8.5456074,488.104,0.0,0.0,0.0,0.0,0.0,0.0,0,0,0,0,0,0,0
22288000,0,47.3977508,8.5456074,488.104,0.0,0.0,0.0,0.0,0.0,0.0,0,0,0,0,0,0,0
22388000,0,47.3977508,8.5456074,488.104,0.0,0.0,0.0,0.0,0.0,0.0,0,0,0,0,0,0,0
22488000,0,47.3977508,8.5456074,488.104,0.0,0.0,0.0,0.0,0.0,0.0,0,0,0,0,0,0,0
22588000,0,47.3977508,8.5456074,488.104,0.0,0.0,0.0,0.0,0.0,0.0,0,0,0,0,0,0,0
22688000,0,47.3977508,8.5456074,488.107,0.0,0.0,0.0,0.0,0.0,0.0,0,0,0,0,0,0,0
22784000,0,47.3977508,8.5456074,488.114,0.0,0.0,0.0,0.0,0.0,0.0,0,0,0,0,0,0,0
22888000,0,47.397750699999996,8.5456075,488.128,0.0,0.0,0.0,0.0,0.0,0.0,0,0,0,0,0,0,0
22988000,0,47.397750699999996,8.5456075,488.151,0.0,0.0,0.0,0.0,0.0,0.0,0,0,0,0,0,0,0
23088000,0,47.397750599999995,8.5456077,488.182,0.0,0.0,0.0,0.0,0.0,0.0,0,0,0,0,0,0,0
23188000,0,47.3977505,8.545607799999999,488.223,0.0,0.0,0.0,0.0,0.0,0.0,0,0,0,0,0,0,0
23288000,0,47.3977504,8.545608,488.273,0.0,0.0,0.0,0.0,0.0,0.0,0,0,0,0,0,0,0
23388000,0,47.3977502,8.5456082,488.333,0.0,0.0,0.0,0.0,0.0,0.0,0,0,0,0,0,0,0
23488000,0,47.397750099999996,8.5456083,488.398,0.0,0.0,0.0,0.0,0.0,0.0,0,0,0,0,0,0,0
23588000,0,47.3977499,8.5456085,488.471,0.0,0.0,0.0,0.0,0.0,0.0,0,0,0,0,0,0,0
23688000,0,47.3977498,8.5456086,488.544,0.0,0.0,0.0,0.0,0.0,0.0,0,0,0,0,0,0,0
23788000,0,47.3977497,8.545608699999999,488.619,0.0,0.0,0.0,0.0,0.0,0.0,0,0,0,0,0,0,0
23888000,0,47.3977496,8.5456088,488.693,0.0,0.0,0.0,0.0,0.0,0.0,0,0,0,0,0,0,0
23988000,0,47.397749399999995,8.5456089,488.77,0.0,0.0,0.0,0.0,0.0,0.0,0,0,0,0,0,0,0
24088000,0,47.3977493,8.5456089,488.851,0.0,0.0,0.0,0.0,0.0,0.0,0,0,0,0,0,0,0
24188000,0,47.3977493,8.545608999999999,488.93,0.0,0.0,0.0,0.0,0.0,0.0,0,0,0,0,0,0,0
24288000,0,47.3977492,8.545608999999999,489.006,0.0,0.0,0.0,0.0,0.0,0.0,0,0,0,0,0,0,0
24388000,0,47.3977491,8.5456089,489.089,0.0,0.0,0.0,0.0,0.0,0.0,0,0,0,0,0,0,0
24488000,0,47.3977491,8.5456089,489.17,0.0,0.0,0.0,0.0,0.0,0.0,0,0,0,0,0,0,0
24588000,0,47.397749,8.5456088,489.25,0.0,0.0,0.0,0.0,0.0,0.0,0,0,0,0,0,0,0
24688000,0,47.397749,8.5456088,489.33,0.0,0.0,0.0,0.0,0.0,0.0,0,0,0,0,0,0,0
24788000,0,47.397749,8.545608699999999,489.406,0.0,0.0,0.0,0.0,0.0,0.0,0,0,0,0,0,0,0
24888000,0,47.397749,8.5456086,489.488,0.0,0.0,0.0,0.0,0.0,0.0,0,0,0,0,0,0,0
24988000,0,47.397749,8.5456085,489.567,0.0,0.0,0.0,0.0,0.0,0.0,0,0,0,0,0,0,0
25088000,0,47.397749,8.5456085,489.641,0.0,0.0,0.0,0.0,0.0,0.0,0,0,0,0,0,0,0
25188000,0,47.3977491,8.545608399999999,489.721,0.0,0.0,0.0,0.0,0.0,0.0,0,0,0,0,0,0,0
25284000,0,47.3977491,8.5456083,489.794,0.0,0.0,0.0,0.0,0.0,0.0,0,0,0,0,0,0,0
25388000,0,47.3977491,8.5456082,489.869,0.0,0.0,0.0,0.0,0.0,0.0,0,0,0,0,0,0,0
25488000,0,47.3977491,8.545608099999999,489.945,0.0,0.0,0.0,0.0,0.0,0.0,0,0,0,0,0,0,0
25584000,0,47.3977492,8.545608,490.011,0.0,0.0,0.0,0.0,0.0,0.0,0,0,0,0,0,0,0
25688000,0,47.3977492,8.5456079,490.087,0.0,0.0,0.0,0.0,0.0,0.0,0,0,0,0,0,0,0
25788000,0,47.3977492,8.545607799999999,490.155,0.0,0.0,0.0,0.0,0.0,0.0,0,0,0,0,0,0,0
25888000,0,47.3977493,8.5456077,490.222,0.0,0.0,0.0,0.0,0.0,0.0,0,0,0,0,0,0,0
25988000,0,47.3977493,8.5456076,490.287,0.0,0.0,0.0,0.0,0.0,0.0,0,0,0,0,0,0,0
26088000,0,47.397749399999995,8.5456075,490.347,0.0,0.0,0.0,0.0,0.0,0.0,0,0,0,0,0,0,0
26188000,0,47.397749399999995,8.5456074,490.41,0.0,0.0,0.0,0.0,0.0,0.0,0,0,0,0,0,0,0
26288000,0,47.397749399999995,8.5456073,490.468,0.0,0.0,0.0,0.0,0.0,0.0,0,0,0,0,0,0,0
26388000,0,47.397749499999996,8.5456072,490.52,0.0,0.0,0.0,0.0,0.0,0.0,0,0,0,0,0,0,0
26488000,0,47.397749499999996,8.5456071,490.562,0.0,0.0,0.0,0.0,0.0,0.0,0,0,0,0,0,0,0
26584000,0,47.3977496,8.5456071,490.59,0.0,0.0,0.0,0.0,0.0,0.0,0,0,0,0,0,0,0
26688000,0,47.3977496,8.545607,490.612,0.0,0.0,0.0,0.0,0.0,0.0,0,0,0,0,0,0,0
26788000,0,47.3977496,8.5456069,490.629,0.0,0.0,0.0,0.0,0.0,0.0,0,0,0,0,0,0,0
26888000,0,47.3977497,8.5456069,490.647,0.0,0.0,0.0,0.0,0.0,0.0,0,0,0,0,0,0,0
26988000,0,47.3977497,8.5456068,490.666,0.0,0.0,0.0,0.0,0.0,0.0,0,0,0,0,0,0,0
27088000,0,47.3977498,8.5456068,490.688,0.0,0.0,0.0,0.0,0.0,0.0,0,0,0,0,0,0,0
27188000,0,47.3977498,8.5456068,490.711,0.0,0.0,0.0,0.0,0.0,0.0,0,0,0,0,0,0,0
27288000,0,47.3977499,8.5456067,490.732,0.0,0.0,0.0,0.0,0.0,0.0,0,0,0,0,0,0,0
27388000,0,47.3977499,8.5456067,490.754,0.0,0.0,0.0,0.0,0.0,0.0,0,0,0,0,0,0,0
27488000,0,47.3977499,8.5456067,490.773,0.0,0.0,0.0,0.0,0.0,0.0,0,0,0,0,0,0,0
27588000,0,47.397749999999995,8.5456067,490.791,0.0,0.0,0.0,0.0,0.0,0.0,0,0,0,0,0,0,0
27688000,0,47.397749999999995,8.5456066,490.809,0.0,0.0,0.0,0.0,0.0,0.0,0,0,0,0,0,0,0
27788000,0,47.397749999999995,8.5456066,490.825,0.0,0.0,0.0,0.0,0.0,0.0,0,0,0,0,0,0,0
27888000,0,47.397749999999995,8.5456066,490.84,0.0,0.0,0.0,0.0,0.0,0.0,0,0,0,0,0,0,0
27988000,0,47.397750099999996,8.5456067,490.853,0.0,0.0,0.0,0.0,0.0,0.0,0,0,0,0,0,0,0
28088000,0,47.397750099999996,8.5456067,490.867,0.0,0.0,0.0,0.0,0.0,0.0,0,0,0,0,0,0,0
28188000,0,47.397750099999996,8.5456067,490.88,0.0,0.0,0.0,0.0,0.0,0.0,0,0,0,0,0,0,0
28288000,0,47.397750099999996,8.5456067,490.893,0.0,0.0,0.0,0.0,0.0,0.0,0,0,0,0,0,0,0
28388000,0,47.397750099999996,8.5456068,490.907,0.0,0.0,0.0,0.0,0.0,0.0,0,0,0,0,0,0,0
28488000,0,47.3977502,8.5456069,490.92,0.0,0.0,0.0,0.0,0.0,0.0,0,0,0,0,0,0,0
28588000,0,47.3977505,8.5456071,490.935,0.0,0.0,0.0,0.0,0.0,0.0,0,0,0,0,0,0,0
28688000,0,47.3977508,8.5456074,490.949,0.0,0.0,0.0,0.0,0.0,0.0,0,0,0,0,0,0,0
28784000,0,47.397751299999996,8.5456076,490.964,0.0,0.0,0.0,0.0,0.0,0.0,0,0,0,0,0,0,0
28888000,0,47.3977521,8.5456079,490.98,0.0,0.0,0.0,0.0,0.0,0.0,0,0,0,0,0,0,0
28988000,0,47.397752999999994,8.5456083,490.994,0.0,0.0,0.0,0.0,0.0,0.0,0,0,0,0,0,0,0
29088000,0,47.397754299999995,8.5456086,491.007,0.0,0.0,0.0,0.0,0.0,0.0,0,0,0,0,0,0,0
29188000,0,47.3977558,8.545608999999999,491.017,0.0,0.0,0.0,0.0,0.0,0.0,0,0,0,0,0,0,0
29288000,0,47.3977576,8.5456094,491.025,0.0,0.0,0.0,0.0,0.0,0.0,0,0,0,0,0,0,0
29388000,0,47.3977595,8.5456098,491.031,0.0,0.0,0.0,0.0,0.0,0.0,0,0,0,0,0,0,0
29488000,0,47.3977619,8.5456102,491.036,0.0,0.0,0.0,0.0,0.0,0.0,0,0,0,0,0,0,0
29584000,0,47.3977642,8.5456106,491.04,0.0,0.0,0.0,0.0,0.0,0.0,0,0,0,0,0,0,0
29688000,0,47.397767099999996,8.545611,491.044,0.0,0.0,0.0,0.0,0.0,0.0,0,0,0,0,0,0,0
29788000,0,47.3977702,8.5456114,491.046,0.0,0.0,0.0,0.0,0.0,0.0,0,0,0,0,0,0,0
29888000,0,47.3977733,8.5456118,491.048,0.0,0.0,0.0,0.0,0.0,0.0,0,0,0,0,0,0,0
29988000,0,47.397776799999995,8.5456123,491.049,0.0,0.0,0.0,0.0,0.0,0.0,0,0,0,0,0,0,0
30088000,0,47.397780399999995,8.5456127,491.048,0.0,0.0,0.0,0.0,0.0,0.0,0,0,0,0,0,0,0
30188000,0,47.3977844,8.545613099999999,491.045,0.0,0.0,0.0,0.0,0.0,0.0,0,0,0,0,0,0,0
30288000,0,47.397788299999995,8.5456136,491.04,0.0,0.0,0.0,0.0,0.0,0.0,0,0,0,0,0,0,0
30388000,0,47.3977924,8.5456141,491.034,0.0,0.0,0.0,0.0,0.0,0.0,0,0,0,0,0,0,0
30488000,0,47.3977967,8.5456148,491.027,0.0,0.0,0.0,0.0,0.0,0.0,0,0,0,0,0,0,0
30588000,0,47.397801199999996,8.5456155,491.018,0.0,0.0,0.0,0.0,0.0,0.0,0,0,0,0,0,0,0
30688000,0,47.3978055,8.545616299999999,491.01,0.0,0.0,0.0,0.0,0.0,0.0,0,0,0,0,0,0,0
30788000,0,47.397809699999996,8.545617199999999,491.001,0.0,0.0,0.0,0.0,0.0,0.0,0,0,0,0,0,0,0
30888000,0,47.3978143,8.5456183,490.992,0.0,0.0,0.0,0.0,0.0,0.0,0,0,0,0,0,0,0
30988000,0,47.3978186,8.545619499999999,490.985,0.0,0.0,0.0,0.0,0.0,0.0,0,0,0,0,0,0,0
31088000,0,47.3978229,8.545620699999999,490.979,0.0,0.0,0.0,0.0,0.0,0.0,0,0,0,0,0,0,0
31188000,0,47.3978271,8.545622,490.974,0.0,0.0,0.0,0.0,0.0,0.0,0,0,0,0,0,0,0
31288000,0,47.3978311,8.545623299999999,490.971,0.0,0.0,0.0,0.0,0.0,0.0,0,0,0,0,0,0,0
31388000,0,47.3978354,8.5456247,490.967,0.0,0.0,0.0,0.0,0.0,0.0,0,0,0,0,0,0,0
31488000,0,47.3978393,8.5456261,490.964,0.0,0.0,0.0,0.0,0.0,0.0,0,0,0,0,0,0,0
31588000,0,47.3978435,8.545627699999999,490.962,0.0,0.0,0.0,0.0,0.0,0.0,0,0,0,0,0,0,0
31688000,0,47.3978476,8.5456292,490.96,0.0,0.0,0.0,0.0,0.0,0.0,0,0,0,0,0,0,0
31788000,0,47.3978514,8.5456308,490.958,0.0,0.0,0.0,0.0,0.0,0.0,0,0,0,0,0,0,0
31888000,0,47.3978554,8.5456323,490.957,0.0,0.0,0.0,0.0,0.0,0.0,0,0,0,0,0,0,0
31988000,0,47.3978596,8.545634,490.956,0.0,0.0,0.0,0.0,0.0,0.0,0,0,0,0,0,0,0
32088000,0,47.3978634,8.545635599999999,490.955,0.0,0.0,0.0,0.0,0.0,0.0,0,0,0,0,0,0,0
32188000,0,47.397867399999996,8.5456372,490.955,0.0,0.0,0.0,0.0,0.0,0.0,0,0,0,0,0,0,0
32288000,0,47.3978715,8.5456389,490.955,0.0,0.0,0.0,0.0,0.0,0.0,0,0,0,0,0,0,0
32388000,0,47.3978755,8.5456405,490.955,0.0,0.0,0.0,0.0,0.0,0.0,0,0,0,0,0,0,0
32488000,0,47.397879499999995,8.5456421,490.955,0.0,0.0,0.0,0.0,0.0,0.0,0,0,0,0,0,0,0
32588000,0,47.3978834,8.5456436,490.956,0.0,0.0,0.0,0.0,0.0,0.0,0,0,0,0,0,0,0
32688000,0,47.397887399999995,8.5456452,490.956,0.0,0.0,0.0,0.0,0.0,0.0,0,0,0,0,0,0,0
32788000,0,47.3978916,8.545646699999999,490.957,0.0,0.0,0.0,0.0,0.0,0.0,0,0,0,0,0,0,0
32888000,0,47.3978956,8.5456482,490.958,0.0,0.0,0.0,0.0,0.0,0.0,0,0,0,0,0,0,0
32988000,0,47.397899699999996,8.5456497,490.959,0.0,0.0,0.0,0.0,0.0,0.0,0,0,0,0,0,0,0
33088000,0,47.397903799999995,8.545651099999999,490.96,0.0,0.0,0.0,0.0,0.0,0.0,0,0,0,0,0,0,0
33188000,0,47.3979078,8.5456525,490.961,0.0,0.0,0.0,0.0,0.0,0.0,0,0,0,0,0,0,0
33288000,0,47.397911799999996,8.5456538,490.962,0.0,0.0,0.0,0.0,0.0,0.0,0,0,0,0,0,0,0
33388000,0,47.397916099999996,8.545655199999999,490.963,0.0,0.0,0.0,0.0,0.0,0.0,0,0,0,0,0,0,0
33488000,0,47.39792,8.5456565,490.965,0.0,0.0,0.0,0.0,0.0,0.0,0,0,0,0,0,0,0
33588000,0,47.3979243,8.545657799999999,490.966,0.0,0.0,0.0,0.0,0.0,0.0,0,0,0,0,0,0,0
33688000,0,47.3979285,8.5456591,490.967,0.0,0.0,0.0,0.0,0.0,0.0,0,0,0,0,0,0,0
33788000,0,47.397932499999996,8.5456603,490.968,0.0,0.0,0.0,0.0,0.0,0.0,0,0,0,0,0,0,0
33888000,0,47.397936699999995,8.5456615,490.968,0.0,0.0,0.0,0.0,0.0,0.0,0,0,0,0,0,0,0
33988000,0,47.397940999999996,8.5456627,490.969,0.0,0.0,0.0,0.0,0.0,0.0,0,0,0,0,0,0,0
34088000,0,47.3979451,8.5456638,490.969,0.0,0.0,0.0,0.0,0.0,0.0,0,0,0,0,0,0,0
34188000,0,47.397949399999995,8.545665,490.968,0.0,0.0,0.0,0.0,0.0,0.0,0,0,0,0,0,0,0
34288000,0,47.397953699999995,8.5456661,490.968,0.0,0.0,0.0,0.0,0.0,0.0,0,0,0,0,0,0,0
34388000,0,47.397957899999994,8.5456672,490.967,0.0,0.0,0.0,0.0,0.0,0.0,0,0,0,0,0,0,0
34488000,0,47.3979619,8.545668299999999,490.967,0.0,0.0,0.0,0.0,0.0,0.0,0,0,0,0,0,0,0
34588000,0,47.3979663,8.5456694,490.966,0.0,0.0,0.0,0.0,0.0,0.0,0,0,0,0,0,0,0
34688000,0,47.3979705,8.5456705,490.966,0.0,0.0,0.0,0.0,0.0,0.0,0,0,0,0,0,0,0
34788000,0,47.3979745,8.5456715,490.965,0.0,0.0,0.0,0.0,0.0,0.0,0,0,0,0,0,0,0
34888000,0,47.3979789,8.5456726,490.965,0.0,0.0,0.0,0.0,0.0,0.0,0,0,0,0,0,0,0
34988000,0,47.397982999999996,8.545673599999999,490.964,0.0,0.0,0.0,0.0,0.0,0.0,0,0,0,0,0,0,0
35088000,0,47.397987199999996,8.5456747,490.962,0.0,0.0,0.0,0.0,0.0,0.0,0,0,0,0,0,0,0
35188000,0,47.3979916,8.5456758,490.961,0.0,0.0,0.0,0.0,0.0,0.0,0,0,0,0,0,0,0
35288000,0,47.3979958,8.5456769,490.959,0.0,0.0,0.0,0.0,0.0,0.0,0,0,0,0,0,0,0
35388000,0,47.3980001,8.5456779,490.958,0.0,0.0,0.0,0.0,0.0,0.0,0,0,0,0,0,0,0
35488000,0,47.3980043,8.545679,490.956,0.0,0.0,0.0,0.0,0.0,0.0,0,0,0,0,0,0,0
35588000,0,47.398008399999995,8.545679999999999,490.955,0.0,0.0,0.0,0.0,0.0,0.0,0,0,0,0,0,0,0
35688000,0,47.398012699999995,8.5456811,490.953,0.0,0.0,0.0,0.0,0.0,0.0,0,0,0,0,0,0,0
35788000,0,47.3980171,8.5456822,490.951,0.0,0.0,0.0,0.0,0.0,0.0,0,0,0,0,0,0,0
35888000,0,47.398021199999995,8.5456833,490.95,0.0,0.0,0.0,0.0,0.0,0.0,0,0,0,0,0,0,0
35988000,0,47.3980256,8.545684399999999,490.948,0.0,0.0,0.0,0.0,0.0,0.0,0,0,0,0,0,0,0
36088000,0,47.3980299,8.5456855,490.947,0.0,0.0,0.0,0.0,0.0,0.0,0,0,0,0,0,0,0
36188000,0,47.3980342,8.5456866,490.946,0.0,0.0,0.0,0.0,0.0,0.0,0,0,0,0,0,0,0
36288000,0,47.398038299999996,8.5456877,490.946,0.0,0.0,0.0,0.0,0.0,0.0,0,0,0,0,0,0,0
36388000,0,47.3980427,8.545688799999999,490.945,0.0,0.0,0.0,0.0,0.0,0.0,0,0,0,0,0,0,0
36488000,0,47.398047,8.54569,490.945,0.0,0.0,0.0,0.0,0.0,0.0,0,0,0,0,0,0,0
36588000,0,47.3980513,8.545691099999999,490.945,0.0,0.0,0.0,0.0,0.0,0.0,0,0,0,0,0,0,0
36688000,0,47.3980556,8.545692299999999,490.945,0.0,0.0,0.0,0.0,0.0,0.0,0,0,0,0,0,0,0
36788000,0,47.3980599,8.5456934,490.945,0.0,0.0,0.0,0.0,0.0,0.0,0,0,0,0,0,0,0
36888000,0,47.398064,8.5456946,490.944,0.0,0.0,0.0,0.0,0.0,0.0,0,0,0,0,0,0,0
36988000,0,47.3980685,8.545695799999999,490.944,0.0,0.0,0.0,0.0,0.0,0.0,0,0,0,0,0,0,0
37088000,0,47.3980728,8.545696999999999,490.943,0.0,0.0,0.0,0.0,0.0,0.0,0,0,0,0,0,0,0
37188000,0,47.398077199999996,8.5456982,490.942,0.0,0.0,0.0,0.0,0.0,0.0,0,0,0,0,0,0,0
37288000,0,47.398081499999996,8.5456994,490.941,0.0,0.0,0.0,0.0,0.0,0.0,0,0,0,0,0,0,0
37388000,0,47.3980858,8.5457007,490.94,0.0,0.0,0.0,0.0,0.0,0.0,0,0,0,0,0,0,0
37488000,0,47.398089999999996,8.5457018,490.939,0.0,0.0,0.0,0.0,0.0,0.0,0,0,0,0,0,0,0
37588000,0,47.3980945,8.545703099999999,490.937,0.0,0.0,0.0,0.0,0.0,0.0,0,0,0,0,0,0,0
37688000,0,47.3980989,8.545704299999999,490.936,0.0,0.0,0.0,0.0,0.0,0.0,0,0,0,0,0,0,0
37788000,0,47.398103299999995,8.5457056,490.934,0.0,0.0,0.0,0.0,0.0,0.0,0,0,0,0,0,0,0
37888000,0,47.3981074,8.5457068,490.932,0.0,0.0,0.0,0.0,0.0,0.0,0,0,0,0,0,0,0
37988000,0,47.398112,8.545708099999999,490.93,0.0,0.0,0.0,0.0,0.0,0.0,0,0,0,0,0,0,0
38088000,0,47.3981162,8.5457093,490.927,0.0,0.0,0.0,0.0,0.0,0.0,0,0,0,0,0,0,0
38188000,0,47.3981207,8.5457105,490.925,0.0,0.0,0.0,0.0,0.0,0.0,0,0,0,0,0,0,0
38288000,0,47.398125099999994,8.5457118,490.923,0.0,0.0,0.0,0.0,0.0,0.0,0,0,0,0,0,0,0
38388000,0,47.3981293,8.545713,490.921,0.0,0.0,0.0,0.0,0.0,0.0,0,0,0,0,0,0,0
38488000,0,47.3981339,8.5457143,490.92,0.0,0.0,0.0,0.0,0.0,0.0,0,0,0,0,0,0,0
38588000,0,47.3981383,8.5457155,490.918,0.0,0.0,0.0,0.0,0.0,0.0,0,0,0,0,0,0,0
38688000,0,47.3981425,8.5457167,490.916,0.0,0.0,0.0,0.0,0.0,0.0,0,0,0,0,0,0,0
38788000,0,47.398147099999996,8.545717999999999,490.914,0.0,0.0,0.0,0.0,0.0,0.0,0,0,0,0,0,0,0
38888000,0,47.3981515,8.5457193,490.912,0.0,0.0,0.0,0.0,0.0,0.0,0,0,0,0,0,0,0
38988000,0,47.3981557,8.5457205,490.911,0.0,0.0,0.0,0.0,0.0,0.0,0,0,0,0,0,0,0
39088000,0,47.3981603,8.545721799999999,490.908,0.0,0.0,0.0,0.0,0.0,0.0,0,0,0,0,0,0,0
39188000,0,47.398164699999995,8.545722999999999,490.906,0.0,0.0,0.0,0.0,0.0,0.0,0,0,0,0,0,0,0
39288000,0,47.3981691,8.5457242,490.903,0.0,0.0,0.0,0.0,0.0,0.0,0,0,0,0,0,0,0
39388000,0,47.3981735,8.5457255,490.9,0.0,0.0,0.0,0.0,0.0,0.0,0,0,0,0,0,0,0
39488000,0,47.3981779,8.5457267,490.897,0.0,0.0,0.0,0.0,0.0,0.0,0,0,0,0,0,0,0
39588000,0,47.398182299999995,8.545728,490.894,0.0,0.0,0.0,0.0,0.0,0.0,0,0,0,0,0,0,0
39688000,0,47.3981867,8.5457292,490.891,0.0,0.0,0.0,0.0,0.0,0.0,0,0,0,0,0,0,0
39788000,0,47.3981911,8.5457304,490.888,0.0,0.0,0.0,0.0,0.0,0.0,0,0,0,0,0,0,0
39888000,0,47.3981955,8.5457316,490.886,0.0,0.0,0.0,0.0,0.0,0.0,0,0,0,0,0,0,0
39988000,0,47.398199899999994,8.545732899999999,490.882,0.0,0.0,0.0,0.0,0.0,0.0,0,0,0,0,0,0,0
40088000,0,47.398204299999996,8.5457342,490.879,0.0,0.0,0.0,0.0,0.0,0.0,0,0,0,0,0,0,0
40188000,0,47.3982086,8.5457356,490.877,0.0,0.0,0.0,0.0,0.0,0.0,0,0,0,0,0,0,0
40288000,0,47.398212799999996,8.5457371,490.876,0.0,0.0,0.0,0.0,0.0,0.0,0,0,0,0,0,0,0
40388000,0,47.3982169,8.5457389,490.877,0.0,0.0,0.0,0.0,0.0,0.0,0,0,0,0,0,0,0
40488000,0,47.398220599999995,8.545740799999999,490.878,0.0,0.0,0.0,0.0,0.0,0.0,0,0,0,0,0,0,0
40588000,0,47.3982244,8.5457431,490.88,0.0,0.0,0.0,0.0,0.0,0.0,0,0,0,0,0,0,0
40688000,0,47.3982278,8.545745499999999,490.882,0.0,0.0,0.0,0.0,0.0,0.0,0,0,0,0,0,0,0
40788000,0,47.398230899999994,8.545748099999999,490.883,0.0,0.0,0.0,0.0,0.0,0.0,0,0,0,0,0,0,0
40888000,0,47.3982336,8.5457509,490.883,0.0,0.0,0.0,0.0,0.0,0.0,0,0,0,0,0,0,0
40988000,0,47.3982362,8.5457541,490.884,0.0,0.0,0.0,0.0,0.0,0.0,0,0,0,0,0,0,0
41088000,0,47.3982384,8.545757199999999,490.885,0.0,0.0,0.0,0.0,0.0,0.0,0,0,0,0,0,0,0
41188000,0,47.3982403,8.5457609,490.888,0.0,0.0,0.0,0.0,0.0,0.0,0,0,0,0,0,0,0
41288000,0,47.398241899999995,8.5457647,490.89,0.0,0.0,0.0,0.0,0.0,0.0,0,0,0,0,0,0,0
41388000,0,47.398243199999996,8.545768599999999,490.892,0.0,0.0,0.0,0.0,0.0,0.0,0,0,0,0,0,0,0
41488000,0,47.3982441,8.5457728,490.892,0.0,0.0,0.0,0.0,0.0,0.0,0,0,0,0,0,0,0
41588000,0,47.3982448,8.5457772,490.891,0.0,0.0,0.0,0.0,0.0,0.0,0,0,0,0,0,0,0
41688000,0,47.3982452,8.5457818,490.889,0.0,0.0,0.0,0.0,0.0,0.0,0,0,0,0,0,0,0
41788000,0,47.3982453,8.5457865,490.886,0.0,0.0,0.0,0.0,0.0,0.0,0,0,0,0,0,0,0
41888000,0,47.3982452,8.5457913,490.882,0.0,0.0,0.0,0.0,0.0,0.0,0,0,0,0,0,0,0
41988000,0,47.3982447,8.5457963,490.879,0.0,0.0,0.0,0.0,0.0,0.0,0,0,0,0,0,0,0
42088000,0,47.398244,8.5458014,490.875,0.0,0.0,0.0,0.0,0.0,0.0,0,0,0,0,0,0,0
42188000,0,47.398243099999995,8.5458064,490.872,0.0,0.0,0.0,0.0,0.0,0.0,0,0,0,0,0,0,0
42288000,0,47.398241899999995,8.5458117,490.868,0.0,0.0,0.0,0.0,0.0,0.0,0,0,0,0,0,0,0
42388000,0,47.3982405,8.545817,490.863,0.0,0.0,0.0,0.0,0.0,0.0,0,0,0,0,0,0,0
42488000,0,47.398238799999994,8.5458226,490.856,0.0,0.0,0.0,0.0,0.0,0.0,0,0,0,0,0,0,0
42588000,0,47.398236999999995,8.5458281,490.848,0.0,0.0,0.0,0.0,0.0,0.0,0,0,0,0,0,0,0
42688000,0,47.398235,8.5458336,490.839,0.0,0.0,0.0,0.0,0.0,0.0,0,0,0,0,0,0,0
42788000,0,47.3982329,8.545838999999999,490.829,0.0,0.0,0.0,0.0,0.0,0.0,0,0,0,0,0,0,0
42888000,0,47.3982307,8.5458441,490.82,0.0,0.0,0.0,0.0,0.0,0.0,0,0,0,0,0,0,0
42988000,0,47.3982284,8.5458494,490.812,0.0,0.0,0.0,0.0,0.0,0.0,0,0,0,0,0,0,0
43088000,0,47.398226,8.5458547,490.805,0.0,0.0,0.0,0.0,0.0,0.0,0,0,0,0,0,0,0
43188000,0,47.3982235,8.5458599,490.798,0.0,0.0,0.0,0.0,0.0,0.0,0,0,0,0,0,0,0
43288000,0,47.398221,8.5458652,490.793,0.0,0.0,0.0,0.0,0.0,0.0,0,0,0,0,0,0,0
43388000,0,47.3982186,8.5458704,490.79,0.0,0.0,0.0,0.0,0.0,0.0,0,0,0,0,0,0,0
43488000,0,47.398216299999994,8.5458755,490.788,0.0,0.0,0.0,0.0,0.0,0.0,0,0,0,0,0,0,0
43588000,0,47.398213999999996,8.5458807,490.787,0.0,0.0,0.0,0.0,0.0,0.0,0,0,0,0,0,0,0
43688000,0,47.3982118,8.5458859,490.787,0.0,0.0,0.0,0.0,0.0,0.0,0,0,0,0,0,0,0
43788000,0,47.398209699999995,8.5458909,490.788,0.0,0.0,0.0,0.0,0.0,0.0,0,0,0,0,0,0,0
43888000,0,47.3982075,8.545896299999999,490.79,0.0,0.0,0.0,0.0,0.0,0.0,0,0,0,0,0,0,0
43988000,0,47.398205499999996,8.545901599999999,490.793,0.0,0.0,0.0,0.0,0.0,0.0,0,0,0,0,0,0,0
44084000,0,47.398203599999995,8.5459067,490.796,0.0,0.0,0.0,0.0,0.0,0.0,0,0,0,0,0,0,0
44188000,0,47.3982016,8.5459123,490.8,0.0,0.0,0.0,0.0,0.0,0.0,0,0,0,0,0,0,0
44288000,0,47.3981998,8.5459176,490.804,0.0,0.0,0.0,0.0,0.0,0.0,0,0,0,0,0,0,0
44388000,0,47.398198,8.5459228,490.808,0.0,0.0,0.0,0.0,0.0,0.0,0,0,0,0,0,0,0
44488000,0,47.3981961,8.5459285,490.812,0.0,0.0,0.0,0.0,0.0,0.0,0,0,0,0,0,0,0
44588000,0,47.3981944,8.5459338,490.817,0.0,0.0,0.0,0.0,0.0,0.0,0,0,0,0,0,0,0
44688000,0,47.398192599999994,8.5459395,490.822,0.0,0.0,0.0,0.0,0.0,0.0,0,0,0,0,0,0,0
44784000,0,47.398191,8.5459446,490.827,0.0,0.0,0.0,0.0,0.0,0.0,0,0,0,0,0,0,0
44888000,0,47.3981892,8.5459506,490.832,0.0,0.0,0.0,0.0,0.0,0.0,0,0,0,0,0,0,0
44988000,0,47.3981876,8.5459562,490.837,0.0,0.0,0.0,0.0,0.0,0.0,0,0,0,0,0,0,0
45088000,0,47.398185899999994,8.545961799999999,490.842,0.0,0.0,0.0,0.0,0.0,0.0,0,0,0,0,0,0,0
45188000,0,47.398184199999996,8.5459674,490.847,0.0,0.0,0.0,0.0,0.0,0.0,0,0,0,0,0,0,0
45288000,0,47.3981826,8.5459728,490.851,0.0,0.0,0.0,0.0,0.0,0.0,0,0,0,0,0,0,0
45388000,0,47.3981809,8.5459786,490.855,0.0,0.0,0.0,0.0,0.0,0.0,0,0,0,0,0,0,0
45488000,0,47.3981792,8.5459842,490.858,0.0,0.0,0.0,0.0,0.0,0.0,0,0,0,0,0,0,0
45588000,0,47.3981776,8.5459899,490.86,0.0,0.0,0.0,0.0,0.0,0.0,0,0,0,0,0,0,0
45688000,0,47.3981759,8.545995399999999,490.862,0.0,0.0,0.0,0.0,0.0,0.0,0,0,0,0,0,0,0
45788000,0,47.3981743,8.5460007,490.863,0.0,0.0,0.0,0.0,0.0,0.0,0,0,0,0,0,0,0
45888000,0,47.398172699999996,8.546006199999999,490.865,0.0,0.0,0.0,0.0,0.0,0.0,0,0,0,0,0,0,0
45988000,0,47.3981711,8.5460113,490.868,0.0,0.0,0.0,0.0,0.0,0.0,0,0,0,0,0,0,0
46088000,0,47.398169599999996,8.5460161,490.87,0.0,0.0,0.0,0.0,0.0,0.0,0,0,0,0,0,0,0
46184000,0,47.3981682,8.5460206,490.872,0.0,0.0,0.0,0.0,0.0,0.0,0,0,0,0,0,0,0
46288000,0,47.398166599999996,8.546025499999999,490.875,0.0,0.0,0.0,0.0,0.0,0.0,0,0,0,0,0,0,0
46388000,0,47.3981652,8.546029899999999,490.876,0.0,0.0,0.0,0.0,0.0,0.0,0,0,0,0,0,0,0
46488000,0,47.3981638,8.5460341,490.878,0.0,0.0,0.0,0.0,0.0,0.0,0,0,0,0,0,0,0
46588000,0,47.3981625,8.546038099999999,490.88,0.0,0.0,0.0,0.0,0.0,0.0,0,0,0,0,0,0,0
46688000,0,47.3981612,8.546041899999999,490.881,0.0,0.0,0.0,0.0,0.0,0.0,0,0,0,0,0,0,0
46784000,0,47.39816,8.546045399999999,490.882,0.0,0.0,0.0,0.0,0.0,0.0,0,0,0,0,0,0,0
46884000,0,47.3981588,8.546048899999999,490.883,0.0,0.0,0.0,0.0,0.0,0.0,0,0,0,0,0,0,0
46988000,0,47.3981577,8.5460523,490.884,0.0,0.0,0.0,0.0,0.0,0.0,0,0,0,0,0,0,0
47084000,0,47.3981566,8.5460554,490.884,0.0,0.0,0.0,0.0,0.0,0.0,0,0,0,0,0,0,0
47188000,0,47.398155499999994,8.5460586,490.885,0.0,0.0,0.0,0.0,0.0,0.0,0,0,0,0,0,0,0
47288000,0,47.3981545,8.5460614,490.885,0.0,0.0,0.0,0.0,0.0,0.0,0,0,0,0,0,0,0
47388000,0,47.3981535,8.546064099999999,490.885,0.0,0.0,0.0,0.0,0.0,0.0,0,0,0,0,0,0,0
47488000,0,47.3981527,8.5460666,490.884,0.0,0.0,0.0,0.0,0.0,0.0,0,0,0,0,0,0,0
47588000,0,47.3981518,8.5460689,490.883,0.0,0.0,0.0,0.0,0.0,0.0,0,0,0,0,0,0,0
47688000,0,47.398151,8.5460712,490.881,0.0,0.0,0.0,0.0,0.0,0.0,0,0,0,0,0,0,0
47788000,0,47.398150199999996,8.5460734,490.879,0.0,0.0,0.0,0.0,0.0,0.0,0,0,0,0,0,0,0
47888000,0,47.398149499999995,8.5460754,490.877,0.0,0.0,0.0,0.0,0.0,0.0,0,0,0,0,0,0,0
47988000,0,47.3981488,8.5460773,490.875,0.0,0.0,0.0,0.0,0.0,0.0,0,0,0,0,0,0,0
48088000,0,47.3981482,8.5460789,490.873,0.0,0.0,0.0,0.0,0.0,0.0,0,0,0,0,0,0,0
48188000,0,47.3981475,8.5460806,490.87,0.0,0.0,0.0,0.0,0.0,0.0,0,0,0,0,0,0,0
48288000,0,47.3981469,8.5460821,490.868,0.0,0.0,0.0,0.0,0.0,0.0,0,0,0,0,0,0,0
48388000,0,47.3981463,8.5460836,490.865,0.0,0.0,0.0,0.0,0.0,0.0,0,0,0,0,0,0,0
48488000,0,47.398145799999995,8.5460849,490.863,0.0,0.0,0.0,0.0,0.0,0.0,0,0,0,0,0,0,0
48588000,0,47.398145299999996,8.5460862,490.861,0.0,0.0,0.0,0.0,0.0,0.0,0,0,0,0,0,0,0
48688000,0,47.3981448,8.5460873,490.859,0.0,0.0,0.0,0.0,0.0,0.0,0,0,0,0,0,0,0
48788000,0,47.3981443,8.5460884,490.857,0.0,0.0,0.0,0.0,0.0,0.0,0,0,0,0,0,0,0
48888000,0,47.3981439,8.5460894,490.856,0.0,0.0,0.0,0.0,0.0,0.0,0,0,0,0,0,0,0
48988000,0,47.398143399999995,8.5460902,490.857,0.0,0.0,0.0,0.0,0.0,0.0,0,0,0,0,0,0,0
49088000,0,47.398142899999996,8.5460909,490.859,0.0,0.0,0.0,0.0,0.0,0.0,0,0,0,0,0,0,0
49188000,0,47.3981424,8.5460913,490.862,0.0,0.0,0.0,0.0,0.0,0.0,0,0,0,0,0,0,0
49288000,0,47.3981419,8.5460914,490.866,0.0,0.0,0.0,0.0,0.0,0.0,0,0,0,0,0,0,0
49388000,0,47.3981412,8.5460912,490.867,0.0,0.0,0.0,0.0,0.0,0.0,0,0,0,0,0,0,0
49488000,0,47.3981406,8.5460908,490.866,0.0,0.0,0.0,0.0,0.0,0.0,0,0,0,0,0,0,0
49588000,0,47.3981399,8.54609,490.863,0.0,0.0,0.0,0.0,0.0,0.0,0,0,0,0,0,0,0
49688000,0,47.3981393,8.546089,490.861,0.0,0.0,0.0,0.0,0.0,0.0,0,0,0,0,0,0,0
49788000,0,47.398138499999995,8.5460879,490.859,0.0,0.0,0.0,0.0,0.0,0.0,0,0,0,0,0,0,0
49884000,0,47.3981378,8.5460867,490.858,0.0,0.0,0.0,0.0,0.0,0.0,0,0,0,0,0,0,0
49988000,0,47.3981369,8.5460852,490.859,0.0,0.0,0.0,0.0,0.0,0.0,0,0,0,0,0,0,0
50088000,0,47.398136099999995,8.546083699999999,490.861,0.0,0.0,0.0,0.0,0.0,0.0,0,0,0,0,0,0,0
50188000,0,47.398134999999996,8.546081899999999,490.864,0.0,0.0,0.0,0.0,0.0,0.0,0,0,0,0,0,0,0
50288000,0,47.3981339,8.5460801,490.869,0.0,0.0,0.0,0.0,0.0,0.0,0,0,0,0,0,0,0
50388000,0,47.398132499999996,8.546078,490.874,0.0,0.0,0.0,0.0,0.0,0.0,0,0,0,0,0,0,0
50488000,0,47.398131,8.546075799999999,490.88,0.0,0.0,0.0,0.0,0.0,0.0,0,0,0,0,0,0,0
50588000,0,47.3981293,8.5460735,490.886,0.0,0.0,0.0,0.0,0.0,0.0,0,0,0,0,0,0,0
50688000,0,47.3981274,8.546071099999999,490.891,0.0,0.0,0.0,0.0,0.0,0.0,0,0,0,0,0,0,0
50788000,0,47.3981253,8.546068499999999,490.895,0.0,0.0,0.0,0.0,0.0,0.0,0,0,0,0,0,0,0
50888000,0,47.398122799999996,8.5460657,490.898,0.0,0.0,0.0,0.0,0.0,0.0,0,0,0,0,0,0,0
50988000,0,47.3981202,8.5460628,490.9,0.0,0.0,0.0,0.0,0.0,0.0,0,0,0,0,0,0,0
51088000,0,47.3981176,8.5460599,490.9,0.0,0.0,0.0,0.0,0.0,0.0,0,0,0,0,0,0,0
51188000,0,47.3981144,8.5460567,490.898,0.0,0.0,0.0,0.0,0.0,0.0,0,0,0,0,0,0,0
51288000,0,47.3981114,8.5460536,490.895,0.0,0.0,0.0,0.0,0.0,0.0,0,0,0,0,0,0,0
51384000,0,47.398108099999995,8.5460502,490.89,0.0,0.0,0.0,0.0,0.0,0.0,0,0,0,0,0,0,0
51488000,0,47.398104499999995,8.5460467,490.884,0.0,0.0,0.0,0.0,0.0,0.0,0,0,0,0,0,0,0
51588000,0,47.398101,8.5460432,490.877,0.0,0.0,0.0,0.0,0.0,0.0,0,0,0,0,0,0,0
51688000,0,47.3980975,8.546039799999999,490.871,0.0,0.0,0.0,0.0,0.0,0.0,0,0,0,0,0,0,0
51788000,0,47.3980939,8.5460362,490.864,0.0,0.0,0.0,0.0,0.0,0.0,0,0,0,0,0,0,0
51888000,0,47.3980903,8.5460327,490.858,0.0,0.0,0.0,0.0,0.0,0.0,0,0,0,0,0,0,0
51988000,0,47.3980865,8.5460292,490.854,0.0,0.0,0.0,0.0,0.0,0.0,0,0,0,0,0,0,0
52088000,0,47.3980829,8.5460259,490.851,0.0,0.0,0.0,0.0,0.0,0.0,0,0,0,0,0,0,0
52184000,0,47.398079499999994,8.5460228,490.85,0.0,0.0,0.0,0.0,0.0,0.0,0,0,0,0,0,0,0
52288000,0,47.3980758,8.5460195,490.849,0.0,0.0,0.0,0.0,0.0,0.0,0,0,0,0,0,0,0
52388000,0,47.398072199999994,8.5460163,490.848,0.0,0.0,0.0,0.0,0.0,0.0,0,0,0,0,0,0,0
52488000,0,47.3980688,8.5460134,490.848,0.0,0.0,0.0,0.0,0.0,0.0,0,0,0,0,0,0,0
52588000,0,47.3980653,8.546010299999999,490.848,0.0,0.0,0.0,0.0,0.0,0.0,0,0,0,0,0,0,0
52688000,0,47.3980617,8.546007099999999,490.848,0.0,0.0,0.0,0.0,0.0,0.0,0,0,0,0,0,0,0
52788000,0,47.3980582,8.5460041,490.849,0.0,0.0,0.0,0.0,0.0,0.0,0,0,0,0,0,0,0
52884000,0,47.3980548,8.5460011,490.849,0.0,0.0,0.0,0.0,0.0,0.0,0,0,0,0,0,0,0
52988000,0,47.3980513,8.5459981,490.85,0.0,0.0,0.0,0.0,0.0,0.0,0,0,0,0,0,0,0
53088000,0,47.3980478,8.545995,490.85,0.0,0.0,0.0,0.0,0.0,0.0,0,0,0,0,0,0,0
53188000,0,47.3980442,8.5459917,490.85,0.0,0.0,0.0,0.0,0.0,0.0,0,0,0,0,0,0,0
53288000,0,47.398040699999996,8.5459886,490.85,0.0,0.0,0.0,0.0,0.0,0.0,0,0,0,0,0,0,0
53384000,0,47.3980374,8.5459856,490.85,0.0,0.0,0.0,0.0,0.0,0.0,0,0,0,0,0,0,0
53488000,0,47.3980337,8.5459822,490.85,0.0,0.0,0.0,0.0,0.0,0.0,0,0,0,0,0,0,0
53588000,0,47.398030299999995,8.545978999999999,490.85,0.0,0.0,0.0,0.0,0.0,0.0,0,0,0,0,0,0,0
53688000,0,47.398027,8.5459759,490.849,0.0,0.0,0.0,0.0,0.0,0.0,0,0,0,0,0,0,0
53788000,0,47.3980235,8.545972599999999,490.849,0.0,0.0,0.0,0.0,0.0,0.0,0,0,0,0,0,0,0
53888000,0,47.3980199,8.545969099999999,490.849,0.0,0.0,0.0,0.0,0.0,0.0,0,0,0,0,0,0,0
53988000,0,47.3980165,8.5459658,490.848,0.0,0.0,0.0,0.0,0.0,0.0,0,0,0,0,0,0,0
54084000,0,47.3980132,8.5459625,490.847,0.0,0.0,0.0,0.0,0.0,0.0,0,0,0,0,0,0,0
54188000,0,47.398009699999996,8.545959,490.846,0.0,0.0,0.0,0.0,0.0,0.0,0,0,0,0,0,0,0
54288000,0,47.3980063,8.5459556,490.844,0.0,0.0,0.0,0.0,0.0,0.0,0,0,0,0,0,0,0
54388000,0,47.3980031,8.5459523,490.843,0.0,0.0,0.0,0.0,0.0,0.0,0,0,0,0,0,0,0
54488000,0,47.3979996,8.5459487,490.842,0.0,0.0,0.0,0.0,0.0,0.0,0,0,0,0,0,0,0
54588000,0,47.397996299999996,8.5459452,490.841,0.0,0.0,0.0,0.0,0.0,0.0,0,0,0,0,0,0,0
54688000,0,47.397993,8.545941899999999,490.84,0.0,0.0,0.0,0.0,0.0,0.0,0,0,0,0,0,0,0
54788000,0,47.397989599999995,8.5459383,490.838,0.0,0.0,0.0,0.0,0.0,0.0,0,0,0,0,0,0,0
54888000,0,47.3979862,8.5459347,490.837,0.0,0.0,0.0,0.0,0.0,0.0,0,0,0,0,0,0,0
54988000,0,47.397982899999995,8.5459312,490.834,0.0,0.0,0.0,0.0,0.0,0.0,0,0,0,0,0,0,0
55088000,0,47.3979796,8.5459277,490.832,0.0,0.0,0.0,0.0,0.0,0.0,0,0,0,0,0,0,0
55188000,0,47.397976299999996,8.5459243,490.829,0.0,0.0,0.0,0.0,0.0,0.0,0,0,0,0,0,0,0
55288000,0,47.3979733,8.545921,490.827,0.0,0.0,0.0,0.0,0.0,0.0,0,0,0,0,0,0,0
55388000,0,47.39797,8.5459176,490.825,0.0,0.0,0.0,0.0,0.0,0.0,0,0,0,0,0,0,0
55488000,0,47.397967099999995,8.5459144,490.824,0.0,0.0,0.0,0.0,0.0,0.0,0,0,0,0,0,0,0
55588000,0,47.3979642,8.545911199999999,490.822,0.0,0.0,0.0,0.0,0.0,0.0,0,0,0,0,0,0,0
55688000,0,47.3979614,8.5459082,490.821,0.0,0.0,0.0,0.0,0.0,0.0,0,0,0,0,0,0,0
55788000,0,47.3979588,8.5459053,490.819,0.0,0.0,0.0,0.0,0.0,0.0,0,0,0,0,0,0,0
55888000,0,47.397956199999996,8.5459026,490.818,0.0,0.0,0.0,0.0,0.0,0.0,0,0,0,0,0,0,0
55988000,0,47.3979539,8.5459,490.817,0.0,0.0,0.0,0.0,0.0,0.0,0,0,0,0,0,0,0
56088000,0,47.3979514,8.5458974,490.815,0.0,0.0,0.0,0.0,0.0,0.0,0,0,0,0,0,0,0
56188000,0,47.3979492,8.5458949,490.814,0.0,0.0,0.0,0.0,0.0,0.0,0,0,0,0,0,0,0
56288000,0,47.397946999999995,8.5458926,490.812,0.0,0.0,0.0,0.0,0.0,0.0,0,0,0,0,0,0,0
56388000,0,47.397945,8.5458904,490.81,0.0,0.0,0.0,0.0,0.0,0.0,0,0,0,0,0,0,0
56488000,0,47.397943,8.5458883,490.809,0.0,0.0,0.0,0.0,0.0,0.0,0,0,0,0,0,0,0
56588000,0,47.3979412,8.545886399999999,490.808,0.0,0.0,0.0,0.0,0.0,0.0,0,0,0,0,0,0,0
56688000,0,47.3979393,8.5458845,490.807,0.0,0.0,0.0,0.0,0.0,0.0,0,0,0,0,0,0,0
56788000,0,47.3979376,8.545882599999999,490.805,0.0,0.0,0.0,0.0,0.0,0.0,0,0,0,0,0,0,0
56884000,0,47.397936,8.545881,490.804,0.0,0.0,0.0,0.0,0.0,0.0,0,0,0,0,0,0,0
56988000,0,47.3979344,8.5458793,490.802,0.0,0.0,0.0,0.0,0.0,0.0,0,0,0,0,0,0,0
57088000,0,47.3979329,8.5458778,490.801,0.0,0.0,0.0,0.0,0.0,0.0,0,0,0,0,0,0,0
57188000,0,47.3979315,8.5458764,490.799,0.0,0.0,0.0,0.0,0.0,0.0,0,0,0,0,0,0,0
57288000,0,47.397930099999996,8.545874999999999,490.798,0.0,0.0,0.0,0.0,0.0,0.0,0,0,0,0,0,0,0
57388000,0,47.3979289,8.5458737,490.796,0.0,0.0,0.0,0.0,0.0,0.0,0,0,0,0,0,0,0
57488000,0,47.3979277,8.5458726,490.795,0.0,0.0,0.0,0.0,0.0,0.0,0,0,0,0,0,0,0
57588000,0,47.3979266,8.5458714,490.793,0.0,0.0,0.0,0.0,0.0,0.0,0,0,0,0,0,0,0
57688000,0,47.3979255,8.545870299999999,490.792,0.0,0.0,0.0,0.0,0.0,0.0,0,0,0,0,0,0,0
57788000,0,47.397924499999995,8.5458693,490.79,0.0,0.0,0.0,0.0,0.0,0.0,0,0,0,0,0,0,0
57888000,0,47.3979235,8.5458683,490.789,0.0,0.0,0.0,0.0,0.0,0.0,0,0,0,0,0,0,0
57988000,0,47.3979226,8.5458675,490.788,0.0,0.0,0.0,0.0,0.0,0.0,0,0,0,0,0,0,0
58088000,0,47.3979218,8.5458666,490.786,0.0,0.0,0.0,0.0,0.0,0.0,0,0,0,0,0,0,0
58188000,0,47.397921,8.545865899999999,490.785,0.0,0.0,0.0,0.0,0.0,0.0,0,0,0,0,0,0,0
58288000,0,47.397920299999996,8.5458651,490.784,0.0,0.0,0.0,0.0,0.0,0.0,0,0,0,0,0,0,0
58388000,0,47.397919599999994,8.5458645,490.783,0.0,0.0,0.0,0.0,0.0,0.0,0,0,0,0,0,0,0
58488000,0,47.3979189,8.545863899999999,490.783,0.0,0.0,0.0,0.0,0.0,0.0,0,0,0,0,0,0,0
58588000,0,47.3979183,8.545863299999999,490.782,0.0,0.0,0.0,0.0,0.0,0.0,0,0,0,0,0,0,0
58688000,0,47.397917799999995,8.5458628,490.782,0.0,0.0,0.0,0.0,0.0,0.0,0,0,0,0,0,0,0
58788000,0,47.397917199999995,8.5458623,490.782,0.0,0.0,0.0,0.0,0.0,0.0,0,0,0,0,0,0,0
58888000,0,47.397916699999996,8.545861799999999,490.783,0.0,0.0,0.0,0.0,0.0,0.0,0,0,0,0,0,0,0
58988000,0,47.3979163,8.5458614,490.783,0.0,0.0,0.0,0.0,0.0,0.0,0,0,0,0,0,0,0
59088000,0,47.3979159,8.5458611,490.784,0.0,0.0,0.0,0.0,0.0,0.0,0,0,0,0,0,0,0
59188000,0,47.397915399999995,8.5458607,490.783,0.0,0.0,0.0,0.0,0.0,0.0,0,0,0,0,0,0,0
59288000,0,47.3979151,8.5458604,490.774,0.0,0.0,0.0,0.0,0.0,0.0,0,0,0,0,0,0,0
59384000,0,47.3979147,8.545860099999999,490.752,0.0,0.0,0.0,0.0,0.0,0.0,0,0,0,0,0,0,0
59488000,0,47.3979144,8.545859799999999,490.709,0.0,0.0,0.0,0.0,0.0,0.0,0,0,0,0,0,0,0
59588000,0,47.3979141,8.545859499999999,490.649,0.0,0.0,0.0,0.0,0.0,0.0,0,0,0,0,0,0,0
59688000,0,47.3979138,8.5458593,490.575,0.0,0.0,0.0,0.0,0.0,0.0,0,0,0,0,0,0,0
59788000,0,47.3979135,8.5458591,490.493,0.0,0.0,0.0,0.0,0.0,0.0,0,0,0,0,0,0,0
59888000,0,47.3979132,8.545858899999999,490.416,0.0,0.0,0.0,0.0,0.0,0.0,0,0,0,0,0,0,0
59988000,0,47.3979131,8.5458588,490.345,0.0,0.0,0.0,0.0,0.0,0.0,0,0,0,0,0,0,0
60088000,0,47.397912899999994,8.5458588,490.279,0.0,0.0,0.0,0.0,0.0,0.0,0,0,0,0,0,0,0
60188000,0,47.3979128,8.5458588,490.217,0.0,0.0,0.0,0.0,0.0,0.0,0,0,0,0,0,0,0
60288000,0,47.3979127,8.5458588,490.149,0.0,0.0,0.0,0.0,0.0,0.0,0,0,0,0,0,0,0
60388000,0,47.3979126,8.5458588,490.083,0.0,0.0,0.0,0.0,0.0,0.0,0,0,0,0,0,0,0
60488000,0,47.3979125,8.5458588,490.016,0.0,0.0,0.0,0.0,0.0,0.0,0,0,0,0,0,0,0
60588000,0,47.397912399999996,8.5458588,489.949,0.0,0.0,0.0,0.0,0.0,0.0,0,0,0,0,0,0,0
60688000,0,47.397912299999994,8.5458588,489.882,0.0,0.0,0.0,0.0,0.0,0.0,0,0,0,0,0,0,0
60788000,0,47.3979122,8.5458588,489.814,0.0,0.0,0.0,0.0,0.0,0.0,0,0,0,0,0,0,0
60888000,0,47.3979121,8.5458588,489.745,0.0,0.0,0.0,0.0,0.0,0.0,0,0,0,0,0,0,0
60988000,0,47.397912,8.545858899999999,489.679,0.0,0.0,0.0,0.0,0.0,0.0,0,0,0,0,0,0,0
61088000,0,47.397912,8.545858899999999,489.61,0.0,0.0,0.0,0.0,0.0,0.0,0,0,0,0,0,0,0
61188000,0,47.3979119,8.545858899999999,489.539,0.0,0.0,0.0,0.0,0.0,0.0,0,0,0,0,0,0,0
61288000,0,47.397911799999996,8.545858899999999,489.47,0.0,0.0,0.0,0.0,0.0,0.0,0,0,0,0,0,0,0
61388000,0,47.397911799999996,8.545858899999999,489.4,0.0,0.0,0.0,0.0,0.0,0.0,0,0,0,0,0,0,0
61488000,0,47.397911699999995,8.545858899999999,489.33,0.0,0.0,0.0,0.0,0.0,0.0,0,0,0,0,0,0,0
61588000,0,47.397911699999995,8.545858899999999,489.261,0.0,0.0,0.0,0.0,0.0,0.0,0,0,0,0,0,0,0
61688000,0,47.3979116,8.545858899999999,489.191,0.0,0.0,0.0,0.0,0.0,0.0,0,0,0,0,0,0,0
61788000,0,47.3979116,8.545859,489.122,0.0,0.0,0.0,0.0,0.0,0.0,0,0,0,0,0,0,0
61884000,0,47.3979116,8.545859,489.055,0.0,0.0,0.0,0.0,0.0,0.0,0,0,0,0,0,0,0
61988000,0,47.3979116,8.545859,488.983,0.0,0.0,0.0,0.0,0.0,0.0,0,0,0,0,0,0,0
62088000,0,47.3979115,8.545859,488.914,0.0,0.0,0.0,0.0,0.0,0.0,0,0,0,0,0,0,0
62188000,0,47.3979115,8.545858899999999,488.844,0.0,0.0,0.0,0.0,0.0,0.0,0,0,0,0,0,0,0
62288000,0,47.3979115,8.545858899999999,488.775,0.0,0.0,0.0,0.0,0.0,0.0,0,0,0,0,0,0,0
62388000,0,47.3979115,8.545858899999999,488.706,0.0,0.0,0.0,0.0,0.0,0.0,0,0,0,0,0,0,0
62488000,0,47.3979115,8.545858899999999,488.637,0.0,0.0,0.0,0.0,0.0,0.0,0,0,0,0,0,0,0
62588000,0,47.3979115,8.545858899999999,488.568,0.0,0.0,0.0,0.0,0.0,0.0,0,0,0,0,0,0,0
62688000,0,47.3979115,8.5458588,488.502,0.0,0.0,0.0,0.0,0.0,0.0,0,0,0,0,0,0,0
62788000,0,47.3979115,8.5458588,488.43,0.0,0.0,0.0,0.0,0.0,0.0,0,0,0,0,0,0,0
62888000,0,47.3979115,8.5458587,488.363,0.0,0.0,0.0,0.0,0.0,0.0,0,0,0,0,0,0,0
62988000,0,47.3979115,8.5458587,488.291,0.0,0.0,0.0,0.0,0.0,0.0,0,0,0,0,0,0,0
63088000,0,47.3979115,8.545858599999999,488.221,0.0,0.0,0.0,0.0,0.0,0.0,0,0,0,0,0,0,0
63188000,0,47.3979115,8.545858599999999,488.151,0.0,0.0,0.0,0.0,0.0,0.0,0,0,0,0,0,0,0
63288000,0,47.3979114,8.545858599999999,488.104,0.0,0.0,0.0,0.0,0.0,0.0,0,0,0,0,0,0,0
63388000,0,47.3979114,8.5458585,488.104,0.0,0.0,0.0,0.0,0.0,0.0,0,0,0,0,0,0,0
63488000,0,47.3979114,8.5458585,488.104,0.0,0.0,0.0,0.0,0.0,0.0,0,0,0,0,0,0,0
63584000,0,47.3979114,8.5458585,488.104,0.0,0.0,0.0,0.0,0.0,0.0,0,0,0,0,0,0,0
63688000,0,47.3979114,8.5458585,488.104,0.0,0.0,0.0,0.0,0.0,0.0,0,0,0,0,0,0,0
63788000,0,47.3979114,8.5458585,488.104,0.0,0.0,0.0,0.0,0.0,0.0,0,0,0,0,0,0,0
63888000,0,47.3979114,8.5458585,488.104,0.0,0.0,0.0,0.0,0.0,0.0,0,0,0,0,0,0,0
63988000,0,47.3979114,8.5458585,488.104,0.0,0.0,0.0,0.0,0.0,0.0,0,0,0,0,0,0,0
64088000,0,47.3979114,8.5458585,488.104,0.0,0.0,0.0,0.0,0.0,0.0,0,0,0,0,0,0,0
64184000,0,47.3979114,8.5458585,488.104,0.0,0.0,0.0,0.0,0.0,0.0,0,0,0,0,0,0,0
64288000,0,47.3979114,8.5458585,488.104,0.0,0.0,0.0,0.0,0.0,0.0,0,0,0,0,0,0,0
64388000,0,47.3979114,8.5458585,488.104,0.0,0.0,0.0,0.0,0.0,0.0,0,0,0,0,0,0,0
64488000,0,47.3979114,8.5458585,488.104,0.0,0.0,0.0,0.0,0.0,0.0,0,0,0,0,0,0,0
64588000,0,47.3979114,8.5458585,488.104,0.0,0.0,0.0,0.0,0.0,0.0,0,0,0,0,0,0,0
64688000,0,47.3979114,8.5458585,488.104,0.0,0.0,0.0,0.0,0.0,0.0,0,0,0,0,0,0,0
64788000,0,47.3979114,8.5458585,488.104,0.0,0.0,0.0,0.0,0.0,0.0,0,0,0,0,0,0,0
64888000,0,47.3979114,8.5458585,488.104,0.0,0.0,0.0,0.0,0.0,0.0,0,0,0,0,0,0,0
64988000,0,47.3979114,8.5458585,488.104,0.0,0.0,0.0,0.0,0.0,0.0,0,0,0,0,0,0,0
65084000,0,47.3979114,8.5458585,488.104,0.0,0.0,0.0,0.0,0.0,0.0,0,0,0,0,0,0,0
65188000,0,47.3979114,8.5458585,488.104,0.0,0.0,0.0,0.0,0.0,0.0,0,0,0,0,0,0,0
65288000,0,47.3979114,8.5458585,488.104,0.0,0.0,0.0,0.0,0.0,0.0,0,0,0,0,0,0,0
65388000,0,47.3979114,8.5458585,488.104,0.0,0.0,0.0,0.0,0.0,0.0,0,0,0,0,0,0,0
65488000,0,47.3979114,8.5458585,488.104,0.0,0.0,0.0,0.0,0.0,0.0,0,0,0,0,0,0,0
65588000,0,47.3979114,8.5458585,488.104,0.0,0.0,0.0,0.0,0.0,0.0,0,0,0,0,0,0,0
65688000,0,47.3979114,8.5458585,488.104,0.0,0.0,0.0,0.0,0.0,0.0,0,0,0,0,0,0,0
65788000,0,47.3979114,8.5458585,488.104,0.0,0.0,0.0,0.0,0.0,0.0,0,0,0,0,0,0,0
65888000,0,47.3979114,8.5458585,488.104,0.0,0.0,0.0,0.0,0.0,0.0,0,0,0,0,0,0,0
65988000,0,47.3979114,8.5458585,488.104,0.0,0.0,0.0,0.0,0.0,0.0,0,0,0,0,0,0,0
66088000,0,47.3979114,8.5458585,488.104,0.0,0.0,0.0,0.0,0.0,0.0,0,0,0,0,0,0,0
66188000,0,47.3979114,8.5458585,488.104,0.0,0.0,0.0,0.0,0.0,0.0,0,0,0,0,0,0,0
66288000,0,47.3979114,8.5458585,488.104,0.0,0.0,0.0,0.0,0.0,0.0,0,0,0,0,0,0,0
66388000,0,47.3979114,8.5458585,488.104,0.0,0.0,0.0,0.0,0.0,0.0,0,0,0,0,0,0,0
66488000,0,47.3979114,8.5458585,488.104,0.0,0.0,0.0,0.0,0.0,0.0,0,0,0,0,0,0,0
66588000,0,47.3979114,8.5458585,488.104,0.0,0.0,0.0,0.0,0.0,0.0,0,0,0,0,0,0,0
66684000,0,47.3979114,8.5458585,488.104,0.0,0.0,0.0,0.0,0.0,0.0,0,0,0,0,0,0,0
66788000,0,47.3979114,8.5458585,488.104,0.0,0.0,0.0,0.0,0.0,0.0,0,0,0,0,0,0,0
66888000,0,47.3979114,8.5458585,488.104,0.0,0.0,0.0,0.0,0.0,0.0,0,0,0,0,0,0,0
66988000,0,47.3979114,8.5458585,488.104,0.0,0.0,0.0,0.0,0.0,0.0,0,0,0,0,0,0,0
67088000,0,47.3979114,8.5458585,488.104,0.0,0.0,0.0,0.0,0.0,0.0,0,0,0,0,0,0,0
67188000,0,47.3979114,8.5458585,488.104,0.0,0.0,0.0,0.0,0.0,0.0,0,0,0,0,0,0,0
67288000,0,47.3979114,8.5458585,488.104,0.0,0.0,0.0,0.0,0.0,0.0,0,0,0,0,0,0,0
67388000,0,47.3979114,8.5458585,488.104,0.0,0.0,0.0,0.0,0.0,0.0,0,0,0,0,0,0,0
