timestamp,timestamp_sample,hover_thrust,hover_thrust_var,accel_innov,accel_innov_var,accel_innov_test_ratio,accel_noise_var,valid
24668000,24668000,0.6892632,0.00072747393,-0.4049121,4.8589516,0.0037491815,4.676482,0
24676000,24676000,0.6902846,0.00070333533,-0.45721135,4.8369856,0.0048019397,4.658867,0
24772000,24772000,0.6983969,0.0005170238,-0.3054535,4.59419,0.002256518,4.4667034,0
24868000,24868000,0.7,0.00040797898,-0.17671795,4.3810334,0.0007920311,4.279343,0
24972000,24972000,0.7,0.00032363896,-0.35173696,4.1511827,0.0033114762,4.0679746,0
25068000,25068000,0.7,0.00026977967,-0.25786108,3.952304,0.0018692988,3.881338,0
25164000,25164000,0.7,0.0002296895,-0.22671108,3.7651296,0.0015167816,3.7027392,0
25268000,25268000,0.7,0.00019886572,-0.22248946,3.5869632,0.0015333788,3.5322323,0
25372000,25372000,0.7,0.00017436655,-0.285258,3.4183853,0.0026449177,3.3693187,0
25468000,25468000,0.7,0.00015448921,-0.21880248,3.2578773,0.0016327783,3.2136796,0
25564000,25564000,0.7,0.00013927589,-0.4453582,3.1181233,0.007067781,3.0775204,0
25660000,25660000,0.7,0.0001252307,-0.34894598,2.9722207,0.004551901,2.9351974,0
25772000,25772000,0.7,0.00011420395,-0.24448968,2.8446753,0.0023347796,2.8103752,0
25868000,25868000,0.7,0.00010380945,-0.14538084,2.711774,0.0008660009,2.680246,0
25972000,25972000,0.7,9.478394e-05,-0.27168426,2.5853019,0.0031723068,2.5560536,0
26068000,26068000,0.7,8.750423e-05,-0.19175622,2.474698,0.0016509511,2.4474273,0
26164000,26164000,0.7,8.04466e-05,-0.18472224,2.3596897,0.0016067228,2.3341625,0
26268000,26268000,0.7,7.383972e-05,-0.1818923,2.2402897,0.0016408993,2.2173245,0
26372000,26372000,0.7,6.870185e-05,-0.3562221,2.1356125,0.0066020186,2.1149347,0
26468000,26468000,0.7,6.46169e-05,-0.66088426,2.0451844,0.023728803,2.0265813,0
26572000,26572000,0.7,6.0463226e-05,-0.6774342,1.9599497,0.026016377,1.9416759,0
26668000,26668000,0.7,5.6751443e-05,-0.47401816,1.8804393,0.0132766375,1.8620735,1
26772000,26772000,0.7,5.251891e-05,-0.26209584,1.786492,0.0042724465,1.7687349,1
26868000,26868000,0.7,4.9456103e-05,-0.10081063,1.7183411,0.0006571444,1.7014762,1
26964000,26964000,0.69998646,4.604541e-05,0.012348205,1.6419705,1.0318102e-05,1.6262753,1
27068000,27068000,0.699861,4.2757518e-05,-0.021366715,1.5641437,3.2430704e-05,1.549528,1
27172000,27172000,0.7,4.0266415e-05,-0.10341714,1.4985663,0.00079298794,1.4846623,1
27268000,27268000,0.7,3.7774775e-05,-0.057593957,1.4294169,0.00025784125,1.416392,1
27372000,27372000,0.7,3.5483336e-05,-0.16814505,1.3631934,0.0023044546,1.3507583,1
27468000,27468000,0.7,3.3360175e-05,-0.117861405,1.2999797,0.00118731,1.2882589,1
27572000,27572000,0.7,3.1232717e-05,-0.322153,1.2347549,0.009339016,1.2236775,1
27668000,27668000,0.7,2.9410117e-05,-0.14704889,1.1776236,0.0020402083,1.1671308,1
27756000,27756000,0.7,2.7855425e-05,-0.24178977,1.1277311,0.0057600704,1.1177248,1
27868000,27868000,0.7,2.6143804e-05,-0.12097466,1.0711173,0.0015181311,1.0617051,1
27972000,27972000,0.7,2.4552777e-05,-0.20249553,1.0173669,0.0044782753,1.0084382,1
28068000,28068000,0.7,2.3202681e-05,-0.104353115,1.004647,0.0012043559,1.0,1
28172000,28172000,0.7,2.1889922e-05,-0.15693352,1.0044254,0.0027244024,1.0,1
28268000,28268000,0.7,2.079988e-05,-0.09124713,1.0042022,0.00092124403,1.0,1
28364000,28364000,0.7,1.9813293e-05,-0.026823394,1.0040064,7.962482e-05,1.0,1
28468000,28468000,0.7,1.8849045e-05,-0.0086134225,1.0037786,8.212419e-06,1.0,1
28564000,28564000,0.7,1.8106182e-05,-0.021378286,1.0036368,5.059722e-05,1.0,1
28668000,28668000,0.69998974,1.742433e-05,0.02795466,1.0034648,8.652942e-05,1.0,1
28764000,28764000,0.6999713,1.6740933e-05,-0.023569338,1.0033085,6.152021e-05,1.0,1
28868000,28868000,0.69982654,1.6172156e-05,0.044122458,1.0030948,0.00021564278,1.0,1
28972000,28972000,0.69960487,1.560881e-05,0.06659517,1.0029504,0.0004913189,1.0,1
29068000,29068000,0.6995702,1.5091312e-05,0.03532596,1.0028054,0.00013827025,1.0,1
29172000,29172000,0.69947594,1.4609916e-05,-0.020465702,1.0027306,4.64116e-05,1.0,1
29268000,29268000,0.6993522,1.4159091e-05,0.053972363,1.0026242,0.00032282132,1.0,1
29364000,29364000,0.69925696,1.3732085e-05,0.13143775,1.002586,0.0019145911,1.0,1
29468000,29464000,0.6990595,1.332932e-05,0.1700165,1.0025169,0.0032036712,1.0,1
29572000,29572000,0.6987029,1.2918351e-05,0.12747718,1.0024449,0.0018011997,1.0,1
29668000,29668000,0.6983622,1.2562298e-05,0.15821436,1.0023531,0.0027747802,1.0,1
29772000,29772000,0.6981695,1.225233e-05,0.06884706,1.0023423,0.0005254268,1.0,1
29868000,29868000,0.6980342,1.1983132e-05,0.12105294,1.0022758,0.0016245047,1.0,1
29972000,29972000,0.69766766,1.167822e-05,0.14803718,1.0021843,0.0024296937,1.0,1
30068000,30068000,0.69749033,1.139206e-05,0.14975795,1.0021132,0.0024866832,1.0,1
30172000,30172000,0.697417,1.1118169e-05,-0.019394517,1.0021057,4.170632e-05,1.0,1
30268000,30268000,0.69732493,1.0853426e-05,0.058860675,1.0020673,0.00038415904,1.0,1
30372000,30372000,0.69723827,1.0599591e-05,0.053377174,1.0020463,0.0003159227,1.0,1
30460000,30460000,0.6971435,1.03753855e-05,-0.07717194,1.0020083,0.0006603968,1.0,1
30564000,30564000,0.6971286,1.0159923e-05,0.06775832,1.0019926,0.0005091178,1.0,1
30668000,30668000,0.697126,9.913336e-06,0.05211904,1.0019547,0.00030123274,1.0,1
30764000,30764000,0.69711524,9.733636e-06,-0.013989873,1.0019162,2.1704695e-05,1.0,1
30868000,30868000,0.69722223,9.502784e-06,0.0915543,1.0019261,0.000929564,1.0,1
30972000,30972000,0.6972082,9.297972e-06,-0.058140554,1.0018998,0.00037487934,1.0,1
31068000,31068000,0.69722706,9.100955e-06,0.00945729,1.0018542,9.919423e-06,1.0,1
31172000,31172000,0.69728357,8.929658e-06,-0.029221974,1.00182,9.470806e-05,1.0,1
31268000,31268000,0.6972916,8.749717e-06,-0.00930538,1.0017667,9.604156e-06,1.0,1
31372000,31372000,0.6974052,8.578648e-06,-0.07052162,1.0017378,0.00055163016,1.0,1
31468000,31468000,0.69745183,8.413947e-06,-0.04561419,1.0016934,0.00023079298,1.0,1
31572000,31572000,0.69759816,8.24321e-06,-0.3119045,1.0016649,0.010791413,1.0,1
31668000,31668000,0.6976915,8.091894e-06,-0.037126698,1.0016286,0.00015290559,1.0,1
31764000,31764000,0.69779474,7.946462e-06,-0.08248513,1.0016031,0.00075476745,1.0,1
31868000,31868000,0.6978248,7.7953555e-06,0.010858312,1.0015624,1.3079892e-05,1.0,1
31972000,31972000,0.69789904,7.662329e-06,-0.07972997,1.0015409,0.0007052319,1.0,1
32068000,32068000,0.69798815,7.533459e-06,-0.073167644,1.0015084,0.00059393793,1.0,1
32164000,32164000,0.6980384,7.4201807e-06,-0.03115486,1.0014874,0.00010768708,1.0,1
32268000,32268000,0.69811493,7.3007977e-06,-0.014736228,1.0014604,2.4093304e-05,1.0,1
32372000,32372000,0.69817203,7.185638e-06,-0.010051288,1.0014409,1.1209225e-05,1.0,1
32468000,32468000,0.6982344,7.0738015e-06,-0.019663507,1.0014108,4.2900978e-05,1.0,1
32572000,32572000,0.6982755,6.9762e-06,-0.026492719,1.0013964,7.787616e-05,1.0,1
32668000,32668000,0.69833696,6.871301e-06,0.020051636,1.0013703,4.46131e-05,1.0,1
32772000,32772000,0.69841677,6.77063e-06,-0.110609956,1.0013566,0.0013575542,1.0,1
32868000,32868000,0.6984606,6.6723355e-06,-0.01872799,1.0013286,3.8919137e-05,1.0,1
32972000,32972000,0.6985133,6.5781323e-06,-0.13356546,1.0013139,0.0019795913,1.0,1
33068000,33068000,0.69855106,6.4946394e-06,-0.0022010002,1.0012875,5.375748e-07,1.0,1
33164000,33164000,0.6986107,6.4054643e-06,-0.14574927,1.0012711,0.0023573202,1.0,1
33268000,33268000,0.69869304,6.3119132e-06,-0.06817827,1.0012507,0.00051582995,1.0,1
33372000,33372000,0.6988048,6.2289823e-06,-0.23847547,1.0012422,0.0063111107,1.0,1
33468000,33468000,0.6988261,6.1475307e-06,0.054227665,1.0012193,0.00032633985,1.0,1
33564000,33564000,0.6988381,6.068794e-06,-0.11969405,1.0012015,0.0015899413,1.0,1
33668000,33668000,0.69888365,5.9860686e-06,0.08441248,1.0011842,0.00079078204,1.0,1
33772000,33772000,0.6989103,5.9059994e-06,-0.028946944,1.0011709,9.299395e-05,1.0,1
33860000,33860000,0.69894236,5.8468445e-06,-0.010463227,1.0011563,1.2150296e-05,1.0,1
33972000,33972000,0.69899505,5.7717584e-06,-0.038301066,1.0011449,0.00016281045,1.0,1
34068000,34068000,0.69900346,5.7036773e-06,-0.04790183,1.001125,0.00025466745,1.0,1
34172000,34172000,0.6990446,5.64446e-06,-0.07293523,1.0011208,0.00059039914,1.0,1
34268000,34268000,0.6991188,5.5856494e-06,-0.068269715,1.0011076,0.00051728863,1.0,1
34364000,34364000,0.69914263,5.5221185e-06,0.060711987,1.0010961,0.00040910108,1.0,1
34468000,34468000,0.69917464,5.46115e-06,-0.03112245,1.0010799,0.000107506894,1.0,1
34572000,34572000,0.69922435,5.3959984e-06,-0.03895677,1.0010722,0.00016844494,1.0,1
34668000,34668000,0.69922245,5.3488525e-06,0.032596353,1.0010555,0.00011793355,1.0,1
34772000,34772000,0.6992602,5.2869295e-06,0.028984219,1.0010483,9.324502e-05,1.0,1
34868000,34868000,0.6992603,5.2367386e-06,0.04098636,1.0010312,0.00018646124,1.0,1
34964000,34964000,0.6992884,5.187709e-06,-0.16565076,1.0010232,0.0030457918,1.0,1
35068000,35068000,0.6993399,5.140535e-06,-0.021750748,1.0010145,5.251284e-05,1.0,1
35164000,35164000,0.699384,5.0934723e-06,-0.080776244,1.0010089,0.0007242473,1.0,1
35268000,35268000,0.6993846,5.043272e-06,0.024643335,1.0009948,6.741005e-05,1.0,1
35372000,35372000,0.6994017,4.989485e-06,-0.16421098,1.0009862,0.0029931862,1.0,1
35468000,35468000,0.69944227,4.945847e-06,-0.084155284,1.0009749,0.0007861349,1.0,1
35572000,35572000,0.69947433,4.903872e-06,-0.010094909,1.0009725,1.13120195e-05,1.0,1
35668000,35668000,0.699484,4.8572865e-06,0.17528906,1.0009588,0.0034107582,1.0,1
35772000,35772000,0.6995192,4.8126485e-06,-0.093452655,1.0009549,0.0009694519,1.0,1
35868000,35868000,0.69956285,4.7725107e-06,-0.070436984,1.0009443,0.00055074313,1.0,1
35972000,35972000,0.699578,4.7296007e-06,-0.0009471737,1.0009384,9.958854e-08,1.0,1
36068000,36068000,0.6996054,4.6956247e-06,0.03142356,1.0009284,0.00010961381,1.0,1
36172000,36172000,0.69963187,4.658671e-06,-0.004064262,1.0009264,1.8336597e-06,1.0,1
36268000,36268000,0.6996516,4.6217115e-06,-0.06297326,1.0009135,0.00044022358,1.0,1
36364000,36364000,0.69968295,4.5896563e-06,-0.15045425,1.0009098,0.0025128785,1.0,1
36468000,36468000,0.6996914,4.546656e-06,0.106141105,1.000899,0.0012506462,1.0,1
36564000,36564000,0.6997135,4.5119477e-06,0.060144097,1.0008932,0.00040156487,1.0,1
36668000,36668000,0.6997063,4.4748426e-06,0.10423016,1.0008819,0.0012060392,1.0,1
36772000,36772000,0.6997294,4.434692e-06,0.08845673,1.0008776,0.0008686368,1.0,1
36868000,36868000,0.69975567,4.409945e-06,-0.026507938,1.0008675,7.800686e-05,1.0,1
36964000,36964000,0.699781,4.3818145e-06,0.05331637,1.0008636,0.00031557583,1.0,1
37060000,37060000,0.69978577,4.346782e-06,-0.011077813,1.0008546,1.3623683e-05,1.0,1
37164000,37164000,0.6998101,4.3206055e-06,-0.0017358069,1.0008507,3.344961e-07,1.0,1
37268000,37268000,0.6998282,4.2912493e-06,-0.013426839,1.000843,2.0014239e-05,1.0,1
37364000,37364000,0.69985145,4.265121e-06,-0.016190719,1.000841,2.910212e-05,1.0,1
37468000,37468000,0.69986784,4.2296588e-06,-0.0033527017,1.0008317,1.2479186e-06,1.0,1
37564000,37564000,0.6998676,4.201099e-06,0.0076150317,1.0008272,6.4378646e-06,1.0,1
37660000,37660000,0.6998884,4.173053e-06,-0.064600855,1.0008223,0.00046331575,1.0,1
37764000,37764000,0.69987524,4.142972e-06,0.037705395,1.0008155,0.0001578376,1.0,1
37868000,37868000,0.699878,4.1102403e-06,0.040767036,1.000806,0.00018451255,1.0,1
37964000,37964000,0.69991374,4.0805894e-06,-0.041675754,1.0008048,0.0001928302,1.0,1
38068000,38068000,0.6999426,4.0554182e-06,0.04254449,1.0008003,0.00020095406,1.0,1
38164000,38164000,0.69994396,4.029855e-06,0.03716466,1.0007952,0.00015334603,1.0,1
38260000,38260000,0.6999802,4.004791e-06,-0.006061906,1.0007917,4.079737e-06,1.0,1
38364000,38364000,0.6999885,3.9809306e-06,-0.022459257,1.000786,5.6002453e-05,1.0,1
38468000,38468000,0.6999867,3.951379e-06,0.0006242087,1.0007774,4.325932e-08,1.0,1
38572000,38572000,0.7,3.9284837e-06,-0.081937954,1.0007769,0.0007454018,1.0,1
38668000,38668000,0.6999962,3.902121e-06,-0.036278054,1.0007685,0.00014612073,1.0,1
38772000,38772000,0.69998443,3.8771263e-06,-0.022961311,1.0007646,5.8535446e-05,1.0,1
38868000,38868000,0.699989,3.854696e-06,0.014793753,1.0007571,2.4298839e-05,1.0,1
38972000,38972000,0.7,3.827711e-06,-0.007825256,1.0007553,6.798713e-06,1.0,1
39060000,39060000,0.6999999,3.8081491e-06,-0.0481125,1.0007491,0.00025700888,1.0,1
39172000,39172000,0.6999919,3.7885661e-06,0.0447645,1.000746,0.00022248519,1.0,1
39260000,39260000,0.69999033,3.7696893e-06,-0.1355755,1.0007398,0.002040792,1.0,1
39372000,39372000,0.6999955,3.7479247e-06,0.044567958,1.0007397,0.00022053719,1.0,1
39468000,39468000,0.7,3.7248765e-06,-0.055110484,1.0007334,0.00033721552,1.0,1
39572000,39572000,0.69999605,3.7029358e-06,0.01400169,1.0007335,2.176707e-05,1.0,1
39668000,39668000,0.6999959,3.6859578e-06,0.0156009365,1.0007254,2.7023643e-05,1.0,1
39764000,39764000,0.699994,3.6639656e-06,0.06585728,1.0007205,0.000481562,1.0,1
39868000,39868000,0.69996965,3.6407887e-06,-0.021103729,1.0007111,4.9450096e-05,1.0,1
39972000,39972000,0.69999754,3.6204328e-06,0.0037806705,1.0007188,1.5870224e-06,1.0,1
40068000,40068000,0.7,3.6017907e-06,-0.06083413,1.0007217,0.00041090246,1.0,1
40172000,40172000,0.6999844,3.5786563e-06,0.005863309,1.0007246,3.8170556e-06,1.0,1
40268000,40268000,0.69995975,3.5579858e-06,-0.032457653,1.0007081,0.00011697265,1.0,1
40372000,40372000,0.69995636,3.5362577e-06,0.05037325,1.0007031,0.0002817424,1.0,1
40468000,40468000,0.6999521,3.5191078e-06,-0.02248073,1.0006942,5.611474e-05,1.0,1
40564000,40564000,0.6999239,3.5023272e-06,0.06689894,1.0006864,0.0004969331,1.0,1
40668000,40668000,0.69992584,3.4845593e-06,-0.0535969,1.0006753,0.00031896544,1.0,1
40772000,40772000,0.6999554,3.4671802e-06,-0.048199914,1.0006748,0.00025796276,1.0,1
40868000,40868000,0.6999179,3.4516509e-06,0.111372426,1.000664,0.0013772874,1.0,1
40972000,40972000,0.6998499,3.434937e-06,0.15511349,1.0006647,0.002671579,1.0,1
41068000,41068000,0.69974023,3.4201016e-06,0.198679,1.0006499,0.0043830783,1.0,1
41172000,41172000,0.6996365,3.4042703e-06,0.34591404,1.0006464,0.01328658,1.0,1
41268000,41268000,0.6995125,3.3882454e-06,0.22657993,1.0006294,0.005700686,1.0,1
41364000,41364000,0.69941235,3.3727022e-06,0.15352342,1.000628,0.0026171831,1.0,1
41468000,41468000,0.6993098,3.3582478e-06,0.21336171,1.0006179,0.005055012,1.0,1
41572000,41572000,0.699219,3.3439978e-06,0.14168394,1.0006231,0.002229093,1.0,1
41668000,41668000,0.6991522,3.3312485e-06,0.110831216,1.0006167,0.0013639986,1.0,1
41772000,41772000,0.6990727,3.3171282e-06,0.22231808,1.0006224,0.005488287,1.0,1
41868000,41868000,0.69897664,3.3064832e-06,0.24412121,1.0006189,0.006617589,1.0,1
41972000,41972000,0.69888735,3.292497e-06,0.14967887,1.000628,0.002487745,1.0,1
42068000,42068000,0.6987811,3.279872e-06,0.20957182,1.000619,0.0048770197,1.0,1
42164000,42164000,0.69869435,3.2694509e-06,0.236392,1.0006155,0.006205201,1.0,1
42268000,42268000,0.69858617,3.2542848e-06,0.14329416,1.0006061,0.0022800863,1.0,1
42372000,42372000,0.69850504,3.2393134e-06,0.00846152,1.0006111,7.9504e-06,1.0,1
42468000,42468000,0.6984218,3.2257008e-06,0.27311,1.0006038,0.008282674,1.0,1
42572000,42572000,0.69837815,3.2149817e-06,0.072546475,1.0006094,0.00058442063,1.0,1
42668000,42668000,0.6983586,3.205273e-06,0.06169492,1.0006149,0.00042265822,1.0,1
42772000,42772000,0.6983435,3.1901625e-06,0.100789405,1.0006297,0.0011280124,1.0,1
42868000,42868000,0.69830275,3.1799968e-06,0.01699417,1.0006315,3.2068845e-05,1.0,1
42964000,42964000,0.6982682,3.1677896e-06,0.08562225,1.0006343,0.00081405806,1.0,1
43068000,43068000,0.69826716,3.156483e-06,-0.011518478,1.0006342,1.4732362e-05,1.0,1
43172000,43172000,0.6982709,3.1412221e-06,0.011497974,1.0006382,1.46799e-05,1.0,1
43268000,43268000,0.6982748,3.1272134e-06,0.029436707,1.0006374,9.6218646e-05,1.0,1
43372000,43372000,0.69826365,3.1122602e-06,-0.10920492,1.000632,0.0013242423,1.0,1
43468000,43468000,0.6982675,3.1007617e-06,-0.05879105,1.0006232,0.00038380382,1.0,1
43572000,43572000,0.6982992,3.088315e-06,0.022331059,1.0006267,5.5373766e-05,1.0,1
43668000,43668000,0.69830334,3.079027e-06,0.037218943,1.000621,0.00015382112,1.0,1
43772000,43772000,0.69831085,3.0650333e-06,0.019031614,1.0006186,4.021982e-05,1.0,1
43868000,43868000,0.69831806,3.0524282e-06,-0.08335691,1.0006106,0.0007715705,1.0,1
43972000,43972000,0.6983624,3.0389228e-06,-0.03995332,1.0006148,0.00017725413,1.0,1
44068000,44068000,0.69837576,3.0303045e-06,-0.046459675,1.0006093,0.00023968745,1.0,1
44172000,44172000,0.6983841,3.0171946e-06,-0.10001168,1.0006057,0.0011106979,1.0,1
44268000,44268000,0.698395,3.0054e-06,-0.054633707,1.0005985,0.0003314507,1.0,1
44372000,44372000,0.6984301,2.9928065e-06,-0.169061,1.0005997,0.0031738323,1.0,1
44468000,44468000,0.6984653,2.981305e-06,-0.042009316,1.0005964,0.0001959701,1.0,1
44572000,44572000,0.6984973,2.9707821e-06,-0.115245216,1.0005962,0.0014748386,1.0,1
44668000,44668000,0.69850945,2.9613775e-06,0.15451543,1.0005901,0.0026512153,1.0,1
44764000,44764000,0.6985307,2.9521532e-06,0.004115887,1.0005885,1.8811734e-06,1.0,1
44868000,44868000,0.6985656,2.9438759e-06,-0.13959505,1.0005857,0.00216393,1.0,1
44964000,44964000,0.69859594,2.938274e-06,0.056019187,1.0005864,0.0003484789,1.0,1
45060000,45060000,0.6986108,2.9293844e-06,-0.013456637,1.0005823,2.010841e-05,1.0,1
45164000,45164000,0.698641,2.9197822e-06,-0.036407795,1.0005807,0.00014719537,1.0,1
45260000,45260000,0.6986611,2.9128164e-06,-0.05493802,1.0005788,0.00033516,1.0,1
45372000,45372000,0.6986878,2.9026533e-06,-0.03663739,1.0005716,0.00014905905,1.0,1
45468000,45468000,0.69873506,2.894454e-06,-0.16908771,1.0005686,0.003174934,1.0,1
45564000,45564000,0.698776,2.8846525e-06,-0.14615224,1.0005699,0.0023720344,1.0,1
45668000,45668000,0.69884837,2.8739948e-06,-0.048746318,1.000576,0.0002638706,1.0,1
45772000,45772000,0.69891095,2.863248e-06,-0.16007832,1.0005777,0.0028455858,1.0,1
45868000,45868000,0.6989485,2.8566922e-06,-0.008520976,1.0005763,8.0628015e-06,1.0,1
45964000,45964000,0.69897395,2.8502598e-06,-0.007885374,1.000573,6.904835e-06,1.0,1
46068000,46068000,0.6990275,2.8399038e-06,-0.08331821,1.0005703,0.00077088526,1.0,1
46164000,46164000,0.69906926,2.830507e-06,-0.058288813,1.0005673,0.00037729545,1.0,1
46268000,46268000,0.6991298,2.822093e-06,-0.19142696,1.0005659,0.0040692845,1.0,1
46364000,46364000,0.6991985,2.8128995e-06,-0.040694177,1.0005666,0.00018389759,1.0,1
46468000,46468000,0.6992401,2.8030775e-06,-0.111491516,1.0005633,0.0013803733,1.0,1
46572000,46572000,0.6992888,2.7949795e-06,-0.09740664,1.0005609,0.0010536372,1.0,1
46668000,46668000,0.69934994,2.786189e-06,-0.14070567,1.0005602,0.002198556,1.0,1
46772000,46772000,0.69941795,2.7798355e-06,-0.16791558,1.0005596,0.0031310972,1.0,1
46868000,46868000,0.69949543,2.7726903e-06,-0.09083406,1.0005602,0.0009162452,1.0,1
46972000,46972000,0.699555,2.7649198e-06,-0.039309286,1.0005574,0.00017159546,1.0,1
47068000,47068000,0.6996093,2.7564602e-06,-0.03494197,1.0005549,0.00013558491,1.0,1
47172000,47172000,0.69968253,2.7474355e-06,-0.19910756,1.000553,0.0044024345,1.0,1
47268000,47268000,0.6997346,2.7392107e-06,0.0031211004,1.0005513,1.0817666e-06,1.0,1
47364000,47364000,0.69976825,2.7311564e-06,-0.102838,1.0005469,0.0011744304,1.0,1
47468000,47468000,0.6998246,2.72408e-06,-0.085205875,1.0005459,0.0008062312,1.0,1
47572000,47572000,0.69987655,2.7170554e-06,-0.17317231,1.0005447,0.0033302582,1.0,1
47668000,47668000,0.6999251,2.7092906e-06,-0.034585208,1.0005437,0.00013283185,1.0,1
47772000,47772000,0.6999726,2.7039196e-06,-0.15003917,1.0005426,0.0024999492,1.0,1
47868000,47868000,0.7,2.6977739e-06,-0.09757378,1.0005419,0.0010572763,1.0,1
47964000,47964000,0.7,2.6902312e-06,-0.1104173,1.0005401,0.0013539332,1.0,1
48068000,48068000,0.7,2.6850876e-06,-0.09677128,1.0005382,0.0010399603,1.0,1
48172000,48172000,0.7,2.677117e-06,-0.00674285,1.000538,5.0490644e-06,1.0,1
48268000,48268000,0.7,2.669857e-06,-0.055214744,1.0005357,0.0003385595,1.0,1
48364000,48364000,0.7,2.6641294e-06,-0.10701539,1.0005337,0.0012717984,1.0,1
48468000,48468000,0.7,2.656436e-06,-0.13969542,1.0005348,0.0021671532,1.0,1
48572000,48572000,0.7,2.6502619e-06,-0.12894993,1.0005311,0.001846584,1.0,1
48660000,48660000,0.7,2.6453192e-06,-0.040433362,1.0005317,0.00018155422,1.0,1
48756000,48756000,0.7,2.6397404e-06,-0.069739826,1.0005372,0.0005401147,1.0,1
48860000,48860000,0.6999988,2.6335274e-06,-0.07376323,1.0005358,0.0006042333,1.0,1
48964000,48964000,0.7,2.6287983e-06,-0.031582266,1.0005355,0.00011076729,1.0,1
49068000,49068000,0.69999933,2.6213932e-06,0.017047882,1.0005283,3.22752e-05,1.0,1
49164000,49164000,0.6999737,2.6149173e-06,0.057448454,1.0005141,0.00036651432,1.0,1
49268000,49268000,0.6999584,2.608642e-06,-0.007725835,1.0004948,6.628778e-06,1.0,1
49372000,49372000,0.69997805,2.6027597e-06,-0.03757964,1.0004913,0.00015683733,1.0,1
49468000,49468000,0.699999,2.5973397e-06,-0.042550355,1.000495,0.00020107078,1.0,1
49564000,49564000,0.7,2.5917418e-06,-0.16678326,1.0005049,0.00308918,1.0,1
49668000,49668000,0.69999754,2.5866302e-06,0.06746441,1.0005138,0.00050545664,1.0,1
49772000,49772000,0.6999962,2.580078e-06,-0.121070564,1.0005174,0.0016278336,1.0,1
49860000,49860000,0.69998753,2.5745605e-06,0.068853885,1.000515,0.0005264908,1.0,1
49964000,49964000,0.6999835,2.5694508e-06,-0.0818793,1.0005136,0.00074453105,1.0,1
50068000,50068000,0.69995975,2.56313e-06,0.08259097,1.0005075,0.00075753423,1.0,1
50164000,50164000,0.6999425,2.5587658e-06,0.0065799616,1.0005059,4.8082225e-06,1.0,1
50268000,50268000,0.6999036,2.5528234e-06,0.09243799,1.0004972,0.00094894844,1.0,1
50372000,50372000,0.69987035,2.5470097e-06,0.042900007,1.0005012,0.00020438763,1.0,1
50468000,50468000,0.6998127,2.5432191e-06,0.17920443,1.0004824,0.003566527,1.0,1
50572000,50572000,0.6997584,2.5381473e-06,-0.03037338,1.0004772,0.0001024558,1.0,1
50668000,50668000,0.6997186,2.5360903e-06,0.055767566,1.0004702,0.00034539553,1.0,1
50772000,50772000,0.69967973,2.5335787e-06,0.11689578,1.0004802,0.0015175628,1.0,1
50868000,50868000,0.69959813,2.5291092e-06,0.25734082,1.0004678,0.0073548155,1.0,1
50972000,50972000,0.6995395,2.525712e-06,0.046439856,1.0004667,0.00023951713,1.0,1
51068000,51068000,0.69948435,2.5227725e-06,0.12748797,1.0004618,0.0018050756,1.0,1
51164000,51164000,0.69943523,2.5186484e-06,0.11521152,1.0004661,0.0014741677,1.0,1
51268000,51268000,0.6993766,2.515291e-06,0.15053874,1.0004679,0.0025168126,1.0,1
51372000,51372000,0.69936293,2.5118431e-06,-0.006515205,1.0004753,4.7141925e-06,1.0,1
51468000,51468000,0.69933635,2.5074285e-06,0.12592067,1.0004785,0.0017609367,1.0,1
51572000,51572000,0.6992992,2.5025242e-06,0.008185722,1.0004839,7.441516e-06,1.0,1
51668000,51668000,0.6992811,2.497875e-06,0.08969547,1.0004886,0.00089348305,1.0,1
51764000,51764000,0.699266,2.4931026e-06,-0.04577131,1.0004953,0.00023266395,1.0,1
51868000,51868000,0.69925934,2.4889478e-06,0.023477256,1.0005014,6.12117e-05,1.0,1
51964000,51964000,0.6992464,2.4851565e-06,0.06828992,1.0005018,0.00051790825,1.0,1
52068000,52068000,0.69924057,2.4810286e-06,0.0139308795,1.0004989,2.1552516e-05,1.0,1
52172000,52172000,0.6992426,2.4757562e-06,0.0019332543,1.0004976,4.1506817e-07,1.0,1
52268000,52268000,0.69924545,2.4722294e-06,-0.041793108,1.000493,0.00019397812,1.0,1
52372000,52372000,0.69926566,2.468378e-06,-0.15004978,1.0004938,0.0025004249,1.0,1
52468000,52468000,0.699281,2.4661579e-06,0.068466485,1.0004919,0.000520595,1.0,1
52572000,52572000,0.69929236,2.4611998e-06,-0.14874604,1.0004913,0.0024571691,1.0,1
52668000,52668000,0.69929814,2.45671e-06,0.035742946,1.0004873,0.00014188177,1.0,1
52772000,52772000,0.699307,2.453138e-06,-0.10488339,1.0004872,0.0012216853,1.0,1
52860000,52860000,0.6993035,2.4491883e-06,-0.019563004,1.0004835,4.250291e-05,1.0,1
52972000,52972000,0.69932956,2.4453916e-06,-0.07469486,1.0004848,0.0006196242,1.0,1
53068000,53068000,0.6993453,2.4411695e-06,-0.0025608176,1.0004816,7.2829226e-07,1.0,1
53164000,53164000,0.6993687,2.436999e-06,-0.11971031,1.0004823,0.0015915167,1.0,1
53268000,53268000,0.6993893,2.4325047e-06,0.036033172,1.0004807,0.0001441962,1.0,1
53372000,53372000,0.69939464,2.4281037e-06,-0.05854276,1.0004803,0.00038062324,1.0,1
53468000,53468000,0.6994046,2.4241117e-06,-0.009192672,1.0004777,9.384985e-06,1.0,1
53564000,53564000,0.6994141,2.4201677e-06,-0.07798126,1.0004777,0.00067535264,1.0,1
53668000,53668000,0.69942814,2.4170781e-06,-0.044647496,1.0004762,0.00022138334,1.0,1
53772000,53772000,0.69944626,2.4140165e-06,-0.043906417,1.0004784,0.00021409462,1.0,1
53868000,53868000,0.6994451,2.4113208e-06,0.032655094,1.000475,0.00011842765,1.0,1
53972000,53972000,0.69945294,2.4072046e-06,0.0005530771,1.000476,3.3972082e-08,1.0,1
54068000,54068000,0.6994519,2.4034657e-06,-0.049987316,1.000473,0.00027750558,1.0,1
54164000,54164000,0.69946325,2.4008862e-06,0.037245896,1.0004746,0.00015406653,1.0,1
54268000,54268000,0.6994971,2.3968566e-06,0.063443705,1.0004743,0.00044702177,1.0,1
54372000,54372000,0.6995007,2.3951186e-06,0.005313296,1.0004748,3.1353018e-06,1.0,1
54468000,54468000,0.6995149,2.3914793e-06,0.008321306,1.0004723,7.690161e-06,1.0,1
54572000,54572000,0.69952875,2.3886948e-06,-0.025670238,1.0004731,7.318328e-05,1.0,1
54660000,54660000,0.6995431,2.3854368e-06,-0.023183417,1.0004712,5.969085e-05,1.0,1
54772000,54772000,0.699547,2.382443e-06,-0.024565637,1.0004703,6.702077e-05,1.0,1
54868000,54868000,0.69956136,2.3790649e-06,-0.003970988,1.000465,1.7512684e-06,1.0,1
54972000,54972000,0.6995907,2.3765604e-06,-0.13800745,1.0004673,0.0021152399,1.0,1
55068000,55068000,0.69962245,2.373125e-06,-0.04331021,1.0004716,0.00020832114,1.0,1
55172000,55172000,0.6996423,2.370429e-06,0.0031282976,1.0004753,1.0868441e-06,1.0,1
55268000,55268000,0.6996512,2.367999e-06,-0.008886211,1.0004753,8.769692e-06,1.0,1
55364000,55364000,0.6996681,2.3678333e-06,0.058825046,1.0004747,0.0003843049,1.0,1
55468000,55468000,0.6996909,2.3640603e-06,-0.00024010986,1.0004729,6.4028325e-09,1.0,1
55564000,55564000,0.69974256,2.360593e-06,-0.14889443,1.0004742,0.0024621158,1.0,1
55668000,55668000,0.69977474,2.356845e-06,-0.13369177,1.0004731,0.0019850042,1.0,1
55772000,55772000,0.6998196,2.3531563e-06,-0.14859518,1.0004728,0.0024522326,1.0,1
55868000,55868000,0.69985515,2.3497732e-06,-0.15764023,1.0004718,0.002759858,1.0,1
55972000,55972000,0.6998897,2.3483526e-06,-0.14473963,1.000472,0.0023266308,1.0,1
56068000,56068000,0.69992346,2.3450245e-06,-0.10794166,1.0004712,0.0012939904,1.0,1
56172000,56172000,0.6999652,2.3425673e-06,-0.09099258,1.0004709,0.0009195281,1.0,1
56268000,56268000,0.7,2.3403868e-06,-0.14585099,1.0004711,0.0023624992,1.0,1
56372000,56372000,0.7,2.337918e-06,-0.12332068,1.0004723,0.0016889789,1.0,1
56468000,56468000,0.7,2.3357375e-06,-0.11012918,1.0004717,0.0013469686,1.0,1
56572000,56572000,0.7,2.3333473e-06,-0.11445172,1.000469,0.001454784,1.0,1
56668000,56668000,0.7,2.330199e-06,-0.078665525,1.0004675,0.0006872637,1.0,1
56772000,56772000,0.7,2.3268256e-06,-0.055790156,1.0004677,0.0003456763,1.0,1
56860000,56860000,0.7,2.323999e-06,-0.17061858,1.000467,0.0032330125,1.0,1
56972000,56972000,0.7,2.3215148e-06,-0.17844546,1.0004662,0.003536438,1.0,1
57068000,57068000,0.7,2.3184962e-06,-0.15373239,1.0004655,0.002624739,1.0,1
57164000,57164000,0.7,2.3165837e-06,-0.15927935,1.0004656,0.002817567,1.0,1
57268000,57268000,0.7,2.3133791e-06,-0.14916185,1.0004641,0.0024709927,1.0,1
57356000,57356000,0.7,2.3128352e-06,-0.10869159,1.0004648,0.0013120414,1.0,1
57468000,57468000,0.7,2.3104835e-06,-0.12673248,1.0004643,0.0017837408,1.0,1
57556000,57556000,0.7,2.3078087e-06,-0.15255882,1.0004649,0.0025848194,1.0,1
57668000,57668000,0.7,2.3055022e-06,-0.07840622,1.0004635,0.00068274303,1.0,1
57764000,57764000,0.7,2.302673e-06,-0.13611785,1.0004613,0.0020577249,1.0,1
57868000,57868000,0.7,2.3028235e-06,-0.048187457,1.0004612,0.0002578845,1.0,1
57964000,57964000,0.7,2.300048e-06,-0.2219662,1.0004617,0.005471807,1.0,1
58068000,58068000,0.7,2.297023e-06,-0.14715043,1.0004617,0.0024048062,1.0,1
58172000,58172000,0.7,2.295107e-06,-0.15043217,1.0004609,0.0025132683,1.0,1
58268000,58268000,0.7,2.293436e-06,-0.051505033,1.0004606,0.00029461636,1.0,1
58364000,58364000,0.7,2.2907177e-06,-0.04068297,1.0004612,0.00018381567,1.0,1
58468000,58468000,0.7,2.2888412e-06,0.0004497841,1.0004599,2.2468083e-08,1.0,1
58572000,58572000,0.7,2.2859933e-06,-0.09070761,1.0004573,0.00091378985,1.0,1
58668000,58668000,0.69999933,2.2834008e-06,0.01965902,1.0004579,4.2922245e-05,1.0,1
58772000,58772000,0.7,2.280598e-06,-0.036275156,1.0004574,0.0001461428,1.0,1
58868000,58868000,0.7,2.278054e-06,-0.021883547,1.0004563,5.3185693e-05,1.0,1
58972000,58972000,0.7,2.2773982e-06,-0.058324162,1.0004566,0.00037779505,1.0,1
59068000,59068000,0.6999986,2.2749557e-06,-0.016291965,1.0004483,2.9478797e-05,1.0,1
59164000,59164000,0.699994,2.27336e-06,-0.18573338,1.0004077,0.0038314254,1.0,1
59268000,59268000,0.7,2.2725897e-06,-0.57154405,1.0003847,0.036281887,1.0,1
59372000,59372000,0.7,2.2725312e-06,-0.6345122,1.0003536,0.044718158,1.0,1
59468000,59468000,0.7,2.2729305e-06,-0.9315727,1.0003511,0.096391454,1.0,1
59572000,59572000,0.7,2.273395e-06,-1.0541549,1.0006543,0.12339065,1.0,1
59668000,59668000,0.7,2.2735408e-06,-0.80933475,1.0004553,0.072747186,1.0,1
59764000,59764000,0.7,2.2717793e-06,-0.45920113,1.0004811,0.023418253,1.0,1
59868000,59868000,0.7,2.269072e-06,-0.16404232,1.000504,0.002988481,1.0,1
59972000,59972000,0.69995046,2.2661438e-06,0.36989802,1.0004834,0.015195382,1.0,1
60068000,60068000,0.69992316,2.264259e-06,-0.094438314,1.0004728,0.0009904867,1.0,1
60172000,60172000,0.6999979,2.2613528e-06,-0.20882455,1.0004618,0.0048430623,1.0,1
60268000,60268000,0.7,2.2598244e-06,-0.35714722,1.0004625,0.014166129,1.0,1
60364000,60364000,0.7,2.2572854e-06,-0.3373532,1.0004616,0.012639408,1.0,1
60468000,60468000,0.7,2.2555712e-06,-0.1978724,1.000464,0.0043483702,1.0,1
60572000,60572000,0.7,2.2538786e-06,-0.23090667,1.0004597,0.005921488,1.0,1
60668000,60668000,0.7,2.253418e-06,-0.32299912,1.0004644,0.011586667,1.0,1
60764000,60764000,0.7,2.2519264e-06,-0.33969444,1.000462,0.0128154475,1.0,1
60868000,60868000,0.7,2.2492004e-06,-0.29297334,1.0004638,0.009532621,1.0,1
60964000,60964000,0.7,2.2487561e-06,-0.3734998,1.000464,0.0154930465,1.0,1
61068000,61068000,0.7,2.2470333e-06,-0.29889524,1.000465,0.00992187,1.0,1
61172000,61172000,0.7,2.24537e-06,-0.21367666,1.0004603,0.0050707455,1.0,1
61268000,61268000,0.7,2.2439185e-06,-0.4072725,1.000464,0.018421551,1.0,1
61372000,61372000,0.7,2.2433208e-06,-0.20139349,1.0004598,0.004504522,1.0,1
61468000,61468000,0.7,2.2418794e-06,-0.3180238,1.0004642,0.011232467,1.0,1
61572000,61572000,0.7,2.2402305e-06,-0.22755641,1.0004616,0.005750892,1.0,1
61668000,61668000,0.7,2.2377487e-06,-0.2627417,1.0004644,0.0076667955,1.0,1
61772000,61772000,0.7,2.236145e-06,-0.18679503,1.0004598,0.0038751494,1.0,1
61868000,61868000,0.7,2.2337201e-06,-0.38546425,1.0004641,0.016501527,1.0,1
61972000,61972000,0.7,2.2311174e-06,-0.111994885,1.000459,0.0013930112,1.0,1
62068000,62068000,0.7,2.2318404e-06,-0.28362012,1.0004623,0.0089336885,1.0,1
62172000,62172000,0.7,2.2302997e-06,-0.299646,1.0004594,0.009971832,1.0,1
62268000,62268000,0.7,2.2289514e-06,-0.27463523,1.0004624,0.008376627,1.0,1
62356000,62356000,0.7,2.227848e-06,-0.20620517,1.0004576,0.004722347,1.0,1
62468000,62468000,0.7,2.226172e-06,-0.20012537,1.0004609,0.004447968,1.0,1
62572000,62572000,0.7,2.224721e-06,-0.29931056,1.0004566,0.009949548,1.0,1
62668000,62668000,0.7,2.2234624e-06,-0.27570373,1.0004606,0.008441949,1.0,1
62772000,62772000,0.7,2.221028e-06,-0.24541901,1.0004559,0.006689227,1.0,1
62868000,62868000,0.7,2.21879e-06,-0.21868142,1.0004593,0.0053110677,1.0,1
62972000,62972000,0.7,2.2164286e-06,-0.19864929,1.0004542,0.0043826248,1.0,1
63068000,63068000,0.7,2.2152685e-06,-0.21391699,1.0004578,0.0050821714,1.0,1
63164000,63164000,0.7,2.2141185e-06,-0.25732818,1.0004569,0.0073541724,1.0,1
63268000,63268000,0.7,2.215793e-06,65.586685,1.0534984,453.68558,18.029203,1
63372000,63372000,0.69996214,2.2262661e-06,2.913378,18.896858,0.04990701,18.841461,1
63468000,63468000,0.69992214,2.2359548e-06,3.261137,18.332401,0.064457916,18.281778,1
63572000,63572000,0.6998747,2.2464767e-06,3.7894049,17.786331,0.089704275,17.74351,1
63668000,63668000,0.6998277,2.2562158e-06,4.3389254,17.356106,0.120522894,17.321785,1
63772000,63772000,0.6997784,2.2668137e-06,4.7223897,16.997028,0.14578342,16.967018,1
63868000,63868000,0.6997482,2.2767338e-06,8.153926,17.712027,0.4170833,17.784452,1
63972000,63972000,0.6997162,2.287496e-06,8.074477,18.458118,0.39246315,18.497515,1
64068000,64068000,0.6996899,2.297432e-06,8.114971,18.812784,0.38893622,18.834003,1
64172000,64172000,0.69965905,2.3081943e-06,8.2149515,18.968367,0.39530978,18.974537,1
64268000,64268000,0.69963044,2.3181287e-06,8.171764,18.935347,0.39184642,18.926218,1
64372000,64372000,0.6995992,2.328891e-06,8.214794,18.716557,0.4006129,18.697361,1
64468000,64468000,0.69956976,2.3388254e-06,8.12781,18.410679,0.39868945,18.380964,1
64476000,0,nan,nan,nan,nan,nan,nan,0
