timestamp,timestamp_sample,time_last_fuse,device_id,observation[0],observation[1],observation[2],observation_variance[0],observation_variance[1],observation_variance[2],innovation[0],innovation[1],innovation[2],innovation_filtered[0],innovation_filtered[1],innovation_filtered[2],innovation_variance[0],innovation_variance[1],innovation_variance[2],test_ratio[0],test_ratio[1],test_ratio[2],test_ratio_filtered[0],test_ratio_filtered[1],test_ratio_filtered[2],estimator_instance,innovation_rejected,fused
3732000,3695000,0,0,0.011412704,-0.21963505,0.42796984,0.0025000002,0.0025000002,0.0025000002,-0.011412704,0.21963505,-0.42796984,-0.011412704,0.21963505,-0.42796984,0.0075000003,0.0075000003,0.0075000003,0.001929627,0.7146601,2.7134545,0.001929627,0.7146601,2.7134545,0,1,0
3924000,3767636,0,0,0.0086238505,-0.21515355,0.42756042,0.0025000002,0.0025000002,0.0025000002,-0.0086238505,0.21515355,-0.42756042,-0.011058953,0.21906659,-0.4279179,0.0075000003,0.0075000003,0.0075,0.0011017896,0.6857933,2.7082655,0.001545107,0.7109985,2.0257366,0,1,0
3996000,3840000,0,0,0.009248013,-0.22092049,0.43330473,0.0025000002,0.0025000002,0.0025000002,-0.009248013,0.22092049,-0.43330473,-0.010829995,0.21930099,-0.42859894,0.0075,0.007500001,0.0075000008,0.0012670481,0.7230497,2.7815254,0.0011895661,0.7125221,1.4179542,0,1,0
4068000,3912000,0,0,0.010345868,-0.21631296,0.42856708,0.0025000002,0.0025000002,0.0025000002,-0.010345868,0.21631296,-0.42856708,-0.010769056,0.21892487,-0.42859492,0.0075000008,0.0075000008,0.0075000003,0.0015857328,0.6932043,2.721033,0.0008402278,0.71009046,0.8969628,0,1,0
4140000,3984000,0,0,0.0103404755,-0.21164812,0.4254954,0.0025000002,0.0025000002,0.0025000002,-0.0103404755,0.21164812,-0.4254954,-0.010715109,0.2180089,-0.42820477,0.0075000003,0.007500001,0.0075000003,0.0015840805,0.66362846,2.6821675,0.00053507014,0.7042421,0.44644293,0,1,0
4212000,4056000,0,0,0.009229738,-0.21536554,0.4275707,0.0025000002,0.0025000002,0.0025000002,-0.009229738,0.21536554,-0.4275707,-0.01052814,0.21767618,-0.42812496,0.0075000008,0.0075000003,0.007500001,0.0012620452,0.6871455,2.7083952,0.0003088598,0.7020901,0.049330473,0,1,0
4284000,4128000,0,0,0.010376677,-0.21692343,0.43042585,0.0025000002,0.0025000002,0.0025000002,-0.010376677,0.21692343,-0.43042585,-0.010509075,0.21758142,-0.42841458,0.0075000003,0.0075000003,0.0075000003,0.0015951914,0.6971225,2.7446876,6.918903e-05,0.7014648,-0.30236408,0,1,0
4356000,4199636,0,0,0.009518652,-0.21636316,0.4311543,0.0025000002,0.0025000002,0.0025000002,-0.009518652,0.21636316,-0.4311543,-0.010384957,0.21742876,-0.4287579,0.007500001,0.0075000008,0.0075000008,0.0013422923,0.6935261,2.7539854,-0.00010769427,0.7004699,-0.6095951,0,1,0
4428000,4272000,0,0,0.013743796,-0.22416094,0.4274299,0.0025000002,0.0025000002,0.0025000002,-0.013743796,0.22416094,-0.4274299,-0.010809615,0.21827991,-0.42859,0.0075000003,0.0075,0.0075000003,0.002798399,0.7444168,2.706612,-0.00044788021,0.70602614,-0.87472105,0,1,0
4500000,4343636,0,0,0.011357859,-0.21712725,0.42922363,0.0025000002,0.0025000002,0.0025000002,-0.011357859,0.21712725,-0.42922363,-0.01087832,0.21813546,-0.4286694,0.007500001,0.0075000008,0.0075000008,0.0019111249,0.6984331,2.729376,-0.0006312504,0.7050746,-1.1071417,0,1,0
4572000,4416000,0,0,0.016367568,-0.21190646,0.43287683,0.0025000002,0.0025000002,0.0025000002,-0.016367568,0.21190646,-0.43287683,-0.011572326,0.21734793,-0.42920133,0.0075000003,0.0075000003,0.0075000008,0.0039688484,0.6652496,2.7760344,-0.001053223,0.7000395,-1.3181399,0,1,0
4644000,4488000,0,0,0.0129907,-0.21525615,0.42887884,0.0025000002,0.0025000002,0.0025000002,-0.0129907,0.21525615,-0.42887884,-0.011750862,0.21708463,-0.42916074,0.0075000003,0.0075000008,0.0075,0.0025001226,0.6864475,2.7249937,-0.0012353503,0.6983286,-1.4952264,0,1,0
4716000,4560000,0,0,0.011022707,-0.21630345,0.42689115,0.0025000002,0.0025000002,0.0025000002,-0.011022707,0.21630345,-0.42689115,-0.011659206,0.2169863,-0.42887506,0.0075000008,0.0075,0.0075000008,0.0018000009,0.6931435,2.6997929,-0.0013064252,0.69767594,-1.6468501,0,1,0
4788000,4631636,0,0,0.0088675115,-0.21595652,0.42973328,0.0025000002,0.0025000002,0.0025000002,-0.0088675115,0.21595652,-0.42973328,-0.011309357,0.21685725,-0.42898262,0.007500001,0.0075000003,0.0075000008,0.0011649296,0.6909217,2.7358615,-0.0012886933,0.6968295,-1.7833223,0,1,0
4860000,4704000,0,0,0.007841621,-0.22071938,0.4172943,0.0025000002,0.0025000002,0.0025000002,-0.007841621,0.22071938,-0.4172943,-0.010870932,0.21734555,-0.42750487,0.0075000008,0.0075000008,0.0075000003,0.0009109779,0.72173387,2.5797706,-0.0012409387,0.6999782,-1.8840173,0,1,0
4932000,4776000,0,0,0.012127782,-0.21685378,0.4288754,0.0025000002,0.0025000002,0.0025000002,-0.012127782,0.21685378,-0.4288754,-0.011029136,0.21728365,-0.4276774,0.0075000008,0.0075000008,0.0075000008,0.0021790087,0.6966749,2.7249491,-0.0013590174,0.6995624,-1.9898689,0,1,0
5004000,4848000,0,0,0.0049009393,-0.21671921,0.4306289,0.0025000002,0.0025000002,0.0025000002,-0.0049009393,0.21671921,-0.4306289,-0.010257755,0.2172126,-0.4280489,0.0075000008,0.0075000008,0.0075000003,0.00035584002,0.6958105,2.7472775,-0.0012327434,0.6990901,-2.085207,0,1,0
5076000,4920000,0,0,0.009721434,-0.21603377,0.42720762,0.0025000002,0.0025000002,0.0025000002,-0.009721434,0.21603377,-0.42720762,-0.010190247,0.21706422,-0.42794302,0.0075000008,0.0075,0.0075000003,0.0014000927,0.6914162,2.7037978,-0.0012538084,0.6981242,-2.1630716,0,1,0
5148000,4992000,0,0,0.015684329,-0.222078,0.4273218,0.0025000002,0.0025000002,0.0025000002,-0.015684329,0.222078,-0.4273218,-0.0108818095,0.21769533,-0.42786482,0.0075000008,0.007500001,0.0075000003,0.0036444168,0.7306464,2.705243,-0.0015547241,0.7022179,-2.231317,0,1,0
5220000,5064000,0,0,0.009703893,-0.21609521,0.43073052,0.0025000002,0.0025000002,0.0025000002,-0.009703893,0.21609521,-0.43073052,-0.01073354,0.2174939,-0.42822555,0.0075,0.0075000003,0.0075,0.0013950452,0.6918095,2.7485747,-0.0015346246,0.7009077,-2.2964263,0,1,0
5292000,5136000,0,0,0.006843156,-0.2172554,0.4290655,0.0025000002,0.0025000002,0.0025000002,-0.006843156,0.2172554,-0.4290655,-0.010243841,0.21746388,-0.4283313,0.0075000003,0.0075000008,0.0075000008,0.00069375976,0.6992578,2.7273655,-0.0014287815,0.70070004,-2.3506703,0,1,0
5364000,5207272,0,0,0.012008277,-0.21524188,0.42883375,0.0025000002,0.0025000002,0.0025000002,-0.012008277,0.21524188,-0.42883375,-0.010463973,0.21718666,-0.42839396,0.0075000003,0.0075000008,0.0075000008,0.002136277,0.6863564,2.72442,-0.0015170488,0.69891053,-2.3972995,0,1,0
5428000,5276000,0,0,0.012904858,-0.21483909,0.43135646,0.0025000002,0.0025000002,0.0025000002,-0.012904858,0.21483909,-0.43135646,-0.010758942,0.21690297,-0.42875198,0.0075000008,0.0075000003,0.0075000008,0.0024671901,0.6837901,2.7565684,-0.0016318688,0.6970833,-2.4407153,0,1,0
5500000,5345600,0,0,0.007067879,-0.21659373,0.42891574,0.0025000002,0.0025000002,0.0025000002,-0.007067879,0.21659373,-0.42891574,-0.010307928,0.21686518,-0.42877197,0.0075000008,0.0075000003,0.007500001,0.00074007275,0.69500506,2.725462,-0.0015228993,0.6968294,-2.4755087,0,1,0
5572000,5416000,0,0,0.0061717094,-0.21562394,0.4298523,0.0025000002,0.0025000002,0.0025000002,-0.0061717094,0.21562394,-0.4298523,-0.009797427,0.21671198,-0.4289053,0.0075000003,0.0075000008,0.0075,0.00056429626,0.68879527,2.7373781,-0.0014045864,0.6958378,-2.5078292,0,1,0
5636000,5483555,0,0,0.011228084,-0.21767999,0.42913738,0.0025000002,0.0025000002,0.0025000002,-0.011228084,0.21767999,-0.42913738,-0.0099677155,0.2168272,-0.42893293,0.0075000008,0.0075,0.0075,0.0018677014,0.7019938,2.72828,-0.0014597101,0.6965705,-2.534069,0,1,0
5708000,5556000,0,0,0.011280136,-0.21356821,0.42846715,0.0025000002,0.0025000002,0.0025000002,-0.011280136,0.21356821,-0.42846715,-0.010133808,0.21641476,-0.428874,0.0075000003,0.0075000008,0.0075000003,0.0018850587,0.6757241,2.7197645,-0.0015135395,0.6939323,-2.5575695,0,1,0
5780000,5627555,0,0,0.0095638465,-0.21797888,0.42708367,0.0025000002,0.0025000002,0.0025000002,-0.0095638465,0.21797888,-0.42708367,-0.010062452,0.21661058,-0.42864984,0.0075000008,0.0075000003,0.0075000008,0.0013550689,0.7039228,2.7022288,-0.0014937,0.69518304,-2.57568,0,1,0
5852000,5700000,5700000,0,0.011635272,-0.21485284,0.43057346,0.0025000002,0.0025000002,0.0025000002,0.0,0.0,0.0,0.0,0.0,0.0,0.0025000002,0.0025000002,0.0025000002,0.0,0.0,0.0,0.0,0.0,0.0,0,0,1
5924000,5771555,5772000,0,0.011831004,-0.21479101,0.43004543,0.0025000002,0.0025000002,0.0025000002,-0.0013945829,-0.0024807006,0.00050109625,-0.00017459279,-0.000313463,6.2894454e-05,0.011847225,0.0075904657,0.0075217895,1.8240196e-05,9.1734255e-05,3.728178e-06,-2.283555e-06,-1.1484537e-05,4.6674384e-07,0,0,1
5996000,5844000,5844000,0,0.012702493,-0.21704772,0.43044776,0.0025000002,0.0025000002,0.0025000002,-0.0011273847,0.0015991777,-0.00014072657,-0.00029517207,-7.193755e-05,3.6682177e-05,0.0044551897,0.0041775387,0.0041690264,3.1698273e-05,6.766501e-05,5.5441495e-07,-6.0060947e-06,-1.4678735e-06,3.3751246e-07,0,0,1
6068000,5915555,5916000,0,0.010638244,-0.21627378,0.42841187,0.0025000002,0.0025000002,0.0025000002,0.0013547275,0.00020371377,0.0019596815,-8.861527e-05,-3.716862e-05,0.00027739775,0.0035956698,0.0035039606,0.0035008402,5.671287e-05,1.3428269e-06,0.00012185591,1.845915e-06,-1.115992e-06,1.5550833e-05,0,0,1
6140000,5988000,5988000,0,0.010790069,-0.2150436,0.431436,0.0025000002,0.0025000002,0.0025000002,0.00066965993,-0.0011240989,-0.0016427934,7.3472183e-06,-0.00017464881,3.460658e-05,0.00326083,0.0032164117,0.003214751,1.5280513e-05,4.3605174e-05,9.308386e-05,3.5461123e-06,-6.4931523e-06,1.8027176e-06,0,0,1
6212000,6060000,6060000,0,0.0081503615,-0.21409373,0.43049923,0.0025000002,0.0025000002,0.0025000002,0.0030198214,-0.0018863827,-0.00036922097,0.00038653973,-0.00038990864,-1.5868489e-05,0.0030825264,0.0030570033,0.0030558754,0.00032871022,0.0001291153,4.8810084e-06,4.447586e-05,-2.1928106e-05,9.614096e-07,0,0,1
6284000,6132000,6132000,0,0.008299256,-0.21599852,0.43227482,0.0025000002,0.0025000002,0.0025000002,0.002189148,0.0003746152,-0.0020653903,0.00061344146,-0.0002935669,-0.0002738522,0.0029718992,0.0029556712,0.0029548006,0.00017917345,5.2997916e-06,0.00016041349,6.14308e-05,-1.850082e-05,-1.9351515e-05,0,0,1
6356000,6204000,6204000,0,0.010022243,-0.21739736,0.4274086,0.0025000002,0.0025000002,0.0025000002,8.343402e-05,0.0015084594,0.003016442,0.0005467272,-6.673641e-05,0.00014013014,0.002896885,0.0028855796,0.0028848415,2.670008e-07,8.761955e-05,0.00035011678,5.3731863e-05,-5.1430125e-06,2.715498e-05,0,0,1
6428000,6276000,6276000,0,0.010766996,-0.21551445,0.42989668,0.0025000002,0.0025000002,0.0025000002,-0.00070278655,-0.00067283213,7.584691e-05,0.00038944575,-0.00014306972,0.00013209194,0.0028427292,0.0028342446,0.002833556,1.9304958e-05,1.7764778e-05,2.2811068e-07,4.4538418e-05,-6.731766e-06,2.3765584e-05,0,0,1
6500000,6348000,6348000,0,0.009139434,-0.21537809,0.42810977,0.0025000002,0.0025000002,0.0025000002,0.000974469,-0.00084875524,0.0017947555,0.00046308502,-0.00023184915,0.0003414661,0.0028013869,0.002794958,0.002794326,3.766348e-05,2.8612516e-05,0.00012818257,4.367304e-05,-9.485986e-06,3.690898e-05,0,0,1
6572000,6418666,6420000,0,0.0122362925,-0.21734641,0.42762798,0.0025000002,0.0025000002,0.0025000002,-0.002079383,0.0013865978,0.0021750927,0.0001482493,-3.154036e-05,0.00056837604,0.0027690325,0.002764,0.002763367,0.00017349957,7.719526e-05,0.00019001713,1.6780394e-05,1.2478176e-06,5.5868477e-05,0,0,1
6644000,6491111,6492000,0,0.00966597,-0.2145425,0.42797834,0.0025000002,0.0025000002,0.0025000002,0.00060762034,-0.0017003864,0.0015417039,0.00020638437,-0.00024270336,0.0006916878,0.0027431797,0.0027390053,0.0027383259,1.495436e-05,0.00011725099,9.657596e-05,1.6549302e-05,-1.3748638e-05,6.1020157e-05,0,0,1
6716000,6558000,6564000,0,0.008184007,-0.2159755,0.4306069,0.0025000002,0.0025000002,0.0025000002,0.0019732749,-0.000107094646,-0.0012123287,0.00041486532,-0.00022659641,0.00046708842,0.0027217928,0.002718388,0.0027176447,0.00015895626,4.6095798e-07,6.0038845e-05,3.3352342e-05,-1.21807825e-05,4.673603e-05,0,0,1
6788000,6629600,6636000,0,0.009636858,-0.2139089,0.4300408,0.0025000002,0.0025000002,0.0025000002,0.00044071054,-0.002105534,-0.0005219579,0.00041810275,-0.0004619297,0.00034334004,0.0027039035,0.0027010383,0.0027002643,7.981293e-06,0.0001823319,1.1161807e-05,3.0174304e-05,-3.349432e-05,3.9483606e-05,0,0,1
6860000,6702000,6708000,0,0.011267152,-0.21513367,0.42683914,0.0025000002,0.0025000002,0.0025000002,-0.0012837637,-0.00073860586,0.0027135015,0.00020284222,-0.00049701135,0.0006431381,0.0026887464,0.0026863338,0.0026854784,6.810481e-05,2.2606042e-05,0.00030466114,1.7743472e-05,-3.2117117e-05,7.302458e-05,0,0,1
6932000,6772800,6780000,0,0.009542986,-0.21547826,0.42820653,0.0025000002,0.0025000002,0.0025000002,0.00060539483,-0.00015923381,0.0012500882,0.0002527734,-0.0004550792,0.0007184438,0.0026757126,0.0026736257,0.0026727228,1.5219327e-05,1.0499464e-06,6.498413e-05,1.7430386e-05,-2.8263656e-05,7.202727e-05,0,0,1
6996000,6840000,6844000,0,0.011632028,-0.21879503,0.42722324,0.0025000002,0.0025000002,0.0025000002,-0.0014547332,0.0031924695,0.0021644235,5.047361e-05,-2.301266e-05,0.0008896185,0.0026643726,0.0026625232,0.0026616051,8.825295e-05,0.00042513502,0.0001953544,4.9093705e-06,2.5453535e-05,8.663867e-05,0,0,1
7068000,6911272,6916000,0,0.010743993,-0.2167682,0.4293352,0.0025000002,0.0025000002,0.0025000002,-0.0005210157,0.0010262877,-5.1021576e-05,-2.08255e-05,0.00010786088,0.0007722134,0.0026546346,0.0026528821,0.0026518651,1.136199e-05,4.4088407e-05,1.1081568e-07,2.8793527e-06,2.7778426e-05,7.5815784e-05,0,0,1
7140000,6984000,6988000,0,0.009077373,-0.21819113,0.42819852,0.0025000002,0.0025000002,0.0025000002,0.0011168399,0.002396211,0.001093179,0.00012364122,0.000398523,0.0008129233,0.0026459072,0.002644282,0.0026432232,5.2379906e-05,0.00024138778,5.020027e-05,9.165193e-06,5.490366e-05,7.2562994e-05,0,0,1
7212000,7055272,7060000,0,0.0096750045,-0.2155568,0.4289087,0.0025000002,0.0025000002,0.0025000002,0.00053553854,-0.00024846196,0.00038141012,0.0001750296,0.00031784212,0.0007591152,0.0026382564,0.0026367037,0.0026355383,1.2078749e-05,2.5952336e-06,6.140108e-06,9.528689e-06,4.7730085e-05,6.4276064e-05,0,0,1
7276000,7124000,7124000,0,0.015652558,-0.21548979,0.42077133,0.0025000002,0.0025000002,0.0025000002,-0.0056373607,-0.0001231134,0.008593529,-0.0005273694,0.00026417346,0.0017056738,0.0026312957,0.0026298503,0.0026286286,0.0013419598,6.7362794e-07,0.0031204035,-0.00015379209,4.1880732e-05,0.00043359413,0,0,1
7348000,7192400,7196000,0,0.009527201,-0.21762085,0.4308761,0.0025000002,0.0025000002,0.0025000002,0.00077211065,0.0020853877,-0.0018943548,-0.0003709928,0.00048338308,0.0012724423,0.0026249979,0.002623658,0.0026223902,2.5234089e-05,0.00018424368,0.00015206482,-0.00013224847,5.9012375e-05,0.00036311723,0,0,1
7412000,7260000,7260000,0,0.009803066,-0.21627916,0.43144608,0.0025000002,0.0025000002,0.0025000002,0.00044719357,0.0007279217,-0.0023352504,-0.0002735485,0.000512539,0.000842771,0.0026194116,0.0026181063,0.0026167491,8.48291e-06,2.2503978e-05,0.00023156354,-0.00011548765,5.46643e-05,0.00029229198,0,0,1
7484000,7330909,7332000,0,0.009060727,-0.21687025,0.42963347,0.0025000002,0.0025000002,0.0025000002,0.0011375318,0.0013548434,-0.0003837347,-9.828713e-05,0.0006172421,0.0006904432,0.0026143743,0.002613103,0.0026116231,5.4994194e-05,7.81308e-05,6.262547e-06,-9.431318e-05,5.7578924e-05,0.0002552104,0,0,1
7556000,7400000,7404000,0,0.014804091,-0.21311262,0.427725,0.0025000002,0.0025000002,0.0025000002,-0.0047154725,-0.0023968667,0.0015737414,-0.0006588406,0.0002509608,0.0007975549,0.0026096501,0.0026084322,0.0026069107,0.0009467289,0.00024530833,0.00010542065,-0.00019780148,2.0806627e-05,0.00023702506,0,0,1
7628000,7470000,7476000,0,0.011579656,-0.21506932,0.42875502,0.0025000002,0.0025000002,0.0025000002,-0.0011534881,-0.00047828257,0.000408113,-0.00071958674,0.0001613156,0.0007496976,0.0026054268,0.0026042585,0.0026026096,5.674202e-05,9.789429e-06,7.1018408e-06,-0.00018047838,1.7049217e-05,0.00020878887,0,0,1
7692000,7540000,7540000,0,0.011529954,-0.21144521,0.42373008,0.0025000002,0.0025000002,0.0025000002,-0.0010358174,-0.00404644,0.0054348707,-0.0007584221,-0.000355514,0.0013250858,0.002601497,0.0026003614,0.002598634,4.58248e-05,0.0006998798,0.0012630243,-0.00016394198,-7.099469e-05,0.00033825636,0,0,1
7764000,7606666,7612000,0,0.009552655,-0.215308,0.43094388,0.0025000002,0.0025000002,0.0025000002,0.001003282,-0.00018233061,-0.0020602345,-0.0005511646,-0.00033505965,0.0009268605,0.0025977874,0.0025967178,0.002594949,4.305266e-05,1.4119055e-06,0.00018167854,-0.00013958989,-6.2808555e-05,0.00027708808,0,0,1
7836000,7677333,7684000,0,0.011787641,-0.21443808,0.42817545,0.0025000002,0.0025000002,0.0025000002,-0.0012034688,-0.00092077255,0.0008443296,-0.0006319409,-0.00040769487,0.00091659644,0.002594539,0.0025934696,0.0025915639,6.202503e-05,3.6389927e-05,3.053892e-05,-0.00012998485,-5.9537077e-05,0.00024655735,0,0,1
7900000,7744000,7748000,0,0.007867014,-0.21534762,0.4313774,0.0025000002,0.0025000002,0.0025000002,0.002564665,-9.8362565e-05,-0.0024426281,-0.00025586796,-0.00037108222,0.00052149745,0.0025914838,0.0025904211,0.0025884125,0.00028201373,3.99337e-07,0.00025592896,-8.151421e-05,-5.2579664e-05,0.00018744105,0,0,1
7964000,7812000,7812000,0,0.0097512305,-0.212071,0.4306355,0.0025000002,0.0025000002,0.0025000002,0.0006666528,-0.003099963,-0.0014835298,-0.00014542534,-0.0006977237,0.00028155357,0.0025884807,0.0025874614,0.0025854404,1.9077082e-05,0.00041254083,9.4482886e-05,-6.947159e-05,-9.5673604e-05,0.0001536896,0,0,1
8036000,7882666,7884000,0,0.010952537,-0.21366632,0.43356246,0.0025000002,0.0025000002,0.0025000002,-0.0006349578,-0.0013777614,-0.0043470263,-0.00020604451,-0.0007819935,-0.00029160143,0.0025858842,0.002584868,0.0025827088,1.73236e-05,8.165332e-05,0.0008129388,-6.301407e-05,-9.393746e-05,3.3991288e-05,0,0,1
8108000,7950000,7956000,0,0.009193851,-0.22180656,0.43335545,0.0025000002,0.0025000002,0.0025000002,0.0013038197,0.0066655725,-0.00407508,-2.6846377e-05,0.0001020428,-0.0007406921,0.0025834267,0.0025824204,0.0025801456,7.311331e-05,0.0019122298,0.00071527547,-4.6857804e-05,0.00014416437,-5.4935386e-05,0,0,1
8172000,8020000,8020000,0,0.009147648,-0.21540241,0.42907485,0.0025000002,0.0025000002,0.0025000002,0.0014635422,7.897615e-06,0.00030186772,0.00015618381,9.062326e-05,-0.00061259134,0.0025810287,0.002579991,0.0025777074,9.220939e-05,3.53121e-09,3.942106e-06,-2.9779376e-05,0.0001264604,-4.7704816e-05,0,0,1
8244000,8092000,8092000,0,0.012719643,-0.21263084,0.42854553,0.0025000002,0.0025000002,0.0025000002,-0.0021703448,-0.0028203577,0.00079366565,-0.00013666591,-0.0002760184,-0.00043563035,0.0025789521,0.0025778906,0.002575462,0.0002029419,0.00034328192,2.7148113e-05,-5.1576055e-05,6.7332e-05,-3.828277e-05,0,0,1
8324000,8164400,8172000,0,0.012737635,-0.2164589,0.4283955,0.0025000002,0.0025000002,0.0025000002,-0.002041326,0.0010496229,0.0008993745,-0.0003775768,-0.00010856791,-0.00026690756,0.0025770613,0.0025759765,0.0025733614,0.0001796625,4.7360994e-05,3.484213e-05,-6.7777066e-05,6.480597e-05,-2.903357e-05,0,0,1
8388000,8232000,8236000,0,0.016605897,-0.2098187,0.4229754,0.0025000002,0.0025000002,0.0025000002,-0.0059650014,-0.005634859,0.0062880814,-0.0010430276,-0.00076733343,0.0005136209,0.0025750028,0.0025739318,0.002571321,0.0015353269,0.0013730847,0.0017078719,-0.00024255924,-0.00010644386,0.0001778283,0,0,1
8460000,8302909,8308000,0,0.008335484,-0.21523188,0.42835498,0.0025000002,0.0025000002,0.0025000002,0.0024812096,-6.5892935e-05,0.0007378757,-0.0006053044,-0.0006799478,0.00054160494,0.0025732808,0.0025722072,0.0025694428,0.00026582583,1.7564479e-07,2.3611494e-05,-0.00017941595,-9.3244955e-05,0.00015867401,0,0,1
8524000,8372000,8372000,0,0.011528723,-0.2190308,0.4337655,0.0025000002,0.0025000002,0.0025000002,-0.0008991151,0.003909722,-0.004600674,-0.00064097473,-0.00012283755,-8.284382e-05,0.0025715756,0.0025704878,0.002567643,3.4929213e-05,0.00066045934,0.00091641635,-0.0001618744,-1.7408165e-06,2.8151713e-05,0,0,1
8596000,8440800,8444000,0,0.010849517,-0.21745677,0.42888156,0.0025000002,0.0025000002,0.0025000002,-4.1272317e-05,0.0022448897,0.0004041493,-0.00056843687,0.00016354717,-2.3999186e-05,0.0025699036,0.0025688093,0.0025659238,7.3647556e-08,0.00021796834,7.055462e-06,-0.00014230356,2.4834413e-05,2.5599986e-05,0,0,1
8660000,8508000,8508000,0,0.010298326,-0.22075264,0.4335702,0.0025000002,0.0025000002,0.0025000002,0.0005087837,0.0054660738,-0.004302919,-0.0004408113,0.00079183246,-0.0005310697,0.0025684556,0.0025673269,0.0025643222,1.1198292e-05,0.0012933236,0.00080262515,-0.00012411716,0.00017512086,-7.2525414e-05,0,0,1
8732000,8579272,8580000,0,0.010728355,-0.21668443,0.42776534,0.0025000002,0.0025000002,0.0025000002,7.50756e-05,0.0012926906,0.0016219914,-0.00037644914,0.0008543259,-0.00026248777,0.002567165,0.0025659797,0.0025628146,2.4395027e-07,7.236485e-05,0.00011402239,-0.000108601846,0.000162301,-4.9251677e-05,0,0,1
8804000,8652000,8652000,0,0.010868912,-0.22052102,0.4335179,0.0025000002,0.0025000002,0.0025000002,-0.00019635819,0.0051018745,-0.0041637123,-0.00035358025,0.0013936774,-0.00075806596,0.0025657222,0.0025645352,0.0025613408,1.6697286e-06,0.0011276538,0.00075257174,-9.5023046e-05,0.00028488657,-0.00013856294,0,0,1
8876000,8722181,8724000,0,0.006655132,-0.21569864,0.42924324,0.0025000002,0.0025000002,0.0025000002,0.004008536,0.00019071996,0.00022363663,0.00018333292,0.0012461188,-0.0006369753,0.0025644815,0.0025632419,0.0025599557,0.00069619284,1.6457192e-06,2.2115344e-06,2.3641333e-06,0.00025002373,-0.00012123565,0,0,1
8948000,8796000,8796000,0,0.014218022,-0.21484827,0.4313586,0.0025000002,0.0025000002,0.0025000002,-0.0036742396,-0.0006695837,-0.0018992424,-0.00031292488,0.0009991906,-0.00079957896,0.00256316,0.0025619322,0.002558616,0.00058521674,1.9663088e-05,0.0001569251,-7.322526e-05,0.00021532984,-0.00012582692,0,0,1
9020000,8865818,8868000,0,0.009422143,-0.21596459,0.42768908,0.0025000002,0.0025000002,0.0025000002,0.0010567552,0.0006162524,0.0018944144,-0.00014510233,0.0009524027,-0.00046944505,0.002562117,0.0025608551,0.002557377,4.8429203e-05,1.6535263e-05,0.00015598773,-5.8319325e-05,0.00019097218,-9.129706e-05,0,0,1
9092000,8940000,8940000,0,0.011721209,-0.21461724,0.4343898,0.0025000002,0.0025000002,0.0025000002,-0.0011219198,-0.0005491227,-0.0047533214,-0.00027130323,0.00075825775,-0.0010229704,0.0025611408,0.0025598442,0.0025561955,5.4606917e-05,1.3145149e-05,0.0009823162,-5.7839698e-05,0.00016460104,-0.00020641314,0,0,1
9164000,9011272,9012000,0,0.009172017,-0.21484035,0.42972106,0.0025000002,0.0025000002,0.0025000002,0.0013315764,-0.00044855475,-4.7057867e-05,-7.132768e-05,0.0006078666,-0.00090110814,0.0025599878,0.0025587035,0.0025550288,7.695764e-05,8.683812e-06,9.2813266e-08,-4.102236e-05,0.00014298198,-0.00018067258,0,0,1
9236000,9084000,9084000,0,0.013246608,-0.21669067,0.4286877,0.0025000002,0.0025000002,0.0025000002,-0.0029038065,0.0015243441,0.0010478795,-0.00043101067,0.0007238491,-0.0006538867,0.0025591112,0.0025577904,0.0025539526,0.0003661033,0.000100525795,4.7576847e-05,-8.230284e-05,0.00013759067,-0.00015168828,0,0,1
9308000,9154545,9156000,0,0.008551528,-0.21735992,0.4275841,0.0025000002,0.0025000002,0.0025000002,0.0018461919,0.0023399293,0.0022192895,-0.00014944607,0.000923929,-0.0002985912,0.002558155,0.00255679,0.002552886,0.00014804178,0.00023836795,0.00021443055,-5.3821892e-05,0.00015005127,-0.00010641954,0,0,1
9380000,9224000,9228000,0,0.011612613,-0.22162701,0.4339772,0.0025000002,0.0025000002,0.0025000002,-0.0010684212,0.0064719915,-0.0042655766,-0.00026153115,0.0016004667,-0.00078275497,0.002557154,0.0025557908,0.002551855,4.9600447e-05,0.0018203227,0.00079321774,-5.3307012e-05,0.0003537701,-0.00019018659,0,0,1
9452000,9292400,9300000,0,0.0097273765,-0.21474293,0.42911372,0.0025000002,0.0025000002,0.0025000002,0.00080136984,-0.00054976344,0.0006761253,-0.000133624,0.0013418242,-0.0006071196,0.0025564318,0.002555012,0.0025509128,2.7911892e-05,1.3099429e-05,1.9949779e-05,-4.353331e-05,0.00030962183,-0.00016489925,0,0,1
9516000,9364000,9364000,0,0.012246353,-0.21709275,0.42372435,0.0025000002,0.0025000002,0.0025000002,-0.0016938151,0.0017590672,0.0060263276,-0.00032905728,0.0013938462,0.00022359734,0.0025556732,0.002554229,0.0025499968,0.00012473381,0.000134309,0.0015815698,-5.370468e-05,0.0002876617,5.386767e-05,0,0,1
9588000,9436000,9436000,0,0.008398319,-0.21477456,0.42776164,0.0025000002,0.0025000002,0.0025000002,0.0021498494,-0.0004992187,0.0019210875,-1.702708e-05,0.0011558604,0.00043744614,0.0025547845,0.002553345,0.0025490823,0.00020101074,1.0741037e-05,0.00016110545,-2.1642601e-05,0.00025010054,6.736613e-05,0,0,1
9660000,9508000,9508000,0,0.0071337475,-0.21502958,0.4265879,0.0025000002,0.0025000002,0.0025000002,0.0033906281,-0.00021162629,0.0030702949,0.00041190852,0.0009842227,0.0007691132,0.0025541533,0.00255268,0.002548249,0.0005001161,1.8778348e-06,0.00041158497,4.4033313e-05,0.00021838298,0.00011069437,0,0,1
9732000,9575555,9580000,0,0.009544856,-0.21742132,0.42983276,0.0025000002,0.0025000002,0.0025000002,0.0007683199,0.0020680726,-0.0002848804,0.0004543315,0.0011133397,0.00064361666,0.0025533433,0.0025518294,0.0025473973,2.5688125e-05,0.00018638902,3.548573e-06,4.1849722e-05,0.0002145748,9.709624e-05,0,0,1
9804000,9648000,9652000,0,0.008842892,-0.21594289,0.42984277,0.0025000002,0.0025000002,0.0025000002,0.0013812035,0.0005080849,-0.00031095743,0.00057163055,0.001036954,0.0005228864,0.0025525563,0.0025510457,0.0025465842,8.3041945e-05,1.13178885e-05,4.202954e-06,4.706275e-05,0.0001888519,8.427646e-05,0,0,1
9876000,9719111,9724000,0,0.009316408,-0.21632996,0.42929363,0.0025000002,0.0025000002,0.0025000002,0.0011597323,0.00080411136,0.0001962781,0.0006448571,0.0010081374,0.00048226933,0.0025520204,0.0025504727,0.0025458427,5.8558355e-05,2.8267681e-05,1.6882911e-06,4.849411e-05,0.000168857,7.399312e-05,0,0,1
9940000,9786000,9788000,0,0.010969704,-0.21326628,0.42917895,0.0025000002,0.0025000002,0.0025000002,-0.0005578064,-0.0021685362,0.00036007166,0.0005029511,0.00063323125,0.00046792216,0.002551234,0.002549702,0.0025450706,1.3551088e-05,0.00020505728,5.6792746e-06,4.1173203e-05,0.0001247377,6.593256e-05,0,0,1
10012000,9856800,9860000,0,0.007888255,-0.21791208,0.42931005,0.0025000002,0.0025000002,0.0025000002,0.0025190178,0.002573043,0.00025478005,0.0007530168,0.00087421125,0.0004415285,0.0025507489,0.0025491866,0.0025443833,0.00027640903,0.00028924385,2.8425493e-06,7.0351016e-05,0.00014514245,5.81071e-05,0,0,1
10076000,9924000,9924000,0,0.010632566,-0.21027684,0.42874533,0.0025000002,0.0025000002,0.0025000002,-0.00021807879,-0.0052190125,0.0007535815,0.0006379646,0.00015227112,0.00047874005,0.0025499307,0.0025483398,0.0025436352,2.0723157e-06,0.0011877542,2.4940246e-05,6.177054e-05,-1.2774777e-05,5.41776e-05,0,0,1
10148000,9995272,9996000,0,0.008803102,-0.21608381,0.4311959,0.0025000002,0.0025000002,0.0025000002,0.0014738246,0.0006855875,-0.0016979873,0.00074224663,0.00021902929,0.00020724253,0.002549274,0.002547697,0.0025429537,9.4674404e-05,2.0605483e-05,0.00012589141,6.587563e-05,-8.61025e-06,3.171216e-05,0,0,1
10220000,10064000,10068000,0,0.006391226,-0.21611375,0.42737782,0.0025000002,0.0025000002,0.0025000002,0.0038296673,0.0007971078,0.0021950305,0.0011153463,0.00028945878,0.00044770545,0.0025488648,0.0025472518,0.0025423386,0.00063934136,2.8045193e-05,0.00021096932,0.00013517617,-4.1806184e-06,5.337451e-05,0,0,1
10284000,10131600,10132000,0,0.009097852,-0.21497956,0.42767105,0.0025000002,0.0025000002,0.0025000002,0.0011343106,-0.00018052757,0.0019497573,0.0011176049,0.00023365158,0.0006266891,0.002548419,0.0025467845,0.0025417306,5.6098423e-05,1.3998177e-06,0.00016631657,0.00012575818,-3.849431e-06,6.682568e-05,0,0,1
10356000,10204000,10204000,0,0.011407687,-0.21822593,0.42982006,0.0025000002,0.0025000002,0.0025000002,-0.0014229722,0.002833128,-0.00034177303,0.0007962601,0.0005622241,0.00050390017,0.002547831,0.0025461998,0.0025411209,8.830387e-05,0.00034983183,5.176984e-06,9.868254e-05,4.0885934e-05,5.771843e-05,0,0,1
10428000,10272000,10276000,0,0.009863553,-0.21654123,0.42738682,0.0025000002,0.0025000002,0.0025000002,5.2223913e-05,0.0010494739,0.002070129,0.00070718536,0.0006205603,0.0006913442,0.0025474941,0.0025458205,0.002540573,1.1895511e-07,4.8072638e-05,0.00018732839,8.6882676e-05,4.1746312e-05,7.323512e-05,0,0,1
10500000,10344000,10348000,0,0.0057538557,-0.21452801,0.42651618,0.0025000002,0.0025000002,0.0025000002,0.004324649,-0.0009958893,0.002896428,0.0011625304,0.00041778118,0.00096931285,0.0025467535,0.0025450396,0.0025399318,0.00081596646,4.28244e-05,0.0003678135,0.00017865545,3.1101048e-05,0.00011031491,0,0,1
10572000,10414666,10420000,0,0.009377737,-0.21745192,0.42958775,0.0025000002,0.0025000002,0.0025000002,0.00064954534,0.0020614713,-0.00015798211,0.0010990071,0.00062142184,0.0008296479,0.0025462222,0.002544522,0.0025393683,1.8411118e-05,0.00018571672,1.1000263e-06,0.00015881227,5.0247225e-05,9.651831e-05,0,0,1
10636000,10484000,10484000,0,0.010937154,-0.2172135,0.43120953,0.0025000002,0.0025000002,0.0025000002,-0.0008664881,0.001899004,-0.0017251372,0.00085964735,0.000776874,0.00051834073,0.0025458687,0.0025441449,0.002538854,3.2767755e-05,0.00015731447,0.00013047426,0.00013548149,6.328597e-05,6.887496e-05,0,0,1
10708000,10553500,10556000,0,0.008960484,-0.21708664,0.4294428,0.0025000002,0.0025000002,0.0025000002,0.0012404779,0.0017224103,5.3077936e-05,0.00090612273,0.0008924553,0.00046154944,0.0025455917,0.002543832,0.0025383711,6.716559e-05,0.00012981701,1.2286003e-07,0.00012714443,7.140521e-05,6.0484665e-05,0,0,1
10780000,10625000,10628000,0,0.010010635,-0.21367426,0.4292722,0.0025000002,0.0025000002,0.0025000002,0.00028443115,-0.001793921,0.00017872453,0.0008283433,0.00055640796,0.00042630854,0.0025451186,0.0025433633,0.0025378624,3.5318626e-06,0.00014053618,1.4164515e-06,0.00011167934,4.4889355e-05,5.3094678e-05,0,0,1
10844000,10692000,10692000,0,0.009946855,-0.21571413,0.42733604,0.0025000002,0.0025000002,0.0025000002,0.00047329406,0.00015725195,0.0020530522,0.00078638864,0.00050931255,0.0006185617,0.0025448108,0.002543036,0.0025374005,9.780569e-06,1.088723e-06,0.00018461571,9.96384e-05,3.9713617e-05,6.863596e-05,0,0,1
10916000,10763200,10764000,0,0.009386956,-0.21557012,0.43152022,0.0025000002,0.0025000002,0.0025000002,0.0009931128,-0.00010289252,-0.0022165477,0.00081215677,0.00043315408,0.000265248,0.002544042,0.0025422252,0.0025368282,4.3075503e-05,4.5175332e-07,0.00021506165,9.258784e-05,3.470701e-05,3.3273096e-05,0,0,1
10988000,10830000,10836000,0,0.010427386,-0.21521954,0.42799267,0.0025000002,0.0025000002,0.0025000002,-0.00020740594,-0.00040251017,0.0013695657,0.0006919966,0.000334634,0.0003954111,0.0025436184,0.002541808,0.0025363613,1.8790915e-06,7.0921246e-06,8.218438e-05,8.145448e-05,2.978079e-05,3.9037517e-05,0,0,1
11052000,10899333,10900000,0,0.0112518985,-0.21431975,0.43115243,0.0025000002,0.0025000002,0.0025000002,-0.0010250873,-0.0013803989,-0.0018515289,0.00048289125,0.00012561987,0.00012179231,0.0025433446,0.0025415118,0.0025359385,4.590648e-05,8.346301e-05,0.00015018767,6.594454e-05,1.5990034e-05,1.5993797e-05,0,0,1
11124000,10968000,10972000,0,0.00791347,-0.214877,0.4287559,0.0025000002,0.0025000002,0.0025000002,0.0021915894,-0.00088077784,0.0005348325,0.00068921794,4.4318294e-06,0.00017189396,0.0025431442,0.0025412776,0.0025355408,0.00020984803,3.370514e-05,1.2623137e-05,8.332101e-05,9.989301e-06,1.5586787e-05,0,0,1
11196000,11038285,11044000,0,0.010287714,-0.21685374,0.42871982,0.0025000002,0.0025000002,0.0025000002,-0.00010823319,0.0011678189,0.0005929768,0.00059093576,0.00014779608,0.0002236986,0.0025427458,0.0025408985,0.0025351103,5.1188863e-07,5.962304e-05,1.5372503e-05,7.298899e-05,1.610643e-05,1.5560378e-05,0,0,1
11260000,11105000,11108000,0,0.007123444,-0.21617824,0.4304949,0.0025000002,0.0025000002,0.0025000002,0.0031499346,0.00044566393,-0.0012081563,0.000892187,0.00018332829,5.5338023e-05,0.0025425162,0.0025406464,0.002534725,0.00043360755,8.841341e-06,6.3803964e-05,0.00011544184,1.52511675e-05,6.217423e-06,0,0,1
11332000,11177500,11180000,0,0.009232608,-0.21498425,0.43105334,0.0025000002,0.0025000002,0.0025000002,0.0012063873,-0.00074104965,-0.0017498136,0.00093197654,6.6458626e-05,-0.00017311443,0.0025416955,0.0025397853,0.0025341904,6.362203e-05,2.3926728e-05,0.00013406777,0.00010887951,1.0289775e-05,-1.154795e-05,0,0,1
11404000,11247000,11252000,0,0.010645573,-0.21302468,0.43074253,0.0025000002,0.0025000002,0.0025000002,-0.00036038255,-0.002710715,-0.0014245212,0.0007742611,-0.00027251276,-0.00032567471,0.0025413486,0.002539446,0.0025337993,5.6783315e-06,0.00032160885,8.882538e-05,9.489923e-05,-3.0214098e-05,-2.0978645e-05,0,0,1
11468000,11315428,11316000,0,0.009001619,-0.21547313,0.42809835,0.0025000002,0.0025000002,0.0025000002,0.0010488146,-0.00016254187,0.0012774765,0.00080731214,-0.00025911786,-0.00013260284,0.0025411346,0.002539217,0.00253344,4.809803e-05,1.1376653e-06,7.1650764e-05,8.9265246e-05,-2.6713844e-05,-9.8278115e-06,0,0,1
11540000,11387200,11388000,0,0.007951143,-0.21692164,0.42902347,0.0025000002,0.0025000002,0.0025000002,0.0021855873,0.0013579279,0.00037035346,0.0009803209,-5.5801545e-05,-6.939993e-05,0.002540799,0.0025388992,0.0025330663,0.0002088928,8.101682e-05,6.0343978e-06,0.000104281564,-1.3190891e-05,-7.836698e-06,0,0,1
11612000,11454000,11460000,0,0.010522073,-0.21593797,0.42866677,0.0025000002,0.0025000002,0.0025000002,-0.00030139973,0.00026607513,0.0006733835,0.0008292642,-1.7909562e-05,1.8097548e-05,0.0025406622,0.002538731,0.0025327427,3.972796e-06,3.0900626e-06,1.9871106e-05,9.152329e-05,-1.1272105e-05,-4.571206e-06,0,0,1
11684000,11525333,11532000,0,0.0080424,-0.21452296,0.42898518,0.0025000002,0.0025000002,0.0025000002,0.002407087,-0.0012173951,0.0003080368,0.0010262611,-0.00016731682,5.4558615e-05,0.0025397919,0.0025378,0.00253223,0.00025347958,6.458696e-05,4.220243e-06,0.00011174412,-1.7928658e-05,-3.4735617e-06,0,0,1
11748000,11592000,11596000,0,0.008465878,-0.21909161,0.43100318,0.0025000002,0.0025000002,0.0025000002,0.0017623133,0.0032507628,-0.0017648339,0.0011128559,0.00023505464,-0.00015958483,0.0025394445,0.0025374743,0.00253188,0.00013588922,0.0004633167,0.00013681257,0.000114584735,3.8688693e-05,-1.9160572e-05,0,0,1
11820000,11662285,11668000,0,0.009880567,-0.21608433,0.43023908,0.0025000002,0.0025000002,0.0025000002,0.00042230054,0.00014825165,-0.0010124147,0.0010277481,0.00022441466,-0.00026466942,0.0025393202,0.0025373176,0.002531578,7.80339e-06,9.685883e-07,4.4970293e-05,0.000101424426,3.4039866e-05,-2.23415e-05,0,0,1
11892000,11734400,11740000,0,0.009003208,-0.21763085,0.43063402,0.0025000002,0.0025000002,0.0025000002,0.0012029039,0.0016116053,-0.0014336109,0.0010498265,0.00039944795,-0.00041204662,0.0025392072,0.0025371704,0.0025312866,6.331714e-05,0.000113942864,9.024752e-05,9.662101e-05,4.4111624e-05,-3.0901043e-05,0,0,1
11964000,11806857,11812000,0,0.010708097,-0.2159247,0.43022308,0.0025000002,0.0025000002,0.0025000002,-0.0006769786,-7.915497e-05,-0.0009864867,0.0008312614,0.00033876876,-0.00048479674,0.0025389355,0.002536914,0.0025309678,2.0056525e-05,2.800035e-07,4.2751097e-05,8.18529e-05,3.849289e-05,-3.2400927e-05,0,0,1
12036000,11879200,11884000,0,0.008958786,-0.21642816,0.43032762,0.0025000002,0.0025000002,0.0025000002,0.0009926587,0.00042502582,-0.001077652,0.00085166167,0.00034982088,-0.0005596903,0.002538838,0.0025367893,0.0025306903,4.312433e-05,7.9564015e-06,5.0957497e-05,7.695769e-05,3.463314e-05,-3.474644e-05,0,0,1
12108000,11951428,11956000,0,0.009573623,-0.21496502,0.42995408,0.0025000002,0.0025000002,0.0025000002,0.00047994818,-0.0011685938,-0.0007587373,0.0008047431,0.00015822993,-0.0005847018,0.002537925,0.0025358046,0.0025302006,1.0084803e-05,5.9782597e-05,2.5221074e-05,6.8516834e-05,2.2715758e-05,-3.3544125e-05,0,0,1
12180000,12023200,12028000,0,0.0068201507,-0.2170879,0.42915183,0.0025000002,0.0025000002,0.0025000002,0.003311571,0.00088845193,1.1473894e-05,0.0011194141,0.00025035394,-0.0005097005,0.0025376733,0.0025355674,0.0025299073,0.00048016437,3.4877496e-05,7.191243e-09,0.00012018913,2.4242367e-05,-2.9332577e-05,0,0,1
12252000,12094857,12100000,0,0.010675622,-0.21641669,0.4280354,0.0025000002,0.0025000002,0.0025000002,-0.0003670316,0.00018291175,0.0011102855,0.00093308865,0.0002418459,-0.00030668607,0.0025375804,0.002535443,0.002529648,5.8985406e-06,1.4592579e-06,5.4107117e-05,0.00010438408,2.1386513e-05,-1.8873441e-05,0,0,1
12324000,12165600,12172000,0,0.0056350045,-0.21646176,0.4292674,0.0025000002,0.0025000002,0.0025000002,0.004653026,0.00028437376,-0.00010383129,0.001394171,0.00024773,-0.0002812464,0.0025368046,0.0025345904,0.002529202,0.0009482905,3.6694464e-06,4.5208418e-07,0.00020898541,1.9190502e-05,-1.6590133e-05,0,0,1
12388000,12234000,12236000,0,0.010831701,-0.21438742,0.42829174,0.0025000002,0.0025000002,0.0025000002,-0.0006618047,-0.0019370466,0.0008004904,0.0011467595,-1.526589e-05,-0.0001509944,0.0025365327,0.0025343432,0.0025289229,1.9185658e-05,0.00016462212,2.8199402e-05,0.00018152781,-2.9291023e-06,-1.1200259e-05,0,0,1
12460000,12304000,12308000,0,0.008132403,-0.21564013,0.4308344,0.0025000002,0.0025000002,0.0025000002,0.0019295809,-0.0006516725,-0.0017415583,0.0012428955,-9.3171664e-05,-0.00034614897,0.002536444,0.002534223,0.0025286782,0.00016310159,1.8503777e-05,0.00013305111,0.00017926494,-4.8417814e-06,-2.6164398e-05,0,0,1
12524000,12372000,12372000,0,0.01003152,-0.21252607,0.42878243,0.0025000002,0.0025000002,0.0025000002,-0.000118099095,-0.0038815588,0.00026774406,0.0010799596,-0.0005467249,-0.00027239445,0.0025363194,0.0025340803,0.0025284356,6.110077e-07,0.00066065695,3.2016285e-06,0.0001577305,-8.3354855e-05,-2.2648746e-05,0,0,1
12596000,12442857,12444000,0,0.01045162,-0.21638133,0.4256963,0.0025000002,0.0025000002,0.0025000002,-0.000523966,8.933246e-05,0.0033908784,0.00088087405,-0.00046784396,0.00018226355,0.0025361062,0.0025338903,0.002528177,1.2028078e-05,3.4559324e-07,0.0005052302,0.0001366594,-7.296563e-05,4.287366e-05,0,0,1
12668000,12510000,12516000,0,0.009193864,-0.21353585,0.42999828,0.0025000002,0.0025000002,0.0025000002,0.0007866782,-0.0026251823,-0.00088202953,0.0008697224,-0.00072315556,5.6467194e-05,0.0025352722,0.0025329634,0.0025277329,2.7122342e-05,0.0003021286,3.406439e-05,0.00012369151,-0.00010009581,3.3765107e-05,0,0,1
12740000,12580500,12588000,0,0.007834068,-0.21520995,0.42892486,0.0025000002,0.0025000002,0.0025000002,0.0019862338,-0.00089879334,0.00021740794,0.0010076961,-0.0007446124,7.653691e-05,0.0025350684,0.002532785,0.0025274877,0.00017291337,3.528091e-05,2.1060223e-06,0.00012977414,-9.208625e-05,2.985281e-05,0,0,1
12804000,12648000,12652000,0,0.008313484,-0.21349859,0.42934668,0.0025000002,0.0025000002,0.0025000002,0.0014448982,-0.0026157945,-0.00021409988,0.0010596982,-0.0009670057,4.221625e-05,0.0025349534,0.0025326537,0.0025272605,9.150862e-05,0.00029985682,1.9761715e-06,0.00012522274,-0.000116799056,2.6066984e-05,0,0,1
12876000,12719111,12724000,0,0.010469445,-0.21834123,0.42859462,0.0025000002,0.0025000002,0.0025000002,-0.00050555775,0.0022962242,0.00055992603,0.00086480274,-0.0005607556,0.00010647578,0.0025348845,0.0025325578,0.002527045,1.12031685e-05,0.00023122069,1.3705118e-05,0.00010823588,-7.346591e-05,2.4527766e-05,0,0,1
12948000,12790666,12796000,0,0.009318871,-0.21632385,0.42718673,0.0025000002,0.0025000002,0.0025000002,0.0007809392,0.00023050606,0.0019452572,0.0008543036,-0.0004615985,0.00033671863,0.002534704,0.0025323909,0.002526818,2.6734044e-05,2.3468426e-06,0.00016644805,9.8032375e-05,-6.397464e-05,4.2295273e-05,0,0,1
13020000,12862222,12868000,0,0.010712348,-0.21821369,0.4296051,0.0025000002,0.0025000002,0.0025000002,-0.0004892143,0.0020980984,-0.0005041063,0.00068610173,-0.00014119831,0.00023125848,0.002534648,0.0025323092,0.0025266162,1.0491514e-05,0.00019305908,1.12438665e-05,8.444572e-05,-3.1795284e-05,3.5592435e-05,0,0,1
13092000,12934666,12940000,0,0.0061472207,-0.21901123,0.42730558,0.0025000002,0.0025000002,0.0025000002,0.004164387,0.0029498488,0.0018364191,0.0011262861,0.00025046733,0.00043444464,0.0025337855,0.0025313324,0.0025261845,0.0007604835,0.00038294878,0.00014839611,0.00016999972,2.0691452e-05,4.9867976e-05,0,0,1
13164000,13006222,13012000,0,0.010124043,-0.21566856,0.42913663,0.0025000002,0.0025000002,0.0025000002,0.00027739356,-0.00050248206,-5.8054924e-05,0.0010200089,0.00015623281,0.00037282862,0.0025336188,0.0025311783,0.0025259738,3.3744964e-06,1.1072543e-05,1.465254e-07,0.00014913906,1.6714755e-05,4.3606407e-05,0,0,1
13236000,13077333,13084000,0,0.011717248,-0.21486811,0.42405576,0.0025000002,0.0025000002,0.0025000002,-0.0015081218,-0.0015133917,0.004918158,0.00070522266,-5.1835043e-05,0.0009387994,0.0025335636,0.0025310947,0.0025257855,9.97467e-05,0.00010073221,0.0010641179,0.00011814943,2.0910293e-06,0.00017067383,0,0,1
13300000,13145500,13148000,0,0.010440029,-0.21658893,0.42789984,0.0025000002,0.0025000002,0.0025000002,-0.00018138607,0.00024461746,0.001039207,0.00059884996,-1.6287566e-05,0.00095081795,0.0025334707,0.0025309836,0.002525589,1.4429439e-06,2.6233165e-06,4.749025e-05,0.00010380109,2.1548915e-06,0.00015589462,0,0,1
13372000,13216000,13220000,0,0.00911633,-0.21795046,0.43028182,0.0025000002,0.0025000002,0.0025000002,0.0011872473,0.0015252829,-0.0013925731,0.00067156163,0.00017435137,0.00066119415,0.002533315,0.0025308463,0.0025253913,6.182309e-05,0.000102289036,8.535997e-05,9.861362e-05,1.4529049e-05,0.00012608139,0,0,1
13436000,13283428,13284000,0,0.010657945,-0.21471828,0.42619377,0.0025000002,0.0025000002,0.0025000002,-0.000322479,-0.0017508715,0.0026905239,0.00055343885,-5.445919e-05,0.0009024447,0.002533236,0.0025307501,0.0025252062,4.5612587e-06,0.00013463601,0.00031872516,8.6353255e-05,-3.1963755e-06,0.00014897343,0,0,1
13508000,13355200,13356000,0,0.008223781,-0.21886821,0.4286091,0.0025000002,0.0025000002,0.0025000002,0.0021585957,0.00251019,0.00029972196,0.00075492705,0.00026770157,0.0008267469,0.00253237,0.0025297555,0.0025247878,0.00020444333,0.00027716032,3.944858e-06,0.00010117658,3.1995558e-05,0.00013076863,0,0,1
13580000,13422000,13428000,0,0.006697422,-0.21501875,0.4300561,0.0025000002,0.0025000002,0.0025000002,0.0037838225,-0.0012363344,-0.0010908544,0.0011118964,9.082591e-05,0.00060101005,0.0025322235,0.0025296286,0.0025245966,0.00062822754,6.67872e-05,5.215939e-05,0.00016329197,2.0353553e-05,0.00010920972,0,0,1
13644000,13492000,13492000,0,0.008891267,-0.2136687,0.4303912,0.0025000002,0.0025000002,0.0025000002,0.0014830736,-0.0024963766,-0.0013753176,0.0011574795,-0.00022674545,0.00035853853,0.0025321424,0.0025295322,0.002524415,9.651498e-05,0.0002734625,8.302182e-05,0.00015509129,-1.5729122e-05,8.560234e-05,0,0,1
13716000,13559200,13564000,0,0.009929611,-0.21491568,0.42710763,0.0025000002,0.0025000002,0.0025000002,0.000510101,-0.0013655275,0.0018493831,0.0010807802,-0.00036161582,0.00053527975,0.002532104,0.0025294637,0.0025242514,1.1417953e-05,8.1859325e-05,0.00015070189,0.00013806934,-2.3564011e-05,9.3315124e-05,0,0,1
13788000,13629714,13636000,0,0.01007429,-0.2169717,0.42708433,0.0025000002,0.0025000002,0.0025000002,0.00021068985,0.00075665116,0.0018880367,0.00097323937,-0.00022338016,0.0007024346,0.0025319671,0.002529351,0.0025240716,1.9479896e-06,2.5161336e-05,0.00015686292,0.00012124511,-1.7541688e-05,0.00010116946,0,0,1
13852000,13698000,13700000,0,0.010687608,-0.21602367,0.43013442,0.0025000002,0.0025000002,0.0025000002,-0.00037520693,-0.00015711784,-0.0011591613,0.0008112083,-0.00021545644,0.000478732,0.0025318991,0.0025292689,0.0025239035,6.1780697e-06,1.0888829e-06,5.916171e-05,0.000105933774,-1.5564698e-05,8.1903854e-05,0,0,1
13924000,13769000,13772000,0,0.008549113,-0.21735926,0.42857113,0.0025000002,0.0025000002,0.0025000002,0.0017306443,0.0011197478,0.00038525462,0.00092553394,-4.927066e-05,0.00046712317,0.002531061,0.0025282898,0.0025235105,0.00013148328,5.523089e-05,6.5389945e-06,0.00010911068,-6.761743e-06,7.253274e-05,0,0,1
13988000,13836000,13836000,0,0.007221717,-0.21743362,0.4324448,0.0025000002,0.0025000002,0.0025000002,0.0031787804,0.0011466742,-0.0035138726,0.0011917906,9.234401e-05,-3.2103853e-06,0.0025308942,0.002528154,0.0025233382,0.0004436133,5.803937e-05,0.0005434744,0.00014863745,8.9553123e-07,-2.5822374e-07,0,0,1
14060000,13905777,13908000,0,0.011583584,-0.21734478,0.4315121,0.0025000002,0.0025000002,0.0025000002,-0.0013150384,0.0008932054,-0.002627015,0.00088479504,0.00019028717,-0.00032465308,0.002530862,0.0025280912,0.002523188,7.59217e-05,3.49791e-05,0.0003041324,0.00012113711,5.069531e-06,-3.7471782e-05,0,0,1
14132000,13974000,13980000,0,0.0029220858,-0.21329796,0.43340603,0.0025000002,0.0025000002,0.0025000002,0.0074379887,-0.0033150166,-0.0045803785,0.0016715962,-0.00022985922,-0.00083505246,0.002530832,0.0025280297,0.0025230425,0.002428875,0.00048126935,0.00092204666,0.00039821287,-5.3322154e-05,-0.00014367719,0,0,1
14204000,14046000,14052000,0,0.009278034,-0.21721481,0.42970106,0.0025000002,0.0025000002,0.0025000002,0.000999325,0.0006568432,-0.00082054734,0.0015869746,-0.00011814779,-0.0008332202,0.0025307145,0.002527946,0.0025228835,4.3845783e-05,1.900851e-05,2.9649274e-05,0.00035360723,-4.4217595e-05,-0.00012932402,0,0,1
14276000,14118000,14124000,0,0.0068425126,-0.2158354,0.43003637,0.0025000002,0.0025000002,0.0025000002,0.0034563679,-0.00066640973,-0.001119107,0.0018222828,-0.00018685221,-0.00086901616,0.0025299133,0.0025269934,0.002522505,0.00052467664,1.9384093e-05,5.5017175e-05,0.00037514046,-4.10917e-05,-0.00011997071,0,0,1
14348000,14189200,14196000,0,0.008931736,-0.21640669,0.4292709,0.0025000002,0.0025000002,0.0025000002,0.0014444371,4.442036e-05,-0.0002785325,0.0017751844,-0.0001578966,-0.00079535117,0.0025297909,0.0025268928,0.0025223475,9.163684e-05,9.080541e-08,3.4054142e-06,0.00033980177,-3.5958306e-05,-0.000105440864,0,0,1
14412000,14256000,14260000,0,0.00795286,-0.2262796,0.43000868,0.0025000002,0.0025000002,0.0025000002,0.0024028865,0.009920284,-0.0010075569,0.001849162,0.0010300619,-0.000820799,0.0025297287,0.0025268134,0.0025222,0.00025360048,0.0043289256,4.505247e-05,0.00032964256,0.00047846342,-9.832381e-05,0,0,1
14484000,14326181,14332000,0,0.009607962,-0.21602926,0.42858818,0.0025000002,0.0025000002,0.0025000002,0.00079209765,-0.00056912005,0.0003348589,0.0017190528,0.00083329604,-0.00067848066,0.0025297073,0.0025267506,0.0025220667,2.7557808e-05,1.4214503e-05,4.957642e-06,0.00029246032,0.00041782192,-8.561137e-05,0,0,1
14556000,14400000,14404000,0,0.011040907,-0.20942833,0.43412003,0.0025000002,0.0025000002,0.0025000002,-0.00060393434,-0.0071062297,-0.0051739216,0.0014202119,-0.00018814096,-0.0012563865,0.0025295964,0.002526664,0.0025219198,1.6020855e-05,0.0022209662,0.0011779603,0.00025277573,7.835482e-05,-0.0002261367,0,0,1
14628000,14471272,14476000,0,0.011247909,-0.21767585,0.42907587,0.0025000002,0.0025000002,0.0025000002,-0.0007735182,0.0011284202,-0.000120192766,0.0011465217,-2.3956352e-05,-0.001114743,0.002529573,0.0025266192,0.0025217894,2.6281572e-05,5.594082e-05,6.457272e-07,0.00021796049,7.555844e-05,-0.0001980044,0,0,1
14700000,14544000,14548000,0,0.010851417,-0.21447092,0.43038294,0.0025000002,0.0025000002,0.0025000002,-0.00046301074,-0.0020836592,-0.0014246702,0.00094213476,-0.00028554947,-0.0011540159,0.0025288283,0.0025257107,0.0025214353,9.419336e-06,0.00019105698,8.935921e-05,0.00018908661,4.170222e-05,-0.00018420807,0,0,1
14772000,14614909,14620000,0,0.010493187,-0.21585819,0.4306097,0.0025000002,0.0025000002,0.0025000002,-0.00017847941,-0.0007225275,-0.0016595125,0.00080295035,-0.00033983978,-0.0012167704,0.0025287196,0.0025256264,0.002521297,1.399694e-06,2.297485e-05,0.000121330064,0.00016542751,3.366909e-05,-0.00017639839,0,0,1
14836000,14684000,14684000,0,0.010248648,-0.21163255,0.42934003,0.0025000002,0.0025000002,0.0025000002,6.2577834e-05,-0.004875958,-0.00034481287,0.0007130648,-0.00089054776,-0.0011106496,0.0025286626,0.0025255517,0.0025211608,1.72071e-07,0.0010459624,5.175018e-06,0.00014536452,-9.7404525e-05,-0.00015561086,0,0,1
14908000,14754000,14756000,0,0.010578463,-0.21548505,0.42748603,0.0025000002,0.0025000002,0.0025000002,-0.00021381374,-0.0009602308,0.0015251637,0.0005992376,-0.00089912524,-0.0007869137,0.0025286376,0.0025255007,0.0025210339,2.0088248e-06,4.0579635e-05,0.000102564125,0.00012726604,-9.042603e-05,-0.00012390516,0,0,1
14980000,14822000,14828000,0,0.0065012802,-0.21301249,0.42388093,0.0025000002,0.0025000002,0.0025000002,0.0036730815,-0.0035054386,0.0050810575,0.000967233,-0.0012108536,-8.407724e-05,0.0025285357,0.0025254218,0.0025209028,0.00059285644,0.00053988036,0.0011391618,0.00018300573,-0.00014423394,2.7307062e-05,0,0,1
15044000,14891555,14892000,0,0.009638906,-0.21570097,0.4305992,0.0025000002,0.0025000002,0.0025000002,0.00052533793,-0.0008493215,-0.0017055273,0.000913268,-0.0011666589,-0.0002820195,0.0025284858,0.0025253564,0.0025207787,1.212759e-05,3.1711228e-05,0.00012812705,0.0001621378,-0.00013049248,8.325189e-06,0,0,1
15116000,14964000,14964000,0,0.009697229,-0.21784958,0.42726016,0.0025000002,0.0025000002,0.0025000002,0.00052881887,0.0013470501,0.0016668439,0.00086461456,-0.00084850437,-3.5425357e-05,0.0025278039,0.0025245012,0.0025204488,1.2292154e-05,7.989704e-05,0.00012243305,0.00014317429,-0.00010386692,2.2765955e-05,0,0,1
15188000,15034666,15036000,0,0.008764718,-0.21544662,0.42963842,0.0025000002,0.0025000002,0.0025000002,0.0014357978,-0.0010031015,-0.000692606,0.0009353446,-0.00086753897,-0.00011669689,0.002527706,0.0025244295,0.0025203219,9.0618625e-05,4.420993e-05,2.10952e-05,0.00013666628,-9.6479554e-05,1.7334594e-05,0,0,1
15260000,15106666,15108000,0,0.011544185,-0.21214634,0.4293751,0.0025000002,0.0025000002,0.0025000002,-0.0016026554,-0.00432688,-0.00043588877,0.0006158761,-0.0013031033,-0.00015670733,0.0025276882,0.0025243824,0.0025202034,0.00011290529,0.00082441914,8.325632e-06,0.000105251675,-0.0001881083,1.4104637e-05,0,0,1
15332000,15178666,15180000,0,0.009490741,-0.21740156,0.4290631,0.0025000002,0.0025000002,0.0025000002,0.00052387326,0.0010700375,-6.4343214e-05,0.00060429535,-0.0010043501,-0.00014511248,0.0025271643,0.0025237151,0.0025199256,1.2066365e-05,5.0436844e-05,1.8396572e-07,9.352206e-05,-0.00015808165,1.2306072e-05,0,0,1
15404000,15246000,15252000,0,0.009335961,-0.21410707,0.42955813,0.0025000002,0.0025000002,0.0025000002,0.00064344506,-0.0021135658,-0.0004992187,0.00060894183,-0.0011359513,-0.00018703054,0.0025270688,0.002523644,0.0025198031,1.8203855e-05,0.0001966082,1.0948975e-05,8.458292e-05,-0.00016265416,9.546048e-06,0,0,1
15476000,15317600,15324000,0,0.01198985,-0.21611838,0.42991003,0.0025000002,0.0025000002,0.0025000002,-0.0020960805,-0.00024917722,-0.00092726946,0.00027010424,-0.001025024,-0.00027981785,0.002527051,0.0025235938,0.0025196925,0.00019317877,2.7604501e-06,3.7957256e-05,4.978982e-05,-0.00014262549,3.5956696e-06,0,0,1
15540000,15388000,15388000,0,0.007689962,-0.21551579,0.43145436,0.0025000002,0.0025000002,0.0025000002,0.002319632,-0.00074361265,-0.0024132729,0.0005230614,-0.000990131,-0.0005430231,0.0025269287,0.0025235077,0.0025195705,0.00023659346,2.4261963e-05,0.0002566389,7.2845534e-05,-0.0001280168,-2.8523042e-05,0,0,1
15612000,15454666,15460000,0,0.007810535,-0.216114,0.4308041,0.0025000002,0.0025000002,0.0025000002,0.0023242163,-0.0001398474,-0.0017482936,0.0007349601,-0.0008899462,-0.00068473927,0.0025269142,0.0025234614,0.0025194623,0.00023753088,8.452531e-07,0.00013469286,9.222011e-05,-0.00011305558,-4.1013496e-05,0,0,1
15684000,15526666,15532000,0,0.008884725,-0.21157925,0.42990646,0.0025000002,0.0025000002,0.0025000002,0.0013361978,-0.00470832,-0.0008595288,0.00081064034,-0.0013704965,-0.0007064938,0.002526396,0.0025227882,0.0025191952,7.852313e-05,0.00097607984,3.2436365e-05,9.049601e-05,-0.00022168801,-3.9933857e-05,0,0,1
15756000,15598666,15604000,0,0.010070443,-0.21537103,0.42990816,0.0025000002,0.0025000002,0.0025000002,7.115747e-05,-0.0008517802,-0.0008365214,0.0007175586,-0.0013052018,-0.0007228236,0.0025263086,0.0025227298,0.0025190827,2.226958e-07,3.1954187e-05,3.0843355e-05,7.913294e-05,-0.00019780544,-3.87896e-05,0,0,1
15820000,15666000,15668000,0,0.010977711,-0.21325725,0.4315526,0.0025000002,0.0025000002,0.0025000002,-0.000986481,-0.0029519796,-0.0024687946,0.0005153148,-0.0015007154,-0.0009299529,0.0025262653,0.002522667,0.0025189715,4.28012e-05,0.00038396154,0.00026867932,6.466119e-05,-0.00021989936,-6.607405e-05,0,0,1
15892000,15736800,15740000,0,0.0101864645,-0.21556222,0.43110904,0.0025000002,0.0025000002,0.0025000002,-0.00024435332,-0.00044052303,-0.001911968,0.00042108828,-0.0013692274,-0.0010517448,0.0025262474,0.002522619,0.0025188637,2.6261412e-06,8.552121e-06,0.00016123687,5.6315108e-05,-0.0001936846,-7.78777e-05,0,0,1
15956000,15804000,15804000,0,0.010786805,-0.21433184,0.43079627,0.0025000002,0.0025000002,0.0025000002,-0.0008483023,-0.001667887,-0.0015860796,0.00027069502,-0.0014046642,-0.0011150064,0.0025261343,0.0025225454,0.0025187547,3.165209e-05,0.0001225979,0.000110921486,4.589304e-05,-0.00018526247,-8.179262e-05,0,0,1
16028000,15874909,15876000,0,0.012425124,-0.21442765,0.43114725,0.0025000002,0.0025000002,0.0025000002,-0.0025023727,-0.0014165342,-0.0018528998,-7.373019e-05,-0.0014063041,-0.0012066655,0.0025261233,0.0025225054,0.0025186518,0.00027542727,8.8551635e-05,0.00015147167,5.983875e-06,-0.00017325062,-9.0447014e-05,0,0,1
16100000,15944000,15948000,0,0.013122356,-0.22021382,0.426565,0.0025000002,0.0025000002,0.0025000002,-0.0033411914,0.0045013875,0.002808839,-0.0004704192,-0.00068927155,-0.0007194354,0.0025256346,0.0025218574,0.002518394,0.0004911223,0.0008921096,0.0003475243,-5.4367738e-05,-4.3909633e-05,-3.727472e-05,0,0,1
16172000,16013600,16020000,0,0.010017816,-0.21600962,0.42985424,0.0025000002,0.0025000002,0.0025000002,-0.000386053,0.00026667118,-0.00049713254,-0.00046011043,-0.0005724882,-0.00069229293,0.00252555,0.002521793,0.002518292,6.556852e-06,3.1286227e-06,1.0911786e-05,-4.8525675e-05,-3.816198e-05,-3.4053406e-05,0,0,1
16244000,16086000,16092000,0,0.010874447,-0.21471122,0.42635876,0.0025000002,0.0025000002,0.0025000002,-0.0013469164,-0.0010225177,0.0030089915,-0.00057227805,-0.0006294969,-0.00022412982,0.0025255408,0.00252175,0.0025181947,7.9814985e-05,4.6129575e-05,0.00039950732,-5.24833e-05,-3.916976e-05,2.0785512e-05,0,0,1
16316000,16156800,16164000,0,0.010544523,-0.21596761,0.4304304,0.0025000002,0.0025000002,0.0025000002,-0.0010268361,0.00022627413,-0.0010894239,-0.0006286598,-0.0005234107,-0.00033150127,0.00252553,0.0025217095,0.0025180993,4.6388166e-05,2.2462325e-06,5.2403222e-05,-5.1727282e-05,-3.403267e-05,1.1707442e-05,0,0,1
16380000,16224000,16228000,0,0.009646724,-0.21818964,0.4239995,0.0025000002,0.0025000002,0.0025000002,-0.00026081572,0.002491638,0.0053751767,-0.00058507884,-0.00016621195,0.00034448443,0.002525427,0.002521646,0.0025179987,2.9928863e-06,0.00027352755,0.0012744428,-4.595339e-05,2.406061e-06,0.00016131219,0,0,1
16452000,16294545,16300000,0,0.009657646,-0.21550965,0.43037298,0.0025000002,0.0025000002,0.0025000002,-0.0003414097,-0.00012852252,-0.000995189,-0.0005549504,-0.00016157056,0.00017883608,0.0025254227,0.002521611,0.0025179063,5.12832e-06,7.295585e-07,4.3708034e-05,-4.090558e-05,2.0183575e-06,0.00013596247,0,0,1
16524000,16368000,16372000,0,0.0043772245,-0.21684879,0.42830572,0.0025000002,0.0025000002,0.0025000002,0.004884539,0.0012726039,0.001110971,0.00014180475,2.2414926e-05,0.00029831615,0.002524959,0.0025209822,0.0025176643,0.0010499059,7.162435e-05,5.453306e-05,9.881865e-05,1.0934329e-05,0.00012553201,0,0,1
16596000,16438909,16444000,0,0.011525658,-0.21631727,0.42979765,0.0025000002,0.0025000002,0.0025000002,-0.0024185716,0.0005479604,-0.00047922134,-0.00017620344,8.755597e-05,0.00020165183,0.0025248865,0.0025209326,0.002517573,0.00025741482,1.318219e-05,1.0166686e-05,5.4573142e-05,1.1213522e-05,0.000108677734,0,0,1
16668000,16512000,16516000,0,0.008450682,-0.2219312,0.43047002,0.0025000002,0.0025000002,0.0025000002,0.00060074584,0.0060947537,-0.0011772513,-7.711272e-05,0.0008537417,2.5539877e-05,0.0025248774,0.0025208862,0.0025174855,1.5881764e-05,0.0016374186,6.1371844e-05,4.963851e-05,0.0002186168,8.6989916e-05,0,0,1
16740000,16583636,16588000,0,0.011381271,-0.2163732,0.42951664,0.0025000002,0.0025000002,0.0025000002,-0.0024929517,0.00051264465,-0.00020721555,-0.00037985962,0.00081085204,-3.7176833e-06,0.0025248092,0.002520838,0.0025173966,0.00027349958,1.1531699e-05,1.9082295e-06,9.143656e-06,0.00019266541,7.584942e-05,0,0,1
16812000,16656000,16660000,0,0.009204263,-0.21343902,0.4329084,0.0025000002,0.0025000002,0.0025000002,-0.00019198965,-0.0024227798,-0.0035995543,-0.0003561072,0.00040201578,-0.00045824365,0.0025248018,0.0025207982,0.0025173107,1.6221305e-06,0.00025874394,0.0005716571,7.782537e-06,0.0001355937,-6.0148595e-06,0,0,1
16884000,16728000,16732000,0,0.010454736,-0.21549682,0.4312724,0.0025000002,0.0025000002,0.0025000002,-0.0014418727,-0.00049735606,-0.0020145178,-0.000492777,0.0002887284,-0.00065416226,0.0025243612,0.0025202013,0.0025170841,9.150816e-05,1.0933592e-05,0.00017917786,-4.715592e-06,0.000117149706,-2.78116e-05,0,0,1
16956000,16800000,16804000,0,0.005219786,-0.2137646,0.43456918,0.0025000002,0.0025000002,0.0025000002,0.0038742146,-0.0022714734,-0.005323231,5.691423e-05,-3.332281e-05,-0.001241689,0.0025242888,0.0025201552,0.002516996,0.00066067185,0.00022714409,0.0012502067,7.903946e-05,7.381203e-05,-0.00018167951,0,0,1
17028000,16870545,16876000,0,0.010538092,-0.2171468,0.42851597,0.0025000002,0.0025000002,0.0025000002,-0.0016157987,0.0011553764,0.0007826984,-0.00014990826,0.00011356769,-0.0009914676,0.0025242895,0.0025201235,0.0025169128,0.00011491926,5.8783946e-05,2.6997599e-05,5.5057448e-05,7.195388e-05,-0.00015587764,0,0,1
17100000,16944000,16948000,0,0.005852824,-0.21676493,0.43153715,0.0025000002,0.0025000002,0.0025000002,0.0030466963,0.00081442297,-0.002218455,0.00025955122,0.00020351,-0.0011485943,0.0025242877,0.0025200888,0.0025168294,0.00040857986,2.93388e-05,0.0002172107,0.00010034084,6.649523e-05,-0.00016373392,0,0,1
17172000,17014909,17020000,0,0.009184067,-0.21727766,0.42709062,0.0025000002,0.0025000002,0.0025000002,-0.00036680256,0.0012984127,0.0022312999,0.00018175578,0.00033948268,-0.00072885805,0.0025242213,0.0025200457,0.0025167472,5.92236e-06,7.431497e-05,0.0002197096,8.714256e-05,6.746647e-05,-0.000116108815,0,0,1
17244000,17088000,17092000,0,0.0062316656,-0.22018908,0.43021348,0.0025000002,0.0025000002,0.0025000002,0.002721909,0.004246652,-0.0008842349,0.00050572236,0.0008379483,-0.00074878323,0.00252422,0.0025200155,0.0025166662,0.00032612006,0.00079559477,3.4586334e-05,0.00011762132,0.00016033064,-0.00010571159,0,0,1
17316000,17159636,17164000,0,0.009565745,-0.21633276,0.42876595,0.0025000002,0.0025000002,0.0025000002,-0.0005677993,0.0003351122,0.000551492,0.0003711913,0.0007749013,-0.0005858605,0.0025238195,0.0025194571,0.0025164515,1.4193482e-05,4.9448345e-06,1.3419588e-05,0.00010110262,0.00014085809,-9.078237e-05,0,0,1
17388000,17232000,17236000,0,0.014544488,-0.21641137,0.4311306,0.0025000002,0.0025000002,0.0025000002,-0.005481832,0.00031636655,-0.0018659234,-0.0003688067,0.0007166495,-0.00074784114,0.002523751,0.0025194115,0.002516372,0.001323008,4.3526597e-06,0.0001539196,-7.894776e-05,0.00012359969,-9.876481e-05,0,0,1
17460000,17303272,17308000,0,0.00882369,-0.21576008,0.4304257,0.0025000002,0.0025000002,0.0025000002,0.0003100786,-0.00047314167,-0.0012193024,-0.00028410886,0.00056822243,-0.0008066397,0.0025237459,0.0025193752,0.002516297,4.2330703e-06,9.869119e-06,6.5629465e-05,-6.857011e-05,0.00010694809,-9.4630836e-05,0,0,1
