timestamp,timestamp_sample,xyz[0],xyz[1],xyz[2],xyz_derivative[0],xyz_derivative[1],xyz_derivative[2]
3888000,0,5.478088e-05,5.0601728e-05,1.577238e-08,0.0,0.0,0.0
3892000,0,5.478089e-05,5.0601724e-05,1.5764996e-08,0.0,0.0,0.0
3900000,0,5.4780903e-05,5.0601717e-05,1.5750226e-08,0.0,0.0,0.0
3908000,0,5.4780918e-05,5.0601706e-05,1.5735456e-08,0.0,0.0,0.0
3920000,0,5.478094e-05,5.0601695e-05,1.57133e-08,0.0,0.0,0.0
3928000,0,5.4780958e-05,5.0601684e-05,1.569853e-08,0.0,0.0,0.0
3940000,0,5.478098e-05,5.0601673e-05,1.5676376e-08,0.0,0.0,0.0
3948000,0,5.4780994e-05,5.0601662e-05,1.5661605e-08,0.0,0.0,0.0
3960000,0,5.4781016e-05,5.060165e-05,1.563945e-08,0.0,0.0,0.0
3968000,0,5.4781034e-05,5.060164e-05,1.562468e-08,0.0,0.0,0.0
3980000,0,5.4781056e-05,5.060163e-05,1.5602525e-08,0.0,0.0,0.0
3988000,0,5.478107e-05,5.060162e-05,1.5587755e-08,0.0,0.0,0.0
4000000,0,5.4781092e-05,5.0601608e-05,1.55656e-08,0.0,0.0,0.0
4008000,0,5.478111e-05,5.0601597e-05,1.555083e-08,0.0,0.0,0.0
4020000,0,5.4781132e-05,5.0601586e-05,1.5528675e-08,0.0,0.0,0.0
4028000,0,5.4781147e-05,5.0601575e-05,1.5513905e-08,0.0,0.0,0.0
4040000,0,5.4781172e-05,5.0601564e-05,1.549175e-08,0.0,0.0,0.0
4048000,0,5.4781187e-05,5.0601553e-05,1.547698e-08,0.0,0.0,0.0
4060000,0,5.478121e-05,5.0601542e-05,1.5454825e-08,0.0,0.0,0.0
4068000,0,5.4781223e-05,5.060153e-05,1.5440055e-08,0.0,0.0,0.0
4080000,0,5.478125e-05,5.060152e-05,1.54179e-08,0.0,0.0,0.0
4088000,0,5.4781263e-05,5.0601513e-05,1.540313e-08,0.0,0.0,0.0
4100000,0,5.4781285e-05,5.06015e-05,1.5380975e-08,0.0,0.0,0.0
4108000,0,5.4781303e-05,5.060149e-05,1.5366204e-08,0.0,0.0,0.0
4120000,0,5.4781325e-05,5.0601477e-05,1.534405e-08,0.0,0.0,0.0
4128000,0,5.478134e-05,5.060147e-05,1.532928e-08,0.0,0.0,0.0
4140000,0,5.478136e-05,5.0601455e-05,1.5307124e-08,0.0,0.0,0.0
4148000,0,5.478138e-05,5.0601448e-05,1.5292354e-08,0.0,0.0,0.0
4160000,0,5.47814e-05,5.0601433e-05,1.52702e-08,0.0,0.0,0.0
4168000,0,5.4781416e-05,5.0601426e-05,1.5255429e-08,0.0,0.0,0.0
4180000,0,5.4781438e-05,5.060141e-05,1.5233274e-08,0.0,0.0,0.0
4188000,0,5.4781456e-05,5.0601404e-05,1.5218506e-08,0.0,0.0,0.0
4200000,0,5.4781478e-05,5.060139e-05,1.5196349e-08,0.0,0.0,0.0
4208000,0,5.4781493e-05,5.0601382e-05,1.518158e-08,0.0,0.0,0.0
4220000,0,5.4781514e-05,5.0601368e-05,1.5159424e-08,0.0,0.0,0.0
4228000,0,5.4781533e-05,5.060136e-05,1.5144655e-08,0.0,0.0,0.0
4240000,0,5.4781554e-05,5.0601346e-05,1.51225e-08,0.0,0.0,0.0
4248000,0,5.478157e-05,5.060134e-05,1.510773e-08,0.0,0.0,0.0
4260000,0,5.478159e-05,5.0601324e-05,1.5085575e-08,0.0,0.0,0.0
4268000,0,5.478161e-05,5.0601317e-05,1.5070805e-08,0.0,0.0,0.0
4280000,0,5.478163e-05,5.0601302e-05,1.504865e-08,0.0,0.0,0.0
4288000,0,5.4781645e-05,5.0601295e-05,1.503388e-08,0.0,0.0,0.0
4300000,0,5.4781667e-05,5.060128e-05,1.5011725e-08,0.0,0.0,0.0
4308000,0,5.4781685e-05,5.0601273e-05,1.4996955e-08,0.0,0.0,0.0
4320000,0,5.4781707e-05,5.060126e-05,1.49748e-08,0.0,0.0,0.0
4328000,0,5.478172e-05,5.060125e-05,1.496003e-08,0.0,0.0,0.0
4340000,0,5.4781744e-05,5.0601237e-05,1.4937875e-08,0.0,0.0,0.0
4348000,0,5.478176e-05,5.060123e-05,1.4923106e-08,0.0,0.0,0.0
4360000,0,5.4781784e-05,5.0601215e-05,1.4900951e-08,0.0,0.0,0.0
4368000,0,5.4781798e-05,5.0601207e-05,1.4886181e-08,0.0,0.0,0.0
4380000,0,5.4781824e-05,5.0601193e-05,1.4864026e-08,0.0,0.0,0.0
4388000,0,5.4781838e-05,5.0601186e-05,1.4849256e-08,0.0,0.0,0.0
4400000,0,5.478186e-05,5.0601175e-05,1.4827101e-08,0.0,0.0,0.0
4408000,0,5.4781874e-05,5.0601164e-05,1.4812331e-08,0.0,0.0,0.0
4420000,0,5.47819e-05,5.0601153e-05,1.4790176e-08,0.0,0.0,0.0
4428000,0,5.4781915e-05,5.0601142e-05,1.4775407e-08,0.0,0.0,0.0
4440000,0,5.4781936e-05,5.060113e-05,1.4753251e-08,0.0,0.0,0.0
4448000,0,5.478195e-05,5.060112e-05,1.47384815e-08,0.0,0.0,0.0
4460000,0,5.4781976e-05,5.060111e-05,1.4716327e-08,0.0,0.0,0.0
4468000,0,5.478199e-05,5.06011e-05,1.4701557e-08,0.0,0.0,0.0
4480000,0,5.4782013e-05,5.0601087e-05,1.4679402e-08,0.0,0.0,0.0
4488000,0,5.4782027e-05,5.0601077e-05,1.4664632e-08,0.0,0.0,0.0
4500000,0,5.4782053e-05,5.0601066e-05,1.46424775e-08,0.0,0.0,0.0
4508000,0,5.4782067e-05,5.0601055e-05,1.4627707e-08,0.0,0.0,0.0
4520000,0,5.478209e-05,5.0601044e-05,1.4605552e-08,0.0,0.0,0.0
4528000,0,5.4782107e-05,5.0601033e-05,1.4590783e-08,0.0,0.0,0.0
4540000,0,5.478213e-05,5.0601022e-05,1.4568628e-08,0.0,0.0,0.0
4548000,0,5.4782144e-05,5.060101e-05,1.4553858e-08,0.0,0.0,0.0
4560000,0,5.4782166e-05,5.0601e-05,1.4531703e-08,0.0,0.0,0.0
4568000,0,5.4782184e-05,5.060099e-05,1.4516933e-08,0.0,0.0,0.0
4580000,0,5.4782206e-05,5.060098e-05,1.4494779e-08,0.0,0.0,0.0
4588000,0,5.478222e-05,5.0600967e-05,1.4480009e-08,0.0,0.0,0.0
4600000,0,5.4782242e-05,5.0600956e-05,1.4457854e-08,0.0,0.0,0.0
4608000,0,5.478226e-05,5.0600946e-05,1.4443084e-08,0.0,0.0,0.0
4620000,0,5.4782282e-05,5.0600935e-05,1.4420929e-08,0.0,0.0,0.0
4628000,0,5.4782297e-05,5.0600924e-05,1.440616e-08,0.0,0.0,0.0
4640000,0,5.478232e-05,5.0600913e-05,1.4384005e-08,0.0,0.0,0.0
4648000,0,5.4782337e-05,5.0600906e-05,1.4369235e-08,0.0,0.0,0.0
4660000,0,5.478236e-05,5.060089e-05,1.434708e-08,0.0,0.0,0.0
4668000,0,5.4782373e-05,5.0600884e-05,1.43323104e-08,0.0,0.0,0.0
4680000,0,5.4782395e-05,5.060087e-05,1.4310156e-08,0.0,0.0,0.0
4688000,0,5.4782413e-05,5.0600862e-05,1.4295385e-08,0.0,0.0,0.0
4700000,0,5.4782435e-05,5.0600847e-05,1.4273231e-08,0.0,0.0,0.0
4708000,0,5.478245e-05,5.060084e-05,1.4258461e-08,0.0,0.0,0.0
4720000,0,5.478247e-05,5.0600825e-05,1.4236306e-08,0.0,0.0,0.0
4728000,0,5.478249e-05,5.060082e-05,1.4221537e-08,0.0,0.0,0.0
4740000,0,5.478251e-05,5.0600804e-05,1.4199382e-08,0.0,0.0,0.0
4748000,0,5.4782526e-05,5.0600796e-05,1.4184612e-08,0.0,0.0,0.0
4760000,0,5.4782548e-05,5.0600782e-05,1.4162457e-08,0.0,0.0,0.0
4768000,0,5.4782566e-05,5.0600775e-05,1.41476875e-08,0.0,0.0,0.0
4780000,0,5.4782588e-05,5.060076e-05,1.4125533e-08,0.0,0.0,0.0
4788000,0,5.4782602e-05,5.0600753e-05,1.4110763e-08,0.0,0.0,0.0
4800000,0,5.4782624e-05,5.0600738e-05,1.40886085e-08,0.0,0.0,0.0
4808000,0,5.4782642e-05,5.060073e-05,1.4073839e-08,0.0,0.0,0.0
4820000,0,5.4782664e-05,5.0600716e-05,1.4051684e-08,0.0,0.0,0.0
4828000,0,5.478268e-05,5.060071e-05,1.4036914e-08,0.0,0.0,0.0
4840000,0,5.47827e-05,5.0600695e-05,1.4014759e-08,0.0,0.0,0.0
4848000,0,5.478272e-05,5.0600687e-05,1.399999e-08,0.0,0.0,0.0
4860000,0,5.478274e-05,5.0600673e-05,1.3977835e-08,0.0,0.0,0.0
4868000,0,5.4782755e-05,5.0600665e-05,1.3963065e-08,0.0,0.0,0.0
4880000,0,5.4782777e-05,5.060065e-05,1.3940911e-08,0.0,0.0,0.0
4888000,0,5.4782795e-05,5.0600644e-05,1.3926141e-08,0.0,0.0,0.0
4900000,0,5.4782817e-05,5.060063e-05,1.3903986e-08,0.0,0.0,0.0
4908000,0,5.478283e-05,5.060062e-05,1.3889217e-08,0.0,0.0,0.0
4920000,0,5.4782853e-05,5.0600607e-05,1.3867062e-08,0.0,0.0,0.0
4928000,0,5.478287e-05,5.06006e-05,1.3852292e-08,0.0,0.0,0.0
4940000,0,5.4782893e-05,5.0600585e-05,1.3830137e-08,0.0,0.0,0.0
4948000,0,5.4782908e-05,5.0600578e-05,1.38153675e-08,0.0,0.0,0.0
4960000,0,5.478293e-05,5.0600564e-05,1.3793213e-08,0.0,0.0,0.0
4968000,0,5.4782948e-05,5.0600556e-05,1.3778443e-08,0.0,0.0,0.0
4980000,0,5.478297e-05,5.060054e-05,1.37562886e-08,0.0,0.0,0.0
4988000,0,5.4782984e-05,5.0600534e-05,1.3741519e-08,0.0,0.0,0.0
5000000,0,5.4783006e-05,5.060052e-05,1.3719364e-08,0.0,0.0,0.0
5008000,0,5.4783024e-05,5.0600513e-05,1.3704595e-08,0.0,0.0,0.0
5020000,0,5.4783046e-05,5.0600498e-05,1.368244e-08,0.0,0.0,0.0
5028000,0,5.478306e-05,5.060049e-05,1.36676706e-08,0.0,0.0,0.0
5040000,0,5.4783082e-05,5.0600476e-05,1.3645516e-08,0.0,0.0,0.0
5048000,0,5.47831e-05,5.060047e-05,1.3630746e-08,0.0,0.0,0.0
5060000,0,5.4783122e-05,5.0600454e-05,1.3608592e-08,0.0,0.0,0.0
5068000,0,5.4783137e-05,5.0600447e-05,1.3593822e-08,0.0,0.0,0.0
5080000,0,5.478316e-05,5.0600433e-05,1.3571667e-08,0.0,0.0,0.0
5088000,0,5.4783177e-05,5.0600425e-05,1.3556898e-08,0.0,0.0,0.0
5100000,0,5.47832e-05,5.060041e-05,1.3534743e-08,0.0,0.0,0.0
5108000,0,5.4783213e-05,5.0600403e-05,1.3519974e-08,0.0,0.0,0.0
5120000,0,5.4783235e-05,5.0600393e-05,1.3497819e-08,0.0,0.0,0.0
5128000,0,5.4783253e-05,5.060038e-05,1.3483049e-08,0.0,0.0,0.0
5140000,0,5.4783275e-05,5.060037e-05,1.3460895e-08,0.0,0.0,0.0
5148000,0,5.478329e-05,5.060036e-05,1.3446125e-08,0.0,0.0,0.0
5160000,0,5.478331e-05,5.060035e-05,1.342397e-08,0.0,0.0,0.0
5168000,0,5.478333e-05,5.0600338e-05,1.3409201e-08,0.0,0.0,0.0
5180000,0,5.478335e-05,5.0600327e-05,1.3387046e-08,0.0,0.0,0.0
5188000,0,5.4783366e-05,5.0600316e-05,1.3372277e-08,0.0,0.0,0.0
5200000,0,5.4783388e-05,5.0600305e-05,1.3350122e-08,0.0,0.0,0.0
5208000,0,5.4783406e-05,5.0600294e-05,1.3335352e-08,0.0,0.0,0.0
5220000,0,5.4783428e-05,5.0600283e-05,1.3313198e-08,0.0,0.0,0.0
5228000,0,5.4783442e-05,5.0600273e-05,1.3298428e-08,0.0,0.0,0.0
5240000,0,5.4783464e-05,5.060026e-05,1.3276274e-08,0.0,0.0,0.0
5248000,0,5.4783482e-05,5.060025e-05,1.3261505e-08,0.0,0.0,0.0
5260000,0,5.4783504e-05,5.060024e-05,1.323935e-08,0.0,0.0,0.0
5268000,0,5.478352e-05,5.060023e-05,1.32245805e-08,0.0,0.0,0.0
5280000,0,5.478354e-05,5.0600218e-05,1.3202426e-08,0.0,0.0,0.0
5288000,0,5.478356e-05,5.0600207e-05,1.3187656e-08,0.0,0.0,0.0
5300000,0,5.478358e-05,5.0600196e-05,1.3165502e-08,0.0,0.0,0.0
5308000,0,5.4783595e-05,5.0600185e-05,1.3150732e-08,0.0,0.0,0.0
5320000,0,5.4783617e-05,5.0600174e-05,1.3128577e-08,0.0,0.0,0.0
5328000,0,5.4783635e-05,5.0600163e-05,1.3113808e-08,0.0,0.0,0.0
5340000,0,5.4783657e-05,5.0600152e-05,1.3091653e-08,0.0,0.0,0.0
5348000,0,5.478367e-05,5.060014e-05,1.3076884e-08,0.0,0.0,0.0
5360000,0,5.4783693e-05,5.060013e-05,1.305473e-08,0.0,0.0,0.0
5368000,0,5.478371e-05,5.060012e-05,1.303996e-08,0.0,0.0,0.0
5380000,0,5.4783734e-05,5.060011e-05,1.30178055e-08,0.0,0.0,0.0
5388000,0,5.4783748e-05,5.0600098e-05,1.3003036e-08,0.0,0.0,0.0
5400000,0,5.478377e-05,5.0600087e-05,1.2980881e-08,0.0,0.0,0.0
5408000,0,5.4783788e-05,5.0600076e-05,1.2966112e-08,0.0,0.0,0.0
5420000,0,5.478381e-05,5.0600065e-05,1.2943958e-08,0.0,0.0,0.0
5428000,0,5.4783824e-05,5.0600054e-05,1.2929188e-08,0.0,0.0,0.0
5440000,0,5.4783846e-05,5.0600043e-05,1.2907034e-08,0.0,0.0,0.0
5448000,0,5.4783864e-05,5.0600032e-05,1.2892264e-08,0.0,0.0,0.0
5460000,0,5.4783886e-05,5.060002e-05,1.2870109e-08,0.0,0.0,0.0
5468000,0,5.47839e-05,5.060001e-05,1.285534e-08,0.0,0.0,0.0
5480000,0,5.4783923e-05,5.06e-05,1.2833186e-08,0.0,0.0,0.0
5484000,0,5.478393e-05,5.0599996e-05,1.2825801e-08,0.0,0.0,0.0
5500000,0,5.4783963e-05,5.0599978e-05,1.2796262e-08,0.0,0.0,0.0
5508000,0,5.4783977e-05,5.0599967e-05,1.2781492e-08,0.0,0.0,0.0
5520000,0,5.4784e-05,5.0599956e-05,1.2759338e-08,0.0,0.0,0.0
5528000,0,5.4784014e-05,5.059995e-05,1.2744568e-08,0.0,0.0,0.0
5540000,0,5.478404e-05,5.0599934e-05,1.2722414e-08,0.0,0.0,0.0
5544000,0,5.4784046e-05,5.059993e-05,1.2715029e-08,0.0,0.0,0.0
5560000,0,5.4784075e-05,5.0599912e-05,1.268549e-08,0.0,0.0,0.0
5568000,0,5.478409e-05,5.0599905e-05,1.26707205e-08,0.0,0.0,0.0
5580000,0,5.4784115e-05,5.059989e-05,1.2648567e-08,0.0,0.0,0.0
5588000,0,5.478413e-05,5.0599883e-05,1.2633797e-08,0.0,0.0,0.0
5600000,0,5.4784152e-05,5.059987e-05,1.2611642e-08,0.0,0.0,0.0
5608000,0,5.4784166e-05,5.059986e-05,1.2596873e-08,0.0,0.0,0.0
5620000,0,5.478419e-05,5.0599847e-05,1.2574718e-08,0.0,0.0,0.0
5628000,0,5.4784206e-05,5.059984e-05,1.25599495e-08,0.0,0.0,0.0
5640000,0,5.478423e-05,5.0599825e-05,1.2537795e-08,0.0,0.0,0.0
5648000,0,5.4784243e-05,5.0599818e-05,1.2523025e-08,0.0,0.0,0.0
5660000,0,5.4784265e-05,5.0599803e-05,1.2500871e-08,0.0,0.0,0.0
5668000,0,5.4784283e-05,5.0599796e-05,1.2486102e-08,0.0,0.0,0.0
5680000,0,5.4784305e-05,5.059978e-05,1.2463947e-08,0.0,0.0,0.0
5688000,0,5.478432e-05,5.0599774e-05,1.2449178e-08,0.0,0.0,0.0
5700000,0,5.478434e-05,5.059976e-05,1.2427024e-08,0.0,0.0,0.0
5708000,0,5.478436e-05,5.0599752e-05,1.2412254e-08,0.0,0.0,0.0
5720000,0,5.478438e-05,5.0599738e-05,1.23901e-08,0.0,0.0,0.0
5728000,0,5.4784396e-05,5.059973e-05,1.237533e-08,0.0,0.0,0.0
5740000,0,5.4784417e-05,5.0599716e-05,1.2353176e-08,0.0,0.0,0.0
5748000,0,5.4784436e-05,5.059971e-05,1.2338407e-08,0.0,0.0,0.0
5760000,0,5.4784457e-05,5.0599694e-05,1.2316252e-08,0.0,0.0,0.0
5768000,0,5.4784472e-05,5.0599687e-05,1.23014825e-08,0.0,0.0,0.0
5780000,0,5.4784494e-05,5.0599672e-05,1.2279329e-08,0.0,0.0,0.0
5788000,0,5.4784512e-05,5.0599665e-05,1.2264559e-08,0.0,0.0,0.0
5800000,0,5.4784534e-05,5.059965e-05,1.2242405e-08,0.0,0.0,0.0
5808000,0,5.478455e-05,5.0599643e-05,1.2227636e-08,0.0,0.0,0.0
5820000,0,5.478457e-05,5.059963e-05,1.2205481e-08,0.0,0.0,0.0
5828000,0,5.478459e-05,5.059962e-05,1.21907116e-08,0.0,0.0,0.0
5840000,0,5.478461e-05,5.0599607e-05,1.2168558e-08,0.0,0.0,0.0
5848000,0,5.4784625e-05,5.05996e-05,1.2153788e-08,0.0,0.0,0.0
5860000,0,5.4784647e-05,5.0599585e-05,1.2131634e-08,0.0,0.0,0.0
5868000,0,5.4784665e-05,5.0599578e-05,1.2116865e-08,0.0,0.0,0.0
5880000,0,5.4784687e-05,5.0599563e-05,1.209471e-08,0.0,0.0,0.0
5888000,0,5.47847e-05,5.0599556e-05,1.20799415e-08,0.0,0.0,0.0
5900000,0,5.4784723e-05,5.059954e-05,1.2057787e-08,0.0,0.0,0.0
5908000,0,5.4784738e-05,5.0599534e-05,1.2043017e-08,0.0,0.0,0.0
5920000,0,5.4784763e-05,5.059952e-05,1.2020863e-08,0.0,0.0,0.0
5924000,0,5.478477e-05,5.0599516e-05,1.2013478e-08,0.0,0.0,0.0
5940000,0,5.47848e-05,5.0599498e-05,1.198394e-08,0.0,0.0,0.0
5948000,0,5.4784814e-05,5.059949e-05,1.19691705e-08,0.0,0.0,0.0
5960000,0,5.478484e-05,5.0599476e-05,1.1947016e-08,0.0,0.0,0.0
5968000,0,5.4784854e-05,5.059947e-05,1.1932247e-08,0.0,0.0,0.0
5980000,0,5.4784876e-05,5.0599454e-05,1.19100925e-08,0.0,0.0,0.0
5988000,0,5.478489e-05,5.0599447e-05,1.1895323e-08,0.0,0.0,0.0
6000000,0,5.4784912e-05,5.0599432e-05,1.1873169e-08,0.0,0.0,0.0
6008000,0,5.478493e-05,5.0599425e-05,1.18584e-08,0.0,0.0,0.0
6020000,0,5.4784952e-05,5.059941e-05,1.1836246e-08,0.0,0.0,0.0
6028000,0,5.4784967e-05,5.0599403e-05,1.1821476e-08,0.0,0.0,0.0
6040000,0,5.478499e-05,5.059939e-05,1.1799322e-08,0.0,0.0,0.0
6048000,0,5.4785007e-05,5.059938e-05,1.1784553e-08,0.0,0.0,0.0
6060000,0,5.478503e-05,5.0599367e-05,1.1762399e-08,0.0,0.0,0.0
6068000,0,5.4785043e-05,5.059936e-05,1.17476295e-08,0.0,0.0,0.0
6080000,0,5.4785065e-05,5.0599345e-05,1.1725475e-08,0.0,0.0,0.0
6088000,0,5.4785083e-05,5.0599338e-05,1.1710706e-08,0.0,0.0,0.0
6100000,0,5.4785105e-05,5.0599323e-05,1.16885515e-08,0.0,0.0,0.0
6108000,0,5.478512e-05,5.0599316e-05,1.1673783e-08,0.0,0.0,0.0
6120000,0,5.478514e-05,5.05993e-05,1.1651628e-08,0.0,0.0,0.0
6128000,0,5.478516e-05,5.0599294e-05,1.16368595e-08,0.0,0.0,0.0
6140000,0,5.478518e-05,5.059928e-05,1.1614705e-08,0.0,0.0,0.0
6148000,0,5.4785196e-05,5.0599272e-05,1.1599936e-08,0.0,0.0,0.0
6160000,0,5.4785218e-05,5.0599258e-05,1.1577781e-08,0.0,0.0,0.0
6168000,0,5.4785232e-05,5.059925e-05,1.1563013e-08,0.0,0.0,0.0
6180000,0,5.4785258e-05,5.0599236e-05,1.1540858e-08,0.0,0.0,0.0
6188000,0,5.4785272e-05,5.059923e-05,1.1526089e-08,0.0,0.0,0.0
6200000,0,5.4785294e-05,5.0599214e-05,1.1503935e-08,0.0,0.0,0.0
6208000,0,5.478531e-05,5.0599207e-05,1.1489166e-08,0.0,0.0,0.0
6220000,0,5.4785334e-05,5.0599192e-05,1.1467011e-08,0.0,0.0,0.0
6228000,0,5.478535e-05,5.0599185e-05,1.1452243e-08,0.0,0.0,0.0
6240000,0,5.478537e-05,5.059917e-05,1.1430088e-08,0.0,0.0,0.0
6248000,0,5.4785385e-05,5.0599163e-05,1.1415319e-08,0.0,0.0,0.0
6260000,0,5.4785407e-05,5.059915e-05,1.1393165e-08,0.0,0.0,0.0
6268000,0,5.4785425e-05,5.059914e-05,1.1378396e-08,0.0,0.0,0.0
6280000,0,5.4785447e-05,5.0599127e-05,1.1356241e-08,0.0,0.0,0.0
6288000,0,5.478546e-05,5.059912e-05,1.1341473e-08,0.0,0.0,0.0
6300000,0,5.4785483e-05,5.0599105e-05,1.1319319e-08,0.0,0.0,0.0
6308000,0,5.47855e-05,5.0599097e-05,1.1304549e-08,0.0,0.0,0.0
6320000,0,5.4785523e-05,5.0599083e-05,1.12823955e-08,0.0,0.0,0.0
6328000,0,5.4785538e-05,5.0599076e-05,1.1267626e-08,0.0,0.0,0.0
6340000,0,5.478556e-05,5.059906e-05,1.1245472e-08,0.0,0.0,0.0
6348000,0,5.4785578e-05,5.0599054e-05,1.1230703e-08,0.0,0.0,0.0
6360000,0,5.47856e-05,5.059904e-05,1.1208549e-08,0.0,0.0,0.0
6368000,0,5.4785614e-05,5.0599032e-05,1.1193779e-08,0.0,0.0,0.0
6380000,0,5.4785636e-05,5.0599017e-05,1.1171625e-08,0.0,0.0,0.0
6388000,0,5.4785654e-05,5.059901e-05,1.1156856e-08,0.0,0.0,0.0
6396000,0,5.4785665e-05,5.0599e-05,1.1142087e-08,0.0,0.0,0.0
6408000,0,5.478569e-05,5.059899e-05,1.1119933e-08,0.0,0.0,0.0
6420000,0,5.4785713e-05,5.0598974e-05,1.109778e-08,0.0,0.0,0.0
6428000,0,5.4785727e-05,5.0598966e-05,1.108301e-08,0.0,0.0,0.0
6440000,0,5.4785753e-05,5.0598952e-05,1.1060856e-08,0.0,0.0,0.0
6448000,0,5.4785767e-05,5.0598945e-05,1.1046087e-08,0.0,0.0,0.0
6460000,0,5.478579e-05,5.059893e-05,1.1023933e-08,0.0,0.0,0.0
6468000,0,5.4785804e-05,5.0598923e-05,1.1009163e-08,0.0,0.0,0.0
6480000,0,5.4785825e-05,5.059891e-05,1.09870095e-08,0.0,0.0,0.0
6488000,0,5.4785844e-05,5.05989e-05,1.0972241e-08,0.0,0.0,0.0
6500000,0,5.4785865e-05,5.0598886e-05,1.0950087e-08,0.0,0.0,0.0
6508000,0,5.478588e-05,5.059888e-05,1.09353175e-08,0.0,0.0,0.0
6520000,0,5.47859e-05,5.0598865e-05,1.0913164e-08,0.0,0.0,0.0
6528000,0,5.478592e-05,5.0598857e-05,1.0898394e-08,0.0,0.0,0.0
6540000,0,5.478594e-05,5.0598843e-05,1.087624e-08,0.0,0.0,0.0
6548000,0,5.4785956e-05,5.0598836e-05,1.0861472e-08,0.0,0.0,0.0
6560000,0,5.4785978e-05,5.059882e-05,1.0839318e-08,0.0,0.0,0.0
6568000,0,5.4785996e-05,5.0598814e-05,1.0824548e-08,0.0,0.0,0.0
6580000,0,5.4786018e-05,5.05988e-05,1.08023945e-08,0.0,0.0,0.0
6588000,0,5.4786033e-05,5.0598792e-05,1.0787625e-08,0.0,0.0,0.0
6600000,0,5.4786055e-05,5.0598777e-05,1.0765471e-08,0.0,0.0,0.0
6608000,0,5.478607e-05,5.059877e-05,1.07507026e-08,0.0,0.0,0.0
6616000,0,5.4786084e-05,5.059876e-05,1.0735933e-08,0.0,0.0,0.0
6628000,0,5.478611e-05,5.059875e-05,1.0713779e-08,0.0,0.0,0.0
6640000,0,5.478613e-05,5.0598734e-05,1.0691625e-08,0.0,0.0,0.0
6648000,0,5.4786145e-05,5.0598726e-05,1.0676857e-08,0.0,0.0,0.0
6660000,0,5.4786167e-05,5.0598712e-05,1.0654702e-08,0.0,0.0,0.0
6668000,0,5.4786186e-05,5.0598705e-05,1.0639933e-08,0.0,0.0,0.0
6680000,0,5.4786207e-05,5.059869e-05,1.06177795e-08,0.0,0.0,0.0
6688000,0,5.4786222e-05,5.0598683e-05,1.060301e-08,0.0,0.0,0.0
6700000,0,5.4786244e-05,5.0598668e-05,1.0580856e-08,0.0,0.0,0.0
6708000,0,5.4786262e-05,5.059866e-05,1.0566088e-08,0.0,0.0,0.0
6720000,0,5.4786284e-05,5.0598646e-05,1.0543934e-08,0.0,0.0,0.0
6728000,0,5.47863e-05,5.059864e-05,1.0529164e-08,0.0,0.0,0.0
6740000,0,5.478632e-05,5.0598625e-05,1.050701e-08,0.0,0.0,0.0
6748000,0,5.478634e-05,5.0598617e-05,1.0492242e-08,0.0,0.0,0.0
6760000,0,5.478636e-05,5.0598603e-05,1.0470088e-08,0.0,0.0,0.0
6768000,0,5.4786375e-05,5.0598595e-05,1.0455318e-08,0.0,0.0,0.0
6780000,0,5.4786397e-05,5.059858e-05,1.04331646e-08,0.0,0.0,0.0
6788000,0,5.478641e-05,5.0598574e-05,1.0418396e-08,0.0,0.0,0.0
6800000,0,5.4786433e-05,5.059856e-05,1.0396242e-08,0.0,0.0,0.0
6808000,0,5.478645e-05,5.059855e-05,1.03814735e-08,0.0,0.0,0.0
6820000,0,5.4786473e-05,5.0598537e-05,1.035932e-08,0.0,0.0,0.0
6828000,0,5.4786487e-05,5.059853e-05,1.034455e-08,0.0,0.0,0.0
6840000,0,5.478651e-05,5.0598515e-05,1.0322396e-08,0.0,0.0,0.0
6848000,0,5.4786527e-05,5.0598508e-05,1.0307628e-08,0.0,0.0,0.0
6860000,0,5.478655e-05,5.0598494e-05,1.0285474e-08,0.0,0.0,0.0
6868000,0,5.4786564e-05,5.0598486e-05,1.0270704e-08,0.0,0.0,0.0
6880000,0,5.4786586e-05,5.059847e-05,1.02485505e-08,0.0,0.0,0.0
6888000,0,5.4786604e-05,5.0598464e-05,1.0233782e-08,0.0,0.0,0.0
6900000,0,5.4786626e-05,5.059845e-05,1.0211628e-08,0.0,0.0,0.0
6908000,0,5.478664e-05,5.0598443e-05,1.0196859e-08,0.0,0.0,0.0
6920000,0,5.4786662e-05,5.0598428e-05,1.01747055e-08,0.0,0.0,0.0
6928000,0,5.4786677e-05,5.059842e-05,1.0159936e-08,0.0,0.0,0.0
6940000,0,5.4786702e-05,5.0598406e-05,1.0137782e-08,0.0,0.0,0.0
6948000,0,5.4786717e-05,5.05984e-05,1.01230135e-08,0.0,0.0,0.0
6960000,0,5.478674e-05,5.0598384e-05,1.010086e-08,0.0,0.0,0.0
6968000,0,5.4786753e-05,5.0598377e-05,1.0086091e-08,0.0,0.0,0.0
6980000,0,5.4786775e-05,5.0598363e-05,1.0063937e-08,0.0,0.0,0.0
6988000,0,5.4786793e-05,5.0598355e-05,1.0049168e-08,0.0,0.0,0.0
6996000,0,5.4786808e-05,5.0598344e-05,1.0034399e-08,0.0,0.0,0.0
7004000,0,5.4786822e-05,5.0598337e-05,1.001963e-08,0.0,0.0,0.0
7020000,0,5.478685e-05,5.059832e-05,9.990091e-09,0.0,0.0,0.0
7028000,0,5.478687e-05,5.059831e-05,9.975323e-09,0.0,0.0,0.0
7040000,0,5.478689e-05,5.0598297e-05,9.953169e-09,0.0,0.0,0.0
7044000,0,5.47869e-05,5.0598293e-05,9.945785e-09,0.0,0.0,0.0
7060000,0,5.4786928e-05,5.0598275e-05,9.9162465e-09,0.0,0.0,0.0
7068000,0,5.4786942e-05,5.0598268e-05,9.901478e-09,0.0,0.0,0.0
7080000,0,5.4786968e-05,5.0598253e-05,9.879324e-09,0.0,0.0,0.0
7088000,0,5.4786982e-05,5.0598246e-05,9.8645545e-09,0.0,0.0,0.0
7100000,0,5.4787004e-05,5.059823e-05,9.842402e-09,0.0,0.0,0.0
7108000,0,5.478702e-05,5.0598224e-05,9.827632e-09,0.0,0.0,0.0
7120000,0,5.478704e-05,5.059821e-05,9.805479e-09,0.0,0.0,0.0
7128000,0,5.478706e-05,5.0598203e-05,9.79071e-09,0.0,0.0,0.0
7140000,0,5.478708e-05,5.0598188e-05,9.768556e-09,0.0,0.0,0.0
7148000,0,5.4787095e-05,5.059818e-05,9.753787e-09,0.0,0.0,0.0
7160000,0,5.4787117e-05,5.0598166e-05,9.731633e-09,0.0,0.0,0.0
7168000,0,5.4787135e-05,5.059816e-05,9.716865e-09,0.0,0.0,0.0
7180000,0,5.4787157e-05,5.0598144e-05,9.694711e-09,0.0,0.0,0.0
7188000,0,5.478717e-05,5.0598137e-05,9.679942e-09,0.0,0.0,0.0
7200000,0,5.4787193e-05,5.0598122e-05,9.657788e-09,0.0,0.0,0.0
7208000,0,5.4787208e-05,5.0598115e-05,9.64302e-09,0.0,0.0,0.0
7220000,0,5.4787233e-05,5.05981e-05,9.620866e-09,0.0,0.0,0.0
7228000,0,5.4787248e-05,5.0598093e-05,9.606097e-09,0.0,0.0,0.0
7240000,0,5.478727e-05,5.059808e-05,9.583943e-09,0.0,0.0,0.0
7248000,0,5.4787284e-05,5.059807e-05,9.569175e-09,0.0,0.0,0.0
7260000,0,5.4787306e-05,5.0598057e-05,9.547021e-09,0.0,0.0,0.0
7264000,0,5.4787317e-05,5.0598053e-05,9.539637e-09,0.0,0.0,0.0
7280000,0,5.4787346e-05,5.0598035e-05,9.5100985e-09,0.0,0.0,0.0
7288000,0,5.478736e-05,5.0598028e-05,9.49533e-09,0.0,0.0,0.0
7300000,0,5.4787382e-05,5.0598013e-05,9.473176e-09,0.0,0.0,0.0
7308000,0,5.47874e-05,5.0598006e-05,9.458407e-09,0.0,0.0,0.0
7320000,0,5.4787422e-05,5.059799e-05,9.436254e-09,0.0,0.0,0.0
7328000,0,5.4787437e-05,5.0597984e-05,9.421485e-09,0.0,0.0,0.0
7340000,0,5.478746e-05,5.059797e-05,9.399331e-09,0.0,0.0,0.0
7348000,0,5.4787473e-05,5.0597962e-05,9.3845625e-09,0.0,0.0,0.0
7360000,0,5.4787495e-05,5.0597948e-05,9.362409e-09,0.0,0.0,0.0
7368000,0,5.4787513e-05,5.059794e-05,9.34764e-09,0.0,0.0,0.0
7380000,0,5.4787535e-05,5.0597926e-05,9.325486e-09,0.0,0.0,0.0
7388000,0,5.478755e-05,5.059792e-05,9.3107175e-09,0.0,0.0,0.0
7396000,0,5.4787564e-05,5.0597908e-05,9.295949e-09,0.0,0.0,0.0
7408000,0,5.478759e-05,5.0597897e-05,9.273795e-09,0.0,0.0,0.0
7420000,0,5.478761e-05,5.0597882e-05,9.251642e-09,0.0,0.0,0.0
7428000,0,5.4787626e-05,5.0597875e-05,9.236873e-09,0.0,0.0,0.0
7440000,0,5.4787648e-05,5.059786e-05,9.21472e-09,0.0,0.0,0.0
7448000,0,5.4787663e-05,5.059785e-05,9.199951e-09,0.0,0.0,0.0
7460000,0,5.4787688e-05,5.059784e-05,9.177797e-09,0.0,0.0,0.0
7468000,0,5.4787703e-05,5.0597828e-05,9.163029e-09,0.0,0.0,0.0
7480000,0,5.4787724e-05,5.0597817e-05,9.140875e-09,0.0,0.0,0.0
7488000,0,5.478774e-05,5.0597806e-05,9.126106e-09,0.0,0.0,0.0
7500000,0,5.478776e-05,5.0597795e-05,9.103952e-09,0.0,0.0,0.0
7508000,0,5.478778e-05,5.0597784e-05,9.089184e-09,0.0,0.0,0.0
7520000,0,5.47878e-05,5.0597773e-05,9.067031e-09,0.0,0.0,0.0
7528000,0,5.4787815e-05,5.0597762e-05,9.052261e-09,0.0,0.0,0.0
7540000,0,5.4787837e-05,5.059775e-05,9.030108e-09,0.0,0.0,0.0
7548000,0,5.4787855e-05,5.059774e-05,9.01534e-09,0.0,0.0,0.0
7560000,0,5.4787877e-05,5.059773e-05,8.993186e-09,0.0,0.0,0.0
7568000,0,5.478789e-05,5.059772e-05,8.978417e-09,0.0,0.0,0.0
7580000,0,5.4787914e-05,5.0597708e-05,8.956263e-09,0.0,0.0,0.0
7588000,0,5.4787928e-05,5.0597697e-05,8.941495e-09,0.0,0.0,0.0
7600000,0,5.478795e-05,5.0597686e-05,8.919342e-09,0.0,0.0,0.0
7608000,0,5.4787968e-05,5.0597675e-05,8.904572e-09,0.0,0.0,0.0
7620000,0,5.478799e-05,5.0597664e-05,8.882419e-09,0.0,0.0,0.0
7628000,0,5.4788004e-05,5.0597653e-05,8.867651e-09,0.0,0.0,0.0
7640000,0,5.4788026e-05,5.0597642e-05,8.845497e-09,0.0,0.0,0.0
7648000,0,5.4788045e-05,5.059763e-05,8.830728e-09,0.0,0.0,0.0
7660000,0,5.4788066e-05,5.059762e-05,8.808575e-09,0.0,0.0,0.0
7668000,0,5.478808e-05,5.059761e-05,8.793807e-09,0.0,0.0,0.0
7680000,0,5.4788103e-05,5.05976e-05,8.771653e-09,0.0,0.0,0.0
7688000,0,5.4788117e-05,5.0597588e-05,8.756884e-09,0.0,0.0,0.0
7696000,0,5.4788132e-05,5.059758e-05,8.742115e-09,0.0,0.0,0.0
7708000,0,5.4788157e-05,5.0597566e-05,8.719962e-09,0.0,0.0,0.0
7720000,0,5.478818e-05,5.0597555e-05,8.697809e-09,0.0,0.0,0.0
7728000,0,5.4788194e-05,5.0597544e-05,8.68304e-09,0.0,0.0,0.0
7736000,0,5.478821e-05,5.0597537e-05,8.6682705e-09,0.0,0.0,0.0
7748000,0,5.4788234e-05,5.0597522e-05,8.646118e-09,0.0,0.0,0.0
7760000,0,5.4788256e-05,5.059751e-05,8.623965e-09,0.0,0.0,0.0
7768000,0,5.478827e-05,5.05975e-05,8.609196e-09,0.0,0.0,0.0
7780000,0,5.4788292e-05,5.059749e-05,8.587042e-09,0.0,0.0,0.0
7788000,0,5.4788306e-05,5.059748e-05,8.572274e-09,0.0,0.0,0.0
7800000,0,5.478833e-05,5.0597468e-05,8.550121e-09,0.0,0.0,0.0
7808000,0,5.4788346e-05,5.0597457e-05,8.535352e-09,0.0,0.0,0.0
7820000,0,5.478837e-05,5.0597446e-05,8.513198e-09,0.0,0.0,0.0
7828000,0,5.4788383e-05,5.0597435e-05,8.4984295e-09,0.0,0.0,0.0
7840000,0,5.4788405e-05,5.0597424e-05,8.476277e-09,0.0,0.0,0.0
7848000,0,5.4788423e-05,5.0597413e-05,8.461508e-09,0.0,0.0,0.0
7860000,0,5.4788445e-05,5.05974e-05,8.439354e-09,0.0,0.0,0.0
7868000,0,5.478846e-05,5.059739e-05,8.4245855e-09,0.0,0.0,0.0
7880000,0,5.478848e-05,5.0597377e-05,8.4024325e-09,0.0,0.0,0.0
7888000,0,5.4788496e-05,5.059737e-05,8.387664e-09,0.0,0.0,0.0
7900000,0,5.4788517e-05,5.0597355e-05,8.365511e-09,0.0,0.0,0.0
7908000,0,5.4788536e-05,5.0597348e-05,8.350741e-09,0.0,0.0,0.0
7920000,0,5.4788557e-05,5.0597333e-05,8.3285885e-09,0.0,0.0,0.0
7928000,0,5.4788572e-05,5.0597326e-05,8.31382e-09,0.0,0.0,0.0
7940000,0,5.4788594e-05,5.059731e-05,8.291667e-09,0.0,0.0,0.0
7948000,0,5.4788612e-05,5.0597304e-05,8.276898e-09,0.0,0.0,0.0
7960000,0,5.4788634e-05,5.059729e-05,8.254744e-09,0.0,0.0,0.0
7968000,0,5.478865e-05,5.0597282e-05,8.239976e-09,0.0,0.0,0.0
7980000,0,5.478867e-05,5.0597268e-05,8.217823e-09,0.0,0.0,0.0
7984000,0,5.4788678e-05,5.0597264e-05,8.2104386e-09,0.0,0.0,0.0
8000000,0,5.4788707e-05,5.0597246e-05,8.180901e-09,0.0,0.0,0.0
8008000,0,5.4788725e-05,5.059724e-05,8.166133e-09,0.0,0.0,0.0
8016000,0,5.478874e-05,5.0597228e-05,8.151363e-09,0.0,0.0,0.0
8024000,0,5.4788754e-05,5.059722e-05,8.1365945e-09,0.0,0.0,0.0
8040000,0,5.4788783e-05,5.0597202e-05,8.107057e-09,0.0,0.0,0.0
8048000,0,5.47888e-05,5.0597195e-05,8.092289e-09,0.0,0.0,0.0
8060000,0,5.4788823e-05,5.059718e-05,8.070136e-09,0.0,0.0,0.0
8068000,0,5.4788838e-05,5.0597173e-05,8.055367e-09,0.0,0.0,0.0
8080000,0,5.478886e-05,5.059716e-05,8.033214e-09,0.0,0.0,0.0
8088000,0,5.4788874e-05,5.059715e-05,8.0184455e-09,0.0,0.0,0.0
8100000,0,5.4788896e-05,5.0597137e-05,7.996292e-09,0.0,0.0,0.0
8108000,0,5.4788914e-05,5.059713e-05,7.981523e-09,0.0,0.0,0.0
8120000,0,5.4788936e-05,5.0597115e-05,7.95937e-09,0.0,0.0,0.0
8128000,0,5.478895e-05,5.0597107e-05,7.944601e-09,0.0,0.0,0.0
8140000,0,5.4788972e-05,5.0597093e-05,7.9224485e-09,0.0,0.0,0.0
8148000,0,5.478899e-05,5.0597086e-05,7.90768e-09,0.0,0.0,0.0
8160000,0,5.4789012e-05,5.059707e-05,7.885527e-09,0.0,0.0,0.0
8168000,0,5.4789027e-05,5.0597064e-05,7.870758e-09,0.0,0.0,0.0
8180000,0,5.478905e-05,5.059705e-05,7.848605e-09,0.0,0.0,0.0
8188000,0,5.4789063e-05,5.0597042e-05,7.833837e-09,0.0,0.0,0.0
8200000,0,5.4789085e-05,5.0597027e-05,7.811684e-09,0.0,0.0,0.0
8208000,0,5.4789103e-05,5.059702e-05,7.796915e-09,0.0,0.0,0.0
8220000,0,5.4789125e-05,5.0597006e-05,7.774761e-09,0.0,0.0,0.0
8228000,0,5.478914e-05,5.0597e-05,7.759993e-09,0.0,0.0,0.0
8240000,0,5.478916e-05,5.0596984e-05,7.73784e-09,0.0,0.0,0.0
8248000,0,5.4789176e-05,5.0596977e-05,7.723071e-09,0.0,0.0,0.0
8260000,0,5.47892e-05,5.0596962e-05,7.700918e-09,0.0,0.0,0.0
8268000,0,5.4789216e-05,5.0596955e-05,7.6861495e-09,0.0,0.0,0.0
8280000,0,5.4789238e-05,5.059694e-05,7.6639965e-09,0.0,0.0,0.0
8288000,0,5.4789252e-05,5.0596933e-05,7.649228e-09,0.0,0.0,0.0
8300000,0,5.4789274e-05,5.059692e-05,7.627075e-09,0.0,0.0,0.0
8308000,0,5.4789292e-05,5.059691e-05,7.612306e-09,0.0,0.0,0.0
8316000,0,5.4789307e-05,5.05969e-05,7.597538e-09,0.0,0.0,0.0
8328000,0,5.478933e-05,5.0596886e-05,7.575385e-09,0.0,0.0,0.0
8340000,0,5.478935e-05,5.0596875e-05,7.553232e-09,0.0,0.0,0.0
8348000,0,5.4789365e-05,5.0596864e-05,7.538463e-09,0.0,0.0,0.0
8360000,0,5.4789387e-05,5.0596853e-05,7.51631e-09,0.0,0.0,0.0
8368000,0,5.4789405e-05,5.0596842e-05,7.501542e-09,0.0,0.0,0.0
8380000,0,5.4789427e-05,5.059683e-05,7.479389e-09,0.0,0.0,0.0
8388000,0,5.478944e-05,5.059682e-05,7.46462e-09,0.0,0.0,0.0
8396000,0,5.4789456e-05,5.0596813e-05,7.4498514e-09,0.0,0.0,0.0
8408000,0,5.478948e-05,5.05968e-05,7.427699e-09,0.0,0.0,0.0
8420000,0,5.4789503e-05,5.0596787e-05,7.405546e-09,0.0,0.0,0.0
8428000,0,5.4789518e-05,5.0596776e-05,7.3907773e-09,0.0,0.0,0.0
8436000,0,5.4789532e-05,5.059677e-05,7.3760087e-09,0.0,0.0,0.0
8448000,0,5.4789554e-05,5.0596755e-05,7.3538557e-09,0.0,0.0,0.0
8460000,0,5.4789576e-05,5.0596744e-05,7.331703e-09,0.0,0.0,0.0
8468000,0,5.4789594e-05,5.0596733e-05,7.316934e-09,0.0,0.0,0.0
8480000,0,5.4789616e-05,5.0596722e-05,7.2947812e-09,0.0,0.0,0.0
8488000,0,5.478963e-05,5.059671e-05,7.280013e-09,0.0,0.0,0.0
8500000,0,5.4789652e-05,5.05967e-05,7.25786e-09,0.0,0.0,0.0
8508000,0,5.4789667e-05,5.059669e-05,7.2430915e-09,0.0,0.0,0.0
8520000,0,5.4789693e-05,5.059668e-05,7.2209385e-09,0.0,0.0,0.0
8528000,0,5.4789707e-05,5.0596667e-05,7.20617e-09,0.0,0.0,0.0
8540000,0,5.478973e-05,5.0596656e-05,7.184017e-09,0.0,0.0,0.0
8548000,0,5.4789743e-05,5.0596645e-05,7.1692488e-09,0.0,0.0,0.0
8556000,0,5.4789758e-05,5.0596638e-05,7.15448e-09,0.0,0.0,0.0
8564000,0,5.4789776e-05,5.0596627e-05,7.1397115e-09,0.0,0.0,0.0
8580000,0,5.4789805e-05,5.059661e-05,7.1101742e-09,0.0,0.0,0.0
8588000,0,5.478982e-05,5.05966e-05,7.095406e-09,0.0,0.0,0.0
8600000,0,5.478984e-05,5.0596587e-05,7.073253e-09,0.0,0.0,0.0
8608000,0,5.4789856e-05,5.059658e-05,7.0584845e-09,0.0,0.0,0.0
8620000,0,5.4789878e-05,5.0596565e-05,7.0363315e-09,0.0,0.0,0.0
8628000,0,5.4789896e-05,5.0596558e-05,7.0215633e-09,0.0,0.0,0.0
8640000,0,5.4789918e-05,5.0596544e-05,6.9994104e-09,0.0,0.0,0.0
8648000,0,5.4789933e-05,5.0596536e-05,6.9846418e-09,0.0,0.0,0.0
8660000,0,5.4789954e-05,5.059652e-05,6.9624893e-09,0.0,0.0,0.0
8668000,0,5.478997e-05,5.0596514e-05,6.9477206e-09,0.0,0.0,0.0
8680000,0,5.4789994e-05,5.05965e-05,6.9255677e-09,0.0,0.0,0.0
8688000,0,5.479001e-05,5.0596493e-05,6.9107995e-09,0.0,0.0,0.0
8700000,0,5.479003e-05,5.0596478e-05,6.8886465e-09,0.0,0.0,0.0
8708000,0,5.4790045e-05,5.059647e-05,6.873878e-09,0.0,0.0,0.0
8720000,0,5.4790067e-05,5.0596456e-05,6.8517254e-09,0.0,0.0,0.0
8728000,0,5.4790085e-05,5.059645e-05,6.836957e-09,0.0,0.0,0.0
8740000,0,5.4790107e-05,5.0596434e-05,6.814804e-09,0.0,0.0,0.0
8748000,0,5.479012e-05,5.0596427e-05,6.8000356e-09,0.0,0.0,0.0
8760000,0,5.4790144e-05,5.0596413e-05,6.7778827e-09,0.0,0.0,0.0
8768000,0,5.4790158e-05,5.0596405e-05,6.7631145e-09,0.0,0.0,0.0
8780000,0,5.479018e-05,5.059639e-05,6.7409616e-09,0.0,0.0,0.0
8788000,0,5.47902e-05,5.0596384e-05,6.726193e-09,0.0,0.0,0.0
8800000,0,5.479022e-05,5.059637e-05,6.7040404e-09,0.0,0.0,0.0
8808000,0,5.4790235e-05,5.059636e-05,6.689272e-09,0.0,0.0,0.0
8820000,0,5.4790256e-05,5.0596347e-05,6.6671193e-09,0.0,0.0,0.0
8828000,0,5.479027e-05,5.059634e-05,6.6523507e-09,0.0,0.0,0.0
8840000,0,5.4790293e-05,5.0596325e-05,6.630198e-09,0.0,0.0,0.0
8848000,0,5.479031e-05,5.0596318e-05,6.6154295e-09,0.0,0.0,0.0
8860000,0,5.4790333e-05,5.0596303e-05,6.593277e-09,0.0,0.0,0.0
8868000,0,5.4790347e-05,5.0596296e-05,6.5785084e-09,0.0,0.0,0.0
8880000,0,5.479037e-05,5.059628e-05,6.556356e-09,0.0,0.0,0.0
8888000,0,5.4790387e-05,5.059627e-05,6.5415873e-09,0.0,0.0,0.0
8900000,0,5.479041e-05,5.059626e-05,6.5194348e-09,0.0,0.0,0.0
8908000,0,5.4790424e-05,5.059625e-05,6.504666e-09,0.0,0.0,0.0
8920000,0,5.4790446e-05,5.0596238e-05,6.4825136e-09,0.0,0.0,0.0
8928000,0,5.479046e-05,5.0596227e-05,6.467745e-09,0.0,0.0,0.0
8940000,0,5.4790482e-05,5.0596216e-05,6.4455925e-09,0.0,0.0,0.0
8948000,0,5.47905e-05,5.0596205e-05,6.4308243e-09,0.0,0.0,0.0
8960000,0,5.4790522e-05,5.0596194e-05,6.4086714e-09,0.0,0.0,0.0
8968000,0,5.4790537e-05,5.0596183e-05,6.393903e-09,0.0,0.0,0.0
8980000,0,5.479056e-05,5.0596173e-05,6.3717502e-09,0.0,0.0,0.0
8988000,0,5.4790573e-05,5.059616e-05,6.356982e-09,0.0,0.0,0.0
9000000,0,5.4790595e-05,5.059615e-05,6.3348295e-09,0.0,0.0,0.0
9004000,0,5.4790606e-05,5.0596143e-05,6.3274452e-09,0.0,0.0,0.0
9020000,0,5.4790635e-05,5.059613e-05,6.2979084e-09,0.0,0.0,0.0
9028000,0,5.479065e-05,5.0596118e-05,6.2831402e-09,0.0,0.0,0.0
9040000,0,5.479067e-05,5.0596107e-05,6.2609873e-09,0.0,0.0,0.0
9048000,0,5.4790686e-05,5.0596096e-05,6.246219e-09,0.0,0.0,0.0
9060000,0,5.4790708e-05,5.0596085e-05,6.2240666e-09,0.0,0.0,0.0
9068000,0,5.4790726e-05,5.0596074e-05,6.209298e-09,0.0,0.0,0.0
9080000,0,5.4790748e-05,5.0596063e-05,6.1871455e-09,0.0,0.0,0.0
9088000,0,5.4790762e-05,5.0596052e-05,6.1723773e-09,0.0,0.0,0.0
9100000,0,5.4790784e-05,5.0596038e-05,6.1502248e-09,0.0,0.0,0.0
9108000,0,5.4790802e-05,5.059603e-05,6.135456e-09,0.0,0.0,0.0
9120000,0,5.4790824e-05,5.0596016e-05,6.1133036e-09,0.0,0.0,0.0
9128000,0,5.479084e-05,5.059601e-05,6.0985355e-09,0.0,0.0,0.0
9140000,0,5.479086e-05,5.0595994e-05,6.076383e-09,0.0,0.0,0.0
9148000,0,5.4790875e-05,5.0595987e-05,6.0616143e-09,0.0,0.0,0.0
9160000,0,5.4790897e-05,5.0595972e-05,6.039462e-09,0.0,0.0,0.0
9168000,0,5.4790915e-05,5.0595965e-05,6.0246936e-09,0.0,0.0,0.0
9176000,0,5.4790926e-05,5.0595954e-05,6.009925e-09,0.0,0.0,0.0
9184000,0,5.4790944e-05,5.0595947e-05,5.995157e-09,0.0,0.0,0.0
9196000,0,5.4790966e-05,5.0595932e-05,5.9730043e-09,0.0,0.0,0.0
9208000,0,5.4790988e-05,5.059592e-05,5.950852e-09,0.0,0.0,0.0
9220000,0,5.479101e-05,5.0595907e-05,5.9286993e-09,0.0,0.0,0.0
9228000,0,5.4791028e-05,5.05959e-05,5.913931e-09,0.0,0.0,0.0
9240000,0,5.479105e-05,5.0595885e-05,5.8917786e-09,0.0,0.0,0.0
9248000,0,5.4791064e-05,5.0595878e-05,5.8770104e-09,0.0,0.0,0.0
9260000,0,5.4791086e-05,5.0595863e-05,5.8548575e-09,0.0,0.0,0.0
9268000,0,5.47911e-05,5.0595856e-05,5.8400893e-09,0.0,0.0,0.0
9280000,0,5.4791122e-05,5.059584e-05,5.817937e-09,0.0,0.0,0.0
9288000,0,5.479114e-05,5.0595834e-05,5.8031686e-09,0.0,0.0,0.0
9300000,0,5.4791162e-05,5.059582e-05,5.781016e-09,0.0,0.0,0.0
9308000,0,5.4791177e-05,5.0595812e-05,5.766248e-09,0.0,0.0,0.0
9320000,0,5.47912e-05,5.0595798e-05,5.7440954e-09,0.0,0.0,0.0
9324000,0,5.4791206e-05,5.0595794e-05,5.736711e-09,0.0,0.0,0.0
9340000,0,5.4791235e-05,5.0595776e-05,5.7071747e-09,0.0,0.0,0.0
9348000,0,5.4791253e-05,5.059577e-05,5.6924065e-09,0.0,0.0,0.0
9360000,0,5.4791275e-05,5.0595754e-05,5.670254e-09,0.0,0.0,0.0
9368000,0,5.479129e-05,5.0595743e-05,5.655486e-09,0.0,0.0,0.0
9380000,0,5.479131e-05,5.0595732e-05,5.6333334e-09,0.0,0.0,0.0
9388000,0,5.4791326e-05,5.059572e-05,5.618565e-09,0.0,0.0,0.0
9400000,0,5.4791348e-05,5.059571e-05,5.5964127e-09,0.0,0.0,0.0
9408000,0,5.4791366e-05,5.05957e-05,5.5816445e-09,0.0,0.0,0.0
9420000,0,5.4791388e-05,5.059569e-05,5.559492e-09,0.0,0.0,0.0
9428000,0,5.4791402e-05,5.0595678e-05,5.544724e-09,0.0,0.0,0.0
9440000,0,5.4791424e-05,5.0595667e-05,5.5225713e-09,0.0,0.0,0.0
9448000,0,5.479144e-05,5.0595656e-05,5.507803e-09,0.0,0.0,0.0
9460000,0,5.4791464e-05,5.0595645e-05,5.4856506e-09,0.0,0.0,0.0
9468000,0,5.479148e-05,5.0595634e-05,5.4708824e-09,0.0,0.0,0.0
9476000,0,5.4791493e-05,5.0595627e-05,5.4561142e-09,0.0,0.0,0.0
9484000,0,5.4791508e-05,5.0595616e-05,5.441346e-09,0.0,0.0,0.0
9500000,0,5.4791537e-05,5.05956e-05,5.4118092e-09,0.0,0.0,0.0
9508000,0,5.4791555e-05,5.059559e-05,5.397041e-09,0.0,0.0,0.0
9520000,0,5.4791577e-05,5.0595576e-05,5.374889e-09,0.0,0.0,0.0
9528000,0,5.479159e-05,5.059557e-05,5.360121e-09,0.0,0.0,0.0
9540000,0,5.4791613e-05,5.0595554e-05,5.3379683e-09,0.0,0.0,0.0
9548000,0,5.4791628e-05,5.0595547e-05,5.3232e-09,0.0,0.0,0.0
9560000,0,5.479165e-05,5.0595532e-05,5.3010476e-09,0.0,0.0,0.0
9568000,0,5.4791668e-05,5.0595525e-05,5.2862794e-09,0.0,0.0,0.0
9580000,0,5.479169e-05,5.059551e-05,5.2641274e-09,0.0,0.0,0.0
9588000,0,5.4791704e-05,5.0595503e-05,5.249359e-09,0.0,0.0,0.0
9596000,0,5.479172e-05,5.0595492e-05,5.2345905e-09,0.0,0.0,0.0
9608000,0,5.479174e-05,5.059548e-05,5.2124385e-09,0.0,0.0,0.0
9620000,0,5.4791763e-05,5.0595467e-05,5.1902864e-09,0.0,0.0,0.0
9628000,0,5.479178e-05,5.059546e-05,5.1755182e-09,0.0,0.0,0.0
9640000,0,5.4791803e-05,5.0595445e-05,5.1533657e-09,0.0,0.0,0.0
9648000,0,5.4791817e-05,5.0595438e-05,5.1385975e-09,0.0,0.0,0.0
9660000,0,5.479184e-05,5.0595423e-05,5.1164455e-09,0.0,0.0,0.0
9668000,0,5.4791853e-05,5.0595416e-05,5.1016773e-09,0.0,0.0,0.0
9680000,0,5.4791875e-05,5.05954e-05,5.079525e-09,0.0,0.0,0.0
9688000,0,5.4791893e-05,5.0595394e-05,5.0647566e-09,0.0,0.0,0.0
9700000,0,5.4791915e-05,5.059538e-05,5.0426046e-09,0.0,0.0,0.0
9708000,0,5.479193e-05,5.0595372e-05,5.0278364e-09,0.0,0.0,0.0
9720000,0,5.479195e-05,5.0595358e-05,5.005684e-09,0.0,0.0,0.0
9728000,0,5.4791966e-05,5.059535e-05,4.990916e-09,0.0,0.0,0.0
9740000,0,5.4791988e-05,5.0595336e-05,4.9687636e-09,0.0,0.0,0.0
9748000,0,5.4792006e-05,5.059533e-05,4.9539954e-09,0.0,0.0,0.0
9760000,0,5.4792028e-05,5.0595314e-05,4.9318434e-09,0.0,0.0,0.0
9768000,0,5.4792043e-05,5.0595303e-05,4.917075e-09,0.0,0.0,0.0
9780000,0,5.4792064e-05,5.0595292e-05,4.8949227e-09,0.0,0.0,0.0
9788000,0,5.479208e-05,5.059528e-05,4.880155e-09,0.0,0.0,0.0
9800000,0,5.47921e-05,5.059527e-05,4.8580024e-09,0.0,0.0,0.0
9808000,0,5.479212e-05,5.059526e-05,4.8432343e-09,0.0,0.0,0.0
9820000,0,5.479214e-05,5.059525e-05,4.821082e-09,0.0,0.0,0.0
9828000,0,5.4792155e-05,5.0595238e-05,4.806314e-09,0.0,0.0,0.0
9840000,0,5.4792177e-05,5.0595227e-05,4.784162e-09,0.0,0.0,0.0
9848000,0,5.479219e-05,5.0595216e-05,4.7693938e-09,0.0,0.0,0.0
9860000,0,5.4792214e-05,5.0595205e-05,4.7472417e-09,0.0,0.0,0.0
9868000,0,5.4792232e-05,5.0595194e-05,4.7324735e-09,0.0,0.0,0.0
9880000,0,5.4792254e-05,5.0595183e-05,4.7103215e-09,0.0,0.0,0.0
9888000,0,5.479227e-05,5.0595172e-05,4.6955533e-09,0.0,0.0,0.0
9896000,0,5.4792283e-05,5.0595165e-05,4.680785e-09,0.0,0.0,0.0
9904000,0,5.4792297e-05,5.0595154e-05,4.666017e-09,0.0,0.0,0.0
9920000,0,5.4792326e-05,5.0595136e-05,4.636481e-09,0.0,0.0,0.0
9928000,0,5.4792345e-05,5.059513e-05,4.621713e-09,0.0,0.0,0.0
9940000,0,5.4792366e-05,5.0595114e-05,4.5995607e-09,0.0,0.0,0.0
9948000,0,5.479238e-05,5.0595107e-05,4.5847925e-09,0.0,0.0,0.0
9960000,0,5.4792403e-05,5.0595092e-05,4.5626405e-09,0.0,0.0,0.0
9968000,0,5.4792417e-05,5.0595085e-05,4.5478723e-09,0.0,0.0,0.0
9980000,0,5.479244e-05,5.059507e-05,4.5257202e-09,0.0,0.0,0.0
9988000,0,5.4792457e-05,5.0595063e-05,4.510952e-09,0.0,0.0,0.0
10000000,0,5.479248e-05,5.059505e-05,4.4888e-09,0.0,0.0,0.0
10008000,0,5.4792494e-05,5.059504e-05,4.4740323e-09,0.0,0.0,0.0
10020000,0,5.4792516e-05,5.0595027e-05,4.4518798e-09,0.0,0.0,0.0
10028000,0,5.479253e-05,5.059502e-05,4.437112e-09,0.0,0.0,0.0
10040000,0,5.4792552e-05,5.0595005e-05,4.41496e-09,0.0,0.0,0.0
10044000,0,5.479256e-05,5.0595e-05,4.4075756e-09,0.0,0.0,0.0
10060000,0,5.4792592e-05,5.0594983e-05,4.3780397e-09,0.0,0.0,0.0
10068000,0,5.4792607e-05,5.0594976e-05,4.3632715e-09,0.0,0.0,0.0
10080000,0,5.479263e-05,5.059496e-05,4.3411195e-09,0.0,0.0,0.0
10088000,0,5.4792643e-05,5.0594954e-05,4.3263517e-09,0.0,0.0,0.0
10100000,0,5.4792665e-05,5.059494e-05,4.3041997e-09,0.0,0.0,0.0
10108000,0,5.4792683e-05,5.059493e-05,4.2894315e-09,0.0,0.0,0.0
10120000,0,5.4792705e-05,5.0594917e-05,4.2672794e-09,0.0,0.0,0.0
10128000,0,5.479272e-05,5.0594906e-05,4.2525117e-09,0.0,0.0,0.0
10140000,0,5.479274e-05,5.0594896e-05,4.2303596e-09,0.0,0.0,0.0
10148000,0,5.4792756e-05,5.0594885e-05,4.2155914e-09,0.0,0.0,0.0
10160000,0,5.4792778e-05,5.0594874e-05,4.1934394e-09,0.0,0.0,0.0
10168000,0,5.4792792e-05,5.0594863e-05,4.1786716e-09,0.0,0.0,0.0
10176000,0,5.4792807e-05,5.0594856e-05,4.1639034e-09,0.0,0.0,0.0
10188000,0,5.4792832e-05,5.059484e-05,4.1417514e-09,0.0,0.0,0.0
10200000,0,5.4792854e-05,5.059483e-05,4.1195993e-09,0.0,0.0,0.0
10208000,0,5.479287e-05,5.059482e-05,4.1048316e-09,0.0,0.0,0.0
10220000,0,5.479289e-05,5.059481e-05,4.0826795e-09,0.0,0.0,0.0
10228000,0,5.4792905e-05,5.0594797e-05,4.0679113e-09,0.0,0.0,0.0
10240000,0,5.4792927e-05,5.0594783e-05,4.0457593e-09,0.0,0.0,0.0
10248000,0,5.4792945e-05,5.0594776e-05,4.0309915e-09,0.0,0.0,0.0
10260000,0,5.4792967e-05,5.059476e-05,4.0088395e-09,0.0,0.0,0.0
10268000,0,5.479298e-05,5.0594754e-05,3.9940717e-09,0.0,0.0,0.0
10280000,0,5.4793003e-05,5.059474e-05,3.9719197e-09,0.0,0.0,0.0
10288000,0,5.4793018e-05,5.0594732e-05,3.9571515e-09,0.0,0.0,0.0
10300000,0,5.479304e-05,5.0594717e-05,3.935e-09,0.0,0.0,0.0
10308000,0,5.4793058e-05,5.059471e-05,3.9202317e-09,0.0,0.0,0.0
10320000,0,5.479308e-05,5.0594695e-05,3.8980796e-09,0.0,0.0,0.0
10328000,0,5.4793094e-05,5.059469e-05,3.883312e-09,0.0,0.0,0.0
10340000,0,5.4793116e-05,5.0594674e-05,3.86116e-09,0.0,0.0,0.0
10348000,0,5.479313e-05,5.0594666e-05,3.846392e-09,0.0,0.0,0.0
10360000,0,5.4793152e-05,5.0594652e-05,3.82424e-09,0.0,0.0,0.0
10368000,0,5.479317e-05,5.0594645e-05,3.8094723e-09,0.0,0.0,0.0
10380000,0,5.4793192e-05,5.059463e-05,3.7873202e-09,0.0,0.0,0.0
10388000,0,5.4793207e-05,5.0594623e-05,3.7725525e-09,0.0,0.0,0.0
10400000,0,5.479323e-05,5.059461e-05,3.7504004e-09,0.0,0.0,0.0
10408000,0,5.4793243e-05,5.05946e-05,3.7356327e-09,0.0,0.0,0.0
10420000,0,5.4793265e-05,5.0594586e-05,3.7134806e-09,0.0,0.0,0.0
10428000,0,5.4793283e-05,5.0594575e-05,3.6987127e-09,0.0,0.0,0.0
10440000,0,5.4793305e-05,5.0594565e-05,3.6765608e-09,0.0,0.0,0.0
10448000,0,5.479332e-05,5.0594554e-05,3.6617929e-09,0.0,0.0,0.0
10460000,0,5.479334e-05,5.0594543e-05,3.639641e-09,0.0,0.0,0.0
10468000,0,5.4793356e-05,5.059453e-05,3.624873e-09,0.0,0.0,0.0
10480000,0,5.4793378e-05,5.059452e-05,3.6027212e-09,0.0,0.0,0.0
10488000,0,5.4793396e-05,5.059451e-05,3.5879535e-09,0.0,0.0,0.0
10500000,0,5.4793418e-05,5.05945e-05,3.5658014e-09,0.0,0.0,0.0
10508000,0,5.4793432e-05,5.0594488e-05,3.5510337e-09,0.0,0.0,0.0
10520000,0,5.4793454e-05,5.0594477e-05,3.5288819e-09,0.0,0.0,0.0
10528000,0,5.479347e-05,5.0594466e-05,3.5141139e-09,0.0,0.0,0.0
10540000,0,5.479349e-05,5.0594455e-05,3.491962e-09,0.0,0.0,0.0
10548000,0,5.4793505e-05,5.0594444e-05,3.4771943e-09,0.0,0.0,0.0
10560000,0,5.4793527e-05,5.059443e-05,3.4550425e-09,0.0,0.0,0.0
10568000,0,5.4793545e-05,5.0594423e-05,3.4402745e-09,0.0,0.0,0.0
10580000,0,5.4793567e-05,5.0594408e-05,3.4181227e-09,0.0,0.0,0.0
10588000,0,5.479358e-05,5.05944e-05,3.403355e-09,0.0,0.0,0.0
10600000,0,5.4793603e-05,5.0594386e-05,3.381203e-09,0.0,0.0,0.0
10608000,0,5.4793618e-05,5.059438e-05,3.3664354e-09,0.0,0.0,0.0
10620000,0,5.479364e-05,5.0594364e-05,3.3442835e-09,0.0,0.0,0.0
10628000,0,5.4793658e-05,5.0594357e-05,3.3295156e-09,0.0,0.0,0.0
10640000,0,5.479368e-05,5.0594343e-05,3.307364e-09,0.0,0.0,0.0
10644000,0,5.4793687e-05,5.059434e-05,3.2999798e-09,0.0,0.0,0.0
10660000,0,5.4793716e-05,5.059432e-05,3.2704441e-09,0.0,0.0,0.0
10668000,0,5.479373e-05,5.0594314e-05,3.2556764e-09,0.0,0.0,0.0
10680000,0,5.4793752e-05,5.05943e-05,3.2335246e-09,0.0,0.0,0.0
10688000,0,5.479377e-05,5.059429e-05,3.2187568e-09,0.0,0.0,0.0
10700000,0,5.4793793e-05,5.0594277e-05,3.196605e-09,0.0,0.0,0.0
10708000,0,5.4793807e-05,5.059427e-05,3.1818372e-09,0.0,0.0,0.0
10720000,0,5.479383e-05,5.0594255e-05,3.1596856e-09,0.0,0.0,0.0
10728000,0,5.4793843e-05,5.0594244e-05,3.1449179e-09,0.0,0.0,0.0
10740000,0,5.4793865e-05,5.0594233e-05,3.122766e-09,0.0,0.0,0.0
10748000,0,5.479388e-05,5.0594223e-05,3.1079983e-09,0.0,0.0,0.0
10760000,0,5.47939e-05,5.059421e-05,3.0858465e-09,0.0,0.0,0.0
10768000,0,5.479392e-05,5.05942e-05,3.0710787e-09,0.0,0.0,0.0
10780000,0,5.479394e-05,5.059419e-05,3.048927e-09,0.0,0.0,0.0
10788000,0,5.4793956e-05,5.059418e-05,3.0341591e-09,0.0,0.0,0.0
10800000,0,5.4793978e-05,5.0594168e-05,3.0120075e-09,0.0,0.0,0.0
10808000,0,5.4793993e-05,5.0594157e-05,2.9972398e-09,0.0,0.0,0.0
10820000,0,5.4794014e-05,5.0594146e-05,2.975088e-09,0.0,0.0,0.0
10828000,0,5.4794033e-05,5.0594135e-05,2.9603204e-09,0.0,0.0,0.0
10840000,0,5.4794054e-05,5.059412e-05,2.9381686e-09,0.0,0.0,0.0
10848000,0,5.479407e-05,5.0594113e-05,2.9234009e-09,0.0,0.0,0.0
10860000,0,5.479409e-05,5.05941e-05,2.9012492e-09,0.0,0.0,0.0
10868000,0,5.4794105e-05,5.059409e-05,2.8864815e-09,0.0,0.0,0.0
10880000,0,5.4794127e-05,5.0594077e-05,2.8643299e-09,0.0,0.0,0.0
10888000,0,5.4794145e-05,5.059407e-05,2.8495621e-09,0.0,0.0,0.0
10900000,0,5.4794167e-05,5.0594055e-05,2.8274103e-09,0.0,0.0,0.0
10908000,0,5.479418e-05,5.0594048e-05,2.8126428e-09,0.0,0.0,0.0
10920000,0,5.4794204e-05,5.0594033e-05,2.790491e-09,0.0,0.0,0.0
10928000,0,5.4794218e-05,5.0594026e-05,2.7757234e-09,0.0,0.0,0.0
10940000,0,5.479424e-05,5.059401e-05,2.7535716e-09,0.0,0.0,0.0
10948000,0,5.4794255e-05,5.0594004e-05,2.738804e-09,0.0,0.0,0.0
10960000,0,5.4794276e-05,5.059399e-05,2.7166522e-09,0.0,0.0,0.0
10968000,0,5.4794295e-05,5.0593982e-05,2.7018847e-09,0.0,0.0,0.0
10980000,0,5.4794316e-05,5.0593968e-05,2.679733e-09,0.0,0.0,0.0
10988000,0,5.479433e-05,5.059396e-05,2.6649654e-09,0.0,0.0,0.0
11000000,0,5.4794353e-05,5.0593946e-05,2.6428137e-09,0.0,0.0,0.0
11008000,0,5.4794367e-05,5.0593935e-05,2.628046e-09,0.0,0.0,0.0
11020000,0,5.479439e-05,5.0593924e-05,2.6058944e-09,0.0,0.0,0.0
11028000,0,5.4794407e-05,5.0593913e-05,2.5911266e-09,0.0,0.0,0.0
11040000,0,5.479443e-05,5.0593902e-05,2.568975e-09,0.0,0.0,0.0
11048000,0,5.4794444e-05,5.059389e-05,2.5542075e-09,0.0,0.0,0.0
11060000,0,5.4794466e-05,5.059388e-05,2.532056e-09,0.0,0.0,0.0
11068000,0,5.479448e-05,5.059387e-05,2.5172882e-09,0.0,0.0,0.0
11076000,0,5.4794495e-05,5.0593862e-05,2.5025204e-09,0.0,0.0,0.0
11084000,0,5.479451e-05,5.059385e-05,2.487753e-09,0.0,0.0,0.0
11100000,0,5.479454e-05,5.0593837e-05,2.4582174e-09,0.0,0.0,0.0
11108000,0,5.4794556e-05,5.0593826e-05,2.4434499e-09,0.0,0.0,0.0
11120000,0,5.479458e-05,5.059381e-05,2.4212983e-09,0.0,0.0,0.0
11128000,0,5.4794593e-05,5.0593804e-05,2.4065305e-09,0.0,0.0,0.0
11140000,0,5.4794615e-05,5.059379e-05,2.3843791e-09,0.0,0.0,0.0
11148000,0,5.479463e-05,5.0593782e-05,2.3696114e-09,0.0,0.0,0.0
11160000,0,5.479465e-05,5.0593768e-05,2.3474598e-09,0.0,0.0,0.0
11168000,0,5.479467e-05,5.059376e-05,2.3326923e-09,0.0,0.0,0.0
11180000,0,5.479469e-05,5.0593746e-05,2.3105406e-09,0.0,0.0,0.0
11188000,0,5.4794706e-05,5.059374e-05,2.2957731e-09,0.0,0.0,0.0
11200000,0,5.4794727e-05,5.0593724e-05,2.2736215e-09,0.0,0.0,0.0
11208000,0,5.4794742e-05,5.0593717e-05,2.258854e-09,0.0,0.0,0.0
11220000,0,5.4794764e-05,5.0593702e-05,2.2367026e-09,0.0,0.0,0.0
11224000,0,5.479477e-05,5.05937e-05,2.2293187e-09,0.0,0.0,0.0
11240000,0,5.47948e-05,5.059368e-05,2.1997835e-09,0.0,0.0,0.0
11248000,0,5.479482e-05,5.0593673e-05,2.1850157e-09,0.0,0.0,0.0
11260000,0,5.479484e-05,5.059366e-05,2.1628643e-09,0.0,0.0,0.0
11268000,0,5.4794855e-05,5.0593648e-05,2.1480968e-09,0.0,0.0,0.0
11280000,0,5.4794877e-05,5.0593637e-05,2.1259452e-09,0.0,0.0,0.0
11288000,0,5.479489e-05,5.0593626e-05,2.1111777e-09,0.0,0.0,0.0
11300000,0,5.4794913e-05,5.0593615e-05,2.0890263e-09,0.0,0.0,0.0
11308000,0,5.479493e-05,5.0593604e-05,2.0742585e-09,0.0,0.0,0.0
11320000,0,5.4794953e-05,5.0593593e-05,2.0521072e-09,0.0,0.0,0.0
11328000,0,5.4794968e-05,5.0593582e-05,2.0373396e-09,0.0,0.0,0.0
11340000,0,5.479499e-05,5.059357e-05,2.0151882e-09,0.0,0.0,0.0
11348000,0,5.4795004e-05,5.059356e-05,2.0004207e-09,0.0,0.0,0.0
11360000,0,5.4795026e-05,5.059355e-05,1.978269e-09,0.0,0.0,0.0
11368000,0,5.479504e-05,5.059354e-05,1.9635016e-09,0.0,0.0,0.0
11376000,0,5.4795055e-05,5.059353e-05,1.9487338e-09,0.0,0.0,0.0
11388000,0,5.479508e-05,5.0593517e-05,1.9265827e-09,0.0,0.0,0.0
11400000,0,5.4795102e-05,5.0593502e-05,1.9044313e-09,0.0,0.0,0.0
11408000,0,5.4795117e-05,5.0593495e-05,1.8896638e-09,0.0,0.0,0.0
11420000,0,5.479514e-05,5.059348e-05,1.8675124e-09,0.0,0.0,0.0
11428000,0,5.4795153e-05,5.0593473e-05,1.8527448e-09,0.0,0.0,0.0
11440000,0,5.4795175e-05,5.059346e-05,1.8305935e-09,0.0,0.0,0.0
11448000,0,5.4795193e-05,5.059345e-05,1.8158259e-09,0.0,0.0,0.0
11460000,0,5.4795215e-05,5.0593437e-05,1.7936745e-09,0.0,0.0,0.0
11468000,0,5.479523e-05,5.059343e-05,1.778907e-09,0.0,0.0,0.0
11480000,0,5.479525e-05,5.0593415e-05,1.7567556e-09,0.0,0.0,0.0
11488000,0,5.4795266e-05,5.0593408e-05,1.7419881e-09,0.0,0.0,0.0
11500000,0,5.4795288e-05,5.0593393e-05,1.7198367e-09,0.0,0.0,0.0
11508000,0,5.4795302e-05,5.0593386e-05,1.7050692e-09,0.0,0.0,0.0
11516000,0,5.4795317e-05,5.0593375e-05,1.6903016e-09,0.0,0.0,0.0
11528000,0,5.4795342e-05,5.059336e-05,1.6681504e-09,0.0,0.0,0.0
11540000,0,5.4795364e-05,5.059335e-05,1.645999e-09,0.0,0.0,0.0
11548000,0,5.479538e-05,5.059334e-05,1.6312316e-09,0.0,0.0,0.0
11560000,0,5.47954e-05,5.0593328e-05,1.6090802e-09,0.0,0.0,0.0
11568000,0,5.4795415e-05,5.0593317e-05,1.5943128e-09,0.0,0.0,0.0
11580000,0,5.4795437e-05,5.0593306e-05,1.5721614e-09,0.0,0.0,0.0
11588000,0,5.479545e-05,5.0593295e-05,1.557394e-09,0.0,0.0,0.0
11600000,0,5.4795473e-05,5.0593284e-05,1.5352427e-09,0.0,0.0,0.0
11608000,0,5.479549e-05,5.0593273e-05,1.5204752e-09,0.0,0.0,0.0
11620000,0,5.4795513e-05,5.059326e-05,1.4983239e-09,0.0,0.0,0.0
11628000,0,5.4795528e-05,5.059325e-05,1.4835564e-09,0.0,0.0,0.0
11640000,0,5.479555e-05,5.0593237e-05,1.4614051e-09,0.0,0.0,0.0
11648000,0,5.4795564e-05,5.059323e-05,1.4466377e-09,0.0,0.0,0.0
11660000,0,5.4795586e-05,5.0593215e-05,1.4244864e-09,0.0,0.0,0.0
11668000,0,5.4795604e-05,5.0593208e-05,1.409719e-09,0.0,0.0,0.0
11680000,0,5.4795626e-05,5.0593193e-05,1.3875677e-09,0.0,0.0,0.0
11684000,0,5.4795633e-05,5.059319e-05,1.380184e-09,0.0,0.0,0.0
11700000,0,5.4795662e-05,5.059317e-05,1.350649e-09,0.0,0.0,0.0
11708000,0,5.4795677e-05,5.0593164e-05,1.3358816e-09,0.0,0.0,0.0
11720000,0,5.47957e-05,5.059315e-05,1.3137303e-09,0.0,0.0,0.0
11728000,0,5.4795713e-05,5.0593142e-05,1.2989629e-09,0.0,0.0,0.0
11740000,0,5.4795735e-05,5.0593128e-05,1.2768117e-09,0.0,0.0,0.0
11748000,0,5.4795753e-05,5.059312e-05,1.2620442e-09,0.0,0.0,0.0
11760000,0,5.4795775e-05,5.0593106e-05,1.2398931e-09,0.0,0.0,0.0
11768000,0,5.479579e-05,5.0593095e-05,1.2251257e-09,0.0,0.0,0.0
11780000,0,5.479581e-05,5.0593084e-05,1.2029744e-09,0.0,0.0,0.0
11788000,0,5.4795826e-05,5.0593073e-05,1.188207e-09,0.0,0.0,0.0
11800000,0,5.4795848e-05,5.0593062e-05,1.1660558e-09,0.0,0.0,0.0
11808000,0,5.4795863e-05,5.059305e-05,1.1512884e-09,0.0,0.0,0.0
11820000,0,5.4795884e-05,5.059304e-05,1.1291372e-09,0.0,0.0,0.0
11828000,0,5.4795903e-05,5.059303e-05,1.1143698e-09,0.0,0.0,0.0
11840000,0,5.4795924e-05,5.059302e-05,1.0922186e-09,0.0,0.0,0.0
11848000,0,5.479594e-05,5.0593007e-05,1.0774512e-09,0.0,0.0,0.0
11856000,0,5.4795953e-05,5.0593e-05,1.0626837e-09,0.0,0.0,0.0
11868000,0,5.4795975e-05,5.0592986e-05,1.0405328e-09,0.0,0.0,0.0
11880000,0,5.4795997e-05,5.059297e-05,1.0183816e-09,0.0,0.0,0.0
11888000,0,5.479601e-05,5.0592964e-05,1.0036142e-09,0.0,0.0,0.0
11900000,0,5.4796034e-05,5.059295e-05,9.81463e-10,0.0,0.0,0.0
11908000,0,5.479605e-05,5.0592942e-05,9.666957e-10,0.0,0.0,0.0
11920000,0,5.4796074e-05,5.0592927e-05,9.445446e-10,0.0,0.0,0.0
11928000,0,5.4796088e-05,5.059292e-05,9.297772e-10,0.0,0.0,0.0
11940000,0,5.479611e-05,5.0592906e-05,9.0762603e-10,0.0,0.0,0.0
11948000,0,5.4796124e-05,5.05929e-05,8.9285873e-10,0.0,0.0,0.0
11960000,0,5.4796146e-05,5.0592884e-05,8.707076e-10,0.0,0.0,0.0
11964000,0,5.4796154e-05,5.059288e-05,8.633239e-10,0.0,0.0,0.0
11976000,0,5.4796175e-05,5.0592866e-05,8.411728e-10,0.0,0.0,0.0
11984000,0,5.4796194e-05,5.059286e-05,8.264055e-10,0.0,0.0,0.0
12000000,0,5.4796223e-05,5.059284e-05,7.9687074e-10,0.0,0.0,0.0
12008000,0,5.4796237e-05,5.059283e-05,7.821034e-10,0.0,0.0,0.0
12020000,0,5.479626e-05,5.059282e-05,7.599523e-10,0.0,0.0,0.0
12028000,0,5.4796274e-05,5.0592807e-05,7.4518497e-10,0.0,0.0,0.0
12040000,0,5.4796295e-05,5.0592796e-05,7.230339e-10,0.0,0.0,0.0
12048000,0,5.4796314e-05,5.0592786e-05,7.082666e-10,0.0,0.0,0.0
12060000,0,5.4796335e-05,5.0592775e-05,6.861155e-10,0.0,0.0,0.0
12068000,0,5.479635e-05,5.0592764e-05,6.713482e-10,0.0,0.0,0.0
12080000,0,5.4796372e-05,5.059275e-05,6.4919714e-10,0.0,0.0,0.0
12088000,0,5.4796386e-05,5.0592742e-05,6.3442984e-10,0.0,0.0,0.0
12100000,0,5.479641e-05,5.0592727e-05,6.1227884e-10,0.0,0.0,0.0
12108000,0,5.4796423e-05,5.059272e-05,5.9751154e-10,0.0,0.0,0.0
12120000,0,5.4796445e-05,5.0592706e-05,5.753605e-10,0.0,0.0,0.0
12128000,0,5.4796463e-05,5.05927e-05,5.6059324e-10,0.0,0.0,0.0
12140000,0,5.4796485e-05,5.0592684e-05,5.384422e-10,0.0,0.0,0.0
12148000,0,5.47965e-05,5.0592676e-05,5.2367494e-10,0.0,0.0,0.0
12156000,0,5.4796514e-05,5.0592666e-05,5.089075e-10,0.0,0.0,0.0
12168000,0,5.4796536e-05,5.0592655e-05,4.8675663e-10,0.0,0.0,0.0
12180000,0,5.4796557e-05,5.059264e-05,4.6460563e-10,0.0,0.0,0.0
12188000,0,5.4796572e-05,5.0592633e-05,4.4983836e-10,0.0,0.0,0.0
12200000,0,5.4796594e-05,5.059262e-05,4.2768739e-10,0.0,0.0,0.0
12208000,0,5.4796612e-05,5.0592607e-05,4.1292011e-10,0.0,0.0,0.0
12220000,0,5.4796634e-05,5.0592596e-05,3.9076914e-10,0.0,0.0,0.0
12228000,0,5.479665e-05,5.0592585e-05,3.760019e-10,0.0,0.0,0.0
12240000,0,5.479667e-05,5.0592575e-05,3.5385092e-10,0.0,0.0,0.0
12248000,0,5.4796685e-05,5.0592564e-05,3.3908368e-10,0.0,0.0,0.0
12260000,0,5.4796707e-05,5.0592553e-05,3.1693273e-10,0.0,0.0,0.0
12268000,0,5.479672e-05,5.059254e-05,3.021655e-10,0.0,0.0,0.0
12280000,0,5.4796743e-05,5.059253e-05,2.8001454e-10,0.0,0.0,0.0
12288000,0,5.479676e-05,5.059252e-05,2.652473e-10,0.0,0.0,0.0
12300000,0,5.4796783e-05,5.0592505e-05,2.4309638e-10,0.0,0.0,0.0
12308000,0,5.4796797e-05,5.0592498e-05,2.2832915e-10,0.0,0.0,0.0
12320000,0,5.479682e-05,5.0592484e-05,2.0617821e-10,0.0,0.0,0.0
12328000,0,5.4796834e-05,5.0592476e-05,1.91411e-10,0.0,0.0,0.0
12340000,0,5.4796856e-05,5.059246e-05,1.6926009e-10,0.0,0.0,0.0
12348000,0,5.479687e-05,5.0592454e-05,1.5449288e-10,0.0,0.0,0.0
12360000,0,5.4796892e-05,5.059244e-05,1.3234197e-10,0.0,0.0,0.0
12368000,0,5.479691e-05,5.0592433e-05,1.1757477e-10,0.0,0.0,0.0
12380000,0,5.4796932e-05,5.0592418e-05,9.542388e-11,0.0,0.0,0.0
12388000,0,5.4796947e-05,5.059241e-05,8.065668e-11,0.0,0.0,0.0
12400000,0,5.479697e-05,5.0592396e-05,5.85058e-11,0.0,0.0,0.0
12408000,0,5.4796983e-05,5.0592385e-05,4.373861e-11,0.0,0.0,0.0
12420000,0,5.4797005e-05,5.0592374e-05,2.158774e-11,0.0,0.0,0.0
12428000,0,5.479702e-05,5.0592364e-05,6.820557e-12,0.0,0.0,0.0
12436000,0,5.4797034e-05,5.0592356e-05,-7.946739e-12,0.0,0.0,0.0
12448000,0,5.479706e-05,5.059234e-05,-3.009748e-11,0.0,0.0,0.0
12460000,0,5.4797078e-05,5.059233e-05,-5.2248327e-11,0.0,0.0,0.0
12468000,0,5.4797096e-05,5.059232e-05,-6.70155e-11,0.0,0.0,0.0
12480000,0,5.4797118e-05,5.059231e-05,-8.9166334e-11,0.0,0.0,0.0
12488000,0,5.4797132e-05,5.0592298e-05,-1.03933494e-10,0.0,0.0,0.0
12500000,0,5.4797154e-05,5.0592284e-05,-1.2608432e-10,0.0,0.0,0.0
12508000,0,5.479717e-05,5.0592276e-05,-1.4085148e-10,0.0,0.0,0.0
12520000,0,5.479719e-05,5.059226e-05,-1.6300229e-10,0.0,0.0,0.0
12528000,0,5.4797205e-05,5.0592254e-05,-1.7776944e-10,0.0,0.0,0.0
12540000,0,5.4797227e-05,5.059224e-05,-1.9992025e-10,0.0,0.0,0.0
12548000,0,5.4797245e-05,5.0592233e-05,-2.1468739e-10,0.0,0.0,0.0
12560000,0,5.4797267e-05,5.0592218e-05,-2.368382e-10,0.0,0.0,0.0
12568000,0,5.479728e-05,5.059221e-05,-2.5160532e-10,0.0,0.0,0.0
12580000,0,5.4797303e-05,5.0592196e-05,-2.737561e-10,0.0,0.0,0.0
12584000,0,5.479731e-05,5.0592193e-05,-2.8113964e-10,0.0,0.0,0.0
12600000,0,5.479734e-05,5.0592174e-05,-3.1067401e-10,0.0,0.0,0.0
12604000,0,5.4797347e-05,5.059217e-05,-3.1805755e-10,0.0,0.0,0.0
12620000,0,5.4797376e-05,5.0592153e-05,-3.475919e-10,0.0,0.0,0.0
12628000,0,5.4797394e-05,5.059214e-05,-3.62359e-10,0.0,0.0,0.0
12640000,0,5.4797416e-05,5.059213e-05,-3.8450976e-10,0.0,0.0,0.0
12648000,0,5.479743e-05,5.059212e-05,-3.9927686e-10,0.0,0.0,0.0
12660000,0,5.4797452e-05,5.059211e-05,-4.2142762e-10,0.0,0.0,0.0
12668000,0,5.4797467e-05,5.0592098e-05,-4.361947e-10,0.0,0.0,0.0
12680000,0,5.479749e-05,5.0592087e-05,-4.5834544e-10,0.0,0.0,0.0
12688000,0,5.4797503e-05,5.0592076e-05,-4.7311255e-10,0.0,0.0,0.0
12700000,0,5.4797525e-05,5.059206e-05,-4.952632e-10,0.0,0.0,0.0
12708000,0,5.4797543e-05,5.0592054e-05,-5.1003035e-10,0.0,0.0,0.0
12720000,0,5.4797565e-05,5.059204e-05,-5.32181e-10,0.0,0.0,0.0
12728000,0,5.479758e-05,5.0592032e-05,-5.469481e-10,0.0,0.0,0.0
12740000,0,5.47976e-05,5.0592018e-05,-5.690988e-10,0.0,0.0,0.0
12748000,0,5.4797616e-05,5.059201e-05,-5.838659e-10,0.0,0.0,0.0
12760000,0,5.4797638e-05,5.0591996e-05,-6.0601657e-10,0.0,0.0,0.0
12768000,0,5.4797652e-05,5.059199e-05,-6.2078365e-10,0.0,0.0,0.0
12780000,0,5.4797674e-05,5.0591974e-05,-6.429343e-10,0.0,0.0,0.0
12788000,0,5.4797692e-05,5.0591967e-05,-6.577014e-10,0.0,0.0,0.0
12800000,0,5.479771e-05,5.0591952e-05,-6.7985206e-10,0.0,0.0,0.0
12808000,0,5.479773e-05,5.059194e-05,-6.946191e-10,0.0,0.0,0.0
12820000,0,5.479775e-05,5.059193e-05,-7.1676975e-10,0.0,0.0,0.0
12828000,0,5.4797765e-05,5.059192e-05,-7.315368e-10,0.0,0.0,0.0
12840000,0,5.4797787e-05,5.059191e-05,-7.5368745e-10,0.0,0.0,0.0
12848000,0,5.47978e-05,5.0591898e-05,-7.6845447e-10,0.0,0.0,0.0
12860000,0,5.4797823e-05,5.0591887e-05,-7.906051e-10,0.0,0.0,0.0
12868000,0,5.4797838e-05,5.0591876e-05,-8.0537216e-10,0.0,0.0,0.0
12880000,0,5.479786e-05,5.0591865e-05,-8.275228e-10,0.0,0.0,0.0
12888000,0,5.4797878e-05,5.0591854e-05,-8.422898e-10,0.0,0.0,0.0
12900000,0,5.47979e-05,5.059184e-05,-8.644404e-10,0.0,0.0,0.0
12904000,0,5.4797907e-05,5.0591836e-05,-8.718239e-10,0.0,0.0,0.0
12920000,0,5.4797936e-05,5.0591818e-05,-9.01358e-10,0.0,0.0,0.0
12928000,0,5.479795e-05,5.059181e-05,-9.16125e-10,0.0,0.0,0.0
12940000,0,5.4797973e-05,5.0591796e-05,-9.382756e-10,0.0,0.0,0.0
12948000,0,5.4797987e-05,5.059179e-05,-9.530426e-10,0.0,0.0,0.0
12960000,0,5.479801e-05,5.0591774e-05,-9.751931e-10,0.0,0.0,0.0
12968000,0,5.4798027e-05,5.0591767e-05,-9.899602e-10,0.0,0.0,0.0
12980000,0,5.479805e-05,5.0591752e-05,-1.0121107e-09,0.0,0.0,0.0
12988000,0,5.4798064e-05,5.0591745e-05,-1.0268777e-09,0.0,0.0,0.0
13000000,0,5.4798085e-05,5.059173e-05,-1.0490283e-09,0.0,0.0,0.0
13008000,0,5.47981e-05,5.059172e-05,-1.0637953e-09,0.0,0.0,0.0
13020000,0,5.479812e-05,5.059171e-05,-1.0859458e-09,0.0,0.0,0.0
13028000,0,5.4798136e-05,5.0591698e-05,-1.1007127e-09,0.0,0.0,0.0
13040000,0,5.4798158e-05,5.0591687e-05,-1.1228634e-09,0.0,0.0,0.0
13044000,0,5.4798165e-05,5.059168e-05,-1.1302468e-09,0.0,0.0,0.0
13056000,0,5.4798187e-05,5.059167e-05,-1.1523974e-09,0.0,0.0,0.0
13068000,0,5.4798213e-05,5.0591654e-05,-1.1745478e-09,0.0,0.0,0.0
13080000,0,5.4798234e-05,5.059164e-05,-1.1966983e-09,0.0,0.0,0.0
13088000,0,5.479825e-05,5.0591632e-05,-1.2114653e-09,0.0,0.0,0.0
13100000,0,5.479827e-05,5.0591618e-05,-1.2336158e-09,0.0,0.0,0.0
13108000,0,5.4798285e-05,5.059161e-05,-1.2483827e-09,0.0,0.0,0.0
13120000,0,5.4798307e-05,5.0591596e-05,-1.2705332e-09,0.0,0.0,0.0
13128000,0,5.479832e-05,5.059159e-05,-1.2853001e-09,0.0,0.0,0.0
13140000,0,5.4798344e-05,5.0591574e-05,-1.3074506e-09,0.0,0.0,0.0
13148000,0,5.479836e-05,5.0591567e-05,-1.3222176e-09,0.0,0.0,0.0
13160000,0,5.4798384e-05,5.0591552e-05,-1.3443681e-09,0.0,0.0,0.0
13168000,0,5.47984e-05,5.0591545e-05,-1.3591349e-09,0.0,0.0,0.0
13180000,0,5.479842e-05,5.059153e-05,-1.3812854e-09,0.0,0.0,0.0
13188000,0,5.4798435e-05,5.059152e-05,-1.3960523e-09,0.0,0.0,0.0
13200000,0,5.4798456e-05,5.059151e-05,-1.4182028e-09,0.0,0.0,0.0
13204000,0,5.4798464e-05,5.0591505e-05,-1.4255862e-09,0.0,0.0,0.0
13220000,0,5.4798493e-05,5.0591487e-05,-1.4551201e-09,0.0,0.0,0.0
13228000,0,5.4798507e-05,5.0591476e-05,-1.469887e-09,0.0,0.0,0.0
13240000,0,5.479853e-05,5.0591465e-05,-1.4920375e-09,0.0,0.0,0.0
13248000,0,5.4798547e-05,5.0591454e-05,-1.5068043e-09,0.0,0.0,0.0
13260000,0,5.479857e-05,5.059144e-05,-1.5289547e-09,0.0,0.0,0.0
13268000,0,5.4798584e-05,5.0591432e-05,-1.5437217e-09,0.0,0.0,0.0
13280000,0,5.4798606e-05,5.0591418e-05,-1.5658721e-09,0.0,0.0,0.0
13288000,0,5.479862e-05,5.059141e-05,-1.580639e-09,0.0,0.0,0.0
13300000,0,5.4798642e-05,5.0591396e-05,-1.6027893e-09,0.0,0.0,0.0
13308000,0,5.4798656e-05,5.059139e-05,-1.6175562e-09,0.0,0.0,0.0
13320000,0,5.479868e-05,5.0591374e-05,-1.6397066e-09,0.0,0.0,0.0
