timestamp,timestamp_sample,lat,lon,alt,alt_ellipsoid,delta_alt,delta_terrain,eph,epv,terrain_alt,lat_lon_valid,alt_valid,lat_lon_reset_counter,alt_reset_counter,terrain_reset_counter,terrain_alt_valid,dead_reckoning
5852000,5852000,47.39775088738802,8.545607284497239,488.10397,488.10397,488.10126,488.10126,0.017064326,0.5295466,488.00272,0,1,4,3,3,0,1
5860000,5860000,47.3977508883499,8.545607284744547,488.10403,488.10403,488.10126,488.10126,0.017466977,0.5295632,488.00278,0,1,4,3,3,0,1
5868000,5868000,47.39775088928804,8.54560728498082,488.1041,488.1041,488.10126,488.10126,0.017877216,0.5295803,488.00284,0,1,4,3,3,0,1
5876000,5876000,47.397750890194764,8.545607285257864,488.10416,488.10416,488.10126,488.10126,0.018295081,0.5295978,488.00287,0,1,4,3,3,0,1
5884000,5884000,47.397750891050684,8.54560728556539,488.10422,488.10422,488.10126,488.10126,0.018720731,0.5296159,488.0029,0,1,4,3,3,0,1
5892000,5892000,47.397750891866224,8.54560728587779,488.10428,488.10428,488.10126,488.10126,0.019154407,0.5296344,488.00293,0,1,4,3,3,0,1
5900000,5900000,47.397750892649405,8.54560728619288,488.10434,488.10434,488.10126,488.10126,0.019596398,0.52965343,488.00296,0,1,4,3,3,0,1
5908000,5908000,47.39775089339408,8.545607286416415,488.1044,488.1044,488.10126,488.10126,0.020047044,0.5296729,488.003,0,1,4,3,3,0,1
5916000,5916000,47.39775089409839,8.545607286525536,488.1044,488.1044,488.10126,488.10126,0.0205068,0.5237338,488.0019,0,1,4,3,3,0,1
5924000,5924000,47.397750894766595,8.545607286670771,488.10443,488.10443,488.10126,488.10126,0.020972373,0.5237541,488.00192,0,1,4,3,3,0,1
5932000,5932000,47.39775089543341,8.545607286917678,488.1045,488.1045,488.10126,488.10126,0.021390334,0.523775,488.00195,0,1,4,3,3,0,1
5940000,5940000,47.39775089611296,8.545607287216242,488.10452,488.10452,488.10126,488.10126,0.021874469,0.5237964,488.00198,0,1,4,3,3,0,1
5948000,5948000,47.3977508967972,8.54560728750239,488.10458,488.10458,488.10126,488.10126,0.022369469,0.5238183,488.00204,0,1,4,3,3,0,1
5956000,5956000,47.3977508971261,8.545607287707188,488.10464,488.10464,488.10126,488.10126,0.012029072,0.5238408,488.0021,0,1,4,3,3,0,1
5964000,5964000,47.39775089745754,8.545607287967501,488.1047,488.1047,488.10126,488.10126,0.012306897,0.52386385,488.00217,0,1,4,3,3,0,1
5972000,5972000,47.39775089780599,8.545607288320834,488.10474,488.10474,488.10126,488.10126,0.012602089,0.52388746,488.00223,0,1,4,3,3,0,1
5980000,5980000,47.39775089809768,8.545607288750602,488.1048,488.1048,488.10126,488.10126,0.012915768,0.5239116,488.0023,0,1,4,3,3,0,1
5988000,5988000,47.397750898331395,8.545607289252063,488.1049,488.1049,488.10126,488.10126,0.013248971,0.51816785,488.00342,0,1,4,3,3,0,1
5996000,5996000,47.397750898497456,8.54560728978692,488.105,488.105,488.10126,488.10126,0.013601862,0.51819295,488.00348,0,1,4,3,3,0,1
6004000,6004000,47.39775089862704,8.545607290344595,488.1051,488.1051,488.10126,488.10126,0.013976909,0.5182186,488.00354,0,1,4,3,3,0,1
6012000,6012000,47.39775089872589,8.54560729098967,488.1052,488.1052,488.10126,488.10126,0.01415101,0.5181795,488.0036,0,1,4,3,3,0,1
6020000,6020000,47.39775089878998,8.545607291667773,488.1053,488.1053,488.10126,488.10126,0.014546935,0.5182039,488.00342,0,1,4,3,3,0,1
6028000,6028000,47.39775089882048,8.545607292345439,488.1054,488.1054,488.10126,488.10126,0.014965556,0.51822895,488.00348,0,1,4,3,3,0,1
6036000,6036000,47.39775089882893,8.545607293095772,488.1055,488.1055,488.10126,488.10126,0.015407549,0.5182545,488.00354,0,1,4,3,3,0,1
6044000,6044000,47.39775089882423,8.545607293937527,488.1056,488.1056,488.10126,488.10126,0.015873563,0.5182807,488.00357,0,1,4,3,3,0,1
6052000,6052000,47.39775089881917,8.545607294832523,488.10568,488.10568,488.10126,488.10126,0.016364228,0.5183075,488.00363,0,1,4,3,3,0,1
6060000,6060000,47.39775089882116,8.545607295733463,488.10577,488.10577,488.10126,488.10126,0.01667864,0.45625526,488.003,1,1,4,3,3,0,0
6068000,6068000,47.39775089879605,8.545607296656796,488.10583,488.10583,488.10126,488.10126,0.017200856,0.4562795,488.00305,1,1,4,3,3,0,0
6076000,6076000,47.39775089872445,8.545607297629633,488.1059,488.1059,488.10126,488.10126,0.017749859,0.45630434,488.0031,1,1,4,3,3,0,0
6084000,6084000,47.39775089864933,8.54560729869313,488.106,488.106,488.10126,488.10126,0.018324764,0.45632985,488.00317,1,1,4,3,3,0,0
6092000,6092000,47.39775089858141,8.545607299770957,488.10605,488.10605,488.10126,488.10126,0.018925875,0.45635608,488.00323,1,1,4,3,3,0,0
6100000,6100000,47.397750898468956,8.545607300800107,488.1061,488.1061,488.10126,488.10126,0.019553512,0.45638293,488.00333,1,1,4,3,3,0,0
6108000,6108000,47.397750898339964,8.545607301774158,488.1062,488.1062,488.10126,488.10126,0.020207873,0.4564105,488.00342,1,1,4,3,3,0,0
6116000,6116000,47.39775089817083,8.54560730276652,488.10626,488.10626,488.10126,488.10126,0.020889064,0.45261025,488.0031,1,1,4,3,3,0,0
6124000,6124000,47.39775089798203,8.545607303849897,488.10632,488.10632,488.10126,488.10126,0.02159725,0.45263898,488.0032,1,1,4,3,3,0,0
6132000,6132000,47.39775089776067,8.545607304943891,488.10638,488.10638,488.10126,488.10126,0.022262191,0.4526684,488.0033,1,1,4,3,3,0,0
6140000,6140000,47.39775089755629,8.545607306072274,488.10645,488.10645,488.10126,488.10126,0.02301838,0.45269856,488.0034,1,1,4,3,3,0,0
6148000,6148000,47.39775089737665,8.545607307183305,488.1065,488.1065,488.10126,488.10126,0.02380383,0.45272943,488.00348,1,1,4,3,3,0,0
6156000,6156000,47.39775089721571,8.545607308318193,488.10657,488.10657,488.10126,488.10126,0.024616482,0.45276105,488.00357,1,1,4,3,3,0,0
6164000,6164000,47.397750897024224,8.545607309431846,488.10663,488.10663,488.10126,488.10126,0.025456313,0.45279342,488.00366,1,1,4,3,3,0,0
6172000,6172000,47.397750896790136,8.545607310528998,488.10672,488.10672,488.10126,488.10126,0.02632328,0.45282656,488.00375,1,1,4,3,3,0,0
6180000,6180000,47.39775089656163,8.545607311617978,488.10675,488.10675,488.10126,488.10126,0.027217364,0.4491209,488.00253,1,1,4,3,3,0,0
6188000,6188000,47.3977508963381,8.545607312720165,488.10678,488.10678,488.10126,488.10126,0.028138453,0.4491553,488.00262,1,1,4,3,3,0,0
6196000,6196000,47.3977508960992,8.545607313848,488.10684,488.10684,488.10126,488.10126,0.02908654,0.44919047,488.00272,1,1,4,3,3,0,0
6204000,6204000,47.39775089584097,8.545607315049885,488.10687,488.10687,488.10126,488.10126,0.030061496,0.44922647,488.0028,1,1,4,3,3,0,0
6212000,6212000,47.39775089556839,8.54560731632871,488.1069,488.1069,488.10126,488.10126,0.031059999,0.44926324,488.0029,1,1,4,3,3,0,0
6220000,6220000,47.397750895293576,8.545607317574703,488.10693,488.10693,488.10126,488.10126,0.032088336,0.44930086,488.003,1,1,4,3,3,0,0
6228000,6228000,47.397750895037,8.545607318841613,488.107,488.107,488.10126,488.10126,0.03314335,0.4493393,488.00308,1,1,4,3,3,0,0
6236000,6236000,47.39775089480378,8.545607320161118,488.10706,488.10706,488.10126,488.10126,0.034224972,0.44937858,488.00317,1,1,4,3,3,0,0
6244000,6244000,47.39775089456661,8.545607321528045,488.10712,488.10712,488.10126,488.10126,0.035333242,0.4494187,488.00327,1,1,4,3,3,0,0
6252000,6252000,47.39775089431219,8.54560732291805,488.10715,488.10715,488.10126,488.10126,0.03646797,0.44580337,488.00284,1,1,4,3,3,0,0
6260000,6260000,47.39775089407834,8.545607324339404,488.1072,488.1072,488.10126,488.10126,0.0376291,0.4458449,488.00293,1,1,4,3,3,0,0
6268000,6268000,47.39775089387189,8.545607325799176,488.10727,488.10727,488.10126,488.10126,0.038816575,0.44588727,488.00302,1,1,4,3,3,0,0
6276000,6276000,47.39775089365453,8.545607327311686,488.1073,488.1073,488.10126,488.10126,0.040030323,0.44593054,488.0031,1,1,4,3,3,0,0
6284000,6284000,47.39775089340996,8.54560732891699,488.10736,488.10736,488.10126,488.10126,0.041266188,0.44597474,488.0032,1,1,4,3,3,0,0
6292000,6292000,47.39775089314173,8.545607330556493,488.10742,488.10742,488.10126,488.10126,0.04253198,0.4460198,488.0033,1,1,4,3,3,0,0
6300000,6300000,47.39775089286649,8.54560733218183,488.10748,488.10748,488.10126,488.10126,0.043823782,0.4460658,488.0034,1,1,4,3,3,0,0
6308000,6308000,47.39775089259148,8.54560733379908,488.10754,488.10754,488.10126,488.10126,0.045141596,0.44611272,488.00348,1,1,4,3,3,0,0
6316000,6316000,47.39775089229332,8.545607335447196,488.1076,488.1076,488.10126,488.10126,0.046485383,0.44616058,488.00357,1,1,4,3,3,0,0
6324000,6324000,47.39775089198733,8.545607337126375,488.1077,488.1077,488.10126,488.10126,0.04785505,0.4426316,488.00464,1,1,4,3,3,0,0
6332000,6332000,47.39775089184796,8.545607339014133,488.1078,488.1078,488.10126,488.10126,0.049113568,0.44268095,488.00473,1,1,4,3,3,0,0
6340000,6340000,47.39775089175516,8.545607340951419,488.10788,488.10788,488.10126,488.10126,0.050531585,0.44273132,488.00482,1,1,4,3,3,0,0
6348000,6348000,47.39775089172766,8.545607342835602,488.108,488.108,488.10126,488.10126,0.051975258,0.44278267,488.0049,1,1,4,3,3,0,0
6356000,6356000,47.39775089174578,8.5456073446841,488.1081,488.1081,488.10126,488.10126,0.053439606,0.442835,488.005,1,1,4,3,3,0,0
6364000,6364000,47.39775089177674,8.545607346549456,488.10822,488.10822,488.10126,488.10126,0.05493404,0.44288832,488.0051,1,1,4,3,3,0,0
6372000,6372000,47.39775089183249,8.54560734843358,488.1083,488.1083,488.10126,488.10126,0.056453984,0.44294265,488.0052,1,1,4,3,3,0,0
6380000,6380000,47.39775089190013,8.545607350424202,488.10843,488.10843,488.10126,488.10126,0.057999443,0.44299802,488.00528,1,1,4,3,3,0,0
6388000,6388000,47.397750891923764,8.545607352532633,488.10852,488.10852,488.10126,488.10126,0.059570495,0.44305444,488.0054,1,1,4,3,3,0,0
6396000,6396000,47.39775089194778,8.545607354679605,488.10864,488.10864,488.10126,488.10126,0.061167017,0.43960783,488.00565,1,1,4,3,3,0,0
6404000,6404000,47.39775089201165,8.545607356887114,488.10873,488.10873,488.10126,488.10126,0.06278883,0.43966588,488.00577,1,1,4,3,3,0,0
6412000,6412000,47.397750892073354,8.545607359105132,488.10886,488.10886,488.10126,488.10126,0.06443591,0.439725,488.0059,1,1,4,3,3,0,0
6420000,6420000,47.39775089214627,8.54560736130798,488.10898,488.10898,488.10126,488.10126,0.06610822,0.4397852,488.006,1,1,4,3,3,0,0
6428000,6428000,47.397750892218795,8.545607363616488,488.1091,488.1091,488.10126,488.10126,0.06780024,0.4398465,488.00613,1,1,4,3,3,0,0
6436000,6436000,47.39775089224564,8.5456073659935,488.10922,488.10922,488.10126,488.10126,0.06952264,0.4399089,488.00626,1,1,4,3,3,0,0
6444000,6444000,47.397750892229695,8.545607368374535,488.10934,488.10934,488.10126,488.10126,0.07127014,0.4399724,488.00638,1,1,4,3,3,0,0
6452000,6452000,47.397750892225204,8.545607370778324,488.10947,488.10947,488.10126,488.10126,0.073042825,0.44003704,488.0065,1,1,4,3,3,0,0
6460000,6460000,47.39775089222502,8.545607373292603,488.10962,488.10962,488.10126,488.10126,0.074840635,0.44010282,488.00662,1,1,4,3,3,0,0
6468000,6468000,47.39775089210443,8.5456073753196,488.1097,488.1097,488.10126,488.10126,0.067424305,0.40017354,488.0063,1,1,4,3,3,0,0
6476000,6476000,47.397750891967405,8.545607377332367,488.10983,488.10983,488.10126,488.10126,0.069016814,0.40023366,488.0064,1,1,4,3,3,0,0
6484000,6484000,47.397750891821616,8.545607379301362,488.10995,488.10995,488.10126,488.10126,0.07063142,0.400295,488.00653,1,1,4,3,3,0,0
6492000,6492000,47.397750891640655,8.545607381248344,488.11005,488.11005,488.10126,488.10126,0.07226808,0.4003575,488.00665,1,1,4,3,3,0,0
6500000,6500000,47.39775089148587,8.545607383157444,488.11017,488.11017,488.10126,488.10126,0.073922805,0.40042123,488.00677,1,1,4,3,3,0,0
6508000,6508000,47.397750891342284,8.545607385083276,488.1103,488.1103,488.10126,488.10126,0.075603664,0.40048623,488.0069,1,1,4,3,3,0,0
6516000,6516000,47.397750891171654,8.545607387004834,488.1104,488.1104,488.10126,488.10126,0.07730649,0.40055245,488.00702,1,1,4,3,3,0,0
6524000,6524000,47.39775089101032,8.545607388909136,488.11053,488.11053,488.10126,488.10126,0.07903124,0.40061992,488.00714,1,1,4,3,3,0,0
6532000,6532000,47.39775089088501,8.545607391045642,488.11066,488.11066,488.10126,488.10126,0.080642916,0.4006887,488.00726,1,1,4,3,3,0,0
6540000,6540000,47.39775089076892,8.545607393208245,488.11078,488.11078,488.10126,488.10126,0.08240929,0.39816135,488.00763,1,1,4,3,3,0,0
6548000,6548000,47.39775089064418,8.545607395360252,488.11093,488.11093,488.10126,488.10126,0.08419745,0.39823222,488.00775,1,1,4,3,3,0,0
6556000,6556000,47.39775089050004,8.545607397547375,488.11108,488.11108,488.10126,488.10126,0.086007394,0.3983044,488.00787,1,1,4,3,3,0,0
6564000,6564000,47.39775089035915,8.545607399762995,488.1112,488.1112,488.10126,488.10126,0.087839246,0.39837793,488.008,1,1,4,3,3,0,0
6572000,6572000,47.3977508902487,8.545607402000561,488.11136,488.11136,488.10126,488.10126,0.08968849,0.3984528,488.00815,1,1,4,3,3,0,0
6580000,6580000,47.39775089017814,8.545607404236712,488.1115,488.1115,488.10126,488.10126,0.091563985,0.39852896,488.0083,1,1,4,3,3,0,0
6588000,6588000,47.39775089013279,8.545607406448969,488.11166,488.11166,488.10126,488.10126,0.09346119,0.3986065,488.00845,1,1,4,3,3,0,0
6596000,6596000,47.397750890094855,8.545607408653828,488.11182,488.11182,488.10126,488.10126,0.09538016,0.39868543,488.0086,1,1,4,3,3,0,0
6604000,6604000,47.39775089007957,8.5456074108778,488.11197,488.11197,488.10126,488.10126,0.09732092,0.39876574,488.00876,1,1,4,3,3,0,0
6612000,6612000,47.397750890114054,8.545607413113398,488.11212,488.11212,488.10126,488.10126,0.09928351,0.39628705,488.0091,1,1,4,3,3,0,0
6620000,6620000,47.39775089017073,8.545607415346817,488.11227,488.11227,488.10126,488.10126,0.10126781,0.39636964,488.00925,1,1,4,3,3,0,0
6628000,6628000,47.39775089020796,8.545607417648954,488.11243,488.11243,488.10126,488.10126,0.103273645,0.39645362,488.0094,1,1,4,3,3,0,0
6636000,6636000,47.39775089023474,8.545607419993889,488.11258,488.11258,488.10126,488.10126,0.10530113,0.39653906,488.00955,1,1,4,3,3,0,0
6644000,6644000,47.39775089024516,8.545607422370804,488.11273,488.11273,488.10126,488.10126,0.10734529,0.39662597,488.0097,1,1,4,3,3,0,0
6652000,6652000,47.39775089025893,8.545607424813966,488.11285,488.11285,488.10126,488.10126,0.109416164,0.39671433,488.00986,1,1,4,3,3,0,0
6660000,6660000,47.397750890306796,8.545607427274073,488.113,488.113,488.10126,488.10126,0.111508735,0.39680415,488.01,1,1,4,3,3,0,0
6668000,6668000,47.397750890359866,8.545607429719444,488.11313,488.11313,488.10126,488.10126,0.11362293,0.39437246,488.00955,1,1,4,3,3,0,0
6676000,6676000,47.39775089042986,8.545607432207253,488.11325,488.11325,488.10126,488.10126,0.11575884,0.3944647,488.0097,1,1,4,3,3,0,0
6684000,6684000,47.397750890503644,8.545607434664337,488.11337,488.11337,488.10126,488.10126,0.11791654,0.39455846,488.00986,1,1,4,3,3,0,0
6692000,6692000,47.39775089059534,8.545607437042577,488.1135,488.1135,488.10126,488.10126,0.1200959,0.39465377,488.01,1,1,4,3,3,0,0
6700000,6700000,47.39775089072388,8.545607439395125,488.11362,488.11362,488.10126,488.10126,0.12229696,0.3947506,488.01016,1,1,4,3,3,0,0
6708000,6708000,47.397750890884105,8.545607441750823,488.11374,488.11374,488.10126,488.10126,0.12451973,0.394849,488.0103,1,1,4,3,3,0,0
6716000,6716000,47.397750891061584,8.545607444090138,488.11386,488.11386,488.10126,488.10126,0.12675853,0.39494896,488.01047,1,1,4,3,3,0,0
6724000,6724000,47.39775089121398,8.54560744643394,488.11398,488.11398,488.10126,488.10126,0.1290245,0.39505053,488.01062,1,1,4,3,3,0,0
6732000,6732000,47.397750891437894,8.545607448919895,488.1141,488.1141,488.10126,488.10126,0.13114871,0.39266372,488.01093,1,1,4,3,3,0,0
6740000,6740000,47.397750891620504,8.545607451349937,488.11426,488.11426,488.10126,488.10126,0.13345581,0.39276782,488.01108,1,1,4,3,3,0,0
6748000,6748000,47.3977508917545,8.545607453720757,488.1144,488.1144,488.10126,488.10126,0.13578448,0.39287356,488.01123,1,1,4,3,3,0,0
6756000,6756000,47.39775089184882,8.545607456033865,488.11456,488.11456,488.10126,488.10126,0.1381347,0.39298093,488.01138,1,1,4,3,3,0,0
6764000,6764000,47.3977508919453,8.54560745826835,488.1147,488.1147,488.10126,488.10126,0.1405066,0.39308998,488.01154,1,1,4,3,3,0,0
6772000,6772000,47.39775089204687,8.5456074604009,488.11484,488.11484,488.10126,488.10126,0.14290006,0.39320067,488.0117,1,1,4,3,3,0,0
6780000,6780000,47.3977508921499,8.545607462532153,488.11502,488.11502,488.10126,488.10126,0.1453151,0.39331302,488.01184,1,1,4,3,3,0,0
6788000,6788000,47.39775089222972,8.545607464607576,488.11517,488.11517,488.10126,488.10126,0.14774546,0.39342707,488.012,1,1,4,3,3,0,0
6796000,6796000,47.39775089228073,8.5456074666635,488.11533,488.11533,488.10126,488.10126,0.15020324,0.39354286,488.01215,1,1,4,3,3,0,0
6804000,6804000,47.39775089233451,8.545607468758144,488.11548,488.11548,488.10126,488.10126,0.15268254,0.3911986,488.01196,1,1,4,3,3,0,0
6812000,6812000,47.39775089241013,8.545607470859899,488.1156,488.1156,488.10126,488.10126,0.15518346,0.39131707,488.01212,1,1,4,3,3,0,0
6820000,6820000,47.39775089249756,8.545607472960377,488.11575,488.11575,488.10126,488.10126,0.15770593,0.39143732,488.01227,1,1,4,3,3,0,0
6828000,6828000,47.397750892626675,8.545607475151355,488.1159,488.1159,488.10126,488.10126,0.16024992,0.39155933,488.01242,1,1,4,3,3,0,0
6836000,6836000,47.39775089279609,8.545607477388796,488.11606,488.11606,488.10126,488.10126,0.16281538,0.39168313,488.01254,1,1,4,3,3,0,0
6844000,6844000,47.39775089300461,8.545607479632991,488.1162,488.1162,488.10126,488.10126,0.16540231,0.3918087,488.01266,1,1,4,3,3,0,0
6852000,6852000,47.397750893207686,8.545607481826767,488.11636,488.11636,488.10126,488.10126,0.16801089,0.39193606,488.0128,1,1,4,3,3,0,0
6860000,6860000,47.397750892913805,8.545607481983357,488.1164,488.1164,488.10126,488.10126,0.13432601,0.364815,488.0097,1,1,4,3,3,0,0
6868000,6868000,47.39775089263807,8.545607482132164,488.11646,488.11646,488.10126,488.10126,0.13637605,0.364932,488.00983,1,1,4,3,3,0,0
6876000,6876000,47.39775089235802,8.545607482286536,488.1165,488.1165,488.10126,488.10126,0.13844317,0.36308533,488.00912,1,1,4,3,3,0,0
6884000,6884000,47.39775089206741,8.545607482422875,488.11652,488.11652,488.10126,488.10126,0.14052734,0.36320537,488.00928,1,1,4,3,3,0,0
6892000,6892000,47.39775089176946,8.545607482551983,488.11655,488.11655,488.10126,488.10126,0.1426286,0.3633273,488.00943,1,1,4,3,3,0,0
6900000,6900000,47.39775089148982,8.545607482688462,488.11658,488.11658,488.10126,488.10126,0.14474688,0.3634511,488.00958,1,1,4,3,3,0,0
6908000,6908000,47.397750891249814,8.545607482886311,488.1166,488.1166,488.10126,488.10126,0.14688219,0.3635768,488.00974,1,1,4,3,3,0,0
6916000,6916000,47.39775089104938,8.5456074831107,488.11664,488.11664,488.10126,488.10126,0.14903454,0.36370444,488.0099,1,1,4,3,3,0,0
6924000,6924000,47.39775089087582,8.545607483341323,488.11667,488.11667,488.10126,488.10126,0.15120398,0.363834,488.01004,1,1,4,3,3,0,0
6932000,6932000,47.39775089067905,8.545607483403787,488.1167,488.1167,488.10126,488.10126,0.15328386,0.3639655,488.0102,1,1,4,3,3,0,0
6940000,6940000,47.397750890443696,8.545607483563193,488.11676,488.11676,488.10126,488.10126,0.1554864,0.36409897,488.01035,1,1,4,3,3,0,0
6948000,6948000,47.39775089017875,8.545607483758266,488.1168,488.1168,488.10126,488.10126,0.15770589,0.36228222,488.01062,1,1,4,3,3,0,0
6956000,6956000,47.397750889899484,8.545607483931455,488.11685,488.11685,488.10126,488.10126,0.15994236,0.36241895,488.01077,1,1,4,3,3,0,0
6964000,6964000,47.397750889586916,8.54560748404494,488.1169,488.1169,488.10126,488.10126,0.16219586,0.36255768,488.01093,1,1,4,3,3,0,0
6972000,6972000,47.397750889276075,8.54560748414795,488.11694,488.11694,488.10126,488.10126,0.16446637,0.36269844,488.01108,1,1,4,3,3,0,0
6980000,6980000,47.397750888944365,8.545607484225172,488.117,488.117,488.10126,488.10126,0.16675387,0.36284122,488.01123,1,1,4,3,3,0,0
6988000,6988000,47.397750888603845,8.54560748435921,488.11707,488.11707,488.10126,488.10126,0.16905844,0.36298606,488.01138,1,1,4,3,3,0,0
6996000,6996000,47.39775088825806,8.545607484541854,488.11713,488.11713,488.10126,488.10126,0.17137635,0.36313295,488.01154,1,1,4,3,3,0,0
7004000,7004000,47.39775088787,8.545607484738328,488.1172,488.1172,488.10126,488.10126,0.17371492,0.36328194,488.0117,1,1,4,3,3,0,0
7012000,7012000,47.39775088750319,8.545607484921316,488.11725,488.11725,488.10126,488.10126,0.17607057,0.36343303,488.01184,1,1,4,3,3,0,0
7020000,7020000,47.397750887166914,8.5456074851042,488.1173,488.1173,488.10126,488.10126,0.17844316,0.36164454,488.01175,1,1,4,3,3,0,0
7028000,7028000,47.39775088685516,8.545607485351288,488.11737,488.11737,488.10126,488.10126,0.18083282,0.36179903,488.0119,1,1,4,3,3,0,0
7036000,7036000,47.39775088655164,8.54560748558911,488.11743,488.11743,488.10126,488.10126,0.18323947,0.36195567,488.01205,1,1,4,3,3,0,0
7044000,7044000,47.39775088625513,8.545607485823224,488.11752,488.11752,488.10126,488.10126,0.18566315,0.36211446,488.0122,1,1,4,3,3,0,0
7052000,7052000,47.397750885985886,8.545607486090551,488.11758,488.11758,488.10126,488.10126,0.1881038,0.36227542,488.01236,1,1,4,3,3,0,0
7060000,7060000,47.39775088573203,8.545607486382838,488.11765,488.11765,488.10126,488.10126,0.19056141,0.3624386,488.0125,1,1,4,3,3,0,0
7068000,7068000,47.39775088547099,8.545607486688105,488.11774,488.11774,488.10126,488.10126,0.19303201,0.36260393,488.01266,1,1,4,3,3,0,0
7076000,7076000,47.39775088521475,8.545607486992235,488.11783,488.11783,488.10126,488.10126,0.19552365,0.3627715,488.01282,1,1,4,3,3,0,0
7084000,7084000,47.39775088495353,8.545607487284414,488.11792,488.11792,488.10126,488.10126,0.19803236,0.3629413,488.01297,1,1,4,3,3,0,0
7092000,7092000,47.39775088469235,8.54560748763216,488.118,488.118,488.10126,488.10126,0.20055805,0.36117935,488.01392,1,1,4,3,3,0,0
7100000,7100000,47.39775088443514,8.545607488032246,488.11813,488.11813,488.10126,488.10126,0.20310067,0.36135274,488.01407,1,1,4,3,3,0,0
7108000,7108000,47.397750884170286,8.545607488408473,488.11826,488.11826,488.10126,488.10126,0.20566025,0.3615284,488.01422,1,1,4,3,3,0,0
7116000,7116000,47.39775088387429,8.54560748879106,488.1184,488.1184,488.10126,488.10126,0.20823686,0.36170635,488.01437,1,1,4,3,3,0,0
7124000,7124000,47.39775088354853,8.54560748919271,488.11853,488.11853,488.10126,488.10126,0.2108305,0.3618866,488.01453,1,1,4,3,3,0,0
7132000,7132000,47.39775088311162,8.545607489230196,488.11865,488.11865,488.10126,488.10126,0.21332678,0.36206916,488.01468,1,1,4,3,3,0,0
7140000,7140000,47.39775088267125,8.54560748926557,488.11877,488.11877,488.10126,488.10126,0.215949,0.36225408,488.01483,1,1,4,3,3,0,0
7148000,7148000,47.39775088218449,8.545607489299897,488.11893,488.11893,488.10126,488.10126,0.21859233,0.36244133,488.01498,1,1,4,3,3,0,0
7156000,7156000,47.397750881646715,8.545607489351148,488.11908,488.11908,488.10126,488.10126,0.22125277,0.36263096,488.01514,1,1,4,3,3,0,0
7164000,7164000,47.39775088109506,8.545607489394785,488.1192,488.1192,488.10126,488.10126,0.22393024,0.3608938,488.01486,1,1,4,3,3,0,0
7172000,7172000,47.39775088056125,8.545607489432335,488.11935,488.11935,488.10126,488.10126,0.22662471,0.3610871,488.015,1,1,4,3,3,0,0
7180000,7180000,47.39775088001537,8.54560748944359,488.11948,488.11948,488.10126,488.10126,0.2293362,0.36128289,488.01517,1,1,4,3,3,0,0
7188000,7188000,47.39775087945827,8.545607489408434,488.11963,488.11963,488.10126,488.10126,0.23206478,0.3614811,488.01532,1,1,4,3,3,0,0
7196000,7196000,47.39775087888982,8.545607489398204,488.11975,488.11975,488.10126,488.10126,0.23481032,0.36168173,488.01547,1,1,4,3,3,0,0
7204000,7204000,47.39775087829513,8.545607489450415,488.1199,488.1199,488.10126,488.10126,0.23757297,0.3618848,488.01562,1,1,4,3,3,0,0
7212000,7212000,47.397750877701846,8.54560748954248,488.12003,488.12003,488.10126,488.10126,0.24034806,0.36209035,488.01578,1,1,4,3,3,0,0
7220000,7220000,47.397750877085876,8.545607489577094,488.12018,488.12018,488.10126,488.10126,0.24314478,0.3622984,488.01593,1,1,4,3,3,0,0
7228000,7228000,47.39775087643225,8.54560748957883,488.1203,488.1203,488.10126,488.10126,0.2459585,0.36250892,488.01608,1,1,4,3,3,0,0
7236000,7236000,47.39775087577462,8.545607489642427,488.12042,488.12042,488.10126,488.10126,0.24878934,0.36079457,488.01587,1,1,4,3,3,0,0
7244000,7244000,47.39775087512664,8.545607489747603,488.1205,488.1205,488.10126,488.10126,0.25163722,0.361009,488.01602,1,1,4,3,3,0,0
7252000,7252000,47.397750874464876,8.545607489895726,488.12064,488.12064,488.10126,488.10126,0.2545022,0.361226,488.01617,1,1,4,3,3,0,0
7260000,7260000,47.397750873510304,8.54560748860755,488.12064,488.12064,488.10126,488.10126,0.1946415,0.33938634,488.01288,1,1,4,3,3,0,0
7268000,7268000,47.3977508726195,8.54560748736062,488.12064,488.12064,488.10126,488.10126,0.19679235,0.33958414,488.013,1,1,4,3,3,0,0
7276000,7276000,47.397750871826226,8.545607486103734,488.12064,488.12064,488.10126,488.10126,0.19895403,0.33978444,488.01312,1,1,4,3,3,0,0
7284000,7284000,47.39775087105403,8.545607484947249,488.12064,488.12064,488.10126,488.10126,0.20113072,0.3399873,488.01324,1,1,4,3,3,0,0
7292000,7292000,47.39775087027729,8.545607483899778,488.12064,488.12064,488.10126,488.10126,0.20332034,0.34019276,488.0134,1,1,4,3,3,0,0
7300000,7300000,47.39775086947901,8.545607482909412,488.12067,488.12067,488.10126,488.10126,0.20552295,0.3404008,488.01355,1,1,4,3,3,0,0
7308000,7308000,47.397750868667934,8.545607481914868,488.12067,488.12067,488.10126,488.10126,0.20773853,0.33901405,488.01398,1,1,4,3,3,0,0
7316000,7316000,47.397750867869,8.545607480965185,488.1207,488.1207,488.10126,488.10126,0.20996708,0.33922628,488.01413,1,1,4,3,3,0,0
7324000,7324000,47.39775086704207,8.54560748000489,488.1207,488.1207,488.10126,488.10126,0.21220863,0.33944115,488.01428,1,1,4,3,3,0,0
7332000,7332000,47.397750866329915,8.545607478522044,488.1207,488.1207,488.10126,488.10126,0.21440275,0.33965868,488.01443,1,1,4,3,3,0,0
7340000,7340000,47.397750865655986,8.545607477051853,488.12073,488.12073,488.10126,488.10126,0.21666974,0.33987883,488.0146,1,1,4,3,3,0,0
7348000,7348000,47.39775086496642,8.545607475629796,488.12073,488.12073,488.10126,488.10126,0.21894747,0.3401017,488.01474,1,1,4,3,3,0,0
7356000,7356000,47.39775086423041,8.54560747426256,488.12076,488.12076,488.10126,488.10126,0.22124025,0.3403272,488.0149,1,1,4,3,3,0,0
7364000,7364000,47.39775086346023,8.545607472943528,488.1208,488.1208,488.10126,488.10126,0.22354598,0.34055546,488.01505,1,1,4,3,3,0,0
7372000,7372000,47.39775086267668,8.545607471635272,488.1208,488.1208,488.10126,488.10126,0.2258646,0.3407864,488.0152,1,1,4,3,3,0,0
7380000,7380000,47.39775086183962,8.545607470425082,488.12082,488.12082,488.10126,488.10126,0.22819616,0.33941716,488.01538,1,1,4,3,3,0,0
7388000,7388000,47.39775086093992,8.5456074692287,488.12085,488.12085,488.10126,488.10126,0.2305406,0.33965248,488.0155,1,1,4,3,3,0,0
7396000,7396000,47.3977508599889,8.545607468028667,488.12088,488.12088,488.10126,488.10126,0.2328979,0.33989057,488.01562,1,1,4,3,3,0,0
7404000,7404000,47.39775085902813,8.545607466811763,488.1209,488.1209,488.10126,488.10126,0.23526812,0.34013143,488.01575,1,1,4,3,3,0,0
7412000,7412000,47.397750858056305,8.545607465573264,488.12097,488.12097,488.10126,488.10126,0.23764892,0.3403751,488.01587,1,1,4,3,3,0,0
7420000,7420000,47.39775085706771,8.545607464369605,488.12103,488.12103,488.10126,488.10126,0.24004503,0.34062156,488.016,1,1,4,3,3,0,0
7428000,7428000,47.39775085606489,8.545607463165355,488.1211,488.1211,488.10126,488.10126,0.24245419,0.34087086,488.0161,1,1,4,3,3,0,0
7436000,7436000,47.397750855079146,8.545607461951914,488.12112,488.12112,488.10126,488.10126,0.24487634,0.3395187,488.01578,1,1,4,3,3,0,0
7444000,7444000,47.3977508541053,8.545607460813535,488.1212,488.1212,488.10126,488.10126,0.24731144,0.33977246,488.0159,1,1,4,3,3,0,0
7452000,7452000,47.39775085313667,8.545607459698061,488.12125,488.12125,488.10126,488.10126,0.24975953,0.34002912,488.01602,1,1,4,3,3,0,0
7460000,7460000,47.39775085221128,8.545607458661063,488.1213,488.1213,488.10126,488.10126,0.2522206,0.34028864,488.01614,1,1,4,3,3,0,0
7468000,7468000,47.39775085129426,8.545607457715189,488.12134,488.12134,488.10126,488.10126,0.2546946,0.34055105,488.01627,1,1,4,3,3,0,0
7476000,7476000,47.3977508503041,8.545607456773691,488.1214,488.1214,488.10126,488.10126,0.25718153,0.34081635,488.0164,1,1,4,3,3,0,0
7484000,7484000,47.397750849265336,8.545607455842513,488.12146,488.12146,488.10126,488.10126,0.25967875,0.3410846,488.0165,1,1,4,3,3,0,0
7492000,7492000,47.397750848222735,8.545607454979416,488.12152,488.12152,488.10126,488.10126,0.26219168,0.34135577,488.01663,1,1,4,3,3,0,0
7500000,7500000,47.39775084716959,8.54560745413597,488.12158,488.12158,488.10126,488.10126,0.26471764,0.34001863,488.01624,1,1,4,3,3,0,0
7508000,7508000,47.39775084611556,8.545607453339041,488.1216,488.1216,488.10126,488.10126,0.26725665,0.34029442,488.01636,1,1,4,3,3,0,0
7516000,7516000,47.39775084505171,8.545607452640379,488.12167,488.12167,488.10126,488.10126,0.26980862,0.3405732,488.01648,1,1,4,3,3,0,0
7524000,7524000,47.397750843998175,8.545607452014803,488.1217,488.1217,488.10126,488.10126,0.27237356,0.34085494,488.0166,1,1,4,3,3,0,0
7532000,7532000,47.39775084315296,8.545607451231888,488.12177,488.12177,488.10126,488.10126,0.27488646,0.3411397,488.01672,1,1,4,3,3,0,0
7540000,7540000,47.39775084229499,8.545607450537746,488.12183,488.12183,488.10126,488.10126,0.27747667,0.3414275,488.01685,1,1,4,3,3,0,0
7548000,7548000,47.39775084142705,8.54560744988005,488.1219,488.1219,488.10126,488.10126,0.2800799,0.34171832,488.01697,1,1,4,3,3,0,0
7556000,7556000,47.39775084057265,8.545607449354016,488.12195,488.12195,488.10126,488.10126,0.28269345,0.3420122,488.0171,1,1,4,3,3,0,0
7564000,7564000,47.39775083972035,8.545607448877362,488.122,488.122,488.10126,488.10126,0.28532293,0.34230912,488.0172,1,1,4,3,3,0,0
7572000,7572000,47.397750838824884,8.545607448459315,488.12204,488.12204,488.10126,488.10126,0.28796548,0.3409842,488.017,1,1,4,3,3,0,0
7580000,7580000,47.397750837846274,8.54560744806484,488.1221,488.1221,488.10126,488.10126,0.29062104,0.34128585,488.01715,1,1,4,3,3,0,0
7588000,7588000,47.39775083680278,8.545607447709024,488.12216,488.12216,488.10126,488.10126,0.29328972,0.3415906,488.0173,1,1,4,3,3,0,0
7596000,7596000,47.397750835732964,8.54560744737376,488.12222,488.12222,488.10126,488.10126,0.29597148,0.34189847,488.01746,1,1,4,3,3,0,0
7604000,7604000,47.397750834670006,8.545607447080059,488.12228,488.12228,488.10126,488.10126,0.29866627,0.3422095,488.0176,1,1,4,3,3,0,0
7612000,7612000,47.39775083361619,8.545607446801299,488.12234,488.12234,488.10126,488.10126,0.30137414,0.34252363,488.01776,1,1,4,3,3,0,0
7620000,7620000,47.397750832561634,8.545607446505004,488.1224,488.1224,488.10126,488.10126,0.3040951,0.34284094,488.0179,1,1,4,3,3,0,0
7628000,7628000,47.397750831518735,8.545607446190582,488.1225,488.1225,488.10126,488.10126,0.30682594,0.3431614,488.01807,1,1,4,3,3,0,0
7636000,7636000,47.397750830474095,8.545607445828177,488.12256,488.12256,488.10126,488.10126,0.30957285,0.34348503,488.01822,1,1,4,3,3,0,0
7644000,7644000,47.397750829388876,8.545607445493731,488.12262,488.12262,488.10126,488.10126,0.3123328,0.34217,488.01816,1,1,4,3,3,0,0
7652000,7652000,47.3977508282712,8.54560744517634,488.1227,488.1227,488.10126,488.10126,0.31510586,0.34249848,488.0183,1,1,4,3,3,0,0
7660000,7660000,47.39775082794426,8.545607445027153,488.12268,488.12268,488.10126,488.10126,0.24270688,0.32313654,488.0153,1,1,4,3,3,0,0
7668000,7668000,47.39775082768213,8.545607444931104,488.12268,488.12268,488.10126,488.10126,0.24479714,0.32343322,488.0154,1,1,4,3,3,0,0
7676000,7676000,47.39775082742918,8.545607444902535,488.12265,488.12265,488.10126,488.10126,0.24689737,0.32373306,488.01553,1,1,4,3,3,0,0
7684000,7684000,47.39775082717009,8.545607444942055,488.12265,488.12265,488.10126,488.10126,0.24900758,0.32403603,488.01566,1,1,4,3,3,0,0
7692000,7692000,47.397750826896974,8.545607445037112,488.12265,488.12265,488.10126,488.10126,0.25112647,0.3243422,488.01578,1,1,4,3,3,0,0
7700000,7700000,47.39775082656051,8.54560744519349,488.12265,488.12265,488.10126,488.10126,0.25325665,0.32465154,488.0159,1,1,4,3,3,0,0
7708000,7708000,47.397750826225824,8.54560744543222,488.12265,488.12265,488.10126,488.10126,0.25539684,0.32496408,488.01602,1,1,4,3,3,0,0
7716000,7716000,47.39775082583926,8.545607445757309,488.12268,488.12268,488.10126,488.10126,0.2575471,0.32388848,488.0158,1,1,4,3,3,0,0
7724000,7724000,47.39775082542563,8.545607446166615,488.12268,488.12268,488.10126,488.10126,0.25970733,0.32420608,488.01593,1,1,4,3,3,0,0
7732000,7732000,47.39775082494274,8.545607446714518,488.1227,488.1227,488.10126,488.10126,0.2618436,0.32452694,488.01605,1,1,4,3,3,0,0
7740000,7740000,47.39775082446907,8.545607447273516,488.12274,488.12274,488.10126,488.10126,0.26402375,0.324851,488.01617,1,1,4,3,3,0,0
7748000,7748000,47.397750824026616,8.54560744785102,488.12274,488.12274,488.10126,488.10126,0.26621395,0.32517838,488.0163,1,1,4,3,3,0,0
7756000,7756000,47.39775082356932,8.545607448443542,488.12277,488.12277,488.10126,488.10126,0.26841417,0.325509,488.01642,1,1,4,3,3,0,0
7764000,7764000,47.397750823078056,8.545607449061372,488.1228,488.1228,488.10126,488.10126,0.27062303,0.32584295,488.01654,1,1,4,3,3,0,0
7772000,7772000,47.39775082252985,8.545607449696712,488.12283,488.12283,488.10126,488.10126,0.2728433,0.32618016,488.01666,1,1,4,3,3,0,0
7780000,7780000,47.397750821922926,8.54560745029958,488.12286,488.12286,488.10126,488.10126,0.27507365,0.32652068,488.01678,1,1,4,3,3,0,0
7788000,7788000,47.39775082133669,8.545607450930968,488.1229,488.1229,488.10126,488.10126,0.27731407,0.32545292,488.01633,1,1,4,3,3,0,0
7796000,7796000,47.39775082074241,8.545607451627472,488.12292,488.12292,488.10126,488.10126,0.27956456,0.32579863,488.01645,1,1,4,3,3,0,0
7804000,7804000,47.397750820123505,8.545607452362944,488.123,488.123,488.10126,488.10126,0.28182513,0.32614765,488.01657,1,1,4,3,3,0,0
7812000,7812000,47.39775081947298,8.545607453113508,488.12302,488.12302,488.10126,488.10126,0.2840958,0.32650003,488.0167,1,1,4,3,3,0,0
7820000,7820000,47.39775081880124,8.545607453881974,488.12305,488.12305,488.10126,488.10126,0.28637657,0.32685578,488.0168,1,1,4,3,3,0,0
7828000,7828000,47.39775081814226,8.545607454709703,488.1231,488.1231,488.10126,488.10126,0.28866747,0.32721493,488.01694,1,1,4,3,3,0,0
7836000,7836000,47.397750817471604,8.545607455648156,488.12314,488.12314,488.10126,488.10126,0.2909669,0.32757747,488.01706,1,1,4,3,3,0,0
7844000,7844000,47.39775081678596,8.5456074566198,488.1232,488.1232,488.10126,488.10126,0.29327792,0.32794338,488.01718,1,1,4,3,3,0,0
7852000,7852000,47.39775081609073,8.545607457602811,488.12326,488.12326,488.10126,488.10126,0.29559904,0.32831272,488.0173,1,1,4,3,3,0,0
7860000,7860000,47.397750815349646,8.545607458563484,488.1233,488.1233,488.10126,488.10126,0.29793033,0.32725042,488.01743,1,1,4,3,3,0,0
7868000,7868000,47.39775081458986,8.54560745957899,488.12332,488.12332,488.10126,488.10126,0.30027172,0.327625,488.01758,1,1,4,3,3,0,0
7876000,7876000,47.397750813815094,8.545607460667712,488.12338,488.12338,488.10126,488.10126,0.30262327,0.32800302,488.01773,1,1,4,3,3,0,0
7884000,7884000,47.39775081302895,8.545607461814432,488.1234,488.1234,488.10126,488.10126,0.3049849,0.3283845,488.01788,1,1,4,3,3,0,0
7892000,7892000,47.39775081226053,8.54560746301608,488.12344,488.12344,488.10126,488.10126,0.3073567,0.32876945,488.01804,1,1,4,3,3,0,0
7900000,7900000,47.39775081149063,8.545607464269475,488.12347,488.12347,488.10126,488.10126,0.30973694,0.3291579,488.0182,1,1,4,3,3,0,0
7908000,7908000,47.39775081075586,8.545607465476687,488.12354,488.12354,488.10126,488.10126,0.312129,0.32954982,488.01834,1,1,4,3,3,0,0
7916000,7916000,47.39775081005034,8.545607466727404,488.12357,488.12357,488.10126,488.10126,0.31453118,0.32849377,488.01797,1,1,4,3,3,0,0
7924000,7924000,47.39775080931517,8.545607468009496,488.1236,488.1236,488.10126,488.10126,0.3169435,0.32889095,488.01813,1,1,4,3,3,0,0
7932000,7932000,47.397750808731615,8.545607469367217,488.12366,488.12366,488.10126,488.10126,0.319331,0.3292917,488.01828,1,1,4,3,3,0,0
7940000,7940000,47.39775080811866,8.545607470720078,488.1237,488.1237,488.10126,488.10126,0.32176322,0.32969597,488.01843,1,1,4,3,3,0,0
7948000,7948000,47.397750807488194,8.545607472084152,488.12375,488.12375,488.10126,488.10126,0.3242057,0.33010375,488.0186,1,1,4,3,3,0,0
7956000,7956000,47.39775080687653,8.545607473502583,488.12378,488.12378,488.10126,488.10126,0.32665837,0.33051512,488.01874,1,1,4,3,3,0,0
7964000,7964000,47.39775080629538,8.545607475003377,488.12384,488.12384,488.10126,488.10126,0.32911944,0.33093005,488.0189,1,1,4,3,3,0,0
7972000,7972000,47.397750805739804,8.545607476560766,488.12387,488.12387,488.10126,488.10126,0.33159244,0.33134857,488.01904,1,1,4,3,3,0,0
7980000,7980000,47.397750805259385,8.545607478085245,488.12393,488.12393,488.10126,488.10126,0.33407557,0.33029518,488.01898,1,1,4,3,3,0,0
7988000,7988000,47.3977508047641,8.545607479592682,488.12396,488.12396,488.10126,488.10126,0.3365689,0.330719,488.01913,1,1,4,3,3,0,0
7996000,7996000,47.39775080426415,8.545607481120504,488.12402,488.12402,488.10126,488.10126,0.3390724,0.3311464,488.0193,1,1,4,3,3,0,0
8004000,8004000,47.397750803767785,8.545607482701671,488.12408,488.12408,488.10126,488.10126,0.34158608,0.33157742,488.01944,1,1,4,3,3,0,0
8012000,8012000,47.397750803223346,8.545607484320689,488.12415,488.12415,488.10126,488.10126,0.34410992,0.3320121,488.0196,1,1,4,3,3,0,0
8020000,8020000,47.397750802660035,8.545607485970704,488.1242,488.1242,488.10126,488.10126,0.3466439,0.33245036,488.01974,1,1,4,3,3,0,0
8028000,8028000,47.397750802090606,8.545607487645533,488.12424,488.12424,488.10126,488.10126,0.34918806,0.3328923,488.0199,1,1,4,3,3,0,0
8036000,8036000,47.397750801500536,8.545607489374856,488.12427,488.12427,488.10126,488.10126,0.35174033,0.3318416,488.0195,1,1,4,3,3,0,0
8044000,8044000,47.397750800881425,8.545607491154238,488.1243,488.1243,488.10126,488.10126,0.35430485,0.33228883,488.01962,1,1,4,3,3,0,0
8052000,8052000,47.397750800226994,8.545607492915565,488.12433,488.12433,488.10126,488.10126,0.35687956,0.33273974,488.01974,1,1,4,3,3,0,0
8060000,8060000,47.39775080113751,8.545607491431376,488.1242,488.1242,488.10126,488.10126,0.28126422,0.3139885,488.01532,1,1,4,3,3,0,0
8068000,8068000,47.3977508020074,8.545607489964727,488.1241,488.1241,488.10126,488.10126,0.28324044,0.31439233,488.01544,1,1,4,3,3,0,0
8076000,8076000,47.397750802861594,8.545607488608706,488.124,488.124,488.10126,488.10126,0.28522456,0.3147997,488.01556,1,1,4,3,3,0,0
8084000,8084000,47.397750803734205,8.54560748736184,488.1239,488.1239,488.10126,488.10126,0.2872167,0.31521064,488.0157,1,1,4,3,3,0,0
8092000,8092000,47.39775080457786,8.54560748614894,488.1238,488.1238,488.10126,488.10126,0.28921685,0.31562513,488.0158,1,1,4,3,3,0,0
8100000,8100000,47.397750805381534,8.54560748502311,488.12372,488.12372,488.10126,488.10126,0.29122496,0.31476718,488.01617,1,1,4,3,3,0,0
8108000,8108000,47.397750806161426,8.545607483982137,488.12363,488.12363,488.10126,488.10126,0.29324013,0.3151872,488.0163,1,1,4,3,3,0,0
8116000,8116000,47.39775080690359,8.545607482948927,488.12357,488.12357,488.10126,488.10126,0.2952643,0.3156108,488.01642,1,1,4,3,3,0,0
8124000,8124000,47.397750807623204,8.54560748197141,488.1235,488.1235,488.10126,488.10126,0.29729646,0.316038,488.01654,1,1,4,3,3,0,0
8132000,8132000,47.397750808148025,8.545607481112839,488.12344,488.12344,488.10126,488.10126,0.2993143,0.31646886,488.01666,1,1,4,3,3,0,0
8140000,8140000,47.3977508086576,8.545607480367782,488.1234,488.1234,488.10126,488.10126,0.3013629,0.31690335,488.01678,1,1,4,3,3,0,0
8148000,8148000,47.397750809195706,8.54560747965332,488.12338,488.12338,488.10126,488.10126,0.30341953,0.31734148,488.0169,1,1,4,3,3,0,0
8156000,8156000,47.397750809749645,8.54560747898746,488.12332,488.12332,488.10126,488.10126,0.30548427,0.31778324,488.01703,1,1,4,3,3,0,0
8164000,8164000,47.39775081029292,8.545607478350446,488.12332,488.12332,488.10126,488.10126,0.30755702,0.31692615,488.01733,1,1,4,3,3,0,0
8172000,8172000,47.39775081078678,8.545607477743047,488.1233,488.1233,488.10126,488.10126,0.30963683,0.31737342,488.01746,1,1,4,3,3,0,0
8180000,8180000,47.3977508112751,8.545607477270316,488.12326,488.12326,488.10126,488.10126,0.3117256,0.31782436,488.01758,1,1,4,3,3,0,0
8188000,8188000,47.39775081173249,8.54560747688381,488.12326,488.12326,488.10126,488.10126,0.3138224,0.31827897,488.01767,1,1,4,3,3,0,0
8196000,8196000,47.39775081216539,8.545607476483635,488.12323,488.12323,488.10126,488.10126,0.3159272,0.31873727,488.01776,1,1,4,3,3,0,0
8204000,8204000,47.397750812593856,8.545607476043878,488.1232,488.1232,488.10126,488.10126,0.3180401,0.3191993,488.01785,1,1,4,3,3,0,0
8212000,8212000,47.397750813022554,8.545607475590558,488.1232,488.1232,488.10126,488.10126,0.32016107,0.31966498,488.01794,1,1,4,3,3,0,0
8220000,8220000,47.397750813415655,8.545607475112382,488.12317,488.12317,488.10126,488.10126,0.32229015,0.3201344,488.01804,1,1,4,3,3,0,0
8228000,8228000,47.39775081377628,8.545607474668314,488.12314,488.12314,488.10126,488.10126,0.32442734,0.31927586,488.01743,1,1,4,3,3,0,0
8236000,8236000,47.39775081411897,8.545607474237116,488.12308,488.12308,488.10126,488.10126,0.32657263,0.31975073,488.01752,1,1,4,3,3,0,0
8244000,8244000,47.39775081447484,8.545607473772199,488.12305,488.12305,488.10126,488.10126,0.32872507,0.32022935,488.0176,1,1,4,3,3,0,0
8252000,8252000,47.3977508148335,8.545607473309687,488.12302,488.12302,488.10126,488.10126,0.33088663,0.32071173,488.0177,1,1,4,3,3,0,0
8260000,8260000,47.39775081512465,8.54560747287418,488.123,488.123,488.10126,488.10126,0.33305633,0.32119784,488.0178,1,1,4,3,3,0,0
8268000,8268000,47.39775081536399,8.545607472458702,488.12296,488.12296,488.10126,488.10126,0.3352342,0.3216877,488.01788,1,1,4,3,3,0,0
8276000,8276000,47.39775081563432,8.545607472060349,488.12292,488.12292,488.10126,488.10126,0.33742023,0.3221813,488.018,1,1,4,3,3,0,0
8284000,8284000,47.39775081586196,8.545607471695906,488.12292,488.12292,488.10126,488.10126,0.33961448,0.32267871,488.01813,1,1,4,3,3,0,0
8292000,8292000,47.397750816037856,8.54560747136176,488.12292,488.12292,488.10126,488.10126,0.34181687,0.32181612,488.01877,1,1,4,3,3,0,0
8300000,8300000,47.39775081616702,8.545607471077998,488.12292,488.12292,488.10126,488.10126,0.34402752,0.32231897,488.0189,1,1,4,3,3,0,0
8308000,8308000,47.39775081624125,8.545607470860123,488.12292,488.12292,488.10126,488.10126,0.34624633,0.32282558,488.019,1,1,4,3,3,0,0
8316000,8316000,47.397750816304,8.545607470645162,488.12296,488.12296,488.10126,488.10126,0.3484734,0.32333598,488.01913,1,1,4,3,3,0,0
8324000,8324000,47.39775081632857,8.545607470365395,488.123,488.123,488.10126,488.10126,0.35070753,0.32385018,488.01926,1,1,4,3,3,0,0
8332000,8332000,47.39775081637645,8.545607470193422,488.123,488.123,488.10126,488.10126,0.35293224,0.3243682,488.01938,1,1,4,3,3,0,0
8340000,8340000,47.39775081642583,8.545607470061048,488.12302,488.12302,488.10126,488.10126,0.35518372,0.32489005,488.0195,1,1,4,3,3,0,0
8348000,8348000,47.39775081646745,8.545607469951856,488.12305,488.12305,488.10126,488.10126,0.35744333,0.32402363,488.0195,1,1,4,3,3,0,0
8356000,8356000,47.397750816488724,8.545607469823223,488.12305,488.12305,488.10126,488.10126,0.35971123,0.32455084,488.01962,1,1,4,3,3,0,0
8364000,8364000,47.39775081649523,8.545607469738213,488.12308,488.12308,488.10126,488.10126,0.36198732,0.32508188,488.01974,1,1,4,3,3,0,0
8372000,8372000,47.3977508164934,8.545607469692648,488.1231,488.1231,488.10126,488.10126,0.3642716,0.32561678,488.01984,1,1,4,3,3,0,0
8380000,8380000,47.3977508164572,8.545607469660503,488.12317,488.12317,488.10126,488.10126,0.36656412,0.32615548,488.01993,1,1,4,3,3,0,0
8388000,8388000,47.397750816426964,8.545607469726644,488.1232,488.1232,488.10126,488.10126,0.36886367,0.32669804,488.02002,1,1,4,3,3,0,0
8396000,8396000,47.397750816367704,8.545607469883498,488.12323,488.12323,488.10126,488.10126,0.37117264,0.32724443,488.0201,1,1,4,3,3,0,0
8404000,8404000,47.397750816284564,8.54560747010723,488.12326,488.12326,488.10126,488.10126,0.37348995,0.3277947,488.0202,1,1,4,3,3,0,0
8412000,8412000,47.397750816185834,8.54560747039888,488.12332,488.12332,488.10126,488.10126,0.3758155,0.32691902,488.02036,1,1,4,3,3,0,0
8420000,8420000,47.39775081607406,8.545607470731468,488.12335,488.12335,488.10126,488.10126,0.37814933,0.3274746,488.02045,1,1,4,3,3,0,0
8428000,8428000,47.39775081597434,8.545607471107157,488.1234,488.1234,488.10126,488.10126,0.38049144,0.32803404,488.02054,1,1,4,3,3,0,0
8436000,8436000,47.39775081587826,8.545607471519528,488.12344,488.12344,488.10126,488.10126,0.38284189,0.32859734,488.02066,1,1,4,3,3,0,0
8444000,8444000,47.397750815797735,8.545607471890392,488.1235,488.1235,488.10126,488.10126,0.3852006,0.32916453,488.02078,1,1,4,3,3,0,0
8452000,8452000,47.397750815736266,8.545607472258222,488.12354,488.12354,488.10126,488.10126,0.3875677,0.3297356,488.0209,1,1,4,3,3,0,0
8460000,8460000,47.39775081574458,8.545607468505413,488.12338,488.12338,488.10126,488.10126,0.31297797,0.31030005,488.01483,1,1,4,3,3,0,0
8468000,8468000,47.39775081572481,8.545607464795228,488.12323,488.12323,488.10126,488.10126,0.31482643,0.30959463,488.01434,1,1,4,3,3,0,0
8476000,8476000,47.3977508156877,8.545607461096818,488.12308,488.12308,488.10126,488.10126,0.3166815,0.3101044,488.01443,1,1,4,3,3,0,0
8484000,8484000,47.397750815643384,8.545607457384124,488.12292,488.12292,488.10126,488.10126,0.31854317,0.3106179,488.0145,1,1,4,3,3,0,0
8492000,8492000,47.397750815615936,8.545607453714487,488.12277,488.12277,488.10126,488.10126,0.32041144,0.31113514,488.0146,1,1,4,3,3,0,0
8500000,8500000,47.39775081560082,8.545607450121999,488.12262,488.12262,488.10126,488.10126,0.32228637,0.31165615,488.01468,1,1,4,3,3,0,0
8508000,8508000,47.39775081556772,8.545607446571964,488.12247,488.12247,488.10126,488.10126,0.32416797,0.3121809,488.01477,1,1,4,3,3,0,0
8516000,8516000,47.3977508154784,8.545607443114891,488.12234,488.12234,488.10126,488.10126,0.3260562,0.31270942,488.01486,1,1,4,3,3,0,0
8524000,8524000,47.397750815362905,8.545607439720438,488.12222,488.12222,488.10126,488.10126,0.32795018,0.31324172,488.01495,1,1,4,3,3,0,0
8532000,8532000,47.39775081528128,8.545607436211318,488.1221,488.1221,488.10126,488.10126,0.32983115,0.3125295,488.01505,1,1,4,3,3,0,0
8540000,8540000,47.3977508152161,8.545607432716913,488.12198,488.12198,488.10126,488.10126,0.33174005,0.3130672,488.01514,1,1,4,3,3,0,0
8548000,8548000,47.39775081513349,8.5456074293077,488.12186,488.12186,488.10126,488.10126,0.33365557,0.3136087,488.01523,1,1,4,3,3,0,0
8556000,8556000,47.39775081502769,8.545607425943453,488.12177,488.12177,488.10126,488.10126,0.33557776,0.31415397,488.01532,1,1,4,3,3,0,0
8564000,8564000,47.39775081489229,8.54560742261405,488.12164,488.12164,488.10126,488.10126,0.33750665,0.31470305,488.0154,1,1,4,3,3,0,0
8572000,8572000,47.39775081472362,8.54560741933281,488.12155,488.12155,488.10126,488.10126,0.33944222,0.3152559,488.0155,1,1,4,3,3,0,0
8580000,8580000,47.39775081453134,8.545607416118715,488.12146,488.12146,488.10126,488.10126,0.3413845,0.31581256,488.0156,1,1,4,3,3,0,0
8588000,8588000,47.397750814335325,8.545607412961614,488.12137,488.12137,488.10126,488.10126,0.3433335,0.3150937,488.01544,1,1,4,3,3,0,0
8596000,8596000,47.397750814141986,8.54560740985008,488.1213,488.1213,488.10126,488.10126,0.34528846,0.3156557,488.01553,1,1,4,3,3,0,0
8604000,8604000,47.39775081393926,8.54560740678221,488.12122,488.12122,488.10126,488.10126,0.34725097,0.3162215,488.01562,1,1,4,3,3,0,0
8612000,8612000,47.39775081374043,8.545607403793559,488.12115,488.12115,488.10126,488.10126,0.34922025,0.31679112,488.01572,1,1,4,3,3,0,0
8620000,8620000,47.39775081349255,8.545607400839392,488.1211,488.1211,488.10126,488.10126,0.3511963,0.31736454,488.0158,1,1,4,3,3,0,0
8628000,8628000,47.397750813155085,8.54560739789032,488.12103,488.12103,488.10126,488.10126,0.35317907,0.31794178,488.01587,1,1,4,3,3,0,0
8636000,8636000,47.397750812758424,8.545607394911084,488.12097,488.12097,488.10126,488.10126,0.35516864,0.31852284,488.01593,1,1,4,3,3,0,0
8644000,8644000,47.39775081231446,8.545607391904916,488.1209,488.1209,488.10126,488.10126,0.35716504,0.3191077,488.016,1,1,4,3,3,0,0
8652000,8652000,47.397750811830115,8.545607388915505,488.12088,488.12088,488.10126,488.10126,0.35916823,0.31837663,488.0164,1,1,4,3,3,0,0
8660000,8660000,47.39775081135193,8.545607385964148,488.12085,488.12085,488.10126,488.10126,0.36117756,0.31896672,488.01645,1,1,4,3,3,0,0
8668000,8668000,47.39775081088588,8.54560738303722,488.12085,488.12085,488.10126,488.10126,0.3631944,0.31956065,488.01654,1,1,4,3,3,0,0
8676000,8676000,47.39775081040802,8.545607380093868,488.12085,488.12085,488.10126,488.10126,0.3652181,0.32015842,488.01663,1,1,4,3,3,0,0
8684000,8684000,47.397750809913056,8.545607377128588,488.12082,488.12082,488.10126,488.10126,0.36724862,0.32075998,488.0167,1,1,4,3,3,0,0
8692000,8692000,47.39775080937833,8.54560737417058,488.12082,488.12082,488.10126,488.10126,0.369286,0.32136542,488.01675,1,1,4,3,3,0,0
8700000,8700000,47.39775080883009,8.545607371256242,488.12082,488.12082,488.10126,488.10126,0.37133026,0.3219747,488.0168,1,1,4,3,3,0,0
8708000,8708000,47.397750808232125,8.545607368412563,488.12085,488.12085,488.10126,488.10126,0.37338138,0.3212321,488.01736,1,1,4,3,3,0,0
8716000,8716000,47.397750807586384,8.54560736556742,488.12088,488.12088,488.10126,488.10126,0.37543944,0.3218465,488.01746,1,1,4,3,3,0,0
8724000,8724000,47.39775080691201,8.545607362775389,488.1209,488.1209,488.10126,488.10126,0.37750438,0.32246467,488.01755,1,1,4,3,3,0,0
8732000,8732000,47.39775080623733,8.545607359987338,488.12094,488.12094,488.10126,488.10126,0.37956473,0.32308674,488.01764,1,1,4,3,3,0,0
8740000,8740000,47.39775080556313,8.545607357254738,488.12097,488.12097,488.10126,488.10126,0.38164356,0.32371265,488.01773,1,1,4,3,3,0,0
8748000,8748000,47.397750804906,8.545607354576134,488.121,488.121,488.10126,488.10126,0.3837293,0.3243424,488.01782,1,1,4,3,3,0,0
8756000,8756000,47.39775080423539,8.54560735196634,488.12103,488.12103,488.10126,488.10126,0.38582203,0.32497603,488.0179,1,1,4,3,3,0,0
8764000,8764000,47.39775080354838,8.545607349364847,488.12106,488.12106,488.10126,488.10126,0.38792166,0.32561347,488.018,1,1,4,3,3,0,0
8772000,8772000,47.39775080289647,8.545607346838636,488.1211,488.1211,488.10126,488.10126,0.39002824,0.32485262,488.0178,1,1,4,3,3,0,0
8780000,8780000,47.39775080226398,8.545607344388722,488.12112,488.12112,488.10126,488.10126,0.39214173,0.325495,488.01788,1,1,4,3,3,0,0
8788000,8788000,47.39775080164805,8.545607342021992,488.12112,488.12112,488.10126,488.10126,0.3942622,0.32614127,488.01797,1,1,4,3,3,0,0
8796000,8796000,47.39775080103085,8.545607339753603,488.12115,488.12115,488.10126,488.10126,0.39638966,0.32679138,488.01807,1,1,4,3,3,0,0
8804000,8804000,47.39775080037759,8.54560733754861,488.1212,488.1212,488.10126,488.10126,0.39852327,0.32744536,488.01816,1,1,4,3,3,0,0
8812000,8812000,47.397750799705726,8.545607335386853,488.12122,488.12122,488.10126,488.10126,0.4006647,0.32810318,488.01828,1,1,4,3,3,0,0
8820000,8820000,47.397750799018574,8.54560733329336,488.12125,488.12125,488.10126,488.10126,0.40281314,0.32876486,488.0184,1,1,4,3,3,0,0
8828000,8828000,47.397750798351154,8.545607331270723,488.12128,488.12128,488.10126,488.10126,0.40496865,0.3294304,488.01852,1,1,4,3,3,0,0
8836000,8836000,47.397750797696816,8.545607329250302,488.1213,488.1213,488.10126,488.10126,0.40713122,0.33009982,488.01865,1,1,4,3,3,0,0
8844000,8844000,47.39775079709096,8.545607327214668,488.12134,488.12134,488.10126,488.10126,0.4093008,0.32931224,488.01886,1,1,4,3,3,0,0
8852000,8852000,47.397750796565894,8.545607325157638,488.12137,488.12137,488.10126,488.10126,0.41147742,0.32998633,488.01898,1,1,4,3,3,0,0
8860000,8860000,47.39775079747348,8.54560732406365,488.12134,488.12134,488.10126,488.10126,0.33957604,0.30931625,488.01697,1,1,4,3,3,0,0
8868000,8868000,47.39775079833215,8.54560732294632,488.1213,488.1213,488.10126,488.10126,0.341297,0.30991364,488.0171,1,1,4,3,3,0,0
8876000,8876000,47.397750799137384,8.545607321846486,488.1213,488.1213,488.10126,488.10126,0.34302202,0.31051472,488.0172,1,1,4,3,3,0,0
8884000,8884000,47.397750799878615,8.545607320759528,488.12128,488.12128,488.10126,488.10126,0.34475434,0.31111953,488.01733,1,1,4,3,3,0,0
8892000,8892000,47.3977508005887,8.545607319656499,488.12125,488.12125,488.10126,488.10126,0.34649232,0.31172806,488.01746,1,1,4,3,3,0,0
8900000,8900000,47.39775080128095,8.545607318590013,488.12128,488.12128,488.10126,488.10126,0.348236,0.3111095,488.0188,1,1,4,3,3,0,0
8908000,8908000,47.397750801979655,8.545607317583919,488.1213,488.1213,488.10126,488.10126,0.3499854,0.31172305,488.01892,1,1,4,3,3,0,0
8916000,8916000,47.39775080267405,8.545607316603437,488.12134,488.12134,488.10126,488.10126,0.3517405,0.3123403,488.01904,1,1,4,3,3,0,0
8924000,8924000,47.39775080329519,8.545607315581313,488.12137,488.12137,488.10126,488.10126,0.35350135,0.31296128,488.01917,1,1,4,3,3,0,0
8932000,8932000,47.397750803978575,8.545607314270404,488.1214,488.1214,488.10126,488.10126,0.35524315,0.31358597,488.0193,1,1,4,3,3,0,0
8940000,8940000,47.397750804611036,8.545607312959786,488.12143,488.12143,488.10126,488.10126,0.3570164,0.3142144,488.0194,1,1,4,3,3,0,0
8948000,8948000,47.39775080523671,8.54560731167208,488.12143,488.12143,488.10126,488.10126,0.35879433,0.31484655,488.01953,1,1,4,3,3,0,0
8956000,8956000,47.397750805850066,8.545607310398058,488.12146,488.12146,488.10126,488.10126,0.36057916,0.3154824,488.01965,1,1,4,3,3,0,0
8964000,8964000,47.39775080645311,8.545607309125979,488.1215,488.1215,488.10126,488.10126,0.36236975,0.3148462,488.01953,1,1,4,3,3,0,0
8972000,8972000,47.39775080703053,8.545607307893228,488.1215,488.1215,488.10126,488.10126,0.36416617,0.31548688,488.01965,1,1,4,3,3,0,0
8980000,8980000,47.397750807606826,8.54560730676158,488.12152,488.12152,488.10126,488.10126,0.36596835,0.31613132,488.01974,1,1,4,3,3,0,0
8988000,8988000,47.39775080816663,8.545607305702411,488.12155,488.12155,488.10126,488.10126,0.36777636,0.31677946,488.01984,1,1,4,3,3,0,0
8996000,8996000,47.39775080866234,8.545607304633183,488.12158,488.12158,488.10126,488.10126,0.36959016,0.31743133,488.01993,1,1,4,3,3,0,0
9004000,9004000,47.39775080912543,8.545607303560544,488.12158,488.12158,488.10126,488.10126,0.37140986,0.31808692,488.02002,1,1,4,3,3,0,0
9012000,9012000,47.3977508095928,8.545607302529874,488.1216,488.1216,488.10126,488.10126,0.37323546,0.3187462,488.02014,1,1,4,3,3,0,0
9020000,9020000,47.39775081003373,8.545607301536776,488.12164,488.12164,488.10126,488.10126,0.3750661,0.31940925,488.02026,1,1,4,3,3,0,0
9028000,9028000,47.397750810430615,8.545607300554739,488.12167,488.12167,488.10126,488.10126,0.3769035,0.32007596,488.02036,1,1,4,3,3,0,0
9036000,9036000,47.397750810715856,8.54560729959102,488.1217,488.1217,488.10126,488.10126,0.37874678,0.31941417,488.02066,1,1,4,3,3,0,0
9044000,9044000,47.39775081089689,8.545607298634469,488.12177,488.12177,488.10126,488.10126,0.38059592,0.32008553,488.02075,1,1,4,3,3,0,0
9052000,9052000,47.397750811000336,8.545607297770376,488.1218,488.1218,488.10126,488.10126,0.38245103,0.32076064,488.02087,1,1,4,3,3,0,0
9060000,9060000,47.39775081108689,8.545607296983995,488.12186,488.12186,488.10126,488.10126,0.38431203,0.32143942,488.021,1,1,4,3,3,0,0
9068000,9068000,47.39775081112739,8.54560729620997,488.1219,488.1219,488.10126,488.10126,0.38617903,0.32212195,488.0211,1,1,4,3,3,0,0
9076000,9076000,47.397750811102156,8.545607295432955,488.12195,488.12195,488.10126,488.10126,0.38805196,0.32280818,488.02118,1,1,4,3,3,0,0
9084000,9084000,47.39775081102129,8.54560729466719,488.12198,488.12198,488.10126,488.10126,0.38993078,0.32349813,488.02127,1,1,4,3,3,0,0
9092000,9092000,47.397750810944416,8.545607293894571,488.12204,488.12204,488.10126,488.10126,0.39181498,0.32419178,488.02136,1,1,4,3,3,0,0
9100000,9100000,47.39775081084997,8.54560729309327,488.1221,488.1221,488.10126,488.10126,0.39370582,0.32488912,488.02145,1,1,4,3,3,0,0
9108000,9108000,47.397750810748256,8.54560729232448,488.12216,488.12216,488.10126,488.10126,0.39560267,0.32419705,488.02164,1,1,4,3,3,0,0
9116000,9116000,47.39775081063361,8.545607291628656,488.12225,488.12225,488.10126,488.10126,0.39750552,0.3248988,488.02173,1,1,4,3,3,0,0
9124000,9124000,47.39775081046996,8.545607290941446,488.1223,488.1223,488.10126,488.10126,0.3994144,0.32560426,488.02182,1,1,4,3,3,0,0
9132000,9132000,47.39775081023221,8.545607289946668,488.12238,488.12238,488.10126,488.10126,0.40132156,0.32631344,488.0219,1,1,4,3,3,0,0
9140000,9140000,47.397750809938636,8.545607288967858,488.12244,488.12244,488.10126,488.10126,0.40324283,0.3270263,488.02203,1,1,4,3,3,0,0
9148000,9148000,47.397750809635696,8.545607288009391,488.1225,488.1225,488.10126,488.10126,0.40517014,0.32774287,488.02213,1,1,4,3,3,0,0
9156000,9156000,47.397750809313024,8.54560728707274,488.1226,488.1226,488.10126,488.10126,0.40710348,0.32846314,488.02222,1,1,4,3,3,0,0
9164000,9164000,47.397750808999355,8.545607286192686,488.12265,488.12265,488.10126,488.10126,0.40904242,0.3291871,488.0223,1,1,4,3,3,0,0
9172000,9172000,47.39775080869584,8.545607285309716,488.1227,488.1227,488.10126,488.10126,0.41098794,0.32991475,488.0224,1,1,4,3,3,0,0
9180000,9180000,47.39775080840959,8.54560728442269,488.1228,488.1228,488.10126,488.10126,0.4129396,0.32918742,488.02255,1,1,4,3,3,0,0
9188000,9188000,47.39775080809465,8.545607283548401,488.1229,488.1229,488.10126,488.10126,0.41489735,0.32991922,488.02264,1,1,4,3,3,0,0
9196000,9196000,47.39775080771181,8.54560728273531,488.12296,488.12296,488.10126,488.10126,0.4168612,0.33065468,488.02274,1,1,4,3,3,0,0
9204000,9204000,47.39775080732292,8.545607281973743,488.12305,488.12305,488.10126,488.10126,0.41883117,0.33139387,488.02283,1,1,4,3,3,0,0
9212000,9212000,47.39775080694967,8.545607281205893,488.1231,488.1231,488.10126,488.10126,0.42080724,0.3321367,488.02292,1,1,4,3,3,0,0
9220000,9220000,47.39775080660758,8.545607280437393,488.12317,488.12317,488.10126,488.10126,0.4227895,0.33288324,488.023,1,1,4,3,3,0,0
9228000,9228000,47.39775080628308,8.545607279670888,488.12323,488.12323,488.10126,488.10126,0.42477793,0.33363345,488.0231,1,1,4,3,3,0,0
9236000,9236000,47.397750805911535,8.545607278941416,488.12332,488.12332,488.10126,488.10126,0.426772,0.33438733,488.0232,1,1,4,3,3,0,0
9244000,9244000,47.3977508054847,8.545607278244692,488.12338,488.12338,488.10126,488.10126,0.4287728,0.33514488,488.0233,1,1,4,3,3,0,0
9252000,9252000,47.39775080504733,8.545607277592365,488.1234,488.1234,488.10126,488.10126,0.43077987,0.33437717,488.0227,1,1,4,3,3,0,0
9260000,9260000,47.39775080315199,8.545607277420114,488.12314,488.12314,488.10126,488.10126,0.3621523,0.31188503,488.01276,1,1,4,3,3,0,0
9268000,9268000,47.39775080127949,8.545607277200888,488.12286,488.12286,488.10126,488.10126,0.36375055,0.31255502,488.01282,1,1,4,3,3,0,0
9276000,9276000,47.39775079944632,8.5456072770237,488.12262,488.12262,488.10126,488.10126,0.36535382,0.31322858,488.01288,1,1,4,3,3,0,0
9284000,9284000,47.39775079761413,8.545607276908008,488.12238,488.12238,488.10126,488.10126,0.3669621,0.31390566,488.01294,1,1,4,3,3,0,0
9292000,9292000,47.39775079577037,8.545607276806075,488.1221,488.1221,488.10126,488.10126,0.36857545,0.31458628,488.013,1,1,4,3,3,0,0
9300000,9300000,47.397750793939394,8.545607276756252,488.1219,488.1219,488.10126,488.10126,0.37019387,0.31527042,488.01306,1,1,4,3,3,0,0
9308000,9308000,47.39775079212521,8.545607276807146,488.12167,488.12167,488.10126,488.10126,0.37181512,0.31468472,488.01352,1,1,4,3,3,0,0
9316000,9316000,47.39775079032753,8.5456072769315,488.12146,488.12146,488.10126,488.10126,0.3734438,0.31537315,488.01358,1,1,4,3,3,0,0
9324000,9324000,47.39775078849127,8.545607277064601,488.12125,488.12125,488.10126,488.10126,0.37507766,0.3160651,488.01364,1,1,4,3,3,0,0
9332000,9332000,47.397750786501845,8.545607277091477,488.12106,488.12106,488.10126,488.10126,0.37668517,0.31676057,488.0137,1,1,4,3,3,0,0
9340000,9340000,47.3977507845182,8.545607277132211,488.12085,488.12085,488.10126,488.10126,0.3783306,0.31745955,488.01376,1,1,4,3,3,0,0
