timestamp,timestamp_sample,q[0],q[1],q[2],q[3],delta_q_reset[0],delta_q_reset[1],delta_q_reset[2],delta_q_reset[3],quat_reset_counter
4776000,4776000,0.999987,0.0029600014,0.004160732,-1.4882084e-05,1.0,0.0,0.0,0.0,0
4780000,4780000,0.99998736,0.0029322547,0.0040959143,-2.6554222e-05,1.0,0.0,0.0,0.0,0
4788000,4788000,0.9999883,0.002831476,0.0039310204,-2.3122513e-05,1.0,0.0,0.0,0.0,0
4796000,4796000,0.99998903,0.0027778496,0.0037826474,-2.9380753e-05,1.0,0.0,0.0,0.0,0
4808000,4808000,0.99999005,0.0027413825,0.0035479318,3.719179e-06,1.0,0.0,0.0,0.0,0
4816000,4816000,0.9999906,0.0027326664,0.003404117,-4.4933335e-05,1.0,0.0,0.0,0.0,0
4828000,4828000,0.99999154,0.0026226148,0.0031883924,-8.24771e-05,1.0,0.0,0.0,0.0,0
4836000,4836000,0.9999922,0.0025729307,0.0030190481,-7.0475406e-05,1.0,0.0,0.0,0.0,0
4848000,4848000,0.9999929,0.0024926858,0.0028321452,-4.824518e-05,1.0,0.0,0.0,0.0,0
4856000,4856000,0.9999934,0.002467161,0.0026777715,-7.2150346e-05,1.0,0.0,0.0,0.0,0
4868000,4868000,0.9999942,0.0024024455,0.0024258674,-4.3867338e-05,1.0,0.0,0.0,0.0,0
4876000,4876000,0.9999948,0.002310095,0.0022707058,-9.439514e-05,1.0,0.0,0.0,0.0,0
4888000,4888000,0.9999954,0.002247875,0.0020520047,-0.00012862643,1.0,0.0,0.0,0.0,0
4896000,4896000,0.9999959,0.0021745306,0.0019274474,-0.00014702679,1.0,0.0,0.0,0.0,0
4908000,4908000,0.9999966,0.0019694092,0.0017410845,-0.00019146314,1.0,0.0,0.0,0.0,0
4916000,4916000,0.99999696,0.0018513697,0.0016131415,-0.00022996153,1.0,0.0,0.0,0.0,0
4928000,4928000,0.9999976,0.0016814785,0.0014166061,-0.00025514464,1.0,0.0,0.0,0.0,0
4936000,4936000,0.999998,0.0016074133,0.0012649411,-0.00022931713,1.0,0.0,0.0,0.0,0
4948000,4948000,0.9999984,0.0015012784,0.0009969247,-0.00018889141,1.0,0.0,0.0,0.0,0
4956000,4956000,0.99999857,0.0014765373,0.0008380322,-0.00018334827,1.0,0.0,0.0,0.0,0
4968000,4968000,0.99999887,0.001365853,0.0006629677,-0.0001664322,1.0,0.0,0.0,0.0,0
4976000,4976000,0.9999991,0.0012700548,0.0005059755,-0.00017388658,1.0,0.0,0.0,0.0,0
4988000,4988000,0.9999993,0.0011951069,0.00036984647,-0.00021779873,1.0,0.0,0.0,0.0,0
4996000,4996000,0.9999993,0.0011603858,0.000261639,-0.00025473422,1.0,0.0,0.0,0.0,0
5008000,5008000,0.9999994,0.0010605048,0.000105084015,-0.00027093646,1.0,0.0,0.0,0.0,0
5016000,5016000,0.9999994,0.0010231639,2.7482787e-07,-0.00025046815,1.0,0.0,0.0,0.0,0
5028000,5028000,0.9999995,0.0009935203,-0.00011754677,-0.000250026,1.0,0.0,0.0,0.0,0
5036000,5036000,0.9999995,0.00096648163,-0.00016759257,-0.00027323666,1.0,0.0,0.0,0.0,0
5048000,5048000,0.99999946,0.00090484106,-0.00032766757,-0.00024645674,1.0,0.0,0.0,0.0,0
5056000,5056000,0.9999995,0.0008471054,-0.00045761178,-0.00020901764,1.0,0.0,0.0,0.0,0
5068000,5068000,0.9999995,0.00080477213,-0.0006036774,-0.00012393908,1.0,0.0,0.0,0.0,0
5076000,5076000,0.9999995,0.00077552925,-0.00066473347,-9.4965304e-05,1.0,0.0,0.0,0.0,0
5088000,5088000,0.99999946,0.00072153565,-0.00082717283,-2.2381204e-05,1.0,0.0,0.0,0.0,0
5096000,5096000,0.9999994,0.0006806385,-0.00090737257,-1.2058901e-05,1.0,0.0,0.0,0.0,0
5108000,5108000,0.99999934,0.0006424901,-0.0010123034,8.751989e-05,1.0,0.0,0.0,0.0,0
5116000,5116000,0.9999993,0.00061544304,-0.0010996555,8.729324e-05,1.0,0.0,0.0,0.0,0
5128000,5128000,0.9999992,0.00057275506,-0.0011591592,0.00010692229,1.0,0.0,0.0,0.0,0
5136000,5136000,0.9999991,0.00055204256,-0.0012254445,0.000105112165,1.0,0.0,0.0,0.0,0
5148000,5148000,0.9999991,0.0005132263,-0.0012803869,0.00020310962,1.0,0.0,0.0,0.0,0
5156000,5156000,0.99999887,0.0005256131,-0.0013544932,0.00027907276,1.0,0.0,0.0,0.0,0
5168000,5168000,0.9999988,0.0005201205,-0.0014949156,0.0002495975,1.0,0.0,0.0,0.0,0
5176000,5176000,0.9999986,0.00048786012,-0.0015455153,0.00024935522,1.0,0.0,0.0,0.0,0
5188000,5188000,0.9999987,0.00040614247,-0.0015821183,0.00029407153,1.0,0.0,0.0,0.0,0
5196000,5196000,0.9999987,0.00036622878,-0.0015948837,0.00032844438,1.0,0.0,0.0,0.0,0
5208000,5208000,0.9999987,0.00035323141,-0.0015915316,0.00023081129,1.0,0.0,0.0,0.0,0
5216000,5216000,0.9999987,0.00034580613,-0.0016038539,0.00022044657,1.0,0.0,0.0,0.0,0
5228000,5228000,0.9999986,0.00032326378,-0.0015799117,0.00025182267,1.0,0.0,0.0,0.0,0
5236000,5236000,0.99999875,0.00028036203,-0.0015758969,0.0002658268,1.0,0.0,0.0,0.0,0
5248000,5248000,0.9999987,0.0002698145,-0.0016141781,0.00032878874,1.0,0.0,0.0,0.0,0
5256000,5256000,0.9999986,0.00025643286,-0.0015794948,0.0003986545,1.0,0.0,0.0,0.0,0
5268000,5268000,0.9999987,0.00024931892,-0.0015326946,0.00045580385,1.0,0.0,0.0,0.0,0
5276000,5276000,0.9999988,0.0002611023,-0.0014599438,0.00047709057,1.0,0.0,0.0,0.0,0
5288000,5288000,0.99999887,0.0002604129,-0.0014304711,0.00044905813,1.0,0.0,0.0,0.0,0
5296000,5296000,0.99999887,0.0002764964,-0.0014593829,0.00042486633,1.0,0.0,0.0,0.0,0
5308000,5308000,0.9999989,0.00027359938,-0.0014342484,0.0003851,1.0,0.0,0.0,0.0,0
5316000,5316000,0.999999,0.0003324643,-0.0013984021,0.00037041708,1.0,0.0,0.0,0.0,0
5328000,5328000,0.99999887,0.0004703849,-0.0014093682,0.00037880975,1.0,0.0,0.0,0.0,0
5336000,5336000,0.9999988,0.00051312137,-0.0014555804,0.00031769922,1.0,0.0,0.0,0.0,0
5348000,5348000,0.9999988,0.00055797526,-0.0014438747,0.0002192002,1.0,0.0,0.0,0.0,0
5356000,5356000,0.99999887,0.00054954755,-0.0014133719,0.00017479566,1.0,0.0,0.0,0.0,0
5368000,5368000,0.999999,0.00063864974,-0.0013347211,0.00014135722,1.0,0.0,0.0,0.0,0
5376000,5376000,0.99999887,0.00067618466,-0.0013237409,7.833483e-05,1.0,0.0,0.0,0.0,0
5388000,5388000,0.999999,0.0007085425,-0.0013079271,7.08207e-05,1.0,0.0,0.0,0.0,0
5396000,5396000,0.99999887,0.0007654514,-0.0012843523,1.3856279e-06,1.0,0.0,0.0,0.0,0
5408000,5408000,0.999999,0.00078814814,-0.0012607621,-1.6366288e-05,1.0,0.0,0.0,0.0,0
5416000,5416000,0.999999,0.00075640745,-0.0012613332,-3.168963e-05,1.0,0.0,0.0,0.0,0
5428000,5428000,0.999999,0.00077901105,-0.0012372344,-4.3720604e-05,1.0,0.0,0.0,0.0,0
5436000,5436000,0.99999887,0.0008209695,-0.0012484244,-8.1972496e-05,1.0,0.0,0.0,0.0,0
5448000,5448000,0.99999887,0.00088098296,-0.0012294948,-0.0001213183,1.0,0.0,0.0,0.0,0
5456000,5456000,0.99999887,0.00091817474,-0.0012297021,-0.00016502851,1.0,0.0,0.0,0.0,0
5468000,5468000,0.999999,0.00083550037,-0.0011181735,-0.00024514977,1.0,0.0,0.0,0.0,0
5476000,5476000,0.99999905,0.00083280675,-0.0010776082,-0.00032418757,1.0,0.0,0.0,0.0,0
5488000,5488000,0.99999905,0.0008725638,-0.0010311069,-0.00034325133,1.0,0.0,0.0,0.0,0
5496000,5496000,0.99999905,0.00089471333,-0.001012189,-0.00031662933,1.0,0.0,0.0,0.0,0
5508000,5508000,0.99999917,0.000874132,-0.000991643,-0.00036187057,1.0,0.0,0.0,0.0,0
5516000,5516000,0.99999917,0.000853665,-0.00094844744,-0.00036927895,1.0,0.0,0.0,0.0,0
5528000,5528000,0.9999992,0.0008910793,-0.00085906446,-0.0004303622,1.0,0.0,0.0,0.0,0
5536000,5536000,0.99999917,0.0008764732,-0.0008727243,-0.0005454316,1.0,0.0,0.0,0.0,0
5548000,5548000,0.99999917,0.0008937213,-0.0008046435,-0.0005283424,1.0,0.0,0.0,0.0,0
5556000,5556000,0.99999905,0.00095420977,-0.0007918575,-0.0005820671,1.0,0.0,0.0,0.0,0
5568000,5568000,0.99999917,0.0009552479,-0.0007173136,-0.00059684116,1.0,0.0,0.0,0.0,0
5576000,5576000,0.99999917,0.00095099007,-0.0006711657,-0.0006168999,1.0,0.0,0.0,0.0,0
5588000,5588000,0.99999917,0.00095372286,-0.0006503961,-0.00067724107,1.0,0.0,0.0,0.0,0
5596000,5596000,0.99999905,0.00092998805,-0.0006347531,-0.00074141426,1.0,0.0,0.0,0.0,0
5608000,5608000,0.999999,0.00097037427,-0.00065159064,-0.00079685904,1.0,0.0,0.0,0.0,0
5616000,5616000,0.999999,0.0009860564,-0.00067915156,-0.0008209573,1.0,0.0,0.0,0.0,0
5628000,5628000,0.999999,0.00093799783,-0.0006709176,-0.000863873,1.0,0.0,0.0,0.0,0
5636000,5636000,0.999999,0.0009550057,-0.0006385467,-0.0008893596,1.0,0.0,0.0,0.0,0
5648000,5648000,0.999999,0.00091924693,-0.0006028469,-0.0009059918,1.0,0.0,0.0,0.0,0
5656000,5656000,0.999999,0.00086776656,-0.0006079785,-0.00091755146,1.0,0.0,0.0,0.0,0
5668000,5668000,0.999999,0.00087964797,-0.00055844866,-0.00095197844,1.0,0.0,0.0,0.0,0
5676000,5676000,0.999999,0.00084280095,-0.000571192,-0.0010055442,1.0,0.0,0.0,0.0,0
5688000,5688000,0.999999,0.0008002895,-0.0005670413,-0.0010449238,1.0,0.0,0.0,0.0,0
5696000,5696000,0.999999,0.000765365,-0.00056982,-0.0010405217,1.0,0.0,0.0,0.0,0
5708000,5708000,0.999999,0.0007890247,-0.0006294795,-0.0009955228,1.0,0.0,0.0,0.0,0
5716000,5716000,0.999999,0.0007735759,-0.0006594289,-0.0009979433,1.0,0.0,0.0,0.0,0
5728000,5728000,0.99999905,0.000746761,-0.00066710863,-0.001060867,1.0,0.0,0.0,0.0,0
5736000,5736000,0.9999989,0.0007230812,-0.00067404413,-0.0011076707,1.0,0.0,0.0,0.0,0
5748000,5748000,0.9999988,0.0007447667,-0.00073108816,-0.0011303021,1.0,0.0,0.0,0.0,0
5756000,5756000,0.9999988,0.0007359273,-0.0007346162,-0.0011592535,1.0,0.0,0.0,0.0,0
5768000,5768000,0.9999989,0.0006686357,-0.00078469835,-0.0010520924,1.0,0.0,0.0,0.0,0
5776000,5776000,0.9999991,0.00060940004,-0.0007546803,-0.0009997576,1.0,0.0,0.0,0.0,0
5788000,5788000,0.99999917,0.0006363155,-0.0007606503,-0.00091211946,1.0,0.0,0.0,0.0,0
5796000,5796000,0.99999905,0.00068126846,-0.00079615373,-0.0009042542,1.0,0.0,0.0,0.0,0
5808000,5808000,0.9999989,0.0006945142,-0.0008535853,-0.0010083499,1.0,0.0,0.0,0.0,0
5816000,5816000,0.999999,0.00066650036,-0.00084394665,-0.0010456799,1.0,0.0,0.0,0.0,0
5828000,5828000,0.99999887,0.0006498711,-0.0008632451,-0.0010434897,1.0,0.0,0.0,0.0,0
5836000,5836000,0.99999887,0.00069029664,-0.00086949556,-0.0010828975,1.0,0.0,0.0,0.0,0
5848000,5848000,0.9999988,0.0006922803,-0.00087898015,-0.0011124057,1.0,0.0,0.0,0.0,0
5856000,5856000,0.7016231,0.0011213524,-0.000102663806,0.7125474,0.7008721,2.5750069e-11,8.276402e-11,0.713287,1
5868000,5868000,0.7015481,0.00108305,-8.184631e-05,0.71262133,0.7008721,2.5750069e-11,8.276402e-11,0.713287,1
5876000,5876000,0.7014934,0.0011064991,-0.00019094242,0.71267515,0.7008721,2.5750069e-11,8.276402e-11,0.713287,1
5888000,5888000,0.7014469,0.0011038512,-0.00024421373,0.7127209,0.7008721,2.5750069e-11,8.276402e-11,0.713287,1
5896000,5896000,0.70143294,0.0011192685,-0.00025984363,0.7127346,0.7008721,2.5750069e-11,8.276402e-11,0.713287,1
5908000,5908000,0.7014513,0.0011758056,-0.00022855401,0.71271646,0.7008721,2.5750069e-11,8.276402e-11,0.713287,1
5916000,5916000,0.701456,0.0011896437,-0.00026496107,0.71271175,0.7008721,2.5750069e-11,8.276402e-11,0.713287,1
5928000,5928000,0.7014101,0.0011933463,-0.0002976737,0.7127569,0.7008721,2.5750069e-11,8.276402e-11,0.713287,1
5936000,5936000,0.70139074,0.0012059109,-0.00027326774,0.71277595,0.7008721,2.5750069e-11,8.276402e-11,0.713287,1
5948000,5948000,0.7014283,0.0012141154,-0.0002868556,0.712739,0.7008721,2.5750069e-11,8.276402e-11,0.713287,1
5956000,5956000,0.70144224,0.0012319308,-0.0002632683,0.7127252,0.7008721,2.5750069e-11,8.276402e-11,0.713287,1
5968000,5968000,0.70146483,0.0012436272,-0.00028010618,0.712703,0.7008721,2.5750069e-11,8.276402e-11,0.713287,1
5976000,5976000,0.7014514,0.001211958,-0.0003083988,0.7127162,0.7008721,2.5750069e-11,8.276402e-11,0.713287,1
5988000,5988000,0.7014428,0.0011826875,-0.00036596242,0.7127247,0.7008721,2.5750069e-11,8.276402e-11,0.713287,1
5996000,5996000,0.7014558,0.0011694133,-0.00041299075,0.71271193,0.7008721,2.5750069e-11,8.276402e-11,0.713287,1
6008000,6008000,0.70152485,0.0011639837,-0.00041553873,0.712644,0.7008721,2.5750069e-11,8.276402e-11,0.713287,1
6016000,6016000,0.7015442,0.0011374655,-0.0004257462,0.7126249,0.7008721,2.5750069e-11,8.276402e-11,0.713287,1
6028000,6028000,0.7015952,0.0011095598,-0.0003908157,0.7125748,0.7008721,2.5750069e-11,8.276402e-11,0.713287,1
6036000,6036000,0.7015892,0.0010684899,-0.0004019032,0.71258074,0.7008721,2.5750069e-11,8.276402e-11,0.713287,1
6048000,6048000,0.70163757,0.0010669768,-0.00036263544,0.7125332,0.7008721,2.5750069e-11,8.276402e-11,0.713287,1
6056000,6056000,0.7016648,0.0010701142,-0.0003603567,0.71250635,0.7008721,2.5750069e-11,8.276402e-11,0.713287,1
6068000,6068000,0.70167404,0.0010923878,-0.0003072726,0.7124972,0.7008721,2.5750069e-11,8.276402e-11,0.713287,1
6076000,6076000,0.70167804,0.0011320754,-0.00027711733,0.7124933,0.7008721,2.5750069e-11,8.276402e-11,0.713287,1
6088000,6088000,0.70171213,0.0011078642,-0.00024595013,0.7124597,0.7008721,2.5750069e-11,8.276402e-11,0.713287,1
6096000,6096000,0.70173293,0.0010580466,-0.00019791703,0.71243936,0.7008721,2.5750069e-11,8.276402e-11,0.713287,1
6108000,6108000,0.7017391,0.0010762431,-0.00023755444,0.7124333,0.7008721,2.5750069e-11,8.276402e-11,0.713287,1
6116000,6116000,0.70176166,0.0010697617,-0.000277936,0.712411,0.7008721,2.5750069e-11,8.276402e-11,0.713287,1
6128000,6128000,0.7017664,0.0010702651,-0.00028607922,0.7124064,0.7008721,2.5750069e-11,8.276402e-11,0.713287,1
6136000,6136000,0.7018268,0.0010871124,-0.00027993516,0.71234673,0.7008721,2.5750069e-11,8.276402e-11,0.713287,1
6148000,6148000,0.70190793,0.0010121203,-0.00031283544,0.712267,0.7008721,2.5750069e-11,8.276402e-11,0.713287,1
6156000,6156000,0.70193815,0.0009873651,-0.00029736472,0.7122372,0.7008721,2.5750069e-11,8.276402e-11,0.713287,1
6168000,6168000,0.70196533,0.0009342625,-0.00032353486,0.7122104,0.7008721,2.5750069e-11,8.276402e-11,0.713287,1
6176000,6176000,0.70198387,0.00094831147,-0.00031046418,0.7121922,0.7008721,2.5750069e-11,8.276402e-11,0.713287,1
6188000,6188000,0.7020191,0.0008935688,-0.00033281444,0.71215755,0.7008721,2.5750069e-11,8.276402e-11,0.713287,1
6196000,6196000,0.70201683,0.00083657046,-0.0003328171,0.7121599,0.7008721,2.5750069e-11,8.276402e-11,0.713287,1
6208000,6208000,0.70204675,0.00076753524,-0.0003240174,0.7121304,0.7008721,2.5750069e-11,8.276402e-11,0.713287,1
6216000,6216000,0.70205647,0.0007180582,-0.0002589489,0.71212095,0.7008721,2.5750069e-11,8.276402e-11,0.713287,1
6228000,6228000,0.70206666,0.00066461886,-0.00022452947,0.71211094,0.7008721,2.5750069e-11,8.276402e-11,0.713287,1
6236000,6236000,0.7020943,0.000652807,-0.0002512896,0.7120837,0.7008721,2.5750069e-11,8.276402e-11,0.713287,1
6248000,6248000,0.7020862,0.00063347555,-0.00030986167,0.7120917,0.7008721,2.5750069e-11,8.276402e-11,0.713287,1
6256000,6256000,0.7020942,0.00064823986,-0.0002994542,0.7120837,0.7008721,2.5750069e-11,8.276402e-11,0.713287,1
6268000,6268000,0.7021226,0.0006354158,-0.0003168104,0.71205574,0.7008721,2.5750069e-11,8.276402e-11,0.713287,1
6276000,6276000,0.7021282,0.0006092376,-0.0003051544,0.71205026,0.7008721,2.5750069e-11,8.276402e-11,0.713287,1
6288000,6288000,0.7020841,0.00060025614,-0.00028636464,0.7120937,0.7008721,2.5750069e-11,8.276402e-11,0.713287,1
6296000,6296000,0.702089,0.00058651716,-0.00030439193,0.7120889,0.7008721,2.5750069e-11,8.276402e-11,0.713287,1
6308000,6308000,0.7020297,0.00059570296,-0.00032027968,0.7121474,0.7008721,2.5750069e-11,8.276402e-11,0.713287,1
6316000,6316000,0.7020152,0.0005770943,-0.00035020593,0.7121617,0.7008721,2.5750069e-11,8.276402e-11,0.713287,1
6328000,6328000,0.70202047,0.00051682995,-0.00034950755,0.71215653,0.7008721,2.5750069e-11,8.276402e-11,0.713287,1
6336000,6336000,0.7020232,0.00044958468,-0.00033366156,0.7121538,0.7008721,2.5750069e-11,8.276402e-11,0.713287,1
6348000,6348000,0.702001,0.0004822523,-0.0003537768,0.7121758,0.7008721,2.5750069e-11,8.276402e-11,0.713287,1
6356000,6356000,0.7020033,0.00056901126,-0.00038717227,0.7121734,0.7008721,2.5750069e-11,8.276402e-11,0.713287,1
6368000,6368000,0.7019989,0.00064185716,-0.00036857778,0.71217775,0.7008721,2.5750069e-11,8.276402e-11,0.713287,1
6376000,6376000,0.70198846,0.00068002706,-0.0003886439,0.71218795,0.7008721,2.5750069e-11,8.276402e-11,0.713287,1
6388000,6388000,0.7020053,0.0007273458,-0.00041161836,0.7121712,0.7008721,2.5750069e-11,8.276402e-11,0.713287,1
6396000,6396000,0.70195484,0.0007356189,-0.00039867673,0.71222097,0.7008721,2.5750069e-11,8.276402e-11,0.713287,1
6408000,6408000,0.7019306,0.0007490416,-0.00039523243,0.7122449,0.7008721,2.5750069e-11,8.276402e-11,0.713287,1
6416000,6416000,0.70190907,0.00070043316,-0.0003592086,0.71226615,0.7008721,2.5750069e-11,8.276402e-11,0.713287,1
6428000,6428000,0.7019211,0.0006910686,-0.00029901072,0.7122543,0.7008721,2.5750069e-11,8.276402e-11,0.713287,1
6436000,6436000,0.70187867,0.0006783042,-0.00030293647,0.7122961,0.7008721,2.5750069e-11,8.276402e-11,0.713287,1
6448000,6448000,0.70184076,0.0006612917,-0.0002975065,0.7123335,0.7008721,2.5750069e-11,8.276402e-11,0.713287,1
6456000,6456000,0.7018327,0.00067293027,-0.00026570112,0.7123414,0.7008721,2.5750069e-11,8.276402e-11,0.713287,1
6468000,6468000,0.7018131,0.0006271681,-0.00031055004,0.71236074,0.7008721,2.5750069e-11,8.276402e-11,0.713287,1
6476000,6476000,0.70178735,0.0005842591,-0.0003523598,0.71238625,0.7008721,2.5750069e-11,8.276402e-11,0.713287,1
6488000,6488000,0.7017446,0.0005100296,-0.0004371973,0.7124283,0.7008721,2.5750069e-11,8.276402e-11,0.713287,1
6496000,6496000,0.70170504,0.00050208136,-0.00045219852,0.71246725,0.7008721,2.5750069e-11,8.276402e-11,0.713287,1
6508000,6508000,0.7016632,0.00046149726,-0.00044001828,0.7125085,0.7008721,2.5750069e-11,8.276402e-11,0.713287,1
6516000,6516000,0.70165175,0.00046266447,-0.00040852692,0.71251976,0.7008721,2.5750069e-11,8.276402e-11,0.713287,1
6528000,6528000,0.70161986,0.0004766887,-0.0004372159,0.71255124,0.7008721,2.5750069e-11,8.276402e-11,0.713287,1
6536000,6536000,0.7015863,0.00052215555,-0.00042708663,0.71258426,0.7008721,2.5750069e-11,8.276402e-11,0.713287,1
6548000,6548000,0.7015696,0.00049527065,-0.00044443752,0.7126007,0.7008721,2.5750069e-11,8.276402e-11,0.713287,1
6556000,6556000,0.7015302,0.00052549277,-0.0004941157,0.7126394,0.7008721,2.5750069e-11,8.276402e-11,0.713287,1
6568000,6568000,0.70144904,0.0004893895,-0.00043489036,0.7127194,0.7008721,2.5750069e-11,8.276402e-11,0.713287,1
6576000,6576000,0.70140326,0.0005081345,-0.0004080473,0.7127644,0.7008721,2.5750069e-11,8.276402e-11,0.713287,1
6588000,6588000,0.7013901,0.00048129648,-0.00041138663,0.7127773,0.7008721,2.5750069e-11,8.276402e-11,0.713287,1
6596000,6596000,0.7013888,0.00049141294,-0.00042734822,0.7127787,0.7008721,2.5750069e-11,8.276402e-11,0.713287,1
6608000,6608000,0.70141375,0.00046653915,-0.0004770557,0.7127541,0.7008721,2.5750069e-11,8.276402e-11,0.713287,1
6616000,6616000,0.70143807,0.0004990957,-0.0005140968,0.7127301,0.7008721,2.5750069e-11,8.276402e-11,0.713287,1
6628000,6628000,0.70143867,0.0005109086,-0.0004389534,0.7127296,0.7008721,2.5750069e-11,8.276402e-11,0.713287,1
6636000,6636000,0.7014472,0.0005283824,-0.00045187524,0.71272117,0.7008721,2.5750069e-11,8.276402e-11,0.713287,1
6648000,6648000,0.7014257,0.0004709353,-0.00040203138,0.71274245,0.7008721,2.5750069e-11,8.276402e-11,0.713287,1
6656000,6656000,0.70140827,0.00050351844,-0.0004159111,0.7127595,0.7008721,2.5750069e-11,8.276402e-11,0.713287,1
6668000,6668000,0.7014215,0.00040173403,-0.00044351592,0.7127465,0.7008721,2.5750069e-11,8.276402e-11,0.713287,1
6676000,6676000,0.7014618,0.00037750805,-0.00040841143,0.71270686,0.7008721,2.5750069e-11,8.276402e-11,0.713287,1
6688000,6688000,0.70146656,0.00042054348,-0.00042383967,0.7127022,0.7008721,2.5750069e-11,8.276402e-11,0.713287,1
6696000,6696000,0.7014532,0.00040448408,-0.0004247865,0.7127153,0.7008721,2.5750069e-11,8.276402e-11,0.713287,1
6708000,6708000,0.70147836,0.00041586577,-0.00038910971,0.71269053,0.7008721,2.5750069e-11,8.276402e-11,0.713287,1
6716000,6716000,0.7015432,0.00045039566,-0.00037294402,0.7126267,0.7008721,2.5750069e-11,8.276402e-11,0.713287,1
6728000,6728000,0.70154285,0.00050969585,-0.0004019178,0.712627,0.7008721,2.5750069e-11,8.276402e-11,0.713287,1
6736000,6736000,0.7014798,0.00054390635,-0.00042526165,0.7126891,0.7008721,2.5750069e-11,8.276402e-11,0.713287,1
6748000,6748000,0.7014639,0.00053833774,-0.0004127314,0.71270466,0.7008721,2.5750069e-11,8.276402e-11,0.713287,1
6756000,6756000,0.7014767,0.0005624147,-0.00036104437,0.7126921,0.7008721,2.5750069e-11,8.276402e-11,0.713287,1
6768000,6768000,0.7014527,0.0005743776,-0.00032870457,0.7127158,0.7008721,2.5750069e-11,8.276402e-11,0.713287,1
6776000,6776000,0.7014365,0.0006158317,-0.00030434428,0.7127317,0.7008721,2.5750069e-11,8.276402e-11,0.713287,1
6788000,6788000,0.70141965,0.0007156926,-0.00039100385,0.71274817,0.7008721,2.5750069e-11,8.276402e-11,0.713287,1
6796000,6796000,0.701351,0.0007588828,-0.00037191482,0.71281564,0.7008721,2.5750069e-11,8.276402e-11,0.713287,1
6808000,6808000,0.70134944,0.00077511236,-0.00032056446,0.7128172,0.7008721,2.5750069e-11,8.276402e-11,0.713287,1
6816000,6816000,0.70134866,0.000775794,-0.0003258193,0.71281797,0.7008721,2.5750069e-11,8.276402e-11,0.713287,1
6828000,6828000,0.701311,0.0007891724,-0.00035810136,0.712855,0.7008721,2.5750069e-11,8.276402e-11,0.713287,1
6836000,6836000,0.7012823,0.0008067373,-0.00038280417,0.7128832,0.7008721,2.5750069e-11,8.276402e-11,0.713287,1
6848000,6848000,0.70128214,0.00084822695,-0.00045808154,0.7128832,0.7008721,2.5750069e-11,8.276402e-11,0.713287,1
6856000,6856000,0.701281,0.00085585733,-0.0004466517,0.7128843,0.7008721,2.5750069e-11,8.276402e-11,0.713287,1
6868000,6868000,0.7012723,0.00086390995,-0.00043495913,0.71289295,0.7008721,2.5750069e-11,8.276402e-11,0.713287,1
6876000,6876000,0.7012556,0.00082280685,-0.00040826914,0.71290934,0.7008721,2.5750069e-11,8.276402e-11,0.713287,1
6888000,6888000,0.7012485,0.00085151836,-0.00037631043,0.7129164,0.7008721,2.5750069e-11,8.276402e-11,0.713287,1
6896000,6896000,0.70121765,0.0008400867,-0.0003749732,0.71294665,0.7008721,2.5750069e-11,8.276402e-11,0.713287,1
6908000,6908000,0.70124424,0.00082206045,-0.0003266765,0.71292055,0.7008721,2.5750069e-11,8.276402e-11,0.713287,1
6916000,6916000,0.7012751,0.0008362162,-0.00035922593,0.7128902,0.7008721,2.5750069e-11,8.276402e-11,0.713287,1
6928000,6928000,0.70127535,0.00088574644,-0.0004138162,0.71288997,0.7008721,2.5750069e-11,8.276402e-11,0.713287,1
6936000,6936000,0.7012933,0.00088815193,-0.0003973735,0.7128722,0.7008721,2.5750069e-11,8.276402e-11,0.713287,1
6948000,6948000,0.7013069,0.00090135244,-0.00036311417,0.7128589,0.7008721,2.5750069e-11,8.276402e-11,0.713287,1
6956000,6956000,0.70134014,0.0009008053,-0.00031830548,0.7128262,0.7008721,2.5750069e-11,8.276402e-11,0.713287,1
6968000,6968000,0.7013843,0.00086717156,-0.00031928704,0.7127828,0.7008721,2.5750069e-11,8.276402e-11,0.713287,1
6976000,6976000,0.70138395,0.00082902354,-0.00028905694,0.7127832,0.7008721,2.5750069e-11,8.276402e-11,0.713287,1
6988000,6988000,0.7013185,0.0007638306,-0.0002673367,0.7128476,0.7008721,2.5750069e-11,8.276402e-11,0.713287,1
6996000,6996000,0.7013346,0.0007508666,-0.00023718602,0.71283185,0.7008721,2.5750069e-11,8.276402e-11,0.713287,1
7008000,7008000,0.7013862,0.0007383855,-0.0002200683,0.7127811,0.7008721,2.5750069e-11,8.276402e-11,0.713287,1
7016000,7016000,0.7014256,0.0007290836,-0.00023084563,0.7127423,0.7008721,2.5750069e-11,8.276402e-11,0.713287,1
7028000,7028000,0.70146227,0.0007283495,-0.0002072467,0.71270627,0.7008721,2.5750069e-11,8.276402e-11,0.713287,1
7036000,7036000,0.701483,0.0007835967,-0.00019016919,0.71268576,0.7008721,2.5750069e-11,8.276402e-11,0.713287,1
7048000,7048000,0.7015128,0.0007820577,-0.00015859418,0.7126564,0.7008721,2.5750069e-11,8.276402e-11,0.713287,1
7056000,7056000,0.70153046,0.0007819835,-0.00013461446,0.71263903,0.7008721,2.5750069e-11,8.276402e-11,0.713287,1
7068000,7068000,0.7015289,0.0007322691,-0.00011953855,0.71264064,0.7008721,2.5750069e-11,8.276402e-11,0.713287,1
7076000,7076000,0.70148903,0.00076702127,-5.9385526e-05,0.71267986,0.7008721,2.5750069e-11,8.276402e-11,0.713287,1
7088000,7088000,0.70148647,0.0008236635,3.1534528e-05,0.7126823,0.7008721,2.5750069e-11,8.276402e-11,0.713287,1
7096000,7096000,0.7015046,0.00080442237,7.717486e-05,0.71266454,0.7008721,2.5750069e-11,8.276402e-11,0.713287,1
7108000,7108000,0.7014832,0.00083523185,0.000109523855,0.7126856,0.7008721,2.5750069e-11,8.276402e-11,0.713287,1
7116000,7116000,0.7014796,0.0007794356,0.00014215618,0.71268916,0.7008721,2.5750069e-11,8.276402e-11,0.713287,1
7128000,7128000,0.70152545,0.0007733527,0.00015540372,0.71264404,0.7008721,2.5750069e-11,8.276402e-11,0.713287,1
7136000,7136000,0.7015236,0.00078112463,0.00015680541,0.7126458,0.7008721,2.5750069e-11,8.276402e-11,0.713287,1
7148000,7148000,0.7014738,0.0008554781,0.00017674241,0.7126948,0.7008721,2.5750069e-11,8.276402e-11,0.713287,1
7156000,7156000,0.7014418,0.00085468346,0.00016852513,0.7127262,0.7008721,2.5750069e-11,8.276402e-11,0.713287,1
7168000,7168000,0.7014748,0.00083669036,0.00017081662,0.7126938,0.7008721,2.5750069e-11,8.276402e-11,0.713287,1
7176000,7176000,0.70147073,0.00088262104,0.0001856987,0.71269774,0.7008721,2.5750069e-11,8.276402e-11,0.713287,1
7188000,7188000,0.70150197,0.000924864,0.0002472084,0.71266687,0.7008721,2.5750069e-11,8.276402e-11,0.713287,1
7196000,7196000,0.70148486,0.0008774206,0.0002840314,0.7126838,0.7008721,2.5750069e-11,8.276402e-11,0.713287,1
7208000,7208000,0.7014671,0.0008828044,0.00026415294,0.7127013,0.7008721,2.5750069e-11,8.276402e-11,0.713287,1
7216000,7216000,0.70147943,0.0008560673,0.00027417156,0.7126891,0.7008721,2.5750069e-11,8.276402e-11,0.713287,1
7228000,7228000,0.70150787,0.00087580533,0.00024506653,0.7126612,0.7008721,2.5750069e-11,8.276402e-11,0.713287,1
7236000,7236000,0.7015183,0.0008538222,0.00024319683,0.71265095,0.7008721,2.5750069e-11,8.276402e-11,0.713287,1
7248000,7248000,0.7015316,0.0009085142,0.00032582003,0.71263766,0.7008721,2.5750069e-11,8.276402e-11,0.713287,1
7256000,7256000,0.7015319,0.0009026554,0.00039501395,0.71263736,0.7008721,2.5750069e-11,8.276402e-11,0.713287,1
7268000,7268000,0.7015494,0.00093398266,0.0004219509,0.71262014,0.7008721,2.5750069e-11,8.276402e-11,0.713287,1
7276000,7276000,0.7015917,0.0009131962,0.00043529994,0.71257854,0.7008721,2.5750069e-11,8.276402e-11,0.713287,1
7288000,7288000,0.7015855,0.0008642087,0.00044417998,0.7125847,0.7008721,2.5750069e-11,8.276402e-11,0.713287,1
7296000,7296000,0.70157117,0.00085873116,0.0004867144,0.71259874,0.7008721,2.5750069e-11,8.276402e-11,0.713287,1
7308000,7308000,0.70157206,0.0008434971,0.0005075217,0.71259785,0.7008721,2.5750069e-11,8.276402e-11,0.713287,1
7316000,7316000,0.7015652,0.00083489827,0.0005354228,0.71260464,0.7008721,2.5750069e-11,8.276402e-11,0.713287,1
7328000,7328000,0.70163167,0.0008578338,0.00054219743,0.71253914,0.7008721,2.5750069e-11,8.276402e-11,0.713287,1
7336000,7336000,0.701684,0.0008223117,0.00055910717,0.7124876,0.7008721,2.5750069e-11,8.276402e-11,0.713287,1
7348000,7348000,0.7017032,0.0008141431,0.0005492783,0.71246874,0.7008721,2.5750069e-11,8.276402e-11,0.713287,1
7356000,7356000,0.7017213,0.0008142314,0.0005525202,0.7124509,0.7008721,2.5750069e-11,8.276402e-11,0.713287,1
7368000,7368000,0.7017749,0.00083173753,0.00061322417,0.7123981,0.7008721,2.5750069e-11,8.276402e-11,0.713287,1
7376000,7376000,0.7017922,0.00082077325,0.0006326415,0.712381,0.7008721,2.5750069e-11,8.276402e-11,0.713287,1
7388000,7388000,0.701777,0.0007509874,0.00065451756,0.712396,0.7008721,2.5750069e-11,8.276402e-11,0.713287,1
7396000,7396000,0.701772,0.00076216774,0.00068131025,0.712401,0.7008721,2.5750069e-11,8.276402e-11,0.713287,1
7408000,7408000,0.7017436,0.00081089424,0.00069041306,0.7124288,0.7008721,2.5750069e-11,8.276402e-11,0.713287,1
7416000,7416000,0.7017677,0.0007919736,0.0006504407,0.7124051,0.7008721,2.5750069e-11,8.276402e-11,0.713287,1
7428000,7428000,0.7017514,0.0006951262,0.0005989117,0.71242136,0.7008721,2.5750069e-11,8.276402e-11,0.713287,1
7436000,7436000,0.7017684,0.00072149973,0.0005570491,0.7124046,0.7008721,2.5750069e-11,8.276402e-11,0.713287,1
7448000,7448000,0.7017783,0.0007866678,0.0004964213,0.71239483,0.7008721,2.5750069e-11,8.276402e-11,0.713287,1
7456000,7456000,0.70181423,0.00077766576,0.00051122875,0.7123594,0.7008721,2.5750069e-11,8.276402e-11,0.713287,1
7468000,7468000,0.7017884,0.00075161766,0.0004972528,0.7123849,0.7008721,2.5750069e-11,8.276402e-11,0.713287,1
7476000,7476000,0.70181525,0.0007451317,0.0004865154,0.71235853,0.7008721,2.5750069e-11,8.276402e-11,0.713287,1
7488000,7488000,0.7018521,0.00074008416,0.00046699453,0.71232224,0.7008721,2.5750069e-11,8.276402e-11,0.713287,1
7496000,7496000,0.7018454,0.00069285964,0.0004793694,0.71232885,0.7008721,2.5750069e-11,8.276402e-11,0.713287,1
7508000,7508000,0.70188814,0.00065326603,0.0005123982,0.7122867,0.7008721,2.5750069e-11,8.276402e-11,0.713287,1
7516000,7516000,0.7019306,0.0006403876,0.0005049347,0.7122449,0.7008721,2.5750069e-11,8.276402e-11,0.713287,1
7528000,7528000,0.7019287,0.00063670543,0.00052360614,0.7122468,0.7008721,2.5750069e-11,8.276402e-11,0.713287,1
7536000,7536000,0.70194256,0.00068317185,0.0005474212,0.71223307,0.7008721,2.5750069e-11,8.276402e-11,0.713287,1
7548000,7548000,0.7019297,0.0007182558,0.00053908094,0.71224576,0.7008721,2.5750069e-11,8.276402e-11,0.713287,1
7556000,7556000,0.7019469,0.00069908466,0.00057821104,0.7122287,0.7008721,2.5750069e-11,8.276402e-11,0.713287,1
7568000,7568000,0.70198905,0.00064646394,0.0005441337,0.71218723,0.7008721,2.5750069e-11,8.276402e-11,0.713287,1
7576000,7576000,0.7019934,0.0006097549,0.00049406406,0.712183,0.7008721,2.5750069e-11,8.276402e-11,0.713287,1
7588000,7588000,0.702028,0.00057096407,0.0004911218,0.71214896,0.7008721,2.5750069e-11,8.276402e-11,0.713287,1
7596000,7596000,0.7020691,0.0005279877,0.00044993244,0.71210855,0.7008721,2.5750069e-11,8.276402e-11,0.713287,1
7608000,7608000,0.7020906,0.0004676017,0.00038597078,0.71208733,0.7008721,2.5750069e-11,8.276402e-11,0.713287,1
7616000,7616000,0.70213133,0.00047122894,0.00038678996,0.7120472,0.7008721,2.5750069e-11,8.276402e-11,0.713287,1
7628000,7628000,0.70220006,0.00046729515,0.0004360905,0.71197945,0.7008721,2.5750069e-11,8.276402e-11,0.713287,1
7636000,7636000,0.70223296,0.00045324065,0.00045852215,0.711947,0.7008721,2.5750069e-11,8.276402e-11,0.713287,1
7648000,7648000,0.70229,0.00036940776,0.00053122075,0.71189076,0.7008721,2.5750069e-11,8.276402e-11,0.713287,1
7656000,7656000,0.702298,0.000402904,0.0005625396,0.71188277,0.7008721,2.5750069e-11,8.276402e-11,0.713287,1
7668000,7668000,0.7023674,0.00043666552,0.0005540208,0.7118143,0.7008721,2.5750069e-11,8.276402e-11,0.713287,1
7676000,7676000,0.70240444,0.00044790126,0.000543891,0.71177775,0.7008721,2.5750069e-11,8.276402e-11,0.713287,1
7688000,7688000,0.7023901,0.00045821487,0.00049616786,0.711792,0.7008721,2.5750069e-11,8.276402e-11,0.713287,1
7696000,7696000,0.7023715,0.00039322014,0.0004711575,0.71181035,0.7008721,2.5750069e-11,8.276402e-11,0.713287,1
7708000,7708000,0.7023272,0.0002860483,0.0005349683,0.711854,0.7008721,2.5750069e-11,8.276402e-11,0.713287,1
7716000,7716000,0.7023616,0.0002656947,0.00055936904,0.7118201,0.7008721,2.5750069e-11,8.276402e-11,0.713287,1
7728000,7728000,0.70242035,0.00028772446,0.0005715806,0.7117621,0.7008721,2.5750069e-11,8.276402e-11,0.713287,1
7736000,7736000,0.70242035,0.00025706636,0.00055585406,0.7117622,0.7008721,2.5750069e-11,8.276402e-11,0.713287,1
7748000,7748000,0.7024221,0.00019187962,0.00050962844,0.7117605,0.7008721,2.5750069e-11,8.276402e-11,0.713287,1
7756000,7756000,0.70246536,0.000215314,0.0004971885,0.7117178,0.7008721,2.5750069e-11,8.276402e-11,0.713287,1
7768000,7768000,0.70250136,0.00027780296,0.00056095317,0.7116822,0.7008721,2.5750069e-11,8.276402e-11,0.713287,1
7776000,7776000,0.702511,0.00033975503,0.00060468225,0.71167254,0.7008721,2.5750069e-11,8.276402e-11,0.713287,1
7788000,7788000,0.7025205,0.00040547142,0.0006144892,0.7116631,0.7008721,2.5750069e-11,8.276402e-11,0.713287,1
7796000,7796000,0.7025293,0.00044825987,0.00065678055,0.71165437,0.7008721,2.5750069e-11,8.276402e-11,0.713287,1
7808000,7808000,0.70255125,0.00044971067,0.0006823144,0.7116328,0.7008721,2.5750069e-11,8.276402e-11,0.713287,1
7816000,7816000,0.70254093,0.00042790672,0.00075676787,0.71164286,0.7008721,2.5750069e-11,8.276402e-11,0.713287,1
7828000,7828000,0.70251924,0.00041471183,0.00080209074,0.7116642,0.7008721,2.5750069e-11,8.276402e-11,0.713287,1
7836000,7836000,0.7024952,0.00038667393,0.00084740977,0.7116879,0.7008721,2.5750069e-11,8.276402e-11,0.713287,1
7848000,7848000,0.7024973,0.000416477,0.00090219395,0.7116858,0.7008721,2.5750069e-11,8.276402e-11,0.713287,1
7856000,7856000,0.7024865,0.0004435917,0.00085253105,0.71169645,0.7008721,2.5750069e-11,8.276402e-11,0.713287,1
7868000,7868000,0.70247364,0.00047114858,0.0007981362,0.71170926,0.7008721,2.5750069e-11,8.276402e-11,0.713287,1
7876000,7876000,0.7024984,0.00043071972,0.00074686354,0.7116849,0.7008721,2.5750069e-11,8.276402e-11,0.713287,1
7888000,7888000,0.7025033,0.00044711522,0.0007320707,0.71168,0.7008721,2.5750069e-11,8.276402e-11,0.713287,1
7896000,7896000,0.70248824,0.00044831712,0.00069111714,0.7116949,0.7008721,2.5750069e-11,8.276402e-11,0.713287,1
7908000,7908000,0.70250696,0.0004635355,0.0006031887,0.71167654,0.7008721,2.5750069e-11,8.276402e-11,0.713287,1
7916000,7916000,0.70250994,0.00043826926,0.00059615425,0.7116736,0.7008721,2.5750069e-11,8.276402e-11,0.713287,1
7928000,7928000,0.7024943,0.00046286333,0.00060646917,0.71168894,0.7008721,2.5750069e-11,8.276402e-11,0.713287,1
7936000,7936000,0.7024793,0.00045049275,0.0005464862,0.7117039,0.7008721,2.5750069e-11,8.276402e-11,0.713287,1
7948000,7948000,0.7024587,0.00050698215,0.0004805166,0.71172416,0.7008721,2.5750069e-11,8.276402e-11,0.713287,1
7956000,7956000,0.7024563,0.00049773714,0.00047371662,0.71172655,0.7008721,2.5750069e-11,8.276402e-11,0.713287,1
7968000,7968000,0.70247,0.00053455855,0.00049483473,0.711713,0.7008721,2.5750069e-11,8.276402e-11,0.713287,1
7976000,7976000,0.7024724,0.000551791,0.00042316402,0.7117107,0.7008721,2.5750069e-11,8.276402e-11,0.713287,1
7988000,7988000,0.70250475,0.00065878726,0.0004366125,0.7116786,0.7008721,2.5750069e-11,8.276402e-11,0.713287,1
7996000,7996000,0.70250344,0.000675196,0.00044072926,0.71167994,0.7008721,2.5750069e-11,8.276402e-11,0.713287,1
8008000,8008000,0.7025051,0.00063239294,0.00039191966,0.7116783,0.7008721,2.5750069e-11,8.276402e-11,0.713287,1
8016000,8016000,0.7025013,0.00061550835,0.00030700542,0.7116822,0.7008721,2.5750069e-11,8.276402e-11,0.713287,1
8028000,8028000,0.7025071,0.00055235595,0.00026342797,0.7116765,0.7008721,2.5750069e-11,8.276402e-11,0.713287,1
8036000,8036000,0.70252347,0.0005045972,0.00023525317,0.71166044,0.7008721,2.5750069e-11,8.276402e-11,0.713287,1
8048000,8048000,0.7025913,0.000460527,0.0002664832,0.7115935,0.7008721,2.5750069e-11,8.276402e-11,0.713287,1
8056000,8056000,0.70261866,0.0004353988,0.00029009368,0.7115664,0.7008721,2.5750069e-11,8.276402e-11,0.713287,1
8068000,8068000,0.70264965,0.00045565437,0.00030856646,0.7115358,0.7008721,2.5750069e-11,8.276402e-11,0.713287,1
8076000,8076000,0.70267797,0.00047526177,0.0003177971,0.71150786,0.7008721,2.5750069e-11,8.276402e-11,0.713287,1
8088000,8088000,0.70264536,0.00044253952,0.00033121137,0.71154004,0.7008721,2.5750069e-11,8.276402e-11,0.713287,1
8096000,8096000,0.7026536,0.0004593949,0.00029526433,0.7115319,0.7008721,2.5750069e-11,8.276402e-11,0.713287,1
8108000,8108000,0.70274097,0.00046194418,0.00031371287,0.7114456,0.7008721,2.5750069e-11,8.276402e-11,0.713287,1
8116000,8116000,0.70278955,0.00044832387,0.0003237605,0.7113976,0.7008721,2.5750069e-11,8.276402e-11,0.713287,1
8128000,8128000,0.7027669,0.00045590012,0.00031801118,0.71142006,0.7008721,2.5750069e-11,8.276402e-11,0.713287,1
8136000,8136000,0.70278925,0.000474292,0.00026225898,0.7113979,0.7008721,2.5750069e-11,8.276402e-11,0.713287,1
8148000,8148000,0.7027829,0.00039838647,0.00022272662,0.71140426,0.7008721,2.5750069e-11,8.276402e-11,0.713287,1
8156000,8156000,0.7027984,0.00037282618,0.00019941083,0.71138895,0.7008721,2.5750069e-11,8.276402e-11,0.713287,1
8168000,8168000,0.7028062,0.0003538787,0.00024832893,0.71138126,0.7008721,2.5750069e-11,8.276402e-11,0.713287,1
8176000,8176000,0.70279646,0.00033865336,0.0003100164,0.71139085,0.7008721,2.5750069e-11,8.276402e-11,0.713287,1
8188000,8188000,0.702774,0.00029540723,0.00031273582,0.7114131,0.7008721,2.5750069e-11,8.276402e-11,0.713287,1
8196000,8196000,0.70278114,0.00028259074,0.00033548044,0.711406,0.7008721,2.5750069e-11,8.276402e-11,0.713287,1
8208000,8208000,0.7027683,0.000217282,0.00035195512,0.7114187,0.7008721,2.5750069e-11,8.276402e-11,0.713287,1
8216000,8216000,0.7027611,0.0001963991,0.00032663794,0.7114259,0.7008721,2.5750069e-11,8.276402e-11,0.713287,1
8228000,8228000,0.70267785,0.00022684642,0.00026830682,0.71150815,0.7008721,2.5750069e-11,8.276402e-11,0.713287,1
8236000,8236000,0.7026659,0.0002539862,0.00023040414,0.71151984,0.7008721,2.5750069e-11,8.276402e-11,0.713287,1
8248000,8248000,0.7026822,0.00022619823,0.00024382348,0.71150374,0.7008721,2.5750069e-11,8.276402e-11,0.713287,1
8256000,8256000,0.7026925,0.00018185438,0.000277741,0.7114936,0.7008721,2.5750069e-11,8.276402e-11,0.713287,1
8268000,8268000,0.7027068,0.00017956259,0.0002846053,0.71147954,0.7008721,2.5750069e-11,8.276402e-11,0.713287,1
8276000,8276000,0.7026788,0.00017394571,0.000296467,0.7115072,0.7008721,2.5750069e-11,8.276402e-11,0.713287,1
8288000,8288000,0.7026906,0.00018713015,0.00027830474,0.71149546,0.7008721,2.5750069e-11,8.276402e-11,0.713287,1
8296000,8296000,0.70268077,0.00016954972,0.00024327383,0.7115053,0.7008721,2.5750069e-11,8.276402e-11,0.713287,1
8308000,8308000,0.702707,0.00020852977,0.0002473188,0.7114793,0.7008721,2.5750069e-11,8.276402e-11,0.713287,1
8316000,8316000,0.70271516,0.00021823394,0.00028748612,0.71147126,0.7008721,2.5750069e-11,8.276402e-11,0.713287,1
8328000,8328000,0.70274025,0.0002269393,0.00038334503,0.71144646,0.7008721,2.5750069e-11,8.276402e-11,0.713287,1
8336000,8336000,0.70277023,0.00023873,0.0004350482,0.7114167,0.7008721,2.5750069e-11,8.276402e-11,0.713287,1
8348000,8348000,0.7027131,0.00018739552,0.00045234594,0.7114732,0.7008721,2.5750069e-11,8.276402e-11,0.713287,1
8356000,8356000,0.7027121,0.0001757867,0.0005033433,0.7114742,0.7008721,2.5750069e-11,8.276402e-11,0.713287,1
8368000,8368000,0.70272464,0.00023529018,0.0005127409,0.7114618,0.7008721,2.5750069e-11,8.276402e-11,0.713287,1
8376000,8376000,0.7027545,0.00022274736,0.0005170706,0.7114322,0.7008721,2.5750069e-11,8.276402e-11,0.713287,1
8388000,8388000,0.70271266,0.0002992189,0.00053863483,0.7114735,0.7008721,2.5750069e-11,8.276402e-11,0.713287,1
8396000,8396000,0.7027217,0.00026254173,0.00053867884,0.71146464,0.7008721,2.5750069e-11,8.276402e-11,0.713287,1
8408000,8408000,0.7027166,0.00021997448,0.00051508314,0.7114697,0.7008721,2.5750069e-11,8.276402e-11,0.713287,1
8416000,8416000,0.7027761,0.00019753713,0.00050731294,0.71141094,0.7008721,2.5750069e-11,8.276402e-11,0.713287,1
8428000,8428000,0.70278996,0.00021759371,0.0005300348,0.71139723,0.7008721,2.5750069e-11,8.276402e-11,0.713287,1
8436000,8436000,0.70285404,0.00025345993,0.000518077,0.71133393,0.7008721,2.5750069e-11,8.276402e-11,0.713287,1
8448000,8448000,0.70290655,0.0002947674,0.0005209155,0.711282,0.7008721,2.5750069e-11,8.276402e-11,0.713287,1
8456000,8456000,0.7029206,0.00030942063,0.00051742734,0.7112681,0.7008721,2.5750069e-11,8.276402e-11,0.713287,1
8468000,8468000,0.70293975,0.00031930883,0.00053639716,0.7112492,0.7008721,2.5750069e-11,8.276402e-11,0.713287,1
8476000,8476000,0.7029231,0.00032808536,0.00054092385,0.7112656,0.7008721,2.5750069e-11,8.276402e-11,0.713287,1
8488000,8488000,0.7029133,0.00029446106,0.00052857,0.71127534,0.7008721,2.5750069e-11,8.276402e-11,0.713287,1
8496000,8496000,0.70290047,0.00028151204,0.0004828387,0.71128803,0.7008721,2.5750069e-11,8.276402e-11,0.713287,1
8508000,8508000,0.70290756,0.00024289757,0.0005115131,0.711281,0.7008721,2.5750069e-11,8.276402e-11,0.713287,1
8516000,8516000,0.7029177,0.00023660448,0.00049447507,0.711271,0.7008721,2.5750069e-11,8.276402e-11,0.713287,1
8528000,8528000,0.7029137,0.00023930593,0.0004944205,0.711275,0.7008721,2.5750069e-11,8.276402e-11,0.713287,1
8536000,8536000,0.7029496,0.0002207802,0.00048940995,0.7112395,0.7008721,2.5750069e-11,8.276402e-11,0.713287,1
8548000,8548000,0.70295966,0.000181906,0.0005159349,0.71122956,0.7008721,2.5750069e-11,8.276402e-11,0.713287,1
8556000,8556000,0.70298016,0.00014500631,0.0005439743,0.71120924,0.7008721,2.5750069e-11,8.276402e-11,0.713287,1
8568000,8568000,0.70300466,0.0001746092,0.0005192927,0.71118504,0.7008721,2.5750069e-11,8.276402e-11,0.713287,1
8576000,8576000,0.7030244,0.00019039885,0.0005551663,0.71116555,0.7008721,2.5750069e-11,8.276402e-11,0.713287,1
8588000,8588000,0.70301354,0.00015538641,0.0005703957,0.7111763,0.7008721,2.5750069e-11,8.276402e-11,0.713287,1
8596000,8596000,0.7030355,9.435777e-05,0.000600547,0.7111546,0.7008721,2.5750069e-11,8.276402e-11,0.713287,1
8608000,8608000,0.70306575,0.000112116235,0.0005957432,0.71112466,0.7008721,2.5750069e-11,8.276402e-11,0.713287,1
8616000,8616000,0.70308,0.0001129954,0.0005968705,0.7111106,0.7008721,2.5750069e-11,8.276402e-11,0.713287,1
8628000,8628000,0.7031193,0.00011809928,0.0006345389,0.7110717,0.7008721,2.5750069e-11,8.276402e-11,0.713287,1
8636000,8636000,0.7031342,0.00010273602,0.00066379394,0.7110569,0.7008721,2.5750069e-11,8.276402e-11,0.713287,1
8648000,8648000,0.70313483,5.8796963e-05,0.00069623097,0.7110563,0.7008721,2.5750069e-11,8.276402e-11,0.713287,1
8656000,8656000,0.70312667,2.4249626e-05,0.0006824065,0.71106434,0.7008721,2.5750069e-11,8.276402e-11,0.713287,1
8668000,8668000,0.70316494,2.4426045e-05,0.00066533015,0.7110265,0.7008721,2.5750069e-11,8.276402e-11,0.713287,1
8676000,8676000,0.7031694,3.7792866e-05,0.0006581439,0.7110221,0.7008721,2.5750069e-11,8.276402e-11,0.713287,1
8688000,8688000,0.70318574,0.00010986848,0.00068924355,0.7110059,0.7008721,2.5750069e-11,8.276402e-11,0.713287,1
8696000,8696000,0.7032166,0.00013579501,0.0006794892,0.71097535,0.7008721,2.5750069e-11,8.276402e-11,0.713287,1
8708000,8708000,0.7031938,0.000117467156,0.0006962439,0.71099794,0.7008721,2.5750069e-11,8.276402e-11,0.713287,1
8716000,8716000,0.7031758,8.41068e-05,0.0006900301,0.71101576,0.7008721,2.5750069e-11,8.276402e-11,0.713287,1
8728000,8728000,0.70315886,1.3181244e-05,0.00073755474,0.71103245,0.7008721,2.5750069e-11,8.276402e-11,0.713287,1
8736000,8736000,0.70316845,3.07286e-05,0.0007521509,0.7110229,0.7008721,2.5750069e-11,8.276402e-11,0.713287,1
8748000,8748000,0.7031305,-2.2364628e-05,0.0007681428,0.71106046,0.7008721,2.5750069e-11,8.276402e-11,0.713287,1
8756000,8756000,0.7031174,-4.521422e-05,0.00077403313,0.71107346,0.7008721,2.5750069e-11,8.276402e-11,0.713287,1
8768000,8768000,0.7031584,-0.000101967285,0.00074459554,0.7110329,0.7008721,2.5750069e-11,8.276402e-11,0.713287,1
8776000,8776000,0.70319664,-0.0001231413,0.00074607757,0.7109951,0.7008721,2.5750069e-11,8.276402e-11,0.713287,1
8788000,8788000,0.7032307,-0.000102400685,0.0007850153,0.7109614,0.7008721,2.5750069e-11,8.276402e-11,0.713287,1
8796000,8796000,0.70325327,-0.00011639836,0.00082092313,0.710939,0.7008721,2.5750069e-11,8.276402e-11,0.713287,1
8808000,8808000,0.70323366,-0.000116629795,0.0007657699,0.71095836,0.7008721,2.5750069e-11,8.276402e-11,0.713287,1
8816000,8816000,0.7032221,-0.00013940352,0.0007252886,0.7109699,0.7008721,2.5750069e-11,8.276402e-11,0.713287,1
8828000,8828000,0.70320153,-0.00013674414,0.000738855,0.71099025,0.7008721,2.5750069e-11,8.276402e-11,0.713287,1
8836000,8836000,0.70317996,-0.00018637099,0.00075295137,0.7110116,0.7008721,2.5750069e-11,8.276402e-11,0.713287,1
8848000,8848000,0.70315504,-0.00014972617,0.00086896046,0.711036,0.7008721,2.5750069e-11,8.276402e-11,0.713287,1
8856000,8856000,0.703152,-0.00013301277,0.0009001067,0.71103907,0.7008721,2.5750069e-11,8.276402e-11,0.713287,1
8868000,8868000,0.7031662,-9.168555e-05,0.0010298834,0.7110248,0.7008721,2.5750069e-11,8.276402e-11,0.713287,1
8876000,8876000,0.7031775,-9.580838e-05,0.0010505058,0.71101356,0.7008721,2.5750069e-11,8.276402e-11,0.713287,1
8888000,8888000,0.7032344,-6.757756e-05,0.0010647534,0.7109574,0.7008721,2.5750069e-11,8.276402e-11,0.713287,1
8896000,8896000,0.7032263,-5.1263414e-05,0.0010976463,0.7109653,0.7008721,2.5750069e-11,8.276402e-11,0.713287,1
8908000,8908000,0.7032311,-1.18301705e-05,0.0011087419,0.71096057,0.7008721,2.5750069e-11,8.276402e-11,0.713287,1
8916000,8916000,0.70323765,2.3339484e-05,0.001156178,0.71095395,0.7008721,2.5750069e-11,8.276402e-11,0.713287,1
8928000,8928000,0.7032715,5.54041e-05,0.001163668,0.7109205,0.7008721,2.5750069e-11,8.276402e-11,0.713287,1
8936000,8936000,0.7032806,6.628205e-05,0.0011526742,0.7109114,0.7008721,2.5750069e-11,8.276402e-11,0.713287,1
8948000,8948000,0.7033038,7.548695e-05,0.001108854,0.71088856,0.7008721,2.5750069e-11,8.276402e-11,0.713287,1
8956000,8956000,0.70329314,1.5758043e-05,0.00111524,0.7108992,0.7008721,2.5750069e-11,8.276402e-11,0.713287,1
8968000,8968000,0.70324796,1.8071887e-05,0.0011491101,0.7109438,0.7008721,2.5750069e-11,8.276402e-11,0.713287,1
8976000,8976000,0.70321894,5.139609e-05,0.0011775512,0.7109724,0.7008721,2.5750069e-11,8.276402e-11,0.713287,1
8988000,8988000,0.7032074,1.770408e-05,0.0012015458,0.7109838,0.7008721,2.5750069e-11,8.276402e-11,0.713287,1
8996000,8996000,0.70319676,6.328278e-06,0.0012211591,0.7109943,0.7008721,2.5750069e-11,8.276402e-11,0.713287,1
9008000,9008000,0.70318514,5.678496e-06,0.0012224811,0.71100575,0.7008721,2.5750069e-11,8.276402e-11,0.713287,1
9016000,9016000,0.7031994,2.1295753e-06,0.0011970142,0.71099174,0.7008721,2.5750069e-11,8.276402e-11,0.713287,1
9028000,9028000,0.7032109,-9.739378e-06,0.001265828,0.7109802,0.7008721,2.5750069e-11,8.276402e-11,0.713287,1
9036000,9036000,0.70317894,-1.7845974e-05,0.0012751294,0.71101177,0.7008721,2.5750069e-11,8.276402e-11,0.713287,1
9048000,9048000,0.703128,-2.9468309e-05,0.0012715082,0.7110622,0.7008721,2.5750069e-11,8.276402e-11,0.713287,1
9056000,9056000,0.703128,-3.3588745e-05,0.001243323,0.7110623,0.7008721,2.5750069e-11,8.276402e-11,0.713287,1
9068000,9068000,0.7031056,-1.4167063e-05,0.0012841534,0.7110843,0.7008721,2.5750069e-11,8.276402e-11,0.713287,1
9076000,9076000,0.7030886,-1.286776e-06,0.0013292792,0.7111011,0.7008721,2.5750069e-11,8.276402e-11,0.713287,1
9088000,9088000,0.7030779,1.1543576e-05,0.001348458,0.71111166,0.7008721,2.5750069e-11,8.276402e-11,0.713287,1
9096000,9096000,0.70307684,6.9364432e-06,0.0013556342,0.7111126,0.7008721,2.5750069e-11,8.276402e-11,0.713287,1
9108000,9108000,0.70309514,3.133648e-05,0.0013756988,0.71109456,0.7008721,2.5750069e-11,8.276402e-11,0.713287,1
9116000,9116000,0.70306784,4.8094666e-05,0.0013973141,0.7111215,0.7008721,2.5750069e-11,8.276402e-11,0.713287,1
9128000,9128000,0.7030695,9.690444e-05,0.0014132296,0.7111197,0.7008721,2.5750069e-11,8.276402e-11,0.713287,1
9136000,9136000,0.70305485,0.00011171848,0.0014490349,0.71113425,0.7008721,2.5750069e-11,8.276402e-11,0.713287,1
9148000,9148000,0.7030385,0.00013925825,0.0014152803,0.71115035,0.7008721,2.5750069e-11,8.276402e-11,0.713287,1
9156000,9156000,0.7029996,0.00016942958,0.0014122167,0.71118885,0.7008721,2.5750069e-11,8.276402e-11,0.713287,1
9168000,9168000,0.70300806,0.00015916528,0.0012985358,0.71118075,0.7008721,2.5750069e-11,8.276402e-11,0.713287,1
9176000,9176000,0.7030179,0.0001833286,0.0012558424,0.7111711,0.7008721,2.5750069e-11,8.276402e-11,0.713287,1
9188000,9188000,0.7030327,0.00024797366,0.0012488675,0.7111565,0.7008721,2.5750069e-11,8.276402e-11,0.713287,1
9196000,9196000,0.70304596,0.00026366132,0.0012169818,0.7111434,0.7008721,2.5750069e-11,8.276402e-11,0.713287,1
9208000,9208000,0.7030035,0.0002550539,0.0012251176,0.71118534,0.7008721,2.5750069e-11,8.276402e-11,0.713287,1
9216000,9216000,0.7029975,0.0002394835,0.0012423047,0.71119124,0.7008721,2.5750069e-11,8.276402e-11,0.713287,1
9228000,9228000,0.7030353,0.00021228878,0.0012187562,0.711154,0.7008721,2.5750069e-11,8.276402e-11,0.713287,1
9236000,9236000,0.7030482,0.00017246534,0.0012338407,0.7111411,0.7008721,2.5750069e-11,8.276402e-11,0.713287,1
9248000,9248000,0.703013,0.00015752239,0.0012277468,0.7111759,0.7008721,2.5750069e-11,8.276402e-11,0.713287,1
9256000,9256000,0.70298505,0.0001384578,0.0012255153,0.7112036,0.7008721,2.5750069e-11,8.276402e-11,0.713287,1
9268000,9268000,0.7029713,0.0001649704,0.0011781326,0.7112173,0.7008721,2.5750069e-11,8.276402e-11,0.713287,1
9276000,9276000,0.702991,0.00014499504,0.001168152,0.7111978,0.7008721,2.5750069e-11,8.276402e-11,0.713287,1
9288000,9288000,0.70301473,0.00014755261,0.001180676,0.7111743,0.7008721,2.5750069e-11,8.276402e-11,0.713287,1
9296000,9296000,0.70304346,0.00013447704,0.0012030565,0.71114594,0.7008721,2.5750069e-11,8.276402e-11,0.713287,1
9308000,9308000,0.7030236,0.000112952075,0.0011878574,0.71116555,0.7008721,2.5750069e-11,8.276402e-11,0.713287,1
9316000,9316000,0.70305145,8.259229e-05,0.001174929,0.711138,0.7008721,2.5750069e-11,8.276402e-11,0.713287,1
9328000,9328000,0.7030454,1.493392e-05,0.0011825892,0.711144,0.7008721,2.5750069e-11,8.276402e-11,0.713287,1
9336000,9336000,0.70306164,7.325223e-05,0.0011510096,0.71112806,0.7008721,2.5750069e-11,8.276402e-11,0.713287,1
9348000,9348000,0.7030819,0.00011816624,0.0011182745,0.7111081,0.7008721,2.5750069e-11,8.276402e-11,0.713287,1
9356000,9356000,0.7031181,6.9396316e-05,0.001110213,0.7110723,0.7008721,2.5750069e-11,8.276402e-11,0.713287,1
9368000,9368000,0.7031238,6.17541e-05,0.0011141337,0.7110666,0.7008721,2.5750069e-11,8.276402e-11,0.713287,1
9376000,9376000,0.7031303,9.189581e-05,0.0011201863,0.7110602,0.7008721,2.5750069e-11,8.276402e-11,0.713287,1
9388000,9388000,0.7031438,3.0729898e-05,0.0011877589,0.7110468,0.7008721,2.5750069e-11,8.276402e-11,0.713287,1
9396000,9396000,0.70314723,-2.5835581e-05,0.0011843813,0.7110433,0.7008721,2.5750069e-11,8.276402e-11,0.713287,1
9408000,9408000,0.7031764,1.1961987e-05,0.0011304629,0.71101457,0.7008721,2.5750069e-11,8.276402e-11,0.713287,1
9416000,9416000,0.7031804,2.2572429e-05,0.0011467466,0.7110106,0.7008721,2.5750069e-11,8.276402e-11,0.713287,1
9428000,9428000,0.7031656,0.00010871571,0.0012078108,0.7110252,0.7008721,2.5750069e-11,8.276402e-11,0.713287,1
9436000,9436000,0.70316386,6.5942186e-05,0.0011786077,0.7110269,0.7008721,2.5750069e-11,8.276402e-11,0.713287,1
9448000,9448000,0.70318836,4.1638858e-05,0.0011010385,0.71100277,0.7008721,2.5750069e-11,8.276402e-11,0.713287,1
9456000,9456000,0.7032061,2.8239716e-05,0.0011047415,0.7109852,0.7008721,2.5750069e-11,8.276402e-11,0.713287,1
9468000,9468000,0.70321417,2.7347984e-05,0.0010729668,0.7109773,0.7008721,2.5750069e-11,8.276402e-11,0.713287,1
9476000,9476000,0.7031946,2.8881402e-06,0.0010799386,0.7109967,0.7008721,2.5750069e-11,8.276402e-11,0.713287,1
9488000,9488000,0.7031776,4.9836103e-06,0.0011156998,0.71101344,0.7008721,2.5750069e-11,8.276402e-11,0.713287,1
9496000,9496000,0.7031656,3.575074e-05,0.0011172541,0.7110253,0.7008721,2.5750069e-11,8.276402e-11,0.713287,1
9508000,9508000,0.7031443,8.993753e-05,0.0011413554,0.71104634,0.7008721,2.5750069e-11,8.276402e-11,0.713287,1
9516000,9516000,0.70314574,7.833328e-05,0.0011667635,0.7110448,0.7008721,2.5750069e-11,8.276402e-11,0.713287,1
9528000,9528000,0.70317024,-3.5098137e-06,0.0011511174,0.71102065,0.7008721,2.5750069e-11,8.276402e-11,0.713287,1
9536000,9536000,0.70317423,-5.4354943e-05,0.0011737398,0.7110166,0.7008721,2.5750069e-11,8.276402e-11,0.713287,1
9548000,9548000,0.7031877,-0.00013765054,0.0011445606,0.7110033,0.7008721,2.5750069e-11,8.276402e-11,0.713287,1
9556000,9556000,0.7031763,-0.00013973605,0.0011222959,0.7110146,0.7008721,2.5750069e-11,8.276402e-11,0.713287,1
9568000,9568000,0.70319366,-0.0001105966,0.0011446518,0.71099746,0.7008721,2.5750069e-11,8.276402e-11,0.713287,1
9576000,9576000,0.7032032,-0.0001376303,0.0011865359,0.710988,0.7008721,2.5750069e-11,8.276402e-11,0.713287,1
9588000,9588000,0.70320284,-0.0001695213,0.0011539168,0.7109884,0.7008721,2.5750069e-11,8.276402e-11,0.713287,1
9596000,9596000,0.7032025,-0.00015868663,0.001143896,0.7109888,0.7008721,2.5750069e-11,8.276402e-11,0.713287,1
9608000,9608000,0.7031975,-0.00017799124,0.0011633054,0.71099365,0.7008721,2.5750069e-11,8.276402e-11,0.713287,1
9616000,9616000,0.7031787,-0.00021596056,0.0011788436,0.71101224,0.7008721,2.5750069e-11,8.276402e-11,0.713287,1
9628000,9628000,0.7031762,-0.00024725535,0.0011845327,0.7110147,0.7008721,2.5750069e-11,8.276402e-11,0.713287,1
9636000,9636000,0.70314544,-0.00027742545,0.001201817,0.711045,0.7008721,2.5750069e-11,8.276402e-11,0.713287,1
9648000,9648000,0.70320463,-0.00034668238,0.00124635,0.7109864,0.7008721,2.5750069e-11,8.276402e-11,0.713287,1
9656000,9656000,0.70322645,-0.00032567317,0.0012305463,0.7109648,0.7008721,2.5750069e-11,8.276402e-11,0.713287,1
9668000,9668000,0.70319057,-0.00034217737,0.0011311953,0.7110005,0.7008721,2.5750069e-11,8.276402e-11,0.713287,1
9676000,9676000,0.7032255,-0.00033374017,0.0010873973,0.710966,0.7008721,2.5750069e-11,8.276402e-11,0.713287,1
9688000,9688000,0.70320225,-0.00029664906,0.0010114237,0.7109892,0.7008721,2.5750069e-11,8.276402e-11,0.713287,1
9696000,9696000,0.7032378,-0.00023603051,0.0009665354,0.71095407,0.7008721,2.5750069e-11,8.276402e-11,0.713287,1
9708000,9708000,0.7032344,-0.00019638776,0.00094837585,0.7109575,0.7008721,2.5750069e-11,8.276402e-11,0.713287,1
9716000,9716000,0.7032402,-0.00020218942,0.0009680494,0.71095175,0.7008721,2.5750069e-11,8.276402e-11,0.713287,1
9728000,9728000,0.703226,-0.00023392812,0.0009692892,0.7109657,0.7008721,2.5750069e-11,8.276402e-11,0.713287,1
9736000,9736000,0.7032312,-0.00023646888,0.0009616297,0.71096057,0.7008721,2.5750069e-11,8.276402e-11,0.713287,1
9748000,9748000,0.7033166,-0.000283823,0.00097653794,0.71087605,0.7008721,2.5750069e-11,8.276402e-11,0.713287,1
9756000,9756000,0.70332277,-0.00022678661,0.0009727048,0.71087,0.7008721,2.5750069e-11,8.276402e-11,0.713287,1
9768000,9768000,0.7032594,-0.00021744535,0.00096060766,0.7109327,0.7008721,2.5750069e-11,8.276402e-11,0.713287,1
9776000,9776000,0.7031989,-0.000210425,0.0009841006,0.7109925,0.7008721,2.5750069e-11,8.276402e-11,0.713287,1
9788000,9788000,0.70318717,-0.00015972051,0.0010039541,0.71100414,0.7008721,2.5750069e-11,8.276402e-11,0.713287,1
9796000,9796000,0.7031968,-0.000100413876,0.0009750506,0.71099466,0.7008721,2.5750069e-11,8.276402e-11,0.713287,1
9808000,9808000,0.70316815,-3.7448903e-05,0.0009927995,0.7110229,0.7008721,2.5750069e-11,8.276402e-11,0.713287,1
9816000,9816000,0.70314384,-2.6994197e-05,0.0010386299,0.7110469,0.7008721,2.5750069e-11,8.276402e-11,0.713287,1
9828000,9828000,0.703119,4.0119644e-06,0.0010065993,0.71107155,0.7008721,2.5750069e-11,8.276402e-11,0.713287,1
9836000,9836000,0.70306045,1.4956585e-05,0.0009975736,0.71112937,0.7008721,2.5750069e-11,8.276402e-11,0.713287,1
9848000,9848000,0.7030277,-6.506481e-05,0.0009933963,0.71116185,0.7008721,2.5750069e-11,8.276402e-11,0.713287,1
9856000,9856000,0.7030494,-6.1687344e-05,0.0009942678,0.7111404,0.7008721,2.5750069e-11,8.276402e-11,0.713287,1
9868000,9868000,0.7030609,-4.4188244e-05,0.0009494203,0.71112895,0.7008721,2.5750069e-11,8.276402e-11,0.713287,1
9876000,9876000,0.7030519,-3.632376e-05,0.0009184436,0.71113795,0.7008721,2.5750069e-11,8.276402e-11,0.713287,1
9888000,9888000,0.7030272,1.1130768e-05,0.0008781235,0.7111625,0.7008721,2.5750069e-11,8.276402e-11,0.713287,1
9896000,9896000,0.7029895,-1.5045653e-05,0.00082865095,0.7111998,0.7008721,2.5750069e-11,8.276402e-11,0.713287,1
9908000,9908000,0.70297813,3.8626942e-05,0.00076232624,0.7112111,0.7008721,2.5750069e-11,8.276402e-11,0.713287,1
9916000,9916000,0.7029476,8.955154e-06,0.00079520413,0.7112412,0.7008721,2.5750069e-11,8.276402e-11,0.713287,1
9928000,9928000,0.70289785,-2.4771734e-05,0.0008052512,0.7112904,0.7008721,2.5750069e-11,8.276402e-11,0.713287,1
9936000,9936000,0.7028485,-2.0930911e-05,0.00083568564,0.7113392,0.7008721,2.5750069e-11,8.276402e-11,0.713287,1
9948000,9948000,0.7027933,-7.5143136e-05,0.00091258495,0.71139354,0.7008721,2.5750069e-11,8.276402e-11,0.713287,1
9956000,9956000,0.70277625,-9.839516e-05,0.0009247775,0.7114104,0.7008721,2.5750069e-11,8.276402e-11,0.713287,1
9968000,9968000,0.70273703,-0.0001293453,0.00094839,0.7114491,0.7008721,2.5750069e-11,8.276402e-11,0.713287,1
9976000,9976000,0.7027336,-0.00014122948,0.0009435902,0.71145254,0.7008721,2.5750069e-11,8.276402e-11,0.713287,1
9988000,9988000,0.702742,-8.051702e-05,0.0009293334,0.71144426,0.7008721,2.5750069e-11,8.276402e-11,0.713287,1
9996000,9996000,0.7027465,-7.878133e-05,0.0009090569,0.7114398,0.7008721,2.5750069e-11,8.276402e-11,0.713287,1
10008000,10008000,0.70276266,-5.837682e-05,0.00094843865,0.7114238,0.7008721,2.5750069e-11,8.276402e-11,0.713287,1
10016000,10016000,0.7027617,-6.329307e-05,0.00096414995,0.71142477,0.7008721,2.5750069e-11,8.276402e-11,0.713287,1
10028000,10028000,0.7027619,-2.9446272e-05,0.0010167621,0.71142447,0.7008721,2.5750069e-11,8.276402e-11,0.713287,1
10036000,10036000,0.7027637,-4.427606e-05,0.0009833133,0.7114227,0.7008721,2.5750069e-11,8.276402e-11,0.713287,1
10048000,10048000,0.7027766,-2.297512e-05,0.000978978,0.71141,0.7008721,2.5750069e-11,8.276402e-11,0.713287,1
10056000,10056000,0.7027917,-6.30651e-05,0.0010005942,0.7113951,0.7008721,2.5750069e-11,8.276402e-11,0.713287,1
10068000,10068000,0.70277625,-5.4894812e-05,0.0010528818,0.7114102,0.7008721,2.5750069e-11,8.276402e-11,0.713287,1
10076000,10076000,0.7027947,-3.9767176e-05,0.0010964097,0.7113919,0.7008721,2.5750069e-11,8.276402e-11,0.713287,1
10088000,10088000,0.70279384,1.982757e-05,0.0010692435,0.7113928,0.7008721,2.5750069e-11,8.276402e-11,0.713287,1
10096000,10096000,0.70278955,3.194721e-05,0.0011061442,0.711397,0.7008721,2.5750069e-11,8.276402e-11,0.713287,1
10108000,10108000,0.70278835,7.205735e-05,0.0011027317,0.7113982,0.7008721,2.5750069e-11,8.276402e-11,0.713287,1
10116000,10116000,0.7027765,8.210627e-05,0.001092978,0.7114099,0.7008721,2.5750069e-11,8.276402e-11,0.713287,1
10128000,10128000,0.70270616,0.00013928139,0.0011221358,0.71147937,0.7008721,2.5750069e-11,8.276402e-11,0.713287,1
10136000,10136000,0.7026865,0.00016542074,0.0011089538,0.7114988,0.7008721,2.5750069e-11,8.276402e-11,0.713287,1
10148000,10148000,0.70271134,0.0001417928,0.0011661404,0.71147406,0.7008721,2.5750069e-11,8.276402e-11,0.713287,1
10156000,10156000,0.70274234,6.096643e-05,0.0011773884,0.7114435,0.7008721,2.5750069e-11,8.276402e-11,0.713287,1
10168000,10168000,0.7027052,-4.1394405e-06,0.0011699382,0.71148014,0.7008721,2.5750069e-11,8.276402e-11,0.713287,1
10176000,10176000,0.70271647,-2.7993914e-05,0.0011532941,0.71146905,0.7008721,2.5750069e-11,8.276402e-11,0.713287,1
10188000,10188000,0.7026677,-4.8641657e-05,0.0011227726,0.7115173,0.7008721,2.5750069e-11,8.276402e-11,0.713287,1
10196000,10196000,0.70265275,-0.00013240737,0.0011607372,0.711532,0.7008721,2.5750069e-11,8.276402e-11,0.713287,1
10208000,10208000,0.702709,-0.00022811911,0.0011553222,0.7114764,0.7008721,2.5750069e-11,8.276402e-11,0.713287,1
10216000,10216000,0.7027249,-0.00025526708,0.0011499281,0.7114608,0.7008721,2.5750069e-11,8.276402e-11,0.713287,1
10228000,10228000,0.70273197,-0.0002973324,0.0011798855,0.71145374,0.7008721,2.5750069e-11,8.276402e-11,0.713287,1
10236000,10236000,0.7027268,-0.0003128787,0.0011975758,0.71145874,0.7008721,2.5750069e-11,8.276402e-11,0.713287,1
10248000,10248000,0.7027197,-0.00036040312,0.0012196602,0.7114657,0.7008721,2.5750069e-11,8.276402e-11,0.713287,1
10256000,10256000,0.7026884,-0.00037164026,0.0012302696,0.7114966,0.7008721,2.5750069e-11,8.276402e-11,0.713287,1
10268000,10268000,0.70272434,-0.00036632147,0.001239897,0.71146107,0.7008721,2.5750069e-11,8.276402e-11,0.713287,1
10276000,10276000,0.7027492,-0.0003842064,0.001227114,0.7114365,0.7008721,2.5750069e-11,8.276402e-11,0.713287,1
10288000,10288000,0.70276827,-0.00030392004,0.0012003417,0.71141785,0.7008721,2.5750069e-11,8.276402e-11,0.713287,1
10296000,10296000,0.7028111,-0.00029561066,0.0012269065,0.7113755,0.7008721,2.5750069e-11,8.276402e-11,0.713287,1
10308000,10308000,0.7028135,-0.00029245077,0.0011590031,0.7113732,0.7008721,2.5750069e-11,8.276402e-11,0.713287,1
10316000,10316000,0.70281357,-0.0002767341,0.001181484,0.7113731,0.7008721,2.5750069e-11,8.276402e-11,0.713287,1
10328000,10328000,0.702802,-0.00028059667,0.0011365127,0.7113846,0.7008721,2.5750069e-11,8.276402e-11,0.713287,1
10336000,10336000,0.7028161,-0.00033063485,0.0011347997,0.7113706,0.7008721,2.5750069e-11,8.276402e-11,0.713287,1
10348000,10348000,0.7028277,-0.00032116479,0.0011571327,0.71135914,0.7008721,2.5750069e-11,8.276402e-11,0.713287,1
