timestamp,timestamp_sample,device_id,bias,bias_var,innov,innov_var,innov_test_ratio
5412000,5254666,6620172,0.01320794,0.0012166839,-0.06466675,12.751298,3.643889e-05
5484000,5328000,6620172,0.013218498,0.002433019,0.055242985,12.732958,2.6630692e-05
5628000,5472000,6620172,0.013221694,0.004863709,0.010769248,12.700597,1.0146216e-06
5700000,5542666,6620172,0.013199642,0.0060775657,-0.04553981,12.556897,1.835091e-05
5772000,5614666,6620172,0.013184521,0.007290127,-0.026017025,12.551018,5.9923036e-06
5844000,5688000,6620172,0.013227626,0.008501159,0.06356719,12.545473,3.5787925e-05
5916000,5760000,6620172,0.013188098,0.009710429,-0.05100839,12.540293,2.3053295e-05
5988000,5832000,6620172,0.0132302055,0.010917705,0.048304822,12.535437,2.0682308e-05
6060000,5902666,6620172,0.013248158,0.012122755,0.018538594,12.53079,3.047422e-06
6116000,5964000,6620172,0.013223689,0.0130554605,-0.023349475,12.471405,4.857316e-06
6180000,6024000,6620172,0.013132993,0.014121033,-0.07999615,12.46922,5.7023834e-05
6252000,6096000,6620172,0.013093071,0.015318965,-0.03245062,12.467352,9.384891e-06
6324000,6168000,6620172,0.013174236,0.01651383,0.061186716,12.465638,3.337008e-05
6396000,6240000,6620172,0.013185016,0.017705409,0.0075777173,12.464079,5.11887e-07
6468000,6312000,6620172,0.013158324,0.01889348,-0.017579548,12.4626045,2.7552696e-06
6540000,6384000,6620172,0.013190407,0.020077746,0.019831177,12.430717,3.5152666e-06
6612000,6453333,6620172,0.013213661,0.021258067,0.013573509,12.430374,1.6468633e-06
6668000,6516000,6620172,0.013126599,0.022164801,-0.04873612,12.42973,2.1232332e-05
6732000,6576000,6620172,0.013148623,0.023202924,0.011775745,12.429393,1.239608e-06
6804000,6648000,6620172,0.0130949095,0.024371749,-0.027339296,12.429388,6.6816297e-06
6876000,6720000,6620172,0.01293701,0.025535783,-0.07657147,12.408851,5.2500072e-05
6948000,6792000,6620172,0.012963397,0.02669491,0.012239992,12.409419,1.3414309e-06
7020000,6864000,6620172,0.012913581,0.027848935,-0.022149188,12.410107,4.392357e-06
7092000,6936000,6620172,0.013090103,0.028997665,0.07537377,12.410917,5.0862076e-05
7164000,7008000,6620172,0.012993531,0.030140914,-0.039670914,12.411855,1.4088515e-05
7236000,7080000,6620172,0.01290304,0.0312785,-0.035820678,12.412925,1.14855275e-05
7308000,7149333,6620172,0.012976001,0.032410115,0.027837927,12.398512,6.944831e-06
7380000,7222666,6620172,0.012983184,0.033535708,0.002648999,12.399921,6.28785e-08
7436000,7284000,6620172,0.01284449,0.034386214,-0.049878936,12.4008465,2.2291564e-05
7500000,7344000,6620172,0.012687319,0.035366368,-0.054958746,12.402179,2.7060334e-05
7572000,7414666,6620172,0.012579336,0.036475256,-0.0366131,12.403964,1.2007981e-05
7644000,7488000,6620172,0.012508108,0.037577525,-0.023443595,12.405899,4.9224086e-06
7716000,7558666,6620172,0.012383088,0.038672887,-0.039943412,12.394602,1.4302608e-05
7788000,7632000,6620172,0.01216187,0.039761316,-0.068749055,12.396729,4.236272e-05
7860000,7701333,6620172,0.012150823,0.04084267,-0.0033422895,12.399013,1.0010563e-07
7916000,7764000,6620172,0.011946255,0.041648235,-0.06070429,12.400653,3.3018074e-05
7980000,7822666,6620172,0.011864831,0.04258261,-0.023634488,12.4028015,5.004147e-06
8036000,7884000,6620172,0.011647356,0.04337625,-0.061974693,12.404643,3.440345e-05
8100000,7942666,6620172,0.011760579,0.044298366,0.031565536,12.3943405,8.93224e-06
8164000,8012000,6620172,0.011836839,0.04521383,0.020832194,12.396649,3.8897633e-06
8228000,8074000,6620172,0.011525098,0.04612256,-0.083492115,12.399084,6.246817e-05
8292000,8133333,6620172,0.011761986,0.047024474,0.062235888,12.401649,3.4702425e-05
8348000,8196000,6620172,0.011705993,0.047785338,-0.01447805,12.403866,1.8776756e-06
8412000,8253333,6620172,0.011738978,0.04867445,0.008374574,12.40668,6.280979e-07
8468000,8316000,6620172,0.011436799,0.04942221,-0.0754902,12.396222,5.1079813e-05
8588000,8436000,6620172,0.011316068,0.05103272,-0.029014084,12.401337,7.5423513e-06
8652000,8494666,6620172,0.011489052,0.051895358,0.041174166,12.404321,1.5185677e-05
8708000,8556000,6620172,0.011719959,0.05261669,0.054215293,12.406905,2.6323138e-05
8772000,8616000,6620172,0.01156242,0.053465925,-0.036408678,12.410141,1.18683565e-05
8844000,8685333,6620172,0.0116066625,0.05444184,0.010044025,12.414094,9.029382e-07
8900000,8748000,6620172,0.012306569,0.05514088,0.1567283,12.402945,0.00022005312
8964000,8808000,6620172,0.012173903,0.055967674,-0.029274343,12.406156,7.675286e-06
9036000,8878666,6620172,0.012296116,0.056920957,0.026522387,12.410063,6.298088e-06
9108000,8952000,6620172,0.012348722,0.05786547,0.011232937,12.414146,1.1293466e-06
9180000,9024000,6620172,0.012375053,0.058801163,0.005534579,12.418408,2.7406952e-07
9252000,9094666,6620172,0.012011691,0.059727985,-0.07521075,12.422851,5.0593655e-05
9308000,9156000,6620172,0.012246888,0.06037774,0.048107937,12.410504,2.0720561e-05
9372000,9216000,6620172,0.011852356,0.061155055,-0.07969074,12.414045,5.684076e-05
9444000,9286666,6620172,0.011951314,0.06205857,0.01970282,12.418331,3.4733698e-06
9516000,9357333,6620172,0.012024897,0.06295307,0.014446391,12.422786,1.8666257e-06
9588000,9430666,6620172,0.012072481,0.06383851,0.009215337,12.427411,7.592753e-07
9644000,9490000,6620172,0.0126323905,0.06444726,0.107434355,12.430813,0.00010316783
9708000,9552000,6620172,0.012669601,0.06518305,0.0070514474,12.417892,4.4490383e-07
9780000,9624000,6620172,0.012504494,0.06604491,-0.030888595,12.422277,8.533999e-06
9852000,9696000,6620172,0.012337538,0.06689763,-0.030845558,12.426822,8.507122e-06
9924000,9766666,6620172,0.012219441,0.06774121,-0.021553848,12.431524,4.1522426e-06
9996000,9840000,6620172,0.011942366,0.06857563,-0.049969684,12.436384,2.230882e-05
10068000,9909333,6620172,0.012153702,0.069400325,0.037618183,12.423197,1.2656678e-05
10140000,9982666,6620172,0.011801118,0.07021584,-0.06204994,12.4276495,3.44232e-05
10212000,10054666,6620172,0.011500803,0.07102219,-0.052267425,12.432251,2.4415742e-05
10284000,10126666,6620172,0.0110621145,0.07181938,-0.075526685,12.4369955,5.0961575e-05
10356000,10197333,6620172,0.010842577,0.07260743,-0.037398785,12.441883,1.2490688e-05
10428000,10272000,6620172,0.01087239,0.07338635,0.005026564,12.446911,2.2554765e-07
10500000,10344000,6620172,0.010383574,0.07415546,-0.08145955,12.43237,5.930449e-05
10572000,10414666,6620172,0.010434759,0.07491546,0.008445771,12.436948,6.3726833e-07
10644000,10486666,6620172,0.010569226,0.07566638,0.02197491,12.441654,4.3125447e-06
10716000,10560000,6620172,0.010613275,0.07640825,0.0071309693,12.446492,4.5394958e-07
10788000,10632000,6620172,0.010450461,0.077141106,-0.026116204,12.451454,6.086358e-06
10860000,10704000,6620172,0.010440772,0.0778647,-0.0015393281,12.449454,2.1148013e-08
10932000,10774666,6620172,0.010442883,0.07857879,0.00033193268,12.440869,9.840264e-10
11004000,10848000,6620172,0.010532069,0.07928396,0.013910145,12.445481,1.7274642e-06
11076000,10918666,6620172,0.010312823,0.07998024,-0.033908535,12.450209,1.02612175e-05
11148000,10992000,6620172,0.010613451,0.08066768,0.04611418,12.455048,1.89706e-05
11220000,11064000,6620172,0.010199148,0.08134634,-0.06304265,12.459995,3.5441208e-05
11292000,11134666,6620172,0.009920094,0.082015336,-0.0420595,12.444048,1.579516e-05
11364000,11206666,6620172,0.009829691,0.08267562,-0.013521168,12.448522,1.6318046e-06
11420000,11266000,6620172,0.009486589,0.08306043,-0.05108946,12.451702,2.3291173e-05
11484000,11326666,6620172,0.009938307,0.08357361,0.066868395,12.455638,3.9887178e-05
11540000,11388000,6620172,0.010574161,0.08394662,0.093729906,12.458912,7.8349054e-05
11604000,11448000,6620172,0.010335038,0.08444811,-0.03504926,12.46297,1.0952005e-05
11676000,11520000,6620172,0.010024681,0.08507531,-0.04509456,12.447014,1.8152674e-05
11748000,11592000,6620172,0.010658857,0.08569406,0.0915073,12.451347,7.472272e-05
11820000,11662666,6620172,0.009972714,0.08630442,-0.09833586,12.455773,8.626024e-05
11892000,11734666,6620172,0.00991617,0.086906455,-0.0080501065,12.460287,5.778733e-07
11964000,11805333,6620172,0.009823196,0.08750023,-0.013151033,12.464886,1.5416609e-06
12036000,11880000,6620172,0.009259569,0.08808582,-0.07922017,12.469567,5.5921348e-05
12108000,11952000,6620172,0.009362772,0.088662215,0.014391554,12.4531765,1.8479606e-06
12180000,12022666,6620172,0.009191955,0.08923053,-0.023675516,12.457415,4.999522e-06
12252000,12096000,6620172,0.009361799,0.08979084,0.023400817,12.461732,4.8824872e-06
12324000,12165333,6620172,0.009440164,0.09034227,0.0107187675,12.44802,1.0255266e-06
12396000,12240000,6620172,0.009720807,0.09088582,0.038167257,12.451972,1.2998739e-05
12468000,12310666,6620172,0.009680746,0.091421574,-0.0054178284,12.456,2.61836e-07
12540000,12384000,6620172,0.00942567,0.09194961,-0.034308434,12.460103,1.0496333e-05
12612000,12456000,6620172,0.009130301,0.092470005,-0.039516002,12.464278,1.3919908e-05
12684000,12528000,6620172,0.009487576,0.092981815,0.04747981,12.450433,2.0118285e-05
12756000,12598666,6620172,0.009620786,0.09348612,0.017612033,12.454247,2.7673175e-06
12828000,12670666,6620172,0.009815594,0.093983,0.025627017,12.458133,5.8573432e-06
12900000,12741333,6620172,0.009604931,0.09447254,-0.027576825,12.462086,6.7804e-06
12956000,12804000,6620172,0.010468899,0.09468849,0.11286211,12.464789,0.000113545226
13020000,12862666,6620172,0.010085627,0.09503445,-0.04989761,12.468184,2.2187776e-05
13092000,12934666,6620172,0.0104218405,0.09550736,0.04350324,12.454125,1.688447e-05
13164000,13006666,6620172,0.010672643,0.095973164,0.032302767,12.457833,9.306672e-06
13236000,13077333,6620172,0.011058288,0.09643195,0.049446985,12.461603,2.1800339e-05
13308000,13152000,6620172,0.010767026,0.096883796,-0.037181333,12.465434,1.2322534e-05
13380000,13224000,6620172,0.010692402,0.09732879,-0.009485288,12.469323,8.017069e-07
13452000,13294666,6620172,0.0106093725,0.09776701,-0.010509296,12.473268,9.838401e-07
13524000,13366666,6620172,0.010891435,0.098197386,0.035502687,12.458905,1.1240873e-05
13596000,13438666,6620172,0.01100953,0.09862114,0.014804366,12.462515,1.9540307e-06
13652000,13498000,6620172,0.011679708,0.0987722,0.08390014,12.464948,6.274691e-05
13716000,13558666,6620172,0.010863939,0.099054076,-0.10185915,12.468027,9.246127e-05
13788000,13629333,6620172,0.010426227,0.0994647,-0.05444304,12.471779,2.640668e-05
13844000,13692000,6620172,0.009535342,0.09960283,-0.11067647,12.4742775,0.00010910702
13908000,13752000,6620172,0.009594663,0.0998708,0.0073408782,12.459558,4.8056364e-07
13980000,13824000,6620172,0.009606198,0.10026766,0.0014221827,12.463023,1.803204e-08
14052000,13894666,6620172,0.009455954,0.10065831,-0.018456295,12.46654,3.035992e-06
14124000,13966666,6620172,0.0098740915,0.10104282,0.051182475,12.470106,2.3341561e-05
14196000,14040000,6620172,0.010123385,0.10142128,0.030409113,12.473719,8.237e-06
14268000,14112000,6620172,0.010414764,0.10179346,0.03540884,12.47274,1.11691215e-05
14340000,14184000,6620172,0.0108273495,0.102158844,0.049918488,12.463173,2.2215274e-05
14412000,14254666,6620172,0.010407576,0.10251841,-0.05062227,12.46653,2.283995e-05
14468000,14316000,6620172,0.010533171,0.10260625,0.015135637,12.468746,2.0414375e-06
14532000,14373333,6620172,0.010960906,0.10282578,0.051448032,12.4715805,2.3581615e-05
14604000,14448000,6620172,0.010433757,0.10317485,-0.063207,12.475055,3.558323e-05
14676000,14520000,6620172,0.009965941,0.10351712,-0.055843912,12.461411,2.7806218e-05
14748000,14592000,6620172,0.009815789,0.10385388,-0.017869994,12.464601,2.8466097e-06
14820000,14662666,6620172,0.008397007,0.1041852,-0.1683546,12.467834,0.00025259017
14892000,14736000,6620172,0.007272156,0.10451116,-0.13309184,12.47111,0.00015781751
14964000,14808000,6620172,0.0069549703,0.10483184,-0.03742352,12.474427,1.24745875e-05
15036000,14880000,6620172,0.006159253,0.10514732,-0.09362489,12.477783,7.805535e-05
15108000,14950666,6620172,0.0065150373,0.105456434,0.04169231,12.464198,1.5495481e-05
15180000,15024000,6620172,0.006541806,0.10576049,0.0031285174,12.467285,8.722937e-08
15252000,15094666,6620172,0.006847749,0.10605957,0.035664003,12.470414,1.1332789e-05
15324000,15166666,6620172,0.006951441,0.106352665,0.012042632,12.458884,1.2933654e-06
15396000,15240000,6620172,0.007250223,0.10664091,0.0346135,12.461787,1.0682385e-05
15468000,15310666,6620172,0.0070921574,0.1069244,-0.018267069,12.464731,2.9744886e-06
15612000,15456000,6620172,0.007207362,0.10747739,0.013263172,12.47074,1.5673285e-06
15684000,15528000,6620172,0.0073979404,0.10774593,0.021845372,12.459267,4.2558263e-06
15756000,15598666,6620172,0.007498158,0.108009994,0.011461923,12.4620695,1.1713382e-06
15828000,15672000,6620172,0.00693372,0.108269654,-0.06441344,12.464912,3.698463e-05
15900000,15742666,6620172,0.0073214485,0.10852498,0.044152707,12.467793,1.737331e-05
15972000,15816000,6620172,0.007326307,0.10877604,0.0005520866,12.470714,2.7156928e-09
16044000,15886666,6620172,0.008195763,0.10902291,0.09860021,12.473669,8.660021e-05
16100000,15948000,6620172,0.00881343,0.10899881,0.06999027,12.46106,4.367952e-05
16164000,16006666,6620172,0.008545828,0.10910813,-0.030297805,12.463286,8.183653e-06
16220000,16068000,6620172,0.00794739,0.10908284,-0.06778045,12.465025,4.095182e-05
16284000,16128000,6620172,0.007106472,0.109190986,-0.09516663,12.467301,8.071503e-05
16356000,16197333,6620172,0.007107589,0.109430246,0.00012619421,12.470133,1.4189441e-10
16428000,16272000,6620172,0.0073133623,0.10966549,0.023196366,12.473,4.7932103e-06
16500000,16344000,6620172,0.007635508,0.109895654,0.036204703,12.461626,1.1687262e-05
16572000,16414666,6620172,0.0074871876,0.11012193,-0.016638193,12.464289,2.4677565e-06
16628000,16476000,6620172,0.0084667625,0.11007873,0.109944455,12.465968,0.00010774029
16692000,16536000,6620172,0.0081281755,0.11016926,-0.03797726,12.468179,1.2852917e-05
16764000,16608000,6620172,0.00825292,0.110391185,0.013966551,12.470938,1.7379479e-06
16836000,16680000,6620172,0.0075726234,0.11060936,-0.07603246,12.473729,5.149431e-05
16908000,16752000,6620172,0.007964717,0.11082272,0.043696906,12.462456,1.702375e-05
16980000,16822666,6620172,0.007797123,0.11103246,-0.01864587,12.465052,3.099051e-06
17052000,16894666,6620172,0.007923924,0.11123864,0.014083981,12.467683,1.7677571e-06
17124000,16968000,6620172,0.0081306975,0.11144132,0.022929348,12.470347,4.6844902e-06
17196000,17040000,6620172,0.007950588,0.111640565,-0.019941,12.473046,3.542247e-06
17268000,17112000,6620172,0.008834335,0.11183619,0.09767075,12.4728775,8.498062e-05
17340000,17184000,6620172,0.00947249,0.11202758,0.07035878,12.46448,4.412858e-05
17412000,17254666,6620172,0.0094183255,0.112215705,-0.005962969,12.467022,3.1689825e-07
17468000,17316000,6620172,0.008727389,0.11213506,-0.07612975,12.4685955,5.1647432e-05
17532000,17376000,6620172,0.008263601,0.11218879,-0.05108579,12.47069,2.3252369e-05
17604000,17448000,6620172,0.0076388186,0.112374514,-0.068718925,12.473321,4.2065698e-05
17676000,17518666,6620172,0.007499375,0.11255594,-0.015298731,12.462397,2.0867321e-06
17748000,17592000,6620172,0.0077506984,0.112734266,0.027534805,12.464845,6.758256e-06
17820000,17661333,6620172,0.008129492,0.11290954,0.04144364,12.467326,1.5307347e-05
17892000,17736000,6620172,0.007903149,0.11308182,-0.024731055,12.469841,5.4498164e-06
17964000,17808000,6620172,0.007984261,0.11325116,0.008851001,12.472388,6.978991e-07
18036000,17880000,6620172,0.008540212,0.1134176,0.060588736,12.474964,3.2696553e-05
18108000,17950666,6620172,0.008163309,0.11358008,-0.0409804,12.464092,1.4970944e-05
18180000,18022666,6620172,0.007664642,0.113739766,-0.0541533,12.466495,2.6137437e-05
18252000,18093333,6620172,0.007693015,0.11389671,0.0030775457,12.468931,8.4399e-08
18324000,18168000,6620172,0.0072417343,0.11405098,-0.048891746,12.471397,2.1296757e-05
18396000,18238666,6620172,0.0065786582,0.1142026,-0.07175589,12.473895,4.5863857e-05
18468000,18310666,6620172,0.005992565,0.11435142,-0.06334136,12.473818,3.5738212e-05
18540000,18382666,6620172,0.0062074875,0.114496775,0.02318224,12.465545,4.7902367e-06
18612000,18454666,6620172,0.0064180964,0.11463963,0.022692658,12.467903,4.589177e-06
18668000,18514000,6620172,0.0068853376,0.11451458,0.050405633,12.469331,2.2639795e-05
18732000,18576000,6620172,0.006168376,0.11452471,-0.07735042,12.471258,5.3305568e-05
18804000,18648000,6620172,0.006335693,0.11466754,0.018032063,12.473703,2.8963625e-06
18876000,18720000,6620172,0.0058562565,0.11480682,-0.051562745,12.463207,2.3702803e-05
18948000,18789333,6620172,0.0058219163,0.114943705,-0.0036895084,12.4654875,1.2133476e-07
19020000,18864000,6620172,0.0053943526,0.11507824,-0.045891497,12.467799,1.8768613e-05
19092000,18936000,6620172,0.00484229,0.11521047,-0.059196845,12.470142,3.122362e-05
19164000,19008000,6620172,0.004474898,0.11534044,-0.03935767,12.472515,1.3799463e-05
19236000,19078666,6620172,0.0042032683,0.1154682,-0.029072065,12.474917,7.527861e-06
19308000,19152000,6620172,0.0050478373,0.11559264,0.09021812,12.464467,7.255567e-05
19380000,19224000,6620172,0.005264464,0.11571496,0.023119887,12.466713,4.7640574e-06
19452000,19296000,6620172,0.0058303988,0.11583518,0.06034833,12.468988,3.2453143e-05
19524000,19366666,6620172,0.0055940803,0.11595335,-0.025178544,12.471295,5.6481617e-06
19580000,19428000,6620172,0.0047922637,0.1158041,-0.08555014,12.472665,6.519881e-05
19644000,19485333,6620172,0.004447401,0.11579047,-0.036805205,12.474538,1.2065671e-05
19700000,19546000,6620172,0.004733317,0.11564346,0.030525744,12.463374,8.307195e-06
19764000,19608000,6620172,0.00461898,0.11563201,-0.012210123,12.465123,1.3289266e-06
19836000,19677333,6620172,0.004420951,0.11575364,-0.02112899,12.467354,3.9786955e-06
19908000,19752000,6620172,0.0040969336,0.115873195,-0.0345418,12.469614,1.0631497e-05
19980000,19822666,6620172,0.0034676904,0.115990706,-0.06702418,12.471904,4.0020983e-05
20036000,19884000,6620172,0.0039896485,0.11584081,0.055675376,12.473258,2.7612383e-05
20100000,19942666,6620172,0.0044398,0.11582546,0.047981787,12.4628,2.0525546e-05
20156000,20004000,6620172,0.004483978,0.11567785,0.0047154734,12.464068,1.9822036e-07
20220000,20062666,6620172,0.005272628,0.11566582,0.08420011,12.465806,6.319205e-05
20292000,20133333,6620172,0.00542947,0.11578688,0.016730547,12.468025,2.4944804e-06
20364000,20206666,6620172,0.0046137283,0.115905866,-0.08694192,12.470274,6.735037e-05
20436000,20277333,6620172,0.0051719206,0.11602282,0.05944267,12.47255,3.1477397e-05
20508000,20352000,6620172,0.005147957,0.1161367,-0.002547409,12.462721,5.785514e-08
20580000,20421333,6620172,0.0052983123,0.11624863,0.015970208,12.464855,2.2734814e-06
20652000,20494666,6620172,0.0043377536,0.116358645,-0.10194748,12.467019,9.262919e-05
20708000,20556000,6620172,0.0044417395,0.11620045,0.011043105,12.457564,1.087694e-06
20772000,20616000,6620172,0.0037018587,0.11617802,-0.07859945,12.459175,5.5094373e-05
20844000,20686666,6620172,0.003054322,0.116288856,-0.06873482,12.461242,4.2125954e-05
20916000,20758666,6620172,0.0021427919,0.11639778,-0.09668225,12.46334,8.333291e-05
20988000,20830666,6620172,0.0027868527,0.11650485,0.06826126,12.465467,4.15334e-05
21060000,20904000,6620172,0.0032844003,0.11661008,0.052694105,12.467625,2.4745592e-05
21132000,20974666,6620172,0.0033026915,0.116712555,0.0019341055,12.458967,3.336075e-08
21204000,21048000,6620172,0.0032711464,0.11681327,-0.003333209,12.461002,9.9067144e-08
21276000,21117333,6620172,0.0031020192,0.11691227,-0.017858548,12.463067,2.8433144e-06
21348000,21192000,6620172,0.002531516,0.11700957,-0.060200408,12.465164,3.2304153e-05
21420000,21261333,6620172,0.0026756488,0.11710522,0.015199197,12.46729,2.0588595e-06
21476000,21322000,6620172,0.002114141,0.11693294,-0.05925524,12.457845,3.131613e-05
21540000,21382666,6620172,0.0012020775,0.116896704,-0.096291386,12.459421,8.268648e-05
21596000,21442000,6620172,0.0003000503,0.11672862,-0.09537932,12.460593,8.111986e-05
21660000,21504000,6620172,0.0008271784,0.1166965,0.05576074,12.462215,2.7721664e-05
21732000,21573333,6620172,-3.115344e-05,0.11679781,-0.09073196,12.464298,7.3385505e-05
21804000,21648000,6620172,0.00027363986,0.1168974,0.032196682,12.466411,9.239284e-06
21876000,21717333,6620172,0.00045246183,0.11699433,0.018860882,12.457853,3.1727677e-06
21948000,21792000,6620172,-0.0005295788,0.1170896,-0.10351032,12.459841,9.5545955e-05
22024000,21862666,6620172,-0.00012126393,0.117183246,0.04301005,12.461861,1.6493563e-05
22076000,21922000,6620172,-3.218022e-05,0.11700995,0.009398608,12.463042,7.8751793e-07
22140000,21984000,6620172,0.00045732653,0.11697273,0.05166792,12.464679,2.379679e-05
22212000,22056000,6620172,-0.0004410001,0.117069036,-0.09475664,12.466782,8.002441e-05
22284000,22128000,6620172,-0.0010082047,0.11716274,-0.059739664,12.458212,3.1829317e-05
22356000,22200000,6620172,-0.00063649623,0.117254846,0.03912466,12.460192,1.365004e-05
22428000,22272000,6620172,-0.00067512307,0.117345385,-0.004063211,12.462203,1.4719782e-07
22500000,22342666,6620172,-0.00085129286,0.11743438,-0.018520433,12.464243,3.057693e-06
22572000,22416000,6620172,-0.0012544796,0.117521875,-0.0423616,12.466313,1.599426e-05
22644000,22488000,6620172,-0.0010306684,0.11760789,0.023501795,12.468412,4.9220766e-06
22716000,22560000,6620172,-0.00060931314,0.11769148,0.044182524,12.459733,1.7408038e-05
22788000,22629333,6620172,-0.0013690516,0.11777365,-0.0796214,12.46171,5.6524852e-05
22860000,22704000,6620172,-0.0015663358,0.11785444,-0.02066464,12.463717,3.8068486e-06
22932000,22774666,6620172,-0.0011852506,0.11793387,0.039896414,12.465754,1.4187527e-05
23004000,22848000,6620172,-0.0012060046,0.118011974,-0.0021716831,12.467819,4.203005e-08
23076000,22918666,6620172,-0.0005157647,0.11808779,0.072128855,12.459195,4.6396537e-05
23132000,22980000,6620172,-0.0006764304,0.11789703,-0.01681822,12.460302,2.5222546e-06
23196000,23037333,6620172,-0.00051350956,0.11784268,0.01706437,12.461849,2.5963038e-06
23268000,23110666,6620172,8.521305e-05,0.117922164,0.062677816,12.463847,3.5021367e-05
23340000,23182666,6620172,0.00043789405,0.11800031,0.036902092,12.465873,1.2137711e-05
23412000,23254666,6620172,0.0009951418,0.11807716,0.058277927,12.467928,3.0267143e-05
23484000,23328000,6620172,0.0017161032,0.11815174,0.0752988,12.459324,5.0563736e-05
23556000,23400000,6620172,0.0021869836,0.118225075,0.0491567,12.461259,2.154572e-05
23628000,23470666,6620172,0.0026921718,0.11829718,0.05271414,12.4632225,2.4773157e-05
23700000,23544000,6620172,0.0031216398,0.11836809,0.04479318,12.465216,1.7884693e-05
23772000,23614666,6620172,0.004094272,0.11843783,0.10140107,12.467238,9.1637296e-05
23844000,23688000,6620172,0.0041457657,0.11850641,0.0053661773,12.469288,2.5659364e-07
23916000,23758666,6620172,0.0044419593,0.118572876,0.030827379,12.460606,8.47406e-06
23972000,23820000,6620172,0.004330867,0.11837296,-0.011583073,12.461699,1.1962662e-06
24036000,23878666,6620172,0.0049735093,0.11830963,0.06704975,12.463231,4.0079394e-05
24108000,23952000,6620172,0.005666458,0.1183803,0.07226648,12.465216,4.6551268e-05
24180000,24024000,6620172,0.00554828,0.1184498,-0.01231929,12.467228,1.3525676e-06
24252000,24096000,6620172,0.0057082465,0.11851815,0.016668517,12.469268,2.475771e-06
24324000,24166666,6620172,0.005972447,0.118584394,0.027494878,12.460619,6.7409555e-06
24380000,24226000,6620172,0.005856909,0.118384264,-0.012045445,12.461704,1.2936766e-06
24444000,24288000,6620172,0.006294843,0.11832071,0.04568728,12.463229,1.8608765e-05
24516000,24358666,6620172,0.006270181,0.11839116,-0.0025716983,12.465204,5.8951944e-08
24588000,24432000,6620172,0.006013278,0.118460454,-0.026777994,12.467207,6.3906405e-06
24660000,24504000,6620172,0.005931546,0.1185286,-0.008515719,12.469237,6.461901e-07
24732000,24576000,6620172,0.0057076733,0.11859464,-0.023296047,12.460624,4.839296e-06
24804000,24648000,6620172,0.006426171,0.118659586,0.07473666,12.462539,4.979874e-05
24876000,24720000,6620172,0.007622019,0.11872347,0.12434165,12.464481,0.00013782136
24948000,24792000,6620172,0.0077997246,0.1187863,0.01847051,12.466453,3.0406918e-06
25020000,24864000,6620172,0.008513875,0.11884811,0.07420101,12.4684515,4.9064187e-05
25092000,24936000,6620172,0.008655623,0.118907936,0.014710002,12.459916,1.9296024e-06
25164000,25008000,6620172,0.008890482,0.11896679,0.024364397,12.4618,5.2928312e-06
25236000,25080000,6620172,0.009537783,0.11902468,0.06712881,12.463712,4.0172417e-05
25308000,25152000,6620172,0.009825812,0.11908164,0.02986041,12.465651,7.947565e-06
25380000,25224000,6620172,0.01071509,0.11913768,0.092163935,12.467618,7.570002e-05
25452000,25296000,6620172,0.011611962,0.119192824,0.092922606,12.469613,7.693913e-05
25524000,25366666,6620172,0.011488846,0.1192461,-0.012741112,12.461021,1.4474999e-06
25580000,25428000,6620172,0.01210239,0.11903328,0.06361491,12.462072,3.608154e-05
25644000,25488000,6620172,0.011217255,0.11895728,-0.09184482,12.463559,7.520119e-05
25716000,25557333,6620172,0.0112915225,0.11901552,0.0077036433,12.465491,5.289814e-07
25788000,25630666,6620172,0.011962825,0.119072825,0.06961058,12.46745,4.3184747e-05
25844000,25692000,6620172,0.012518903,0.11886394,0.057769842,12.468561,2.9740175e-05
25908000,25752000,6620172,0.013561769,0.11879085,0.108330704,12.4596815,0.00010465349
25980000,25821333,6620172,0.012493359,0.11885193,-0.11094336,12.461551,0.000109745844
26036000,25884000,6620172,0.013382696,0.11864674,0.09251763,12.462614,7.631279e-05
26100000,25944000,6620172,0.014027068,0.118577376,0.06703112,12.454781,4.008431e-05
26172000,26016000,6620172,0.014534905,0.11864211,0.05280643,12.456574,2.4873247e-05
26244000,26086666,6620172,0.014964655,0.118705764,0.044669196,12.458398,1.7795555e-05
26316000,26157333,6620172,0.01573584,0.118768364,0.08012812,12.46025,5.7253314e-05
26372000,26220000,6620172,0.016037337,0.118564665,0.0313833,12.461305,8.781954e-06
26436000,26278666,6620172,0.017012509,0.11849762,0.10157741,12.462792,9.19891e-05
26492000,26340000,6620172,0.016877448,0.118298486,-0.014082821,12.454512,1.7693352e-06
26556000,26398666,6620172,0.017333424,0.11823591,0.047575675,12.455917,2.0190715e-05
26612000,26460000,6620172,0.017765848,0.118042015,0.045197092,12.456945,1.8220777e-05
26676000,26520000,6620172,0.017872894,0.11798458,0.011195334,12.458393,1.1178141e-06
26748000,26592000,6620172,0.017375808,0.11806102,-0.051961027,12.460275,2.4076056e-05
26820000,26662666,6620172,0.017405786,0.118136175,0.0031320043,12.462183,8.745972e-08
26892000,26736000,6620172,0.017738782,0.118209206,0.034748755,12.454689,1.0772168e-05
26964000,26808000,6620172,0.018082492,0.118281,0.035850085,12.456494,1.1464154e-05
27036000,26880000,6620172,0.0187029,0.118351586,0.06468118,12.458331,3.7312428e-05
27108000,26952000,6620172,0.019539315,0.11842099,0.08716258,12.460196,6.7747416e-05
27180000,27024000,6620172,0.02007743,0.118489236,0.056052726,12.462087,2.8013035e-05
27252000,27094666,6620172,0.020806974,0.11855635,0.07596139,12.464006,5.1438183e-05
27308000,27156000,6620172,0.021508276,0.11835619,0.07309561,12.455558,4.7662514e-05
27372000,27216000,6620172,0.02210057,0.11829261,0.061774194,12.456973,3.4037617e-05
27444000,27288000,6620172,0.022211753,0.118363015,0.011590837,12.458815,1.1981475e-06
27516000,27360000,6620172,0.022620346,0.118432246,0.042577066,12.460684,1.6164679e-05
27588000,27432000,6620172,0.022967765,0.11850032,0.036187027,12.462581,1.1674958e-05
27660000,27502666,6620172,0.023215266,0.118567266,0.025768807,12.464503,5.919311e-06
27732000,27574666,6620172,0.023173092,0.11863221,-0.0043859202,12.456779,1.7158258e-07
27804000,27645333,6620172,0.023683809,0.11869608,0.053090334,12.4586,2.513733e-05
27876000,27718666,6620172,0.023522262,0.11875889,-0.016786836,12.460449,2.5128206e-06
27932000,27780000,6620172,0.023495942,0.11855538,-0.0027397908,12.4615,6.693018e-08
27996000,27840000,6620172,0.023818798,0.11848853,0.033632964,12.462983,1.0084765e-05
28068000,27912000,6620172,0.02295662,0.11855559,-0.089767285,12.463356,7.183873e-05
28140000,27981333,6620172,0.022814829,0.11862079,-0.014747392,12.457131,1.9398578e-06
28196000,28044000,6620172,0.023452867,0.11841963,0.06647961,12.458152,3.9416744e-05
28260000,28104000,6620172,0.02367956,0.11835507,0.023635756,12.459594,4.9818723e-06
28332000,28174666,6620172,0.024486024,0.11842453,0.08404749,12.461469,6.2985084e-05
28404000,28246666,6620172,0.025096724,0.11849282,0.06361823,12.463369,3.6081547e-05
28476000,28320000,6620172,0.024641708,0.11855909,-0.047344036,12.455677,1.9994968e-05
28548000,28390666,6620172,0.024818212,0.118624255,0.01835756,12.457473,3.0057818e-06
28620000,28464000,6620172,0.024532236,0.11868834,-0.029731542,12.459297,7.883133e-06
28692000,28533333,6620172,0.023967879,0.118751355,-0.05865089,12.46115,3.0672458e-05
28764000,28608000,6620172,0.024119642,0.118813336,0.015766008,12.463029,2.2160389e-06
28836000,28680000,6620172,0.024163324,0.1188743,0.004536364,12.464934,1.8343547e-07
28908000,28752000,6620172,0.024541436,0.11893336,0.039221685,12.457113,1.3721215e-05
28980000,28821333,6620172,0.025390742,0.11899145,0.088068426,12.458915,6.916999e-05
29052000,28896000,6620172,0.025435196,0.11904859,0.004608037,12.460742,1.8934136e-07
29124000,28968000,6620172,0.026095325,0.119104795,0.06840636,12.462598,4.1719763e-05
29196000,29038666,6620172,0.026144495,0.11916009,0.0050936397,12.46448,2.3128091e-07
29252000,29100000,6620172,0.026213976,0.11894925,0.0072112177,12.465542,4.635147e-07
29316000,29160000,6620172,0.025642056,0.11887429,-0.059356064,12.457274,3.1424228e-05
29388000,29230666,6620172,0.026634462,0.118933536,0.10295902,12.459076,9.453671e-05
29444000,29292000,6620172,0.026793672,0.118726544,0.01654791,12.460093,2.44187e-06
29508000,29352000,6620172,0.026859108,0.11865626,0.0068061817,12.4615345,4.1304088e-07
29580000,29422666,6620172,0.026743134,0.11872011,-0.012058083,12.463412,1.2962151e-06
29652000,29494666,6620172,0.027222538,0.1187829,0.049825467,12.465317,2.2128754e-05
29708000,29554000,6620172,0.027317567,0.11857849,0.009886837,12.45667,8.7190716e-07
29772000,29614666,6620172,0.02724483,0.11851074,-0.0075726938,12.458071,5.114551e-07
29844000,29688000,6620172,0.02822463,0.118577056,0.1019666,12.459895,9.271691e-05
29916000,29760000,6620172,0.027582498,0.11864227,-0.06679885,12.461749,3.9784736e-05
29988000,29830666,6620172,0.02696918,0.118706405,-0.063776344,12.46363,3.6260364e-05
30060000,29904000,6620172,0.026886174,0.11876948,-0.008628115,12.46554,6.6355705e-07
30132000,29974666,6620172,0.026699526,0.118830614,-0.01937885,12.45766,3.3494775e-06
30204000,30048000,6620172,0.025781866,0.11889074,-0.09524201,12.459467,8.089378e-05
30276000,30120000,6620172,0.026820827,0.118949875,0.10779357,12.461304,0.00010360476
30348000,30192000,6620172,0.025818383,0.11900804,-0.10396926,12.46317,9.636933e-05
30420000,30262666,6620172,0.02665813,0.11906526,0.08706614,12.465065,6.757118e-05
30492000,30336000,6620172,0.02647646,0.11912065,-0.018815113,12.4572,3.1575537e-06
30564000,30408000,6620172,0.026239008,0.119175136,-0.02458437,12.458991,5.3900494e-06
30636000,30480000,6620172,0.02622167,0.119228736,-0.0017944276,12.460814,2.8711968e-08
30708000,30550666,6620172,0.026246376,0.11928147,0.002556406,12.4626665,5.8264785e-08
30764000,30610000,6620172,0.025760638,0.119068116,-0.050355263,12.463715,2.2604752e-05
30828000,30670666,6620172,0.025772661,0.1189916,0.001247419,12.465201,1.3870206e-08
30884000,30732000,6620172,0.025936471,0.11878316,0.017012984,12.456525,2.5817938e-06
30948000,30792000,6620172,0.02600492,0.11871146,0.007114066,12.457923,4.513855e-07
31020000,30864000,6620172,0.025670018,0.1187739,-0.03479398,12.459749,1.0795839e-05
31092000,30936000,6620172,0.025517466,0.118835315,-0.015843358,12.461604,2.2380923e-06
31164000,31008000,6620172,0.02571966,0.118895724,0.020991324,12.46349,3.9282354e-06
31236000,31078666,6620172,0.025133962,0.11895514,-0.060784355,12.465402,3.293327e-05
31308000,31152000,6620172,0.024910346,0.11901268,-0.023180837,12.4574795,4.7927583e-06
31380000,31224000,6620172,0.025888264,0.11906928,0.101340875,12.459284,9.1586975e-05
31452000,31296000,6620172,0.025869321,0.11912495,-0.001962483,12.461117,3.434095e-08
31524000,31366666,6620172,0.02591008,0.11917972,0.004221011,12.462977,1.588432e-07
31596000,31440000,6620172,0.026007641,0.11923361,0.010100663,12.464869,9.094306e-07
31668000,31510666,6620172,0.0257811,0.119286485,-0.023444165,12.46516,4.8992447e-06
31724000,31572000,6620172,0.025203297,0.1190725,-0.059869237,12.457953,3.1968204e-05
31788000,31632000,6620172,0.024640927,0.11899535,-0.058314867,12.459358,3.0326368e-05
31860000,31704000,6620172,0.024636973,0.11905246,-0.00040997006,12.461192,1.4986568e-09
31932000,31776000,6620172,0.023916544,0.11910864,-0.07465528,12.463055,4.9688286e-05
32004000,31848000,6620172,0.023118591,0.11916391,-0.08266288,12.464946,6.090994e-05
32076000,31920000,6620172,0.022967728,0.11921737,-0.015611267,12.457032,2.173798e-06
32148000,31992000,6620172,0.023006193,0.11926997,0.0039792936,12.458815,1.4121886e-07
32220000,32064000,6620172,0.022956068,0.11932172,-0.0051839277,12.460628,2.3962684e-07
32292000,32136000,6620172,0.02231932,0.11937264,-0.06583326,12.462468,3.864063e-05
32364000,32208000,6620172,0.021468598,0.119422756,-0.08793211,12.464338,6.892603e-05
32436000,32278666,6620172,0.021541992,0.11947207,0.007584136,12.466238,5.1266574e-07
32508000,32352000,6620172,0.021196423,0.11951968,-0.03567163,12.458222,1.1348731e-05
32580000,32424000,6620172,0.021493448,0.11956654,0.030652942,12.460013,8.378828e-06
32652000,32496000,6620172,0.021421485,0.11961266,-0.0074248444,12.461834,4.915302e-07
32724000,32566666,6620172,0.022215573,0.11965806,0.081911035,12.463684,5.9813043e-05
32796000,32638666,6620172,0.022358218,0.11970276,0.014710696,12.465564,1.9289103e-06
32852000,32700000,6620172,0.022905596,0.11948153,0.05656024,12.466621,2.8512233e-05
32916000,32760000,6620172,0.022456523,0.11939637,-0.04640413,12.458182,1.9205077e-05
32988000,32832000,6620172,0.02255996,0.119445615,0.010685567,12.459977,1.0182054e-06
33060000,32902666,6620172,0.022249918,0.11949407,-0.03202041,12.461803,9.1417705e-06
33132000,32976000,6620172,0.022351567,0.11954177,0.010495443,12.46366,9.820044e-07
33204000,33046666,6620172,0.022312123,0.11958872,-0.0040715374,12.465546,1.477621e-07
33276000,33120000,6620172,0.02226385,0.11963401,-0.004978139,12.457575,2.2103346e-07
33348000,33192000,6620172,0.021758106,0.11967859,-0.052140556,12.459351,2.4244511e-05
33420000,33262666,6620172,0.022034056,0.11972247,0.02844331,12.461158,7.213722e-06
33492000,33336000,6620172,0.022944087,0.11976568,0.09378015,12.462996,7.840737e-05
33564000,33408000,6620172,0.023431089,0.11980822,0.050176032,12.464863,2.2442055e-05
33636000,33480000,6620172,0.023592908,0.119850114,0.016669009,12.466761,2.4764151e-06
33708000,33549333,6620172,0.024392685,0.11989044,0.08230309,12.458696,6.0411163e-05
33780000,33624000,6620172,0.024905434,0.11993014,0.05275575,12.4604845,2.4817737e-05
33852000,33696000,6620172,0.025044836,0.11996925,0.014340172,12.462304,1.8334448e-06
33924000,33766666,6620172,0.024315014,0.12000777,-0.07506315,12.464153,5.022827e-05
33996000,33840000,6620172,0.024421923,0.120045714,0.010993823,12.466032,1.0772754e-06
34068000,33910666,6620172,0.024428673,0.120082945,0.00069404393,12.466261,4.293339e-09
34140000,33982666,6620172,0.024212837,0.12011884,-0.022170372,12.459788,4.383215e-06
34212000,34053333,6620172,0.02414051,0.12015421,-0.0074281693,12.461589,4.9198024e-07
34268000,34114000,6620172,0.023479506,0.119923845,-0.068024784,12.462598,4.1255633e-05
34332000,34176000,6620172,0.023746932,0.11983067,0.027545884,12.464039,6.764133e-06
34404000,34246666,6620172,0.023880834,0.11987205,0.013789689,12.465924,1.6948917e-06
34476000,34317333,6620172,0.024283791,0.11991187,0.041457303,12.457924,1.5329002e-05
34532000,34380000,6620172,0.024503531,0.119685866,0.022652244,12.458902,4.5761494e-06
34596000,34440000,6620172,0.024544666,0.11959695,0.0042440277,12.460301,1.6061472e-07
34668000,34512000,6620172,0.023499634,0.11964251,-0.10779662,12.462132,0.00010360373
34740000,34584000,6620172,0.023755,0.11968736,0.026335571,12.463994,6.1828077e-06
34812000,34654666,6620172,0.023101645,0.11973152,-0.06736462,12.465885,4.0448096e-05
34884000,34728000,6620172,0.023446519,0.11977407,0.035522625,12.457891,1.1254418e-05
34956000,34800000,6620172,0.023473103,0.11981596,0.002737563,12.459673,6.6831184e-08
35028000,34872000,6620172,0.023321887,0.11985721,-0.01556905,12.461485,2.1612843e-06
35100000,34944000,6620172,0.023317378,0.11989783,-0.00046422146,12.463327,1.921206e-09
35172000,35014666,6620172,0.023366284,0.11993784,0.005033452,12.4652,2.258344e-07
35244000,35086666,6620172,0.023059137,0.11997725,-0.03160603,12.467102,8.902908e-06
35300000,35148000,6620172,0.022376187,0.11974991,-0.07036138,12.458228,4.415399e-05
35364000,35208000,6620172,0.022625316,0.11965969,0.025688998,12.459617,5.885009e-06
35436000,35280000,6620172,0.022196561,0.11970397,-0.044201244,12.461435,1.742041e-05
35508000,35352000,6620172,0.02273978,0.119747564,0.055989474,12.4632845,2.7947166e-05
35580000,35422666,6620172,0.022417825,0.11979049,-0.03317679,12.465161,9.81134e-06
35636000,35484000,6620172,0.022246813,0.11956752,-0.017657083,12.46622,2.7788212e-06
35700000,35544000,6620172,0.022712607,0.11948067,0.048096202,12.457818,2.0631798e-05
35772000,35616000,6620172,0.022501752,0.11952825,-0.021766562,12.459612,4.225058e-06
35844000,35688000,6620172,0.023034504,0.119575076,0.05498238,12.461436,2.695482e-05
35916000,35760000,6620172,0.022932524,0.119621165,-0.010522297,12.46329,9.870653e-07
35988000,35830666,6620172,0.023573767,0.11966654,0.06614829,12.465176,3.9002847e-05
36044000,35892000,6620172,0.023940641,0.11944598,0.037919153,12.466237,1.28156125e-05
36108000,35952000,6620172,0.024286238,0.11936148,0.035721224,12.45784,1.1380659e-05
36180000,36022666,6620172,0.023819666,0.11941137,-0.04821202,12.4596405,2.0728252e-05
36236000,36084000,6620172,0.024368668,0.11919522,0.056838293,12.460658,2.8807035e-05
36300000,36144000,6620172,0.024556432,0.11911597,0.019454574,12.462103,3.3745016e-06
36372000,36214666,6620172,0.024207689,0.11917101,-0.036122594,12.463988,1.1632105e-05
36444000,36288000,6620172,0.024872506,0.11922517,0.06884041,12.465902,4.2239677e-05
36516000,36360000,6620172,0.025080502,0.11927754,0.021514213,12.457956,4.1282083e-06
36588000,36432000,6620172,0.024750894,0.11932906,-0.034083188,12.459764,1.0359245e-05
36660000,36504000,6620172,0.02511635,0.11937976,0.03777962,12.461601,1.2726203e-05
36732000,36576000,6620172,0.025302082,0.11942965,0.019195173,12.4634695,3.284752e-06
36804000,36648000,6620172,0.025447078,0.119478755,0.014981121,12.465366,2.0005116e-06
36876000,36720000,6620172,0.02496547,0.11952616,-0.049708553,12.457428,2.2038972e-05
36948000,36792000,6620172,0.024042126,0.11957282,-0.09527797,12.459217,8.09565e-05
37020000,36864000,6620172,0.024458693,0.11961874,0.042974476,12.461037,1.646738e-05
37092000,36936000,6620172,0.024784032,0.119663954,0.033555225,12.462886,1.0038277e-05
37164000,37008000,6620172,0.025020462,0.11970846,0.024379786,12.464765,5.298259e-06
37236000,37078666,6620172,0.025577899,0.11975229,0.057468552,12.466672,2.9435232e-05
37308000,37152000,6620172,0.025589712,0.1197945,0.0012165345,12.458639,1.319884e-08
37380000,37222666,6620172,0.025563773,0.11983607,-0.0026710108,12.460441,6.361732e-08
37452000,37296000,6620172,0.025913365,0.119877,0.035990182,12.462271,1.1548575e-05
37524000,37368000,6620172,0.026313292,0.11991732,0.04116427,12.464132,1.5105542e-05
37596000,37438666,6620172,0.02621566,0.11995702,-0.010047423,12.466022,8.9978545e-07
37652000,37500000,6620172,0.026492663,0.11973091,0.028563393,12.467085,7.271302e-06
37716000,37560000,6620172,0.02572143,0.11964097,-0.07953221,12.458629,5.6412246e-05
37788000,37632000,6620172,0.025383446,0.119685516,-0.034846187,12.460436,1.08276645e-05
37860000,37704000,6620172,0.025745012,0.11972937,0.03726914,12.462273,1.2383945e-05
37932000,37774666,6620172,0.025609797,0.119772546,-0.013934709,12.46414,1.7309757e-06
38004000,37845333,6620172,0.026124518,0.11981507,0.053034,12.466037,2.5069048e-05
38060000,37908000,6620172,0.025864076,0.11959171,-0.026887458,12.467104,6.4430483e-06
38124000,37968000,6620172,0.026066994,0.11950447,0.020949889,12.45865,3.914263e-06
38196000,38038666,6620172,0.025415596,0.11955166,-0.06723521,12.460463,4.0310373e-05
38252000,38100000,6620172,0.025603624,0.11933287,0.019445244,12.461487,3.3714323e-06
38316000,38160000,6620172,0.025800003,0.119251035,0.020325331,12.462942,3.6830886e-06
38388000,38232000,6620172,0.0260494,0.11930355,0.025805222,12.464839,5.9358927e-06
38460000,38304000,6620172,0.025809078,0.119355224,-0.024859214,12.4667635,5.5078053e-06
38532000,38376000,6620172,0.025810935,0.11940515,0.00019189902,12.458736,3.284195e-10
38604000,38448000,6620172,0.02541573,0.11945428,-0.040825583,12.460556,1.4862259e-05
38676000,38518666,6620172,0.026447063,0.11950263,0.10651176,12.462405,0.00010114647
38748000,38592000,6620172,0.026107566,0.11955021,-0.035053022,12.464283,1.0953203e-05
38820000,38664000,6620172,0.026332995,0.11959706,0.023269875,12.46619,4.8262727e-06
38892000,38734666,6620172,0.026718648,0.11964225,0.039768077,12.458197,1.4104948e-05
38964000,38806666,6620172,0.027198037,0.11968673,0.04942271,12.459996,2.1781747e-05
39036000,38878666,6620172,0.027587017,0.11973052,0.04009322,12.461826,1.433236e-05
39108000,38952000,6620172,0.02711231,0.119773634,-0.048918806,12.463684,2.1333532e-05
39180000,39024000,6620172,0.026018312,0.11981609,-0.11271412,12.465573,0.00011324052
39252000,39096000,6620172,0.025454063,0.1198579,-0.058122806,12.467488,3.010729e-05
39324000,39168000,6620172,0.02546946,0.11989813,0.0015845113,12.459397,2.2389846e-08
39396000,39240000,6620172,0.026177,0.119937755,0.07279714,12.461207,4.7252634e-05
39468000,39312000,6620172,0.026427453,0.11997678,0.025763918,12.463048,5.9177555e-06
39540000,39384000,6620172,0.02632094,0.12001523,-0.010955041,12.464916,1.069784e-06
39604000,39452000,6620172,0.025452217,0.11992049,-0.08943129,12.466389,7.128462e-05
39668000,39516000,6620172,0.025420813,0.11982759,-0.0032354202,12.466263,9.33002e-08
39732000,39574666,6620172,0.025976988,0.11973584,0.05731234,12.459365,2.9292594e-05
39804000,39648000,6620172,0.025580293,0.11977861,-0.040869564,12.461181,1.4893552e-05
39876000,39720000,6620172,0.025018787,0.11982073,-0.057837375,12.463024,2.982299e-05
39948000,39792000,6620172,0.025252946,0.11986221,0.024114514,12.464896,5.1835327e-06
40020000,39862666,6620172,0.025037918,0.11990306,-0.022140153,12.466797,4.368817e-06
40092000,39934666,6620172,0.02522707,0.11994235,0.01945671,12.458751,3.376151e-06
40148000,39996000,6620172,0.025194013,0.11971583,-0.0034070015,12.459743,1.0351256e-07
40212000,40056000,6620172,0.025989348,0.11962642,0.08204476,12.461157,6.0020666e-05
40284000,40126666,6620172,0.02568616,0.11967149,-0.031268887,12.463005,8.71685e-06
40356000,40198666,6620172,0.024523983,0.11971586,-0.11983289,12.464882,0.00012800336
40412000,40260000,6620172,0.024741802,0.11949432,0.022503605,12.465939,4.5137417e-06
40476000,40320000,6620172,0.025137685,0.11940886,0.04090151,12.457564,1.4921174e-05
40548000,40392000,6620172,0.025195975,0.1194578,0.006020762,12.459358,3.232695e-07
40620000,40464000,6620172,0.02473742,0.11950597,-0.047351737,12.461183,1.9992636e-05
40692000,40534666,6620172,0.024902487,0.11955338,0.017041145,12.4630375,2.5889944e-06
40748000,40596000,6620172,0.025227912,0.1193348,0.033660747,12.464084,1.0100541e-05
40812000,40654666,6620172,0.02548242,0.11925317,0.026346795,12.465569,6.187297e-06
40884000,40728000,6620172,0.024191871,0.11930497,-0.13345361,12.457614,0.00015884856
40956000,40800000,6620172,0.023361554,0.11935593,-0.08583738,12.459415,6.5707165e-05
41028000,40872000,6620172,0.022985214,0.119406074,-0.038895003,12.461248,1.3489118e-05
41100000,40944000,6620172,0.021690004,0.11945542,-0.13382506,12.46311,0.00015966361
41172000,41016000,6620172,0.021443391,0.11950399,-0.025474183,12.465003,5.7844973e-06
41244000,41086666,6620172,0.021267664,0.1195518,-0.018147493,12.466926,2.9351572e-06
41300000,41148000,6620172,0.020934736,0.11933269,-0.03442074,12.458064,1.0566894e-05
41364000,41208000,6620172,0.019764137,0.119250536,-0.12112395,12.4594755,0.00013083314
41436000,41277333,6620172,0.020716578,0.11930273,0.09852199,12.461321,8.654855e-05
41508000,41352000,6620172,0.020489393,0.119354084,-0.023493677,12.463199,4.920735e-06
41580000,41424000,6620172,0.020107599,0.11940463,-0.03947133,12.465109,1.3887527e-05
41652000,41494666,6620172,0.019397227,0.11945438,-0.073421806,12.4670515,4.804452e-05
41708000,41556000,6620172,0.019259019,0.11923716,-0.014300792,12.458184,1.823992e-06
41772000,41616000,6620172,0.019613223,0.11915687,0.0366797,12.459614,1.1997879e-05
41844000,41686666,6620172,0.018508151,0.119210884,-0.11440082,12.461483,0.00011669332
41916000,41760000,6620172,0.019275542,0.11926319,0.07936172,12.454328,5.6190045e-05
41988000,41832000,6620172,0.019172637,0.11931465,-0.010639068,12.456105,1.0096767e-06
42060000,41902666,6620172,0.018258438,0.11936528,-0.09449002,12.45792,7.963131e-05
42116000,41962000,6620172,0.01918046,0.11914986,0.095480576,12.458958,8.130287e-05
42180000,42022666,6620172,0.01877807,0.11907133,-0.041702434,12.460429,1.5507698e-05
42252000,42096000,6620172,0.017480148,0.11912707,-0.13447021,12.462348,0.00016121661
42324000,42168000,6620172,0.017657131,0.11918106,0.018316971,12.45502,2.9930943e-06
42396000,42240000,6620172,0.017743085,0.119234174,0.008893162,12.456842,7.05443e-07
42468000,42310666,6620172,0.01824336,0.11928644,0.05174544,12.458706,2.3879691e-05
42540000,42384000,6620172,0.01734151,0.11933787,-0.093255565,12.460609,7.7547484e-05
42612000,42456000,6620172,0.017607419,0.11938849,0.027488813,12.462553,6.7369365e-06
42684000,42526666,6620172,0.017444015,0.11943743,-0.016874997,12.455066,2.5403813e-06
42740000,42588000,6620172,0.016943024,0.119220346,-0.051837325,12.4561,2.3969587e-05
42804000,42646666,6620172,0.015755598,0.119140185,-0.12296109,12.457563,0.00013485274
42876000,42718666,6620172,0.01462733,0.119194336,-0.116799295,12.45947,0.00012165735
42948000,42790666,6620172,0.014693588,0.11924762,0.006857045,12.461416,4.192413e-07
43020000,42864000,6620172,0.014160442,0.11930007,-0.055159897,12.463399,2.7124881e-05
43092000,42936000,6620172,0.013873135,0.119350776,-0.02969389,12.455697,7.865452e-06
43164000,43008000,6620172,0.013484565,0.11940067,-0.04014877,12.457557,1.4377026e-05
43236000,43080000,6620172,0.01376645,0.11944979,0.029117975,12.459455,7.5610274e-06
43308000,43150666,6620172,0.013382259,0.119498126,-0.039675873,12.461385,1.4036025e-05
43380000,43222666,6620172,0.012790356,0.11954571,-0.061111752,12.463349,3.3294476e-05
43452000,43296000,6620172,0.012534289,0.11959257,-0.026431713,12.465345,6.2273575e-06
43524000,43366666,6620172,0.012073273,0.119637765,-0.047537953,12.457349,2.0156393e-05
43580000,43428000,6620172,0.011621753,0.11941703,-0.046649687,12.458396,1.9408539e-05
43644000,43488000,6620172,0.010675312,0.119333275,-0.09786443,12.459871,8.540703e-05
43716000,43558666,6620172,0.010692491,0.11938391,0.0017758599,12.461786,2.8118658e-08
43788000,43632000,6620172,0.010560681,0.119433746,-0.013622179,12.46373,1.6542556e-06
43860000,43702666,6620172,0.010460831,0.1194828,-0.0103165405,12.465699,9.486566e-07
43932000,43774666,6620172,0.010760715,0.11953015,0.030951522,12.457586,8.544519e-06
44004000,43848000,6620172,0.011535998,0.11957675,0.07999856,12.459421,5.7072117e-05
44076000,43920000,6620172,0.011001444,0.119622625,-0.055145618,12.461284,2.7115446e-05
44148000,43992000,6620172,0.010861342,0.11966778,-0.014449931,12.463174,1.8614886e-06
44220000,44062666,6620172,0.011011715,0.11971225,0.015505846,12.46509,2.1431522e-06
44276000,44124000,6620172,0.0104906,0.11948986,-0.05379736,12.456211,2.5816269e-05
44340000,44184000,6620172,0.009723311,0.119404495,-0.07927722,12.457597,5.605573e-05
44412000,44256000,6620172,0.009070788,0.11945353,-0.067401536,12.459406,4.0513496e-05
44484000,44328000,6620172,0.009167059,0.119501784,0.009941664,12.461241,8.812808e-07
44556000,44400000,6620172,0.009090977,0.11954928,-0.007854803,12.463102,5.500498e-07
44628000,44472000,6620172,0.008889955,0.119596034,-0.020748692,12.464988,3.8374883e-06
44700000,44544000,6620172,0.009230825,0.119641125,0.03514691,12.456922,1.1018465e-05
44772000,44614666,6620172,0.009939408,0.1196855,0.07304457,12.458686,4.7584017e-05
44844000,44688000,6620172,0.010780148,0.11972918,0.086648725,12.460475,6.694949e-05
44916000,44758666,6620172,0.010291985,0.119772196,-0.050300412,12.462291,2.255811e-05
44988000,44830666,6620172,0.010228517,0.119814545,-0.006538323,12.464131,3.810906e-07
45060000,44902666,6620172,0.010263726,0.119856246,0.003626463,12.465997,1.17218725e-07
45132000,44976000,6620172,0.009915438,0.119896375,-0.035837457,12.457905,1.1454783e-05
45204000,45048000,6620172,0.009535167,0.119935885,-0.03912076,12.459655,1.3647907e-05
45276000,45120000,6620172,0.009351972,0.1199748,-0.018843029,12.461431,3.1658547e-06
45348000,45190666,6620172,0.009593692,0.120013125,0.024858233,12.463232,5.5089304e-06
45420000,45264000,6620172,0.010207664,0.12005088,0.06312969,12.465058,3.552471e-05
45492000,45336000,6620172,0.009978767,0.12008714,-0.023513328,12.457103,4.9313826e-06
45564000,45406666,6620172,0.0106805945,0.12012286,0.072083004,12.4588175,4.6338977e-05
45620000,45468000,6620172,0.009978408,0.119892836,-0.072265066,12.459766,4.6569807e-05
45684000,45528000,6620172,0.010590508,0.11979999,0.06305016,12.461131,3.544642e-05
45756000,45598666,6620172,0.010716735,0.11984168,0.01299958,12.462919,1.5065945e-06
45828000,45670666,6620172,0.010734766,0.11988273,0.0018565068,12.464731,3.0723285e-08
45900000,45744000,6620172,0.011045162,0.11992225,0.031928807,12.456872,9.09314e-06
45972000,45816000,6620172,0.010927677,0.11996116,-0.012082759,12.458575,1.3020313e-06
46044000,45888000,6620172,0.011300121,0.11999947,0.038297176,12.460304,1.3078633e-05
46116000,45958666,6620172,0.011467455,0.120037206,0.017203297,12.462058,2.6387067e-06
46172000,46020000,6620172,0.011481744,0.11980916,0.0014719982,12.463025,1.9317394e-08
46236000,46078666,6620172,0.011889543,0.11971824,0.04204609,12.464414,1.5759297e-05
46308000,46152000,6620172,0.011953659,0.11976093,0.006604109,12.456648,3.8903147e-07
46380000,46222666,6620172,0.011999089,0.11980295,0.0046784207,12.45834,1.9520722e-07
46452000,46296000,6620172,0.011572506,0.11984432,-0.043920476,12.460056,1.7201708e-05
46524000,46366666,6620172,0.011687473,0.11988504,0.011834476,12.461797,1.2487482e-06
46580000,46426000,6620172,0.010742735,0.11965992,-0.09744187,12.462755,8.4651496e-05
46644000,46486666,6620172,0.009985037,0.11957187,-0.078217104,12.464132,5.453796e-05
46716000,46558666,6620172,0.009777538,0.11961738,-0.021398611,12.456452,4.084457e-06
46772000,46620000,6620172,0.010651666,0.11939694,0.09032012,12.457364,7.276128e-05
46836000,46678666,6620172,0.011134164,0.11931347,0.04989521,12.45868,2.2202565e-05
46908000,46752000,6620172,0.0115959,0.11936436,0.047734246,12.460408,2.0318204e-05
46980000,46824000,6620172,0.01181353,0.11941443,0.022492234,12.462158,4.510549e-06
47052000,46896000,6620172,0.012610385,0.11946369,0.0823332,12.463932,6.0429975e-05
47124000,46968000,6620172,0.012663244,0.119511284,0.005456021,12.4563265,2.6553366e-07
47196000,47040000,6620172,0.012753164,0.11955812,0.009278894,12.458003,7.678945e-07
47268000,47110666,6620172,0.013152248,0.1196042,0.041171394,12.4597025,1.5116142e-05
47340000,47184000,6620172,0.013902919,0.11964955,0.07742392,12.461426,5.3449065e-05
47412000,47254666,6620172,0.014317089,0.11969419,0.04270719,12.463172,1.6260388e-05
47484000,47328000,6620172,0.014052797,0.11973725,-0.027226023,12.455662,6.6124003e-06
47556000,47398666,6620172,0.013374697,0.11977964,-0.069838926,12.457312,4.3503907e-05
47628000,47472000,6620172,0.013339351,0.119821355,-0.00363959,12.458985,1.1813532e-07
47700000,47542666,6620172,0.013482795,0.11986242,0.0147673385,12.460683,1.9445545e-06
47756000,47604000,6620172,0.013392027,0.11963763,-0.009362922,12.461611,7.8163885e-07
47820000,47662666,6620172,0.013344189,0.1195499,-0.0049386574,12.462953,2.1744745e-07
47892000,47736000,6620172,0.013050289,0.11959575,-0.030311963,12.4555025,8.196423e-06
47964000,47808000,6620172,0.0132596465,0.119640864,0.021587163,12.4571495,4.156521e-06
48036000,47878666,6620172,0.012597264,0.11968526,-0.06828284,12.45882,4.1581847e-05
48108000,47952000,6620172,0.012899947,0.11972896,0.031195462,12.460515,8.677694e-06
48180000,48024000,6620172,0.01205387,0.119771965,-0.087179735,12.462234,6.776301e-05
48244000,48092000,6620172,0.013176281,0.119681686,0.11575375,12.4635725,0.00011944971
48308000,48156000,6620172,0.012011768,0.11959243,-0.12010987,12.455737,0.0001286902
48372000,48216000,6620172,0.01186614,0.11950502,-0.0150330085,12.457004,2.0157456e-06
48444000,48288000,6620172,0.01199305,0.11955203,0.013097239,12.4586735,1.529837e-06
48516000,48360000,6620172,0.011386401,0.11959829,-0.062591195,12.460366,3.493439e-05
48588000,48432000,6620172,0.011425125,0.11964382,0.0039944584,12.462083,1.4225995e-07
48660000,48502666,6620172,0.010779006,0.11968863,-0.06663142,12.463822,3.9578965e-05
48732000,48573333,6620172,0.010681491,0.119731866,-0.0100465845,12.456373,9.003321e-07
48804000,48648000,6620172,0.010765039,0.11977442,0.008605618,12.45802,6.604996e-07
48876000,48720000,6620172,0.010160571,0.11981631,-0.062248193,12.459691,3.4554425e-05
48948000,48790666,6620172,0.009378964,0.11985754,-0.08047307,12.461386,5.774207e-05
49020000,48864000,6620172,0.008644518,0.11989813,-0.07560211,12.463104,5.0956438e-05
49092000,48934666,6620172,0.0085696615,0.11993724,-0.0076984735,12.45572,5.286861e-07
49164000,49006666,6620172,0.008473555,0.11997574,-0.009881917,12.457346,8.709925e-07
49236000,49080000,6620172,0.008760119,0.12001365,0.029459795,12.458998,7.739873e-06
49308000,49152000,6620172,0.009049588,0.120050974,0.029753065,12.460672,7.893678e-06
49380000,49224000,6620172,0.009384099,0.120087735,0.034376927,12.462372,1.0536367e-05
49452000,49296000,6620172,0.008853794,0.120123945,-0.05448908,12.464095,2.646767e-05
49524000,49368000,6620172,0.0088383,0.12015875,-0.0015906105,12.456659,2.2567507e-08
49596000,49438666,6620172,0.008580342,0.12019303,-0.02647746,12.458293,6.2524696e-06
49652000,49500000,6620172,0.008323928,0.11996159,-0.02637209,12.45918,6.2023623e-06
49716000,49560000,6620172,0.0077542174,0.11986734,-0.058647417,12.460471,3.0670497e-05
49788000,49632000,6620172,0.007473986,0.119907655,-0.028841864,12.462175,7.416693e-06
49860000,49704000,6620172,0.006290994,0.11994735,-0.121731795,12.463902,0.00013210264
49932000,49776000,6620172,0.0060478365,0.11998557,-0.02499827,12.456494,5.574187e-06
50004000,49846666,6620172,0.0059887017,0.120023206,-0.006078354,12.458132,3.2951604e-07
50060000,49908000,6620172,0.0063347183,0.119795054,0.035637274,12.4590225,1.1326155e-05
50124000,49968000,6620172,0.006299022,0.11970402,-0.003679689,12.460318,1.2073984e-07
50196000,50040000,6620172,0.006337397,0.1197475,0.003954884,12.462027,1.3945572e-07
50268000,50112000,6620172,0.005200332,0.11979016,-0.11714672,12.462411,0.0001223533
50340000,50184000,6620172,0.00500099,0.11983143,-0.020520156,12.456367,3.756016e-06
50412000,50254666,6620172,0.0046795956,0.11987205,-0.03307716,12.458009,9.758102e-06
50468000,50316000,6620172,0.0053358893,0.11964682,0.06767758,12.458903,4.0847674e-05
50532000,50376000,6620172,0.005715599,0.119558655,0.039189257,12.460204,1.3695137e-05
50604000,50448000,6620172,0.0058613247,0.11960494,0.015036354,12.461917,2.0158477e-06
50676000,50520000,6620172,0.005880549,0.11964964,0.0019816929,12.454652,3.5034716e-08
50748000,50592000,6620172,0.005673652,0.11969363,-0.021322444,12.456274,4.0554896e-06
50820000,50664000,6620172,0.0053869667,0.11973692,-0.029538399,12.457921,7.781903e-06
50892000,50734666,6620172,0.0058786236,0.119778745,0.05061279,12.451383,2.2859169e-05
50964000,50808000,6620172,0.0058348486,0.11981991,-0.0045053326,12.45295,1.8110855e-07
51036000,50880000,6620172,0.006269871,0.119860426,0.044763297,12.454543,1.7876144e-05
51108000,50952000,6620172,0.004944651,0.11990031,-0.13633579,12.456164,0.00016580321
51180000,51024000,6620172,0.004999829,0.11993957,0.0056754663,12.45781,2.8728894e-07
51252000,51096000,6620172,0.0045956997,0.11997823,-0.041559886,12.459484,1.5403028e-05
51324000,51166666,6620172,0.004531667,0.1200155,-0.0065793423,12.452805,3.8623827e-07
51396000,51238666,6620172,0.0046197474,0.120052196,0.009048656,12.454396,7.304709e-07
51452000,51300000,6620172,0.0051775873,0.11982313,0.05742249,12.455263,2.9414983e-05
51516000,51360000,6620172,0.004565131,0.119731195,-0.06309995,12.456527,3.551555e-05
51588000,51430666,6620172,0.004044106,0.11977378,-0.053667914,12.458194,2.5688092e-05
51660000,51504000,6620172,0.0038448137,0.1198157,-0.020523598,12.4598875,3.7562145e-06
51732000,51574666,6620172,0.0031991159,0.119856164,-0.066436365,12.453128,3.9381364e-05
51788000,51636000,6620172,0.0025085574,0.11963078,-0.07119228,12.453992,4.521835e-05
51852000,51694666,6620172,0.002641889,0.11954246,0.013757312,12.455249,1.6883879e-06
51908000,51756000,6620172,0.0031624748,0.119322635,0.05378511,12.448487,2.5820525e-05
51972000,51814666,6620172,0.0023022408,0.11923976,-0.088947386,12.449682,7.06099e-05
52028000,51876000,6620172,0.0016660936,0.11902598,-0.06590088,12.450535,3.8757156e-05
52092000,51936000,6620172,0.0020179816,0.11894903,0.036480878,12.451771,1.1875637e-05
52164000,52006666,6620172,0.002385445,0.119006306,0.038082115,12.4534,1.2939327e-05
52236000,52080000,6620172,0.001628639,0.11906263,-0.07840473,12.455053,5.4839875e-05
52308000,52150666,6620172,0.0018579283,0.1191173,0.023731468,12.448924,5.0266067e-06
52364000,52210000,6620172,0.002360345,0.11890581,0.05209715,12.449775,2.4222774e-05
52428000,52272000,6620172,0.0029934212,0.118831106,0.065693855,12.451007,3.851257e-05
52500000,52341333,6620172,0.002441769,0.11889058,-0.057223156,12.452628,2.92173e-05
52572000,52416000,6620172,0.002306384,0.11894907,-0.014038449,12.454277,1.7582363e-06
52644000,52488000,6620172,0.0028064193,0.11900658,0.0518318,12.455949,2.3964769e-05
52716000,52560000,6620172,0.0018518963,0.1190624,-0.098845236,12.44968,8.719885e-05
52788000,52632000,6620172,0.0011795519,0.11911729,-0.06960092,12.451272,4.3228854e-05
52860000,52704000,6620172,0.0008281389,0.11917127,-0.03636632,12.4528885,1.1800113e-05
52932000,52774666,6620172,0.00160923,0.119224355,0.08080638,12.454531,5.8253423e-05
53004000,52848000,6620172,0.0014136714,0.119276576,-0.020224953,12.456198,3.6487745e-06
53076000,52920000,6620172,0.001575137,0.11932719,0.016683253,12.449839,2.4840206e-06
53148000,52990666,6620172,0.00045196933,0.11937697,-0.11601605,12.451423,0.00012010876
53220000,53064000,6620172,0.0010209184,0.11942594,0.05875213,12.453032,3.0798503e-05
53292000,53136000,6620172,0.00043577212,0.11947411,-0.060408127,12.454666,3.2554883e-05
53364000,53206666,6620172,-0.0003280742,0.119521506,-0.07883543,12.456326,5.5438362e-05
53436000,53280000,6620172,-0.0008120192,0.11956814,-0.049934376,12.458009,2.2238633e-05
53508000,53350666,6620172,-0.00036364305,0.11961325,0.046222176,12.451468,1.9065039e-05
53564000,53412000,6620172,-1.91594e-05,0.11939242,0.03558093,12.452331,1.1296435e-05
53628000,53469333,6620172,-0.00050313864,0.11930855,-0.05002967,12.453581,2.2331531e-05
53684000,53532000,6620172,-0.00057666126,0.11909381,-0.007614537,12.4544735,5.1727216e-07
53748000,53592000,6620172,-0.0008802585,0.119015925,-0.031466797,12.455763,8.832675e-06
53820000,53662666,6620172,-0.00050476665,0.11907229,0.038905162,12.457455,1.3500275e-05
53892000,53736000,6620172,-0.00039375032,0.11912695,0.011491095,12.450898,1.1783644e-06
53964000,53808000,6620172,-0.0008786416,0.11918071,-0.050173875,12.452506,2.2462393e-05
54036000,53880000,6620172,-0.0012707869,0.11923358,-0.040564228,12.454137,1.4680142e-05
54108000,53952000,6620172,-0.00057206774,0.11928558,0.07225467,12.455793,4.657126e-05
54180000,54021333,6620172,-0.00070763944,0.11933674,-0.014015335,12.457474,1.7520015e-06
54236000,54084000,6620172,-0.00016721326,0.11912182,0.055974975,12.4584,2.7943644e-05
