timestamp,timestamp_sample,control[0],control[1],control[2],control[3],control[4],control[5],control[6],control[7],control[8],control[9],control[10],control[11],reversible_flags
3888000,3888000,0.0,0.0,0.0,0.0,nan,nan,nan,nan,nan,nan,nan,nan,0
3892000,3892000,0.0,0.0,0.0,0.0,nan,nan,nan,nan,nan,nan,nan,nan,0
3988000,3988000,0.0,0.0,9.313226e-10,0.0,nan,nan,nan,nan,nan,nan,nan,nan,0
4088000,4088000,5.820766e-11,0.0,5.820766e-11,0.0,nan,nan,nan,nan,nan,nan,nan,nan,0
4188000,4188000,2.3283064e-10,0.0,2.3283064e-10,0.0,nan,nan,nan,nan,nan,nan,nan,nan,0
4288000,4288000,0.0,0.0,8.731149e-11,0.0,nan,nan,nan,nan,nan,nan,nan,nan,0
4388000,4388000,0.0,0.0,1.6734703e-10,0.0,nan,nan,nan,nan,nan,nan,nan,nan,0
4488000,4488000,0.0,0.0,0.0,0.0,nan,nan,nan,nan,nan,nan,nan,nan,0
4588000,4588000,0.0,0.0,0.0,0.0,nan,nan,nan,nan,nan,nan,nan,nan,0
4688000,4688000,0.0,0.0,0.0,0.0,nan,nan,nan,nan,nan,nan,nan,nan,0
4788000,4788000,3.376222e-05,0.0016593442,0.00013304633,0.002173847,nan,nan,nan,nan,nan,nan,nan,nan,0
4888000,4888000,0.0,0.0019999996,0.0,0.002000001,nan,nan,nan,nan,nan,nan,nan,nan,0
4988000,4988000,0.0,0.0019999994,0.0,0.0020000003,nan,nan,nan,nan,nan,nan,nan,nan,0
5088000,5088000,0.0020000006,0.0,0.0019999996,0.0,nan,nan,nan,nan,nan,nan,nan,nan,0
5188000,5188000,0.0,0.0019999999,0.0013233313,0.0006766685,nan,nan,nan,nan,nan,nan,nan,nan,0
5288000,5288000,0.0020000003,0.0,0.0019999994,0.0,nan,nan,nan,nan,nan,nan,nan,nan,0
5388000,5388000,0.0019999999,0.0,0.0019999999,0.0,nan,nan,nan,nan,nan,nan,nan,nan,0
5488000,5488000,0.002,0.0,0.0019999999,0.0,nan,nan,nan,nan,nan,nan,nan,nan,0
5588000,5588000,0.0019999999,0.0,0.0019999999,0.0,nan,nan,nan,nan,nan,nan,nan,nan,0
5688000,5688000,0.0011319822,0.00086801755,0.0019999999,0.0,nan,nan,nan,nan,nan,nan,nan,nan,0
5788000,5788000,0.002,0.0,0.0019999996,0.0,nan,nan,nan,nan,nan,nan,nan,nan,0
5888000,5888000,0.0,0.0020000003,0.0,0.0020000003,nan,nan,nan,nan,nan,nan,nan,nan,0
5988000,5988000,0.0019999994,0.0,0.0019999994,0.0,nan,nan,nan,nan,nan,nan,nan,nan,0
6088000,6088000,0.0,0.002,0.0,0.0019999996,nan,nan,nan,nan,nan,nan,nan,nan,0
6188000,6188000,0.00047661737,0.0015233826,0.0019999999,0.0,nan,nan,nan,nan,nan,nan,nan,nan,0
6288000,6288000,0.0019999999,0.0,0.0019999999,0.0,nan,nan,nan,nan,nan,nan,nan,nan,0
6388000,6388000,0.0018565778,0.00014342205,0.0019999999,0.0,nan,nan,nan,nan,nan,nan,nan,nan,0
6488000,6488000,0.0019999996,0.0,0.0019999996,0.0,nan,nan,nan,nan,nan,nan,nan,nan,0
6588000,6588000,0.0019999999,0.0,0.002,0.0,nan,nan,nan,nan,nan,nan,nan,nan,0
6688000,6688000,0.0019999999,0.0,0.0019999999,0.0,nan,nan,nan,nan,nan,nan,nan,nan,0
6788000,6788000,0.0019999994,0.0,0.0020000003,0.0,nan,nan,nan,nan,nan,nan,nan,nan,0
6888000,6888000,0.0020000003,0.0,0.0019999994,0.0,nan,nan,nan,nan,nan,nan,nan,nan,0
6988000,6988000,0.00019259908,0.0011689755,0.0011646613,0.001473764,nan,nan,nan,nan,nan,nan,nan,nan,0
7088000,7088000,0.0020000006,0.0,0.0019999999,0.0,nan,nan,nan,nan,nan,nan,nan,nan,0
7188000,7188000,0.0005251531,0.00092218345,0.00023959402,0.0023130693,nan,nan,nan,nan,nan,nan,nan,nan,0
7288000,7288000,0.0020604506,7.8988895e-05,0.0006598408,0.0012007194,nan,nan,nan,nan,nan,nan,nan,nan,0
7388000,7388000,0.0,0.0019999999,0.0,0.0019999999,nan,nan,nan,nan,nan,nan,nan,nan,0
7488000,7488000,0.0019999999,0.0,0.0019999999,0.0,nan,nan,nan,nan,nan,nan,nan,nan,0
7588000,7588000,0.00054074684,0.001459253,0.0,0.0019999999,nan,nan,nan,nan,nan,nan,nan,nan,0
7684000,7684000,0.0019999999,0.0,0.0019999999,0.0,nan,nan,nan,nan,nan,nan,nan,nan,0
7788000,7788000,0.0019999999,0.0,0.0019999999,0.0,nan,nan,nan,nan,nan,nan,nan,nan,0
7888000,7888000,0.0019999996,0.0,0.0019999996,0.0,nan,nan,nan,nan,nan,nan,nan,nan,0
7988000,7988000,0.002,0.0,0.0019999999,0.0,nan,nan,nan,nan,nan,nan,nan,nan,0
8088000,8088000,0.0,0.0019999999,0.0,0.0019999994,nan,nan,nan,nan,nan,nan,nan,nan,0
8184000,8184000,0.001363575,0.0013263198,0.001310105,0.0,nan,nan,nan,nan,nan,nan,nan,nan,0
8288000,8288000,0.0019999996,0.0,0.002,0.0,nan,nan,nan,nan,nan,nan,nan,nan,0
8388000,8388000,0.002,0.0,0.0019999999,0.0,nan,nan,nan,nan,nan,nan,nan,nan,0
8488000,8488000,0.000109997345,0.0021437297,0.0,0.0017462729,nan,nan,nan,nan,nan,nan,nan,nan,0
8588000,8588000,0.0,0.0019999999,0.0,0.0019999999,nan,nan,nan,nan,nan,nan,nan,nan,0
8688000,8688000,0.0022734269,0.00035727816,0.0013692945,0.0,nan,nan,nan,nan,nan,nan,nan,nan,0
8788000,8788000,0.0,0.0019999999,0.0,0.0020000003,nan,nan,nan,nan,nan,nan,nan,nan,0
8888000,8888000,0.0023916315,0.00051173207,0.0010966359,0.0,nan,nan,nan,nan,nan,nan,nan,nan,0
8988000,8988000,0.0,0.002,0.0,0.002,nan,nan,nan,nan,nan,nan,nan,nan,0
9088000,9088000,7.3695046e-06,0.0017800822,9.2145165e-05,0.0021204029,nan,nan,nan,nan,nan,nan,nan,nan,0
9188000,9188000,0.002015342,2.0046942e-05,0.0014092255,0.0005553856,nan,nan,nan,nan,nan,nan,nan,nan,0
9288000,9288000,0.0011719035,0.0008280966,0.0,0.0019999996,nan,nan,nan,nan,nan,nan,nan,nan,0
9388000,9388000,0.0,0.0019999994,0.0,0.0019999994,nan,nan,nan,nan,nan,nan,nan,nan,0
9488000,9488000,0.0,0.0020000003,0.0,0.0019999994,nan,nan,nan,nan,nan,nan,nan,nan,0
9588000,9588000,0.0019999999,0.0,0.0019999999,0.0,nan,nan,nan,nan,nan,nan,nan,nan,0
9688000,9688000,0.0019999999,0.0,0.0019999999,0.0,nan,nan,nan,nan,nan,nan,nan,nan,0
9788000,9788000,0.0019999996,0.0,0.0019999996,0.0,nan,nan,nan,nan,nan,nan,nan,nan,0
9888000,9888000,0.0019999996,0.0,0.001989433,1.05666695e-05,nan,nan,nan,nan,nan,nan,nan,nan,0
9988000,9988000,0.0019999999,0.0,0.0019999999,0.0,nan,nan,nan,nan,nan,nan,nan,nan,0
10088000,10088000,0.0019999999,0.0,0.0019999999,0.0,nan,nan,nan,nan,nan,nan,nan,nan,0
10188000,10188000,0.0,0.0019999999,0.0011301935,0.0008698065,nan,nan,nan,nan,nan,nan,nan,nan,0
10288000,10288000,0.0019999999,0.0,0.0019999999,0.0,nan,nan,nan,nan,nan,nan,nan,nan,0
10388000,10388000,0.0,0.0019999999,0.0,0.002,nan,nan,nan,nan,nan,nan,nan,nan,0
10488000,10488000,0.002,0.0,0.002,0.0,nan,nan,nan,nan,nan,nan,nan,nan,0
10588000,10588000,0.0,0.002,0.0,0.002,nan,nan,nan,nan,nan,nan,nan,nan,0
10688000,10688000,0.0014150564,0.00058494334,0.0019999999,0.0,nan,nan,nan,nan,nan,nan,nan,nan,0
10784000,10784000,0.0,0.002,0.0,0.0019999999,nan,nan,nan,nan,nan,nan,nan,nan,0
10888000,10888000,0.0020140521,1.8361723e-05,0.0019675859,0.0,nan,nan,nan,nan,nan,nan,nan,nan,0
10988000,10988000,0.0008194732,0.0007368005,0.0001923669,0.0022513592,nan,nan,nan,nan,nan,nan,nan,nan,0
11084000,11084000,0.0021493635,0.00030637687,0.0007513034,0.000792956,nan,nan,nan,nan,nan,nan,nan,nan,0
11188000,11188000,0.0008645245,0.0011354752,0.0019999999,0.0,nan,nan,nan,nan,nan,nan,nan,nan,0
11288000,11288000,4.8555776e-05,0.001951444,0.0,0.002,nan,nan,nan,nan,nan,nan,nan,nan,0
11388000,11388000,0.0,0.0019999994,0.0,0.0020000003,nan,nan,nan,nan,nan,nan,nan,nan,0
11488000,11488000,0.0019999996,0.0,0.0019999999,0.0,nan,nan,nan,nan,nan,nan,nan,nan,0
11588000,11588000,0.0003327788,0.0016672208,0.0019999999,0.0,nan,nan,nan,nan,nan,nan,nan,nan,0
11688000,11688000,0.0018976616,0.0001023382,0.0019999999,0.0,nan,nan,nan,nan,nan,nan,nan,nan,0
11788000,11788000,0.0,0.0019999996,0.0,0.0019999996,nan,nan,nan,nan,nan,nan,nan,nan,0
11888000,11888000,0.0,0.0020000003,0.0,0.0019999994,nan,nan,nan,nan,nan,nan,nan,nan,0
11988000,11988000,9.9642406e-05,0.0011514004,0.0023246922,0.00042426467,nan,nan,nan,nan,nan,nan,nan,nan,0
12088000,12088000,0.0,0.0019999999,0.0,0.0019999999,nan,nan,nan,nan,nan,nan,nan,nan,0
12188000,12188000,0.0019779853,0.0,0.0009036343,0.0011183802,nan,nan,nan,nan,nan,nan,nan,nan,0
12288000,12288000,0.0022463908,0.00032195068,0.00027758683,0.0011540713,nan,nan,nan,nan,nan,nan,nan,nan,0
12388000,12388000,0.0,0.002,0.0,0.002,nan,nan,nan,nan,nan,nan,nan,nan,0
12488000,12488000,0.0,0.0019999999,0.0,0.0019999999,nan,nan,nan,nan,nan,nan,nan,nan,0
12588000,12588000,0.00027310764,0.0013167274,0.00033543145,0.0020747334,nan,nan,nan,nan,nan,nan,nan,nan,0
12688000,12688000,0.0018897121,0.000110288034,0.0019999999,0.0,nan,nan,nan,nan,nan,nan,nan,nan,0
12788000,12788000,0.0019999999,0.0,0.0020000003,0.0,nan,nan,nan,nan,nan,nan,nan,nan,0
12888000,12888000,0.0,0.0019999999,5.820766e-11,0.0019999999,nan,nan,nan,nan,nan,nan,nan,nan,0
12988000,12988000,0.0019999999,0.0,0.0019999999,0.0,nan,nan,nan,nan,nan,nan,nan,nan,0
13088000,13088000,0.0,0.0020000003,0.0,0.0020000003,nan,nan,nan,nan,nan,nan,nan,nan,0
13188000,13188000,0.0,0.0019999999,0.0,0.0020000003,nan,nan,nan,nan,nan,nan,nan,nan,0
13288000,13288000,0.0019999999,0.0,0.0019999999,0.0,nan,nan,nan,nan,nan,nan,nan,nan,0
13388000,13388000,0.0020000003,0.0,0.0020000006,0.0,nan,nan,nan,nan,nan,nan,nan,nan,0
13484000,13484000,0.0019999999,0.0,0.0019999999,0.0,nan,nan,nan,nan,nan,nan,nan,nan,0
13588000,13588000,6.6827146e-05,0.0020873207,0.00019504447,0.0016508072,nan,nan,nan,nan,nan,nan,nan,nan,0
13688000,13688000,0.0,0.0019999992,4.7293724e-10,0.0020000003,nan,nan,nan,nan,nan,nan,nan,nan,0
13788000,13788000,0.002,0.0,0.002,0.0,nan,nan,nan,nan,nan,nan,nan,nan,0
13888000,13888000,0.0013312994,0.0016312861,0.00020234825,0.00083506596,nan,nan,nan,nan,nan,nan,nan,nan,0
13988000,13988000,0.0,0.0019999999,0.0,0.0019999994,nan,nan,nan,nan,nan,nan,nan,nan,0
14088000,14088000,0.0019999999,0.0,0.0019999999,0.0,nan,nan,nan,nan,nan,nan,nan,nan,0
14188000,14188000,0.0019999999,0.0,0.0019999999,0.0,nan,nan,nan,nan,nan,nan,nan,nan,0
14288000,14288000,0.0,0.0019999999,0.0,0.0019999999,nan,nan,nan,nan,nan,nan,nan,nan,0
14388000,14388000,0.0019812398,1.8760096e-05,0.0019999999,0.0,nan,nan,nan,nan,nan,nan,nan,nan,0
14488000,14488000,0.0012142989,0.000785701,0.0019999999,0.0,nan,nan,nan,nan,nan,nan,nan,nan,0
14588000,14588000,0.0,0.002,0.0,0.0019999996,nan,nan,nan,nan,nan,nan,nan,nan,0
14688000,14688000,0.0019999999,0.0,0.0019999999,0.0,nan,nan,nan,nan,nan,nan,nan,nan,0
14784000,14784000,2.3283064e-10,0.0019999999,0.0,0.0019999994,nan,nan,nan,nan,nan,nan,nan,nan,0
14888000,14888000,0.0022680566,0.000526955,0.0005484151,0.0006565731,nan,nan,nan,nan,nan,nan,nan,nan,0
14984000,14984000,0.00025997608,0.0017400237,0.0,0.0019999999,nan,nan,nan,nan,nan,nan,nan,nan,0
15088000,15088000,0.0015260583,0.00042610947,0.0020207365,2.709562e-05,nan,nan,nan,nan,nan,nan,nan,nan,0
15188000,15188000,0.0016099433,0.0,0.001884286,0.0005057703,nan,nan,nan,nan,nan,nan,nan,nan,0
15288000,15288000,0.0,0.0019999994,0.0,0.0019999994,nan,nan,nan,nan,nan,nan,nan,nan,0
15388000,15388000,0.0019999999,0.0,0.0019999999,0.0,nan,nan,nan,nan,nan,nan,nan,nan,0
15488000,15488000,0.0,0.0019999999,0.0,0.0019999999,nan,nan,nan,nan,nan,nan,nan,nan,0
15588000,15588000,0.0019999999,0.0,0.0019999999,0.0,nan,nan,nan,nan,nan,nan,nan,nan,0
15688000,15688000,0.0,0.0019999996,0.0,0.0019999996,nan,nan,nan,nan,nan,nan,nan,nan,0
15788000,15788000,0.0011683329,0.00083166687,0.0019999999,0.0,nan,nan,nan,nan,nan,nan,nan,nan,0
15884000,15884000,0.00014924289,0.0014792968,0.00016103771,0.0022104224,nan,nan,nan,nan,nan,nan,nan,nan,0
15988000,15988000,0.0,0.0019999999,0.0,0.0019999999,nan,nan,nan,nan,nan,nan,nan,nan,0
16088000,16088000,0.0,0.0018660006,0.0012020571,0.00093194214,nan,nan,nan,nan,nan,nan,nan,nan,0
16188000,16188000,0.0,0.0019999994,0.0,0.0019999999,nan,nan,nan,nan,nan,nan,nan,nan,0
16288000,16288000,0.0019999999,0.0,0.00049667363,0.0015033258,nan,nan,nan,nan,nan,nan,nan,nan,0
16388000,16388000,0.0,0.0019999999,0.0,0.0019999996,nan,nan,nan,nan,nan,nan,nan,nan,0
16488000,16488000,0.0,0.0019999996,0.0,0.0019999999,nan,nan,nan,nan,nan,nan,nan,nan,0
16588000,16588000,0.002,0.0,0.0020000003,0.0,nan,nan,nan,nan,nan,nan,nan,nan,0
16688000,16688000,0.0,0.0019999996,0.0,0.0019999996,nan,nan,nan,nan,nan,nan,nan,nan,0
16788000,16788000,0.0,0.0020000003,0.0,0.0019999999,nan,nan,nan,nan,nan,nan,nan,nan,0
16888000,16888000,0.0,0.0020000003,0.0,0.0019999994,nan,nan,nan,nan,nan,nan,nan,nan,0
16988000,16988000,0.0,0.0019999996,0.0,0.0019999996,nan,nan,nan,nan,nan,nan,nan,nan,0
17088000,17088000,0.0011451794,0.00063188514,0.0006079723,0.0016149629,nan,nan,nan,nan,nan,nan,nan,nan,0
17184000,17184000,0.0,0.0019999996,0.0016249489,0.00037505117,nan,nan,nan,nan,nan,nan,nan,nan,0
17288000,17288000,0.0,0.0019999999,0.0,0.0019999994,nan,nan,nan,nan,nan,nan,nan,nan,0
17388000,17388000,0.0,0.002,0.0,0.0019999996,nan,nan,nan,nan,nan,nan,nan,nan,0
17488000,17488000,0.0,0.0019999999,0.0,0.0019999999,nan,nan,nan,nan,nan,nan,nan,nan,0
17588000,17588000,0.0,0.0020000003,0.0,0.0019999999,nan,nan,nan,nan,nan,nan,nan,nan,0
17688000,17688000,0.0019999999,0.0,0.0019999999,0.0,nan,nan,nan,nan,nan,nan,nan,nan,0
17784000,17784000,0.0,0.0019999999,0.0,0.0019999999,nan,nan,nan,nan,nan,nan,nan,nan,0
17888000,17888000,0.0019999999,0.0,0.0019999996,0.0,nan,nan,nan,nan,nan,nan,nan,nan,0
17988000,17988000,0.001462412,0.00076687906,0.0014809963,0.0002897125,nan,nan,nan,nan,nan,nan,nan,nan,0
18088000,18088000,0.0,0.0019999999,0.0,0.0019999999,nan,nan,nan,nan,nan,nan,nan,nan,0
18188000,18188000,0.001363161,0.0007015462,0.0019352925,0.0,nan,nan,nan,nan,nan,nan,nan,nan,0
18288000,18288000,0.0,0.0019999999,0.0,0.0019999999,nan,nan,nan,nan,nan,nan,nan,nan,0
18388000,18388000,0.0,0.0019999999,0.0,0.0019999999,nan,nan,nan,nan,nan,nan,nan,nan,0
18484000,18484000,0.0,0.0019999999,0.0,0.0019999999,nan,nan,nan,nan,nan,nan,nan,nan,0
18588000,18588000,0.0,0.0019999999,0.0,0.0019999999,nan,nan,nan,nan,nan,nan,nan,nan,0
18688000,18688000,0.0019999999,0.0,0.0018730321,0.00012696767,nan,nan,nan,nan,nan,nan,nan,nan,0
18788000,18788000,0.0005115062,0.0014211902,2.9177807e-05,0.0020381254,nan,nan,nan,nan,nan,nan,nan,nan,0
18888000,18888000,0.0,0.0019999999,0.0,0.0020000003,nan,nan,nan,nan,nan,nan,nan,nan,0
18988000,18988000,0.0066131824,0.019111566,0.011086497,0.016215635,nan,nan,nan,nan,nan,nan,nan,nan,0
19088000,19088000,0.024323614,0.03004512,0.024132399,0.03123487,nan,nan,nan,nan,nan,nan,nan,nan,0
19184000,19184000,0.037519865,0.04629795,0.039215825,0.046832744,nan,nan,nan,nan,nan,nan,nan,nan,0
19288000,19288000,0.059945054,0.06051187,0.062245626,0.061141156,nan,nan,nan,nan,nan,nan,nan,nan,0
19388000,19388000,0.074664086,0.08896426,0.08242102,0.08164352,nan,nan,nan,nan,nan,nan,nan,nan,0
19488000,19488000,0.102071576,0.104430646,0.10110296,0.10368221,nan,nan,nan,nan,nan,nan,nan,nan,0
19588000,19588000,0.124500304,0.12916856,0.121422864,0.13168144,nan,nan,nan,nan,nan,nan,nan,nan,0
19688000,19688000,0.14959505,0.1545885,0.14986917,0.15137674,nan,nan,nan,nan,nan,nan,nan,nan,0
19788000,19788000,0.17212862,0.18863602,0.17786728,0.17944992,nan,nan,nan,nan,nan,nan,nan,nan,0
19888000,19888000,0.19897509,0.21695746,0.20451021,0.20770322,nan,nan,nan,nan,nan,nan,nan,nan,0
19988000,19988000,0.23577072,0.24115056,0.23498715,0.24208865,nan,nan,nan,nan,nan,nan,nan,nan,0
20088000,20088000,0.26597363,0.2741596,0.2632819,0.2750086,nan,nan,nan,nan,nan,nan,nan,nan,0
20188000,20188000,0.2988108,0.3140481,0.3009258,0.3106872,nan,nan,nan,nan,nan,nan,nan,nan,0
20288000,20288000,0.3138617,0.33210626,0.31976384,0.32734877,nan,nan,nan,nan,nan,nan,nan,nan,0
20388000,20388000,0.3174135,0.3471827,0.3266471,0.3393957,nan,nan,nan,nan,nan,nan,nan,nan,0
20484000,20484000,0.3304103,0.3550228,0.33479267,0.35293424,nan,nan,nan,nan,nan,nan,nan,nan,0
20588000,20588000,0.34132898,0.36615437,0.35127237,0.3575571,nan,nan,nan,nan,nan,nan,nan,nan,0
20688000,20688000,0.35562435,0.3788144,0.36348537,0.37259698,nan,nan,nan,nan,nan,nan,nan,nan,0
20788000,20788000,0.36478046,0.38917837,0.3709684,0.38490206,nan,nan,nan,nan,nan,nan,nan,nan,0
20888000,20888000,0.37656802,0.4054779,0.38000107,0.40245238,nan,nan,nan,nan,nan,nan,nan,nan,0
20984000,20984000,0.38877043,0.41721976,0.39685956,0.4100914,nan,nan,nan,nan,nan,nan,nan,nan,0
21088000,21088000,0.4025006,0.43187314,0.41044286,0.4258967,nan,nan,nan,nan,nan,nan,nan,nan,0
21188000,21188000,0.41397217,0.44914857,0.4222511,0.44188267,nan,nan,nan,nan,nan,nan,nan,nan,0
21288000,21288000,0.4301442,0.4642276,0.4377885,0.45624536,nan,nan,nan,nan,nan,nan,nan,nan,0
21388000,21388000,0.43867677,0.48733792,0.45476717,0.46916428,nan,nan,nan,nan,nan,nan,nan,nan,0
21488000,21488000,0.45933867,0.49909943,0.47148016,0.4877911,nan,nan,nan,nan,nan,nan,nan,nan,0
21584000,21584000,0.46866092,0.51764876,0.4809885,0.5087268,nan,nan,nan,nan,nan,nan,nan,nan,0
21688000,21688000,0.48817888,0.53698707,0.50655764,0.5193512,nan,nan,nan,nan,nan,nan,nan,nan,0
21788000,21788000,0.5013969,0.55474955,0.5172307,0.54027605,nan,nan,nan,nan,nan,nan,nan,nan,0
21888000,21888000,0.5246595,0.57149494,0.5378076,0.5581106,nan,nan,nan,nan,nan,nan,nan,nan,0
21988000,21988000,0.5621351,0.6202887,0.58310413,0.59714824,nan,nan,nan,nan,nan,nan,nan,nan,0
22088000,22088000,0.582776,0.63871837,0.60486764,0.6166469,nan,nan,nan,nan,nan,nan,nan,nan,0
22188000,22188000,0.59928775,0.65792,0.621848,0.6351068,nan,nan,nan,nan,nan,nan,nan,nan,0
22288000,22288000,0.61965936,0.67989904,0.6429355,0.6551063,nan,nan,nan,nan,nan,nan,nan,nan,0
22388000,22388000,0.637735,0.6984443,0.66111875,0.67578954,nan,nan,nan,nan,nan,nan,nan,nan,0
22488000,22488000,0.66145104,0.7214414,0.68498176,0.69616365,nan,nan,nan,nan,nan,nan,nan,nan,0
22588000,22588000,0.67528427,0.74623847,0.6996665,0.7193705,nan,nan,nan,nan,nan,nan,nan,nan,0
22688000,22688000,0.7148773,0.73983514,0.7219123,0.73027754,nan,nan,nan,nan,nan,nan,nan,nan,0
22788000,22788000,0.74470836,0.7280453,0.7395337,0.73126346,nan,nan,nan,nan,nan,nan,nan,nan,0
22888000,22888000,0.7549001,0.73647565,0.7537872,0.7384088,nan,nan,nan,nan,nan,nan,nan,nan,0
22988000,22988000,0.7543471,0.7377684,0.74973565,0.7418694,nan,nan,nan,nan,nan,nan,nan,nan,0
23088000,23088000,0.75013673,0.7537003,0.75378066,0.7512245,nan,nan,nan,nan,nan,nan,nan,nan,0
23188000,23188000,0.7525828,0.7468078,0.7512457,0.75066835,nan,nan,nan,nan,nan,nan,nan,nan,0
23288000,23288000,0.7533165,0.75616574,0.74972045,0.7590387,nan,nan,nan,nan,nan,nan,nan,nan,0
23388000,23388000,0.74000597,0.7401165,0.7376812,0.73975855,nan,nan,nan,nan,nan,nan,nan,nan,0
23488000,23488000,0.726344,0.72797734,0.7293021,0.726822,nan,nan,nan,nan,nan,nan,nan,nan,0
23588000,23588000,0.7310578,0.7233258,0.73066497,0.724664,nan,nan,nan,nan,nan,nan,nan,nan,0
23688000,23688000,0.7336061,0.7283811,0.7357972,0.7264869,nan,nan,nan,nan,nan,nan,nan,nan,0
23788000,23788000,0.71892124,0.71755385,0.7226143,0.71555275,nan,nan,nan,nan,nan,nan,nan,nan,0
23888000,23888000,0.72577816,0.7213291,0.7254313,0.72270364,nan,nan,nan,nan,nan,nan,nan,nan,0
23988000,23988000,0.7190104,0.72131246,0.7220495,0.7162862,nan,nan,nan,nan,nan,nan,nan,nan,0
24088000,24088000,0.7237772,0.7238708,0.7264081,0.72178096,nan,nan,nan,nan,nan,nan,nan,nan,0
24188000,24188000,0.71320593,0.7247491,0.715795,0.72342366,nan,nan,nan,nan,nan,nan,nan,nan,0
24288000,24288000,0.72663057,0.7200325,0.7188319,0.7249591,nan,nan,nan,nan,nan,nan,nan,nan,0
24388000,24388000,0.72147197,0.71339625,0.719651,0.7150034,nan,nan,nan,nan,nan,nan,nan,nan,0
24488000,24488000,0.7218157,0.7203854,0.72121096,0.72095186,nan,nan,nan,nan,nan,nan,nan,nan,0
24588000,24588000,0.71683687,0.71334714,0.71970534,0.71109784,nan,nan,nan,nan,nan,nan,nan,nan,0
24688000,24688000,0.71951693,0.71788394,0.72237474,0.71583736,nan,nan,nan,nan,nan,nan,nan,nan,0
24788000,24788000,0.71934813,0.70948946,0.7151573,0.714564,nan,nan,nan,nan,nan,nan,nan,nan,0
24888000,24888000,0.72116435,0.7157898,0.71796656,0.716658,nan,nan,nan,nan,nan,nan,nan,nan,0
24988000,24988000,0.71371055,0.71319604,0.71501595,0.7116665,nan,nan,nan,nan,nan,nan,nan,nan,0
25088000,25088000,0.7154737,0.71785855,0.7200634,0.71368384,nan,nan,nan,nan,nan,nan,nan,nan,0
25184000,25184000,0.71055436,0.71424466,0.7135329,0.71144575,nan,nan,nan,nan,nan,nan,nan,nan,0
25288000,25288000,0.71198547,0.7176549,0.7159464,0.7145877,nan,nan,nan,nan,nan,nan,nan,nan,0
25388000,25388000,0.713314,0.7069291,0.7114112,0.7093189,nan,nan,nan,nan,nan,nan,nan,nan,0
25488000,25488000,0.71809447,0.70845747,0.7169968,0.7094476,nan,nan,nan,nan,nan,nan,nan,nan,0
25588000,25588000,0.7124492,0.70644766,0.71336603,0.703909,nan,nan,nan,nan,nan,nan,nan,nan,0
25684000,25684000,0.71707904,0.7066761,0.716161,0.70854425,nan,nan,nan,nan,nan,nan,nan,nan,0
25788000,25788000,0.7072663,0.70608014,0.71155304,0.70413727,nan,nan,nan,nan,nan,nan,nan,nan,0
25888000,25888000,0.7121917,0.7058635,0.709621,0.7113803,nan,nan,nan,nan,nan,nan,nan,nan,0
25988000,25988000,0.7042333,0.70730925,0.7068001,0.70406437,nan,nan,nan,nan,nan,nan,nan,nan,0
26088000,26088000,0.7123723,0.7060091,0.7081275,0.7079094,nan,nan,nan,nan,nan,nan,nan,nan,0
26188000,26188000,0.7109691,0.7015937,0.7081653,0.7038626,nan,nan,nan,nan,nan,nan,nan,nan,0
26288000,26288000,0.6881529,0.6822803,0.6849384,0.6858317,nan,nan,nan,nan,nan,nan,nan,nan,0
26388000,26388000,0.66665494,0.671849,0.66408426,0.66943413,nan,nan,nan,nan,nan,nan,nan,nan,0
26488000,26488000,0.6583827,0.6525165,0.65716994,0.65102404,nan,nan,nan,nan,nan,nan,nan,nan,0
26588000,26588000,0.67667204,0.67466456,0.6748345,0.67901576,nan,nan,nan,nan,nan,nan,nan,nan,0
26688000,26688000,0.696889,0.69711107,0.6950504,0.70376474,nan,nan,nan,nan,nan,nan,nan,nan,0
26788000,26788000,0.7163182,0.7076721,0.7144886,0.711716,nan,nan,nan,nan,nan,nan,nan,nan,0
26888000,26888000,0.7208126,0.72182006,0.7230471,0.7199983,nan,nan,nan,nan,nan,nan,nan,nan,0
26988000,26988000,0.71861255,0.71673185,0.71711713,0.7178948,nan,nan,nan,nan,nan,nan,nan,nan,0
27088000,27088000,0.71220654,0.70929235,0.71401584,0.70402026,nan,nan,nan,nan,nan,nan,nan,nan,0
27188000,27188000,0.71060246,0.70126617,0.70699364,0.70305216,nan,nan,nan,nan,nan,nan,nan,nan,0
27288000,27288000,0.70592296,0.7008192,0.7074129,0.7007985,nan,nan,nan,nan,nan,nan,nan,nan,0
27388000,27388000,0.7060914,0.70083195,0.704081,0.7038593,nan,nan,nan,nan,nan,nan,nan,nan,0
27488000,27488000,0.70462924,0.7040282,0.7010152,0.7066631,nan,nan,nan,nan,nan,nan,nan,nan,0
27588000,27588000,0.7055371,0.7039825,0.70565104,0.70343983,nan,nan,nan,nan,nan,nan,nan,nan,0
27688000,27688000,0.7043613,0.7053875,0.70428765,0.7040137,nan,nan,nan,nan,nan,nan,nan,nan,0
27788000,27788000,0.7038966,0.7043462,0.70696884,0.6995369,nan,nan,nan,nan,nan,nan,nan,nan,0
27888000,27888000,0.7076322,0.7011276,0.70677495,0.70333964,nan,nan,nan,nan,nan,nan,nan,nan,0
27988000,27988000,0.70693445,0.70223457,0.7046677,0.7059384,nan,nan,nan,nan,nan,nan,nan,nan,0
28084000,28084000,0.70187515,0.703132,0.6948339,0.72504056,nan,nan,nan,nan,nan,nan,nan,nan,0
28188000,28188000,0.706783,0.6889147,0.7093385,0.7284902,nan,nan,nan,nan,nan,nan,nan,nan,0
28288000,28288000,0.7062416,0.6821248,0.7314497,0.7199885,nan,nan,nan,nan,nan,nan,nan,nan,0
28388000,28388000,0.6964386,0.6905349,0.728693,0.72641075,nan,nan,nan,nan,nan,nan,nan,nan,0
28488000,28488000,0.70191216,0.69257176,0.72922397,0.7289783,nan,nan,nan,nan,nan,nan,nan,nan,0
28588000,28588000,0.7115289,0.69018257,0.73787594,0.72384715,nan,nan,nan,nan,nan,nan,nan,nan,0
28688000,28688000,0.7100899,0.705237,0.7336463,0.734633,nan,nan,nan,nan,nan,nan,nan,nan,0
28788000,28788000,0.70960605,0.71174103,0.738238,0.73171586,nan,nan,nan,nan,nan,nan,nan,nan,0
28888000,28888000,0.70620364,0.71163005,0.73784715,0.73293954,nan,nan,nan,nan,nan,nan,nan,nan,0
28988000,28988000,0.70334953,0.7055968,0.74153334,0.72933567,nan,nan,nan,nan,nan,nan,nan,nan,0
29088000,29088000,0.70899117,0.7037653,0.74179655,0.7429349,nan,nan,nan,nan,nan,nan,nan,nan,0
29188000,29188000,0.7022717,0.71024024,0.7459889,0.7412544,nan,nan,nan,nan,nan,nan,nan,nan,0
29288000,29288000,0.71498394,0.7092848,0.7468709,0.74578774,nan,nan,nan,nan,nan,nan,nan,nan,0
29388000,29388000,0.71589285,0.71285224,0.74769485,0.7467552,nan,nan,nan,nan,nan,nan,nan,nan,0
29488000,29488000,0.7155643,0.71839875,0.7435058,0.7562799,nan,nan,nan,nan,nan,nan,nan,nan,0
29588000,29588000,0.71711344,0.7115058,0.74409693,0.75030947,nan,nan,nan,nan,nan,nan,nan,nan,0
29688000,29688000,0.71471465,0.71805394,0.7384876,0.7595192,nan,nan,nan,nan,nan,nan,nan,nan,0
29784000,29784000,0.7175831,0.71970135,0.74496835,0.757176,nan,nan,nan,nan,nan,nan,nan,nan,0
29888000,29888000,0.7171574,0.7229378,0.74157643,0.7571866,nan,nan,nan,nan,nan,nan,nan,nan,0
29988000,29988000,0.7123508,0.7116003,0.7407198,0.73625904,nan,nan,nan,nan,nan,nan,nan,nan,0
30084000,30084000,0.70972496,0.72582054,0.72487515,0.7377794,nan,nan,nan,nan,nan,nan,nan,nan,0
30188000,30188000,0.72236985,0.7333185,0.7129183,0.72468984,nan,nan,nan,nan,nan,nan,nan,nan,0
30288000,30288000,0.73189193,0.7379789,0.701815,0.71967614,nan,nan,nan,nan,nan,nan,nan,nan,0
30388000,30388000,0.73726857,0.72675616,0.7047133,0.70974505,nan,nan,nan,nan,nan,nan,nan,nan,0
30488000,30488000,0.7207226,0.73042566,0.7015959,0.71919024,nan,nan,nan,nan,nan,nan,nan,nan,0
30588000,30588000,0.71513855,0.72222525,0.70537895,0.7232529,nan,nan,nan,nan,nan,nan,nan,nan,0
30688000,30688000,0.7162676,0.70668215,0.7028228,0.72833556,nan,nan,nan,nan,nan,nan,nan,nan,0
30788000,30788000,0.70687956,0.703286,0.70283574,0.7258983,nan,nan,nan,nan,nan,nan,nan,nan,0
30888000,30888000,0.6975807,0.72722745,0.7027705,0.7384292,nan,nan,nan,nan,nan,nan,nan,nan,0
30988000,30988000,0.69980437,0.72626805,0.69711345,0.7370777,nan,nan,nan,nan,nan,nan,nan,nan,0
31088000,31088000,0.6991251,0.73591834,0.69344544,0.7293366,nan,nan,nan,nan,nan,nan,nan,nan,0
31188000,31188000,0.7052593,0.73697895,0.6937232,0.7144173,nan,nan,nan,nan,nan,nan,nan,nan,0
31288000,31288000,0.711849,0.72916865,0.69763935,0.70865214,nan,nan,nan,nan,nan,nan,nan,nan,0
31388000,31388000,0.7113165,0.7279273,0.69603336,0.71229035,nan,nan,nan,nan,nan,nan,nan,nan,0
31488000,31488000,0.7118126,0.7253176,0.69793457,0.7140942,nan,nan,nan,nan,nan,nan,nan,nan,0
31588000,31588000,0.71201694,0.72522,0.7031934,0.7103351,nan,nan,nan,nan,nan,nan,nan,nan,0
31684000,31684000,0.71073896,0.7281639,0.70070934,0.71494293,nan,nan,nan,nan,nan,nan,nan,nan,0
31788000,31788000,0.7103554,0.7290923,0.70236653,0.7093234,nan,nan,nan,nan,nan,nan,nan,nan,0
31888000,31888000,0.71265835,0.7288639,0.69727147,0.71319723,nan,nan,nan,nan,nan,nan,nan,nan,0
31988000,31988000,0.71228045,0.7300275,0.701181,0.707014,nan,nan,nan,nan,nan,nan,nan,nan,0
32088000,32088000,0.710953,0.73570323,0.69628805,0.71202165,nan,nan,nan,nan,nan,nan,nan,nan,0
32188000,32188000,0.7108636,0.72290146,0.7041332,0.712964,nan,nan,nan,nan,nan,nan,nan,nan,0
32284000,32284000,0.6984178,0.71944374,0.7087492,0.728025,nan,nan,nan,nan,nan,nan,nan,nan,0
32388000,32388000,0.6960013,0.7102897,0.7133213,0.7313291,nan,nan,nan,nan,nan,nan,nan,nan,0
32488000,32488000,0.69452125,0.7161457,0.71275324,0.7308784,nan,nan,nan,nan,nan,nan,nan,nan,0
32588000,32588000,0.6982433,0.7186965,0.7065433,0.72731596,nan,nan,nan,nan,nan,nan,nan,nan,0
32688000,32688000,0.7037444,0.72592294,0.7066095,0.71912634,nan,nan,nan,nan,nan,nan,nan,nan,0
32788000,32788000,0.7087653,0.7257059,0.69823515,0.722311,nan,nan,nan,nan,nan,nan,nan,nan,0
32888000,32888000,0.70713687,0.7284321,0.70341074,0.7170178,nan,nan,nan,nan,nan,nan,nan,nan,0
32988000,32988000,0.7100271,0.7189969,0.7020757,0.7218051,nan,nan,nan,nan,nan,nan,nan,nan,0
33088000,33088000,0.7017297,0.7234859,0.7050107,0.7236908,nan,nan,nan,nan,nan,nan,nan,nan,0
33188000,33188000,0.7050821,0.715846,0.7103128,0.72085685,nan,nan,nan,nan,nan,nan,nan,nan,0
33288000,33288000,0.7050877,0.71880275,0.70847,0.7237797,nan,nan,nan,nan,nan,nan,nan,nan,0
33388000,33388000,0.70941776,0.7202814,0.71003956,0.7194548,nan,nan,nan,nan,nan,nan,nan,nan,0
33488000,33488000,0.70122504,0.72768325,0.7026268,0.72461885,nan,nan,nan,nan,nan,nan,nan,nan,0
33588000,33588000,0.7063892,0.7205512,0.7072092,0.715589,nan,nan,nan,nan,nan,nan,nan,nan,0
33688000,33688000,0.7028623,0.72498137,0.6997151,0.7238385,nan,nan,nan,nan,nan,nan,nan,nan,0
33788000,33788000,0.7063655,0.7204055,0.70564514,0.7144938,nan,nan,nan,nan,nan,nan,nan,nan,0
33888000,33888000,0.7037722,0.72132325,0.7043231,0.71834975,nan,nan,nan,nan,nan,nan,nan,nan,0
33988000,33988000,0.6976312,0.72326523,0.7040879,0.720658,nan,nan,nan,nan,nan,nan,nan,nan,0
34088000,34088000,0.69772,0.7244109,0.7037516,0.7221042,nan,nan,nan,nan,nan,nan,nan,nan,0
34188000,34188000,0.705407,0.7165916,0.7053042,0.72107416,nan,nan,nan,nan,nan,nan,nan,nan,0
34288000,34288000,0.7050542,0.72287464,0.7028313,0.72349405,nan,nan,nan,nan,nan,nan,nan,nan,0
34388000,34388000,0.7047917,0.7218582,0.70048445,0.7225465,nan,nan,nan,nan,nan,nan,nan,nan,0
34488000,34488000,0.70239085,0.7244445,0.7049432,0.72055596,nan,nan,nan,nan,nan,nan,nan,nan,0
34588000,34588000,0.7040628,0.72116774,0.704291,0.7194932,nan,nan,nan,nan,nan,nan,nan,nan,0
34688000,34688000,0.7053237,0.7194005,0.7021214,0.7228246,nan,nan,nan,nan,nan,nan,nan,nan,0
34784000,34784000,0.70513225,0.7186304,0.70308495,0.7232954,nan,nan,nan,nan,nan,nan,nan,nan,0
34888000,34888000,0.7038607,0.72021294,0.70117134,0.7221037,nan,nan,nan,nan,nan,nan,nan,nan,0
34988000,34988000,0.7006723,0.7217532,0.6990256,0.7236877,nan,nan,nan,nan,nan,nan,nan,nan,0
35088000,35088000,0.70206773,0.7241289,0.7043784,0.72140634,nan,nan,nan,nan,nan,nan,nan,nan,0
35188000,35188000,0.70752865,0.71898824,0.70275766,0.7223695,nan,nan,nan,nan,nan,nan,nan,nan,0
35288000,35288000,0.7033366,0.72153175,0.70236564,0.7229402,nan,nan,nan,nan,nan,nan,nan,nan,0
35388000,35388000,0.7016374,0.7224393,0.7020383,0.7207149,nan,nan,nan,nan,nan,nan,nan,nan,0
35484000,35484000,0.7054189,0.7209233,0.70358974,0.72209,nan,nan,nan,nan,nan,nan,nan,nan,0
35588000,35588000,0.7036963,0.72047305,0.70183825,0.72413605,nan,nan,nan,nan,nan,nan,nan,nan,0
35688000,35688000,0.6992663,0.7256001,0.70119005,0.7254123,nan,nan,nan,nan,nan,nan,nan,nan,0
35788000,35788000,0.70147485,0.72582334,0.7008641,0.7251729,nan,nan,nan,nan,nan,nan,nan,nan,0
35888000,35888000,0.6999762,0.72974986,0.69975364,0.7292053,nan,nan,nan,nan,nan,nan,nan,nan,0
35988000,35988000,0.7037323,0.72189885,0.7011662,0.7251497,nan,nan,nan,nan,nan,nan,nan,nan,0
36088000,36088000,0.7017686,0.72617227,0.7057195,0.72391295,nan,nan,nan,nan,nan,nan,nan,nan,0
36188000,36188000,0.7069363,0.71927494,0.7106537,0.7180049,nan,nan,nan,nan,nan,nan,nan,nan,0
36288000,36288000,0.7012687,0.7255614,0.7047665,0.72542644,nan,nan,nan,nan,nan,nan,nan,nan,0
36388000,36388000,0.7051747,0.72389674,0.7049361,0.72240084,nan,nan,nan,nan,nan,nan,nan,nan,0
36488000,36488000,0.70398915,0.7239206,0.70439404,0.724008,nan,nan,nan,nan,nan,nan,nan,nan,0
36588000,36588000,0.7045179,0.7227292,0.70192766,0.7236487,nan,nan,nan,nan,nan,nan,nan,nan,0
36688000,36688000,0.7058742,0.7225451,0.703178,0.7225039,nan,nan,nan,nan,nan,nan,nan,nan,0
36788000,36788000,0.7030276,0.7243616,0.7003081,0.7233531,nan,nan,nan,nan,nan,nan,nan,nan,0
36888000,36888000,0.70277184,0.7237861,0.69982165,0.72718585,nan,nan,nan,nan,nan,nan,nan,nan,0
36988000,36988000,0.70266485,0.7202963,0.70502716,0.7221024,nan,nan,nan,nan,nan,nan,nan,nan,0
37084000,37084000,0.7003078,0.7236,0.7050671,0.72169906,nan,nan,nan,nan,nan,nan,nan,nan,0
37188000,37188000,0.69781023,0.72635365,0.70201004,0.7227481,nan,nan,nan,nan,nan,nan,nan,nan,0
37288000,37288000,0.7051714,0.72256696,0.7018297,0.72349006,nan,nan,nan,nan,nan,nan,nan,nan,0
37388000,37388000,0.70769954,0.71743,0.7074164,0.718843,nan,nan,nan,nan,nan,nan,nan,nan,0
37488000,37488000,0.70331085,0.7236448,0.6996129,0.72731805,nan,nan,nan,nan,nan,nan,nan,nan,0
37584000,37584000,0.70223415,0.72390914,0.7034213,0.72218245,nan,nan,nan,nan,nan,nan,nan,nan,0
37688000,37688000,0.70400745,0.7234356,0.7014542,0.72523016,nan,nan,nan,nan,nan,nan,nan,nan,0
37788000,37788000,0.7032792,0.7205361,0.705887,0.71774244,nan,nan,nan,nan,nan,nan,nan,nan,0
37888000,37888000,0.69874793,0.7251678,0.6989925,0.7262324,nan,nan,nan,nan,nan,nan,nan,nan,0
37988000,37988000,0.70072657,0.72395146,0.70369637,0.72336453,nan,nan,nan,nan,nan,nan,nan,nan,0
38088000,38088000,0.70169777,0.726542,0.7024932,0.7271505,nan,nan,nan,nan,nan,nan,nan,nan,0
38188000,38188000,0.7039354,0.7204624,0.7079491,0.71688724,nan,nan,nan,nan,nan,nan,nan,nan,0
38288000,38288000,0.7064168,0.7218146,0.70477664,0.72456527,nan,nan,nan,nan,nan,nan,nan,nan,0
38388000,38388000,0.70868826,0.71931857,0.7114262,0.714074,nan,nan,nan,nan,nan,nan,nan,nan,0
38488000,38488000,0.69764084,0.7304926,0.6976697,0.7282325,nan,nan,nan,nan,nan,nan,nan,nan,0
38588000,38588000,0.70556104,0.72034746,0.70272064,0.72344285,nan,nan,nan,nan,nan,nan,nan,nan,0
38688000,38688000,0.702012,0.7253315,0.7017571,0.7259238,nan,nan,nan,nan,nan,nan,nan,nan,0
38784000,38784000,0.70881075,0.7159794,0.7051902,0.7203512,nan,nan,nan,nan,nan,nan,nan,nan,0
38888000,38888000,0.7058227,0.71878165,0.6994715,0.72729784,nan,nan,nan,nan,nan,nan,nan,nan,0
38988000,38988000,0.7004227,0.7222178,0.70192134,0.7225689,nan,nan,nan,nan,nan,nan,nan,nan,0
39088000,39088000,0.69774634,0.72863096,0.70131445,0.72103095,nan,nan,nan,nan,nan,nan,nan,nan,0
39188000,39188000,0.7040064,0.7183173,0.70288056,0.7181922,nan,nan,nan,nan,nan,nan,nan,nan,0
39284000,39284000,0.7029264,0.7221719,0.69953156,0.7240888,nan,nan,nan,nan,nan,nan,nan,nan,0
39388000,39388000,0.7035554,0.72158706,0.7028947,0.7192772,nan,nan,nan,nan,nan,nan,nan,nan,0
39488000,39488000,0.7024943,0.7257015,0.7025571,0.72514594,nan,nan,nan,nan,nan,nan,nan,nan,0
39588000,39588000,0.707813,0.7187155,0.7048665,0.7211519,nan,nan,nan,nan,nan,nan,nan,nan,0
39688000,39688000,0.7034642,0.72242266,0.700871,0.72730803,nan,nan,nan,nan,nan,nan,nan,nan,0
39788000,39788000,0.70731306,0.717809,0.7142654,0.7045647,nan,nan,nan,nan,nan,nan,nan,nan,0
39888000,39888000,0.7085268,0.72706705,0.70731133,0.6973551,nan,nan,nan,nan,nan,nan,nan,nan,0
39988000,39988000,0.7181725,0.7351055,0.698909,0.69791925,nan,nan,nan,nan,nan,nan,nan,nan,0
40088000,40088000,0.7213617,0.7454815,0.6988156,0.7035088,nan,nan,nan,nan,nan,nan,nan,nan,0
40188000,40188000,0.73330307,0.73094404,0.6972524,0.710865,nan,nan,nan,nan,nan,nan,nan,nan,0
40288000,40288000,0.7216372,0.7327943,0.6912798,0.7248887,nan,nan,nan,nan,nan,nan,nan,nan,0
40384000,40384000,0.7166431,0.7314916,0.70290047,0.7271028,nan,nan,nan,nan,nan,nan,nan,nan,0
40484000,40484000,0.7188094,0.73282653,0.70805484,0.7351113,nan,nan,nan,nan,nan,nan,nan,nan,0
40588000,40588000,0.7152625,0.74323523,0.6992252,0.73707753,nan,nan,nan,nan,nan,nan,nan,nan,0
40688000,40688000,0.7247811,0.75476986,0.6972184,0.734058,nan,nan,nan,nan,nan,nan,nan,nan,0
40788000,40788000,0.73575276,0.7636522,0.6960383,0.72946084,nan,nan,nan,nan,nan,nan,nan,nan,0
40888000,40888000,0.7409286,0.7706349,0.7020118,0.7209261,nan,nan,nan,nan,nan,nan,nan,nan,0
40988000,40988000,0.74773794,0.76502293,0.7093312,0.7139619,nan,nan,nan,nan,nan,nan,nan,nan,0
41088000,41088000,0.74669594,0.76536375,0.7105728,0.7180831,nan,nan,nan,nan,nan,nan,nan,nan,0
41188000,41188000,0.7446874,0.7584684,0.71230423,0.714758,nan,nan,nan,nan,nan,nan,nan,nan,0
41288000,41288000,0.7451279,0.75296205,0.71168876,0.7173572,nan,nan,nan,nan,nan,nan,nan,nan,0
41388000,41388000,0.7427606,0.7520494,0.7146937,0.71564835,nan,nan,nan,nan,nan,nan,nan,nan,0
41488000,41488000,0.74037516,0.758693,0.7118179,0.72019595,nan,nan,nan,nan,nan,nan,nan,nan,0
41588000,41588000,0.7426052,0.758682,0.7089848,0.71594244,nan,nan,nan,nan,nan,nan,nan,nan,0
41688000,41688000,0.7425168,0.7687793,0.71632844,0.7138921,nan,nan,nan,nan,nan,nan,nan,nan,0
41788000,41788000,0.7516821,0.7541136,0.7089884,0.7125981,nan,nan,nan,nan,nan,nan,nan,nan,0
41888000,41888000,0.74283564,0.77270424,0.71116567,0.7169354,nan,nan,nan,nan,nan,nan,nan,nan,0
41988000,41988000,0.75106055,0.76523066,0.7057788,0.7152035,nan,nan,nan,nan,nan,nan,nan,nan,0
42088000,42088000,0.7424757,0.77144134,0.7058001,0.72561634,nan,nan,nan,nan,nan,nan,nan,nan,0
42188000,42188000,0.7398534,0.7377451,0.72274756,0.7175297,nan,nan,nan,nan,nan,nan,nan,nan,0
42288000,42288000,0.7179474,0.73176676,0.7340419,0.7340791,nan,nan,nan,nan,nan,nan,nan,nan,0
42388000,42388000,0.7128377,0.710518,0.7394805,0.7419723,nan,nan,nan,nan,nan,nan,nan,nan,0
42488000,42488000,0.70007616,0.7146122,0.72857606,0.7456225,nan,nan,nan,nan,nan,nan,nan,nan,0
42584000,42584000,0.70309967,0.71415406,0.7274207,0.7338029,nan,nan,nan,nan,nan,nan,nan,nan,0
42688000,42688000,0.6997662,0.7296559,0.7129374,0.7332913,nan,nan,nan,nan,nan,nan,nan,nan,0
42784000,42784000,0.6964331,0.74570805,0.7036777,0.7353123,nan,nan,nan,nan,nan,nan,nan,nan,0
42888000,42888000,0.7123019,0.7350018,0.7010805,0.7254647,nan,nan,nan,nan,nan,nan,nan,nan,0
42984000,42984000,0.71258736,0.7294932,0.7018314,0.72058856,nan,nan,nan,nan,nan,nan,nan,nan,0
43088000,43088000,0.7100922,0.72454476,0.70863605,0.7205924,nan,nan,nan,nan,nan,nan,nan,nan,0
43188000,43188000,0.70017177,0.72534674,0.71419483,0.72475713,nan,nan,nan,nan,nan,nan,nan,nan,0
43288000,43288000,0.6961366,0.72710377,0.71146727,0.7361112,nan,nan,nan,nan,nan,nan,nan,nan,0
43384000,43384000,0.6939392,0.7246608,0.71480733,0.72781897,nan,nan,nan,nan,nan,nan,nan,nan,0
43484000,43484000,0.69149166,0.7271045,0.71609837,0.72312504,nan,nan,nan,nan,nan,nan,nan,nan,0
43588000,43588000,0.70061153,0.72289455,0.7174063,0.72265023,nan,nan,nan,nan,nan,nan,nan,nan,0
43688000,43688000,0.7001934,0.7252897,0.7102124,0.73033494,nan,nan,nan,nan,nan,nan,nan,nan,0
43788000,43788000,0.70255536,0.7176374,0.71352714,0.72456956,nan,nan,nan,nan,nan,nan,nan,nan,0
43888000,43888000,0.7025883,0.7157002,0.7130643,0.728144,nan,nan,nan,nan,nan,nan,nan,nan,0
43988000,43988000,0.7032701,0.71699053,0.71126014,0.73213124,nan,nan,nan,nan,nan,nan,nan,nan,0
44088000,44088000,0.6991252,0.7178666,0.7144529,0.73360014,nan,nan,nan,nan,nan,nan,nan,nan,0
44188000,44188000,0.70084,0.7093584,0.71704423,0.72884077,nan,nan,nan,nan,nan,nan,nan,nan,0
44284000,44284000,0.7008366,0.7079647,0.713819,0.73247933,nan,nan,nan,nan,nan,nan,nan,nan,0
44388000,44388000,0.6981242,0.71158916,0.7154065,0.73140657,nan,nan,nan,nan,nan,nan,nan,nan,0
44488000,44488000,0.6958175,0.7178448,0.7152675,0.73247397,nan,nan,nan,nan,nan,nan,nan,nan,0
44588000,44588000,0.6998924,0.7108513,0.7156461,0.7322082,nan,nan,nan,nan,nan,nan,nan,nan,0
44688000,44688000,0.70120406,0.7182281,0.71043473,0.7243137,nan,nan,nan,nan,nan,nan,nan,nan,0
44788000,44788000,0.7146591,0.72326565,0.7024177,0.7101689,nan,nan,nan,nan,nan,nan,nan,nan,0
44888000,44888000,0.721273,0.7376291,0.6872924,0.70949835,nan,nan,nan,nan,nan,nan,nan,nan,0
44988000,44988000,0.72155565,0.73820037,0.6829884,0.7072326,nan,nan,nan,nan,nan,nan,nan,nan,0
45088000,45088000,0.7153558,0.7287228,0.6928566,0.71079206,nan,nan,nan,nan,nan,nan,nan,nan,0
45188000,45188000,0.70395327,0.7218298,0.70232576,0.7192628,nan,nan,nan,nan,nan,nan,nan,nan,0
45288000,45288000,0.6995854,0.71541077,0.7073184,0.7280897,nan,nan,nan,nan,nan,nan,nan,nan,0
45388000,45388000,0.70452446,0.7001282,0.71576726,0.71201116,nan,nan,nan,nan,nan,nan,nan,nan,0
45488000,45488000,0.7000777,0.70649016,0.7112374,0.71301246,nan,nan,nan,nan,nan,nan,nan,nan,0
45588000,45588000,0.6975419,0.7156678,0.7019396,0.7129524,nan,nan,nan,nan,nan,nan,nan,nan,0
45688000,45688000,0.7014362,0.72124475,0.7034224,0.70947075,nan,nan,nan,nan,nan,nan,nan,nan,0
45788000,45788000,0.70106953,0.72675294,0.6875529,0.72071683,nan,nan,nan,nan,nan,nan,nan,nan,0
45888000,45888000,0.7011917,0.7217754,0.6841336,0.7228739,nan,nan,nan,nan,nan,nan,nan,nan,0
45988000,45988000,0.70050013,0.71744454,0.6911352,0.71752185,nan,nan,nan,nan,nan,nan,nan,nan,0
46084000,46084000,0.6945135,0.71954477,0.6960224,0.7138799,nan,nan,nan,nan,nan,nan,nan,nan,0
46188000,46188000,0.70130044,0.7074824,0.6996845,0.71215725,nan,nan,nan,nan,nan,nan,nan,nan,0
46288000,46288000,0.6982313,0.7118369,0.7004868,0.71440697,nan,nan,nan,nan,nan,nan,nan,nan,0
46388000,46388000,0.70777637,0.70618236,0.70424277,0.71036005,nan,nan,nan,nan,nan,nan,nan,nan,0
46488000,46488000,0.7019861,0.71413815,0.69861656,0.7119203,nan,nan,nan,nan,nan,nan,nan,nan,0
46588000,46588000,0.7033755,0.71233106,0.70274204,0.7077433,nan,nan,nan,nan,nan,nan,nan,nan,0
46684000,46684000,0.69859326,0.71923864,0.6968147,0.714336,nan,nan,nan,nan,nan,nan,nan,nan,0
46788000,46788000,0.7047217,0.71540487,0.7020687,0.71003604,nan,nan,nan,nan,nan,nan,nan,nan,0
46888000,46888000,0.7008965,0.7206837,0.6955698,0.7183357,nan,nan,nan,nan,nan,nan,nan,nan,0
46988000,46988000,0.7041105,0.71553594,0.69926554,0.7155845,nan,nan,nan,nan,nan,nan,nan,nan,0
47088000,47088000,0.70451486,0.71319073,0.70288384,0.71228105,nan,nan,nan,nan,nan,nan,nan,nan,0
47188000,47188000,0.708403,0.7113995,0.7041218,0.7106852,nan,nan,nan,nan,nan,nan,nan,nan,0
47288000,47288000,0.7003238,0.7193847,0.69872224,0.713966,nan,nan,nan,nan,nan,nan,nan,nan,0
47388000,47388000,0.7031266,0.7145981,0.70270675,0.7067737,nan,nan,nan,nan,nan,nan,nan,nan,0
47484000,47484000,0.70777273,0.7108335,0.70262134,0.7075426,nan,nan,nan,nan,nan,nan,nan,nan,0
47588000,47588000,0.7131672,0.70844597,0.7044818,0.7054142,nan,nan,nan,nan,nan,nan,nan,nan,0
47684000,47684000,0.7080373,0.7146229,0.70395416,0.7047164,nan,nan,nan,nan,nan,nan,nan,nan,0
47788000,47788000,0.71369874,0.70933145,0.704301,0.7068339,nan,nan,nan,nan,nan,nan,nan,nan,0
47888000,47888000,0.7137074,0.70804447,0.70458305,0.70798516,nan,nan,nan,nan,nan,nan,nan,nan,0
47988000,47988000,0.710847,0.7099531,0.7006707,0.71016246,nan,nan,nan,nan,nan,nan,nan,nan,0
48088000,48088000,0.70202506,0.7167095,0.7024963,0.70999694,nan,nan,nan,nan,nan,nan,nan,nan,0
48188000,48188000,0.7077499,0.7115899,0.70471567,0.7092785,nan,nan,nan,nan,nan,nan,nan,nan,0
48288000,48288000,0.70301926,0.71441245,0.701769,0.712245,nan,nan,nan,nan,nan,nan,nan,nan,0
48388000,48388000,0.70902234,0.70690215,0.70725864,0.7079817,nan,nan,nan,nan,nan,nan,nan,nan,0
48488000,48488000,0.7098386,0.70084816,0.7102846,0.7147077,nan,nan,nan,nan,nan,nan,nan,nan,0
48588000,48588000,0.6900254,0.70733094,0.7176608,0.7160502,nan,nan,nan,nan,nan,nan,nan,nan,0
48688000,48688000,0.6979316,0.706934,0.72501177,0.7059622,nan,nan,nan,nan,nan,nan,nan,nan,0
48788000,48788000,0.7101663,0.7236685,0.71634454,0.7019368,nan,nan,nan,nan,nan,nan,nan,nan,0
48888000,48888000,0.7380312,0.7171814,0.70697474,0.6956806,nan,nan,nan,nan,nan,nan,nan,nan,0
48988000,48988000,0.738043,0.7318025,0.6994882,0.69984215,nan,nan,nan,nan,nan,nan,nan,nan,0
49084000,49084000,0.7414836,0.73076195,0.70524096,0.7021009,nan,nan,nan,nan,nan,nan,nan,nan,0
49188000,49188000,0.7214934,0.7325662,0.6831914,0.71869314,nan,nan,nan,nan,nan,nan,nan,nan,0
49288000,49288000,0.71798277,0.72662747,0.6767141,0.71187276,nan,nan,nan,nan,nan,nan,nan,nan,0
49388000,49388000,0.7194596,0.72927624,0.68283784,0.70021915,nan,nan,nan,nan,nan,nan,nan,nan,0
49488000,49488000,0.72378796,0.73096865,0.69035965,0.6918376,nan,nan,nan,nan,nan,nan,nan,nan,0
49588000,49588000,0.72976667,0.73421603,0.7066272,0.6836172,nan,nan,nan,nan,nan,nan,nan,nan,0
49684000,49684000,0.72506374,0.74477285,0.7046849,0.6911649,nan,nan,nan,nan,nan,nan,nan,nan,0
49788000,49788000,0.7302175,0.7396699,0.70750034,0.690227,nan,nan,nan,nan,nan,nan,nan,nan,0
49888000,49888000,0.7339071,0.738069,0.7001923,0.6997992,nan,nan,nan,nan,nan,nan,nan,nan,0
49988000,49988000,0.7374896,0.73941934,0.7042593,0.69962895,nan,nan,nan,nan,nan,nan,nan,nan,0
50088000,50088000,0.7408955,0.7416683,0.7036768,0.7011991,nan,nan,nan,nan,nan,nan,nan,nan,0
50188000,50188000,0.7438858,0.7403948,0.7096035,0.6978672,nan,nan,nan,nan,nan,nan,nan,nan,0
50288000,50288000,0.74005276,0.7533147,0.70739377,0.70867217,nan,nan,nan,nan,nan,nan,nan,nan,0
50388000,50388000,0.7472186,0.75221795,0.7096744,0.71129084,nan,nan,nan,nan,nan,nan,nan,nan,0
50484000,50484000,0.7501469,0.74124193,0.72302336,0.70130944,nan,nan,nan,nan,nan,nan,nan,nan,0
50588000,50588000,0.7431006,0.7387105,0.7171161,0.7101323,nan,nan,nan,nan,nan,nan,nan,nan,0
50688000,50688000,0.7375818,0.73798436,0.72701097,0.72619176,nan,nan,nan,nan,nan,nan,nan,nan,0
50788000,50788000,0.728195,0.7359419,0.7409438,0.73516995,nan,nan,nan,nan,nan,nan,nan,nan,0
50888000,50888000,0.7205442,0.72421366,0.7467863,0.73973,nan,nan,nan,nan,nan,nan,nan,nan,0
50988000,50988000,0.71324486,0.7203116,0.74960476,0.7352405,nan,nan,nan,nan,nan,nan,nan,nan,0
51088000,51088000,0.708965,0.72740453,0.73480463,0.7423636,nan,nan,nan,nan,nan,nan,nan,nan,0
51184000,51184000,0.7142086,0.7268595,0.73234206,0.7301879,nan,nan,nan,nan,nan,nan,nan,nan,0
51288000,51288000,0.7171956,0.73177683,0.7224856,0.7268138,nan,nan,nan,nan,nan,nan,nan,nan,0
51388000,51388000,0.72829825,0.7211166,0.71383625,0.72676975,nan,nan,nan,nan,nan,nan,nan,nan,0
51488000,51488000,0.71487856,0.728358,0.70976985,0.72916216,nan,nan,nan,nan,nan,nan,nan,nan,0
51588000,51588000,0.7079081,0.7238995,0.7136763,0.72303665,nan,nan,nan,nan,nan,nan,nan,nan,0
51688000,51688000,0.6988544,0.7252275,0.70967567,0.7269023,nan,nan,nan,nan,nan,nan,nan,nan,0
51788000,51788000,0.69883466,0.7250934,0.7041104,0.7319197,nan,nan,nan,nan,nan,nan,nan,nan,0
51888000,51888000,0.68227834,0.7429364,0.7012344,0.73642445,nan,nan,nan,nan,nan,nan,nan,nan,0
51988000,51988000,0.6909717,0.72569233,0.70416236,0.73214924,nan,nan,nan,nan,nan,nan,nan,nan,0
52088000,52088000,0.68790036,0.72557443,0.7043548,0.73405284,nan,nan,nan,nan,nan,nan,nan,nan,0
52188000,52188000,0.697997,0.7124643,0.71333694,0.7212545,nan,nan,nan,nan,nan,nan,nan,nan,0
52284000,52284000,0.6977656,0.71195006,0.7112708,0.72532487,nan,nan,nan,nan,nan,nan,nan,nan,0
52388000,52388000,0.6979802,0.7112676,0.7151043,0.72282183,nan,nan,nan,nan,nan,nan,nan,nan,0
52488000,52488000,0.69547,0.71379113,0.70980567,0.7316186,nan,nan,nan,nan,nan,nan,nan,nan,0
52588000,52588000,0.6955725,0.71155804,0.7137262,0.72736907,nan,nan,nan,nan,nan,nan,nan,nan,0
52688000,52688000,0.68872666,0.7160103,0.7097518,0.73337686,nan,nan,nan,nan,nan,nan,nan,nan,0
52788000,52788000,0.6964961,0.715768,0.71043885,0.7222191,nan,nan,nan,nan,nan,nan,nan,nan,0
52884000,52884000,0.70708317,0.7233724,0.7010056,0.7139878,nan,nan,nan,nan,nan,nan,nan,nan,0
52988000,52988000,0.7144976,0.72351116,0.6968603,0.7110512,nan,nan,nan,nan,nan,nan,nan,nan,0
53088000,53088000,0.7156127,0.72418165,0.69943166,0.7102739,nan,nan,nan,nan,nan,nan,nan,nan,0
53188000,53188000,0.7120846,0.7235013,0.7019718,0.7139745,nan,nan,nan,nan,nan,nan,nan,nan,0
53288000,53288000,0.7079683,0.7204841,0.6997318,0.7249583,nan,nan,nan,nan,nan,nan,nan,nan,0
53388000,53388000,0.7065491,0.7130316,0.7087046,0.7186214,nan,nan,nan,nan,nan,nan,nan,nan,0
53484000,53484000,0.7025787,0.7162462,0.7070295,0.722236,nan,nan,nan,nan,nan,nan,nan,nan,0
53588000,53588000,0.7085526,0.71040225,0.7083584,0.7192012,nan,nan,nan,nan,nan,nan,nan,nan,0
53688000,53688000,0.7017684,0.72090125,0.70420855,0.7209957,nan,nan,nan,nan,nan,nan,nan,nan,0
53788000,53788000,0.7057179,0.71957654,0.70181704,0.718903,nan,nan,nan,nan,nan,nan,nan,nan,0
53888000,53888000,0.7005359,0.72573364,0.7010784,0.7183459,nan,nan,nan,nan,nan,nan,nan,nan,0
53988000,53988000,0.70305175,0.72010946,0.70124143,0.71753967,nan,nan,nan,nan,nan,nan,nan,nan,0
54088000,54088000,0.70099545,0.7210477,0.7002663,0.72198725,nan,nan,nan,nan,nan,nan,nan,nan,0
54188000,54188000,0.7032645,0.71688896,0.70663166,0.71449345,nan,nan,nan,nan,nan,nan,nan,nan,0
54288000,54288000,0.6964197,0.72873217,0.69683325,0.7290407,nan,nan,nan,nan,nan,nan,nan,nan,0
54388000,54388000,0.70612574,0.71487445,0.70257825,0.7202238,nan,nan,nan,nan,nan,nan,nan,nan,0
54484000,54484000,0.70389664,0.71922284,0.7049215,0.7207716,nan,nan,nan,nan,nan,nan,nan,nan,0
54588000,54588000,0.7027745,0.7161066,0.70593476,0.72046787,nan,nan,nan,nan,nan,nan,nan,nan,0
54688000,54688000,0.70500296,0.7172681,0.7028722,0.7242925,nan,nan,nan,nan,nan,nan,nan,nan,0
54788000,54788000,0.7066813,0.71425426,0.7041271,0.71673924,nan,nan,nan,nan,nan,nan,nan,nan,0
54888000,54888000,0.7038618,0.71244645,0.71158165,0.70471287,nan,nan,nan,nan,nan,nan,nan,nan,0
54988000,54988000,0.7066038,0.7109371,0.70655084,0.70982254,nan,nan,nan,nan,nan,nan,nan,nan,0
55088000,55088000,0.703465,0.7142977,0.7071592,0.7112373,nan,nan,nan,nan,nan,nan,nan,nan,0
55188000,55188000,0.69317514,0.7244228,0.6882905,0.72987455,nan,nan,nan,nan,nan,nan,nan,nan,0
55288000,55288000,0.6923259,0.72444975,0.6868923,0.72714096,nan,nan,nan,nan,nan,nan,nan,nan,0
55388000,55388000,0.69775605,0.7140618,0.68943065,0.7239034,nan,nan,nan,nan,nan,nan,nan,nan,0
55488000,55488000,0.6921634,0.7169748,0.696686,0.7180283,nan,nan,nan,nan,nan,nan,nan,nan,0
55588000,55588000,0.6998251,0.71513015,0.7002675,0.71687526,nan,nan,nan,nan,nan,nan,nan,nan,0
55688000,55688000,0.7010896,0.7141773,0.6962042,0.7184089,nan,nan,nan,nan,nan,nan,nan,nan,0
55788000,55788000,0.70138,0.71397823,0.7008837,0.71581364,nan,nan,nan,nan,nan,nan,nan,nan,0
55888000,55888000,0.70083255,0.71436936,0.70409435,0.7130478,nan,nan,nan,nan,nan,nan,nan,nan,0
55988000,55988000,0.7023489,0.71348023,0.70223486,0.71460074,nan,nan,nan,nan,nan,nan,nan,nan,0
56088000,56088000,0.7032449,0.7132808,0.7002927,0.7148721,nan,nan,nan,nan,nan,nan,nan,nan,0
56188000,56188000,0.7014559,0.71581095,0.6995192,0.7160999,nan,nan,nan,nan,nan,nan,nan,nan,0
56288000,56288000,0.7003937,0.7185284,0.7019605,0.71573514,nan,nan,nan,nan,nan,nan,nan,nan,0
56384000,56384000,0.699973,0.7229562,0.70113766,0.7170429,nan,nan,nan,nan,nan,nan,nan,nan,0
56488000,56488000,0.7037338,0.71829903,0.70425516,0.7136747,nan,nan,nan,nan,nan,nan,nan,nan,0
56588000,56588000,0.7051008,0.7152106,0.7030254,0.7113869,nan,nan,nan,nan,nan,nan,nan,nan,0
56688000,56688000,0.70523226,0.711952,0.70447433,0.70924664,nan,nan,nan,nan,nan,nan,nan,nan,0
56788000,56788000,0.70670146,0.70867383,0.7073859,0.71068555,nan,nan,nan,nan,nan,nan,nan,nan,0
56888000,56888000,0.70445883,0.7115127,0.7056807,0.71210635,nan,nan,nan,nan,nan,nan,nan,nan,0
56988000,56988000,0.7065509,0.709163,0.7039162,0.71329546,nan,nan,nan,nan,nan,nan,nan,nan,0
57088000,57088000,0.70233124,0.7143154,0.7062321,0.70980436,nan,nan,nan,nan,nan,nan,nan,nan,0
57188000,57188000,0.6997312,0.7166854,0.7034813,0.7138435,nan,nan,nan,nan,nan,nan,nan,nan,0
57288000,57288000,0.7039476,0.71264935,0.70377123,0.7117811,nan,nan,nan,nan,nan,nan,nan,nan,0
57388000,57388000,0.70638645,0.712136,0.70705175,0.7086653,nan,nan,nan,nan,nan,nan,nan,nan,0
57488000,57488000,0.70675975,0.7125237,0.7064049,0.70852274,nan,nan,nan,nan,nan,nan,nan,nan,0
57588000,57588000,0.7046649,0.7147291,0.7078037,0.70893866,nan,nan,nan,nan,nan,nan,nan,nan,0
57688000,57688000,0.70892173,0.70870054,0.70387167,0.7116295,nan,nan,nan,nan,nan,nan,nan,nan,0
57788000,57788000,0.70622236,0.71076167,0.70481884,0.70786566,nan,nan,nan,nan,nan,nan,nan,nan,0
57888000,57888000,0.7071806,0.7104806,0.70433784,0.705878,nan,nan,nan,nan,nan,nan,nan,nan,0
57988000,57988000,0.70658845,0.70863855,0.7068855,0.7125063,nan,nan,nan,nan,nan,nan,nan,nan,0
58088000,58088000,0.70937264,0.7029146,0.7100884,0.71134007,nan,nan,nan,nan,nan,nan,nan,nan,0
58188000,58188000,0.7034937,0.7076751,0.71349114,0.7076209,nan,nan,nan,nan,nan,nan,nan,nan,0
58288000,58288000,0.7053159,0.70764726,0.7108689,0.70860404,nan,nan,nan,nan,nan,nan,nan,nan,0
58388000,58388000,0.70625544,0.71329296,0.7095709,0.7075566,nan,nan,nan,nan,nan,nan,nan,nan,0
58488000,58488000,0.70729,0.71045107,0.70838326,0.70544153,nan,nan,nan,nan,nan,nan,nan,nan,0
58588000,58588000,0.7135989,0.70154655,0.709764,0.70292753,nan,nan,nan,nan,nan,nan,nan,nan,0
58684000,58684000,0.709181,0.70680743,0.7069713,0.7069887,nan,nan,nan,nan,nan,nan,nan,nan,0
58788000,58788000,0.71279275,0.70183575,0.7061501,0.709264,nan,nan,nan,nan,nan,nan,nan,nan,0
58888000,58888000,0.7107409,0.7018916,0.7094153,0.70559746,nan,nan,nan,nan,nan,nan,nan,nan,0
58988000,58988000,0.7073633,0.70543534,0.7080611,0.70789254,nan,nan,nan,nan,nan,nan,nan,nan,0
59088000,59088000,0.6921735,0.69334495,0.6962834,0.6929062,nan,nan,nan,nan,nan,nan,nan,nan,0
59188000,59188000,0.66453636,0.6682538,0.66694176,0.6667856,nan,nan,nan,nan,nan,nan,nan,nan,0
59288000,59288000,0.64539343,0.6398606,0.6450405,0.6403601,nan,nan,nan,nan,nan,nan,nan,nan,0
59388000,59388000,0.6378245,0.6290417,0.63440275,0.6283708,nan,nan,nan,nan,nan,nan,nan,nan,0
59484000,59484000,0.6323394,0.6194825,0.62462986,0.62206286,nan,nan,nan,nan,nan,nan,nan,nan,0
59588000,59588000,0.68077457,0.675813,0.68376434,0.67255324,nan,nan,nan,nan,nan,nan,nan,nan,0
59688000,59688000,0.7142794,0.7070124,0.7187964,0.7035874,nan,nan,nan,nan,nan,nan,nan,nan,0
59788000,59788000,0.729451,0.73636305,0.7328646,0.7313028,nan,nan,nan,nan,nan,nan,nan,nan,0
59888000,59888000,0.73856527,0.75825566,0.7335178,0.7614239,nan,nan,nan,nan,nan,nan,nan,nan,0
59988000,59988000,0.7269754,0.73244166,0.7307858,0.7296506,nan,nan,nan,nan,nan,nan,nan,nan,0
60088000,60088000,0.73207694,0.70636696,0.72968185,0.70810425,nan,nan,nan,nan,nan,nan,nan,nan,0
60188000,60188000,0.728988,0.7037788,0.7202031,0.71285266,nan,nan,nan,nan,nan,nan,nan,nan,0
60288000,60288000,0.71855307,0.7085172,0.713292,0.713979,nan,nan,nan,nan,nan,nan,nan,nan,0
60388000,60388000,0.72059834,0.7114072,0.7201304,0.71346396,nan,nan,nan,nan,nan,nan,nan,nan,0
60488000,60488000,0.715912,0.7130723,0.7156028,0.7150666,nan,nan,nan,nan,nan,nan,nan,nan,0
60584000,60584000,0.71665704,0.71304554,0.718235,0.71238846,nan,nan,nan,nan,nan,nan,nan,nan,0
60684000,60684000,0.7156534,0.71560436,0.71545655,0.7159282,nan,nan,nan,nan,nan,nan,nan,nan,0
60788000,60788000,0.7205981,0.7140403,0.71569985,0.7189433,nan,nan,nan,nan,nan,nan,nan,nan,0
60888000,60888000,0.72253245,0.7108279,0.71745664,0.71225613,nan,nan,nan,nan,nan,nan,nan,nan,0
60988000,60988000,0.7193734,0.72066396,0.7191769,0.7186339,nan,nan,nan,nan,nan,nan,nan,nan,0
61088000,61088000,0.72064465,0.7142358,0.7174163,0.71533066,nan,nan,nan,nan,nan,nan,nan,nan,0
61188000,61188000,0.7231912,0.7138388,0.7240357,0.71202743,nan,nan,nan,nan,nan,nan,nan,nan,0
61288000,61288000,0.71848106,0.7155086,0.71370804,0.72048736,nan,nan,nan,nan,nan,nan,nan,nan,0
61388000,61388000,0.7214851,0.7130263,0.722181,0.7168194,nan,nan,nan,nan,nan,nan,nan,nan,0
61488000,61488000,0.7163,0.7158541,0.721091,0.7167188,nan,nan,nan,nan,nan,nan,nan,nan,0
61588000,61588000,0.72224647,0.7168789,0.72624415,0.7154794,nan,nan,nan,nan,nan,nan,nan,nan,0
61688000,61688000,0.71859336,0.7174705,0.7208985,0.7153318,nan,nan,nan,nan,nan,nan,nan,nan,0
61788000,61788000,0.72270596,0.7168007,0.724091,0.71418136,nan,nan,nan,nan,nan,nan,nan,nan,0
61888000,61888000,0.714112,0.7226095,0.71898615,0.71347255,nan,nan,nan,nan,nan,nan,nan,nan,0
61988000,61988000,0.72421026,0.71616924,0.7209228,0.71530676,nan,nan,nan,nan,nan,nan,nan,nan,0
62088000,62088000,0.7162983,0.71934026,0.7169412,0.71685725,nan,nan,nan,nan,nan,nan,nan,nan,0
62188000,62188000,0.72151285,0.71883684,0.72184896,0.7196504,nan,nan,nan,nan,nan,nan,nan,nan,0
62288000,62288000,0.71626055,0.7185021,0.7171395,0.71919876,nan,nan,nan,nan,nan,nan,nan,nan,0
62388000,62388000,0.72418684,0.713373,0.72409165,0.71451414,nan,nan,nan,nan,nan,nan,nan,nan,0
62484000,62484000,0.7172447,0.71682286,0.71851075,0.7161799,nan,nan,nan,nan,nan,nan,nan,nan,0
62588000,62588000,0.7191118,0.71810275,0.72142434,0.7183953,nan,nan,nan,nan,nan,nan,nan,nan,0
62688000,62688000,0.7199422,0.71582884,0.7175456,0.7165678,nan,nan,nan,nan,nan,nan,nan,nan,0
62788000,62788000,0.7265422,0.7116866,0.72462493,0.71255755,nan,nan,nan,nan,nan,nan,nan,nan,0
62888000,62888000,0.718128,0.71605676,0.720672,0.7139739,nan,nan,nan,nan,nan,nan,nan,nan,0
62988000,62988000,0.721806,0.7137215,0.7224583,0.714558,nan,nan,nan,nan,nan,nan,nan,nan,0
63088000,63088000,0.7176781,0.7144049,0.71903497,0.71498495,nan,nan,nan,nan,nan,nan,nan,nan,0
63184000,63184000,0.72479236,0.7110957,0.7171819,0.71680164,nan,nan,nan,nan,nan,nan,nan,nan,0
63288000,63288000,0.5264375,0.5048503,0.5180851,0.51241606,nan,nan,nan,nan,nan,nan,nan,nan,0
63388000,63388000,0.47492704,0.4993098,0.483477,0.4892347,nan,nan,nan,nan,nan,nan,nan,nan,0
63488000,63488000,0.441563,0.46765947,0.4483681,0.46098086,nan,nan,nan,nan,nan,nan,nan,nan,0
63588000,63588000,0.40782917,0.43709227,0.4213762,0.42441016,nan,nan,nan,nan,nan,nan,nan,nan,0
63688000,63688000,0.37750798,0.39860165,0.38269362,0.39552674,nan,nan,nan,nan,nan,nan,nan,nan,0
63784000,63784000,0.33771595,0.37554988,0.35713205,0.35831198,nan,nan,nan,nan,nan,nan,nan,nan,0
63888000,63888000,0.11947687,0.12047829,0.123416886,0.11662792,nan,nan,nan,nan,nan,nan,nan,nan,0
63988000,63988000,0.11495693,0.12468805,0.12067859,0.11967639,nan,nan,nan,nan,nan,nan,nan,nan,0
64088000,64088000,0.11289773,0.12667707,0.12396069,0.11646447,nan,nan,nan,nan,nan,nan,nan,nan,0
64184000,64184000,0.11330707,0.12641944,0.11957626,0.12069718,nan,nan,nan,nan,nan,nan,nan,nan,0
64288000,64288000,0.110133484,0.12980644,0.11892754,0.12113249,nan,nan,nan,nan,nan,nan,nan,nan,0
64388000,64388000,0.113809116,0.12635998,0.11824038,0.12159047,nan,nan,nan,nan,nan,nan,nan,nan,0
64488000,64488000,0.0,0.0020000006,0.0,0.002,nan,nan,nan,nan,nan,nan,nan,nan,0
64588000,64588000,0.0,0.0019999994,0.0,0.0019999994,nan,nan,nan,nan,nan,nan,nan,nan,0
64684000,64684000,0.0,0.0020000006,0.0,0.0020000006,nan,nan,nan,nan,nan,nan,nan,nan,0
64788000,64788000,0.0,0.0019999996,0.0,0.0019999996,nan,nan,nan,nan,nan,nan,nan,nan,0
64888000,64888000,0.0,0.0019999999,0.0,0.0019999999,nan,nan,nan,nan,nan,nan,nan,nan,0
64988000,64988000,0.0,0.002,0.0,0.002,nan,nan,nan,nan,nan,nan,nan,nan,0
65088000,65088000,0.0,0.0020000003,0.0,0.0020000003,nan,nan,nan,nan,nan,nan,nan,nan,0
65188000,65188000,0.0,0.0019999994,0.0,0.0019999994,nan,nan,nan,nan,nan,nan,nan,nan,0
65288000,65288000,0.0,0.0019999999,0.0,0.0019999999,nan,nan,nan,nan,nan,nan,nan,nan,0
65388000,65388000,4.656613e-10,0.0019999994,0.0,0.0019999999,nan,nan,nan,nan,nan,nan,nan,nan,0
65488000,65488000,0.0,0.0020000008,0.0,0.0019999999,nan,nan,nan,nan,nan,nan,nan,nan,0
65588000,65588000,0.0,0.0020000003,0.0,0.0020000008,nan,nan,nan,nan,nan,nan,nan,nan,0
65688000,65688000,0.0,0.0020000006,0.0,0.0020000003,nan,nan,nan,nan,nan,nan,nan,nan,0
65788000,65788000,0.0,0.0020000006,0.0,0.0019999996,nan,nan,nan,nan,nan,nan,nan,nan,0
65888000,65888000,0.0,0.0020000008,0.0,0.0020000003,nan,nan,nan,nan,nan,nan,nan,nan,0
65988000,65988000,0.0,0.0019999999,5.952375e-05,0.0019404762,nan,nan,nan,nan,nan,nan,nan,nan,0
66088000,66088000,0.0,0.0019999996,2.3283064e-10,0.0019999996,nan,nan,nan,nan,nan,nan,nan,nan,0
66188000,66188000,0.0,0.0020000003,0.0,0.0020000003,nan,nan,nan,nan,nan,nan,nan,nan,0
66288000,66288000,0.0,0.0020000003,0.0,0.0019999994,nan,nan,nan,nan,nan,nan,nan,nan,0
66388000,66388000,4.656613e-10,0.001999999,0.0,0.0019999999,nan,nan,nan,nan,nan,nan,nan,nan,0
66488000,66488000,0.0,0.00047666093,0.0006604071,0.0028629317,nan,nan,nan,nan,nan,nan,nan,nan,0
66588000,66588000,0.0,0.002,0.0,0.002,nan,nan,nan,nan,nan,nan,nan,nan,0
66688000,66688000,0.0009500345,0.00094257825,0.0018483602,0.0002590267,nan,nan,nan,nan,nan,nan,nan,nan,0
66788000,66788000,0.0,0.0020000003,0.0,0.0019999994,nan,nan,nan,nan,nan,nan,nan,nan,0
66888000,66888000,0.0,0.0019999999,0.0,0.0020000003,nan,nan,nan,nan,nan,nan,nan,nan,0
66988000,66988000,0.0019999999,0.0,0.002,0.0,nan,nan,nan,nan,nan,nan,nan,nan,0
67088000,67088000,0.00022192881,0.00060654077,0.00085498765,0.0023165424,nan,nan,nan,nan,nan,nan,nan,nan,0
67188000,67188000,0.002,0.0,0.0019999999,0.0,nan,nan,nan,nan,nan,nan,nan,nan,0
67288000,67288000,0.0019999996,4.656613e-10,0.0019999992,0.0,nan,nan,nan,nan,nan,nan,nan,nan,0
67388000,67388000,0.0,0.0019999996,0.0,0.0019999996,nan,nan,nan,nan,nan,nan,nan,nan,0
