timestamp,timestamp_sample,gps_hvel[0],gps_hvel[1],gps_vvel,gps_hpos[0],gps_hpos[1],gps_vpos,ev_hvel[0],ev_hvel[1],ev_vvel,ev_hpos[0],ev_hpos[1],ev_vpos,rng_vpos,baro_vpos,aux_hvel[0],aux_hvel[1],flow[0],flow[1],heading,mag_field[0],mag_field[1],mag_field[2],gravity[0],gravity[1],gravity[2],drag[0],drag[1],airspeed,beta,hagl,hagl_rate
3884000,3732000,0.0,0.0,0.0,0.0,0.0,0.0,0.0,0.0,0.0,0.0,0.0,0.0,0.0,0.0,0.0,0.0,0.0,0.0,0.0,0.0075000003,0.0075000003,0.0075000003,1.0102556,1.0102558,1.0000012,0.0,0.0,0.0,0.0,0.0,0.0
3892000,3740000,0.0,0.0,0.0,0.0,0.0,0.0,0.0,0.0,0.0,0.0,0.0,0.0,0.0,0.0,0.0,0.0,0.0,0.0,0.0,0.0075000003,0.0075000003,0.0075000003,1.0102818,1.0102822,1.0000012,0.0,0.0,0.0,0.0,0.0,0.0
3900000,3748000,0.0,0.0,0.0,0.0,0.0,0.0,0.0,0.0,0.0,0.0,0.0,0.0,0.0,112.53226,0.0,0.0,0.0,0.0,0.0,0.0075000003,0.0075000003,0.0075000003,1.0103093,1.0103097,1.0000012,0.0,0.0,0.0,0.0,0.0,0.0
3908000,3756000,0.0,0.0,0.0,0.0,0.0,0.0,0.0,0.0,0.0,0.0,0.0,0.0,0.0,112.53226,0.0,0.0,0.0,0.0,0.0,0.0075000003,0.0075000003,0.0075000003,1.0103382,1.0103385,1.0000012,0.0,0.0,0.0,0.0,0.0,0.0
3916000,3764000,0.0,0.0,0.0,0.0,0.0,0.0,0.0,0.0,0.0,0.0,0.0,0.0,0.0,112.53226,0.0,0.0,0.0,0.0,0.0,0.0075000003,0.0075000003,0.0075000003,1.0103682,1.0103686,1.0000011,0.0,0.0,0.0,0.0,0.0,0.0
3924000,3772000,0.0,0.0,0.0,0.0,0.0,0.0,0.0,0.0,0.0,0.0,0.0,0.0,0.0,112.53226,0.0,0.0,0.0,0.0,0.0,0.0075000003,0.0075000003,0.0075,1.0103996,1.0103999,1.0000011,0.0,0.0,0.0,0.0,0.0,0.0
3940000,3788000,0.0,0.0,0.0,0.0,0.0,0.0,0.0,0.0,0.0,0.0,0.0,0.0,0.0,112.53226,0.0,0.0,0.0,0.0,0.0,0.0075000003,0.0075000003,0.0075,1.0104662,1.0104666,1.0000011,0.0,0.0,0.0,0.0,0.0,0.0
3948000,3796000,0.0,0.0,0.0,0.0,0.0,0.0,0.0,0.0,0.0,0.0,0.0,0.0,0.0,112.53226,0.0,0.0,0.0,0.0,0.0,0.0075000003,0.0075000003,0.0075,1.0105014,1.0105017,1.0000012,0.0,0.0,0.0,0.0,0.0,0.0
3956000,3804000,0.0,0.0,0.0,0.0,0.0,0.0,0.0,0.0,0.0,0.0,0.0,0.0,0.0,112.53226,0.0,0.0,0.0,0.0,0.0,0.0075000003,0.0075000003,0.0075,1.0105379,1.0105383,1.0000012,0.0,0.0,0.0,0.0,0.0,0.0
3964000,3812000,0.0,0.0,0.0,0.0,0.0,0.0,0.0,0.0,0.0,0.0,0.0,0.0,0.0,112.53226,0.0,0.0,0.0,0.0,0.0,0.0075000003,0.0075000003,0.0075,1.0105757,1.010576,1.0000011,0.0,0.0,0.0,0.0,0.0,0.0
3980000,3828000,0.0,0.0,0.0,0.0,0.0,0.0,0.0,0.0,0.0,0.0,0.0,0.0,0.0,112.82604,0.0,0.0,0.0,0.0,0.0,0.0075000003,0.0075000003,0.0075,1.010655,1.0106554,1.0000011,0.0,0.0,0.0,0.0,0.0,0.0
3988000,3836000,0.0,0.0,0.0,0.0,0.0,0.0,0.0,0.0,0.0,0.0,0.0,0.0,0.0,112.82604,0.0,0.0,0.0,0.0,0.0,0.0075000003,0.0075000003,0.0075,1.0106966,1.010697,1.0000011,0.0,0.0,0.0,0.0,0.0,0.0
3996000,3844000,0.0,0.0,0.0,0.0,0.0,0.0,0.0,0.0,0.0,0.0,0.0,0.0,0.0,112.82604,0.0,0.0,0.0,0.0,0.0,0.0075,0.007500001,0.0075000008,1.0107396,1.0107399,1.0000011,0.0,0.0,0.0,0.0,0.0,0.0
4004000,3852000,0.0,0.0,0.0,0.0,0.0,0.0,0.0,0.0,0.0,0.0,0.0,0.0,0.0,112.82604,0.0,0.0,0.0,0.0,0.0,0.0075,0.007500001,0.0075000008,1.0107838,1.0107841,1.0000012,0.0,0.0,0.0,0.0,0.0,0.0
4020000,3868000,0.0,0.0,0.0,0.0,0.0,0.0,0.0,0.0,0.0,0.0,0.0,0.0,0.0,112.82604,0.0,0.0,0.0,0.0,0.0,0.0075,0.007500001,0.0075000008,1.0108759,1.0108763,1.0000012,0.0,0.0,0.0,0.0,0.0,0.0
4028000,3876000,0.0,0.0,0.0,0.0,0.0,0.0,0.0,0.0,0.0,0.0,0.0,0.0,0.0,112.82604,0.0,0.0,0.0,0.0,0.0,0.0075,0.007500001,0.0075000008,1.010924,1.0109243,1.0000012,0.0,0.0,0.0,0.0,0.0,0.0
4036000,3884000,0.0,0.0,0.0,0.0,0.0,0.0,0.0,0.0,0.0,0.0,0.0,0.0,0.0,112.82604,0.0,0.0,0.0,0.0,0.0,0.0075,0.007500001,0.0075000008,1.0109732,1.0109736,1.0000013,0.0,0.0,0.0,0.0,0.0,0.0
4044000,3892000,0.0,0.0,0.0,0.0,0.0,0.0,0.0,0.0,0.0,0.0,0.0,0.0,0.0,113.22354,0.0,0.0,0.0,0.0,0.0,0.0075,0.007500001,0.0075000008,1.0110238,1.0110242,1.0000013,0.0,0.0,0.0,0.0,0.0,0.0
4060000,3908000,25.200663,25.200663,10.207127,103.692375,103.692375,0.0,0.0,0.0,0.0,0.0,0.0,0.0,0.0,113.22354,0.0,0.0,0.0,0.0,0.0,0.0075,0.007500001,0.0075000008,1.0111288,1.0111291,1.0000013,0.0,0.0,0.0,0.0,0.0,0.0
4068000,3916000,25.200663,25.200663,10.207127,103.692375,103.692375,0.0,0.0,0.0,0.0,0.0,0.0,0.0,0.0,113.22354,0.0,0.0,0.0,0.0,0.0,0.0075000008,0.0075000008,0.0075000003,1.0111831,1.0111836,1.0000013,0.0,0.0,0.0,0.0,0.0,0.0
4076000,3924000,25.200663,25.200663,10.207127,103.692375,103.692375,0.0,0.0,0.0,0.0,0.0,0.0,0.0,0.0,113.22354,0.0,0.0,0.0,0.0,0.0,0.0075000008,0.0075000008,0.0075000003,1.0112389,1.0112393,1.0000013,0.0,0.0,0.0,0.0,0.0,0.0
4084000,3932000,25.200663,25.200663,10.207127,103.692375,103.692375,0.0,0.0,0.0,0.0,0.0,0.0,0.0,0.0,113.22354,0.0,0.0,0.0,0.0,0.0,0.0075000008,0.0075000008,0.0075000003,1.0112958,1.0112963,1.0000013,0.0,0.0,0.0,0.0,0.0,0.0
4100000,3948000,25.200663,25.200663,10.207127,103.692375,103.692375,0.0,0.0,0.0,0.0,0.0,0.0,0.0,0.0,113.22354,0.0,0.0,0.0,0.0,0.0,0.0075000008,0.0075000008,0.0075000003,1.0114132,1.0114136,1.0000013,0.0,0.0,0.0,0.0,0.0,0.0
4108000,3956000,25.200663,25.200663,10.207127,103.692375,103.692375,0.0,0.0,0.0,0.0,0.0,0.0,0.0,0.0,113.22354,0.0,0.0,0.0,0.0,0.0,0.0075000008,0.0075000008,0.0075000003,1.011474,1.0114744,1.0000013,0.0,0.0,0.0,0.0,0.0,0.0
4116000,3964000,25.200663,25.200663,10.207127,103.692375,103.692375,0.0,0.0,0.0,0.0,0.0,0.0,0.0,0.0,62.663548,0.0,0.0,0.0,0.0,0.0,0.0075000008,0.0075000008,0.0075000003,1.0115361,1.0115365,1.0000013,0.0,0.0,0.0,0.0,0.0,0.0
4124000,3972000,25.200663,25.200663,10.207127,103.692375,103.692375,0.0,0.0,0.0,0.0,0.0,0.0,0.0,0.0,62.663548,0.0,0.0,0.0,0.0,0.0,0.0075000008,0.0075000008,0.0075000003,1.0115994,1.0115999,1.0000013,0.0,0.0,0.0,0.0,0.0,0.0
4140000,3988000,25.200663,25.200663,10.207127,103.692375,103.692375,0.0,0.0,0.0,0.0,0.0,0.0,0.0,0.0,62.663548,0.0,0.0,0.0,0.0,0.0,0.0075000003,0.007500001,0.0075000003,1.0117301,1.0117306,1.0000013,0.0,0.0,0.0,0.0,0.0,0.0
4148000,3996000,25.200663,25.200663,10.207127,103.692375,103.692375,0.0,0.0,0.0,0.0,0.0,0.0,0.0,0.0,62.663548,0.0,0.0,0.0,0.0,0.0,0.0075000003,0.007500001,0.0075000003,1.0117973,1.0117977,1.0000013,0.0,0.0,0.0,0.0,0.0,0.0
4156000,4004000,25.200663,25.200663,10.207127,103.692375,103.692375,0.0,0.0,0.0,0.0,0.0,0.0,0.0,0.0,62.663548,0.0,0.0,0.0,0.0,0.0,0.0075000003,0.007500001,0.0075000003,1.0118657,1.0118662,1.0000013,0.0,0.0,0.0,0.0,0.0,0.0
4164000,4012000,25.200663,25.200663,10.207127,103.692375,103.692375,0.0,0.0,0.0,0.0,0.0,0.0,0.0,0.0,62.663548,0.0,0.0,0.0,0.0,0.0,0.0075000003,0.007500001,0.0075000003,1.0119356,1.0119361,1.0000012,0.0,0.0,0.0,0.0,0.0,0.0
4180000,4028000,25.200663,25.200663,10.207127,103.692375,103.692375,0.0,0.0,0.0,0.0,0.0,0.0,0.0,0.0,62.663548,0.0,0.0,0.0,0.0,0.0,0.0075000003,0.007500001,0.0075000003,1.0120789,1.0120794,1.0000012,0.0,0.0,0.0,0.0,0.0,0.0
4188000,4036000,25.200663,25.200663,10.207127,103.692375,103.692375,0.0,0.0,0.0,0.0,0.0,0.0,0.0,0.0,63.007065,0.0,0.0,0.0,0.0,0.0,0.0075000003,0.007500001,0.0075000003,1.0121526,1.012153,1.0000012,0.0,0.0,0.0,0.0,0.0,0.0
4196000,4044000,25.200663,25.200663,10.207127,103.692375,103.692375,0.0,0.0,0.0,0.0,0.0,0.0,0.0,0.0,63.007065,0.0,0.0,0.0,0.0,0.0,0.0075000003,0.007500001,0.0075000003,1.0122274,1.0122279,1.0000012,0.0,0.0,0.0,0.0,0.0,0.0
4204000,4052000,25.200663,25.200663,10.207127,103.692375,103.692375,0.0,0.0,0.0,0.0,0.0,0.0,0.0,0.0,63.007065,0.0,0.0,0.0,0.0,0.0,0.0075000003,0.007500001,0.0075000003,1.0123036,1.0123041,1.0000012,0.0,0.0,0.0,0.0,0.0,0.0
4220000,4068000,25.200663,25.200663,10.207127,103.692375,103.692375,0.0,0.0,0.0,0.0,0.0,0.0,0.0,0.0,63.007065,0.0,0.0,0.0,0.0,0.0,0.0075000008,0.0075000003,0.007500001,1.0124598,1.0124602,1.0000013,0.0,0.0,0.0,0.0,0.0,0.0
4228000,4076000,25.200663,25.200663,10.207127,103.692375,103.692375,0.0,0.0,0.0,0.0,0.0,0.0,0.0,0.0,63.007065,0.0,0.0,0.0,0.0,0.0,0.0075000008,0.0075000003,0.007500001,1.0125397,1.0125403,1.0000013,0.0,0.0,0.0,0.0,0.0,0.0
4236000,4084000,25.200663,25.200663,10.207127,103.692375,103.692375,0.0,0.0,0.0,0.0,0.0,0.0,0.0,0.0,63.007065,0.0,0.0,0.0,0.0,0.0,0.0075000008,0.0075000003,0.007500001,1.012621,1.0126216,1.0000013,0.0,0.0,0.0,0.0,0.0,0.0
4244000,4092000,25.200663,25.200663,10.207127,103.692375,103.692375,0.0,0.0,0.0,0.0,0.0,0.0,0.0,0.0,63.007065,0.0,0.0,0.0,0.0,0.0,0.0075000008,0.0075000003,0.007500001,1.0127037,1.0127041,1.0000013,0.0,0.0,0.0,0.0,0.0,0.0
4260000,4108000,25.200663,25.200663,10.207127,103.692375,103.692375,0.0,0.0,0.0,0.0,0.0,0.0,0.0,0.0,63.453705,0.0,0.0,0.0,0.0,0.0,0.0075000008,0.0075000003,0.007500001,1.0128727,1.0128732,1.0000013,0.0,0.0,0.0,0.0,0.0,0.0
4268000,4116000,25.200663,25.200663,10.207127,103.692375,103.692375,0.0,0.0,0.0,0.0,0.0,0.0,0.0,0.0,63.453705,0.0,0.0,0.0,0.0,0.0,0.0075000008,0.0075000003,0.007500001,1.012959,1.0129596,1.0000013,0.0,0.0,0.0,0.0,0.0,0.0
4276000,4124000,25.200663,25.200663,10.207127,103.692375,103.692375,0.0,0.0,0.0,0.0,0.0,0.0,0.0,0.0,63.453705,0.0,0.0,0.0,0.0,0.0,0.0075000008,0.0075000003,0.007500001,1.0130467,1.0130473,1.0000013,0.0,0.0,0.0,0.0,0.0,0.0
4284000,4132000,25.200663,25.200663,10.207127,103.692375,103.692375,0.0,0.0,0.0,0.0,0.0,0.0,0.0,0.0,63.453705,0.0,0.0,0.0,0.0,0.0,0.0075000003,0.0075000003,0.0075000003,1.0131357,1.0131363,1.0000013,0.0,0.0,0.0,0.0,0.0,0.0
4300000,4148000,25.200663,25.200663,10.207127,103.692375,103.692375,0.0,0.0,0.0,0.0,0.0,0.0,0.0,0.0,63.453705,0.0,0.0,0.0,0.0,0.0,0.0075000003,0.0075000003,0.0075000003,1.0133175,1.0133181,1.0000013,0.0,0.0,0.0,0.0,0.0,0.0
4308000,4156000,25.200663,25.200663,10.207127,103.692375,103.692375,0.0,0.0,0.0,0.0,0.0,0.0,0.0,0.0,63.453705,0.0,0.0,0.0,0.0,0.0,0.0075000003,0.0075000003,0.0075000003,1.0133389,1.0133395,1.0000012,0.0,0.0,0.0,0.0,0.0,0.0
4316000,4164000,25.200663,25.200663,10.207127,103.692375,103.692375,0.0,0.0,0.0,0.0,0.0,0.0,0.0,0.0,63.453705,0.0,0.0,0.0,0.0,0.0,0.0075000003,0.0075000003,0.0075000003,1.0134329,1.0134333,1.0000012,0.0,0.0,0.0,0.0,0.0,0.0
4324000,4172000,25.200663,25.200663,10.207127,103.692375,103.692375,0.0,0.0,0.0,0.0,0.0,0.0,0.0,0.0,63.453705,0.0,0.0,0.0,0.0,0.0,0.0075000003,0.0075000003,0.0075000003,1.013528,1.0135285,1.0000012,0.0,0.0,0.0,0.0,0.0,0.0
4340000,4188000,25.200663,25.200663,10.207127,103.692375,103.692375,0.0,0.0,0.0,0.0,0.0,0.0,0.0,0.0,46.414917,0.0,0.0,0.0,0.0,0.0,0.0075000003,0.0075000003,0.0075000003,1.0137221,1.0137225,1.0000013,0.0,0.0,0.0,0.0,0.0,0.0
4348000,4196000,25.200663,25.200663,10.207127,103.692375,103.692375,0.0,0.0,0.0,0.0,0.0,0.0,0.0,0.0,46.414917,0.0,0.0,0.0,0.0,0.0,0.0075000003,0.0075000003,0.0075000003,1.0138211,1.0138215,1.0000013,0.0,0.0,0.0,0.0,0.0,0.0
4356000,4204000,25.200663,25.200663,10.207127,103.692375,103.692375,0.0,0.0,0.0,0.0,0.0,0.0,0.0,0.0,46.414917,0.0,0.0,0.0,0.0,0.0,0.007500001,0.0075000008,0.0075000008,1.0137498,1.0137503,1.0000013,0.0,0.0,0.0,0.0,0.0,0.0
4364000,4212000,25.200663,25.200663,10.207127,103.692375,103.692375,0.0,0.0,0.0,0.0,0.0,0.0,0.0,0.0,46.414917,0.0,0.0,0.0,0.0,0.0,0.007500001,0.0075000008,0.0075000008,1.0138506,1.0138509,1.0000013,0.0,0.0,0.0,0.0,0.0,0.0
4380000,4228000,25.200663,25.200663,10.207127,103.692375,103.692375,0.0,0.0,0.0,0.0,0.0,0.0,0.0,0.0,46.414917,0.0,0.0,0.0,0.0,0.0,0.007500001,0.0075000008,0.0075000008,1.0140557,1.0140561,1.0000013,0.0,0.0,0.0,0.0,0.0,0.0
4388000,4236000,25.200663,25.200663,10.207127,103.692375,103.692375,0.0,0.0,0.0,0.0,0.0,0.0,0.0,0.0,46.414917,0.0,0.0,0.0,0.0,0.0,0.007500001,0.0075000008,0.0075000008,1.0141603,1.0141606,1.0000012,0.0,0.0,0.0,0.0,0.0,0.0
4396000,4244000,25.200663,25.200663,10.207127,103.692375,103.692375,0.0,0.0,0.0,0.0,0.0,0.0,0.0,0.0,46.414917,0.0,0.0,0.0,0.0,0.0,0.007500001,0.0075000008,0.0075000008,1.014266,1.0142664,1.0000012,0.0,0.0,0.0,0.0,0.0,0.0
4404000,4252000,25.200663,25.200663,10.207127,103.692375,103.692375,0.0,0.0,0.0,0.0,0.0,0.0,0.0,0.0,45.583576,0.0,0.0,0.0,0.0,0.0,0.007500001,0.0075000008,0.0075000008,1.0143731,1.0143734,1.0000013,0.0,0.0,0.0,0.0,0.0,0.0
4420000,4268000,25.200663,25.200663,10.207127,103.692375,103.692375,0.0,0.0,0.0,0.0,0.0,0.0,0.0,0.0,45.583576,0.0,0.0,0.0,0.0,0.0,0.007500001,0.0075000008,0.0075000008,1.014591,1.0145915,1.0000013,0.0,0.0,0.0,0.0,0.0,0.0
4428000,4276000,25.200663,25.200663,10.207127,103.692375,103.692375,0.0,0.0,0.0,0.0,0.0,0.0,0.0,0.0,45.583576,0.0,0.0,0.0,0.0,0.0,0.0075000003,0.0075,0.0075000003,1.014702,1.0147023,1.0000013,0.0,0.0,0.0,0.0,0.0,0.0
4436000,4284000,25.200663,25.200663,10.207127,103.692375,103.692375,0.0,0.0,0.0,0.0,0.0,0.0,0.0,0.0,45.583576,0.0,0.0,0.0,0.0,0.0,0.0075000003,0.0075,0.0075000003,1.014814,1.0148145,1.0000013,0.0,0.0,0.0,0.0,0.0,0.0
4444000,4292000,25.200663,25.200663,10.207127,103.692375,103.692375,0.0,0.0,0.0,0.0,0.0,0.0,0.0,0.0,45.583576,0.0,0.0,0.0,0.0,0.0,0.0075000003,0.0075,0.0075000003,1.0149275,1.014928,1.0000013,0.0,0.0,0.0,0.0,0.0,0.0
4460000,4308000,0.10776259,0.107762665,0.20311326,1.1250173,1.1250173,0.0,0.0,0.0,0.0,0.0,0.0,0.0,0.0,45.583576,0.0,0.0,0.0,0.0,0.0,0.0075000003,0.0075,0.0075000003,1.0151582,1.0151587,1.0000013,0.0,0.0,0.0,0.0,0.0,0.0
4468000,4316000,0.10776259,0.107762665,0.20311326,1.1250173,1.1250173,0.0,0.0,0.0,0.0,0.0,0.0,0.0,0.0,45.583576,0.0,0.0,0.0,0.0,0.0,0.0075000003,0.0075,0.0075000003,1.0152755,1.015276,1.0000013,0.0,0.0,0.0,0.0,0.0,0.0
4476000,4324000,0.10776259,0.107762665,0.20311326,1.1250173,1.1250173,0.0,0.0,0.0,0.0,0.0,0.0,0.0,0.0,45.583538,0.0,0.0,0.0,0.0,0.0,0.0075000003,0.0075,0.0075000003,1.0153941,1.0153946,1.0000013,0.0,0.0,0.0,0.0,0.0,0.0
4484000,4332000,0.10776259,0.107762665,0.20311326,1.1250173,1.1250173,0.0,0.0,0.0,0.0,0.0,0.0,0.0,0.0,45.583538,0.0,0.0,0.0,0.0,0.0,0.0075000003,0.0075,0.0075000003,1.0155139,1.0155144,1.0000013,0.0,0.0,0.0,0.0,0.0,0.0
4500000,4348000,0.10776259,0.107762665,0.20311326,1.1250173,1.1250173,0.0,0.0,0.0,0.0,0.0,0.0,0.0,0.0,45.583538,0.0,0.0,0.0,0.0,0.0,0.007500001,0.0075000008,0.0075000008,1.0157573,1.0157578,1.0000013,0.0,0.0,0.0,0.0,0.0,0.0
4508000,4356000,0.10776259,0.107762665,0.20311326,1.1250173,1.1250173,0.0,0.0,0.0,0.0,0.0,0.0,0.0,0.0,45.583538,0.0,0.0,0.0,0.0,0.0,0.007500001,0.0075000008,0.0075000008,1.0158811,1.0158815,1.0000013,0.0,0.0,0.0,0.0,0.0,0.0
4516000,4364000,0.10776259,0.107762665,0.20311326,1.1250173,1.1250173,0.0,0.0,0.0,0.0,0.0,0.0,0.0,0.0,45.583538,0.0,0.0,0.0,0.0,0.0,0.007500001,0.0075000008,0.0075000008,1.016006,1.0160065,1.0000013,0.0,0.0,0.0,0.0,0.0,0.0
4524000,4372000,0.10776259,0.107762665,0.20311326,1.1250173,1.1250173,0.0,0.0,0.0,0.0,0.0,0.0,0.0,0.0,45.583538,0.0,0.0,0.0,0.0,0.0,0.007500001,0.0075000008,0.0075000008,1.0161322,1.0161327,1.0000013,0.0,0.0,0.0,0.0,0.0,0.0
4540000,4388000,0.10776259,0.107762665,0.20311326,1.1250173,1.1250173,0.0,0.0,0.0,0.0,0.0,0.0,0.0,0.0,45.583538,0.0,0.0,0.0,0.0,0.0,0.007500001,0.0075000008,0.0075000008,1.0099792,1.0099797,1.0000013,0.0,0.0,0.0,0.0,0.0,0.0
4548000,4396000,0.10776259,0.107762665,0.20311326,1.1250173,1.1250173,0.0,0.0,0.0,0.0,0.0,0.0,0.0,0.0,37.25008,0.0,0.0,0.0,0.0,0.0,0.007500001,0.0075000008,0.0075000008,1.0099821,1.0099826,1.0000013,0.0,0.0,0.0,0.0,0.0,0.0
4556000,4404000,0.10776259,0.107762665,0.20311326,1.1250173,1.1250173,0.0,0.0,0.0,0.0,0.0,0.0,0.0,0.0,37.25008,0.0,0.0,0.0,0.0,0.0,0.007500001,0.0075000008,0.0075000008,1.0099851,1.0099854,1.0000013,0.0,0.0,0.0,0.0,0.0,0.0
4564000,4412000,0.10776259,0.107762665,0.20311326,1.1250173,1.1250173,0.0,0.0,0.0,0.0,0.0,0.0,0.0,0.0,37.25008,0.0,0.0,0.0,0.0,0.0,0.007500001,0.0075000008,0.0075000008,1.0099742,1.0099844,1.0000013,0.0,0.0,0.0,0.0,0.0,0.0
4580000,4428000,0.10776259,0.107762665,0.20311326,1.1250173,1.1250173,0.0,0.0,0.0,0.0,0.0,0.0,0.0,0.0,37.25008,0.0,0.0,0.0,0.0,0.0,0.0075000003,0.0075000003,0.0075000008,1.0099802,1.0099903,1.0000013,0.0,0.0,0.0,0.0,0.0,0.0
4588000,4436000,0.10776259,0.107762665,0.20311326,1.1250173,1.1250173,0.0,0.0,0.0,0.0,0.0,0.0,0.0,0.0,37.25008,0.0,0.0,0.0,0.0,0.0,0.0075000003,0.0075000003,0.0075000008,1.0099832,1.0099934,1.0000013,0.0,0.0,0.0,0.0,0.0,0.0
4596000,4444000,0.10776259,0.107762665,0.20311326,1.1250173,1.1250173,0.0,0.0,0.0,0.0,0.0,0.0,0.0,0.0,37.25008,0.0,0.0,0.0,0.0,0.0,0.0075000003,0.0075000003,0.0075000008,1.0099863,1.0099964,1.0000012,0.0,0.0,0.0,0.0,0.0,0.0
4604000,4452000,0.10776259,0.107762665,0.20311326,1.1250173,1.1250173,0.0,0.0,0.0,0.0,0.0,0.0,0.0,0.0,37.25008,0.0,0.0,0.0,0.0,0.0,0.0075000003,0.0075000003,0.0075000008,1.0099894,1.0099995,1.0000012,0.0,0.0,0.0,0.0,0.0,0.0
4620000,4468000,0.10776259,0.107762665,0.20311326,1.1250173,1.1250173,0.0,0.0,0.0,0.0,0.0,0.0,0.0,0.0,37.250027,0.0,0.0,0.0,0.0,0.0,0.0075000003,0.0075000003,0.0075000008,1.0099956,1.0100057,1.0000013,0.0,0.0,0.0,0.0,0.0,0.0
4628000,4476000,0.10776259,0.107762665,0.20311326,1.1250173,1.1250173,0.0,0.0,0.0,0.0,0.0,0.0,0.0,0.0,37.250027,0.0,0.0,0.0,0.0,0.0,0.0075000003,0.0075000003,0.0075000008,1.0099987,1.0100088,1.0000013,0.0,0.0,0.0,0.0,0.0,0.0
4636000,4484000,0.10776259,0.107762665,0.20311326,1.1250173,1.1250173,0.0,0.0,0.0,0.0,0.0,0.0,0.0,0.0,37.250027,0.0,0.0,0.0,0.0,0.0,0.0075000003,0.0075000003,0.0075000008,1.0100019,1.010012,1.0000012,0.0,0.0,0.0,0.0,0.0,0.0
4644000,4492000,0.10776259,0.107762665,0.20311326,1.1250173,1.1250173,0.0,0.0,0.0,0.0,0.0,0.0,0.0,0.0,37.250027,0.0,0.0,0.0,0.0,0.0,0.0075000003,0.0075000008,0.0075,1.0100051,1.0100152,1.0000012,0.0,0.0,0.0,0.0,0.0,0.0
4660000,4508000,0.10776259,0.107762665,0.20311326,1.1250173,1.1250173,0.0,0.0,0.0,0.0,0.0,0.0,0.0,0.0,37.250027,0.0,0.0,0.0,0.0,0.0,0.0075000003,0.0075000008,0.0075,1.0100117,1.0100218,1.0000012,0.0,0.0,0.0,0.0,0.0,0.0
4668000,4516000,0.10776259,0.107762665,0.20311326,1.1250173,1.1250173,0.0,0.0,0.0,0.0,0.0,0.0,0.0,0.0,37.250027,0.0,0.0,0.0,0.0,0.0,0.0075000003,0.0075000008,0.0075,1.010015,1.0100251,1.0000012,0.0,0.0,0.0,0.0,0.0,0.0
4676000,4524000,0.10776259,0.107762665,0.20311326,1.1250173,1.1250173,0.0,0.0,0.0,0.0,0.0,0.0,0.0,0.0,37.250027,0.0,0.0,0.0,0.0,0.0,0.0075000003,0.0075000008,0.0075,1.0100183,1.0100285,1.0000012,0.0,0.0,0.0,0.0,0.0,0.0
4684000,4532000,0.10776259,0.107762665,0.20311326,1.1250173,1.1250173,0.0,0.0,0.0,0.0,0.0,0.0,0.0,0.0,37.250027,0.0,0.0,0.0,0.0,0.0,0.0075000003,0.0075000008,0.0075,1.0100217,1.0100318,1.0000012,0.0,0.0,0.0,0.0,0.0,0.0
4700000,4548000,0.10776259,0.107762665,0.20311326,1.1250173,1.1250173,0.0,0.0,0.0,0.0,0.0,0.0,0.0,0.0,37.250027,0.0,0.0,0.0,0.0,0.0,0.0075000003,0.0075000008,0.0075,1.0100285,1.0100386,1.0000013,0.0,0.0,0.0,0.0,0.0,0.0
4708000,4556000,0.10776259,0.107762665,0.20311326,1.1250173,1.1250173,0.0,0.0,0.0,0.0,0.0,0.0,0.0,0.0,37.250027,0.0,0.0,0.0,0.0,0.0,0.0075000003,0.0075000008,0.0075,1.0100318,1.0100421,1.0000013,0.0,0.0,0.0,0.0,0.0,0.0
4716000,4564000,0.10776259,0.107762665,0.20311326,1.1250173,1.1250173,0.0,0.0,0.0,0.0,0.0,0.0,0.0,0.0,37.250027,0.0,0.0,0.0,0.0,0.0,0.0075000008,0.0075,0.0075000008,1.0100353,1.0100455,1.0000013,0.0,0.0,0.0,0.0,0.0,0.0
4724000,4572000,0.10776259,0.107762665,0.20311326,1.1250173,1.1250173,0.0,0.0,0.0,0.0,0.0,0.0,0.0,0.0,37.250027,0.0,0.0,0.0,0.0,0.0,0.0075000008,0.0075,0.0075000008,1.0100389,1.010049,1.0000013,0.0,0.0,0.0,0.0,0.0,0.0
4740000,4588000,0.10776259,0.107762665,0.20311326,1.1250173,1.1250173,0.0,0.0,0.0,0.0,0.0,0.0,0.0,0.0,37.250027,0.0,0.0,0.0,0.0,0.0,0.0075000008,0.0075,0.0075000008,1.009935,1.0099453,1.0000012,0.0,0.0,0.0,0.0,0.0,0.0
4748000,4596000,0.10776259,0.107762665,0.20311326,1.1250173,1.1250173,0.0,0.0,0.0,0.0,0.0,0.0,0.0,0.0,37.250027,0.0,0.0,0.0,0.0,0.0,0.0075000008,0.0075,0.0075000008,1.0099369,1.0099471,1.0000012,0.0,0.0,0.0,0.0,0.0,0.0
4756000,4604000,0.10776259,0.107762665,0.20311326,1.1250173,1.1250173,0.0,0.0,0.0,0.0,0.0,0.0,0.0,0.0,37.250027,0.0,0.0,0.0,0.0,0.0,0.0075000008,0.0075,0.0075000008,1.0099387,1.009949,1.0000011,0.0,0.0,0.0,0.0,0.0,0.0
4764000,4612000,0.10776259,0.107762665,0.20311326,1.1250173,1.1250173,0.0,0.0,0.0,0.0,0.0,0.0,0.0,0.0,32.25002,0.0,0.0,0.0,0.0,0.0,0.0075000008,0.0075,0.0075000008,1.0099405,1.0099508,1.0000011,0.0,0.0,0.0,0.0,0.0,0.0
4780000,4628000,0.10776259,0.107762665,0.20311326,1.1250173,1.1250173,0.0,0.0,0.0,0.0,0.0,0.0,0.0,0.0,32.25002,0.0,0.0,0.0,0.0,0.0,0.0075000008,0.0075,0.0075000008,1.0004472,1.0004473,1.0,0.0,0.0,0.0,0.0,0.0,0.0
4788000,4636000,0.10776259,0.107762665,0.20311326,1.1250173,1.1250173,0.0,0.0,0.0,0.0,0.0,0.0,0.0,0.0,32.25002,0.0,0.0,0.0,0.0,0.0,0.007500001,0.0075000003,0.0075000008,1.0004473,1.0004474,1.0,0.0,0.0,0.0,0.0,0.0,0.0
4796000,4644000,0.10776259,0.107762665,0.20311326,1.1250173,1.1250173,0.0,0.0,0.0,0.0,0.0,0.0,0.0,0.0,32.25002,0.0,0.0,0.0,0.0,0.0,0.007500001,0.0075000003,0.0075000008,1.0004474,1.0004475,1.0,0.0,0.0,0.0,0.0,0.0,0.0
4804000,4652000,0.10776259,0.107762665,0.20311326,1.1250173,1.1250173,0.0,0.0,0.0,0.0,0.0,0.0,0.0,0.0,32.25002,0.0,0.0,0.0,0.0,0.0,0.007500001,0.0075000003,0.0075000008,1.0004476,1.0004476,1.0,0.0,0.0,0.0,0.0,0.0,0.0
4820000,4668000,0.10776259,0.107762665,0.20311326,1.1250173,1.1250173,0.0,0.0,0.0,0.0,0.0,0.0,0.0,0.0,32.25002,0.0,0.0,0.0,0.0,0.0,0.007500001,0.0075000003,0.0075000008,1.0004479,1.000448,1.0,0.0,0.0,0.0,0.0,0.0,0.0
4828000,4676000,0.10776259,0.107762665,0.20311326,1.1250173,1.1250173,0.0,0.0,0.0,0.0,0.0,0.0,0.0,0.0,32.25002,0.0,0.0,0.0,0.0,0.0,0.007500001,0.0075000003,0.0075000008,1.0004481,1.0004481,1.0,0.0,0.0,0.0,0.0,0.0,0.0
4836000,4684000,0.10776259,0.107762665,0.20311326,1.1250173,1.1250173,0.0,0.0,0.0,0.0,0.0,0.0,0.0,0.0,32.25002,0.0,0.0,0.0,0.0,0.0,0.007500001,0.0075000003,0.0075000008,1.0004482,1.0004483,1.0,0.0,0.0,0.0,0.0,0.0,0.0
4844000,4692000,0.10776259,0.107762665,0.20311326,1.1250173,1.1250173,0.0,0.0,0.0,0.0,0.0,0.0,0.0,0.0,32.25002,0.0,0.0,0.0,0.0,0.0,0.007500001,0.0075000003,0.0075000008,1.0004485,1.0004486,1.0,0.0,0.0,0.0,0.0,0.0,0.0
4860000,4708000,0.09014218,0.090142205,0.20261614,1.0,1.0,1.0,0.0,0.0,0.0,0.0,0.0,0.0,0.0,32.25002,0.0,0.0,0.0,0.0,0.0,0.0075000008,0.0075000008,0.0075000003,1.000449,1.0004491,1.0,0.0,0.0,0.0,0.0,0.0,0.0
4868000,4716000,0.09014218,0.090142205,0.20261614,1.0,1.0,1.0,0.0,0.0,0.0,0.0,0.0,0.0,0.0,32.25002,0.0,0.0,0.0,0.0,0.0,0.0075000008,0.0075000008,0.0075000003,1.0004492,1.0004493,1.0,0.0,0.0,0.0,0.0,0.0,0.0
4876000,4724000,0.09014218,0.090142205,0.20261614,1.0,1.0,1.0,0.0,0.0,0.0,0.0,0.0,0.0,0.0,32.25002,0.0,0.0,0.0,0.0,0.0,0.0075000008,0.0075000008,0.0075000003,1.0004494,1.0004495,1.0,0.0,0.0,0.0,0.0,0.0,0.0
4884000,4732000,0.09014218,0.090142205,0.20261614,1.0,1.0,1.0,0.0,0.0,0.0,0.0,0.0,0.0,0.0,32.25002,0.0,0.0,0.0,0.0,0.0,0.0075000008,0.0075000008,0.0075000003,1.0004498,1.0004498,1.0,0.0,0.0,0.0,0.0,0.0,0.0
4900000,4748000,0.09014218,0.090142205,0.20261614,1.0,1.0,1.0,0.0,0.0,0.0,0.0,0.0,0.0,0.0,32.25002,0.0,0.0,0.0,0.0,0.0,0.0075000008,0.0075000008,0.0075000003,1.0004504,1.0004504,1.0,0.0,0.0,0.0,0.0,0.0,0.0
4908000,4756000,0.09014218,0.090142205,0.20261614,1.0,1.0,1.0,0.0,0.0,0.0,0.0,0.0,0.0,0.0,13.25,0.0,0.0,0.0,0.0,0.0,0.0075000008,0.0075000008,0.0075000003,1.0004506,1.0004507,1.0,0.0,0.0,0.0,0.0,0.0,0.0
4916000,4764000,0.09014218,0.090142205,0.20261614,1.0,1.0,1.0,0.0,0.0,0.0,0.0,0.0,0.0,0.0,13.25,0.0,0.0,0.0,0.0,0.0,0.0075000008,0.0075000008,0.0075000003,1.000451,1.0004511,1.0,0.0,0.0,0.0,0.0,0.0,0.0
4924000,4772000,0.09014218,0.090142205,0.20261614,1.0,1.0,1.0,0.0,0.0,0.0,0.0,0.0,0.0,0.0,13.25,0.0,0.0,0.0,0.0,0.0,0.0075000008,0.0075000008,0.0075000003,1.0004513,1.0004514,1.0,0.0,0.0,0.0,0.0,0.0,0.0
4940000,4788000,0.09014218,0.090142205,0.20261614,1.0,1.0,1.0,0.0,0.0,0.0,0.0,0.0,0.0,0.0,13.25,0.0,0.0,0.0,0.0,0.0,0.0075000008,0.0075000008,0.0075000008,1.0004482,1.0004483,1.0,0.0,0.0,0.0,0.0,0.0,0.0
4948000,4796000,0.09014218,0.090142205,0.20261614,1.0,1.0,1.0,0.0,0.0,0.0,0.0,0.0,0.0,0.0,13.25,0.0,0.0,0.0,0.0,0.0,0.0075000008,0.0075000008,0.0075000008,1.0004485,1.0004486,1.0,0.0,0.0,0.0,0.0,0.0,0.0
4956000,4804000,0.09014218,0.090142205,0.20261614,1.0,1.0,1.0,0.0,0.0,0.0,0.0,0.0,0.0,0.0,13.25,0.0,0.0,0.0,0.0,0.0,0.0075000008,0.0075000008,0.0075000008,1.0004487,1.0004488,1.0,0.0,0.0,0.0,0.0,0.0,0.0
4964000,4812000,0.09014218,0.090142205,0.20261614,1.0,1.0,1.0,0.0,0.0,0.0,0.0,0.0,0.0,0.0,13.25,0.0,0.0,0.0,0.0,0.0,0.0075000008,0.0075000008,0.0075000008,1.000449,1.000449,1.0,0.0,0.0,0.0,0.0,0.0,0.0
4980000,4828000,0.09014218,0.090142205,0.20261614,1.0,1.0,1.0,0.0,0.0,0.0,0.0,0.0,0.0,0.0,13.250002,0.0,0.0,0.0,0.0,0.0,0.0075000008,0.0075000008,0.0075000008,1.0004491,1.0004492,1.0,0.0,0.0,0.0,0.0,0.0,0.0
4988000,4836000,0.09014218,0.090142205,0.20261614,1.0,1.0,1.0,0.0,0.0,0.0,0.0,0.0,0.0,0.0,13.250002,0.0,0.0,0.0,0.0,0.0,0.0075000008,0.0075000008,0.0075000008,1.0004493,1.0004494,1.0,0.0,0.0,0.0,0.0,0.0,0.0
4996000,4844000,0.09014218,0.090142205,0.20261614,1.0,1.0,1.0,0.0,0.0,0.0,0.0,0.0,0.0,0.0,13.250002,0.0,0.0,0.0,0.0,0.0,0.0075000008,0.0075000008,0.0075000008,1.0004495,1.0004497,1.0,0.0,0.0,0.0,0.0,0.0,0.0
5004000,4852000,0.09014218,0.090142205,0.20261614,1.0,1.0,1.0,0.0,0.0,0.0,0.0,0.0,0.0,0.0,13.250002,0.0,0.0,0.0,0.0,0.0,0.0075000008,0.0075000008,0.0075000003,1.0004499,1.0004499,1.0,0.0,0.0,0.0,0.0,0.0,0.0
5020000,4868000,0.09014218,0.090142205,0.20261614,1.0,1.0,1.0,0.0,0.0,0.0,0.0,0.0,0.0,0.0,13.250002,0.0,0.0,0.0,0.0,0.0,0.0075000008,0.0075000008,0.0075000003,1.0004504,1.0004505,1.0,0.0,0.0,0.0,0.0,0.0,0.0
5028000,4876000,0.09014218,0.090142205,0.20261614,1.0,1.0,1.0,0.0,0.0,0.0,0.0,0.0,0.0,0.0,13.250002,0.0,0.0,0.0,0.0,0.0,0.0075000008,0.0075000008,0.0075000003,1.0004507,1.0004507,1.0,0.0,0.0,0.0,0.0,0.0,0.0
5036000,4884000,0.09014218,0.090142205,0.20261614,1.0,1.0,1.0,0.0,0.0,0.0,0.0,0.0,0.0,0.0,13.250002,0.0,0.0,0.0,0.0,0.0,0.0075000008,0.0075000008,0.0075000003,1.000451,1.0004511,1.0,0.0,0.0,0.0,0.0,0.0,0.0
5044000,4892000,0.09014218,0.090142205,0.20261614,1.0,1.0,1.0,0.0,0.0,0.0,0.0,0.0,0.0,0.0,13.250002,0.0,0.0,0.0,0.0,0.0,0.0075000008,0.0075000008,0.0075000003,1.0004513,1.0004513,1.0,0.0,0.0,0.0,0.0,0.0,0.0
5060000,4908000,0.09014218,0.090142205,0.20261614,1.0,1.0,1.0,0.0,0.0,0.0,0.0,0.0,0.0,0.0,13.250009,0.0,0.0,0.0,0.0,0.0,0.0075000008,0.0075000008,0.0075000003,1.0004519,1.000452,1.0,0.0,0.0,0.0,0.0,0.0,0.0
5068000,4916000,0.09014218,0.090142205,0.20261614,1.0,1.0,1.0,0.0,0.0,0.0,0.0,0.0,0.0,0.0,13.250009,0.0,0.0,0.0,0.0,0.0,0.0075000008,0.0075000008,0.0075000003,1.0004523,1.0004524,1.0,0.0,0.0,0.0,0.0,0.0,0.0
5076000,4924000,0.09014218,0.090142205,0.20261614,1.0,1.0,1.0,0.0,0.0,0.0,0.0,0.0,0.0,0.0,13.250009,0.0,0.0,0.0,0.0,0.0,0.0075000008,0.0075,0.0075000003,1.0004526,1.0004528,1.0,0.0,0.0,0.0,0.0,0.0,0.0
5084000,4932000,0.09014218,0.090142205,0.20261614,1.0,1.0,1.0,0.0,0.0,0.0,0.0,0.0,0.0,0.0,13.250009,0.0,0.0,0.0,0.0,0.0,0.0075000008,0.0075,0.0075000003,1.000453,1.000453,1.0,0.0,0.0,0.0,0.0,0.0,0.0
5100000,4948000,0.09014218,0.090142205,0.20261614,1.0,1.0,1.0,0.0,0.0,0.0,0.0,0.0,0.0,0.0,13.250009,0.0,0.0,0.0,0.0,0.0,0.0075000008,0.0075,0.0075000003,1.0004537,1.0004538,1.0,0.0,0.0,0.0,0.0,0.0,0.0
5108000,4956000,0.09014218,0.090142205,0.20261614,1.0,1.0,1.0,0.0,0.0,0.0,0.0,0.0,0.0,0.0,13.250009,0.0,0.0,0.0,0.0,0.0,0.0075000008,0.0075,0.0075000003,1.0004541,1.0004542,1.0,0.0,0.0,0.0,0.0,0.0,0.0
5116000,4964000,0.09014218,0.090142205,0.20261614,1.0,1.0,1.0,0.0,0.0,0.0,0.0,0.0,0.0,0.0,13.250009,0.0,0.0,0.0,0.0,0.0,0.0075000008,0.0075,0.0075000003,1.0004544,1.0004545,1.0,0.0,0.0,0.0,0.0,0.0,0.0
5124000,4972000,0.09014218,0.090142205,0.20261614,1.0,1.0,1.0,0.0,0.0,0.0,0.0,0.0,0.0,0.0,13.25002,0.0,0.0,0.0,0.0,0.0,0.0075000008,0.0075,0.0075000003,1.0004549,1.0004549,1.0,0.0,0.0,0.0,0.0,0.0,0.0
5140000,4988000,0.09014218,0.090142205,0.20261614,1.0,1.0,1.0,0.0,0.0,0.0,0.0,0.0,0.0,0.0,13.25002,0.0,0.0,0.0,0.0,0.0,0.0075000008,0.0075,0.0075000003,1.0004508,1.0004508,1.0,0.0,0.0,0.0,0.0,0.0,0.0
5148000,4996000,0.09014218,0.090142205,0.20261614,1.0,1.0,1.0,0.0,0.0,0.0,0.0,0.0,0.0,0.0,13.25002,0.0,0.0,0.0,0.0,0.0,0.0075000008,0.007500001,0.0075000003,1.0004511,1.0004511,1.0,0.0,0.0,0.0,0.0,0.0,0.0
5156000,5004000,0.09014218,0.090142205,0.20261614,1.0,1.0,1.0,0.0,0.0,0.0,0.0,0.0,0.0,0.0,13.25002,0.0,0.0,0.0,0.0,0.0,0.0075000008,0.007500001,0.0075000003,1.0004513,1.0004514,1.0,0.0,0.0,0.0,0.0,0.0,0.0
5164000,5012000,0.09014218,0.090142205,0.20261614,1.0,1.0,1.0,0.0,0.0,0.0,0.0,0.0,0.0,0.0,13.25002,0.0,0.0,0.0,0.0,0.0,0.0075000008,0.007500001,0.0075000003,1.0004517,1.0004517,1.0,0.0,0.0,0.0,0.0,0.0,0.0
5180000,5028000,0.09014218,0.090142205,0.20261614,1.0,1.0,1.0,0.0,0.0,0.0,0.0,0.0,0.0,0.0,13.25002,0.0,0.0,0.0,0.0,0.0,0.0075000008,0.007500001,0.0075000003,1.0004523,1.0004523,1.0,0.0,0.0,0.0,0.0,0.0,0.0
5188000,5036000,0.09014218,0.090142205,0.20261614,1.0,1.0,1.0,0.0,0.0,0.0,0.0,0.0,0.0,0.0,13.25002,0.0,0.0,0.0,0.0,0.0,0.0075000008,0.007500001,0.0075000003,1.0004525,1.0004526,1.0,0.0,0.0,0.0,0.0,0.0,0.0
5196000,5044000,0.09014218,0.090142205,0.20261614,1.0,1.0,1.0,0.0,0.0,0.0,0.0,0.0,0.0,0.0,13.250038,0.0,0.0,0.0,0.0,0.0,0.0075000008,0.007500001,0.0075000003,1.0004529,1.000453,1.0,0.0,0.0,0.0,0.0,0.0,0.0
5204000,5052000,0.09014218,0.090142205,0.20261614,1.0,1.0,1.0,0.0,0.0,0.0,0.0,0.0,0.0,0.0,13.250038,0.0,0.0,0.0,0.0,0.0,0.0075000008,0.007500001,0.0075000003,1.0004532,1.0004532,1.0,0.0,0.0,0.0,0.0,0.0,0.0
5220000,5068000,0.09014218,0.090142205,0.20261614,1.0,1.0,1.0,0.0,0.0,0.0,0.0,0.0,0.0,0.0,13.250038,0.0,0.0,0.0,0.0,0.0,0.0075,0.0075000003,0.0075,1.0004538,1.000454,1.0,0.0,0.0,0.0,0.0,0.0,0.0
5228000,5076000,0.09014218,0.090142205,0.20261614,1.0,1.0,1.0,0.0,0.0,0.0,0.0,0.0,0.0,0.0,13.250038,0.0,0.0,0.0,0.0,0.0,0.0075,0.0075000003,0.0075,1.0004542,1.0004543,1.0,0.0,0.0,0.0,0.0,0.0,0.0
5236000,5084000,0.09014218,0.090142205,0.20261614,1.0,1.0,1.0,0.0,0.0,0.0,0.0,0.0,0.0,0.0,13.250038,0.0,0.0,0.0,0.0,0.0,0.0075,0.0075000003,0.0075,1.0004545,1.0004547,1.0,0.0,0.0,0.0,0.0,0.0,0.0
5244000,5092000,0.09014218,0.090142205,0.20261614,1.0,1.0,1.0,0.0,0.0,0.0,0.0,0.0,0.0,0.0,13.250038,0.0,0.0,0.0,0.0,0.0,0.0075,0.0075000003,0.0075,1.0004549,1.000455,1.0,0.0,0.0,0.0,0.0,0.0,0.0
5260000,5108000,0.13005608,0.1300561,0.20351616,101.00073,101.00073,2.0000644,0.0,0.0,0.0,0.0,0.0,0.0,0.0,13.250038,0.0,0.0,0.0,0.0,0.0,0.0075,0.0075000003,0.0075,1.0004556,1.0004557,1.0,0.0,0.0,0.0,0.0,0.0,0.0
5268000,5116000,0.13005608,0.1300561,0.20351616,101.00073,101.00073,2.0000644,0.0,0.0,0.0,0.0,0.0,0.0,0.0,12.750018,0.0,0.0,0.0,0.0,0.0,0.0075,0.0075000003,0.0075,1.000456,1.0004561,1.0,0.0,0.0,0.0,0.0,0.0,0.0
5276000,5124000,0.13005608,0.1300561,0.20351616,101.00073,101.00073,2.0000644,0.0,0.0,0.0,0.0,0.0,0.0,0.0,12.750018,0.0,0.0,0.0,0.0,0.0,0.0075,0.0075000003,0.0075,1.0004563,1.0004565,1.0,0.0,0.0,0.0,0.0,0.0,0.0
5284000,5132000,0.13005608,0.1300561,0.20351616,101.00073,101.00073,2.0000644,0.0,0.0,0.0,0.0,0.0,0.0,0.0,12.750018,0.0,0.0,0.0,0.0,0.0,0.0075,0.0075000003,0.0075,1.0004568,1.0004568,1.0,0.0,0.0,0.0,0.0,0.0,0.0
5300000,5148000,0.13005608,0.1300561,0.20351616,101.00073,101.00073,2.0000644,0.0,0.0,0.0,0.0,0.0,0.0,0.0,12.750018,0.0,0.0,0.0,0.0,0.0,0.0075000003,0.0075000008,0.0075000008,1.0004575,1.0004576,1.0,0.0,0.0,0.0,0.0,0.0,0.0
5308000,5156000,0.13005608,0.1300561,0.20351616,101.00073,101.00073,2.0000644,0.0,0.0,0.0,0.0,0.0,0.0,0.0,12.750018,0.0,0.0,0.0,0.0,0.0,0.0075000003,0.0075000008,0.0075000008,1.000458,1.000458,1.0,0.0,0.0,0.0,0.0,0.0,0.0
5316000,5164000,0.13005608,0.1300561,0.20351616,101.00073,101.00073,2.0000644,0.0,0.0,0.0,0.0,0.0,0.0,0.0,12.750018,0.0,0.0,0.0,0.0,0.0,0.0075000003,0.0075000008,0.0075000008,1.0004584,1.0004585,1.0,0.0,0.0,0.0,0.0,0.0,0.0
5324000,5172000,0.13005608,0.1300561,0.20351616,101.00073,101.00073,2.0000644,0.0,0.0,0.0,0.0,0.0,0.0,0.0,12.750018,0.0,0.0,0.0,0.0,0.0,0.0075000003,0.0075000008,0.0075000008,1.0004588,1.0004588,1.0,0.0,0.0,0.0,0.0,0.0,0.0
5340000,5188000,0.13005608,0.1300561,0.20351616,101.00073,101.00073,2.0000644,0.0,0.0,0.0,0.0,0.0,0.0,0.0,12.750043,0.0,0.0,0.0,0.0,0.0,0.0075000003,0.0075000008,0.0075000008,1.0004541,1.0004542,1.0,0.0,0.0,0.0,0.0,0.0,0.0
5348000,5196000,0.13005608,0.1300561,0.20351616,101.00073,101.00073,2.0000644,0.0,0.0,0.0,0.0,0.0,0.0,0.0,12.750043,0.0,0.0,0.0,0.0,0.0,0.0075000003,0.0075000008,0.0075000008,1.0004544,1.0004544,1.0,0.0,0.0,0.0,0.0,0.0,0.0
5356000,5204000,0.13005608,0.1300561,0.20351616,101.00073,101.00073,2.0000644,0.0,0.0,0.0,0.0,0.0,0.0,0.0,12.750043,0.0,0.0,0.0,0.0,0.0,0.0075000003,0.0075000008,0.0075000008,1.0004548,1.0004548,1.0,0.0,0.0,0.0,0.0,0.0,0.0
5364000,5212000,0.13005608,0.1300561,0.20351616,101.00073,101.00073,2.0000644,0.0,0.0,0.0,0.0,0.0,0.0,0.0,12.750043,0.0,0.0,0.0,0.0,0.0,0.0075000003,0.0075000008,0.0075000008,1.000455,1.0004551,1.0,0.0,0.0,0.0,0.0,0.0,0.0
5380000,5228000,0.13005608,0.1300561,0.20351616,101.00073,101.00073,2.0000644,0.0,0.0,0.0,0.0,0.0,0.0,0.0,12.750043,0.0,0.0,0.0,0.0,0.0,0.0075000003,0.0075000008,0.0075000008,1.0004557,1.0004559,1.0,0.0,0.0,0.0,0.0,0.0,0.0
5388000,5236000,0.13005608,0.1300561,0.20351616,101.00073,101.00073,2.0000644,0.0,0.0,0.0,0.0,0.0,0.0,0.0,12.750043,0.0,0.0,0.0,0.0,0.0,0.0075000003,0.0075000008,0.0075000008,1.0004561,1.0004561,1.0,0.0,0.0,0.0,0.0,0.0,0.0
5396000,5244000,0.13005608,0.1300561,0.20351616,101.00073,101.00073,2.0000644,0.0,0.0,0.0,0.0,0.0,0.0,0.0,12.750043,0.0,0.0,0.0,0.0,0.0,0.0075000003,0.0075000008,0.0075000008,1.0004562,1.0004562,1.0,0.0,0.0,0.0,0.0,0.0,0.0
5404000,5252000,0.13005608,0.1300561,0.20351616,101.00073,101.00073,2.0000644,0.0,0.0,0.0,0.0,0.0,0.0,0.0,12.750043,0.0,0.0,0.0,0.0,0.0,0.0075000003,0.0075000008,0.0075000008,1.0004566,1.0004566,1.0,0.0,0.0,0.0,0.0,0.0,0.0
5420000,5268000,0.13005608,0.1300561,0.20351616,101.00073,101.00073,2.0000644,0.0,0.0,0.0,0.0,0.0,0.0,0.0,12.751298,0.0,0.0,0.0,0.0,0.0,0.0075000003,0.0075000008,0.0075000008,1.0004573,1.0004573,1.0,0.0,0.0,0.0,0.0,0.0,0.0
5428000,5276000,0.13005608,0.1300561,0.20351616,101.00073,101.00073,2.0000644,0.0,0.0,0.0,0.0,0.0,0.0,0.0,12.751298,0.0,0.0,0.0,0.0,0.0,0.0075000008,0.0075000003,0.0075000008,1.0004576,1.0004576,1.0,0.0,0.0,0.0,0.0,0.0,0.0
5436000,5284000,0.13005608,0.1300561,0.20351616,101.00073,101.00073,2.0000644,0.0,0.0,0.0,0.0,0.0,0.0,0.0,12.751298,0.0,0.0,0.0,0.0,0.0,0.0075000008,0.0075000003,0.0075000008,1.000458,1.0004581,1.0,0.0,0.0,0.0,0.0,0.0,0.0
5444000,5292000,0.13005608,0.1300561,0.20351616,101.00073,101.00073,2.0000644,0.0,0.0,0.0,0.0,0.0,0.0,0.0,12.751298,0.0,0.0,0.0,0.0,0.0,0.0075000008,0.0075000003,0.0075000008,1.0004584,1.0004585,1.0,0.0,0.0,0.0,0.0,0.0,0.0
5460000,5308000,0.13005608,0.1300561,0.20351616,101.00073,101.00073,2.0000644,0.0,0.0,0.0,0.0,0.0,0.0,0.0,12.751298,0.0,0.0,0.0,0.0,0.0,0.0075000008,0.0075000003,0.0075000008,1.0004592,1.0004592,1.0,0.0,0.0,0.0,0.0,0.0,0.0
5468000,5316000,0.13005608,0.1300561,0.20351616,101.00073,101.00073,2.0000644,0.0,0.0,0.0,0.0,0.0,0.0,0.0,12.751298,0.0,0.0,0.0,0.0,0.0,0.0075000008,0.0075000003,0.0075000008,1.0004596,1.0004597,1.0,0.0,0.0,0.0,0.0,0.0,0.0
5476000,5324000,0.13005608,0.1300561,0.20351616,101.00073,101.00073,2.0000644,0.0,0.0,0.0,0.0,0.0,0.0,0.0,12.751298,0.0,0.0,0.0,0.0,0.0,0.0075000008,0.0075000003,0.0075000008,1.0004599,1.00046,1.0,0.0,0.0,0.0,0.0,0.0,0.0
5484000,5332000,0.13005608,0.1300561,0.20351616,101.00073,101.00073,2.0000644,0.0,0.0,0.0,0.0,0.0,0.0,0.0,12.732958,0.0,0.0,0.0,0.0,0.0,0.0075000008,0.0075000003,0.0075000008,1.0004604,1.0004604,1.0,0.0,0.0,0.0,0.0,0.0,0.0
5500000,5348000,0.13005608,0.1300561,0.20351616,101.00073,101.00073,2.0000644,0.0,0.0,0.0,0.0,0.0,0.0,0.0,12.732958,0.0,0.0,0.0,0.0,0.0,0.0075000008,0.0075000003,0.007500001,1.0004612,1.0004612,1.0,0.0,0.0,0.0,0.0,0.0,0.0
5508000,5356000,0.13005608,0.1300561,0.20351616,101.00073,101.00073,2.0000644,0.0,0.0,0.0,0.0,0.0,0.0,0.0,12.732958,0.0,0.0,0.0,0.0,0.0,0.0075000008,0.0075000003,0.007500001,1.0004616,1.0004617,1.0,0.0,0.0,0.0,0.0,0.0,0.0
5516000,5364000,0.13005608,0.1300561,0.20351616,101.00073,101.00073,2.0000644,0.0,0.0,0.0,0.0,0.0,0.0,0.0,12.732958,0.0,0.0,0.0,0.0,0.0,0.0075000008,0.0075000003,0.007500001,1.000462,1.000462,1.0,0.0,0.0,0.0,0.0,0.0,0.0
5524000,5372000,0.13005608,0.1300561,0.20351616,101.00073,101.00073,2.0000644,0.0,0.0,0.0,0.0,0.0,0.0,0.0,12.732958,0.0,0.0,0.0,0.0,0.0,0.0075000008,0.0075000003,0.007500001,1.0004624,1.0004625,1.0,0.0,0.0,0.0,0.0,0.0,0.0
5540000,5388000,0.13005608,0.1300561,0.20351616,101.00073,101.00073,2.0000644,0.0,0.0,0.0,0.0,0.0,0.0,0.0,12.732958,0.0,0.0,0.0,0.0,0.0,0.0075000008,0.0075000003,0.007500001,1.0004574,1.0004574,1.0,0.0,0.0,0.0,0.0,0.0,0.0
5548000,5396000,0.13005608,0.1300561,0.20351616,101.00073,101.00073,2.0000644,0.0,0.0,0.0,0.0,0.0,0.0,0.0,12.732958,0.0,0.0,0.0,0.0,0.0,0.0075000008,0.0075000003,0.007500001,1.0004573,1.0004574,1.0,0.0,0.0,0.0,0.0,0.0,0.0
5556000,5404000,0.13005608,0.1300561,0.20351616,101.00073,101.00073,2.0000644,0.0,0.0,0.0,0.0,0.0,0.0,0.0,12.716115,0.0,0.0,0.0,0.0,0.0,0.0075000008,0.0075000003,0.007500001,1.0004576,1.0004578,1.0,0.0,0.0,0.0,0.0,0.0,0.0
5564000,5412000,0.13005608,0.1300561,0.20351616,101.00073,101.00073,2.0000644,0.0,0.0,0.0,0.0,0.0,0.0,0.0,12.716115,0.0,0.0,0.0,0.0,0.0,0.0075000008,0.0075000003,0.007500001,1.000458,1.000458,1.0,0.0,0.0,0.0,0.0,0.0,0.0
5580000,5428000,0.13005608,0.1300561,0.20351616,101.00073,101.00073,2.0000644,0.0,0.0,0.0,0.0,0.0,0.0,0.0,12.716115,0.0,0.0,0.0,0.0,0.0,0.0075000003,0.0075000008,0.0075,1.0004587,1.0004587,1.0,0.0,0.0,0.0,0.0,0.0,0.0
5588000,5436000,0.13005608,0.1300561,0.20351616,101.00073,101.00073,2.0000644,0.0,0.0,0.0,0.0,0.0,0.0,0.0,12.716115,0.0,0.0,0.0,0.0,0.0,0.0075000003,0.0075000008,0.0075,1.0004591,1.0004592,1.0,0.0,0.0,0.0,0.0,0.0,0.0
5596000,5444000,0.13005608,0.1300561,0.20351616,101.00073,101.00073,2.0000644,0.0,0.0,0.0,0.0,0.0,0.0,0.0,12.716115,0.0,0.0,0.0,0.0,0.0,0.0075000003,0.0075000008,0.0075,1.0004594,1.0004596,1.0,0.0,0.0,0.0,0.0,0.0,0.0
5604000,5452000,0.13005608,0.1300561,0.20351616,101.00073,101.00073,2.0000644,0.0,0.0,0.0,0.0,0.0,0.0,0.0,12.716115,0.0,0.0,0.0,0.0,0.0,0.0075000003,0.0075000008,0.0075,1.0004593,1.0004594,1.0,0.0,0.0,0.0,0.0,0.0,0.0
5620000,5468000,0.13005608,0.1300561,0.20351616,101.00073,101.00073,2.0000644,0.0,0.0,0.0,0.0,0.0,0.0,0.0,12.716115,0.0,0.0,0.0,0.0,0.0,0.0075000003,0.0075000008,0.0075,1.0004601,1.0004601,1.0,0.0,0.0,0.0,0.0,0.0,0.0
5628000,5476000,0.13005608,0.1300561,0.20351616,101.00073,101.00073,2.0000644,0.0,0.0,0.0,0.0,0.0,0.0,0.0,12.700597,0.0,0.0,0.0,0.0,0.0,0.0075000003,0.0075000008,0.0075,1.0004605,1.0004605,1.0,0.0,0.0,0.0,0.0,0.0,0.0
5636000,5484000,0.13005608,0.1300561,0.20351616,101.00073,101.00073,2.0000644,0.0,0.0,0.0,0.0,0.0,0.0,0.0,12.700597,0.0,0.0,0.0,0.0,0.0,0.0075000008,0.0075,0.0075,1.0004609,1.000461,1.0,0.0,0.0,0.0,0.0,0.0,0.0
5644000,5492000,0.13005608,0.1300561,0.20351616,101.00073,101.00073,2.0000644,0.0,0.0,0.0,0.0,0.0,0.0,0.0,12.700597,0.0,0.0,0.0,0.0,0.0,0.0075000008,0.0075,0.0075,1.0004612,1.0004613,1.0,0.0,0.0,0.0,0.0,0.0,0.0
5660000,5508000,0.094029866,0.09402992,0.20491742,1.0002271,1.0002271,1.4301369,0.0,0.0,0.0,0.0,0.0,0.0,0.0,12.700597,0.0,0.0,0.0,0.0,0.0,0.0075000008,0.0075,0.0075,1.000462,1.000462,1.0,0.0,0.0,0.0,0.0,0.0,0.0
5668000,5516000,0.094029866,0.09402992,0.20491742,1.0002271,1.0002271,1.4301369,0.0,0.0,0.0,0.0,0.0,0.0,0.0,12.700597,0.0,0.0,0.0,0.0,0.0,0.0075000008,0.0075,0.0075,1.0004624,1.0004625,1.0,0.0,0.0,0.0,0.0,0.0,0.0
5676000,5524000,0.094029866,0.09402992,0.20491742,1.0002271,1.0002271,1.4301369,0.0,0.0,0.0,0.0,0.0,0.0,0.0,12.700597,0.0,0.0,0.0,0.0,0.0,0.0075000008,0.0075,0.0075,1.0004629,1.0004629,1.0,0.0,0.0,0.0,0.0,0.0,0.0
5684000,5532000,0.094029866,0.09402992,0.20491742,1.0002271,1.0002271,1.4301369,0.0,0.0,0.0,0.0,0.0,0.0,0.0,12.700597,0.0,0.0,0.0,0.0,0.0,0.0075000008,0.0075,0.0075,1.0004632,1.0004634,1.0,0.0,0.0,0.0,0.0,0.0,0.0
5700000,5548000,0.094029866,0.09402992,0.20491742,1.0002271,1.0002271,1.4301369,0.0,0.0,0.0,0.0,0.0,0.0,0.0,12.556897,0.0,0.0,0.0,0.0,0.0,0.0075000008,0.0075,0.0075,1.0004641,1.0004642,1.0,0.0,0.0,0.0,0.0,0.0,0.0
5708000,5556000,0.094029866,0.09402992,0.20491742,1.0002271,1.0002271,1.4301369,0.0,0.0,0.0,0.0,0.0,0.0,0.0,12.556897,0.0,0.0,0.0,0.0,0.0,0.0075000003,0.0075000008,0.0075000003,1.0004646,1.0004646,1.0,0.0,0.0,0.0,0.0,0.0,0.0
5716000,5564000,0.094029866,0.09402992,0.20491742,1.0002271,1.0002271,1.4301369,0.0,0.0,0.0,0.0,0.0,0.0,0.0,12.556897,0.0,0.0,0.0,0.0,0.0,0.0075000003,0.0075000008,0.0075000003,1.0004649,1.000465,1.0,0.0,0.0,0.0,0.0,0.0,0.0
5724000,5572000,0.094029866,0.09402992,0.20491742,1.0002271,1.0002271,1.4301369,0.0,0.0,0.0,0.0,0.0,0.0,0.0,12.556897,0.0,0.0,0.0,0.0,0.0,0.0075000003,0.0075000008,0.0075000003,1.0004654,1.0004654,1.0,0.0,0.0,0.0,0.0,0.0,0.0
5740000,5588000,0.094029866,0.09402992,0.20491742,1.0002271,1.0002271,1.4301369,0.0,0.0,0.0,0.0,0.0,0.0,0.0,12.556897,0.0,0.0,0.0,0.0,0.0,0.0075000003,0.0075000008,0.0075000003,1.0004601,1.0004601,1.0,0.0,0.0,0.0,0.0,0.0,0.0
5748000,5596000,0.094029866,0.09402992,0.20491742,1.0002271,1.0002271,1.4301369,0.0,0.0,0.0,0.0,0.0,0.0,0.0,12.556897,0.0,0.0,0.0,0.0,0.0,0.0075000003,0.0075000008,0.0075000003,1.0004605,1.0004605,1.0,0.0,0.0,0.0,0.0,0.0,0.0
5756000,5604000,0.094029866,0.09402992,0.20491742,1.0002271,1.0002271,1.4301369,0.0,0.0,0.0,0.0,0.0,0.0,0.0,12.556897,0.0,0.0,0.0,0.0,0.0,0.0075000003,0.0075000008,0.0075000003,1.0004585,1.0004586,1.0,0.0,0.0,0.0,0.0,0.0,0.0
5764000,5612000,0.094029866,0.09402992,0.20491742,1.0002271,1.0002271,1.4301369,0.0,0.0,0.0,0.0,0.0,0.0,0.0,12.556897,0.0,0.0,0.0,0.0,0.0,0.0075000003,0.0075000008,0.0075000003,1.0004588,1.000459,1.0,0.0,0.0,0.0,0.0,0.0,0.0
5780000,5628000,0.094029866,0.09402992,0.20491742,1.0002271,1.0002271,1.4301369,0.0,0.0,0.0,0.0,0.0,0.0,0.0,12.551018,0.0,0.0,0.0,0.0,0.0,0.0075000008,0.0075000003,0.0075000008,1.0004596,1.0004597,1.0,0.0,0.0,0.0,0.0,0.0,0.0
5788000,5636000,0.094029866,0.09402992,0.20491742,1.0002271,1.0002271,1.4301369,0.0,0.0,0.0,0.0,0.0,0.0,0.0,12.551018,0.0,0.0,0.0,0.0,0.0,0.0075000008,0.0075000003,0.0075000008,1.0004599,1.00046,1.0,0.0,0.0,0.0,0.0,0.0,0.0
5796000,5644000,0.094029866,0.09402992,0.20491742,1.0002271,1.0002271,1.4301369,0.0,0.0,0.0,0.0,0.0,0.0,0.0,12.551018,0.0,0.0,0.0,0.0,0.0,0.0075000008,0.0075000003,0.0075000008,1.0004603,1.0004604,1.0,0.0,0.0,0.0,0.0,0.0,0.0
5804000,5652000,0.094029866,0.09402992,0.20491742,1.0002271,1.0002271,1.4301369,0.0,0.0,0.0,0.0,0.0,0.0,0.0,12.551018,0.0,0.0,0.0,0.0,0.0,0.0075000008,0.0075000003,0.0075000008,1.0004606,1.0004607,1.0,0.0,0.0,0.0,0.0,0.0,0.0
5820000,5668000,0.094029866,0.09402992,0.20491742,1.0002271,1.0002271,1.4301369,0.0,0.0,0.0,0.0,0.0,0.0,0.0,12.551018,0.0,0.0,0.0,0.0,0.0,0.0075000008,0.0075000003,0.0075000008,1.0004603,1.0004604,1.0,0.0,0.0,0.0,0.0,0.0,0.0
5828000,5676000,0.094029866,0.09402992,0.20491742,1.0002271,1.0002271,1.4301369,0.0,0.0,0.0,0.0,0.0,0.0,0.0,12.551018,0.0,0.0,0.0,0.0,0.0,0.0075000008,0.0075000003,0.0075000008,1.0004606,1.0004607,1.0,0.0,0.0,0.0,0.0,0.0,0.0
5836000,5684000,0.094029866,0.09402992,0.20491742,1.0002271,1.0002271,1.4301369,0.0,0.0,0.0,0.0,0.0,0.0,0.0,12.551018,0.0,0.0,0.0,0.0,0.0,0.0075000008,0.0075000003,0.0075000008,1.0004611,1.0004611,1.0,0.0,0.0,0.0,0.0,0.0,0.0
5844000,5692000,0.094029866,0.09402992,0.20491742,1.0002271,1.0002271,1.4301369,0.0,0.0,0.0,0.0,0.0,0.0,0.0,12.545473,0.0,0.0,0.0,0.0,0.0,0.0075000008,0.0075000003,0.0075000008,1.0004615,1.0004615,1.0,0.0,0.0,0.0,0.0,0.0,0.0
5860000,5708000,0.094029866,0.09402992,0.20491742,1.0002271,1.0002271,1.4301369,0.0,0.0,0.0,0.0,0.0,0.0,0.0,12.545473,0.0,0.0,0.0,0.0,0.0,0.0025000002,0.0025000002,0.0025000002,1.0004617,1.0004616,1.0,0.0,0.0,0.0,0.0,0.0,0.0
5868000,5716000,0.094029866,0.09402992,0.20491742,1.0002271,1.0002271,1.4301369,0.0,0.0,0.0,0.0,0.0,0.0,0.0,12.545473,0.0,0.0,0.0,0.0,0.0,0.0025000002,0.0025000002,0.0025000002,1.0004615,1.0004615,1.0,0.0,0.0,0.0,0.0,0.0,0.0
5876000,5724000,0.094029866,0.09402992,0.20491742,1.0002271,1.0002271,1.4301369,0.0,0.0,0.0,0.0,0.0,0.0,0.0,12.545473,0.0,0.0,0.0,0.0,0.0,0.0025000002,0.0025000002,0.0025000002,1.0004612,1.0004612,1.0,0.0,0.0,0.0,0.0,0.0,0.0
5884000,5732000,0.094029866,0.09402992,0.20491742,1.0002271,1.0002271,1.4301369,0.0,0.0,0.0,0.0,0.0,0.0,0.0,12.545473,0.0,0.0,0.0,0.0,0.0,0.0025000002,0.0025000002,0.0025000002,1.0004611,1.000461,1.0,0.0,0.0,0.0,0.0,0.0,0.0
5900000,5748000,0.094029866,0.09402992,0.20491742,1.0002271,1.0002271,1.4301369,0.0,0.0,0.0,0.0,0.0,0.0,0.0,12.545473,0.0,0.0,0.0,0.0,0.0,0.0025000002,0.0025000002,0.0025000002,1.0004607,1.0004606,1.0,0.0,0.0,0.0,0.0,0.0,0.0
5908000,5756000,0.094029866,0.09402992,0.20491742,1.0002271,1.0002271,1.4301369,0.0,0.0,0.0,0.0,0.0,0.0,0.0,12.545473,0.0,0.0,0.0,0.0,0.0,0.0025000002,0.0025000002,0.0025000002,1.0004605,1.0004605,1.0,0.0,0.0,0.0,0.0,0.0,0.0
5916000,5764000,0.094029866,0.09402992,0.20491742,1.0002271,1.0002271,1.4301369,0.0,0.0,0.0,0.0,0.0,0.0,0.0,12.540293,0.0,0.0,0.0,0.0,0.0,0.0025000002,0.0025000002,0.0025000002,1.0004604,1.0004603,1.0,0.0,0.0,0.0,0.0,0.0,0.0
5924000,5772000,0.094029866,0.09402992,0.20491742,1.0002271,1.0002271,1.4301369,0.0,0.0,0.0,0.0,0.0,0.0,0.0,12.540293,0.0,0.0,0.0,0.0,0.011847225,0.011847225,0.0075904657,0.0075217895,1.0004601,1.0004601,1.0,0.0,0.0,0.0,0.0,0.0,0.0
5940000,5788000,0.094029866,0.09402992,0.20491742,1.0002271,1.0002271,1.4301369,0.0,0.0,0.0,0.0,0.0,0.0,0.0,12.540293,0.0,0.0,0.0,0.0,0.011847225,0.011847225,0.0075904657,0.0075217895,1.0004547,1.0004547,1.0,0.0,0.0,0.0,0.0,0.0,0.0
5948000,5796000,0.094029866,0.09402992,0.20491742,1.0002271,1.0002271,1.4301369,0.0,0.0,0.0,0.0,0.0,0.0,0.0,12.540293,0.0,0.0,0.0,0.0,0.011847225,0.011847225,0.0075904657,0.0075217895,1.0004545,1.0004544,1.0,0.0,0.0,0.0,0.0,0.0,0.0
5956000,5804000,0.094029866,0.09402992,0.20491742,1.0002271,1.0002271,1.4301369,0.0,0.0,0.0,0.0,0.0,0.0,0.0,12.540293,0.0,0.0,0.0,0.0,0.011847225,0.011847225,0.0075904657,0.0075217895,1.0004544,1.0004543,1.0,0.0,0.0,0.0,0.0,0.0,0.0
5964000,5812000,0.094029866,0.09402992,0.20491742,1.0002271,1.0002271,1.4301369,0.0,0.0,0.0,0.0,0.0,0.0,0.0,12.540293,0.0,0.0,0.0,0.0,0.011847225,0.011847225,0.0075904657,0.0075217895,1.0004392,1.0004393,1.0,0.0,0.0,0.0,0.0,0.0,0.0
5980000,5828000,0.094029866,0.09402992,0.20491742,1.0002271,1.0002271,1.4301369,0.0,0.0,0.0,0.0,0.0,0.0,0.0,12.540293,0.0,0.0,0.0,0.0,0.011847225,0.011847225,0.0075904657,0.0075217895,1.0004388,1.0004389,1.0,0.0,0.0,0.0,0.0,0.0,0.0
5988000,5836000,0.094029866,0.09402992,0.20491742,1.0002271,1.0002271,1.4301369,0.0,0.0,0.0,0.0,0.0,0.0,0.0,12.535437,0.0,0.0,0.0,0.0,0.011847225,0.011847225,0.0075904657,0.0075217895,1.0004387,1.0004388,1.0,0.0,0.0,0.0,0.0,0.0,0.0
5996000,5844000,0.094029866,0.09402992,0.20491742,1.0002271,1.0002271,1.4301369,0.0,0.0,0.0,0.0,0.0,0.0,0.0,12.535437,0.0,0.0,0.0,0.0,0.0044551897,0.0044551897,0.0041775387,0.0041690264,1.0004386,1.0004387,1.0,0.0,0.0,0.0,0.0,0.0,0.0
6004000,5852000,0.094029866,0.09402992,0.20491742,1.0002271,1.0002271,1.4301369,0.0,0.0,0.0,0.0,0.0,0.0,0.0,12.535437,0.0,0.0,0.0,0.0,0.0044551897,0.0044551897,0.0041775387,0.0041690264,1.0004385,1.0004386,1.0,0.0,0.0,0.0,0.0,0.0,0.0
6020000,5868000,0.094029866,0.09402992,0.20491742,1.0002271,1.0002271,1.4301369,0.0,0.0,0.0,0.0,0.0,0.0,0.0,12.535437,0.0,0.0,0.0,0.0,0.0044551897,0.0044551897,0.0041775387,0.0041690264,1.0004166,1.000417,1.0,0.0,0.0,0.0,0.0,0.0,0.0
6028000,5876000,0.094029866,0.09402992,0.20491742,1.0002271,1.0002271,1.4301369,0.0,0.0,0.0,0.0,0.0,0.0,0.0,12.535437,0.0,0.0,0.0,0.0,0.0044551897,0.0044551897,0.0041775387,0.0041690264,1.0004165,1.0004169,1.0,0.0,0.0,0.0,0.0,0.0,0.0
6036000,5884000,0.094029866,0.09402992,0.20491742,1.0002271,1.0002271,1.4301369,0.0,0.0,0.0,0.0,0.0,0.0,0.0,12.535437,0.0,0.0,0.0,0.0,0.0044551897,0.0044551897,0.0041775387,0.0041690264,1.0004164,1.0004168,1.0,0.0,0.0,0.0,0.0,0.0,0.0
6044000,5892000,0.094029866,0.09402992,0.20491742,1.0002271,1.0002271,1.4301369,0.0,0.0,0.0,0.0,0.0,0.0,0.0,12.535437,0.0,0.0,0.0,0.0,0.0044551897,0.0044551897,0.0041775387,0.0041690264,1.0004163,1.0004166,1.0,0.0,0.0,0.0,0.0,0.0,0.0
6060000,5908000,0.09434299,0.09434427,0.20639448,1.0001425,1.0001425,1.2628956,0.0,0.0,0.0,0.0,0.0,0.0,0.0,12.53079,0.0,0.0,0.0,0.0,0.0044551897,0.0044551897,0.0041775387,0.0041690264,1.0004022,1.0004026,1.0,0.0,0.0,0.0,0.0,0.0,0.0
6068000,5916000,0.09434299,0.09434427,0.20639448,1.0001425,1.0001425,1.2628956,0.0,0.0,0.0,0.0,0.0,0.0,0.0,12.53079,0.0,0.0,0.0,0.0,0.0035956698,0.0035956698,0.0035039606,0.0035008402,1.0004022,1.0004026,1.0,0.0,0.0,0.0,0.0,0.0,0.0
6076000,5924000,0.09434299,0.09434427,0.20639448,1.0001425,1.0001425,1.2628956,0.0,0.0,0.0,0.0,0.0,0.0,0.0,12.53079,0.0,0.0,0.0,0.0,0.0035956698,0.0035956698,0.0035039606,0.0035008402,1.0004022,1.0004027,1.0,0.0,0.0,0.0,0.0,0.0,0.0
6084000,5932000,0.09434299,0.09434427,0.20639448,1.0001425,1.0001425,1.2628956,0.0,0.0,0.0,0.0,0.0,0.0,0.0,12.53079,0.0,0.0,0.0,0.0,0.0035956698,0.0035956698,0.0035039606,0.0035008402,1.0004023,1.0004027,1.0,0.0,0.0,0.0,0.0,0.0,0.0
6100000,5948000,0.09434299,0.09434427,0.20639448,1.0001425,1.0001425,1.2628956,0.0,0.0,0.0,0.0,0.0,0.0,0.0,12.53079,0.0,0.0,0.0,0.0,0.0035956698,0.0035956698,0.0035039606,0.0035008402,1.0004025,1.0004028,1.0,0.0,0.0,0.0,0.0,0.0,0.0
6108000,5956000,0.09434299,0.09434427,0.20639448,1.0001425,1.0001425,1.2628956,0.0,0.0,0.0,0.0,0.0,0.0,0.0,12.53079,0.0,0.0,0.0,0.0,0.0035956698,0.0035956698,0.0035039606,0.0035008402,1.0004025,1.0004029,1.0,0.0,0.0,0.0,0.0,0.0,0.0
6116000,5964000,0.09434299,0.09434427,0.20639448,1.0001425,1.0001425,1.2628956,0.0,0.0,0.0,0.0,0.0,0.0,0.0,12.471405,0.0,0.0,0.0,0.0,0.0035956698,0.0035956698,0.0035039606,0.0035008402,1.0004026,1.0004029,1.0,0.0,0.0,0.0,0.0,0.0,0.0
6124000,5972000,0.09434299,0.09434427,0.20639448,1.0001425,1.0001425,1.2628956,0.0,0.0,0.0,0.0,0.0,0.0,0.0,12.471405,0.0,0.0,0.0,0.0,0.0035956698,0.0035956698,0.0035039606,0.0035008402,1.0004027,1.000403,1.0,0.0,0.0,0.0,0.0,0.0,0.0
6140000,5988000,0.09434299,0.09434427,0.20639448,1.0001425,1.0001425,1.2628956,0.0,0.0,0.0,0.0,0.0,0.0,0.0,12.471405,0.0,0.0,0.0,0.0,0.00326083,0.00326083,0.0032164117,0.003214751,1.0004002,1.0004005,1.0,0.0,0.0,0.0,0.0,0.0,0.0
6148000,5996000,0.09434299,0.09434427,0.20639448,1.0001425,1.0001425,1.2628956,0.0,0.0,0.0,0.0,0.0,0.0,0.0,12.471405,0.0,0.0,0.0,0.0,0.00326083,0.00326083,0.0032164117,0.003214751,1.0004002,1.0004007,1.0,0.0,0.0,0.0,0.0,0.0,0.0
6156000,6004000,0.09434299,0.09434427,0.20639448,1.0001425,1.0001425,1.2628956,0.0,0.0,0.0,0.0,0.0,0.0,0.0,12.471405,0.0,0.0,0.0,0.0,0.00326083,0.00326083,0.0032164117,0.003214751,1.0004003,1.0004007,1.0,0.0,0.0,0.0,0.0,0.0,0.0
6164000,6012000,0.09434299,0.09434427,0.20639448,1.0001425,1.0001425,1.2628956,0.0,0.0,0.0,0.0,0.0,0.0,0.0,12.471405,0.0,0.0,0.0,0.0,0.00326083,0.00326083,0.0032164117,0.003214751,1.0004004,1.0004008,1.0,0.0,0.0,0.0,0.0,0.0,0.0
6180000,6028000,0.09434299,0.09434427,0.20639448,1.0001425,1.0001425,1.2628956,0.0,0.0,0.0,0.0,0.0,0.0,0.0,12.46922,0.0,0.0,0.0,0.0,0.00326083,0.00326083,0.0032164117,0.003214751,1.0004005,1.000401,1.0,0.0,0.0,0.0,0.0,0.0,0.0
6188000,6036000,0.09434299,0.09434427,0.20639448,1.0001425,1.0001425,1.2628956,0.0,0.0,0.0,0.0,0.0,0.0,0.0,12.46922,0.0,0.0,0.0,0.0,0.00326083,0.00326083,0.0032164117,0.003214751,1.0004007,1.000401,1.0,0.0,0.0,0.0,0.0,0.0,0.0
6196000,6044000,0.09434299,0.09434427,0.20639448,1.0001425,1.0001425,1.2628956,0.0,0.0,0.0,0.0,0.0,0.0,0.0,12.46922,0.0,0.0,0.0,0.0,0.00326083,0.00326083,0.0032164117,0.003214751,1.0004008,1.0004011,1.0,0.0,0.0,0.0,0.0,0.0,0.0
6204000,6052000,0.09434299,0.09434427,0.20639448,1.0001425,1.0001425,1.2628956,0.0,0.0,0.0,0.0,0.0,0.0,0.0,12.46922,0.0,0.0,0.0,0.0,0.00326083,0.00326083,0.0032164117,0.003214751,1.0004009,1.0004013,1.0,0.0,0.0,0.0,0.0,0.0,0.0
6220000,6068000,0.09434299,0.09434427,0.20639448,1.0001425,1.0001425,1.2628956,0.0,0.0,0.0,0.0,0.0,0.0,0.0,12.46922,0.0,0.0,0.0,0.0,0.0030825264,0.0030825264,0.0030570033,0.0030558754,1.000401,1.0004015,1.0,0.0,0.0,0.0,0.0,0.0,0.0
6228000,6076000,0.09434299,0.09434427,0.20639448,1.0001425,1.0001425,1.2628956,0.0,0.0,0.0,0.0,0.0,0.0,0.0,12.46922,0.0,0.0,0.0,0.0,0.0030825264,0.0030825264,0.0030570033,0.0030558754,1.0004011,1.0004016,1.0,0.0,0.0,0.0,0.0,0.0,0.0
6236000,6084000,0.09434299,0.09434427,0.20639448,1.0001425,1.0001425,1.2628956,0.0,0.0,0.0,0.0,0.0,0.0,0.0,12.46922,0.0,0.0,0.0,0.0,0.0030825264,0.0030825264,0.0030570033,0.0030558754,1.0004013,1.0004016,1.0,0.0,0.0,0.0,0.0,0.0,0.0
6244000,6092000,0.09434299,0.09434427,0.20639448,1.0001425,1.0001425,1.2628956,0.0,0.0,0.0,0.0,0.0,0.0,0.0,12.46922,0.0,0.0,0.0,0.0,0.0030825264,0.0030825264,0.0030570033,0.0030558754,1.0004014,1.0004017,1.0,0.0,0.0,0.0,0.0,0.0,0.0
6260000,6108000,0.09434299,0.09434427,0.20639448,1.0001425,1.0001425,1.2628956,0.0,0.0,0.0,0.0,0.0,0.0,0.0,12.467352,0.0,0.0,0.0,0.0,0.0030825264,0.0030825264,0.0030570033,0.0030558754,1.0004016,1.000402,1.0,0.0,0.0,0.0,0.0,0.0,0.0
6268000,6116000,0.09434299,0.09434427,0.20639448,1.0001425,1.0001425,1.2628956,0.0,0.0,0.0,0.0,0.0,0.0,0.0,12.467352,0.0,0.0,0.0,0.0,0.0030825264,0.0030825264,0.0030570033,0.0030558754,1.0004017,1.0004021,1.0,0.0,0.0,0.0,0.0,0.0,0.0
6276000,6124000,0.09434299,0.09434427,0.20639448,1.0001425,1.0001425,1.2628956,0.0,0.0,0.0,0.0,0.0,0.0,0.0,12.467352,0.0,0.0,0.0,0.0,0.0030825264,0.0030825264,0.0030570033,0.0030558754,1.0004019,1.0004022,1.0,0.0,0.0,0.0,0.0,0.0,0.0
6284000,6132000,0.09434299,0.09434427,0.20639448,1.0001425,1.0001425,1.2628956,0.0,0.0,0.0,0.0,0.0,0.0,0.0,12.467352,0.0,0.0,0.0,0.0,0.0029718992,0.0029718992,0.0029556712,0.0029548006,1.000402,1.0004023,1.0,0.0,0.0,0.0,0.0,0.0,0.0
6300000,6148000,0.09434299,0.09434427,0.20639448,1.0001425,1.0001425,1.2628956,0.0,0.0,0.0,0.0,0.0,0.0,0.0,12.467352,0.0,0.0,0.0,0.0,0.0029718992,0.0029718992,0.0029556712,0.0029548006,1.0004022,1.0004027,1.0,0.0,0.0,0.0,0.0,0.0,0.0
6308000,6156000,0.09434299,0.09434427,0.20639448,1.0001425,1.0001425,1.2628956,0.0,0.0,0.0,0.0,0.0,0.0,0.0,12.467352,0.0,0.0,0.0,0.0,0.0029718992,0.0029718992,0.0029556712,0.0029548006,1.0004023,1.0004028,1.0,0.0,0.0,0.0,0.0,0.0,0.0
6316000,6164000,0.09434299,0.09434427,0.20639448,1.0001425,1.0001425,1.2628956,0.0,0.0,0.0,0.0,0.0,0.0,0.0,12.467352,0.0,0.0,0.0,0.0,0.0029718992,0.0029718992,0.0029556712,0.0029548006,1.0004026,1.0004029,1.0,0.0,0.0,0.0,0.0,0.0,0.0
6324000,6172000,0.09434299,0.09434427,0.20639448,1.0001425,1.0001425,1.2628956,0.0,0.0,0.0,0.0,0.0,0.0,0.0,12.465638,0.0,0.0,0.0,0.0,0.0029718992,0.0029718992,0.0029556712,0.0029548006,1.0004027,1.000403,1.0,0.0,0.0,0.0,0.0,0.0,0.0
6340000,6188000,0.09434299,0.09434427,0.20639448,1.0001425,1.0001425,1.2628956,0.0,0.0,0.0,0.0,0.0,0.0,0.0,12.465638,0.0,0.0,0.0,0.0,0.0029718992,0.0029718992,0.0029556712,0.0029548006,1.0004005,1.000401,1.0,0.0,0.0,0.0,0.0,0.0,0.0
6348000,6196000,0.09434299,0.09434427,0.20639448,1.0001425,1.0001425,1.2628956,0.0,0.0,0.0,0.0,0.0,0.0,0.0,12.465638,0.0,0.0,0.0,0.0,0.0029718992,0.0029718992,0.0029556712,0.0029548006,1.0004007,1.0004011,1.0,0.0,0.0,0.0,0.0,0.0,0.0
6356000,6204000,0.09434299,0.09434427,0.20639448,1.0001425,1.0001425,1.2628956,0.0,0.0,0.0,0.0,0.0,0.0,0.0,12.465638,0.0,0.0,0.0,0.0,0.002896885,0.002896885,0.0028855796,0.0028848415,1.0004009,1.0004013,1.0,0.0,0.0,0.0,0.0,0.0,0.0
6364000,6212000,0.09434299,0.09434427,0.20639448,1.0001425,1.0001425,1.2628956,0.0,0.0,0.0,0.0,0.0,0.0,0.0,12.465638,0.0,0.0,0.0,0.0,0.002896885,0.002896885,0.0028855796,0.0028848415,1.000401,1.0004014,1.0,0.0,0.0,0.0,0.0,0.0,0.0
6380000,6228000,0.09434299,0.09434427,0.20639448,1.0001425,1.0001425,1.2628956,0.0,0.0,0.0,0.0,0.0,0.0,0.0,12.465638,0.0,0.0,0.0,0.0,0.002896885,0.002896885,0.0028855796,0.0028848415,1.0004013,1.0004017,1.0,0.0,0.0,0.0,0.0,0.0,0.0
6388000,6236000,0.09434299,0.09434427,0.20639448,1.0001425,1.0001425,1.2628956,0.0,0.0,0.0,0.0,0.0,0.0,0.0,12.465638,0.0,0.0,0.0,0.0,0.002896885,0.002896885,0.0028855796,0.0028848415,1.0004015,1.0004019,1.0,0.0,0.0,0.0,0.0,0.0,0.0
6396000,6244000,0.09434299,0.09434427,0.20639448,1.0001425,1.0001425,1.2628956,0.0,0.0,0.0,0.0,0.0,0.0,0.0,12.464079,0.0,0.0,0.0,0.0,0.002896885,0.002896885,0.0028855796,0.0028848415,1.0004016,1.000402,1.0,0.0,0.0,0.0,0.0,0.0,0.0
6404000,6252000,0.09434299,0.09434427,0.20639448,1.0001425,1.0001425,1.2628956,0.0,0.0,0.0,0.0,0.0,0.0,0.0,12.464079,0.0,0.0,0.0,0.0,0.002896885,0.002896885,0.0028855796,0.0028848415,1.0004017,1.0004022,1.0,0.0,0.0,0.0,0.0,0.0,0.0
6420000,6268000,0.09434299,0.09434427,0.20639448,1.0001425,1.0001425,1.2628956,0.0,0.0,0.0,0.0,0.0,0.0,0.0,12.464079,0.0,0.0,0.0,0.0,0.002896885,0.002896885,0.0028855796,0.0028848415,1.0004021,1.0004025,1.0,0.0,0.0,0.0,0.0,0.0,0.0
6428000,6276000,0.09434299,0.09434427,0.20639448,1.0001425,1.0001425,1.2628956,0.0,0.0,0.0,0.0,0.0,0.0,0.0,12.464079,0.0,0.0,0.0,0.0,0.0028427292,0.0028427292,0.0028342446,0.002833556,1.0004022,1.0004027,1.0,0.0,0.0,0.0,0.0,0.0,0.0
6436000,6284000,0.09434299,0.09434427,0.20639448,1.0001425,1.0001425,1.2628956,0.0,0.0,0.0,0.0,0.0,0.0,0.0,12.464079,0.0,0.0,0.0,0.0,0.0028427292,0.0028427292,0.0028342446,0.002833556,1.0004025,1.0004028,1.0,0.0,0.0,0.0,0.0,0.0,0.0
6444000,6292000,0.09434299,0.09434427,0.20639448,1.0001425,1.0001425,1.2628956,0.0,0.0,0.0,0.0,0.0,0.0,0.0,12.464079,0.0,0.0,0.0,0.0,0.0028427292,0.0028427292,0.0028342446,0.002833556,1.0004026,1.000403,1.0,0.0,0.0,0.0,0.0,0.0,0.0
6460000,6308000,0.09434299,0.09434427,0.20639448,1.0001425,1.0001425,1.2628956,0.0,0.0,0.0,0.0,0.0,0.0,0.0,12.464079,0.0,0.0,0.0,0.0,0.0028427292,0.0028427292,0.0028342446,0.002833556,1.0004029,1.0004034,1.0,0.0,0.0,0.0,0.0,0.0,0.0
6468000,6316000,0.11847461,0.11850656,0.20881593,1.0029366,1.0029407,1.190673,0.0,0.0,0.0,0.0,0.0,0.0,0.0,12.4626045,0.0,0.0,0.0,0.0,0.0028427292,0.0028427292,0.0028342446,0.002833556,1.0003167,1.0003176,1.0,0.0,0.0,0.0,0.0,0.0,0.0
6476000,6324000,0.11847461,0.11850656,0.20881593,1.0029366,1.0029407,1.190673,0.0,0.0,0.0,0.0,0.0,0.0,0.0,12.4626045,0.0,0.0,0.0,0.0,0.0028427292,0.0028427292,0.0028342446,0.002833556,1.0003169,1.0003177,1.0,0.0,0.0,0.0,0.0,0.0,0.0
6484000,6332000,0.11847461,0.11850656,0.20881593,1.0029366,1.0029407,1.190673,0.0,0.0,0.0,0.0,0.0,0.0,0.0,12.4626045,0.0,0.0,0.0,0.0,0.0028427292,0.0028427292,0.0028342446,0.002833556,1.000317,1.0003178,1.0,0.0,0.0,0.0,0.0,0.0,0.0
6500000,6348000,0.11847461,0.11850656,0.20881593,1.0029366,1.0029407,1.190673,0.0,0.0,0.0,0.0,0.0,0.0,0.0,12.4626045,0.0,0.0,0.0,0.0,0.0028013869,0.0028013869,0.002794958,0.002794326,1.0003172,1.000318,1.0,0.0,0.0,0.0,0.0,0.0,0.0
6508000,6356000,0.11847461,0.11850656,0.20881593,1.0029366,1.0029407,1.190673,0.0,0.0,0.0,0.0,0.0,0.0,0.0,12.4626045,0.0,0.0,0.0,0.0,0.0028013869,0.0028013869,0.002794958,0.002794326,1.0003173,1.0003183,1.0,0.0,0.0,0.0,0.0,0.0,0.0
6516000,6364000,0.11847461,0.11850656,0.20881593,1.0029366,1.0029407,1.190673,0.0,0.0,0.0,0.0,0.0,0.0,0.0,12.4626045,0.0,0.0,0.0,0.0,0.0028013869,0.0028013869,0.002794958,0.002794326,1.0003175,1.0003184,1.0,0.0,0.0,0.0,0.0,0.0,0.0
6524000,6372000,0.11847461,0.11850656,0.20881593,1.0029366,1.0029407,1.190673,0.0,0.0,0.0,0.0,0.0,0.0,0.0,12.4626045,0.0,0.0,0.0,0.0,0.0028013869,0.0028013869,0.002794958,0.002794326,1.0003177,1.0003185,1.0,0.0,0.0,0.0,0.0,0.0,0.0
6540000,6388000,0.11847461,0.11850656,0.20881593,1.0029366,1.0029407,1.190673,0.0,0.0,0.0,0.0,0.0,0.0,0.0,12.430717,0.0,0.0,0.0,0.0,0.0028013869,0.0028013869,0.002794958,0.002794326,1.0003163,1.0003172,1.0,0.0,0.0,0.0,0.0,0.0,0.0
6548000,6396000,0.11847461,0.11850656,0.20881593,1.0029366,1.0029407,1.190673,0.0,0.0,0.0,0.0,0.0,0.0,0.0,12.430717,0.0,0.0,0.0,0.0,0.0028013869,0.0028013869,0.002794958,0.002794326,1.0003165,1.0003173,1.0,0.0,0.0,0.0,0.0,0.0,0.0
6556000,6404000,0.11847461,0.11850656,0.20881593,1.0029366,1.0029407,1.190673,0.0,0.0,0.0,0.0,0.0,0.0,0.0,12.430717,0.0,0.0,0.0,0.0,0.0028013869,0.0028013869,0.002794958,0.002794326,1.0003166,1.0003175,1.0,0.0,0.0,0.0,0.0,0.0,0.0
6564000,6412000,0.11847461,0.11850656,0.20881593,1.0029366,1.0029407,1.190673,0.0,0.0,0.0,0.0,0.0,0.0,0.0,12.430717,0.0,0.0,0.0,0.0,0.0028013869,0.0028013869,0.002794958,0.002794326,1.0003167,1.0003176,1.0,0.0,0.0,0.0,0.0,0.0,0.0
6580000,6428000,0.11847461,0.11850656,0.20881593,1.0029366,1.0029407,1.190673,0.0,0.0,0.0,0.0,0.0,0.0,0.0,12.430717,0.0,0.0,0.0,0.0,0.0027690325,0.0027690325,0.002764,0.002763367,1.0003171,1.0003179,1.0,0.0,0.0,0.0,0.0,0.0,0.0
6588000,6436000,0.11847461,0.11850656,0.20881593,1.0029366,1.0029407,1.190673,0.0,0.0,0.0,0.0,0.0,0.0,0.0,12.430717,0.0,0.0,0.0,0.0,0.0027690325,0.0027690325,0.002764,0.002763367,1.0003172,1.000318,1.0,0.0,0.0,0.0,0.0,0.0,0.0
6596000,6444000,0.11847461,0.11850656,0.20881593,1.0029366,1.0029407,1.190673,0.0,0.0,0.0,0.0,0.0,0.0,0.0,12.430717,0.0,0.0,0.0,0.0,0.0027690325,0.0027690325,0.002764,0.002763367,1.0003173,1.0003183,1.0,0.0,0.0,0.0,0.0,0.0,0.0
