timestamp,timestamp_sample,q[0],q[1],q[2],q[3],delta_q_reset[0],delta_q_reset[1],delta_q_reset[2],delta_q_reset[3],quat_reset_counter
3888000,0,0.70711,7.217292e-05,7.245941e-05,0.70711005,0.0,0.0,0.0,0.0,0
3892000,0,0.70711,7.226111e-05,7.254759e-05,0.70711005,0.0,0.0,0.0,0.0,0
3900000,0,0.70711,7.243748e-05,7.272396e-05,0.70711005,0.0,0.0,0.0,0.0,0
3908000,0,0.70711,7.2613846e-05,7.290033e-05,0.70711005,0.0,0.0,0.0,0.0,0
3920000,0,0.70711,7.28784e-05,7.316488e-05,0.70711005,0.0,0.0,0.0,0.0,0
3928000,0,0.70711,7.305477e-05,7.334125e-05,0.70711005,0.0,0.0,0.0,0.0,0
3940000,0,0.70711,7.331932e-05,7.360581e-05,0.70711005,0.0,0.0,0.0,0.0,0
3948000,0,0.70711,7.349569e-05,7.378218e-05,0.70711005,0.0,0.0,0.0,0.0,0
3960000,0,0.70711,7.3760246e-05,7.404674e-05,0.70711005,0.0,0.0,0.0,0.0,0
3968000,0,0.70711,7.3936615e-05,7.4223106e-05,0.70711005,0.0,0.0,0.0,0.0,0
3980000,0,0.70711,7.420117e-05,7.448766e-05,0.70711005,0.0,0.0,0.0,0.0,0
3988000,0,0.70711,7.437754e-05,7.466403e-05,0.70711005,0.0,0.0,0.0,0.0,0
4000000,0,0.70711,7.46421e-05,7.492858e-05,0.70711005,0.0,0.0,0.0,0.0,0
4008000,0,0.70711,7.481847e-05,7.510495e-05,0.70711005,0.0,0.0,0.0,0.0,0
4020000,0,0.70711,7.508302e-05,7.5369506e-05,0.70711005,0.0,0.0,0.0,0.0,0
4028000,0,0.70711,7.525939e-05,7.5545875e-05,0.70711005,0.0,0.0,0.0,0.0,0
4040000,0,0.70711,7.5523945e-05,7.581043e-05,0.70711005,0.0,0.0,0.0,0.0,0
4048000,0,0.70711,7.5700314e-05,7.59868e-05,0.70711005,0.0,0.0,0.0,0.0,0
4060000,0,0.70711,7.596487e-05,7.625135e-05,0.70711005,0.0,0.0,0.0,0.0,0
4068000,0,0.70711,7.614124e-05,7.642773e-05,0.70711005,0.0,0.0,0.0,0.0,0
4080000,0,0.70711,7.640579e-05,7.669228e-05,0.70711005,0.0,0.0,0.0,0.0,0
4088000,0,0.70711,7.658216e-05,7.686865e-05,0.70711005,0.0,0.0,0.0,0.0,0
4100000,0,0.70711,7.684672e-05,7.7133205e-05,0.70711005,0.0,0.0,0.0,0.0,0
4108000,0,0.70711,7.702309e-05,7.7309574e-05,0.70711005,0.0,0.0,0.0,0.0,0
4120000,0,0.70711,7.7287645e-05,7.757413e-05,0.70711005,0.0,0.0,0.0,0.0,0
4128000,0,0.70711,7.7464014e-05,7.77505e-05,0.70711005,0.0,0.0,0.0,0.0,0
4140000,0,0.70711,7.772857e-05,7.801505e-05,0.70711005,0.0,0.0,0.0,0.0,0
4148000,0,0.70711,7.790494e-05,7.819142e-05,0.70711005,0.0,0.0,0.0,0.0,0
4160000,0,0.70711,7.816949e-05,7.845598e-05,0.70711005,0.0,0.0,0.0,0.0,0
4168000,0,0.70711,7.834587e-05,7.863235e-05,0.70711005,0.0,0.0,0.0,0.0,0
4180000,0,0.70711,7.861042e-05,7.8896905e-05,0.70711005,0.0,0.0,0.0,0.0,0
4188000,0,0.70711,7.878679e-05,7.9073274e-05,0.70711005,0.0,0.0,0.0,0.0,0
4200000,0,0.70711,7.9051344e-05,7.933783e-05,0.70711005,0.0,0.0,0.0,0.0,0
4208000,0,0.70711,7.922771e-05,7.95142e-05,0.70711005,0.0,0.0,0.0,0.0,0
4220000,0,0.70711,7.949227e-05,7.977876e-05,0.70711005,0.0,0.0,0.0,0.0,0
4228000,0,0.70711,7.9668636e-05,7.995513e-05,0.70711005,0.0,0.0,0.0,0.0,0
4240000,0,0.70711,7.99332e-05,8.021968e-05,0.70711005,0.0,0.0,0.0,0.0,0
4248000,0,0.70711,8.010957e-05,8.039605e-05,0.70711005,0.0,0.0,0.0,0.0,0
4260000,0,0.70711,8.037412e-05,8.0660604e-05,0.70711005,0.0,0.0,0.0,0.0,0
4268000,0,0.70711,8.055049e-05,8.083697e-05,0.70711005,0.0,0.0,0.0,0.0,0
4280000,0,0.70711,8.081504e-05,8.1101534e-05,0.70711005,0.0,0.0,0.0,0.0,0
4288000,0,0.70711,8.099142e-05,8.12779e-05,0.70711005,0.0,0.0,0.0,0.0,0
4300000,0,0.70711,8.1255974e-05,8.154246e-05,0.70711005,0.0,0.0,0.0,0.0,0
4308000,0,0.70711,8.143234e-05,8.171883e-05,0.70711005,0.0,0.0,0.0,0.0,0
4320000,0,0.70711,8.16969e-05,8.198338e-05,0.70711005,0.0,0.0,0.0,0.0,0
4328000,0,0.70711,8.1873266e-05,8.215975e-05,0.70711005,0.0,0.0,0.0,0.0,0
4340000,0,0.70711,8.213783e-05,8.242431e-05,0.70711005,0.0,0.0,0.0,0.0,0
4348000,0,0.70711,8.2314196e-05,8.260068e-05,0.70711005,0.0,0.0,0.0,0.0,0
4360000,0,0.70711,8.257875e-05,8.2865234e-05,0.70711005,0.0,0.0,0.0,0.0,0
4368000,0,0.70711,8.275512e-05,8.30416e-05,0.70711005,0.0,0.0,0.0,0.0,0
4380000,0,0.70711,8.301967e-05,8.330616e-05,0.70711005,0.0,0.0,0.0,0.0,0
4388000,0,0.70711,8.319605e-05,8.348253e-05,0.70711005,0.0,0.0,0.0,0.0,0
4400000,0,0.70711,8.34606e-05,8.374709e-05,0.70711005,0.0,0.0,0.0,0.0,0
4408000,0,0.70711,8.363697e-05,8.3923456e-05,0.70711005,0.0,0.0,0.0,0.0,0
4420000,0,0.70711,8.390153e-05,8.418801e-05,0.70711005,0.0,0.0,0.0,0.0,0
4428000,0,0.70711,8.40779e-05,8.436439e-05,0.70711005,0.0,0.0,0.0,0.0,0
4440000,0,0.70711,8.434246e-05,8.462894e-05,0.70711005,0.0,0.0,0.0,0.0,0
4448000,0,0.70711,8.4518826e-05,8.480531e-05,0.70711005,0.0,0.0,0.0,0.0,0
4460000,0,0.70711,8.478338e-05,8.506986e-05,0.70711005,0.0,0.0,0.0,0.0,0
4468000,0,0.70711,8.4959756e-05,8.524623e-05,0.70711005,0.0,0.0,0.0,0.0,0
4480000,0,0.70711,8.522431e-05,8.5510794e-05,0.70711005,0.0,0.0,0.0,0.0,0
4488000,0,0.70711,8.540068e-05,8.568716e-05,0.70711005,0.0,0.0,0.0,0.0,0
4500000,0,0.70711,8.566523e-05,8.595172e-05,0.70711005,0.0,0.0,0.0,0.0,0
4508000,0,0.70711,8.584161e-05,8.6128086e-05,0.70711005,0.0,0.0,0.0,0.0,0
4520000,0,0.70711,8.610616e-05,8.639265e-05,0.70711005,0.0,0.0,0.0,0.0,0
4528000,0,0.70711,8.628253e-05,8.6569016e-05,0.70711005,0.0,0.0,0.0,0.0,0
4540000,0,0.70711,8.654709e-05,8.683357e-05,0.70711005,0.0,0.0,0.0,0.0,0
4548000,0,0.70711,8.672346e-05,8.700995e-05,0.70711005,0.0,0.0,0.0,0.0,0
4560000,0,0.70711,8.698802e-05,8.72745e-05,0.70711005,0.0,0.0,0.0,0.0,0
4568000,0,0.70711,8.7164386e-05,8.745087e-05,0.70711005,0.0,0.0,0.0,0.0,0
4580000,0,0.70711,8.742895e-05,8.771542e-05,0.70711005,0.0,0.0,0.0,0.0,0
4588000,0,0.70711,8.760532e-05,8.78918e-05,0.70711005,0.0,0.0,0.0,0.0,0
4600000,0,0.70711,8.786987e-05,8.8156354e-05,0.70711005,0.0,0.0,0.0,0.0,0
4608000,0,0.70711,8.804624e-05,8.833272e-05,0.70711005,0.0,0.0,0.0,0.0,0
4620000,0,0.70711,8.83108e-05,8.8597284e-05,0.70711005,0.0,0.0,0.0,0.0,0
4628000,0,0.70711,8.848717e-05,8.877365e-05,0.70711005,0.0,0.0,0.0,0.0,0
4640000,0,0.70711,8.875172e-05,8.903821e-05,0.70711005,0.0,0.0,0.0,0.0,0
4648000,0,0.70711,8.89281e-05,8.9214576e-05,0.70711005,0.0,0.0,0.0,0.0,0
4660000,0,0.70711,8.9192654e-05,8.947914e-05,0.70711005,0.0,0.0,0.0,0.0,0
4668000,0,0.70711,8.936902e-05,8.965551e-05,0.70711005,0.0,0.0,0.0,0.0,0
4680000,0,0.70711,8.9633584e-05,8.992006e-05,0.70711005,0.0,0.0,0.0,0.0,0
4688000,0,0.70711,8.980995e-05,9.009644e-05,0.70711005,0.0,0.0,0.0,0.0,0
4700000,0,0.70711,9.007451e-05,9.036099e-05,0.70711005,0.0,0.0,0.0,0.0,0
4708000,0,0.70711,9.0250884e-05,9.053736e-05,0.70711005,0.0,0.0,0.0,0.0,0
4720000,0,0.70711,9.051544e-05,9.080192e-05,0.70711005,0.0,0.0,0.0,0.0,0
4728000,0,0.70711,9.069181e-05,9.097829e-05,0.70711005,0.0,0.0,0.0,0.0,0
4740000,0,0.70711,9.095637e-05,9.1242844e-05,0.70711005,0.0,0.0,0.0,0.0,0
4748000,0,0.70711,9.113274e-05,9.141922e-05,0.70711005,0.0,0.0,0.0,0.0,0
4760000,0,0.70711,9.139729e-05,9.1683774e-05,0.70711005,0.0,0.0,0.0,0.0,0
4768000,0,0.70711,9.157367e-05,9.186014e-05,0.70711005,0.0,0.0,0.0,0.0,0
4780000,0,0.70711,9.183822e-05,9.2124705e-05,0.70711005,0.0,0.0,0.0,0.0,0
4788000,0,0.70711,9.201459e-05,9.2301074e-05,0.70711005,0.0,0.0,0.0,0.0,0
4800000,0,0.70711,9.227915e-05,9.2565635e-05,0.70711005,0.0,0.0,0.0,0.0,0
4808000,0,0.70711,9.245552e-05,9.2742004e-05,0.70711005,0.0,0.0,0.0,0.0,0
4820000,0,0.70711,9.272008e-05,9.300656e-05,0.70711005,0.0,0.0,0.0,0.0,0
4828000,0,0.70711,9.289645e-05,9.3182935e-05,0.70711005,0.0,0.0,0.0,0.0,0
4840000,0,0.70711,9.3161005e-05,9.344749e-05,0.70711005,0.0,0.0,0.0,0.0,0
4848000,0,0.70711,9.333738e-05,9.362386e-05,0.70711005,0.0,0.0,0.0,0.0,0
4860000,0,0.70711,9.3601935e-05,9.388842e-05,0.70711005,0.0,0.0,0.0,0.0,0
4868000,0,0.70711,9.377831e-05,9.406479e-05,0.70711005,0.0,0.0,0.0,0.0,0
4880000,0,0.70711,9.4042865e-05,9.432935e-05,0.70711005,0.0,0.0,0.0,0.0,0
4888000,0,0.70711,9.4219235e-05,9.450572e-05,0.70711005,0.0,0.0,0.0,0.0,0
4900000,0,0.70711,9.4483796e-05,9.477027e-05,0.70711005,0.0,0.0,0.0,0.0,0
4908000,0,0.70711,9.4660165e-05,9.494665e-05,0.70711005,0.0,0.0,0.0,0.0,0
4920000,0,0.70711,9.4924726e-05,9.52112e-05,0.70711005,0.0,0.0,0.0,0.0,0
4928000,0,0.70711,9.5101095e-05,9.538758e-05,0.70711005,0.0,0.0,0.0,0.0,0
4940000,0,0.70711,9.536565e-05,9.565213e-05,0.70711005,0.0,0.0,0.0,0.0,0
4948000,0,0.70711,9.5542026e-05,9.58285e-05,0.70711005,0.0,0.0,0.0,0.0,0
4960000,0,0.70711,9.580658e-05,9.609306e-05,0.70711005,0.0,0.0,0.0,0.0,0
4968000,0,0.70711,9.5982956e-05,9.626943e-05,0.70711005,0.0,0.0,0.0,0.0,0
4980000,0,0.70711,9.624751e-05,9.653399e-05,0.70711005,0.0,0.0,0.0,0.0,0
4988000,0,0.70711,9.6423886e-05,9.671036e-05,0.70711005,0.0,0.0,0.0,0.0,0
5000000,0,0.70711,9.668844e-05,9.697492e-05,0.70711005,0.0,0.0,0.0,0.0,0
5008000,0,0.70711,9.686481e-05,9.715129e-05,0.70711005,0.0,0.0,0.0,0.0,0
5020000,0,0.70711,9.712937e-05,9.741585e-05,0.70711005,0.0,0.0,0.0,0.0,0
5028000,0,0.70711,9.730574e-05,9.759222e-05,0.70711005,0.0,0.0,0.0,0.0,0
5040000,0,0.70711,9.75703e-05,9.785678e-05,0.70711005,0.0,0.0,0.0,0.0,0
5048000,0,0.70711,9.774667e-05,9.803315e-05,0.70711005,0.0,0.0,0.0,0.0,0
5060000,0,0.70711,9.801123e-05,9.829771e-05,0.70711005,0.0,0.0,0.0,0.0,0
5068000,0,0.70711,9.81876e-05,9.8474084e-05,0.70711005,0.0,0.0,0.0,0.0,0
5080000,0,0.70711,9.845216e-05,9.873864e-05,0.70711005,0.0,0.0,0.0,0.0,0
5088000,0,0.70711,9.862853e-05,9.8915014e-05,0.70711005,0.0,0.0,0.0,0.0,0
5100000,0,0.70711,9.889309e-05,9.917957e-05,0.70711005,0.0,0.0,0.0,0.0,0
5108000,0,0.70711,9.906946e-05,9.935594e-05,0.70711005,0.0,0.0,0.0,0.0,0
5120000,0,0.70711,9.933402e-05,9.96205e-05,0.70711005,0.0,0.0,0.0,0.0,0
5128000,0,0.70711,9.951039e-05,9.979687e-05,0.70711005,0.0,0.0,0.0,0.0,0
5140000,0,0.70711,9.977495e-05,0.00010006143,0.70711005,0.0,0.0,0.0,0.0,0
5148000,0,0.70711,9.995132e-05,0.0001002378,0.70711005,0.0,0.0,0.0,0.0,0
5160000,0,0.70711,0.00010021588,0.00010050236,0.70711005,0.0,0.0,0.0,0.0,0
5168000,0,0.70711,0.00010039225,0.00010067873,0.70711005,0.0,0.0,0.0,0.0,0
5180000,0,0.70711,0.00010065681,0.00010094329,0.70711005,0.0,0.0,0.0,0.0,0
5188000,0,0.70711,0.00010083318,0.00010111966,0.70711005,0.0,0.0,0.0,0.0,0
5200000,0,0.70711,0.00010109774,0.00010138422,0.70711005,0.0,0.0,0.0,0.0,0
5208000,0,0.70711,0.00010127411,0.00010156059,0.70711005,0.0,0.0,0.0,0.0,0
5220000,0,0.70711,0.00010153867,0.00010182515,0.70711005,0.0,0.0,0.0,0.0,0
5228000,0,0.70711,0.00010171504,0.00010200152,0.70711005,0.0,0.0,0.0,0.0,0
5240000,0,0.70711,0.000101979604,0.00010226608,0.70711005,0.0,0.0,0.0,0.0,0
5248000,0,0.70711,0.00010215597,0.00010244245,0.70711005,0.0,0.0,0.0,0.0,0
5260000,0,0.70711,0.000102420534,0.00010270701,0.70711005,0.0,0.0,0.0,0.0,0
5268000,0,0.70711,0.0001025969,0.00010288338,0.70711005,0.0,0.0,0.0,0.0,0
5280000,0,0.70711,0.000102861464,0.00010314794,0.70711005,0.0,0.0,0.0,0.0,0
5288000,0,0.70711,0.00010303783,0.00010332432,0.70711005,0.0,0.0,0.0,0.0,0
5300000,0,0.70711,0.000103302395,0.00010358887,0.70711005,0.0,0.0,0.0,0.0,0
5308000,0,0.70711,0.000103478764,0.00010376525,0.70711005,0.0,0.0,0.0,0.0,0
5320000,0,0.70711,0.000103743325,0.0001040298,0.70711005,0.0,0.0,0.0,0.0,0
5328000,0,0.70711,0.000103919694,0.00010420618,0.70711005,0.0,0.0,0.0,0.0,0
5340000,0,0.7071099,0.000104184255,0.00010447073,0.70711005,0.0,0.0,0.0,0.0,0
5348000,0,0.7071099,0.00010436063,0.00010464711,0.70711005,0.0,0.0,0.0,0.0,0
5360000,0,0.7071099,0.000104625185,0.00010491166,0.70711005,0.0,0.0,0.0,0.0,0
5368000,0,0.7071099,0.00010480156,0.00010508804,0.70711005,0.0,0.0,0.0,0.0,0
5380000,0,0.7071099,0.000105066116,0.0001053526,0.70711005,0.0,0.0,0.0,0.0,0
5388000,0,0.7071099,0.00010524249,0.00010552897,0.70711005,0.0,0.0,0.0,0.0,0
5400000,0,0.7071099,0.00010550705,0.00010579353,0.70711005,0.0,0.0,0.0,0.0,0
5408000,0,0.7071099,0.00010568342,0.0001059699,0.70711005,0.0,0.0,0.0,0.0,0
5420000,0,0.7071099,0.000105947984,0.00010623446,0.70711005,0.0,0.0,0.0,0.0,0
5428000,0,0.7071099,0.00010612435,0.00010641083,0.70711005,0.0,0.0,0.0,0.0,0
5440000,0,0.7071099,0.000106388914,0.00010667539,0.70711005,0.0,0.0,0.0,0.0,0
5448000,0,0.7071099,0.00010656528,0.00010685177,0.70711005,0.0,0.0,0.0,0.0,0
5460000,0,0.7071099,0.000106829844,0.00010711632,0.70711005,0.0,0.0,0.0,0.0,0
5468000,0,0.7071099,0.00010700622,0.0001072927,0.70711005,0.0,0.0,0.0,0.0,0
5480000,0,0.7071099,0.000107270775,0.00010755725,0.70711005,0.0,0.0,0.0,0.0,0
5484000,0,0.7071099,0.00010735897,0.00010764544,0.70711005,0.0,0.0,0.0,0.0,0
5500000,0,0.7071099,0.00010771171,0.00010799819,0.70711005,0.0,0.0,0.0,0.0,0
5508000,0,0.7071099,0.00010788808,0.00010817456,0.70711005,0.0,0.0,0.0,0.0,0
5520000,0,0.7071099,0.00010815264,0.00010843912,0.70711005,0.0,0.0,0.0,0.0,0
5528000,0,0.7071099,0.00010832901,0.00010861549,0.70711005,0.0,0.0,0.0,0.0,0
5540000,0,0.7071099,0.00010859357,0.00010888005,0.70711005,0.0,0.0,0.0,0.0,0
5544000,0,0.7071099,0.00010868176,0.000108968234,0.70711005,0.0,0.0,0.0,0.0,0
5560000,0,0.7071099,0.0001090345,0.00010932098,0.70711005,0.0,0.0,0.0,0.0,0
5568000,0,0.7071099,0.00010921088,0.000109497356,0.70711005,0.0,0.0,0.0,0.0,0
5580000,0,0.7071099,0.00010947544,0.00010976192,0.70711005,0.0,0.0,0.0,0.0,0
5588000,0,0.7071099,0.00010965181,0.000109938286,0.70711005,0.0,0.0,0.0,0.0,0
5600000,0,0.7071099,0.00010991637,0.00011020285,0.70711005,0.0,0.0,0.0,0.0,0
5608000,0,0.7071099,0.00011009274,0.000110379224,0.70711005,0.0,0.0,0.0,0.0,0
5620000,0,0.7071099,0.0001103573,0.00011064378,0.70711005,0.0,0.0,0.0,0.0,0
5628000,0,0.7071099,0.00011053368,0.000110820154,0.70711005,0.0,0.0,0.0,0.0,0
5640000,0,0.7071099,0.00011079824,0.000111084715,0.70711005,0.0,0.0,0.0,0.0,0
5648000,0,0.7071099,0.00011097461,0.000111261084,0.70711005,0.0,0.0,0.0,0.0,0
5660000,0,0.7071099,0.00011123917,0.000111525645,0.70711005,0.0,0.0,0.0,0.0,0
5668000,0,0.7071099,0.00011141554,0.000111702015,0.70711005,0.0,0.0,0.0,0.0,0
5680000,0,0.7071099,0.0001116801,0.000111966576,0.70711005,0.0,0.0,0.0,0.0,0
5688000,0,0.7071099,0.000111856476,0.00011214295,0.70711005,0.0,0.0,0.0,0.0,0
5700000,0,0.7071099,0.00011212104,0.00011240751,0.70711005,0.0,0.0,0.0,0.0,0
5708000,0,0.7071099,0.000112297406,0.00011258388,0.70711005,0.0,0.0,0.0,0.0,0
5720000,0,0.7071099,0.00011256197,0.000112848444,0.70711005,0.0,0.0,0.0,0.0,0
5728000,0,0.7071099,0.000112738344,0.00011302482,0.70711005,0.0,0.0,0.0,0.0,0
5740000,0,0.7071099,0.0001130029,0.000113289374,0.70711005,0.0,0.0,0.0,0.0,0
5748000,0,0.7071099,0.000113179274,0.00011346575,0.70711005,0.0,0.0,0.0,0.0,0
5760000,0,0.7071099,0.000113443835,0.00011373031,0.70711005,0.0,0.0,0.0,0.0,0
5768000,0,0.7071099,0.000113620205,0.00011390668,0.70711005,0.0,0.0,0.0,0.0,0
5780000,0,0.7071099,0.000113884766,0.00011417124,0.70711005,0.0,0.0,0.0,0.0,0
5788000,0,0.7071099,0.00011406114,0.00011434762,0.70711005,0.0,0.0,0.0,0.0,0
5800000,0,0.7071099,0.0001143257,0.00011461218,0.70711005,0.0,0.0,0.0,0.0,0
5808000,0,0.7071099,0.00011450207,0.00011478855,0.70711005,0.0,0.0,0.0,0.0,0
5820000,0,0.7071099,0.00011476663,0.00011505311,0.70711005,0.0,0.0,0.0,0.0,0
5828000,0,0.7071099,0.00011494301,0.000115229486,0.70711005,0.0,0.0,0.0,0.0,0
5840000,0,0.7071099,0.00011520757,0.00011549405,0.70711005,0.0,0.0,0.0,0.0,0
5848000,0,0.7071099,0.00011538394,0.00011567042,0.70711005,0.0,0.0,0.0,0.0,0
5860000,0,0.7071099,0.0001156485,0.00011593498,0.70711005,0.0,0.0,0.0,0.0,0
5868000,0,0.7071099,0.00011582488,0.000116111354,0.70711005,0.0,0.0,0.0,0.0,0
5880000,0,0.7071099,0.00011608944,0.00011637591,0.70711005,0.0,0.0,0.0,0.0,0
5888000,0,0.7071099,0.00011626581,0.000116552284,0.70711005,0.0,0.0,0.0,0.0,0
5900000,0,0.7071099,0.00011653037,0.000116816846,0.70711005,0.0,0.0,0.0,0.0,0
5908000,0,0.7071099,0.000116706746,0.00011699322,0.70711005,0.0,0.0,0.0,0.0,0
5920000,0,0.7071099,0.00011697131,0.000117257776,0.70711005,0.0,0.0,0.0,0.0,0
5924000,0,0.7071099,0.00011705949,0.00011734597,0.70711005,0.0,0.0,0.0,0.0,0
5940000,0,0.7071099,0.00011741224,0.00011769871,0.70711005,0.0,0.0,0.0,0.0,0
5948000,0,0.7071099,0.000117588614,0.00011787509,0.70711005,0.0,0.0,0.0,0.0,0
5960000,0,0.7071099,0.000117853175,0.00011813965,0.70711005,0.0,0.0,0.0,0.0,0
5968000,0,0.7071099,0.000118029544,0.00011831602,0.70711005,0.0,0.0,0.0,0.0,0
5980000,0,0.7071099,0.000118294105,0.00011858058,0.70711005,0.0,0.0,0.0,0.0,0
5988000,0,0.7071099,0.00011847048,0.00011875696,0.70711005,0.0,0.0,0.0,0.0,0
6000000,0,0.7071099,0.00011873504,0.00011902152,0.70711005,0.0,0.0,0.0,0.0,0
6008000,0,0.7071099,0.00011891142,0.00011919789,0.70711005,0.0,0.0,0.0,0.0,0
6020000,0,0.7071099,0.00011917597,0.00011946245,0.70711005,0.0,0.0,0.0,0.0,0
6028000,0,0.7071099,0.00011935235,0.000119638826,0.70711005,0.0,0.0,0.0,0.0,0
6040000,0,0.7071099,0.00011961691,0.00011990339,0.70711005,0.0,0.0,0.0,0.0,0
6048000,0,0.7071099,0.00011979329,0.000120079756,0.70711005,0.0,0.0,0.0,0.0,0
6060000,0,0.7071099,0.00012005785,0.00012034432,0.70711005,0.0,0.0,0.0,0.0,0
6068000,0,0.7071099,0.00012023422,0.00012052069,0.70711005,0.0,0.0,0.0,0.0,0
6080000,0,0.7071099,0.00012049878,0.000120785255,0.70711005,0.0,0.0,0.0,0.0,0
6088000,0,0.7071099,0.000120675155,0.00012096163,0.70711005,0.0,0.0,0.0,0.0,0
6100000,0,0.7071099,0.000120939716,0.00012122619,0.70711005,0.0,0.0,0.0,0.0,0
6108000,0,0.7071099,0.00012111609,0.00012140256,0.70711005,0.0,0.0,0.0,0.0,0
6120000,0,0.7071099,0.00012138065,0.00012166712,0.70711005,0.0,0.0,0.0,0.0,0
6128000,0,0.7071099,0.00012155702,0.0001218435,0.70711005,0.0,0.0,0.0,0.0,0
6140000,0,0.7071099,0.000121821584,0.00012210806,0.70711005,0.0,0.0,0.0,0.0,0
6148000,0,0.7071099,0.00012199796,0.00012228443,0.70711005,0.0,0.0,0.0,0.0,0
6160000,0,0.7071099,0.00012226253,0.000122549,0.70711005,0.0,0.0,0.0,0.0,0
6168000,0,0.7071099,0.0001224389,0.00012272537,0.70711005,0.0,0.0,0.0,0.0,0
6180000,0,0.7071099,0.00012270345,0.00012298994,0.70711005,0.0,0.0,0.0,0.0,0
6188000,0,0.7071099,0.00012287984,0.0001231663,0.70711005,0.0,0.0,0.0,0.0,0
6200000,0,0.7071099,0.00012314439,0.00012343087,0.70711005,0.0,0.0,0.0,0.0,0
6208000,0,0.7071099,0.00012332077,0.00012360724,0.70711005,0.0,0.0,0.0,0.0,0
6220000,0,0.7071099,0.00012358533,0.0001238718,0.70711005,0.0,0.0,0.0,0.0,0
6228000,0,0.7071099,0.0001237617,0.00012404818,0.70711005,0.0,0.0,0.0,0.0,0
6240000,0,0.7071099,0.00012402626,0.00012431273,0.70711005,0.0,0.0,0.0,0.0,0
6248000,0,0.7071099,0.00012420263,0.00012448912,0.70711005,0.0,0.0,0.0,0.0,0
6260000,0,0.7071099,0.0001244672,0.00012475367,0.70711005,0.0,0.0,0.0,0.0,0
6268000,0,0.7071099,0.00012464357,0.00012493005,0.70711005,0.0,0.0,0.0,0.0,0
6280000,0,0.7071099,0.00012490814,0.00012519461,0.70711005,0.0,0.0,0.0,0.0,0
6288000,0,0.7071099,0.00012508451,0.00012537098,0.70711005,0.0,0.0,0.0,0.0,0
6300000,0,0.7071099,0.00012534908,0.00012563555,0.70711005,0.0,0.0,0.0,0.0,0
6308000,0,0.7071099,0.00012552545,0.00012581192,0.70711005,0.0,0.0,0.0,0.0,0
6320000,0,0.7071099,0.00012579001,0.00012607648,0.70711005,0.0,0.0,0.0,0.0,0
6328000,0,0.7071099,0.00012596638,0.00012625285,0.70711005,0.0,0.0,0.0,0.0,0
6340000,0,0.7071099,0.00012623094,0.00012651742,0.70711005,0.0,0.0,0.0,0.0,0
6348000,0,0.7071099,0.00012640732,0.00012669379,0.70711005,0.0,0.0,0.0,0.0,0
6360000,0,0.7071099,0.00012667188,0.00012695836,0.70711005,0.0,0.0,0.0,0.0,0
6368000,0,0.7071099,0.00012684826,0.00012713473,0.70711005,0.0,0.0,0.0,0.0,0
6380000,0,0.7071099,0.00012711281,0.0001273993,0.70711005,0.0,0.0,0.0,0.0,0
6388000,0,0.7071099,0.0001272892,0.00012757567,0.70711005,0.0,0.0,0.0,0.0,0
6396000,0,0.7071099,0.00012746557,0.00012775204,0.70711005,0.0,0.0,0.0,0.0,0
6408000,0,0.7071099,0.00012773013,0.0001280166,0.70711005,0.0,0.0,0.0,0.0,0
6420000,0,0.7071099,0.00012799469,0.00012828116,0.70711005,0.0,0.0,0.0,0.0,0
6428000,0,0.7071099,0.00012817107,0.00012845754,0.70711005,0.0,0.0,0.0,0.0,0
6440000,0,0.7071099,0.00012843563,0.0001287221,0.70711005,0.0,0.0,0.0,0.0,0
6448000,0,0.7071099,0.00012861201,0.00012889848,0.70711005,0.0,0.0,0.0,0.0,0
6460000,0,0.7071099,0.00012887656,0.00012916303,0.70711005,0.0,0.0,0.0,0.0,0
6468000,0,0.7071099,0.00012905293,0.00012933942,0.70711005,0.0,0.0,0.0,0.0,0
6480000,0,0.7071099,0.0001293175,0.00012960397,0.70711005,0.0,0.0,0.0,0.0,0
6488000,0,0.7071099,0.00012949387,0.00012978035,0.70711005,0.0,0.0,0.0,0.0,0
6500000,0,0.7071099,0.00012975844,0.00013004491,0.70711005,0.0,0.0,0.0,0.0,0
6508000,0,0.7071099,0.00012993481,0.00013022129,0.70711005,0.0,0.0,0.0,0.0,0
6520000,0,0.7071099,0.00013019938,0.00013048585,0.70711005,0.0,0.0,0.0,0.0,0
6528000,0,0.7071099,0.00013037575,0.00013066223,0.70711005,0.0,0.0,0.0,0.0,0
6540000,0,0.7071099,0.00013064031,0.00013092678,0.70711005,0.0,0.0,0.0,0.0,0
6548000,0,0.7071099,0.00013081668,0.00013110317,0.70711005,0.0,0.0,0.0,0.0,0
6560000,0,0.7071099,0.00013108125,0.00013136772,0.70711005,0.0,0.0,0.0,0.0,0
6568000,0,0.7071099,0.00013125762,0.0001315441,0.70711005,0.0,0.0,0.0,0.0,0
6580000,0,0.7071099,0.00013152219,0.00013180866,0.70711005,0.0,0.0,0.0,0.0,0
6588000,0,0.7071099,0.00013169856,0.00013198504,0.70711005,0.0,0.0,0.0,0.0,0
6600000,0,0.7071099,0.00013196313,0.0001322496,0.70711005,0.0,0.0,0.0,0.0,0
6608000,0,0.7071099,0.0001321395,0.00013242598,0.70711005,0.0,0.0,0.0,0.0,0
6616000,0,0.7071099,0.00013231588,0.00013260235,0.70711005,0.0,0.0,0.0,0.0,0
6628000,0,0.7071099,0.00013258043,0.00013286692,0.70711005,0.0,0.0,0.0,0.0,0
6640000,0,0.7071099,0.000132845,0.00013313147,0.70711005,0.0,0.0,0.0,0.0,0
6648000,0,0.7071099,0.00013302137,0.00013330785,0.70711005,0.0,0.0,0.0,0.0,0
6660000,0,0.7071099,0.00013328594,0.00013357241,0.70711005,0.0,0.0,0.0,0.0,0
6668000,0,0.7071099,0.00013346231,0.00013374879,0.70711005,0.0,0.0,0.0,0.0,0
6680000,0,0.7071099,0.00013372688,0.00013401335,0.70711005,0.0,0.0,0.0,0.0,0
6688000,0,0.7071099,0.00013390325,0.00013418973,0.70711005,0.0,0.0,0.0,0.0,0
6700000,0,0.7071099,0.00013416781,0.00013445428,0.70711005,0.0,0.0,0.0,0.0,0
6708000,0,0.7071099,0.00013434418,0.00013463067,0.70711005,0.0,0.0,0.0,0.0,0
6720000,0,0.7071099,0.00013460875,0.00013489522,0.70711005,0.0,0.0,0.0,0.0,0
6728000,0,0.7071099,0.00013478514,0.0001350716,0.70711005,0.0,0.0,0.0,0.0,0
6740000,0,0.7071099,0.00013504969,0.00013533616,0.70711005,0.0,0.0,0.0,0.0,0
6748000,0,0.7071099,0.00013522607,0.00013551254,0.70711005,0.0,0.0,0.0,0.0,0
6760000,0,0.7071099,0.00013549063,0.0001357771,0.70711005,0.0,0.0,0.0,0.0,0
6768000,0,0.7071099,0.00013566701,0.00013595348,0.70711005,0.0,0.0,0.0,0.0,0
6780000,0,0.7071099,0.00013593156,0.00013621803,0.70711005,0.0,0.0,0.0,0.0,0
6788000,0,0.7071099,0.00013610795,0.00013639442,0.70711005,0.0,0.0,0.0,0.0,0
6800000,0,0.7071099,0.0001363725,0.00013665897,0.70711005,0.0,0.0,0.0,0.0,0
6808000,0,0.7071099,0.00013654889,0.00013683536,0.70711005,0.0,0.0,0.0,0.0,0
6820000,0,0.7071099,0.00013681344,0.00013709992,0.70711005,0.0,0.0,0.0,0.0,0
6828000,0,0.7071099,0.00013698982,0.00013727629,0.70711005,0.0,0.0,0.0,0.0,0
6840000,0,0.7071099,0.00013725439,0.00013754086,0.70711005,0.0,0.0,0.0,0.0,0
6848000,0,0.7071099,0.00013743076,0.00013771723,0.70711005,0.0,0.0,0.0,0.0,0
6860000,0,0.7071099,0.00013769533,0.0001379818,0.70711005,0.0,0.0,0.0,0.0,0
6868000,0,0.7071099,0.0001378717,0.00013815817,0.70711005,0.0,0.0,0.0,0.0,0
6880000,0,0.7071099,0.00013813627,0.00013842274,0.70711005,0.0,0.0,0.0,0.0,0
6888000,0,0.7071099,0.00013831264,0.0001385991,0.70711005,0.0,0.0,0.0,0.0,0
6900000,0,0.7071099,0.0001385772,0.00013886367,0.70711005,0.0,0.0,0.0,0.0,0
6908000,0,0.7071099,0.00013875357,0.00013904004,0.70711005,0.0,0.0,0.0,0.0,0
6920000,0,0.7071099,0.00013901814,0.00013930461,0.70711005,0.0,0.0,0.0,0.0,0
6928000,0,0.7071099,0.00013919451,0.00013948098,0.70711005,0.0,0.0,0.0,0.0,0
6940000,0,0.7071099,0.00013945908,0.00013974555,0.70711005,0.0,0.0,0.0,0.0,0
6948000,0,0.7071099,0.00013963545,0.00013992193,0.70711005,0.0,0.0,0.0,0.0,0
6960000,0,0.7071099,0.00013990002,0.00014018649,0.70711005,0.0,0.0,0.0,0.0,0
6968000,0,0.7071099,0.0001400764,0.00014036287,0.70711005,0.0,0.0,0.0,0.0,0
6980000,0,0.7071099,0.00014034096,0.00014062742,0.70711005,0.0,0.0,0.0,0.0,0
6988000,0,0.7071099,0.00014051734,0.00014080381,0.70711005,0.0,0.0,0.0,0.0,0
6996000,0,0.7071099,0.00014069371,0.00014098018,0.70711005,0.0,0.0,0.0,0.0,0
7004000,0,0.7071099,0.00014087009,0.00014115656,0.70711005,0.0,0.0,0.0,0.0,0
7020000,0,0.7071099,0.00014122284,0.00014150931,0.70711005,0.0,0.0,0.0,0.0,0
7028000,0,0.7071099,0.00014139921,0.00014168568,0.70711005,0.0,0.0,0.0,0.0,0
7040000,0,0.7071099,0.00014166378,0.00014195025,0.70711005,0.0,0.0,0.0,0.0,0
7044000,0,0.7071099,0.00014175197,0.00014203844,0.70711005,0.0,0.0,0.0,0.0,0
7060000,0,0.7071099,0.00014210472,0.00014239119,0.70711005,0.0,0.0,0.0,0.0,0
7068000,0,0.7071099,0.00014228109,0.00014256756,0.70711005,0.0,0.0,0.0,0.0,0
7080000,0,0.7071099,0.00014254566,0.00014283213,0.70711005,0.0,0.0,0.0,0.0,0
7088000,0,0.7071099,0.00014272204,0.00014300851,0.70711005,0.0,0.0,0.0,0.0,0
7100000,0,0.7071099,0.0001429866,0.00014327306,0.70711005,0.0,0.0,0.0,0.0,0
7108000,0,0.7071099,0.00014316298,0.00014344945,0.70711005,0.0,0.0,0.0,0.0,0
7120000,0,0.7071099,0.00014342753,0.000143714,0.70711005,0.0,0.0,0.0,0.0,0
7128000,0,0.7071099,0.00014360392,0.00014389039,0.70711005,0.0,0.0,0.0,0.0,0
7140000,0,0.7071099,0.00014386848,0.00014415495,0.70711005,0.0,0.0,0.0,0.0,0
7148000,0,0.7071099,0.00014404485,0.00014433132,0.70711005,0.0,0.0,0.0,0.0,0
7160000,0,0.7071099,0.00014430942,0.00014459589,0.70711005,0.0,0.0,0.0,0.0,0
7168000,0,0.7071099,0.00014448579,0.00014477226,0.70711005,0.0,0.0,0.0,0.0,0
7180000,0,0.7071099,0.00014475036,0.00014503683,0.70711005,0.0,0.0,0.0,0.0,0
7188000,0,0.7071099,0.00014492674,0.00014521321,0.70711005,0.0,0.0,0.0,0.0,0
7200000,0,0.7071099,0.0001451913,0.00014547777,0.70711005,0.0,0.0,0.0,0.0,0
7208000,0,0.7071099,0.00014536768,0.00014565415,0.70711005,0.0,0.0,0.0,0.0,0
7220000,0,0.7071099,0.00014563224,0.0001459187,0.70711005,0.0,0.0,0.0,0.0,0
7228000,0,0.7071099,0.00014580862,0.00014609509,0.70711005,0.0,0.0,0.0,0.0,0
7240000,0,0.7071099,0.00014607319,0.00014635966,0.70711005,0.0,0.0,0.0,0.0,0
7248000,0,0.7071099,0.00014624956,0.00014653603,0.70711005,0.0,0.0,0.0,0.0,0
7260000,0,0.7071099,0.00014651412,0.0001468006,0.70711005,0.0,0.0,0.0,0.0,0
7264000,0,0.7071099,0.00014660231,0.00014688878,0.70711005,0.0,0.0,0.0,0.0,0
7280000,0,0.7071099,0.00014695506,0.00014724153,0.70711005,0.0,0.0,0.0,0.0,0
7288000,0,0.7071099,0.00014713145,0.00014741792,0.70711005,0.0,0.0,0.0,0.0,0
7300000,0,0.7071099,0.000147396,0.00014768247,0.70711005,0.0,0.0,0.0,0.0,0
7308000,0,0.7071099,0.00014757238,0.00014785885,0.70711005,0.0,0.0,0.0,0.0,0
7320000,0,0.7071099,0.00014783695,0.00014812342,0.70711005,0.0,0.0,0.0,0.0,0
7328000,0,0.7071099,0.00014801332,0.00014829979,0.70711005,0.0,0.0,0.0,0.0,0
7340000,0,0.7071099,0.00014827789,0.00014856436,0.70711005,0.0,0.0,0.0,0.0,0
7348000,0,0.7071099,0.00014845426,0.00014874073,0.70711005,0.0,0.0,0.0,0.0,0
7360000,0,0.7071099,0.00014871883,0.0001490053,0.70711005,0.0,0.0,0.0,0.0,0
7368000,0,0.7071099,0.00014889521,0.00014918168,0.70711005,0.0,0.0,0.0,0.0,0
7380000,0,0.7071099,0.00014915976,0.00014944623,0.70711005,0.0,0.0,0.0,0.0,0
7388000,0,0.7071099,0.00014933615,0.00014962262,0.70711005,0.0,0.0,0.0,0.0,0
7396000,0,0.7071099,0.00014951252,0.00014979899,0.70711005,0.0,0.0,0.0,0.0,0
7408000,0,0.7071099,0.00014977709,0.00015006356,0.70711005,0.0,0.0,0.0,0.0,0
7420000,0,0.7071099,0.00015004165,0.00015032812,0.70711005,0.0,0.0,0.0,0.0,0
7428000,0,0.7071099,0.00015021804,0.0001505045,0.70711005,0.0,0.0,0.0,0.0,0
7440000,0,0.7071099,0.00015048259,0.00015076906,0.70711005,0.0,0.0,0.0,0.0,0
7448000,0,0.7071099,0.00015065898,0.00015094545,0.70711005,0.0,0.0,0.0,0.0,0
7460000,0,0.7071099,0.00015092354,0.00015121001,0.70711005,0.0,0.0,0.0,0.0,0
7468000,0,0.7071099,0.00015109991,0.00015138638,0.70711005,0.0,0.0,0.0,0.0,0
7480000,0,0.7071099,0.00015136448,0.00015165095,0.70711005,0.0,0.0,0.0,0.0,0
7488000,0,0.7071099,0.00015154085,0.00015182732,0.70711005,0.0,0.0,0.0,0.0,0
7500000,0,0.7071099,0.00015180542,0.00015209189,0.70711005,0.0,0.0,0.0,0.0,0
7508000,0,0.7071099,0.0001519818,0.00015226827,0.70711005,0.0,0.0,0.0,0.0,0
7520000,0,0.7071099,0.00015224637,0.00015253284,0.70711005,0.0,0.0,0.0,0.0,0
7528000,0,0.7071099,0.00015242274,0.00015270921,0.70711005,0.0,0.0,0.0,0.0,0
7540000,0,0.7071099,0.00015268731,0.00015297378,0.70711005,0.0,0.0,0.0,0.0,0
7548000,0,0.7071099,0.00015286368,0.00015315015,0.70711005,0.0,0.0,0.0,0.0,0
7560000,0,0.7071099,0.00015312825,0.00015341472,0.70711005,0.0,0.0,0.0,0.0,0
7568000,0,0.7071099,0.00015330463,0.0001535911,0.70711005,0.0,0.0,0.0,0.0,0
7580000,0,0.7071099,0.0001535692,0.00015385565,0.70711005,0.0,0.0,0.0,0.0,0
7588000,0,0.7071099,0.00015374557,0.00015403204,0.70711005,0.0,0.0,0.0,0.0,0
7600000,0,0.7071099,0.00015401014,0.0001542966,0.70711005,0.0,0.0,0.0,0.0,0
7608000,0,0.7071099,0.0001541865,0.00015447297,0.70711005,0.0,0.0,0.0,0.0,0
7620000,0,0.7071099,0.00015445107,0.00015473754,0.70711005,0.0,0.0,0.0,0.0,0
7628000,0,0.7071099,0.00015462746,0.00015491393,0.70711005,0.0,0.0,0.0,0.0,0
7640000,0,0.7071099,0.00015489203,0.0001551785,0.70711005,0.0,0.0,0.0,0.0,0
7648000,0,0.7071099,0.0001550684,0.00015535486,0.70711005,0.0,0.0,0.0,0.0,0
7660000,0,0.7071099,0.00015533296,0.00015561943,0.70711005,0.0,0.0,0.0,0.0,0
7668000,0,0.7071099,0.00015550935,0.0001557958,0.70711005,0.0,0.0,0.0,0.0,0
7680000,0,0.7071099,0.0001557739,0.00015606037,0.70711005,0.0,0.0,0.0,0.0,0
7688000,0,0.7071099,0.00015595029,0.00015623675,0.70711005,0.0,0.0,0.0,0.0,0
7696000,0,0.7071099,0.00015612667,0.00015641312,0.70711005,0.0,0.0,0.0,0.0,0
7708000,0,0.7071099,0.00015639122,0.00015667769,0.70711005,0.0,0.0,0.0,0.0,0
7720000,0,0.7071099,0.00015665579,0.00015694226,0.70711005,0.0,0.0,0.0,0.0,0
7728000,0,0.7071099,0.00015683217,0.00015711864,0.70711005,0.0,0.0,0.0,0.0,0
7736000,0,0.7071099,0.00015700854,0.00015729501,0.70711005,0.0,0.0,0.0,0.0,0
7748000,0,0.7071099,0.00015727311,0.00015755958,0.70711005,0.0,0.0,0.0,0.0,0
7760000,0,0.7071099,0.00015753768,0.00015782415,0.70711005,0.0,0.0,0.0,0.0,0
7768000,0,0.7071099,0.00015771406,0.00015800052,0.70711005,0.0,0.0,0.0,0.0,0
7780000,0,0.7071099,0.00015797862,0.00015826509,0.70711005,0.0,0.0,0.0,0.0,0
7788000,0,0.7071099,0.000158155,0.00015844147,0.70711005,0.0,0.0,0.0,0.0,0
7800000,0,0.7071099,0.00015841957,0.00015870604,0.70711005,0.0,0.0,0.0,0.0,0
7808000,0,0.7071099,0.00015859594,0.00015888241,0.70711005,0.0,0.0,0.0,0.0,0
7820000,0,0.7071099,0.00015886051,0.00015914698,0.70711005,0.0,0.0,0.0,0.0,0
7828000,0,0.7071099,0.00015903689,0.00015932336,0.70711005,0.0,0.0,0.0,0.0,0
7840000,0,0.7071099,0.00015930146,0.00015958793,0.70711005,0.0,0.0,0.0,0.0,0
7848000,0,0.7071099,0.00015947783,0.0001597643,0.70711005,0.0,0.0,0.0,0.0,0
7860000,0,0.7071099,0.0001597424,0.00016002887,0.70711005,0.0,0.0,0.0,0.0,0
7868000,0,0.7071099,0.00015991878,0.00016020525,0.70711005,0.0,0.0,0.0,0.0,0
7880000,0,0.7071099,0.00016018335,0.0001604698,0.70711005,0.0,0.0,0.0,0.0,0
7888000,0,0.7071099,0.00016035972,0.00016064619,0.70711005,0.0,0.0,0.0,0.0,0
7900000,0,0.7071099,0.00016062429,0.00016091076,0.70711005,0.0,0.0,0.0,0.0,0
7908000,0,0.7071099,0.00016080067,0.00016108713,0.70711005,0.0,0.0,0.0,0.0,0
7920000,0,0.7071099,0.00016106524,0.0001613517,0.70711005,0.0,0.0,0.0,0.0,0
7928000,0,0.7071099,0.00016124161,0.00016152808,0.70711005,0.0,0.0,0.0,0.0,0
7940000,0,0.7071099,0.00016150618,0.00016179265,0.70711005,0.0,0.0,0.0,0.0,0
7948000,0,0.7071099,0.00016168256,0.00016196902,0.70711005,0.0,0.0,0.0,0.0,0
7960000,0,0.7071099,0.00016194711,0.00016223358,0.70711005,0.0,0.0,0.0,0.0,0
7968000,0,0.7071099,0.0001621235,0.00016240997,0.70711005,0.0,0.0,0.0,0.0,0
7980000,0,0.7071099,0.00016238807,0.00016267454,0.70711005,0.0,0.0,0.0,0.0,0
7984000,0,0.7071099,0.00016247625,0.00016276272,0.70711005,0.0,0.0,0.0,0.0,0
8000000,0,0.7071099,0.000162829,0.00016311547,0.70711005,0.0,0.0,0.0,0.0,0
8008000,0,0.7071099,0.00016300539,0.00016329186,0.70711005,0.0,0.0,0.0,0.0,0
8016000,0,0.7071099,0.00016318177,0.00016346823,0.70711005,0.0,0.0,0.0,0.0,0
8024000,0,0.7071099,0.00016335814,0.00016364461,0.70711005,0.0,0.0,0.0,0.0,0
8040000,0,0.7071099,0.0001637109,0.00016399736,0.70711005,0.0,0.0,0.0,0.0,0
8048000,0,0.7071099,0.00016388728,0.00016417375,0.70711005,0.0,0.0,0.0,0.0,0
8060000,0,0.7071099,0.00016415185,0.00016443832,0.70711005,0.0,0.0,0.0,0.0,0
8068000,0,0.7071099,0.00016432823,0.00016461468,0.70711005,0.0,0.0,0.0,0.0,0
8080000,0,0.7071099,0.00016459278,0.00016487925,0.70711005,0.0,0.0,0.0,0.0,0
8088000,0,0.7071099,0.00016476917,0.00016505564,0.70711005,0.0,0.0,0.0,0.0,0
8100000,0,0.7071099,0.00016503374,0.0001653202,0.70711005,0.0,0.0,0.0,0.0,0
8108000,0,0.7071099,0.00016521012,0.00016549657,0.70711005,0.0,0.0,0.0,0.0,0
8120000,0,0.7071099,0.00016547469,0.00016576114,0.70711005,0.0,0.0,0.0,0.0,0
8128000,0,0.7071099,0.00016565106,0.00016593753,0.70711005,0.0,0.0,0.0,0.0,0
8136000,0,0.7071099,0.00016582744,0.00016611391,0.70711005,0.0,0.0,0.0,0.0,0
8148000,0,0.7071099,0.00016609201,0.00016637846,0.70711005,0.0,0.0,0.0,0.0,0
8160000,0,0.7071099,0.00016635658,0.00016664303,0.70711005,0.0,0.0,0.0,0.0,0
8168000,0,0.7071099,0.00016653295,0.00016681942,0.70711005,0.0,0.0,0.0,0.0,0
8180000,0,0.7071099,0.00016679752,0.00016708398,0.70711005,0.0,0.0,0.0,0.0,0
8188000,0,0.7071099,0.0001669739,0.00016726037,0.70711005,0.0,0.0,0.0,0.0,0
8200000,0,0.7071099,0.00016723847,0.00016752492,0.70711005,0.0,0.0,0.0,0.0,0
8208000,0,0.7071099,0.00016741484,0.0001677013,0.70711005,0.0,0.0,0.0,0.0,0
8220000,0,0.7071099,0.0001676794,0.00016796587,0.70711005,0.0,0.0,0.0,0.0,0
8228000,0,0.7071099,0.00016785579,0.00016814226,0.70711005,0.0,0.0,0.0,0.0,0
8240000,0,0.7071099,0.00016812036,0.00016840683,0.70711005,0.0,0.0,0.0,0.0,0
8248000,0,0.7071099,0.00016829673,0.0001685832,0.70711005,0.0,0.0,0.0,0.0,0
8260000,0,0.7071099,0.0001685613,0.00016884776,0.70711005,0.0,0.0,0.0,0.0,0
8268000,0,0.7071099,0.00016873768,0.00016902415,0.70711005,0.0,0.0,0.0,0.0,0
8280000,0,0.7071099,0.00016900225,0.00016928872,0.70711005,0.0,0.0,0.0,0.0,0
8288000,0,0.7071099,0.00016917863,0.00016946509,0.70711005,0.0,0.0,0.0,0.0,0
8300000,0,0.7071099,0.0001694432,0.00016972965,0.70711005,0.0,0.0,0.0,0.0,0
8308000,0,0.7071099,0.00016961957,0.00016990604,0.70711005,0.0,0.0,0.0,0.0,0
8316000,0,0.7071099,0.00016979595,0.00017008242,0.70711005,0.0,0.0,0.0,0.0,0
8328000,0,0.7071099,0.00017006052,0.00017034699,0.70711005,0.0,0.0,0.0,0.0,0
8340000,0,0.7071099,0.00017032509,0.00017061156,0.70711005,0.0,0.0,0.0,0.0,0
8348000,0,0.7071099,0.00017050146,0.00017078793,0.70711005,0.0,0.0,0.0,0.0,0
8360000,0,0.7071099,0.00017076603,0.0001710525,0.70711005,0.0,0.0,0.0,0.0,0
8368000,0,0.7071099,0.00017094241,0.00017122888,0.70711005,0.0,0.0,0.0,0.0,0
8380000,0,0.7071099,0.00017120698,0.00017149345,0.70711005,0.0,0.0,0.0,0.0,0
8388000,0,0.7071099,0.00017138336,0.00017166982,0.70711005,0.0,0.0,0.0,0.0,0
8396000,0,0.7071099,0.00017155973,0.0001718462,0.70711005,0.0,0.0,0.0,0.0,0
8408000,0,0.7071099,0.0001718243,0.00017211077,0.70711005,0.0,0.0,0.0,0.0,0
8420000,0,0.7071099,0.00017208887,0.00017237534,0.70711005,0.0,0.0,0.0,0.0,0
8428000,0,0.7071099,0.00017226525,0.00017255172,0.70711005,0.0,0.0,0.0,0.0,0
8436000,0,0.7071099,0.00017244164,0.00017272809,0.70711005,0.0,0.0,0.0,0.0,0
8448000,0,0.7071099,0.0001727062,0.00017299266,0.70711005,0.0,0.0,0.0,0.0,0
8460000,0,0.7071099,0.00017297077,0.00017325723,0.70711005,0.0,0.0,0.0,0.0,0
8468000,0,0.7071099,0.00017314714,0.00017343361,0.70711005,0.0,0.0,0.0,0.0,0
8480000,0,0.7071099,0.00017341171,0.00017369818,0.70711005,0.0,0.0,0.0,0.0,0
8488000,0,0.7071099,0.0001735881,0.00017387456,0.70711005,0.0,0.0,0.0,0.0,0
8500000,0,0.7071099,0.00017385266,0.00017413913,0.70711005,0.0,0.0,0.0,0.0,0
8508000,0,0.7071099,0.00017402905,0.0001743155,0.70711005,0.0,0.0,0.0,0.0,0
8520000,0,0.7071099,0.00017429361,0.00017458007,0.70711005,0.0,0.0,0.0,0.0,0
8528000,0,0.7071099,0.00017446998,0.00017475645,0.70711005,0.0,0.0,0.0,0.0,0
8540000,0,0.7071099,0.00017473455,0.00017502102,0.70711005,0.0,0.0,0.0,0.0,0
8548000,0,0.7071099,0.00017491094,0.0001751974,0.70711005,0.0,0.0,0.0,0.0,0
8556000,0,0.7071099,0.00017508732,0.00017537377,0.70711005,0.0,0.0,0.0,0.0,0
8564000,0,0.7071099,0.00017526369,0.00017555016,0.70711005,0.0,0.0,0.0,0.0,0
8580000,0,0.7071099,0.00017561646,0.00017590291,0.70711005,0.0,0.0,0.0,0.0,0
8588000,0,0.7071099,0.00017579283,0.0001760793,0.70711005,0.0,0.0,0.0,0.0,0
8600000,0,0.7071099,0.0001760574,0.00017634386,0.70711005,0.0,0.0,0.0,0.0,0
8608000,0,0.7071099,0.00017623378,0.00017652025,0.70711005,0.0,0.0,0.0,0.0,0
8620000,0,0.7071099,0.00017649835,0.00017678482,0.70711005,0.0,0.0,0.0,0.0,0
8628000,0,0.7071099,0.00017667473,0.00017696118,0.70711005,0.0,0.0,0.0,0.0,0
8640000,0,0.7071099,0.0001769393,0.00017722575,0.70711005,0.0,0.0,0.0,0.0,0
8648000,0,0.7071099,0.00017711567,0.00017740214,0.70711005,0.0,0.0,0.0,0.0,0
8660000,0,0.7071099,0.00017738024,0.0001776667,0.70711005,0.0,0.0,0.0,0.0,0
8668000,0,0.7071099,0.00017755662,0.00017784309,0.70711005,0.0,0.0,0.0,0.0,0
8680000,0,0.7071099,0.00017782119,0.00017810766,0.70711005,0.0,0.0,0.0,0.0,0
8688000,0,0.7071099,0.00017799757,0.00017828404,0.70711005,0.0,0.0,0.0,0.0,0
8700000,0,0.7071099,0.00017826214,0.00017854861,0.70711005,0.0,0.0,0.0,0.0,0
8708000,0,0.7071099,0.00017843852,0.00017872498,0.70711005,0.0,0.0,0.0,0.0,0
8720000,0,0.7071099,0.00017870309,0.00017898955,0.70711005,0.0,0.0,0.0,0.0,0
8728000,0,0.7071099,0.00017887946,0.00017916593,0.70711005,0.0,0.0,0.0,0.0,0
8740000,0,0.7071099,0.00017914403,0.0001794305,0.70711005,0.0,0.0,0.0,0.0,0
8748000,0,0.7071099,0.00017932041,0.00017960688,0.70711005,0.0,0.0,0.0,0.0,0
8760000,0,0.7071099,0.00017958498,0.00017987145,0.70711005,0.0,0.0,0.0,0.0,0
8768000,0,0.7071099,0.00017976137,0.00018004783,0.70711005,0.0,0.0,0.0,0.0,0
8780000,0,0.7071099,0.00018002593,0.0001803124,0.70711005,0.0,0.0,0.0,0.0,0
8788000,0,0.7071099,0.00018020232,0.00018048877,0.70711005,0.0,0.0,0.0,0.0,0
8800000,0,0.7071099,0.00018046689,0.00018075334,0.70711005,0.0,0.0,0.0,0.0,0
8808000,0,0.7071099,0.00018064326,0.00018092972,0.70711005,0.0,0.0,0.0,0.0,0
8820000,0,0.7071099,0.00018090782,0.0001811943,0.70711005,0.0,0.0,0.0,0.0,0
8828000,0,0.7071099,0.00018108421,0.00018137068,0.70711005,0.0,0.0,0.0,0.0,0
8840000,0,0.7071099,0.00018134878,0.00018163525,0.70711005,0.0,0.0,0.0,0.0,0
8848000,0,0.7071099,0.00018152516,0.00018181163,0.70711005,0.0,0.0,0.0,0.0,0
8860000,0,0.7071099,0.00018178973,0.0001820762,0.70711005,0.0,0.0,0.0,0.0,0
8868000,0,0.7071099,0.00018196611,0.00018225257,0.70711005,0.0,0.0,0.0,0.0,0
8880000,0,0.7071099,0.00018223068,0.00018251713,0.70711005,0.0,0.0,0.0,0.0,0
8888000,0,0.7071099,0.00018240706,0.00018269352,0.70711005,0.0,0.0,0.0,0.0,0
8900000,0,0.7071099,0.00018267163,0.00018295809,0.70711005,0.0,0.0,0.0,0.0,0
8908000,0,0.7071099,0.000182848,0.00018313447,0.70711005,0.0,0.0,0.0,0.0,0
8920000,0,0.7071099,0.00018311257,0.00018339904,0.70711005,0.0,0.0,0.0,0.0,0
8928000,0,0.7071099,0.00018328895,0.00018357542,0.70711005,0.0,0.0,0.0,0.0,0
8940000,0,0.7071099,0.00018355352,0.00018383999,0.70711005,0.0,0.0,0.0,0.0,0
8948000,0,0.7071099,0.0001837299,0.00018401637,0.70711005,0.0,0.0,0.0,0.0,0
8960000,0,0.7071099,0.00018399447,0.00018428094,0.70711005,0.0,0.0,0.0,0.0,0
8968000,0,0.7071099,0.00018417086,0.00018445731,0.70711005,0.0,0.0,0.0,0.0,0
8980000,0,0.7071099,0.00018443543,0.0001847219,0.70711005,0.0,0.0,0.0,0.0,0
8988000,0,0.7071099,0.00018461181,0.00018489826,0.70711005,0.0,0.0,0.0,0.0,0
9000000,0,0.7071099,0.00018487638,0.00018516283,0.70711005,0.0,0.0,0.0,0.0,0
9004000,0,0.7071099,0.00018496456,0.00018525103,0.70711005,0.0,0.0,0.0,0.0,0
9020000,0,0.7071099,0.00018531733,0.00018560379,0.70711005,0.0,0.0,0.0,0.0,0
9028000,0,0.7071099,0.0001854937,0.00018578017,0.70711005,0.0,0.0,0.0,0.0,0
9040000,0,0.7071099,0.00018575827,0.00018604474,0.70711005,0.0,0.0,0.0,0.0,0
9048000,0,0.7071099,0.00018593465,0.00018622112,0.70711005,0.0,0.0,0.0,0.0,0
9060000,0,0.7071099,0.00018619922,0.00018648569,0.70711005,0.0,0.0,0.0,0.0,0
9068000,0,0.7071099,0.0001863756,0.00018666207,0.70711005,0.0,0.0,0.0,0.0,0
9080000,0,0.7071099,0.00018664017,0.00018692664,0.70711005,0.0,0.0,0.0,0.0,0
9088000,0,0.7071099,0.00018681656,0.00018710303,0.70711005,0.0,0.0,0.0,0.0,0
9100000,0,0.7071099,0.00018708112,0.0001873676,0.70711005,0.0,0.0,0.0,0.0,0
9108000,0,0.7071099,0.00018725751,0.00018754396,0.70711005,0.0,0.0,0.0,0.0,0
9120000,0,0.7071099,0.00018752208,0.00018780855,0.70711005,0.0,0.0,0.0,0.0,0
9128000,0,0.7071099,0.00018769846,0.00018798492,0.70711005,0.0,0.0,0.0,0.0,0
9140000,0,0.7071099,0.00018796303,0.00018824948,0.70711005,0.0,0.0,0.0,0.0,0
9148000,0,0.7071099,0.00018813941,0.00018842587,0.70711005,0.0,0.0,0.0,0.0,0
9160000,0,0.7071099,0.00018840398,0.00018869044,0.70711005,0.0,0.0,0.0,0.0,0
9168000,0,0.7071099,0.00018858035,0.00018886682,0.70711005,0.0,0.0,0.0,0.0,0
9176000,0,0.7071099,0.00018875673,0.0001890432,0.70711005,0.0,0.0,0.0,0.0,0
9184000,0,0.7071099,0.00018893312,0.00018921959,0.70711005,0.0,0.0,0.0,0.0,0
9196000,0,0.7071099,0.00018919769,0.00018948416,0.70711005,0.0,0.0,0.0,0.0,0
9208000,0,0.7071099,0.00018946225,0.00018974872,0.70711005,0.0,0.0,0.0,0.0,0
9220000,0,0.7071099,0.00018972682,0.00019001329,0.70711005,0.0,0.0,0.0,0.0,0
9228000,0,0.7071099,0.0001899032,0.00019018968,0.70711005,0.0,0.0,0.0,0.0,0
9240000,0,0.7071099,0.00019016778,0.00019045424,0.70711005,0.0,0.0,0.0,0.0,0
9248000,0,0.7071099,0.00019034416,0.00019063063,0.70711005,0.0,0.0,0.0,0.0,0
9260000,0,0.7071099,0.00019060873,0.0001908952,0.70711005,0.0,0.0,0.0,0.0,0
9268000,0,0.7071099,0.00019078511,0.00019107158,0.70711005,0.0,0.0,0.0,0.0,0
9280000,0,0.7071099,0.00019104968,0.00019133615,0.70711005,0.0,0.0,0.0,0.0,0
9288000,0,0.7071099,0.00019122606,0.00019151253,0.70711005,0.0,0.0,0.0,0.0,0
9300000,0,0.7071099,0.00019149063,0.0001917771,0.70711005,0.0,0.0,0.0,0.0,0
9308000,0,0.7071099,0.00019166702,0.00019195347,0.70711005,0.0,0.0,0.0,0.0,0
9320000,0,0.7071099,0.00019193158,0.00019221805,0.70711005,0.0,0.0,0.0,0.0,0
9324000,0,0.7071099,0.00019201978,0.00019230624,0.70711005,0.0,0.0,0.0,0.0,0
9340000,0,0.7071099,0.00019237254,0.000192659,0.70711005,0.0,0.0,0.0,0.0,0
9348000,0,0.7071099,0.00019254892,0.00019283537,0.70711005,0.0,0.0,0.0,0.0,0
9360000,0,0.7071099,0.00019281349,0.00019309996,0.70711005,0.0,0.0,0.0,0.0,0
9368000,0,0.7071099,0.00019298987,0.00019327633,0.70711005,0.0,0.0,0.0,0.0,0
9380000,0,0.7071099,0.00019325444,0.00019354091,0.70711005,0.0,0.0,0.0,0.0,0
9388000,0,0.7071099,0.00019343082,0.00019371728,0.70711005,0.0,0.0,0.0,0.0,0
9400000,0,0.7071099,0.00019369539,0.00019398185,0.70711005,0.0,0.0,0.0,0.0,0
9408000,0,0.7071099,0.00019387178,0.00019415823,0.70711005,0.0,0.0,0.0,0.0,0
9420000,0,0.7071099,0.00019413634,0.0001944228,0.70711005,0.0,0.0,0.0,0.0,0
9428000,0,0.7071099,0.00019431273,0.00019459918,0.70711005,0.0,0.0,0.0,0.0,0
9440000,0,0.7071099,0.0001945773,0.00019486375,0.70711005,0.0,0.0,0.0,0.0,0
9448000,0,0.7071099,0.00019475368,0.00019504013,0.70711005,0.0,0.0,0.0,0.0,0
9460000,0,0.7071099,0.00019501825,0.0001953047,0.70711005,0.0,0.0,0.0,0.0,0
9468000,0,0.7071099,0.00019519463,0.00019548109,0.70711005,0.0,0.0,0.0,0.0,0
9476000,0,0.7071099,0.00019537102,0.00019565747,0.70711005,0.0,0.0,0.0,0.0,0
9484000,0,0.7071099,0.00019554739,0.00019583385,0.70711005,0.0,0.0,0.0,0.0,0
9500000,0,0.7071099,0.00019590015,0.00019618661,0.70711005,0.0,0.0,0.0,0.0,0
9508000,0,0.7071099,0.00019607654,0.00019636299,0.70711005,0.0,0.0,0.0,0.0,0
9520000,0,0.7071099,0.0001963411,0.00019662756,0.70711005,0.0,0.0,0.0,0.0,0
9528000,0,0.7071099,0.00019651749,0.00019680394,0.70711005,0.0,0.0,0.0,0.0,0
9540000,0,0.7071099,0.00019678206,0.00019706851,0.70711005,0.0,0.0,0.0,0.0,0
9548000,0,0.7071099,0.00019695844,0.0001972449,0.70711005,0.0,0.0,0.0,0.0,0
9560000,0,0.7071099,0.00019722301,0.00019750948,0.70711005,0.0,0.0,0.0,0.0,0
9568000,0,0.7071099,0.0001973994,0.00019768585,0.70711005,0.0,0.0,0.0,0.0,0
9580000,0,0.7071099,0.00019766396,0.00019795043,0.70711005,0.0,0.0,0.0,0.0,0
9588000,0,0.7071099,0.00019784035,0.0001981268,0.70711005,0.0,0.0,0.0,0.0,0
9596000,0,0.7071099,0.00019801673,0.00019830318,0.70711005,0.0,0.0,0.0,0.0,0
9608000,0,0.7071099,0.0001982813,0.00019856775,0.70711005,0.0,0.0,0.0,0.0,0
9620000,0,0.7071099,0.00019854587,0.00019883233,0.70711005,0.0,0.0,0.0,0.0,0
9628000,0,0.7071099,0.00019872225,0.0001990087,0.70711005,0.0,0.0,0.0,0.0,0
9640000,0,0.7071099,0.00019898682,0.00019927329,0.70711005,0.0,0.0,0.0,0.0,0
9648000,0,0.7071099,0.0001991632,0.00019944967,0.70711005,0.0,0.0,0.0,0.0,0
9660000,0,0.7071099,0.00019942777,0.00019971424,0.70711005,0.0,0.0,0.0,0.0,0
9668000,0,0.7071099,0.00019960415,0.00019989062,0.70711005,0.0,0.0,0.0,0.0,0
9680000,0,0.7071099,0.00019986872,0.00020015519,0.70711005,0.0,0.0,0.0,0.0,0
9688000,0,0.7071099,0.0002000451,0.00020033157,0.70711005,0.0,0.0,0.0,0.0,0
9700000,0,0.7071099,0.00020030967,0.00020059614,0.70711005,0.0,0.0,0.0,0.0,0
9708000,0,0.7071099,0.00020048606,0.00020077253,0.70711005,0.0,0.0,0.0,0.0,0
9720000,0,0.7071099,0.00020075064,0.0002010371,0.70711005,0.0,0.0,0.0,0.0,0
9728000,0,0.7071099,0.00020092701,0.00020121348,0.70711005,0.0,0.0,0.0,0.0,0
9740000,0,0.7071099,0.0002011916,0.00020147805,0.70711005,0.0,0.0,0.0,0.0,0
9748000,0,0.7071099,0.00020136796,0.00020165443,0.70711005,0.0,0.0,0.0,0.0,0
9760000,0,0.7071099,0.00020163255,0.000201919,0.70711005,0.0,0.0,0.0,0.0,0
9768000,0,0.7071099,0.00020180893,0.00020209538,0.70711005,0.0,0.0,0.0,0.0,0
9780000,0,0.7071099,0.0002020735,0.00020235995,0.70711005,0.0,0.0,0.0,0.0,0
9788000,0,0.7071099,0.00020224988,0.00020253634,0.70711005,0.0,0.0,0.0,0.0,0
9800000,0,0.7071099,0.00020251445,0.0002028009,0.70711005,0.0,0.0,0.0,0.0,0
9808000,0,0.7071099,0.00020269083,0.00020297729,0.70711005,0.0,0.0,0.0,0.0,0
9820000,0,0.7071099,0.0002029554,0.00020324186,0.70711005,0.0,0.0,0.0,0.0,0
9828000,0,0.7071099,0.00020313179,0.00020341824,0.70711005,0.0,0.0,0.0,0.0,0
9840000,0,0.7071099,0.00020339635,0.00020368282,0.70711005,0.0,0.0,0.0,0.0,0
9848000,0,0.7071099,0.00020357274,0.00020385919,0.70711005,0.0,0.0,0.0,0.0,0
9860000,0,0.7071099,0.0002038373,0.00020412377,0.70711005,0.0,0.0,0.0,0.0,0
9868000,0,0.7071099,0.00020401369,0.00020430016,0.70711005,0.0,0.0,0.0,0.0,0
9880000,0,0.7071099,0.00020427826,0.00020456473,0.70711005,0.0,0.0,0.0,0.0,0
9888000,0,0.7071099,0.00020445464,0.00020474111,0.70711005,0.0,0.0,0.0,0.0,0
9896000,0,0.7071099,0.00020463103,0.0002049175,0.70711005,0.0,0.0,0.0,0.0,0
9904000,0,0.7071099,0.00020480741,0.00020509386,0.70711005,0.0,0.0,0.0,0.0,0
9920000,0,0.7071099,0.00020516018,0.00020544663,0.70711005,0.0,0.0,0.0,0.0,0
9928000,0,0.7071099,0.00020533656,0.00020562302,0.70711005,0.0,0.0,0.0,0.0,0
9940000,0,0.7071099,0.00020560113,0.00020588758,0.70711005,0.0,0.0,0.0,0.0,0
9948000,0,0.7071099,0.00020577751,0.00020606397,0.70711005,0.0,0.0,0.0,0.0,0
9960000,0,0.7071099,0.00020604208,0.00020632855,0.70711005,0.0,0.0,0.0,0.0,0
9968000,0,0.7071099,0.00020621846,0.00020650492,0.70711005,0.0,0.0,0.0,0.0,0
9980000,0,0.7071099,0.00020648303,0.0002067695,0.70711005,0.0,0.0,0.0,0.0,0
9988000,0,0.7071099,0.00020665942,0.00020694589,0.70711005,0.0,0.0,0.0,0.0,0
10000000,0,0.7071099,0.00020692399,0.00020721045,0.70711005,0.0,0.0,0.0,0.0,0
10008000,0,0.7071099,0.00020710037,0.00020738684,0.70711005,0.0,0.0,0.0,0.0,0
10020000,0,0.7071099,0.00020736495,0.0002076514,0.70711005,0.0,0.0,0.0,0.0,0
10028000,0,0.7071099,0.00020754134,0.00020782779,0.70711005,0.0,0.0,0.0,0.0,0
10040000,0,0.7071099,0.0002078059,0.00020809236,0.70711005,0.0,0.0,0.0,0.0,0
10044000,0,0.7071099,0.00020789409,0.00020818056,0.70711005,0.0,0.0,0.0,0.0,0
10060000,0,0.7071099,0.00020824686,0.00020853331,0.70711005,0.0,0.0,0.0,0.0,0
10068000,0,0.7071099,0.00020842324,0.0002087097,0.70711005,0.0,0.0,0.0,0.0,0
10080000,0,0.7071099,0.00020868781,0.00020897428,0.70711005,0.0,0.0,0.0,0.0,0
10088000,0,0.7071099,0.00020886419,0.00020915066,0.70711005,0.0,0.0,0.0,0.0,0
10100000,0,0.7071099,0.00020912876,0.00020941523,0.70711005,0.0,0.0,0.0,0.0,0
10108000,0,0.7071099,0.00020930514,0.00020959161,0.70711005,0.0,0.0,0.0,0.0,0
10120000,0,0.7071099,0.00020956973,0.00020985618,0.70711005,0.0,0.0,0.0,0.0,0
10128000,0,0.7071099,0.00020974611,0.00021003257,0.70711005,0.0,0.0,0.0,0.0,0
10140000,0,0.7071099,0.00021001068,0.00021029713,0.70711005,0.0,0.0,0.0,0.0,0
10148000,0,0.7071099,0.00021018706,0.00021047352,0.70711005,0.0,0.0,0.0,0.0,0
10160000,0,0.7071099,0.00021045163,0.0002107381,0.70711005,0.0,0.0,0.0,0.0,0
10168000,0,0.7071099,0.00021062802,0.00021091447,0.70711005,0.0,0.0,0.0,0.0,0
10176000,0,0.7071099,0.0002108044,0.00021109085,0.70711005,0.0,0.0,0.0,0.0,0
10188000,0,0.7071099,0.00021106897,0.00021135544,0.70711005,0.0,0.0,0.0,0.0,0
10200000,0,0.7071099,0.00021133355,0.00021162,0.70711005,0.0,0.0,0.0,0.0,0
10208000,0,0.7071099,0.00021150993,0.00021179639,0.70711005,0.0,0.0,0.0,0.0,0
10220000,0,0.7071099,0.0002117745,0.00021206096,0.70711005,0.0,0.0,0.0,0.0,0
10228000,0,0.7071099,0.00021195089,0.00021223734,0.70711005,0.0,0.0,0.0,0.0,0
10240000,0,0.7071099,0.00021221545,0.00021250192,0.70711005,0.0,0.0,0.0,0.0,0
10248000,0,0.7071099,0.00021239184,0.0002126783,0.70711005,0.0,0.0,0.0,0.0,0
10260000,0,0.7071099,0.0002126564,0.00021294288,0.70711005,0.0,0.0,0.0,0.0,0
10268000,0,0.7071099,0.00021283279,0.00021311926,0.70711005,0.0,0.0,0.0,0.0,0
10280000,0,0.7071099,0.00021309737,0.00021338383,0.70711005,0.0,0.0,0.0,0.0,0
10288000,0,0.7071099,0.00021327376,0.00021356021,0.70711005,0.0,0.0,0.0,0.0,0
10300000,0,0.7071099,0.00021353833,0.00021382478,0.70711005,0.0,0.0,0.0,0.0,0
10308000,0,0.7071099,0.00021371471,0.00021400116,0.70711005,0.0,0.0,0.0,0.0,0
10320000,0,0.7071099,0.00021397928,0.00021426575,0.70711005,0.0,0.0,0.0,0.0,0
10328000,0,0.7071099,0.00021415566,0.00021444213,0.70711005,0.0,0.0,0.0,0.0,0
10340000,0,0.7071099,0.00021442024,0.0002147067,0.70711005,0.0,0.0,0.0,0.0,0
10348000,0,0.7071099,0.00021459663,0.00021488308,0.70711005,0.0,0.0,0.0,0.0,0
10360000,0,0.7071099,0.0002148612,0.00021514765,0.70711005,0.0,0.0,0.0,0.0,0
10368000,0,0.7071099,0.00021503758,0.00021532403,0.70711005,0.0,0.0,0.0,0.0,0
10380000,0,0.7071099,0.00021530215,0.00021558862,0.70711005,0.0,0.0,0.0,0.0,0
10388000,0,0.7071099,0.00021547853,0.00021576499,0.70711005,0.0,0.0,0.0,0.0,0
10400000,0,0.7071099,0.00021574312,0.00021602957,0.70711005,0.0,0.0,0.0,0.0,0
10408000,0,0.7071099,0.00021591948,0.00021620595,0.70711005,0.0,0.0,0.0,0.0,0
10420000,0,0.7071099,0.00021618407,0.00021647052,0.70711005,0.0,0.0,0.0,0.0,0
10428000,0,0.7071099,0.00021636045,0.0002166469,0.70711005,0.0,0.0,0.0,0.0,0
10440000,0,0.7071099,0.00021662502,0.00021691149,0.70711005,0.0,0.0,0.0,0.0,0
10448000,0,0.7071099,0.0002168014,0.00021708786,0.70711005,0.0,0.0,0.0,0.0,0
10460000,0,0.7071099,0.00021706599,0.00021735244,0.70711005,0.0,0.0,0.0,0.0,0
10468000,0,0.7071099,0.00021724236,0.00021752882,0.70711005,0.0,0.0,0.0,0.0,0
10480000,0,0.7071099,0.00021750694,0.0002177934,0.70711005,0.0,0.0,0.0,0.0,0
10488000,0,0.7071099,0.00021768332,0.00021796978,0.70711005,0.0,0.0,0.0,0.0,0
10500000,0,0.7071099,0.00021794789,0.00021823436,0.70711005,0.0,0.0,0.0,0.0,0
10508000,0,0.7071099,0.00021812427,0.00021841074,0.70711005,0.0,0.0,0.0,0.0,0
10520000,0,0.7071099,0.00021838886,0.00021867531,0.70711005,0.0,0.0,0.0,0.0,0
10528000,0,0.7071099,0.00021856524,0.0002188517,0.70711005,0.0,0.0,0.0,0.0,0
10540000,0,0.7071099,0.00021882981,0.00021911626,0.70711005,0.0,0.0,0.0,0.0,0
10548000,0,0.7071099,0.0002190062,0.00021929265,0.70711005,0.0,0.0,0.0,0.0,0
10560000,0,0.7071099,0.00021927076,0.00021955723,0.70711005,0.0,0.0,0.0,0.0,0
10568000,0,0.7071099,0.00021944715,0.00021973361,0.70711005,0.0,0.0,0.0,0.0,0
10580000,0,0.70710987,0.00021971173,0.00021999818,0.70711005,0.0,0.0,0.0,0.0,0
10588000,0,0.70710987,0.00021988811,0.00022017457,0.70711005,0.0,0.0,0.0,0.0,0
10600000,0,0.70710987,0.00022015268,0.00022043913,0.70711005,0.0,0.0,0.0,0.0,0
10608000,0,0.70710987,0.00022032906,0.00022061552,0.70711005,0.0,0.0,0.0,0.0,0
10620000,0,0.70710987,0.00022059363,0.0002208801,0.70711005,0.0,0.0,0.0,0.0,0
10628000,0,0.70710987,0.00022077002,0.00022105649,0.70711005,0.0,0.0,0.0,0.0,0
10640000,0,0.70710987,0.0002210346,0.00022132105,0.70711005,0.0,0.0,0.0,0.0,0
10644000,0,0.70710987,0.00022112278,0.00022140925,0.70711005,0.0,0.0,0.0,0.0,0
10660000,0,0.70710987,0.00022147555,0.00022176202,0.70711005,0.0,0.0,0.0,0.0,0
10668000,0,0.70710987,0.00022165194,0.0002219384,0.70711005,0.0,0.0,0.0,0.0,0
10680000,0,0.70710987,0.00022191652,0.00022220297,0.70711005,0.0,0.0,0.0,0.0,0
10688000,0,0.70710987,0.0002220929,0.00022237936,0.70711005,0.0,0.0,0.0,0.0,0
10700000,0,0.70710987,0.00022235747,0.00022264392,0.70711005,0.0,0.0,0.0,0.0,0
10708000,0,0.70710987,0.00022253385,0.00022282031,0.70711005,0.0,0.0,0.0,0.0,0
10720000,0,0.70710987,0.00022279844,0.00022308489,0.70711005,0.0,0.0,0.0,0.0,0
10728000,0,0.70710987,0.00022297482,0.00022326128,0.70711005,0.0,0.0,0.0,0.0,0
10740000,0,0.70710987,0.00022323939,0.00022352584,0.70711005,0.0,0.0,0.0,0.0,0
10748000,0,0.70710987,0.00022341577,0.00022370223,0.70711005,0.0,0.0,0.0,0.0,0
10760000,0,0.70710987,0.00022368034,0.00022396681,0.70711005,0.0,0.0,0.0,0.0,0
10768000,0,0.70710987,0.00022385672,0.0002241432,0.70711005,0.0,0.0,0.0,0.0,0
10780000,0,0.70710987,0.00022412131,0.00022440776,0.70711005,0.0,0.0,0.0,0.0,0
10788000,0,0.70710987,0.00022429769,0.00022458415,0.70711005,0.0,0.0,0.0,0.0,0
10800000,0,0.70710987,0.00022456226,0.00022484873,0.70711005,0.0,0.0,0.0,0.0,0
10808000,0,0.70710987,0.00022473864,0.00022502511,0.70711005,0.0,0.0,0.0,0.0,0
10820000,0,0.70710987,0.00022500323,0.00022528968,0.70711005,0.0,0.0,0.0,0.0,0
10828000,0,0.70710987,0.00022517961,0.00022546606,0.70711005,0.0,0.0,0.0,0.0,0
10840000,0,0.70710987,0.00022544418,0.00022573065,0.70711005,0.0,0.0,0.0,0.0,0
10848000,0,0.70710987,0.00022562056,0.00022590703,0.70711005,0.0,0.0,0.0,0.0,0
10860000,0,0.70710987,0.00022588515,0.0002261716,0.70711005,0.0,0.0,0.0,0.0,0
10868000,0,0.70710987,0.00022606153,0.00022634798,0.70711005,0.0,0.0,0.0,0.0,0
10880000,0,0.70710987,0.0002263261,0.00022661257,0.70711005,0.0,0.0,0.0,0.0,0
10888000,0,0.70710987,0.00022650248,0.00022678895,0.70711005,0.0,0.0,0.0,0.0,0
10900000,0,0.70710987,0.00022676706,0.00022705352,0.70711005,0.0,0.0,0.0,0.0,0
10908000,0,0.70710987,0.00022694345,0.0002272299,0.70711005,0.0,0.0,0.0,0.0,0
10920000,0,0.70710987,0.00022720802,0.00022749449,0.70711005,0.0,0.0,0.0,0.0,0
10928000,0,0.70710987,0.0002273844,0.00022767087,0.70711005,0.0,0.0,0.0,0.0,0
10940000,0,0.70710987,0.00022764898,0.00022793544,0.70711005,0.0,0.0,0.0,0.0,0
10948000,0,0.70710987,0.00022782537,0.00022811182,0.70711005,0.0,0.0,0.0,0.0,0
10960000,0,0.70710987,0.00022808994,0.0002283764,0.70711005,0.0,0.0,0.0,0.0,0
10968000,0,0.70710987,0.00022826632,0.00022855279,0.70711005,0.0,0.0,0.0,0.0,0
10980000,0,0.70710987,0.0002285309,0.00022881736,0.70711005,0.0,0.0,0.0,0.0,0
10988000,0,0.70710987,0.00022870729,0.00022899374,0.70711005,0.0,0.0,0.0,0.0,0
11000000,0,0.70710987,0.00022897185,0.00022925832,0.70711005,0.0,0.0,0.0,0.0,0
11008000,0,0.70710987,0.00022914824,0.0002294347,0.70711005,0.0,0.0,0.0,0.0,0
11020000,0,0.70710987,0.00022941282,0.00022969928,0.70711005,0.0,0.0,0.0,0.0,0
11028000,0,0.70710987,0.0002295892,0.00022987566,0.70711005,0.0,0.0,0.0,0.0,0
11040000,0,0.70710987,0.00022985377,0.00023014024,0.70711005,0.0,0.0,0.0,0.0,0
11048000,0,0.70710987,0.00023003016,0.00023031663,0.70711005,0.0,0.0,0.0,0.0,0
11060000,0,0.70710987,0.00023029474,0.0002305812,0.70711005,0.0,0.0,0.0,0.0,0
11068000,0,0.70710987,0.00023047112,0.00023075758,0.70711005,0.0,0.0,0.0,0.0,0
11076000,0,0.70710987,0.0002306475,0.00023093396,0.70711005,0.0,0.0,0.0,0.0,0
11084000,0,0.70710987,0.00023082389,0.00023111035,0.70711005,0.0,0.0,0.0,0.0,0
11100000,0,0.70710987,0.00023117666,0.00023146311,0.70711005,0.0,0.0,0.0,0.0,0
11108000,0,0.70710987,0.00023135304,0.0002316395,0.70711005,0.0,0.0,0.0,0.0,0
11120000,0,0.70710987,0.00023161763,0.00023190408,0.70711005,0.0,0.0,0.0,0.0,0
11128000,0,0.70710987,0.00023179401,0.00023208046,0.70711005,0.0,0.0,0.0,0.0,0
11140000,0,0.70710987,0.00023205858,0.00023234503,0.70711005,0.0,0.0,0.0,0.0,0
11148000,0,0.70710987,0.00023223496,0.00023252142,0.70711005,0.0,0.0,0.0,0.0,0
11160000,0,0.70710987,0.00023249954,0.000232786,0.70711005,0.0,0.0,0.0,0.0,0
11168000,0,0.70710987,0.00023267593,0.00023296238,0.70711005,0.0,0.0,0.0,0.0,0
11180000,0,0.70710987,0.0002329405,0.00023322697,0.70711005,0.0,0.0,0.0,0.0,0
11188000,0,0.70710987,0.00023311688,0.00023340335,0.70711005,0.0,0.0,0.0,0.0,0
11200000,0,0.70710987,0.00023338146,0.00023366792,0.70711005,0.0,0.0,0.0,0.0,0
11208000,0,0.70710987,0.00023355785,0.0002338443,0.70711005,0.0,0.0,0.0,0.0,0
11220000,0,0.70710987,0.00023382243,0.00023410888,0.70711005,0.0,0.0,0.0,0.0,0
11224000,0,0.70710987,0.00023391061,0.00023419707,0.70711005,0.0,0.0,0.0,0.0,0
11240000,0,0.70710987,0.00023426338,0.00023454984,0.70711005,0.0,0.0,0.0,0.0,0
11248000,0,0.70710987,0.00023443977,0.00023472622,0.70711005,0.0,0.0,0.0,0.0,0
11260000,0,0.70710987,0.00023470435,0.0002349908,0.70711005,0.0,0.0,0.0,0.0,0
11268000,0,0.70710987,0.00023488073,0.00023516719,0.70711005,0.0,0.0,0.0,0.0,0
11280000,0,0.70710987,0.0002351453,0.00023543177,0.70711005,0.0,0.0,0.0,0.0,0
11288000,0,0.70710987,0.00023532168,0.00023560815,0.70711005,0.0,0.0,0.0,0.0,0
11300000,0,0.70710987,0.00023558627,0.00023587272,0.70711005,0.0,0.0,0.0,0.0,0
11308000,0,0.70710987,0.00023576265,0.0002360491,0.70711005,0.0,0.0,0.0,0.0,0
11320000,0,0.70710987,0.00023602723,0.00023631369,0.70711005,0.0,0.0,0.0,0.0,0
11328000,0,0.70710987,0.00023620362,0.00023649007,0.70711005,0.0,0.0,0.0,0.0,0
11340000,0,0.70710987,0.00023646819,0.00023675465,0.70711005,0.0,0.0,0.0,0.0,0
11348000,0,0.70710987,0.00023664457,0.00023693104,0.70711005,0.0,0.0,0.0,0.0,0
11360000,0,0.70710987,0.00023690915,0.0002371956,0.70711005,0.0,0.0,0.0,0.0,0
11368000,0,0.70710987,0.00023708554,0.00023737199,0.70711005,0.0,0.0,0.0,0.0,0
11376000,0,0.70710987,0.00023726192,0.00023754837,0.70711005,0.0,0.0,0.0,0.0,0
11388000,0,0.70710987,0.0002375265,0.00023781296,0.70711005,0.0,0.0,0.0,0.0,0
11400000,0,0.70710987,0.00023779107,0.00023807753,0.70711005,0.0,0.0,0.0,0.0,0
11408000,0,0.70710987,0.00023796746,0.00023825392,0.70711005,0.0,0.0,0.0,0.0,0
11420000,0,0.70710987,0.00023823204,0.00023851849,0.70711005,0.0,0.0,0.0,0.0,0
11428000,0,0.70710987,0.00023840842,0.00023869488,0.70711005,0.0,0.0,0.0,0.0,0
11440000,0,0.70710987,0.000238673,0.00023895946,0.70711005,0.0,0.0,0.0,0.0,0
11448000,0,0.70710987,0.00023884939,0.00023913584,0.70711005,0.0,0.0,0.0,0.0,0
11460000,0,0.70710987,0.00023911396,0.00023940043,0.70711005,0.0,0.0,0.0,0.0,0
11468000,0,0.70710987,0.00023929034,0.00023957681,0.70711005,0.0,0.0,0.0,0.0,0
11480000,0,0.70710987,0.00023955492,0.00023984138,0.70711005,0.0,0.0,0.0,0.0,0
11488000,0,0.70710987,0.00023973131,0.00024001776,0.70711005,0.0,0.0,0.0,0.0,0
11500000,0,0.70710987,0.00023999589,0.00024028234,0.70711005,0.0,0.0,0.0,0.0,0
11508000,0,0.70710987,0.00024017227,0.00024045873,0.70711005,0.0,0.0,0.0,0.0,0
11516000,0,0.70710987,0.00024034866,0.00024063511,0.70711005,0.0,0.0,0.0,0.0,0
11528000,0,0.70710987,0.00024061323,0.0002408997,0.70711005,0.0,0.0,0.0,0.0,0
11540000,0,0.70710987,0.00024087781,0.00024116426,0.70711005,0.0,0.0,0.0,0.0,0
11548000,0,0.70710987,0.0002410542,0.00024134065,0.70711005,0.0,0.0,0.0,0.0,0
11560000,0,0.70710987,0.00024131878,0.00024160523,0.70711005,0.0,0.0,0.0,0.0,0
11568000,0,0.70710987,0.00024149516,0.00024178161,0.70711005,0.0,0.0,0.0,0.0,0
11580000,0,0.70710987,0.00024175973,0.0002420462,0.70711005,0.0,0.0,0.0,0.0,0
11588000,0,0.70710987,0.00024193613,0.00024222258,0.70711005,0.0,0.0,0.0,0.0,0
11600000,0,0.70710987,0.0002422007,0.00024248715,0.70711005,0.0,0.0,0.0,0.0,0
11608000,0,0.70710987,0.00024237708,0.00024266355,0.70711005,0.0,0.0,0.0,0.0,0
11620000,0,0.70710987,0.00024264166,0.00024292812,0.70711005,0.0,0.0,0.0,0.0,0
11628000,0,0.70710987,0.00024281805,0.0002431045,0.70711005,0.0,0.0,0.0,0.0,0
11640000,0,0.70710987,0.00024308263,0.00024336908,0.70711005,0.0,0.0,0.0,0.0,0
11648000,0,0.70710987,0.00024325901,0.00024354547,0.70711005,0.0,0.0,0.0,0.0,0
11660000,0,0.70710987,0.00024352358,0.00024381005,0.70711005,0.0,0.0,0.0,0.0,0
11668000,0,0.70710987,0.00024369998,0.00024398643,0.70711005,0.0,0.0,0.0,0.0,0
11680000,0,0.70710987,0.00024396455,0.00024425102,0.70711005,0.0,0.0,0.0,0.0,0
11684000,0,0.70710987,0.00024405275,0.0002443392,0.70711005,0.0,0.0,0.0,0.0,0
