timestamp,timestamp_sample,time_last_fuse,device_id,observation[0],observation[1],observation[2],observation_variance[0],observation_variance[1],observation_variance[2],innovation[0],innovation[1],innovation[2],innovation_filtered[0],innovation_filtered[1],innovation_filtered[2],innovation_variance[0],innovation_variance[1],innovation_variance[2],test_ratio[0],test_ratio[1],test_ratio[2],test_ratio_filtered[0],test_ratio_filtered[1],test_ratio_filtered[2],estimator_instance,innovation_rejected,fused
3732000,3732000,3732000,0,0.0070719654,-0.0067744767,-0.9999521,1.0,1.0,1.0,6.855605e-05,1.2118835e-05,4.7683716e-07,6.855605e-05,1.2118835e-05,4.7683716e-07,1.0100001,1.0100002,1.000001,7.445437e-08,2.326592e-09,3.6379753e-12,7.445437e-08,2.326592e-09,3.6379753e-12,0,0,1
3892000,3740000,3740000,0,0.01069367,-0.012123801,-0.9998693,1.0,1.0,1.0,-0.0022245264,0.005613483,-7.367134e-05,0.0013143674,0.00032768154,7.815717e-06,1.0102818,1.0102822,1.0000012,7.837049e-05,0.00049904775,8.683936e-08,2.8065535e-05,8.780309e-06,-5.785794e-11,0,0,1
3900000,3748000,3748000,0,0.008204529,-0.0035842431,-0.9999599,1.0,1.0,1.0,0.00026292447,-0.0028040644,1.603365e-05,0.0012978093,0.0002783627,7.945134e-06,1.0103093,1.0103097,1.0000012,1.094782e-06,0.00012452067,4.1132417e-09,2.7640799e-05,6.6810812e-06,7.828675e-12,0,0,1
3908000,3756000,3756000,0,0.012323501,-0.0005269958,-0.9999239,1.0,1.0,1.0,-0.003826471,-0.0058169067,-1.9907951e-05,0.001217112,0.00018237422,7.5065027e-06,1.0103382,1.0103385,1.0000012,0.00023187294,0.0005358426,6.341217e-09,2.3553968e-05,-1.8625992e-06,-9.2156296e-11,0,0,1
3916000,3764000,3764000,0,0.0004191832,0.0014555648,-0.9999988,1.0,1.0,1.0,0.008056359,-0.0076921256,5.4121017e-05,0.0013248166,5.836635e-05,8.2405895e-06,1.0103682,1.0103686,1.0000011,0.0010278221,0.00093698554,4.6865303e-08,3.9369217e-05,-1.6588945e-05,6.473313e-10,0,0,1
3924000,3772000,3772000,0,-0.001427137,0.0036709148,-0.99999225,1.0,1.0,1.0,0.009976339,-0.009876367,4.8041344e-05,0.0014610611,-9.808614e-05,8.867373e-06,1.0103996,1.0103999,1.0000011,0.001576047,0.001544618,3.6927492e-08,6.356887e-05,-4.0652398e-05,1.2186724e-09,0,0,1
3940000,3788000,3788000,0,0.0058454922,0.0046531404,-0.99997216,1.0,1.0,1.0,0.0027075843,-0.010686566,2.7000904e-05,0.0015235803,-0.00021115749,9.033974e-06,1.0104662,1.0104666,1.0000011,0.00011608127,0.0018083162,1.1664769e-08,6.779818e-05,-6.50805e-05,1.3646408e-09,0,0,1
3948000,3796000,3796000,0,0.004782283,-0.0005773255,-0.9999883,1.0,1.0,1.0,0.0038330765,-0.0054884087,4.3809414e-05,0.0015599503,-0.00029426382,9.5816185e-06,1.0105014,1.0105017,1.0000012,0.0002326366,0.00047695325,3.07082e-08,7.039406e-05,-7.156668e-05,1.8267441e-09,0,0,1
3956000,3804000,3804000,0,0.00012624901,-0.0076757255,-0.9999705,1.0,1.0,1.0,0.0085150255,0.0016254005,2.6166439e-05,0.0016694791,-0.0002640329,9.842797e-06,1.0105379,1.0105383,1.0000012,0.0011479931,4.183001e-05,1.0954907e-08,8.7364126e-05,-6.978091e-05,1.9704947e-09,0,0,1
3964000,3812000,3812000,0,-0.00078587816,-0.006170863,-0.9999806,1.0,1.0,1.0,0.009324573,0.00019464549,3.4928322e-05,0.0017900317,-0.0002568096,1.0237844e-05,1.0105757,1.010576,1.0000011,0.0013766042,5.998459e-07,1.9519781e-08,0.00010766712,-6.867255e-05,2.2468614e-09,0,0,1
3980000,3828000,3828000,0,-0.0012900343,0.008079288,-0.9999666,1.0,1.0,1.0,0.009707192,-0.014250583,2.1100044e-05,0.0020269454,-0.00063276396,1.09615985e-05,1.010655,1.0106554,1.0000011,0.0014917782,0.0032150086,7.1233823e-09,0.00014780922,-0.00014316145,2.8112193e-09,0,0,1
3988000,3836000,3836000,0,-4.217015e-05,-0.0035755287,-0.99999356,1.0,1.0,1.0,0.008447257,-0.0025525752,4.7683716e-05,0.0021280525,-0.0006629972,1.15399e-05,1.0106966,1.010697,1.0000011,0.0011296152,0.00010314688,3.637975e-08,0.00016327073,-0.0001425313,3.3398575e-09,0,0,1
3996000,3844000,3844000,0,-0.0026283637,0.0027175888,-0.99999285,1.0,1.0,1.0,0.011079169,-0.008905463,4.7683716e-05,0.002269015,-0.0007927998,1.2109093e-05,1.0107396,1.0107399,1.0000011,0.0019430997,0.0012554331,3.637975e-08,0.00019129954,-0.0001600573,3.860171e-09,0,0,1
4004000,3852000,3852000,0,0.0025761088,0.00131611,-0.9999959,1.0,1.0,1.0,0.0058148056,-0.0075469147,5.054474e-05,0.0023248543,-0.00089916383,1.2714379e-05,1.0107838,1.0107841,1.0000012,0.00053521973,0.00090157206,4.087628e-08,0.0001967156,-0.0001717347,4.443102e-09,0,0,1
4020000,3868000,3868000,0,0.000105217434,-0.0039201044,-0.9999923,1.0,1.0,1.0,0.008338845,-0.0022682426,4.720688e-05,0.0024043187,-0.0012639968,1.13032875e-05,1.0108759,1.0108763,1.0000012,0.0011006113,8.143311e-05,3.5655788e-08,0.0002083425,-0.00029795425,1.6783963e-09,0,0,1
4028000,3876000,3876000,0,-0.0017289851,-0.00010731153,-0.99999857,1.0,1.0,1.0,0.01016116,-0.006049314,5.3048134e-05,0.0025264737,-0.0013393562,1.1960687e-05,1.010924,1.0109243,1.0000012,0.0016341354,0.00057918,4.502562e-08,0.00023079594,-0.000302383,2.3610296e-09,0,0,1
4036000,3884000,3884000,0,0.007757081,0.01349202,-0.9998789,1.0,1.0,1.0,0.000755345,-0.019680105,-6.574392e-05,0.002498582,-0.0016281869,1.0736992e-05,1.0109732,1.0109736,1.0000013,9.029653e-06,0.0061296406,6.915612e-08,0.00022730355,-0.00039415085,1.2347753e-09,0,0,1
4044000,3892000,3892000,0,0.0093565285,0.0048512667,-0.9999445,1.0,1.0,1.0,-0.00090154447,-0.011058418,-4.172325e-07,0.0024450368,-0.0017766944,1.0561335e-05,1.0110238,1.0110242,1.0000013,1.2862723e-05,0.0019352827,2.7853238e-12,0.0002235214,-0.00041842065,1.2152861e-09,0,0,1
4060000,3908000,3908000,0,-0.0033796488,-0.0044596745,-0.9999843,1.0,1.0,1.0,0.01179404,-0.0017391159,3.8921833e-05,0.002661262,-0.00168402,1.0844256e-05,1.0111288,1.0111291,1.0000013,0.0022010948,4.785975e-05,2.4238513e-08,0.00026286556,-0.00040184637,1.5590196e-09,0,0,1
4068000,3916000,3916000,0,-0.0024288082,-0.00039868007,-0.99999696,1.0,1.0,1.0,0.010905175,-0.005864827,5.2511692e-05,0.0027910874,-0.0017498595,1.1500437e-05,1.0111831,1.0111836,1.0000013,0.0018817218,0.0005442524,4.4119588e-08,0.00028835936,-0.000404089,2.2292648e-09,0,0,1
4076000,3924000,3924000,0,-0.006228966,-0.0033156818,-0.9999751,1.0,1.0,1.0,0.014628744,-0.0029593983,3.0100346e-05,0.0029775072,-0.0017689074,1.1793349e-05,1.0112389,1.0112393,1.0000013,0.0033859478,0.00013857117,1.4496474e-08,0.00033714029,-0.0003999076,2.4224491e-09,0,0,1
4084000,3932000,3932000,0,-0.002395426,-0.008661666,-0.99995965,1.0,1.0,1.0,0.010872119,0.0023922082,1.5199184e-05,0.0031018318,-0.001703378,1.1846984e-05,1.0112958,1.0112963,1.0000013,0.0018701231,9.0539805e-05,3.6962384e-09,0.00036128174,-0.00039218404,2.4425089e-09,0,0,1
4100000,3948000,3948000,0,-0.001371958,-0.007788457,-0.99996877,1.0,1.0,1.0,0.0097740935,0.001590563,2.3245811e-05,0.0033406266,-0.001705843,1.2608756e-05,1.0114132,1.0114136,1.0000013,0.0015112779,4.0021463e-05,8.6458725e-09,0.0004075257,-0.00038595253,3.1078506e-09,0,0,1
4108000,3956000,3956000,0,0.006826456,-0.004702278,-0.99996567,1.0,1.0,1.0,0.0016827895,-0.00152183,2.1219254e-05,0.0033145188,-0.0017029452,1.27443545e-05,1.011474,1.0114744,1.0000013,4.4794517e-05,3.6635098e-05,7.204098e-09,0.0004018134,-0.00038045147,3.1723584e-09,0,0,1
4116000,3964000,3964000,0,0.0037699959,-0.0014740506,-0.9999918,1.0,1.0,1.0,0.0048213303,-0.004754234,4.8041344e-05,0.0033382482,-0.001750997,1.3300212e-05,1.0115361,1.0115365,1.0000013,0.000367682,0.00035751937,3.692748e-08,0.0004012759,-0.00038009032,3.7039352e-09,0,0,1
4124000,3972000,3972000,0,-0.0027671999,0.00090033433,-0.9999957,1.0,1.0,1.0,0.011413802,-0.007146884,5.2511692e-05,0.0034654224,-0.0018359716,1.39177155e-05,1.0115994,1.0115999,1.0000013,0.0020604976,0.000807876,4.4119588e-08,0.00042740538,-0.0003868271,4.3404023e-09,0,0,1
4140000,3988000,3988000,0,0.0081990305,0.005576854,-0.9999508,1.0,1.0,1.0,0.0002862271,-0.011696272,5.543232e-06,0.0034343717,-0.002163294,1.39766125e-05,1.0117301,1.0117306,1.0000013,1.2956175e-06,0.0021634658,4.9163806e-10,0.00041946745,-0.00044982822,4.3830917e-09,0,0,1
4148000,3996000,3996000,0,0.0042109983,0.0036593706,-0.99998444,1.0,1.0,1.0,0.004209405,-0.0097040525,3.8146973e-05,0.003446577,-0.002282046,1.4357248e-05,1.0117973,1.0117977,1.0000013,0.0002801998,0.00148913,2.3283034e-08,0.00041727428,-0.00046619517,4.6807287e-09,0,0,1
4156000,4004000,4004000,0,-0.00076976535,-0.0033124145,-0.9999942,1.0,1.0,1.0,0.009130486,-0.0026343134,4.684925e-05,0.0035360872,-0.0022875934,1.4868933e-05,1.0118657,1.0118662,1.0000013,0.001318211,0.00010973162,3.511759e-08,0.00043146225,-0.00046058156,5.1600493e-09,0,0,1
4164000,4012000,4012000,0,0.00042635272,0.0046064653,-0.99998933,1.0,1.0,1.0,0.00791169,-0.010474803,4.1246414e-05,0.0036049944,-0.002416526,1.5284326e-05,1.0119356,1.0119361,1.0000012,0.0009897046,0.0017348368,2.7220235e-08,0.00044025347,-0.00048064857,5.5074536e-09,0,0,1
4180000,4028000,4028000,0,-0.0051033986,0.0012238908,-0.99998623,1.0,1.0,1.0,0.013509516,-0.007043373,3.8444996e-05,0.00392594,-0.0025200553,1.5925827e-05,1.0120789,1.0120794,1.0000012,0.0028852613,0.0007842721,2.3648255e-08,0.00052168255,-0.0004827134,5.9801413e-09,0,0,1
4188000,4036000,4036000,0,-0.0014187872,-0.0028116244,-0.99999505,1.0,1.0,1.0,0.009798682,-0.0029108154,4.6610832e-05,0.004018424,-0.002526209,1.6409056e-05,1.0121526,1.012153,1.0000012,0.0015177819,0.00013393779,3.4761072e-08,0.00053736917,-0.00047722086,6.4333845e-09,0,0,1
4196000,4044000,4044000,0,0.0057811313,0.002200179,-0.99998087,1.0,1.0,1.0,0.00258401,-0.007917061,3.2126904e-05,0.003995835,-0.0026111044,1.665658e-05,1.0122274,1.0122279,1.0000012,0.00010554319,0.0009907628,1.6514187e-08,0.00053056877,-0.00048530815,6.5921375e-09,0,0,1
4204000,4052000,4052000,0,0.0029786092,-0.007437083,-0.99996793,1.0,1.0,1.0,0.0054487456,0.0016803565,2.0086765e-05,0.004018715,-0.0025435223,1.6710599e-05,1.0123036,1.0123041,1.0000012,0.0004692478,4.462845e-05,6.4556427e-09,0.0005296031,-0.00047696268,6.589988e-09,0,0,1
4220000,4068000,4068000,0,0.0028042544,0.003055669,-0.9999914,1.0,1.0,1.0,0.0056960993,-0.0087641375,4.386902e-05,0.004084779,-0.0027525201,1.7545388e-05,1.0124598,1.0124602,1.0000013,0.0005127401,0.0012138371,3.0791814e-08,0.0005317241,-0.00050425675,7.3269923e-09,0,0,1
4228000,4076000,4076000,0,0.0027876843,-0.008054648,-0.9999637,1.0,1.0,1.0,0.0057965005,0.002367002,1.6748905e-05,0.004111735,-0.0026718976,1.7532844e-05,1.0125397,1.0125403,1.0000013,0.0005309329,8.853294e-05,4.4884074e-09,0.0005317116,-0.00049492146,7.2822903e-09,0,0,1
4236000,4084000,4084000,0,0.007838738,-0.0057086875,-0.9999529,1.0,1.0,1.0,0.00074413326,-6.384216e-07,6.020069e-06,0.004058702,-0.0026298305,1.735154e-05,1.012621,1.0126216,1.0000013,8.749324e-06,6.440031e-12,5.7985894e-10,0.000523476,-0.00048712743,7.17674e-09,0,0,1
4244000,4092000,4092000,0,-0.00059301703,-0.0030956594,-0.99999505,1.0,1.0,1.0,0.009212008,-0.0025775963,4.8160553e-05,0.0041398564,-0.002629008,1.783672e-05,1.0127037,1.0127041,1.0000013,0.001340745,0.00010497049,3.7110972e-08,0.00053634634,-0.00048110922,7.648145e-09,0,0,1
4260000,4108000,4108000,0,-0.0056698937,0.0032336786,-0.9999787,1.0,1.0,1.0,0.014034581,-0.008861778,2.9563904e-05,0.00456316,-0.0026348121,1.6639055e-05,1.0128727,1.0128732,1.0000013,0.0031114586,0.0012405283,1.3984372e-08,0.000680691,-0.00048289765,6.366972e-09,0,0,1
4268000,4116000,4116000,0,-0.0019123488,0.0073630526,-0.9999711,1.0,1.0,1.0,0.010231467,-0.012942872,2.1278858e-05,0.0046524242,-0.0027971438,1.6712122e-05,1.012959,1.0129596,1.0000013,0.0016534989,0.002645996,7.2446276e-09,0.0006960108,-0.0005169622,6.3807932e-09,0,0,1
4276000,4124000,4124000,0,-0.0023268168,0.0025030787,-0.9999941,1.0,1.0,1.0,0.010665156,-0.007975241,4.3809414e-05,0.0047471127,-0.0028786885,1.7138851e-05,1.0130467,1.0130473,1.0000013,0.0017964905,0.0010045647,3.0708197e-08,0.0007133412,-0.00052464096,6.763902e-09,0,0,1
4284000,4132000,4132000,0,-0.0013255394,0.002520139,-0.9999959,1.0,1.0,1.0,0.009688378,-0.0079624755,4.5597553e-05,0.004824928,-0.0029587483,1.758702e-05,1.0131357,1.0131363,1.0000013,0.001482363,0.0010012634,3.3266147e-08,0.00072545174,-0.00053214683,7.18126e-09,0,0,1
4300000,4148000,4148000,0,0.0031588525,0.004652815,-0.9999842,1.0,1.0,1.0,0.005113961,-0.010148687,3.3557415e-05,0.004938147,-0.0032155912,1.788743e-05,1.0133175,1.0133181,1.0000013,0.00041294223,0.0016262748,1.8017579e-08,0.0007435733,-0.0005777044,7.3473023e-09,0,0,1
4308000,4156000,4156000,0,-0.0010242438,-0.004673089,-0.99998856,1.0,1.0,1.0,0.009199188,-0.0008694846,3.7372112e-05,0.00500525,-0.0031786447,1.8194276e-05,1.0133389,1.0133395,1.0000012,0.0013361778,1.1936824e-05,2.234677e-08,0.0007529057,-0.00056879467,7.583514e-09,0,0,1
4316000,4164000,4164000,0,0.0069464804,0.002246073,-0.99997336,1.0,1.0,1.0,0.0011059488,-0.0077257077,2.0802021e-05,0.004943844,-0.003250252,1.8235343e-05,1.0134329,1.0134333,1.0000012,1.9310568e-05,0.0009423264,6.923577e-09,0.00074135297,-0.0005746771,7.573122e-09,0,0,1
4324000,4172000,4172000,0,0.0017978782,-0.0041941456,-0.9999896,1.0,1.0,1.0,0.0061924774,-0.0012815376,3.6597252e-05,0.0049635074,-0.0032192487,1.8524508e-05,1.013528,1.0135285,1.0000012,0.00060535915,2.5926669e-05,2.1429717e-08,0.00073921133,-0.00056603533,7.791336e-09,0,0,1
4340000,4188000,4188000,0,0.0024424216,-0.00827032,-0.99996275,1.0,1.0,1.0,0.005377393,0.0026232041,9.23872e-06,0.0050268294,-0.0030380997,1.8305484e-05,1.0137221,1.0137225,1.0000013,0.000456399,0.000108608816,1.3656614e-09,0.00074151467,-0.00054506905,7.6168005e-09,0,0,1
4348000,4196000,4196000,0,-0.0060124756,-0.0060009616,-0.9999639,1.0,1.0,1.0,0.013767829,0.0003227084,1.001358e-05,0.005164483,-0.0029851736,1.8174902e-05,1.0138211,1.0138215,1.0000013,0.0029915038,1.6435353e-06,1.6043465e-09,0.0007769476,-0.0005364594,7.522116e-09,0,0,1
4356000,4204000,4204000,0,-0.0032070142,-0.0035205295,-0.9999887,1.0,1.0,1.0,0.010830347,-0.0021524944,3.385544e-05,0.0052537094,-0.0029720606,1.8421839e-05,1.0137498,1.0137503,1.0000013,0.0018512879,7.3126204e-05,1.8339026e-08,0.00079386635,-0.0005291628,7.692461e-09,0,0,1
4364000,4212000,4212000,0,0.006860863,-0.0025826374,-0.9999731,1.0,1.0,1.0,0.00073653366,-0.003110565,1.8119812e-05,0.0051825726,-0.0029742417,1.8417082e-05,1.0138506,1.0138509,1.0000013,8.561133e-06,0.00015269488,5.2532343e-09,0.0007814993,-0.0005232342,7.654048e-09,0,0,1
4380000,4228000,4228000,0,-0.008545687,0.0020776377,-0.99996126,1.0,1.0,1.0,0.016015973,-0.0077190585,5.066395e-06,0.005452454,-0.0030333132,1.8376839e-05,1.0140557,1.0140561,1.0000013,0.0040472946,0.0009401273,4.1069317e-10,0.0008536568,-0.00052263326,7.635486e-09,0,0,1
4388000,4236000,4236000,0,0.0021676456,-0.0005028733,-0.9999975,1.0,1.0,1.0,0.005200754,-0.0051634014,4.082918e-05,0.0054484904,-0.0030668578,1.873042e-05,1.0141603,1.0141606,1.0000012,0.00042672295,0.00042061522,2.6672321e-08,0.0008469334,-0.00052102667,7.935279e-09,0,0,1
4396000,4244000,4244000,0,0.0009866105,0.00870155,-0.99996173,1.0,1.0,1.0,0.006353644,-0.01434336,4.6491623e-06,0.0054627447,-0.0032444405,1.8508668e-05,1.014266,1.0142664,1.0000012,0.0006368159,0.0032454117,3.4583494e-10,0.00084362447,-0.00056393037,7.8157605e-09,0,0,1
4404000,4252000,4252000,0,0.0018281785,-0.0012153059,-0.99999756,1.0,1.0,1.0,0.00560751,-0.004405222,4.1007996e-05,0.0054650246,-0.0032627205,1.886299e-05,1.0143731,1.0143734,1.0000013,0.00049597793,0.00030609602,2.6906456e-08,0.00083814975,-0.00055987,8.116402e-09,0,0,1
4420000,4268000,4268000,0,-0.0038643058,0.0057955557,-0.9999758,1.0,1.0,1.0,0.011335882,-0.011409014,1.9431114e-05,0.0055750567,-0.0033705276,1.9146819e-05,1.014591,1.0145915,1.0000013,0.0020264676,0.002052698,6.041083e-09,0.0008545178,-0.0005756224,8.290076e-09,0,0,1
4428000,4276000,4276000,0,0.002767294,-0.0011396531,-0.99999547,1.0,1.0,1.0,0.004720358,-0.004402807,3.8802624e-05,0.0055615967,-0.003386784,1.945636e-05,1.014702,1.0147023,1.0000013,0.00035134307,0.00030566144,2.4090266e-08,0.0008465938,-0.00057137106,8.5388985e-09,0,0,1
4436000,4284000,4284000,0,-0.0032635557,0.0015236815,-0.9999935,1.0,1.0,1.0,0.010754453,-0.007044207,3.6776066e-05,0.005643374,-0.0034443813,1.9729112e-05,1.014814,1.0148145,1.0000013,0.0018235185,0.00078234356,2.1639636e-08,0.00086197845,-0.00057469343,8.745209e-09,0,0,1
4444000,4292000,4292000,0,0.0035635026,-0.00828285,-0.99995935,1.0,1.0,1.0,0.0039814636,0.002759344,3.0994415e-06,0.005617202,-0.0033466849,1.9467227e-05,1.0149275,1.014928,1.0000013,0.00024990243,0.00012003183,1.537044e-10,0.00085233944,-0.0005637529,8.60991e-09,0,0,1
4460000,4308000,4308000,0,0.0027798305,0.0019500974,-0.9999943,1.0,1.0,1.0,0.0047094235,-0.007374898,3.7014484e-05,0.005643293,-0.0034602366,2.0098692e-05,1.0151582,1.0151587,1.0000013,0.00034956002,0.0008572315,2.1921124e-08,0.00084773026,-0.00057021464,9.131483e-09,0,0,1
4468000,4316000,4316000,0,-0.0019410342,-0.004943712,-0.9999858,1.0,1.0,1.0,0.009346496,-0.0003845566,2.7418137e-05,0.005701611,-0.0034118006,2.021396e-05,1.0152755,1.015276,1.0000013,0.0013766824,2.3305392e-06,1.2028051e-08,0.00085606024,-0.00056127156,9.177098e-09,0,0,1
4476000,4324000,4324000,0,-0.00866913,-0.0053850906,-0.9999479,1.0,1.0,1.0,0.016074575,5.4180622e-05,-1.04904175e-05,0.005864965,-0.003357218,1.9730427e-05,1.0153941,1.0153946,1.0000013,0.0040715933,4.6256538e-08,1.7607794e-09,0.0009066986,-0.0005524319,9.004848e-09,0,0,1
4484000,4332000,4332000,0,0.0019079153,-0.0071357926,-0.99997276,1.0,1.0,1.0,0.0053807446,0.0017729602,1.3709068e-05,0.005857339,-0.003276428,1.9635603e-05,1.0155139,1.0155144,1.0000013,0.00045616174,4.9525843e-05,3.0070129e-09,0.00089960353,-0.0005429523,8.910394e-09,0,0,1
4500000,4348000,4348000,0,-0.008187699,-0.0044501056,-0.9999566,1.0,1.0,1.0,0.015612606,-0.00081691705,-1.9073486e-06,0.006139595,-0.0031419452,1.875825e-05,1.0157573,1.0157578,1.0000013,0.0038395545,1.0512009e-05,5.8207585e-11,0.0009808905,-0.00052409666,8.574648e-09,0,0,1
4508000,4356000,4356000,0,0.007666682,-0.005025671,-0.999958,1.0,1.0,1.0,-0.0003210106,-0.00021578465,-1.3709068e-06,0.006037853,-0.0030958639,1.8441255e-05,1.0158811,1.0158815,1.0000013,1.62299e-06,7.333613e-07,3.007013e-11,0.0009654178,-0.00051585474,8.43914e-09,0,0,1
4516000,4364000,4364000,0,0.0074539185,0.0010472335,-0.9999717,1.0,1.0,1.0,-0.000111541245,-0.0062445733,1.2218952e-05,0.0059410124,-0.0031454498,1.8343266e-05,1.016006,1.0160065,1.0000013,1.9592719e-07,0.00061408576,2.3888416e-09,0.0009502113,-0.00051740167,8.34386e-09,0,0,1
4524000,4372000,4372000,0,0.008986081,0.0027018292,-0.999956,1.0,1.0,1.0,-0.0016475506,-0.007884596,-3.5762787e-06,0.0058215074,-0.003220082,1.7998076e-05,1.0161322,1.0161327,1.0000013,4.2741256e-05,0.0009788775,2.0463604e-10,0.0009345743,-0.000524669,8.209238e-09,0,0,1
4540000,4388000,4388000,0,-0.011601085,-0.00831845,-0.99989814,1.0,1.0,1.0,0.020800294,0.0016614664,-3.7431717e-05,0.0061350255,-0.0031428072,1.7348782e-05,1.0099792,1.0099797,1.0000013,0.0068540378,4.373111e-05,2.2418105e-08,0.0010419304,-0.0005100754,7.860415e-09,0,0,1
4548000,4396000,4396000,0,0.0010270139,-0.0028155523,-0.9999955,1.0,1.0,1.0,0.008054872,-0.0039046665,5.9247017e-05,0.0061652595,-0.003154805,1.8008597e-05,1.0099821,1.0099826,1.0000013,0.0010278355,0.00024153163,5.616327e-08,0.0010417084,-0.0005058464,8.6210905e-09,0,0,1
4556000,4404000,4404000,0,0.01158861,0.0015199735,-0.9999317,1.0,1.0,1.0,-0.0024586022,-0.008266059,-3.874302e-06,0.006029451,-0.003235297,1.7663984e-05,1.0099851,1.0099854,1.0000013,9.5759424e-05,0.001082435,2.4016314e-10,0.0010237956,-0.00051492656,8.4815435e-09,0,0,1
4564000,4412000,4412000,0,-0.0010165784,-0.0062290756,-0.9999801,1.0,1.0,1.0,0.009837193,-0.00031540636,4.041195e-05,0.0060894154,-0.0031893146,1.802222e-05,1.0099742,1.0099844,1.0000013,0.0015330351,1.5759637e-06,2.6129976e-08,0.0010318151,-0.0005068423,8.759471e-09,0,0,1
4580000,4428000,4428000,0,0.000443651,-0.004047376,-0.9999917,1.0,1.0,1.0,0.008452723,-0.0025717048,5.3226948e-05,0.006119375,-0.0031163336,1.8727806e-05,1.0099802,1.0099903,1.0000013,0.00113188,0.00010477194,4.5329667e-08,0.0010251566,-0.00049245916,9.390939e-09,0,0,1
4588000,4436000,4436000,0,-0.002084991,0.0056581385,-0.9999818,1.0,1.0,1.0,0.010948994,-0.012354568,4.3570995e-05,0.006195432,-0.0032618176,1.9119037e-05,1.0099832,1.0099934,1.0000013,0.0018991282,0.0024180016,3.0374867e-08,0.0010389199,-0.0005227827,9.721394e-09,0,0,1
4596000,4444000,4444000,0,-0.0052849865,0.012496601,-0.999908,1.0,1.0,1.0,0.01409076,-0.01923881,-3.0517578e-05,0.006319768,-0.0035134237,1.8337358e-05,1.0099863,1.0099964,1.0000012,0.0031453813,0.0058634947,1.4901143e-08,0.0010720926,-0.0006068884,9.333638e-09,0,0,1
4604000,4452000,4452000,0,-0.008388517,-0.002194925,-0.99996245,1.0,1.0,1.0,0.01711082,-0.004669319,2.4020672e-05,0.0064897058,-0.003531627,1.842686e-05,1.0099894,1.0099995,1.0000012,0.004638151,0.00034538694,9.231872e-09,0.001128251,-0.00060277025,9.332036e-09,0,0,1
4620000,4468000,4468000,0,-0.005802907,0.000908398,-0.9999828,1.0,1.0,1.0,0.01463101,-0.007937801,4.643202e-05,0.0066540465,-0.0035281912,1.9031271e-05,1.0099956,1.0100057,1.0000013,0.0033911665,0.0009981517,3.449487e-08,0.0011655045,-0.0005993195,9.79176e-09,0,0,1
4628000,4476000,4476000,0,-0.004565111,0.0049310247,-0.9999774,1.0,1.0,1.0,0.013393804,-0.011940619,4.0888786e-05,0.006760184,-0.0036606705,1.9375484e-05,1.0099987,1.0100088,1.0000013,0.002841889,0.0022586477,2.675025e-08,0.0011919042,-0.0006254507,1.0058823e-08,0,0,1
4636000,4484000,4484000,0,-0.0040899394,-0.0022810018,-0.999989,1.0,1.0,1.0,0.012843616,-0.004720748,5.173683e-05,0.006855986,-0.0036773647,1.9885112e-05,1.0100019,1.010012,1.0000012,0.0026131987,0.0003530328,4.2827146e-08,0.0012142868,-0.00062116067,1.057486e-08,0,0,1
4644000,4492000,4492000,0,-0.001620682,0.0013899591,-0.9999978,1.0,1.0,1.0,0.0103725465,-0.008409791,6.0737133e-05,0.006911365,-0.003751891,2.052845e-05,1.0100051,1.0100152,1.0000012,0.0017043831,0.0011203724,5.9023918e-08,0.0012220049,-0.00062902225,1.1337837e-08,0,0,1
4660000,4508000,4508000,0,-0.0033435484,0.002402158,-0.99999154,1.0,1.0,1.0,0.012121999,-0.00949789,5.51939e-05,0.00710577,-0.003888242,2.1510052e-05,1.0100117,1.0100218,1.0000012,0.0023277807,0.0014290372,4.874181e-08,0.0012697076,-0.0006429289,1.2337807e-08,0,0,1
4668000,4516000,4516000,0,0.00048415546,0.0033770727,-0.9999942,1.0,1.0,1.0,0.008270958,-0.010415271,5.7399273e-05,0.0071241194,-0.0039910297,2.2075237e-05,1.010015,1.0100251,1.0000012,0.0010836868,0.0017184186,5.271476e-08,0.0012667781,-0.00065986573,1.2973665e-08,0,0,1
4676000,4524000,4524000,0,-0.004744899,0.0068790666,-0.99996513,1.0,1.0,1.0,0.013485035,-0.013887631,2.783537e-05,0.0072242916,-0.004146882,2.2165948e-05,1.0100183,1.0100285,1.0000012,0.002880679,0.0030552214,1.2396909e-08,0.0012921939,-0.00069758785,1.2964582e-08,0,0,1
4684000,4532000,4532000,0,-0.00540387,-0.0073955175,-0.9999581,1.0,1.0,1.0,0.014135251,0.00035886094,2.104044e-05,0.0073331255,-0.0040759253,2.2148224e-05,1.0100217,1.0100318,1.0000012,0.0031651647,2.0400335e-06,7.083193e-09,0.0013216895,-0.00068657007,1.2871962e-08,0,0,1
4700000,4548000,4548000,0,-0.0067633563,-0.003982071,-0.9999692,1.0,1.0,1.0,0.0156108625,-0.0029868884,3.2544136e-05,0.007594317,-0.0040631923,2.2517423e-05,1.0100285,1.0100386,1.0000013,0.00386047,0.00014132533,1.694591e-08,0.0014022788,-0.00067201117,1.3047478e-08,0,0,1
4708000,4556000,4556000,0,-0.0024698002,0.00029100638,-0.99999684,1.0,1.0,1.0,0.011298275,-0.00726735,6.0081482e-05,0.0076526473,-0.0041136513,2.3108983e-05,1.0100318,1.0100421,1.0000013,0.0020221306,0.00083662855,5.7756477e-08,0.0014120402,-0.00067460357,1.3751556e-08,0,0,1
4716000,4564000,4564000,0,-0.004899957,0.0056730723,-0.99997187,1.0,1.0,1.0,0.01376272,-0.012782419,3.6478043e-05,0.007748869,-0.0042501674,2.331952e-05,1.0100353,1.0100455,1.0000013,0.0030004885,0.0025882437,2.1290333e-08,0.0014370552,-0.00070473965,1.3870277e-08,0,0,1
4724000,4572000,4572000,0,-0.0041451845,-0.0069673914,-0.99996716,1.0,1.0,1.0,0.013010562,-8.923514e-05,3.1352043e-05,0.00783173,-0.004184641,2.3446017e-05,1.0100389,1.010049,1.0000013,0.0026814768,1.2613899e-07,1.5727188e-08,0.0014566524,-0.00069364335,1.389952e-08,0,0,1
4740000,4588000,4588000,0,-0.008492222,-0.0018154728,-0.9999623,1.0,1.0,1.0,0.017351948,-0.0038913721,1.7762184e-05,0.008103446,-0.004162479,2.3497529e-05,1.009935,1.0099453,1.0000012,0.004770051,0.00023989857,5.0479168e-09,0.0015466926,-0.00067803456,1.3807344e-08,0,0,1
4748000,4596000,4596000,0,-0.0054761968,0.0042558857,-0.9999759,1.0,1.0,1.0,0.014347954,-0.009882322,3.105402e-05,0.008201784,-0.0042525553,2.3616529e-05,1.0099369,1.0099471,1.0000012,0.003261412,0.0015471746,1.5429617e-08,0.001573696,-0.0006917218,1.3832891e-08,0,0,1
4756000,4604000,4604000,0,0.0020462149,-0.004297233,-0.99998873,1.0,1.0,1.0,0.006901203,-0.0011629337,4.3690205e-05,0.008181303,-0.0042038998,2.393265e-05,1.0099387,1.009949,1.0000011,0.0007545267,2.1425472e-05,3.054131e-08,0.0015607957,-0.00068116596,1.4096016e-08,0,0,1
4764000,4612000,4612000,0,-0.004987934,-0.00815395,-0.99995434,1.0,1.0,1.0,0.0139927715,0.0028204448,9.23872e-06,0.008272822,-0.00409328,2.3701248e-05,1.0099405,1.0099508,1.0000011,0.0031019277,0.0001260245,1.3656617e-09,0.0015850655,-0.0006684543,1.3895538e-08,0,0,1
4780000,4628000,4628000,0,-0.0040236306,-0.0057547744,-0.9999754,1.0,1.0,1.0,0.0010562914,0.0050476477,-1.9907951e-05,0.007927956,-0.0037923937,2.2260941e-05,1.0004472,1.0004473,1.0,1.7844044e-05,0.00040747772,6.3412244e-09,0.0015248719,-0.0006321313,1.3207523e-08,0,0,1
4788000,4636000,4636000,0,0.0005874915,0.011953868,-0.9999284,1.0,1.0,1.0,-0.00354175,-0.012546453,-6.711483e-05,0.0077473307,-0.003930253,2.085345e-05,1.0004473,1.0004474,1.0,0.00020061414,0.0025174895,7.207041e-08,0.001497699,-0.000661822,1.18645636e-08,0,0,1
4796000,4644000,4644000,0,0.0023699629,0.008647254,-0.9999598,1.0,1.0,1.0,-0.0052579353,-0.009162265,-3.5881996e-05,0.0075425236,-0.004012647,1.9959978e-05,1.0004474,1.0004475,1.0,0.0004421363,0.0013425531,2.0600282e-08,0.0014671504,-0.00067254214,1.1353306e-08,0,0,1
4804000,4652000,4652000,0,-0.0047761477,0.004653316,-0.9999778,1.0,1.0,1.0,0.0019316955,-0.0052227657,-1.8000603e-05,0.007454164,-0.0040317043,1.9362174e-05,1.0004476,1.0004476,1.0,5.9676448e-05,0.00043624121,5.184347e-09,0.0014449855,-0.00066882087,1.1092871e-08,0,0,1
4820000,4668000,4668000,0,0.0035433348,-0.004686477,-0.9999828,1.0,1.0,1.0,-0.006399947,0.0040801885,-1.2934208e-05,0.0070437347,-0.0038521723,1.8582097e-05,1.0004479,1.000448,1.0,0.0006550558,0.0002662477,2.6766998e-09,0.0013834444,-0.00064384687,1.0704934e-08,0,0,1
4828000,4676000,4676000,0,0.0033959118,-0.0028828986,-0.99999005,1.0,1.0,1.0,-0.0063767917,0.0022470574,-5.3048134e-06,0.0068323878,-0.0037561215,1.8205925e-05,1.0004481,1.0004481,1.0,0.00065032416,8.0752085e-05,4.5025672e-10,0.0013514166,-0.00063243584,1.0529262e-08,0,0,1
4836000,4684000,4684000,0,-0.010688046,0.004265215,-0.9999338,1.0,1.0,1.0,0.007815183,-0.0048118588,-6.186962e-05,0.006847865,-0.0037727472,1.6944892e-05,1.0004482,1.0004483,1.0,0.0009767956,0.00037029776,6.12456e-08,0.001345517,-0.0006283077,9.398949e-09,0,0,1
4844000,4692000,4692000,0,-0.0069679245,0.0019226462,-0.9999739,1.0,1.0,1.0,0.004119987,-0.002528026,-2.1755695e-05,0.0068049063,-0.0037531452,1.6335434e-05,1.0004485,1.0004486,1.0,0.00027146697,0.00010220878,7.5729645e-09,0.0013286028,-0.00062002265,9.131675e-09,0,0,1
4860000,4708000,4708000,0,0.0056508444,0.007025325,-0.99995935,1.0,1.0,1.0,-0.008461351,-0.0075797676,-3.6597252e-05,0.0065483204,-0.0037829026,1.4736822e-05,1.000449,1.0004491,1.0,0.0011449972,0.0009188334,2.1429742e-08,0.0012772838,-0.00061590795,8.238436e-09,0,0,1
4868000,4716000,4716000,0,0.0040924503,-0.002720835,-0.99998796,1.0,1.0,1.0,-0.006929326,0.0022936137,-7.927418e-06,0.006336074,-0.0036872094,1.4379904e-05,1.0004492,1.0004493,1.0,0.000767904,8.413281e-05,1.0055032e-09,0.0012450761,-0.0006048837,8.0928615e-09,0,0,1
4876000,4724000,4724000,0,0.003318272,-0.0064698737,-0.9999736,1.0,1.0,1.0,-0.0060863155,0.006017306,-2.2530556e-05,0.006140446,-0.0035343824,1.3798637e-05,1.0004494,1.0004495,1.0,0.0005924255,0.0005790672,8.122015e-09,0.0012161391,-0.0005862388,7.837509e-09,0,0,1
4884000,4732000,4732000,0,0.00576541,-0.0029154585,-0.9999792,1.0,1.0,1.0,-0.008508717,0.0024702223,-1.7046928e-05,0.0059097502,-0.0034398218,1.3315696e-05,1.0004498,1.0004498,1.0,0.0011578514,9.7588054e-05,4.5525326e-09,0.0011787533,-0.00057546986,7.642391e-09,0,0,1
4900000,4748000,4748000,0,0.0052476134,-0.0028955454,-0.999982,1.0,1.0,1.0,-0.007976396,0.0024379767,-1.424551e-05,0.005465279,-0.0033323758,1.2424898e-05,1.0004504,1.0004504,1.0,0.0010175081,9.5056836e-05,3.246953e-09,0.0011073161,-0.0005575148,7.287741e-09,0,0,1
4908000,4756000,4756000,0,0.001699089,-0.008709558,-0.99996054,1.0,1.0,1.0,-0.004426738,0.008208514,-3.5703182e-05,0.005309499,-0.0031506296,1.1666975e-05,1.0004506,1.0004507,1.0,0.0003133949,0.0010775896,2.0395476e-08,0.0010849427,-0.0005317651,6.851785e-09,0,0,1
4916000,4764000,4764000,0,-0.0024457604,-0.009023555,-0.9999563,1.0,1.0,1.0,-0.00026524998,0.008459098,-3.9875507e-05,0.0052217077,-0.0029677993,1.0855283e-05,1.000451,1.0004511,1.0,1.1252134e-06,0.0011443852,2.5440897e-08,0.0010678393,-0.00050536904,6.343239e-09,0,0,1
4924000,4772000,4772000,0,0.0026955938,-0.0018324823,-0.99999464,1.0,1.0,1.0,-0.0053780125,0.0012717233,-1.6093254e-06,0.005054783,-0.0029010351,1.06589905e-05,1.0004513,1.0004514,1.0,0.00046255955,2.5864802e-05,4.1438852e-11,0.0010437386,-0.00049700314,6.2426926e-09,0,0,1
4940000,4788000,4788000,0,-0.004417526,0.007975076,-0.9999584,1.0,1.0,1.0,0.0015047577,-0.008726022,-3.707409e-05,0.004796294,-0.0030469843,9.307852e-06,1.0004482,1.0004483,1.0,3.62125e-05,0.0012177494,2.199181e-08,0.0009957694,-0.00051079993,5.506663e-09,0,0,1
4948000,4796000,4796000,0,0.00045316922,0.00048352353,-0.99999976,1.0,1.0,1.0,-0.003387808,-0.0012596253,4.351139e-06,0.0046674106,-0.003018837,9.229794e-06,1.0004485,1.0004486,1.0,0.00018355358,2.5375117e-05,3.0291858e-10,0.0009771974,-0.00050315546,5.4247145e-09,0,0,1
4956000,4804000,4804000,0,0.0018359631,-0.00043948164,-0.9999983,1.0,1.0,1.0,-0.0048105503,-0.00041401008,3.0398369e-06,0.0045181513,-0.0029778162,9.1323145e-06,1.0004487,1.0004488,1.0,0.00037009624,2.7412423e-06,1.4784973e-10,0.0009559802,-0.0004952749,5.3416143e-09,0,0,1
4964000,4812000,4812000,0,0.002226913,-0.0066546076,-0.9999754,1.0,1.0,1.0,-0.005219497,0.0056604748,-1.9609928e-05,0.0043648025,-0.00284178,8.679681e-06,1.000449,1.000449,1.0,0.00043569473,0.00051242555,6.1527885e-09,0.0009340641,-0.0004794056,5.1606e-09,0,0,1
4980000,4828000,4828000,0,0.00032870442,0.0025765249,-0.9999966,1.0,1.0,1.0,-0.0033136178,-0.0036025061,1.4901161e-06,0.0041850796,-0.0027833628,8.352471e-06,1.0004491,1.0004492,1.0,0.00017560215,0.00020755557,3.5527137e-11,0.00090219185,-0.00046697733,4.993384e-09,0,0,1
4988000,4836000,4836000,0,-0.007904649,0.0034422635,-0.99996287,1.0,1.0,1.0,0.004863815,-0.0045104777,-3.194809e-05,0.0041957684,-0.0028105613,7.7178165e-06,1.0004493,1.0004494,1.0,0.00037833714,0.00032536432,1.6330887e-08,0.0008939422,-0.0004647472,4.6575686e-09,0,0,1
4996000,4844000,4844000,0,-0.011596296,-0.006785069,-0.99990976,1.0,1.0,1.0,0.008589601,0.0056952974,-8.505583e-05,0.0042649624,-0.0026766108,6.2568142e-06,1.0004495,1.0004497,1.0,0.0011799695,0.0005187495,1.157519e-07,0.00089844654,-0.00044925907,2.7613565e-09,0,0,1
5004000,4852000,4852000,0,0.0020591107,0.0019280682,-0.999996,1.0,1.0,1.0,-0.0050578034,-0.0031165376,1.2516975e-06,0.0041181473,-0.0026835387,6.1779933e-06,1.0004499,1.0004499,1.0,0.00040911796,0.00015533504,2.5067948e-11,0.000877855,-0.00044463034,2.7182654e-09,0,0,1
5020000,4868000,4868000,0,-0.0010677308,-0.0049517504,-0.9999871,1.0,1.0,1.0,-0.0020238024,0.0036357017,-7.3313713e-06,0.003902582,-0.0024791942,5.732755e-06,1.0004504,1.0004505,1.0,6.5502914e-05,0.00021139797,8.599841e-10,0.0008462699,-0.00042328172,2.6004827e-09,0,0,1
5028000,4876000,4876000,0,-0.002490112,-0.002409283,-0.99999404,1.0,1.0,1.0,-0.0006236818,0.0011251394,-2.9802322e-07,0.0038313023,-0.002422433,5.637782e-06,1.0004507,1.0004507,1.0,6.22086e-06,2.0245889e-05,1.4210855e-12,0.0008328448,-0.00041629703,2.559508e-09,0,0,1
5036000,4884000,4884000,0,0.009449134,0.00095229986,-0.999955,1.0,1.0,1.0,-0.012597583,-0.0022789345,-3.9339066e-05,0.0035725797,-0.0024201733,4.932301e-06,1.000451,1.0004511,1.0,0.002538041,8.305923e-05,2.4536405e-08,0.00077976,-0.0004110492,2.1328006e-09,0,0,1
5044000,4892000,4892000,0,0.0035950658,0.00090905133,-0.99999315,1.0,1.0,1.0,-0.0066897525,-0.0023073577,-1.1920929e-06,0.0034109682,-0.0024183965,4.835854e-06,1.0004513,1.0004513,1.0,0.0007157216,8.514399e-05,2.2737368e-11,0.00075620913,-0.00040591683,2.098855e-09,0,0,1
5060000,4908000,4908000,0,0.012697468,0.004676412,-0.9999085,1.0,1.0,1.0,-0.015701272,-0.0058934456,-8.624792e-05,0.0030174535,-0.0023240922,2.841474e-06,1.0004519,1.000452,1.0,0.0039426973,0.0005554721,1.1901926e-07,0.00066886604,-0.00038914263,-8.389556e-11,0,0,1
5068000,4916000,4916000,0,0.00906478,-0.0014588416,-0.99995786,1.0,1.0,1.0,-0.012025041,0.00032710168,-3.7133694e-05,0.002780564,-0.002282341,2.2119439e-06,1.0004523,1.0004524,1.0,0.0023125797,1.7111504e-06,2.206258e-08,0.00062191417,-0.00038298746,-4.3001655e-10,0,0,1
5076000,4924000,4924000,0,0.00025012987,-0.0039629694,-0.99999213,1.0,1.0,1.0,-0.0031696027,0.0029223252,-2.9206276e-06,0.0026868605,-0.0022003779,2.131116e-06,1.0004526,1.0004528,1.0,0.00016066937,0.0001365779,1.3648105e-10,0.00060959003,-0.00037480533,-4.2539394e-10,0,0,1
5084000,4932000,4932000,0,0.0041276063,0.004511269,-0.9999814,1.0,1.0,1.0,-0.007032727,-0.0055331914,-1.40070915e-05,0.0025337962,-0.002252863,1.8769709e-06,1.000453,1.000453,1.0,0.0007909896,0.0004896375,3.1391778e-09,0.00058753364,-0.0003766137,-4.681307e-10,0,0,1
5100000,4948000,4948000,0,0.0019900608,-0.0046914136,-0.999987,1.0,1.0,1.0,-0.0050188256,0.003695557,-8.046627e-06,0.0023837592,-0.0020590571,1.46248e-06,1.0004537,1.0004538,1.0,0.000402835,0.0002184151,1.0359713e-09,0.00056289945,-0.00035701806,-5.2400667e-10,0,0,1
5108000,4956000,4956000,0,0.0032614968,-0.0014897155,-0.9999936,1.0,1.0,1.0,-0.006329393,0.00041636045,-1.1920929e-06,0.0022465442,-0.0020200743,1.4206757e-06,1.0004541,1.0004542,1.0,0.0006406885,2.772434e-06,2.2737368e-11,0.0005439453,-0.00035135206,-5.1611265e-10,0,0,1
5116000,4964000,4964000,0,0.0012413363,-0.01038268,-0.9999453,1.0,1.0,1.0,-0.0042572767,0.009317628,-4.953146e-05,0.0021441218,-0.0018415278,6.1827996e-07,1.0004544,1.0004545,1.0,0.00028985876,0.00138846,3.9253848e-08,0.0005308145,-0.00032395346,-1.1261557e-09,0,0,1
5124000,4972000,4972000,0,0.0015114216,0.0056181103,-0.99998313,1.0,1.0,1.0,-0.0045593055,-0.006626009,-1.168251e-05,0.002038556,-0.001916874,4.2456674e-07,1.0004549,1.0004549,1.0,0.00033244505,0.00070214464,2.1836968e-09,0.0005172199,-0.00032990924,-1.14281e-09,0,0,1
5140000,4988000,4988000,0,-0.0051942253,-0.0067166514,-0.999964,1.0,1.0,1.0,0.0023922764,0.005816316,-3.1650066e-05,0.002036058,-0.0018440076,-3.0238897e-07,1.0004508,1.0004508,1.0,9.152652e-05,0.0005410286,1.6027627e-08,0.00050307036,-0.0003174589,-1.4073356e-09,0,0,1
5148000,4996000,4996000,0,-0.006091398,0.0016494314,-0.9999801,1.0,1.0,1.0,0.0033135153,-0.0025889743,-1.5616417e-05,0.0020561756,-0.0018557394,-5.4355473e-07,1.0004511,1.0004511,1.0,0.00017559093,0.000107196254,3.9019596e-09,0.0004979132,-0.00031414768,-1.446621e-09,0,0,1
5156000,5004000,5004000,0,-0.006335795,0.00041142234,-0.99997985,1.0,1.0,1.0,0.0035772724,-0.0013234471,-1.603365e-05,0.00208013,-0.0018473568,-7.8749326e-07,1.0004513,1.0004514,1.0,0.00020465768,2.8011546e-05,4.1132466e-09,0.000493295,-0.0003096416,-1.4886151e-09,0,0,1
5164000,5012000,5012000,0,-0.0011420544,0.0074360417,-0.9999717,1.0,1.0,1.0,-0.0016079588,-0.008333663,-2.4139881e-05,0.0020220499,-0.0019495033,-1.1552474e-06,1.0004517,1.0004517,1.0,4.1349827e-05,0.0011106975,9.323742e-09,0.00048487543,-0.00032225664,-1.612003e-09,0,0,1
5180000,5028000,5028000,0,0.0019874088,-0.008864229,-0.99995875,1.0,1.0,1.0,-0.004634168,0.0078787785,-3.7312508e-05,0.0018795016,-0.0017391917,-1.733539e-06,1.0004523,1.0004523,1.0,0.00034345288,0.0009927534,2.2275572e-08,0.00046427327,-0.00029589146,-1.9131683e-09,0,0,1
5188000,5036000,5036000,0,0.0009794732,-0.012246043,-0.9999245,1.0,1.0,1.0,-0.0035203882,0.011224766,-7.18236e-05,0.001794464,-0.0015350349,-2.8373192e-06,1.0004525,1.0004526,1.0,0.00019820045,0.0020150137,8.2538065e-08,0.00045384062,-0.00025949924,-3.1828518e-09,0,0,1
5196000,5044000,5044000,0,-0.0027975598,-0.0069294204,-0.99997205,1.0,1.0,1.0,0.00024600094,0.0058784615,-2.4199486e-05,0.0017700787,-0.0014182869,-3.1737313e-06,1.0004529,1.000453,1.0,9.678251e-07,0.0005526507,9.369842e-09,0.00044670876,-0.00024670947,-3.2802847e-09,0,0,1
5204000,5052000,5052000,0,-6.941408e-05,0.005327519,-0.9999858,1.0,1.0,1.0,-0.0025264889,-0.006317226,-1.0371208e-05,0.0017024162,-0.0014954356,-3.2870773e-06,1.0004532,1.0004532,1.0,0.000102084065,0.00063822826,1.7209913e-09,0.00043806634,-0.00025287512,-3.255729e-09,0,0,1
5220000,5068000,5068000,0,0.0015521992,-0.014493947,-0.9998938,1.0,1.0,1.0,-0.004223394,0.013487205,-0.00010210276,0.0015700216,-0.0012414454,-4.759944e-06,1.0004538,1.000454,1.0,0.0002852635,0.0029091546,1.6679957e-07,0.0004197192,-0.00019918702,-5.7796794e-09,0,0,1
5228000,5076000,5076000,0,0.0020587684,-0.005386915,-0.9999834,1.0,1.0,1.0,-0.0046849167,0.004366569,-1.2814999e-05,0.0014715187,-0.0011531302,-4.8867955e-06,1.0004542,1.0004543,1.0,0.00035101568,0.0003049323,2.627587e-09,0.00040758165,-0.00019124814,-5.73004e-09,0,0,1
5236000,5084000,5084000,0,0.0018252907,-0.008793608,-0.99995965,1.0,1.0,1.0,-0.004503155,0.007795858,-3.629923e-05,0.0013774293,-0.0010122012,-5.3814797e-06,1.0004545,1.0004547,1.0,0.0003243071,0.00097196456,2.1082144e-08,0.00039605584,-0.00017292982,-5.9718053e-09,0,0,1
5244000,5092000,5092000,0,0.0049855993,0.0033354356,-0.99998206,1.0,1.0,1.0,-0.0077205454,-0.004336761,-1.3709068e-05,0.0012341542,-0.0010645564,-5.512623e-06,1.0004549,1.000455,1.0,0.0009532755,0.0003007831,3.0070169e-09,0.00037480652,-0.00017494326,-5.9251155e-09,0,0,1
5260000,5108000,5108000,0,0.0009174896,-0.0021794632,-0.9999972,1.0,1.0,1.0,-0.0036390137,0.0012015203,1.4305115e-06,0.000870246,-0.0011905051,-7.761483e-06,1.0004556,1.0004557,1.0,0.00021178224,2.3087894e-05,3.274181e-11,0.00028563247,-0.00020185395,-1.1903472e-08,0,0,1
5268000,5116000,5116000,0,0.0017289978,-0.0069760107,-0.99997413,1.0,1.0,1.0,-0.004496208,0.0060037253,-2.1576881e-05,0.0007857349,-0.0010772102,-7.979049e-06,1.000456,1.0004561,1.0,0.00032330677,0.0005764526,7.448989e-09,0.00027604288,-0.00018959715,-1.1833323e-08,0,0,1
5276000,5124000,5124000,0,0.0015142228,-0.0044062743,-0.99998915,1.0,1.0,1.0,-0.004217042,0.0034524822,-6.735325e-06,0.000706951,-0.0010058765,-7.959463e-06,1.0004563,1.0004565,1.0,0.00028440534,0.00019062712,7.258336e-10,0.0002672169,-0.00018360937,-1.1658401e-08,0,0,1
5284000,5132000,5132000,0,-0.0008337981,-0.012043528,-0.9999271,1.0,1.0,1.0,-0.0018835302,0.011084735,-6.878376e-05,0.00066615606,-0.00081547315,-8.917326e-06,1.0004568,1.0004568,1.0,5.673706e-05,0.001965044,7.569929e-08,0.00026211527,-0.00014977231,-1.2666919e-08,0,0,1
5300000,5148000,5148000,0,-0.009405634,-0.0012271878,-0.999955,1.0,1.0,1.0,0.006710968,0.0002797942,-4.0888786e-05,0.0006598144,-0.0006515255,-1.0009699e-05,1.0004575,1.0004576,1.0,0.0007202639,1.2519849e-06,2.6828332e-08,0.0002566837,-0.00012652934,-1.323792e-08,0,0,1
5308000,5156000,5156000,0,-0.0102586495,0.0005776803,-0.9999472,1.0,1.0,1.0,0.007499577,-0.0015857033,-4.8577785e-05,0.0007675272,-0.00066623697,-1.061707e-05,1.000458,1.000458,1.0,0.0008994865,4.021285e-05,3.775682e-08,0.00026680657,-0.00012517003,-1.3624044e-08,0,0,1
5316000,5164000,5164000,0,-0.0019570624,-0.006184317,-0.99997896,1.0,1.0,1.0,-0.0009241402,0.0051309755,-1.6331673e-05,0.0007408868,-0.00057494227,-1.0707064e-05,1.0004584,1.0004585,1.0,1.3658302e-05,0.00042103752,4.2675765e-09,0.0002623898,-0.000116568335,-1.3476698e-08,0,0,1
5324000,5172000,5172000,0,-0.0009160381,-0.000181313,-0.99999964,1.0,1.0,1.0,-0.0020333133,-0.0008641294,4.529953e-06,0.0006971986,-0.0005794964,-1.0467111e-05,1.0004588,1.0004588,1.0,6.6119464e-05,1.1942034e-05,3.283276e-10,0.00025721642,-0.00011492068,-1.3259296e-08,0,0,1
5340000,5188000,5188000,0,-0.0026471023,0.0072176205,-0.99997044,1.0,1.0,1.0,-0.0002108335,-0.008024103,-2.515316e-05,0.00066127186,-0.00064577436,-1.0604514e-05,1.0004541,1.0004542,1.0,7.108894e-07,0.001029712,1.0122903e-08,0.0002490469,-0.00012572744,-1.3009209e-08,0,0,1
5348000,5196000,5196000,0,-0.002480943,-0.004143876,-0.9999883,1.0,1.0,1.0,-0.00034368178,0.003398272,-7.5101852e-06,0.00064544583,-0.0005820886,-1.0555784e-05,1.0004544,1.0004544,1.0,1.8890162e-06,0.00018468812,9.024461e-10,0.00024509514,-0.00012083901,-1.28185516e-08,0,0,1
5356000,5204000,5204000,0,0.004568058,-0.007961141,-0.99995786,1.0,1.0,1.0,-0.0073144548,0.007239895,-3.8087368e-05,0.0005200931,-0.00045890774,-1.0989352e-05,1.0004548,1.0004548,1.0,0.00085563085,0.000838276,2.3210362e-08,0.00022776087,-0.000105734835,-1.2982202e-08,0,0,1
5364000,5212000,5212000,0,0.0062859464,-0.0013554804,-0.9999794,1.0,1.0,1.0,-0.009004162,0.0005959683,-1.66893e-05,0.0003701048,-0.00044229554,-1.1079114e-05,1.000455,1.0004551,1.0,0.0012966088,5.680259e-06,4.456524e-09,0.00020375504,-0.00010398027,-1.284794e-08,0,0,1
5380000,5228000,5228000,0,-0.00014233445,-0.009821404,-0.9999517,1.0,1.0,1.0,-0.002455588,0.009087214,-4.476309e-05,0.00018695055,-0.00031228748,-1.1652182e-05,1.0004557,1.0004559,1.0,9.643465e-05,0.0013206374,3.2059745e-08,0.00017764053,-8.068129e-05,-1.2998767e-08,0,0,1
5388000,5236000,5236000,0,-0.009898682,-0.009123639,-0.9999093,1.0,1.0,1.0,0.0073447223,0.008458391,-8.7201595e-05,0.00029967137,-0.00017416656,-1.2841937e-05,1.0004561,1.0004561,1.0,0.00086272566,0.0011441881,1.2166589e-07,0.00018842927,-6.1392006e-05,-1.4710061e-08,0,0,1
5396000,5244000,5244000,0,-0.0012118316,-0.00086368783,-0.9999989,1.0,1.0,1.0,-0.001381471,0.00021176954,2.4437904e-06,0.0002731967,-0.00016808882,-1.2601216e-05,1.0004562,1.0004562,1.0,3.0521474e-05,7.17213e-07,9.555379e-11,0.00018498123,-6.0413906e-05,-1.44769015e-08,0,0,1
5404000,5252000,5252000,0,0.0030314599,-0.00454249,-0.9999851,1.0,1.0,1.0,-0.0055493526,0.003865724,-1.1384487e-05,0.00018150301,-0.00010456421,-1.2582055e-05,1.0004566,1.0004566,1.0,0.0004925002,0.00023899204,2.0737048e-09,0.00017431223,-5.5698853e-05,-1.4281576e-08,0,0,1
5420000,5268000,5268000,0,0.00029064782,0.0018625784,-0.99999815,1.0,1.0,1.0,-0.0026525725,-0.0025196713,1.1920929e-06,0.00022011562,-5.8010857e-05,-1.2895358e-05,1.0004573,1.0004573,1.0,0.000112526795,0.00010153347,2.2737368e-11,0.00017473444,-4.845522e-05,-1.4377886e-08,0,0,1
5428000,5276000,5276000,0,-0.0106721865,0.009073429,-0.9999019,1.0,1.0,1.0,0.008472586,-0.009758571,-9.548664e-05,0.00035007577,-0.00021077557,-1.4196008e-05,1.0004576,1.0004576,1.0,0.00114803,0.0015229781,1.4588318e-07,0.00019006192,-7.1676055e-05,-1.6448835e-08,0,0,1
5436000,5284000,5284000,0,-0.0011564732,0.006796028,-0.9999762,1.0,1.0,1.0,-0.0009615243,-0.007491,-2.1338463e-05,0.00032942067,-0.00032542477,-1.4308488e-05,1.000458,1.0004581,1.0,1.4785692e-05,0.0008974302,7.28528e-09,0.00018683598,-8.4680054e-05,-1.6304528e-08,0,0,1
5444000,5292000,5292000,0,-0.004648525,0.004305713,-0.9999799,1.0,1.0,1.0,0.0025057874,-0.0049906424,-1.758337e-05,0.00036369415,-0.00039889276,-1.4360061e-05,1.0004584,1.0004585,1.0,0.0001004175,0.00039832157,4.9467985e-09,0.00018547506,-8.961929e-05,-1.6125666e-08,0,0,1
5460000,5308000,5308000,0,0.012833273,0.0035835654,-0.9999112,1.0,1.0,1.0,-0.014952948,-0.0042919717,-8.636713e-05,0.000111855086,-0.0005247176,-1.5370304e-05,1.0004592,1.0004592,1.0,0.0035758086,0.00029460114,1.193485e-07,0.00012334163,-9.6615506e-05,-1.7511361e-08,0,0,1
5468000,5316000,5316000,0,0.0046694838,-0.0061251004,-0.9999704,1.0,1.0,1.0,-0.006708481,0.0053008967,-2.7239323e-05,4.448222e-06,-0.00043297568,-1.5557218e-05,1.0004596,1.0004597,1.0,0.0007197287,0.00044938544,1.1871691e-08,0.000110064924,-8.801706e-05,-1.7422547e-08,0,0,1
5476000,5324000,5324000,0,-0.008616707,0.0003846331,-0.9999628,1.0,1.0,1.0,0.006592793,-0.0014003377,-3.46303e-05,0.00010820168,-0.00044820973,-1.5857582e-05,1.0004599,1.00046,1.0,0.00069511903,3.1360687e-05,1.9188121e-08,0.000119278375,-8.7124834e-05,-1.745035e-08,0,0,1
5484000,5332000,5332000,0,-0.018858593,-0.0035788873,-0.99981576,1.0,1.0,1.0,0.016756335,0.0024407534,-0.00018143654,0.00037037703,-0.00040271424,-1.8465125e-05,1.0004604,1.0004604,1.0,0.0044903294,9.527261e-05,5.267075e-07,0.00018811383,-8.425243e-05,-2.5470147e-08,0,0,1
5500000,5348000,5348000,0,-0.0014271347,0.0042190924,-0.9999901,1.0,1.0,1.0,-0.000730315,-0.005488797,-6.67572e-06,0.00046611097,-0.00068834727,-1.9892741e-05,1.0004612,1.0004612,1.0,8.529825e-06,0.0004818081,7.1304385e-10,0.00019666538,-0.00013548306,-2.8409906e-08,0,0,1
5508000,5356000,5356000,0,0.0017642103,-0.0061468934,-0.99997944,1.0,1.0,1.0,-0.0038698646,0.004897235,-1.7404556e-05,0.00039782788,-0.00060038536,-1.9853556e-05,1.0004616,1.0004617,1.0,0.00023950309,0.00038354946,4.8466973e-09,0.00018979658,-0.00012730932,-2.8038832e-08,0,0,1
5516000,5364000,5364000,0,0.0074741677,0.0057964255,-0.9999553,1.0,1.0,1.0,-0.009501062,-0.0071415314,-4.172325e-05,0.00024193985,-0.0007033955,-2.019796e-05,1.000462,1.000462,1.0,0.0014436559,0.00081564666,2.7853275e-08,0.00016407293,-0.00013814928,-2.803591e-08,0,0,1
5524000,5372000,5372000,0,0.0041757827,0.0034393913,-0.9999854,1.0,1.0,1.0,-0.00611914,-0.0049170484,-1.1622906e-05,0.00014176537,-0.00076975225,-2.006292e-05,1.0004624,1.0004625,1.0,0.0005988251,0.000386659,2.161471e-09,0.00015205878,-0.00014206281,-2.7628438e-08,0,0,1
5540000,5388000,5388000,0,0.002326408,-0.005193433,-0.9999838,1.0,1.0,1.0,-0.004956376,0.0041172896,-1.21593475e-05,2.4627472e-05,-0.0006528809,-1.966628e-05,1.0004574,1.0004574,1.0,0.0003928709,0.00027110917,2.3655957e-09,0.00013988117,-0.0001325465,-2.680391e-08,0,0,1
5548000,5396000,5396000,0,-0.0049207807,-0.0067155026,-0.99996537,1.0,1.0,1.0,0.00233204,0.0055229096,-3.0636787e-05,6.096468e-05,-0.0005556243,-1.9839044e-05,1.0004573,1.0004574,1.0,8.6974804e-05,0.00048781733,1.5017804e-08,0.000139048,-0.00012277698,-2.6618302e-08,0,0,1
5556000,5404000,5404000,0,0.003513256,-0.0042018984,-0.9999851,1.0,1.0,1.0,-0.006090805,0.0029466841,-1.0728836e-05,-3.591358e-05,-0.0005004699,-1.9695577e-05,1.0004576,1.0004578,1.0,0.0005932949,0.00013886357,1.8417268e-09,0.00012751504,-0.00011865666,-2.622812e-08,0,0,1
5564000,5412000,5412000,0,-0.0028374947,0.0027265672,-0.99999225,1.0,1.0,1.0,0.00024730223,-0.0039228667,-3.7550926e-06,-3.145349e-05,-0.00055436586,-1.9444546e-05,1.000458,1.000458,1.0,9.780864e-07,0.0002461094,2.2561153e-10,0.00012552233,-0.00012066379,-2.5818633e-08,0,0,1
5580000,5428000,5428000,0,0.0009604699,-0.005863432,-0.9999823,1.0,1.0,1.0,-0.003548573,0.0046777567,-1.3649464e-05,-8.857825e-05,-0.00053815695,-1.914151e-05,1.0004587,1.0004587,1.0,0.00020138556,0.00034994198,2.9809257e-09,0.00011842347,-0.00011715206,-2.5067084e-08,0,0,1
5588000,5436000,5436000,0,0.006677377,0.0053373976,-0.9999635,1.0,1.0,1.0,-0.009311183,-0.0066003604,-3.2186508e-05,-0.00023381613,-0.00063362473,-1.9346942e-05,1.0004591,1.0004592,1.0,0.0013865336,0.0006967163,1.6575541e-08,9.4723364e-05,-0.00012627906,-2.4933358e-08,0,0,1
5596000,5444000,5444000,0,0.0070619527,0.0025316954,-0.99997187,1.0,1.0,1.0,-0.009686638,-0.003867788,-2.3841858e-05,-0.00038267946,-0.00068455643,-1.9417728e-05,1.0004594,1.0004596,1.0,0.0015006057,0.00023924664,9.094947e-09,6.960007e-05,-0.00012805808,-2.4683935e-08,0,0,1
5604000,5452000,5452000,0,0.0024172172,0.009758473,-0.9999495,1.0,1.0,1.0,-0.0050489693,-0.011174536,-4.6133995e-05,-0.00045616433,-0.000849753,-1.9838457e-05,1.0004593,1.0004594,1.0,0.0004076862,0.0019970066,3.4053528e-08,6.208375e-05,-0.00015749034,-2.4831488e-08,0,0,1
5620000,5468000,5468000,0,-0.0015895463,-3.114358e-05,-0.99999875,1.0,1.0,1.0,-0.00085870747,-0.0012069324,2.4437904e-06,-0.0005539312,-0.0010031526,-1.985264e-05,1.0004601,1.0004601,1.0,1.179263e-05,2.3296252e-05,9.555379e-11,4.994781e-05,-0.0001796628,-2.4521004e-08,0,0,1
5628000,5476000,5476000,0,0.004000643,-0.0015735588,-0.9999908,1.0,1.0,1.0,-0.0063934117,0.00035020988,-5.6624413e-06,-0.00064589153,-0.0009818398,-1.9629171e-05,1.0004605,1.0004605,1.0,0.00065371033,1.9614454e-06,5.1301186e-10,3.886658e-05,-0.00017680258,-2.4142926e-08,0,0,1
5636000,5484000,5484000,0,0.001121812,0.002991468,-0.9999948,1.0,1.0,1.0,-0.0034577206,-0.0042410763,-1.66893e-06,-0.0006901723,-0.0010331664,-1.9346333e-05,1.0004609,1.000461,1.0,0.00019120518,0.00028765504,4.456524e-11,3.5243404e-05,-0.00017854829,-2.3763425e-08,0,0,1
5644000,5492000,5492000,0,0.0010184253,-0.0050127553,-0.9999869,1.0,1.0,1.0,-0.0033703619,0.0036903094,-9.596348e-06,-0.00073238,-0.000958781,-1.919279e-05,1.0004612,1.0004613,1.0,0.00018166563,0.00021779363,1.4734383e-09,3.1827512e-05,-0.00017230668,-2.3412401e-08,0,0,1
5660000,5508000,5508000,0,0.010442658,0.0008889471,-0.99994504,1.0,1.0,1.0,-0.012759106,-0.0021629806,-5.1498413e-05,-0.000936,-0.000851268,-1.9914938e-05,1.000462,1.000462,1.0,0.0026035137,7.482121e-05,4.2335216e-08,-1.0842097e-05,-0.00015524676,-2.361792e-08,0,0,1
5668000,5516000,5516000,0,0.002653279,0.0025426876,-0.9999932,1.0,1.0,1.0,-0.004902518,-0.0037660669,-3.5762787e-06,-0.0009984649,-0.00089717034,-1.9657637e-05,1.0004624,1.0004625,1.0,0.00038437717,0.00022682727,2.0463631e-10,-1.672454e-05,-0.00015637401,-2.3249207e-08,0,0,1
5676000,5524000,5524000,0,-0.00320295,0.00615161,-0.9999759,1.0,1.0,1.0,0.001046069,-0.0074141594,-2.0802021e-05,-0.0009662675,-0.0009998,-1.967566e-05,1.0004629,1.0004629,1.0,1.7500064e-05,0.0008791092,6.9235853e-09,-1.618557e-05,-0.00016775567,-2.2992111e-08,0,0,1
5684000,5532000,5532000,0,8.408238e-06,-0.0011908164,-0.9999992,1.0,1.0,1.0,-0.0021233356,-8.305686e-05,2.2649765e-06,-0.000984489,-0.0009853631,-1.9330137e-05,1.0004632,1.0004634,1.0,7.210346e-05,1.1032395e-07,8.20819e-11,-1.7066166e-05,-0.00016511559,-2.2628738e-08,0,0,1
5700000,5548000,5548000,0,-0.0019944352,-0.00025398983,-0.999998,1.0,1.0,1.0,-1.2817327e-05,-0.0010479866,8.34465e-07,-0.0009889383,-0.00084492273,-1.9348592e-05,1.0004641,1.0004642,1.0,2.6273226e-09,1.756426e-05,1.114131e-11,-1.7797627e-05,-0.00014381223,-2.233851e-08,0,0,1
5708000,5556000,5556000,0,-0.0029102063,-0.00551187,-0.9999806,1.0,1.0,1.0,0.00092926854,0.004080849,-1.6391277e-05,-0.0009587303,-0.00076735154,-1.930202e-05,1.0004646,1.0004646,1.0,1.3810225e-05,0.0002663295,4.2987836e-09,-1.7299866e-05,-0.0001373533,-2.2054419e-08,0,0,1
5716000,5564000,5564000,0,0.0097404355,-0.004130904,-0.9999441,1.0,1.0,1.0,-0.011615681,0.002662315,-5.298853e-05,-0.0011265563,-0.00071334105,-1.9832516e-05,1.0004649,1.000465,1.0,0.0021577817,0.00011335397,4.4924548e-08,-5.1008243e-05,-0.00013340515,-2.2414579e-08,0,0,1
5724000,5572000,5572000,0,0.008641514,-0.008194078,-0.9999291,1.0,1.0,1.0,-0.010421291,0.0067525934,-6.836653e-05,-0.0012729301,-0.0005957673,-2.0596832e-05,1.0004654,1.0004654,1.0,0.0017368447,0.00072922086,7.478371e-08,-7.755685e-05,-0.000119820485,-2.323929e-08,0,0,1
5740000,5588000,5588000,0,-0.004805854,-0.0037711426,-0.99998134,1.0,1.0,1.0,0.0024747374,0.0026304442,-1.5318394e-05,-0.001272458,-0.00056523934,-2.024342e-05,1.0004601,1.0004601,1.0,9.794413e-05,0.000110656874,3.754451e-09,-7.9912876e-05,-0.00011523239,-2.2574707e-08,0,0,1
5748000,5596000,5596000,0,0.0008040429,-0.0036951182,-0.99999297,1.0,1.0,1.0,-0.0031062611,0.0025932896,-3.8146973e-06,-0.0013013368,-0.00051549874,-1.99847e-05,1.0004605,1.0004605,1.0,0.00015431068,0.000107552885,2.3283064e-10,-8.1084494e-05,-0.00011172396,-2.2222865e-08,0,0,1
5756000,5604000,5604000,0,0.00018274332,-0.0016209602,-0.9999986,1.0,1.0,1.0,-0.0023952597,0.0004198657,1.7881393e-06,-0.0013185639,-0.0005007686,-1.964182e-05,1.0004585,1.0004586,1.0,9.1754235e-05,2.8193026e-06,5.1159077e-11,-8.1252525e-05,-0.000109920125,-2.1872093e-08,0,0,1
5764000,5612000,5612000,0,-0.0047208252,0.0044123554,-0.9999791,1.0,1.0,1.0,0.002456578,-0.005596813,-1.758337e-05,-0.0012591128,-0.00058102125,-1.9609404e-05,1.0004588,1.000459,1.0,9.651212e-05,0.0005009591,4.9467985e-09,-7.845308e-05,-0.00011607822,-2.1605553e-08,0,0,1
5780000,5628000,5628000,0,-0.008496839,-0.007928734,-0.9999324,1.0,1.0,1.0,0.006224652,0.0067952033,-6.4373016e-05,-0.0011516286,-0.0004464473,-1.9985451e-05,1.0004596,1.0004597,1.0,0.0006196559,0.00073845714,6.6302164e-08,-6.71648e-05,-0.000100730445,-2.1973907e-08,0,0,1
5788000,5636000,5636000,0,0.0073635583,-0.0051323054,-0.9999597,1.0,1.0,1.0,-0.009572141,0.003952854,-3.7252903e-05,-0.001284235,-0.00037716696,-2.025738e-05,1.0004599,1.00046,1.0,0.0014653401,0.00024988584,2.220446e-08,-8.918331e-05,-9.520893e-05,-2.1977538e-08,0,0,1
5796000,5644000,5644000,0,0.007066548,-0.0020309244,-0.999973,1.0,1.0,1.0,-0.009218182,0.00086557586,-2.4020672e-05,-0.0014091791,-0.0003575962,-2.0316644e-05,1.0004603,1.0004604,1.0,0.0013589727,1.1982026e-05,9.231883e-09,-0.00010917999,-9.352089e-05,-2.1776819e-08,0,0,1
5804000,5652000,5652000,0,-0.0016211654,-0.010048576,-0.99994814,1.0,1.0,1.0,-0.00049488654,0.008975267,-4.8995018e-05,-0.0013947807,-0.00021062198,-2.0768271e-05,1.0004606,1.0004607,1.0,3.916799e-06,0.0012882932,3.840819e-08,-0.000107522304,-7.1760034e-05,-2.203873e-08,0,0,1
5820000,5668000,5668000,0,0.0019417078,0.0066537806,-0.99997604,1.0,1.0,1.0,-0.003921168,-0.007732678,-2.1517277e-05,-0.0014594396,-0.00031308114,-2.0449843e-05,1.0004603,1.0004604,1.0,0.00024589573,0.00095626886,7.407891e-09,-0.00011026506,-8.440972e-05,-2.146665e-08,0,0,1
5828000,5676000,5676000,0,-0.004719706,-0.0010377959,-0.9999884,1.0,1.0,1.0,0.002721374,2.6045134e-05,-9.119511e-06,-0.0013936,-0.00030774056,-2.0271413e-05,1.0004606,1.0004607,1.0,0.000118439464,1.084878e-08,1.3306476e-09,-0.000106663414,-8.308027e-05,-2.1149548e-08,0,0,1
5836000,5684000,5684000,0,-0.0043179286,0.002165265,-0.9999884,1.0,1.0,1.0,0.002331731,-0.003148552,-9.059906e-06,-0.0013349333,-0.00035247774,-2.0094854e-05,1.0004611,1.0004611,1.0,8.695141e-05,0.00015854096,1.3133103e-09,-0.00010361436,-8.426863e-05,-2.0837167e-08,0,0,1
5844000,5692000,5692000,0,-0.005929459,0.004130562,-0.99997383,1.0,1.0,1.0,0.0039597554,-0.0050251386,-2.3961067e-05,-0.0012515524,-0.00042606296,-2.015574e-05,1.0004615,1.0004615,1.0,0.0002507589,0.00040384594,9.186124e-09,-9.803368e-05,-8.930134e-05,-2.0653685e-08,0,0,1
5860000,5708000,5708000,0,0.008001106,0.0021446468,-0.9999657,1.0,1.0,1.0,-0.010094969,-0.0030882058,-3.1650066e-05,-0.0014032905,-0.0003993791,-2.0171234e-05,1.0004617,1.0004616,1.0,0.0016297818,0.0001525218,1.6027627e-08,-0.00012168421,-8.4946165e-05,-2.0282975e-08,0,0,1
5868000,5716000,5716000,0,-0.009960586,-0.0018073979,-0.99994874,1.0,1.0,1.0,0.007817974,0.0008860398,-4.851818e-05,-0.0012580737,-0.00037913627,-2.0617643e-05,1.0004615,1.0004615,1.0,0.0009774804,1.2555264e-05,3.7664222e-08,-0.00010437453,-8.341071e-05,-2.0556696e-08,0,0,1
5876000,5724000,5724000,0,0.0030808707,0.005744816,-0.9999788,1.0,1.0,1.0,-0.00522501,-0.0066300468,-1.859665e-05,-0.0013205452,-0.0004775758,-2.0585816e-05,1.0004612,1.0004612,1.0,0.00043661034,0.000702996,5.5333658e-09,-0.00010960659,-9.316796e-05,-2.0320108e-08,0,0,1
5884000,5732000,5732000,0,-5.573462e-05,0.012854266,-0.9999173,1.0,1.0,1.0,-0.0020914099,-0.013714741,-8.004904e-05,-0.0013326848,-0.00068603514,-2.1522244e-05,1.0004611,1.000461,1.0,6.995167e-05,0.0030081193,1.02525576e-07,-0.0001089821,-0.00013907271,-2.1614683e-08,0,0,1
5900000,5748000,5748000,0,0.00078301557,0.004696526,-0.9999887,1.0,1.0,1.0,-0.0029969339,-0.0056024874,-8.523464e-06,-0.0014676944,-0.0010602355,-2.4029032e-05,1.0004607,1.0004606,1.0,0.00014363963,0.00050197466,1.1623911e-09,-0.00012513057,-0.00024013598,-3.052923e-08,0,0,1
5908000,5756000,5756000,0,-0.0032226322,-0.00038943705,-0.99999475,1.0,1.0,1.0,0.001028108,-0.0005167484,-2.4437904e-06,-0.0014283904,-0.0010516767,-2.3689106e-05,1.0004605,1.0004605,1.0,1.690431e-05,4.2704937e-06,9.555379e-11,-0.00012289379,-0.00023642156,-3.0049957e-08,0,0,1
5916000,5764000,5764000,0,3.4048317e-05,-0.0014104268,-0.99999905,1.0,1.0,1.0,-0.002242075,0.000576644,1.847744e-06,-0.0014412043,-0.0010260339,-2.3286952e-05,1.0004604,1.0004603,1.0,8.0393394e-05,5.317843e-06,5.4626526e-11,-0.00012222449,-0.00023261464,-2.9575869e-08,0,0,1
5924000,5772000,5772000,0,-0.0022740997,-0.008374498,-0.9999624,1.0,1.0,1.0,2.7417671e-05,0.007635058,-3.4749508e-05,-0.0014180765,-0.00088963873,-2.3468403e-05,1.0004601,1.0004601,1.0,1.2022127e-08,0.0009322769,1.9386789e-08,-0.000120299504,-0.00021426988,-2.941541e-08,0,0,1
5940000,5788000,5788000,0,-0.004085754,0.008361398,-0.9999567,1.0,1.0,1.0,0.00165217,-0.009123656,-4.005432e-05,-0.0013125235,-0.00097163755,-2.3543236e-05,1.0004547,1.0004547,1.0,4.36548e-05,0.0013312523,2.5746033e-08,-0.00011457285,-0.00022735453,-2.8933828e-08,0,0,1
5948000,5796000,5796000,0,-0.00034122381,0.0008647369,-0.9999995,1.0,1.0,1.0,-0.0021393804,-0.0017339617,2.9206276e-06,-0.0013255449,-0.0009836426,-2.3125544e-05,1.0004545,1.0004544,1.0,7.319791e-05,4.8084123e-05,1.4210855e-10,-0.000113921276,-0.00022453137,-2.847594e-08,0,0,1
5956000,5804000,5804000,0,0.0001860795,-0.004159706,-0.99999136,1.0,1.0,1.0,-0.0027331703,0.0032320302,-4.9471855e-06,-0.0013477122,-0.00091725413,-2.2839271e-05,1.0004544,1.0004543,1.0,0.00011946922,0.00016706041,3.915943e-10,-0.000114008646,-0.00021836457,-2.8033666e-08,0,0,1
5964000,5812000,5812000,0,-0.002986481,-0.0069795465,-0.99997115,1.0,1.0,1.0,0.00060117175,0.0057334774,-2.5212765e-05,-0.0013170212,-0.0008125182,-2.287665e-05,1.0004392,1.0004393,1.0,5.779981e-06,0.0005257332,1.0170936e-08,-0.00011212221,-0.0002066465,-2.7752364e-08,0,0,1
5980000,5828000,5828000,0,0.0066533294,0.0063455673,-0.9999577,1.0,1.0,1.0,-0.009017447,-0.007569336,-3.8802624e-05,-0.0015152488,-0.00097309693,-2.2915156e-05,1.0004388,1.0004389,1.0,0.0013004589,0.0009163152,2.4164365e-08,-0.0001388817,-0.00021921884,-2.7286323e-08,0,0,1
5988000,5836000,5836000,0,0.0064992006,0.0017147503,-0.99997735,1.0,1.0,1.0,-0.008848321,-0.0030357782,-1.9073486e-05,-0.0016307302,-0.0010055801,-2.2853717e-05,1.0004387,1.0004388,1.0,0.0012521353,0.00014739046,5.784443e-09,-0.00015641325,-0.00021808769,-2.694771e-08,0,0,1
5996000,5844000,5844000,0,-0.00095905474,-0.004260996,-0.9999905,1.0,1.0,1.0,-0.0013591335,0.0029046116,-5.90086e-06,-0.0016264531,-0.00094400224,-2.2585804e-05,1.0004386,1.0004387,1.0,2.9542945e-05,0.0001349291,5.459242e-10,-0.00015441529,-0.00021252836,-2.6531934e-08,0,0,1
6004000,5852000,5852000,0,-0.005074245,0.00095877034,-0.9999866,1.0,1.0,1.0,0.002744016,-0.0023324015,-9.775162e-06,-0.0015576269,-0.0009658668,-2.2384062e-05,1.0004385,1.0004386,1.0,0.00012042118,8.7003405e-05,1.5288606e-09,-0.00015008716,-0.00021055159,-2.6138185e-08,0,0,1
6020000,5868000,5868000,0,0.002233826,0.00078089425,-0.9999972,1.0,1.0,1.0,-0.004342479,-0.0021721334,2.9802322e-07,-0.0014839442,-0.0009991609,-2.215198e-05,1.0004166,1.000417,1.0,0.00030158836,7.545913e-05,2.7853275e-12,-0.00014114655,-0.0002060445,-2.5553245e-08,0,0,1
6028000,5876000,5876000,0,0.0035740181,0.0032775626,-0.99998826,1.0,1.0,1.0,-0.005844814,-0.004563359,-8.404255e-06,-0.0015526194,-0.00105529,-2.193548e-05,1.0004165,1.0004169,1.0,0.00054636196,0.00033304904,1.130104e-09,-0.0001475279,-0.00020804457,-2.5168628e-08,0,0,1
6036000,5884000,5884000,0,0.0008909977,0.004064093,-0.99999136,1.0,1.0,1.0,-0.0032060435,-0.0052680643,-5.3048134e-06,-0.0015786575,-0.0011216329,-2.167358e-05,1.0004164,1.0004168,1.0,0.00016439099,0.00044385504,4.5025672e-10,-0.00014779346,-0.00021175812,-2.4779363e-08,0,0,1
6044000,5892000,5892000,0,-0.00062973367,0.0023350283,-0.9999971,1.0,1.0,1.0,-0.0016805433,-0.0035816133,5.364418e-07,-0.0015802621,-0.0011603727,-2.1324755e-05,1.0004163,1.0004166,1.0,4.516881e-05,0.00020516178,3.637979e-12,-0.00014617732,-0.00021165423,-2.438908e-08,0,0,1
