timestamp,position[0],position[1],position[2],velocity[0],velocity[1],velocity[2],acceleration[0],acceleration[1],acceleration[2],jerk[0],jerk[1],jerk[2],yaw,yawspeed
5004000,nan,nan,nan,nan,nan,0.7,0.0,0.0,nan,nan,nan,nan,-0.0005518,nan
5028000,nan,nan,nan,nan,nan,0.7,0.0,0.0,nan,nan,nan,nan,-0.0005002854,nan
5204000,nan,nan,nan,nan,nan,0.7,0.0,0.0,nan,nan,nan,nan,0.0005673617,nan
5404000,nan,nan,nan,nan,nan,0.7,0.0,0.0,nan,nan,nan,nan,-2.4269462e-05,nan
5604000,nan,nan,nan,nan,nan,0.7,0.0,0.0,nan,nan,nan,nan,-0.0015619842,nan
5804000,nan,nan,nan,nan,nan,0.7,0.0,0.0,nan,nan,nan,nan,-0.0019223683,nan
6004000,nan,nan,nan,nan,nan,0.7,0.0,0.0,nan,nan,nan,nan,1.5865837,nan
6204000,0.010709579,0.0009546964,0.0054284185,-0.0005119059,-0.0005119059,0.6994881,-0.06399412,-0.06399412,-0.06399412,-4.0,-4.0,-4.0,1.5851012,-0.001481365
6404000,0.0102187265,0.003951317,0.0036881096,-0.00051183207,-0.00051183207,0.69948816,-0.063989505,-0.063989505,-0.063989505,-4.0,-4.0,-4.0,1.5852176,0.005585054
6604000,0.01001958,0.008009513,0.00054476917,-0.00051182933,-0.00051182933,0.69948816,-0.063989334,-0.063989334,-0.063989334,-4.0,-4.0,-4.0,1.5868726,-0.0007353432
6804000,0.010252748,0.012387017,-0.0029646351,-0.0005118401,-0.0005118401,0.69948816,-0.063990004,-0.063990004,-0.063990004,-4.0,-4.0,-4.0,1.586862,0.005585054
7004000,0.009849568,0.01387369,-0.00485546,-0.0005119558,-0.0005119558,0.69948804,-0.06399724,-0.06399724,-0.06399724,-4.0,-4.0,-4.0,1.5870559,-0.005585054
7204000,0.008832628,0.014253737,-0.007419178,-0.00051193376,-0.00051193376,0.69948804,-0.06399586,-0.06399586,-0.06399586,-4.0,-4.0,-4.0,1.5866299,0.005585054
7404000,0.0067734816,0.012734842,-0.008640722,-0.00051185675,-0.00051185675,0.6994881,-0.06399105,-0.06399105,-0.06399105,-4.0,-4.0,-4.0,1.5858573,0.004316341
7604000,0.004089553,0.01111509,-0.009952766,-0.0005118762,-0.0005118762,0.6994881,-0.06399226,-0.06399226,-0.06399226,-4.0,-4.0,-4.0,1.5850648,-0.005585054
7804000,0.0023698031,0.011357601,-0.010684799,-0.0005119117,-0.0005119117,0.6994881,-0.06399448,-0.06399448,-0.06399448,-4.0,-4.0,-4.0,1.5836865,-0.0029533324
8004000,0.0005270151,0.013514922,-0.011753398,-0.0005118675,-0.0005118675,0.6994881,-0.06399172,-0.06399172,-0.06399172,-4.0,-4.0,-4.0,1.5837946,0.00029891566
8204000,0.0013018646,0.0133110285,-0.011050687,-0.00051194127,-0.00051194127,0.69948804,-0.06399633,-0.06399633,-0.06399633,-4.0,-4.0,-4.0,1.583015,0.0
8404000,0.0018238649,0.01277232,-0.010989194,-0.00051198323,-0.00051198323,0.699488,-0.06399895,-0.06399895,-0.06399895,-4.0,-4.0,-4.0,1.5832101,0.00017021084
8604000,0.0015912871,0.00849971,-0.00916057,-0.0005117608,-0.0005117608,0.6994882,-0.06398505,-0.06398505,-0.06398505,-4.0,-4.0,-4.0,1.5822959,-0.005585054
8804000,0.00018052658,0.0031601985,-0.0089158565,-0.00051181315,-0.00051181315,0.69948816,-0.06398832,-0.06398832,-0.06398832,-4.0,-4.0,-4.0,1.5816963,-0.0016788212
9004000,0.000905358,0.00042648145,-0.009342141,-0.0005119011,-0.0005119011,0.6994881,-0.06399382,-0.06399382,-0.06399382,-4.0,-4.0,-4.0,1.5818275,0.0014222306
9204000,0.00089735485,-0.0012410154,-0.010684651,-0.0005119252,-0.0005119252,0.69948804,-0.063995324,-0.063995324,-0.063995324,-4.0,-4.0,-4.0,1.5823116,0.00031304313
9404000,-0.0030342313,-0.0017286293,-0.0075429874,-0.0005117747,-0.0005117747,0.6994882,-0.063985914,-0.063985914,-0.063985914,-4.0,-4.0,-4.0,1.5819321,-0.0038691699
9604000,-0.007913047,-0.0016611923,-0.004124544,-0.00051181804,-0.00051181804,0.69948816,-0.063988626,-0.063988626,-0.063988626,-4.0,-4.0,-4.0,1.581804,0.0
9804000,-0.00888542,-0.0015692867,-0.003481837,-0.0005119862,-0.0005119862,0.699488,-0.06399914,-0.06399914,-0.06399914,-4.0,-4.0,-4.0,1.5818448,0.0
10004000,-0.010254195,-0.002230704,-0.004154329,-0.00051188504,-0.00051188504,0.6994881,-0.06399281,-0.06399281,-0.06399281,-4.0,-4.0,-4.0,1.5830613,-0.003956792
10204000,-0.009023905,-0.0051325783,-0.0037275215,-0.000511845,-0.000511845,0.69948816,-0.06399031,-0.06399031,-0.06399031,-4.0,-4.0,-4.0,1.5832747,-0.0025336435
10404000,-0.009630295,-0.008725971,-0.003025956,-0.00051181397,-0.00051181397,0.69948816,-0.06398837,-0.06398837,-0.06398837,-4.0,-4.0,-4.0,1.582993,0.0033346964
10604000,-0.0101002185,-0.010487532,-0.0015598326,-0.000511931,-0.000511931,0.69948804,-0.06399569,-0.06399569,-0.06399569,-4.0,-4.0,-4.0,1.5829278,-0.0009426244
10804000,-0.012870606,-0.01220786,-0.00085940055,-0.00051179633,-0.00051179633,0.69948816,-0.06398727,-0.06398727,-0.06398727,-4.0,-4.0,-4.0,1.582713,-0.005585054
11004000,-0.013671377,-0.009049052,-0.00018740517,-0.000511852,-0.000511852,0.69948816,-0.06399075,-0.06399075,-0.06399075,-4.0,-4.0,-4.0,1.5827632,-0.004474774
11204000,-0.016590653,-0.006962648,-4.8087536e-06,-0.0005118054,-0.0005118054,0.69948816,-0.063987836,-0.063987836,-0.063987836,-4.0,-4.0,-4.0,1.5828365,0.0
11404000,-0.0144099,-0.0034992283,0.0023757094,-0.00051181886,-0.00051181886,0.69948816,-0.06398868,-0.06398868,-0.06398868,-4.0,-4.0,-4.0,1.5834663,-0.0017245066
11604000,-0.013470921,-0.0017815158,0.003994725,-0.0005119638,-0.0005119638,0.69948804,-0.06399774,-0.06399774,-0.06399774,-4.0,-4.0,-4.0,1.5834922,0.005585054
11804000,-0.0085190125,-0.003423111,0.005273905,-0.00051172974,-0.00051172974,0.6994883,-0.063983105,-0.063983105,-0.063983105,-4.0,-4.0,-4.0,1.5832955,0.005585054
12004000,-0.004103189,-0.006575007,0.0058243484,-0.0005118328,-0.0005118328,0.69948816,-0.06398955,-0.06398955,-0.06398955,-4.0,-4.0,-4.0,1.5841284,-0.00089142635
12204000,0.0020159364,-0.0068581463,0.0075630527,-0.0005117599,-0.0005117599,0.6994882,-0.06398499,-0.06398499,-0.06398499,-4.0,-4.0,-4.0,1.5843854,-0.005585054
12404000,0.006921258,-0.0070423926,0.006831712,-0.0005118588,-0.0005118588,0.6994881,-0.063991174,-0.063991174,-0.063991174,-4.0,-4.0,-4.0,1.5840809,-0.005362195
12604000,0.0093251215,-0.00936651,0.003840889,-0.0005118496,-0.0005118496,0.69948816,-0.0639906,-0.0639906,-0.0639906,-4.0,-4.0,-4.0,1.5841796,0.005585054
12804000,0.009719602,-0.009643229,0.0018892308,-0.0005119838,-0.0005119838,0.699488,-0.06399899,-0.06399899,-0.06399899,-4.0,-4.0,-4.0,1.5845647,0.0010938642
13004000,0.009956658,-0.009603597,-0.0010709622,-0.0005119849,-0.0005119849,0.699488,-0.06399906,-0.06399906,-0.06399906,-4.0,-4.0,-4.0,1.5849913,0.005585054
13204000,0.0087518385,-0.008443975,-0.00278069,-0.0005119168,-0.0005119168,0.69948804,-0.0639948,-0.0639948,-0.0639948,-4.0,-4.0,-4.0,1.5848938,-0.0044830428
13404000,0.00742713,-0.00871365,-0.0048863045,-0.0005119259,-0.0005119259,0.69948804,-0.06399537,-0.06399537,-0.06399537,-4.0,-4.0,-4.0,1.5848298,0.0019377233
13604000,0.005240753,-0.009742162,-0.007816249,-0.00051190244,-0.00051190244,0.6994881,-0.0639939,-0.0639939,-0.0639939,-4.0,-4.0,-4.0,1.5848697,0.005585054
13804000,0.00343386,-0.011607922,-0.011173612,-0.0005118631,-0.0005118631,0.6994881,-0.06399144,-0.06399144,-0.06399144,-4.0,-4.0,-4.0,1.5853668,0.0
14004000,0.0019159641,-0.011305801,-0.011630706,-0.0005119243,-0.0005119243,0.69948804,-0.06399527,-0.06399527,-0.06399527,-4.0,-4.0,-4.0,1.585271,0.0010938642
14204000,0.0010971423,-0.010824336,-0.01291184,-0.0005119797,-0.0005119797,0.699488,-0.06399873,-0.06399873,-0.06399873,-4.0,-4.0,-4.0,1.5858146,0.0014222306
14404000,0.00073345896,-0.008180043,-0.012211089,-0.00051187415,-0.00051187415,0.6994881,-0.063992135,-0.063992135,-0.063992135,-4.0,-4.0,-4.0,1.5859271,-0.0036464767
14604000,0.0021294495,-0.006347908,-0.011203655,-0.00051190646,-0.00051190646,0.6994881,-0.063994154,-0.063994154,-0.063994154,-4.0,-4.0,-4.0,1.5867927,0.0023259697
14804000,0.0062153363,-0.0058211056,-0.010045114,-0.0005118034,-0.0005118034,0.69948816,-0.06398771,-0.06398771,-0.06398771,-4.0,-4.0,-4.0,1.5866752,-0.005278248
15004000,0.011290291,-0.0064242915,-0.008366995,-0.00051177165,-0.00051177165,0.6994882,-0.06398573,-0.06398573,-0.06398573,-4.0,-4.0,-4.0,1.5859011,0.0
15204000,0.013011292,-0.005356204,-0.006381689,-0.00051192375,-0.00051192375,0.69948804,-0.063995235,-0.063995235,-0.063995235,-4.0,-4.0,-4.0,1.5865942,0.0042742253
15404000,0.011776279,-0.00365051,-0.006168095,-0.0005119211,-0.0005119211,0.69948804,-0.06399507,-0.06399507,-0.06399507,-4.0,-4.0,-4.0,1.5872732,-0.0047683143
15604000,0.01168006,-0.0028927666,-0.007266577,-0.000511935,-0.000511935,0.69948804,-0.063995935,-0.063995935,-0.063995935,-4.0,-4.0,-4.0,1.5874896,0.005585054
15804000,0.014268043,-0.0021178368,-0.008396709,-0.0005118451,-0.0005118451,0.69948816,-0.06399032,-0.06399032,-0.06399032,-4.0,-4.0,-4.0,1.5872852,0.005585054
16004000,0.018342085,-0.0017611579,-0.009556807,-0.00051180576,-0.00051180576,0.69948816,-0.06398786,-0.06398786,-0.06398786,-4.0,-4.0,-4.0,1.5877895,-0.005255241
16204000,0.01817262,-0.0010234636,-0.0107455645,-0.0005119364,-0.0005119364,0.69948804,-0.063996024,-0.063996024,-0.063996024,-4.0,-4.0,-4.0,1.5882394,0.002230716
16404000,0.018151242,-0.0013420882,-0.011661288,-0.0005119184,-0.0005119184,0.69948804,-0.0639949,-0.0639949,-0.0639949,-4.0,-4.0,-4.0,1.5882473,0.005585054
16604000,0.016717551,-0.00095506443,-0.011081616,-0.0005119036,-0.0005119036,0.6994881,-0.063993976,-0.063993976,-0.063993976,-4.0,-4.0,-4.0,1.5881542,-0.005585054
16804000,0.015650027,-0.0006530741,-0.011141861,-0.00051197596,-0.00051197596,0.699488,-0.0639985,-0.0639985,-0.0639985,-4.0,-4.0,-4.0,1.5874087,0.0
17004000,0.014105872,0.0012817546,-0.010929209,-0.000511887,-0.000511887,0.6994881,-0.06399294,-0.06399294,-0.06399294,-4.0,-4.0,-4.0,1.5876459,0.005585054
17204000,0.013308519,0.002537582,-0.010104289,-0.0005119736,-0.0005119736,0.69948804,-0.06399835,-0.06399835,-0.06399835,-4.0,-4.0,-4.0,1.5882263,0.0031078856
17404000,0.011938174,0.0047513563,-0.008762675,-0.0005118675,-0.0005118675,0.6994881,-0.06399172,-0.06399172,-0.06399172,-4.0,-4.0,-4.0,1.58864,0.005585054
17604000,0.011116708,0.0064209653,-0.007144217,-0.0005119614,-0.0005119614,0.69948804,-0.06399759,-0.06399759,-0.06399759,-4.0,-4.0,-4.0,1.5890986,0.005585054
17804000,0.00808729,0.0077960487,-0.005375362,-0.0005118549,-0.0005118549,0.69948816,-0.06399093,-0.06399093,-0.06399093,-4.0,-4.0,-4.0,1.5888795,0.005585054
18004000,0.005568204,0.008281349,-0.0042147706,-0.00051193935,-0.00051193935,0.69948804,-0.06399621,-0.06399621,-0.06399621,-4.0,-4.0,-4.0,nan,0.0
18204000,0.0005143751,0.011216207,-0.0055903,8.234295e-07,-4.6421483e-06,0.6994883,5.1498413e-05,-0.00029087067,-0.06398341,0.0,0.0,-4.0,nan,0.0
18404000,-0.0035514943,0.013173994,-0.0068396796,3.7464267e-06,-6.266728e-06,0.6994881,0.00023460388,-0.00039291382,-0.06399394,0.0,0.0,-4.0,nan,0.0
18604000,-0.0063016433,0.013922247,-0.005344218,5.569009e-06,-6.9186176e-06,0.6994881,0.0003490448,-0.0004339218,-0.06399451,0.0,0.0,-4.0,nan,0.0
18804000,-0.006911108,0.014221803,-0.003848235,5.9486256e-06,-7.2826547e-06,0.69948804,0.00037288666,-0.00045681,-0.063998066,0.0,0.0,-4.0,nan,0.0
19004000,-0.006861277,0.014187306,-0.0028441323,0.00012476588,-6.0692102e-05,0.68157154,0.0014896393,-0.00066661835,-0.38396382,0.0,0.0,-4.0,nan,0.0
19204000,-0.006806534,0.014161834,-0.002749924,0.0004226938,-0.00019401578,0.58325446,0.0014896393,-0.00066661835,-0.5,0.0,0.0,0.0,nan,0.0
19404000,-0.006692204,0.014109698,-0.0027324953,0.0007206216,-0.00032733942,0.4832543,0.0014896393,-0.00066661835,-0.5,0.0,0.0,0.0,nan,0.0
19604000,-0.006518288,0.014030895,-0.0034474842,0.0010185493,-0.00046066305,0.3832544,0.0014896393,-0.00066661835,-0.5,0.0,0.0,0.0,nan,0.0
19804000,-0.0062847864,0.01392543,-0.003704709,0.0013164771,-0.0005939868,0.2832545,0.0014896393,-0.00066661835,-0.5,0.0,0.0,0.0,nan,0.0
20004000,-0.005991699,0.013793299,-0.0048774625,0.0016144048,-0.0007273106,0.18325454,0.0014896393,-0.00066661835,-0.5,0.0,0.0,0.0,nan,0.0
20204000,-0.005639027,0.013634504,-0.006080734,0.0019123326,-0.0008606344,0.083254546,0.0014896393,-0.00066661835,-0.5,0.0,0.0,0.0,nan,0.0
20404000,-0.005226769,0.013449042,-0.007772287,0.0022102604,-0.0009939581,-0.016745465,0.0014896393,-0.00066661835,-0.5,0.0,0.0,0.0,nan,0.0
20604000,-0.004754926,0.013236918,-0.010226779,0.0025081881,-0.0011272816,-0.11674548,0.0014896393,-0.00066661835,-0.5,0.0,0.0,0.0,nan,0.0
20804000,-0.004223498,0.012998127,-0.01118591,0.002806116,-0.0012606051,-0.21674547,0.0014896393,-0.00066661835,-0.5,0.0,0.0,0.0,nan,0.0
21004000,-0.003632483,0.0127326725,-0.012419698,0.0031040437,-0.0013939285,-0.3167454,0.0014896393,-0.00066661835,-0.5,0.0,0.0,0.0,nan,0.0
21204000,-0.0029818816,0.012440553,-0.015820235,0.0034019714,-0.001527252,-0.4167453,0.0014896393,-0.00066661835,-0.5,0.0,0.0,0.0,nan,0.0
21404000,-0.0022716934,0.01212177,-0.018915594,0.0036998992,-0.0016605755,-0.51674527,0.0014896393,-0.00066661835,-0.5,0.0,0.0,0.0,nan,0.0
21604000,-0.0015019203,0.011776321,-0.020668186,0.003997827,-0.001793899,-0.6167455,0.0014896393,-0.00066661835,-0.5,0.0,0.0,0.0,nan,0.0
21804000,-0.0006926835,0.011415002,-0.02239026,0.0040390333,-0.0018018595,-0.7167457,-0.00019979477,8.749962e-05,-0.5,0.0,0.0,0.0,nan,0.0
22024000,0.00018846494,0.011021864,-0.026994,0.0039607957,-0.0017673722,-0.82674587,-0.00049471855,0.00021862984,-0.5,0.0,0.0,0.0,nan,0.0
22204000,0.00089184934,0.0107079735,-0.025620783,0.0038466246,-0.0017167623,-0.916746,-0.00075507164,0.0003349781,-0.5,0.0,0.0,0.0,nan,0.0
22404000,0.0016435771,0.010372437,-0.029845297,0.0036597329,-0.0016337438,-1.0167462,-0.001086235,0.00048279762,-0.5,0.0,0.0,0.0,nan,0.0
22604000,0.0023509476,0.010056617,-0.034069806,0.0034014103,-0.001518841,-1.1167461,-0.0014667511,0.00065267086,-0.5,0.0,0.0,0.0,nan,0.0
22804000,0.0029985916,0.009767379,-0.04680872,0.0030604836,-0.0013670678,-1.216746,-0.0019071102,0.000849247,-0.5,0.0,0.0,0.0,nan,0.0
23004000,0.0035686994,0.0095126685,-0.08576223,0.0026235748,-0.0011724383,-1.3167459,-0.0024219155,0.0010790825,-0.5,0.0,0.0,0.0,nan,0.0
23204000,0.0040384415,0.009302681,-0.1552775,0.0020723122,-0.0009267642,-1.4163177,-0.0030782223,0.0013719797,-0.5,0.0,0.0,0.0,nan,0.0
23404000,0.004378656,0.009150436,-0.26314205,0.0013600279,-0.0006093002,-1.4977144,-0.0042550266,0.0018955842,-0.13521923,0.0,0.0,4.0,nan,0.0
23604000,0.0046073277,0.009048013,-0.3912161,0.0011409896,-0.0005109702,-1.5,0.0,0.0,0.0,0.0,0.0,0.0,nan,0.0
23804000,0.0048176097,0.0089538405,-0.5319579,0.0010744018,-0.0004811546,-1.4740207,-0.00041083992,0.00018402934,0.23752815,0.0,0.0,-4.0,nan,0.0
24004000,0.005010898,0.008867277,-0.6767715,0.0009886224,-0.00044274004,-1.4284184,-0.0004659444,0.00020866096,0.25116718,0.0,0.0,-4.0,nan,0.0
24204000,0.0051858095,0.008788945,-0.8273929,0.0009024281,-0.00040414018,-1.3801734,-0.0004659444,0.00020866096,0.27274838,0.0,0.0,-4.0,nan,0.0
24404000,0.005343716,0.008718229,-0.9820816,0.00081683876,-0.0003658112,-1.328582,-0.0004659444,0.00020866096,0.2906852,0.0,0.0,-4.0,nan,0.0
24604000,0.0054859803,0.008654517,-1.1394219,0.0007530425,-0.00033724002,-1.2740024,-9.3862414e-05,4.2155385e-05,0.30731192,0.0,0.0,-4.0,nan,0.0
24804000,0.0056191967,0.008594857,-1.294537,0.0006928708,-0.00031028737,-1.2170757,-0.00043734908,0.00019586086,0.31496754,0.0,0.0,-4.0,nan,0.0
25004000,0.0057385373,0.008541413,-1.448985,0.00061071035,-0.00027349463,-1.1583439,-0.00044958293,0.00020132959,0.32753754,0.0,0.0,-4.0,nan,0.0
25204000,0.0058431407,0.008494565,-1.5999931,0.00052812137,-0.00023651007,-1.097553,-0.00044958293,0.00020132959,0.3349601,0.0,0.0,-4.0,nan,0.0
25404000,0.005932727,0.008454447,-1.7478344,0.0004453759,-0.00019945546,-1.0350754,-0.00044958293,0.00020132959,0.3444579,0.0,0.0,-4.0,nan,0.0
25604000,0.006012021,0.008418935,-1.8910468,0.00041187127,-0.00018444427,-0.9706985,-0.00022438169,0.00010052323,0.35111493,0.0,0.0,-4.0,nan,0.0
25804000,0.006084251,0.00838659,-2.0280492,0.00036425493,-0.00016311843,-0.9050206,-0.0002618581,0.00011727214,0.355629,0.0,0.0,-4.0,nan,0.0
26004000,0.006147837,0.008358117,-2.1582334,0.00031524725,-0.00014117055,-0.8381808,-0.0002618581,0.00011727214,0.3591847,0.0,0.0,-4.0,nan,0.0
26204000,0.00620232,0.00833372,-2.2941601,0.00026617208,-0.000119192424,-0.7677313,-0.0002618581,0.00011727214,0.5126228,0.0,0.0,4.0,nan,0.0
26404000,0.0062476457,0.008313422,-2.4247637,0.00021704803,-9.719239e-05,-0.6011782,-0.0002618581,0.00011727214,1.2630152,0.0,0.0,4.0,1.5917037,0.0
26604000,0.0062838504,0.008297209,-2.5147874,0.00016777602,-7.512612e-05,-0.3691377,-0.0002618581,0.00011727214,0.9588469,0.0,0.0,-4.0,1.5917037,0.0
26804000,0.0063118674,0.008284665,-2.5707152,0.00014093154,-6.310845e-05,-0.242626,-3.1888485e-05,1.4260411e-05,0.38008025,0.0,0.0,-4.0,1.5917037,0.0
27004000,0.0063373237,0.008273264,-2.6121893,0.00012629593,-5.6559267e-05,-0.20452404,-8.9891255e-05,4.0233135e-05,0.086864375,0.0,0.0,-4.0,1.5917037,0.0
27204000,0.0063600796,0.008263073,-2.64934,0.00011492422,-5.1464925e-05,-0.18582943,-5.144626e-05,2.3044646e-05,0.075304635,0.0,0.0,-4.0,1.5917037,0.0
27404000,0.006381064,0.008253674,-2.6832764,0.000104099265,-4.6617737e-05,-0.16876936,-5.6624413e-05,2.5354326e-05,0.06723355,0.0,0.0,-4.0,1.5917037,0.0
27604000,0.006399998,0.008245194,-2.7141356,9.3234354e-05,-4.1752828e-05,-0.15323646,-5.6624413e-05,2.5354326e-05,0.059694983,0.0,0.0,-4.0,1.5917037,0.0
27804000,0.006417285,0.008237452,-2.7422237,8.5857806e-05,-3.844623e-05,-0.13908532,-4.5202672e-05,2.0254403e-05,0.052953124,0.0,0.0,-4.0,1.5917037,0.0
28004000,0.0064354604,0.0082328785,-2.7677748,0.0005547621,0.0004430805,-0.12629512,0.061768774,0.06183423,0.054952346,4.0,4.0,0.0,1.5914245,-0.013962634
28204000,0.012494999,0.013435759,-2.791134,0.087063745,0.063701525,-0.11561274,0.8341986,0.40286463,0.055616103,4.0,0.0,0.0,1.5816507,-0.0837758
28404000,0.0491878,0.03304019,-2.8122633,0.32036868,0.14090332,-0.10488536,1.600727,0.40286463,0.0562739,4.0,0.0,0.0,1.5579144,-0.153589
28604000,0.14221087,0.066673204,-2.8309934,0.69225156,0.21668607,-0.09423245,2.3531656,0.40286463,0.05692216,4.0,0.0,0.0,1.520215,-0.2234022
28804000,0.31157827,0.11287791,-2.8472242,1.1869409,0.2901402,-0.08379038,3.0,0.40286463,0.05755373,0.0,0.0,0.0,1.4685533,-0.29321536
29004000,0.56579876,0.16994101,-2.8610268,1.7129366,0.3607752,-0.07363998,3.0,0.40286463,0.05816885,0.0,0.0,0.0,1.4029292,-0.3630285
29204000,0.8961821,0.2362894,-2.8725817,2.2173076,0.42850623,-0.06380521,3.0,0.40286463,0.05876466,0.0,0.0,0.0,1.3233427,-0.43284163
29404000,1.3010626,0.31214604,-2.88227,2.7103019,0.49470952,-0.054094784,3.0,0.40286463,0.05935689,0.0,0.0,0.0,1.2297928,-0.5026548
29604000,1.7810538,0.39784807,-2.8902726,3.1977623,0.5601697,-0.044396818,3.0,0.40286463,0.05995258,0.0,0.0,0.0,1.1222804,-0.5724679
29804000,2.3455436,0.4950849,-2.8967419,3.6895292,0.6262082,-0.03451359,3.0,0.40286463,0.060571752,0.0,0.0,0.0,1.0008055,-0.64228106
30004000,2.9950123,0.6041229,-2.901618,4.1507425,0.69281435,-0.024469037,2.4725115,0.40286463,0.060775362,-4.0,0.0,0.0,0.8657598,-0.68869835
30204000,3.7202673,0.7255601,-2.9048595,4.5081573,0.7601561,-0.014309997,1.8038827,0.40286463,0.060775362,-4.0,0.0,0.0,0.7350017,-0.6188852
30404000,4.4948316,0.8580631,-2.9064014,4.7535443,0.827405,-0.004164981,1.136177,0.40286463,0.060775362,-4.0,0.0,0.0,0.6182061,-0.5490721
30604000,5.2956004,1.0007938,-2.9062567,4.886948,0.8942043,0.0059122373,0.47293326,0.40286463,0.060775362,-4.0,0.0,0.0,0.51537323,-0.47925895
30804000,6.1145015,1.153505,-2.9044569,4.9142423,0.9211559,0.013669744,0.0074141584,0.012824867,-0.03522464,0.0,4.0,0.0,0.4265027,-0.40944582
31004000,7.0143228,1.3222276,-2.9019392,4.9143515,0.9214927,0.013773715,0.0,0.0,0.0,0.0,0.0,0.0,0.35159478,-0.3396327
31204000,7.9443493,1.4966178,-2.899333,4.914352,0.92149264,0.013773751,0.0,0.0,0.0,0.0,0.0,0.0,0.29064947,-0.26981956
31404000,8.874658,1.6710608,-2.8967252,4.9143515,0.92149264,0.013773756,0.0,0.0,0.0,0.0,0.0,0.0,0.24366686,-0.20000637
31604000,9.790783,1.8428445,-2.8941572,4.9143515,0.9214926,0.013773703,0.0,0.0,0.0,0.0,0.0,0.0,0.2106469,-0.13019316
31804000,10.699088,2.0131612,-2.8916116,4.9143515,0.92149276,0.0137737235,0.0,0.0,0.0,0.0,0.0,0.0,0.1915896,-0.06037999
32004000,11.617876,2.1854439,-2.889037,4.9143515,0.9214926,0.013773734,0.0,0.0,0.0,0.0,0.0,0.0,0.18649492,0.00943318
32204000,12.549002,2.3600402,-2.886427,4.9143515,0.92149264,0.013773762,0.0,0.0,0.0,0.0,0.0,0.0,0.18921532,-0.013401309
32404000,13.458784,2.5306337,-2.8838773,4.9143515,0.92149246,0.013773781,0.0,0.0,0.0,0.0,0.0,0.0,0.18790515,-0.003699817
32604000,14.377967,2.7029903,-2.8813016,4.914352,0.9214927,0.013773796,0.0,0.0,0.0,0.0,0.0,0.0,0.18685514,-0.0037799932
32804000,15.323192,2.8802302,-2.878652,4.9143515,0.9214924,0.013773823,0.0,0.0,0.0,0.0,0.0,0.0,0.18585826,-0.0032502285
33004000,16.266148,3.0570433,-2.8760097,4.9143515,0.92149264,0.013773832,0.0,0.0,0.0,0.0,0.0,0.0,0.18494643,-0.0030049544
33204000,17.191544,3.2305639,-2.8734164,4.9143515,0.9214926,0.013773861,0.0,0.0,0.0,0.0,0.0,0.0,0.18416202,-0.0024260266
33404000,18.103611,3.401586,-2.8708606,4.9143515,0.9214927,0.013773868,0.0,0.0,0.0,0.0,0.0,0.0,0.18353939,-0.002144259
33604000,19.008467,3.571256,-2.868325,4.9143515,0.9214928,0.013773934,0.0,0.0,0.0,0.0,0.0,0.0,0.1830842,-0.0009712477
33804000,19.909935,3.7402909,-2.8657985,4.9143515,0.92149276,0.013773929,0.0,0.0,0.0,0.0,0.0,0.0,0.18275025,0.0
34004000,20.810139,3.909088,-2.8632755,4.9143515,0.9214927,0.013773948,0.0,0.0,0.0,0.0,0.0,0.0,0.18255731,0.0
34204000,21.71106,4.0780196,-2.8607512,4.9143515,0.9214928,0.0137740215,0.0,0.0,0.0,0.0,0.0,0.0,0.18247423,0.0
34404000,22.641947,4.25257,-2.858143,4.914351,0.9214929,0.013774114,0.0,0.0,0.0,0.0,0.0,0.0,0.18249294,0.0
34604000,23.574188,4.427376,-2.8555305,4.9143515,0.9214928,0.013774149,0.0,0.0,0.0,0.0,0.0,0.0,0.18252054,0.0
34804000,24.507975,4.6024694,-2.8529136,4.9143515,0.92149293,0.013774164,0.0,0.0,0.0,0.0,0.0,0.0,0.18259539,0.0
35004000,25.444212,4.778023,-2.8502898,4.9143515,0.92149293,0.013774212,0.0,0.0,0.0,0.0,0.0,0.0,0.18272401,0.0
35204000,26.376001,4.952742,-2.8476791,4.9143515,0.92149293,0.013774293,0.0,0.0,0.0,0.0,0.0,0.0,0.18288304,0.0
35404000,27.319473,5.1296515,-2.845035,4.9143515,0.92149323,0.013774342,0.0,0.0,0.0,0.0,0.0,0.0,0.18311624,0.0
35604000,28.254595,5.304996,-2.8424144,4.914351,0.9214932,0.01377436,0.0,0.0,0.0,0.0,0.0,0.0,0.18334231,0.0
35804000,29.201326,5.482517,-2.839761,4.9143515,0.9214936,0.013774377,0.0,0.0,0.0,0.0,0.0,0.0,0.18364587,0.00037620054
36004000,30.14479,5.659426,-2.8371158,4.9143515,0.92149365,0.0137743335,0.0,0.0,0.0,0.0,0.0,0.0,0.18392137,0.0
36204000,31.094881,5.837577,-2.8344526,4.9143515,0.92149365,0.013774326,0.0,0.0,0.0,0.0,0.0,0.0,0.18422936,0.00021342956
36404000,32.05037,6.01674,-2.8317752,4.9143515,0.92149377,0.013774357,0.0,0.0,0.0,0.0,0.0,0.0,0.18448499,0.0
36604000,33.00822,6.1963477,-2.829091,4.9143515,0.92149365,0.013774446,0.0,0.0,0.0,0.0,0.0,0.0,0.18466653,0.0
36804000,33.966385,6.3760133,-2.8264053,4.9143515,0.9214939,0.013774479,0.0,0.0,0.0,0.0,0.0,0.0,0.18478887,0.0
37004000,34.92439,6.5556517,-2.82372,4.9143515,0.92149365,0.013774437,0.0,0.0,0.0,0.0,0.0,0.0,0.18479341,0.0
37204000,35.883118,6.735423,-2.8210325,4.9143515,0.92149365,0.013774373,0.0,0.0,0.0,0.0,0.0,0.0,0.18474637,0.0
37404000,36.842743,6.9153643,-2.8183436,4.9143515,0.92149353,0.01377444,0.0,0.0,0.0,0.0,0.0,0.0,0.1847775,0.0
37604000,37.80368,7.095551,-2.8156512,4.9143515,0.9214934,0.013774632,0.0,0.0,0.0,0.0,0.0,0.0,0.18480606,0.0
37804000,38.765537,7.275906,-2.812955,4.9143515,0.92149377,0.013774572,0.0,0.0,0.0,0.0,0.0,0.0,0.18476778,0.0
38004000,39.728004,7.4563785,-2.810257,4.914351,0.9214938,0.013774506,0.0,0.0,0.0,0.0,0.0,0.0,0.18469672,0.0
38204000,40.691692,7.6370807,-2.8075552,4.9143515,0.921494,0.013774497,0.0,0.0,0.0,0.0,0.0,0.0,0.18464251,0.0
38404000,41.660164,7.81868,-2.8048406,4.9143515,0.92149377,0.013774434,0.0,0.0,0.0,0.0,0.0,0.0,0.18461362,0.0
38604000,42.6336,8.001209,-2.802112,4.914351,0.9214937,0.013774416,0.0,0.0,0.0,0.0,0.0,0.0,0.18447913,0.0
38804000,43.607113,8.183755,-2.7993844,4.914351,0.92149377,0.013774556,0.0,0.0,0.0,0.0,0.0,0.0,0.18435432,0.0
39004000,44.5804,8.366262,-2.7966561,4.9143515,0.92149305,0.013774632,0.0,0.0,0.0,0.0,0.0,0.0,0.18410085,0.0
39204000,45.55323,8.548678,-2.7939296,4.9143515,0.9214928,0.013774629,0.0,0.0,0.0,0.0,0.0,0.0,0.18391678,0.0
39404000,46.5258,8.731049,-2.7912042,4.9143515,0.92149246,0.013774719,0.0,0.0,0.0,0.0,0.0,0.0,0.1837717,0.0
39604000,47.498318,8.913406,-2.7884777,4.914352,0.92149234,0.013774607,0.0,0.0,0.0,0.0,0.0,0.0,0.18371102,0.0
39804000,48.470325,9.096345,-2.7857778,4.896402,0.9394415,0.013208529,-0.37893957,0.37893957,-0.00603199,-4.0,4.0,0.0,0.18619624,0.0418879
40004000,49.4347,9.296686,-2.7832615,4.741108,1.0947355,0.011999871,-1.177262,1.177262,-0.0060739517,-4.0,4.0,0.0,0.20155513,0.11170107
40204000,50.35404,9.544137,-2.780983,4.425654,1.3965201,0.010781525,-1.9772618,1.646593,-0.006105423,-4.0,0.0,0.0,0.23087667,0.18151428
40404000,51.19429,9.856374,-2.7789483,3.9502008,1.7258388,0.009557566,-2.777261,1.646593,-0.006131172,-4.0,0.0,0.0,0.2741608,0.25132748
40604000,51.92546,10.234473,-2.777159,3.356402,2.0551574,0.008328417,-3.0,1.646593,-0.006157875,0.0,0.0,0.0,0.33140752,0.32114062
40804000,52.53675,10.678436,-2.7756157,2.7564013,2.3844755,0.0070937453,-3.0,1.646593,-0.0061867237,0.0,0.0,0.0,0.4026169,0.39095375
41004000,53.028038,11.188262,-2.7743208,2.1564007,2.7137935,0.0058528376,-3.0,1.646593,-0.0062196255,0.0,0.0,0.0,0.48778892,0.46076688
41204000,53.381207,11.729023,-2.7733285,1.5909412,3.0241535,0.004676781,-3.0,1.646593,-0.006256819,0.0,0.0,0.0,0.5869238,0.53058004
41404000,53.59523,12.227638,-2.7726676,1.1167151,3.2844388,0.0036846227,-3.0,1.646593,-0.006292343,0.0,0.0,0.0,0.7000213,0.6003932
41604000,53.722775,12.70662,-2.7722116,0.694134,3.516378,0.002795335,-3.0,1.646593,-0.0063319206,0.0,0.0,0.0,0.82708156,0.6702063
41804000,53.792835,13.247725,-2.7718663,0.24802369,3.7612314,0.00185051,-3.0,1.646593,-0.006373644,0.0,0.0,0.0,0.96810436,0.74001944
42004000,53.794304,13.867464,-2.7716534,-0.22964117,4.0234036,0.000830686,-3.0,1.646593,-0.006431341,0.0,0.0,0.0,1.1230581,0.80320215
42204000,53.722523,14.511651,-2.7716026,-0.69528836,4.27183,-0.0001734346,-3.0,1.407412,-0.0065010786,0.0,-4.0,0.0,1.2772315,0.7378817
42404000,53.571796,15.214664,-2.7717152,-1.17563,4.4465437,-0.001227855,-2.8604074,0.76360244,-0.006593466,4.0,-4.0,0.0,1.4182386,0.6717066
42604000,53.34453,15.947661,-2.7720041,-1.5926862,4.5178957,-0.0023139066,-2.2449365,0.11075912,-0.0067032576,4.0,-4.0,0.0,1.5458885,0.6043088
42804000,53.038975,16.727926,-2.7725043,-1.9241639,4.507327,-0.003484477,-1.5865774,-0.095036194,-0.006832361,4.0,0.0,0.0,1.6599064,0.53553647
43004000,52.67983,17.5184,-2.7732222,-2.1437135,4.489464,-0.0046987496,-0.908429,-0.10637985,-0.0069764256,4.0,0.0,0.0,1.7600374,0.46574908
43204000,52.27376,18.34315,-2.7742069,-2.2449057,4.46918,-0.0059988303,-0.18779318,-0.11207471,-0.0071259066,4.0,0.0,0.0,1.846206,0.39593595
43404000,51.854527,19.175611,-2.7753797,-2.2494097,4.4654403,-0.006332609,0.0,0.0,0.0,0.0,0.0,0.0,1.9184116,0.32612282
43604000,51.438564,20.001377,-2.7765503,-2.2494106,4.46544,-0.0063326964,0.0,0.0,0.0,0.0,0.0,0.0,1.9766549,0.2563097
43804000,51.022305,20.827705,-2.7777214,-2.2494087,4.4654408,-0.006332841,0.0,0.0,0.0,0.0,0.0,0.0,2.0209353,0.18649648
44004000,50.600033,21.665955,-2.7789097,-2.2494063,4.4654417,-0.006333022,0.0,0.0,0.0,0.0,0.0,0.0,2.0512528,0.11668328
44204000,50.192684,22.474598,-2.7800558,-2.2494056,4.4654427,-0.0063332967,0.0,0.0,0.0,0.0,0.0,0.0,2.067608,0.046870112
44404000,49.780228,23.29338,-2.7812166,-2.249403,4.465443,-0.0063333334,0.0,0.0,0.0,0.0,0.0,0.0,2.070001,-0.022943057
44604000,49.365063,24.117546,-2.7823842,-2.2494023,4.4654436,-0.0063336557,0.0,0.0,0.0,0.0,0.0,0.0,2.0586994,-0.07337287
44804000,48.9564,24.928797,-2.7835345,-2.249402,4.465444,-0.0063339896,0.0,0.0,0.0,0.0,0.0,0.0,2.0510058,-0.0035597011
45004000,48.545593,25.744291,-2.7846909,-2.2493966,4.4654474,-0.0063341986,0.0,0.0,0.0,0.0,0.0,0.0,2.0552273,0.021525376
45204000,48.125965,26.577309,-2.7858717,-2.2493916,4.4654493,-0.0063344855,0.0,0.0,0.0,0.0,0.0,0.0,2.0596318,0.021437982
45404000,47.711212,27.401224,-2.7870407,-2.2314339,4.440075,-0.006284282,0.24359085,-0.45056084,0.0006161332,0.0,-4.0,0.0,2.064723,0.025965603
45604000,47.309143,28.20032,-2.7881742,-2.1673725,4.291141,-0.0061215293,0.43462372,-1.1808757,0.0010900497,0.0,-4.0,0.0,2.0710196,0.03361692
45804000,46.904243,28.995178,-2.7893205,-2.0664215,4.0237327,-0.0058698705,0.59676695,-1.4130718,0.0014783144,0.0,4.0,0.0,2.0784972,0.03689167
46004000,46.51002,29.759155,-2.7904441,-1.9382582,3.7436395,-0.005548501,0.6842228,-1.3866916,0.0017374158,0.0,4.0,0.0,2.0869412,0.04426129
46204000,46.13635,30.479956,-2.7915177,-1.797638,3.4657757,-0.005182842,0.7115778,-1.3489726,0.0018880367,0.0,4.0,0.0,2.0961378,0.0431658
46404000,45.797546,31.13349,-2.7924974,-1.6577411,3.2012198,-0.004803662,0.713603,-1.3024251,0.0019586682,0.0,4.0,0.0,2.1054688,0.04756879
46604000,45.480274,31.747608,-2.7934196,-1.5150207,2.9417639,-0.004409751,0.713603,-1.2499893,0.0019721985,0.0,4.0,0.0,2.1153307,0.046765625
46804000,45.191544,32.310913,-2.794262,-1.3723004,2.693332,-0.004005028,0.713603,-1.1924675,0.0020797849,0.0,4.0,0.0,2.1257465,0.05525689
47004000,44.93136,32.825726,-2.7950206,-1.22958,2.456812,-0.0035856497,0.713603,-1.1311108,0.0020991564,0.0,4.0,0.0,2.1372979,0.05571758
47204000,44.699715,33.29447,-2.7956953,-1.0868597,2.2328699,-0.0031658188,0.713603,-1.066852,0.0020991564,0.0,4.0,0.0,2.1496234,0.06579822
47404000,44.49511,33.719727,-2.796286,-0.9661553,2.0220087,-0.0027459878,0.521603,-1.0004379,0.0020991564,0.0,4.0,0.0,2.1636462,0.06992499
47604000,44.311787,34.104156,-2.796793,-0.8700267,1.8246228,-0.002326157,0.45760298,-0.9321987,0.0020991564,0.0,4.0,0.0,2.1790757,0.082421616
47804000,44.146023,34.45047,-2.7972157,-0.78925824,1.6410128,-0.0019063259,0.39360297,-0.86286783,0.0020991564,0.0,4.0,0.0,2.1964543,0.08617623
48004000,43.99604,34.76146,-2.7975736,-0.7105378,1.4712884,-0.0017514338,0.39360297,-0.79357713,0.00033900142,0.0,4.0,0.0,2.214806,0.09520387
48204000,43.860897,35.039883,-2.797914,-0.6425692,1.3153241,-0.0016386551,0.32960296,-0.72543585,0.0006957948,0.0,4.0,0.0,2.2343528,0.09520282
48404000,43.73897,35.288456,-2.7982273,-0.57664853,1.1728078,-0.0014847511,0.32960296,-0.6592822,0.00080403686,0.0,4.0,0.0,2.2533257,0.075322464
48604000,43.630157,35.50984,-2.7985082,-0.5143119,1.0429538,-0.0013113236,0.20160294,-0.6644721,0.0015678704,-4.0,-4.0,0.0,2.261968,0.033434562
48804000,43.526035,35.699818,-2.7987387,-0.55080956,0.83005947,-0.000997263,-0.43885845,-1.464472,0.0015722811,0.0,-4.0,0.0,2.2756362,0.10324773
49004000,43.407097,35.831203,-2.798906,-0.6385813,0.45716515,-0.00068239396,-0.43885845,-2.2644718,0.001576215,0.0,-4.0,0.0,2.3032668,0.17306092
49204000,43.303883,35.87261,-2.7989929,-0.70595723,0.07768928,-0.00044008758,-0.43885845,-2.3841267,0.0015800297,0.0,4.0,0.0,2.3448598,0.24287413
49404000,43.196686,35.860756,-2.7990406,-0.76971287,-0.22672778,-0.00021022382,-0.43885845,-1.8062469,0.001584202,0.0,4.0,0.0,2.400416,0.31268725
49604000,43.07935,35.81014,-2.7990549,-0.8407268,-0.45993522,2.165644e-05,-0.67316395,-1.5659742,0.0015870035,-4.0,0.0,0.0,2.4699342,0.38250038
49804000,42.944656,35.7244,-2.7990346,-0.9851117,-0.69300175,0.0002577217,-1.2681601,-1.567179,0.0015870035,-4.0,0.0,0.0,2.553415,0.4523135
50004000,42.77655,35.59991,-2.798977,-1.2261968,-0.9329788,0.00050073443,-1.8806673,-1.567179,0.0015870035,-4.0,0.0,0.0,2.6508586,0.5221267
50204000,42.5575,35.433517,-2.7988782,-1.572026,-1.1798167,0.0007506949,-2.5106857,-1.567179,0.0015870035,-4.0,0.0,0.0,2.762266,0.5919398
50404000,42.26774,35.222263,-2.7987354,-2.0271616,-1.4332107,0.0010072944,-3.0,-1.567179,0.0015870035,0.0,0.0,0.0,2.8876357,0.66175294
50604000,41.893528,34.9652,-2.7985477,-2.5208457,-1.6911079,0.0012684538,-3.0,-1.567179,0.0015870035,0.0,0.0,0.0,3.0264957,0.70588785
50804000,41.432945,34.662357,-2.7983148,-3.0196216,-1.9516736,0.0015323161,-2.9883835,-1.567179,0.0015870035,4.0,0.0,0.0,-3.1224937,0.6360747
51004000,40.897022,34.319008,-2.7980402,-3.458238,-2.2102466,0.0017941601,-2.3284128,-1.567179,0.0015870035,4.0,0.0,0.0,-3.0022602,0.5662616
51204000,40.300327,33.9347,-2.797724,-3.7868156,-2.467742,0.002054913,-1.6711929,-1.567179,0.0015870035,4.0,0.0,0.0,-2.895989,0.4964485
51404000,39.650402,33.50412,-2.7973604,-4.0094533,-2.692936,0.0022975802,-1.0058743,-1.0344557,-4.7653913e-05,4.0,4.0,0.0,-2.8036802,0.42663535
51604000,38.961308,33.037212,-2.7969725,-4.122351,-2.8106666,0.0022887166,-0.3295379,-0.35811928,-5.5491924e-05,4.0,4.0,0.0,-2.7253342,0.35682222
51804000,38.244892,32.548008,-2.7965765,-4.131148,-2.8175428,0.0022788537,0.055530123,0.05553012,-5.7190657e-05,-4.0,-4.0,0.0,-2.6609507,0.2870091
52004000,37.512287,32.0484,-2.7961726,-4.130816,-2.8171542,0.002278144,0.0,0.0,0.0,0.0,0.0,0.0,-2.6105297,0.21719591
52204000,36.763733,31.5379,-2.7957609,-4.130816,-2.817155,0.0022782586,0.0,0.0,0.0,0.0,0.0,0.0,-2.5740712,0.1473827
52404000,36.00055,31.017414,-2.79534,-4.1308165,-2.817154,0.002278323,0.0,0.0,0.0,0.0,0.0,0.0,-2.5515764,0.07756953
52604000,35.228764,30.491064,-2.7949157,-4.130817,-2.8171525,0.002278579,0.0,0.0,0.0,0.0,0.0,0.0,-2.5430443,0.00775636
52804000,34.459644,29.966536,-2.7944922,-4.130817,-2.8171523,0.002278762,0.0,0.0,0.0,0.0,0.0,0.0,-2.5430639,0.021404538
53004000,33.6996,29.448196,-2.7940748,-4.1308174,-2.817152,0.0022792327,0.0,0.0,0.0,0.0,0.0,0.0,-2.5397787,0.013122034
53204000,32.95119,28.937788,-2.7936635,-4.130818,-2.817151,0.0022797054,0.0,0.0,0.0,0.0,0.0,0.0,-2.536583,0.014931599
53404000,32.21369,28.434828,-2.7932577,-4.130818,-2.817152,0.0022800998,0.0,0.0,0.0,0.0,0.0,0.0,-2.5333233,0.014131026
53604000,31.485147,27.937971,-2.7928567,-4.1308184,-2.8171515,0.0022804197,0.0,0.0,0.0,0.0,0.0,0.0,-2.5302122,0.0133940615
53804000,30.764095,27.446224,-2.79246,-4.1308184,-2.817151,0.0022808593,0.0,0.0,0.0,0.0,0.0,0.0,-2.5273101,0.012192611
54004000,30.049896,26.959146,-2.7920666,-4.130819,-2.81715,0.0022811904,0.0,0.0,0.0,0.0,0.0,0.0,-2.5246801,0.010751249
54204000,29.28594,26.438135,-2.791645,-4.1308193,-2.8171492,0.0022812795,0.0,0.0,0.0,0.0,0.0,0.0,-2.522346,0.00918466
54404000,28.53826,25.928234,-2.7912328,-4.130819,-2.81715,0.0022816388,0.0,0.0,0.0,0.0,0.0,0.0,-2.520648,0.0051195445
54604000,27.789852,25.417822,-2.79082,-4.1308208,-2.8171473,0.0022817182,0.0,0.0,0.0,0.0,0.0,0.0,-2.5193763,0.004570732
54804000,27.025349,24.896484,-2.7903986,-4.123441,-2.8100555,0.0022754392,0.23018749,0.2269699,-0.00015320256,4.0,0.0,0.0,-2.5184438,0.0028941284
55004000,26.280447,24.389267,-2.7899873,-4.0147567,-2.7376347,0.0022248211,0.96044815,0.5308924,-0.0003628321,4.0,0.0,0.0,-2.5176017,0.0029494332
55204000,25.539701,23.88099,-2.7895732,-3.7805939,-2.6108582,0.0021391439,1.2973496,0.77703786,-0.0005179234,-4.0,0.0,0.0,-2.5173979,0.0
55404000,24.843206,23.398598,-2.7891762,-3.531056,-2.449677,0.0020291123,1.2790871,0.8815619,-0.0006178804,-4.0,0.0,0.0,-2.5174236,0.0
55604000,24.174536,22.934639,-2.78879,-3.279266,-2.2744422,0.0019008375,1.2424501,0.8939189,-0.0006756969,-4.0,0.0,0.0,-2.5176458,0.0
55804000,23.54866,22.501038,-2.7884264,-3.0321317,-2.0971117,0.0017634511,1.2040135,0.8939189,-0.00070245937,-4.0,0.0,0.0,-2.51789,0.0
56004000,22.96645,22.099493,-2.7880874,-2.7916417,-1.9183276,0.0016221347,1.1586232,0.8939189,-0.00070758536,-4.0,0.0,0.0,-2.518422,-0.0014103441
56204000,22.43138,21.733711,-2.7877767,-2.5608044,-1.7395434,0.0014806173,1.1078378,0.8939189,-0.00070758536,-4.0,0.0,0.0,-2.518517,0.0
56404000,21.941422,21.403606,-2.7874947,-2.340695,-1.5638313,0.0013391,1.0537878,0.82991886,-0.00070758536,-4.0,0.0,0.0,-2.5187278,0.0
56604000,21.494394,21.106287,-2.7872407,-2.1315827,-1.4142314,0.0011975826,0.9957967,0.70191884,-0.00070758536,-4.0,0.0,0.0,-2.5178266,0.0064647095
56804000,21.088013,20.836954,-2.787015,-1.9343338,-1.2820396,0.0010560652,0.9352975,0.63791883,-0.00070758536,-4.0,0.0,0.0,-2.5172136,0.0027111478
57004000,20.719854,20.592785,-2.7868176,-1.7493734,-1.162648,0.00091454794,0.87308955,0.5739188,-0.00070758536,-4.0,0.0,0.0,-2.515755,0.008717189
57204000,20.387434,20.371668,-2.7866485,-1.5769553,-1.0509363,0.00077303086,0.8100738,0.5099188,-0.00070758536,-4.0,0.0,0.0,-2.5143154,0.005495471
57404000,20.08824,20.171677,-2.7864976,-1.4171474,-0.9489528,0.00073996664,0.7471359,0.5099188,-0.00018801168,-4.0,0.0,0.0,-2.5122356,0.011838581
57604000,19.81975,19.991556,-2.786354,-1.2698479,-0.85516113,0.0006863245,0.6851654,0.4459188,-0.00031493977,-4.0,0.0,0.0,-2.5100598,0.00999077
57804000,19.579494,19.82944,-2.7862225,-1.1347938,-0.7659774,0.00061841565,0.62482417,0.4459188,-0.00035022572,-4.0,0.0,0.0,-2.5067697,0.019356403
58004000,19.365051,19.684263,-2.7861052,-1.0115792,-0.6875455,0.00054813805,0.5668567,0.3819188,-0.000351388,-4.0,0.0,0.0,-2.5052385,0.0
58204000,19.174107,19.5544,-2.7860022,-0.89968926,-0.61116153,0.00047786045,0.51172113,0.3819188,-0.000351388,-4.0,0.0,0.0,-2.5052385,0.0
58404000,19.00446,19.438904,-2.7859125,-0.79851,-0.54552966,0.00040758285,0.45982987,0.31791878,-0.000351388,-4.0,0.0,0.0,-2.5052385,0.0
58604000,18.854036,19.336153,-2.7858367,-0.7073751,-0.48245788,0.00035528393,0.41138038,0.25391877,-5.74328e-05,-4.0,-4.0,0.0,-2.5052385,0.0
58804000,18.720892,19.244736,-2.7857678,-0.6255769,-0.43167412,0.00032643386,0.36651635,0.25391877,-0.00018251315,-4.0,0.0,0.0,-2.5052385,0.0
59004000,18.603235,19.163475,-2.7857056,-0.5523975,-0.38089037,0.00028811104,0.3252743,0.25391877,-0.00019286945,-4.0,0.0,0.0,-2.5052385,0.0
59204000,18.499264,19.092371,-2.7820172,-0.48783118,-0.33010662,0.06220154,0.31962183,0.25391877,0.7038072,0.0,0.0,4.0,-2.5052385,0.0
59404000,18.408083,19.031454,-2.750168,-0.42390668,-0.27808362,0.282963,0.31962183,0.28259408,1.5038071,0.0,0.0,4.0,-2.5052385,0.0
59604000,18.329845,18.982267,-2.663396,-0.3550526,-0.20989041,0.56423897,0.4198518,0.40122366,1.0421555,0.0,0.0,-4.0,-2.5052385,0.0
59804000,18.269688,18.949541,-2.5348365,-0.2455009,-0.11699456,0.69613177,0.39992595,0.3998332,0.27192593,-4.0,0.0,-4.0,-2.5052385,0.0
60004000,18.226162,18.929918,-2.3945053,-0.19997437,-0.09034108,0.70021665,0.115861654,0.051889703,0.019480176,-4.0,0.0,0.0,-2.5052385,0.0
60204000,18.18874,18.913025,-2.2544994,-0.17497252,-0.07858023,0.6999946,0.09753885,0.058977917,0.00021906197,-4.0,0.0,0.0,-2.5052385,0.0
60404000,18.156,18.898355,-2.1144998,-0.15309174,-0.06911668,0.7,0.08349778,0.04519083,-1.5869737e-06,-4.0,0.0,0.0,-2.5052385,0.0
60604000,18.127356,18.885462,-1.9745003,-0.13390103,-0.059814036,0.6999999,0.071274064,0.04651433,1.7657876e-06,-4.0,0.0,0.0,-2.5052385,0.0
60804000,18.102291,18.874239,-1.8345002,-0.117069356,-0.052744374,0.7,0.060674656,0.03722323,-1.911074e-06,-4.0,0.0,0.0,-2.5052385,0.0
61004000,18.080381,18.864431,-1.6944999,-0.10232464,-0.04577726,0.7,0.051449902,-0.010173734,2.0638108e-06,-4.0,0.0,0.0,-2.5052385,0.0
61204000,18.061237,18.855825,-1.5544999,-0.08941862,-0.039932024,0.7,0.04360699,0.031292938,-2.2165477e-06,-4.0,0.0,0.0,-2.5052385,0.0
61404000,18.044514,18.848318,-1.4144993,-0.07812461,-0.034960482,0.7,0.03692232,0.027184404,2.361834e-06,-4.0,0.0,0.0,-2.5052385,0.0
61604000,18.029907,18.841763,-1.2744993,-0.06825031,-0.030737681,0.7,0.031740613,0.020438835,-2.4922192e-06,-4.0,0.0,0.0,-2.5052385,0.0
61804000,18.01715,18.836008,-1.1344991,-0.059617084,-0.026893333,0.7,0.027883962,0.014881894,2.592802e-06,-4.0,0.0,0.0,-2.5052385,0.0
62004000,18.006004,18.830986,-0.99449855,-0.052070703,-0.023484726,0.7,0.02591042,0.012684058,-2.6524067e-06,-4.0,0.0,0.0,-2.5052385,0.0
62204000,17.996275,18.826605,-0.8544985,-0.045479484,-0.020513762,0.7,0.025129385,0.01145741,2.6747584e-06,-4.0,0.0,0.0,-2.5052385,0.0
62404000,17.987764,18.822779,-0.7144985,-0.03967965,-0.017900594,0.7,0.019384658,0.010670012,-2.861023e-06,-4.0,0.0,0.0,-2.5052385,0.0
62604000,17.980341,18.819431,-0.57449836,-0.03461637,-0.015612224,0.7,0.013908021,0.010113109,3.0621886e-06,-4.0,0.0,0.0,-2.5052385,0.0
62804000,17.973858,18.816513,-0.43449834,-0.03019653,-0.013616465,0.7,0.008873008,0.00887301,-3.2708049e-06,-4.0,-4.0,0.0,-2.5052385,0.0
63004000,17.968214,18.81397,-0.29449835,-0.026345532,-0.011878431,0.7,0.0040734336,0.0040734336,3.5017729e-06,-4.0,-4.0,0.0,-2.5052385,0.0
63204000,17.963299,18.811749,-0.15449834,-0.022996461,-0.01036337,0.7,0.0,0.0,0.0,0.0,0.0,0.0,-2.5052385,0.0
63404000,17.959002,18.809807,-0.014498332,-0.020068537,-0.009040419,0.7,0.0,0.0,0.0,0.0,0.0,0.0,-2.5052385,0.0
63604000,17.955256,18.80811,0.12550168,-0.017514057,-0.00788342,0.7,0.0,0.0,0.0,0.0,0.0,0.0,-2.5052385,0.0
63804000,17.951986,18.806637,0.26550168,-0.015282557,-0.006877849,0.7,0.0,0.0,0.0,0.0,0.0,0.0,-2.5052385,0.0
64004000,17.949139,18.80535,0.40550166,-0.01333881,-0.0059997346,0.7,0.0,0.0,0.0,0.0,0.0,0.0,-2.5052385,0.0
64204000,17.94665,18.804226,0.54550165,-0.011640018,-0.0052314685,0.7,0.0,0.0,0.0,0.0,0.0,0.0,-2.5052385,0.0
64404000,17.94447,18.80324,0.68550164,-0.01014963,-0.004556665,0.7,0.0,0.0,0.0,0.0,0.0,0.0,-2.5052385,0.0
64604000,17.845411,18.872852,-0.075867474,0.00051192497,-0.00051192497,0.7,0.06399531,-0.06399531,0.0,4.0,-4.0,0.0,-2.5042362,-0.005585054
64804000,17.846083,18.871685,-0.073243365,0.00051188766,-0.00051188766,0.7,0.06399298,-0.06399298,0.0,4.0,-4.0,0.0,-2.5043569,-0.005585054
65004000,17.848658,18.874445,-0.07025343,0.00051181566,-0.00051181566,0.7,0.06398848,-0.06398848,0.0,4.0,-4.0,0.0,-2.5038807,-0.005585054
65204000,17.850336,18.87651,-0.06744442,0.0005119431,-0.0005119431,0.7,0.06399644,-0.06399644,0.0,4.0,-4.0,0.0,-2.5039966,-0.005585054
65404000,17.852255,18.880257,-0.06332626,0.0005117863,-0.0005117863,0.7,0.063986644,-0.063986644,0.0,4.0,-4.0,0.0,-2.5043502,-0.005585054
65604000,17.855492,18.88332,-0.060548477,0.00051184924,-0.00051184924,0.7,0.06399058,-0.06399058,0.0,4.0,-4.0,0.0,-2.504634,-0.005585054
65804000,17.858343,18.887344,-0.056795448,0.0005117912,-0.0005117912,0.7,0.06398695,-0.06398695,0.0,4.0,-4.0,0.0,-2.504503,-0.005585054
66004000,17.861181,18.89051,-0.053895626,0.0005118508,-0.0005118508,0.7,0.063990675,-0.063990675,0.0,4.0,-4.0,0.0,-2.5044112,-0.005585054
66204000,17.86429,18.89361,-0.049989704,0.0005118208,-0.0005118208,0.7,0.0639888,-0.0639888,0.0,4.0,-4.0,0.0,-2.5038688,-0.005585054
66404000,17.867584,18.896666,-0.047731735,0.0005117904,-0.0005117904,0.7,0.0639869,-0.0639869,0.0,4.0,-4.0,0.0,-2.504305,-0.005585054
66604000,17.869926,18.899174,-0.04364398,-0.0005118936,0.0005118936,0.6994881,-0.06399335,0.06399335,-0.06399335,-4.0,4.0,-4.0,-2.5036378,-0.0035922267
66804000,17.872559,18.90157,-0.040623482,-0.00051182613,0.00051182613,0.69948816,-0.06398913,0.06398913,-0.06398913,-4.0,4.0,-4.0,-2.5045326,0.0049436726
67004000,17.872162,18.903076,-0.037296016,-0.0005119221,0.0005119221,0.69948804,-0.06399513,0.06399513,-0.06399513,-4.0,4.0,-4.0,-2.5043972,0.005585054
67204000,17.872726,18.904673,-0.034702476,-0.0005118805,0.0005118805,0.6994881,-0.06399253,0.06399253,-0.06399253,-4.0,4.0,-4.0,-2.504171,-0.0051005925
67404000,17.872557,18.905275,-0.032137927,-0.00051197835,0.00051197835,0.699488,-0.06399865,0.06399865,-0.06399865,-4.0,4.0,-4.0,-2.5039475,0.005585054
