timestamp,timestamp_sample,yaw_composite,yaw_variance,yaw[0],yaw[1],yaw[2],yaw[3],yaw[4],innov_vn[0],innov_vn[1],innov_vn[2],innov_vn[3],innov_vn[4],innov_ve[0],innov_ve[1],innov_ve[2],innov_ve[3],innov_ve[4],weight[0],weight[1],weight[2],weight[3],weight[4],yaw_composite_valid
20068000,19916000,0.0,2.4674013,-2.5132742,-1.2566371,0.0,1.2566371,2.5132742,0.0,0.0,0.0,0.0,0.0,0.0,0.0,0.0,0.0,0.0,0.2,0.2,0.2,0.2,0.2,0
20076000,19924000,0.0,2.4674013,-2.5132174,-1.2565801,5.6969122e-05,1.2566941,2.5133312,0.0,0.0,0.0,0.0,0.0,0.0,0.0,0.0,0.0,0.0,0.2,0.2,0.2,0.2,0.2,0
20084000,19932000,0.0,2.4674013,-2.5131793,-1.256542,9.507913e-05,1.256732,2.5133693,0.0,0.0,0.0,0.0,0.0,0.0,0.0,0.0,0.0,0.0,0.2,0.2,0.2,0.2,0.2,0
20092000,19940000,0.0,2.4674013,-2.5131571,-1.25652,0.00011720499,1.256754,2.5133915,0.0,0.0,0.0,0.0,0.0,0.0,0.0,0.0,0.0,0.0,0.2,0.2,0.2,0.2,0.2,0
20100000,19948000,0.0,2.4674013,-2.5132096,-1.2565725,6.4837586e-05,1.2567016,2.513339,0.0,0.0,0.0,0.0,0.0,0.0,0.0,0.0,0.0,0.0,0.2,0.2,0.2,0.2,0.2,0
20108000,19956000,0.0,2.4674013,-2.5131452,-1.2565076,0.00012936839,1.2567663,2.5134037,0.0,0.0,0.0,0.0,0.0,0.0,0.0,0.0,0.0,0.0,0.2,0.2,0.2,0.2,0.2,0
20116000,19964000,0.0,2.4674013,-2.5132265,-1.2565892,4.7965357e-05,1.256685,2.5133224,0.0,0.0,0.0,0.0,0.0,0.0,0.0,0.0,0.0,0.0,0.2,0.2,0.2,0.2,0.2,0
20124000,19972000,0.0,2.4674013,-2.513148,-1.2565105,0.00012642481,1.2567635,2.5134006,0.0,0.0,0.0,0.0,0.0,0.0,0.0,0.0,0.0,0.0,0.2,0.2,0.2,0.2,0.2,0
20132000,19980000,0.0,2.4674013,-2.513093,-1.2564554,0.00018146116,1.2568184,2.5134556,0.0,0.0,0.0,0.0,0.0,0.0,0.0,0.0,0.0,0.0,0.2,0.2,0.2,0.2,0.2,0
20140000,19988000,0.0,2.4674013,-2.5131085,-1.2564709,0.0001660247,1.2568032,2.5134401,0.0,0.0,0.0,0.0,0.0,0.0,0.0,0.0,0.0,0.0,0.2,0.2,0.2,0.2,0.2,0
20148000,19996000,0.0,2.4674013,-2.5132198,-1.2565823,5.465744e-05,1.2566917,2.5133288,0.0,0.0,0.0,0.0,0.0,0.0,0.0,0.0,0.0,0.0,0.2,0.2,0.2,0.2,0.2,0
20156000,20004000,0.0,2.4674013,-2.5132787,-1.2566414,-4.3298246e-06,1.2566326,2.51327,0.0,0.0,0.0,0.0,0.0,0.0,0.0,0.0,0.0,0.0,0.2,0.2,0.2,0.2,0.2,0
20164000,20012000,0.0,2.4674013,-2.513295,-1.2566576,-2.062835e-05,1.2566164,2.5132537,0.0,0.0,0.0,0.0,0.0,0.0,0.0,0.0,0.0,0.0,0.2,0.2,0.2,0.2,0.2,0
20172000,20020000,0.0,2.4674013,-2.5132525,-1.256615,2.1892383e-05,1.2566588,2.5132961,0.0,0.0,0.0,0.0,0.0,0.0,0.0,0.0,0.0,0.0,0.2,0.2,0.2,0.2,0.2,0
20180000,20028000,0.0,2.4674013,-2.5131996,-1.2565619,7.487688e-05,1.256712,2.513349,0.0,0.0,0.0,0.0,0.0,0.0,0.0,0.0,0.0,0.0,0.2,0.2,0.2,0.2,0.2,0
20188000,20036000,0.0,2.4674013,-2.5131955,-1.2565582,7.887389e-05,1.2567158,2.513353,0.0,0.0,0.0,0.0,0.0,0.0,0.0,0.0,0.0,0.0,0.2,0.2,0.2,0.2,0.2,0
20196000,20044000,0.0,2.4674013,-2.5132127,-1.2565753,6.167214e-05,1.2566986,2.513336,0.0,0.0,0.0,0.0,0.0,0.0,0.0,0.0,0.0,0.0,0.2,0.2,0.2,0.2,0.2,0
20204000,20052000,0.0,2.4674013,-2.513277,-1.2566396,-2.5542531e-06,1.2566345,2.5132718,0.0,0.0,0.0,0.0,0.0,0.0,0.0,0.0,0.0,0.0,0.2,0.2,0.2,0.2,0.2,0
20212000,20060000,0.0,2.4674013,-2.5133324,-1.256695,-5.803215e-05,1.2565792,2.5132163,0.0,0.0,0.0,0.0,0.0,0.0,0.0,0.0,0.0,0.0,0.2,0.2,0.2,0.2,0.2,0
20220000,20068000,0.0,2.4674013,-2.513321,-1.2566836,-4.6574114e-05,1.2565904,2.513228,0.0,0.0,0.0,0.0,0.0,0.0,0.0,0.0,0.0,0.0,0.2,0.2,0.2,0.2,0.2,0
20228000,20076000,0.0,2.4674013,-2.5133138,-1.2566767,-3.927977e-05,1.2565976,2.513235,0.0,0.0,0.0,0.0,0.0,0.0,0.0,0.0,0.0,0.0,0.2,0.2,0.2,0.2,0.2,0
20236000,20084000,0.0,2.4674013,-2.5133898,-1.2567527,-0.000115512994,1.2565212,2.5131588,0.0,0.0,0.0,0.0,0.0,0.0,0.0,0.0,0.0,0.0,0.2,0.2,0.2,0.2,0.2,0
20244000,20092000,0.0,2.4674013,-2.5134223,-1.2567852,-0.00014789577,1.2564892,2.5131264,0.0,0.0,0.0,0.0,0.0,0.0,0.0,0.0,0.0,0.0,0.2,0.2,0.2,0.2,0.2,0
20252000,20100000,0.0,2.4674013,-2.513367,-1.2567298,-9.263632e-05,1.2565442,2.5131817,0.0,0.0,0.0,0.0,0.0,0.0,0.0,0.0,0.0,0.0,0.2,0.2,0.2,0.2,0.2,0
20260000,20108000,0.0,2.4674013,-2.5131989,-1.256562,7.544853e-05,1.2567124,2.5133498,0.0,0.0,0.0,0.0,0.0,0.0,0.0,0.0,0.0,0.0,0.2,0.2,0.2,0.2,0.2,0
20268000,20116000,0.0,2.4674013,-2.5131884,-1.2565511,8.59757e-05,1.2567229,2.5133605,0.0,0.0,0.0,0.0,0.0,0.0,0.0,0.0,0.0,0.0,0.2,0.2,0.2,0.2,0.2,0
20276000,20124000,0.0,2.4674013,-2.5130725,-1.2564354,0.00020183703,1.2568389,2.5134761,0.0,0.0,0.0,0.0,0.0,0.0,0.0,0.0,0.0,0.0,0.2,0.2,0.2,0.2,0.2,0
20284000,20132000,0.0,2.4674013,-2.5130343,-1.256397,0.00024018003,1.2568771,2.5135145,0.0,0.0,0.0,0.0,0.0,0.0,0.0,0.0,0.0,0.0,0.2,0.2,0.2,0.2,0.2,0
20292000,20140000,0.0,2.4674013,-2.513026,-1.2563889,0.0002485347,1.2568855,2.5135226,0.0,0.0,0.0,0.0,0.0,0.0,0.0,0.0,0.0,0.0,0.2,0.2,0.2,0.2,0.2,0
20300000,20148000,0.0,2.4674013,-2.5131233,-1.2564862,0.00015125868,1.256788,2.5134256,0.0,0.0,0.0,0.0,0.0,0.0,0.0,0.0,0.0,0.0,0.2,0.2,0.2,0.2,0.2,0
20308000,20156000,0.0,2.4674013,-2.5130908,-1.2564536,0.00018379925,1.2568208,2.513458,0.0,0.0,0.0,0.0,0.0,0.0,0.0,0.0,0.0,0.0,0.2,0.2,0.2,0.2,0.2,0
20316000,20164000,0.0,2.4674013,-2.51312,-1.2564828,0.0001547382,1.2567915,2.513429,0.0,0.0,0.0,0.0,0.0,0.0,0.0,0.0,0.0,0.0,0.2,0.2,0.2,0.2,0.2,0
20324000,20172000,0.0,2.4674013,-2.5131571,-1.2565203,0.00011735358,1.2567542,2.5133917,0.0,0.0,0.0,0.0,0.0,0.0,0.0,0.0,0.0,0.0,0.2,0.2,0.2,0.2,0.2,0
20332000,20180000,0.0,2.4674013,-2.5132587,-1.2566218,1.5730147e-05,1.2566526,2.51329,0.0,0.0,0.0,0.0,0.0,0.0,0.0,0.0,0.0,0.0,0.2,0.2,0.2,0.2,0.2,0
20340000,20188000,0.0,2.4674013,-2.513292,-1.2566551,-1.7656192e-05,1.2566192,2.5132565,0.0,0.0,0.0,0.0,0.0,0.0,0.0,0.0,0.0,0.0,0.2,0.2,0.2,0.2,0.2,0
20348000,20196000,0.0,2.4674013,-2.5133135,-1.2566767,-3.9208997e-05,1.2565976,2.513235,0.0,0.0,0.0,0.0,0.0,0.0,0.0,0.0,0.0,0.0,0.2,0.2,0.2,0.2,0.2,0
20356000,20204000,0.0,2.4674013,-2.513279,-1.2566419,-4.428827e-06,1.2566323,2.51327,0.0,0.0,0.0,0.0,0.0,0.0,0.0,0.0,0.0,0.0,0.2,0.2,0.2,0.2,0.2,0
20364000,20212000,0.0,2.4674013,-2.513261,-1.2566242,1.3287877e-05,1.2566502,2.5132875,0.0,0.0,0.0,0.0,0.0,0.0,0.0,0.0,0.0,0.0,0.2,0.2,0.2,0.2,0.2,0
20372000,20220000,0.0,2.4674013,-2.5132987,-1.2566615,-2.419578e-05,1.2566128,2.51325,0.0,0.0,0.0,0.0,0.0,0.0,0.0,0.0,0.0,0.0,0.2,0.2,0.2,0.2,0.2,0
20380000,20228000,0.0,2.4674013,-2.5133061,-1.2566689,-3.163759e-05,1.2566054,2.5132427,0.0,0.0,0.0,0.0,0.0,0.0,0.0,0.0,0.0,0.0,0.2,0.2,0.2,0.2,0.2,0
20388000,20236000,0.0,2.4674013,-2.513267,-1.2566296,7.650235e-06,1.2566446,2.5132818,0.0,0.0,0.0,0.0,0.0,0.0,0.0,0.0,0.0,0.0,0.2,0.2,0.2,0.2,0.2,0
20396000,20244000,0.0,2.4674013,-2.5131874,-1.2565502,8.713006e-05,1.2567241,2.5133615,0.0,0.0,0.0,0.0,0.0,0.0,0.0,0.0,0.0,0.0,0.2,0.2,0.2,0.2,0.2,0
20404000,20252000,0.0,2.4674013,-2.513154,-1.2565167,0.00012041187,1.2567573,2.5133946,0.0,0.0,0.0,0.0,0.0,0.0,0.0,0.0,0.0,0.0,0.2,0.2,0.2,0.2,0.2,0
20412000,20260000,0.0,2.4674013,-2.5131607,-1.2565236,0.00011381883,1.2567507,2.5133882,0.0,0.0,0.0,0.0,0.0,0.0,0.0,0.0,0.0,0.0,0.2,0.2,0.2,0.2,0.2,0
20420000,20268000,0.0,2.4674013,-2.5131292,-1.2564919,0.00014537165,1.2567823,2.5134194,0.0,0.0,0.0,0.0,0.0,0.0,0.0,0.0,0.0,0.0,0.2,0.2,0.2,0.2,0.2,0
20428000,20276000,0.0,2.4674013,-2.5130243,-1.2563869,0.00025040252,1.2568873,2.5135245,0.0,0.0,0.0,0.0,0.0,0.0,0.0,0.0,0.0,0.0,0.2,0.2,0.2,0.2,0.2,0
20436000,20284000,0.0,2.4674013,-2.5130327,-1.2563956,0.00024169528,1.2568785,2.5135157,0.0,0.0,0.0,0.0,0.0,0.0,0.0,0.0,0.0,0.0,0.2,0.2,0.2,0.2,0.2,0
20444000,20292000,0.0,2.4674013,-2.5129797,-1.2563423,0.00029477876,1.2569317,2.5135689,0.0,0.0,0.0,0.0,0.0,0.0,0.0,0.0,0.0,0.0,0.2,0.2,0.2,0.2,0.2,0
20452000,20300000,0.0,2.4674013,-2.5130227,-1.2563856,0.0002518196,1.2568887,2.5135257,0.0,0.0,0.0,0.0,0.0,0.0,0.0,0.0,0.0,0.0,0.2,0.2,0.2,0.2,0.2,0
20460000,20308000,0.0,2.4674013,-2.5130205,-1.2563833,0.00025380967,1.2568905,2.5135279,0.0,0.0,0.0,0.0,0.0,0.0,0.0,0.0,0.0,0.0,0.2,0.2,0.2,0.2,0.2,0
20468000,20316000,1.5707964,3.6509042,-2.513022,-1.2563846,0.00025261406,1.2568893,2.5135267,0.006997781,-0.006632007,-0.011096592,-0.00022606697,0.010956885,0.009247024,0.009512756,-0.0033678045,-0.011594186,-0.0037977989,0.19999994,0.19999999,0.19999999,0.19999999,0.19999999,0
20476000,20324000,1.5707964,3.6509042,-2.5129945,-1.2563574,0.00027989558,1.2569166,2.5135539,0.006997781,-0.006632007,-0.011096592,-0.00022606697,0.010956885,0.009247024,0.009512756,-0.0033678045,-0.011594186,-0.0037977989,0.19999994,0.19999999,0.19999999,0.19999999,0.19999999,0
20484000,20332000,1.5707964,3.6509042,-2.5129342,-1.2562971,0.0003402804,1.256977,2.5136142,0.006997781,-0.006632007,-0.011096592,-0.00022606697,0.010956885,0.009247024,0.009512756,-0.0033678045,-0.011594186,-0.0037977989,0.19999994,0.19999999,0.19999999,0.19999999,0.19999999,0
20492000,20340000,1.5707964,3.6509042,-2.5129402,-1.2563028,0.00033424882,1.2569711,2.5136082,0.006997781,-0.006632007,-0.011096592,-0.00022606697,0.010956885,0.009247024,0.009512756,-0.0033678045,-0.011594186,-0.0037977989,0.19999994,0.19999999,0.19999999,0.19999999,0.19999999,0
20500000,20348000,1.5707964,3.6509042,-2.5129473,-1.2563102,0.00032714393,1.2569638,2.513601,0.006997781,-0.006632007,-0.011096592,-0.00022606697,0.010956885,0.009247024,0.009512756,-0.0033678045,-0.011594186,-0.0037977989,0.19999994,0.19999999,0.19999999,0.19999999,0.19999999,0
20508000,20356000,1.5707964,3.6509042,-2.5127943,-1.2561572,0.00048009923,1.2571169,2.513754,0.006997781,-0.006632007,-0.011096592,-0.00022606697,0.010956885,0.009247024,0.009512756,-0.0033678045,-0.011594186,-0.0037977989,0.19999994,0.19999999,0.19999999,0.19999999,0.19999999,0
20516000,20364000,1.5707964,3.6509042,-2.5126786,-1.2560413,0.00059586414,1.2572328,2.5138698,0.006997781,-0.006632007,-0.011096592,-0.00022606697,0.010956885,0.009247024,0.009512756,-0.0033678045,-0.011594186,-0.0037977989,0.19999994,0.19999999,0.19999999,0.19999999,0.19999999,0
20524000,20372000,1.5707964,3.6509042,-2.5126586,-1.2560215,0.00061575806,1.2572527,2.5138896,0.006997781,-0.006632007,-0.011096592,-0.00022606697,0.010956885,0.009247024,0.009512756,-0.0033678045,-0.011594186,-0.0037977989,0.19999994,0.19999999,0.19999999,0.19999999,0.19999999,0
20532000,20380000,1.5707964,3.6509042,-2.512728,-1.2560908,0.00054631813,1.2571832,2.5138202,0.006997781,-0.006632007,-0.011096592,-0.00022606697,0.010956885,0.009247024,0.009512756,-0.0033678045,-0.011594186,-0.0037977989,0.19999994,0.19999999,0.19999999,0.19999999,0.19999999,0
20540000,20388000,1.5707964,3.6509042,-2.5127528,-1.2561154,0.0005217247,1.2571588,2.5137954,0.006997781,-0.006632007,-0.011096592,-0.00022606697,0.010956885,0.009247024,0.009512756,-0.0033678045,-0.011594186,-0.0037977989,0.19999994,0.19999999,0.19999999,0.19999999,0.19999999,0
20548000,20396000,1.5707964,3.6509042,-2.5127435,-1.2561061,0.0005310489,1.2571678,2.513805,0.006997781,-0.006632007,-0.011096592,-0.00022606697,0.010956885,0.009247024,0.009512756,-0.0033678045,-0.011594186,-0.0037977989,0.19999994,0.19999999,0.19999999,0.19999999,0.19999999,0
20556000,20404000,1.5707964,3.6509042,-2.5127172,-1.2560799,0.00055720174,1.257194,2.513831,0.006997781,-0.006632007,-0.011096592,-0.00022606697,0.010956885,0.009247024,0.009512756,-0.0033678045,-0.011594186,-0.0037977989,0.19999994,0.19999999,0.19999999,0.19999999,0.19999999,0
20564000,20412000,1.5707964,3.6509042,-2.512688,-1.2560507,0.00058658613,1.2572235,2.5138605,0.006997781,-0.006632007,-0.011096592,-0.00022606697,0.010956885,0.009247024,0.009512756,-0.0033678045,-0.011594186,-0.0037977989,0.19999994,0.19999999,0.19999999,0.19999999,0.19999999,0
20572000,20420000,1.5707964,3.6509042,-2.5125809,-1.2559435,0.00069357414,1.2573304,2.5139673,0.006997781,-0.006632007,-0.011096592,-0.00022606697,0.010956885,0.009247024,0.009512756,-0.0033678045,-0.011594186,-0.0037977989,0.19999994,0.19999999,0.19999999,0.19999999,0.19999999,0
20580000,20428000,1.5707964,3.6509042,-2.5124419,-1.2558044,0.00083270064,1.2574695,2.5141063,0.006997781,-0.006632007,-0.011096592,-0.00022606697,0.010956885,0.009247024,0.009512756,-0.0033678045,-0.011594186,-0.0037977989,0.19999994,0.19999999,0.19999999,0.19999999,0.19999999,0
20588000,20436000,1.5707964,3.6509042,-2.5123816,-1.2557439,0.0008931104,1.2575301,2.5141666,0.006997781,-0.006632007,-0.011096592,-0.00022606697,0.010956885,0.009247024,0.009512756,-0.0033678045,-0.011594186,-0.0037977989,0.19999994,0.19999999,0.19999999,0.19999999,0.19999999,0
20596000,20444000,1.5707964,3.6509042,-2.5123892,-1.2557517,0.000885303,1.2575223,2.514159,0.006997781,-0.006632007,-0.011096592,-0.00022606697,0.010956885,0.009247024,0.009512756,-0.0033678045,-0.011594186,-0.0037977989,0.19999994,0.19999999,0.19999999,0.19999999,0.19999999,0
20604000,20452000,1.5707964,3.6509042,-2.5123818,-1.2557442,0.0008928019,1.2575297,2.5141666,0.006997781,-0.006632007,-0.011096592,-0.00022606697,0.010956885,0.009247024,0.009512756,-0.0033678045,-0.011594186,-0.0037977989,0.19999994,0.19999999,0.19999999,0.19999999,0.19999999,0
20612000,20460000,1.5707964,3.6509042,-2.5123372,-1.2556999,0.00093737774,1.2575742,2.5142112,0.006997781,-0.006632007,-0.011096592,-0.00022606697,0.010956885,0.009247024,0.009512756,-0.0033678045,-0.011594186,-0.0037977989,0.19999994,0.19999999,0.19999999,0.19999999,0.19999999,0
20620000,20468000,1.5707964,3.6509042,-2.5123246,-1.2556872,0.000949907,1.2575867,2.5142238,0.006997781,-0.006632007,-0.011096592,-0.00022606697,0.010956885,0.009247024,0.009512756,-0.0033678045,-0.011594186,-0.0037977989,0.19999994,0.19999999,0.19999999,0.19999999,0.19999999,0
20628000,20476000,1.5707964,3.6509042,-2.512345,-1.2557076,0.00092937954,1.2575662,2.5142033,0.006997781,-0.006632007,-0.011096592,-0.00022606697,0.010956885,0.009247024,0.009512756,-0.0033678045,-0.011594186,-0.0037977989,0.19999994,0.19999999,0.19999999,0.19999999,0.19999999,0
20636000,20484000,1.5707964,3.6509042,-2.5123212,-1.2556839,0.00095343485,1.2575903,2.5142274,0.006997781,-0.006632007,-0.011096592,-0.00022606697,0.010956885,0.009247024,0.009512756,-0.0033678045,-0.011594186,-0.0037977989,0.19999994,0.19999999,0.19999999,0.19999999,0.19999999,0
20644000,20492000,1.5707964,3.6509042,-2.5123396,-1.255702,0.00093502755,1.2575719,2.5142088,0.006997781,-0.006632007,-0.011096592,-0.00022606697,0.010956885,0.009247024,0.009512756,-0.0033678045,-0.011594186,-0.0037977989,0.19999994,0.19999999,0.19999999,0.19999999,0.19999999,0
20652000,20500000,1.5707964,3.6509042,-2.5122452,-1.2556078,0.0010295073,1.2576663,2.5143034,0.006997781,-0.006632007,-0.011096592,-0.00022606697,0.010956885,0.009247024,0.009512756,-0.0033678045,-0.011594186,-0.0037977989,0.19999994,0.19999999,0.19999999,0.19999999,0.19999999,0
20660000,20508000,1.5707964,3.6509042,-2.512351,-1.2557135,0.0009237108,1.2575605,2.5141978,0.006997781,-0.006632007,-0.011096592,-0.00022606697,0.010956885,0.009247024,0.009512756,-0.0033678045,-0.011594186,-0.0037977989,0.19999994,0.19999999,0.19999999,0.19999999,0.19999999,0
20668000,20516000,0.8396304,3.713809,-2.5126755,-1.2541431,0.002279315,1.256888,2.5124867,0.0019044694,-0.007895829,-0.0067843627,0.0037028587,0.009072865,0.018920965,0.014567977,0.003902209,0.001663371,0.010945469,0.19912358,0.19955069,0.20059937,0.20081991,0.19990651,0
20676000,20524000,0.8396304,3.713809,-2.5125427,-1.2540102,0.0024121504,1.2570208,2.5126195,0.0019044694,-0.007895829,-0.0067843627,0.0037028587,0.009072865,0.018920965,0.014567977,0.003902209,0.001663371,0.010945469,0.19912358,0.19955069,0.20059937,0.20081991,0.19990651,0
20684000,20532000,0.8396304,3.713809,-2.5125942,-1.2540617,0.0023605167,1.2569691,2.5125678,0.0019044694,-0.007895829,-0.0067843627,0.0037028587,0.009072865,0.018920965,0.014567977,0.003902209,0.001663371,0.010945469,0.19912358,0.19955069,0.20059937,0.20081991,0.19990651,0
20692000,20540000,0.8396304,3.713809,-2.5126717,-1.2541392,0.0022831191,1.2568917,2.5124905,0.0019044694,-0.007895829,-0.0067843627,0.0037028587,0.009072865,0.018920965,0.014567977,0.003902209,0.001663371,0.010945469,0.19912358,0.19955069,0.20059937,0.20081991,0.19990651,0
20700000,20548000,0.8396304,3.713809,-2.5125751,-1.2540429,0.0023795075,1.256988,2.5125868,0.0019044694,-0.007895829,-0.0067843627,0.0037028587,0.009072865,0.018920965,0.014567977,0.003902209,0.001663371,0.010945469,0.19912358,0.19955069,0.20059937,0.20081991,0.19990651,0
20708000,20556000,0.8396304,3.713809,-2.512497,-1.2539644,0.0024579577,1.2570667,2.5126653,0.0019044694,-0.007895829,-0.0067843627,0.0037028587,0.009072865,0.018920965,0.014567977,0.003902209,0.001663371,0.010945469,0.19912358,0.19955069,0.20059937,0.20081991,0.19990651,0
20716000,20564000,0.8396304,3.713809,-2.5124803,-1.2539481,0.0024744987,1.257083,2.512682,0.0019044694,-0.007895829,-0.0067843627,0.0037028587,0.009072865,0.018920965,0.014567977,0.003902209,0.001663371,0.010945469,0.19912358,0.19955069,0.20059937,0.20081991,0.19990651,0
20724000,20572000,0.8396304,3.713809,-2.512476,-1.2539433,0.0024790245,1.2570877,2.5126865,0.0019044694,-0.007895829,-0.0067843627,0.0037028587,0.009072865,0.018920965,0.014567977,0.003902209,0.001663371,0.010945469,0.19912358,0.19955069,0.20059937,0.20081991,0.19990651,0
20732000,20580000,0.8396304,3.713809,-2.51247,-1.2539377,0.0024847838,1.2570933,2.512692,0.0019044694,-0.007895829,-0.0067843627,0.0037028587,0.009072865,0.018920965,0.014567977,0.003902209,0.001663371,0.010945469,0.19912358,0.19955069,0.20059937,0.20081991,0.19990651,0
20740000,20588000,0.8396304,3.713809,-2.512547,-1.2540145,0.0024077408,1.2570164,2.5126152,0.0019044694,-0.007895829,-0.0067843627,0.0037028587,0.009072865,0.018920965,0.014567977,0.003902209,0.001663371,0.010945469,0.19912358,0.19955069,0.20059937,0.20081991,0.19990651,0
20748000,20596000,0.8396304,3.713809,-2.5125248,-1.2539927,0.0024298017,1.2570384,2.5126371,0.0019044694,-0.007895829,-0.0067843627,0.0037028587,0.009072865,0.018920965,0.014567977,0.003902209,0.001663371,0.010945469,0.19912358,0.19955069,0.20059937,0.20081991,0.19990651,0
20756000,20604000,0.8396304,3.713809,-2.5124946,-1.253962,0.0024603007,1.2570689,2.5126677,0.0019044694,-0.007895829,-0.0067843627,0.0037028587,0.009072865,0.018920965,0.014567977,0.003902209,0.001663371,0.010945469,0.19912358,0.19955069,0.20059937,0.20081991,0.19990651,0
20764000,20612000,0.8396304,3.713809,-2.5123725,-1.25384,0.002582255,1.257191,2.5127895,0.0019044694,-0.007895829,-0.0067843627,0.0037028587,0.009072865,0.018920965,0.014567977,0.003902209,0.001663371,0.010945469,0.19912358,0.19955069,0.20059937,0.20081991,0.19990651,0
20772000,20620000,0.8396304,3.713809,-2.5123146,-1.2537818,0.0026403908,1.2572488,2.5128477,0.0019044694,-0.007895829,-0.0067843627,0.0037028587,0.009072865,0.018920965,0.014567977,0.003902209,0.001663371,0.010945469,0.19912358,0.19955069,0.20059937,0.20081991,0.19990651,0
20780000,20628000,0.8396304,3.713809,-2.512351,-1.2538183,0.0026037851,1.2572123,2.5128112,0.0019044694,-0.007895829,-0.0067843627,0.0037028587,0.009072865,0.018920965,0.014567977,0.003902209,0.001663371,0.010945469,0.19912358,0.19955069,0.20059937,0.20081991,0.19990651,0
20788000,20636000,0.8396304,3.713809,-2.5123568,-1.2538244,0.0025980596,1.2572066,2.5128055,0.0019044694,-0.007895829,-0.0067843627,0.0037028587,0.009072865,0.018920965,0.014567977,0.003902209,0.001663371,0.010945469,0.19912358,0.19955069,0.20059937,0.20081991,0.19990651,0
20796000,20644000,0.8396304,3.713809,-2.512259,-1.2537265,0.0026956913,1.2573043,2.512903,0.0019044694,-0.007895829,-0.0067843627,0.0037028587,0.009072865,0.018920965,0.014567977,0.003902209,0.001663371,0.010945469,0.19912358,0.19955069,0.20059937,0.20081991,0.19990651,0
20804000,20652000,0.8396304,3.713809,-2.51232,-1.2537876,0.0026345847,1.2572433,2.512842,0.0019044694,-0.007895829,-0.0067843627,0.0037028587,0.009072865,0.018920965,0.014567977,0.003902209,0.001663371,0.010945469,0.19912358,0.19955069,0.20059937,0.20081991,0.19990651,0
20812000,20660000,0.8396304,3.713809,-2.512357,-1.2538242,0.0025977637,1.2572064,2.512805,0.0019044694,-0.007895829,-0.0067843627,0.0037028587,0.009072865,0.018920965,0.014567977,0.003902209,0.001663371,0.010945469,0.19912358,0.19955069,0.20059937,0.20081991,0.19990651,0
20820000,20668000,0.8396304,3.713809,-2.5123582,-1.2538257,0.0025965055,1.2572051,2.512804,0.0019044694,-0.007895829,-0.0067843627,0.0037028587,0.009072865,0.018920965,0.014567977,0.003902209,0.001663371,0.010945469,0.19912358,0.19955069,0.20059937,0.20081991,0.19990651,0
20828000,20676000,0.8396304,3.713809,-2.5122914,-1.2537587,0.0026632426,1.2572718,2.5128706,0.0019044694,-0.007895829,-0.0067843627,0.0037028587,0.009072865,0.018920965,0.014567977,0.003902209,0.001663371,0.010945469,0.19912358,0.19955069,0.20059937,0.20081991,0.19990651,0
20836000,20684000,0.8396304,3.713809,-2.5122643,-1.2537314,0.0026904438,1.2572991,2.512898,0.0019044694,-0.007895829,-0.0067843627,0.0037028587,0.009072865,0.018920965,0.014567977,0.003902209,0.001663371,0.010945469,0.19912358,0.19955069,0.20059937,0.20081991,0.19990651,0
20844000,20692000,0.8396304,3.713809,-2.512291,-1.2537583,0.0026636177,1.2572721,2.512871,0.0019044694,-0.007895829,-0.0067843627,0.0037028587,0.009072865,0.018920965,0.014567977,0.003902209,0.001663371,0.010945469,0.19912358,0.19955069,0.20059937,0.20081991,0.19990651,0
20852000,20700000,0.8396304,3.713809,-2.5123093,-1.2537767,0.00264533,1.2572539,2.5128527,0.0019044694,-0.007895829,-0.0067843627,0.0037028587,0.009072865,0.018920965,0.014567977,0.003902209,0.001663371,0.010945469,0.19912358,0.19955069,0.20059937,0.20081991,0.19990651,0
20860000,20708000,0.8396304,3.713809,-2.5123203,-1.2537876,0.00263436,1.2572429,2.512842,0.0019044694,-0.007895829,-0.0067843627,0.0037028587,0.009072865,0.018920965,0.014567977,0.003902209,0.001663371,0.010945469,0.19912358,0.19955069,0.20059937,0.20081991,0.19990651,0
20868000,20716000,0.8396304,3.713809,-2.5123744,-1.2538416,0.002580308,1.2571888,2.5127878,0.0019044694,-0.007895829,-0.0067843627,0.0037028587,0.009072865,0.018920965,0.014567977,0.003902209,0.001663371,0.010945469,0.19912358,0.19955069,0.20059937,0.20081991,0.19990651,0
20876000,20724000,0.8396304,3.713809,-2.5123632,-1.2538307,0.0025913387,1.2571999,2.5127988,0.0019044694,-0.007895829,-0.0067843627,0.0037028587,0.009072865,0.018920965,0.014567977,0.003902209,0.001663371,0.010945469,0.19912358,0.19955069,0.20059937,0.20081991,0.19990651,0
20884000,20732000,0.8396304,3.713809,-2.5123286,-1.2537959,0.002626166,1.2572347,2.5128336,0.0019044694,-0.007895829,-0.0067843627,0.0037028587,0.009072865,0.018920965,0.014567977,0.003902209,0.001663371,0.010945469,0.19912358,0.19955069,0.20059937,0.20081991,0.19990651,0
20892000,20740000,0.8396304,3.713809,-2.512266,-1.2537334,0.00268859,1.2572972,2.512896,0.0019044694,-0.007895829,-0.0067843627,0.0037028587,0.009072865,0.018920965,0.014567977,0.003902209,0.001663371,0.010945469,0.19912358,0.19955069,0.20059937,0.20081991,0.19990651,0
20900000,20748000,0.8396304,3.713809,-2.5122838,-1.253751,0.0026709393,1.2572795,2.5128784,0.0019044694,-0.007895829,-0.0067843627,0.0037028587,0.009072865,0.018920965,0.014567977,0.003902209,0.001663371,0.010945469,0.19912358,0.19955069,0.20059937,0.20081991,0.19990651,0
20908000,20756000,0.8396304,3.713809,-2.512248,-1.2537152,0.0027067342,1.2573152,2.512914,0.0019044694,-0.007895829,-0.0067843627,0.0037028587,0.009072865,0.018920965,0.014567977,0.003902209,0.001663371,0.010945469,0.19912358,0.19955069,0.20059937,0.20081991,0.19990651,0
20916000,20764000,0.8396304,3.713809,-2.5122304,-1.2536974,0.0027244324,1.2573333,2.5129318,0.0019044694,-0.007895829,-0.0067843627,0.0037028587,0.009072865,0.018920965,0.014567977,0.003902209,0.001663371,0.010945469,0.19912358,0.19955069,0.20059937,0.20081991,0.19990651,0
20924000,20772000,0.8396304,3.713809,-2.5121412,-1.2536082,0.0028135667,1.2574222,2.513021,0.0019044694,-0.007895829,-0.0067843627,0.0037028587,0.009072865,0.018920965,0.014567977,0.003902209,0.001663371,0.010945469,0.19912358,0.19955069,0.20059937,0.20081991,0.19990651,0
20932000,20780000,0.8396304,3.713809,-2.5120852,-1.2535521,0.0028697122,1.2574785,2.513077,0.0019044694,-0.007895829,-0.0067843627,0.0037028587,0.009072865,0.018920965,0.014567977,0.003902209,0.001663371,0.010945469,0.19912358,0.19955069,0.20059937,0.20081991,0.19990651,0
20940000,20788000,0.8396304,3.713809,-2.5121162,-1.2535834,0.002838416,1.2574472,2.5130458,0.0019044694,-0.007895829,-0.0067843627,0.0037028587,0.009072865,0.018920965,0.014567977,0.003902209,0.001663371,0.010945469,0.19912358,0.19955069,0.20059937,0.20081991,0.19990651,0
20948000,20796000,0.8396304,3.713809,-2.512184,-1.2536508,0.0027709634,1.2573797,2.5129783,0.0019044694,-0.007895829,-0.0067843627,0.0037028587,0.009072865,0.018920965,0.014567977,0.003902209,0.001663371,0.010945469,0.19912358,0.19955069,0.20059937,0.20081991,0.19990651,0
20956000,20804000,0.8396304,3.713809,-2.5122032,-1.2536705,0.0027515264,1.2573602,2.512959,0.0019044694,-0.007895829,-0.0067843627,0.0037028587,0.009072865,0.018920965,0.014567977,0.003902209,0.001663371,0.010945469,0.19912358,0.19955069,0.20059937,0.20081991,0.19990651,0
20964000,20812000,0.8396304,3.713809,-2.5122514,-1.2537186,0.0027034176,1.2573122,2.5129108,0.0019044694,-0.007895829,-0.0067843627,0.0037028587,0.009072865,0.018920965,0.014567977,0.003902209,0.001663371,0.010945469,0.19912358,0.19955069,0.20059937,0.20081991,0.19990651,0
20972000,20820000,0.8396304,3.713809,-2.5122793,-1.2537463,0.0026755556,1.2572843,2.5128827,0.0019044694,-0.007895829,-0.0067843627,0.0037028587,0.009072865,0.018920965,0.014567977,0.003902209,0.001663371,0.010945469,0.19912358,0.19955069,0.20059937,0.20081991,0.19990651,0
20980000,20828000,0.8396304,3.713809,-2.5121665,-1.2536337,0.00278825,1.2573967,2.5129957,0.0019044694,-0.007895829,-0.0067843627,0.0037028587,0.009072865,0.018920965,0.014567977,0.003902209,0.001663371,0.010945469,0.19912358,0.19955069,0.20059937,0.20081991,0.19990651,0
20988000,20836000,0.8396304,3.713809,-2.5120933,-1.2535603,0.0028615848,1.2574704,2.5130687,0.0019044694,-0.007895829,-0.0067843627,0.0037028587,0.009072865,0.018920965,0.014567977,0.003902209,0.001663371,0.010945469,0.19912358,0.19955069,0.20059937,0.20081991,0.19990651,0
20996000,20844000,0.8396304,3.713809,-2.512154,-1.2536213,0.0028005757,1.2574092,2.5130079,0.0019044694,-0.007895829,-0.0067843627,0.0037028587,0.009072865,0.018920965,0.014567977,0.003902209,0.001663371,0.010945469,0.19912358,0.19955069,0.20059937,0.20081991,0.19990651,0
21004000,20852000,0.8396304,3.713809,-2.512161,-1.2536281,0.002793768,1.2574024,2.513001,0.0019044694,-0.007895829,-0.0067843627,0.0037028587,0.009072865,0.018920965,0.014567977,0.003902209,0.001663371,0.010945469,0.19912358,0.19955069,0.20059937,0.20081991,0.19990651,0
21012000,20860000,0.8396304,3.713809,-2.5121593,-1.2536263,0.0027954408,1.2574043,2.5130029,0.0019044694,-0.007895829,-0.0067843627,0.0037028587,0.009072865,0.018920965,0.014567977,0.003902209,0.001663371,0.010945469,0.19912358,0.19955069,0.20059937,0.20081991,0.19990651,0
21020000,20868000,0.8396304,3.713809,-2.5121205,-1.2535875,0.0028343801,1.2574432,2.5130417,0.0019044694,-0.007895829,-0.0067843627,0.0037028587,0.009072865,0.018920965,0.014567977,0.003902209,0.001663371,0.010945469,0.19912358,0.19955069,0.20059937,0.20081991,0.19990651,0
21028000,20876000,0.8396304,3.713809,-2.5121682,-1.2536352,0.0027868305,1.2573957,2.512994,0.0019044694,-0.007895829,-0.0067843627,0.0037028587,0.009072865,0.018920965,0.014567977,0.003902209,0.001663371,0.010945469,0.19912358,0.19955069,0.20059937,0.20081991,0.19990651,0
21036000,20884000,0.8396304,3.713809,-2.5121775,-1.2536443,0.0027775345,1.2573863,2.512985,0.0019044694,-0.007895829,-0.0067843627,0.0037028587,0.009072865,0.018920965,0.014567977,0.003902209,0.001663371,0.010945469,0.19912358,0.19955069,0.20059937,0.20081991,0.19990651,0
21044000,20892000,0.8396304,3.713809,-2.5121417,-1.2536087,0.0028132475,1.2574221,2.5130205,0.0019044694,-0.007895829,-0.0067843627,0.0037028587,0.009072865,0.018920965,0.014567977,0.003902209,0.001663371,0.010945469,0.19912358,0.19955069,0.20059937,0.20081991,0.19990651,0
21052000,20900000,0.8396304,3.713809,-2.5121195,-1.2535868,0.0028353427,1.257444,2.5130427,0.0019044694,-0.007895829,-0.0067843627,0.0037028587,0.009072865,0.018920965,0.014567977,0.003902209,0.001663371,0.010945469,0.19912358,0.19955069,0.20059937,0.20081991,0.19990651,0
21060000,20908000,0.8396304,3.713809,-2.5121684,-1.2536354,0.0027865118,1.2573953,2.5129938,0.0019044694,-0.007895829,-0.0067843627,0.0037028587,0.009072865,0.018920965,0.014567977,0.003902209,0.001663371,0.010945469,0.19912358,0.19955069,0.20059937,0.20081991,0.19990651,0
21068000,20916000,-0.87976086,3.6888525,-2.511646,-1.2551436,0.001242728,1.2578547,2.5147314,0.0064475853,-0.015781915,-0.016168391,0.005748423,0.019743694,0.012649422,0.005854108,-0.017353874,-0.024908282,-0.006407398,0.19999424,0.20010605,0.20007122,0.19993801,0.19989051,0
21076000,20924000,-0.87976086,3.6888525,-2.5116448,-1.2551427,0.0012437118,1.2578557,2.5147326,0.0064475853,-0.015781915,-0.016168391,0.005748423,0.019743694,0.012649422,0.005854108,-0.017353874,-0.024908282,-0.006407398,0.19999424,0.20010605,0.20007122,0.19993801,0.19989051,0
21084000,20932000,-0.87976086,3.6888525,-2.5116606,-1.2551588,0.0012276667,1.2578396,2.5147166,0.0064475853,-0.015781915,-0.016168391,0.005748423,0.019743694,0.012649422,0.005854108,-0.017353874,-0.024908282,-0.006407398,0.19999424,0.20010605,0.20007122,0.19993801,0.19989051,0
21092000,20940000,-0.87976086,3.6888525,-2.5116227,-1.2551205,0.0012658695,1.257878,2.5147548,0.0064475853,-0.015781915,-0.016168391,0.005748423,0.019743694,0.012649422,0.005854108,-0.017353874,-0.024908282,-0.006407398,0.19999424,0.20010605,0.20007122,0.19993801,0.19989051,0
21100000,20948000,-0.87976086,3.6888525,-2.511572,-1.2550697,0.0013167085,1.257929,2.5148056,0.0064475853,-0.015781915,-0.016168391,0.005748423,0.019743694,0.012649422,0.005854108,-0.017353874,-0.024908282,-0.006407398,0.19999424,0.20010605,0.20007122,0.19993801,0.19989051,0
21108000,20956000,-0.87976086,3.6888525,-2.5115979,-1.255096,0.0012906179,1.2579025,2.5147796,0.0064475853,-0.015781915,-0.016168391,0.005748423,0.019743694,0.012649422,0.005854108,-0.017353874,-0.024908282,-0.006407398,0.19999424,0.20010605,0.20007122,0.19993801,0.19989051,0
21116000,20964000,-0.87976086,3.6888525,-2.5116186,-1.2551162,0.0012700239,1.2578818,2.5147588,0.0064475853,-0.015781915,-0.016168391,0.005748423,0.019743694,0.012649422,0.005854108,-0.017353874,-0.024908282,-0.006407398,0.19999424,0.20010605,0.20007122,0.19993801,0.19989051,0
21124000,20972000,-0.87976086,3.6888525,-2.5116377,-1.255136,0.0012506254,1.2578626,2.5147395,0.0064475853,-0.015781915,-0.016168391,0.005748423,0.019743694,0.012649422,0.005854108,-0.017353874,-0.024908282,-0.006407398,0.19999424,0.20010605,0.20007122,0.19993801,0.19989051,0
21132000,20980000,-0.87976086,3.6888525,-2.5115542,-1.2550521,0.0013343311,1.2579463,2.5148234,0.0064475853,-0.015781915,-0.016168391,0.005748423,0.019743694,0.012649422,0.005854108,-0.017353874,-0.024908282,-0.006407398,0.19999424,0.20010605,0.20007122,0.19993801,0.19989051,0
21140000,20988000,-0.87976086,3.6888525,-2.5114436,-1.2549418,0.0014447541,1.2580568,2.5149336,0.0064475853,-0.015781915,-0.016168391,0.005748423,0.019743694,0.012649422,0.005854108,-0.017353874,-0.024908282,-0.006407398,0.19999424,0.20010605,0.20007122,0.19993801,0.19989051,0
21148000,20996000,-0.87976086,3.6888525,-2.511473,-1.254971,0.0014155132,1.2580278,2.5149045,0.0064475853,-0.015781915,-0.016168391,0.005748423,0.019743694,0.012649422,0.005854108,-0.017353874,-0.024908282,-0.006407398,0.19999424,0.20010605,0.20007122,0.19993801,0.19989051,0
21156000,21004000,-0.87976086,3.6888525,-2.5113957,-1.2548938,0.0014927306,1.2581048,2.5149817,0.0064475853,-0.015781915,-0.016168391,0.005748423,0.019743694,0.012649422,0.005854108,-0.017353874,-0.024908282,-0.006407398,0.19999424,0.20010605,0.20007122,0.19993801,0.19989051,0
21164000,21012000,-0.87976086,3.6888525,-2.511312,-1.2548102,0.0015764071,1.2581887,2.5150654,0.0064475853,-0.015781915,-0.016168391,0.005748423,0.019743694,0.012649422,0.005854108,-0.017353874,-0.024908282,-0.006407398,0.19999424,0.20010605,0.20007122,0.19993801,0.19989051,0
21172000,21020000,-0.87976086,3.6888525,-2.5112805,-1.2547786,0.0016078324,1.2582198,2.515097,0.0064475853,-0.015781915,-0.016168391,0.005748423,0.019743694,0.012649422,0.005854108,-0.017353874,-0.024908282,-0.006407398,0.19999424,0.20010605,0.20007122,0.19993801,0.19989051,0
21180000,21028000,-0.87976086,3.6888525,-2.5112567,-1.2547545,0.0016318574,1.258244,2.515121,0.0064475853,-0.015781915,-0.016168391,0.005748423,0.019743694,0.012649422,0.005854108,-0.017353874,-0.024908282,-0.006407398,0.19999424,0.20010605,0.20007122,0.19993801,0.19989051,0
21188000,21036000,-0.87976086,3.6888525,-2.5112548,-1.2547528,0.0016335908,1.2582457,2.5151227,0.0064475853,-0.015781915,-0.016168391,0.005748423,0.019743694,0.012649422,0.005854108,-0.017353874,-0.024908282,-0.006407398,0.19999424,0.20010605,0.20007122,0.19993801,0.19989051,0
21196000,21044000,-0.87976086,3.6888525,-2.5111883,-1.2546861,0.0017002701,1.2583127,2.5151896,0.0064475853,-0.015781915,-0.016168391,0.005748423,0.019743694,0.012649422,0.005854108,-0.017353874,-0.024908282,-0.006407398,0.19999424,0.20010605,0.20007122,0.19993801,0.19989051,0
21204000,21052000,-0.87976086,3.6888525,-2.5111158,-1.2546139,0.0017725353,1.2583847,2.5152617,0.0064475853,-0.015781915,-0.016168391,0.005748423,0.019743694,0.012649422,0.005854108,-0.017353874,-0.024908282,-0.006407398,0.19999424,0.20010605,0.20007122,0.19993801,0.19989051,0
21212000,21060000,-0.87976086,3.6888525,-2.5111523,-1.2546504,0.0017360994,1.2583483,2.5152254,0.0064475853,-0.015781915,-0.016168391,0.005748423,0.019743694,0.012649422,0.005854108,-0.017353874,-0.024908282,-0.006407398,0.19999424,0.20010605,0.20007122,0.19993801,0.19989051,0
21220000,21068000,-0.87976086,3.6888525,-2.5112035,-1.2547015,0.0016848213,1.2582972,2.515174,0.0064475853,-0.015781915,-0.016168391,0.005748423,0.019743694,0.012649422,0.005854108,-0.017353874,-0.024908282,-0.006407398,0.19999424,0.20010605,0.20007122,0.19993801,0.19989051,0
21228000,21076000,-0.87976086,3.6888525,-2.5111792,-1.2546773,0.001709184,1.2583215,2.5151982,0.0064475853,-0.015781915,-0.016168391,0.005748423,0.019743694,0.012649422,0.005854108,-0.017353874,-0.024908282,-0.006407398,0.19999424,0.20010605,0.20007122,0.19993801,0.19989051,0
21236000,21084000,-0.87976086,3.6888525,-2.511169,-1.2546668,0.0017195054,1.2583319,2.5152087,0.0064475853,-0.015781915,-0.016168391,0.005748423,0.019743694,0.012649422,0.005854108,-0.017353874,-0.024908282,-0.006407398,0.19999424,0.20010605,0.20007122,0.19993801,0.19989051,0
21244000,21092000,-0.87976086,3.6888525,-2.5110605,-1.2545587,0.0018279452,1.2584404,2.515317,0.0064475853,-0.015781915,-0.016168391,0.005748423,0.019743694,0.012649422,0.005854108,-0.017353874,-0.024908282,-0.006407398,0.19999424,0.20010605,0.20007122,0.19993801,0.19989051,0
21252000,21100000,-0.87976086,3.6888525,-2.511006,-1.2545041,0.0018822209,1.2584947,2.5153713,0.0064475853,-0.015781915,-0.016168391,0.005748423,0.019743694,0.012649422,0.005854108,-0.017353874,-0.024908282,-0.006407398,0.19999424,0.20010605,0.20007122,0.19993801,0.19989051,0
21260000,21108000,-0.87976086,3.6888525,-2.511013,-1.2545111,0.0018754833,1.2584878,2.5153646,0.0064475853,-0.015781915,-0.016168391,0.005748423,0.019743694,0.012649422,0.005854108,-0.017353874,-0.024908282,-0.006407398,0.19999424,0.20010605,0.20007122,0.19993801,0.19989051,0
21268000,21116000,-0.87976086,3.6888525,-2.5110624,-1.2545605,0.0018261648,1.2584385,2.5153155,0.0064475853,-0.015781915,-0.016168391,0.005748423,0.019743694,0.012649422,0.005854108,-0.017353874,-0.024908282,-0.006407398,0.19999424,0.20010605,0.20007122,0.19993801,0.19989051,0
21276000,21124000,-0.87976086,3.6888525,-2.5110998,-1.2545979,0.0017885123,1.2584007,2.5152776,0.0064475853,-0.015781915,-0.016168391,0.005748423,0.019743694,0.012649422,0.005854108,-0.017353874,-0.024908282,-0.006407398,0.19999424,0.20010605,0.20007122,0.19993801,0.19989051,0
21284000,21132000,-0.87976086,3.6888525,-2.511194,-1.2546921,0.0016944341,1.2583067,2.5151834,0.0064475853,-0.015781915,-0.016168391,0.005748423,0.019743694,0.012649422,0.005854108,-0.017353874,-0.024908282,-0.006407398,0.19999424,0.20010605,0.20007122,0.19993801,0.19989051,0
21292000,21140000,-0.87976086,3.6888525,-2.511173,-1.2546712,0.0017154178,1.2583276,2.5152047,0.0064475853,-0.015781915,-0.016168391,0.005748423,0.019743694,0.012649422,0.005854108,-0.017353874,-0.024908282,-0.006407398,0.19999424,0.20010605,0.20007122,0.19993801,0.19989051,0
21300000,21148000,-0.87976086,3.6888525,-2.5111232,-1.2546214,0.0017652558,1.2583774,2.5152545,0.0064475853,-0.015781915,-0.016168391,0.005748423,0.019743694,0.012649422,0.005854108,-0.017353874,-0.024908282,-0.006407398,0.19999424,0.20010605,0.20007122,0.19993801,0.19989051,0
21308000,21156000,-0.87976086,3.6888525,-2.5111713,-1.2546697,0.001716929,1.2583292,2.515206,0.0064475853,-0.015781915,-0.016168391,0.005748423,0.019743694,0.012649422,0.005854108,-0.017353874,-0.024908282,-0.006407398,0.19999424,0.20010605,0.20007122,0.19993801,0.19989051,0
21316000,21164000,-0.87976086,3.6888525,-2.511154,-1.2546518,0.0017346266,1.258347,2.515224,0.0064475853,-0.015781915,-0.016168391,0.005748423,0.019743694,0.012649422,0.005854108,-0.017353874,-0.024908282,-0.006407398,0.19999424,0.20010605,0.20007122,0.19993801,0.19989051,0
21324000,21172000,-0.87976086,3.6888525,-2.5111797,-1.2546778,0.0017086703,1.258321,2.5151978,0.0064475853,-0.015781915,-0.016168391,0.005748423,0.019743694,0.012649422,0.005854108,-0.017353874,-0.024908282,-0.006407398,0.19999424,0.20010605,0.20007122,0.19993801,0.19989051,0
21332000,21180000,-0.87976086,3.6888525,-2.5111675,-1.2546656,0.0017208863,1.2583331,2.5152102,0.0064475853,-0.015781915,-0.016168391,0.005748423,0.019743694,0.012649422,0.005854108,-0.017353874,-0.024908282,-0.006407398,0.19999424,0.20010605,0.20007122,0.19993801,0.19989051,0
21340000,21188000,-0.87976086,3.6888525,-2.5110936,-1.2545915,0.0017949578,1.2584069,2.515284,0.0064475853,-0.015781915,-0.016168391,0.005748423,0.019743694,0.012649422,0.005854108,-0.017353874,-0.024908282,-0.006407398,0.19999424,0.20010605,0.20007122,0.19993801,0.19989051,0
21348000,21196000,-0.87976086,3.6888525,-2.5110521,-1.2545502,0.001836223,1.2584482,2.5153255,0.0064475853,-0.015781915,-0.016168391,0.005748423,0.019743694,0.012649422,0.005854108,-0.017353874,-0.024908282,-0.006407398,0.19999424,0.20010605,0.20007122,0.19993801,0.19989051,0
21356000,21204000,-0.87976086,3.6888525,-2.5110865,-1.2545847,0.0018019273,1.2584138,2.5152912,0.0064475853,-0.015781915,-0.016168391,0.005748423,0.019743694,0.012649422,0.005854108,-0.017353874,-0.024908282,-0.006407398,0.19999424,0.20010605,0.20007122,0.19993801,0.19989051,0
21364000,21212000,-0.87976086,3.6888525,-2.5111265,-1.2546245,0.0017620495,1.2583739,2.5152512,0.0064475853,-0.015781915,-0.016168391,0.005748423,0.019743694,0.012649422,0.005854108,-0.017353874,-0.024908282,-0.006407398,0.19999424,0.20010605,0.20007122,0.19993801,0.19989051,0
21372000,21220000,-0.87976086,3.6888525,-2.511084,-1.2545822,0.001804335,1.2584164,2.5152934,0.0064475853,-0.015781915,-0.016168391,0.005748423,0.019743694,0.012649422,0.005854108,-0.017353874,-0.024908282,-0.006407398,0.19999424,0.20010605,0.20007122,0.19993801,0.19989051,0
21380000,21228000,-0.87976086,3.6888525,-2.5111113,-1.2546091,0.001777332,1.2583892,2.5152664,0.0064475853,-0.015781915,-0.016168391,0.005748423,0.019743694,0.012649422,0.005854108,-0.017353874,-0.024908282,-0.006407398,0.19999424,0.20010605,0.20007122,0.19993801,0.19989051,0
21388000,21236000,-0.87976086,3.6888525,-2.5112042,-1.2547021,0.0016843816,1.2582963,2.5151734,0.0064475853,-0.015781915,-0.016168391,0.005748423,0.019743694,0.012649422,0.005854108,-0.017353874,-0.024908282,-0.006407398,0.19999424,0.20010605,0.20007122,0.19993801,0.19989051,0
21396000,21244000,-0.87976086,3.6888525,-2.511249,-1.2547472,0.0016393191,1.2582512,2.5151284,0.0064475853,-0.015781915,-0.016168391,0.005748423,0.019743694,0.012649422,0.005854108,-0.017353874,-0.024908282,-0.006407398,0.19999424,0.20010605,0.20007122,0.19993801,0.19989051,0
21404000,21252000,-0.87976086,3.6888525,-2.5112567,-1.254755,0.0016316394,1.2582433,2.5151207,0.0064475853,-0.015781915,-0.016168391,0.005748423,0.019743694,0.012649422,0.005854108,-0.017353874,-0.024908282,-0.006407398,0.19999424,0.20010605,0.20007122,0.19993801,0.19989051,0
21412000,21260000,-0.87976086,3.6888525,-2.51119,-1.2546884,0.0016982583,1.2583101,2.5151875,0.0064475853,-0.015781915,-0.016168391,0.005748423,0.019743694,0.012649422,0.005854108,-0.017353874,-0.024908282,-0.006407398,0.19999424,0.20010605,0.20007122,0.19993801,0.19989051,0
21420000,21268000,-0.87976086,3.6888525,-2.5111554,-1.2546538,0.0017330714,1.2583449,2.5152223,0.0064475853,-0.015781915,-0.016168391,0.005748423,0.019743694,0.012649422,0.005854108,-0.017353874,-0.024908282,-0.006407398,0.19999424,0.20010605,0.20007122,0.19993801,0.19989051,0
21428000,21276000,-0.87976086,3.6888525,-2.5111873,-1.2546858,0.0017008648,1.2583127,2.5151901,0.0064475853,-0.015781915,-0.016168391,0.005748423,0.019743694,0.012649422,0.005854108,-0.017353874,-0.024908282,-0.006407398,0.19999424,0.20010605,0.20007122,0.19993801,0.19989051,0
21436000,21284000,-0.87976086,3.6888525,-2.5112338,-1.254732,0.0016546587,1.2582664,2.5151439,0.0064475853,-0.015781915,-0.016168391,0.005748423,0.019743694,0.012649422,0.005854108,-0.017353874,-0.024908282,-0.006407398,0.19999424,0.20010605,0.20007122,0.19993801,0.19989051,0
21444000,21292000,-0.87976086,3.6888525,-2.5112553,-1.2547537,0.0016329637,1.2582448,2.5151222,0.0064475853,-0.015781915,-0.016168391,0.005748423,0.019743694,0.012649422,0.005854108,-0.017353874,-0.024908282,-0.006407398,0.19999424,0.20010605,0.20007122,0.19993801,0.19989051,0
21452000,21300000,-0.87976086,3.6888525,-2.5111713,-1.2546699,0.0017167751,1.2583286,2.5152059,0.0064475853,-0.015781915,-0.016168391,0.005748423,0.019743694,0.012649422,0.005854108,-0.017353874,-0.024908282,-0.006407398,0.19999424,0.20010605,0.20007122,0.19993801,0.19989051,0
21460000,21308000,2.6295974,3.539184,-2.5141373,-1.2567925,0.0033523329,1.2614447,2.5154796,-0.0054190727,-0.028339924,-0.025921956,-0.0015036026,0.011172913,0.01888251,0.008887434,-0.015998704,-0.021393545,0.00016789342,0.20064285,0.19886208,0.19865346,0.20030361,0.20153792,0
21468000,21316000,2.6295974,3.539184,-2.514193,-1.2568483,0.0032965336,1.2613887,2.5154238,-0.0054190727,-0.028339924,-0.025921956,-0.0015036026,0.011172913,0.01888251,0.008887434,-0.015998704,-0.021393545,0.00016789342,0.20064285,0.19886208,0.19865346,0.20030361,0.20153792,0
21476000,21324000,2.6295974,3.539184,-2.5141985,-1.2568538,0.0032910132,1.2613832,2.5154183,-0.0054190727,-0.028339924,-0.025921956,-0.0015036026,0.011172913,0.01888251,0.008887434,-0.015998704,-0.021393545,0.00016789342,0.20064285,0.19886208,0.19865346,0.20030361,0.20153792,0
21484000,21332000,2.6295974,3.539184,-2.514184,-1.256839,0.0033056296,1.2613978,2.5154326,-0.0054190727,-0.028339924,-0.025921956,-0.0015036026,0.011172913,0.01888251,0.008887434,-0.015998704,-0.021393545,0.00016789342,0.20064285,0.19886208,0.19865346,0.20030361,0.20153792,0
21492000,21340000,2.6295974,3.539184,-2.5141702,-1.2568257,0.003319099,1.2614112,2.5154462,-0.0054190727,-0.028339924,-0.025921956,-0.0015036026,0.011172913,0.01888251,0.008887434,-0.015998704,-0.021393545,0.00016789342,0.20064285,0.19886208,0.19865346,0.20030361,0.20153792,0
21500000,21348000,2.6295974,3.539184,-2.514163,-1.2568185,0.003326386,1.2614185,2.5154536,-0.0054190727,-0.028339924,-0.025921956,-0.0015036026,0.011172913,0.01888251,0.008887434,-0.015998704,-0.021393545,0.00016789342,0.20064285,0.19886208,0.19865346,0.20030361,0.20153792,0
21508000,21356000,2.6295974,3.539184,-2.5141194,-1.2567747,0.0033700238,1.2614622,2.5154972,-0.0054190727,-0.028339924,-0.025921956,-0.0015036026,0.011172913,0.01888251,0.008887434,-0.015998704,-0.021393545,0.00016789342,0.20064285,0.19886208,0.19865346,0.20030361,0.20153792,0
21516000,21364000,2.6295974,3.539184,-2.5142412,-1.2568966,0.0032482115,1.2613405,2.5153756,-0.0054190727,-0.028339924,-0.025921956,-0.0015036026,0.011172913,0.01888251,0.008887434,-0.015998704,-0.021393545,0.00016789342,0.20064285,0.19886208,0.19865346,0.20030361,0.20153792,0
21524000,21372000,2.6295974,3.539184,-2.5144186,-1.2570738,0.0030709575,1.2611634,2.5151982,-0.0054190727,-0.028339924,-0.025921956,-0.0015036026,0.011172913,0.01888251,0.008887434,-0.015998704,-0.021393545,0.00016789342,0.20064285,0.19886208,0.19865346,0.20030361,0.20153792,0
21532000,21380000,2.6295974,3.539184,-2.5144837,-1.257139,0.003005732,1.2610979,2.515133,-0.0054190727,-0.028339924,-0.025921956,-0.0015036026,0.011172913,0.01888251,0.008887434,-0.015998704,-0.021393545,0.00016789342,0.20064285,0.19886208,0.19865346,0.20030361,0.20153792,0
21540000,21388000,2.6295974,3.539184,-2.5144858,-1.2571412,0.0030035253,1.2610958,2.5151308,-0.0054190727,-0.028339924,-0.025921956,-0.0015036026,0.011172913,0.01888251,0.008887434,-0.015998704,-0.021393545,0.00016789342,0.20064285,0.19886208,0.19865346,0.20030361,0.20153792,0
21548000,21396000,2.6295974,3.539184,-2.5144787,-1.257134,0.0030107922,1.2611033,2.515138,-0.0054190727,-0.028339924,-0.025921956,-0.0015036026,0.011172913,0.01888251,0.008887434,-0.015998704,-0.021393545,0.00016789342,0.20064285,0.19886208,0.19865346,0.20030361,0.20153792,0
21556000,21404000,2.6295974,3.539184,-2.514399,-1.2570544,0.003090332,1.2611827,2.5152175,-0.0054190727,-0.028339924,-0.025921956,-0.0015036026,0.011172913,0.01888251,0.008887434,-0.015998704,-0.021393545,0.00016789342,0.20064285,0.19886208,0.19865346,0.20030361,0.20153792,0
21564000,21412000,2.6295974,3.539184,-2.5143664,-1.2570217,0.003123042,1.2612152,2.5152502,-0.0054190727,-0.028339924,-0.025921956,-0.0015036026,0.011172913,0.01888251,0.008887434,-0.015998704,-0.021393545,0.00016789342,0.20064285,0.19886208,0.19865346,0.20030361,0.20153792,0
21572000,21420000,2.6295974,3.539184,-2.5142694,-1.2569249,0.003219951,1.2613121,2.5153472,-0.0054190727,-0.028339924,-0.025921956,-0.0015036026,0.011172913,0.01888251,0.008887434,-0.015998704,-0.021393545,0.00016789342,0.20064285,0.19886208,0.19865346,0.20030361,0.20153792,0
21580000,21428000,2.6295974,3.539184,-2.514178,-1.2568334,0.003311416,1.2614038,2.5154388,-0.0054190727,-0.028339924,-0.025921956,-0.0015036026,0.011172913,0.01888251,0.008887434,-0.015998704,-0.021393545,0.00016789342,0.20064285,0.19886208,0.19865346,0.20030361,0.20153792,0
21588000,21436000,2.6295974,3.539184,-2.5141046,-1.2567604,0.0033846619,1.2614768,2.515512,-0.0054190727,-0.028339924,-0.025921956,-0.0015036026,0.011172913,0.01888251,0.008887434,-0.015998704,-0.021393545,0.00016789342,0.20064285,0.19886208,0.19865346,0.20030361,0.20153792,0
21596000,21444000,2.6295974,3.539184,-2.514072,-1.2567277,0.0034172928,1.2615095,2.5155447,-0.0054190727,-0.028339924,-0.025921956,-0.0015036026,0.011172913,0.01888251,0.008887434,-0.015998704,-0.021393545,0.00016789342,0.20064285,0.19886208,0.19865346,0.20030361,0.20153792,0
21604000,21452000,2.6295974,3.539184,-2.5141063,-1.2567621,0.0033828332,1.2614748,2.51551,-0.0054190727,-0.028339924,-0.025921956,-0.0015036026,0.011172913,0.01888251,0.008887434,-0.015998704,-0.021393545,0.00016789342,0.20064285,0.19886208,0.19865346,0.20030361,0.20153792,0
21612000,21460000,2.6295974,3.539184,-2.5141568,-1.2568126,0.0033323735,1.2614247,2.5154598,-0.0054190727,-0.028339924,-0.025921956,-0.0015036026,0.011172913,0.01888251,0.008887434,-0.015998704,-0.021393545,0.00016789342,0.20064285,0.19886208,0.19865346,0.20030361,0.20153792,0
21620000,21468000,2.6295974,3.539184,-2.514209,-1.256865,0.0032800697,1.2613723,2.5154073,-0.0054190727,-0.028339924,-0.025921956,-0.0015036026,0.011172913,0.01888251,0.008887434,-0.015998704,-0.021393545,0.00016789342,0.20064285,0.19886208,0.19865346,0.20030361,0.20153792,0
21628000,21476000,2.6295974,3.539184,-2.5142367,-1.2568928,0.003252311,1.2613446,2.5153797,-0.0054190727,-0.028339924,-0.025921956,-0.0015036026,0.011172913,0.01888251,0.008887434,-0.015998704,-0.021393545,0.00016789342,0.20064285,0.19886208,0.19865346,0.20030361,0.20153792,0
21636000,21484000,2.6295974,3.539184,-2.5141752,-1.2568312,0.003313872,1.261406,2.5154412,-0.0054190727,-0.028339924,-0.025921956,-0.0015036026,0.011172913,0.01888251,0.008887434,-0.015998704,-0.021393545,0.00016789342,0.20064285,0.19886208,0.19865346,0.20030361,0.20153792,0
21644000,21492000,2.6295974,3.539184,-2.5140371,-1.2566931,0.003452051,1.2615442,2.5155795,-0.0054190727,-0.028339924,-0.025921956,-0.0015036026,0.011172913,0.01888251,0.008887434,-0.015998704,-0.021393545,0.00016789342,0.20064285,0.19886208,0.19865346,0.20030361,0.20153792,0
21652000,21500000,2.6295974,3.539184,-2.5138826,-1.256539,0.0036061078,1.2616982,2.5157335,-0.0054190727,-0.028339924,-0.025921956,-0.0015036026,0.011172913,0.01888251,0.008887434,-0.015998704,-0.021393545,0.00016789342,0.20064285,0.19886208,0.19865346,0.20030361,0.20153792,0
21660000,21508000,2.6295974,3.539184,-2.5137992,-1.2564554,0.003689762,1.261782,2.5158172,-0.0054190727,-0.028339924,-0.025921956,-0.0015036026,0.011172913,0.01888251,0.008887434,-0.015998704,-0.021393545,0.00016789342,0.20064285,0.19886208,0.19865346,0.20030361,0.20153792,0
21668000,21516000,2.6295974,3.539184,-2.5137796,-1.2564356,0.0037095363,1.2618017,2.5158372,-0.0054190727,-0.028339924,-0.025921956,-0.0015036026,0.011172913,0.01888251,0.008887434,-0.015998704,-0.021393545,0.00016789342,0.20064285,0.19886208,0.19865346,0.20030361,0.20153792,0
21676000,21524000,2.6295974,3.539184,-2.5138397,-1.2564956,0.0036495032,1.2617418,2.515777,-0.0054190727,-0.028339924,-0.025921956,-0.0015036026,0.011172913,0.01888251,0.008887434,-0.015998704,-0.021393545,0.00016789342,0.20064285,0.19886208,0.19865346,0.20030361,0.20153792,0
21684000,21532000,2.6295974,3.539184,-2.5138836,-1.2565397,0.003605478,1.2616978,2.515733,-0.0054190727,-0.028339924,-0.025921956,-0.0015036026,0.011172913,0.01888251,0.008887434,-0.015998704,-0.021393545,0.00016789342,0.20064285,0.19886208,0.19865346,0.20030361,0.20153792,0
21692000,21540000,2.6295974,3.539184,-2.5138307,-1.256487,0.0036581804,1.2617506,2.5157857,-0.0054190727,-0.028339924,-0.025921956,-0.0015036026,0.011172913,0.01888251,0.008887434,-0.015998704,-0.021393545,0.00016789342,0.20064285,0.19886208,0.19865346,0.20030361,0.20153792,0
21700000,21548000,2.6295974,3.539184,-2.513847,-1.2565031,0.0036420322,1.2617342,2.5157695,-0.0054190727,-0.028339924,-0.025921956,-0.0015036026,0.011172913,0.01888251,0.008887434,-0.015998704,-0.021393545,0.00016789342,0.20064285,0.19886208,0.19865346,0.20030361,0.20153792,0
21708000,21556000,2.6295974,3.539184,-2.5138676,-1.2565236,0.0036214604,1.2617137,2.515749,-0.0054190727,-0.028339924,-0.025921956,-0.0015036026,0.011172913,0.01888251,0.008887434,-0.015998704,-0.021393545,0.00016789342,0.20064285,0.19886208,0.19865346,0.20030361,0.20153792,0
21716000,21564000,2.6295974,3.539184,-2.5137167,-1.2563728,0.003772261,1.2618644,2.5158997,-0.0054190727,-0.028339924,-0.025921956,-0.0015036026,0.011172913,0.01888251,0.008887434,-0.015998704,-0.021393545,0.00016789342,0.20064285,0.19886208,0.19865346,0.20030361,0.20153792,0
21724000,21572000,2.6295974,3.539184,-2.5136712,-1.2563273,0.0038178158,1.26191,2.5159452,-0.0054190727,-0.028339924,-0.025921956,-0.0015036026,0.011172913,0.01888251,0.008887434,-0.015998704,-0.021393545,0.00016789342,0.20064285,0.19886208,0.19865346,0.20030361,0.20153792,0
21732000,21580000,2.6295974,3.539184,-2.5136237,-1.25628,0.003865201,1.2619574,2.5159924,-0.0054190727,-0.028339924,-0.025921956,-0.0015036026,0.011172913,0.01888251,0.008887434,-0.015998704,-0.021393545,0.00016789342,0.20064285,0.19886208,0.19865346,0.20030361,0.20153792,0
21740000,21588000,2.6295974,3.539184,-2.5134985,-1.2561545,0.003990454,1.2620828,2.5161178,-0.0054190727,-0.028339924,-0.025921956,-0.0015036026,0.011172913,0.01888251,0.008887434,-0.015998704,-0.021393545,0.00016789342,0.20064285,0.19886208,0.19865346,0.20030361,0.20153792,0
21748000,21596000,2.6295974,3.539184,-2.5134711,-1.2561274,0.0040177694,1.26211,2.5161452,-0.0054190727,-0.028339924,-0.025921956,-0.0015036026,0.011172913,0.01888251,0.008887434,-0.015998704,-0.021393545,0.00016789342,0.20064285,0.19886208,0.19865346,0.20030361,0.20153792,0
21756000,21604000,2.6295974,3.539184,-2.5135016,-1.2561575,0.0039874823,1.2620798,2.5161147,-0.0054190727,-0.028339924,-0.025921956,-0.0015036026,0.011172913,0.01888251,0.008887434,-0.015998704,-0.021393545,0.00016789342,0.20064285,0.19886208,0.19865346,0.20030361,0.20153792,0
21764000,21612000,2.6295974,3.539184,-2.5135636,-1.2562196,0.0039254017,1.2620177,2.5160527,-0.0054190727,-0.028339924,-0.025921956,-0.0015036026,0.011172913,0.01888251,0.008887434,-0.015998704,-0.021393545,0.00016789342,0.20064285,0.19886208,0.19865346,0.20030361,0.20153792,0
21772000,21620000,2.6295974,3.539184,-2.5135543,-1.2562104,0.003934615,1.262027,2.516062,-0.0054190727,-0.028339924,-0.025921956,-0.0015036026,0.011172913,0.01888251,0.008887434,-0.015998704,-0.021393545,0.00016789342,0.20064285,0.19886208,0.19865346,0.20030361,0.20153792,0
21780000,21628000,2.6295974,3.539184,-2.5136187,-1.2562745,0.0038703156,1.2619629,2.515998,-0.0054190727,-0.028339924,-0.025921956,-0.0015036026,0.011172913,0.01888251,0.008887434,-0.015998704,-0.021393545,0.00016789342,0.20064285,0.19886208,0.19865346,0.20030361,0.20153792,0
21788000,21636000,2.6295974,3.539184,-2.5136998,-1.2563558,0.0037891886,1.2618817,2.5159166,-0.0054190727,-0.028339924,-0.025921956,-0.0015036026,0.011172913,0.01888251,0.008887434,-0.015998704,-0.021393545,0.00016789342,0.20064285,0.19886208,0.19865346,0.20030361,0.20153792,0
21796000,21644000,2.6295974,3.539184,-2.5136743,-1.2563305,0.0038144598,1.2619071,2.5159419,-0.0054190727,-0.028339924,-0.025921956,-0.0015036026,0.011172913,0.01888251,0.008887434,-0.015998704,-0.021393545,0.00016789342,0.20064285,0.19886208,0.19865346,0.20030361,0.20153792,0
21804000,21652000,2.6295974,3.539184,-2.5136771,-1.2563331,0.0038119475,1.2619045,2.5159395,-0.0054190727,-0.028339924,-0.025921956,-0.0015036026,0.011172913,0.01888251,0.008887434,-0.015998704,-0.021393545,0.00016789342,0.20064285,0.19886208,0.19865346,0.20030361,0.20153792,0
21812000,21660000,2.6295974,3.539184,-2.5137825,-1.2564389,0.0037061444,1.2617986,2.5158336,-0.0054190727,-0.028339924,-0.025921956,-0.0015036026,0.011172913,0.01888251,0.008887434,-0.015998704,-0.021393545,0.00016789342,0.20064285,0.19886208,0.19865346,0.20030361,0.20153792,0
21820000,21668000,2.6295974,3.539184,-2.513779,-1.2564349,0.0037099998,1.2618026,2.5158374,-0.0054190727,-0.028339924,-0.025921956,-0.0015036026,0.011172913,0.01888251,0.008887434,-0.015998704,-0.021393545,0.00016789342,0.20064285,0.19886208,0.19865346,0.20030361,0.20153792,0
21828000,21676000,2.6295974,3.539184,-2.5137162,-1.2563725,0.0037725172,1.2618649,2.5159001,-0.0054190727,-0.028339924,-0.025921956,-0.0015036026,0.011172913,0.01888251,0.008887434,-0.015998704,-0.021393545,0.00016789342,0.20064285,0.19886208,0.19865346,0.20030361,0.20153792,0
21836000,21684000,2.6295974,3.539184,-2.5136962,-1.2563523,0.0037925628,1.2618852,2.51592,-0.0054190727,-0.028339924,-0.025921956,-0.0015036026,0.011172913,0.01888251,0.008887434,-0.015998704,-0.021393545,0.00016789342,0.20064285,0.19886208,0.19865346,0.20030361,0.20153792,0
21844000,21692000,2.6295974,3.539184,-2.51372,-1.256376,0.0037687789,1.2618613,2.515896,-0.0054190727,-0.028339924,-0.025921956,-0.0015036026,0.011172913,0.01888251,0.008887434,-0.015998704,-0.021393545,0.00016789342,0.20064285,0.19886208,0.19865346,0.20030361,0.20153792,0
21852000,21700000,2.6295974,3.539184,-2.5137436,-1.2563999,0.003745029,1.2618374,2.5158725,-0.0054190727,-0.028339924,-0.025921956,-0.0015036026,0.011172913,0.01888251,0.008887434,-0.015998704,-0.021393545,0.00016789342,0.20064285,0.19886208,0.19865346,0.20030361,0.20153792,0
21860000,21708000,2.6295974,3.539184,-2.5137239,-1.2563798,0.003764981,1.2618573,2.5158925,-0.0054190727,-0.028339924,-0.025921956,-0.0015036026,0.011172913,0.01888251,0.008887434,-0.015998704,-0.021393545,0.00016789342,0.20064285,0.19886208,0.19865346,0.20030361,0.20153792,0
21868000,21716000,-2.6975908,3.552318,-2.5117092,-1.2582504,0.0006213614,1.2618157,2.5190308,0.008182579,-0.009857237,-0.0046675955,0.016564038,0.024441728,0.007451713,-0.0038102758,-0.024476094,-0.025871895,-0.006170328,0.20201078,0.20025821,0.19815563,0.19859748,0.20097797,0
21876000,21724000,-2.6975908,3.552318,-2.5116806,-1.258222,0.0006497828,1.2618443,2.519059,0.008182579,-0.009857237,-0.0046675955,0.016564038,0.024441728,0.007451713,-0.0038102758,-0.024476094,-0.025871895,-0.006170328,0.20201078,0.20025821,0.19815563,0.19859748,0.20097797,0
21884000,21732000,-2.6975908,3.552318,-2.5117278,-1.2582691,0.000602688,1.2617971,2.5190117,0.008182579,-0.009857237,-0.0046675955,0.016564038,0.024441728,0.007451713,-0.0038102758,-0.024476094,-0.025871895,-0.006170328,0.20201078,0.20025821,0.19815563,0.19859748,0.20097797,0
21892000,21740000,-2.6975908,3.552318,-2.5117986,-1.2583398,0.0005320249,1.2617264,2.5189412,0.008182579,-0.009857237,-0.0046675955,0.016564038,0.024441728,0.007451713,-0.0038102758,-0.024476094,-0.025871895,-0.006170328,0.20201078,0.20025821,0.19815563,0.19859748,0.20097797,0
21900000,21748000,-2.6975908,3.552318,-2.511707,-1.2582483,0.00062332675,1.2618177,2.5190325,0.008182579,-0.009857237,-0.0046675955,0.016564038,0.024441728,0.007451713,-0.0038102758,-0.024476094,-0.025871895,-0.006170328,0.20201078,0.20025821,0.19815563,0.19859748,0.20097797,0
21908000,21756000,-2.6975908,3.552318,-2.5116203,-1.2581613,0.000710374,1.2619047,2.5191197,0.008182579,-0.009857237,-0.0046675955,0.016564038,0.024441728,0.007451713,-0.0038102758,-0.024476094,-0.025871895,-0.006170328,0.20201078,0.20025821,0.19815563,0.19859748,0.20097797,0
21916000,21764000,-2.6975908,3.552318,-2.5115895,-1.2581308,0.0007410469,1.2619352,2.5191503,0.008182579,-0.009857237,-0.0046675955,0.016564038,0.024441728,0.007451713,-0.0038102758,-0.024476094,-0.025871895,-0.006170328,0.20201078,0.20025821,0.19815563,0.19859748,0.20097797,0
21924000,21772000,-2.6975908,3.552318,-2.5116568,-1.2581979,0.00067380664,1.2618679,2.519083,0.008182579,-0.009857237,-0.0046675955,0.016564038,0.024441728,0.007451713,-0.0038102758,-0.024476094,-0.025871895,-0.006170328,0.20201078,0.20025821,0.19815563,0.19859748,0.20097797,0
21932000,21780000,-2.6975908,3.552318,-2.5116239,-1.2581652,0.0007066305,1.2619008,2.519116,0.008182579,-0.009857237,-0.0046675955,0.016564038,0.024441728,0.007451713,-0.0038102758,-0.024476094,-0.025871895,-0.006170328,0.20201078,0.20025821,0.19815563,0.19859748,0.20097797,0
21940000,21788000,-2.6975908,3.552318,-2.5115848,-1.258126,0.0007457432,1.2619398,2.519155,0.008182579,-0.009857237,-0.0046675955,0.016564038,0.024441728,0.007451713,-0.0038102758,-0.024476094,-0.025871895,-0.006170328,0.20201078,0.20025821,0.19815563,0.19859748,0.20097797,0
21948000,21796000,-2.6975908,3.552318,-2.5116758,-1.258217,0.0006548407,1.2618492,2.5190642,0.008182579,-0.009857237,-0.0046675955,0.016564038,0.024441728,0.007451713,-0.0038102758,-0.024476094,-0.025871895,-0.006170328,0.20201078,0.20025821,0.19815563,0.19859748,0.20097797,0
21956000,21804000,-2.6975908,3.552318,-2.511743,-1.2582844,0.000587386,1.2617815,2.5189967,0.008182579,-0.009857237,-0.0046675955,0.016564038,0.024441728,0.007451713,-0.0038102758,-0.024476094,-0.025871895,-0.006170328,0.20201078,0.20025821,0.19815563,0.19859748,0.20097797,0
21964000,21812000,-2.6975908,3.552318,-2.5117245,-1.2582654,0.00060627365,1.2618005,2.5190156,0.008182579,-0.009857237,-0.0046675955,0.016564038,0.024441728,0.007451713,-0.0038102758,-0.024476094,-0.025871895,-0.006170328,0.20201078,0.20025821,0.19815563,0.19859748,0.20097797,0
21972000,21820000,-2.6975908,3.552318,-2.5117257,-1.2582669,0.0006049368,1.261799,2.5190144,0.008182579,-0.009857237,-0.0046675955,0.016564038,0.024441728,0.007451713,-0.0038102758,-0.024476094,-0.025871895,-0.006170328,0.20201078,0.20025821,0.19815563,0.19859748,0.20097797,0
