timestamp,timestamp_sample,time_last_fuse,device_id,observation,observation_variance,innovation,innovation_filtered,innovation_variance,test_ratio,test_ratio_filtered,estimator_instance,innovation_rejected,fused
3900000,3744000,0,0,0.00021362305,12.25,3.0610972e-06,3.0610972e-06,112.53226,3.330713e-15,3.330713e-15,0,0,0
3972000,3816000,0,0,0.042663574,12.25,-0.042276245,-0.0053188093,112.82604,6.3364126e-07,-7.975903e-08,0,0,0
4044000,3888000,0,0,-0.033233643,12.25,0.0338094,-0.00039358018,113.22354,4.0382966e-07,-1.8887732e-08,0,0,0
4116000,3960000,0,0,0.03778076,12.25,-0.03721555,-0.005028513,62.663548,8.840847e-07,-1.2779364e-07,0,0,0
4188000,4032000,0,0,-0.0078125,12.25,0.008774868,-0.0032910244,63.007065,4.8882335e-08,-1.0555471e-07,0,0,0
4260000,4104000,0,0,0.018676758,12.25,-0.017457373,-0.005074201,63.453705,1.921148e-07,-1.1645039e-07,0,0,0
4332000,4176000,0,0,-0.02545166,12.25,0.026535269,-0.0010953872,46.414917,6.068054e-07,-2.5411204e-08,0,0,0
4404000,4248000,0,0,0.09814453,12.25,-0.09864984,-0.0133749675,45.583576,8.539734e-06,-1.097144e-06,0,0,0
4476000,4320000,0,0,-0.012939453,12.25,0.012640933,-0.010100239,45.583538,1.4022007e-07,-9.4139193e-07,0,0,0
4548000,4392000,0,0,-0.028137207,12.25,0.028247153,-0.0052732946,37.25008,8.568053e-07,-7.150454e-07,0,0,0
4620000,4464000,0,0,-0.033203125,12.25,0.033919945,-0.00033988012,37.250027,1.2355026e-06,-4.695219e-07,0,0,0
4692000,4536000,0,0,-0.07217407,12.25,0.0727537,0.008860709,37.250027,5.683862e-06,3.050299e-07,0,0,0
4764000,4606666,0,0,-0.048187256,12.25,0.04857611,0.013778698,32.25002,2.9266816e-06,6.29671e-07,0,0,0
4836000,4680000,0,0,0.12133789,12.25,-0.121064045,-0.0034687668,32.25002,1.8178596e-05,-1.7760567e-06,0,0,0
4908000,4752000,0,0,-488.18643,12.25,0.0854187,0.007719865,13.25,2.202673e-05,1.220098e-06,0,0,0
4980000,4824000,0,0,-488.12296,12.25,0.021942139,0.009510081,13.250002,1.4534562e-06,1.2494718e-06,0,0,0
5052000,4896000,0,0,-488.07007,12.25,-0.030944824,0.0044178558,13.250009,2.890812e-06,7.283172e-07,0,0,0
5124000,4968000,0,0,-488.10693,12.25,0.00592041,0.0046069883,13.25002,1.05814955e-07,6.4996027e-07,0,0,0
5196000,5040000,0,0,-488.05997,12.25,-0.041137695,-0.0011510835,13.250038,5.108846e-06,-7.49244e-08,0,0,0
5268000,5112000,0,0,-488.09048,12.25,-0.011688232,-0.0024774377,12.750018,4.2859477e-07,-1.1944235e-07,0,0,0
5340000,5184000,5188000,0,-488.16092,12.25,0.05847168,0.0051944787,12.750043,1.0726042e-05,1.2457234e-06,0,0,0
5412000,5254666,5260000,0,-488.03796,12.251217,-0.06466675,-0.0034564892,12.751298,1.3118e-05,-5.329473e-07,0,0,1
5484000,5328000,5332000,0,-488.15533,12.252434,0.055236816,0.0040508537,12.732958,9.584908e-06,7.612073e-07,0,0,1
5556000,5400000,5404000,0,-488.099,12.25365,-0.0032348633,0.0031337705,12.716115,3.2916788e-08,6.612476e-07,0,0,1
5628000,5472000,5476000,0,-488.11307,12.254866,0.010772705,0.0040953145,12.700597,3.6549832e-07,6.2402046e-07,0,0,1
5700000,5542666,5548000,0,-488.05673,12.256081,-0.045532227,-0.0020501013,12.556897,6.6041275e-06,-2.7104653e-07,0,0,1
5772000,5614666,5620000,0,-488.0755,12.257295,-0.026031494,-0.005068738,12.551018,2.1596295e-06,-5.0877026e-07,0,0,1
5844000,5688000,5692000,0,-488.16476,12.258507,0.063568115,0.0037104636,12.545473,1.2884027e-05,1.2042756e-06,0,0,1
5916000,5760000,5764000,0,-488.05203,12.259718,-0.050994873,-0.0031755222,12.540293,8.294789e-06,8.589154e-09,0,0,1
5988000,5832000,5836000,0,-488.15067,12.260927,0.048309326,0.0033050878,12.535437,7.447019e-06,9.448949e-07,0,0,1
6060000,5902666,5908000,0,-488.12244,12.262135,0.01852417,0.005189678,12.53079,1.0953655e-06,9.635278e-07,0,0,1
6116000,5964000,5964000,0,-488.08017,12.263069,-0.023345947,0.0020717415,12.471405,1.7481053e-06,6.6724203e-07,0,0,1
6180000,6024000,6028000,0,-488.02386,12.264137,-0.07998657,-0.00672022,12.46922,2.0523663e-05,-1.6032119e-06,0,0,1
6252000,6096000,6100000,0,-488.07092,12.265338,-0.032440186,-0.009957698,12.467352,3.3763886e-06,-1.826409e-06,0,0,1
6324000,6168000,6172000,0,-488.16486,12.266536,0.061187744,-0.0010023285,12.465638,1.2013633e-05,-8.430584e-08,0,0,1
6396000,6240000,6244000,0,-488.1131,12.267731,0.0075683594,7.64993e-05,12.464079,1.8382447e-07,-5.0555176e-08,0,0,1
6468000,6312000,6316000,0,-488.08963,12.268922,-0.017578125,-0.002145761,12.4626045,9.917364e-07,-1.6902554e-07,0,0,1
6540000,6384000,6388000,0,-488.12723,12.27011,0.019836426,0.00062122755,12.430717,1.2661659e-06,1.1627904e-08,0,0,1
6612000,6453333,6460000,0,-488.1225,12.271295,0.013580322,0.0021993776,12.430374,5.9346615e-07,8.248379e-08,0,0,1
6668000,6516000,6516000,0,-488.06143,12.272204,-0.048736572,-0.0034736104,12.42973,7.643781e-06,-7.7802844e-07,0,0,1
6732000,6576000,6580000,0,-488.12256,12.273247,0.011779785,-0.0018393181,12.429393,4.465651e-07,-6.46822e-07,0,0,1
6804000,6648000,6652000,0,-488.08496,12.27442,-0.02734375,-0.005049666,12.429388,2.4061703e-06,-8.6827845e-07,0,0,1
6876000,6720000,6724000,0,-488.0334,12.275589,-0.0765686,-0.014052048,12.408851,1.8898612e-05,-3.1378308e-06,0,0,1
6948000,6792000,6796000,0,-488.12274,12.276752,0.012237549,-0.010742868,12.409419,4.827224e-07,-2.682097e-06,0,0,1
7020000,6864000,6868000,0,-488.08984,12.277912,-0.022155762,-0.012179457,12.410107,1.5821872e-06,-2.5436468e-06,0,0,1
7092000,6936000,6940000,0,-488.1885,12.279066,0.07537842,-0.0011581862,12.410917,1.8312607e-05,8.161578e-08,0,0,1
7164000,7008000,7012000,0,-488.07562,12.280214,-0.03967285,-0.006006186,12.411855,5.072361e-06,-5.671365e-07,0,0,1
7236000,7080000,7084000,0,-488.0804,12.281358,-0.035827637,-0.009759935,12.412925,4.136397e-06,-1.016414e-06,0,0,1
7308000,7149333,7156000,0,-488.14154,12.2824955,0.027832031,-0.0051820097,12.398512,2.4990804e-06,-5.882994e-07,0,0,1
7380000,7222666,7228000,0,-488.118,12.283627,0.0026550293,-0.0041796016,12.399921,2.2739435e-08,-5.1014354e-07,0,0,1
7436000,7284000,7284000,0,-488.06638,12.284482,-0.049865723,-0.009171482,12.4008465,8.020712e-06,-1.3307836e-06,0,0,1
7500000,7344000,7348000,0,-488.0618,12.285468,-0.05496216,-0.014077626,12.402179,9.742929e-06,-2.2320849e-06,0,0,1
7572000,7414666,7420000,0,-488.08072,12.286583,-0.036621094,-0.0168692,12.403964,4.324761e-06,-2.4912224e-06,0,0,1
7644000,7488000,7492000,0,-488.09494,12.287692,-0.0234375,-0.017709339,12.405899,1.7711459e-06,-2.3991188e-06,0,0,1
7716000,7558666,7564000,0,-488.0762,12.2887945,-0.03994751,-0.020463109,12.394602,5.149995e-06,-2.7397618e-06,0,0,1
7788000,7632000,7636000,0,-488.04816,12.289889,-0.0687561,-0.02664017,12.396729,1.5253706e-05,-4.340395e-06,0,0,1
7860000,7701333,7708000,0,-488.1141,12.290978,-0.0033569336,-0.023804752,12.399013,3.6354518e-08,-3.816252e-06,0,0,1
7916000,7764000,7764000,0,-488.0578,12.291789,-0.060699463,-0.027913898,12.400653,1.1884616e-05,-4.7148656e-06,0,0,1
7980000,7822666,7828000,0,-488.09558,12.292729,-0.023620605,-0.027463056,12.4028015,1.7993774e-06,-4.408708e-06,0,0,1
8036000,7884000,7884000,0,-488.05807,12.293529,-0.0619812,-0.03123467,12.404643,1.2387843e-05,-5.280546e-06,0,0,1
8100000,7942666,7948000,0,-488.1475,12.294457,0.031555176,-0.024641056,12.3943405,3.213496e-06,-4.388579e-06,0,0,1
8164000,8012000,8012000,0,-488.138,12.29538,0.020843506,-0.019101907,12.396649,1.401836e-06,-3.6834172e-06,0,0,1
8228000,8074000,8076000,0,-488.03464,12.296295,-0.083496094,-0.026205892,12.399084,2.2490685e-05,-5.75824e-06,0,0,1
8292000,8133333,8140000,0,-488.18048,12.297204,0.06222534,-0.016825274,12.401649,1.2488639e-05,-3.8226453e-06,0,0,1
8348000,8196000,8196000,0,-488.10516,12.297971,-0.014465332,-0.016562436,12.403866,6.747762e-07,-3.4720517e-06,0,0,1
8412000,8253333,8260000,0,-488.12866,12.298867,0.008361816,-0.013998471,12.40668,2.2542687e-07,-3.091691e-06,0,0,1
8468000,8316000,8316000,0,-488.03943,12.299621,-0.07550049,-0.020848254,12.396222,1.8393745e-05,-4.795956e-06,0,0,1
8532000,8373333,8380000,0,-488.11484,12.300504,-0.00021362305,-0.018725563,12.39896,1.472214e-10,-4.30261e-06,0,0,1
8588000,8436000,8436000,0,-488.08667,12.301245,-0.029022217,-0.019872352,12.401337,2.7167687e-06,-4.125987e-06,0,0,1
8652000,8494666,8500000,0,-488.15723,12.3021145,0.041168213,-0.01346243,12.404321,5.4652623e-06,-3.1188015e-06,0,0,1
8708000,8556000,8556000,0,-488.17114,12.302842,0.054229736,-0.006066065,12.406905,9.481379e-06,-1.7420465e-06,0,0,1
8772000,8616000,8620000,0,-488.0817,12.303699,-0.03640747,-0.00931693,12.410141,4.272325e-06,-2.0131477e-06,0,0,1
8844000,8685333,8692000,0,-488.1288,12.304683,0.010040283,-0.006959621,12.414094,3.248156e-07,-1.728432e-06,0,0,1
8900000,8748000,8748000,0,-488.27432,12.305388,0.15673828,0.011272222,12.402945,7.922921e-05,7.2882203e-06,0,0,1
8964000,8808000,8812000,0,-488.0905,12.306223,-0.029266357,0.006928803,12.406156,2.7615956e-06,6.211454e-06,0,0,1
9036000,8878666,8884000,0,-488.14697,12.307184,0.026519775,0.009354767,12.410063,2.2668653e-06,5.7229927e-06,0,0,1
9108000,8952000,8956000,0,-488.13278,12.308138,0.011230469,0.0095946845,12.414146,4.0638614e-07,5.042956e-06,0,0,1
9180000,9024000,9028000,0,-488.12802,12.309082,0.0055236816,0.00908225,12.418408,9.827688e-08,4.420549e-06,0,0,1
9252000,9094666,9100000,0,-488.04816,12.310018,-0.07522583,-0.001357683,12.422851,1.822102e-05,1.6168265e-06,0,0,1
9308000,9156000,9156000,0,-488.16122,12.310675,0.048095703,0.004045827,12.410504,7.455609e-06,2.2547993e-06,0,0,1
9372000,9216000,9220000,0,-488.03424,12.31146,-0.0796814,-0.004924947,12.414045,2.0457876e-05,-1.7870138e-07,0,0,1
9444000,9286666,9292000,0,-488.13324,12.312372,0.019714355,-0.0018738436,12.418331,1.2518777e-06,-1.5516974e-09,0,0,1
9516000,9357333,9364000,0,-488.12842,12.313275,0.014434814,0.0001456947,12.422786,6.7090866e-07,8.17206e-08,0,0,1
9588000,9430666,9436000,0,-488.12366,12.31417,0.009216309,0.001305885,12.427411,2.7339675e-07,1.0623722e-07,0,0,1
9644000,9490000,9492000,0,-488.2222,12.314785,0.107421875,0.012562641,12.430813,3.713179e-05,4.033898e-06,0,0,1
9708000,9552000,9556000,0,-488.12305,12.315529,0.0070495605,0.011954436,12.417892,1.6007967e-07,3.6065376e-06,0,0,1
9780000,9624000,9628000,0,-488.08545,12.3164,-0.030883789,0.0065622125,12.422277,3.0712836e-06,2.7659728e-06,0,0,1
9852000,9696000,9700000,0,-488.0856,12.317262,-0.030853271,0.0018525715,12.426822,3.064096e-06,2.0321181e-06,0,0,1
9924000,9766666,9772000,0,-488.09518,12.318114,-0.02154541,-0.0010448182,12.431524,1.4936372e-06,1.5955212e-06,0,0,1
9996000,9840000,9844000,0,-488.06714,12.318958,-0.049957275,-0.0073011126,12.436384,8.027187e-06,3.6469999e-07,0,0,1
10068000,9909333,9916000,0,-488.15192,12.319793,0.037628174,-0.0018296535,12.423197,4.558825e-06,8.754578e-07,0,0,1
10140000,9982666,9988000,0,-488.0531,12.320617,-0.062042236,-0.0095312325,12.4276495,1.2389275e-05,-8.211874e-07,0,0,1
10212000,10054666,10060000,0,-488.06284,12.321433,-0.05227661,-0.014911769,12.432251,8.792757e-06,-1.8246018e-06,0,0,1
10284000,10126666,10132000,0,-488.03967,12.322239,-0.075531006,-0.022542162,12.4369955,1.8348266e-05,-3.9045035e-06,0,0,1
10356000,10197333,10204000,0,-488.07767,12.323036,-0.037384033,-0.024380066,12.441883,4.4931007e-06,-3.977391e-06,0,0,1
10428000,10272000,10276000,0,-488.12015,12.323824,0.0050354004,-0.020558087,12.446911,8.1482895e-08,-3.4500176e-06,0,0,1
10500000,10344000,10348000,0,-488.0309,12.324603,-0.081451416,-0.028222982,12.43237,2.1345351e-05,-5.7025773e-06,0,0,1
10572000,10414666,10420000,0,-488.1206,12.325373,0.008453369,-0.023681322,12.436948,2.2982954e-07,-4.967963e-06,0,0,1
10644000,10486666,10492000,0,-488.13464,12.326132,0.021972656,-0.017934669,12.441654,1.5521975e-06,-4.1472435e-06,0,0,1
10716000,10560000,10564000,0,-488.12042,12.326883,0.0071411133,-0.014727276,12.446492,1.6388714e-07,-3.5958155e-06,0,0,1
10788000,10632000,10636000,0,-488.0875,12.327625,-0.026123047,-0.016161708,12.451454,2.1922374e-06,-3.4191414e-06,0,0,1
10860000,10704000,10708000,0,-488.11115,12.328358,-0.0015258789,-0.014319436,12.449454,7.48083e-09,-2.9897017e-06,0,0,1
10932000,10774666,10780000,0,-488.11115,12.329082,0.00033569336,-0.01250468,12.440869,3.6232206e-10,-2.6194398e-06,0,0,1
11004000,10848000,10852000,0,-488.12524,12.329796,0.013916016,-0.0091252625,12.445481,6.2241224e-07,-2.204781e-06,0,0,1
11076000,10918666,10924000,0,-488.0782,12.330501,-0.03390503,-0.01219376,12.450209,3.6932747e-06,-2.3891023e-06,0,0,1
11148000,10992000,10996000,0,-488.15823,12.331197,0.04611206,-0.0047359793,12.455048,6.8287886e-06,-1.2100604e-06,0,0,1
11220000,11064000,11068000,0,-488.04993,12.331884,-0.06304932,-0.012076119,12.459995,1.2761534e-05,-2.6640919e-06,0,0,1
11292000,11134666,11140000,0,-488.06445,12.332563,-0.042053223,-0.015788207,12.444048,5.68456e-06,-3.0381188e-06,0,0,1
11364000,11206666,11212000,0,-488.0929,12.333232,-0.013519287,-0.015502608,12.448522,5.872862e-07,-2.7296223e-06,0,0,1
11420000,11266000,11268000,0,-488.05542,12.333622,-0.051086426,-0.01927733,12.451702,8.383828e-06,-3.3294189e-06,0,0,1
11484000,11326666,11332000,0,-488.17313,12.334142,0.06686401,-0.00995654,12.455638,1.4357502e-05,-1.415633e-06,0,0,1
11540000,11388000,11388000,0,-488.20084,12.33452,0.09371948,0.0013715904,12.458912,2.8199383e-05,1.8202431e-06,0,0,1
11604000,11448000,11452000,0,-488.0735,12.335029,-0.03503418,-0.0025290279,12.46297,3.93933e-06,1.2031461e-06,0,0,1
11676000,11520000,11524000,0,-488.0596,12.335665,-0.04510498,-0.007888239,12.447014,6.537983e-06,2.2873826e-07,0,0,1
11748000,11592000,11596000,0,-488.1961,12.336292,0.09152222,0.0046249647,12.451347,2.6908947e-05,3.5870862e-06,0,0,1
11820000,11662666,11668000,0,-488.00766,12.336911,-0.09832764,-0.008123733,12.455773,3.104849e-05,-7.018634e-07,0,0,1
11892000,11734666,11740000,0,-488.09753,12.337522,-0.008056641,-0.008115288,12.460287,2.0837227e-07,-6.397457e-07,0,0,1
11964000,11805333,11812000,0,-488.0929,12.338123,-0.013153076,-0.008739129,12.464886,5.551705e-07,-6.2927256e-07,0,0,1
12036000,11880000,11884000,0,-488.02725,12.338717,-0.07922363,-0.017897245,12.469567,2.0133444e-05,-3.1634672e-06,0,0,1
12108000,11952000,11956000,0,-488.11703,12.339303,0.014404297,-0.0138313165,12.4531765,6.6644446e-07,-2.6813805e-06,0,0,1
12180000,12022666,12028000,0,-488.07935,12.339879,-0.02368164,-0.015051089,12.457415,1.8007593e-06,-2.5723325e-06,0,0,1
12252000,12096000,12100000,0,-488.1265,12.340447,0.023406982,-0.010131994,12.461732,1.7586217e-06,-2.0183688e-06,0,0,1
12324000,12165333,12172000,0,-488.1169,12.341007,0.01071167,-0.007593666,12.44802,3.687008e-07,-1.7276731e-06,0,0,1
12396000,12240000,12244000,0,-488.14502,12.341559,0.03817749,-0.0016465788,12.451972,4.6820564e-06,-8.9485115e-07,0,0,1
12468000,12310666,12316000,0,-488.10248,12.342103,-0.005432129,-0.0021153463,12.456,9.475923e-08,-7.957752e-07,0,0,1
12540000,12384000,12388000,0,-488.07437,12.342638,-0.034301758,-0.006232246,12.460103,3.77721e-06,-1.1771245e-06,0,0,1
12612000,12456000,12460000,0,-488.06992,12.343166,-0.039520264,-0.010422345,12.464278,5.0122476e-06,-1.6598673e-06,0,0,1
12684000,12528000,12532000,0,-488.15472,12.343687,0.04748535,-0.0031332648,12.450433,7.2442735e-06,-5.390665e-07,0,0,1
12756000,12598666,12604000,0,-488.1262,12.344198,0.017608643,-0.0005647789,12.454247,9.958507e-07,-3.4899654e-07,0,0,1
12828000,12670666,12676000,0,-488.13547,12.344703,0.025634766,0.0027330655,12.458133,2.1099188e-06,-3.9482728e-08,0,0,1
12900000,12741333,12748000,0,-488.0836,12.3452,-0.02758789,-0.0010216474,12.462086,2.442903e-06,-3.3710373e-07,0,0,1
12956000,12804000,12804000,0,-488.22467,12.345419,0.112854004,0.011661245,12.464789,4.087041e-05,4.25238e-06,0,0,1
13020000,12862666,12868000,0,-488.06418,12.34577,-0.04989624,0.0051970393,12.468184,7.987161e-06,2.9670955e-06,0,0,1
13092000,12934666,12940000,0,-488.15378,12.3462515,0.043518066,0.010020664,12.454125,6.082553e-06,3.359251e-06,0,0,1
13164000,13006666,13012000,0,-488.144,12.3467245,0.032287598,0.012823494,12.457833,3.347256e-06,3.3577412e-06,0,0,1
13236000,13077333,13084000,0,-488.16257,12.34719,0.049438477,0.01735761,12.461603,7.84542e-06,3.9134607e-06,0,0,1
13308000,13152000,13156000,0,-488.07767,12.347649,-0.03717041,0.010272736,12.465434,4.4335056e-06,2.8289319e-06,0,0,1
13380000,13224000,13228000,0,-488.10614,12.348101,-0.009490967,0.007784997,12.469323,2.8896017e-07,2.43647e-06,0,0,1
13452000,13294666,13300000,0,-488.10623,12.348546,-0.010498047,0.005520994,12.473267,3.534246e-07,2.0909952e-06,0,0,1
13524000,13366666,13372000,0,-488.15323,12.348984,0.035491943,0.009293561,12.458905,4.0442656e-06,2.3368614e-06,0,0,1
13596000,13438666,13444000,0,-488.1342,12.349414,0.014801025,0.0099868085,12.462515,7.031337e-07,2.1312173e-06,0,0,1
13652000,13498000,13500000,0,-488.20447,12.349567,0.08389282,0.01782674,12.464948,2.258495e-05,4.300944e-06,0,0,1
13716000,13558666,13564000,0,-488.0207,12.3498535,-0.101867676,0.0048753917,12.468027,3.3291628e-05,2.3329812e-07,0,0,1
13788000,13629333,13636000,0,-488.06848,12.350271,-0.05444336,-0.0024701846,12.471779,9.506517e-06,-9.728054e-07,0,0,1
13844000,13692000,13692000,0,-488.01257,12.350411,-0.110687256,-0.014522852,12.4742775,3.9286184e-05,-5.239955e-06,0,0,1
13908000,13752000,13756000,0,-488.12616,12.350684,0.0073547363,-0.012178825,12.459558,1.7365672e-07,-4.6599253e-06,0,0,1
13980000,13824000,13828000,0,-488.1214,12.351088,0.0014343262,-0.010465282,12.463023,6.602865e-09,-4.07253e-06,0,0,1
14052000,13894666,13900000,0,-488.1026,12.351484,-0.018463135,-0.011455663,12.46654,1.0937673e-06,-3.7036675e-06,0,0,1
14124000,13966666,13972000,0,-488.17316,12.351875,0.05117798,-0.0035717087,12.470106,8.4014855e-06,-2.1799422e-06,0,0,1
14196000,14040000,14044000,0,-488.15396,12.35226,0.030395508,0.0007729698,12.473719,2.9626672e-06,-1.5221613e-06,0,0,1
14268000,14112000,14116000,0,-488.15372,12.352638,0.03540039,0.005131666,12.47274,4.018965e-06,-8.2467693e-07,0,0,1
14340000,14184000,14188000,0,-488.16754,12.35301,0.049926758,0.010770209,12.463173,8.00015e-06,2.8614033e-07,0,0,1
14412000,14254666,14260000,0,-488.0685,12.353375,-0.050628662,0.0031671408,12.46653,8.224459e-06,-7.677336e-07,0,0,1
14468000,14316000,14316000,0,-488.13467,12.353465,0.015136719,0.0044749933,12.468746,7.350226e-07,-6.0353534e-07,0,0,1
14532000,14373333,14380000,0,-488.1721,12.353688,0.051452637,0.009307597,12.4715805,8.490901e-06,3.3201178e-07,0,0,1
14604000,14448000,14452000,0,-488.059,12.354043,-0.063201904,-0.00011362694,12.475055,1.2807898e-05,-1.3752685e-06,0,0,1
14676000,14520000,14524000,0,-488.0642,12.354392,-0.055847168,-0.007129037,12.461411,1.0011406e-05,-2.4623346e-06,0,0,1
14748000,14592000,14596000,0,-488.10223,12.354733,-0.0178833,-0.008482721,12.464601,1.0263062e-06,-2.2815757e-06,0,0,1
14820000,14662666,14668000,0,-487.95215,12.355071,-0.16836548,-0.028281122,12.467834,9.094421e-05,-1.32607365e-05,0,0,1
14892000,14736000,14740000,0,-487.98645,12.355402,-0.13308716,-0.041686654,12.47111,5.6810306e-05,-1.8831073e-05,0,0,1
14964000,14808000,14812000,0,-488.08145,12.355728,-0.03741455,-0.04114891,12.474427,4.4886983e-06,-1.7025739e-05,0,0,1
15036000,14880000,14884000,0,-488.02542,12.356049,-0.09362793,-0.04775466,12.477783,2.8101753e-05,-1.8419922e-05,0,0,1
15108000,14950666,14956000,0,-488.15768,12.356364,0.04168701,-0.03667903,12.464198,5.5769556e-06,-1.544837e-05,0,0,1
15180000,15024000,15028000,0,-488.11978,12.356673,0.0031433105,-0.031585433,12.467285,3.170025e-08,-1.3468345e-05,0,0,1
15252000,15094666,15100000,0,-488.15262,12.356977,0.03567505,-0.023256518,12.470414,4.0823315e-06,-1.1295032e-05,0,0,1
15324000,15166666,15172000,0,-488.12885,12.357276,0.012054443,-0.018811781,12.458884,4.6652525e-07,-9.8145565e-06,0,0,1
15396000,15240000,15244000,0,-488.1522,12.35757,0.034606934,-0.0119791,12.461787,3.8441995e-06,-8.067493e-06,0,0,1
15468000,15310666,15316000,0,-488.10025,12.357858,-0.01828003,-0.012759349,12.464731,1.0723359e-06,-7.201277e-06,0,0,1
15540000,15382666,15388000,0,-488.1192,12.358141,0.0,-0.011153277,12.467716,0.0,-6.294823e-06,0,0,1
15612000,15456000,15460000,0,-488.1333,12.35842,0.0132751465,-0.008028686,12.47074,5.652576e-07,-5.417364e-06,0,0,1
15684000,15528000,15532000,0,-488.14255,12.358694,0.021850586,-0.004267659,12.459267,1.532829e-06,-4.5425145e-06,0,0,1
15756000,15598666,15604000,0,-488.133,12.358963,0.011474609,-0.0023182821,12.4620695,4.2261573e-07,-3.927679e-06,0,0,1
15828000,15672000,15676000,0,-488.05774,12.359227,-0.06442261,-0.010261921,12.464912,1.3318257e-05,-5.128809e-06,0,0,1
15900000,15742666,15748000,0,-488.16632,12.359487,0.044158936,-0.0035229456,12.467793,6.2561567e-06,-3.719e-06,0,0,1
15972000,15816000,15820000,0,-488.12366,12.359742,0.0005493164,-0.0030020708,12.470714,9.678628e-10,-3.2431863e-06,0,0,1
16044000,15886666,15892000,0,-488.22226,12.359993,0.098602295,0.009579674,12.473669,3.1177395e-05,1.0191402e-06,0,0,1
16100000,15948000,15948000,0,-488.1932,12.359969,0.06997681,0.01617895,12.46106,1.5718579e-05,2.62527e-06,0,0,1
16164000,16006666,16012000,0,-488.094,12.360081,-0.030303955,0.01129774,12.463286,2.9473115e-06,2.0400885e-06,0,0,1
16220000,16068000,16068000,0,-488.0567,12.360055,-0.06777954,0.0026573837,12.465025,1.4742262e-05,2.0637003e-07,0,0,1
16284000,16128000,16132000,0,-488.02914,12.360165,-0.09515381,-0.007822386,12.467301,2.9049583e-05,-2.9281962e-06,0,0,1
16356000,16197333,16204000,0,-488.12387,12.360408,0.00012207031,-0.006854915,12.470133,4.7797922e-11,-2.5715965e-06,0,0,1
16428000,16272000,16276000,0,-488.14734,12.360647,0.02319336,-0.0029507158,12.473,1.7251085e-06,-2.0133218e-06,0,0,1
16500000,16344000,16348000,0,-488.15652,12.360882,0.036193848,0.0019765715,12.461626,4.2048914e-06,-1.2306098e-06,0,0,1
16572000,16414666,16420000,0,-488.10458,12.361113,-0.01663208,-0.00032775174,12.464289,8.877397e-07,-1.1881519e-06,0,0,1
16628000,16476000,16476000,0,-488.2315,12.361069,0.109954834,0.011722242,12.465968,3.8793827e-05,3.1804675e-06,0,0,1
16692000,16536000,16540000,0,-488.08496,12.36116,-0.037963867,0.006398731,12.468179,4.6237874e-06,2.3442974e-06,0,0,1
16764000,16608000,16612000,0,-488.13696,12.361386,0.013977051,0.007352645,12.470938,6.266023e-07,2.1280841e-06,0,0,1
16836000,16680000,16684000,0,-488.04764,12.361608,-0.07601929,-0.003141723,12.473729,1.853153e-05,-4.7242656e-07,0,0,1
16908000,16752000,16756000,0,-488.16568,12.361826,0.043701172,0.002754585,12.462456,6.1297465e-06,3.5861615e-07,0,0,1
16980000,16822666,16828000,0,-488.10425,12.36204,-0.01864624,0.00010450487,12.465052,1.1157026e-06,1.7605015e-07,0,0,1
17052000,16894666,16900000,0,-488.1373,12.362249,0.014099121,0.0018660648,12.467683,6.377615e-07,2.3416766e-07,0,0,1
17124000,16968000,16972000,0,-488.1465,12.362455,0.022918701,0.0045588654,12.470347,1.6848508e-06,4.1972163e-07,0,0,1
17196000,17040000,17044000,0,-488.1041,12.3626585,-0.019927979,0.0014766057,12.473046,1.273544e-06,2.0658331e-07,0,0,1
17268000,17112000,17116000,0,-488.22162,12.362858,0.09765625,0.013583133,12.4728775,3.058394e-05,4.0303057e-06,0,0,1
17340000,17184000,17188000,0,-488.1926,12.363053,0.070373535,0.020731576,12.46448,1.5892952e-05,5.523506e-06,0,0,1
17412000,17254666,17260000,0,-488.11682,12.363244,-0.0059509277,0.017427461,12.467022,1.136231e-07,4.825456e-06,0,0,1
17468000,17316000,17316000,0,-488.04645,12.363162,-0.07614136,0.0072036916,12.4685955,1.8598748e-05,2.2660172e-06,0,0,1
17532000,17376000,17380000,0,-488.07062,12.363216,-0.051086426,0.00095832255,12.47069,8.371062e-06,1.1263302e-06,0,0,1
17604000,17448000,17452000,0,-488.05228,12.363405,-0.068725586,-0.007813078,12.473321,1.51465865e-05,-9.22009e-07,0,0,1
17676000,17518666,17524000,0,-488.10458,12.363591,-0.015289307,-0.008738865,12.462397,7.502984e-07,-9.0074593e-07,0,0,1
17748000,17592000,17596000,0,-488.14694,12.363772,0.027526855,-0.00410019,12.464845,2.4315675e-06,-4.745164e-07,0,0,1
17820000,17661333,17668000,0,-488.1608,12.363951,0.04144287,0.0014460138,12.467326,5.5104406e-06,2.5432774e-07,0,0,1
17892000,17736000,17740000,0,-488.0947,12.364126,-0.024719238,-0.001953661,12.469841,1.9600593e-06,-3.338954e-08,0,0,1
17964000,17808000,17812000,0,-488.12778,12.364299,0.008850098,-0.00059374736,12.472388,2.511924e-07,2.4319604e-09,0,0,1
18036000,17880000,17884000,0,-488.17932,12.364468,0.060577393,0.007106116,12.474964,1.1766351e-05,1.483205e-06,0,0,1
18108000,17950666,17956000,0,-488.08017,12.3646345,-0.040985107,0.0011509433,12.464092,5.390779e-06,6.319944e-07,0,0,1
18180000,18022666,18028000,0,-488.0665,12.364797,-0.054138184,-0.0058085267,12.466495,9.404225e-06,-6.313059e-07,0,0,1
18252000,18093333,18100000,0,-488.12332,12.364957,0.0030822754,-0.0047075585,12.468931,3.04771e-08,-5.4935583e-07,0,0,1
18324000,18168000,18172000,0,-488.07166,12.365113,-0.04888916,-0.010448113,12.471397,7.666021e-06,-1.4740306e-06,0,0,1
18396000,18238666,18244000,0,-488.04865,12.365268,-0.071746826,-0.01803878,12.473895,1.6506816e-05,-3.3355516e-06,0,0,1
18468000,18310666,18316000,0,-488.05396,12.365419,-0.06335449,-0.023742855,12.473818,1.2871093e-05,-4.5358292e-06,0,0,1
18540000,18382666,18388000,0,-488.1391,12.365568,0.02319336,-0.017834801,12.465545,1.7261401e-06,-3.7476093e-06,0,0,1
18612000,18454666,18460000,0,-488.1389,12.365713,0.022705078,-0.01273188,12.467903,1.6539127e-06,-3.0676974e-06,0,0,1
18668000,18514000,18516000,0,-488.16684,12.365586,0.05041504,-0.0060332716,12.469331,8.153368e-06,-1.8773698e-06,0,0,1
18732000,18576000,18580000,0,-488.03958,12.365596,-0.07736206,-0.013902284,12.471258,1.919578e-05,-3.7879418e-06,0,0,1
18804000,18648000,18652000,0,-488.13422,12.365742,0.018035889,-0.009882094,12.473703,1.0431329e-06,-3.1798345e-06,0,0,1
18876000,18720000,18724000,0,-488.0636,12.365885,-0.051574707,-0.015130116,12.463207,8.536969e-06,-3.8541593e-06,0,0,1
18948000,18789333,18796000,0,-488.11105,12.366024,-0.003692627,-0.013737266,12.4654875,4.3754387e-08,-3.3901308e-06,0,0,1
19020000,18864000,18868000,0,-488.06882,12.36616,-0.045898438,-0.017915996,12.467799,6.758744e-06,-3.8278176e-06,0,0,1
19092000,18936000,18940000,0,-488.05515,12.366295,-0.0592041,-0.0231131,12.470142,1.1243257e-05,-4.7612293e-06,0,0,1
19164000,19008000,19012000,0,-488.0745,12.366427,-0.039367676,-0.02515913,12.472515,4.9703335e-06,-4.78755e-06,0,0,1
19236000,19078666,19084000,0,-488.08423,12.366557,-0.029083252,-0.025645057,12.474917,2.712116e-06,-4.5305474e-06,0,0,1
19308000,19152000,19156000,0,-488.2019,12.366685,0.09020996,-0.010826275,12.464467,2.6115316e-05,-6.106966e-07,0,0,1
19380000,19224000,19228000,0,-488.13535,12.36681,0.023132324,-0.0065517663,12.466713,1.7169062e-06,-3.1771162e-07,0,0,1
19452000,19296000,19300000,0,-488.17267,12.366932,0.060333252,0.0018673264,12.468988,1.1677295e-05,1.1921493e-06,0,0,1
19524000,19366666,19372000,0,-488.0876,12.367052,-0.025177002,-0.0014815929,12.471295,2.0330892e-06,7.927656e-07,0,0,1
19580000,19428000,19428000,0,-488.0268,12.3668995,-0.08554077,-0.010666294,12.472665,2.3466433e-05,-1.8579087e-06,0,0,1
19644000,19485333,19492000,0,-488.07455,12.366886,-0.0368042,-0.013355108,12.474538,4.3434047e-06,-2.1135925e-06,0,0,1
19700000,19546000,19548000,0,-488.14062,12.366736,0.030517578,-0.008607862,12.463374,2.9889902e-06,-1.5614672e-06,0,0,1
19764000,19608000,19612000,0,-488.09808,12.366725,-0.012207031,-0.009004923,12.465123,4.7817133e-07,-1.4419577e-06,0,0,1
19836000,19677333,19684000,0,-488.0888,12.366849,-0.021118164,-0.010480065,12.467354,1.430863e-06,-1.4406066e-06,0,0,1
19908000,19752000,19756000,0,-488.07492,12.36697,-0.0,-0.01360696,12.469614,3.828247e-06,-1.7508348e-06,0,0,1
19980000,19822666,19828000,0,-488.0424,12.36709,-0.0,-0.020220716,12.471904,1.4404295e-05,-3.3177223e-06,0,0,1
20036000,19884000,19884000,0,-488.16507,12.366937,0.055664062,-0.011929188,12.473258,9.936419e-06,-1.8695124e-06,0,0,1
20100000,19942666,19948000,0,-488.15515,12.366922,0.047973633,-0.005638741,12.4628,7.386685e-06,-8.975111e-07,0,0,1
20156000,20004000,20004000,0,-488.1125,12.366772,0.0047302246,-0.0045057787,12.464068,7.180649e-08,-7.915989e-07,0,0,1
20220000,20062666,20068000,0,-488.19223,12.366759,0.084198,0.0048090816,12.465806,2.2747998e-05,1.6803144e-06,0,0,1
20292000,20133333,20140000,0,-488.1257,12.366882,0.016723633,0.0062844874,12.468025,8.9727087e-07,1.5833483e-06,0,0,1
20364000,20206666,20212000,0,-488.02225,12.367003,-0.0,-0.0056401137,12.470274,2.4247616e-05,-1.7205992e-06,0,0,1
20436000,20277333,20284000,0,-488.16864,12.367123,0.059448242,0.0024199253,12.47255,1.1333988e-05,-1.0401993e-07,0,0,1
20508000,20352000,20356000,0,-488.10706,12.36724,-0.0,0.0017763926,12.462721,2.0592232e-08,-9.31801e-08,0,0,1
20580000,20421333,20428000,0,-488.12582,12.367353,0.015960693,0.0035037473,12.464855,8.174784e-07,1.7719302e-08,0,0,1
20652000,20494666,20500000,0,-488.0083,12.367465,-0.0,-0.00998565,12.467019,3.3354194e-05,-4.2507645e-06,0,0,1
20708000,20556000,20556000,0,-488.11725,12.367305,0.011047363,-0.007687484,12.457564,3.9187188e-07,-3.7434882e-06,0,0,1
20772000,20616000,20620000,0,-488.02792,12.367282,-0.0,-0.015286676,12.459175,1.9840954e-05,-5.468217e-06,0,0,1
20844000,20686666,20692000,0,-488.0381,12.367394,-0.0,-0.021904055,12.461242,1.516127e-05,-6.668515e-06,0,0,1
20916000,20758666,20764000,0,-488.01056,12.367506,-0.0,-0.031316373,12.46334,2.9998258e-05,-9.605126e-06,0,0,1
20988000,20830666,20836000,0,-488.1758,12.367615,0.06826782,-0.0187813,12.465467,1.49549005e-05,-6.5136546e-06,0,0,1
21060000,20904000,20908000,0,-488.16107,12.367722,0.052703857,-0.009637777,12.467625,8.911711e-06,-4.5406273e-06,0,0,1
21132000,20974666,20980000,0,-488.11362,12.367826,0.0019226074,-0.0082062455,12.458967,1.1867498e-08,-3.9768884e-06,0,0,1
21204000,21048000,21052000,0,-488.10892,12.367929,-0.0,-0.0075820764,12.461002,3.551895e-08,-3.4727557e-06,0,0,1
21276000,21117333,21124000,0,-488.09485,12.36803,-0.0,-0.0088328365,12.463067,1.0229323e-06,-3.1744178e-06,0,0,1
21348000,21192000,21196000,0,-488.05276,12.368129,-0.0,-0.015508471,12.465164,1.1633659e-05,-4.2735346e-06,0,0,1
21420000,21261333,21268000,0,-488.12845,12.368226,0.015197754,-0.011769087,12.46729,7.4104867e-07,-3.662862e-06,0,0,1
21476000,21322000,21324000,0,-488.0532,12.368052,-0.0,-0.0169084,12.457845,1.1277573e-05,-4.486812e-06,0,0,1
21540000,21382666,21388000,0,-488.0162,12.368014,-0.0,-0.025497,12.459421,2.9761923e-05,-7.2216662e-06,0,0,1
21596000,21442000,21444000,0,-488.01712,12.367843,-0.0,-0.03290884,12.460593,2.9195871e-05,-9.552684e-06,0,0,1
21660000,21504000,21508000,0,-488.16824,12.36781,0.055755615,-0.023127351,12.462215,9.9779645e-06,-7.3980573e-06,0,0,1
21732000,21573333,21580000,0,-488.0222,12.367913,-0.0,-0.031359807,12.464298,2.6416916e-05,-9.714162e-06,0,0,1
21804000,21648000,21652000,0,-488.1451,12.368014,0.032196045,-0.023101937,12.466411,3.3260103e-06,-8.019841e-06,0,0,1
21876000,21717333,21724000,0,-488.1307,12.368114,0.018859863,-0.017991856,12.457853,1.1420731e-06,-6.904109e-06,0,0,1
21948000,21792000,21796000,0,-488.00845,12.368211,-0.0,-0.029104035,12.459841,3.440007e-05,-1.0476684e-05,0,0,1
22020000,21862666,21868000,0,-488.15497,12.368306,0.042999268,-0.020175429,12.461861,5.934706e-06,-8.444449e-06,0,0,1
22076000,21922000,21924000,0,-488.1217,12.36813,0.009399414,-0.017038137,12.463042,2.8355512e-07,-7.518585e-06,0,0,1
22140000,21984000,21988000,0,-488.16388,12.368092,0.05166626,-0.009458648,12.464679,8.566293e-06,-5.7440966e-06,0,0,1
22212000,22056000,22060000,0,-488.01785,12.36819,-0.0,-0.020195514,12.466782,2.880905e-05,-8.647377e-06,0,0,1
22284000,22128000,22132000,0,-488.0563,12.368286,-0.0,-0.02517483,12.458212,1.14638315e-05,-9.001896e-06,0,0,1
22356000,22200000,22204000,0,-488.15546,12.36838,0.039123535,-0.017081331,12.460192,4.913732e-06,-7.2502785e-06,0,0,1
22428000,22272000,22276000,0,-488.11285,12.368472,-0.0,-0.015442137,12.462203,5.2877215e-08,-6.344312e-06,0,0,1
22500000,22342666,22348000,0,-488.0988,12.368562,-0.0,-0.015823787,12.464243,1.1012137e-06,-5.6950553e-06,0,0,1
22572000,22416000,22420000,0,-488.0755,12.368651,-0.0,-0.019217776,12.466313,5.7570633e-06,-5.7029865e-06,0,0,1
22644000,22488000,22492000,0,-488.14163,12.368739,0.023498535,-0.013840899,12.468412,1.7714563e-06,-4.7621475e-06,0,0,1
22716000,22560000,22564000,0,-488.1602,12.368825,0.044189453,-0.0065363795,12.459733,6.268859e-06,-3.3736292e-06,0,0,1
22788000,22629333,22636000,0,-488.0377,12.368908,-0.0,-0.015436498,12.46171,2.0348418e-05,-5.440808e-06,0,0,1
22860000,22704000,22708000,0,-488.0995,12.368991,-0.0,-0.016115244,12.463717,1.3699032e-06,-4.9118717e-06,0,0,1
22932000,22774666,22780000,0,-488.1654,12.369071,0.039886475,-0.0091805095,12.465754,5.104965e-06,-3.6714791e-06,0,0,1
23004000,22848000,22852000,0,-488.13217,12.369151,-0.0,-0.008283393,12.467819,1.5062128e-08,-3.2037942e-06,0,0,1
23076000,22918666,22924000,0,-488.20734,12.369228,0.072143555,0.0016759355,12.459195,1.6709562e-05,-7.379083e-07,0,0,1
23132000,22980000,22980000,0,-488.1315,12.369034,-0.0,-0.00034449156,12.460302,9.0768407e-07,-7.564588e-07,0,0,1
23196000,23037333,23044000,0,-488.1833,12.3689785,0.017059326,0.0014458441,12.461849,9.3411694e-07,-5.825488e-07,0,0,1
23268000,23110666,23116000,0,-488.25357,12.36906,0.062683105,0.009278486,12.463847,1.2609819e-05,1.1048405e-06,0,0,1
23340000,23182666,23188000,0,-488.25766,12.369139,0.036895752,0.012754785,12.465873,4.3680743e-06,1.5155972e-06,0,0,1
23412000,23254666,23260000,0,-488.31366,12.369217,0.058288574,0.01848631,12.467928,1.0900152e-05,2.6968696e-06,0,0,1
23484000,23328000,23332000,0,-488.35535,12.369294,0.075286865,0.025751555,12.459324,1.8197174e-05,4.679482e-06,0,0,1
23556000,23400000,23404000,0,-488.3734,12.369369,0.04916382,0.028698552,12.461259,7.758706e-06,5.0670765e-06,0,0,1
23628000,23470666,23476000,0,-488.42456,12.369442,0.052703857,0.031671148,12.4632225,8.914858e-06,5.5435503e-06,0,0,1
23700000,23544000,23548000,0,-488.46634,12.3695135,0.044799805,0.033350408,12.465216,6.440394e-06,5.658264e-06,0,0,1
23772000,23614666,23620000,0,-488.57388,12.369585,0.10140991,0.041778266,12.467238,3.2995184e-05,9.043415e-06,0,0,1
23844000,23688000,23692000,0,-488.53067,12.369655,0.0053710938,0.037121497,12.469288,9.254305e-08,7.898527e-06,0,0,1
23916000,23758666,23764000,0,-488.60104,12.369723,0.030822754,0.03634152,12.460606,3.0497463e-06,7.298099e-06,0,0,1
23972000,23820000,23820000,0,-488.60074,12.369519,-0.0,0.031103564,12.461699,4.3166824e-07,6.453508e-06,0,0,1
24036000,23878666,23884000,0,-488.7276,12.369454,0.06704712,0.034878027,12.463231,1.442745e-05,7.2908583e-06,0,0,1
24108000,23952000,23956000,0,-488.788,12.369527,0.072265625,0.0396602,12.465216,1.6758058e-05,8.501789e-06,0,0,1
24180000,24024000,24028000,0,-488.75912,12.369597,-0.0,0.033116095,12.467228,4.877002e-07,7.370245e-06,0,0,1
24252000,24096000,24100000,0,-488.84378,12.369667,0.016662598,0.031045025,12.469268,8.906446e-07,6.554631e-06,0,0,1
24324000,24166666,24172000,0,-488.90933,12.369735,0.027496338,0.030605588,12.460619,2.4270018e-06,6.0435036e-06,0,0,1
24380000,24226000,24228000,0,-488.91376,12.369531,-0.0,0.026080223,12.461704,4.664197e-07,5.3529325e-06,0,0,1
24444000,24288000,24292000,0,-489.02188,12.369466,0.045684814,0.028243007,12.463229,6.698432e-06,5.5013684e-06,0,0,1
24516000,24358666,24364000,0,-489.03082,12.369537,-0.0,0.024428217,12.465204,2.1087219e-08,4.8175184e-06,0,0,1
24588000,24432000,24436000,0,-489.06372,12.369608,-0.0,0.017880334,12.467207,2.2982122e-06,3.9073598e-06,0,0,1
24660000,24504000,24508000,0,-489.1391,12.369678,-0.0,0.014557919,12.469237,2.3255659e-07,3.3862516e-06,0,0,1
24732000,24576000,24580000,0,-489.17676,12.369745,-0.0,0.009794487,12.460624,1.7404815e-06,2.7409287e-06,0,0,1
24804000,24648000,24652000,0,-489.3319,12.369811,0.07473755,0.017969137,12.462539,1.7927972e-05,4.6525847e-06,0,0,1
24876000,24720000,24724000,0,-489.43915,12.369876,0.12432861,0.031357042,12.464481,4.9605285e-05,1.0310966e-05,0,0,1
24948000,24792000,24796000,0,-489.39102,12.36994,0.018463135,0.029734034,12.466453,1.0937749e-06,9.15076e-06,0,0,1
25020000,24864000,24868000,0,-489.5035,12.370003,0.07418823,0.035329666,12.4684515,1.7657025e-05,1.0221478e-05,0,0,1
25092000,24936000,24940000,0,-489.4981,12.370065,0.014709473,0.03273412,12.459916,6.946069e-07,9.022291e-06,0,0,1
25164000,25008000,25012000,0,-489.5637,12.370125,0.024353027,0.031679157,12.4618,1.9036414e-06,8.126237e-06,0,0,1
25236000,25080000,25084000,0,-489.66208,12.370184,0.06713867,0.03614259,12.463712,1.446632e-05,8.924289e-06,0,0,1
25308000,25152000,25156000,0,-489.68018,12.370241,0.029846191,0.035350036,12.465651,2.8583993e-06,8.16075e-06,0,0,1
25380000,25224000,25228000,0,-489.79727,12.370298,0.092163086,0.04250133,12.467618,2.7251506e-05,1.0563783e-05,0,0,1
25452000,25296000,25300000,0,-489.85272,12.370355,0.092926025,0.048848495,12.469613,2.7700125e-05,1.2720805e-05,0,0,1
25524000,25366666,25372000,0,-489.80017,12.37041,-0.0,0.04121992,12.461021,5.223469e-07,1.1080896e-05,0,0,1
25580000,25428000,25428000,0,-489.9177,12.370193,0.06362915,0.043668456,12.462072,1.29951695e-05,1.1290059e-05,0,0,1
25644000,25488000,25492000,0,-489.80908,12.370115,-0.0,0.029147776,12.463559,2.7080147e-05,7.1789655e-06,0,0,1
25716000,25557333,25564000,0,-489.9602,12.370174,0.0076904297,0.026534714,12.465491,1.8978061e-07,6.327827e-06,0,0,1
25788000,25630666,25636000,0,-490.0728,12.370233,0.069610596,0.032044396,12.46745,1.5546515e-05,7.506957e-06,0,0,1
25844000,25692000,25692000,0,-490.1003,12.370019,0.057769775,0.034855273,12.468561,1.0706439e-05,7.856547e-06,0,0,1
25908000,25752000,25756000,0,-490.19366,12.369946,0.1083374,0.042728357,12.4596815,3.7679914e-05,1.1051908e-05,0,0,1
25980000,25821333,25828000,0,-490.02362,12.3700075,-0.0,0.024015771,12.461551,3.949998e-05,4.8957318e-06,0,0,1
26036000,25884000,25884000,0,-490.26413,12.369799,0.0925293,0.03164646,12.462614,2.7479535e-05,7.411001e-06,0,0,1
26100000,25944000,25948000,0,-490.28198,12.369728,0.0670166,0.035436116,12.454781,1.44241e-05,8.162405e-06,0,0,1
26172000,26016000,26020000,0,-490.3142,12.369794,0.05279541,0.0376212,12.456574,8.950632e-06,8.2616225e-06,0,0,1
26244000,26086666,26092000,0,-490.3513,12.369859,0.044677734,0.038495015,12.458398,6.4088495e-06,8.032192e-06,0,0,1
26316000,26157333,26164000,0,-490.43066,12.369923,0.08013916,0.043651905,12.46025,2.0616873e-05,9.5905825e-06,0,0,1
26372000,26220000,26220000,0,-490.4158,12.369715,0.03137207,0.04228424,12.461305,3.1592415e-06,8.874293e-06,0,0,1
26436000,26278666,26284000,0,-490.52347,12.369646,0.1015625,0.0485091,12.462792,3.3106357e-05,1.1418922e-05,0,0,1
26492000,26340000,26340000,0,-490.44272,12.369444,-0.0,0.041671563,12.454512,6.356752e-07,1.010178e-05,0,0,1
26556000,26398666,26404000,0,-490.53674,12.36938,0.047576904,0.04229169,12.455917,7.2690327e-06,9.804311e-06,0,0,1
26612000,26460000,26460000,0,-490.55975,12.369183,0.045196533,0.042609088,12.456945,6.5593176e-06,9.449748e-06,0,0,1
26676000,26520000,26524000,0,-490.54993,12.369123,0.011199951,0.039243825,12.458393,4.0274503e-07,8.480427e-06,0,0,1
26748000,26592000,26596000,0,-490.50757,12.369202,-0.0,0.027762186,12.460275,8.670852e-06,6.321525e-06,0,0,1
26820000,26662666,26668000,0,-490.5785,12.369278,0.0031433105,0.024713611,12.462183,3.1713228e-08,5.5426526e-06,0,0,1
26892000,26736000,26740000,0,-490.63013,12.369353,0.03475952,0.025998563,12.454689,3.8803837e-06,5.330035e-06,0,0,1
26964000,26808000,26812000,0,-490.64386,12.369426,0.035858154,0.02723963,12.456494,4.1289536e-06,5.17885e-06,0,0,1
27036000,26880000,26884000,0,-490.68576,12.369498,0.06466675,0.031950735,12.458331,1.342648e-05,6.2170134e-06,0,0,1
27108000,26952000,26956000,0,-490.72272,12.369569,0.0871582,0.038899925,12.460196,2.4386623e-05,8.504097e-06,0,0,1
27180000,27024000,27028000,0,-490.7078,12.3696375,0.05606079,0.041060034,12.462087,1.0087596e-05,8.703419e-06,0,0,1
27252000,27094666,27100000,0,-490.7448,12.369706,0.07595825,0.04538151,12.464006,1.8516217e-05,9.9185445e-06,0,0,1
27308000,27156000,27156000,0,-490.75345,12.369503,0.0730896,0.048409026,12.455558,1.7155682e-05,1.0709308e-05,0,0,1
27372000,27216000,27220000,0,-490.75745,12.369438,0.061767578,0.0498403,12.456973,1.2250918e-05,1.0874481e-05,0,0,1
27444000,27288000,27292000,0,-490.724,12.36951,0.01159668,0.045026418,12.458815,4.3176814e-07,9.5600135e-06,0,0,1
27516000,27360000,27364000,0,-490.77084,12.36958,0.04257202,0.044717472,12.460684,5.8179057e-06,9.088979e-06,0,0,1
27588000,27432000,27436000,0,-490.77985,12.369649,0.036193848,0.04364457,12.462581,4.2045694e-06,8.474158e-06,0,0,1
27660000,27502666,27508000,0,-490.78415,12.369717,0.025756836,0.04142952,12.464503,2.1289725e-06,7.688429e-06,0,0,1
27732000,27574666,27580000,0,-490.76514,12.369784,-0.0,0.03566146,12.456779,6.201252e-08,6.712849e-06,0,0,1
27804000,27645333,27652000,0,-490.83563,12.369849,0.053100586,0.037820987,12.4586,9.052935e-06,7.002627e-06,0,0,1
27876000,27718666,27724000,0,-490.77878,12.369913,-0.0,0.030836571,12.460449,9.0438175e-07,5.9912695e-06,0,0,1
27932000,27780000,27780000,0,-490.8024,12.369705,-0.0,0.027167117,12.4615,2.4214462e-08,5.3339895e-06,0,0,1
27996000,27840000,27844000,0,-490.84937,12.369637,0.03363037,0.02785961,12.462983,3.6299555e-06,5.1514144e-06,0,0,1
28068000,27912000,27916000,0,-490.7364,12.369705,-0.0,0.013055326,12.463356,2.5853253e-05,1.2487294e-06,0,0,1
28140000,27981333,27988000,0,-490.82175,12.369772,-0.0,0.009670431,12.457131,6.97648e-07,1.0117009e-06,0,0,1
28196000,28044000,28044000,0,-490.91107,12.369567,0.066467285,0.015996177,12.458152,1.4184769e-05,2.4788503e-06,0,0,1
28260000,28104000,28108000,0,-490.87756,12.369501,0.023620605,0.016813079,12.459594,1.7911756e-06,2.4051708e-06,0,0,1
28332000,28174666,28180000,0,-490.94778,12.369572,0.08404541,0.025138509,12.461469,2.267351e-05,4.9150144e-06,0,0,1
28404000,28246666,28252000,0,-490.9376,12.369641,0.06362915,0.029983483,12.463369,1.2993818e-05,5.9319264e-06,0,0,1
28476000,28320000,28324000,0,-490.8337,12.36971,-0.0,0.020094117,12.455677,7.1947607e-06,4.252918e-06,0,0,1
28548000,28390666,28396000,0,-490.90927,12.369776,0.018371582,0.019880814,12.457473,1.0837351e-06,3.8604758e-06,0,0,1
28620000,28464000,28468000,0,-490.87152,12.369841,-0.0,0.013535947,12.459297,2.8365112e-06,3.0038777e-06,0,0,1
28692000,28533333,28540000,0,-490.85303,12.369905,-0.0,0.004744607,12.46115,1.1043551e-05,1.293191e-06,0,0,1
28764000,28608000,28612000,0,-490.9381,12.369968,0.015777588,0.0061781323,12.463029,7.9894636e-07,1.2289734e-06,0,0,1
28836000,28680000,28684000,0,-490.93796,12.37003,0.004547119,0.00597283,12.464934,6.635027e-08,1.0826292e-06,0,0,1
28908000,28752000,28756000,0,-490.98486,12.370091,0.039215088,0.01015717,12.457113,4.937976e-06,1.5679175e-06,0,0,1
28980000,28821333,28828000,0,-491.04553,12.370151,0.08807373,0.019645799,12.458915,2.4904199e-05,4.409794e-06,0,0,1
29052000,28896000,28900000,0,-490.97424,12.370208,0.0046081543,0.017691944,12.460742,6.816636e-08,3.8456824e-06,0,0,1
29124000,28968000,28972000,0,-491.04935,12.370265,0.06842041,0.024077345,12.462598,1.5025286e-05,5.252905e-06,0,0,1
29196000,29038666,29044000,0,-490.997,12.370321,0.0050964355,0.021726925,12.46448,8.335255e-08,4.612755e-06,0,0,1
29252000,29100000,29100000,0,-491.00635,12.370107,0.0072021484,0.020139879,12.465542,1.6644584e-07,4.1269304e-06,0,0,1
29316000,29160000,29164000,0,-490.94525,12.37003,-0.0,0.01162239,12.457274,1.1312962e-05,2.4726564e-06,0,0,1
29388000,29230666,29236000,0,-491.11484,12.370091,0.10296631,0.022933576,12.459076,3.4038032e-05,6.3814205e-06,0,0,1
29444000,29292000,29292000,0,-491.03403,12.36988,0.016540527,0.022235041,12.460093,8.78289e-07,5.7801226e-06,0,0,1
29508000,29352000,29356000,0,-491.02917,12.369808,0.00680542,0.020581868,12.4615345,1.4866144e-07,5.176752e-06,0,0,1
29580000,29422666,29428000,0,-491.01505,12.369873,-0.0,0.016540488,12.463412,4.6635577e-07,4.4779617e-06,0,0,1
29652000,29494666,29500000,0,-491.0809,12.369937,0.049835205,0.02073143,12.465317,7.969465e-06,4.9174514e-06,0,0,1
29708000,29554000,29556000,0,-491.04285,12.369729,0.009887695,0.01958113,12.45667,3.1394111e-07,4.4291123e-06,0,0,1
29772000,29614666,29620000,0,-491.02866,12.36966,-0.0,0.01664346,12.458071,1.839131e-07,3.929967e-06,0,0,1
29844000,29688000,29692000,0,-491.14142,12.369727,0.10195923,0.027556028,12.459895,3.3373264e-05,7.6960005e-06,0,0,1
29916000,29760000,29764000,0,-490.9761,12.369794,-0.0,0.01567867,12.461749,1.4324274e-05,4.924218e-06,0,0,1
29988000,29830666,29836000,0,-490.98145,12.369859,-0.0,0.0058390275,12.46363,1.3055941e-05,2.6977214e-06,0,0,1
30060000,29904000,29908000,0,-491.0384,12.369924,-0.0,0.003987495,12.46554,2.3934365e-07,2.3220473e-06,0,0,1
30132000,29974666,29980000,0,-491.02908,12.369987,-0.0,0.001094046,12.45766,1.2057884e-06,1.8851928e-06,0,0,1
30204000,30048000,30052000,0,-490.95416,12.370048,-0.0,-0.011228533,12.459467,2.9123812e-05,-2.0811067e-06,0,0,1
30276000,30120000,30124000,0,-491.15695,12.370108,0.107788086,0.003752578,12.461304,3.729392e-05,2.8751901e-06,0,0,1
30348000,30192000,30196000,0,-490.94464,12.370167,-0.0,-0.009807332,12.46317,3.4695717e-05,-1.8540145e-06,0,0,1
30420000,30262666,30268000,0,-491.13345,12.370225,0.08706665,0.0021886453,12.465065,2.4325911e-05,1.3878653e-06,0,0,1
30492000,30336000,30340000,0,-491.01993,12.370282,-0.0,-0.0004997237,12.4572,1.1384396e-06,1.0647307e-06,0,0,1
30564000,30408000,30412000,0,-491.0107,12.3703375,-0.0,-0.0035329682,12.458991,1.9424388e-06,6.862059e-07,0,0,1
30636000,30480000,30484000,0,-491.02972,12.370392,-0.0,-0.0033149,12.460814,1.0406812e-08,5.985204e-07,0,0,1
30708000,30550666,30556000,0,-491.02975,12.370445,0.0025634766,-0.0025869762,12.4626665,2.1091513e-08,5.2701694e-07,0,0,1
30764000,30610000,30612000,0,-490.9734,12.370228,-0.0,-0.00765409,12.463715,8.137304e-06,-3.9209186e-07,0,0,1
30828000,30670666,30676000,0,-491.02084,12.37015,0.0012512207,-0.0066905045,12.465201,5.023756e-09,-3.491226e-07,0,0,1
30884000,30732000,30732000,0,-491.03018,12.369938,0.016998291,-0.004102155,12.456525,9.2784114e-07,-2.0959551e-07,0,0,1
30948000,30792000,30796000,0,-491.01596,12.369864,0.0071105957,-0.002900789,12.457923,1.623403e-07,-1.6974525e-07,0,0,1
31020000,30864000,30868000,0,-490.96893,12.369928,-0.0,-0.00691482,12.459749,3.8856215e-06,-6.374779e-07,0,0,1
31092000,30936000,30940000,0,-490.98337,12.36999,-0.0,-0.008038096,12.461604,8.0523176e-07,-6.5859376e-07,0,0,1
31164000,31008000,31012000,0,-491.0164,12.370052,0.020996094,-0.004383443,12.46349,1.4148075e-06,-3.9760621e-07,0,0,1
31236000,31078666,31084000,0,-490.93164,12.370112,-0.0,-0.011368435,12.465402,1.1858575e-05,-1.8168265e-06,0,0,1
31308000,31152000,31156000,0,-490.96042,12.370172,-0.0,-0.012880937,12.4574795,1.7272577e-06,-1.80537e-06,0,0,1
31380000,31224000,31228000,0,-491.08273,12.37023,0.10134888,0.0014976393,12.459284,3.2976517e-05,2.5727693e-06,0,0,1
31452000,31296000,31300000,0,-490.97845,12.370286,-0.0,0.0010632775,12.461117,1.2245121e-08,2.2473828e-06,0,0,1
31524000,31366666,31372000,0,-490.98315,12.370341,0.004211426,0.001453115,12.462977,5.692414e-08,1.9761367e-06,0,0,1
31596000,31440000,31444000,0,-490.98782,12.370397,0.010101318,0.0025592893,12.464869,3.274375e-07,1.7652549e-06,0,0,1
31668000,31510666,31516000,0,-490.95016,12.37045,-0.0,-0.0006599126,12.46516,1.7627256e-06,1.3283824e-06,0,0,1
31724000,31572000,31572000,0,-490.9128,12.370233,-0.0,-0.0071300855,12.457953,1.1510957e-05,-7.450433e-08,0,0,1
31788000,31632000,31636000,0,-490.9134,12.370154,-0.0,-0.012614621,12.459358,1.0919075e-05,-1.2364226e-06,0,0,1
31860000,31704000,31708000,0,-490.9703,12.370213,-0.0,-0.011076705,12.461192,5.0522775e-10,-1.0808526e-06,0,0,1
31932000,31776000,31780000,0,-490.8952,12.370269,-0.0,-0.019078434,12.463055,1.7883336e-05,-3.1958505e-06,0,0,1
32004000,31848000,31852000,0,-490.8865,12.370325,-0.08267212,-0.027083233,12.464946,2.193248e-05,-5.554307e-06,0,0,1
32076000,31920000,31924000,0,-490.94833,12.37038,-0.015625,-0.025640938,12.457032,7.8394476e-07,-4.9538417e-06,0,0,1
32148000,31992000,31996000,0,-490.96725,12.370434,0.003967285,-0.02191403,12.458815,5.053242e-08,-4.3239206e-06,0,0,1
32220000,32064000,32068000,0,-490.95786,12.370487,-0.0051879883,-0.019808654,12.460628,8.640086e-08,-3.7905265e-06,0,0,1
32292000,32136000,32140000,0,-490.89688,12.370539,-0.065826416,-0.025601098,12.462468,1.3907733e-05,-5.064021e-06,0,0,1
32364000,32208000,32212000,0,-490.87402,12.370589,-0.08792114,-0.033445578,12.464338,2.4807181e-05,-7.549174e-06,0,0,1
32436000,32278666,32284000,0,-490.96878,12.37064,0.007598877,-0.028363012,12.466238,1.8527781e-07,-6.591411e-06,0,0,1
32508000,32352000,32356000,0,-490.92175,12.370688,-0.03567505,-0.02929828,12.458222,4.0863265e-06,-6.2709905e-06,0,0,1
32580000,32424000,32428000,0,-490.98782,12.370736,0.030639648,-0.021753646,12.460013,3.0137626e-06,-5.1022803e-06,0,0,1
32652000,32496000,32500000,0,-490.94998,12.370783,-0.0074157715,-0.01994888,12.461834,1.765187e-07,-4.4822546e-06,0,0,1
32724000,32566666,32572000,0,-491.03925,12.37083,0.08190918,-0.0073357197,12.463684,2.153172e-05,-1.2609246e-06,0,0,1
32796000,32638666,32644000,0,-490.97272,12.370874,0.014709473,-0.0045608007,12.465564,6.9429217e-07,-1.0148134e-06,0,0,1
32852000,32700000,32700000,0,-491.01483,12.370649,0.056549072,0.0021163519,12.466621,1.0260351e-05,2.1716414e-07,0,0,1
32916000,32760000,32764000,0,-490.91098,12.3705635,-0.046417236,-0.0030836752,12.458182,6.917734e-06,-5.472892e-07,0,0,1
32988000,32832000,32836000,0,-490.96777,12.370613,0.010681152,-0.0013510396,12.459977,3.6625113e-07,-4.322981e-07,0,0,1
33060000,32902666,32908000,0,-490.92545,12.370663,-0.03201294,-0.0051479256,12.461803,3.2895025e-06,-7.861079e-07,0,0,1
33132000,32976000,32980000,0,-490.968,12.370711,0.010498047,-0.0031466805,12.46366,3.5369703e-07,-6.403177e-07,0,0,1
33204000,33046666,33052000,0,-490.95383,12.370759,-0.004058838,-0.0032596337,12.465546,5.2863037e-08,-5.675727e-07,0,0,1
33276000,33120000,33124000,0,-490.95386,12.370806,-0.0049743652,-0.0034789615,12.457575,7.945145e-08,-5.0513813e-07,0,0,1
33348000,33192000,33196000,0,-490.90692,12.370851,-0.05215454,-0.009605957,12.459351,8.732706e-06,-1.540776e-06,0,0,1
33420000,33262666,33268000,0,-490.98727,12.370895,0.028442383,-0.0048944023,12.461158,2.5967704e-06,-1.0284205e-06,0,0,1
33492000,33336000,33340000,0,-491.05273,12.370939,0.09378052,0.007726909,12.462996,2.8226876e-05,2.7135657e-06,0,0,1
33564000,33408000,33412000,0,-491.00955,12.370982,0.0501709,0.013069509,12.464863,8.077486e-06,3.3887445e-06,0,0,1
33636000,33480000,33484000,0,-490.9762,12.371025,0.016662598,0.013521786,12.466761,8.908238e-07,3.0743208e-06,0,0,1
33708000,33549333,33556000,0,-491.04178,12.371067,0.08230591,0.021898272,12.458696,2.1749507e-05,5.348573e-06,0,0,1
33780000,33624000,33628000,0,-491.01282,12.371107,0.052764893,0.0259088,12.4604845,8.937482e-06,5.814883e-06,0,0,1
33852000,33696000,33700000,0,-490.97473,12.371147,0.014343262,0.024452997,12.462304,6.603246e-07,5.1660577e-06,0,0,1
33924000,33766666,33772000,0,-490.88538,12.371186,-0.07507324,0.012128588,12.464153,1.8087043e-05,2.2866088e-06,0,0,1
33996000,33840000,33844000,0,-490.9706,12.371224,0.010986328,0.011982484,12.466032,3.8729056e-07,2.043671e-06,0,0,1
34068000,33910666,33916000,0,-490.96115,12.371263,0.0007019043,0.010585601,12.466261,1.5808097e-09,1.7907973e-06,0,0,1
34140000,33982666,33988000,0,-490.93765,12.3713,-0.022155762,0.006464311,12.459788,1.5758783e-06,1.36702e-06,0,0,1
34212000,34053333,34060000,0,-490.95197,12.371336,-0.0074157715,0.0047455085,12.461589,1.7652216e-07,1.1758797e-06,0,0,1
34268000,34114000,34116000,0,-490.891,12.3711,-0.06802368,-0.0031284858,12.462598,1.4851546e-05,-5.583689e-07,0,0,1
34332000,34176000,34180000,0,-490.98557,12.371005,0.027557373,0.00025678682,12.464039,2.4371195e-06,-2.2790579e-07,0,0,1
34404000,34246666,34252000,0,-490.9712,12.371047,0.013793945,0.0019331033,12.465924,6.105377e-07,-1.240807e-07,0,0,1
34476000,34317333,34324000,0,-490.9992,12.371089,0.04144287,0.0068256883,12.457924,5.5145997e-06,5.741699e-07,0,0,1
34532000,34380000,34380000,0,-490.98004,12.370858,0.022644043,0.008587456,12.458902,1.646221e-06,6.935695e-07,0,0,1
34596000,34440000,34444000,0,-490.96106,12.370768,0.0042419434,0.008121866,12.460301,5.776452e-08,6.2544757e-07,0,0,1
34668000,34512000,34516000,0,-490.84833,12.370813,-0.107788086,-0.0064681964,12.462132,3.729144e-05,-4.147307e-06,0,0,1
34740000,34584000,34588000,0,-490.98083,12.370859,0.02633667,-0.0023389128,12.463994,2.2259965e-06,-3.3450733e-06,0,0,1
34812000,34654666,34660000,0,-490.8867,12.370904,-0.067352295,-0.010389568,12.465885,1.4555987e-05,-4.733329e-06,0,0,1
34884000,34728000,34732000,0,-490.99063,12.370948,0.03552246,-0.0045170533,12.457891,4.051553e-06,-3.6096726e-06,0,0,1
34956000,34800000,34804000,0,-490.95743,12.370991,0.002746582,-0.0036027497,12.459673,2.4218012e-08,-3.1522598e-06,0,0,1
35028000,34872000,34876000,0,-490.9386,12.371033,-0.015563965,-0.005108357,12.461485,7.7755425e-07,-2.853346e-06,0,0,1
35100000,34944000,34948000,0,-490.95285,12.371074,-0.00045776367,-0.0045229676,12.463327,6.725253e-10,-2.494268e-06,0,0,1
35172000,35014666,35020000,0,-490.95755,12.371115,0.0050354004,-0.0033393477,12.4652,8.136334e-08,-2.1753258e-06,0,0,1
35244000,35086666,35092000,0,-490.91992,12.371155,-0.03161621,-0.006898673,12.467102,3.2071118e-06,-2.305201e-06,0,0,1
35300000,35148000,35148000,0,-490.88266,12.370924,-0.070373535,-0.013834235,12.458228,1.5900929e-05,-3.7907344e-06,0,0,1
35364000,35208000,35212000,0,-490.97726,12.3708315,0.0256958,-0.0095988745,12.459617,2.1197254e-06,-3.157471e-06,0,0,1
35436000,35280000,35284000,0,-490.9066,12.370876,-0.044189453,-0.013952933,12.461435,6.268003e-06,-3.5490064e-06,0,0,1
35508000,35352000,35356000,0,-491.0056,12.370921,0.055999756,-0.0051477,12.4632845,1.0064675e-05,-1.8353962e-06,0,0,1
35580000,35422666,35428000,0,-490.91586,12.370964,-0.033172607,-0.008618046,12.465161,3.5311919e-06,-2.0453879e-06,0,0,1
35636000,35484000,35484000,0,-490.93027,12.370737,-0.017669678,-0.009607069,12.46622,1.0018033e-06,-1.9313609e-06,0,0,1
35700000,35544000,35548000,0,-490.9915,12.370649,0.048095703,-0.0034246296,12.457818,7.427293e-06,-9.28648e-07,0,0,1
35772000,35616000,35620000,0,-490.9206,12.370697,-0.021759033,-0.005732456,12.459612,1.5199688e-06,-1.00308e-06,0,0,1
35844000,35688000,35692000,0,-490.9959,12.370745,0.054992676,0.0019112658,12.461436,9.70737e-06,3.4508844e-07,0,0,1
35916000,35760000,35764000,0,-490.92966,12.370791,-0.010528564,0.0003454131,12.46329,3.5576696e-07,2.5686887e-07,0,0,1
35988000,35830666,35836000,0,-491.00488,12.370838,0.06616211,0.008495543,12.465176,1.4046893e-05,1.9644979e-06,0,0,1
36044000,35892000,35892000,0,-490.97607,12.370613,0.03793335,0.011712057,12.466237,4.617076e-06,2.254331e-06,0,0,1
36108000,35952000,35956000,0,-490.971,12.370527,0.035736084,0.01428606,12.45784,4.100447e-06,2.4521291e-06,0,0,1
36180000,36022666,36028000,0,-490.88614,12.370578,-0.048217773,0.006546164,12.4596405,7.4639506e-06,1.2242135e-06,0,0,1
36236000,36084000,36084000,0,-490.9899,12.3703575,0.05682373,0.012039728,12.460658,1.0365219e-05,2.2230029e-06,0,0,1
36300000,36144000,36148000,0,-490.95178,12.370276,0.019439697,0.012832582,12.462103,1.2129633e-06,2.1147844e-06,0,0,1
36372000,36214666,36220000,0,-490.89526,12.370333,-0.036132812,0.0067691603,12.463988,4.1899275e-06,1.3340672e-06,0,0,1
36444000,36288000,36292000,0,-490.9989,12.370388,0.068847656,0.014709495,12.465902,1.5209488e-05,3.1088443e-06,0,0,1
36516000,36360000,36364000,0,-490.9513,12.370442,0.021514893,0.015566118,12.457956,1.486249e-06,2.9046016e-06,0,0,1
36588000,36432000,36436000,0,-490.89474,12.370494,-0.034088135,0.009315932,12.459764,3.730411e-06,2.0694251e-06,0,0,1
36660000,36504000,36508000,0,-490.96548,12.370545,0.03778076,0.012898917,12.461601,4.5817096e-06,2.3856567e-06,0,0,1
36732000,36576000,36580000,0,-490.94635,12.370597,0.019195557,0.013691502,12.4634695,1.1825581e-06,2.2342176e-06,0,0,1
36804000,36648000,36652000,0,-490.94147,12.370646,0.014984131,0.01385421,12.465366,7.2047357e-07,2.0436764e-06,0,0,1
36876000,36720000,36724000,0,-490.88028,12.370695,-0.049713135,0.0058527263,12.457428,7.935493e-06,7.8755727e-07,0,0,1
36948000,36792000,36796000,0,-490.83383,12.370743,-0.09527588,-0.006876748,12.459217,2.914306e-05,-2.9799326e-06,0,0,1
37020000,36864000,36868000,0,-490.9709,12.37079,0.04296875,-0.0006024898,12.461037,5.926677e-06,-1.858821e-06,0,0,1
37092000,36936000,36940000,0,-490.96112,12.370835,0.033569336,0.003698859,12.462886,3.6168199e-06,-1.1695795e-06,0,0,1
37164000,37008000,37012000,0,-490.9514,12.370881,0.024383545,0.0063025253,12.464765,1.9079614e-06,-7.821967e-07,0,0,1
37236000,37078666,37084000,0,-490.984,12.370925,0.0574646,0.0126379635,12.466672,1.0595226e-05,6.26678e-07,0,0,1
37308000,37152000,37156000,0,-490.92712,12.370969,0.0012207031,0.011177605,12.458639,4.784202e-09,5.471328e-07,0,0,1
37380000,37222666,37228000,0,-490.9224,12.371012,-0.0026855469,0.0094609205,12.460441,2.315219e-08,4.7651397e-07,0,0,1
37452000,37296000,37300000,0,-490.96,12.371053,0.035980225,0.012852952,12.462271,4.155187e-06,9.470457e-07,0,0,1
37524000,37368000,37372000,0,-490.96432,12.371094,0.041168213,0.01641711,12.464132,5.4390366e-06,1.512471e-06,0,0,1
37596000,37438666,37444000,0,-490.9123,12.371134,-0.010040283,0.013140871,12.466022,3.234626e-07,1.285126e-06,0,0,1
37652000,37500000,37500000,0,-490.94995,12.370903,0.028564453,0.0148261245,12.467085,2.617863e-06,1.4307471e-06,0,0,1
37716000,37560000,37564000,0,-490.84167,12.370812,-0.07952881,0.0047166683,12.458629,2.0306668e-05,-8.9826165e-07,0,0,1
37788000,37632000,37636000,0,-490.8847,12.370858,-0.034851074,-0.00026388653,12.460436,3.8990524e-06,-1.2759835e-06,0,0,1
37860000,37704000,37708000,0,-490.95547,12.370902,0.037261963,0.0044596465,12.462273,4.4565027e-06,-5.5441194e-07,0,0,1
37932000,37774666,37780000,0,-490.90344,12.370946,-0.013946533,0.0021803956,12.46414,6.242093e-07,-5.63055e-07,0,0,1
38004000,37845333,37852000,0,-490.96933,12.37099,0.05303955,0.0084784,12.466037,9.026747e-06,6.244719e-07,0,0,1
38060000,37908000,37908000,0,-490.889,12.370762,-0.026885986,0.004539694,12.467104,2.3192435e-06,2.9661578e-07,0,0,1
38124000,37968000,37972000,0,-490.9362,12.370673,0.020935059,0.0062963404,12.45865,1.4071402e-06,4.1560054e-07,0,0,1
38196000,38038666,38044000,0,-490.8468,12.370721,-0.067230225,-0.0028085085,12.460463,1.4509584e-05,-1.4325963e-06,0,0,1
38252000,38100000,38100000,0,-490.93195,12.370498,0.019439697,-0.00037756492,12.461487,1.2130232e-06,-1.1435234e-06,0,0,1
38316000,38160000,38164000,0,-490.93176,12.370415,0.020324707,0.0018405356,12.462942,1.3258306e-06,-8.789498e-07,0,0,1
38388000,38232000,38236000,0,-490.93628,12.370468,0.025817871,0.0048586614,12.464839,2.1390167e-06,-4.990659e-07,0,0,1
38460000,38304000,38308000,0,-490.88437,12.370521,-0.024871826,0.0011163626,12.4667635,1.9848221e-06,-6.8608415e-07,0,0,1
38532000,38376000,38380000,0,-490.90808,12.370572,0.00018310547,0.0009988897,12.458736,1.076437e-10,-5.9971035e-07,0,0,1
38604000,38448000,38452000,0,-490.86584,12.370622,-0.04083252,-0.004266602,12.460556,5.3522317e-06,-1.1979298e-06,0,0,1
38676000,38518666,38524000,0,-491.01178,12.370671,0.10650635,0.009450496,12.462405,3.640903e-05,3.4589682e-06,0,0,1
38748000,38592000,38596000,0,-490.86987,12.370719,-0.035064697,0.0037566475,12.464283,3.94578e-06,2.5118416e-06,0,0,1
38820000,38664000,38668000,0,-490.9266,12.370767,0.023284912,0.0062147505,12.46619,1.7397043e-06,2.4146495e-06,0,0,1
38892000,38734666,38740000,0,-490.94513,12.370813,0.039764404,0.01036923,12.458196,5.076844e-06,2.7443111e-06,0,0,1
38964000,38806666,38812000,0,-490.95413,12.370859,0.04940796,0.015283195,12.459996,7.836748e-06,3.385317e-06,0,0,1
39036000,38878666,38884000,0,-490.94427,12.370904,0.040100098,0.018407,12.461826,5.1614197e-06,3.6088825e-06,0,0,1
39108000,38952000,38956000,0,-490.85468,12.370947,-0.048919678,0.00979538,12.463684,7.680345e-06,2.1649e-06,0,0,1
39180000,39024000,39028000,0,-490.78943,12.370991,-0.112701416,-0.005623797,12.465573,4.07574e-05,-3.2379064e-06,0,0,1
39252000,39096000,39100000,0,-490.84213,12.371033,-0.058135986,-0.012233723,12.467488,1.08435415e-05,-4.195259e-06,0,0,1
39324000,39168000,39172000,0,-490.89908,12.371075,0.0015869141,-0.010494063,12.459397,8.084809e-09,-3.6661668e-06,0,0,1
39396000,39240000,39244000,0,-490.96945,12.371115,0.072784424,-1.145713e-05,12.461207,1.7005004e-05,-1.0642016e-06,0,0,1
