timestamp,timestamp_sample,time_last_fuse,device_id,observation[0],observation[1],observation[2],observation_variance[0],observation_variance[1],observation_variance[2],innovation[0],innovation[1],innovation[2],innovation_filtered[0],innovation_filtered[1],innovation_filtered[2],innovation_variance[0],innovation_variance[1],innovation_variance[2],test_ratio[0],test_ratio[1],test_ratio[2],test_ratio_filtered[0],test_ratio_filtered[1],test_ratio_filtered[2],estimator_instance,innovation_rejected,fused
4060000,3906000,0,0,0.0,0.0,0.02,0.09,0.09,0.20250002,-0.010767383,0.0103640845,-0.014708485,-0.010767383,0.0103640845,-0.014708485,25.200663,25.200663,10.207127,1.840214e-07,1.7049433e-07,8.47798e-07,1.840214e-07,1.7049433e-07,8.47798e-07,0,0,0
4460000,4306000,0,0,0.0,-0.01,0.01,0.09,0.09,0.20250002,-0.008345116,0.015854819,-0.006669337,-0.009690819,0.012804411,-0.01113553,0.10776259,0.107762665,0.20311326,2.5849771e-05,9.3307004e-05,8.759655e-06,-1.13865535e-05,4.15645e-05,-3.4221819e-06,0,0,0
4860000,4706000,0,0,0.0,0.01,0.01,0.09,0.09,0.20250002,0.0016532869,-0.007879967,-0.01074248,-0.004648994,0.0036113532,-0.010960841,0.09014218,0.090142205,0.20261614,1.2129093e-06,2.7553744e-05,2.278217e-05,-5.786792e-06,1.08452805e-05,-1.2026622e-05,0,0,0
5260000,5106000,0,0,0.01,0.0,-0.03,0.09,0.09,0.20250002,-0.0061736377,-0.0016779995,0.027726715,-0.005326614,0.0012605297,0.00623363,0.13005608,0.1300561,0.20351616,1.1722266e-05,8.659901e-07,0.00015109773,-8.42478e-06,5.640271e-06,6.0473092e-05,0,0,0
5660000,5506000,0,0,0.01,0.0,-0.03,0.09,0.09,0.20250002,-0.0028730775,0.002525752,0.027745454,-0.0042361533,0.0018228508,0.015794441,0.094029866,0.09402992,0.20491742,3.5114695e-06,2.7137842e-06,0.0001502674,-6.2410863e-06,4.3396103e-06,0.00010038167,0,0,0
6060000,5906000,5908000,0,0.0,0.0,-0.03,0.09,0.09,0.20250002,-0.00056508754,0.0027647344,0.023798471,-0.0026045684,0.0022414657,0.019351788,0.09434299,0.09434427,0.20639448,1.353885e-07,3.240793e-06,0.00010976403,-3.5274425e-06,3.851247e-06,0.00010455161,0,0,1
6468000,6310000,6316000,0,0.0,0.0,-0.04,0.09,0.09,0.20250002,0.0046230275,0.01826846,0.025465444,0.0006254632,0.009403972,0.022083998,0.11847461,0.11850656,0.20881593,7.2158527e-06,0.00011264749,0.00012422209,1.2737646e-06,5.2472576e-05,0.0001133424,0,0,1
6860000,6706000,6708000,0,0.0,0.0,0.02,0.09,0.09,0.20250002,0.008409252,0.024018135,-0.037447985,0.00406562,0.01586291,-0.0042270124,0.1465455,0.14658888,0.21149804,1.9301999e-05,0.0001574119,0.00026522265,9.241599e-06,9.8852004e-05,-5.396983e-05,0,0,1
7260000,7106000,7108000,0,0.0,0.0,0.04,0.09,0.09,0.20250002,0.0029862372,0.011730572,-0.06003978,0.0035858941,0.014026315,-0.029032689,0.15741488,0.1573632,0.21442628,2.2660151e-06,3.497802e-05,0.0006724503,6.1413393e-06,7.046356e-05,-0.00032885003,0,0,1
7660000,7506000,7508000,0,0.0,0.01,0.02,0.09,0.09,0.20250002,-0.007894313,-0.0009544026,-0.037272904,-0.0015164204,0.0073682177,-0.032695007,0.15327945,0.15317367,0.21731354,1.6263151e-05,2.378697e-07,0.00025571705,-3.8162125e-06,3.90407e-05,-0.0002963465,0,0,1
8060000,7906000,7908000,0,0.0,0.0,0.02,0.09,0.09,0.20250002,-0.0143990265,0.018026121,-0.038413752,-0.0072420235,0.012105064,-0.03523667,0.14514247,0.14506778,0.21991818,5.713888e-05,8.959703e-05,0.00026839372,-2.751518e-05,6.151018e-05,-0.00028392303,0,0,1
8460000,8306000,8308000,0,-0.01,-0.01,0.03,0.09,0.09,0.20250002,-0.0015244894,0.022475379,-0.04411217,-0.0047008973,0.016714092,-0.039181337,0.13756166,0.13751256,0.2220443,6.7578935e-07,0.00014693716,0.0003505397,-1.558656e-05,9.947774e-05,-0.00031353044,0,0,1
8860000,8706000,8708000,0,0.0,0.0,-0.01,0.09,0.09,0.20250002,-0.013009399,-0.004746866,-0.0067823958,-0.008393565,0.007175888,-0.024781808,0.13157192,0.13151431,0.22350621,5.1453066e-05,6.8533186e-06,8.232593e-06,-3.152723e-05,5.2219486e-05,-0.0001778425,0,0,1
9260000,9106000,9108000,0,-0.02,0.0,0.049999997,0.09,0.09,0.20250002,0.011293407,-0.0018415821,-0.062944986,0.00035620015,0.0031681228,-0.041743223,0.12703998,0.12700243,0.22436126,4.015776e-05,1.0681448e-06,0.00070637354,3.3276956e-07,2.8536093e-05,-0.00041274523,0,0,1
9660000,9506000,9508000,0,0.0,0.0,-0.01,0.09,0.09,0.20250002,-0.018145515,-0.001494706,0.00687074,-0.007866784,0.0010957543,-0.020137016,0.12378493,0.12376489,0.22460146,0.00010639734,7.220613e-07,8.407259e-06,-4.7102836e-05,1.5532467e-05,-0.00022556633,0,0,1
10060000,9906000,9908000,0,0.0,-0.02,0.0,0.09,0.09,0.20250002,-0.02468833,0.011544238,-0.008263722,-0.015343027,0.005739525,-0.014859996,0.12161517,0.121599786,0.22444242,0.00020047289,4.3838703e-05,1.2170445e-05,-0.00011526731,2.8113016e-05,-0.00013072371,0,0,1
10460000,10306000,10308000,0,-0.01,0.0,0.0,0.09,0.09,0.20250002,-0.013862435,-0.0109151,-0.00544519,-0.014684986,-0.0016625314,-0.010675637,0.12021983,0.12023641,0.22378267,6.393857e-05,3.9635044e-05,5.299801e-06,-9.245453e-05,-1.997234e-06,-7.497975e-05,0,0,1
10860000,10706000,10708000,0,-0.01,0.01,0.0,0.09,0.09,0.20250002,-0.021207815,-0.028676488,-0.005391799,-0.017584022,-0.013668735,-0.008327264,0.11947363,0.11950725,0.22298044,0.00015058432,0.00027524386,5.2150754e-06,-0.00011829,-0.00012344019,-4.397322e-05,0,0,1
11260000,11106000,11108000,0,0.0,0.0,0.02,0.09,0.09,0.20250002,-0.042355478,-0.015006053,-0.027864106,-0.028593559,-0.014263098,-0.017010305,0.119169064,0.11923319,0.22190137,0.0006021652,7.554327e-05,0.00013995558,-0.00033334564,-0.00010215267,-8.663205e-05,0,0,1
11660000,11506000,11508000,0,0.01,-0.02,0.01,0.09,0.09,0.20250002,-0.037335407,0.008388937,-0.016823294,-0.032478824,-0.0041955262,-0.016927188,0.11918418,0.119273365,0.22076972,0.00046782472,2.3601e-05,5.1279352e-05,-0.0003931141,-4.6262146e-05,-7.0919734e-05,0,0,1
12060000,11906000,11908000,0,0.01,0.0,0.02,0.09,0.09,0.20250002,-0.02792608,-0.017270114,-0.027030174,-0.030455383,-0.010006455,-0.021417405,0.11931354,0.11943696,0.21964662,0.00026145094,9.988762e-05,0.0001330556,-0.00033459713,-7.009569e-05,-9.8535675e-05,0,0,1
12268000,12110000,12116000,0,0.0,-0.01,-0.02,0.09,0.09,0.20250002,-0.006453759,-0.0052500423,0.013367716,-0.023500366,-0.0086281765,-0.011337626,0.11527486,0.11538753,0.21793747,1.4452763e-05,9.554913e-06,3.2797634e-05,-0.00024182803,-5.2552623e-05,-6.0478866e-05,0,0,1
12660000,12506000,12508000,0,-0.01,0.0,0.01,0.09,0.09,0.20250002,0.0031990344,-0.023152795,-0.023776727,-0.011700185,-0.015047539,-0.016835265,0.11657253,0.11669196,0.21726565,3.511572e-06,0.00018374939,0.00010408138,-0.0001333967,-0.0001105369,-7.974962e-05,0,0,1
13060000,12906000,12908000,0,0.0,-0.01,0.0,0.09,0.09,0.20250002,0.0068732733,-0.008232966,-0.019169629,-0.0034453133,-0.01201884,-0.01787276,0.11766363,0.11783167,0.21653153,1.605998e-05,2.3009681e-05,6.788382e-05,-6.69715e-05,-7.1635906e-05,-7.447593e-05,0,0,1
13460000,13302000,13308000,0,-0.01,-0.01,-0.03,0.09,0.09,0.20250002,0.009007273,-0.0048937956,0.01357474,0.0020582848,-0.008869825,-0.0039740885,0.11833763,0.11847941,0.21581373,2.7423559e-05,8.085535e-06,3.415419e-05,-2.5252259e-05,-4.3548913e-05,-2.6465299e-05,0,0,1
13860000,13706000,13708000,0,0.0,0.0,0.0,0.09,0.09,0.20250002,0.0019117371,-0.016916456,-0.015484594,0.0019927924,-0.012465885,-0.009118164,0.11865831,0.1187974,0.21513146,1.2320212e-06,9.635446e-05,4.4581608e-05,-1.3416364e-05,-6.714785e-05,-3.4561526e-05,0,0,1
14268000,14110000,14116000,0,0.0,0.01,0.03,0.09,0.09,0.20250002,-0.00010444249,-0.021379564,-0.04579641,0.0010555326,-0.016449431,-0.02550977,0.11893401,0.1190231,0.2146062,3.6686678e-09,0.00015361245,0.00039091345,-7.4221953e-06,-0.000105789106,-0.00019381614,0,0,1
14668000,14510000,14516000,0,0.02,-0.01,-0.01,0.09,0.09,0.20250002,-0.007993573,0.0010566786,0.00086721964,-0.0029662927,-0.008668937,-0.013786662,0.118669555,0.118757695,0.21401118,2.1537862e-05,3.760833e-07,1.4056648e-07,-1.3695826e-05,-5.8604575e-05,-0.00010761315,0,0,1
15068000,14910000,14916000,0,0.0,0.0,0.0,0.09,0.09,0.20250002,0.02509483,-0.008882388,-0.0063959956,0.0095053185,-0.008763804,-0.010501921,0.11827062,0.11834872,0.21346943,0.00021298628,2.6665879e-05,7.665502e-06,8.705178e-05,-4.44096e-05,-6.319197e-05,0,0,1
15268000,15114000,15116000,0,0.0,0.0,-0.01,0.09,0.09,0.20250002,0.020522222,-0.0026812449,0.0027945954,0.012697716,-0.0070012445,-0.006648953,0.1141178,0.11415094,0.21259847,0.00014762345,2.5191466e-06,1.4693923e-06,0.0001046038,-3.227089e-05,-4.445487e-05,0,0,1
15668000,15510000,15516000,0,0.02,0.0,-0.02,0.09,0.09,0.20250002,0.0011693966,-0.0058827805,0.008961473,0.007602611,-0.0065069236,0.00025029713,0.1147982,0.114776984,0.21235049,4.7648425e-07,1.2060644e-05,1.5127442e-05,5.8583246e-05,-2.3338684e-05,-1.8121616e-05,0,0,1
16068000,15910000,15916000,0,-0.01,0.0,0.0,0.09,0.09,0.20250002,0.040698845,-0.0041076923,-0.006882213,0.02231205,-0.0054405984,-0.0029197077,0.115082994,0.11503237,0.21205142,0.0005757222,5.867266e-06,8.934599e-06,0.0002884228,-1.5573609e-05,-1.4038497e-05,0,0,1
16468000,16310000,16316000,0,0.0,0.0,0.01,0.09,0.09,0.20250002,0.026791673,-0.006410561,-0.01897345,0.024302995,-0.0058716927,-0.010054705,0.115101635,0.11500985,0.21177302,0.00024944695,1.429279e-05,6.799578e-05,0.0002711002,-1.5004356e-05,-3.8019512e-05,0,0,1
16868000,16710000,16716000,0,0.0,0.01,-0.01,0.09,0.09,0.20250002,0.018045118,-0.016443925,0.0032562558,0.021521715,-0.010570463,-0.0041387216,0.11494522,0.11479322,0.21151376,0.00011331529,9.422253e-05,2.0052032e-06,0.00020097358,-5.0212435e-05,-2.023075e-05,0,0,1
17268000,17110000,17116000,0,0.0,0.01,0.0,0.09,0.09,0.20250002,0.017304135,-0.017096795,0.0010234267,0.019647235,-0.013471055,-0.0018444334,0.11460514,0.114432916,0.2113205,0.00010450948,0.00010217354,1.9825849e-07,0.00015810065,-7.330626e-05,-1.1151189e-05,0,0,1
17668000,17510000,17516000,0,-0.01,0.0,-0.01,0.09,0.09,0.20250002,0.02366799,-0.007190097,0.01479802,0.021434236,-0.010679518,0.0055522127,0.1141878,0.113998294,0.2110954,0.00019622891,1.8139744e-05,4.1494302e-05,0.00017504655,-4.8787806e-05,1.2246808e-05,0,0,1
18060000,17906000,17908000,0,-0.02,0.02,-0.03,0.09,0.09,0.20250002,0.028955286,-0.025560977,0.033838645,0.024758272,-0.017256591,0.018053804,0.11363384,0.11342196,0.21087113,0.00029512637,0.0002304187,0.00021720449,0.00022811754,-0.00012906217,0.00010283079,0,0,1
18468000,18310000,18316000,0,-0.01,0.0,0.02,0.09,0.09,0.20250002,0.0136816865,-0.0065565226,-0.02459782,0.019808117,-0.012474703,-0.0010073185,0.113312885,0.11309232,0.21074511,6.607847e-05,1.5204565e-05,0.00011484067,0.00015570185,-7.817891e-05,5.5528362e-06,0,0,1
18868000,18710000,18716000,0,0.0,0.0,0.0,0.09,0.09,0.20250002,0.008993165,-0.005938534,0.001546435,0.015001471,-0.009569739,0.00012768316,0.112802975,0.11258192,0.2105697,2.8679036e-05,1.2529965e-05,4.5428405e-07,9.924726e-05,-4.90016e-05,3.286813e-06,0,0,1
19268000,19110000,19116000,0,-0.01,0.0,0.0,0.09,0.09,0.20250002,0.023895398,-0.0109771155,0.002250068,0.018954327,-0.010195239,0.0010709653,0.112332,0.11210514,0.21041052,0.0002033223,4.2994303e-05,9.624624e-07,0.00014550284,-4.633169e-05,2.2537681e-06,0,0,1
19668000,19510000,19516000,0,0.0,0.0,0.0,0.09,0.09,0.20250002,0.013563134,-0.02722824,0.0031000227,0.016558241,-0.017765462,0.0019727687,0.11186153,0.11163466,0.21026538,6.5780834e-05,0.00026564405,1.8281926e-06,0.00011007083,-0.00014380386,2.0646235e-06,0,0,1
20068000,19910000,19916000,0,0.0,0.0,0.02,0.09,0.09,0.20250002,0.014738985,-0.027886638,-0.022384692,0.015749684,-0.022263763,-0.008852771,0.111431524,0.11121008,0.21013816,7.7980694e-05,0.0002797101,9.538e-05,9.5808544e-05,-0.00020420665,-4.1244104e-05,0,0,1
20468000,20310000,20316000,0,0.0,0.0,-0.01,0.09,0.09,0.20250002,0.015088147,-0.031658795,0.007917421,0.015455667,-0.026439333,-0.0013993517,0.11104539,0.11082264,0.21002604,8.200329e-05,0.00036175974,1.1938626e-05,8.9672874e-05,-0.00027423026,-1.7607332e-05,0,0,1
20668000,20510000,20516000,0,0.0,-0.01,0.04,0.09,0.09,0.20250002,0.017379994,-0.018480847,-0.043705568,0.016005475,-0.02416548,-0.013486842,0.108420715,0.10824182,0.20965123,0.0001114415,0.00012621432,0.00036444847,9.589248e-05,-0.00023194,-0.0001167048,0,0,1
21068000,20910000,20916000,0,0.0,0.0,-0.03,0.09,0.09,0.20250002,0.023784786,-0.03710068,0.024502417,0.019462947,-0.029914457,0.0033972748,0.10870682,0.10852091,0.20962748,0.00020816214,0.0005073531,0.00011455911,0.00014579011,-0.00035434583,-1.3920835e-05,0,0,1
21460000,21306000,21308000,0,0.01,0.0,0.0,0.09,0.09,0.20250002,0.020400072,-0.04053555,-0.004196201,0.019877123,-0.034608603,4.1229883e-05,0.108771265,0.10858977,0.20961267,0.00015304149,0.0006052618,3.3601218e-06,0.00014899496,-0.00046524173,-9.253377e-06,0,0,1
21868000,21710000,21716000,0,0.0,0.01,0.01,0.09,0.09,0.20250002,0.036361273,-0.048552208,-0.010085622,0.027243933,-0.040840037,-0.0044844868,0.108940125,0.108760774,0.20959517,0.00048545646,0.0008669732,1.9412617e-05,0.0002993605,-0.00064477656,-1.3793568e-05,0,0,1
22268000,22110000,22116000,0,0.01,0.0,-0.04,0.09,0.09,0.20250002,0.034740604,-0.03135586,0.037005357,0.030575788,-0.03662485,0.013955445,0.108911686,0.10875233,0.20955646,0.00044326176,0.00036162534,0.0002613895,0.00036331662,-0.00051893154,0.00010851002,0,0,1
22668000,22510000,22516000,0,0.02,0.0,0.01,0.09,0.09,0.20250002,0.029375978,-0.031286083,-0.014556618,0.030042538,-0.034252062,0.0012834156,0.10882833,0.10868232,0.20951413,0.00031717774,0.00036024957,4.045458e-05,0.00034281044,-0.0004484062,4.2303524e-05,0,0,1
23068000,22910000,22916000,0,-0.03,0.04,-0.089999996,0.09,0.09,0.20250002,0.032112345,-0.016394624,-0.10556831,0.030962452,-0.026315423,-0.046206247,0.10900736,0.10878556,0.20949873,0.00037839747,9.883066e-05,0.0021278732,0.0003586269,-0.0002930393,-0.00092221954,0,0,1
23468000,23310000,23316000,0,-0.12,0.12,-0.44,0.09,0.09,0.20250002,0.037769616,-0.008909762,-0.12387538,0.033987857,-0.018579572,-0.08072586,0.109783165,0.10939403,0.20945223,0.0005197678,2.902676e-05,0.0029305222,0.00043024507,-0.00017570039,-0.0018147985,0,0,1
23868000,23710000,23716000,0,-0.14999999,0.099999994,-0.71,0.09,0.09,0.20250002,0.07735976,-0.028592192,-0.029107094,0.05326426,-0.023029625,-0.057784185,0.10924481,0.10911879,0.20940386,0.0021912372,0.00029967836,0.00016183521,0.0012129083,-0.00023080171,-0.0010801482,0,0,1
24268000,24110000,24116000,0,-0.08,0.02,-0.81,0.09,0.09,0.20250002,0.052027673,-0.01057782,0.03459823,0.052714664,-0.017495489,-0.016725332,0.1087525,0.10864369,0.20935634,0.0009956107,4.119532e-05,0.00022870816,0.0011163316,-0.0001465322,-0.0004984342,0,0,1
24668000,24510000,24516000,0,-0.049999997,-0.01,-0.78,0.09,0.09,0.20250002,0.08186607,-0.028939886,-0.015028,0.06567085,-0.022581888,-0.015970962,0.10855397,0.10849378,0.20931062,0.0024695746,0.00030877974,4.315897e-05,0.0017177729,-0.00021864222,-0.00029608962,0,0,1
25068000,24910000,24916000,0,-0.01,-0.04,-0.79999995,0.09,0.09,0.20250002,0.089561604,-0.029226743,0.020360053,0.07628896,-0.025535157,0.00017615594,0.10836393,0.108495384,0.20929433,0.0029608677,0.00031492676,7.922464e-05,0.0022702594,-0.00026143534,-0.00012928327,0,0,1
25468000,25310000,25316000,0,0.03,-0.08,-0.78,0.09,0.09,0.20250002,0.07439132,0.009192444,0.03788793,0.07544556,-0.0101006655,0.016936947,0.10808309,0.108277105,0.20924763,0.0020480792,3.1216587e-05,0.00027441082,0.0021715127,-0.00013136781,5.013634e-05,0,0,1
25868000,25710000,25716000,0,0.04,-0.07,-0.71,0.09,0.09,0.20250002,0.07610625,-0.0033240095,0.02436924,0.075739205,-0.007088818,0.020240188,0.107833594,0.107960805,0.20920317,0.0021485554,4.0937225e-06,0.000113547016,0.0021613094,-7.4801545e-05,7.8318866e-05,0,0,1
26068000,25910000,25916000,0,0.03,-0.07,-0.69,0.09,0.09,0.20250002,0.079618946,0.0008933991,0.038407385,0.0768477,-0.0048081847,0.025430815,0.1058641,0.10593427,0.20892674,0.002395213,3.0138008e-07,0.00028242002,0.002228139,-5.3343567e-05,0.00013663349,0,0,1
26468000,26310000,26316000,0,0.03,-0.04,-0.61,0.09,0.09,0.20250002,0.079084486,-0.01718263,0.062126398,0.077841826,-0.010307938,0.041739963,0.1061156,0.1061237,0.20894405,0.0023575632,0.00011128249,0.0007388943,0.002285661,-7.90942e-05,0.00040430497,0,0,1
26868000,26710000,26716000,0,0.07,-0.049999997,-0.26,0.09,0.09,0.20250002,0.031165458,0.01412322,0.08251369,0.057096772,0.00055035576,0.059861623,0.10611224,0.106029764,0.20895562,0.00036613524,7.524881e-05,0.0013033408,0.0014325384,-1.04973005e-05,0.0008038765,0,0,1
27268000,27114000,27116000,0,0.049999997,-0.07,-0.21,0.09,0.09,0.20250002,0.06381596,0.05411748,-0.026000276,0.060099594,0.024489643,0.021489713,0.10647157,0.10635226,0.2089578,0.0015299772,0.0011015098,0.00012940686,0.001476084,0.00048646162,0.0003867897,0,0,1
27668000,27510000,27516000,0,0.06,-0.02,-0.16,0.09,0.09,0.20250002,0.039042454,0.009794799,-0.035083592,0.05079309,0.017995046,-0.0035136659,0.106651604,0.10644686,0.20895341,0.0005716982,3.605107e-05,0.00023562349,0.0010763778,0.00028739625,0.0001117053,0,0,1
28068000,27910000,27916000,0,0.01,-0.01,-0.14,0.09,0.09,0.20250002,0.07565464,0.021019194,-0.015188485,0.06184267,0.019339113,-0.008702476,0.106815405,0.10652251,0.20896871,0.0021433705,0.00016590166,4.4157823e-05,0.0015505968,0.00023339865,4.2432803e-05,0,0,1
28468000,28310000,28316000,0,0.0,0.02,-0.11,0.09,0.09,0.20250002,0.1118651,0.034691986,-0.025143445,0.08407486,0.026162613,-0.016009573,0.10707754,0.10671069,0.20895515,0.004674669,0.000451139,0.00012101981,0.0029390734,0.00033017213,-3.021281e-05,0,0,1
28868000,28710000,28716000,0,0.32,0.14999999,-0.16,0.09,0.09,0.20250002,0.2668051,0.069708556,0.0039117336,0.16528831,0.045516364,-0.0071556587,0.10892423,0.1161107,0.20894064,0.026141096,0.0016740172,2.9293794e-06,0.013251084,0.00092743663,-1.5482947e-05,0,0,1
29268000,29114000,29116000,0,1.28,0.26999998,-0.099999994,0.09,0.09,0.20250002,0.30397272,0.06604317,-0.018795036,0.22726674,0.054689847,-0.012357327,0.109977975,0.17030308,0.20894578,0.033606514,0.001024456,6.762584e-05,0.02234798,0.0009707948,-3.8785744e-05,0,0,1
29668000,29510000,29516000,0,2.45,0.29999998,-0.02,0.09,0.09,0.20250002,0.22808719,0.12935084,-0.031101871,0.22762935,0.08768734,-0.020641744,0.10893339,0.198099,0.20899309,0.019102963,0.0033784402,0.00018514036,0.020913798,0.0020348881,-0.000103469254,0,0,1
30068000,29910000,29916000,0,3.5,0.29999998,0.0,0.09,0.09,0.20250002,0.17235637,0.12666684,-0.025020733,0.20306358,0.10501157,-0.022587962,0.10818945,0.17349,0.20908524,0.010983221,0.003699231,0.000119766875,0.016500209,0.0027745962,-0.000110712645,0,0,1
30468000,30310000,30316000,0,4.39,0.32999998,0.11,0.09,0.09,0.20250002,0.041306496,0.14227265,-0.070628926,0.13117154,0.12157205,-0.0439395,0.10870272,0.14902005,0.2092361,0.0006278506,0.0054332307,0.00095364905,0.009445827,0.0039562117,-0.00048535108,0,0,1
30868000,30710000,30716000,0,4.83,0.59999996,0.08,0.09,0.09,0.20250002,-0.09916878,0.11547011,-0.015064545,0.028798059,0.11886007,-0.031106185,0.11048892,0.12915832,0.20928615,0.0035603375,0.004129303,4.3374203e-05,0.0036653094,0.0040331413,-0.0002889169,0,0,1
31268000,31110000,31116000,0,4.7599998,0.9,0.06,0.09,0.09,0.20250002,-0.17108536,0.056240737,-0.023354642,-0.06003902,0.09102926,-0.027661055,0.11258045,0.11792937,0.20922653,0.010399745,0.0010728525,0.00010427727,-0.0025858264,0.0027174572,-0.00020685483,0,0,1
31668000,31510000,31516000,0,4.5099998,1.0699999,0.03,0.09,0.09,0.20250002,-0.074719906,0.040036082,-0.016875943,-0.06656386,0.06836562,-0.022867672,0.11428638,0.11454813,0.20919496,0.0019540612,0.00055972557,5.445589e-05,-0.002305042,0.0017584653,-0.00013912196,0,0,1
32068000,31910000,31916000,0,4.44,1.18,0.03,0.09,0.09,0.20250002,-0.058986664,0.0051236153,-0.024966745,-0.06319622,0.040258057,-0.023800593,0.11532673,0.11438775,0.20917542,0.0012068066,9.179806e-06,0.000119199154,-0.0018169374,0.000981005,-0.00013026738,0,0,1
32468000,32310000,32316000,0,4.44,1.22,0.03,0.09,0.09,0.20250002,-0.04241705,-0.019081473,-0.029358549,-0.05396103,0.01388493,-0.026270796,0.11565,0.11493017,0.20917597,0.00062229356,0.00012672134,0.00016482284,-0.0012859845,0.0004886822,-0.00014562535,0,0,1
32868000,32710000,32716000,0,4.44,1.17,0.02,0.09,0.09,0.20250002,0.010294914,-0.017728925,-0.022717502,-0.02540283,-0.0001656739,-0.024691554,0.1153561,0.11528704,0.20919047,3.6750636e-05,0.000109054665,9.86823e-05,-0.0006981022,0.00022302134,-0.00012476178,0,0,1
33268000,33110000,33116000,0,4.5,1.06,-0.01,0.09,0.09,0.20250002,0.01818037,0.0055059195,0.0057332087,-0.006032519,0.0023550345,-0.011169436,0.114790134,0.1153021,0.20923649,0.0001151757,1.0516772e-05,6.2837375e-06,-0.0003366453,0.00012857486,-6.651932e-05,0,0,1
33668000,33510000,33516000,0,4.56,0.96999997,0.0,0.09,0.09,0.20250002,0.040344715,0.006026268,2.1358504e-05,0.014579587,0.003986694,-0.006195749,0.1140756,0.11496114,0.20925148,0.00057074294,1.2635889e-05,8.720334e-11,6.66384e-05,7.7046425e-05,-3.6955138e-05,0,0,1
34068000,33910000,33916000,0,4.61,0.89,0.0,0.09,0.09,0.20250002,0.039358616,0.012129486,0.005048245,0.02559249,0.007605713,-0.001198418,0.113283575,0.11447299,0.20928088,0.0005469815,5.1409304e-05,4.870924e-06,0.00028012425,6.5652144e-05,-1.8365776e-05,0,0,1
34468000,34310000,34316000,0,4.65,0.85999995,0.0,0.09,0.09,0.20250002,0.01701355,-0.013171494,0.011283845,0.021779627,-0.0016286019,0.004349255,0.11243736,0.11390846,0.20927326,0.00010297676,6.092199e-05,2.433663e-05,0.00020139202,9.396972e-06,6.130722e-07,0,0,1
34868000,34710000,34716000,0,4.67,0.82,0.0,0.09,0.09,0.20250002,0.012725353,0.0060631633,0.009331226,0.017755505,0.0017899605,0.0065634646,0.111585766,0.11328088,0.20926091,5.804848e-05,1.2980814e-05,1.664368e-05,0.00013768378,1.0989791e-05,7.737788e-06,0,0,1
35268000,35110000,35116000,0,4.67,0.78999996,0.0,0.09,0.09,0.20250002,0.0377717,0.02988416,0.015232846,0.026651593,0.014276272,0.010416524,0.11074552,0.11255659,0.20924604,0.00051530806,0.00031737387,4.4357275e-05,0.00030551682,0.0001471605,2.4013118e-05,0,0,1
35668000,35510000,35516000,0,4.7,0.78999996,0.06,0.09,0.09,0.20250002,0.029545784,0.036592185,-0.04333969,0.0279379,0.024194457,-0.013475128,0.109959155,0.1118194,0.20923111,0.0003175555,0.00047898237,0.00035909165,0.00031086736,0.00029463688,-0.00014625567,0,0,1
36068000,35910000,35916000,0,4.72,0.79999995,0.049999997,0.09,0.09,0.20250002,0.029420853,0.033876598,-0.03245298,0.02859699,0.02849763,-0.021909729,0.109247304,0.11112104,0.2092188,0.00031692738,0.00041310766,0.00020135776,0.0003135607,0.00034729057,-0.0001707455,0,0,1
36460000,36306000,36308000,0,4.72,0.84,0.03,0.09,0.09,0.20250002,0.04810524,0.008078158,-0.01759143,0.03721894,0.019472953,-0.020001195,0.108543284,0.11037432,0.209196,0.0008527894,2.364921e-05,5.9171e-05,0.0005518805,0.00020425266,-0.00012143355,0,0,1
36868000,36710000,36716000,0,4.7799997,0.88,-0.01,0.09,0.09,0.20250002,0.0037760735,-0.010155618,0.01846108,0.022273235,0.006231867,-0.0028123036,0.10809051,0.109880246,0.2092284,5.276589e-06,3.7545087e-05,6.515587e-05,0.0003076018,9.619261e-05,-3.8046244e-05,0,0,1
37268000,37110000,37116000,0,4.7799997,0.87,0.03,0.09,0.09,0.20250002,0.029697418,0.03188044,-0.019534342,0.025572872,0.017631233,-0.010244321,0.10761779,0.10930734,0.2092177,0.00032780328,0.00037192833,7.2955685e-05,0.00031658023,0.00021874183,-5.3561555e-05,0,0,1
37668000,37510000,37516000,0,4.79,0.90999997,0.03,0.09,0.09,0.20250002,0.03259754,-0.0033783317,-0.015451072,0.028694948,0.008293648,-0.012558432,0.1072249,0.1088268,0.20920646,0.00039640037,4.1949684e-06,4.5645935e-05,0.00035205585,0.0001196588,-5.00435e-05,0,0,1
38068000,37910000,37916000,0,4.85,0.90999997,0.02,0.09,0.09,0.20250002,-0.0075907707,0.0069058537,-0.0056100674,0.01256796,0.0076768505,-0.00947027,0.10690728,0.10838708,0.20919397,2.1558793e-05,1.7600185e-05,6.017928e-06,0.00018600488,7.4299416e-05,-3.0476578e-05,0,0,1
38468000,38310000,38316000,0,4.8599997,0.93,0.03,0.09,0.09,0.20250002,-0.003042221,-0.019629836,-0.011536965,0.005630101,-0.004459456,-0.010388801,0.10665152,0.108035155,0.20918344,3.4711586e-06,0.00014266855,2.5451644e-05,0.0001017933,-2.21308e-05,-2.8243274e-05,0,0,1
38868000,38710000,38716000,0,4.87,0.95,0.0,0.09,0.09,0.20250002,-0.0034947395,-0.03529507,0.01393909,0.001574616,-0.018164175,0.00042359624,0.10646632,0.10775508,0.2091971,4.58857e-06,0.0004624346,3.715123e-05,5.4512468e-05,-0.0002178214,8.2095175e-07,0,0,1
39268000,39110000,39116000,0,4.8599997,0.91999996,0.04,0.09,0.09,0.20250002,0.012056351,-0.0115196705,-0.025964394,0.006233165,-0.015211062,-0.0113044,0.10632487,0.10751895,0.2091802,5.4683573e-05,4.936909e-05,0.00012891272,5.4588516e-05,-0.00014295371,-5.6838464e-05,0,0,1
39668000,39514000,39516000,0,4.89,0.93,0.06,0.09,0.09,0.20250002,-0.014773846,-0.03313005,-0.038956545,-0.0031549232,-0.023219105,-0.023662217,0.106224924,0.10731696,0.20918706,8.219032e-05,0.00040910597,0.00029019237,-6.538303e-06,-0.00026189786,-0.00016112495,0,0,1
40068000,39910000,39916000,0,4.88,0.93,0.0,0.09,0.09,0.20250002,-0.009387016,-0.026985168,0.017639004,-0.0059092855,-0.02488357,-0.0054085534,0.1061762,0.10718521,0.20916745,3.319617e-05,0.00027175364,5.9499594e-05,-1.8320128e-05,-0.00026625377,-6.361678e-05,0,0,1
40468000,40310000,40316000,0,4.73,1.1,0.04,0.09,0.09,0.20250002,-0.18439054,0.14176118,-0.057123587,-0.0852343,0.04918077,-0.028393013,0.10637393,0.1078009,0.20915906,0.012785039,0.007456796,0.0006240426,-0.0056924177,0.0031662132,-0.00031269493,0,0,1
40868000,40710000,40716000,0,3.85,1.75,-0.01,0.09,0.09,0.20250002,-0.28536987,0.12710476,-0.014618484,-0.17418346,0.08381365,-0.022271,0.10744209,0.11107155,0.2091991,0.030318085,0.0058180946,4.086061e-05,-0.01663716,0.0043448275,-0.00019187966,0,0,1
41268000,41110000,41116000,0,2.56,2.3999999,-0.049999997,0.09,0.09,0.20250002,-0.28632474,0.12182021,0.013256848,-0.22402403,0.10070546,-0.0064808447,0.10894584,0.11694702,0.20930777,0.030100044,0.005075859,3.3585762e-05,-0.022620663,0.0046697306,-9.16728e-05,0,0,1
41660000,41506000,41508000,0,1.22,3.08,0.0,0.09,0.09,0.20250002,-0.19962573,0.05024004,-0.019935861,-0.21324085,0.07840155,-0.012427481,0.11003827,0.12153818,0.20946726,0.014486026,0.00083070574,7.589512e-05,-0.019025445,0.0029730187,-8.469963e-05,0,0,1
41868000,41710000,41716000,0,0.57,3.3799999,0.04,0.09,0.09,0.20250002,-0.17053384,0.019074202,-0.03426186,-0.20086552,0.061210103,-0.018754488,0.1079117,0.11794402,0.20931073,0.010779846,0.00012338911,0.00022433157,-0.016636096,0.0021472736,-0.00012516117,0,0,1
42268000,42110000,42116000,0,-0.65,3.79,0.049999997,0.09,0.09,0.20250002,-0.087680876,-0.015215874,-0.045002356,-0.15056123,0.027243,-0.030420208,0.10846243,0.120056674,0.20959157,0.002835244,7.713784e-05,0.00038650644,-0.010502383,0.0011586463,-0.00024131463,0,0,1
42668000,42510000,42516000,0,-1.7199999,4.06,0.06,0.09,0.09,0.20250002,0.028766036,-0.056063175,-0.025569085,-0.070860215,-0.009781972,-0.028264154,0.10868637,0.11965943,0.2098738,0.00030454042,0.001050675,0.00012460405,-0.0056993053,0.00017672568,-0.00018944326,0,0,1
43068000,42910000,42916000,0,-2.46,4.02,0.12,0.09,0.09,0.20250002,0.15476799,-0.09146929,-0.07564711,0.02941899,-0.046087448,-0.049323246,0.10872658,0.11725307,0.2099518,0.008812244,0.0028542127,0.0010902474,0.000750273,-0.0011703582,-0.0005898007,0,0,1
43468000,43310000,43316000,0,-2.71,3.87,0.06,0.09,0.09,0.20250002,0.2669301,-0.056462765,-0.05953547,0.13497949,-0.0506987,-0.053862013,0.10928145,0.11399415,0.20977691,0.026080064,0.0011186693,0.0006758555,0.012007959,-0.0011473853,-0.0006280473,0,0,1
43868000,43710000,43716000,0,-2.47,3.85,-0.01,0.09,0.09,0.20250002,0.24654102,0.019622326,-0.017296648,0.1845624,-0.019444909,-0.03761074,0.11008295,0.11165974,0.20944752,0.022086063,0.00013793177,5.7135843e-05,0.016487118,-0.00057613326,-0.00037430885,0,0,1
44268000,44110000,44116000,0,-2.21,3.98,-0.03,0.09,0.09,0.20250002,0.17605424,-0.021927118,-0.017785756,0.18078099,-0.020548113,-0.028799634,0.11074654,0.11116254,0.20920122,0.011194967,0.00017300737,6.0483988e-05,0.014135051,-0.00039696618,-0.00023483112,0,0,1
44668000,44514000,44516000,0,-2.0,4.0699997,-0.03,0.09,0.09,0.20250002,0.08691025,-0.0182333,-0.022988284,0.13882992,-0.019513616,-0.026202526,0.11114918,0.111527935,0.20900129,0.0027182896,0.00011923585,0.00010114027,0.00903287,-0.00027284777,-0.00017508432,0,0,1
45068000,44910000,44916000,0,-1.88,4.18,-0.01,0.09,0.09,0.20250002,0.038786888,-0.050007343,-0.042594552,0.094614476,-0.032990754,-0.033447217,0.11124504,0.1120375,0.20885494,0.00054094015,0.0008928204,0.00034747482,0.0052797403,-0.0005468535,-0.00025127476,0,0,1
45468000,45310000,45316000,0,-1.8299999,4.21,-0.06,0.09,0.09,0.20250002,-0.027554274,-0.036278248,0.0129710175,0.04031725,-0.03445186,-0.012816889,0.11111424,0.11232452,0.20877883,0.00027331797,0.00046868174,3.223455e-05,0.0028117143,-0.00051211054,-0.00012527061,0,0,1
45868000,45710000,45716000,0,-1.81,4.19,0.03,0.09,0.09,0.20250002,-0.046581984,-0.10264444,-0.047716655,0.0016953647,-0.06475968,-0.028327897,0.110826224,0.112393916,0.208694,0.0007831653,0.0037496272,0.00043640527,0.0012139899,-0.0019510069,-0.0002635527,0,0,1
46268000,46110000,46116000,0,-1.74,3.74,0.01,0.09,0.09,0.20250002,0.0068918467,-0.14997149,-0.034520127,0.0040049125,-0.1026316,-0.03108,0.110721275,0.112516195,0.20861222,1.7159322e-05,0.007995808,0.00022848885,0.00068206515,-0.004637585,-0.00024796877,0,0,1
46668000,46510000,46516000,0,-1.53,3.1799998,-0.049999997,0.09,0.09,0.20250002,-0.042161465,-0.10098791,0.030318096,-0.016513478,-0.10190107,-0.0037919544,0.11077398,0.112536564,0.20855276,0.0006418796,0.0036249757,0.00017629821,9.364518e-05,-0.0041875364,-5.9405662e-05,0,0,1
47068000,46910000,46916000,0,-1.35,2.6699998,0.0,0.09,0.09,0.20250002,-0.042842984,-0.07291174,-0.0108981505,-0.028215483,-0.08901692,-0.006950264,0.11075678,0.11237198,0.20851205,0.0006629017,0.0018923299,2.2784234e-05,-0.00024259789,-0.0031674446,-4.312947e-05,0,0,1
47468000,47310000,47316000,0,-1.11,2.1699998,0.04,0.09,0.09,0.20250002,-0.071952224,-0.018773317,-0.050112866,-0.047654036,-0.05779754,-0.026133645,0.11059454,0.112116694,0.20850204,0.0018724694,0.00012573949,0.0004817793,-0.0009669853,-0.0018155755,-0.00023808496,0,0,1
47868000,47710000,47716000,0,-0.89,1.6999999,0.0,0.09,0.09,0.20250002,-0.10638338,0.036869645,-0.006544523,-0.07375597,-0.015723232,-0.017427368,0.11027348,0.111649945,0.20847511,0.004105221,0.0004870117,8.217917e-06,-0.0023617567,-0.00079220335,-0.00013592181,0,0,1
48268000,48110000,48116000,0,-0.72999996,1.35,0.03,0.09,0.09,0.20250002,-0.13251758,0.022762656,-0.034031115,-0.09987225,0.0013816077,-0.024806812,0.109793976,0.11097683,0.20845038,0.0063977675,0.00018675557,0.00022223359,-0.0041555394,-0.00035711046,-0.00017428261,0,0,1
48668000,48510000,48516000,0,-0.59999996,1.04,0.049999997,0.09,0.09,0.20250002,-0.12828052,0.041568875,-0.05386003,-0.11249815,0.019242618,-0.037719354,0.109213024,0.110306434,0.20842466,0.0060270806,0.0006266076,0.00055672927,-0.0049873358,8.009761e-05,-0.0003442589,0,0,1
49068000,48910000,48916000,0,-0.48,0.74,0.0,0.09,0.09,0.20250002,-0.1771203,0.058280587,-0.026343174,-0.14121911,0.036592826,-0.032663275,0.10868111,0.109579206,0.20842151,0.011546293,0.0012398801,0.0001331845,-0.0079024285,0.0005955566,-0.00025044807,0,0,1
49468000,49310000,49316000,0,-0.61,0.14999999,-0.02,0.09,0.09,0.20250002,-0.18680269,-0.08614711,-0.019982483,-0.16147847,-0.017958261,-0.027027367,0.108869314,0.10859605,0.20842901,0.012820967,0.0027335521,7.6630335e-05,-0.010088446,-0.00088404736,-0.00017319573,0,0,1
49868000,49710000,49716000,0,-0.74,-0.66999996,0.049999997,0.09,0.09,0.20250002,-0.1799168,0.02313453,-0.045559973,-0.1696733,0.00030520372,-0.035264082,0.109035596,0.1078577,0.20844385,0.011875041,0.00019848614,0.0003983252,-0.0108824875,-0.00040292132,-0.00027325327,0,0,1
50268000,50110000,50116000,0,-0.95,-1.16,-0.04,0.09,0.09,0.20250002,-0.27030176,0.06242907,0.001423791,-0.21439706,0.027915813,-0.01895836,0.10867863,0.10731822,0.20846029,0.02689141,0.0014526476,3.889817e-07,-0.017997565,0.00042177606,-0.00015163448,0,0,1
50668000,50510000,50516000,0,-1.5999999,-1.5799999,-0.01,0.09,0.09,0.20250002,-0.3219316,0.026969194,-0.054538377,-0.2621902,0.027495094,-0.034771703,0.10838084,0.10714045,0.20846733,0.038250286,0.0002715454,0.00057072437,-0.026998775,0.00035500686,-0.00033789666,0,0,1
50876000,50718000,50724000,0,-2.07,-1.8199999,-0.03,0.09,0.09,0.20250002,-0.2965119,0.030061483,-0.010122331,-0.2722734,0.02824906,-0.02753008,0.106371656,0.1056849,0.20827958,0.033061177,0.0003420329,1.9677702e-05,-0.02877982,0.0003511953,-0.0002444086,0,0,1
51268000,51110000,51116000,0,-3.03,-2.23,-0.01,0.09,0.09,0.20250002,-0.21825051,0.029887438,0.019598471,-0.2485324,0.028969064,-0.0068188775,0.10648973,0.106966324,0.20835057,0.017892161,0.0003340337,7.374112e-05,-0.023995109,0.00034365343,-0.00010459393,0,0,1
51668000,51510000,51516000,0,-3.76,-2.56,0.099999994,0.09,0.09,0.20250002,-0.08171892,0.0492661,-0.04029782,-0.17439307,0.03798997,-0.02169841,0.10653302,0.10799055,0.20841126,0.0025073849,0.0008990226,0.000311675,-0.014445009,0.00059048424,-0.00019662996,0,0,1
51868000,51714000,51716000,0,-3.9499998,-2.6399999,0.08,0.09,0.09,0.20250002,-0.014428854,0.072860956,-0.020788629,-0.1280398,0.04809463,-0.02143478,0.104863256,0.10624368,0.20821004,7.9414596e-05,0.0019986955,8.302522e-05,-0.010282252,0.0009985454,-0.00016371041,0,0,1
52268000,52114000,52116000,0,-3.98,-2.52,0.04,0.09,0.09,0.20250002,0.037387848,0.1345594,-0.026283227,-0.054516397,0.08652341,-0.023589645,0.10511921,0.10633717,0.2082129,0.00053191086,0.006810875,0.00013271187,-0.005475957,0.0035818033,-0.00014993329,0,0,1
52668000,52510000,52516000,0,-3.8899999,-2.33,-0.02,0.09,0.09,0.20250002,0.0025873184,0.06002474,0.014132023,-0.029278595,0.07481194,-0.006918015,0.105595745,0.10638356,0.20821364,2.5357904e-06,0.001354709,3.8367143e-05,-0.0030546589,0.002597507,-6.6711225e-05,0,0,1
53068000,52914000,52916000,0,-3.8899999,-2.26,-0.03,0.09,0.09,0.20250002,0.005903721,-0.02034092,0.016330814,-0.013555525,0.032287877,0.0034719482,0.106065385,0.10650945,0.20824213,1.3144315e-05,0.00015538641,5.122796e-05,-0.0016836496,0.0013672317,-1.4003894e-05,0,0,1
53468000,53314000,53316000,0,-3.87,-2.34,0.0,0.09,0.09,0.20250002,-0.0144889355,-0.018345356,-0.009500824,-0.013970374,0.009784216,-0.0022937288,0.10639438,0.10658397,0.20825058,7.892494e-05,0.00012630496,1.7337892e-05,-0.0009704386,0.0007034376,-1.5485672e-05,0,0,1
53868000,53714000,53716000,0,-3.84,-2.44,0.01,0.09,0.09,0.20250002,-0.029494286,-0.015095949,-0.017311046,-0.02086989,-0.0012736358,-0.0089680925,0.106603205,0.10661157,0.20825656,0.00032641154,8.550204e-05,5.7558296e-05,-0.00068420434,0.00035279774,-3.4184617e-05,0,0,1
54268000,54114000,54116000,0,-3.76,-2.52,-0.02,0.09,0.09,0.20250002,-0.0664556,-0.008773804,0.009948667,-0.041130207,-0.004607044,-0.00056064315,0.10673234,0.10660058,0.20825776,0.0016551111,2.8885259e-05,1.9010284e-05,-0.0011157185,0.00018316084,-1.0542437e-05,0,0,1
54668000,54514000,54516000,0,-3.73,-2.59,0.04,0.09,0.09,0.20250002,-0.04938531,-0.009627342,-0.045532055,-0.04479914,-0.006838288,-0.02054794,0.10677044,0.106563814,0.20825662,0.00091370184,3.479069e-05,0.00039819488,-0.0010259333,8.629348e-05,-0.00018283243,0,0,1
55068000,54914000,54916000,0,-3.6899998,-2.6399999,0.0,0.09,0.09,0.20250002,-0.07643652,-0.0023975372,0.002897516,-0.058860198,-0.004864621,-0.010127736,0.10676209,0.10651428,0.2082734,0.0021889948,2.1586532e-06,1.6124188e-06,-0.0015428496,4.698142e-05,-0.00010085693,0,0,1
55468000,55314000,55316000,0,-3.59,-2.56,0.03,0.09,0.09,0.20250002,0.040196896,0.030252695,-0.027969182,-0.014834821,0.010743077,-0.018057268,0.1068479,0.106474325,0.20826086,0.00060489366,0.00034382957,0.00015024909,-0.00058829697,0.00017891394,-0.000122809,0,0,1
55868000,55714000,55716000,0,-3.11,-2.28,0.0,0.09,0.09,0.20250002,0.021494865,0.048150778,-0.0055138096,0.0013117082,0.027368724,-0.012482397,0.10714674,0.106648296,0.20824538,0.00017248467,0.00086958637,5.839668e-06,-0.00025017178,0.0004858795,-7.082263e-05,0,0,1
56268000,56114000,56116000,0,-2.62,-1.91,0.03,0.09,0.09,0.20250002,-0.055025578,0.0002746582,-0.040571623,-0.023727087,0.015326916,-0.024966497,0.10746661,0.10690753,0.20823845,0.0011269785,2.8225188e-08,0.00031618687,-0.0006398637,0.0002699456,-0.0001798734,0,0,1
56668000,56514000,56516000,0,-2.22,-1.5999999,0.0,0.09,0.09,0.20250002,-0.06772852,0.0114860535,-0.014133424,-0.04328328,0.013619866,-0.020151798,0.10770786,0.10713118,0.20825759,0.0017035535,4.925902e-05,3.8366652e-05,-0.0011126148,0.00017186266,-0.00011698151,0,0,1
57068000,56914000,56916000,0,-1.8399999,-1.28,0.0,0.09,0.09,0.20250002,-0.091282964,-0.03706765,-0.018032819,-0.06461647,-0.008907922,-0.01921003,0.10777411,0.10726517,0.20825653,0.003092609,0.0005123791,6.245808e-05,-0.0019926124,-0.00013224481,-9.274887e-05,0,0,1
57468000,57314000,57316000,0,-1.49,-1.03,-0.01,0.09,0.09,0.20250002,-0.12127352,-0.06725776,-0.009101426,-0.089797385,-0.034841187,-0.014717316,0.10763651,0.10727869,0.20825441,0.005465531,0.0016866748,1.5910531e-05,-0.0035361317,-0.00082310266,-5.8598496e-05,0,0,1
57868000,57714000,57716000,0,-1.1899999,-0.84,-0.03,0.09,0.09,0.20250002,-0.13085866,-0.052280664,0.007481849,-0.108046845,-0.042592067,-0.00485102,0.10742861,0.10719815,0.20825101,0.0063759517,0.0010198937,1.0752035e-05,-0.004798274,-0.0009105654,-2.7776037e-05,0,0,1
58268000,58114000,58116000,0,-0.94,-0.61,0.04,0.09,0.09,0.20250002,-0.14050013,-0.11820632,-0.061746597,-0.12247053,-0.07619841,-0.030137945,0.10714513,0.10702025,0.20824146,0.0073695504,0.005222464,0.0007323503,-0.0059410636,-0.002826965,-0.00034092015,0,0,1
58668000,58514000,58516000,0,-0.7,-0.44,-0.01,0.09,0.09,0.20250002,-0.17673302,-0.13894069,-0.016365482,-0.1465872,-0.104083866,-0.02401685,0.10686262,0.10681274,0.20824859,0.011691482,0.0072292937,5.1444094e-05,-0.008496805,-0.004783556,-0.00021226412,0,0,1
59068000,58914000,58916000,0,-0.55,-0.32,-0.03,0.09,0.09,0.20250002,-0.1537543,-0.14284882,0.002826279,-0.14977257,-0.12131274,-0.012086569,0.106573544,0.10659612,0.20823388,0.00887289,0.007657234,1.5344003e-06,-0.008663954,-0.0060607465,-0.00011724255,0,0,1
59468000,59314000,59316000,0,-0.42999998,-0.26,0.099999994,0.09,0.09,0.20250002,-0.13679317,-0.12100524,0.0630573,-0.14400394,-0.12117607,0.02131071,0.10619027,0.106272794,0.20821816,0.0070486194,0.005511201,0.0007638572,-0.007946027,-0.005816504,0.0002743574,0,0,1
59868000,59714000,59716000,0,-0.34,-0.19999999,0.71,0.09,0.09,0.20250002,-0.10751748,-0.103348434,0.0484733,-0.12778774,-0.11325268,0.03338297,0.105650246,0.105753034,0.20820281,0.004376709,0.0040399404,0.0004514177,-0.006359664,-0.0050269202,0.00035305085,0,0,1
60268000,60110000,60116000,0,-0.17999999,-0.049999997,0.69,0.09,0.09,0.20250002,-0.105315045,-0.12771615,-0.06632286,-0.11785561,-0.119645014,-0.010683443,0.10574585,0.105879545,0.20819251,0.0041954396,0.006162254,0.0008451259,-0.005403154,-0.0055286973,-0.00017650044,0,0,1
60468000,60314000,60316000,0,-0.13,0.0,0.69,0.09,0.09,0.20250002,-0.10928786,-0.1547716,-0.05625063,-0.11537291,-0.12982374,-0.023887571,0.10420778,0.104337424,0.20799778,0.004584624,0.009183376,0.0006084937,-0.005165966,-0.0065877233,-0.0003016803,0,0,1
60868000,60710000,60716000,0,-0.099999994,0.01,0.64,0.09,0.09,0.20250002,-0.105807364,-0.14751758,0.014119625,-0.11114528,-0.13764378,-0.007089749,0.10455803,0.10470773,0.20802312,0.004282865,0.008313211,3.8334936e-05,-0.004775667,-0.007350327,-0.00015140572,0,0,1
61276000,61118000,61124000,0,-0.08,0.0,0.66999996,0.09,0.09,0.20250002,-0.09796351,-0.12971602,-0.0026895404,-0.105222195,-0.13408153,-0.005112563,0.104967736,0.10513801,0.20805162,0.0036570665,0.006401584,1.390737e-06,-0.004273036,-0.0069240197,-8.399811e-05,0,0,1
61668000,61514000,61516000,0,-0.049999997,0.0,0.71999997,0.09,0.09,0.20250002,-0.096261814,-0.13938095,-0.03944707,-0.101262026,-0.13642368,-0.020287188,0.10522971,0.10540679,0.20805693,0.003522327,0.0073722186,0.00029916258,-0.0039412496,-0.007122108,-0.00017909313,0,0,1
62068000,61914000,61916000,0,-0.01,0.0,0.66999996,0.09,0.09,0.20250002,-0.10552101,-0.12721072,0.0142018795,-0.103154905,-0.13232903,-0.0049587134,0.105543874,0.10572834,0.20807147,0.004219926,0.00612232,3.8773866e-05,-0.0040651057,-0.0066777575,-8.2263345e-05,0,0,1
62468000,62314000,62316000,0,-0.02,0.01,0.69,0.09,0.09,0.20250002,-0.06658982,-0.13500808,-0.0073500276,-0.08690375,-0.13351972,-0.0060215197,0.10583359,0.10601674,0.20810117,0.0016759154,0.006877096,1.0383969e-05,-0.0030032434,-0.0067663523,-5.0316954e-05,0,0,1
62868000,62714000,62716000,0,0.0,-0.01,0.7,0.09,0.09,0.20250002,-0.079105854,-0.10930997,-0.01590395,-0.08343802,-0.122759834,-0.010413711,0.10606959,0.106259905,0.20809066,0.0023598608,0.0044979034,4.8620273e-05,-0.0027172957,-0.005758153,-4.9562874e-05,0,0,1
63268000,63114000,63116000,0,-0.01,-0.04,0.66999996,0.09,0.09,0.20250002,-0.052129112,-0.07876774,0.01627016,-0.06952295,-0.10320779,0.001445788,0.106260754,0.106449075,0.20809834,0.0010229343,0.0023313896,5.0883278e-05,-0.0019642462,-0.0042351466,-4.920137e-06,0,0,1
63668000,63510000,63516000,0,0.0,0.0,0.04,0.09,0.09,0.20250002,-0.048504177,-0.06377273,-0.046897814,-0.060233403,-0.08577891,-0.019920357,0.10691771,0.10714777,0.20810455,0.0008801742,0.0015182627,0.00042275,-0.0014851252,-0.003034381,-0.00018958599,0,0,1
64068000,63914000,63916000,0,-0.02,-0.01,-0.01,0.09,0.09,0.20250002,-0.0138109885,-0.03873437,0.0035512391,-0.0394871,-0.064754575,-0.009430839,0.10690425,0.107135475,0.20810893,7.136981e-05,0.00056016975,2.4239803e-06,-0.0008533142,-0.0019286495,-0.00010377623,0,0,1
64468000,64314000,64316000,0,0.0,-0.02,0.01,0.09,0.09,0.20250002,-0.021962326,-0.020554736,-0.015911462,-0.031698313,-0.045110203,-0.012311116,0.10686697,0.10708961,0.20811148,0.0001805399,0.00015781072,4.866135e-05,-0.0005543034,-0.00114161,-7.9280726e-05,0,0,1
64868000,64714000,64716000,0,0.01,0.0,-0.02,0.09,0.09,0.20250002,-0.020395868,-0.032244604,0.01736613,-0.026675003,-0.03939216,0.00087877177,0.10680293,0.10701865,0.20813201,0.00015579775,0.00038861056,5.795984e-05,-0.00037718978,-0.0008069435,-1.8284914e-05,0,0,1
65268000,65110000,65116000,0,0.0,0.0,-0.01,0.09,0.09,0.20250002,-0.005373907,-0.01479356,0.010610962,-0.017260678,-0.028520457,0.005180052,0.10672736,0.10694352,0.20812981,1.0823419e-05,8.185607e-05,2.1638903e-05,-0.00021526894,-0.00048648077,-6.4001324e-07,0,0,1
65668000,65514000,65516000,0,0.0,0.0,-0.01,0.09,0.09,0.20250002,0.012937423,-0.0026210288,0.015857683,-0.003765067,-0.016945936,0.009951914,0.106637985,0.10683535,0.20814534,6.278323e-05,2.5721044e-06,4.8325102e-05,-9.100669e-05,-0.0002702207,2.1242626e-05,0,0,1
66068000,65914000,65916000,0,0.01,0.0,-0.01,0.09,0.09,0.20250002,0.010500297,0.005850778,0.015939074,0.0025750953,-0.0068140626,0.012612874,0.106553875,0.10673788,0.20812082,4.1389856e-05,1.2828286e-05,4.8828188e-05,-3.2163778e-05,-0.00014442114,3.3502874e-05,0,0,1
66468000,66314000,66316000,0,0.0,0.0,0.0,0.09,0.09,0.20250002,0.02408304,0.012785963,-0.0005711019,0.012134183,0.0018970612,0.0067533287,0.106483355,0.10665682,0.20811827,0.00021787174,6.131098e-05,6.268693e-08,7.896313e-05,-5.298463e-05,1.8584848e-05,0,0,1
66868000,66714000,66716000,0,0.0,0.0,0.02,0.09,0.09,0.20250002,0.030333478,0.017338518,-0.014603745,0.020222759,0.008759932,-0.0027387054,0.10639714,0.10655515,0.20811556,0.00034591905,0.00011285206,4.099057e-05,0.00019761022,2.0720567e-05,-7.893117e-06,0,0,1
67268000,67114000,67116000,0,0.0,0.0,0.03,0.09,0.09,0.20250002,0.028606245,0.016473204,-0.026764525,0.023948753,0.012188053,-0.013416849,0.106324784,0.10647038,0.20811307,0.0003078557,0.00010195002,0.0001376828,0.00024660822,5.6822548e-05,-6.557743e-05,0,0,1
