timestamp,timestamp_sample,gps_hvel[0],gps_hvel[1],gps_vvel,gps_hpos[0],gps_hpos[1],gps_vpos,ev_hvel[0],ev_hvel[1],ev_vvel,ev_hpos[0],ev_hpos[1],ev_vpos,rng_vpos,baro_vpos,aux_hvel[0],aux_hvel[1],flow[0],flow[1],heading,mag_field[0],mag_field[1],mag_field[2],gravity[0],gravity[1],gravity[2],drag[0],drag[1],airspeed,beta,hagl,hagl_rate
3884000,3732000,0.0,0.0,0.0,0.0,0.0,0.0,0.0,0.0,0.0,0.0,0.0,0.0,0.0,0.0,0.0,0.0,0.0,0.0,0.0,0.001929627,0.7146601,2.7134545,2.9768511e-05,9.3602983e-07,1.330646e-09,0.0,0.0,0.0,0.0,0.0,0.0
3892000,3740000,0.0,0.0,0.0,0.0,0.0,0.0,0.0,0.0,0.0,0.0,0.0,0.0,0.0,0.0,0.0,0.0,0.0,0.0,0.0,0.001929627,0.7146601,2.7134545,7.837049e-05,0.00049904775,8.683936e-08,0.0,0.0,0.0,0.0,0.0,0.0
3900000,3748000,0.0,0.0,0.0,0.0,0.0,0.0,0.0,0.0,0.0,0.0,0.0,0.0,0.0,3.330713e-15,0.0,0.0,0.0,0.0,0.0,0.001929627,0.7146601,2.7134545,1.094782e-06,0.00012452067,4.1132417e-09,0.0,0.0,0.0,0.0,0.0,0.0
3908000,3756000,0.0,0.0,0.0,0.0,0.0,0.0,0.0,0.0,0.0,0.0,0.0,0.0,0.0,3.330713e-15,0.0,0.0,0.0,0.0,0.0,0.001929627,0.7146601,2.7134545,0.00023187294,0.0005358426,6.341217e-09,0.0,0.0,0.0,0.0,0.0,0.0
3916000,3764000,0.0,0.0,0.0,0.0,0.0,0.0,0.0,0.0,0.0,0.0,0.0,0.0,0.0,3.330713e-15,0.0,0.0,0.0,0.0,0.0,0.001929627,0.7146601,2.7134545,0.0010278221,0.00093698554,4.6865303e-08,0.0,0.0,0.0,0.0,0.0,0.0
3924000,3772000,0.0,0.0,0.0,0.0,0.0,0.0,0.0,0.0,0.0,0.0,0.0,0.0,0.0,3.330713e-15,0.0,0.0,0.0,0.0,0.0,0.0011017896,0.6857933,2.7082655,0.001576047,0.001544618,3.6927492e-08,0.0,0.0,0.0,0.0,0.0,0.0
3940000,3788000,0.0,0.0,0.0,0.0,0.0,0.0,0.0,0.0,0.0,0.0,0.0,0.0,0.0,3.330713e-15,0.0,0.0,0.0,0.0,0.0,0.0011017896,0.6857933,2.7082655,0.00011608127,0.0018083162,1.1664769e-08,0.0,0.0,0.0,0.0,0.0,0.0
3948000,3796000,0.0,0.0,0.0,0.0,0.0,0.0,0.0,0.0,0.0,0.0,0.0,0.0,0.0,3.330713e-15,0.0,0.0,0.0,0.0,0.0,0.0011017896,0.6857933,2.7082655,0.0002326366,0.00047695325,3.07082e-08,0.0,0.0,0.0,0.0,0.0,0.0
3956000,3804000,0.0,0.0,0.0,0.0,0.0,0.0,0.0,0.0,0.0,0.0,0.0,0.0,0.0,3.330713e-15,0.0,0.0,0.0,0.0,0.0,0.0011017896,0.6857933,2.7082655,0.0011479931,4.183001e-05,1.0954907e-08,0.0,0.0,0.0,0.0,0.0,0.0
3964000,3812000,0.0,0.0,0.0,0.0,0.0,0.0,0.0,0.0,0.0,0.0,0.0,0.0,0.0,3.330713e-15,0.0,0.0,0.0,0.0,0.0,0.0011017896,0.6857933,2.7082655,0.0013766042,5.998459e-07,1.9519781e-08,0.0,0.0,0.0,0.0,0.0,0.0
3980000,3828000,0.0,0.0,0.0,0.0,0.0,0.0,0.0,0.0,0.0,0.0,0.0,0.0,0.0,6.3364126e-07,0.0,0.0,0.0,0.0,0.0,0.0011017896,0.6857933,2.7082655,0.0014917782,0.0032150086,7.1233823e-09,0.0,0.0,0.0,0.0,0.0,0.0
3988000,3836000,0.0,0.0,0.0,0.0,0.0,0.0,0.0,0.0,0.0,0.0,0.0,0.0,0.0,6.3364126e-07,0.0,0.0,0.0,0.0,0.0,0.0011017896,0.6857933,2.7082655,0.0011296152,0.00010314688,3.637975e-08,0.0,0.0,0.0,0.0,0.0,0.0
3996000,3844000,0.0,0.0,0.0,0.0,0.0,0.0,0.0,0.0,0.0,0.0,0.0,0.0,0.0,6.3364126e-07,0.0,0.0,0.0,0.0,0.0,0.0012670481,0.7230497,2.7815254,0.0019430997,0.0012554331,3.637975e-08,0.0,0.0,0.0,0.0,0.0,0.0
4004000,3852000,0.0,0.0,0.0,0.0,0.0,0.0,0.0,0.0,0.0,0.0,0.0,0.0,0.0,6.3364126e-07,0.0,0.0,0.0,0.0,0.0,0.0012670481,0.7230497,2.7815254,0.00053521973,0.00090157206,4.087628e-08,0.0,0.0,0.0,0.0,0.0,0.0
4020000,3868000,0.0,0.0,0.0,0.0,0.0,0.0,0.0,0.0,0.0,0.0,0.0,0.0,0.0,6.3364126e-07,0.0,0.0,0.0,0.0,0.0,0.0012670481,0.7230497,2.7815254,0.0011006113,8.143311e-05,3.5655788e-08,0.0,0.0,0.0,0.0,0.0,0.0
4028000,3876000,0.0,0.0,0.0,0.0,0.0,0.0,0.0,0.0,0.0,0.0,0.0,0.0,0.0,6.3364126e-07,0.0,0.0,0.0,0.0,0.0,0.0012670481,0.7230497,2.7815254,0.0016341354,0.00057918,4.502562e-08,0.0,0.0,0.0,0.0,0.0,0.0
4036000,3884000,0.0,0.0,0.0,0.0,0.0,0.0,0.0,0.0,0.0,0.0,0.0,0.0,0.0,6.3364126e-07,0.0,0.0,0.0,0.0,0.0,0.0012670481,0.7230497,2.7815254,9.029653e-06,0.0061296406,6.915612e-08,0.0,0.0,0.0,0.0,0.0,0.0
4044000,3892000,0.0,0.0,0.0,0.0,0.0,0.0,0.0,0.0,0.0,0.0,0.0,0.0,0.0,4.0382966e-07,0.0,0.0,0.0,0.0,0.0,0.0012670481,0.7230497,2.7815254,1.2862723e-05,0.0019352827,2.7853238e-12,0.0,0.0,0.0,0.0,0.0,0.0
4060000,3908000,1.840214e-07,1.7049433e-07,8.47798e-07,10595876000.0,349093280.0,0.0,0.0,0.0,0.0,0.0,0.0,0.0,0.0,4.0382966e-07,0.0,0.0,0.0,0.0,0.0,0.0012670481,0.7230497,2.7815254,0.0022010948,4.785975e-05,2.4238513e-08,0.0,0.0,0.0,0.0,0.0,0.0
4068000,3916000,1.840214e-07,1.7049433e-07,8.47798e-07,10595876000.0,349093280.0,0.0,0.0,0.0,0.0,0.0,0.0,0.0,0.0,4.0382966e-07,0.0,0.0,0.0,0.0,0.0,0.0015857328,0.6932043,2.721033,0.0018817218,0.0005442524,4.4119588e-08,0.0,0.0,0.0,0.0,0.0,0.0
4076000,3924000,1.840214e-07,1.7049433e-07,8.47798e-07,10595876000.0,349093280.0,0.0,0.0,0.0,0.0,0.0,0.0,0.0,0.0,4.0382966e-07,0.0,0.0,0.0,0.0,0.0,0.0015857328,0.6932043,2.721033,0.0033859478,0.00013857117,1.4496474e-08,0.0,0.0,0.0,0.0,0.0,0.0
4084000,3932000,1.840214e-07,1.7049433e-07,8.47798e-07,10595876000.0,349093280.0,0.0,0.0,0.0,0.0,0.0,0.0,0.0,0.0,4.0382966e-07,0.0,0.0,0.0,0.0,0.0,0.0015857328,0.6932043,2.721033,0.0018701231,9.0539805e-05,3.6962384e-09,0.0,0.0,0.0,0.0,0.0,0.0
4100000,3948000,1.840214e-07,1.7049433e-07,8.47798e-07,10595876000.0,349093280.0,0.0,0.0,0.0,0.0,0.0,0.0,0.0,0.0,4.0382966e-07,0.0,0.0,0.0,0.0,0.0,0.0015857328,0.6932043,2.721033,0.0015112779,4.0021463e-05,8.6458725e-09,0.0,0.0,0.0,0.0,0.0,0.0
4108000,3956000,1.840214e-07,1.7049433e-07,8.47798e-07,10595876000.0,349093280.0,0.0,0.0,0.0,0.0,0.0,0.0,0.0,0.0,4.0382966e-07,0.0,0.0,0.0,0.0,0.0,0.0015857328,0.6932043,2.721033,4.4794517e-05,3.6635098e-05,7.204098e-09,0.0,0.0,0.0,0.0,0.0,0.0
4116000,3964000,1.840214e-07,1.7049433e-07,8.47798e-07,10595876000.0,349093280.0,0.0,0.0,0.0,0.0,0.0,0.0,0.0,0.0,8.840847e-07,0.0,0.0,0.0,0.0,0.0,0.0015857328,0.6932043,2.721033,0.000367682,0.00035751937,3.692748e-08,0.0,0.0,0.0,0.0,0.0,0.0
4124000,3972000,1.840214e-07,1.7049433e-07,8.47798e-07,10595876000.0,349093280.0,0.0,0.0,0.0,0.0,0.0,0.0,0.0,0.0,8.840847e-07,0.0,0.0,0.0,0.0,0.0,0.0015857328,0.6932043,2.721033,0.0020604976,0.000807876,4.4119588e-08,0.0,0.0,0.0,0.0,0.0,0.0
4140000,3988000,1.840214e-07,1.7049433e-07,8.47798e-07,10595876000.0,349093280.0,0.0,0.0,0.0,0.0,0.0,0.0,0.0,0.0,8.840847e-07,0.0,0.0,0.0,0.0,0.0,0.0015840805,0.66362846,2.6821675,1.2956175e-06,0.0021634658,4.9163806e-10,0.0,0.0,0.0,0.0,0.0,0.0
4148000,3996000,1.840214e-07,1.7049433e-07,8.47798e-07,10595876000.0,349093280.0,0.0,0.0,0.0,0.0,0.0,0.0,0.0,0.0,8.840847e-07,0.0,0.0,0.0,0.0,0.0,0.0015840805,0.66362846,2.6821675,0.0002801998,0.00148913,2.3283034e-08,0.0,0.0,0.0,0.0,0.0,0.0
4156000,4004000,1.840214e-07,1.7049433e-07,8.47798e-07,10595876000.0,349093280.0,0.0,0.0,0.0,0.0,0.0,0.0,0.0,0.0,8.840847e-07,0.0,0.0,0.0,0.0,0.0,0.0015840805,0.66362846,2.6821675,0.001318211,0.00010973162,3.511759e-08,0.0,0.0,0.0,0.0,0.0,0.0
4164000,4012000,1.840214e-07,1.7049433e-07,8.47798e-07,10595876000.0,349093280.0,0.0,0.0,0.0,0.0,0.0,0.0,0.0,0.0,8.840847e-07,0.0,0.0,0.0,0.0,0.0,0.0015840805,0.66362846,2.6821675,0.0009897046,0.0017348368,2.7220235e-08,0.0,0.0,0.0,0.0,0.0,0.0
4180000,4028000,1.840214e-07,1.7049433e-07,8.47798e-07,10595876000.0,349093280.0,0.0,0.0,0.0,0.0,0.0,0.0,0.0,0.0,8.840847e-07,0.0,0.0,0.0,0.0,0.0,0.0015840805,0.66362846,2.6821675,0.0028852613,0.0007842721,2.3648255e-08,0.0,0.0,0.0,0.0,0.0,0.0
4188000,4036000,1.840214e-07,1.7049433e-07,8.47798e-07,10595876000.0,349093280.0,0.0,0.0,0.0,0.0,0.0,0.0,0.0,0.0,4.8882335e-08,0.0,0.0,0.0,0.0,0.0,0.0015840805,0.66362846,2.6821675,0.0015177819,0.00013393779,3.4761072e-08,0.0,0.0,0.0,0.0,0.0,0.0
4196000,4044000,1.840214e-07,1.7049433e-07,8.47798e-07,10595876000.0,349093280.0,0.0,0.0,0.0,0.0,0.0,0.0,0.0,0.0,4.8882335e-08,0.0,0.0,0.0,0.0,0.0,0.0015840805,0.66362846,2.6821675,0.00010554319,0.0009907628,1.6514187e-08,0.0,0.0,0.0,0.0,0.0,0.0
4204000,4052000,1.840214e-07,1.7049433e-07,8.47798e-07,10595876000.0,349093280.0,0.0,0.0,0.0,0.0,0.0,0.0,0.0,0.0,4.8882335e-08,0.0,0.0,0.0,0.0,0.0,0.0015840805,0.66362846,2.6821675,0.0004692478,4.462845e-05,6.4556427e-09,0.0,0.0,0.0,0.0,0.0,0.0
4220000,4068000,1.840214e-07,1.7049433e-07,8.47798e-07,10595876000.0,349093280.0,0.0,0.0,0.0,0.0,0.0,0.0,0.0,0.0,4.8882335e-08,0.0,0.0,0.0,0.0,0.0,0.0012620452,0.6871455,2.7083952,0.0005127401,0.0012138371,3.0791814e-08,0.0,0.0,0.0,0.0,0.0,0.0
4228000,4076000,1.840214e-07,1.7049433e-07,8.47798e-07,10595876000.0,349093280.0,0.0,0.0,0.0,0.0,0.0,0.0,0.0,0.0,4.8882335e-08,0.0,0.0,0.0,0.0,0.0,0.0012620452,0.6871455,2.7083952,0.0005309329,8.853294e-05,4.4884074e-09,0.0,0.0,0.0,0.0,0.0,0.0
4236000,4084000,1.840214e-07,1.7049433e-07,8.47798e-07,10595876000.0,349093280.0,0.0,0.0,0.0,0.0,0.0,0.0,0.0,0.0,4.8882335e-08,0.0,0.0,0.0,0.0,0.0,0.0012620452,0.6871455,2.7083952,8.749324e-06,6.440031e-12,5.7985894e-10,0.0,0.0,0.0,0.0,0.0,0.0
4244000,4092000,1.840214e-07,1.7049433e-07,8.47798e-07,10595876000.0,349093280.0,0.0,0.0,0.0,0.0,0.0,0.0,0.0,0.0,4.8882335e-08,0.0,0.0,0.0,0.0,0.0,0.0012620452,0.6871455,2.7083952,0.001340745,0.00010497049,3.7110972e-08,0.0,0.0,0.0,0.0,0.0,0.0
4260000,4108000,1.840214e-07,1.7049433e-07,8.47798e-07,10595876000.0,349093280.0,0.0,0.0,0.0,0.0,0.0,0.0,0.0,0.0,1.921148e-07,0.0,0.0,0.0,0.0,0.0,0.0012620452,0.6871455,2.7083952,0.0031114586,0.0012405283,1.3984372e-08,0.0,0.0,0.0,0.0,0.0,0.0
4268000,4116000,1.840214e-07,1.7049433e-07,8.47798e-07,10595876000.0,349093280.0,0.0,0.0,0.0,0.0,0.0,0.0,0.0,0.0,1.921148e-07,0.0,0.0,0.0,0.0,0.0,0.0012620452,0.6871455,2.7083952,0.0016534989,0.002645996,7.2446276e-09,0.0,0.0,0.0,0.0,0.0,0.0
4276000,4124000,1.840214e-07,1.7049433e-07,8.47798e-07,10595876000.0,349093280.0,0.0,0.0,0.0,0.0,0.0,0.0,0.0,0.0,1.921148e-07,0.0,0.0,0.0,0.0,0.0,0.0012620452,0.6871455,2.7083952,0.0017964905,0.0010045647,3.0708197e-08,0.0,0.0,0.0,0.0,0.0,0.0
4284000,4132000,1.840214e-07,1.7049433e-07,8.47798e-07,10595876000.0,349093280.0,0.0,0.0,0.0,0.0,0.0,0.0,0.0,0.0,1.921148e-07,0.0,0.0,0.0,0.0,0.0,0.0015951914,0.6971225,2.7446876,0.001482363,0.0010012634,3.3266147e-08,0.0,0.0,0.0,0.0,0.0,0.0
4300000,4148000,1.840214e-07,1.7049433e-07,8.47798e-07,10595876000.0,349093280.0,0.0,0.0,0.0,0.0,0.0,0.0,0.0,0.0,1.921148e-07,0.0,0.0,0.0,0.0,0.0,0.0015951914,0.6971225,2.7446876,0.00041294223,0.0016262748,1.8017579e-08,0.0,0.0,0.0,0.0,0.0,0.0
4308000,4156000,1.840214e-07,1.7049433e-07,8.47798e-07,10595876000.0,349093280.0,0.0,0.0,0.0,0.0,0.0,0.0,0.0,0.0,1.921148e-07,0.0,0.0,0.0,0.0,0.0,0.0015951914,0.6971225,2.7446876,0.0013361778,1.1936824e-05,2.234677e-08,0.0,0.0,0.0,0.0,0.0,0.0
4316000,4164000,1.840214e-07,1.7049433e-07,8.47798e-07,10595876000.0,349093280.0,0.0,0.0,0.0,0.0,0.0,0.0,0.0,0.0,1.921148e-07,0.0,0.0,0.0,0.0,0.0,0.0015951914,0.6971225,2.7446876,1.9310568e-05,0.0009423264,6.923577e-09,0.0,0.0,0.0,0.0,0.0,0.0
4324000,4172000,1.840214e-07,1.7049433e-07,8.47798e-07,10595876000.0,349093280.0,0.0,0.0,0.0,0.0,0.0,0.0,0.0,0.0,1.921148e-07,0.0,0.0,0.0,0.0,0.0,0.0015951914,0.6971225,2.7446876,0.00060535915,2.5926669e-05,2.1429717e-08,0.0,0.0,0.0,0.0,0.0,0.0
4340000,4188000,1.840214e-07,1.7049433e-07,8.47798e-07,10595876000.0,349093280.0,0.0,0.0,0.0,0.0,0.0,0.0,0.0,0.0,6.068054e-07,0.0,0.0,0.0,0.0,0.0,0.0015951914,0.6971225,2.7446876,0.000456399,0.000108608816,1.3656614e-09,0.0,0.0,0.0,0.0,0.0,0.0
4348000,4196000,1.840214e-07,1.7049433e-07,8.47798e-07,10595876000.0,349093280.0,0.0,0.0,0.0,0.0,0.0,0.0,0.0,0.0,6.068054e-07,0.0,0.0,0.0,0.0,0.0,0.0015951914,0.6971225,2.7446876,0.0029915038,1.6435353e-06,1.6043465e-09,0.0,0.0,0.0,0.0,0.0,0.0
4356000,4204000,1.840214e-07,1.7049433e-07,8.47798e-07,10595876000.0,349093280.0,0.0,0.0,0.0,0.0,0.0,0.0,0.0,0.0,6.068054e-07,0.0,0.0,0.0,0.0,0.0,0.0013422923,0.6935261,2.7539854,0.0018512879,7.3126204e-05,1.8339026e-08,0.0,0.0,0.0,0.0,0.0,0.0
4364000,4212000,1.840214e-07,1.7049433e-07,8.47798e-07,10595876000.0,349093280.0,0.0,0.0,0.0,0.0,0.0,0.0,0.0,0.0,6.068054e-07,0.0,0.0,0.0,0.0,0.0,0.0013422923,0.6935261,2.7539854,8.561133e-06,0.00015269488,5.2532343e-09,0.0,0.0,0.0,0.0,0.0,0.0
4380000,4228000,1.840214e-07,1.7049433e-07,8.47798e-07,10595876000.0,349093280.0,0.0,0.0,0.0,0.0,0.0,0.0,0.0,0.0,6.068054e-07,0.0,0.0,0.0,0.0,0.0,0.0013422923,0.6935261,2.7539854,0.0040472946,0.0009401273,4.1069317e-10,0.0,0.0,0.0,0.0,0.0,0.0
4388000,4236000,1.840214e-07,1.7049433e-07,8.47798e-07,10595876000.0,349093280.0,0.0,0.0,0.0,0.0,0.0,0.0,0.0,0.0,6.068054e-07,0.0,0.0,0.0,0.0,0.0,0.0013422923,0.6935261,2.7539854,0.00042672295,0.00042061522,2.6672321e-08,0.0,0.0,0.0,0.0,0.0,0.0
4396000,4244000,1.840214e-07,1.7049433e-07,8.47798e-07,10595876000.0,349093280.0,0.0,0.0,0.0,0.0,0.0,0.0,0.0,0.0,6.068054e-07,0.0,0.0,0.0,0.0,0.0,0.0013422923,0.6935261,2.7539854,0.0006368159,0.0032454117,3.4583494e-10,0.0,0.0,0.0,0.0,0.0,0.0
4404000,4252000,1.840214e-07,1.7049433e-07,8.47798e-07,10595876000.0,349093280.0,0.0,0.0,0.0,0.0,0.0,0.0,0.0,0.0,8.539734e-06,0.0,0.0,0.0,0.0,0.0,0.0013422923,0.6935261,2.7539854,0.00049597793,0.00030609602,2.6906456e-08,0.0,0.0,0.0,0.0,0.0,0.0
4420000,4268000,1.840214e-07,1.7049433e-07,8.47798e-07,10595876000.0,349093280.0,0.0,0.0,0.0,0.0,0.0,0.0,0.0,0.0,8.539734e-06,0.0,0.0,0.0,0.0,0.0,0.0013422923,0.6935261,2.7539854,0.0020264676,0.002052698,6.041083e-09,0.0,0.0,0.0,0.0,0.0,0.0
4428000,4276000,1.840214e-07,1.7049433e-07,8.47798e-07,10595876000.0,349093280.0,0.0,0.0,0.0,0.0,0.0,0.0,0.0,0.0,8.539734e-06,0.0,0.0,0.0,0.0,0.0,0.002798399,0.7444168,2.706612,0.00035134307,0.00030566144,2.4090266e-08,0.0,0.0,0.0,0.0,0.0,0.0
4436000,4284000,1.840214e-07,1.7049433e-07,8.47798e-07,10595876000.0,349093280.0,0.0,0.0,0.0,0.0,0.0,0.0,0.0,0.0,8.539734e-06,0.0,0.0,0.0,0.0,0.0,0.002798399,0.7444168,2.706612,0.0018235185,0.00078234356,2.1639636e-08,0.0,0.0,0.0,0.0,0.0,0.0
4444000,4292000,1.840214e-07,1.7049433e-07,8.47798e-07,10595876000.0,349093280.0,0.0,0.0,0.0,0.0,0.0,0.0,0.0,0.0,8.539734e-06,0.0,0.0,0.0,0.0,0.0,0.002798399,0.7444168,2.706612,0.00024990243,0.00012003183,1.537044e-10,0.0,0.0,0.0,0.0,0.0,0.0
4460000,4308000,2.5849771e-05,9.3307004e-05,8.759655e-06,976617400000.0,32175782000.0,0.0,0.0,0.0,0.0,0.0,0.0,0.0,0.0,8.539734e-06,0.0,0.0,0.0,0.0,0.0,0.002798399,0.7444168,2.706612,0.00034956002,0.0008572315,2.1921124e-08,0.0,0.0,0.0,0.0,0.0,0.0
4468000,4316000,2.5849771e-05,9.3307004e-05,8.759655e-06,976617400000.0,32175782000.0,0.0,0.0,0.0,0.0,0.0,0.0,0.0,0.0,8.539734e-06,0.0,0.0,0.0,0.0,0.0,0.002798399,0.7444168,2.706612,0.0013766824,2.3305392e-06,1.2028051e-08,0.0,0.0,0.0,0.0,0.0,0.0
4476000,4324000,2.5849771e-05,9.3307004e-05,8.759655e-06,976617400000.0,32175782000.0,0.0,0.0,0.0,0.0,0.0,0.0,0.0,0.0,1.4022007e-07,0.0,0.0,0.0,0.0,0.0,0.002798399,0.7444168,2.706612,0.0040715933,4.6256538e-08,1.7607794e-09,0.0,0.0,0.0,0.0,0.0,0.0
4484000,4332000,2.5849771e-05,9.3307004e-05,8.759655e-06,976617400000.0,32175782000.0,0.0,0.0,0.0,0.0,0.0,0.0,0.0,0.0,1.4022007e-07,0.0,0.0,0.0,0.0,0.0,0.002798399,0.7444168,2.706612,0.00045616174,4.9525843e-05,3.0070129e-09,0.0,0.0,0.0,0.0,0.0,0.0
4500000,4348000,2.5849771e-05,9.3307004e-05,8.759655e-06,976617400000.0,32175782000.0,0.0,0.0,0.0,0.0,0.0,0.0,0.0,0.0,1.4022007e-07,0.0,0.0,0.0,0.0,0.0,0.0019111249,0.6984331,2.729376,0.0038395545,1.0512009e-05,5.8207585e-11,0.0,0.0,0.0,0.0,0.0,0.0
4508000,4356000,2.5849771e-05,9.3307004e-05,8.759655e-06,976617400000.0,32175782000.0,0.0,0.0,0.0,0.0,0.0,0.0,0.0,0.0,1.4022007e-07,0.0,0.0,0.0,0.0,0.0,0.0019111249,0.6984331,2.729376,1.62299e-06,7.333613e-07,3.007013e-11,0.0,0.0,0.0,0.0,0.0,0.0
4516000,4364000,2.5849771e-05,9.3307004e-05,8.759655e-06,976617400000.0,32175782000.0,0.0,0.0,0.0,0.0,0.0,0.0,0.0,0.0,1.4022007e-07,0.0,0.0,0.0,0.0,0.0,0.0019111249,0.6984331,2.729376,1.9592719e-07,0.00061408576,2.3888416e-09,0.0,0.0,0.0,0.0,0.0,0.0
4524000,4372000,2.5849771e-05,9.3307004e-05,8.759655e-06,976617400000.0,32175782000.0,0.0,0.0,0.0,0.0,0.0,0.0,0.0,0.0,1.4022007e-07,0.0,0.0,0.0,0.0,0.0,0.0019111249,0.6984331,2.729376,4.2741256e-05,0.0009788775,2.0463604e-10,0.0,0.0,0.0,0.0,0.0,0.0
4540000,4388000,2.5849771e-05,9.3307004e-05,8.759655e-06,976617400000.0,32175782000.0,0.0,0.0,0.0,0.0,0.0,0.0,0.0,0.0,1.4022007e-07,0.0,0.0,0.0,0.0,0.0,0.0019111249,0.6984331,2.729376,0.0068540378,4.373111e-05,2.2418105e-08,0.0,0.0,0.0,0.0,0.0,0.0
4548000,4396000,2.5849771e-05,9.3307004e-05,8.759655e-06,976617400000.0,32175782000.0,0.0,0.0,0.0,0.0,0.0,0.0,0.0,0.0,8.568053e-07,0.0,0.0,0.0,0.0,0.0,0.0019111249,0.6984331,2.729376,0.0010278355,0.00024153163,5.616327e-08,0.0,0.0,0.0,0.0,0.0,0.0
4556000,4404000,2.5849771e-05,9.3307004e-05,8.759655e-06,976617400000.0,32175782000.0,0.0,0.0,0.0,0.0,0.0,0.0,0.0,0.0,8.568053e-07,0.0,0.0,0.0,0.0,0.0,0.0019111249,0.6984331,2.729376,9.5759424e-05,0.001082435,2.4016314e-10,0.0,0.0,0.0,0.0,0.0,0.0
4564000,4412000,2.5849771e-05,9.3307004e-05,8.759655e-06,976617400000.0,32175782000.0,0.0,0.0,0.0,0.0,0.0,0.0,0.0,0.0,8.568053e-07,0.0,0.0,0.0,0.0,0.0,0.0019111249,0.6984331,2.729376,0.0015330351,1.5759637e-06,2.6129976e-08,0.0,0.0,0.0,0.0,0.0,0.0
4580000,4428000,2.5849771e-05,9.3307004e-05,8.759655e-06,976617400000.0,32175782000.0,0.0,0.0,0.0,0.0,0.0,0.0,0.0,0.0,8.568053e-07,0.0,0.0,0.0,0.0,0.0,0.0039688484,0.6652496,2.7760344,0.00113188,0.00010477194,4.5329667e-08,0.0,0.0,0.0,0.0,0.0,0.0
4588000,4436000,2.5849771e-05,9.3307004e-05,8.759655e-06,976617400000.0,32175782000.0,0.0,0.0,0.0,0.0,0.0,0.0,0.0,0.0,8.568053e-07,0.0,0.0,0.0,0.0,0.0,0.0039688484,0.6652496,2.7760344,0.0018991282,0.0024180016,3.0374867e-08,0.0,0.0,0.0,0.0,0.0,0.0
4596000,4444000,2.5849771e-05,9.3307004e-05,8.759655e-06,976617400000.0,32175782000.0,0.0,0.0,0.0,0.0,0.0,0.0,0.0,0.0,8.568053e-07,0.0,0.0,0.0,0.0,0.0,0.0039688484,0.6652496,2.7760344,0.0031453813,0.0058634947,1.4901143e-08,0.0,0.0,0.0,0.0,0.0,0.0
4604000,4452000,2.5849771e-05,9.3307004e-05,8.759655e-06,976617400000.0,32175782000.0,0.0,0.0,0.0,0.0,0.0,0.0,0.0,0.0,8.568053e-07,0.0,0.0,0.0,0.0,0.0,0.0039688484,0.6652496,2.7760344,0.004638151,0.00034538694,9.231872e-09,0.0,0.0,0.0,0.0,0.0,0.0
4620000,4468000,2.5849771e-05,9.3307004e-05,8.759655e-06,976617400000.0,32175782000.0,0.0,0.0,0.0,0.0,0.0,0.0,0.0,0.0,1.2355026e-06,0.0,0.0,0.0,0.0,0.0,0.0039688484,0.6652496,2.7760344,0.0033911665,0.0009981517,3.449487e-08,0.0,0.0,0.0,0.0,0.0,0.0
4628000,4476000,2.5849771e-05,9.3307004e-05,8.759655e-06,976617400000.0,32175782000.0,0.0,0.0,0.0,0.0,0.0,0.0,0.0,0.0,1.2355026e-06,0.0,0.0,0.0,0.0,0.0,0.0039688484,0.6652496,2.7760344,0.002841889,0.0022586477,2.675025e-08,0.0,0.0,0.0,0.0,0.0,0.0
4636000,4484000,2.5849771e-05,9.3307004e-05,8.759655e-06,976617400000.0,32175782000.0,0.0,0.0,0.0,0.0,0.0,0.0,0.0,0.0,1.2355026e-06,0.0,0.0,0.0,0.0,0.0,0.0039688484,0.6652496,2.7760344,0.0026131987,0.0003530328,4.2827146e-08,0.0,0.0,0.0,0.0,0.0,0.0
4644000,4492000,2.5849771e-05,9.3307004e-05,8.759655e-06,976617400000.0,32175782000.0,0.0,0.0,0.0,0.0,0.0,0.0,0.0,0.0,1.2355026e-06,0.0,0.0,0.0,0.0,0.0,0.0025001226,0.6864475,2.7249937,0.0017043831,0.0011203724,5.9023918e-08,0.0,0.0,0.0,0.0,0.0,0.0
4660000,4508000,2.5849771e-05,9.3307004e-05,8.759655e-06,976617400000.0,32175782000.0,0.0,0.0,0.0,0.0,0.0,0.0,0.0,0.0,1.2355026e-06,0.0,0.0,0.0,0.0,0.0,0.0025001226,0.6864475,2.7249937,0.0023277807,0.0014290372,4.874181e-08,0.0,0.0,0.0,0.0,0.0,0.0
4668000,4516000,2.5849771e-05,9.3307004e-05,8.759655e-06,976617400000.0,32175782000.0,0.0,0.0,0.0,0.0,0.0,0.0,0.0,0.0,1.2355026e-06,0.0,0.0,0.0,0.0,0.0,0.0025001226,0.6864475,2.7249937,0.0010836868,0.0017184186,5.271476e-08,0.0,0.0,0.0,0.0,0.0,0.0
4676000,4524000,2.5849771e-05,9.3307004e-05,8.759655e-06,976617400000.0,32175782000.0,0.0,0.0,0.0,0.0,0.0,0.0,0.0,0.0,1.2355026e-06,0.0,0.0,0.0,0.0,0.0,0.0025001226,0.6864475,2.7249937,0.002880679,0.0030552214,1.2396909e-08,0.0,0.0,0.0,0.0,0.0,0.0
4684000,4532000,2.5849771e-05,9.3307004e-05,8.759655e-06,976617400000.0,32175782000.0,0.0,0.0,0.0,0.0,0.0,0.0,0.0,0.0,1.2355026e-06,0.0,0.0,0.0,0.0,0.0,0.0025001226,0.6864475,2.7249937,0.0031651647,2.0400335e-06,7.083193e-09,0.0,0.0,0.0,0.0,0.0,0.0
4700000,4548000,2.5849771e-05,9.3307004e-05,8.759655e-06,976617400000.0,32175782000.0,0.0,0.0,0.0,0.0,0.0,0.0,0.0,0.0,5.683862e-06,0.0,0.0,0.0,0.0,0.0,0.0025001226,0.6864475,2.7249937,0.00386047,0.00014132533,1.694591e-08,0.0,0.0,0.0,0.0,0.0,0.0
4708000,4556000,2.5849771e-05,9.3307004e-05,8.759655e-06,976617400000.0,32175782000.0,0.0,0.0,0.0,0.0,0.0,0.0,0.0,0.0,5.683862e-06,0.0,0.0,0.0,0.0,0.0,0.0025001226,0.6864475,2.7249937,0.0020221306,0.00083662855,5.7756477e-08,0.0,0.0,0.0,0.0,0.0,0.0
4716000,4564000,2.5849771e-05,9.3307004e-05,8.759655e-06,976617400000.0,32175782000.0,0.0,0.0,0.0,0.0,0.0,0.0,0.0,0.0,5.683862e-06,0.0,0.0,0.0,0.0,0.0,0.0018000009,0.6931435,2.6997929,0.0030004885,0.0025882437,2.1290333e-08,0.0,0.0,0.0,0.0,0.0,0.0
4724000,4572000,2.5849771e-05,9.3307004e-05,8.759655e-06,976617400000.0,32175782000.0,0.0,0.0,0.0,0.0,0.0,0.0,0.0,0.0,5.683862e-06,0.0,0.0,0.0,0.0,0.0,0.0018000009,0.6931435,2.6997929,0.0026814768,1.2613899e-07,1.5727188e-08,0.0,0.0,0.0,0.0,0.0,0.0
4740000,4588000,2.5849771e-05,9.3307004e-05,8.759655e-06,976617400000.0,32175782000.0,0.0,0.0,0.0,0.0,0.0,0.0,0.0,0.0,5.683862e-06,0.0,0.0,0.0,0.0,0.0,0.0018000009,0.6931435,2.6997929,0.004770051,0.00023989857,5.0479168e-09,0.0,0.0,0.0,0.0,0.0,0.0
4748000,4596000,2.5849771e-05,9.3307004e-05,8.759655e-06,976617400000.0,32175782000.0,0.0,0.0,0.0,0.0,0.0,0.0,0.0,0.0,5.683862e-06,0.0,0.0,0.0,0.0,0.0,0.0018000009,0.6931435,2.6997929,0.003261412,0.0015471746,1.5429617e-08,0.0,0.0,0.0,0.0,0.0,0.0
4756000,4604000,2.5849771e-05,9.3307004e-05,8.759655e-06,976617400000.0,32175782000.0,0.0,0.0,0.0,0.0,0.0,0.0,0.0,0.0,5.683862e-06,0.0,0.0,0.0,0.0,0.0,0.0018000009,0.6931435,2.6997929,0.0007545267,2.1425472e-05,3.054131e-08,0.0,0.0,0.0,0.0,0.0,0.0
4764000,4612000,2.5849771e-05,9.3307004e-05,8.759655e-06,976617400000.0,32175782000.0,0.0,0.0,0.0,0.0,0.0,0.0,0.0,0.0,2.9266816e-06,0.0,0.0,0.0,0.0,0.0,0.0018000009,0.6931435,2.6997929,0.0031019277,0.0001260245,1.3656617e-09,0.0,0.0,0.0,0.0,0.0,0.0
4780000,4628000,2.5849771e-05,9.3307004e-05,8.759655e-06,976617400000.0,32175782000.0,0.0,0.0,0.0,0.0,0.0,0.0,0.0,0.0,2.9266816e-06,0.0,0.0,0.0,0.0,0.0,0.0018000009,0.6931435,2.6997929,1.7844044e-05,0.00040747772,6.3412244e-09,0.0,0.0,0.0,0.0,0.0,0.0
4788000,4636000,2.5849771e-05,9.3307004e-05,8.759655e-06,976617400000.0,32175782000.0,0.0,0.0,0.0,0.0,0.0,0.0,0.0,0.0,2.9266816e-06,0.0,0.0,0.0,0.0,0.0,0.0011649296,0.6909217,2.7358615,0.00020061414,0.0025174895,7.207041e-08,0.0,0.0,0.0,0.0,0.0,0.0
4796000,4644000,2.5849771e-05,9.3307004e-05,8.759655e-06,976617400000.0,32175782000.0,0.0,0.0,0.0,0.0,0.0,0.0,0.0,0.0,2.9266816e-06,0.0,0.0,0.0,0.0,0.0,0.0011649296,0.6909217,2.7358615,0.0004421363,0.0013425531,2.0600282e-08,0.0,0.0,0.0,0.0,0.0,0.0
4804000,4652000,2.5849771e-05,9.3307004e-05,8.759655e-06,976617400000.0,32175782000.0,0.0,0.0,0.0,0.0,0.0,0.0,0.0,0.0,2.9266816e-06,0.0,0.0,0.0,0.0,0.0,0.0011649296,0.6909217,2.7358615,5.9676448e-05,0.00043624121,5.184347e-09,0.0,0.0,0.0,0.0,0.0,0.0
4820000,4668000,2.5849771e-05,9.3307004e-05,8.759655e-06,976617400000.0,32175782000.0,0.0,0.0,0.0,0.0,0.0,0.0,0.0,0.0,2.9266816e-06,0.0,0.0,0.0,0.0,0.0,0.0011649296,0.6909217,2.7358615,0.0006550558,0.0002662477,2.6766998e-09,0.0,0.0,0.0,0.0,0.0,0.0
4828000,4676000,2.5849771e-05,9.3307004e-05,8.759655e-06,976617400000.0,32175782000.0,0.0,0.0,0.0,0.0,0.0,0.0,0.0,0.0,2.9266816e-06,0.0,0.0,0.0,0.0,0.0,0.0011649296,0.6909217,2.7358615,0.00065032416,8.0752085e-05,4.5025672e-10,0.0,0.0,0.0,0.0,0.0,0.0
4836000,4684000,2.5849771e-05,9.3307004e-05,8.759655e-06,976617400000.0,32175782000.0,0.0,0.0,0.0,0.0,0.0,0.0,0.0,0.0,1.8178596e-05,0.0,0.0,0.0,0.0,0.0,0.0011649296,0.6909217,2.7358615,0.0009767956,0.00037029776,6.12456e-08,0.0,0.0,0.0,0.0,0.0,0.0
4844000,4692000,2.5849771e-05,9.3307004e-05,8.759655e-06,976617400000.0,32175782000.0,0.0,0.0,0.0,0.0,0.0,0.0,0.0,0.0,1.8178596e-05,0.0,0.0,0.0,0.0,0.0,0.0011649296,0.6909217,2.7358615,0.00027146697,0.00010220878,7.5729645e-09,0.0,0.0,0.0,0.0,0.0,0.0
4860000,4708000,1.2129093e-06,2.7553744e-05,2.278217e-05,0.0,0.0,0.0,0.0,0.0,0.0,0.0,0.0,0.0,0.0,1.8178596e-05,0.0,0.0,0.0,0.0,0.0,0.0009109779,0.72173387,2.5797706,0.0011449972,0.0009188334,2.1429742e-08,0.0,0.0,0.0,0.0,0.0,0.0
4868000,4716000,1.2129093e-06,2.7553744e-05,2.278217e-05,0.0,0.0,0.0,0.0,0.0,0.0,0.0,0.0,0.0,0.0,1.8178596e-05,0.0,0.0,0.0,0.0,0.0,0.0009109779,0.72173387,2.5797706,0.000767904,8.413281e-05,1.0055032e-09,0.0,0.0,0.0,0.0,0.0,0.0
4876000,4724000,1.2129093e-06,2.7553744e-05,2.278217e-05,0.0,0.0,0.0,0.0,0.0,0.0,0.0,0.0,0.0,0.0,1.8178596e-05,0.0,0.0,0.0,0.0,0.0,0.0009109779,0.72173387,2.5797706,0.0005924255,0.0005790672,8.122015e-09,0.0,0.0,0.0,0.0,0.0,0.0
4884000,4732000,1.2129093e-06,2.7553744e-05,2.278217e-05,0.0,0.0,0.0,0.0,0.0,0.0,0.0,0.0,0.0,0.0,1.8178596e-05,0.0,0.0,0.0,0.0,0.0,0.0009109779,0.72173387,2.5797706,0.0011578514,9.7588054e-05,4.5525326e-09,0.0,0.0,0.0,0.0,0.0,0.0
4900000,4748000,1.2129093e-06,2.7553744e-05,2.278217e-05,0.0,0.0,0.0,0.0,0.0,0.0,0.0,0.0,0.0,0.0,1.8178596e-05,0.0,0.0,0.0,0.0,0.0,0.0009109779,0.72173387,2.5797706,0.0010175081,9.5056836e-05,3.246953e-09,0.0,0.0,0.0,0.0,0.0,0.0
4908000,4756000,1.2129093e-06,2.7553744e-05,2.278217e-05,0.0,0.0,0.0,0.0,0.0,0.0,0.0,0.0,0.0,0.0,2.202673e-05,0.0,0.0,0.0,0.0,0.0,0.0009109779,0.72173387,2.5797706,0.0003133949,0.0010775896,2.0395476e-08,0.0,0.0,0.0,0.0,0.0,0.0
4916000,4764000,1.2129093e-06,2.7553744e-05,2.278217e-05,0.0,0.0,0.0,0.0,0.0,0.0,0.0,0.0,0.0,0.0,2.202673e-05,0.0,0.0,0.0,0.0,0.0,0.0009109779,0.72173387,2.5797706,1.1252134e-06,0.0011443852,2.5440897e-08,0.0,0.0,0.0,0.0,0.0,0.0
4924000,4772000,1.2129093e-06,2.7553744e-05,2.278217e-05,0.0,0.0,0.0,0.0,0.0,0.0,0.0,0.0,0.0,0.0,2.202673e-05,0.0,0.0,0.0,0.0,0.0,0.0009109779,0.72173387,2.5797706,0.00046255955,2.5864802e-05,4.1438852e-11,0.0,0.0,0.0,0.0,0.0,0.0
4940000,4788000,1.2129093e-06,2.7553744e-05,2.278217e-05,0.0,0.0,0.0,0.0,0.0,0.0,0.0,0.0,0.0,0.0,2.202673e-05,0.0,0.0,0.0,0.0,0.0,0.0021790087,0.6966749,2.7249491,3.62125e-05,0.0012177494,2.199181e-08,0.0,0.0,0.0,0.0,0.0,0.0
4948000,4796000,1.2129093e-06,2.7553744e-05,2.278217e-05,0.0,0.0,0.0,0.0,0.0,0.0,0.0,0.0,0.0,0.0,2.202673e-05,0.0,0.0,0.0,0.0,0.0,0.0021790087,0.6966749,2.7249491,0.00018355358,2.5375117e-05,3.0291858e-10,0.0,0.0,0.0,0.0,0.0,0.0
4956000,4804000,1.2129093e-06,2.7553744e-05,2.278217e-05,0.0,0.0,0.0,0.0,0.0,0.0,0.0,0.0,0.0,0.0,2.202673e-05,0.0,0.0,0.0,0.0,0.0,0.0021790087,0.6966749,2.7249491,0.00037009624,2.7412423e-06,1.4784973e-10,0.0,0.0,0.0,0.0,0.0,0.0
4964000,4812000,1.2129093e-06,2.7553744e-05,2.278217e-05,0.0,0.0,0.0,0.0,0.0,0.0,0.0,0.0,0.0,0.0,2.202673e-05,0.0,0.0,0.0,0.0,0.0,0.0021790087,0.6966749,2.7249491,0.00043569473,0.00051242555,6.1527885e-09,0.0,0.0,0.0,0.0,0.0,0.0
4980000,4828000,1.2129093e-06,2.7553744e-05,2.278217e-05,0.0,0.0,0.0,0.0,0.0,0.0,0.0,0.0,0.0,0.0,1.4534562e-06,0.0,0.0,0.0,0.0,0.0,0.0021790087,0.6966749,2.7249491,0.00017560215,0.00020755557,3.5527137e-11,0.0,0.0,0.0,0.0,0.0,0.0
4988000,4836000,1.2129093e-06,2.7553744e-05,2.278217e-05,0.0,0.0,0.0,0.0,0.0,0.0,0.0,0.0,0.0,0.0,1.4534562e-06,0.0,0.0,0.0,0.0,0.0,0.0021790087,0.6966749,2.7249491,0.00037833714,0.00032536432,1.6330887e-08,0.0,0.0,0.0,0.0,0.0,0.0
4996000,4844000,1.2129093e-06,2.7553744e-05,2.278217e-05,0.0,0.0,0.0,0.0,0.0,0.0,0.0,0.0,0.0,0.0,1.4534562e-06,0.0,0.0,0.0,0.0,0.0,0.0021790087,0.6966749,2.7249491,0.0011799695,0.0005187495,1.157519e-07,0.0,0.0,0.0,0.0,0.0,0.0
5004000,4852000,1.2129093e-06,2.7553744e-05,2.278217e-05,0.0,0.0,0.0,0.0,0.0,0.0,0.0,0.0,0.0,0.0,1.4534562e-06,0.0,0.0,0.0,0.0,0.0,0.00035584002,0.6958105,2.7472775,0.00040911796,0.00015533504,2.5067948e-11,0.0,0.0,0.0,0.0,0.0,0.0
5020000,4868000,1.2129093e-06,2.7553744e-05,2.278217e-05,0.0,0.0,0.0,0.0,0.0,0.0,0.0,0.0,0.0,0.0,1.4534562e-06,0.0,0.0,0.0,0.0,0.0,0.00035584002,0.6958105,2.7472775,6.5502914e-05,0.00021139797,8.599841e-10,0.0,0.0,0.0,0.0,0.0,0.0
5028000,4876000,1.2129093e-06,2.7553744e-05,2.278217e-05,0.0,0.0,0.0,0.0,0.0,0.0,0.0,0.0,0.0,0.0,1.4534562e-06,0.0,0.0,0.0,0.0,0.0,0.00035584002,0.6958105,2.7472775,6.22086e-06,2.0245889e-05,1.4210855e-12,0.0,0.0,0.0,0.0,0.0,0.0
5036000,4884000,1.2129093e-06,2.7553744e-05,2.278217e-05,0.0,0.0,0.0,0.0,0.0,0.0,0.0,0.0,0.0,0.0,1.4534562e-06,0.0,0.0,0.0,0.0,0.0,0.00035584002,0.6958105,2.7472775,0.002538041,8.305923e-05,2.4536405e-08,0.0,0.0,0.0,0.0,0.0,0.0
5044000,4892000,1.2129093e-06,2.7553744e-05,2.278217e-05,0.0,0.0,0.0,0.0,0.0,0.0,0.0,0.0,0.0,0.0,1.4534562e-06,0.0,0.0,0.0,0.0,0.0,0.00035584002,0.6958105,2.7472775,0.0007157216,8.514399e-05,2.2737368e-11,0.0,0.0,0.0,0.0,0.0,0.0
5060000,4908000,1.2129093e-06,2.7553744e-05,2.278217e-05,0.0,0.0,0.0,0.0,0.0,0.0,0.0,0.0,0.0,0.0,2.890812e-06,0.0,0.0,0.0,0.0,0.0,0.00035584002,0.6958105,2.7472775,0.0039426973,0.0005554721,1.1901926e-07,0.0,0.0,0.0,0.0,0.0,0.0
5068000,4916000,1.2129093e-06,2.7553744e-05,2.278217e-05,0.0,0.0,0.0,0.0,0.0,0.0,0.0,0.0,0.0,0.0,2.890812e-06,0.0,0.0,0.0,0.0,0.0,0.00035584002,0.6958105,2.7472775,0.0023125797,1.7111504e-06,2.206258e-08,0.0,0.0,0.0,0.0,0.0,0.0
5076000,4924000,1.2129093e-06,2.7553744e-05,2.278217e-05,0.0,0.0,0.0,0.0,0.0,0.0,0.0,0.0,0.0,0.0,2.890812e-06,0.0,0.0,0.0,0.0,0.0,0.0014000927,0.6914162,2.7037978,0.00016066937,0.0001365779,1.3648105e-10,0.0,0.0,0.0,0.0,0.0,0.0
5084000,4932000,1.2129093e-06,2.7553744e-05,2.278217e-05,0.0,0.0,0.0,0.0,0.0,0.0,0.0,0.0,0.0,0.0,2.890812e-06,0.0,0.0,0.0,0.0,0.0,0.0014000927,0.6914162,2.7037978,0.0007909896,0.0004896375,3.1391778e-09,0.0,0.0,0.0,0.0,0.0,0.0
5100000,4948000,1.2129093e-06,2.7553744e-05,2.278217e-05,0.0,0.0,0.0,0.0,0.0,0.0,0.0,0.0,0.0,0.0,2.890812e-06,0.0,0.0,0.0,0.0,0.0,0.0014000927,0.6914162,2.7037978,0.000402835,0.0002184151,1.0359713e-09,0.0,0.0,0.0,0.0,0.0,0.0
5108000,4956000,1.2129093e-06,2.7553744e-05,2.278217e-05,0.0,0.0,0.0,0.0,0.0,0.0,0.0,0.0,0.0,0.0,2.890812e-06,0.0,0.0,0.0,0.0,0.0,0.0014000927,0.6914162,2.7037978,0.0006406885,2.772434e-06,2.2737368e-11,0.0,0.0,0.0,0.0,0.0,0.0
5116000,4964000,1.2129093e-06,2.7553744e-05,2.278217e-05,0.0,0.0,0.0,0.0,0.0,0.0,0.0,0.0,0.0,0.0,2.890812e-06,0.0,0.0,0.0,0.0,0.0,0.0014000927,0.6914162,2.7037978,0.00028985876,0.00138846,3.9253848e-08,0.0,0.0,0.0,0.0,0.0,0.0
5124000,4972000,1.2129093e-06,2.7553744e-05,2.278217e-05,0.0,0.0,0.0,0.0,0.0,0.0,0.0,0.0,0.0,0.0,1.05814955e-07,0.0,0.0,0.0,0.0,0.0,0.0014000927,0.6914162,2.7037978,0.00033244505,0.00070214464,2.1836968e-09,0.0,0.0,0.0,0.0,0.0,0.0
5140000,4988000,1.2129093e-06,2.7553744e-05,2.278217e-05,0.0,0.0,0.0,0.0,0.0,0.0,0.0,0.0,0.0,0.0,1.05814955e-07,0.0,0.0,0.0,0.0,0.0,0.0014000927,0.6914162,2.7037978,9.152652e-05,0.0005410286,1.6027627e-08,0.0,0.0,0.0,0.0,0.0,0.0
5148000,4996000,1.2129093e-06,2.7553744e-05,2.278217e-05,0.0,0.0,0.0,0.0,0.0,0.0,0.0,0.0,0.0,0.0,1.05814955e-07,0.0,0.0,0.0,0.0,0.0,0.0036444168,0.7306464,2.705243,0.00017559093,0.000107196254,3.9019596e-09,0.0,0.0,0.0,0.0,0.0,0.0
5156000,5004000,1.2129093e-06,2.7553744e-05,2.278217e-05,0.0,0.0,0.0,0.0,0.0,0.0,0.0,0.0,0.0,0.0,1.05814955e-07,0.0,0.0,0.0,0.0,0.0,0.0036444168,0.7306464,2.705243,0.00020465768,2.8011546e-05,4.1132466e-09,0.0,0.0,0.0,0.0,0.0,0.0
5164000,5012000,1.2129093e-06,2.7553744e-05,2.278217e-05,0.0,0.0,0.0,0.0,0.0,0.0,0.0,0.0,0.0,0.0,1.05814955e-07,0.0,0.0,0.0,0.0,0.0,0.0036444168,0.7306464,2.705243,4.1349827e-05,0.0011106975,9.323742e-09,0.0,0.0,0.0,0.0,0.0,0.0
5180000,5028000,1.2129093e-06,2.7553744e-05,2.278217e-05,0.0,0.0,0.0,0.0,0.0,0.0,0.0,0.0,0.0,0.0,1.05814955e-07,0.0,0.0,0.0,0.0,0.0,0.0036444168,0.7306464,2.705243,0.00034345288,0.0009927534,2.2275572e-08,0.0,0.0,0.0,0.0,0.0,0.0
5188000,5036000,1.2129093e-06,2.7553744e-05,2.278217e-05,0.0,0.0,0.0,0.0,0.0,0.0,0.0,0.0,0.0,0.0,1.05814955e-07,0.0,0.0,0.0,0.0,0.0,0.0036444168,0.7306464,2.705243,0.00019820045,0.0020150137,8.2538065e-08,0.0,0.0,0.0,0.0,0.0,0.0
5196000,5044000,1.2129093e-06,2.7553744e-05,2.278217e-05,0.0,0.0,0.0,0.0,0.0,0.0,0.0,0.0,0.0,0.0,5.108846e-06,0.0,0.0,0.0,0.0,0.0,0.0036444168,0.7306464,2.705243,9.678251e-07,0.0005526507,9.369842e-09,0.0,0.0,0.0,0.0,0.0,0.0
5204000,5052000,1.2129093e-06,2.7553744e-05,2.278217e-05,0.0,0.0,0.0,0.0,0.0,0.0,0.0,0.0,0.0,0.0,5.108846e-06,0.0,0.0,0.0,0.0,0.0,0.0036444168,0.7306464,2.705243,0.000102084065,0.00063822826,1.7209913e-09,0.0,0.0,0.0,0.0,0.0,0.0
5220000,5068000,1.2129093e-06,2.7553744e-05,2.278217e-05,0.0,0.0,0.0,0.0,0.0,0.0,0.0,0.0,0.0,0.0,5.108846e-06,0.0,0.0,0.0,0.0,0.0,0.0013950452,0.6918095,2.7485747,0.0002852635,0.0029091546,1.6679957e-07,0.0,0.0,0.0,0.0,0.0,0.0
5228000,5076000,1.2129093e-06,2.7553744e-05,2.278217e-05,0.0,0.0,0.0,0.0,0.0,0.0,0.0,0.0,0.0,0.0,5.108846e-06,0.0,0.0,0.0,0.0,0.0,0.0013950452,0.6918095,2.7485747,0.00035101568,0.0003049323,2.627587e-09,0.0,0.0,0.0,0.0,0.0,0.0
5236000,5084000,1.2129093e-06,2.7553744e-05,2.278217e-05,0.0,0.0,0.0,0.0,0.0,0.0,0.0,0.0,0.0,0.0,5.108846e-06,0.0,0.0,0.0,0.0,0.0,0.0013950452,0.6918095,2.7485747,0.0003243071,0.00097196456,2.1082144e-08,0.0,0.0,0.0,0.0,0.0,0.0
5244000,5092000,1.2129093e-06,2.7553744e-05,2.278217e-05,0.0,0.0,0.0,0.0,0.0,0.0,0.0,0.0,0.0,0.0,5.108846e-06,0.0,0.0,0.0,0.0,0.0,0.0013950452,0.6918095,2.7485747,0.0009532755,0.0003007831,3.0070169e-09,0.0,0.0,0.0,0.0,0.0,0.0
5260000,5108000,1.1722266e-05,8.659901e-07,0.00015109773,1.7210123e-09,2.177087e-08,6.051539e-08,0.0,0.0,0.0,0.0,0.0,0.0,0.0,5.108846e-06,0.0,0.0,0.0,0.0,0.0,0.0013950452,0.6918095,2.7485747,0.00021178224,2.3087894e-05,3.274181e-11,0.0,0.0,0.0,0.0,0.0,0.0
5268000,5116000,1.1722266e-05,8.659901e-07,0.00015109773,1.7210123e-09,2.177087e-08,6.051539e-08,0.0,0.0,0.0,0.0,0.0,0.0,0.0,4.2859477e-07,0.0,0.0,0.0,0.0,0.0,0.0013950452,0.6918095,2.7485747,0.00032330677,0.0005764526,7.448989e-09,0.0,0.0,0.0,0.0,0.0,0.0
5276000,5124000,1.1722266e-05,8.659901e-07,0.00015109773,1.7210123e-09,2.177087e-08,6.051539e-08,0.0,0.0,0.0,0.0,0.0,0.0,0.0,4.2859477e-07,0.0,0.0,0.0,0.0,0.0,0.0013950452,0.6918095,2.7485747,0.00028440534,0.00019062712,7.258336e-10,0.0,0.0,0.0,0.0,0.0,0.0
5284000,5132000,1.1722266e-05,8.659901e-07,0.00015109773,1.7210123e-09,2.177087e-08,6.051539e-08,0.0,0.0,0.0,0.0,0.0,0.0,0.0,4.2859477e-07,0.0,0.0,0.0,0.0,0.0,0.0013950452,0.6918095,2.7485747,5.673706e-05,0.001965044,7.569929e-08,0.0,0.0,0.0,0.0,0.0,0.0
5300000,5148000,1.1722266e-05,8.659901e-07,0.00015109773,1.7210123e-09,2.177087e-08,6.051539e-08,0.0,0.0,0.0,0.0,0.0,0.0,0.0,4.2859477e-07,0.0,0.0,0.0,0.0,0.0,0.00069375976,0.6992578,2.7273655,0.0007202639,1.2519849e-06,2.6828332e-08,0.0,0.0,0.0,0.0,0.0,0.0
5308000,5156000,1.1722266e-05,8.659901e-07,0.00015109773,1.7210123e-09,2.177087e-08,6.051539e-08,0.0,0.0,0.0,0.0,0.0,0.0,0.0,4.2859477e-07,0.0,0.0,0.0,0.0,0.0,0.00069375976,0.6992578,2.7273655,0.0008994865,4.021285e-05,3.775682e-08,0.0,0.0,0.0,0.0,0.0,0.0
5316000,5164000,1.1722266e-05,8.659901e-07,0.00015109773,1.7210123e-09,2.177087e-08,6.051539e-08,0.0,0.0,0.0,0.0,0.0,0.0,0.0,4.2859477e-07,0.0,0.0,0.0,0.0,0.0,0.00069375976,0.6992578,2.7273655,1.3658302e-05,0.00042103752,4.2675765e-09,0.0,0.0,0.0,0.0,0.0,0.0
5324000,5172000,1.1722266e-05,8.659901e-07,0.00015109773,1.7210123e-09,2.177087e-08,6.051539e-08,0.0,0.0,0.0,0.0,0.0,0.0,0.0,4.2859477e-07,0.0,0.0,0.0,0.0,0.0,0.00069375976,0.6992578,2.7273655,6.6119464e-05,1.1942034e-05,3.283276e-10,0.0,0.0,0.0,0.0,0.0,0.0
5340000,5188000,1.1722266e-05,8.659901e-07,0.00015109773,1.7210123e-09,2.177087e-08,6.051539e-08,0.0,0.0,0.0,0.0,0.0,0.0,0.0,1.0726042e-05,0.0,0.0,0.0,0.0,0.0,0.00069375976,0.6992578,2.7273655,7.108894e-07,0.001029712,1.0122903e-08,0.0,0.0,0.0,0.0,0.0,0.0
5348000,5196000,1.1722266e-05,8.659901e-07,0.00015109773,1.7210123e-09,2.177087e-08,6.051539e-08,0.0,0.0,0.0,0.0,0.0,0.0,0.0,1.0726042e-05,0.0,0.0,0.0,0.0,0.0,0.00069375976,0.6992578,2.7273655,1.8890162e-06,0.00018468812,9.024461e-10,0.0,0.0,0.0,0.0,0.0,0.0
5356000,5204000,1.1722266e-05,8.659901e-07,0.00015109773,1.7210123e-09,2.177087e-08,6.051539e-08,0.0,0.0,0.0,0.0,0.0,0.0,0.0,1.0726042e-05,0.0,0.0,0.0,0.0,0.0,0.00069375976,0.6992578,2.7273655,0.00085563085,0.000838276,2.3210362e-08,0.0,0.0,0.0,0.0,0.0,0.0
5364000,5212000,1.1722266e-05,8.659901e-07,0.00015109773,1.7210123e-09,2.177087e-08,6.051539e-08,0.0,0.0,0.0,0.0,0.0,0.0,0.0,1.0726042e-05,0.0,0.0,0.0,0.0,0.0,0.002136277,0.6863564,2.72442,0.0012966088,5.680259e-06,4.456524e-09,0.0,0.0,0.0,0.0,0.0,0.0
5380000,5228000,1.1722266e-05,8.659901e-07,0.00015109773,1.7210123e-09,2.177087e-08,6.051539e-08,0.0,0.0,0.0,0.0,0.0,0.0,0.0,1.0726042e-05,0.0,0.0,0.0,0.0,0.0,0.002136277,0.6863564,2.72442,9.643465e-05,0.0013206374,3.2059745e-08,0.0,0.0,0.0,0.0,0.0,0.0
5388000,5236000,1.1722266e-05,8.659901e-07,0.00015109773,1.7210123e-09,2.177087e-08,6.051539e-08,0.0,0.0,0.0,0.0,0.0,0.0,0.0,1.0726042e-05,0.0,0.0,0.0,0.0,0.0,0.002136277,0.6863564,2.72442,0.00086272566,0.0011441881,1.2166589e-07,0.0,0.0,0.0,0.0,0.0,0.0
5396000,5244000,1.1722266e-05,8.659901e-07,0.00015109773,1.7210123e-09,2.177087e-08,6.051539e-08,0.0,0.0,0.0,0.0,0.0,0.0,0.0,1.0726042e-05,0.0,0.0,0.0,0.0,0.0,0.002136277,0.6863564,2.72442,3.0521474e-05,7.17213e-07,9.555379e-11,0.0,0.0,0.0,0.0,0.0,0.0
5404000,5252000,1.1722266e-05,8.659901e-07,0.00015109773,1.7210123e-09,2.177087e-08,6.051539e-08,0.0,0.0,0.0,0.0,0.0,0.0,0.0,1.0726042e-05,0.0,0.0,0.0,0.0,0.0,0.002136277,0.6863564,2.72442,0.0004925002,0.00023899204,2.0737048e-09,0.0,0.0,0.0,0.0,0.0,0.0
5420000,5268000,1.1722266e-05,8.659901e-07,0.00015109773,1.7210123e-09,2.177087e-08,6.051539e-08,0.0,0.0,0.0,0.0,0.0,0.0,0.0,1.3118e-05,0.0,0.0,0.0,0.0,0.0,0.002136277,0.6863564,2.72442,0.000112526795,0.00010153347,2.2737368e-11,0.0,0.0,0.0,0.0,0.0,0.0
5428000,5276000,1.1722266e-05,8.659901e-07,0.00015109773,1.7210123e-09,2.177087e-08,6.051539e-08,0.0,0.0,0.0,0.0,0.0,0.0,0.0,1.3118e-05,0.0,0.0,0.0,0.0,0.0,0.0024671901,0.6837901,2.7565684,0.00114803,0.0015229781,1.4588318e-07,0.0,0.0,0.0,0.0,0.0,0.0
5436000,5284000,1.1722266e-05,8.659901e-07,0.00015109773,1.7210123e-09,2.177087e-08,6.051539e-08,0.0,0.0,0.0,0.0,0.0,0.0,0.0,1.3118e-05,0.0,0.0,0.0,0.0,0.0,0.0024671901,0.6837901,2.7565684,1.4785692e-05,0.0008974302,7.28528e-09,0.0,0.0,0.0,0.0,0.0,0.0
5444000,5292000,1.1722266e-05,8.659901e-07,0.00015109773,1.7210123e-09,2.177087e-08,6.051539e-08,0.0,0.0,0.0,0.0,0.0,0.0,0.0,1.3118e-05,0.0,0.0,0.0,0.0,0.0,0.0024671901,0.6837901,2.7565684,0.0001004175,0.00039832157,4.9467985e-09,0.0,0.0,0.0,0.0,0.0,0.0
5460000,5308000,1.1722266e-05,8.659901e-07,0.00015109773,1.7210123e-09,2.177087e-08,6.051539e-08,0.0,0.0,0.0,0.0,0.0,0.0,0.0,1.3118e-05,0.0,0.0,0.0,0.0,0.0,0.0024671901,0.6837901,2.7565684,0.0035758086,0.00029460114,1.193485e-07,0.0,0.0,0.0,0.0,0.0,0.0
5468000,5316000,1.1722266e-05,8.659901e-07,0.00015109773,1.7210123e-09,2.177087e-08,6.051539e-08,0.0,0.0,0.0,0.0,0.0,0.0,0.0,1.3118e-05,0.0,0.0,0.0,0.0,0.0,0.0024671901,0.6837901,2.7565684,0.0007197287,0.00044938544,1.1871691e-08,0.0,0.0,0.0,0.0,0.0,0.0
5476000,5324000,1.1722266e-05,8.659901e-07,0.00015109773,1.7210123e-09,2.177087e-08,6.051539e-08,0.0,0.0,0.0,0.0,0.0,0.0,0.0,1.3118e-05,0.0,0.0,0.0,0.0,0.0,0.0024671901,0.6837901,2.7565684,0.00069511903,3.1360687e-05,1.9188121e-08,0.0,0.0,0.0,0.0,0.0,0.0
5484000,5332000,1.1722266e-05,8.659901e-07,0.00015109773,1.7210123e-09,2.177087e-08,6.051539e-08,0.0,0.0,0.0,0.0,0.0,0.0,0.0,9.584908e-06,0.0,0.0,0.0,0.0,0.0,0.0024671901,0.6837901,2.7565684,0.0044903294,9.527261e-05,5.267075e-07,0.0,0.0,0.0,0.0,0.0,0.0
5500000,5348000,1.1722266e-05,8.659901e-07,0.00015109773,1.7210123e-09,2.177087e-08,6.051539e-08,0.0,0.0,0.0,0.0,0.0,0.0,0.0,9.584908e-06,0.0,0.0,0.0,0.0,0.0,0.00074007275,0.69500506,2.725462,8.529825e-06,0.0004818081,7.1304385e-10,0.0,0.0,0.0,0.0,0.0,0.0
5508000,5356000,1.1722266e-05,8.659901e-07,0.00015109773,1.7210123e-09,2.177087e-08,6.051539e-08,0.0,0.0,0.0,0.0,0.0,0.0,0.0,9.584908e-06,0.0,0.0,0.0,0.0,0.0,0.00074007275,0.69500506,2.725462,0.00023950309,0.00038354946,4.8466973e-09,0.0,0.0,0.0,0.0,0.0,0.0
5516000,5364000,1.1722266e-05,8.659901e-07,0.00015109773,1.7210123e-09,2.177087e-08,6.051539e-08,0.0,0.0,0.0,0.0,0.0,0.0,0.0,9.584908e-06,0.0,0.0,0.0,0.0,0.0,0.00074007275,0.69500506,2.725462,0.0014436559,0.00081564666,2.7853275e-08,0.0,0.0,0.0,0.0,0.0,0.0
5524000,5372000,1.1722266e-05,8.659901e-07,0.00015109773,1.7210123e-09,2.177087e-08,6.051539e-08,0.0,0.0,0.0,0.0,0.0,0.0,0.0,9.584908e-06,0.0,0.0,0.0,0.0,0.0,0.00074007275,0.69500506,2.725462,0.0005988251,0.000386659,2.161471e-09,0.0,0.0,0.0,0.0,0.0,0.0
5540000,5388000,1.1722266e-05,8.659901e-07,0.00015109773,1.7210123e-09,2.177087e-08,6.051539e-08,0.0,0.0,0.0,0.0,0.0,0.0,0.0,9.584908e-06,0.0,0.0,0.0,0.0,0.0,0.00074007275,0.69500506,2.725462,0.0003928709,0.00027110917,2.3655957e-09,0.0,0.0,0.0,0.0,0.0,0.0
5548000,5396000,1.1722266e-05,8.659901e-07,0.00015109773,1.7210123e-09,2.177087e-08,6.051539e-08,0.0,0.0,0.0,0.0,0.0,0.0,0.0,9.584908e-06,0.0,0.0,0.0,0.0,0.0,0.00074007275,0.69500506,2.725462,8.6974804e-05,0.00048781733,1.5017804e-08,0.0,0.0,0.0,0.0,0.0,0.0
5556000,5404000,1.1722266e-05,8.659901e-07,0.00015109773,1.7210123e-09,2.177087e-08,6.051539e-08,0.0,0.0,0.0,0.0,0.0,0.0,0.0,3.2916788e-08,0.0,0.0,0.0,0.0,0.0,0.00074007275,0.69500506,2.725462,0.0005932949,0.00013886357,1.8417268e-09,0.0,0.0,0.0,0.0,0.0,0.0
5564000,5412000,1.1722266e-05,8.659901e-07,0.00015109773,1.7210123e-09,2.177087e-08,6.051539e-08,0.0,0.0,0.0,0.0,0.0,0.0,0.0,3.2916788e-08,0.0,0.0,0.0,0.0,0.0,0.00074007275,0.69500506,2.725462,9.780864e-07,0.0002461094,2.2561153e-10,0.0,0.0,0.0,0.0,0.0,0.0
5580000,5428000,1.1722266e-05,8.659901e-07,0.00015109773,1.7210123e-09,2.177087e-08,6.051539e-08,0.0,0.0,0.0,0.0,0.0,0.0,0.0,3.2916788e-08,0.0,0.0,0.0,0.0,0.0,0.00056429626,0.68879527,2.7373781,0.00020138556,0.00034994198,2.9809257e-09,0.0,0.0,0.0,0.0,0.0,0.0
5588000,5436000,1.1722266e-05,8.659901e-07,0.00015109773,1.7210123e-09,2.177087e-08,6.051539e-08,0.0,0.0,0.0,0.0,0.0,0.0,0.0,3.2916788e-08,0.0,0.0,0.0,0.0,0.0,0.00056429626,0.68879527,2.7373781,0.0013865336,0.0006967163,1.6575541e-08,0.0,0.0,0.0,0.0,0.0,0.0
5596000,5444000,1.1722266e-05,8.659901e-07,0.00015109773,1.7210123e-09,2.177087e-08,6.051539e-08,0.0,0.0,0.0,0.0,0.0,0.0,0.0,3.2916788e-08,0.0,0.0,0.0,0.0,0.0,0.00056429626,0.68879527,2.7373781,0.0015006057,0.00023924664,9.094947e-09,0.0,0.0,0.0,0.0,0.0,0.0
5604000,5452000,1.1722266e-05,8.659901e-07,0.00015109773,1.7210123e-09,2.177087e-08,6.051539e-08,0.0,0.0,0.0,0.0,0.0,0.0,0.0,3.2916788e-08,0.0,0.0,0.0,0.0,0.0,0.00056429626,0.68879527,2.7373781,0.0004076862,0.0019970066,3.4053528e-08,0.0,0.0,0.0,0.0,0.0,0.0
5620000,5468000,1.1722266e-05,8.659901e-07,0.00015109773,1.7210123e-09,2.177087e-08,6.051539e-08,0.0,0.0,0.0,0.0,0.0,0.0,0.0,3.2916788e-08,0.0,0.0,0.0,0.0,0.0,0.00056429626,0.68879527,2.7373781,1.179263e-05,2.3296252e-05,9.555379e-11,0.0,0.0,0.0,0.0,0.0,0.0
5628000,5476000,1.1722266e-05,8.659901e-07,0.00015109773,1.7210123e-09,2.177087e-08,6.051539e-08,0.0,0.0,0.0,0.0,0.0,0.0,0.0,3.6549832e-07,0.0,0.0,0.0,0.0,0.0,0.00056429626,0.68879527,2.7373781,0.00065371033,1.9614454e-06,5.1301186e-10,0.0,0.0,0.0,0.0,0.0,0.0
5636000,5484000,1.1722266e-05,8.659901e-07,0.00015109773,1.7210123e-09,2.177087e-08,6.051539e-08,0.0,0.0,0.0,0.0,0.0,0.0,0.0,3.6549832e-07,0.0,0.0,0.0,0.0,0.0,0.0018677014,0.7019938,2.72828,0.00019120518,0.00028765504,4.456524e-11,0.0,0.0,0.0,0.0,0.0,0.0
5644000,5492000,1.1722266e-05,8.659901e-07,0.00015109773,1.7210123e-09,2.177087e-08,6.051539e-08,0.0,0.0,0.0,0.0,0.0,0.0,0.0,3.6549832e-07,0.0,0.0,0.0,0.0,0.0,0.0018677014,0.7019938,2.72828,0.00018166563,0.00021779363,1.4734383e-09,0.0,0.0,0.0,0.0,0.0,0.0
5660000,5508000,3.5114695e-06,2.7137842e-06,0.0001502674,2.5016536e-07,2.049093e-06,7.8796674e-08,0.0,0.0,0.0,0.0,0.0,0.0,0.0,3.6549832e-07,0.0,0.0,0.0,0.0,0.0,0.0018677014,0.7019938,2.72828,0.0026035137,7.482121e-05,4.2335216e-08,0.0,0.0,0.0,0.0,0.0,0.0
5668000,5516000,3.5114695e-06,2.7137842e-06,0.0001502674,2.5016536e-07,2.049093e-06,7.8796674e-08,0.0,0.0,0.0,0.0,0.0,0.0,0.0,3.6549832e-07,0.0,0.0,0.0,0.0,0.0,0.0018677014,0.7019938,2.72828,0.00038437717,0.00022682727,2.0463631e-10,0.0,0.0,0.0,0.0,0.0,0.0
5676000,5524000,3.5114695e-06,2.7137842e-06,0.0001502674,2.5016536e-07,2.049093e-06,7.8796674e-08,0.0,0.0,0.0,0.0,0.0,0.0,0.0,3.6549832e-07,0.0,0.0,0.0,0.0,0.0,0.0018677014,0.7019938,2.72828,1.7500064e-05,0.0008791092,6.9235853e-09,0.0,0.0,0.0,0.0,0.0,0.0
5684000,5532000,3.5114695e-06,2.7137842e-06,0.0001502674,2.5016536e-07,2.049093e-06,7.8796674e-08,0.0,0.0,0.0,0.0,0.0,0.0,0.0,3.6549832e-07,0.0,0.0,0.0,0.0,0.0,0.0018677014,0.7019938,2.72828,7.210346e-05,1.1032395e-07,8.20819e-11,0.0,0.0,0.0,0.0,0.0,0.0
5700000,5548000,3.5114695e-06,2.7137842e-06,0.0001502674,2.5016536e-07,2.049093e-06,7.8796674e-08,0.0,0.0,0.0,0.0,0.0,0.0,0.0,6.6041275e-06,0.0,0.0,0.0,0.0,0.0,0.0018677014,0.7019938,2.72828,2.6273226e-09,1.756426e-05,1.114131e-11,0.0,0.0,0.0,0.0,0.0,0.0
5708000,5556000,3.5114695e-06,2.7137842e-06,0.0001502674,2.5016536e-07,2.049093e-06,7.8796674e-08,0.0,0.0,0.0,0.0,0.0,0.0,0.0,6.6041275e-06,0.0,0.0,0.0,0.0,0.0,0.0018850587,0.6757241,2.7197645,1.3810225e-05,0.0002663295,4.2987836e-09,0.0,0.0,0.0,0.0,0.0,0.0
5716000,5564000,3.5114695e-06,2.7137842e-06,0.0001502674,2.5016536e-07,2.049093e-06,7.8796674e-08,0.0,0.0,0.0,0.0,0.0,0.0,0.0,6.6041275e-06,0.0,0.0,0.0,0.0,0.0,0.0018850587,0.6757241,2.7197645,0.0021577817,0.00011335397,4.4924548e-08,0.0,0.0,0.0,0.0,0.0,0.0
5724000,5572000,3.5114695e-06,2.7137842e-06,0.0001502674,2.5016536e-07,2.049093e-06,7.8796674e-08,0.0,0.0,0.0,0.0,0.0,0.0,0.0,6.6041275e-06,0.0,0.0,0.0,0.0,0.0,0.0018850587,0.6757241,2.7197645,0.0017368447,0.00072922086,7.478371e-08,0.0,0.0,0.0,0.0,0.0,0.0
5740000,5588000,3.5114695e-06,2.7137842e-06,0.0001502674,2.5016536e-07,2.049093e-06,7.8796674e-08,0.0,0.0,0.0,0.0,0.0,0.0,0.0,6.6041275e-06,0.0,0.0,0.0,0.0,0.0,0.0018850587,0.6757241,2.7197645,9.794413e-05,0.000110656874,3.754451e-09,0.0,0.0,0.0,0.0,0.0,0.0
5748000,5596000,3.5114695e-06,2.7137842e-06,0.0001502674,2.5016536e-07,2.049093e-06,7.8796674e-08,0.0,0.0,0.0,0.0,0.0,0.0,0.0,6.6041275e-06,0.0,0.0,0.0,0.0,0.0,0.0018850587,0.6757241,2.7197645,0.00015431068,0.000107552885,2.3283064e-10,0.0,0.0,0.0,0.0,0.0,0.0
5756000,5604000,3.5114695e-06,2.7137842e-06,0.0001502674,2.5016536e-07,2.049093e-06,7.8796674e-08,0.0,0.0,0.0,0.0,0.0,0.0,0.0,6.6041275e-06,0.0,0.0,0.0,0.0,0.0,0.0018850587,0.6757241,2.7197645,9.1754235e-05,2.8193026e-06,5.1159077e-11,0.0,0.0,0.0,0.0,0.0,0.0
5764000,5612000,3.5114695e-06,2.7137842e-06,0.0001502674,2.5016536e-07,2.049093e-06,7.8796674e-08,0.0,0.0,0.0,0.0,0.0,0.0,0.0,6.6041275e-06,0.0,0.0,0.0,0.0,0.0,0.0018850587,0.6757241,2.7197645,9.651212e-05,0.0005009591,4.9467985e-09,0.0,0.0,0.0,0.0,0.0,0.0
5780000,5628000,3.5114695e-06,2.7137842e-06,0.0001502674,2.5016536e-07,2.049093e-06,7.8796674e-08,0.0,0.0,0.0,0.0,0.0,0.0,0.0,2.1596295e-06,0.0,0.0,0.0,0.0,0.0,0.0013550689,0.7039228,2.7022288,0.0006196559,0.00073845714,6.6302164e-08,0.0,0.0,0.0,0.0,0.0,0.0
5788000,5636000,3.5114695e-06,2.7137842e-06,0.0001502674,2.5016536e-07,2.049093e-06,7.8796674e-08,0.0,0.0,0.0,0.0,0.0,0.0,0.0,2.1596295e-06,0.0,0.0,0.0,0.0,0.0,0.0013550689,0.7039228,2.7022288,0.0014653401,0.00024988584,2.220446e-08,0.0,0.0,0.0,0.0,0.0,0.0
5796000,5644000,3.5114695e-06,2.7137842e-06,0.0001502674,2.5016536e-07,2.049093e-06,7.8796674e-08,0.0,0.0,0.0,0.0,0.0,0.0,0.0,2.1596295e-06,0.0,0.0,0.0,0.0,0.0,0.0013550689,0.7039228,2.7022288,0.0013589727,1.1982026e-05,9.231883e-09,0.0,0.0,0.0,0.0,0.0,0.0
5804000,5652000,3.5114695e-06,2.7137842e-06,0.0001502674,2.5016536e-07,2.049093e-06,7.8796674e-08,0.0,0.0,0.0,0.0,0.0,0.0,0.0,2.1596295e-06,0.0,0.0,0.0,0.0,0.0,0.0013550689,0.7039228,2.7022288,3.916799e-06,0.0012882932,3.840819e-08,0.0,0.0,0.0,0.0,0.0,0.0
5820000,5668000,3.5114695e-06,2.7137842e-06,0.0001502674,2.5016536e-07,2.049093e-06,7.8796674e-08,0.0,0.0,0.0,0.0,0.0,0.0,0.0,2.1596295e-06,0.0,0.0,0.0,0.0,0.0,0.0013550689,0.7039228,2.7022288,0.00024589573,0.00095626886,7.407891e-09,0.0,0.0,0.0,0.0,0.0,0.0
5828000,5676000,3.5114695e-06,2.7137842e-06,0.0001502674,2.5016536e-07,2.049093e-06,7.8796674e-08,0.0,0.0,0.0,0.0,0.0,0.0,0.0,2.1596295e-06,0.0,0.0,0.0,0.0,0.0,0.0013550689,0.7039228,2.7022288,0.000118439464,1.084878e-08,1.3306476e-09,0.0,0.0,0.0,0.0,0.0,0.0
5836000,5684000,3.5114695e-06,2.7137842e-06,0.0001502674,2.5016536e-07,2.049093e-06,7.8796674e-08,0.0,0.0,0.0,0.0,0.0,0.0,0.0,2.1596295e-06,0.0,0.0,0.0,0.0,0.0,0.0013550689,0.7039228,2.7022288,8.695141e-05,0.00015854096,1.3133103e-09,0.0,0.0,0.0,0.0,0.0,0.0
5844000,5692000,3.5114695e-06,2.7137842e-06,0.0001502674,2.5016536e-07,2.049093e-06,7.8796674e-08,0.0,0.0,0.0,0.0,0.0,0.0,0.0,1.2884027e-05,0.0,0.0,0.0,0.0,0.0,0.0013550689,0.7039228,2.7022288,0.0002507589,0.00040384594,9.186124e-09,0.0,0.0,0.0,0.0,0.0,0.0
5860000,5708000,3.5114695e-06,2.7137842e-06,0.0001502674,2.5016536e-07,2.049093e-06,7.8796674e-08,0.0,0.0,0.0,0.0,0.0,0.0,0.0,1.2884027e-05,0.0,0.0,0.0,0.0,0.0,0.0,0.0,0.0,0.0016297818,0.0001525218,1.6027627e-08,0.0,0.0,0.0,0.0,0.0,0.0
5868000,5716000,3.5114695e-06,2.7137842e-06,0.0001502674,2.5016536e-07,2.049093e-06,7.8796674e-08,0.0,0.0,0.0,0.0,0.0,0.0,0.0,1.2884027e-05,0.0,0.0,0.0,0.0,0.0,0.0,0.0,0.0,0.0009774804,1.2555264e-05,3.7664222e-08,0.0,0.0,0.0,0.0,0.0,0.0
5876000,5724000,3.5114695e-06,2.7137842e-06,0.0001502674,2.5016536e-07,2.049093e-06,7.8796674e-08,0.0,0.0,0.0,0.0,0.0,0.0,0.0,1.2884027e-05,0.0,0.0,0.0,0.0,0.0,0.0,0.0,0.0,0.00043661034,0.000702996,5.5333658e-09,0.0,0.0,0.0,0.0,0.0,0.0
5884000,5732000,3.5114695e-06,2.7137842e-06,0.0001502674,2.5016536e-07,2.049093e-06,7.8796674e-08,0.0,0.0,0.0,0.0,0.0,0.0,0.0,1.2884027e-05,0.0,0.0,0.0,0.0,0.0,0.0,0.0,0.0,6.995167e-05,0.0030081193,1.02525576e-07,0.0,0.0,0.0,0.0,0.0,0.0
5900000,5748000,3.5114695e-06,2.7137842e-06,0.0001502674,2.5016536e-07,2.049093e-06,7.8796674e-08,0.0,0.0,0.0,0.0,0.0,0.0,0.0,1.2884027e-05,0.0,0.0,0.0,0.0,0.0,0.0,0.0,0.0,0.00014363963,0.00050197466,1.1623911e-09,0.0,0.0,0.0,0.0,0.0,0.0
5908000,5756000,3.5114695e-06,2.7137842e-06,0.0001502674,2.5016536e-07,2.049093e-06,7.8796674e-08,0.0,0.0,0.0,0.0,0.0,0.0,0.0,1.2884027e-05,0.0,0.0,0.0,0.0,0.0,0.0,0.0,0.0,1.690431e-05,4.2704937e-06,9.555379e-11,0.0,0.0,0.0,0.0,0.0,0.0
5916000,5764000,3.5114695e-06,2.7137842e-06,0.0001502674,2.5016536e-07,2.049093e-06,7.8796674e-08,0.0,0.0,0.0,0.0,0.0,0.0,0.0,8.294789e-06,0.0,0.0,0.0,0.0,0.0,0.0,0.0,0.0,8.0393394e-05,5.317843e-06,5.4626526e-11,0.0,0.0,0.0,0.0,0.0,0.0
5924000,5772000,3.5114695e-06,2.7137842e-06,0.0001502674,2.5016536e-07,2.049093e-06,7.8796674e-08,0.0,0.0,0.0,0.0,0.0,0.0,0.0,8.294789e-06,0.0,0.0,0.0,0.0,9.1734255e-05,1.8240196e-05,9.1734255e-05,3.728178e-06,1.2022127e-08,0.0009322769,1.9386789e-08,0.0,0.0,0.0,0.0,0.0,0.0
5940000,5788000,3.5114695e-06,2.7137842e-06,0.0001502674,2.5016536e-07,2.049093e-06,7.8796674e-08,0.0,0.0,0.0,0.0,0.0,0.0,0.0,8.294789e-06,0.0,0.0,0.0,0.0,9.1734255e-05,1.8240196e-05,9.1734255e-05,3.728178e-06,4.36548e-05,0.0013312523,2.5746033e-08,0.0,0.0,0.0,0.0,0.0,0.0
5948000,5796000,3.5114695e-06,2.7137842e-06,0.0001502674,2.5016536e-07,2.049093e-06,7.8796674e-08,0.0,0.0,0.0,0.0,0.0,0.0,0.0,8.294789e-06,0.0,0.0,0.0,0.0,9.1734255e-05,1.8240196e-05,9.1734255e-05,3.728178e-06,7.319791e-05,4.8084123e-05,1.4210855e-10,0.0,0.0,0.0,0.0,0.0,0.0
5956000,5804000,3.5114695e-06,2.7137842e-06,0.0001502674,2.5016536e-07,2.049093e-06,7.8796674e-08,0.0,0.0,0.0,0.0,0.0,0.0,0.0,8.294789e-06,0.0,0.0,0.0,0.0,9.1734255e-05,1.8240196e-05,9.1734255e-05,3.728178e-06,0.00011946922,0.00016706041,3.915943e-10,0.0,0.0,0.0,0.0,0.0,0.0
5964000,5812000,3.5114695e-06,2.7137842e-06,0.0001502674,2.5016536e-07,2.049093e-06,7.8796674e-08,0.0,0.0,0.0,0.0,0.0,0.0,0.0,8.294789e-06,0.0,0.0,0.0,0.0,9.1734255e-05,1.8240196e-05,9.1734255e-05,3.728178e-06,5.779981e-06,0.0005257332,1.0170936e-08,0.0,0.0,0.0,0.0,0.0,0.0
5980000,5828000,3.5114695e-06,2.7137842e-06,0.0001502674,2.5016536e-07,2.049093e-06,7.8796674e-08,0.0,0.0,0.0,0.0,0.0,0.0,0.0,8.294789e-06,0.0,0.0,0.0,0.0,9.1734255e-05,1.8240196e-05,9.1734255e-05,3.728178e-06,0.0013004589,0.0009163152,2.4164365e-08,0.0,0.0,0.0,0.0,0.0,0.0
5988000,5836000,3.5114695e-06,2.7137842e-06,0.0001502674,2.5016536e-07,2.049093e-06,7.8796674e-08,0.0,0.0,0.0,0.0,0.0,0.0,0.0,7.447019e-06,0.0,0.0,0.0,0.0,9.1734255e-05,1.8240196e-05,9.1734255e-05,3.728178e-06,0.0012521353,0.00014739046,5.784443e-09,0.0,0.0,0.0,0.0,0.0,0.0
5996000,5844000,3.5114695e-06,2.7137842e-06,0.0001502674,2.5016536e-07,2.049093e-06,7.8796674e-08,0.0,0.0,0.0,0.0,0.0,0.0,0.0,7.447019e-06,0.0,0.0,0.0,0.0,6.766501e-05,3.1698273e-05,6.766501e-05,5.5441495e-07,2.9542945e-05,0.0001349291,5.459242e-10,0.0,0.0,0.0,0.0,0.0,0.0
6004000,5852000,3.5114695e-06,2.7137842e-06,0.0001502674,2.5016536e-07,2.049093e-06,7.8796674e-08,0.0,0.0,0.0,0.0,0.0,0.0,0.0,7.447019e-06,0.0,0.0,0.0,0.0,6.766501e-05,3.1698273e-05,6.766501e-05,5.5441495e-07,0.00012042118,8.7003405e-05,1.5288606e-09,0.0,0.0,0.0,0.0,0.0,0.0
6020000,5868000,3.5114695e-06,2.7137842e-06,0.0001502674,2.5016536e-07,2.049093e-06,7.8796674e-08,0.0,0.0,0.0,0.0,0.0,0.0,0.0,7.447019e-06,0.0,0.0,0.0,0.0,6.766501e-05,3.1698273e-05,6.766501e-05,5.5441495e-07,0.00030158836,7.545913e-05,2.7853275e-12,0.0,0.0,0.0,0.0,0.0,0.0
6028000,5876000,3.5114695e-06,2.7137842e-06,0.0001502674,2.5016536e-07,2.049093e-06,7.8796674e-08,0.0,0.0,0.0,0.0,0.0,0.0,0.0,7.447019e-06,0.0,0.0,0.0,0.0,6.766501e-05,3.1698273e-05,6.766501e-05,5.5441495e-07,0.00054636196,0.00033304904,1.130104e-09,0.0,0.0,0.0,0.0,0.0,0.0
6036000,5884000,3.5114695e-06,2.7137842e-06,0.0001502674,2.5016536e-07,2.049093e-06,7.8796674e-08,0.0,0.0,0.0,0.0,0.0,0.0,0.0,7.447019e-06,0.0,0.0,0.0,0.0,6.766501e-05,3.1698273e-05,6.766501e-05,5.5441495e-07,0.00016439099,0.00044385504,4.5025672e-10,0.0,0.0,0.0,0.0,0.0,0.0
6044000,5892000,3.5114695e-06,2.7137842e-06,0.0001502674,2.5016536e-07,2.049093e-06,7.8796674e-08,0.0,0.0,0.0,0.0,0.0,0.0,0.0,7.447019e-06,0.0,0.0,0.0,0.0,6.766501e-05,3.1698273e-05,6.766501e-05,5.5441495e-07,4.516881e-05,0.00020516178,3.637979e-12,0.0,0.0,0.0,0.0,0.0,0.0
6060000,5908000,1.353885e-07,3.240793e-06,0.00010976403,2.6119773e-07,1.9062659e-06,1.2639601e-06,0.0,0.0,0.0,0.0,0.0,0.0,0.0,1.0953655e-06,0.0,0.0,0.0,0.0,6.766501e-05,3.1698273e-05,6.766501e-05,5.5441495e-07,0.004801517,0.00037085888,6.096812e-07,0.0,0.0,0.0,0.0,0.0,0.0
6068000,5916000,1.353885e-07,3.240793e-06,0.00010976403,2.6119773e-07,1.9062659e-06,1.2639601e-06,0.0,0.0,0.0,0.0,0.0,0.0,0.0,1.0953655e-06,0.0,0.0,0.0,0.0,0.00012185591,5.671287e-05,1.3428269e-06,0.00012185591,1.3539525e-05,3.6264544e-07,1.2556711e-10,0.0,0.0,0.0,0.0,0.0,0.0
6076000,5924000,1.353885e-07,3.240793e-06,0.00010976403,2.6119773e-07,1.9062659e-06,1.2639601e-06,0.0,0.0,0.0,0.0,0.0,0.0,0.0,1.0953655e-06,0.0,0.0,0.0,0.0,0.00012185591,5.671287e-05,1.3428269e-06,0.00012185591,0.0008816096,3.7406975e-05,1.3833414e-09,0.0,0.0,0.0,0.0,0.0,0.0
6084000,5932000,1.353885e-07,3.240793e-06,0.00010976403,2.6119773e-07,1.9062659e-06,1.2639601e-06,0.0,0.0,0.0,0.0,0.0,0.0,0.0,1.0953655e-06,0.0,0.0,0.0,0.0,0.00012185591,5.671287e-05,1.3428269e-06,0.00012185591,0.00096787256,0.00088733586,3.9632653e-08,0.0,0.0,0.0,0.0,0.0,0.0
6100000,5948000,1.353885e-07,3.240793e-06,0.00010976403,2.6119773e-07,1.9062659e-06,1.2639601e-06,0.0,0.0,0.0,0.0,0.0,0.0,0.0,1.0953655e-06,0.0,0.0,0.0,0.0,0.00012185591,5.671287e-05,1.3428269e-06,0.00012185591,3.4945613e-06,0.0011717858,3.6653148e-08,0.0,0.0,0.0,0.0,0.0,0.0
6108000,5956000,1.353885e-07,3.240793e-06,0.00010976403,2.6119773e-07,1.9062659e-06,1.2639601e-06,0.0,0.0,0.0,0.0,0.0,0.0,0.0,1.0953655e-06,0.0,0.0,0.0,0.0,0.00012185591,5.671287e-05,1.3428269e-06,0.00012185591,0.00022973164,0.00010558409,4.811227e-10,0.0,0.0,0.0,0.0,0.0,0.0
6116000,5964000,1.353885e-07,3.240793e-06,0.00010976403,2.6119773e-07,1.9062659e-06,1.2639601e-06,0.0,0.0,0.0,0.0,0.0,0.0,0.0,1.7481053e-06,0.0,0.0,0.0,0.0,0.00012185591,5.671287e-05,1.3428269e-06,0.00012185591,0.0021599121,0.0020315247,2.337847e-07,0.0,0.0,0.0,0.0,0.0,0.0
6124000,5972000,1.353885e-07,3.240793e-06,0.00010976403,2.6119773e-07,1.9062659e-06,1.2639601e-06,0.0,0.0,0.0,0.0,0.0,0.0,0.0,1.7481053e-06,0.0,0.0,0.0,0.0,0.00012185591,5.671287e-05,1.3428269e-06,0.00012185591,0.0016331413,3.1283596e-06,1.1871691e-08,0.0,0.0,0.0,0.0,0.0,0.0
6140000,5988000,1.353885e-07,3.240793e-06,0.00010976403,2.6119773e-07,1.9062659e-06,1.2639601e-06,0.0,0.0,0.0,0.0,0.0,0.0,0.0,1.7481053e-06,0.0,0.0,0.0,0.0,9.308386e-05,1.5280513e-05,4.3605174e-05,9.308386e-05,0.0012942508,0.0004894667,1.4154068e-08,0.0,0.0,0.0,0.0,0.0,0.0
6148000,5996000,1.353885e-07,3.240793e-06,0.00010976403,2.6119773e-07,1.9062659e-06,1.2639601e-06,0.0,0.0,0.0,0.0,0.0,0.0,0.0,1.7481053e-06,0.0,0.0,0.0,0.0,9.308386e-05,1.5280513e-05,4.3605174e-05,9.308386e-05,0.00011600956,0.00020139811,2.0520474e-09,0.0,0.0,0.0,0.0,0.0,0.0
6156000,6004000,1.353885e-07,3.240793e-06,0.00010976403,2.6119773e-07,1.9062659e-06,1.2639601e-06,0.0,0.0,0.0,0.0,0.0,0.0,0.0,1.7481053e-06,0.0,0.0,0.0,0.0,9.308386e-05,1.5280513e-05,4.3605174e-05,9.308386e-05,0.0017047429,4.085492e-05,1.9519803e-08,0.0,0.0,0.0,0.0,0.0,0.0
6164000,6012000,1.353885e-07,3.240793e-06,0.00010976403,2.6119773e-07,1.9062659e-06,1.2639601e-06,0.0,0.0,0.0,0.0,0.0,0.0,0.0,1.7481053e-06,0.0,0.0,0.0,0.0,9.308386e-05,1.5280513e-05,4.3605174e-05,9.308386e-05,0.0011728132,1.8221826e-05,5.3225904e-09,0.0,0.0,0.0,0.0,0.0,0.0
6180000,6028000,1.353885e-07,3.240793e-06,0.00010976403,2.6119773e-07,1.9062659e-06,1.2639601e-06,0.0,0.0,0.0,0.0,0.0,0.0,0.0,2.0523663e-05,0.0,0.0,0.0,0.0,9.308386e-05,1.5280513e-05,4.3605174e-05,9.308386e-05,0.00014529272,8.7188175e-07,4.1438852e-11,0.0,0.0,0.0,0.0,0.0,0.0
6188000,6036000,1.353885e-07,3.240793e-06,0.00010976403,2.6119773e-07,1.9062659e-06,1.2639601e-06,0.0,0.0,0.0,0.0,0.0,0.0,0.0,2.0523663e-05,0.0,0.0,0.0,0.0,9.308386e-05,1.5280513e-05,4.3605174e-05,9.308386e-05,0.0021135379,2.7364184e-05,3.4850075e-08,0.0,0.0,0.0,0.0,0.0,0.0
6196000,6044000,1.353885e-07,3.240793e-06,0.00010976403,2.6119773e-07,1.9062659e-06,1.2639601e-06,0.0,0.0,0.0,0.0,0.0,0.0,0.0,2.0523663e-05,0.0,0.0,0.0,0.0,9.308386e-05,1.5280513e-05,4.3605174e-05,9.308386e-05,0.001167433,0.00051677984,2.9713703e-08,0.0,0.0,0.0,0.0,0.0,0.0
6204000,6052000,1.353885e-07,3.240793e-06,0.00010976403,2.6119773e-07,1.9062659e-06,1.2639601e-06,0.0,0.0,0.0,0.0,0.0,0.0,0.0,2.0523663e-05,0.0,0.0,0.0,0.0,9.308386e-05,1.5280513e-05,4.3605174e-05,9.308386e-05,0.0002644978,0.0003451477,4.6171067e-09,0.0,0.0,0.0,0.0,0.0,0.0
6220000,6068000,1.353885e-07,3.240793e-06,0.00010976403,2.6119773e-07,1.9062659e-06,1.2639601e-06,0.0,0.0,0.0,0.0,0.0,0.0,0.0,2.0523663e-05,0.0,0.0,0.0,0.0,0.00032871022,0.00032871022,0.0001291153,4.8810084e-06,0.00070527213,0.0004387207,4.9467985e-09,0.0,0.0,0.0,0.0,0.0,0.0
6228000,6076000,1.353885e-07,3.240793e-06,0.00010976403,2.6119773e-07,1.9062659e-06,1.2639601e-06,0.0,0.0,0.0,0.0,0.0,0.0,0.0,2.0523663e-05,0.0,0.0,0.0,0.0,0.00032871022,0.00032871022,0.0001291153,4.8810084e-06,0.00042556023,2.9334267e-05,1.7826096e-10,0.0,0.0,0.0,0.0,0.0,0.0
6236000,6084000,1.353885e-07,3.240793e-06,0.00010976403,2.6119773e-07,1.9062659e-06,1.2639601e-06,0.0,0.0,0.0,0.0,0.0,0.0,0.0,2.0523663e-05,0.0,0.0,0.0,0.0,0.00032871022,0.00032871022,0.0001291153,4.8810084e-06,0.0020867367,0.0012096541,1.4570111e-07,0.0,0.0,0.0,0.0,0.0,0.0
6244000,6092000,1.353885e-07,3.240793e-06,0.00010976403,2.6119773e-07,1.9062659e-06,1.2639601e-06,0.0,0.0,0.0,0.0,0.0,0.0,0.0,2.0523663e-05,0.0,0.0,0.0,0.0,0.00032871022,0.00032871022,0.0001291153,4.8810084e-06,0.0009554739,2.1792144e-05,2.7220267e-08,0.0,0.0,0.0,0.0,0.0,0.0
6260000,6108000,1.353885e-07,3.240793e-06,0.00010976403,2.6119773e-07,1.9062659e-06,1.2639601e-06,0.0,0.0,0.0,0.0,0.0,0.0,0.0,3.3763886e-06,0.0,0.0,0.0,0.0,0.00032871022,0.00032871022,0.0001291153,4.8810084e-06,0.0013170888,1.1290238e-05,5.205999e-08,0.0,0.0,0.0,0.0,0.0,0.0
6268000,6116000,1.353885e-07,3.240793e-06,0.00010976403,2.6119773e-07,1.9062659e-06,1.2639601e-06,0.0,0.0,0.0,0.0,0.0,0.0,0.0,3.3763886e-06,0.0,0.0,0.0,0.0,0.00032871022,0.00032871022,0.0001291153,4.8810084e-06,0.0023438854,0.00032139994,5.3594306e-08,0.0,0.0,0.0,0.0,0.0,0.0
6276000,6124000,1.353885e-07,3.240793e-06,0.00010976403,2.6119773e-07,1.9062659e-06,1.2639601e-06,0.0,0.0,0.0,0.0,0.0,0.0,0.0,3.3763886e-06,0.0,0.0,0.0,0.0,0.00032871022,0.00032871022,0.0001291153,4.8810084e-06,0.0007741632,5.6514764e-05,4.6171067e-09,0.0,0.0,0.0,0.0,0.0,0.0
6284000,6132000,1.353885e-07,3.240793e-06,0.00010976403,2.6119773e-07,1.9062659e-06,1.2639601e-06,0.0,0.0,0.0,0.0,0.0,0.0,0.0,3.3763886e-06,0.0,0.0,0.0,0.0,0.00017917345,0.00017917345,5.2997916e-06,0.00016041349,0.0012970149,5.055149e-06,1.14087015e-08,0.0,0.0,0.0,0.0,0.0,0.0
