timestamp,timestamp_sample,device_id,magnetometer_ga[0],magnetometer_ga[1],magnetometer_ga[2],calibration_count
3844000,3844000,197388,0.009248013,-0.22092049,0.43330473,0
3976000,3916000,197388,0.010345868,-0.21631296,0.42856708,0
3988000,3988000,197388,0.0103404755,-0.21164812,0.4254954,0
4120000,4060000,197388,0.009229738,-0.21536554,0.4275707,0
4132000,4132000,197388,0.010376677,-0.21692343,0.43042585,0
4264000,4203636,197388,0.009518652,-0.21636316,0.4311543,0
4276000,4276000,197388,0.013743796,-0.22416094,0.4274299,0
4408000,4347636,197388,0.011357859,-0.21712725,0.42922363,0
4420000,4420000,197388,0.016367568,-0.21190646,0.43287683,0
4552000,4492000,197388,0.0129907,-0.21525615,0.42887884,0
4564000,4564000,197388,0.011022707,-0.21630345,0.42689115,0
4696000,4635636,197388,0.0088675115,-0.21595652,0.42973328,0
4708000,4708000,197388,0.007841621,-0.22071938,0.4172943,0
4840000,4780000,197388,0.012127782,-0.21685378,0.4288754,0
4852000,4852000,197388,0.0049009393,-0.21671921,0.4306289,0
4984000,4924000,197388,0.009721434,-0.21603377,0.42720762,0
4996000,4996000,197388,0.015684329,-0.222078,0.4273218,0
5128000,5068000,197388,0.009703893,-0.21609521,0.43073052,0
5140000,5140000,197388,0.006843156,-0.2172554,0.4290655,0
5272000,5211272,197388,0.012008277,-0.21524188,0.42883375,0
5280000,5280000,197388,0.012904858,-0.21483909,0.43135646,0
5400000,5349600,197388,0.007067879,-0.21659373,0.42891574,0
5424000,5420000,197388,0.0061717094,-0.21562394,0.4298523,0
5536000,5487555,197388,0.011228084,-0.21767999,0.42913738,0
5572000,5560000,197388,0.011280136,-0.21356821,0.42846715,0
5680000,5631555,197388,0.0095638465,-0.21797888,0.42708367,0
5716000,5704000,197388,0.011635272,-0.21485284,0.43057346,0
5824000,5775555,197388,0.011831004,-0.21479101,0.43004543,0
5860000,5848000,197388,0.012702493,-0.21704772,0.43044776,0
5968000,5919555,197388,0.010638244,-0.21627378,0.42841187,0
6004000,5992000,197388,0.010790069,-0.2150436,0.431436,0
6112000,6064000,197388,0.0081503615,-0.21409373,0.43049923,0
6148000,6136000,197388,0.008299256,-0.21599852,0.43227482,0
6256000,6208000,197388,0.010022243,-0.21739736,0.4274086,0
6292000,6280000,197388,0.010766996,-0.21551445,0.42989668,0
6400000,6352000,197388,0.009139434,-0.21537809,0.42810977,0
6432000,6422666,197388,0.0122362925,-0.21734641,0.42762798,0
6544000,6495111,197388,0.00966597,-0.2145425,0.42797834,0
6568000,6562000,197388,0.008184007,-0.2159755,0.4306069,0
6688000,6633600,197388,0.009636858,-0.2139089,0.4300408,0
6712000,6706000,197388,0.011267152,-0.21513367,0.42683914,0
6832000,6776800,197388,0.009542986,-0.21547826,0.42820653,0
6844000,6844000,197388,0.011632028,-0.21879503,0.42722324,0
6976000,6915272,197388,0.010743993,-0.2167682,0.4293352,0
6988000,6988000,197388,0.009077373,-0.21819113,0.42819852,0
7116000,7059272,197388,0.0096750045,-0.2155568,0.4289087,0
7128000,7128000,197388,0.015652558,-0.21548979,0.42077133,0
7248000,7196400,197388,0.009527201,-0.21762085,0.4308761,0
7264000,7264000,197388,0.009803066,-0.21627916,0.43144608,0
7392000,7334909,197388,0.009060727,-0.21687025,0.42963347,0
7404000,7404000,197388,0.014804091,-0.21311262,0.427725,0
7528000,7474000,197388,0.011579656,-0.21506932,0.42875502,0
7548000,7544000,197388,0.011529954,-0.21144521,0.42373008,0
7660000,7610666,197388,0.009552655,-0.215308,0.43094388,0
7692000,7681333,197388,0.011787641,-0.21443808,0.42817545,0
7792000,7748000,197388,0.007867014,-0.21534762,0.4313774,0
7828000,7816000,197388,0.0097512305,-0.212071,0.4306355,0
7936000,7886666,197388,0.010952537,-0.21366632,0.43356246,0
7960000,7954000,197388,0.009193851,-0.22180656,0.43335545,0
8080000,8024000,197388,0.009147648,-0.21540241,0.42907485,0
8104000,8096000,197388,0.012719643,-0.21263084,0.42854553,0
8224000,8168400,197388,0.012737635,-0.2164589,0.4283955,0
8236000,8236000,197388,0.016605897,-0.2098187,0.4229754,0
8368000,8306909,197388,0.008335484,-0.21523188,0.42835498,0
8376000,8376000,197388,0.011528723,-0.2190308,0.4337655,0
8500000,8444800,197388,0.010849517,-0.21745677,0.42888156,0
8512000,8512000,197388,0.010298326,-0.22075264,0.4335702,0
8644000,8583272,197388,0.010728355,-0.21668443,0.42776534,0
8656000,8656000,197388,0.010868912,-0.22052102,0.4335179,0
8788000,8726181,197388,0.006655132,-0.21569864,0.42924324,0
8800000,8800000,197388,0.014218022,-0.21484827,0.4313586,0
8928000,8869818,197388,0.009422143,-0.21596459,0.42768908,0
8944000,8944000,197388,0.011721209,-0.21461724,0.4343898,0
9076000,9015272,197388,0.009172017,-0.21484035,0.42972106,0
9088000,9088000,197388,0.013246608,-0.21669067,0.4286877,0
9220000,9158545,197388,0.008551528,-0.21735992,0.4275841,0
9228000,9228000,197388,0.011612613,-0.22162701,0.4339772,0
9348000,9296400,197388,0.0097273765,-0.21474293,0.42911372,0
9376000,9368000,197388,0.012246353,-0.21709275,0.42372435,0
9492000,9440000,197388,0.008398319,-0.21477456,0.42776164,0
9520000,9512000,197388,0.0071337475,-0.21502958,0.4265879,0
9628000,9579555,197388,0.009544856,-0.21742132,0.42983276,0
9664000,9652000,197388,0.008842892,-0.21594289,0.42984277,0
9772000,9723111,197388,0.009316408,-0.21632996,0.42929363,0
9796000,9790000,197388,0.010969704,-0.21326628,0.42917895,0
9912000,9860800,197388,0.007888255,-0.21791208,0.42931005,0
9928000,9928000,197388,0.010632566,-0.21027684,0.42874533,0
10056000,9999272,197388,0.008803102,-0.21608381,0.4311959,0
10068000,10068000,197388,0.006391226,-0.21611375,0.42737782,0
10188000,10135600,197388,0.009097852,-0.21497956,0.42767105,0
10216000,10208000,197388,0.011407687,-0.21822593,0.42982006,0
10324000,10276000,197388,0.009863553,-0.21654123,0.42738682,0
10360000,10348000,197388,0.0057538557,-0.21452801,0.42651618,0
10468000,10418666,197388,0.009377737,-0.21745192,0.42958775,0
10500000,10488000,197388,0.010937154,-0.2172135,0.43120953,0
10600000,10557500,197388,0.008960484,-0.21708664,0.4294428,0
10648000,10629000,197388,0.010010635,-0.21367426,0.4292722,0
10732000,10696000,197388,0.009946855,-0.21571413,0.42733604,0
10792000,10767200,197388,0.009386956,-0.21557012,0.43152022,0
10864000,10834000,197388,0.010427386,-0.21521954,0.42799267,0
10932000,10903333,197388,0.0112518985,-0.21431975,0.43115243,0
10996000,10972000,197388,0.00791347,-0.214877,0.4287559,0
11080000,11042285,197388,0.010287714,-0.21685374,0.42871982,0
11128000,11109000,197388,0.007123444,-0.21617824,0.4304949,0
11224000,11181500,197388,0.009232608,-0.21498425,0.43105334,0
11272000,11251000,197388,0.010645573,-0.21302468,0.43074253,0
11352000,11319428,197388,0.009001619,-0.21547313,0.42809835,0
11416000,11391200,197388,0.007951143,-0.21692164,0.42902347,0
11488000,11458000,197388,0.010522073,-0.21593797,0.42866677,0
11560000,11529333,197388,0.0080424,-0.21452296,0.42898518,0
11620000,11596000,197388,0.008465878,-0.21909161,0.43100318,0
11700000,11666285,197388,0.009880567,-0.21608433,0.43023908,0
11764000,11738400,197388,0.009003208,-0.21763085,0.43063402,0
11848000,11810857,197388,0.010708097,-0.2159247,0.43022308,0
11908000,11883200,197388,0.008958786,-0.21642816,0.43032762,0
11992000,11955428,197388,0.009573623,-0.21496502,0.42995408,0
12052000,12027200,197388,0.0068201507,-0.2170879,0.42915183,0
12132000,12098857,197388,0.010675622,-0.21641669,0.4280354,0
12196000,12169600,197388,0.0056350045,-0.21646176,0.4292674,0
12268000,12238000,197388,0.010831701,-0.21438742,0.42829174,0
12340000,12308000,197388,0.008132403,-0.21564013,0.4308344,0
12400000,12376000,197388,0.01003152,-0.21252607,0.42878243,0
12484000,12446857,197388,0.01045162,-0.21638133,0.4256963,0
12532000,12514000,197388,0.009193864,-0.21353585,0.42999828,0
12628000,12584500,197388,0.007834068,-0.21520995,0.42892486,0
12664000,12652000,197388,0.008313484,-0.21349859,0.42934668,0
12768000,12723111,197388,0.010469445,-0.21834123,0.42859462,0
12808000,12794666,197388,0.009318871,-0.21632385,0.42718673,0
12912000,12866222,197388,0.010712348,-0.21821369,0.4296051,0
12952000,12938666,197388,0.0061472207,-0.21901123,0.42730558,0
13056000,13010222,197388,0.010124043,-0.21566856,0.42913663,0
13096000,13081333,197388,0.011717248,-0.21486811,0.42405576,0
13192000,13149500,197388,0.010440029,-0.21658893,0.42789984,0
13236000,13220000,197388,0.00911633,-0.21795046,0.43028182,0
13320000,13287428,197388,0.010657945,-0.21471828,0.42619377,0
13384000,13359200,197388,0.008223781,-0.21886821,0.4286091,0
13456000,13426000,197388,0.006697422,-0.21501875,0.4300561,0
13524000,13496000,197388,0.008891267,-0.2136687,0.4303912,0
13588000,13563200,197388,0.009929611,-0.21491568,0.42710763,0
13672000,13633714,197388,0.01007429,-0.2169717,0.42708433,0
13720000,13702000,197388,0.010687608,-0.21602367,0.43013442,0
13816000,13773000,197388,0.008549113,-0.21735926,0.42857113,0
13852000,13840000,197388,0.007221717,-0.21743362,0.4324448,0
13956000,13909777,197388,0.011583584,-0.21734478,0.4315121,0
13984000,13978000,197388,0.0029220858,-0.21329796,0.43340603,0
14104000,14050000,197388,0.009278034,-0.21721481,0.42970106,0
14128000,14122000,197388,0.0068425126,-0.2158354,0.43003637,0
14244000,14193200,197388,0.008931736,-0.21640669,0.4292709,0
14260000,14260000,197388,0.00795286,-0.2262796,0.43000868,0
14388000,14330181,197388,0.009607962,-0.21602926,0.42858818,0
14404000,14404000,197388,0.011040907,-0.20942833,0.43412003,0
14532000,14475272,197388,0.011247909,-0.21767585,0.42907587,0
14548000,14548000,197388,0.010851417,-0.21447092,0.43038294,0
14676000,14618909,197388,0.010493187,-0.21585819,0.4306097,0
14688000,14688000,197388,0.010248648,-0.21163255,0.42934003,0
14812000,14758000,197388,0.010578463,-0.21548505,0.42748603,0
14832000,14826000,197388,0.0065012802,-0.21301249,0.42388093,0
14944000,14895555,197388,0.009638906,-0.21570097,0.4305992,0
14980000,14968000,197388,0.009697229,-0.21784958,0.42726016,0
15088000,15038666,197388,0.008764718,-0.21544662,0.42963842,0
15124000,15110666,197388,0.011544185,-0.21214634,0.4293751,0
15232000,15182666,197388,0.009490741,-0.21740156,0.4290631,0
15256000,15250000,197388,0.009335961,-0.21410707,0.42955813,0
15376000,15321600,197388,0.01198985,-0.21611838,0.42991003,0
15400000,15392000,197388,0.007689962,-0.21551579,0.43145436,0
15508000,15458666,197388,0.007810535,-0.216114,0.4308041,0
15544000,15530666,197388,0.008884725,-0.21157925,0.42990646,0
15652000,15602666,197388,0.010070443,-0.21537103,0.42990816,0
15676000,15670000,197388,0.010977711,-0.21325725,0.4315526,0
15796000,15740800,197388,0.0101864645,-0.21556222,0.43110904,0
15808000,15808000,197388,0.010786805,-0.21433184,0.43079627,0
15940000,15878909,197388,0.012425124,-0.21442765,0.43114725,0
15948000,15948000,197388,0.013122356,-0.22021382,0.426565,0
16072000,16017600,197388,0.010017816,-0.21600962,0.42985424,0
16096000,16090000,197388,0.010874447,-0.21471122,0.42635876,0
16216000,16160800,197388,0.010544523,-0.21596761,0.4304304,0
16228000,16228000,197388,0.009646724,-0.21818964,0.4239995,0
16360000,16298545,197388,0.009657646,-0.21550965,0.43037298,0
16372000,16372000,197388,0.0043772245,-0.21684879,0.42830572,0
16500000,16442909,197388,0.011525658,-0.21631727,0.42979765,0
16516000,16516000,197388,0.008450682,-0.2219312,0.43047002,0
16648000,16587636,197388,0.011381271,-0.2163732,0.42951664,0
16660000,16660000,197388,0.009204263,-0.21343902,0.4329084,0
16792000,16732000,197388,0.010454736,-0.21549682,0.4312724,0
16804000,16804000,197388,0.005219786,-0.2137646,0.43456918,0
16932000,16874545,197388,0.010538092,-0.2171468,0.42851597,0
16948000,16948000,197388,0.005852824,-0.21676493,0.43153715,0
17080000,17018909,197388,0.009184067,-0.21727766,0.42709062,0
17092000,17092000,197388,0.0062316656,-0.22018908,0.43021348,0
17224000,17163636,197388,0.009565745,-0.21633276,0.42876595,0
17236000,17236000,197388,0.014544488,-0.21641137,0.4311306,0
17368000,17307272,197388,0.00882369,-0.21576008,0.4304257,0
17380000,17380000,197388,0.015082137,-0.21461579,0.42996663,0
17508000,17451272,197388,0.01009125,-0.21582702,0.42994973,0
17520000,17520000,197388,0.0083549805,-0.2108865,0.42865753,0
17640000,17588800,197388,0.008489815,-0.21511705,0.42824918,0
17664000,17658000,197388,0.011661943,-0.21814923,0.42655313,0
17772000,17726666,197388,0.01002611,-0.2136272,0.43135872,0
17808000,17797333,197388,0.007987447,-0.21831553,0.42662498,0
17908000,17865000,197388,0.0102071855,-0.21596722,0.4315031,0
17956000,17936000,197388,0.006957699,-0.21779007,0.43204135,0
18040000,18002857,197388,0.010016708,-0.21404465,0.42888385,0
18096000,18072800,197388,0.00864851,-0.21883202,0.42987308,0
18172000,18141333,197388,0.010510641,-0.21750109,0.429586,0
18244000,18212666,197388,0.0094486745,-0.21516609,0.4273579,0
18316000,18285333,197388,0.009326182,-0.21552776,0.43004474,0
18384000,18356000,197388,0.00919798,-0.217996,0.42978317,0
18448000,18423200,197388,0.008997838,-0.21782468,0.4290226,0
18532000,18494285,197388,0.008933034,-0.21524337,0.43222708,0
18580000,18562000,197388,0.00806712,-0.21632954,0.42870736,0
18676000,18633500,197388,0.0089375805,-0.21483259,0.4294475,0
18724000,18706000,197388,0.0113936085,-0.21520644,0.43033335,0
18820000,18775500,197388,0.010278435,-0.21479633,0.4321564,0
18856000,18844000,197388,0.009093536,-0.21482062,0.43243307,0
18964000,18916000,197388,0.009568733,-0.21626656,0.4280649,0
19000000,18988000,197388,0.009060761,-0.21769062,0.43166208,0
19108000,19058666,197388,0.008917344,-0.21574284,0.42720994,0
19132000,19126000,197388,0.0133456,-0.21677907,0.43078342,0
19252000,19198000,197388,0.009418326,-0.21387473,0.4299251,0
19276000,19270000,197388,0.010358483,-0.21778831,0.42970562,0
19392000,19341200,197388,0.010155746,-0.21569204,0.42957073,0
19408000,19408000,197388,0.0077617695,-0.21262534,0.4293706,0
19536000,19478909,197388,0.010561161,-0.21741742,0.42945313,0
19552000,19552000,197388,0.007880255,-0.2133779,0.4328236,0
19680000,19622181,197388,0.010329952,-0.21690834,0.42757097,0
19696000,19696000,197388,0.016776089,-0.21833165,0.4298163,0
19828000,19767636,197388,0.009639578,-0.21424624,0.42877138,0
19840000,19840000,197388,0.010921557,-0.21152389,0.42687786,0
19968000,19910909,197388,0.008970105,-0.21528336,0.43005207,0
19984000,19984000,197388,0.0088097425,-0.21612129,0.426787,0
20112000,20055272,197388,0.00952771,-0.21538895,0.42893997,0
20124000,20124000,197388,0.010249018,-0.21343881,0.4256781,0
20244000,20192800,197388,0.010043044,-0.21677266,0.42956376,0
20268000,20262000,197388,0.009680382,-0.21194261,0.43059218,0
20380000,20331111,197388,0.008157701,-0.21500918,0.42925224,0
20412000,20401333,197388,0.009733841,-0.21509497,0.4275729,0
20512000,20469000,197388,0.007966739,-0.21645355,0.4316299,0
20560000,20541000,197388,0.0075301724,-0.21484011,0.43009484,0
20656000,20613500,197388,0.010205807,-0.21507758,0.4291971,0
20700000,20683000,197388,0.010969613,-0.21706204,0.42929432,0
20788000,20750285,197388,0.008845481,-0.21753053,0.43025523,0
20848000,20822400,197388,0.011266813,-0.21484113,0.42835155,0
20920000,20889333,197388,0.010323238,-0.21565056,0.42815763,0
20988000,20960000,197388,0.007421877,-0.21159577,0.42991275,0
21052000,21028000,197388,0.007586804,-0.21488611,0.4312093,0
21136000,21097142,197388,0.008408981,-0.21669832,0.42823634,0
21184000,21166000,197388,0.008187406,-0.21734844,0.4327365,0
21280000,21237500,197388,0.010148399,-0.21521078,0.42863145,0
21324000,21306000,197388,0.010346105,-0.21417469,0.4263026,0
21408000,21374857,197388,0.009923971,-0.21319588,0.42917618,0
21468000,21446400,197388,0.011670855,-0.21297245,0.42985263,0
21544000,21514000,197388,0.009902326,-0.21297199,0.43127054,0
21616000,21584666,197388,0.01066553,-0.21507215,0.42765805,0
21688000,21657333,197388,0.0102152405,-0.2141659,0.43122125,0
21760000,21728000,197388,0.008267477,-0.21505558,0.42886007,0
21820000,21796000,197388,0.008870969,-0.21368662,0.42637643,0
21904000,21867428,197388,0.010271802,-0.21749263,0.42879486,0
21960000,21936800,197388,0.009203568,-0.21642677,0.42910272,0
22032000,22005333,197388,0.00909009,-0.2160537,0.430126,0
22104000,22076666,197388,0.009307704,-0.21601,0.43136728,0
22180000,22149333,197388,0.007827024,-0.2151711,0.4282875,0
22252000,22220666,197388,0.008662576,-0.21396689,0.42715162,0
22312000,22288000,197388,0.00791205,-0.21415173,0.43002316,0
22396000,22358857,197388,0.00891681,-0.21468371,0.4307493,0
22456000,22431200,197388,0.008979169,-0.21493109,0.42950127,0
22536000,22502285,197388,0.009875767,-0.21421619,0.42841166,0
22588000,22570000,197388,0.012067042,-0.21566865,0.4283926,0
22680000,22639500,197388,0.009508986,-0.214253,0.4303274,0
22720000,22708000,197388,0.010268534,-0.20866546,0.43319497,0
22828000,22778666,197388,0.01849877,-0.20708783,0.43310225,0
22852000,22846000,197388,0.019799229,-0.2044853,0.43470103,0
22972000,22916400,197388,0.024128014,-0.20154957,0.43606183,0
22984000,22984000,197388,0.023003457,-0.20324798,0.4325252,0
23116000,23054545,197388,0.022694552,-0.2023578,0.43440083,0
23124000,23124000,197388,0.01614428,-0.200086,0.4372206,0
23248000,23192800,197388,0.015512714,-0.20784838,0.433499,0
23260000,23260000,197388,0.013472393,-0.20068271,0.42661577,0
23392000,23331272,197388,0.010837153,-0.21043536,0.4318312,0
23404000,23404000,197388,0.014785271,-0.21247561,0.42980745,0
23536000,23475636,197388,0.005580651,-0.2139975,0.43124256,0
23544000,23544000,197388,0.006616029,-0.21314174,0.426726,0
23668000,23612800,197388,0.0028288607,-0.21614432,0.4271265,0
23680000,23680000,197388,0.00113993,-0.2127618,0.42605963,0
23812000,23750909,197388,0.0035180799,-0.21780366,0.42879042,0
23824000,23824000,197388,-0.0023686606,-0.217666,0.4311937,0
23956000,23895636,197388,0.00078889186,-0.21925509,0.4283877,0
23968000,23968000,197388,0.004221643,-0.21642578,0.42938828,0
24100000,24038909,197388,0.0015467588,-0.21994631,0.42820543,0
24112000,24112000,197388,0.0030255022,-0.2187097,0.42952883,0
24244000,24182181,197388,0.0018574065,-0.22238535,0.4279187,0
24256000,24256000,197388,-9.854587e-05,-0.22289945,0.42644945,0
24388000,24327272,197388,0.0042981035,-0.22049482,0.4245776,0
24400000,24400000,197388,0.0046616904,-0.21821117,0.42632836,0
24532000,24471636,197388,0.0026768565,-0.22229598,0.42598408,0
24544000,24544000,197388,0.00060398766,-0.21972576,0.42299965,0
24676000,24614545,197388,0.0033116317,-0.22182581,0.42601696,0
24688000,24688000,197388,0.008582734,-0.21747953,0.42009792,0
24820000,24759272,197388,0.006071945,-0.22022212,0.42557362,0
24832000,24832000,197388,0.0072310977,-0.21741147,0.4287859,0
24964000,24903272,197388,0.007540276,-0.21792142,0.4284434,0
24976000,24976000,197388,0.0036241647,-0.22021605,0.42433578,0
25108000,25047636,197388,0.0060884203,-0.22040793,0.4275395,0
25116000,25116000,197388,0.0046942485,-0.21741077,0.427157,0
25240000,25186000,197388,0.01013185,-0.21795435,0.4275212,0
25260000,25256000,197388,0.0061177276,-0.21616042,0.43249822,0
25372000,25323555,197388,0.007174241,-0.21872558,0.42840734,0
25408000,25394666,197388,0.005781562,-0.21827996,0.43050084,0
25504000,25461500,197388,0.008394289,-0.2177375,0.4272219,0
25548000,25532000,197388,0.009178187,-0.21438684,0.4268393,0
25636000,25599428,197388,0.0061238813,-0.21659999,0.42901886,0
25696000,25670400,197388,0.0130663635,-0.2190527,0.42925692,0
25768000,25737333,197388,0.0075131534,-0.2164757,0.4291788,0
25840000,25808666,197388,0.008245105,-0.21783052,0.42934388,0
25900000,25876000,197388,0.0069107204,-0.2170707,0.43088195,0
25984000,25946857,197388,0.0086079165,-0.2174113,0.42742303,0
26032000,26014000,197388,0.009543376,-0.21447764,0.424805,0
26128000,26084500,197388,0.010457182,-0.21566787,0.42860562,0
26176000,26157000,197388,0.0091600865,-0.21764444,0.42987627,0
26272000,26229000,197388,0.008064714,-0.21697316,0.4282691,0
26316000,26300000,197388,0.0095734,-0.21812057,0.4318285,0
26404000,26367428,197388,0.008870004,-0.21755356,0.4283999,0
26464000,26437600,197388,0.010160041,-0.21856554,0.42792508,0
26536000,26504666,197388,0.012321472,-0.2166463,0.42673093,0
26604000,26576666,197388,0.011778329,-0.2161513,0.42907652,0
26680000,26649333,197388,0.009404693,-0.21844763,0.42862567,0
26752000,26721333,197388,0.010723113,-0.21474493,0.42593145,0
26812000,26788000,197388,0.010966474,-0.21691297,0.42553616,0
26896000,26860000,197388,0.011098096,-0.21540272,0.42520845,0
26956000,26931200,197388,0.011873319,-0.21765704,0.4281306,0
27040000,27002285,197388,0.011270232,-0.21614417,0.42836735,0
27088000,27070000,197388,0.012021795,-0.21682084,0.4303652,0
27184000,27141500,197388,0.010674768,-0.21360114,0.42792842,0
27228000,27213000,197388,0.008074141,-0.2161533,0.42787474,0
27328000,27285500,197388,0.0110436175,-0.21299498,0.42798364,0
27376000,27358000,197388,0.010772062,-0.2143818,0.4304589,0
27472000,27430000,197388,0.009094297,-0.2141823,0.42734063,0
27520000,27501000,197388,0.009561508,-0.21476385,0.4292053,0
27612000,27572500,197388,0.012525948,-0.21405709,0.43305886,0
27664000,27643000,197388,0.012671381,-0.21456043,0.42636377,0
27744000,27710857,197388,0.012038126,-0.21394846,0.4299055,0
27808000,27783200,197388,0.007096038,-0.21328595,0.42721468,0
27880000,27850000,197388,0.013715092,-0.21360475,0.4275064,0
27952000,27922000,197388,0.009964289,-0.21392801,0.4276635,0
28024000,27992666,197388,0.010039775,-0.21840325,0.43022615,0
28084000,28060000,197388,0.01137784,-0.21547352,0.4307128,0
28168000,28130857,197388,0.012752329,-0.21619734,0.42773965,0
28216000,28198000,197388,0.01806051,-0.22289968,0.42777905,0
28312000,28269500,197388,0.025325442,-0.22974584,0.42177725,0
28360000,28342000,197388,0.025385976,-0.2364259,0.4163174,0
28456000,28413500,197388,0.03188386,-0.2534147,0.4113211,0
28504000,28486000,197388,0.035782807,-0.2628975,0.40052754,0
28600000,28557000,197388,0.044080973,-0.2795652,0.38928378,0
28648000,28629000,197388,0.045659304,-0.28807008,0.3803674,0
28744000,28701500,197388,0.051914215,-0.29973325,0.37324485,0
28788000,28773000,197388,0.058421526,-0.30985853,0.36191565,0
28884000,28844500,197388,0.062308915,-0.3214068,0.35162437,0
28924000,28912000,197388,0.072054796,-0.32800972,0.3431792,0
29032000,28983111,197388,0.08188813,-0.3330106,0.33789185,0
29056000,29050000,197388,0.09006195,-0.33643365,0.33123368,0
29176000,29121200,197388,0.09816151,-0.33941525,0.3276672,0
29188000,29188000,197388,0.10613359,-0.33732453,0.32804164,0
29320000,29259272,197388,0.121206515,-0.33365804,0.32321188,0
29332000,29332000,197388,0.13203366,-0.34017792,0.32275027,0
29460000,29402545,197388,0.14467913,-0.32506093,0.32220507,0
29476000,29476000,197388,0.16190949,-0.32353568,0.32231674,0
29604000,29546545,197388,0.17050183,-0.31352955,0.3220855,0
29616000,29616000,197388,0.18606237,-0.31187245,0.31682402,0
29740000,29686000,197388,0.19756626,-0.299324,0.32286203,0
29764000,29758000,197388,0.21149112,-0.28826633,0.32306606,0
29884000,29829200,197388,0.22550873,-0.27884874,0.3223238,0
29896000,29896000,197388,0.23441388,-0.2639424,0.32961223,0
30028000,29967272,197388,0.25106254,-0.25467268,0.3219575,0
30040000,30040000,197388,0.2683455,-0.2403763,0.3129383,0
30168000,30110909,197388,0.2741159,-0.22104682,0.32538858,0
30184000,30184000,197388,0.29159075,-0.20436697,0.33244535,0
30316000,30255636,197388,0.2899247,-0.18060338,0.3364954,0
30328000,30328000,197388,0.29854876,-0.17042738,0.343808,0
30460000,30399636,197388,0.29849568,-0.14267452,0.35070923,0
30472000,30472000,197388,0.30202574,-0.121138856,0.35406455,0
30600000,30542545,197388,0.29785675,-0.10657829,0.3598174,0
30616000,30616000,197388,0.3015906,-0.0974749,0.3612535,0
30748000,30686909,197388,0.29008156,-0.07774312,0.3737103,0
30760000,30760000,197388,0.28289378,-0.06915636,0.38056508,0
30888000,30831636,197388,0.27866656,-0.056839637,0.3880081,0
30904000,30904000,197388,0.2711452,-0.05350707,0.39290562,0
31036000,30975636,197388,0.2638064,-0.04264179,0.39638034,0
31048000,31048000,197388,0.26373705,-0.036464956,0.40274358,0
31180000,31118545,197388,0.2639197,-0.032278202,0.40210676,0
31192000,31192000,197388,0.26556844,-0.02757216,0.39970458,0
31324000,31264000,197388,0.26658043,-0.0241168,0.4005926,0
31336000,31336000,197388,0.2721884,-0.026561437,0.39356923,0
31468000,31407272,197388,0.27281773,-0.018965561,0.3961493,0
31480000,31480000,197388,0.27307034,-0.012596193,0.39410448,0
31612000,31551636,197388,0.2751497,-0.015666671,0.3910303,0
31620000,31620000,197388,0.27802965,-0.015465603,0.38956085,0
31744000,31689600,197388,0.27805528,-0.01392844,0.3900869,0
31764000,31760000,197388,0.27980888,-0.016069306,0.3914935,0
31872000,31827111,197388,0.2789641,-0.014494072,0.39111355,0
31900000,31894000,197388,0.28221637,-0.015199136,0.3868124,0
32020000,31966000,197388,0.28293115,-0.014801112,0.3898773,0
32044000,32038000,197388,0.2813152,-0.016288206,0.38902307,0
32164000,32109600,197388,0.28502202,-0.017148277,0.3879898,0
32188000,32182000,197388,0.28301623,-0.021347083,0.38314557,0
32308000,32253600,197388,0.28471288,-0.025309784,0.38498476,0
32332000,32326000,197388,0.28279483,-0.026908677,0.38628912,0
32452000,32397600,197388,0.28577226,-0.031082412,0.38684306,0
32472000,32466000,197388,0.28765103,-0.03237318,0.3848533,0
32584000,32535555,197388,0.28590408,-0.03575388,0.38413468,0
32620000,32608000,197388,0.28850746,-0.034458455,0.38343796,0
32728000,32679111,197388,0.28679314,-0.034689512,0.38312283,0
32752000,32746000,197388,0.28776178,-0.038930625,0.38358015,0
32872000,32817200,197388,0.28926286,-0.03555523,0.38333592,0
32896000,32888000,197388,0.28488356,-0.03488852,0.38150895,0
33004000,32955111,197388,0.28664768,-0.036839325,0.38175923,0
33028000,33022000,197388,0.28390896,-0.035045676,0.38418278,0
33148000,33093600,197388,0.29120433,-0.036988836,0.38123488,0
33172000,33166000,197388,0.29211217,-0.03917496,0.38463116,0
33292000,33236800,197388,0.28873113,-0.03707856,0.3814002,0
33304000,33304000,197388,0.2883519,-0.0392218,0.38445526,0
33436000,33375636,197388,0.28938392,-0.039203696,0.38237143,0
33448000,33448000,197388,0.29298222,-0.03555292,0.37884527,0
33576000,33518545,197388,0.28856552,-0.038732667,0.38066947,0
33592000,33592000,197388,0.2927524,-0.034900684,0.37968847,0
33724000,33663636,197388,0.28866157,-0.037968025,0.38311768,0
33736000,33736000,197388,0.29138973,-0.036517143,0.38954553,0
33868000,33807636,197388,0.28819332,-0.03541932,0.38306645,0
33880000,33880000,197388,0.28973302,-0.034489866,0.381723,0
34012000,33951272,197388,0.28748703,-0.035398338,0.3839318,0
34024000,34024000,197388,0.29074427,-0.033694327,0.38091075,0
34156000,34094545,197388,0.2865163,-0.036020376,0.38415155,0
34168000,34168000,197388,0.2842615,-0.03611691,0.38507393,0
34300000,34239636,197388,0.28540894,-0.034750707,0.38365468,0
34312000,34312000,197388,0.28542334,-0.028103694,0.38661703,0
34444000,34382545,197388,0.28559542,-0.03280559,0.38635907,0
34456000,34456000,197388,0.2838496,-0.027996458,0.38626894,0
34588000,34528000,197388,0.2878882,-0.030591529,0.384624,0
34600000,34600000,197388,0.28631225,-0.02713047,0.38332465,0
34732000,34670909,197388,0.28879204,-0.03215286,0.38412464,0
34740000,34740000,197388,0.29199985,-0.0268382,0.3784308,0
34864000,34809600,197388,0.28701895,-0.03245119,0.3847163,0
34888000,34882000,197388,0.29108176,-0.031301834,0.3836327,0
35008000,34953200,197388,0.28914353,-0.034715038,0.38412413,0
35020000,35020000,197388,0.28981245,-0.026513213,0.38154742,0
35148000,35090909,197388,0.28919834,-0.031135349,0.38380027,0
35160000,35160000,197388,0.2844998,-0.036123697,0.38267693,0
35284000,35229600,197388,0.2848677,-0.03185608,0.38168332,0
35308000,35302000,197388,0.28649408,-0.031205583,0.38379025,0
35428000,35374000,197388,0.28814083,-0.030810604,0.38170138,0
35448000,35444000,197388,0.28804362,-0.030579321,0.3863255,0
35556000,35511111,197388,0.2890744,-0.028281672,0.3823849,0
35584000,35578000,197388,0.29138988,-0.032791883,0.3844401,0
35704000,35649200,197388,0.2880433,-0.029399795,0.38376445,0
35716000,35716000,197388,0.28240412,-0.030887885,0.37910366,0
35848000,35787636,197388,0.29011744,-0.02944132,0.380927,0
35856000,35856000,197388,0.28709733,-0.03206399,0.38541406,0
35980000,35925600,197388,0.28797194,-0.028450945,0.38259405,0
36004000,35996000,197388,0.2887301,-0.025394978,0.38663685,0
36112000,36063555,197388,0.29044408,-0.027984176,0.38177282,0
36144000,36134666,197388,0.2907471,-0.030534703,0.38274926,0
36244000,36201500,197388,0.28921512,-0.029941354,0.38134634,0
36292000,36274000,197388,0.2914253,-0.024097847,0.382429,0
36388000,36345500,197388,0.28715652,-0.029913098,0.38340142,0
36436000,36417000,197388,0.2918303,-0.026251178,0.38256538,0
36520000,36484000,197388,0.2862874,-0.026393987,0.3814836,0
36580000,36554400,197388,0.2901578,-0.028385712,0.38085392,0
36652000,36621333,197388,0.2918774,-0.025097769,0.3872968,0
36712000,36688000,197388,0.29123858,-0.026650587,0.38354594,0
36796000,36760000,197388,0.28954706,-0.026766803,0.37981352,0
36856000,36831200,197388,0.2893687,-0.029322619,0.38234758,0
36940000,36903428,197388,0.29174432,-0.02777893,0.38247684,0
37000000,36976000,197388,0.2892304,-0.0276391,0.38040885,0
37084000,37047428,197388,0.29093692,-0.02611533,0.38157386,0
37144000,37118400,197388,0.29288617,-0.029556572,0.37653098,0
37224000,37189714,197388,0.29158694,-0.028358048,0.38082975,0
37272000,37257000,197388,0.28937775,-0.027953265,0.3827278,0
37372000,37329500,197388,0.2921381,-0.026820876,0.37941304,0
37416000,37401000,197388,0.2907706,-0.024254354,0.38006303,0
37516000,37473500,197388,0.2894231,-0.030393554,0.3818906,0
37564000,37546000,197388,0.2899727,-0.027253116,0.38029516,0
37660000,37617500,197388,0.2907065,-0.029936643,0.38106662,0
37708000,37690000,197388,0.29168063,-0.028150534,0.380262,0
37804000,37760500,197388,0.29183057,-0.028695151,0.37956274,0
37840000,37828000,197388,0.29076275,-0.026165992,0.38149402,0
37948000,37898666,197388,0.2909805,-0.025824593,0.3826442,0
37972000,37966000,197388,0.29416004,-0.03592227,0.37946445,0
38092000,38037200,197388,0.29235542,-0.030639637,0.38132048,0
38104000,38104000,197388,0.28334388,-0.03199955,0.37937468,0
38232000,38175272,197388,0.28943735,-0.03124365,0.3811668,0
38248000,38248000,197388,0.2959378,-0.026868464,0.38518035,0
38380000,38320000,197388,0.29136488,-0.031394657,0.38224313,0
38392000,38392000,197388,0.29013214,-0.027683614,0.3818804,0
38520000,38463636,197388,0.29033923,-0.028081816,0.3823844,0
38532000,38532000,197388,0.28966013,-0.030359149,0.3814486,0
38656000,38602000,197388,0.29124305,-0.028348673,0.38289145,0
38680000,38674000,197388,0.2908362,-0.03029257,0.3823166,0
38800000,38745200,197388,0.29007787,-0.030011335,0.38132063,0
38824000,38816000,197388,0.29315645,-0.030234415,0.38171637,0
38932000,38883555,197388,0.2923133,-0.031128692,0.38290668,0
38968000,38956000,197388,0.2913667,-0.03097982,0.37750107,0
39076000,39028000,197388,0.2889871,-0.030796226,0.38248676,0
39112000,39100000,197388,0.28997862,-0.03136161,0.38477308,0
39220000,39171555,197388,0.29090396,-0.03002338,0.38225317,0
39252000,39242666,197388,0.29061624,-0.031328958,0.38076544,0
39352000,39310000,197388,0.28860143,-0.029466946,0.38340172,0
39400000,39381000,197388,0.29089063,-0.029644433,0.37998015,0
39496000,39452500,197388,0.29091918,-0.029554984,0.38231096,0
39532000,39520000,197388,0.28953332,-0.03297869,0.37762743,0
39640000,39590666,197388,0.29041997,-0.029686475,0.38066137,0
39664000,39658000,197388,0.28862798,-0.03373526,0.37916684,0
39784000,39729200,197388,0.29012284,-0.029532457,0.38108823,0
39796000,39796000,197388,0.2922611,-0.033422075,0.38500553,0
39928000,39867272,197388,0.2891933,-0.026804756,0.38290295,0
39940000,39940000,197388,0.2892978,-0.022886965,0.38964346,0
40072000,40011272,197388,0.27738228,-0.00907296,0.39378396,0
40084000,40084000,197388,0.26933104,-0.00013696979,0.39173216,0
40216000,40154909,197388,0.2592927,0.013485546,0.4037891,0
40224000,40224000,197388,0.24323553,0.027011251,0.4063184,0
40348000,40293200,197388,0.23572694,0.037350234,0.41666585,0
40360000,40360000,197388,0.22330637,0.045957066,0.42584357,0
40492000,40431636,197388,0.21098042,0.04957069,0.42926702,0
40504000,40504000,197388,0.20105231,0.047187496,0.43740198,0
40636000,40575636,197388,0.18377231,0.056037102,0.44080693,0
40648000,40648000,197388,0.17189541,0.06099712,0.44763872,0
40780000,40719272,197388,0.16210969,0.0604954,0.44784746,0
40788000,40788000,197388,0.15017888,0.06239287,0.45702603,0
40912000,40857600,197388,0.15280831,0.063497946,0.4509793,0
40936000,40930000,197388,0.14870876,0.06572507,0.45067972,0
41056000,41001200,197388,0.15297778,0.06507388,0.45167866,0
41080000,41072000,197388,0.15366034,0.06047315,0.45220172,0
41188000,41139555,197388,0.15302159,0.060136624,0.4506173,0
41224000,41210666,197388,0.1493943,0.053496815,0.45382103,0
41320000,41277500,197388,0.15190367,0.054622184,0.45296553,0
41368000,41350000,197388,0.15070987,0.047472343,0.45305276,0
41464000,41421500,197388,0.1513847,0.043665145,0.4555065,0
41512000,41494000,197388,0.149097,0.039659597,0.45348293,0
41604000,41565000,197388,0.14985727,0.030994533,0.4564129,0
41656000,41637000,197388,0.14792515,0.02411025,0.45837057,0
41752000,41709500,197388,0.1439049,0.014008889,0.45854,0
41800000,41782000,197388,0.14083973,0.0042413617,0.45940316,0
41896000,41853500,197388,0.13811818,-0.006085169,0.4607955,0
41944000,41925000,197388,0.13407527,-0.0142469,0.46165147,0
42040000,41997000,197388,0.13137808,-0.02016094,0.4613756,0
42088000,42068000,197388,0.13070765,-0.03178551,0.46358708,0
42172000,42136000,197388,0.12573439,-0.03724123,0.46409816,0
42232000,42208000,197388,0.12273057,-0.048925832,0.4647412,0
42312000,42278285,197388,0.121552594,-0.05606372,0.46350387,0
42364000,42346000,197388,0.11569291,-0.058644116,0.4654231,0
42456000,42416500,197388,0.10542773,-0.071139805,0.46283725,0
42496000,42484000,197388,0.09743201,-0.08030783,0.4657492,0
42600000,42553777,197388,0.083330356,-0.09164881,0.46416324,0
42628000,42622000,197388,0.07407983,-0.104170874,0.4679407,0
42748000,42693600,197388,0.061629176,-0.109236255,0.4655803,0
42772000,42766000,197388,0.04709432,-0.11757551,0.46242517,0
42892000,42837600,197388,0.03638335,-0.12886573,0.4615228,0
42916000,42910000,197388,0.027640713,-0.14145505,0.46132824,0
43036000,42982000,197388,0.025190158,-0.1530291,0.45526597,0
43060000,43054000,197388,0.018966397,-0.15430805,0.45230773,0
43180000,43125600,197388,0.016438074,-0.17232874,0.45072886,0
43200000,43196000,197388,0.0066726706,-0.1847166,0.44481683,0
43308000,43263111,197388,0.005592032,-0.19513658,0.4385295,0
43336000,43330000,197388,0.0023486856,-0.20744202,0.4333041,0
43456000,43401600,197388,-0.003674717,-0.21457818,0.4292383,0
43480000,43474000,197388,-0.008681998,-0.21901122,0.42515904,0
43596000,43545200,197388,-0.012672717,-0.22179213,0.42331505,0
43612000,43612000,197388,-0.016863264,-0.22922237,0.42733756,0
43744000,43683636,197388,-0.016338943,-0.22393516,0.42244992,0
43756000,43756000,197388,-0.03227878,-0.21577375,0.42457527,0
43888000,43827636,197388,-0.022898471,-0.2221124,0.42608258,0
43900000,43900000,197388,-0.021763414,-0.22071917,0.42807978,0
44032000,43971272,197388,-0.025833135,-0.21950814,0.42600513,0
44044000,44044000,197388,-0.031723484,-0.2206049,0.4222711,0
44176000,44115636,197388,-0.025725937,-0.21827924,0.42580354,0
44188000,44188000,197388,-0.032265123,-0.21567723,0.42941502,0
44320000,44260000,197388,-0.027629422,-0.21549778,0.42963263,0
44332000,44332000,197388,-0.026465071,-0.21882297,0.42693537,0
44464000,44403636,197388,-0.027439676,-0.21628635,0.42693886,0
44476000,44476000,197388,-0.030073492,-0.2152596,0.42767408,0
44604000,44546909,197388,-0.02529671,-0.21695165,0.4281981,0
44620000,44620000,197388,-0.024811948,-0.22066878,0.43501607,0
44752000,44692000,197388,-0.022014976,-0.21635526,0.43008983,0
44760000,44760000,197388,-0.017262913,-0.2117292,0.43619633,0
44880000,44828800,197388,-0.01565881,-0.21092294,0.43071237,0
44896000,44896000,197388,-0.017896263,-0.21704237,0.43018413,0
45028000,44966909,197388,-0.0142258275,-0.20724171,0.43648466,0
45040000,45040000,197388,-0.016023941,-0.20797147,0.43469143,0
45168000,45111272,197388,-0.014654013,-0.20308697,0.4369317,0
45180000,45180000,197388,-0.0084353555,-0.19883454,0.43636787,0
45304000,45250000,197388,-0.019115528,-0.20019332,0.43628797,0
45328000,45322000,197388,-0.019034084,-0.20024714,0.43682292,0
45448000,45393600,197388,-0.017598793,-0.20177601,0.4361178,0
45468000,45464000,197388,-0.028233886,-0.20067912,0.43355834,0
45576000,45531111,197388,-0.033103336,-0.19961476,0.43634754,0
45604000,45598000,197388,-0.041846916,-0.19757596,0.43511504,0
45724000,45669600,197388,-0.053713735,-0.1931255,0.4340026,0
45748000,45742000,197388,-0.061914198,-0.18712783,0.43506598,0
45868000,45813600,197388,-0.07970285,-0.18613285,0.43682823,0
45892000,45886000,197388,-0.08838615,-0.18409875,0.4346279,0
46012000,45957600,197388,-0.094959095,-0.18297684,0.43393746,0
46036000,46030000,197388,-0.09846497,-0.1850982,0.437905,0
46156000,46101600,197388,-0.102594994,-0.18254505,0.4327046,0
46180000,46174000,197388,-0.100218594,-0.18136635,0.43318576,0
46300000,46244800,197388,-0.10565076,-0.1841582,0.432471,0
46312000,46312000,197388,-0.109621376,-0.18859449,0.43031403,0
46444000,46383636,197388,-0.105146565,-0.18335573,0.4316751,0
46456000,46456000,197388,-0.11598027,-0.18245514,0.43198046,0
46584000,46527272,197388,-0.1090587,-0.18267173,0.43093678,0
46600000,46600000,197388,-0.115252875,-0.18911882,0.43188533,0
46732000,46671636,197388,-0.11191051,-0.18196668,0.4298145,0
46740000,46740000,197388,-0.11381275,-0.18295035,0.4274776,0
46864000,46809600,197388,-0.11797873,-0.18225007,0.42999482,0
46884000,46880000,197388,-0.118028454,-0.18563785,0.42692018,0
46996000,46948000,197388,-0.121196665,-0.18038051,0.42907682,0
47032000,47020000,197388,-0.12498956,-0.17771885,0.42906436,0
47140000,47091555,197388,-0.124892406,-0.1823854,0.4278331,0
47172000,47161333,197388,-0.13026804,-0.18135104,0.42272174,0
47268000,47228500,197388,-0.13050765,-0.18277429,0.42509055,0
47320000,47301000,197388,-0.13084711,-0.17906936,0.42360255,0
47416000,47373000,197388,-0.13236406,-0.18302387,0.4245749,0
47452000,47440000,197388,-0.13352457,-0.18168883,0.42704743,0
47560000,47511111,197388,-0.1341023,-0.17816441,0.42500645,0
47596000,47582666,197388,-0.13344304,-0.1778279,0.4274026,0
47692000,47649500,197388,-0.13339195,-0.17777877,0.42806584,0
47740000,47722000,197388,-0.1343648,-0.17387916,0.42987427,0
47836000,47793500,197388,-0.1333996,-0.1736622,0.4282046,0
47884000,47865000,197388,-0.13726515,-0.17192753,0.42811295,0
47968000,47932000,197388,-0.13760531,-0.17239192,0.42987686,0
48028000,48003200,197388,-0.13707566,-0.17016976,0.4281206,0
48108000,48074285,197388,-0.13983019,-0.17319962,0.42778036,0
48160000,48141000,197388,-0.14153543,-0.17230394,0.42843252,0
48244000,48208000,197388,-0.14214273,-0.17240052,0.4271104,0
48304000,48280000,197388,-0.14275466,-0.16880609,0.42878184,0
48388000,48350857,197388,-0.143851,-0.16796942,0.4285701,0
48436000,48418000,197388,-0.14157175,-0.16667412,0.42879304,0
48532000,48489500,197388,-0.14425056,-0.16812037,0.42736623,0
48576000,48560000,197388,-0.14272645,-0.16652289,0.42939967,0
48664000,48628000,197388,-0.14750402,-0.16884093,0.42681208,0
48724000,48700000,197388,-0.14595957,-0.16834913,0.42516145,0
48808000,48770857,197388,-0.14584498,-0.15945975,0.42715544,0
48868000,48843200,197388,-0.146794,-0.14814079,0.43185225,0
48940000,48910000,197388,-0.15185939,-0.13693038,0.4359859,0
49012000,48980666,197388,-0.15554738,-0.118851304,0.43912673,0
49072000,49048000,197388,-0.16250291,-0.10593214,0.43916103,0
49156000,49119428,197388,-0.17400886,-0.09482428,0.43879682,0
49216000,49190400,197388,-0.18687369,-0.08196359,0.43435,0
49288000,49257333,197388,-0.19435573,-0.073345155,0.43325227,0
49360000,49329333,197388,-0.20048146,-0.06855594,0.42839587,0
49420000,49396000,197388,-0.19863841,-0.067769065,0.43056732,0
49504000,49467428,197388,-0.19861494,-0.0652035,0.43468156,0
49564000,49540000,197388,-0.19179937,-0.07187891,0.43526074,0
49648000,49610857,197388,-0.1911117,-0.072574675,0.43390927,0
49708000,49683200,197388,-0.18540733,-0.06877868,0.44184572,0
49780000,49750000,197388,-0.18111295,-0.06399464,0.43903273,0
49852000,49821333,197388,-0.17456725,-0.055990063,0.44208106,0
49924000,49893333,197388,-0.17498598,-0.047706164,0.44656917,0
49996000,49965333,197388,-0.16727875,-0.035084896,0.4507463,0
50056000,50032000,197388,-0.16082287,-0.021093717,0.45042297,0
50140000,50103428,197388,-0.15411636,-0.012092476,0.45532027,0
50200000,50176000,197388,-0.14232004,0.0013154938,0.45761085,0
50280000,50247428,197388,-0.13362584,0.013953727,0.46040455,0
50344000,50320000,197388,-0.12642264,0.021853205,0.4620568,0
50428000,50391428,197388,-0.11429706,0.03768155,0.46577075,0
50488000,50464000,197388,-0.09989441,0.046335127,0.47025305,0
50572000,50536000,197388,-0.089682005,0.050494477,0.46807367,0
50632000,50607200,197388,-0.08105846,0.056760605,0.46843696,0
50704000,50674000,197388,-0.07381556,0.068064265,0.4700294,0
50776000,50744000,197388,-0.067194715,0.070147805,0.47024542,0
50836000,50812000,197388,-0.060669836,0.07106929,0.47081232,0
50920000,50883428,197388,-0.054683585,0.0770543,0.47325754,0
50980000,50956000,197388,-0.049973514,0.07839023,0.47091612,0
51064000,51027428,197388,-0.044984207,0.078758195,0.4707603,0
51124000,51100000,197388,-0.047531985,0.07999229,0.4724935,0
51208000,51171428,197388,-0.049267456,0.080323935,0.47062343,0
51264000,51243200,197388,-0.052529007,0.087490715,0.46973386,0
51352000,51315428,197388,-0.059279233,0.09115041,0.46807316,0
51408000,51386400,197388,-0.066861905,0.09590981,0.4677448,0
51484000,51454000,197388,-0.071122825,0.09620938,0.46644434,0
51556000,51526000,197388,-0.08063675,0.092403054,0.4643036,0
51628000,51597333,197388,-0.08932008,0.09320596,0.45994127,0
51688000,51664000,197388,-0.10071254,0.08974615,0.46321017,0
51772000,51734857,197388,-0.1110282,0.085922815,0.45904377,0
51832000,51807200,197388,-0.12358325,0.08293858,0.4559543,0
51916000,51878857,197388,-0.13203292,0.08357277,0.45186347,0
51976000,51951200,197388,-0.1404696,0.08375452,0.45384288,0
52060000,52023428,197388,-0.13689189,0.08512411,0.45486754,0
52120000,52096000,197388,-0.1361805,0.087343596,0.450973,0
52200000,52166285,197388,-0.13263099,0.09211413,0.45207995,0
52252000,52234000,197388,-0.12799948,0.09552485,0.45669183,0
52344000,52304500,197388,-0.12634204,0.09609504,0.45322403,0
52384000,52372000,197388,-0.12346103,0.10329359,0.4535641,0
52492000,52443555,197388,-0.11968742,0.104310796,0.45483467,0
52524000,52514666,197388,-0.11937432,0.10549985,0.45382345,0
52624000,52582000,197388,-0.11469238,0.108174,0.45450276,0
52672000,52654000,197388,-0.1136094,0.10610943,0.45544103,0
52764000,52725000,197388,-0.11260857,0.10888249,0.45433727,0
52816000,52797000,197388,-0.112050354,0.113379076,0.4541707,0
52900000,52864000,197388,-0.10747577,0.11296743,0.4548469,0
52960000,52936000,197388,-0.11041331,0.11183186,0.45547467,0
53044000,53007428,197388,-0.108741835,0.11669219,0.45260814,0
53104000,53080000,197388,-0.10667086,0.115794025,0.45319992,0
53188000,53152000,197388,-0.107065625,0.11764581,0.4517286,0
53248000,53223200,197388,-0.1094317,0.1187916,0.45340058,0
53320000,53290000,197388,-0.104068786,0.11877701,0.45154738,0
53392000,53361333,197388,-0.10411838,0.122102216,0.4522842,0
53452000,53428000,197388,-0.1064839,0.118958764,0.45006457,0
53536000,53498857,197388,-0.10872316,0.12264777,0.4538104,0
53592000,53570400,197388,-0.1074883,0.12016349,0.45279428,0
53664000,53637333,197388,-0.10943934,0.12037367,0.45169348,0
53740000,53708666,197388,-0.10805603,0.1246219,0.45259625,0
53800000,53776000,197388,-0.104358435,0.12259022,0.45322075,0
53884000,53847428,197388,-0.11201483,0.12366466,0.45207605,0
53944000,53919200,197388,-0.10952512,0.122859955,0.45121858,0
54016000,53986000,197388,-0.10890474,0.12189451,0.45093334,0
54088000,54056000,197388,-0.11235754,0.12330431,0.4493935,0
54148000,54124000,197388,-0.111814976,0.12305387,0.44983926,0
54232000,54196000,197388,-0.111221656,0.12209872,0.45220974,0
54288000,54266400,197388,-0.108924806,0.12266846,0.4546805,0
54360000,54333333,197388,-0.112887695,0.122656465,0.4496178,0
54436000,54404000,197388,-0.10954925,0.12405857,0.45573968,0
54504000,54476000,197388,-0.10841231,0.12715948,0.45168734,0
54568000,54543200,197388,-0.10758696,0.12253553,0.45383817,0
54652000,54614857,197388,-0.108550906,0.1221637,0.45433202,0
54700000,54682000,197388,-0.10499683,0.120650694,0.45301327,0
54796000,54754000,197388,-0.10940312,0.122266896,0.45199567,0
54844000,54825000,197388,-0.10734597,0.1177797,0.45734346,0
54940000,54897500,197388,-0.1108255,0.118651204,0.4507144,0
54988000,54969000,197388,-0.114942275,0.12027725,0.4487893,0
55072000,55036000,197388,-0.12500277,0.11788945,0.44916326,0
55128000,55105600,197388,-0.13519208,0.12115689,0.44387937,0
55204000,55174000,197388,-0.14775738,0.12239363,0.44093156,0
55276000,55245333,197388,-0.15979378,0.11968461,0.43688554,0
55344000,55316666,197388,-0.17110577,0.12337226,0.43170536,0
55416000,55388666,197388,-0.18181914,0.121851526,0.4267919,0
55488000,55459333,197388,-0.18161419,0.119830266,0.42941552,0
55552000,55527200,197388,-0.18811655,0.11738211,0.42740008,0
55636000,55597714,197388,-0.18584035,0.11795816,0.42666498,0
55684000,55665000,197388,-0.18820895,0.11913331,0.42410982,0
55780000,55737000,197388,-0.19091097,0.1154946,0.4270333,0
55824000,55807000,197388,-0.18454961,0.11280793,0.4255597,0
55912000,55876000,197388,-0.18873245,0.11434886,0.42669567,0
55972000,55947200,197388,-0.19061902,0.11369181,0.4258566,0
56052000,56018285,197388,-0.19015323,0.11250134,0.4240515,0
56116000,56090400,197388,-0.19071132,0.111907266,0.42576247,0
56188000,56157333,197388,-0.19250423,0.109519765,0.42437097,0
56248000,56224000,197388,-0.1930847,0.11276851,0.42673832,0
56332000,56294857,197388,-0.19334342,0.11152589,0.42511553,0
56380000,56362000,197388,-0.19730881,0.10932995,0.42477548,0
56476000,56433000,197388,-0.19468912,0.109150745,0.42457476,0
56512000,56500000,197388,-0.19524857,0.106217235,0.42511016,0
56616000,56571111,197388,-0.19726308,0.11176961,0.42473248,0
56652000,56640000,197388,-0.19677615,0.11080593,0.4280207,0
56748000,56709000,197388,-0.19614965,0.11003995,0.4244062,0
56800000,56781000,197388,-0.19365175,0.11335173,0.4230373,0
56896000,56853500,197388,-0.19689536,0.11464911,0.4249719,0
56944000,56926000,197388,-0.19481407,0.112015314,0.42221972,0
57040000,56997000,197388,-0.19589444,0.11369484,0.4232056,0
57084000,57068000,197388,-0.1949456,0.11625714,0.42182377,0
57172000,57134857,197388,-0.19513015,0.11443735,0.42180082,0
57228000,57204000,197388,-0.19685186,0.11302697,0.42502078,0
57300000,57272666,197388,-0.19829969,0.11123149,0.4261722,0
57376000,57344666,197388,-0.19748706,0.11371033,0.42202684,0
57448000,57416666,197388,-0.1963099,0.11532026,0.42384642,0
57508000,57484000,197388,-0.19878693,0.113043204,0.41850486,0
57592000,57555428,197388,-0.19969855,0.11376226,0.4238502,0
57648000,57627200,197388,-0.19850434,0.1134216,0.4226943,0
57736000,57698857,197388,-0.19566625,0.11422062,0.42314655,0
57792000,57770400,197388,-0.1952576,0.115403235,0.4236804,0
57868000,57837333,197388,-0.19632189,0.113784425,0.42029792,0
57940000,57908666,197388,-0.19498149,0.11781686,0.42262563,0
58000000,57976000,197388,-0.19575104,0.11768931,0.42570925,0
58084000,58047428,197388,-0.1948311,0.117302194,0.4239853,0
58140000,58119200,197388,-0.19271468,0.11685821,0.425321,0
58228000,58191428,197388,-0.19369107,0.11846141,0.42441204,0
58288000,58263200,197388,-0.19324796,0.113215625,0.4248787,0
58368000,58334285,197388,-0.19668965,0.11615521,0.42406327,0
58420000,58401000,197388,-0.19487484,0.114232436,0.42330065,0
58516000,58473000,197388,-0.19630648,0.117913954,0.4259768,0
58552000,58540000,197388,-0.1932919,0.117455065,0.4239076,0
58660000,58611555,197388,-0.19364205,0.11583517,0.42509797,0
58692000,58682666,197388,-0.1881912,0.11579651,0.42368612,0
58792000,58750000,197388,-0.1946748,0.11630564,0.4241279,0
58840000,58821000,197388,-0.19005041,0.11519579,0.42751873,0
58932000,58893000,197388,-0.18920289,0.1152397,0.42421982,0
58984000,58964000,197388,-0.18776578,0.11692012,0.4257213,0
59068000,59030857,197388,-0.18823601,0.11874637,0.4277033,0
59116000,59098000,197388,-0.18500617,0.11833729,0.42610335,0
59212000,59169000,197388,-0.18999714,0.11778829,0.42542285,0
59248000,59236000,197388,-0.1912877,0.116867796,0.4240693,0
59356000,59307555,197388,-0.18887584,0.11568366,0.42642602,0
59392000,59378666,197388,-0.18989104,0.11556621,0.4261076,0
59500000,59450666,197388,-0.18879053,0.11529451,0.4255022,0
59524000,59518000,197388,-0.18988417,0.117760114,0.42242938,0
59640000,59588800,197388,-0.19344236,0.1144283,0.4248007,0
59668000,59660000,197388,-0.1913073,0.118617564,0.4264074,0
59772000,59726666,197388,-0.19655995,0.112930246,0.42225847,0
59812000,59798666,197388,-0.20048282,0.112982824,0.42372155,0
59908000,59866000,197388,-0.20360991,0.1134626,0.42373362,0
59956000,59938000,197388,-0.20640342,0.11425468,0.41679868,0
60052000,60009000,197388,-0.1997006,0.11532718,0.4211371,0
60100000,60080000,197388,-0.1934738,0.118990496,0.4231568,0
60184000,60146857,197388,-0.19010527,0.11771366,0.42783207,0
60232000,60214000,197388,-0.18810329,0.11451614,0.42841947,0
60328000,60285000,197388,-0.1857334,0.11552239,0.42971724,0
60376000,60357000,197388,-0.18172662,0.11998376,0.43064177,0
60460000,60424000,197388,-0.18682119,0.11766027,0.42974672,0
60520000,60495200,197388,-0.18223165,0.11643001,0.42755014,0
60592000,60562000,197388,-0.1844973,0.11644279,0.4279575,0
60664000,60633333,197388,-0.18460116,0.11466971,0.42855245,0
60736000,60705333,197388,-0.1840174,0.1162325,0.43018216,0
60808000,60776666,197388,-0.18366532,0.11699759,0.42950606,0
60880000,60848000,197388,-0.1824203,0.118848205,0.42875278,0
60940000,60915200,197388,-0.1829164,0.11738924,0.42962366,0
61024000,60986857,197388,-0.18509625,0.11914894,0.42848215,0
61072000,61054000,197388,-0.18240961,0.11477642,0.4273425,0
61168000,61124500,197388,-0.17928389,0.119783595,0.4310177,0
61212000,61196000,197388,-0.17942895,0.11944538,0.42884842,0
61300000,61262857,197388,-0.18326834,0.11682068,0.4318103,0
61360000,61335200,197388,-0.18291037,0.118545294,0.43150887,0
61444000,61406285,197388,-0.18189175,0.11826206,0.42793673,0
61492000,61474000,197388,-0.18567649,0.1136502,0.43201655,0
61584000,61545500,197388,-0.18451679,0.12004182,0.42798895,0
61636000,61617000,197388,-0.18277875,0.118180096,0.42664382,0
61732000,61689000,197388,-0.18349564,0.11922229,0.42734855,0
61780000,61761000,197388,-0.18235455,0.12026481,0.4277101,0
61872000,61832500,197388,-0.18474036,0.11836994,0.42683098,0
61924000,61905000,197388,-0.18244408,0.11856501,0.42735362,0
62008000,61972000,197388,-0.18193457,0.11804351,0.42907882,0
62068000,62043200,197388,-0.18516496,0.119829945,0.4255747,0
62152000,62115428,197388,-0.18225476,0.11625719,0.42724356,0
62212000,62188000,197388,-0.18535127,0.11991184,0.42630148,0
62296000,62258285,197388,-0.17973699,0.11887173,0.42827767,0
62344000,62326000,197388,-0.18075126,0.116489165,0.42869624,0
62440000,62396000,197388,-0.17831266,0.119872086,0.42905447,0
62476000,62464000,197388,-0.1802674,0.11405793,0.43042514,0
62584000,62536000,197388,-0.1814283,0.1191473,0.42937198,0
62620000,62606666,197388,-0.18372738,0.12074678,0.43005955,0
62728000,62678222,197388,-0.18063803,0.11990849,0.430809,0
62764000,62750666,197388,-0.18319243,0.11629744,0.4305304,0
62860000,62817500,197388,-0.17953356,0.1196483,0.43060583,0
62904000,62888000,197388,-0.18212101,0.11782659,0.43103686,0
63004000,62959500,197388,-0.17953612,0.119011536,0.4287537,0
63052000,63032000,197388,-0.18030477,0.12026185,0.4310471,0
63132000,63099428,197388,-0.18010594,0.11858985,0.42685416,0
63192000,63169600,197388,-0.17728138,0.12121492,0.42887458,0
63264000,63236666,197388,-0.17796057,0.120140254,0.43296966,0
63340000,63308000,197388,-0.18150085,0.117865585,0.4300997,0
63412000,63380666,197388,-0.17951912,0.115369044,0.43045312,0
63484000,63453333,197388,-0.18186119,0.11943048,0.42872304,0
63556000,63525333,197388,-0.18311548,0.11981726,0.42933124,0
63616000,63592000,197388,-0.18189925,0.11968942,0.42804033,0
63696000,63662857,197388,-0.18126927,0.11582933,0.43041718,0
63748000,63730000,197388,-0.17923927,0.11554299,0.43073875,0
63844000,63800500,197388,-0.17999679,0.11676785,0.43142948,0
63880000,63868000,197388,-0.17842728,0.120504215,0.4309342,0
63988000,63937777,197388,-0.18061873,0.11775495,0.42814928,0
64012000,64006000,197388,-0.1800628,0.114629015,0.42612493,0
64132000,64077200,197388,-0.18038176,0.11558825,0.42780194,0
64144000,64144000,197388,-0.18287738,0.11960697,0.42888284,0
64276000,64214545,197388,-0.18156047,0.11670321,0.4289042,0
64284000,64284000,197388,-0.1813762,0.11506891,0.4323277,0
64408000,64353600,197388,-0.17938273,0.1176904,0.4289778,0
64432000,64426000,197388,-0.18342534,0.12110755,0.42777503,0
64552000,64497200,197388,-0.18149924,0.11616182,0.4288431,0
64564000,64564000,197388,-0.17709996,0.11450864,0.4221045,0
64696000,64634545,197388,-0.18157968,0.11874603,0.42916113,0
64708000,64708000,197388,-0.17990682,0.120292194,0.43016976,0
64840000,64778545,197388,-0.18157518,0.11899211,0.43086815,0
64852000,64852000,197388,-0.1788397,0.11536659,0.4372675,0
64980000,64922545,197388,-0.18229212,0.1185204,0.42813087,0
64996000,64996000,197388,-0.17955576,0.11331651,0.43192628,0
65128000,65068000,197388,-0.1827588,0.11787939,0.42891407,0
65140000,65140000,197388,-0.18259852,0.117808506,0.43247664,0
65272000,65211636,197388,-0.18235987,0.11838027,0.43012986,0
65284000,65284000,197388,-0.18669577,0.11766859,0.42730328,0
65416000,65355272,197388,-0.18109816,0.11921078,0.4301953,0
65428000,65428000,197388,-0.1830616,0.12598501,0.43101585,0
65560000,65498545,197388,-0.18111685,0.11767187,0.42918393,0
65572000,65572000,197388,-0.18240944,0.111656256,0.4263358,0
65700000,65642181,197388,-0.18308863,0.11607863,0.42873913,0
65712000,65712000,197388,-0.18097106,0.11744967,0.42742512,0
65832000,65780400,197388,-0.18314385,0.11793423,0.4302245,0
65856000,65850000,197388,-0.18214808,0.118794456,0.4298547,0
65968000,65919111,197388,-0.18336454,0.11793268,0.42927408,0
66000000,65988000,197388,-0.18318084,0.118684635,0.42782956,0
66096000,66057000,197388,-0.17985259,0.1196481,0.4285741,0
66148000,66128000,197388,-0.18183827,0.11340768,0.43041715,0
66228000,66195428,197388,-0.17958926,0.11879177,0.43125406,0
66292000,66267200,197388,-0.17843783,0.11725149,0.4278562,0
66376000,66339428,197388,-0.18330525,0.11794146,0.42873517,0
66436000,66411200,197388,-0.18257424,0.11707,0.43209743,0
66508000,66478000,197388,-0.18241435,0.11726166,0.4287618,0
66580000,66548666,197388,-0.18263578,0.11605124,0.43023574,0
66640000,66616000,197388,-0.18402375,0.11766231,0.42848378,0
66724000,66686857,197388,-0.18243293,0.11681577,0.4300457,0
66772000,66754000,197388,-0.18222965,0.11604357,0.43283397,0
66868000,66823500,197388,-0.18015362,0.11813809,0.43136904,0
66900000,66890666,197388,-0.18307494,0.122307464,0.43127188,0
67000000,66958000,197388,-0.18158323,0.11622074,0.42791748,0
67044000,67029000,197388,-0.1800608,0.11813276,0.4291079,0
67144000,67101000,197388,-0.1824593,0.11622968,0.42906457,0
67192000,67173000,197388,-0.17987849,0.11557293,0.4285456,0
67288000,67245000,197388,-0.18119755,0.11827356,0.42916408,0
67332000,67315000,197388,-0.18084675,0.11845963,0.4270542,0
67420000,67384000,197388,-0.1836111,0.11669905,0.4287682,0
67480000,67456000,197388,-0.18224789,0.12013798,0.4304757,0
