timestamp,voltage_v,current_a,current_average_a,discharged_mah,remaining,scale,time_remaining_s,temperature,voltage_cell_v[0],voltage_cell_v[1],voltage_cell_v[2],voltage_cell_v[3],voltage_cell_v[4],voltage_cell_v[5],voltage_cell_v[6],voltage_cell_v[7],voltage_cell_v[8],voltage_cell_v[9],voltage_cell_v[10],voltage_cell_v[11],voltage_cell_v[12],voltage_cell_v[13],max_cell_voltage_delta,full_charge_capacity_wh,remaining_capacity_wh,nominal_voltage,internal_resistance_estimate,ocv_estimate,ocv_estimate_filtered,volt_based_soc_estimate,voltage_prediction,prediction_error,estimation_covariance_norm,capacity,cycle_count,average_time_to_empty,manufacture_date,state_of_health,max_error,interface_error,faults,over_discharge_count,connected,cell_count,source,priority,id,is_powering_off,is_required,warning
4552000,16.2,-1.0,15.0,0.0,0.9889984,1.0012238,nan,nan,0.0,0.0,0.0,0.0,0.0,0.0,0.0,0.0,0.0,0.0,0.0,0.0,0.0,0.0,0.0,0.0,0.0,0.0,0.005,16.18,16.18,0.98888874,0.0,0.0,6.0133185,0,0,0,0,0,0,0,0,0,1,4,0,0,1,0,0,0
4564000,16.2,-1.0,15.0,0.0,0.9889984,1.0012238,nan,nan,0.0,0.0,0.0,0.0,0.0,0.0,0.0,0.0,0.0,0.0,0.0,0.0,0.0,0.0,0.0,0.0,0.0,0.0,0.005,16.18,16.18,0.98888874,0.0,0.0,6.0133185,0,0,0,0,0,0,0,0,0,1,4,0,0,1,0,0,0
4752000,16.2,-1.0,15.0,0.0,0.9889984,1.0012238,nan,nan,0.0,0.0,0.0,0.0,0.0,0.0,0.0,0.0,0.0,0.0,0.0,0.0,0.0,0.0,0.0,0.0,0.0,0.0,0.005,16.18,16.18,0.98888874,0.0,0.0,6.0133185,0,0,0,0,0,0,0,0,0,1,4,0,0,1,0,0,0
4952000,16.2,-1.0,15.0,0.0,0.9889984,1.0012238,nan,nan,0.0,0.0,0.0,0.0,0.0,0.0,0.0,0.0,0.0,0.0,0.0,0.0,0.0,0.0,0.0,0.0,0.0,0.0,0.005,16.18,16.18,0.98888874,0.0,0.0,6.0133185,0,0,0,0,0,0,0,0,0,1,4,0,0,1,0,0,0
5152000,16.2,-1.0,15.0,0.0,0.9889984,1.0012238,nan,nan,0.0,0.0,0.0,0.0,0.0,0.0,0.0,0.0,0.0,0.0,0.0,0.0,0.0,0.0,0.0,0.0,0.0,0.0,0.005,16.18,16.18,0.98888874,0.0,0.0,6.0133185,0,0,0,0,0,0,0,0,0,1,4,0,0,1,0,0,0
5352000,16.2,-1.0,15.0,0.0,0.9889984,1.0012238,nan,nan,0.0,0.0,0.0,0.0,0.0,0.0,0.0,0.0,0.0,0.0,0.0,0.0,0.0,0.0,0.0,0.0,0.0,0.0,0.005,16.18,16.18,0.98888874,0.0,0.0,6.0133185,0,0,0,0,0,0,0,0,0,1,4,0,0,1,0,0,0
5552000,16.2,-1.0,15.0,0.0,0.9889984,1.0012238,nan,nan,0.0,0.0,0.0,0.0,0.0,0.0,0.0,0.0,0.0,0.0,0.0,0.0,0.0,0.0,0.0,0.0,0.0,0.0,0.005,16.18,16.18,0.98888874,0.0,0.0,6.0133185,0,0,0,0,0,0,0,0,0,1,4,0,0,1,0,0,0
5752000,16.2,-1.0,15.0,0.0,0.9889984,1.0012238,nan,nan,0.0,0.0,0.0,0.0,0.0,0.0,0.0,0.0,0.0,0.0,0.0,0.0,0.0,0.0,0.0,0.0,0.0,0.0,0.005,16.18,16.18,0.98888874,0.0,0.0,6.0133185,0,0,0,0,0,0,0,0,0,1,4,0,0,1,0,0,0
5952000,16.2,-1.0,15.0,0.0,0.9889984,1.0012238,nan,nan,0.0,0.0,0.0,0.0,0.0,0.0,0.0,0.0,0.0,0.0,0.0,0.0,0.0,0.0,0.0,0.0,0.0,0.0,0.005,16.18,16.18,0.98888874,0.0,0.0,6.0133185,0,0,0,0,0,0,0,0,0,1,4,0,0,1,0,0,0
6152000,16.2,-1.0,15.0,0.0,0.9889984,1.0012238,nan,nan,0.0,0.0,0.0,0.0,0.0,0.0,0.0,0.0,0.0,0.0,0.0,0.0,0.0,0.0,0.0,0.0,0.0,0.0,0.005,16.18,16.18,0.98888874,0.0,0.0,6.0133185,0,0,0,0,0,0,0,0,0,1,4,0,0,1,0,0,0
6352000,16.2,-1.0,15.0,0.0,0.99071217,1.0010331,nan,nan,0.0,0.0,0.0,0.0,0.0,0.0,0.0,0.0,0.0,0.0,0.0,0.0,0.0,0.0,0.0,0.0,0.0,0.0,0.005,16.18,16.18,0.98888874,0.0,0.0,6.0133185,0,0,0,0,0,0,0,0,0,1,4,0,0,1,0,0,0
6552000,16.2,-1.0,15.0,0.0,0.9923887,1.0008464,nan,nan,0.0,0.0,0.0,0.0,0.0,0.0,0.0,0.0,0.0,0.0,0.0,0.0,0.0,0.0,0.0,0.0,0.0,0.0,0.005,16.18,16.18,0.98888874,0.0,0.0,6.0133185,0,0,0,0,0,0,0,0,0,1,4,0,0,1,0,0,0
6752000,16.2,-1.0,15.0,0.0,0.99376106,1.0006937,nan,nan,0.0,0.0,0.0,0.0,0.0,0.0,0.0,0.0,0.0,0.0,0.0,0.0,0.0,0.0,0.0,0.0,0.0,0.0,0.005,16.18,16.18,0.98888874,0.0,0.0,6.0133185,0,0,0,0,0,0,0,0,0,1,4,0,0,1,0,0,0
6952000,16.2,-1.0,15.0,0.0,0.9948864,1.0005685,nan,nan,0.0,0.0,0.0,0.0,0.0,0.0,0.0,0.0,0.0,0.0,0.0,0.0,0.0,0.0,0.0,0.0,0.0,0.0,0.005,16.18,16.18,0.98888874,0.0,0.0,6.0133185,0,0,0,0,0,0,0,0,0,1,4,0,0,1,0,0,0
7152000,16.2,-1.0,15.0,0.0,0.9958086,1.0004659,nan,nan,0.0,0.0,0.0,0.0,0.0,0.0,0.0,0.0,0.0,0.0,0.0,0.0,0.0,0.0,0.0,0.0,0.0,0.0,0.005,16.18,16.18,0.98888874,0.0,0.0,6.0133185,0,0,0,0,0,0,0,0,0,1,4,0,0,1,0,0,0
7352000,16.2,-1.0,15.0,0.0,0.99656487,1.0003818,nan,nan,0.0,0.0,0.0,0.0,0.0,0.0,0.0,0.0,0.0,0.0,0.0,0.0,0.0,0.0,0.0,0.0,0.0,0.0,0.005,16.18,16.18,0.98888874,0.0,0.0,6.0133185,0,0,0,0,0,0,0,0,0,1,4,0,0,1,0,0,0
7556000,16.2,-1.0,15.0,0.0,0.99718475,1.0003129,nan,nan,0.0,0.0,0.0,0.0,0.0,0.0,0.0,0.0,0.0,0.0,0.0,0.0,0.0,0.0,0.0,0.0,0.0,0.0,0.005,16.18,16.18,0.98888874,0.0,0.0,6.0133185,0,0,0,0,0,0,0,0,0,1,4,0,0,1,0,0,0
7752000,16.2,-1.0,15.0,0.0,0.99769306,1.0002564,nan,nan,0.0,0.0,0.0,0.0,0.0,0.0,0.0,0.0,0.0,0.0,0.0,0.0,0.0,0.0,0.0,0.0,0.0,0.0,0.005,16.18,16.18,0.98888874,0.0,0.0,6.0133185,0,0,0,0,0,0,0,0,0,1,4,0,0,1,0,0,0
7952000,16.2,-1.0,15.0,0.0,0.9981108,1.0002099,nan,nan,0.0,0.0,0.0,0.0,0.0,0.0,0.0,0.0,0.0,0.0,0.0,0.0,0.0,0.0,0.0,0.0,0.0,0.0,0.005,16.18,16.18,0.98888874,0.0,0.0,6.0133185,0,0,0,0,0,0,0,0,0,1,4,0,0,1,0,0,0
8152000,16.2,-1.0,15.0,0.0,0.99845123,1.000172,nan,nan,0.0,0.0,0.0,0.0,0.0,0.0,0.0,0.0,0.0,0.0,0.0,0.0,0.0,0.0,0.0,0.0,0.0,0.0,0.005,16.18,16.18,0.98888874,0.0,0.0,6.0133185,0,0,0,0,0,0,0,0,0,1,4,0,0,1,0,0,0
8352000,16.2,-1.0,15.0,0.0,0.9987297,1.0001411,nan,nan,0.0,0.0,0.0,0.0,0.0,0.0,0.0,0.0,0.0,0.0,0.0,0.0,0.0,0.0,0.0,0.0,0.0,0.0,0.005,16.18,16.18,0.98888874,0.0,0.0,6.0133185,0,0,0,0,0,0,0,0,0,1,4,0,0,1,0,0,0
8552000,16.2,-1.0,15.0,0.0,0.99895954,1.0001156,nan,nan,0.0,0.0,0.0,0.0,0.0,0.0,0.0,0.0,0.0,0.0,0.0,0.0,0.0,0.0,0.0,0.0,0.0,0.0,0.005,16.18,16.18,0.98888874,0.0,0.0,6.0133185,0,0,0,0,0,0,0,0,0,1,4,0,0,1,0,0,0
8752000,16.2,-1.0,15.0,0.0,0.99914646,1.0000948,nan,nan,0.0,0.0,0.0,0.0,0.0,0.0,0.0,0.0,0.0,0.0,0.0,0.0,0.0,0.0,0.0,0.0,0.0,0.0,0.005,16.18,16.18,0.98888874,0.0,0.0,6.0133185,0,0,0,0,0,0,0,0,0,1,4,0,0,1,0,0,0
8952000,16.2,-1.0,15.0,0.0,0.9993019,1.0000776,nan,nan,0.0,0.0,0.0,0.0,0.0,0.0,0.0,0.0,0.0,0.0,0.0,0.0,0.0,0.0,0.0,0.0,0.0,0.0,0.005,16.18,16.18,0.98888874,0.0,0.0,6.0133185,0,0,0,0,0,0,0,0,0,1,4,0,0,1,0,0,0
9152000,16.2,-1.0,15.0,0.0,0.9994278,1.0000635,nan,nan,0.0,0.0,0.0,0.0,0.0,0.0,0.0,0.0,0.0,0.0,0.0,0.0,0.0,0.0,0.0,0.0,0.0,0.0,0.005,16.18,16.18,0.98888874,0.0,0.0,6.0133185,0,0,0,0,0,0,0,0,0,1,4,0,0,1,0,0,0
9352000,16.2,-1.0,15.0,0.0,0.99953175,1.0000521,nan,nan,0.0,0.0,0.0,0.0,0.0,0.0,0.0,0.0,0.0,0.0,0.0,0.0,0.0,0.0,0.0,0.0,0.0,0.0,0.005,16.18,16.18,0.98888874,0.0,0.0,6.0133185,0,0,0,0,0,0,0,0,0,1,4,0,0,1,0,0,0
9552000,16.2,-1.0,15.0,0.0,0.9996166,1.0000427,nan,nan,0.0,0.0,0.0,0.0,0.0,0.0,0.0,0.0,0.0,0.0,0.0,0.0,0.0,0.0,0.0,0.0,0.0,0.0,0.005,16.18,16.18,0.98888874,0.0,0.0,6.0133185,0,0,0,0,0,0,0,0,0,1,4,0,0,1,0,0,0
9752000,16.2,-1.0,15.0,0.0,0.9996834,1.0000352,nan,nan,0.0,0.0,0.0,0.0,0.0,0.0,0.0,0.0,0.0,0.0,0.0,0.0,0.0,0.0,0.0,0.0,0.0,0.0,0.005,16.18,16.18,0.98888874,0.0,0.0,6.0133185,0,0,0,0,0,0,0,0,0,1,4,0,0,1,0,0,0
9952000,16.2,-1.0,15.0,0.0,0.9997425,1.0000286,nan,nan,0.0,0.0,0.0,0.0,0.0,0.0,0.0,0.0,0.0,0.0,0.0,0.0,0.0,0.0,0.0,0.0,0.0,0.0,0.005,16.18,16.18,0.98888874,0.0,0.0,6.0133185,0,0,0,0,0,0,0,0,0,1,4,0,0,1,0,0,0
10152000,16.2,-1.0,15.0,0.0,0.99978447,1.0000238,nan,nan,0.0,0.0,0.0,0.0,0.0,0.0,0.0,0.0,0.0,0.0,0.0,0.0,0.0,0.0,0.0,0.0,0.0,0.0,0.005,16.18,16.18,0.98888874,0.0,0.0,6.0133185,0,0,0,0,0,0,0,0,0,1,4,0,0,1,0,0,0
10352000,16.2,-1.0,15.0,0.0,0.9998274,1.0000192,nan,nan,0.0,0.0,0.0,0.0,0.0,0.0,0.0,0.0,0.0,0.0,0.0,0.0,0.0,0.0,0.0,0.0,0.0,0.0,0.005,16.18,16.18,0.98888874,0.0,0.0,6.0133185,0,0,0,0,0,0,0,0,0,1,4,0,0,1,0,0,0
10552000,16.2,-1.0,15.0,0.0,0.99985504,1.0000161,nan,nan,0.0,0.0,0.0,0.0,0.0,0.0,0.0,0.0,0.0,0.0,0.0,0.0,0.0,0.0,0.0,0.0,0.0,0.0,0.005,16.18,16.18,0.98888874,0.0,0.0,6.0133185,0,0,0,0,0,0,0,0,0,1,4,0,0,1,0,0,0
10756000,16.2,-1.0,15.0,0.0,0.999876,1.0000138,nan,nan,0.0,0.0,0.0,0.0,0.0,0.0,0.0,0.0,0.0,0.0,0.0,0.0,0.0,0.0,0.0,0.0,0.0,0.0,0.005,16.18,16.18,0.98888874,0.0,0.0,6.0133185,0,0,0,0,0,0,0,0,0,1,4,0,0,1,0,0,0
10952000,16.2,-1.0,15.0,0.0,0.999897,1.0000114,nan,nan,0.0,0.0,0.0,0.0,0.0,0.0,0.0,0.0,0.0,0.0,0.0,0.0,0.0,0.0,0.0,0.0,0.0,0.0,0.005,16.18,16.18,0.98888874,0.0,0.0,6.0133185,0,0,0,0,0,0,0,0,0,1,4,0,0,1,0,0,0
11152000,16.2,-1.0,15.0,0.0,0.999918,1.0000091,nan,nan,0.0,0.0,0.0,0.0,0.0,0.0,0.0,0.0,0.0,0.0,0.0,0.0,0.0,0.0,0.0,0.0,0.0,0.0,0.005,16.18,16.18,0.98888874,0.0,0.0,6.0133185,0,0,0,0,0,0,0,0,0,1,4,0,0,1,0,0,0
11352000,16.2,-1.0,15.0,0.0,0.99993896,1.0000067,nan,nan,0.0,0.0,0.0,0.0,0.0,0.0,0.0,0.0,0.0,0.0,0.0,0.0,0.0,0.0,0.0,0.0,0.0,0.0,0.005,16.18,16.18,0.98888874,0.0,0.0,6.0133185,0,0,0,0,0,0,0,0,0,1,4,0,0,1,0,0,0
11552000,16.2,-1.0,15.0,0.0,0.9999466,1.0000058,nan,nan,0.0,0.0,0.0,0.0,0.0,0.0,0.0,0.0,0.0,0.0,0.0,0.0,0.0,0.0,0.0,0.0,0.0,0.0,0.005,16.18,16.18,0.98888874,0.0,0.0,6.0133185,0,0,0,0,0,0,0,0,0,1,4,0,0,1,0,0,0
11752000,16.2,-1.0,15.0,0.0,0.9999466,1.0000058,nan,nan,0.0,0.0,0.0,0.0,0.0,0.0,0.0,0.0,0.0,0.0,0.0,0.0,0.0,0.0,0.0,0.0,0.0,0.0,0.005,16.18,16.18,0.98888874,0.0,0.0,6.0133185,0,0,0,0,0,0,0,0,0,1,4,0,0,1,0,0,0
11952000,16.2,-1.0,15.0,0.0,0.9999466,1.0000058,nan,nan,0.0,0.0,0.0,0.0,0.0,0.0,0.0,0.0,0.0,0.0,0.0,0.0,0.0,0.0,0.0,0.0,0.0,0.0,0.005,16.18,16.18,0.98888874,0.0,0.0,6.0133185,0,0,0,0,0,0,0,0,0,1,4,0,0,1,0,0,0
12152000,16.2,-1.0,15.0,0.0,0.9999466,1.0000058,nan,nan,0.0,0.0,0.0,0.0,0.0,0.0,0.0,0.0,0.0,0.0,0.0,0.0,0.0,0.0,0.0,0.0,0.0,0.0,0.005,16.18,16.18,0.98888874,0.0,0.0,6.0133185,0,0,0,0,0,0,0,0,0,1,4,0,0,1,0,0,0
12352000,16.2,-1.0,15.0,0.0,0.9999466,1.0000058,nan,nan,0.0,0.0,0.0,0.0,0.0,0.0,0.0,0.0,0.0,0.0,0.0,0.0,0.0,0.0,0.0,0.0,0.0,0.0,0.005,16.18,16.18,0.98888874,0.0,0.0,6.0133185,0,0,0,0,0,0,0,0,0,1,4,0,0,1,0,0,0
12552000,16.2,-1.0,15.0,0.0,0.9999466,1.0000058,nan,nan,0.0,0.0,0.0,0.0,0.0,0.0,0.0,0.0,0.0,0.0,0.0,0.0,0.0,0.0,0.0,0.0,0.0,0.0,0.005,16.18,16.18,0.98888874,0.0,0.0,6.0133185,0,0,0,0,0,0,0,0,0,1,4,0,0,1,0,0,0
12752000,16.2,-1.0,15.0,0.0,0.9999466,1.0000058,nan,nan,0.0,0.0,0.0,0.0,0.0,0.0,0.0,0.0,0.0,0.0,0.0,0.0,0.0,0.0,0.0,0.0,0.0,0.0,0.005,16.18,16.18,0.98888874,0.0,0.0,6.0133185,0,0,0,0,0,0,0,0,0,1,4,0,0,1,0,0,0
12952000,16.2,-1.0,15.0,0.0,0.9999466,1.0000058,nan,nan,0.0,0.0,0.0,0.0,0.0,0.0,0.0,0.0,0.0,0.0,0.0,0.0,0.0,0.0,0.0,0.0,0.0,0.0,0.005,16.18,16.18,0.98888874,0.0,0.0,6.0133185,0,0,0,0,0,0,0,0,0,1,4,0,0,1,0,0,0
13152000,16.2,-1.0,15.0,0.0,0.9999466,1.0000058,nan,nan,0.0,0.0,0.0,0.0,0.0,0.0,0.0,0.0,0.0,0.0,0.0,0.0,0.0,0.0,0.0,0.0,0.0,0.0,0.005,16.18,16.18,0.98888874,0.0,0.0,6.0133185,0,0,0,0,0,0,0,0,0,1,4,0,0,1,0,0,0
13352000,16.2,-1.0,15.0,0.0,0.9999466,1.0000058,nan,nan,0.0,0.0,0.0,0.0,0.0,0.0,0.0,0.0,0.0,0.0,0.0,0.0,0.0,0.0,0.0,0.0,0.0,0.0,0.005,16.18,16.18,0.98888874,0.0,0.0,6.0133185,0,0,0,0,0,0,0,0,0,1,4,0,0,1,0,0,0
13552000,16.2,-1.0,15.0,0.0,0.9999466,1.0000058,nan,nan,0.0,0.0,0.0,0.0,0.0,0.0,0.0,0.0,0.0,0.0,0.0,0.0,0.0,0.0,0.0,0.0,0.0,0.0,0.005,16.18,16.18,0.98888874,0.0,0.0,6.0133185,0,0,0,0,0,0,0,0,0,1,4,0,0,1,0,0,0
13752000,16.2,-1.0,15.0,0.0,0.9999466,1.0000058,nan,nan,0.0,0.0,0.0,0.0,0.0,0.0,0.0,0.0,0.0,0.0,0.0,0.0,0.0,0.0,0.0,0.0,0.0,0.0,0.005,16.18,16.18,0.98888874,0.0,0.0,6.0133185,0,0,0,0,0,0,0,0,0,1,4,0,0,1,0,0,0
13952000,16.2,-1.0,15.0,0.0,0.9999466,1.0000058,nan,nan,0.0,0.0,0.0,0.0,0.0,0.0,0.0,0.0,0.0,0.0,0.0,0.0,0.0,0.0,0.0,0.0,0.0,0.0,0.005,16.18,16.18,0.98888874,0.0,0.0,6.0133185,0,0,0,0,0,0,0,0,0,1,4,0,0,1,0,0,0
14152000,16.2,-1.0,15.0,0.0,0.9999466,1.0000058,nan,nan,0.0,0.0,0.0,0.0,0.0,0.0,0.0,0.0,0.0,0.0,0.0,0.0,0.0,0.0,0.0,0.0,0.0,0.0,0.005,16.18,16.18,0.98888874,0.0,0.0,6.0133185,0,0,0,0,0,0,0,0,0,1,4,0,0,1,0,0,0
14352000,16.2,-1.0,15.0,0.0,0.9999466,1.0000058,nan,nan,0.0,0.0,0.0,0.0,0.0,0.0,0.0,0.0,0.0,0.0,0.0,0.0,0.0,0.0,0.0,0.0,0.0,0.0,0.005,16.18,16.18,0.98888874,0.0,0.0,6.0133185,0,0,0,0,0,0,0,0,0,1,4,0,0,1,0,0,0
14552000,16.2,-1.0,15.0,0.0,0.9999466,1.0000058,nan,nan,0.0,0.0,0.0,0.0,0.0,0.0,0.0,0.0,0.0,0.0,0.0,0.0,0.0,0.0,0.0,0.0,0.0,0.0,0.005,16.18,16.18,0.98888874,0.0,0.0,6.0133185,0,0,0,0,0,0,0,0,0,1,4,0,0,1,0,0,0
14752000,16.2,-1.0,15.0,0.0,0.9999466,1.0000058,nan,nan,0.0,0.0,0.0,0.0,0.0,0.0,0.0,0.0,0.0,0.0,0.0,0.0,0.0,0.0,0.0,0.0,0.0,0.0,0.005,16.18,16.18,0.98888874,0.0,0.0,6.0133185,0,0,0,0,0,0,0,0,0,1,4,0,0,1,0,0,0
14952000,16.2,-1.0,15.0,0.0,0.9999466,1.0000058,nan,nan,0.0,0.0,0.0,0.0,0.0,0.0,0.0,0.0,0.0,0.0,0.0,0.0,0.0,0.0,0.0,0.0,0.0,0.0,0.005,16.18,16.18,0.98888874,0.0,0.0,6.0133185,0,0,0,0,0,0,0,0,0,1,4,0,0,1,0,0,0
15152000,16.2,-1.0,15.0,0.0,0.9999466,1.0000058,nan,nan,0.0,0.0,0.0,0.0,0.0,0.0,0.0,0.0,0.0,0.0,0.0,0.0,0.0,0.0,0.0,0.0,0.0,0.0,0.005,16.18,16.18,0.98888874,0.0,0.0,6.0133185,0,0,0,0,0,0,0,0,0,1,4,0,0,1,0,0,0
15352000,16.2,-1.0,15.0,0.0,0.9999466,1.0000058,nan,nan,0.0,0.0,0.0,0.0,0.0,0.0,0.0,0.0,0.0,0.0,0.0,0.0,0.0,0.0,0.0,0.0,0.0,0.0,0.005,16.18,16.18,0.98888874,0.0,0.0,6.0133185,0,0,0,0,0,0,0,0,0,1,4,0,0,1,0,0,0
15552000,16.2,-1.0,15.0,0.0,0.9999466,1.0000058,nan,nan,0.0,0.0,0.0,0.0,0.0,0.0,0.0,0.0,0.0,0.0,0.0,0.0,0.0,0.0,0.0,0.0,0.0,0.0,0.005,16.18,16.18,0.98888874,0.0,0.0,6.0133185,0,0,0,0,0,0,0,0,0,1,4,0,0,1,0,0,0
15752000,16.2,-1.0,15.0,0.0,0.9999466,1.0000058,nan,nan,0.0,0.0,0.0,0.0,0.0,0.0,0.0,0.0,0.0,0.0,0.0,0.0,0.0,0.0,0.0,0.0,0.0,0.0,0.005,16.18,16.18,0.98888874,0.0,0.0,6.0133185,0,0,0,0,0,0,0,0,0,1,4,0,0,1,0,0,0
15952000,16.2,-1.0,15.0,0.0,0.9999466,1.0000058,nan,nan,0.0,0.0,0.0,0.0,0.0,0.0,0.0,0.0,0.0,0.0,0.0,0.0,0.0,0.0,0.0,0.0,0.0,0.0,0.005,16.18,16.18,0.98888874,0.0,0.0,6.0133185,0,0,0,0,0,0,0,0,0,1,4,0,0,1,0,0,0
16152000,16.2,-1.0,15.0,0.0,0.9999466,1.0000058,nan,nan,0.0,0.0,0.0,0.0,0.0,0.0,0.0,0.0,0.0,0.0,0.0,0.0,0.0,0.0,0.0,0.0,0.0,0.0,0.005,16.18,16.18,0.98888874,0.0,0.0,6.0133185,0,0,0,0,0,0,0,0,0,1,4,0,0,1,0,0,0
16352000,16.2,-1.0,15.0,0.0,0.9999466,1.0000058,nan,nan,0.0,0.0,0.0,0.0,0.0,0.0,0.0,0.0,0.0,0.0,0.0,0.0,0.0,0.0,0.0,0.0,0.0,0.0,0.005,16.18,16.18,0.98888874,0.0,0.0,6.0133185,0,0,0,0,0,0,0,0,0,1,4,0,0,1,0,0,0
16552000,16.2,-1.0,15.0,0.0,0.9999466,1.0000058,nan,nan,0.0,0.0,0.0,0.0,0.0,0.0,0.0,0.0,0.0,0.0,0.0,0.0,0.0,0.0,0.0,0.0,0.0,0.0,0.005,16.18,16.18,0.98888874,0.0,0.0,6.0133185,0,0,0,0,0,0,0,0,0,1,4,0,0,1,0,0,0
16752000,16.2,-1.0,15.0,0.0,0.9999466,1.0000058,nan,nan,0.0,0.0,0.0,0.0,0.0,0.0,0.0,0.0,0.0,0.0,0.0,0.0,0.0,0.0,0.0,0.0,0.0,0.0,0.005,16.18,16.18,0.98888874,0.0,0.0,6.0133185,0,0,0,0,0,0,0,0,0,1,4,0,0,1,0,0,0
16952000,16.2,-1.0,15.0,0.0,0.9999466,1.0000058,nan,nan,0.0,0.0,0.0,0.0,0.0,0.0,0.0,0.0,0.0,0.0,0.0,0.0,0.0,0.0,0.0,0.0,0.0,0.0,0.005,16.18,16.18,0.98888874,0.0,0.0,6.0133185,0,0,0,0,0,0,0,0,0,1,4,0,0,1,0,0,0
17152000,16.2,-1.0,15.0,0.0,0.9999466,1.0000058,nan,nan,0.0,0.0,0.0,0.0,0.0,0.0,0.0,0.0,0.0,0.0,0.0,0.0,0.0,0.0,0.0,0.0,0.0,0.0,0.005,16.18,16.18,0.98888874,0.0,0.0,6.0133185,0,0,0,0,0,0,0,0,0,1,4,0,0,1,0,0,0
17352000,16.2,-1.0,15.0,0.0,0.9999466,1.0000058,nan,nan,0.0,0.0,0.0,0.0,0.0,0.0,0.0,0.0,0.0,0.0,0.0,0.0,0.0,0.0,0.0,0.0,0.0,0.0,0.005,16.18,16.18,0.98888874,0.0,0.0,6.0133185,0,0,0,0,0,0,0,0,0,1,4,0,0,1,0,0,0
17552000,16.2,-1.0,15.0,0.0,0.9999466,1.0000058,nan,nan,0.0,0.0,0.0,0.0,0.0,0.0,0.0,0.0,0.0,0.0,0.0,0.0,0.0,0.0,0.0,0.0,0.0,0.0,0.005,16.18,16.18,0.98888874,0.0,0.0,6.0133185,0,0,0,0,0,0,0,0,0,1,4,0,0,1,0,0,0
17752000,16.2,-1.0,15.0,0.0,0.9999466,1.0000058,nan,nan,0.0,0.0,0.0,0.0,0.0,0.0,0.0,0.0,0.0,0.0,0.0,0.0,0.0,0.0,0.0,0.0,0.0,0.0,0.005,16.18,16.18,0.98888874,0.0,0.0,6.0133185,0,0,0,0,0,0,0,0,0,1,4,0,0,1,0,0,0
17952000,16.199282,-1.0,14.991004,0.0,0.9999418,1.0000064,nan,nan,0.0,0.0,0.0,0.0,0.0,0.0,0.0,0.0,0.0,0.0,0.0,0.0,0.0,0.0,0.0,0.0,0.0,0.0,0.005,16.179281,16.18,0.98888874,0.0,0.0,6.0133185,0,0,0,0,0,0,0,0,0,1,4,0,0,1,0,0,0
18152000,16.193281,-1.0,14.931166,0.0,0.9995527,1.0000497,nan,nan,0.0,0.0,0.0,0.0,0.0,0.0,0.0,0.0,0.0,0.0,0.0,0.0,0.0,0.0,0.0,0.0,0.0,0.0,0.005,16.17328,16.18,0.98888874,0.0,0.0,6.0133185,0,0,0,0,0,0,0,0,0,1,4,0,0,1,0,0,0
18352000,16.187283,-1.0,14.871566,0.0,0.9986305,1.0001521,nan,nan,0.0,0.0,0.0,0.0,0.0,0.0,0.0,0.0,0.0,0.0,0.0,0.0,0.0,0.0,0.0,0.0,0.0,0.0,0.005,16.167282,16.18,0.98888874,0.0,0.0,6.0133185,0,0,0,0,0,0,0,0,0,1,4,0,0,1,0,0,0
18552000,16.181282,-1.0,14.812204,0.0,0.99727345,1.000303,nan,nan,0.0,0.0,0.0,0.0,0.0,0.0,0.0,0.0,0.0,0.0,0.0,0.0,0.0,0.0,0.0,0.0,0.0,0.0,0.005,16.161282,16.18,0.98888874,0.0,0.0,6.0133185,0,0,0,0,0,0,0,0,0,1,4,0,0,1,0,0,0
18752000,16.175283,-1.0,14.753079,0.0,0.99556065,1.0004934,nan,nan,0.0,0.0,0.0,0.0,0.0,0.0,0.0,0.0,0.0,0.0,0.0,0.0,0.0,0.0,0.0,0.0,0.0,0.0,0.005,16.155283,16.18,0.98888874,0.0,0.0,6.0133185,0,0,0,0,0,0,0,0,0,1,4,0,0,1,0,0,0
18952000,16.169283,-1.0,14.694191,0.0,0.99355507,1.0007166,nan,nan,0.0,0.0,0.0,0.0,0.0,0.0,0.0,0.0,0.0,0.0,0.0,0.0,0.0,0.0,0.0,0.0,0.0,0.0,0.005,16.149282,16.18,0.98888874,0.0,0.0,6.0133185,0,0,0,0,0,0,0,0,0,1,4,0,0,1,0,0,0
19152000,16.163284,-1.0,14.635537,0.0,0.9913111,1.0009664,nan,nan,0.0,0.0,0.0,0.0,0.0,0.0,0.0,0.0,0.0,0.0,0.0,0.0,0.0,0.0,0.0,0.0,0.0,0.0,0.005,16.143284,16.18,0.98888874,0.0,0.0,6.0133185,0,0,0,0,0,0,0,0,0,1,4,0,0,1,0,0,0
19352000,16.157284,-1.0,14.577118,0.0,0.9888706,1.0012381,nan,nan,0.0,0.0,0.0,0.0,0.0,0.0,0.0,0.0,0.0,0.0,0.0,0.0,0.0,0.0,0.0,0.0,0.0,0.0,0.005,16.137283,16.18,0.98888874,0.0,0.0,6.0133185,0,0,0,0,0,0,0,0,0,1,4,0,0,1,0,0,0
19552000,16.151285,-1.0,14.518932,0.0,0.98626614,1.0015284,nan,nan,0.0,0.0,0.0,0.0,0.0,0.0,0.0,0.0,0.0,0.0,0.0,0.0,0.0,0.0,0.0,0.0,0.0,0.0,0.005,16.131285,16.18,0.98888874,0.0,0.0,6.0133185,0,0,0,0,0,0,0,0,0,1,4,0,0,1,0,0,0
19752000,16.145285,-1.0,14.460978,0.0,0.9835329,1.001833,nan,nan,0.0,0.0,0.0,0.0,0.0,0.0,0.0,0.0,0.0,0.0,0.0,0.0,0.0,0.0,0.0,0.0,0.0,0.0,0.005,16.125284,16.18,0.98888874,0.0,0.0,6.0133185,0,0,0,0,0,0,0,0,0,1,4,0,0,1,0,0,0
19952000,16.139286,-1.0,14.403255,0.0,0.98069096,1.00215,nan,nan,0.0,0.0,0.0,0.0,0.0,0.0,0.0,0.0,0.0,0.0,0.0,0.0,0.0,0.0,0.0,0.0,0.0,0.0,0.005,16.119286,16.18,0.98888874,0.0,0.0,6.0133185,0,0,0,0,0,0,0,0,0,1,4,0,0,1,0,0,0
20152000,16.133286,-1.0,14.345762,0.0,0.97775936,1.0024773,nan,nan,0.0,0.0,0.0,0.0,0.0,0.0,0.0,0.0,0.0,0.0,0.0,0.0,0.0,0.0,0.0,0.0,0.0,0.0,0.005,16.113285,16.18,0.98888874,0.0,0.0,6.0133185,0,0,0,0,0,0,0,0,0,1,4,0,0,1,0,0,0
20352000,16.127287,-1.0,14.288498,0.0,0.9747553,1.0028129,nan,nan,0.0,0.0,0.0,0.0,0.0,0.0,0.0,0.0,0.0,0.0,0.0,0.0,0.0,0.0,0.0,0.0,0.0,0.0,0.005,16.107286,16.18,0.98888874,0.0,0.0,6.0133185,0,0,0,0,0,0,0,0,0,1,4,0,0,1,0,0,0
20552000,16.121286,-1.0,14.2314625,0.0,0.9716902,1.0031554,nan,nan,0.0,0.0,0.0,0.0,0.0,0.0,0.0,0.0,0.0,0.0,0.0,0.0,0.0,0.0,0.0,0.0,0.0,0.0,0.005,16.101286,16.18,0.98888874,0.0,0.0,6.0133185,0,0,0,0,0,0,0,0,0,1,4,0,0,1,0,0,0
20752000,16.115288,-1.0,14.174656,0.0,0.9685793,1.0035034,nan,nan,0.0,0.0,0.0,0.0,0.0,0.0,0.0,0.0,0.0,0.0,0.0,0.0,0.0,0.0,0.0,0.0,0.0,0.0,0.005,16.095287,16.18,0.98888874,0.0,0.0,6.0133185,0,0,0,0,0,0,0,0,0,1,4,0,0,1,0,0,0
20952000,16.109287,-1.0,14.118076,0.0,0.96542835,1.0038561,nan,nan,0.0,0.0,0.0,0.0,0.0,0.0,0.0,0.0,0.0,0.0,0.0,0.0,0.0,0.0,0.0,0.0,0.0,0.0,0.005,16.089287,16.18,0.98888874,0.0,0.0,6.0133185,0,0,0,0,0,0,0,0,0,1,4,0,0,1,0,0,0
21152000,16.103287,-1.0,14.061723,0.0,0.96224403,1.0042127,nan,nan,0.0,0.0,0.0,0.0,0.0,0.0,0.0,0.0,0.0,0.0,0.0,0.0,0.0,0.0,0.0,0.0,0.0,0.0,0.005,16.083286,16.18,0.98888874,0.0,0.0,6.0133185,0,0,0,0,0,0,0,0,0,1,4,0,0,1,0,0,0
21352000,16.097288,-1.0,14.005594,0.0,0.959033,1.0045726,nan,nan,0.0,0.0,0.0,0.0,0.0,0.0,0.0,0.0,0.0,0.0,0.0,0.0,0.0,0.0,0.0,0.0,0.0,0.0,0.005,16.077288,16.18,0.98888874,0.0,0.0,6.0133185,0,0,0,0,0,0,0,0,0,1,4,0,0,1,0,0,0
21552000,16.09129,-1.0,13.94969,0.0,0.95580006,1.0049353,nan,nan,0.0,0.0,0.0,0.0,0.0,0.0,0.0,0.0,0.0,0.0,0.0,0.0,0.0,0.0,0.0,0.0,0.0,0.0,0.005,16.07129,16.18,0.98888874,0.0,0.0,6.0133185,0,0,0,0,0,0,0,0,0,1,4,0,0,1,0,0,0
21752000,16.085289,-1.0,13.894008,0.0,0.952549,1.0053003,nan,nan,0.0,0.0,0.0,0.0,0.0,0.0,0.0,0.0,0.0,0.0,0.0,0.0,0.0,0.0,0.0,0.0,0.0,0.0,0.005,16.065289,16.18,0.98888874,0.0,0.0,6.0133185,0,0,0,0,0,0,0,0,0,1,4,0,0,1,0,0,0
21952000,16.079288,-1.0,13.838549,0.0,0.94928455,1.005667,nan,nan,0.0,0.0,0.0,0.0,0.0,0.0,0.0,0.0,0.0,0.0,0.0,0.0,0.0,0.0,0.0,0.0,0.0,0.0,0.005,16.059288,16.18,0.98888874,0.0,0.0,6.0133185,0,0,0,0,0,0,0,0,0,1,4,0,0,1,0,0,0
22152000,16.07329,-1.0,13.78331,0.0,0.9460039,1.0060358,nan,nan,0.0,0.0,0.0,0.0,0.0,0.0,0.0,0.0,0.0,0.0,0.0,0.0,0.0,0.0,0.0,0.0,0.0,0.0,0.005,16.05329,16.18,0.98888874,0.0,0.0,6.0133185,0,0,0,0,0,0,0,0,0,1,4,0,0,1,0,0,0
22352000,16.067291,-1.0,13.728292,0.0,0.94271755,1.0064055,nan,nan,0.0,0.0,0.0,0.0,0.0,0.0,0.0,0.0,0.0,0.0,0.0,0.0,0.0,0.0,0.0,0.0,0.0,0.0,0.005,16.04729,16.18,0.98888874,0.0,0.0,6.0133185,0,0,0,0,0,0,0,0,0,1,4,0,0,1,0,0,0
22552000,16.06129,-1.0,13.673494,0.0,0.9394207,1.0067767,nan,nan,0.0,0.0,0.0,0.0,0.0,0.0,0.0,0.0,0.0,0.0,0.0,0.0,0.0,0.0,0.0,0.0,0.0,0.0,0.005,16.04129,16.18,0.98888874,0.0,0.0,6.0133185,0,0,0,0,0,0,0,0,0,1,4,0,0,1,0,0,0
22752000,16.05529,-1.0,13.618915,0.0,0.9361143,1.0071491,nan,nan,0.0,0.0,0.0,0.0,0.0,0.0,0.0,0.0,0.0,0.0,0.0,0.0,0.0,0.0,0.0,0.0,0.0,0.0,0.005,16.03529,16.18,0.98888874,0.0,0.0,6.0133185,0,0,0,0,0,0,0,0,0,1,4,0,0,1,0,0,0
22952000,16.049292,-1.0,13.564552,0.0,0.9328079,1.0075219,nan,nan,0.0,0.0,0.0,0.0,0.0,0.0,0.0,0.0,0.0,0.0,0.0,0.0,0.0,0.0,0.0,0.0,0.0,0.0,0.005,16.029291,16.18,0.98888874,0.0,0.0,6.0133185,0,0,0,0,0,0,0,0,0,1,4,0,0,1,0,0,0
23152000,16.043293,-1.0,13.510408,0.0,0.9294977,1.0078954,nan,nan,0.0,0.0,0.0,0.0,0.0,0.0,0.0,0.0,0.0,0.0,0.0,0.0,0.0,0.0,0.0,0.0,0.0,0.0,0.005,16.023293,16.18,0.98888874,0.0,0.0,6.0133185,0,0,0,0,0,0,0,0,0,1,4,0,0,1,0,0,0
23352000,16.037292,-1.0,13.456479,0.0,0.92618084,1.0082699,nan,nan,0.0,0.0,0.0,0.0,0.0,0.0,0.0,0.0,0.0,0.0,0.0,0.0,0.0,0.0,0.0,0.0,0.0,0.0,0.005,16.017292,16.18,0.98888874,0.0,0.0,6.0133185,0,0,0,0,0,0,0,0,0,1,4,0,0,1,0,0,0
23552000,16.031292,-1.0,13.402766,0.0,0.9228592,1.0086453,nan,nan,0.0,0.0,0.0,0.0,0.0,0.0,0.0,0.0,0.0,0.0,0.0,0.0,0.0,0.0,0.0,0.0,0.0,0.0,0.005,16.011292,16.18,0.98888874,0.0,0.0,6.0133185,0,0,0,0,0,0,0,0,0,1,4,0,0,1,0,0,0
23752000,16.025293,-1.0,13.349267,0.0,0.9195318,1.0090215,nan,nan,0.0,0.0,0.0,0.0,0.0,0.0,0.0,0.0,0.0,0.0,0.0,0.0,0.0,0.0,0.0,0.0,0.0,0.0,0.005,16.005293,16.18,0.98888874,0.0,0.0,6.0133185,0,0,0,0,0,0,0,0,0,1,4,0,0,1,0,0,0
23952000,16.019295,-1.0,13.295982,0.0,0.91620445,1.0093981,nan,nan,0.0,0.0,0.0,0.0,0.0,0.0,0.0,0.0,0.0,0.0,0.0,0.0,0.0,0.0,0.0,0.0,0.0,0.0,0.005,15.999294,16.18,0.98888874,0.0,0.0,6.0133185,0,0,0,0,0,0,0,0,0,1,4,0,0,1,0,0,0
24152000,16.013294,-1.0,13.24291,0.0,0.9128771,1.0097749,nan,nan,0.0,0.0,0.0,0.0,0.0,0.0,0.0,0.0,0.0,0.0,0.0,0.0,0.0,0.0,0.0,0.0,0.0,0.0,0.005,15.993294,16.18,0.98888874,0.0,0.0,6.0133185,0,0,0,0,0,0,0,0,0,1,4,0,0,1,0,0,0
24352000,16.007294,-1.0,13.19005,0.0,0.90955067,1.010152,nan,nan,0.0,0.0,0.0,0.0,0.0,0.0,0.0,0.0,0.0,0.0,0.0,0.0,0.0,0.0,0.0,0.0,0.0,0.0,0.005,15.987293,16.18,0.98888874,0.0,0.0,6.0133185,0,0,0,0,0,0,0,0,0,1,4,0,0,1,0,0,0
24552000,16.001295,-1.0,13.137401,0.0,0.9062233,1.0105294,nan,nan,0.0,0.0,0.0,0.0,0.0,0.0,0.0,0.0,0.0,0.0,0.0,0.0,0.0,0.0,0.0,0.0,0.0,0.0,0.005,15.981295,16.18,0.98888874,0.0,0.0,6.0133185,0,0,0,0,0,0,0,0,0,1,4,0,0,1,0,0,0
24752000,15.995296,-1.0,13.084961,0.0,0.9028959,1.010907,nan,nan,0.0,0.0,0.0,0.0,0.0,0.0,0.0,0.0,0.0,0.0,0.0,0.0,0.0,0.0,0.0,0.0,0.0,0.0,0.005,15.975295,16.18,0.98888874,0.0,0.0,6.0133185,0,0,0,0,0,0,0,0,0,1,4,0,0,1,0,0,0
24952000,15.989296,-1.0,13.032731,0.0,0.89956856,1.011285,nan,nan,0.0,0.0,0.0,0.0,0.0,0.0,0.0,0.0,0.0,0.0,0.0,0.0,0.0,0.0,0.0,0.0,0.0,0.0,0.005,15.9692955,16.18,0.98888874,0.0,0.0,6.0133185,0,0,0,0,0,0,0,0,0,1,4,0,0,1,0,0,0
25152000,15.983296,-1.0,12.980709,0.0,0.8962412,1.0116632,nan,nan,0.0,0.0,0.0,0.0,0.0,0.0,0.0,0.0,0.0,0.0,0.0,0.0,0.0,0.0,0.0,0.0,0.0,0.0,0.005,15.963296,16.18,0.98888874,0.0,0.0,6.0133185,0,0,0,0,0,0,0,0,0,1,4,0,0,1,0,0,0
25352000,15.977297,-1.0,12.928895,0.0,0.8929138,1.0120417,nan,nan,0.0,0.0,0.0,0.0,0.0,0.0,0.0,0.0,0.0,0.0,0.0,0.0,0.0,0.0,0.0,0.0,0.0,0.0,0.005,15.957296,16.18,0.98888874,0.0,0.0,6.0133185,0,0,0,0,0,0,0,0,0,1,4,0,0,1,0,0,0
25552000,15.971297,-1.0,12.877287,0.0,0.88958645,1.0124205,nan,nan,0.0,0.0,0.0,0.0,0.0,0.0,0.0,0.0,0.0,0.0,0.0,0.0,0.0,0.0,0.0,0.0,0.0,0.0,0.005,15.951297,16.18,0.98888874,0.0,0.0,6.0133185,0,0,0,0,0,0,0,0,0,1,4,0,0,1,0,0,0
25752000,15.965298,-1.0,12.825887,0.0,0.88625526,1.0128001,nan,nan,0.0,0.0,0.0,0.0,0.0,0.0,0.0,0.0,0.0,0.0,0.0,0.0,0.0,0.0,0.0,0.0,0.0,0.0,0.005,15.945297,16.18,0.98888874,0.0,0.0,6.0133185,0,0,0,0,0,0,0,0,0,1,4,0,0,1,0,0,0
25952000,15.959298,-1.0,12.774691,0.0,0.8829222,1.01318,nan,nan,0.0,0.0,0.0,0.0,0.0,0.0,0.0,0.0,0.0,0.0,0.0,0.0,0.0,0.0,0.0,0.0,0.0,0.0,0.005,15.939298,16.18,0.98888874,0.0,0.0,6.0133185,0,0,0,0,0,0,0,0,0,1,4,0,0,1,0,0,0
26152000,15.953299,-1.0,12.7237,0.0,0.87959003,1.0135603,nan,nan,0.0,0.0,0.0,0.0,0.0,0.0,0.0,0.0,0.0,0.0,0.0,0.0,0.0,0.0,0.0,0.0,0.0,0.0,0.005,15.933298,16.18,0.98888874,0.0,0.0,6.0133185,0,0,0,0,0,0,0,0,0,1,4,0,0,1,0,0,0
26352000,15.947299,-1.0,12.672912,0.0,0.8762579,1.0139408,nan,nan,0.0,0.0,0.0,0.0,0.0,0.0,0.0,0.0,0.0,0.0,0.0,0.0,0.0,0.0,0.0,0.0,0.0,0.0,0.005,15.927299,16.18,0.98888874,0.0,0.0,6.0133185,0,0,0,0,0,0,0,0,0,1,4,0,0,1,0,0,0
26552000,15.941299,-1.0,12.622326,0.0,0.8729248,1.0143217,nan,nan,0.0,0.0,0.0,0.0,0.0,0.0,0.0,0.0,0.0,0.0,0.0,0.0,0.0,0.0,0.0,0.0,0.0,0.0,0.005,15.921299,16.18,0.98888874,0.0,0.0,6.0133185,0,0,0,0,0,0,0,0,0,1,4,0,0,1,0,0,0
26752000,15.9353,-1.0,12.571941,0.0,0.8695917,1.0147028,nan,nan,0.0,0.0,0.0,0.0,0.0,0.0,0.0,0.0,0.0,0.0,0.0,0.0,0.0,0.0,0.0,0.0,0.0,0.0,0.005,15.915299,16.18,0.98888874,0.0,0.0,6.0133185,0,0,0,0,0,0,0,0,0,1,4,0,0,1,0,0,0
26952000,15.9293,-1.0,12.521759,0.0,0.8662596,1.0150843,nan,nan,0.0,0.0,0.0,0.0,0.0,0.0,0.0,0.0,0.0,0.0,0.0,0.0,0.0,0.0,0.0,0.0,0.0,0.0,0.005,15.9093,16.18,0.98888874,0.0,0.0,6.0133185,0,0,0,0,0,0,0,0,0,1,4,0,0,1,0,0,0
27152000,15.923301,-1.0,12.471777,0.0,0.8629265,1.0154659,nan,nan,0.0,0.0,0.0,0.0,0.0,0.0,0.0,0.0,0.0,0.0,0.0,0.0,0.0,0.0,0.0,0.0,0.0,0.0,0.005,15.9033,16.18,0.98888874,0.0,0.0,6.0133185,0,0,0,0,0,0,0,0,0,1,4,0,0,1,0,0,0
27352000,15.917301,-1.0,12.421995,0.0,0.85959435,1.0158479,nan,nan,0.0,0.0,0.0,0.0,0.0,0.0,0.0,0.0,0.0,0.0,0.0,0.0,0.0,0.0,0.0,0.0,0.0,0.0,0.005,15.897301,16.18,0.98888874,0.0,0.0,6.0133185,0,0,0,0,0,0,0,0,0,1,4,0,0,1,0,0,0
27552000,15.911302,-1.0,12.372412,0.0,0.85626125,1.0162301,nan,nan,0.0,0.0,0.0,0.0,0.0,0.0,0.0,0.0,0.0,0.0,0.0,0.0,0.0,0.0,0.0,0.0,0.0,0.0,0.005,15.891301,16.18,0.98888874,0.0,0.0,6.0133185,0,0,0,0,0,0,0,0,0,1,4,0,0,1,0,0,0
27752000,15.905302,-1.0,12.323027,0.0,0.8529291,1.0166126,nan,nan,0.0,0.0,0.0,0.0,0.0,0.0,0.0,0.0,0.0,0.0,0.0,0.0,0.0,0.0,0.0,0.0,0.0,0.0,0.005,15.885302,16.18,0.98888874,0.0,0.0,6.0133185,0,0,0,0,0,0,0,0,0,1,4,0,0,1,0,0,0
27952000,15.8993025,-1.0,12.273836,0.0,0.849596,1.0169955,nan,nan,0.0,0.0,0.0,0.0,0.0,0.0,0.0,0.0,0.0,0.0,0.0,0.0,0.0,0.0,0.0,0.0,0.0,0.0,0.005,15.879302,16.18,0.98888874,0.0,0.0,6.0133185,0,0,0,0,0,0,0,0,0,1,4,0,0,1,0,0,0
28152000,15.893303,-1.0,12.224846,0.0,0.8462639,1.0173787,nan,nan,0.0,0.0,0.0,0.0,0.0,0.0,0.0,0.0,0.0,0.0,0.0,0.0,0.0,0.0,0.0,0.0,0.0,0.0,0.005,15.873302,16.18,0.98888874,0.0,0.0,6.0133185,0,0,0,0,0,0,0,0,0,1,4,0,0,1,0,0,0
28352000,15.887303,-1.0,12.176046,0.0,0.84293175,1.0177621,nan,nan,0.0,0.0,0.0,0.0,0.0,0.0,0.0,0.0,0.0,0.0,0.0,0.0,0.0,0.0,0.0,0.0,0.0,0.0,0.005,15.867303,16.18,0.98888874,0.0,0.0,6.0133185,0,0,0,0,0,0,0,0,0,1,4,0,0,1,0,0,0
28552000,15.881304,-1.0,12.127447,0.0,0.83959866,1.0181458,nan,nan,0.0,0.0,0.0,0.0,0.0,0.0,0.0,0.0,0.0,0.0,0.0,0.0,0.0,0.0,0.0,0.0,0.0,0.0,0.005,15.861303,16.18,0.98888874,0.0,0.0,6.0133185,0,0,0,0,0,0,0,0,0,1,4,0,0,1,0,0,0
28752000,15.875304,-1.0,12.079039,0.0,0.8362665,1.0185298,nan,nan,0.0,0.0,0.0,0.0,0.0,0.0,0.0,0.0,0.0,0.0,0.0,0.0,0.0,0.0,0.0,0.0,0.0,0.0,0.005,15.855304,16.18,0.98888874,0.0,0.0,6.0133185,0,0,0,0,0,0,0,0,0,1,4,0,0,1,0,0,0
28952000,15.869305,-1.0,12.030821,0.0,0.8329334,1.018914,nan,nan,0.0,0.0,0.0,0.0,0.0,0.0,0.0,0.0,0.0,0.0,0.0,0.0,0.0,0.0,0.0,0.0,0.0,0.0,0.005,15.849304,16.18,0.98888874,0.0,0.0,6.0133185,0,0,0,0,0,0,0,0,0,1,4,0,0,1,0,0,0
29152000,15.863305,-1.0,11.982798,0.0,0.8296013,1.0192986,nan,nan,0.0,0.0,0.0,0.0,0.0,0.0,0.0,0.0,0.0,0.0,0.0,0.0,0.0,0.0,0.0,0.0,0.0,0.0,0.005,15.843305,16.18,0.98888874,0.0,0.0,6.0133185,0,0,0,0,0,0,0,0,0,1,4,0,0,1,0,0,0
29352000,15.857306,-1.0,11.934971,0.0,0.8262682,1.0196835,nan,nan,0.0,0.0,0.0,0.0,0.0,0.0,0.0,0.0,0.0,0.0,0.0,0.0,0.0,0.0,0.0,0.0,0.0,0.0,0.005,15.837305,16.18,0.98888874,0.0,0.0,6.0133185,0,0,0,0,0,0,0,0,0,1,4,0,0,1,0,0,0
29552000,15.851306,-1.0,11.887335,0.0,0.82293606,1.0200686,nan,nan,0.0,0.0,0.0,0.0,0.0,0.0,0.0,0.0,0.0,0.0,0.0,0.0,0.0,0.0,0.0,0.0,0.0,0.0,0.005,15.8313055,16.18,0.98888874,0.0,0.0,6.0133185,0,0,0,0,0,0,0,0,0,1,4,0,0,1,0,0,0
29752000,15.845306,-1.0,11.839889,0.0,0.81960297,1.020454,nan,nan,0.0,0.0,0.0,0.0,0.0,0.0,0.0,0.0,0.0,0.0,0.0,0.0,0.0,0.0,0.0,0.0,0.0,0.0,0.005,15.825306,16.18,0.98888874,0.0,0.0,6.0133185,0,0,0,0,0,0,0,0,0,1,4,0,0,1,0,0,0
29952000,15.839307,-1.0,11.792624,0.0,0.8162699,1.0208398,nan,nan,0.0,0.0,0.0,0.0,0.0,0.0,0.0,0.0,0.0,0.0,0.0,0.0,0.0,0.0,0.0,0.0,0.0,0.0,0.005,15.819306,16.18,0.98888874,0.0,0.0,6.0133185,0,0,0,0,0,0,0,0,0,1,4,0,0,1,0,0,0
30152000,15.833307,-1.0,11.745551,0.0,0.81293774,1.0212258,nan,nan,0.0,0.0,0.0,0.0,0.0,0.0,0.0,0.0,0.0,0.0,0.0,0.0,0.0,0.0,0.0,0.0,0.0,0.0,0.005,15.813307,16.18,0.98888874,0.0,0.0,6.0133185,0,0,0,0,0,0,0,0,0,1,4,0,0,1,0,0,0
30352000,15.827308,-1.0,11.6986685,0.0,0.8096056,1.0216122,nan,nan,0.0,0.0,0.0,0.0,0.0,0.0,0.0,0.0,0.0,0.0,0.0,0.0,0.0,0.0,0.0,0.0,0.0,0.0,0.005,15.807307,16.18,0.98888874,0.0,0.0,6.0133185,0,0,0,0,0,0,0,0,0,1,4,0,0,1,0,0,0
30552000,15.821308,-1.0,11.651972,0.0,0.8062725,1.0219988,nan,nan,0.0,0.0,0.0,0.0,0.0,0.0,0.0,0.0,0.0,0.0,0.0,0.0,0.0,0.0,0.0,0.0,0.0,0.0,0.005,15.801308,16.18,0.98888874,0.0,0.0,6.0133185,0,0,0,0,0,0,0,0,0,1,4,0,0,1,0,0,0
30752000,15.815309,-1.0,11.605461,0.0,0.80294037,1.0223857,nan,nan,0.0,0.0,0.0,0.0,0.0,0.0,0.0,0.0,0.0,0.0,0.0,0.0,0.0,0.0,0.0,0.0,0.0,0.0,0.005,15.795308,16.18,0.98888874,0.0,0.0,6.0133185,0,0,0,0,0,0,0,0,0,1,4,0,0,1,0,0,0
30952000,15.809309,-1.0,11.559137,0.0,0.7996073,1.0227729,nan,nan,0.0,0.0,0.0,0.0,0.0,0.0,0.0,0.0,0.0,0.0,0.0,0.0,0.0,0.0,0.0,0.0,0.0,0.0,0.005,15.789309,16.18,0.98888874,0.0,0.0,6.0133185,0,0,0,0,0,0,0,0,0,1,4,0,0,1,0,0,0
31152000,15.803309,-1.0,11.512999,0.0,0.79627514,1.0231603,nan,nan,0.0,0.0,0.0,0.0,0.0,0.0,0.0,0.0,0.0,0.0,0.0,0.0,0.0,0.0,0.0,0.0,0.0,0.0,0.005,15.783309,16.18,0.98888874,0.0,0.0,6.0133185,0,0,0,0,0,0,0,0,0,1,4,0,0,1,0,0,0
31352000,15.79731,-1.0,11.467042,0.0,0.79294205,1.0235481,nan,nan,0.0,0.0,0.0,0.0,0.0,0.0,0.0,0.0,0.0,0.0,0.0,0.0,0.0,0.0,0.0,0.0,0.0,0.0,0.005,15.777309,16.18,0.98888874,0.0,0.0,6.0133185,0,0,0,0,0,0,0,0,0,1,4,0,0,1,0,0,0
31552000,15.79131,-1.0,11.42127,0.0,0.7896099,1.0239363,nan,nan,0.0,0.0,0.0,0.0,0.0,0.0,0.0,0.0,0.0,0.0,0.0,0.0,0.0,0.0,0.0,0.0,0.0,0.0,0.005,15.77131,16.18,0.98888874,0.0,0.0,6.0133185,0,0,0,0,0,0,0,0,0,1,4,0,0,1,0,0,0
31752000,15.785311,-1.0,11.375681,0.0,0.7862778,1.0243245,nan,nan,0.0,0.0,0.0,0.0,0.0,0.0,0.0,0.0,0.0,0.0,0.0,0.0,0.0,0.0,0.0,0.0,0.0,0.0,0.005,15.76531,16.18,0.98888874,0.0,0.0,6.0133185,0,0,0,0,0,0,0,0,0,1,4,0,0,1,0,0,0
31952000,15.779311,-1.0,11.330274,0.0,0.7829447,1.0247133,nan,nan,0.0,0.0,0.0,0.0,0.0,0.0,0.0,0.0,0.0,0.0,0.0,0.0,0.0,0.0,0.0,0.0,0.0,0.0,0.005,15.759311,16.18,0.98888874,0.0,0.0,6.0133185,0,0,0,0,0,0,0,0,0,1,4,0,0,1,0,0,0
32152000,15.773312,-1.0,11.285048,0.0,0.7796116,1.0251023,nan,nan,0.0,0.0,0.0,0.0,0.0,0.0,0.0,0.0,0.0,0.0,0.0,0.0,0.0,0.0,0.0,0.0,0.0,0.0,0.005,15.753311,16.18,0.98888874,0.0,0.0,6.0133185,0,0,0,0,0,0,0,0,0,1,4,0,0,1,0,0,0
32352000,15.767312,-1.0,11.240002,0.0,0.77627945,1.0254916,nan,nan,0.0,0.0,0.0,0.0,0.0,0.0,0.0,0.0,0.0,0.0,0.0,0.0,0.0,0.0,0.0,0.0,0.0,0.0,0.005,15.747312,16.18,0.98888874,0.0,0.0,6.0133185,0,0,0,0,0,0,0,0,0,1,4,0,0,1,0,0,0
32552000,15.7613125,-1.0,11.195136,0.0,0.77294636,1.0258812,nan,nan,0.0,0.0,0.0,0.0,0.0,0.0,0.0,0.0,0.0,0.0,0.0,0.0,0.0,0.0,0.0,0.0,0.0,0.0,0.005,15.741312,16.18,0.98888874,0.0,0.0,6.0133185,0,0,0,0,0,0,0,0,0,1,4,0,0,1,0,0,0
32752000,15.755313,-1.0,11.15045,0.0,0.76961327,1.026271,nan,nan,0.0,0.0,0.0,0.0,0.0,0.0,0.0,0.0,0.0,0.0,0.0,0.0,0.0,0.0,0.0,0.0,0.0,0.0,0.005,15.735312,16.18,0.98888874,0.0,0.0,6.0133185,0,0,0,0,0,0,0,0,0,1,4,0,0,1,0,0,0
32952000,15.749313,-1.0,11.105942,0.0,0.7662811,1.0266612,nan,nan,0.0,0.0,0.0,0.0,0.0,0.0,0.0,0.0,0.0,0.0,0.0,0.0,0.0,0.0,0.0,0.0,0.0,0.0,0.005,15.729313,16.18,0.98888874,0.0,0.0,6.0133185,0,0,0,0,0,0,0,0,0,1,4,0,0,1,0,0,0
33152000,15.743314,-1.0,11.06161,0.0,0.76294804,1.0270517,nan,nan,0.0,0.0,0.0,0.0,0.0,0.0,0.0,0.0,0.0,0.0,0.0,0.0,0.0,0.0,0.0,0.0,0.0,0.0,0.005,15.723313,16.18,0.98888874,0.0,0.0,6.0133185,0,0,0,0,0,0,0,0,0,1,4,0,0,1,0,0,0
33352000,15.737314,-1.0,11.017457,0.0,0.75961494,1.0274425,nan,nan,0.0,0.0,0.0,0.0,0.0,0.0,0.0,0.0,0.0,0.0,0.0,0.0,0.0,0.0,0.0,0.0,0.0,0.0,0.005,15.717314,16.18,0.98888874,0.0,0.0,6.0133185,0,0,0,0,0,0,0,0,0,1,4,0,0,1,0,0,0
33552000,15.731315,-1.0,10.973479,0.0,0.75628185,1.0278336,nan,nan,0.0,0.0,0.0,0.0,0.0,0.0,0.0,0.0,0.0,0.0,0.0,0.0,0.0,0.0,0.0,0.0,0.0,0.0,0.005,15.711314,16.18,0.98888874,0.0,0.0,6.0133185,0,0,0,0,0,0,0,0,0,1,4,0,0,1,0,0,0
33752000,15.725315,-1.0,10.929678,0.0,0.75294876,1.028225,nan,nan,0.0,0.0,0.0,0.0,0.0,0.0,0.0,0.0,0.0,0.0,0.0,0.0,0.0,0.0,0.0,0.0,0.0,0.0,0.005,15.705315,16.18,0.98888874,0.0,0.0,6.0133185,0,0,0,0,0,0,0,0,0,1,4,0,0,1,0,0,0
33952000,15.719316,-1.0,10.886051,0.0,0.74961567,1.0286167,nan,nan,0.0,0.0,0.0,0.0,0.0,0.0,0.0,0.0,0.0,0.0,0.0,0.0,0.0,0.0,0.0,0.0,0.0,0.0,0.005,15.699315,16.18,0.98888874,0.0,0.0,6.0133185,0,0,0,0,0,0,0,0,0,1,4,0,0,1,0,0,0
34152000,15.713316,-1.0,10.842598,0.0,0.7462826,1.0290086,nan,nan,0.0,0.0,0.0,0.0,0.0,0.0,0.0,0.0,0.0,0.0,0.0,0.0,0.0,0.0,0.0,0.0,0.0,0.0,0.005,15.6933155,16.18,0.98888874,0.0,0.0,6.0133185,0,0,0,0,0,0,0,0,0,1,4,0,0,1,0,0,0
34352000,15.707316,-1.0,10.799318,0.0,0.7429495,1.029401,nan,nan,0.0,0.0,0.0,0.0,0.0,0.0,0.0,0.0,0.0,0.0,0.0,0.0,0.0,0.0,0.0,0.0,0.0,0.0,0.005,15.687316,16.18,0.98888874,0.0,0.0,6.0133185,0,0,0,0,0,0,0,0,0,1,4,0,0,1,0,0,0
34552000,15.701317,-1.0,10.756211,0.0,0.7396164,1.0297935,nan,nan,0.0,0.0,0.0,0.0,0.0,0.0,0.0,0.0,0.0,0.0,0.0,0.0,0.0,0.0,0.0,0.0,0.0,0.0,0.005,15.681316,16.18,0.98888874,0.0,0.0,6.0133185,0,0,0,0,0,0,0,0,0,1,4,0,0,1,0,0,0
34752000,15.695317,-1.0,10.713277,0.0,0.7362833,1.0301864,nan,nan,0.0,0.0,0.0,0.0,0.0,0.0,0.0,0.0,0.0,0.0,0.0,0.0,0.0,0.0,0.0,0.0,0.0,0.0,0.005,15.675317,16.18,0.98888874,0.0,0.0,6.0133185,0,0,0,0,0,0,0,0,0,1,4,0,0,1,0,0,0
34952000,15.689318,-1.0,10.670514,0.0,0.7329502,1.0305796,nan,nan,0.0,0.0,0.0,0.0,0.0,0.0,0.0,0.0,0.0,0.0,0.0,0.0,0.0,0.0,0.0,0.0,0.0,0.0,0.005,15.669317,16.18,0.98888874,0.0,0.0,6.0133185,0,0,0,0,0,0,0,0,0,1,4,0,0,1,0,0,0
35152000,15.683318,-1.0,10.627921,0.0,0.7296171,1.0309731,nan,nan,0.0,0.0,0.0,0.0,0.0,0.0,0.0,0.0,0.0,0.0,0.0,0.0,0.0,0.0,0.0,0.0,0.0,0.0,0.005,15.663318,16.18,0.98888874,0.0,0.0,6.0133185,0,0,0,0,0,0,0,0,0,1,4,0,0,1,0,0,0
35352000,15.677319,-1.0,10.5855,0.0,0.726284,1.0313668,nan,nan,0.0,0.0,0.0,0.0,0.0,0.0,0.0,0.0,0.0,0.0,0.0,0.0,0.0,0.0,0.0,0.0,0.0,0.0,0.005,15.657318,16.18,0.98888874,0.0,0.0,6.0133185,0,0,0,0,0,0,0,0,0,1,4,0,0,1,0,0,0
35552000,15.671319,-1.0,10.543246,0.0,0.72295094,1.0317609,nan,nan,0.0,0.0,0.0,0.0,0.0,0.0,0.0,0.0,0.0,0.0,0.0,0.0,0.0,0.0,0.0,0.0,0.0,0.0,0.005,15.651319,16.18,0.98888874,0.0,0.0,6.0133185,0,0,0,0,0,0,0,0,0,1,4,0,0,1,0,0,0
35752000,15.665319,-1.0,10.501162,0.0,0.71961784,1.0321554,nan,nan,0.0,0.0,0.0,0.0,0.0,0.0,0.0,0.0,0.0,0.0,0.0,0.0,0.0,0.0,0.0,0.0,0.0,0.0,0.005,15.645319,16.18,0.98888874,0.0,0.0,6.0133185,0,0,0,0,0,0,0,0,0,1,4,0,0,1,0,0,0
35952000,15.65932,-1.0,10.459246,0.0,0.71628475,1.0325501,nan,nan,0.0,0.0,0.0,0.0,0.0,0.0,0.0,0.0,0.0,0.0,0.0,0.0,0.0,0.0,0.0,0.0,0.0,0.0,0.005,15.639319,16.18,0.98888874,0.0,0.0,6.0133185,0,0,0,0,0,0,0,0,0,1,4,0,0,1,0,0,0
36152000,15.65332,-1.0,10.417496,0.0,0.71295166,1.032945,nan,nan,0.0,0.0,0.0,0.0,0.0,0.0,0.0,0.0,0.0,0.0,0.0,0.0,0.0,0.0,0.0,0.0,0.0,0.0,0.005,15.63332,16.18,0.98888874,0.0,0.0,6.0133185,0,0,0,0,0,0,0,0,0,1,4,0,0,1,0,0,0
36352000,15.647321,-1.0,10.375914,0.0,0.70961857,1.0333403,nan,nan,0.0,0.0,0.0,0.0,0.0,0.0,0.0,0.0,0.0,0.0,0.0,0.0,0.0,0.0,0.0,0.0,0.0,0.0,0.005,15.62732,16.18,0.98888874,0.0,0.0,6.0133185,0,0,0,0,0,0,0,0,0,1,4,0,0,1,0,0,0
36552000,15.641321,-1.0,10.3344965,0.0,0.7062855,1.033736,nan,nan,0.0,0.0,0.0,0.0,0.0,0.0,0.0,0.0,0.0,0.0,0.0,0.0,0.0,0.0,0.0,0.0,0.0,0.0,0.005,15.621321,16.18,0.98888874,0.0,0.0,6.0133185,0,0,0,0,0,0,0,0,0,1,4,0,0,1,0,0,0
36752000,15.635322,-1.0,10.293244,0.0,0.7029524,1.0341319,nan,nan,0.0,0.0,0.0,0.0,0.0,0.0,0.0,0.0,0.0,0.0,0.0,0.0,0.0,0.0,0.0,0.0,0.0,0.0,0.005,15.615321,16.18,0.98888874,0.0,0.0,6.0133185,0,0,0,0,0,0,0,0,0,1,4,0,0,1,0,0,0
36952000,15.629322,-1.0,10.252159,0.0,0.6996193,1.034528,nan,nan,0.0,0.0,0.0,0.0,0.0,0.0,0.0,0.0,0.0,0.0,0.0,0.0,0.0,0.0,0.0,0.0,0.0,0.0,0.005,15.609322,16.18,0.98888874,0.0,0.0,6.0133185,0,0,0,0,0,0,0,0,0,1,4,0,0,1,0,0,0
37152000,15.6233225,-1.0,10.211237,0.0,0.6962862,1.0349245,nan,nan,0.0,0.0,0.0,0.0,0.0,0.0,0.0,0.0,0.0,0.0,0.0,0.0,0.0,0.0,0.0,0.0,0.0,0.0,0.005,15.603322,16.18,0.98888874,0.0,0.0,6.0133185,0,0,0,0,0,0,0,0,0,1,4,0,0,1,0,0,0
37352000,15.617323,-1.0,10.170478,0.0,0.6929531,1.0353214,nan,nan,0.0,0.0,0.0,0.0,0.0,0.0,0.0,0.0,0.0,0.0,0.0,0.0,0.0,0.0,0.0,0.0,0.0,0.0,0.005,15.597322,16.18,0.98888874,0.0,0.0,6.0133185,0,0,0,0,0,0,0,0,0,1,4,0,0,1,0,0,0
37552000,15.611323,-1.0,10.129882,0.0,0.68962,1.0357184,nan,nan,0.0,0.0,0.0,0.0,0.0,0.0,0.0,0.0,0.0,0.0,0.0,0.0,0.0,0.0,0.0,0.0,0.0,0.0,0.005,15.591323,16.18,0.98888874,0.0,0.0,6.0133185,0,0,0,0,0,0,0,0,0,1,4,0,0,1,0,0,0
37752000,15.605324,-1.0,10.089447,0.0,0.6862869,1.0361159,nan,nan,0.0,0.0,0.0,0.0,0.0,0.0,0.0,0.0,0.0,0.0,0.0,0.0,0.0,0.0,0.0,0.0,0.0,0.0,0.005,15.585323,16.18,0.98888874,0.0,0.0,6.0133185,0,0,0,0,0,0,0,0,0,1,4,0,0,1,0,0,0
37952000,15.599324,-1.0,10.049174,0.0,0.68295383,1.0365137,nan,nan,0.0,0.0,0.0,0.0,0.0,0.0,0.0,0.0,0.0,0.0,0.0,0.0,0.0,0.0,0.0,0.0,0.0,0.0,0.005,15.579324,16.18,0.98888874,0.0,0.0,6.0133185,0,0,0,0,0,0,0,0,0,1,4,0,0,1,0,0,0
38152000,15.593325,-1.0,10.009062,0.0,0.6796198,1.0369117,nan,nan,0.0,0.0,0.0,0.0,0.0,0.0,0.0,0.0,0.0,0.0,0.0,0.0,0.0,0.0,0.0,0.0,0.0,0.0,0.005,15.573324,16.18,0.98888874,0.0,0.0,6.0133185,0,0,0,0,0,0,0,0,0,1,4,0,0,1,0,0,0
38352000,15.587325,-1.0,9.969109,0.0,0.67628765,1.03731,nan,nan,0.0,0.0,0.0,0.0,0.0,0.0,0.0,0.0,0.0,0.0,0.0,0.0,0.0,0.0,0.0,0.0,0.0,0.0,0.005,15.567325,16.18,0.98888874,0.0,0.0,6.0133185,0,0,0,0,0,0,0,0,0,1,4,0,0,1,0,0,0
38552000,15.581326,-1.0,9.9293165,0.0,0.67295456,1.0377086,nan,nan,0.0,0.0,0.0,0.0,0.0,0.0,0.0,0.0,0.0,0.0,0.0,0.0,0.0,0.0,0.0,0.0,0.0,0.0,0.005,15.561325,16.18,0.98888874,0.0,0.0,6.0133185,0,0,0,0,0,0,0,0,0,1,4,0,0,1,0,0,0
38752000,15.575326,-1.0,9.889683,0.0,0.66961956,1.0381079,nan,nan,0.0,0.0,0.0,0.0,0.0,0.0,0.0,0.0,0.0,0.0,0.0,0.0,0.0,0.0,0.0,0.0,0.0,0.0,0.005,15.5553255,16.18,0.98888874,0.0,0.0,6.0133185,0,0,0,0,0,0,0,0,0,1,4,0,0,1,0,0,0
38952000,15.569326,-1.0,9.850206,0.0,0.6662874,1.038507,nan,nan,0.0,0.0,0.0,0.0,0.0,0.0,0.0,0.0,0.0,0.0,0.0,0.0,0.0,0.0,0.0,0.0,0.0,0.0,0.005,15.549326,16.18,0.98888874,0.0,0.0,6.0133185,0,0,0,0,0,0,0,0,0,1,4,0,0,1,0,0,0
39152000,15.563327,-1.0,9.810889,0.0,0.66295433,1.0389066,nan,nan,0.0,0.0,0.0,0.0,0.0,0.0,0.0,0.0,0.0,0.0,0.0,0.0,0.0,0.0,0.0,0.0,0.0,0.0,0.005,15.543326,16.18,0.98888874,0.0,0.0,6.0133185,0,0,0,0,0,0,0,0,0,1,4,0,0,1,0,0,0
39352000,15.557327,-1.0,9.771728,0.0,0.65962124,1.0393064,nan,nan,0.0,0.0,0.0,0.0,0.0,0.0,0.0,0.0,0.0,0.0,0.0,0.0,0.0,0.0,0.0,0.0,0.0,0.0,0.005,15.537327,16.18,0.98888874,0.0,0.0,6.0133185,0,0,0,0,0,0,0,0,0,1,4,0,0,1,0,0,0
39552000,15.551328,-1.0,9.732722,0.0,0.6562891,1.0397065,nan,nan,0.0,0.0,0.0,0.0,0.0,0.0,0.0,0.0,0.0,0.0,0.0,0.0,0.0,0.0,0.0,0.0,0.0,0.0,0.005,15.531327,16.18,0.98888874,0.0,0.0,6.0133185,0,0,0,0,0,0,0,0,0,1,4,0,0,1,0,0,0
39752000,15.545328,-1.0,9.693873,0.0,0.652956,1.040107,nan,nan,0.0,0.0,0.0,0.0,0.0,0.0,0.0,0.0,0.0,0.0,0.0,0.0,0.0,0.0,0.0,0.0,0.0,0.0,0.005,15.525328,16.18,0.98888874,0.0,0.0,6.0133185,0,0,0,0,0,0,0,0,0,1,4,0,0,1,0,0,0
39952000,15.539329,-1.0,9.655179,0.0,0.64962196,1.0405079,nan,nan,0.0,0.0,0.0,0.0,0.0,0.0,0.0,0.0,0.0,0.0,0.0,0.0,0.0,0.0,0.0,0.0,0.0,0.0,0.005,15.519328,16.18,0.98888874,0.0,0.0,6.0133185,0,0,0,0,0,0,0,0,0,1,4,0,0,1,0,0,0
40152000,15.533329,-1.0,9.616639,0.0,0.6462898,1.0409089,nan,nan,0.0,0.0,0.0,0.0,0.0,0.0,0.0,0.0,0.0,0.0,0.0,0.0,0.0,0.0,0.0,0.0,0.0,0.0,0.005,15.513329,16.18,0.98888874,0.0,0.0,6.0133185,0,0,0,0,0,0,0,0,0,1,4,0,0,1,0,0,0
40352000,15.527329,-1.0,9.578252,0.0,0.64295673,1.0413103,nan,nan,0.0,0.0,0.0,0.0,0.0,0.0,0.0,0.0,0.0,0.0,0.0,0.0,0.0,0.0,0.0,0.0,0.0,0.0,0.005,15.507329,16.18,0.98888874,0.0,0.0,6.0133185,0,0,0,0,0,0,0,0,0,1,4,0,0,1,0,0,0
40552000,15.52133,-1.0,9.54002,0.0,0.6396227,1.0417122,nan,nan,0.0,0.0,0.0,0.0,0.0,0.0,0.0,0.0,0.0,0.0,0.0,0.0,0.0,0.0,0.0,0.0,0.0,0.0,0.005,15.501329,16.18,0.98888874,0.0,0.0,6.0133185,0,0,0,0,0,0,0,0,0,1,4,0,0,1,0,0,0
40752000,15.51533,-1.0,9.501942,0.0,0.63629055,1.0421141,nan,nan,0.0,0.0,0.0,0.0,0.0,0.0,0.0,0.0,0.0,0.0,0.0,0.0,0.0,0.0,0.0,0.0,0.0,0.0,0.005,15.49533,16.18,0.98888874,0.0,0.0,6.0133185,0,0,0,0,0,0,0,0,0,1,4,0,0,1,0,0,0
40952000,15.509331,-1.0,9.464012,0.0,0.6329565,1.0425165,nan,nan,0.0,0.0,0.0,0.0,0.0,0.0,0.0,0.0,0.0,0.0,0.0,0.0,0.0,0.0,0.0,0.0,0.0,0.0,0.005,15.48933,16.18,0.98888874,0.0,0.0,6.0133185,0,0,0,0,0,0,0,0,0,1,4,0,0,1,0,0,0
41152000,15.503331,-1.0,9.426235,0.0,0.62962437,1.0429192,nan,nan,0.0,0.0,0.0,0.0,0.0,0.0,0.0,0.0,0.0,0.0,0.0,0.0,0.0,0.0,0.0,0.0,0.0,0.0,0.005,15.483331,16.18,0.98888874,0.0,0.0,6.0133185,0,0,0,0,0,0,0,0,0,1,4,0,0,1,0,0,0
41352000,15.497332,-1.0,9.38861,0.0,0.6262913,1.0433221,nan,nan,0.0,0.0,0.0,0.0,0.0,0.0,0.0,0.0,0.0,0.0,0.0,0.0,0.0,0.0,0.0,0.0,0.0,0.0,0.005,15.477331,16.18,0.98888874,0.0,0.0,6.0133185,0,0,0,0,0,0,0,0,0,1,4,0,0,1,0,0,0
41552000,15.491332,-1.0,9.351134,0.0,0.6229582,1.0437254,nan,nan,0.0,0.0,0.0,0.0,0.0,0.0,0.0,0.0,0.0,0.0,0.0,0.0,0.0,0.0,0.0,0.0,0.0,0.0,0.005,15.471332,16.18,0.98888874,0.0,0.0,6.0133185,0,0,0,0,0,0,0,0,0,1,4,0,0,1,0,0,0
41752000,15.4853325,-1.0,9.3138075,0.0,0.6196251,1.044129,nan,nan,0.0,0.0,0.0,0.0,0.0,0.0,0.0,0.0,0.0,0.0,0.0,0.0,0.0,0.0,0.0,0.0,0.0,0.0,0.005,15.465332,16.18,0.98888874,0.0,0.0,6.0133185,0,0,0,0,0,0,0,0,0,1,4,0,0,1,0,0,0
41956000,15.479213,-1.0,9.27663,0.0,0.61629105,1.044533,nan,nan,0.0,0.0,0.0,0.0,0.0,0.0,0.0,0.0,0.0,0.0,0.0,0.0,0.0,0.0,0.0,0.0,0.0,0.0,0.005,15.459212,16.18,0.98888874,0.0,0.0,6.0133185,0,0,0,0,0,0,0,0,0,1,4,0,0,1,0,0,0
42152000,15.473333,-1.0,9.239601,0.0,0.61295795,1.0449371,nan,nan,0.0,0.0,0.0,0.0,0.0,0.0,0.0,0.0,0.0,0.0,0.0,0.0,0.0,0.0,0.0,0.0,0.0,0.0,0.005,15.453333,16.18,0.98888874,0.0,0.0,6.0133185,0,0,0,0,0,0,0,0,0,1,4,0,0,1,0,0,0
42352000,15.467334,-1.0,9.202721,0.0,0.6096258,1.0453416,nan,nan,0.0,0.0,0.0,0.0,0.0,0.0,0.0,0.0,0.0,0.0,0.0,0.0,0.0,0.0,0.0,0.0,0.0,0.0,0.005,15.447333,16.18,0.98888874,0.0,0.0,6.0133185,0,0,0,0,0,0,0,0,0,1,4,0,0,1,0,0,0
42552000,15.461334,-1.0,9.165987,0.0,0.6062927,1.0457464,nan,nan,0.0,0.0,0.0,0.0,0.0,0.0,0.0,0.0,0.0,0.0,0.0,0.0,0.0,0.0,0.0,0.0,0.0,0.0,0.005,15.441334,16.18,0.98888874,0.0,0.0,6.0133185,0,0,0,0,0,0,0,0,0,1,4,0,0,1,0,0,0
42752000,15.455335,-1.0,9.1294,0.0,0.60295963,1.0461516,nan,nan,0.0,0.0,0.0,0.0,0.0,0.0,0.0,0.0,0.0,0.0,0.0,0.0,0.0,0.0,0.0,0.0,0.0,0.0,0.005,15.435334,16.18,0.98888874,0.0,0.0,6.0133185,0,0,0,0,0,0,0,0,0,1,4,0,0,1,0,0,0
42952000,15.449335,-1.0,9.092959,0.0,0.59962654,1.0465571,nan,nan,0.0,0.0,0.0,0.0,0.0,0.0,0.0,0.0,0.0,0.0,0.0,0.0,0.0,0.0,0.0,0.0,0.0,0.0,0.005,15.429335,16.18,0.98888874,0.0,0.0,6.0133185,0,0,0,0,0,0,0,0,0,1,4,0,0,1,0,0,0
43152000,15.443336,-1.0,9.0566635,0.0,0.59629345,1.0469629,nan,nan,0.0,0.0,0.0,0.0,0.0,0.0,0.0,0.0,0.0,0.0,0.0,0.0,0.0,0.0,0.0,0.0,0.0,0.0,0.005,15.423335,16.18,0.98888874,0.0,0.0,6.0133185,0,0,0,0,0,0,0,0,0,1,4,0,0,1,0,0,0
43352000,15.437336,-1.0,9.020513,0.0,0.59296036,1.047369,nan,nan,0.0,0.0,0.0,0.0,0.0,0.0,0.0,0.0,0.0,0.0,0.0,0.0,0.0,0.0,0.0,0.0,0.0,0.0,0.005,15.4173355,16.18,0.98888874,0.0,0.0,6.0133185,0,0,0,0,0,0,0,0,0,1,4,0,0,1,0,0,0
43552000,15.431336,-1.0,8.984507,0.0,0.58962727,1.0477754,nan,nan,0.0,0.0,0.0,0.0,0.0,0.0,0.0,0.0,0.0,0.0,0.0,0.0,0.0,0.0,0.0,0.0,0.0,0.0,0.005,15.411336,16.18,0.98888874,0.0,0.0,6.0133185,0,0,0,0,0,0,0,0,0,1,4,0,0,1,0,0,0
43752000,15.425337,-1.0,8.948644,0.0,0.5862932,1.0481822,nan,nan,0.0,0.0,0.0,0.0,0.0,0.0,0.0,0.0,0.0,0.0,0.0,0.0,0.0,0.0,0.0,0.0,0.0,0.0,0.005,15.405336,16.18,0.98888874,0.0,0.0,6.0133185,0,0,0,0,0,0,0,0,0,1,4,0,0,1,0,0,0
43952000,15.419337,-1.0,8.912924,0.0,0.5829611,1.0485892,nan,nan,0.0,0.0,0.0,0.0,0.0,0.0,0.0,0.0,0.0,0.0,0.0,0.0,0.0,0.0,0.0,0.0,0.0,0.0,0.005,15.399337,16.18,0.98888874,0.0,0.0,6.0133185,0,0,0,0,0,0,0,0,0,1,4,0,0,1,0,0,0
44152000,15.413338,-1.0,8.877347,0.0,0.579628,1.0489966,nan,nan,0.0,0.0,0.0,0.0,0.0,0.0,0.0,0.0,0.0,0.0,0.0,0.0,0.0,0.0,0.0,0.0,0.0,0.0,0.005,15.393337,16.18,0.98888874,0.0,0.0,6.0133185,0,0,0,0,0,0,0,0,0,1,4,0,0,1,0,0,0
44352000,15.407338,-1.0,8.841912,0.0,0.57629395,1.0494043,nan,nan,0.0,0.0,0.0,0.0,0.0,0.0,0.0,0.0,0.0,0.0,0.0,0.0,0.0,0.0,0.0,0.0,0.0,0.0,0.005,15.387338,16.18,0.98888874,0.0,0.0,6.0133185,0,0,0,0,0,0,0,0,0,1,4,0,0,1,0,0,0
44552000,15.401339,-1.0,8.806619,0.0,0.5729618,1.0498122,nan,nan,0.0,0.0,0.0,0.0,0.0,0.0,0.0,0.0,0.0,0.0,0.0,0.0,0.0,0.0,0.0,0.0,0.0,0.0,0.005,15.381338,16.18,0.98888874,0.0,0.0,6.0133185,0,0,0,0,0,0,0,0,0,1,4,0,0,1,0,0,0
44752000,15.395339,-1.0,8.771465,0.0,0.5696287,1.0502206,nan,nan,0.0,0.0,0.0,0.0,0.0,0.0,0.0,0.0,0.0,0.0,0.0,0.0,0.0,0.0,0.0,0.0,0.0,0.0,0.005,15.375339,16.18,0.98888874,0.0,0.0,6.0133185,0,0,0,0,0,0,0,0,0,1,4,0,0,1,0,0,0
44952000,15.389339,-1.0,8.736453,0.0,0.5662956,1.0506291,nan,nan,0.0,0.0,0.0,0.0,0.0,0.0,0.0,0.0,0.0,0.0,0.0,0.0,0.0,0.0,0.0,0.0,0.0,0.0,0.005,15.369339,16.18,0.98888874,0.0,0.0,6.0133185,0,0,0,0,0,0,0,0,0,1,4,0,0,1,0,0,0
45152000,15.38334,-1.0,8.70158,0.0,0.5629616,1.0510383,nan,nan,0.0,0.0,0.0,0.0,0.0,0.0,0.0,0.0,0.0,0.0,0.0,0.0,0.0,0.0,0.0,0.0,0.0,0.0,0.005,15.363339,16.18,0.98888874,0.0,0.0,6.0133185,0,0,0,0,0,0,0,0,0,1,4,0,0,1,0,0,0
45352000,15.37734,-1.0,8.666847,0.0,0.5596285,1.0514475,nan,nan,0.0,0.0,0.0,0.0,0.0,0.0,0.0,0.0,0.0,0.0,0.0,0.0,0.0,0.0,0.0,0.0,0.0,0.0,0.005,15.35734,16.18,0.98888874,0.0,0.0,6.0133185,0,0,0,0,0,0,0,0,0,1,4,0,0,1,0,0,0
45552000,15.371341,-1.0,8.632254,0.0,0.55629635,1.051857,nan,nan,0.0,0.0,0.0,0.0,0.0,0.0,0.0,0.0,0.0,0.0,0.0,0.0,0.0,0.0,0.0,0.0,0.0,0.0,0.005,15.35134,16.18,0.98888874,0.0,0.0,6.0133185,0,0,0,0,0,0,0,0,0,1,4,0,0,1,0,0,0
45752000,15.365341,-1.0,8.597796,0.0,0.55296326,1.052267,nan,nan,0.0,0.0,0.0,0.0,0.0,0.0,0.0,0.0,0.0,0.0,0.0,0.0,0.0,0.0,0.0,0.0,0.0,0.0,0.005,15.345341,16.18,0.98888874,0.0,0.0,6.0133185,0,0,0,0,0,0,0,0,0,1,4,0,0,1,0,0,0
45952000,15.359342,-1.0,8.5634775,0.0,0.54963017,1.0526772,nan,nan,0.0,0.0,0.0,0.0,0.0,0.0,0.0,0.0,0.0,0.0,0.0,0.0,0.0,0.0,0.0,0.0,0.0,0.0,0.005,15.339341,16.18,0.98888874,0.0,0.0,6.0133185,0,0,0,0,0,0,0,0,0,1,4,0,0,1,0,0,0
46152000,15.353342,-1.0,8.529295,0.0,0.5462971,1.0530877,nan,nan,0.0,0.0,0.0,0.0,0.0,0.0,0.0,0.0,0.0,0.0,0.0,0.0,0.0,0.0,0.0,0.0,0.0,0.0,0.005,15.333342,16.18,0.98888874,0.0,0.0,6.0133185,0,0,0,0,0,0,0,0,0,1,4,0,0,1,0,0,0
46352000,15.3473425,-1.0,8.495249,0.0,0.542964,1.0534985,nan,nan,0.0,0.0,0.0,0.0,0.0,0.0,0.0,0.0,0.0,0.0,0.0,0.0,0.0,0.0,0.0,0.0,0.0,0.0,0.005,15.327342,16.18,0.98888874,0.0,0.0,6.0133185,0,0,0,0,0,0,0,0,0,1,4,0,0,1,0,0,0
46552000,15.341343,-1.0,8.461339,0.0,0.5396309,1.0539098,nan,nan,0.0,0.0,0.0,0.0,0.0,0.0,0.0,0.0,0.0,0.0,0.0,0.0,0.0,0.0,0.0,0.0,0.0,0.0,0.005,15.321342,16.18,0.98888874,0.0,0.0,6.0133185,0,0,0,0,0,0,0,0,0,1,4,0,0,1,0,0,0
46752000,15.335343,-1.0,8.427565,0.0,0.5362978,1.0543213,nan,nan,0.0,0.0,0.0,0.0,0.0,0.0,0.0,0.0,0.0,0.0,0.0,0.0,0.0,0.0,0.0,0.0,0.0,0.0,0.005,15.315343,16.18,0.98888874,0.0,0.0,6.0133185,0,0,0,0,0,0,0,0,0,1,4,0,0,1,0,0,0
46952000,15.329344,-1.0,8.393925,0.0,0.5329647,1.054733,nan,nan,0.0,0.0,0.0,0.0,0.0,0.0,0.0,0.0,0.0,0.0,0.0,0.0,0.0,0.0,0.0,0.0,0.0,0.0,0.005,15.309343,16.18,0.98888874,0.0,0.0,6.0133185,0,0,0,0,0,0,0,0,0,1,4,0,0,1,0,0,0
47152000,15.323344,-1.0,8.360419,0.0,0.5296316,1.0551453,nan,nan,0.0,0.0,0.0,0.0,0.0,0.0,0.0,0.0,0.0,0.0,0.0,0.0,0.0,0.0,0.0,0.0,0.0,0.0,0.005,15.303344,16.18,0.98888874,0.0,0.0,6.0133185,0,0,0,0,0,0,0,0,0,1,4,0,0,1,0,0,0
47352000,15.317345,-1.0,8.327047,0.0,0.52629757,1.0555577,nan,nan,0.0,0.0,0.0,0.0,0.0,0.0,0.0,0.0,0.0,0.0,0.0,0.0,0.0,0.0,0.0,0.0,0.0,0.0,0.005,15.297344,16.18,0.98888874,0.0,0.0,6.0133185,0,0,0,0,0,0,0,0,0,1,4,0,0,1,0,0,0
47552000,15.311345,-1.0,8.293809,0.0,0.5229645,1.0559707,nan,nan,0.0,0.0,0.0,0.0,0.0,0.0,0.0,0.0,0.0,0.0,0.0,0.0,0.0,0.0,0.0,0.0,0.0,0.0,0.005,15.291345,16.18,0.98888874,0.0,0.0,6.0133185,0,0,0,0,0,0,0,0,0,1,4,0,0,1,0,0,0
47752000,15.305346,-1.0,8.260703,0.0,0.5196314,1.0563837,nan,nan,0.0,0.0,0.0,0.0,0.0,0.0,0.0,0.0,0.0,0.0,0.0,0.0,0.0,0.0,0.0,0.0,0.0,0.0,0.005,15.285345,16.18,0.98888874,0.0,0.0,6.0133185,0,0,0,0,0,0,0,0,0,1,4,0,0,1,0,0,0
47952000,15.3,-1.0,8.227729,0.0,0.516304,1.0567964,nan,nan,0.0,0.0,0.0,0.0,0.0,0.0,0.0,0.0,0.0,0.0,0.0,0.0,0.0,0.0,0.0,0.0,0.0,0.0,0.005,15.28,16.18,0.98888874,0.0,0.0,6.0133185,0,0,0,0,0,0,0,0,0,1,4,0,0,1,0,0,0
48152000,15.3,-1.0,8.194887,0.0,0.51336193,1.0571617,nan,nan,0.0,0.0,0.0,0.0,0.0,0.0,0.0,0.0,0.0,0.0,0.0,0.0,0.0,0.0,0.0,0.0,0.0,0.0,0.005,15.28,16.18,0.98888874,0.0,0.0,6.0133185,0,0,0,0,0,0,0,0,0,1,4,0,0,1,0,0,0
48352000,15.3,-1.0,8.162176,0.0,0.5109501,1.0574613,nan,nan,0.0,0.0,0.0,0.0,0.0,0.0,0.0,0.0,0.0,0.0,0.0,0.0,0.0,0.0,0.0,0.0,0.0,0.0,0.005,15.28,16.18,0.98888874,0.0,0.0,6.0133185,0,0,0,0,0,0,0,0,0,1,4,0,0,1,0,0,0
48552000,15.3,-1.0,8.129596,0.0,0.5089731,1.057707,nan,nan,0.0,0.0,0.0,0.0,0.0,0.0,0.0,0.0,0.0,0.0,0.0,0.0,0.0,0.0,0.0,0.0,0.0,0.0,0.005,15.28,16.18,0.98888874,0.0,0.0,6.0133185,0,0,0,0,0,0,0,0,0,1,4,0,0,1,0,0,0
48752000,15.3,-1.0,8.097146,0.0,0.5073538,1.0579082,nan,nan,0.0,0.0,0.0,0.0,0.0,0.0,0.0,0.0,0.0,0.0,0.0,0.0,0.0,0.0,0.0,0.0,0.0,0.0,0.005,15.28,16.18,0.98888874,0.0,0.0,6.0133185,0,0,0,0,0,0,0,0,0,1,4,0,0,1,0,0,0
48952000,15.3,-1.0,8.064826,0.0,0.5060272,1.0580733,nan,nan,0.0,0.0,0.0,0.0,0.0,0.0,0.0,0.0,0.0,0.0,0.0,0.0,0.0,0.0,0.0,0.0,0.0,0.0,0.005,15.28,16.18,0.98888874,0.0,0.0,6.0133185,0,0,0,0,0,0,0,0,0,1,4,0,0,1,0,0,0
49152000,15.3,-1.0,8.032633,0.0,0.50494003,1.0582085,nan,nan,0.0,0.0,0.0,0.0,0.0,0.0,0.0,0.0,0.0,0.0,0.0,0.0,0.0,0.0,0.0,0.0,0.0,0.0,0.005,15.28,16.18,0.98888874,0.0,0.0,6.0133185,0,0,0,0,0,0,0,0,0,1,4,0,0,1,0,0,0
49352000,15.3,-1.0,8.000567,0.0,0.50404835,1.0583194,nan,nan,0.0,0.0,0.0,0.0,0.0,0.0,0.0,0.0,0.0,0.0,0.0,0.0,0.0,0.0,0.0,0.0,0.0,0.0,0.005,15.28,16.18,0.98888874,0.0,0.0,6.0133185,0,0,0,0,0,0,0,0,0,1,4,0,0,1,0,0,0
49552000,15.3,-1.0,7.968632,0.0,0.50331783,1.0584104,nan,nan,0.0,0.0,0.0,0.0,0.0,0.0,0.0,0.0,0.0,0.0,0.0,0.0,0.0,0.0,0.0,0.0,0.0,0.0,0.005,15.28,16.18,0.98888874,0.0,0.0,6.0133185,0,0,0,0,0,0,0,0,0,1,4,0,0,1,0,0,0
49752000,15.3,-1.0,7.936824,0.0,0.5027199,1.0584848,nan,nan,0.0,0.0,0.0,0.0,0.0,0.0,0.0,0.0,0.0,0.0,0.0,0.0,0.0,0.0,0.0,0.0,0.0,0.0,0.005,15.28,16.18,0.98888874,0.0,0.0,6.0133185,0,0,0,0,0,0,0,0,0,1,4,0,0,1,0,0,0
49952000,15.3,-1.0,7.905143,0.0,0.5022297,1.058546,nan,nan,0.0,0.0,0.0,0.0,0.0,0.0,0.0,0.0,0.0,0.0,0.0,0.0,0.0,0.0,0.0,0.0,0.0,0.0,0.005,15.28,16.18,0.98888874,0.0,0.0,6.0133185,0,0,0,0,0,0,0,0,0,1,4,0,0,1,0,0,0
50152000,15.3,-1.0,7.873589,0.0,0.50182724,1.058596,nan,nan,0.0,0.0,0.0,0.0,0.0,0.0,0.0,0.0,0.0,0.0,0.0,0.0,0.0,0.0,0.0,0.0,0.0,0.0,0.005,15.28,16.18,0.98888874,0.0,0.0,6.0133185,0,0,0,0,0,0,0,0,0,1,4,0,0,1,0,0,0
50352000,15.3,-1.0,7.8421607,0.0,0.50149727,1.058637,nan,nan,0.0,0.0,0.0,0.0,0.0,0.0,0.0,0.0,0.0,0.0,0.0,0.0,0.0,0.0,0.0,0.0,0.0,0.0,0.005,15.28,16.18,0.98888874,0.0,0.0,6.0133185,0,0,0,0,0,0,0,0,0,1,4,0,0,1,0,0,0
50552000,15.3,-1.0,7.810858,0.0,0.5012274,1.0586706,nan,nan,0.0,0.0,0.0,0.0,0.0,0.0,0.0,0.0,0.0,0.0,0.0,0.0,0.0,0.0,0.0,0.0,0.0,0.0,0.005,15.28,16.18,0.98888874,0.0,0.0,6.0133185,0,0,0,0,0,0,0,0,0,1,4,0,0,1,0,0,0
50752000,15.3,-1.0,7.77968,0.0,0.5010061,1.0586983,nan,nan,0.0,0.0,0.0,0.0,0.0,0.0,0.0,0.0,0.0,0.0,0.0,0.0,0.0,0.0,0.0,0.0,0.0,0.0,0.005,15.28,16.18,0.98888874,0.0,0.0,6.0133185,0,0,0,0,0,0,0,0,0,1,4,0,0,1,0,0,0
50952000,15.3,-1.0,7.748626,0.0,0.500824,1.058721,nan,nan,0.0,0.0,0.0,0.0,0.0,0.0,0.0,0.0,0.0,0.0,0.0,0.0,0.0,0.0,0.0,0.0,0.0,0.0,0.005,15.28,16.18,0.98888874,0.0,0.0,6.0133185,0,0,0,0,0,0,0,0,0,1,4,0,0,1,0,0,0
51152000,15.3,-1.0,7.7176967,0.0,0.5006752,1.0587395,nan,nan,0.0,0.0,0.0,0.0,0.0,0.0,0.0,0.0,0.0,0.0,0.0,0.0,0.0,0.0,0.0,0.0,0.0,0.0,0.005,15.28,16.18,0.98888874,0.0,0.0,6.0133185,0,0,0,0,0,0,0,0,0,1,4,0,0,1,0,0,0
51352000,15.3,-1.0,7.6868906,0.0,0.50055313,1.0587547,nan,nan,0.0,0.0,0.0,0.0,0.0,0.0,0.0,0.0,0.0,0.0,0.0,0.0,0.0,0.0,0.0,0.0,0.0,0.0,0.005,15.28,16.18,0.98888874,0.0,0.0,6.0133185,0,0,0,0,0,0,0,0,0,1,4,0,0,1,0,0,0
51552000,15.3,-1.0,7.6562076,0.0,0.500453,1.0587672,nan,nan,0.0,0.0,0.0,0.0,0.0,0.0,0.0,0.0,0.0,0.0,0.0,0.0,0.0,0.0,0.0,0.0,0.0,0.0,0.005,15.28,16.18,0.98888874,0.0,0.0,6.0133185,0,0,0,0,0,0,0,0,0,1,4,0,0,1,0,0,0
51752000,15.3,-1.0,7.625647,0.0,0.50037193,1.0587772,nan,nan,0.0,0.0,0.0,0.0,0.0,0.0,0.0,0.0,0.0,0.0,0.0,0.0,0.0,0.0,0.0,0.0,0.0,0.0,0.005,15.28,16.18,0.98888874,0.0,0.0,6.0133185,0,0,0,0,0,0,0,0,0,1,4,0,0,1,0,0,0
51952000,15.3,-1.0,7.595208,0.0,0.5003042,1.0587857,nan,nan,0.0,0.0,0.0,0.0,0.0,0.0,0.0,0.0,0.0,0.0,0.0,0.0,0.0,0.0,0.0,0.0,0.0,0.0,0.005,15.28,16.18,0.98888874,0.0,0.0,6.0133185,0,0,0,0,0,0,0,0,0,1,4,0,0,1,0,0,0
52152000,15.3,-1.0,7.5648913,0.0,0.5002489,1.0587925,nan,nan,0.0,0.0,0.0,0.0,0.0,0.0,0.0,0.0,0.0,0.0,0.0,0.0,0.0,0.0,0.0,0.0,0.0,0.0,0.005,15.28,16.18,0.98888874,0.0,0.0,6.0133185,0,0,0,0,0,0,0,0,0,1,4,0,0,1,0,0,0
52352000,15.3,-1.0,7.534695,0.0,0.50020504,1.0587981,nan,nan,0.0,0.0,0.0,0.0,0.0,0.0,0.0,0.0,0.0,0.0,0.0,0.0,0.0,0.0,0.0,0.0,0.0,0.0,0.005,15.28,16.18,0.98888874,0.0,0.0,6.0133185,0,0,0,0,0,0,0,0,0,1,4,0,0,1,0,0,0
52552000,15.3,-1.0,7.5046196,0.0,0.50016785,1.0588026,nan,nan,0.0,0.0,0.0,0.0,0.0,0.0,0.0,0.0,0.0,0.0,0.0,0.0,0.0,0.0,0.0,0.0,0.0,0.0,0.005,15.28,16.18,0.98888874,0.0,0.0,6.0133185,0,0,0,0,0,0,0,0,0,1,4,0,0,1,0,0,0
52752000,15.3,-1.0,7.474664,0.0,0.5001364,1.0588065,nan,nan,0.0,0.0,0.0,0.0,0.0,0.0,0.0,0.0,0.0,0.0,0.0,0.0,0.0,0.0,0.0,0.0,0.0,0.0,0.005,15.28,16.18,0.98888874,0.0,0.0,6.0133185,0,0,0,0,0,0,0,0,0,1,4,0,0,1,0,0,0
52952000,15.3,-1.0,7.4448285,0.0,0.50011444,1.0588093,nan,nan,0.0,0.0,0.0,0.0,0.0,0.0,0.0,0.0,0.0,0.0,0.0,0.0,0.0,0.0,0.0,0.0,0.0,0.0,0.005,15.28,16.18,0.98888874,0.0,0.0,6.0133185,0,0,0,0,0,0,0,0,0,1,4,0,0,1,0,0,0
53152000,15.3,-1.0,7.415112,0.0,0.50009346,1.0588119,nan,nan,0.0,0.0,0.0,0.0,0.0,0.0,0.0,0.0,0.0,0.0,0.0,0.0,0.0,0.0,0.0,0.0,0.0,0.0,0.005,15.28,16.18,0.98888874,0.0,0.0,6.0133185,0,0,0,0,0,0,0,0,0,1,4,0,0,1,0,0,0
53352000,15.3,-1.0,7.3855133,0.0,0.50007534,1.0588142,nan,nan,0.0,0.0,0.0,0.0,0.0,0.0,0.0,0.0,0.0,0.0,0.0,0.0,0.0,0.0,0.0,0.0,0.0,0.0,0.005,15.28,16.18,0.98888874,0.0,0.0,6.0133185,0,0,0,0,0,0,0,0,0,1,4,0,0,1,0,0,0
53552000,15.3,-1.0,7.3560333,0.0,0.50006485,1.0588155,nan,nan,0.0,0.0,0.0,0.0,0.0,0.0,0.0,0.0,0.0,0.0,0.0,0.0,0.0,0.0,0.0,0.0,0.0,0.0,0.005,15.28,16.18,0.98888874,0.0,0.0,6.0133185,0,0,0,0,0,0,0,0,0,1,4,0,0,1,0,0,0
53752000,15.3,-1.0,7.326671,0.0,0.50005436,1.0588168,nan,nan,0.0,0.0,0.0,0.0,0.0,0.0,0.0,0.0,0.0,0.0,0.0,0.0,0.0,0.0,0.0,0.0,0.0,0.0,0.005,15.28,16.18,0.98888874,0.0,0.0,6.0133185,0,0,0,0,0,0,0,0,0,1,4,0,0,1,0,0,0
53952000,15.3,-1.0,7.2974257,0.0,0.50004387,1.0588181,nan,nan,0.0,0.0,0.0,0.0,0.0,0.0,0.0,0.0,0.0,0.0,0.0,0.0,0.0,0.0,0.0,0.0,0.0,0.0,0.005,15.28,16.18,0.98888874,0.0,0.0,6.0133185,0,0,0,0,0,0,0,0,0,1,4,0,0,1,0,0,0
54152000,15.3,-1.0,7.268297,0.0,0.5000334,1.0588194,nan,nan,0.0,0.0,0.0,0.0,0.0,0.0,0.0,0.0,0.0,0.0,0.0,0.0,0.0,0.0,0.0,0.0,0.0,0.0,0.005,15.28,16.18,0.98888874,0.0,0.0,6.0133185,0,0,0,0,0,0,0,0,0,1,4,0,0,1,0,0,0
54352000,15.3,-1.0,7.2392855,0.0,0.5000267,1.0588202,nan,nan,0.0,0.0,0.0,0.0,0.0,0.0,0.0,0.0,0.0,0.0,0.0,0.0,0.0,0.0,0.0,0.0,0.0,0.0,0.005,15.28,16.18,0.98888874,0.0,0.0,6.0133185,0,0,0,0,0,0,0,0,0,1,4,0,0,1,0,0,0
54552000,15.3,-1.0,7.210389,0.0,0.5000267,1.0588202,nan,nan,0.0,0.0,0.0,0.0,0.0,0.0,0.0,0.0,0.0,0.0,0.0,0.0,0.0,0.0,0.0,0.0,0.0,0.0,0.005,15.28,16.18,0.98888874,0.0,0.0,6.0133185,0,0,0,0,0,0,0,0,0,1,4,0,0,1,0,0,0
54752000,15.3,-1.0,7.181608,0.0,0.5000267,1.0588202,nan,nan,0.0,0.0,0.0,0.0,0.0,0.0,0.0,0.0,0.0,0.0,0.0,0.0,0.0,0.0,0.0,0.0,0.0,0.0,0.005,15.28,16.18,0.98888874,0.0,0.0,6.0133185,0,0,0,0,0,0,0,0,0,1,4,0,0,1,0,0,0
54952000,15.3,-1.0,7.1529417,0.0,0.5000267,1.0588202,nan,nan,0.0,0.0,0.0,0.0,0.0,0.0,0.0,0.0,0.0,0.0,0.0,0.0,0.0,0.0,0.0,0.0,0.0,0.0,0.005,15.28,16.18,0.98888874,0.0,0.0,6.0133185,0,0,0,0,0,0,0,0,0,1,4,0,0,1,0,0,0
55152000,15.3,-1.0,7.1243896,0.0,0.5000267,1.0588202,nan,nan,0.0,0.0,0.0,0.0,0.0,0.0,0.0,0.0,0.0,0.0,0.0,0.0,0.0,0.0,0.0,0.0,0.0,0.0,0.005,15.28,16.18,0.98888874,0.0,0.0,6.0133185,0,0,0,0,0,0,0,0,0,1,4,0,0,1,0,0,0
55352000,15.3,-1.0,7.095952,0.0,0.5000267,1.0588202,nan,nan,0.0,0.0,0.0,0.0,0.0,0.0,0.0,0.0,0.0,0.0,0.0,0.0,0.0,0.0,0.0,0.0,0.0,0.0,0.005,15.28,16.18,0.98888874,0.0,0.0,6.0133185,0,0,0,0,0,0,0,0,0,1,4,0,0,1,0,0,0
55552000,15.3,-1.0,7.0676274,0.0,0.5000267,1.0588202,nan,nan,0.0,0.0,0.0,0.0,0.0,0.0,0.0,0.0,0.0,0.0,0.0,0.0,0.0,0.0,0.0,0.0,0.0,0.0,0.005,15.28,16.18,0.98888874,0.0,0.0,6.0133185,0,0,0,0,0,0,0,0,0,1,4,0,0,1,0,0,0
55752000,15.3,-1.0,7.0394163,0.0,0.5000267,1.0588202,nan,nan,0.0,0.0,0.0,0.0,0.0,0.0,0.0,0.0,0.0,0.0,0.0,0.0,0.0,0.0,0.0,0.0,0.0,0.0,0.005,15.28,16.18,0.98888874,0.0,0.0,6.0133185,0,0,0,0,0,0,0,0,0,1,4,0,0,1,0,0,0
55952000,15.3,-1.0,7.0113177,0.0,0.5000267,1.0588202,nan,nan,0.0,0.0,0.0,0.0,0.0,0.0,0.0,0.0,0.0,0.0,0.0,0.0,0.0,0.0,0.0,0.0,0.0,0.0,0.005,15.28,16.18,0.98888874,0.0,0.0,6.0133185,0,0,0,0,0,0,0,0,0,1,4,0,0,1,0,0,0
56152000,15.3,-1.0,6.983331,0.0,0.5000267,1.0588202,nan,nan,0.0,0.0,0.0,0.0,0.0,0.0,0.0,0.0,0.0,0.0,0.0,0.0,0.0,0.0,0.0,0.0,0.0,0.0,0.005,15.28,16.18,0.98888874,0.0,0.0,6.0133185,0,0,0,0,0,0,0,0,0,1,4,0,0,1,0,0,0
56352000,15.3,-1.0,6.9554567,0.0,0.5000267,1.0588202,nan,nan,0.0,0.0,0.0,0.0,0.0,0.0,0.0,0.0,0.0,0.0,0.0,0.0,0.0,0.0,0.0,0.0,0.0,0.0,0.005,15.28,16.18,0.98888874,0.0,0.0,6.0133185,0,0,0,0,0,0,0,0,0,1,4,0,0,1,0,0,0
56552000,15.3,-1.0,6.927693,0.0,0.5000267,1.0588202,nan,nan,0.0,0.0,0.0,0.0,0.0,0.0,0.0,0.0,0.0,0.0,0.0,0.0,0.0,0.0,0.0,0.0,0.0,0.0,0.005,15.28,16.18,0.98888874,0.0,0.0,6.0133185,0,0,0,0,0,0,0,0,0,1,4,0,0,1,0,0,0
56752000,15.3,-1.0,6.90004,0.0,0.5000267,1.0588202,nan,nan,0.0,0.0,0.0,0.0,0.0,0.0,0.0,0.0,0.0,0.0,0.0,0.0,0.0,0.0,0.0,0.0,0.0,0.0,0.005,15.28,16.18,0.98888874,0.0,0.0,6.0133185,0,0,0,0,0,0,0,0,0,1,4,0,0,1,0,0,0
56952000,15.3,-1.0,6.8724976,0.0,0.5000267,1.0588202,nan,nan,0.0,0.0,0.0,0.0,0.0,0.0,0.0,0.0,0.0,0.0,0.0,0.0,0.0,0.0,0.0,0.0,0.0,0.0,0.005,15.28,16.18,0.98888874,0.0,0.0,6.0133185,0,0,0,0,0,0,0,0,0,1,4,0,0,1,0,0,0
57152000,15.3,-1.0,6.845065,0.0,0.5000267,1.0588202,nan,nan,0.0,0.0,0.0,0.0,0.0,0.0,0.0,0.0,0.0,0.0,0.0,0.0,0.0,0.0,0.0,0.0,0.0,0.0,0.005,15.28,16.18,0.98888874,0.0,0.0,6.0133185,0,0,0,0,0,0,0,0,0,1,4,0,0,1,0,0,0
57352000,15.3,-1.0,6.8177423,0.0,0.5000267,1.0588202,nan,nan,0.0,0.0,0.0,0.0,0.0,0.0,0.0,0.0,0.0,0.0,0.0,0.0,0.0,0.0,0.0,0.0,0.0,0.0,0.005,15.28,16.18,0.98888874,0.0,0.0,6.0133185,0,0,0,0,0,0,0,0,0,1,4,0,0,1,0,0,0
57552000,15.3,-1.0,6.790529,0.0,0.5000267,1.0588202,nan,nan,0.0,0.0,0.0,0.0,0.0,0.0,0.0,0.0,0.0,0.0,0.0,0.0,0.0,0.0,0.0,0.0,0.0,0.0,0.005,15.28,16.18,0.98888874,0.0,0.0,6.0133185,0,0,0,0,0,0,0,0,0,1,4,0,0,1,0,0,0
57752000,15.3,-1.0,6.763424,0.0,0.5000267,1.0588202,nan,nan,0.0,0.0,0.0,0.0,0.0,0.0,0.0,0.0,0.0,0.0,0.0,0.0,0.0,0.0,0.0,0.0,0.0,0.0,0.005,15.28,16.18,0.98888874,0.0,0.0,6.0133185,0,0,0,0,0,0,0,0,0,1,4,0,0,1,0,0,0
57952000,15.3,-1.0,6.736427,0.0,0.5000267,1.0588202,nan,nan,0.0,0.0,0.0,0.0,0.0,0.0,0.0,0.0,0.0,0.0,0.0,0.0,0.0,0.0,0.0,0.0,0.0,0.0,0.005,15.28,16.18,0.98888874,0.0,0.0,6.0133185,0,0,0,0,0,0,0,0,0,1,4,0,0,1,0,0,0
58152000,15.3,-1.0,6.7095375,0.0,0.5000267,1.0588202,nan,nan,0.0,0.0,0.0,0.0,0.0,0.0,0.0,0.0,0.0,0.0,0.0,0.0,0.0,0.0,0.0,0.0,0.0,0.0,0.005,15.28,16.18,0.98888874,0.0,0.0,6.0133185,0,0,0,0,0,0,0,0,0,1,4,0,0,1,0,0,0
58352000,15.3,-1.0,6.6827555,0.0,0.5000267,1.0588202,nan,nan,0.0,0.0,0.0,0.0,0.0,0.0,0.0,0.0,0.0,0.0,0.0,0.0,0.0,0.0,0.0,0.0,0.0,0.0,0.005,15.28,16.18,0.98888874,0.0,0.0,6.0133185,0,0,0,0,0,0,0,0,0,1,4,0,0,1,0,0,0
58552000,15.3,-1.0,6.6560807,0.0,0.5000267,1.0588202,nan,nan,0.0,0.0,0.0,0.0,0.0,0.0,0.0,0.0,0.0,0.0,0.0,0.0,0.0,0.0,0.0,0.0,0.0,0.0,0.005,15.28,16.18,0.98888874,0.0,0.0,6.0133185,0,0,0,0,0,0,0,0,0,1,4,0,0,1,0,0,0
