timestamp,timestamp_sample,ref_timestamp,ref_lat,ref_lon,x,y,z,delta_xy[0],delta_xy[1],delta_z,vx,vy,vz,z_deriv,delta_vxy[0],delta_vxy[1],delta_vz,ax,ay,az,heading,heading_var,unaided_heading,delta_heading,tilt_var,ref_alt,dist_bottom,dist_bottom_var,delta_dist_bottom,eph,epv,evh,evv,vxy_max,vz_max,hagl_min,hagl_max_z,hagl_max_xy,xy_valid,z_valid,v_xy_valid,v_z_valid,xy_reset_counter,z_reset_counter,vxy_reset_counter,vz_reset_counter,heading_reset_counter,heading_good_for_control,xy_global,z_global,dist_bottom_valid,dist_bottom_reset_counter,dist_bottom_sensor_bitfield,dead_reckoning
3884000,3884000,0,nan,nan,-0.0003989103,0.00054141606,-2.5270085e-05,0.0,0.0,0.0,-0.006945825,0.010109502,0.0011126697,0.0012315804,5.3696567e-06,9.487849e-07,-0.000130333,-0.0019842554,0.19196188,0.10666902,-0.000681361,0.00025612427,-8.795445e-05,0.0,0.020512614,nan,0.1,0.010000001,0.0,14.182927,10.011546,7.0743704,3.1624472,inf,inf,inf,inf,inf,0,0,0,0,1,1,1,1,0,0,0,0,0,1,0,1
3892000,3892000,0,nan,nan,-0.00045448492,0.00062636205,-1.2822406e-05,0.0,0.0,0.0,-0.0068419836,0.010977391,0.0016435491,0.0017634239,5.3696567e-06,9.487849e-07,-0.000130333,0.014069169,0.108678006,0.06411643,-0.00072399783,0.00028236196,-0.00010110071,0.0,0.020565128,nan,0.1,0.010000001,0.0,14.187328,10.012793,7.074733,3.1624644,inf,inf,inf,inf,inf,0,0,0,0,1,1,1,1,0,0,0,0,0,1,0,1
3900000,3900000,0,nan,nan,-0.00051230815,0.0007131035,5.5466808e-06,0.0,0.0,0.0,-0.0073568663,0.010655972,0.0022369386,0.0023584296,5.3696567e-06,9.487849e-07,-0.000130333,-0.062373403,-0.039830707,0.07037958,-0.0007650116,0.0003098787,-0.0001140979,0.0,0.020620193,nan,0.1,0.010000001,0.0,14.191953,10.014103,7.075112,3.1624823,inf,inf,inf,inf,inf,0,0,0,0,1,1,1,1,0,0,0,0,0,1,0,1
3908000,3908000,0,nan,nan,-0.0005764933,0.00079828827,2.9525982e-05,0.0,0.0,0.0,-0.008261899,0.010795595,0.002893825,0.0030174202,5.3696567e-06,9.487849e-07,-0.000130333,-0.11032703,0.01794145,0.07710512,-0.00075944193,0.00033867473,-8.2179205e-05,0.0,0.020677827,nan,0.1,0.010000001,0.0,14.196802,10.015477,7.0755067,3.1625009,inf,inf,inf,inf,inf,0,0,0,0,1,1,1,1,0,0,0,0,0,1,0,1
3916000,3916000,0,nan,nan,-0.00064822036,0.000885702,5.974942e-05,0.0,0.0,0.0,-0.009109304,0.011256291,0.0033441884,0.0034702388,5.3696567e-06,9.487849e-07,-0.000130333,-0.102395035,0.05819672,0.050361264,-0.0008150948,0.00036874996,-0.00011268264,0.0,0.020738019,nan,0.1,0.010000001,0.0,14.201876,10.016915,7.075922,3.1625202,inf,inf,inf,inf,inf,0,0,0,0,1,1,1,1,0,0,0,0,0,1,0,1
3924000,3924000,0,nan,nan,-0.00072797213,0.0009766008,9.393702e-05,0.0,0.0,0.0,-0.010253262,0.011488385,0.0037291355,0.0038578813,5.3696567e-06,9.487849e-07,-0.000130333,-0.13883047,0.029729484,0.04149135,-0.0008567361,0.00040010444,-0.00013021362,0.0,0.020800771,nan,0.1,0.010000001,0.0,14.207173,10.018416,7.076357,3.1625407,inf,inf,inf,inf,inf,0,0,0,0,1,1,1,1,0,0,0,0,0,1,0,1
3940000,3940000,0,nan,nan,-0.0009134857,0.0011584841,0.00017039491,0.0,0.0,0.0,-0.012049034,0.011705025,0.0041115526,0.0042460803,5.3696567e-06,9.487849e-07,-0.000130333,-0.11130435,0.051516693,0.0324361,-0.0009698833,0.00046665076,-0.00019795174,0.0,0.020933948,nan,0.1,0.010000001,0.0,14.21844,10.02161,7.077272,3.1625834,inf,inf,inf,inf,inf,0,0,0,0,1,1,1,1,0,0,0,0,0,1,0,1
3948000,3948000,0,nan,nan,-0.001017653,0.0012508593,0.00021145462,0.0,0.0,0.0,-0.012835915,0.011576849,0.00408801,0.0042255083,5.3696567e-06,9.487849e-07,-0.000130333,-0.09277943,-0.015065917,-0.010632443,-0.0009735736,0.00050184265,-0.0001802629,0.0,0.021004377,nan,0.1,0.010000001,0.0,14.224407,10.023302,7.0777645,3.1626062,inf,inf,inf,inf,inf,0,0,0,0,1,1,1,1,0,0,0,0,0,1,0,1
3956000,3956000,0,nan,nan,-0.0011259449,0.0013430205,0.00025281357,0.0,0.0,0.0,-0.012995311,0.011692992,0.0039756508,0.0041161207,5.3696567e-06,9.487849e-07,-0.000130333,-0.014006272,0.015530774,-0.021858139,-0.0009167297,0.0005383137,-0.00010288879,0.0,0.021077365,nan,0.1,0.010000001,0.0,14.230598,10.025058,7.078279,3.1626296,inf,inf,inf,inf,inf,0,0,0,0,1,1,1,1,0,0,0,0,0,1,0,1
3964000,3964000,0,nan,nan,-0.0012367055,0.0014370355,0.00029612405,0.0,0.0,0.0,-0.013402793,0.012060168,0.0043365047,0.0044799224,5.3696567e-06,9.487849e-07,-0.000130333,-0.04473054,0.04695188,0.03724638,-0.00094549847,0.000576064,-0.000111961504,0.0,0.021152914,nan,0.1,0.010000001,0.0,14.237012,10.026877,7.078807,3.162654,inf,inf,inf,inf,inf,0,0,0,0,1,1,1,1,0,0,0,0,0,1,0,1
3980000,3980000,0,nan,nan,-0.0014762327,0.0016382886,0.0003828399,0.0,0.0,0.0,-0.014739468,0.013630988,0.0038747198,0.004023891,5.3696567e-06,9.487849e-07,-0.000130333,-0.04388078,0.12765223,-0.033488028,-0.00088747946,0.000655402,-1.7010781e-05,0.0,0.021311693,nan,0.1,0.010000001,0.0,14.250507,10.030707,7.0799294,3.1627052,inf,inf,inf,inf,inf,0,0,0,0,1,1,1,1,0,0,0,0,0,1,0,1
3988000,3988000,0,nan,nan,-0.0016008122,0.0017501573,0.00042312613,0.0,0.0,0.0,-0.014797737,0.014545128,0.0034972688,0.0036492236,5.3696567e-06,9.487849e-07,-0.000130333,-0.00050814194,0.11542921,-0.054877248,-0.0009023369,0.00069699,-1.46100065e-05,0.0,0.021394925,nan,0.1,0.010000001,0.0,14.257587,10.032718,7.0805187,3.162732,inf,inf,inf,inf,inf,0,0,0,0,1,1,1,1,0,0,0,0,0,1,0,1
3996000,3996000,0,nan,nan,-0.0017273589,0.0018682999,0.0004655207,0.0,0.0,0.0,-0.01516532,0.015292665,0.004130801,0.0042854687,5.3696567e-06,9.487849e-07,-0.000130333,-0.039063837,0.09462704,0.07161451,-0.00093943416,0.0007398569,-3.5247416e-05,0.0,0.021480715,nan,0.1,0.010000001,0.0,14.26489,10.034791,7.081126,3.1627593,inf,inf,inf,inf,inf,0,0,0,0,1,1,1,1,0,0,0,0,0,1,0,1
4004000,4004000,0,nan,nan,-0.0018595898,0.0019900694,0.00051183207,0.0,0.0,0.0,-0.01592209,0.015489988,0.0044230986,0.004580403,5.3696567e-06,9.487849e-07,-0.000130333,-0.08762218,0.025868528,0.029099172,-0.000950135,0.0007840033,-3.0280207e-05,0.0,0.02156907,nan,0.1,0.010000001,0.0,14.272413,10.036928,7.0817614,3.162788,inf,inf,inf,inf,inf,0,0,0,0,1,1,1,1,0,0,0,0,0,1,0,1
4020000,4020000,0,nan,nan,-0.0021429805,0.0022459917,0.00060401927,0.0,0.0,0.0,-0.017766658,0.0166457,0.0034501052,0.0036124445,5.3696567e-06,9.487849e-07,-0.000130333,-0.1402302,0.043878693,-0.1200037,-0.0009835593,0.00087613345,-3.473088e-05,0.0,0.021753449,nan,0.1,0.010000001,0.0,14.288123,10.04139,7.08308,3.162847,inf,inf,inf,inf,inf,0,0,0,0,1,1,1,1,0,0,0,0,0,1,0,1
4028000,4028000,0,nan,nan,-0.002298735,0.0023807539,0.00064292044,0.0,0.0,0.0,-0.018883692,0.017194625,0.0029630596,0.003127796,5.3696567e-06,9.487849e-07,-0.000130333,-0.13255654,0.06983108,-0.067835204,-0.00092291005,0.00092411746,3.9228587e-05,0.0,0.021849481,nan,0.1,0.010000001,0.0,14.2963085,10.043717,7.0837626,3.1628778,inf,inf,inf,inf,inf,0,0,0,0,1,1,1,1,0,0,0,0,0,1,0,1
4036000,4036000,0,nan,nan,-0.002462828,0.0025167002,0.0006783927,0.0,0.0,0.0,-0.019704971,0.017414136,0.0026761782,0.0028432289,5.3696567e-06,9.487849e-07,-0.000130333,-0.09560162,0.028656667,-0.042641066,-0.0008216008,0.0009733803,0.00015306746,0.0,0.02194807,nan,0.1,0.010000001,0.0,14.304715,10.046106,7.0844646,3.1629095,inf,inf,inf,inf,inf,0,0,0,0,1,1,1,1,0,0,0,0,0,1,0,1
4044000,4044000,0,nan,nan,-0.002631359,0.0026574507,0.00071359705,0.0,0.0,0.0,-0.019958008,0.018027365,0.002629673,0.002798955,5.3696567e-06,9.487849e-07,-0.000130333,-0.024589267,0.07787019,-0.01241872,-0.0008611357,0.0010239225,0.00012528454,0.0,0.022049218,nan,0.1,0.010000001,0.0,14.31334,10.048559,7.08519,3.162942,inf,inf,inf,inf,inf,0,0,0,0,1,1,1,1,0,0,0,0,0,1,0,1
4060000,4060000,0,nan,nan,-0.002979471,0.0029429637,0.000785555,0.0,0.0,0.0,-0.021009754,0.018647468,0.0023324192,0.002505918,5.3696567e-06,9.487849e-07,-0.000130333,-0.06459108,0.0961041,-0.077228054,-0.00096484483,0.0011288446,4.2787404e-05,0.0,0.022259202,nan,0.1,0.010000001,0.0,14.331251,10.053654,7.0867004,3.1630092,inf,inf,inf,inf,inf,0,0,0,0,1,1,1,1,0,0,0,0,0,1,0,1
4068000,4068000,0,nan,nan,-0.0031606127,0.0030933602,0.0008155698,0.0,0.0,0.0,-0.021513004,0.019330865,0.0017431115,0.0019185969,5.3696567e-06,9.487849e-07,-0.000130333,-0.056012634,0.086619236,-0.07975148,-0.000879395,0.0011832241,0.00013778108,0.0,0.022368029,nan,0.1,0.010000001,0.0,14.340534,10.056296,7.087488,3.163044,inf,inf,inf,inf,inf,0,0,0,0,1,1,1,1,0,0,0,0,0,1,0,1
4076000,4076000,0,nan,nan,-0.0033462462,0.003245528,0.00084470253,0.0,0.0,0.0,-0.02202255,0.019135997,0.0018083255,0.0019857164,5.3696567e-06,9.487849e-07,-0.000130333,-0.056863304,-0.023175925,0.0022319143,-0.0008313384,0.0012388831,0.00019472023,0.0,0.022479415,nan,0.1,0.010000001,0.0,14.350037,10.059001,7.088298,3.1630795,inf,inf,inf,inf,inf,0,0,0,0,1,1,1,1,0,0,0,0,0,1,0,1
4084000,4084000,0,nan,nan,-0.0035345526,0.003396548,0.0008750196,0.0,0.0,0.0,-0.022133911,0.019127311,0.002152377,0.0023315924,5.3696567e-06,9.487849e-07,-0.000130333,-0.0071738684,8.207643e-05,0.037252434,-0.0007959154,0.0012958215,0.00023839093,0.0,0.022593368,nan,0.1,0.010000001,0.0,14.359757,10.0617695,7.089132,3.163116,inf,inf,inf,inf,inf,0,0,0,0,1,1,1,1,0,0,0,0,0,1,0,1
4100000,4100000,0,nan,nan,-0.0038419159,0.0036316412,0.000916434,0.0,0.0,0.0,-0.024629831,0.01904393,0.0025197132,0.0026757822,5.3696567e-06,9.487849e-07,-0.000130333,-0.2095577,-0.032590736,0.006481539,-0.0007695012,0.0006004808,0.0002794948,0.0,0.022828128,nan,0.1,0.010000001,0.0,0.70894724,7.095859,6.979018,3.1529925,inf,inf,inf,inf,inf,0,0,0,0,1,1,1,1,0,0,0,0,0,1,0,1
4108000,4108000,0,nan,nan,-0.0040142136,0.0037515634,0.0009395944,0.0,0.0,0.0,-0.025778351,0.01972893,0.0024700472,0.0026151144,5.3696567e-06,9.487849e-07,-0.000130333,-0.1375548,0.087095976,-0.011426861,-0.0008513456,0.0006263072,0.00020413904,0.0,0.022949755,nan,0.1,0.010000001,0.0,0.715999,7.09801,6.9799194,3.1530313,inf,inf,inf,inf,inf,0,0,0,0,1,1,1,1,0,0,0,0,0,1,0,1
4116000,4116000,0,nan,nan,-0.004196637,0.0038795797,0.0009624241,0.0,0.0,0.0,-0.026627414,0.020731024,0.0026147582,0.00274919,5.3696567e-06,9.487849e-07,-0.000130333,-0.100221395,0.12670486,0.013021286,-0.0008990974,0.0006526775,0.00016233575,0.0,0.023073945,nan,0.1,0.010000001,0.0,0.7272825,7.10025,6.980838,3.1530712,inf,inf,inf,inf,inf,0,0,0,0,1,1,1,1,0,0,0,0,0,1,0,1
4124000,4124000,0,nan,nan,-0.0043871026,0.004015175,0.0009887244,0.0,0.0,0.0,-0.027508235,0.021340191,0.003091558,0.0032157104,5.3696567e-06,9.487849e-07,-0.000130333,-0.10429229,0.07756129,0.05467934,-0.00091294415,0.0006795915,0.00015391962,0.0,0.023200694,nan,0.1,0.010000001,0.0,0.7426066,7.1025786,6.981785,3.1531117,inf,inf,inf,inf,inf,0,0,0,0,1,1,1,1,0,0,0,0,0,1,0,1
4140000,4140000,0,nan,nan,-0.0047930535,0.004303897,0.0010464753,0.0,0.0,0.0,-0.029291427,0.022901818,0.0032297259,0.0033343413,5.3696567e-06,9.487849e-07,-0.000130333,-0.11617479,0.11986997,0.010713934,-0.00096925505,0.0007350509,0.00010700093,0.0,0.023461875,nan,0.1,0.010000001,0.0,0.78437346,7.107503,6.9837475,3.1531951,inf,inf,inf,inf,inf,0,0,0,0,1,1,1,1,0,0,0,0,0,1,0,1
4148000,4148000,0,nan,nan,-0.005006811,0.0044597555,0.0010783419,0.0,0.0,0.0,-0.029737087,0.023684982,0.003547282,0.0036426191,5.3696567e-06,9.487849e-07,-0.000130333,-0.0501978,0.09920656,0.035193745,-0.0010215113,0.00076359604,5.874742e-05,0.0,0.023596298,nan,0.1,0.010000001,0.0,0.81024665,7.110098,6.9847517,3.1532383,inf,inf,inf,inf,inf,0,0,0,0,1,1,1,1,0,0,0,0,0,1,0,1
4156000,4156000,0,nan,nan,-0.0052273357,0.0046196575,0.0011151467,0.0,0.0,0.0,-0.03049819,0.023745386,0.0045519727,0.004638344,5.3696567e-06,9.487849e-07,-0.000130333,-0.089736454,0.008823845,0.12121768,-0.0010169278,0.0007926854,6.689929e-05,0.0,0.023733297,nan,0.1,0.010000001,0.0,0.83905137,7.1127815,6.985783,3.1532822,inf,inf,inf,inf,inf,0,0,0,0,1,1,1,1,0,0,0,0,0,1,0,1
4164000,4164000,0,nan,nan,-0.00545258,0.0047827885,0.0011597046,0.0,0.0,0.0,-0.030630358,0.024336843,0.005194292,0.005272,5.3696567e-06,9.487849e-07,-0.000130333,-0.011234032,0.07516946,0.07604993,-0.0010271521,0.000822318,5.9830432e-05,0.0,0.023872841,nan,0.1,0.010000001,0.0,0.8704982,7.1155534,6.9868417,3.1533267,inf,inf,inf,inf,inf,0,0,0,0,1,1,1,1,0,0,0,0,0,1,0,1
4180000,4180000,0,nan,nan,-0.005915735,0.005116827,0.0012507061,0.0,0.0,0.0,-0.031889718,0.0242247,0.0048823087,0.0049435585,5.3696567e-06,9.487849e-07,-0.000130333,-0.08555362,-0.02442933,-0.015480909,-0.0009637274,0.0008832149,0.0001284118,0.0,0.024159618,nan,0.1,0.010000001,0.0,0.94024247,7.121362,6.989046,3.1534185,inf,inf,inf,inf,inf,0,0,0,0,1,1,1,1,0,0,0,0,0,1,0,1
4188000,4188000,0,nan,nan,-0.006156828,0.005281999,0.0012957177,0.0,0.0,0.0,-0.032356616,0.024012681,0.004907047,0.004960483,5.3696567e-06,9.487849e-07,-0.000130333,-0.05343868,-0.025366502,-0.00078277657,-0.0009909004,0.0009144789,0.00010328018,0.0,0.024306845,nan,0.1,0.010000001,0.0,0.97805446,7.124399,6.9901786,3.1534657,inf,inf,inf,inf,inf,0,0,0,0,1,1,1,1,0,0,0,0,0,1,0,1
4196000,4196000,0,nan,nan,-0.0064044413,0.0054480983,0.0013412673,0.0,0.0,0.0,-0.03348077,0.023981292,0.0050088675,0.0050547533,5.3696567e-06,9.487849e-07,-0.000130333,-0.13571711,-0.0028177127,0.008967704,-0.001093117,0.0009462872,2.7753413e-06,0.0,0.024456643,nan,0.1,0.010000001,0.0,1.0175408,7.1275244,6.991331,3.1535137,inf,inf,inf,inf,inf,0,0,0,0,1,1,1,1,0,0,0,0,0,1,0,1
4204000,4204000,0,nan,nan,-0.0066621318,0.005614434,0.0013886095,0.0,0.0,0.0,-0.03437927,0.024148475,0.0053054863,0.005344077,5.3696567e-06,9.487849e-07,-0.000130333,-0.1076392,0.021977618,0.033429354,-0.001099012,0.0009786387,-1.7170096e-06,0.0,0.02460899,nan,0.1,0.010000001,0.0,1.0585157,7.130737,6.992503,3.153562,inf,inf,inf,inf,inf,0,0,0,0,1,1,1,1,0,0,0,0,0,1,0,1
4220000,4220000,0,nan,nan,-0.007191118,0.0059549008,0.0014913452,0.0,0.0,0.0,-0.03544776,0.024541473,0.0056321677,0.0056569004,5.3696567e-06,9.487849e-07,-0.000130333,-0.11558056,0.020082919,-0.012615695,-0.001139779,0.001044973,-4.0527084e-05,0.0,0.024921369,nan,0.1,0.010000001,0.0,1.144291,7.137425,6.9949455,3.153662,inf,inf,inf,inf,inf,0,0,0,0,1,1,1,1,0,0,0,0,0,1,0,1
4228000,4228000,0,nan,nan,-0.0074691684,0.0061292592,0.0015416571,0.0,0.0,0.0,-0.036757696,0.025148135,0.0053237583,0.005341911,5.3696567e-06,9.487849e-07,-0.000130333,-0.15945348,0.07681928,-0.041882038,-0.0011237419,0.001078956,-2.3897039e-05,0.0,0.025081404,nan,0.1,0.010000001,0.0,1.1888183,7.1409006,6.996194,3.1537127,inf,inf,inf,inf,inf,0,0,0,0,1,1,1,1,0,0,0,0,0,1,0,1
4236000,4236000,0,nan,nan,-0.007754304,0.006309152,0.0015929537,0.0,0.0,0.0,-0.037208654,0.025548447,0.006036334,0.0060481294,5.3696567e-06,9.487849e-07,-0.000130333,-0.05220495,0.05099906,0.085840926,-0.0010522413,0.0011134828,4.796218e-05,0.0,0.025244,nan,0.1,0.010000001,0.0,1.2342837,7.1444635,6.9974623,3.1537647,inf,inf,inf,inf,inf,0,0,0,0,1,1,1,1,0,0,0,0,0,1,0,1
4244000,4244000,0,nan,nan,-0.0080441125,0.006494502,0.0016519983,0.0,0.0,0.0,-0.03774852,0.026661035,0.00682473,0.006830382,5.3696567e-06,9.487849e-07,-0.000130333,-0.06344451,0.14000213,0.09541539,-0.0010227147,0.0011485532,7.763109e-05,0.0,0.025409147,nan,0.1,0.010000001,0.0,1.2805885,7.148114,6.9987564,3.1538174,inf,inf,inf,inf,inf,0,0,0,0,1,1,1,1,0,0,0,0,0,1,0,1
4260000,4260000,0,nan,nan,-0.008638835,0.006882255,0.0017780615,0.0,0.0,0.0,-0.038798846,0.027155425,0.007302139,0.0072961207,5.3696567e-06,9.487849e-07,-0.000130333,-0.06650325,0.01974554,0.034891997,-0.0010142446,0.0012203251,8.579821e-05,0.0,0.025747124,nan,0.1,0.010000001,0.0,1.3753811,7.1556764,7.0014286,3.1539257,inf,inf,inf,inf,inf,0,0,0,0,1,1,1,1,0,0,0,0,0,1,0,1
4268000,4268000,0,nan,nan,-0.008945493,0.007082433,0.0018461784,0.0,0.0,0.0,-0.03972549,0.028042965,0.007960715,0.007949156,5.3696567e-06,9.487849e-07,-0.000130333,-0.112132736,0.11178174,0.0794623,-0.0010350923,0.001257027,6.453495e-05,0.0,0.025919959,nan,0.1,0.010000001,0.0,1.4237261,7.159588,7.0028005,3.153981,inf,inf,inf,inf,inf,0,0,0,0,1,1,1,1,0,0,0,0,0,1,0,1
4276000,4276000,0,nan,nan,-0.009257772,0.0072871665,0.0019184654,0.0,0.0,0.0,-0.040138505,0.02838519,0.008309883,0.008292968,5.3696567e-06,9.487849e-07,-0.000130333,-0.048049964,0.043582648,0.040872484,-0.001102608,0.0012942726,-3.5527628e-06,0.0,0.026095353,nan,0.1,0.010000001,0.0,1.4726223,7.1635866,7.0041924,3.154037,inf,inf,inf,inf,inf,0,0,0,0,1,1,1,1,0,0,0,0,0,1,0,1
4284000,4284000,0,nan,nan,-0.009576453,0.0074969353,0.0019901413,0.0,0.0,0.0,-0.041032623,0.02894286,0.0076385285,0.0076164394,5.3696567e-06,9.487849e-07,-0.000130333,-0.1083083,0.07048522,-0.086608805,-0.0011615314,0.0013320618,-6.3190586e-05,0.0,0.026273306,nan,0.1,0.010000001,0.0,1.522018,7.1676717,7.005618,3.154094,inf,inf,inf,inf,inf,0,0,0,0,1,1,1,1,0,0,0,0,0,1,0,1
4300000,4300000,0,nan,nan,-0.0101057,0.007825686,0.0021124515,0.0,0.0,0.0,-0.041591648,0.028866997,0.008350999,0.008303989,5.3696567e-06,9.487849e-07,-0.000130333,-0.0816341,0.06437993,0.10649207,-0.0011785548,0.0005849369,-8.202018e-05,0.0,0.026494604,nan,0.100467995,0.010000001,0.0,0.6481983,5.830252,3.960706,3.1385972,inf,inf,inf,inf,inf,0,0,0,0,1,1,1,1,0,0,0,0,0,1,0,1
4308000,4308000,0,nan,nan,-0.0103116855,0.00794577,0.0021730368,0.0,0.0,0.0,-0.0415351,0.02908631,0.008678567,0.008612331,5.3696567e-06,9.487849e-07,-0.000130333,-0.047684748,0.07282939,0.03863638,-0.0012076658,0.00060130766,-0.00011219352,0.0,0.026679764,nan,0.1,0.010000001,0.0,0.66880894,5.8338,3.9619365,3.1386564,inf,inf,inf,inf,inf,0,0,0,0,1,1,1,1,0,0,0,0,0,1,0,1
4316000,4316000,0,nan,nan,-0.010518971,0.008065777,0.0022389,0.0,0.0,0.0,-0.041848682,0.028767964,0.009517712,0.009432926,5.3696567e-06,9.487849e-07,-0.000130333,-0.09238742,0.0043071546,0.10265409,-0.0011281336,0.0006179043,-3.381772e-05,0.0,0.026867477,nan,0.1,0.010000001,0.0,0.6902632,5.837453,3.963217,3.1387165,inf,inf,inf,inf,inf,0,0,0,0,1,1,1,1,0,0,0,0,0,1,0,1
4324000,4324000,0,nan,nan,-0.010731174,0.008182787,0.0023085594,0.0,0.0,0.0,-0.042711366,0.028428342,0.009550952,0.009448272,5.3696567e-06,9.487849e-07,-0.000130333,-0.15951395,0.0003750683,0.0019846482,-0.0011769629,0.00063472666,-8.388632e-05,0.0,0.027057743,nan,0.1,0.010000001,0.0,0.71248627,5.841212,3.9645567,3.1387773,inf,inf,inf,inf,inf,0,0,0,0,1,1,1,1,0,0,0,0,0,1,0,1
4340000,4340000,0,nan,nan,-0.0111660315,0.0084075555,0.0024564005,0.0,0.0,0.0,-0.04347792,0.02741791,0.010204932,0.010068351,5.3696567e-06,9.487849e-07,-0.000130333,-0.14081281,-0.027888346,0.009472015,-0.001385351,0.0006690493,-0.00029496138,0.0,0.027445951,nan,0.1,0.010000001,0.0,0.7589717,5.8490458,3.9673681,3.1389012,inf,inf,inf,inf,inf,0,0,0,0,1,1,1,1,0,0,0,0,0,1,0,1
4348000,4348000,0,nan,nan,-0.011296568,0.0084554795,0.002477799,0.0,0.0,0.0,-0.043707997,0.026782159,0.010262544,0.010037552,5.3696567e-06,9.487849e-07,-0.000130333,-0.15460771,0.009038832,0.027736181,-0.0013847512,0.0006865494,-0.0002957912,0.0,0.027302673,nan,0.10171853,0.010000001,0.0,0.5004822,5.773524,0.0014142136,0.001,inf,inf,inf,inf,inf,0,0,0,0,1,1,1,1,0,0,0,0,0,1,0,1
4356000,4356000,0,nan,nan,-0.011421188,0.008496482,0.0025030295,0.0,0.0,0.0,-0.042717244,0.026115963,0.010841766,0.010531249,5.3696567e-06,9.487849e-07,-0.000130333,0.0015765362,0.0026974175,0.092348546,-0.0013592088,0.0007042754,-0.00027171243,0.0,0.027501456,nan,0.1,0.010000001,0.0,0.5004822,5.773524,0.013765794,0.0033773314,inf,inf,inf,inf,inf,0,0,0,0,1,1,1,1,0,0,0,0,0,1,0,1
4364000,4364000,0,nan,nan,-0.011536192,0.008533161,0.002530388,0.0,0.0,0.0,-0.04177104,0.025941698,0.0107674105,0.0103741875,5.3696567e-06,9.487849e-07,-0.000130333,-0.0005145648,0.06172301,0.010078772,-0.00139288,0.00072222744,-0.00030688476,0.0,0.027702797,nan,0.10000001,0.010000001,0.0,0.50047636,5.773524,0.026872842,0.00518826,inf,inf,inf,inf,inf,0,0,0,0,1,1,1,1,0,0,0,0,0,1,0,1
4380000,4380000,0,nan,nan,-0.011738201,0.008600181,0.00258404,0.0,0.0,0.0,-0.04069708,0.02554087,0.010507587,0.009957132,5.3696567e-06,9.487849e-07,-0.000130333,-0.10789829,0.031942703,-0.00363728,-0.0012575429,0.00075880927,-0.00017463171,0.0,0.028113144,nan,0.1,0.010000001,0.0,0.5004473,5.773524,0.053460866,0.008567906,inf,inf,inf,inf,inf,0,0,0,0,1,1,1,1,0,0,0,0,0,1,0,1
4388000,4388000,0,nan,nan,-0.011836091,0.008626089,0.0026058806,0.0,0.0,0.0,-0.04134187,0.024679791,0.0094384905,0.008813376,5.3696567e-06,9.487849e-07,-0.000130333,-0.18953452,-0.031117748,-0.11588353,-0.0012859569,0.0007774391,-0.00020461448,0.0,0.028322149,nan,0.1,0.010000001,0.0,0.50042427,5.773524,0.066682786,0.01021309,inf,inf,inf,inf,inf,0,0,0,0,1,1,1,1,0,0,0,0,0,1,0,1
4396000,4396000,0,nan,nan,-0.011935092,0.00864574,0.002620827,0.0,0.0,0.0,-0.04099289,0.024276083,0.008703336,0.008006113,5.3696567e-06,9.487849e-07,-0.000130333,-0.062216636,0.023854457,-0.07465015,-0.0012722975,0.0007962952,-0.00019253336,0.0,0.028533725,nan,0.1,0.010000001,0.0,0.5003961,5.773524,0.079939984,0.011848348,inf,inf,inf,inf,inf,0,0,0,0,1,1,1,1,0,0,0,0,0,1,0,1
4404000,4404000,0,nan,nan,-0.0120240105,0.008662811,0.0026311819,0.0,0.0,0.0,-0.039839115,0.024228992,0.008283852,0.0075170076,5.3696567e-06,9.487849e-07,-0.000130333,0.041378748,0.06629546,-0.035686415,-0.0011501785,0.0008153768,-7.1996474e-05,0.0,0.028747842,nan,0.1,0.010000001,0.0,0.50036293,5.773524,0.09334632,0.013473382,inf,inf,inf,inf,inf,0,0,0,0,1,1,1,1,0,0,0,0,0,1,0,1
4420000,4420000,0,nan,nan,-0.012185116,0.00868298,0.0026408457,0.0,0.0,0.0,-0.039257377,0.022858579,0.007073718,0.00617485,5.3696567e-06,9.487849e-07,-0.000130333,-0.041257616,-0.022549132,-0.06547104,-0.0011159894,0.0008542179,-4.096236e-05,0.0,0.029183738,nan,0.1,0.010000001,0.0,0.50028354,5.773524,0.120202415,0.016712759,inf,inf,inf,inf,inf,0,0,0,0,1,1,1,1,0,0,0,0,0,1,0,1
4428000,4428000,0,nan,nan,-0.012259064,0.008683727,0.0026397726,0.0,0.0,0.0,-0.03905165,0.022421831,0.006846802,0.00588541,5.3696567e-06,9.487849e-07,-0.000130333,-0.06862187,0.011539026,-0.013017095,-0.0011771802,0.0008739773,-0.00010371581,0.0,0.02940552,nan,0.1,0.010000001,0.0,0.50023824,5.773524,0.13372526,0.018325618,inf,inf,inf,inf,inf,0,0,0,0,1,1,1,1,0,0,0,0,0,1,0,1
4436000,4436000,0,nan,nan,-0.012330196,0.008683262,0.0026394723,0.0,0.0,0.0,-0.03905445,0.022763593,0.007184275,0.006162608,5.3696567e-06,9.487849e-07,-0.000130333,-0.092013024,0.10695084,0.057091,-0.0011300892,0.0008939629,-5.8171572e-05,0.0,0.029629864,nan,0.1,0.010000001,0.0,0.50018996,5.773524,0.14746878,0.019939523,inf,inf,inf,inf,inf,0,0,0,0,1,1,1,1,0,0,0,0,0,1,0,1
4444000,4444000,0,nan,nan,-0.012400811,0.008687371,0.0026422932,0.0,0.0,0.0,-0.039323695,0.023660524,0.0072951852,0.0062154345,5.3696567e-06,9.487849e-07,-0.000130333,-0.12272261,0.174502,0.028342007,-0.0010394787,0.0009141744,3.0910713e-05,0.0,0.029856762,nan,0.1,0.010000001,0.0,0.50013936,5.773523,0.16117564,0.02154643,inf,inf,inf,inf,inf,0,0,0,0,1,1,1,1,0,0,0,0,0,1,0,1
4460000,4460000,0,nan,nan,-0.012545799,0.008695109,0.0026412152,0.0,0.0,0.0,-0.039754517,0.022756282,0.0067064534,0.005516889,5.3696567e-06,9.487849e-07,-0.000130333,-0.07108682,-0.0256483,0.0047418284,-0.000965889,0.0009552752,0.000101516314,0.0,0.030318223,nan,0.1,0.010000001,0.0,0.50003445,5.773522,0.1884814,0.02476384,inf,inf,inf,inf,inf,0,0,0,0,1,1,1,1,0,0,0,0,0,1,0,1
4468000,4468000,0,nan,nan,-0.012618018,0.008692656,0.0026412297,0.0,0.0,0.0,-0.040121585,0.022803387,0.007028513,0.0057871114,5.3696567e-06,9.487849e-07,-0.000130333,-0.12757336,0.06303213,0.05352264,-0.0009233403,0.0009761645,0.00014261459,0.0,0.030552786,nan,0.1,0.010000001,0.0,0.4999819,5.773521,0.20216785,0.026370615,inf,inf,inf,inf,inf,0,0,0,0,1,1,1,1,0,0,0,0,0,1,0,1
4476000,4476000,0,nan,nan,-0.012691512,0.0086922115,0.0026414255,0.0,0.0,0.0,-0.040411856,0.023179859,0.0068327133,0.005541451,5.3696567e-06,9.487849e-07,-0.000130333,-0.115657054,0.10256048,-0.011590774,-0.0010221567,0.0009972797,4.237803e-05,0.0,0.030789902,nan,0.1,0.010000001,0.0,0.49993062,5.7735205,0.21604274,0.027979476,inf,inf,inf,inf,inf,0,0,0,0,1,1,1,1,0,0,0,0,0,1,0,1
4484000,4484000,0,nan,nan,-0.012766432,0.0086920755,0.0026439251,0.0,0.0,0.0,-0.040665057,0.022997042,0.0074599693,0.0061207726,5.3696567e-06,9.487849e-07,-0.000130333,-0.10876251,0.03105532,0.09092036,-0.0009722749,0.0010186208,9.0872345e-05,0.0,0.031029575,nan,0.1,0.010000001,0.0,0.49988157,5.77352,0.22987732,0.02958299,inf,inf,inf,inf,inf,0,0,0,0,1,1,1,1,0,0,0,0,0,1,0,1
4500000,4500000,0,nan,nan,-0.012918012,0.008691059,0.0026469864,0.0,0.0,0.0,-0.041154113,0.023120547,0.0065270006,0.005097514,5.3696567e-06,9.487849e-07,-0.000130333,-0.1230165,0.050836105,-0.04295399,-0.00089831033,0.0010619808,0.00016216742,0.0,0.03151659,nan,0.1,0.010000001,0.0,0.49979493,5.7735186,0.25783697,0.03279758,inf,inf,inf,inf,inf,0,0,0,0,1,1,1,1,0,0,0,0,0,1,0,1
4508000,4508000,0,nan,nan,-0.013098016,0.008734186,0.0026463096,0.0,0.0,0.0,-0.028347462,0.017747141,0.006493912,0.005023122,0.013057425,-0.005601394,-0.000130333,-0.102082856,0.07787541,0.0073276456,-0.0009035065,0.00052015344,0.00015569275,0.0,0.03176391,nan,0.09996417,0.010000001,0.0,14.142136,5.00001,7.071068,0.034397732,inf,inf,inf,inf,inf,0,0,0,0,2,1,2,1,0,0,0,0,0,1,0,1
4516000,4516000,0,nan,nan,-0.013065762,0.008689229,0.0026445608,0.0,0.0,0.0,-0.02831067,0.018056285,0.0062749377,0.004764538,0.013057425,-0.005601394,-0.000130333,-0.06412647,0.08659321,-0.016239004,-0.000932323,0.0005308351,0.00012563594,0.0,0.032013804,nan,0.1,0.010000001,0.0,14.142249,5.0000095,7.071083,0.035998996,inf,inf,inf,inf,inf,0,0,0,0,2,1,2,1,0,0,0,0,0,1,0,1
4524000,4524000,0,nan,nan,-0.013030471,0.008647076,0.0026416972,0.0,0.0,0.0,-0.028697887,0.01864924,0.006081993,0.004533633,0.013057425,-0.005601394,-0.000130333,-0.11517347,0.1206859,-0.013306736,-0.00093769334,0.00054162514,0.00011906464,0.0,0.032266237,nan,0.1,0.010000001,0.0,14.142589,5.000009,7.071127,0.03759986,inf,inf,inf,inf,inf,0,0,0,0,2,1,2,1,0,0,0,0,0,1,0,1
4540000,4540000,0,nan,nan,-0.012964738,0.008558233,0.0026450583,0.0,0.0,0.0,-0.029759536,0.018021315,0.007444794,0.005825226,0.013057425,-0.005601394,-0.000130333,-0.13642786,0.026645048,0.10186154,-0.00085335504,0.000119308745,0.00017569319,0.0,0.019960193,nan,0.1,0.010000001,0.0,14.143946,5.0000086,7.071218,0.04079602,inf,inf,inf,inf,inf,0,0,0,0,2,1,2,1,0,0,0,0,0,1,0,1
4548000,4548000,0,nan,nan,-0.012935465,0.008511228,0.002653884,0.0,0.0,0.0,-0.030380718,0.017809551,0.0076734396,0.0060205846,0.013057425,-0.005601394,-0.000130333,-0.1360918,0.013861379,0.038348135,-0.00072844897,0.00012165076,0.00027383986,0.0,0.019965967,nan,0.1,0.010000001,0.0,14.144964,5.000008,7.071301,0.04239869,inf,inf,inf,inf,inf,0,0,0,0,2,1,2,1,0,0,0,0,0,1,0,1
4556000,4556000,0,nan,nan,-0.012903649,0.008458302,0.0026872726,0.0,0.0,0.0,-0.030576713,0.01786542,0.00819391,0.0065173605,0.013057425,-0.005601394,-0.000130333,-0.09363882,0.05584799,0.09095016,-0.00072830834,0.00012401553,0.00024701614,0.0,0.01995398,nan,0.09935085,0.010000001,0.0,14.142136,5.000003,0.0014142136,0.001,inf,inf,inf,inf,inf,0,0,0,0,2,1,2,1,0,0,0,0,0,1,0,1
4564000,4564000,0,nan,nan,-0.012871235,0.008408811,0.00272161,0.0,0.0,0.0,-0.030995084,0.018377678,0.008004817,0.0063050925,0.013057425,-0.005601394,-0.000130333,-0.118960164,0.11102648,0.0020652076,-0.00073620724,0.00012640301,0.00021196692,0.0,0.019959848,nan,0.1,0.010000001,0.0,14.142136,5.000003,0.012133816,0.0030301735,inf,inf,inf,inf,inf,0,0,0,0,2,1,2,1,0,0,0,0,0,1,0,1
4580000,4580000,0,nan,nan,-0.0128126135,0.00830505,0.0027745648,0.0,0.0,0.0,-0.032001015,0.017689677,0.006764871,0.0050203246,0.013057425,-0.005601394,-0.000130333,-0.13947268,0.016172564,-0.06595114,-0.00076147745,0.00013124626,0.0001317531,0.0,0.019971758,nan,0.1,0.010000001,0.0,14.142136,5.000003,0.03482999,0.005213429,inf,inf,inf,inf,inf,0,0,0,0,2,1,2,1,0,0,0,0,0,1,0,1
4588000,4588000,0,nan,nan,-0.0127886105,0.008250913,0.0027949277,0.0,0.0,0.0,-0.032751225,0.017665468,0.0069476133,0.0051814127,0.013057425,-0.005601394,-0.000130333,-0.15338697,0.038665142,0.04800269,-0.0007885339,0.00013370204,7.690489e-05,0.0,0.0199778,nan,0.1,0.010000001,0.0,14.142136,5.000003,0.046090115,0.0060820743,inf,inf,inf,inf,inf,0,0,0,0,2,1,2,1,0,0,0,0,0,1,0,1
4596000,4596000,0,nan,nan,-0.0127690425,0.008198323,0.0028141355,0.0,0.0,0.0,-0.033292826,0.01812645,0.0068359803,0.005048626,0.013057425,-0.005601394,-0.000130333,-0.12507004,0.09763873,0.011025461,-0.0008788044,0.00013618058,-4.1367777e-05,0.0,0.019983899,nan,0.1,0.010000001,0.0,14.142136,5.000003,0.05738461,0.006882958,inf,inf,inf,inf,inf,0,0,0,0,2,1,2,1,0,0,0,0,0,1,0,1
4604000,4604000,0,nan,nan,-0.012750618,0.008147754,0.002829535,0.0,0.0,0.0,-0.03327631,0.017919496,0.006152571,0.0043445523,0.013057425,-0.005601394,-0.000130333,-0.053120382,0.0125176385,-0.06061699,-0.0009205704,0.00013868188,-0.00011134159,0.0,0.019990057,nan,0.1,0.010000001,0.0,14.142136,5.000003,0.06876835,0.0076357215,inf,inf,inf,inf,inf,0,0,0,0,2,1,2,1,0,0,0,0,0,1,0,1
4620000,4620000,0,nan,nan,-0.012718409,0.008038136,0.0028485276,0.0,0.0,0.0,-0.03377722,0.017053535,0.0053938306,0.0035459122,0.013057425,-0.005601394,-0.000130333,-0.04438048,-0.010311232,-0.0793687,-0.0009255631,0.00014375272,-0.00017335668,0.0,0.020002529,nan,0.1,0.010000001,0.0,14.142136,5.000003,0.091367625,0.0090428945,inf,inf,inf,inf,inf,0,0,0,0,2,1,2,1,0,0,0,0,0,1,0,1
4628000,4628000,0,nan,nan,-0.012704516,0.007979862,0.0028498748,0.0,0.0,0.0,-0.034343958,0.0167859,0.0049859383,0.0031187786,0.013057425,-0.005601394,-0.000130333,-0.11983287,0.000275857,-0.026656779,-0.00081720104,0.00014632232,-9.38265e-05,0.0,0.020008855,nan,0.1,0.010000001,0.0,14.142136,5.000003,0.102714755,0.009713954,inf,inf,inf,inf,inf,0,0,0,0,2,1,2,1,0,0,0,0,0,1,0,1
4636000,4636000,0,nan,nan,-0.012694779,0.007925782,0.0028453819,0.0,0.0,0.0,-0.03457212,0.017923934,0.004043143,0.0021572018,0.013057425,-0.005601394,-0.000130333,-0.07554492,0.17450985,-0.093670554,-0.00083184044,0.0001489147,-0.0001375149,0.0,0.020015243,nan,0.1,0.010000001,0.0,14.142136,5.000003,0.1139509,0.010367025,inf,inf,inf,inf,inf,0,0,0,0,2,1,2,1,0,0,0,0,0,1,0,1
4644000,4644000,0,nan,nan,-0.012686054,0.007881393,0.002833344,0.0,0.0,0.0,-0.03468204,0.018804332,0.0035299566,0.0016256884,0.013057425,-0.005601394,-0.000130333,-0.058844596,0.1408612,-0.040116716,-0.0008800763,0.00015152975,-0.00021501124,0.0,0.020021671,nan,0.1,0.010000001,0.0,14.142136,5.000003,0.12534383,0.011006232,inf,inf,inf,inf,inf,0,0,0,0,2,1,2,1,0,0,0,0,0,1,0,1
4660000,4660000,0,nan,nan,-0.012680396,0.007810953,0.0028016174,0.0,0.0,0.0,-0.03553861,0.019630535,0.0036029571,0.0016633732,0.013057425,-0.005601394,-0.000130333,-0.06222285,0.058176257,0.054026484,-0.00062993466,0.00015682826,-2.4049077e-05,0.0,0.020034716,nan,0.1,0.010000001,0.0,14.142136,5.000003,0.14806475,0.012253332,inf,inf,inf,inf,inf,0,0,0,0,2,1,2,1,0,0,0,0,0,1,0,1
4668000,4668000,0,nan,nan,-0.012684823,0.007781066,0.0027854857,0.0,0.0,0.0,-0.035609405,0.019515136,0.0035655526,0.0016089657,0.013057425,-0.005601394,-0.000130333,-0.048480656,0.012270817,0.018934717,-0.000538615,0.00015951168,3.7351216e-05,0.0,0.02004132,nan,0.1,0.010000001,0.0,14.142136,5.000003,0.15942621,0.012862723,inf,inf,inf,inf,inf,0,0,0,0,2,1,2,1,0,0,0,0,0,1,0,1
4676000,4676000,0,nan,nan,-0.012693783,0.0077533005,0.0027675,0.0,0.0,0.0,-0.03569858,0.019558247,0.0033864744,0.0014133159,0.013057425,-0.005601394,-0.000130333,-0.04904012,0.030778522,0.001088716,-0.0004347238,0.00016221782,0.00011109738,0.0,0.020047981,nan,0.1,0.010000001,0.0,14.142137,5.000003,0.17078608,0.013467515,inf,inf,inf,inf,inf,0,0,0,0,2,1,2,1,0,0,0,0,0,1,0,1
4684000,4684000,0,nan,nan,-0.0127119925,0.007731261,0.0027452912,0.0,0.0,0.0,-0.036932666,0.020173123,0.0026509005,0.0006615892,0.013057425,-0.005601394,-0.000130333,-0.19047068,0.10098484,-0.06859935,-0.00043685504,0.00016494673,7.859676e-05,0.0,0.020054698,nan,0.1,0.010000001,0.0,14.142138,5.000003,0.18203495,0.014062568,inf,inf,inf,inf,inf,0,0,0,0,2,1,2,1,0,0,0,0,0,1,0,1
4700000,4700000,0,nan,nan,-0.012788299,0.0077076927,0.0026972236,0.0,0.0,0.0,-0.0389592,0.021013618,0.00339861,0.0013782317,0.013057425,-0.005601394,-0.000130333,-0.16873811,0.0714429,0.07054442,-0.0002587042,0.00017047291,0.0001962524,0.0,0.020068306,nan,0.1,0.010000001,0.0,14.14214,5.000003,0.20457943,0.015240178,inf,inf,inf,inf,inf,0,0,0,0,2,1,2,1,0,0,0,0,0,1,0,1
4708000,4708000,0,nan,nan,-0.012842194,0.007707266,0.002673175,0.0,0.0,0.0,-0.038953017,0.021885065,0.0028820788,0.000846772,0.013057425,-0.005601394,-0.000130333,-0.030738961,0.12952438,-0.041584015,-0.00014672797,0.00017327012,0.00027902762,0.0,0.020075195,nan,0.1,0.010000001,0.0,14.142141,5.000003,0.21583125,0.01582144,inf,inf,inf,inf,inf,0,0,0,0,2,1,2,1,0,0,0,0,0,1,0,1
4716000,4716000,0,nan,nan,-0.012855427,0.0076902155,0.0026431023,0.0,0.0,0.0,-0.03907936,0.021988118,0.0032101688,0.0011572285,0.013057425,-0.005601394,-0.000130333,-0.045847807,0.032397225,0.06331223,-8.441799e-05,0.00014972496,0.00031285052,0.0,0.020082109,nan,0.10011112,0.010000001,0.0,0.014142129,4.472138,0.2271636,0.016401155,inf,inf,inf,inf,inf,0,0,0,0,2,1,2,1,0,0,0,0,0,1,0,1
4724000,4724000,0,nan,nan,-0.012876294,0.007676174,0.0026160786,0.0,0.0,0.0,-0.039288186,0.021816306,0.0034753198,0.0014057015,0.013057425,-0.005601394,-0.000130333,-0.054754894,-0.0030130667,0.054789238,-4.462715e-05,0.00015214423,0.00032487218,0.0,0.020089105,nan,0.1,0.010000001,0.0,0.014258417,4.472138,0.23854266,0.016974041,inf,inf,inf,inf,inf,0,0,0,0,2,1,2,1,0,0,0,0,0,1,0,1
4740000,4740000,0,nan,nan,-0.01293769,0.0076580984,0.0025558756,0.0,0.0,0.0,-0.039368216,0.022301583,0.0032089064,0.0011086382,0.013057425,-0.005601394,-0.000130333,-0.030446352,0.080265515,0.050913073,0.00012945753,9.458944e-05,0.00047161226,0.0,0.019881444,nan,0.1,0.010000001,0.0,0.015247803,4.472138,0.26010624,0.01811495,inf,inf,inf,inf,inf,0,0,0,0,2,1,2,1,0,0,0,0,0,1,0,1
4748000,4748000,0,nan,nan,-0.012978054,0.0076569756,0.0025231645,0.0,0.0,0.0,-0.039476898,0.02236701,0.0025365467,0.0004223146,0.013057425,-0.005601394,-0.000130333,-0.037737947,0.03299478,-0.064236104,0.0001260094,9.6075884e-05,0.00046881463,0.0,0.019885082,nan,0.1,0.010000001,0.0,0.016141396,4.472138,0.27137652,0.018682212,inf,inf,inf,inf,inf,0,0,0,0,2,1,2,1,0,0,0,0,0,1,0,1
4756000,4756000,0,nan,nan,-0.013025671,0.0076582273,0.0024863617,0.0,0.0,0.0,-0.039875284,0.02198331,0.0024287344,0.0003014172,0.013057425,-0.005601394,-0.000130333,-0.072740436,-0.023857253,0.005749985,0.00014626353,9.757394e-05,0.0004906595,0.0,0.019888751,nan,0.1,0.010000001,0.0,0.017292665,4.472138,0.28272688,0.019241804,inf,inf,inf,inf,inf,0,0,0,0,2,1,2,1,0,0,0,0,0,1,0,1
4764000,4764000,0,nan,nan,-0.01304958,0.007645517,0.0024479704,0.0,0.0,0.0,-0.039787203,0.021270998,0.0023381545,0.00020142911,0.013057425,-0.005601394,-0.000130333,-0.1140012,-0.026319975,0.0024973413,5.915025e-05,9.908341e-05,0.00040607984,0.0,0.00089370064,nan,0.100028746,0.010000001,0.0,0.01414489,4.472138,0.0014142136,0.0010015551,inf,inf,inf,inf,inf,0,0,0,0,2,1,2,1,0,0,0,0,0,1,0,1
4780000,4780000,0,nan,nan,-0.013087032,0.0076172547,0.0023672262,0.0,0.0,0.0,-0.03847409,0.021522732,0.0021262476,-2.6613998e-05,0.013057425,-0.005601394,-0.000130333,-0.02841321,0.11494953,0.013944692,-2.9088224e-05,0.00010213717,0.00032671393,0.0,0.0008940691,nan,0.1,0.010000001,0.0,0.014145041,4.472138,0.006016185,0.004162775,inf,inf,inf,inf,inf,0,0,0,0,2,1,2,1,0,0,0,0,0,1,0,1
4788000,4788000,0,nan,nan,-0.013098394,0.0076097935,0.0023288599,0.0,0.0,0.0,-0.03843858,0.022093318,0.0024766233,0.00031695853,0.013057425,-0.005601394,-0.000130333,-0.12023714,0.13334918,0.056086104,-2.3984046e-05,0.00010368143,0.0003376317,0.0,0.0008942948,nan,0.1,0.010000001,0.0,0.014145265,4.472138,0.007430686,0.005091198,inf,inf,inf,inf,inf,0,0,0,0,2,1,2,1,0,0,0,0,0,1,0,1
4796000,4796000,0,nan,nan,-0.013109281,0.0076046926,0.0022902526,0.0,0.0,0.0,-0.03800592,0.022078604,0.0021682985,2.6516573e-06,0.013057425,-0.005601394,-0.000130333,-0.070505925,0.059995778,-0.026726628,-3.7746693e-05,0.000105237326,0.00033063864,0.0,0.00089454884,nan,0.1,0.010000001,0.0,0.014145708,4.472138,0.008689098,0.0058990554,inf,inf,inf,inf,inf,0,0,0,0,2,1,2,1,0,0,0,0,0,1,0,1
4804000,4804000,0,nan,nan,-0.013114462,0.0076004993,0.0022496656,0.0,0.0,0.0,-0.037439864,0.021989297,0.0018333436,-0.00033750007,0.013057425,-0.005601394,-0.000130333,-0.053744614,0.05050493,-0.030498484,-1.42525805e-05,0.000106804764,0.00036188445,0.0,0.0008948301,nan,0.1,0.010000001,0.0,0.014146464,4.472138,0.009851174,0.006630473,inf,inf,inf,inf,inf,0,0,0,0,2,1,2,1,0,0,0,0,0,1,0,1
4820000,4820000,0,nan,nan,-0.013110855,0.0075840675,0.0021659797,0.0,0.0,0.0,-0.036633156,0.021137541,0.0017094039,-0.00046947444,0.013057425,-0.005601394,-0.000130333,-0.10106221,0.026816731,-0.0057565044,-0.00010506834,0.00010997445,0.00028946472,0.0,0.00089547574,nan,0.1,0.010000001,0.0,0.014149352,4.472138,0.01199775,0.007946704,inf,inf,inf,inf,inf,0,0,0,0,2,1,2,1,0,0,0,0,0,1,0,1
4828000,4828000,0,nan,nan,-0.013103049,0.0075743953,0.0021233668,0.0,0.0,0.0,-0.036119282,0.021267695,0.0013965103,-0.0007852389,0.013057425,-0.005601394,-0.000130333,-0.06004838,0.07754255,-0.029105226,-0.00014823196,0.00011157664,0.0002569215,0.0,0.00089583965,nan,0.1,0.010000001,0.0,0.014151723,4.472138,0.013014477,0.0085541215,inf,inf,inf,inf,inf,0,0,0,0,2,1,2,1,0,0,0,0,0,1,0,1
4836000,4836000,0,nan,nan,-0.013092682,0.007567263,0.0020760389,0.0,0.0,0.0,-0.03623344,0.021464447,0.0005448612,-0.0016390712,0.013057425,-0.005601394,-0.000130333,-0.13855775,0.08578107,-0.096819356,-0.0001254164,0.00011319047,0.00029129087,0.0,0.0008962315,nan,0.1,0.010000001,0.0,0.014154884,4.472138,0.014007416,0.009136787,inf,inf,inf,inf,inf,0,0,0,0,2,1,2,1,0,0,0,0,0,1,0,1
4844000,4844000,0,nan,nan,-0.013083518,0.0075581875,0.0020234156,0.0,0.0,0.0,-0.03661693,0.020842059,4.3010805e-05,-0.002142422,0.013057425,-0.005601394,-0.000130333,-0.17218757,-0.016689418,-0.053470485,-9.460771e-05,0.000114815884,0.00033466783,0.0,0.00089665083,nan,0.1,0.010000001,0.0,0.014158979,4.472138,0.014973587,0.009699243,inf,inf,inf,inf,inf,0,0,0,0,2,1,2,1,0,0,0,0,0,1,0,1
4860000,4860000,4708000,47.3977508,8.5456073,-0.013393189,0.0075402358,0.0016784668,-0.0004734437,5.450251e-06,-488.10126,-0.03527459,0.020383244,0.00046214758,-0.0017241397,0.013057425,-0.005601394,-0.000130333,-0.0463032,-0.0035133888,0.020691192,-0.00012496667,0.000118101416,0.00033234784,0.0,0.00089757127,488.101,0.1000061,0.010000001,-488.10126,2.0,1.0,0.016863283,0.0107761,inf,inf,inf,inf,inf,0,1,0,1,3,3,2,1,0,0,1,1,0,3,0,1
4868000,4868000,4708000,47.3977508,8.5456073,-0.013369038,0.007523381,0.0016174316,-0.0004734437,5.450251e-06,-488.10126,-0.034749076,0.019890621,0.000467586,-0.0017179357,0.013057425,-0.005601394,-0.000130333,-0.058566492,-0.0005998517,0.008801929,-7.6079035e-05,0.000119761564,0.00039670718,0.0,0.0008980726,488.101,0.1000061,0.010000001,-488.10126,2.0,1.0,0.017787915,0.0112950215,inf,inf,inf,inf,inf,0,1,0,1,3,3,2,1,0,0,1,1,0,3,0,1
4876000,4876000,4708000,47.3977508,8.5456073,-0.013339316,0.0075034774,0.0015563965,-0.0004734437,5.450251e-06,-488.10126,-0.034309268,0.019580718,0.0006545286,-0.0015295967,0.013057425,-0.005601394,-0.000130333,-0.06930001,0.022231383,0.0311085,-0.00017830005,0.000121433295,0.00031088907,0.0,0.0008986013,488.101,0.1000061,0.010000001,-488.10126,2.0,1.0,0.018703777,0.011803236,inf,inf,inf,inf,inf,0,1,0,1,3,3,2,1,0,0,1,1,0,3,0,1
4884000,4884000,4708000,47.3977508,8.5456073,-0.013301152,0.0074818623,0.0015258789,-0.0004734437,5.450251e-06,-488.10126,-0.032906525,0.019529136,0.00027641765,-0.0019057175,0.013057425,-0.005601394,-0.000130333,0.051003497,0.05454366,-0.039895993,-0.0002462924,0.00012311662,0.0002601723,0.0,0.00089915725,488.101,0.1000061,0.010000001,-488.10126,2.0,1.0,0.019616993,0.012302139,inf,inf,inf,inf,inf,0,1,0,1,3,3,2,1,0,0,1,1,0,3,0,1
4900000,4900000,4708000,47.3977508,8.5456073,-0.013192096,0.0074353246,0.0014343262,-0.0004734437,5.450251e-06,-488.10126,-0.031289097,0.01864526,-2.9067713e-05,-0.0022055695,0.013057425,-0.005601394,-0.000130333,-0.042188574,-0.04176243,-0.0022058373,-0.0003128971,0.00012651813,0.00022988272,0.0,0.0009003517,488.101,0.1000061,0.010000001,-488.10126,2.0,1.0,0.021422919,0.013276109,inf,inf,inf,inf,inf,0,1,0,1,3,3,2,1,0,0,1,1,0,3,0,1
4908000,4908000,4708000,47.3977508,8.5456073,-0.013122671,0.0074069537,0.001373291,-0.0004734437,5.450251e-06,-488.10126,-0.029575525,0.01883404,2.2850436e-05,-0.00214998,0.013057425,-0.005601394,-0.000130333,0.08965188,0.08464496,0.012819654,-0.00037606942,0.00012823628,0.0001847287,0.0,0.0009009898,488.101,0.1000061,0.010000001,-488.10126,2.0,1.0,0.022318773,0.013752772,inf,inf,inf,inf,inf,0,1,0,1,3,3,2,1,0,0,1,1,0,3,0,1
4916000,4916000,4708000,47.3977508,8.5456073,-0.013036981,0.0073787705,0.0013122559,-0.0004734437,5.450251e-06,-488.10126,-0.028123843,0.01852561,-0.00043595379,-0.0026045775,0.013057425,-0.005601394,-0.000130333,0.05682777,0.022508021,-0.051332634,-0.000453951,0.00012996604,0.00012471934,0.0,0.00090165506,488.101,0.1000061,0.010000001,-488.10126,2.0,1.0,0.023211613,0.014223487,inf,inf,inf,inf,inf,0,1,0,1,3,3,2,1,0,0,1,1,0,3,0,1
4924000,4924000,4708000,47.3977508,8.5456073,-0.012941165,0.007346231,0.0012817383,-0.0004734437,5.450251e-06,-488.10126,-0.027347455,0.018001134,-0.0005183408,-0.0026823299,0.013057425,-0.005601394,-0.000130333,-0.027454026,-0.004574005,-0.0044587064,-0.00050185027,0.00013170732,9.452758e-05,0.0,0.00090234703,488.101,0.1000061,0.010000001,-488.10126,2.0,1.0000001,0.024103153,0.014688933,inf,inf,inf,inf,inf,0,1,0,1,3,3,2,1,0,0,1,1,0,3,0,1
4940000,4940000,4708000,47.3977508,8.5456073,-0.012720427,0.0072775627,0.001159668,-0.0004734437,5.450251e-06,-488.10126,-0.025697814,0.017507475,-0.0002993916,-0.0024529814,0.013057425,-0.005601394,-0.000130333,-0.057432428,-0.019838255,0.09912717,-0.000426606,9.705356e-05,0.00020688982,0.0,0.0008962412,488.101,0.1000061,0.010000001,-488.10126,2.0000002,1.0000004,0.02571428,0.015605692,inf,inf,inf,inf,inf,0,1,0,1,3,3,2,1,0,0,1,1,0,3,0,1
4948000,4948000,4708000,47.3977508,8.5456073,-0.012598049,0.0072369236,0.0011291504,-0.0004734437,5.450251e-06,-488.10126,-0.024707207,0.016902955,9.5332885e-05,-0.0020526215,0.013057425,-0.005601394,-0.000130333,-0.00077770615,-0.016218258,0.054720785,-0.00037478964,9.832418e-05,0.00027811475,0.0,0.00089664233,488.101,0.1000061,0.010000001,-488.10126,2.0000005,1.0000005,0.026586272,0.016057795,inf,inf,inf,inf,inf,0,1,0,1,3,3,2,1,0,0,1,1,0,3,0,1
4956000,4956000,4708000,47.3977508,8.5456073,-0.012465163,0.0071927276,0.0010681152,-0.0004734437,5.450251e-06,-488.10126,-0.023594962,0.016549736,-0.0004514078,-0.002593386,0.013057425,-0.005601394,-0.000130333,0.014845104,0.014933125,-0.06312038,-0.00036422175,9.960306e-05,0.00030789242,0.0,0.0008970617,488.101,0.1000061,0.010000001,-488.10126,2.0000007,1.0000006,0.02745715,0.016506197,inf,inf,inf,inf,inf,0,1,0,1,3,3,2,1,0,0,1,1,0,3,0,1
4964000,4964000,4708000,47.3977508,8.5456073,-0.012322538,0.007142519,0.0010375977,-0.0004734437,5.450251e-06,-488.10126,-0.022630803,0.015484079,-0.0010943522,-0.003229997,0.013057425,-0.005601394,-0.000130333,-0.0031578573,-0.074422844,-0.07531,-0.00030096603,0.000100890196,0.00039013592,0.0,0.00089749927,488.101,0.1000061,0.010000001,-488.10126,2.000001,1.0000007,0.028324615,0.01695116,inf,inf,inf,inf,inf,0,1,0,1,3,3,2,1,0,0,1,1,0,3,0,1
4980000,4980000,4708000,47.3977508,8.5456073,-0.012010276,0.007036548,0.00091552734,-0.0004734437,5.450251e-06,-488.10126,-0.021084884,0.015715832,-0.00075637846,-0.0028783667,0.013057425,-0.005601394,-0.000130333,-0.054395404,0.06467624,0.015508383,-0.00034337063,0.000103489096,0.00038483873,0.0,0.00089785876,488.101,0.1000061,0.010000001,-488.10126,2.0000014,1.0000012,0.029905122,0.01776643,inf,inf,inf,inf,inf,0,1,0,1,3,3,2,1,0,0,1,1,0,3,0,1
4988000,4988000,4708000,47.3977508,8.5456073,-0.011845104,0.006981214,0.00088500977,-0.0004734437,5.450251e-06,-488.10126,-0.020592738,0.014914309,-0.0015768552,-0.0036913892,0.013057425,-0.005601394,-0.000130333,-0.059956413,-0.04248517,-0.097883396,-0.00043471326,0.00010480102,0.00031162458,0.0,0.0008983485,488.101,0.1000061,0.010000001,-488.10126,2.0000017,1.0000014,0.030776015,0.018202513,inf,inf,inf,inf,inf,0,1,0,1,3,3,2,1,0,0,1,1,0,3,0,1
4996000,4996000,4708000,47.3977508,8.5456073,-0.011674899,0.0069220127,0.0008239746,-0.0004734437,5.450251e-06,-488.10126,-0.020152776,0.0147700375,-0.001465988,-0.0035724745,0.013057425,-0.005601394,-0.000130333,-0.06571504,0.039225653,0.018423421,-0.0005088609,0.00010612122,0.00025529237,0.0,0.0008988563,488.101,0.1000061,0.010000001,-488.10126,2.0000021,1.0000017,0.031644456,0.01863598,inf,inf,inf,inf,inf,0,1,0,1,3,3,2,1,0,0,1,1,0,3,0,1
5004000,5004000,4708000,47.3977508,8.5456073,-0.011500257,0.006861877,0.00076293945,-0.0004734437,5.450251e-06,-488.10126,-0.019722046,0.014521014,-0.001340003,-0.0034378418,0.013057425,-0.005601394,-0.000130333,-0.06600156,0.025652595,0.020177567,-0.0005518,0.000107449676,0.00022984066,0.0,0.0008993822,488.101,0.1000061,0.010000001,-488.10126,2.0000026,1.0000019,0.032506965,0.019067246,inf,inf,inf,inf,inf,0,1,0,1,3,3,2,1,0,0,1,1,0,3,0,1
5020000,5020000,4708000,47.3977508,8.5456073,-0.011131221,0.0067418725,0.0006713867,-0.0004734437,5.450251e-06,-488.10126,-0.018112695,0.014335959,-0.0015251314,-0.0036041932,0.013057425,-0.005601394,-0.000130333,-0.022645373,-0.0050216075,0.02487609,-0.0005086232,0.0001101314,0.0003068327,0.0,0.000900488,488.101,0.1000061,0.010000001,-488.10126,2.0000036,1.0000025,0.03423773,0.019923177,inf,inf,inf,inf,inf,0,1,0,1,3,3,2,1,0,0,1,1,0,3,0,1
5028000,5028000,4708000,47.3977508,8.5456073,-0.010934664,0.0066763754,0.00064086914,-0.0004734437,5.450251e-06,-488.10126,-0.017011466,0.013358619,-0.0013306926,-0.0033997386,0.013057425,-0.005601394,-0.000130333,0.020788942,-0.067032896,0.028348526,-0.0005002854,0.00011148468,0.0003314767,0.0,0.00090106815,488.101,0.1000061,0.010000001,-488.10126,2.000004,1.0000029,0.035103228,0.020348148,inf,inf,inf,inf,inf,0,1,0,1,3,3,2,1,0,0,1,1,0,3,0,1
5036000,5036000,4708000,47.3977508,8.5456073,-0.010728843,0.0066020866,0.000579834,-0.0004734437,5.450251e-06,-488.10126,-0.01599112,0.012113289,-0.001518689,-0.0035773078,0.013057425,-0.005601394,-0.000130333,0.011787587,-0.10113221,-0.019597353,-0.00054679706,0.000112846166,0.00030085715,0.0,0.0009016658,488.101,0.1000061,0.010000001,-488.10126,2.0000045,1.0000032,0.035974253,0.02077143,inf,inf,inf,inf,inf,0,1,0,1,3,3,2,1,0,0,1,1,0,3,0,1
5044000,5044000,4708000,47.3977508,8.5456073,-0.010515666,0.006519423,0.0005493164,-0.0004734437,5.450251e-06,-488.10126,-0.01525776,0.011286572,-0.0017528974,-0.0038006408,0.013057425,-0.005601394,-0.000130333,-0.022921057,-0.049438283,-0.025497748,-0.0005185169,0.000114215945,0.00034457757,0.0,0.0009022815,488.101,0.1000061,0.010000001,-488.10126,2.0000052,1.0000037,0.036845334,0.02119294,inf,inf,inf,inf,inf,0,1,0,1,3,3,2,1,0,0,1,1,0,3,0,1
5060000,5060000,4708000,47.3977508,8.5456073,-0.010067734,0.006350623,0.00045776367,-0.0004734437,5.450251e-06,-488.10126,-0.013471087,0.0110781025,-0.0019665207,-0.0039911605,0.013057425,-0.005601394,-0.000130333,-0.008488754,0.009983339,0.037466638,-0.00039359173,0.00011698036,0.00049895345,0.0,0.00090356724,488.101,0.1000061,0.010000001,-488.10126,2.0000067,1.0000046,0.038587987,0.02203126,inf,inf,inf,inf,inf,0,1,0,1,3,3,2,1,0,0,1,1,0,3,0,1
5068000,5068000,4708000,47.3977508,8.5456073,-0.00983215,0.0062597403,0.00039672852,-0.0004734437,5.450251e-06,-488.10126,-0.012373706,0.009652503,-0.002131202,-0.00414361,0.013057425,-0.005601394,-0.000130333,0.026445802,-0.12641966,-0.017186625,-0.0002488499,0.000118374905,0.00065775716,0.0,0.0009042364,488.101,0.1000061,0.010000001,-488.10126,2.0000074,1.0000051,0.03946535,0.022448277,inf,inf,inf,inf,inf,0,1,0,1,3,3,2,1,0,0,1,1,0,3,0,1
5076000,5076000,4708000,47.3977508,8.5456073,-0.009588124,0.0061603207,0.00036621094,-0.0004734437,5.450251e-06,-488.10126,-0.011240506,0.008947164,-0.0016233885,-0.0036230788,0.013057425,-0.005601394,-0.000130333,0.03232109,-0.037155546,0.06676744,-0.00019096174,0.00011977775,0.00072926865,0.0,0.00090492365,488.101,0.1000061,0.010000001,-488.10126,2.000008,1.0000057,0.040341273,0.022863802,inf,inf,inf,inf,inf,0,1,0,1,3,3,2,1,0,0,1,1,0,3,0,1
5084000,5084000,4708000,47.3977508,8.5456073,-0.009334402,0.0060555893,0.00030517578,-0.0004734437,5.450251e-06,-488.10126,-0.010117329,0.007972511,-0.0014837789,-0.003470217,0.013057425,-0.005601394,-0.000130333,0.032511063,-0.07159781,0.020636244,-9.3364215e-05,0.00012118883,0.00084004394,0.0,0.00090562843,488.101,0.1000061,0.010000001,-488.10126,2.000009,1.0000063,0.04122279,0.023278117,inf,inf,inf,inf,inf,0,1,0,1,3,3,2,1,0,0,1,1,0,3,0,1
5100000,5100000,4708000,47.3977508,8.5456073,-0.008795686,0.0058412175,0.00024414062,-0.0004734437,5.450251e-06,-488.10126,-0.0066066715,0.008499995,-0.001703805,-0.0036625,0.013057425,-0.005601394,-0.000130333,0.16256583,0.117594235,-0.10873842,-3.166415e-06,0.00012403585,0.00095517735,0.0,0.000907092,488.101,0.1000061,0.010000001,-488.10126,2.0000112,1.0000076,0.0429729,0.02410297,inf,inf,inf,inf,inf,0,1,0,1,3,3,2,1,0,0,1,1,0,3,0,1
5108000,5108000,4708000,47.3977508,8.5456073,-0.008506196,0.0057381243,0.00018310547,-0.0004734437,5.450251e-06,-488.10126,-0.005552622,0.008048741,-0.0022457696,-0.004190148,0.013057425,-0.005601394,-0.000130333,0.028528031,-0.008674938,-0.06486009,0.00017373923,0.00012547172,0.0011437706,0.0,0.0009078501,488.101,0.1000061,0.010000001,-488.10126,2.0000124,1.0000083,0.043860648,0.024513789,inf,inf,inf,inf,inf,0,1,0,1,3,3,2,1,0,0,1,1,0,3,0,1
5116000,5116000,4708000,47.3977508,8.5456073,-0.008210186,0.005629908,0.00015258789,-0.0004734437,5.450251e-06,-488.10126,-0.004433755,0.0072223432,-0.0025430105,-0.0044726464,0.013057425,-0.005601394,-0.000130333,0.038245697,-0.05643328,-0.034368593,0.00017323323,0.00012691584,0.0011544315,0.0,0.00090862584,488.101,0.1000061,0.010000001,-488.10126,2.0000136,1.0000091,0.044751506,0.024923528,inf,inf,inf,inf,inf,0,1,0,1,3,3,2,1,0,0,1,1,0,3,0,1
5124000,5124000,4708000,47.3977508,8.5456073,-0.007803169,0.0055161086,9.1552734e-05,0.0,0.0,-488.10126,-0.016757756,0.0064210887,-0.003088304,-0.0050027566,-0.0134160025,-0.00017775726,-0.000130333,0.036561154,-0.031947426,-0.065463126,0.00021491126,0.00012836822,0.001206775,0.0,0.00090941926,488.101,0.1000061,0.010000001,-488.10126,14.142136,1.0000099,7.071068,0.025332287,inf,inf,inf,inf,inf,0,1,0,1,4,3,3,1,0,0,1,1,0,3,0,1
5140000,5140000,4708000,47.3977508,8.5456073,-0.0074031814,0.005266859,3.0517578e-05,0.0,0.0,-488.10126,-0.014643593,0.0041912105,-0.002339339,-0.0042222636,-0.0134160025,-0.00017775726,-0.000130333,0.054961327,-0.0832227,0.027310101,0.00024386871,0.00010259272,0.0012575735,0.0,0.0009012672,488.101,0.1000061,0.010000001,-488.10126,14.142589,1.0000117,7.07107,0.026146805,inf,inf,inf,inf,inf,0,1,0,1,4,3,3,1,0,0,1,1,0,3,0,1
5148000,5148000,4708000,47.3977508,8.5456073,-0.007199953,0.005134124,-3.0517578e-05,0.0,0.0,-488.10126,-0.014430894,0.0038301405,-0.0028845542,-0.004751976,-0.0134160025,-0.00017775726,-0.000130333,-0.06805058,-0.0017656613,-0.06568571,0.00040490594,0.000103743805,0.0014298037,0.0,0.0009018179,488.101,0.1000061,0.010000001,-488.10126,14.143153,1.0000126,7.0710716,0.026552744,inf,inf,inf,inf,inf,0,1,0,1,4,3,3,1,0,0,1,1,0,3,0,1
5156000,5156000,4708000,47.3977508,8.5456073,-0.006999708,0.0050004097,-6.1035156e-05,0.0,0.0,-488.10126,-0.014286035,0.0036215805,-0.0033670287,-0.005218475,-0.0134160025,-0.00017775726,-0.000130333,-0.074708976,0.016403604,-0.05791662,0.00055672304,0.00010490131,0.0015923516,0.0,0.0009023819,488.101,0.1000061,0.010000001,-488.10126,14.143946,1.0000136,7.071073,0.02695786,inf,inf,inf,inf,inf,0,1,0,1,4,3,3,1,0,0,1,1,0,3,0,1
5164000,5164000,4708000,47.3977508,8.5456073,-0.006800942,0.004863517,-0.00012207031,0.0,0.0,-488.10126,-0.013483108,0.0028865635,-0.0040536006,-0.005889574,-0.0134160025,-0.00017775726,-0.000130333,0.0093864845,-0.050298568,-0.083502844,0.00054167735,0.00010606523,0.001587589,0.0,0.00090295915,488.101,0.1000061,0.010000001,-488.10126,14.144964,1.0000147,7.071075,0.027362278,inf,inf,inf,inf,inf,0,1,0,1,4,3,3,1,0,0,1,1,0,3,0,1
5180000,5180000,4708000,47.3977508,8.5456073,-0.0063952007,0.004583428,-0.00021362305,0.0,0.0,-488.10126,-0.011830933,0.0020928395,-0.002478116,-0.004283513,-0.0134160025,-0.00017775726,-0.000130333,0.008143036,-0.026611872,0.14037499,0.0005716745,0.00010841228,0.0016368263,0.0,0.00090415234,488.101,0.1000061,0.010000001,-488.10126,14.142144,1.0000167,0.2826167,0.027893571,inf,inf,inf,inf,inf,0,1,0,1,4,3,3,1,0,0,1,1,0,3,0,1
5188000,5188000,4708000,47.3977508,8.5456073,-0.006189701,0.004442679,-0.00024414062,0.0,0.0,-488.10126,-0.011100587,0.0024036334,-0.002021087,-0.0038104793,-0.0134160025,-0.00017775726,-0.000130333,0.00460744,0.07830758,0.059091482,0.0005868602,0.000109595436,0.0016609809,0.0,0.0009047692,488.101,0.1000061,0.010000001,-488.10126,14.142147,1.000018,0.2826459,0.028294628,inf,inf,inf,inf,inf,0,1,0,1,4,3,3,1,0,0,1,1,0,3,0,1
5196000,5196000,4708000,47.3977508,8.5456073,-0.005983565,0.004302789,-0.0002746582,0.0,0.0,-488.10126,-0.010369245,0.0018254321,-0.0026799077,-0.00445284,-0.0134160025,-0.00017775726,-0.000130333,0.006666124,-0.0337383,-0.08045649,0.0006557231,0.00011078501,0.0017383965,0.0,0.0009053992,488.101,0.1000061,0.010000001,-488.10126,14.14215,1.0000193,0.28267798,0.028694965,inf,inf,inf,inf,inf,0,1,0,1,4,3,3,1,0,0,1,1,0,3,0,1
5204000,5204000,4708000,47.3977508,8.5456073,-0.0057739243,0.0041580503,-0.00033569336,0.0,0.0,-488.10126,-0.0091013,0.0009524976,-0.0029679486,-0.0047248784,-0.0134160025,-0.00017775726,-0.000130333,0.075680986,-0.07150518,-0.03417255,0.0005673617,0.000111981004,0.0016581825,0.0,0.0009060424,488.101,0.1000061,0.010000001,-488.10126,14.142154,1.0000206,0.28271297,0.029094683,inf,inf,inf,inf,inf,0,1,0,1,4,3,3,1,0,0,1,1,0,3,0,1
5220000,5220000,4708000,47.3977508,8.5456073,-0.0053368337,0.0038616569,-0.00039672852,0.0,0.0,-488.10126,-0.0063748755,0.0004553263,-0.002626318,-0.0043525216,-0.0134160025,-0.00017775726,-0.000130333,0.08851356,0.016436268,0.038356517,0.0004620095,0.00011439227,0.0015679745,0.0,0.0009073684,488.101,0.1000061,0.010000001,-488.10126,14.142161,1.0000236,0.2827916,0.029892283,inf,inf,inf,inf,inf,0,1,0,1,4,3,3,1,0,0,1,1,0,3,0,1
5228000,5228000,4708000,47.3977508,8.5456073,-0.0051110894,0.0037109219,-0.00045776367,0.0,0.0,-488.10126,-0.0055265212,-0.000542684,-0.0026124355,-0.004323962,-0.0134160025,-0.00017775726,-0.000130333,0.02906891,-0.0898865,0.003380235,0.0005026257,0.000115607516,0.001615607,0.0,0.00090805104,488.101,0.1000061,0.010000001,-488.10126,14.142166,1.0000252,0.28283527,0.030290239,inf,inf,inf,inf,inf,0,1,0,1,4,3,3,1,0,0,1,1,0,3,0,1
5236000,5236000,4708000,47.3977508,8.5456073,-0.0048870603,0.003553203,-0.00048828125,0.0,0.0,-488.10126,-0.0054542264,-0.0014817346,-0.002011431,-0.0037078513,-0.0134160025,-0.00017775726,-0.000130333,-0.065995164,-0.08342435,0.07671117,0.00053077197,0.00011682922,0.0016504138,0.0,0.0009087471,488.101,0.1000061,0.010000001,-488.10126,14.142171,1.0000267,0.282882,0.030687647,inf,inf,inf,inf,inf,0,1,0,1,4,3,3,1,0,0,1,1,0,3,0,1
5244000,5244000,4708000,47.3977508,8.5456073,-0.00466567,0.0033925038,-0.0005187988,0.0,0.0,-488.10126,-0.00471307,-0.0017724595,-0.0015798127,-0.0032608272,-0.0134160025,-0.00017775726,-0.000130333,0.01955095,-0.0032803917,0.05548121,0.00061886804,0.00011805733,0.0017448253,0.0,0.00090945605,488.101,0.1000061,0.010000001,-488.10126,14.142176,1.0000285,0.28293163,0.031084547,inf,inf,inf,inf,inf,0,1,0,1,4,3,3,1,0,0,1,1,0,3,0,1
5260000,5260000,4708000,47.3977508,8.5456073,-0.0042169318,0.0030651104,-0.000579834,0.0,0.0,-488.10126,-0.0034877835,-0.0030213732,-0.0010945564,-0.00277297,-0.0134160025,-0.00017775726,-0.000130333,-0.04770143,-0.053688437,0.039082482,0.0008430201,0.000120532844,0.001980628,0.0,0.0009109135,488.101,0.1000061,0.010000001,-488.10126,14.142187,0.70711815,0.28304094,0.031876486,inf,inf,inf,inf,inf,0,1,0,1,4,3,3,1,0,0,1,1,0,3,0,1
5268000,5268000,4708000,47.3977508,8.5456073,-0.00399427,0.0028985012,-0.00064086914,0.0,0.0,-488.10126,-0.0026866384,-0.0030762102,-0.0017386078,-0.0034295206,-0.0134160025,-0.00017775726,-0.000130333,0.0327773,0.023568789,-0.079137266,0.00091084663,0.00012178019,0.002053816,0.0,0.00091166154,488.101,0.1000061,0.010000001,-488.10126,14.142194,0.7071195,0.2831002,0.032271877,inf,inf,inf,inf,inf,0,1,0,1,4,3,3,1,0,0,1,1,0,3,0,1
5276000,5276000,4708000,47.3977508,8.5456073,-0.0037736339,0.0027354767,-0.0007019043,0.0,0.0,-488.10126,-0.002775311,-0.00255886,-0.0017333275,-0.0034360425,-0.0134160025,-0.00017775726,-0.000130333,-0.076574296,0.09422941,0.001979526,0.00095342175,0.00012303403,0.0021014619,0.0,0.00091242295,488.101,0.1000061,0.010000001,-488.10126,14.1422,0.707121,0.28316274,0.03266681,inf,inf,inf,inf,inf,0,1,0,1,4,3,3,1,0,0,1,1,0,3,0,1
5284000,5284000,4708000,47.3977508,8.5456073,-0.0035536608,0.0025786078,-0.00076293945,0.0,0.0,-488.10126,-0.0021367583,-0.00221534,-0.001352064,-0.0030659107,-0.0134160025,-0.00017775726,-0.000130333,0.01619538,0.071648866,0.048929356,0.0009930407,0.00012429428,0.0021458743,0.0,0.0009131973,488.101,0.1000061,0.010000001,-488.10126,14.142207,0.7071227,0.283228,0.033061273,inf,inf,inf,inf,inf,0,1,0,1,4,3,3,1,0,0,1,1,0,3,0,1
5300000,5300000,4708000,47.3977508,8.5456073,-0.003107202,0.0022750353,-0.0008544922,0.0,0.0,-488.10126,-0.0012156898,-0.0019329606,-0.00069488975,-0.0024293326,-0.0134160025,-0.00017775726,-0.000130333,0.01056876,0.043268163,0.0028116626,0.0008311817,0.00012683407,0.0019927537,0.0,0.000914785,488.101,0.1000061,0.010000001,-488.10126,14.142222,0.7071262,0.28336897,0.033848856,inf,inf,inf,inf,inf,0,1,0,1,4,3,3,1,0,0,1,1,0,3,0,1
5308000,5308000,4708000,47.3977508,8.5456073,-0.0028763018,0.0021284448,-0.00088500977,0.0,0.0,-488.10126,0.00047472547,-0.0018204426,-0.0003669514,-0.0021107267,-0.0134160025,-0.00017775726,-0.000130333,0.15314248,0.04030185,0.042129304,0.00076941756,0.00012811362,0.0019348961,0.0,0.0009155986,488.101,0.1000061,0.010000001,-488.10126,14.142231,0.70712817,0.2834446,0.034241922,inf,inf,inf,inf,inf,0,1,0,1,4,3,3,1,0,0,1,1,0,3,0,1
5316000,5316000,4708000,47.3977508,8.5456073,-0.0026365765,0.0019813885,-0.00091552734,0.0,0.0,-488.10126,0.0015082471,-0.0024489656,-0.00016074283,-0.0019130468,-0.0134160025,-0.00017775726,-0.000130333,0.072811306,-0.053125925,0.026870983,0.00073990657,0.0001293996,0.0019089986,0.0,0.000916425,488.101,0.1000061,0.010000001,-488.10126,14.14224,0.70713025,0.28352374,0.034634754,inf,inf,inf,inf,inf,0,1,0,1,4,3,3,1,0,0,1,1,0,3,0,1
5324000,5324000,4708000,47.3977508,8.5456073,-0.0023949263,0.0018332489,-0.0009765625,0.0,0.0,-488.10126,0.0014835247,-0.0025454368,-0.00072292954,-0.0024829614,-0.0134160025,-0.00017775726,-0.000130333,-0.057719644,0.012594734,-0.06921915,0.00074792566,0.00013069194,0.0019203501,0.0,0.0009172639,488.101,0.1000061,0.010000001,-488.10126,14.142248,0.70713246,0.28360552,0.035027213,inf,inf,inf,inf,inf,0,1,0,1,4,3,3,1,0,0,1,1,0,3,0,1
5340000,5340000,4708000,47.3977508,8.5456073,-0.0019584692,0.0015646993,-0.0010375977,0.0,0.0,-488.10126,0.00050718687,-0.0020630509,-0.0015705359,-0.0033445407,-0.0134160025,-0.00017775726,-0.000130333,-0.068198025,0.13367313,-0.07751211,0.00051700784,0.000109525245,0.0017431083,0.0,0.00090784364,488.101,0.1000061,0.010000001,-488.10126,0.014323044,0.7071372,0.28374162,0.035811014,inf,inf,inf,inf,inf,0,1,0,1,4,3,3,1,0,0,1,1,0,3,0,1
5348000,5348000,4708000,47.3977508,8.5456073,-0.0017437908,0.0014393063,-0.0010986328,0.0,0.0,-488.10126,0.0010157491,-0.0018222228,-0.0025225158,-0.0043029767,-0.0134160025,-0.00017775726,-0.000130333,0.014404984,0.05295325,-0.11805537,0.0004367904,0.00011060036,0.0017134942,0.0,0.0009084797,488.101,0.1000061,0.010000001,-488.10126,0.014852727,0.70713985,0.28383043,0.036202427,inf,inf,inf,inf,inf,0,1,0,1,4,3,3,1,0,0,1,1,0,3,0,1
5356000,5356000,4708000,47.3977508,8.5456073,-0.0015274854,0.0013134965,-0.001159668,0.0,0.0,-488.10126,0.0017559517,-0.0023963056,-0.0025311192,-0.0043175723,-0.0134160025,-0.00017775726,-0.000130333,0.0449994,-0.049631443,-0.00016717239,0.00034803888,0.000111680696,0.0016753471,0.0,0.00090912584,488.101,0.1000061,0.010000001,-488.10126,0.01569618,0.7071426,0.28392226,0.036593627,inf,inf,inf,inf,inf,0,1,0,1,4,3,3,1,0,0,1,1,0,3,0,1
