timestamp,timestamp_sample,latitude_deg,longitude_deg,altitude_msl_m,altitude_ellipsoid_m,time_utc_usec,device_id,s_variance_m_s,c_variance_rad,eph,epv,hdop,vdop,noise_per_ms,jamming_indicator,vel_m_s,vel_n_m_s,vel_e_m_s,vel_d_m_s,cog_rad,timestamp_time_relative,heading,heading_offset,heading_accuracy,rtcm_injection_rate,automatic_gain_control,fix_type,jamming_state,spoofing_state,vel_ned_valid,satellites_used,selected_rtcm_instance,rtcm_crc_failed,rtcm_msg_used
3920000,0,47.3977508,8.5456074,488.104,488.104,1757596730690401,11468804,0.25,0.5,1.0,1.0,0.0,0.0,0,0,0.0,0.0,0.0,0.02,3.021514,0,nan,nan,0.0,0.0,0,3,0,0,1,10,0,0,0
4320000,0,47.3977508,8.5456074,488.11,488.11,1757596731090401,0,0.25,0.5,1.0,1.0,0.0,0.0,0,0,0.0,0.0,-0.01,0.01,5.0005426,0,nan,nan,0.0,0.0,0,3,0,0,1,10,0,0,0
4720000,0,47.3977508,8.5456073,488.101,488.101,1757596731490401,0,0.25,0.5,1.0,1.0,0.0,0.0,0,0,0.0,0.0,0.01,0.01,1.6543976,0,nan,nan,0.0,0.0,0,3,0,0,1,10,0,0,0
5120000,0,47.3977508,8.5456074,488.103,488.103,1757596731890401,0,0.25,0.5,1.0,1.0,0.0,0.0,0,0,0.0,0.01,0.0,-0.03,0.39060467,0,nan,nan,0.0,0.0,0,3,0,0,1,10,0,0,0
5520000,0,47.3977508,8.5456074,488.101,488.101,1757596732286401,0,0.25,0.5,1.0,1.0,0.0,0.0,0,0,0.0,0.01,0.0,-0.03,5.8252106,0,nan,nan,0.0,0.0,0,3,0,0,1,10,0,0,0
5920000,0,47.3977508,8.5456074,488.098,488.098,1757596732686401,0,0.25,0.5,1.0,1.0,0.0,0.0,0,0,0.0,0.0,0.0,-0.03,0.7305948,0,nan,nan,0.0,0.0,0,3,0,0,1,10,0,0,0
6324000,0,47.3977508,8.5456074,488.103,488.103,1757596733090401,0,0.25,0.5,1.0,1.0,0.0,0.0,0,0,0.0,0.0,0.0,-0.04,0.972672,0,nan,nan,0.0,0.0,0,3,0,0,1,10,0,0,0
6720000,0,47.3977508,8.5456074,488.096,488.096,1757596733490401,0,0.25,0.5,1.0,1.0,0.0,0.0,0,0,0.0,0.0,0.0,0.02,2.1193533,0,nan,nan,0.0,0.0,0,3,0,0,1,10,0,0,0
7120000,0,47.3977508,8.5456074,488.108,488.108,1757596733890401,0,0.25,0.5,1.0,1.0,0.0,0.0,0,0,0.0,0.0,0.0,0.04,5.7756433,0,nan,nan,0.0,0.0,0,3,0,0,1,10,0,0,0
7520000,0,47.3977508,8.5456074,488.10900000000004,488.10900000000004,1757596734286401,0,0.25,0.5,1.0,1.0,0.0,0.0,0,0,0.0,0.0,0.01,0.02,1.362404,0,nan,nan,0.0,0.0,0,3,0,0,1,10,0,0,0
7920000,0,47.3977508,8.5456074,488.104,488.104,1757596734686401,0,0.25,0.5,1.0,1.0,0.0,0.0,0,0,0.0,0.0,0.0,0.02,5.289395,0,nan,nan,0.0,0.0,0,3,0,0,1,10,0,0,0
8320000,0,47.3977508,8.5456074,488.101,488.101,1757596735090401,0,0.25,0.5,1.0,1.0,0.0,0.0,0,0,0.0,-0.01,-0.01,0.03,4.1149626,0,nan,nan,0.0,0.0,0,3,0,0,1,10,0,0,0
8720000,0,47.397750699999996,8.5456074,488.105,488.105,1757596735486401,0,0.25,0.5,1.0,1.0,0.0,0.0,0,0,0.0,0.0,0.0,-0.01,4.082674,0,nan,nan,0.0,0.0,0,3,0,0,1,10,0,0,0
9120000,0,47.3977508,8.5456074,488.103,488.103,1757596735886401,0,0.25,0.5,1.0,1.0,0.0,0.0,0,0,0.0,-0.02,0.0,0.049999997,3.0592132,0,nan,nan,0.0,0.0,0,3,0,0,1,10,0,0,0
9520000,0,47.3977508,8.5456074,488.106,488.106,1757596736290401,0,0.25,0.5,1.0,1.0,0.0,0.0,0,0,0.0,0.0,0.0,-0.01,5.9728656,0,nan,nan,0.0,0.0,0,3,0,0,1,10,0,0,0
9920000,0,47.3977508,8.5456074,488.101,488.101,1757596736686401,0,0.25,0.5,1.0,1.0,0.0,0.0,0,0,0.0,0.0,-0.02,0.0,5.007873,0,nan,nan,0.0,0.0,0,3,0,0,1,10,0,0,0
10320000,0,47.3977508,8.5456074,488.094,488.094,1757596737090401,0,0.25,0.5,1.0,1.0,0.0,0.0,0,0,0.0,-0.01,0.0,0.0,2.924997,0,nan,nan,0.0,0.0,0,3,0,0,1,10,0,0,0
10720000,0,47.3977508,8.5456075,488.092,488.092,1757596737486401,0,0.25,0.5,1.0,1.0,0.0,0.0,0,0,0.0,-0.01,0.01,0.0,2.3263493,0,nan,nan,0.0,0.0,0,3,0,0,1,10,0,0,0
11120000,0,47.3977508,8.5456074,488.096,488.096,1757596737886401,0,0.25,0.5,1.0,1.0,0.0,0.0,0,0,0.0,0.0,0.0,0.02,2.4801128,0,nan,nan,0.0,0.0,0,3,0,0,1,10,0,0,0
11520000,0,47.3977508,8.5456074,488.09700000000004,488.09700000000004,1757596738290401,0,0.25,0.5,1.0,1.0,0.0,0.0,0,0,0.0,0.01,-0.02,0.01,5.4747486,0,nan,nan,0.0,0.0,0,3,0,0,1,10,0,0,0
11920000,0,47.3977508,8.5456074,488.113,488.113,1757596738686401,0,0.25,0.5,1.0,1.0,0.0,0.0,0,0,0.0,0.01,0.0,0.02,0.23998277,0,nan,nan,0.0,0.0,0,3,0,0,1,10,0,0,0
12124000,0,47.3977508,8.5456074,488.108,488.108,1757596738894401,0,0.25,0.5,1.0,1.0,0.0,0.0,0,0,0.0,0.0,-0.01,-0.02,4.5382047,0,nan,nan,0.0,0.0,0,3,0,0,1,10,0,0,0
12520000,0,47.397750699999996,8.5456073,488.115,488.115,1757596739290401,0,0.25,0.5,1.0,1.0,0.0,0.0,0,0,0.0,-0.01,0.0,0.01,3.3574898,0,nan,nan,0.0,0.0,0,3,0,0,1,10,0,0,0
12920000,0,47.3977508,8.5456074,488.096,488.096,1757596739686401,0,0.25,0.5,1.0,1.0,0.0,0.0,0,0,0.0,0.0,-0.01,0.0,4.7446775,0,nan,nan,0.0,0.0,0,3,0,0,1,10,0,0,0
13316000,0,47.3977508,8.5456074,488.099,488.099,1757596740090401,0,0.25,0.5,1.0,1.0,0.0,0.0,0,0,0.0,-0.01,-0.01,-0.03,3.9543924,0,nan,nan,0.0,0.0,0,3,0,0,1,10,0,0,0
13720000,0,47.3977508,8.5456074,488.101,488.101,1757596740486401,0,0.25,0.5,1.0,1.0,0.0,0.0,0,0,0.0,0.0,0.0,0.0,2.3752184,0,nan,nan,0.0,0.0,0,3,0,0,1,10,0,0,0
14124000,0,47.397750699999996,8.5456074,488.101,488.101,1757596740894401,0,0.25,0.5,1.0,1.0,0.0,0.0,0,0,0.0,0.0,0.01,0.03,2.2006855,0,nan,nan,0.0,0.0,0,3,0,0,1,10,0,0,0
14524000,0,47.3977508,8.5456073,488.1,488.1,1757596741290401,0,0.25,0.5,1.0,1.0,0.0,0.0,0,0,0.0,0.02,-0.01,-0.01,5.5970964,0,nan,nan,0.0,0.0,0,3,0,0,1,10,0,0,0
14924000,0,47.3977508,8.5456074,488.101,488.101,1757596741694401,0,0.25,0.5,1.0,1.0,0.0,0.0,0,0,0.0,0.0,0.0,0.0,3.8179078,0,nan,nan,0.0,0.0,0,3,0,0,1,10,0,0,0
15128000,0,47.3977508,8.5456074,488.103,488.103,1757596741894401,0,0.25,0.5,1.0,1.0,0.0,0.0,0,0,0.0,0.0,0.0,-0.01,0.0,0,nan,nan,0.0,0.0,0,3,0,0,1,10,0,0,0
15524000,0,47.3977508,8.5456074,488.108,488.108,1757596742290401,0,0.25,0.5,1.0,1.0,0.0,0.0,0,0,0.0,0.02,0.0,-0.02,0.1940806,0,nan,nan,0.0,0.0,0,3,0,0,1,10,0,0,0
15924000,0,47.3977508,8.5456074,488.115,488.115,1757596742694401,0,0.25,0.5,1.0,1.0,0.0,0.0,0,0,0.0,-0.01,0.0,0.0,3.5782738,0,nan,nan,0.0,0.0,0,3,0,0,1,10,0,0,0
16324000,0,47.3977508,8.5456074,488.099,488.099,1757596743090401,0,0.25,0.5,1.0,1.0,0.0,0.0,0,0,0.0,0.0,0.0,0.01,2.9140015,0,nan,nan,0.0,0.0,0,3,0,0,1,10,0,0,0
16724000,0,47.3977508,8.5456073,488.104,488.104,1757596743490401,0,0.25,0.5,1.0,1.0,0.0,0.0,0,0,0.0,0.0,0.01,-0.01,1.0936233,0,nan,nan,0.0,0.0,0,3,0,0,1,10,0,0,0
17124000,0,47.3977508,8.5456074,488.099,488.099,1757596743894401,0,0.25,0.5,1.0,1.0,0.0,0.0,0,0,0.0,0.0,0.01,0.0,1.1948524,0,nan,nan,0.0,0.0,0,3,0,0,1,10,0,0,0
17524000,0,47.3977508,8.5456074,488.10200000000003,488.10200000000003,1757596744294401,0,0.25,0.5,1.0,1.0,0.0,0.0,0,0,0.0,-0.01,0.0,-0.01,3.3201396,0,nan,nan,0.0,0.0,0,3,0,0,1,10,0,0,0
17920000,0,47.3977508,8.5456074,488.106,488.106,1757596744690401,0,0.25,0.5,1.0,1.0,0.0,0.0,0,0,0.0,-0.02,0.02,-0.03,2.2739894,0,nan,nan,0.0,0.0,0,3,0,0,1,10,0,0,0
18324000,0,47.3977508,8.5456074,488.106,488.106,1757596745090401,0,0.25,0.5,1.0,1.0,0.0,0.0,0,0,0.0,-0.01,0.0,0.02,3.6709511,0,nan,nan,0.0,0.0,0,3,0,0,1,10,0,0,0
18724000,0,47.3977508,8.5456074,488.103,488.103,1757596745490401,0,0.25,0.5,1.0,1.0,0.0,0.0,0,0,0.0,0.0,0.0,0.0,3.5236452,0,nan,nan,0.0,0.0,0,3,0,0,1,10,0,0,0
19124000,0,47.3977508,8.5456073,488.098,488.098,1757596745894401,0,0.25,0.5,1.0,1.0,0.0,0.0,0,0,0.0,-0.01,0.0,0.0,2.5951302,0,nan,nan,0.0,0.0,0,3,0,0,1,10,0,0,0
19524000,0,47.3977508,8.5456074,488.1,488.1,1757596746294401,0,0.25,0.5,1.0,1.0,0.0,0.0,0,0,0.0,0.0,0.0,0.0,4.9385834,0,nan,nan,0.0,0.0,0,3,0,0,1,10,0,0,0
19924000,0,47.3977508,8.5456074,488.103,488.103,1757596746690401,0,0.25,0.5,1.0,1.0,0.0,0.0,0,0,0.0,0.0,0.0,0.02,5.8466783,0,nan,nan,0.0,0.0,0,3,0,0,1,10,0,0,0
20324000,0,47.3977508,8.5456074,488.099,488.099,1757596747090401,0,0.25,0.5,1.0,1.0,0.0,0.0,0,0,0.0,0.0,0.0,-0.01,5.395336,0,nan,nan,0.0,0.0,0,3,0,0,1,10,0,0,0
20524000,0,47.3977508,8.5456074,488.105,488.105,1757596747294401,0,0.25,0.5,1.0,1.0,0.0,0.0,0,0,0.0,0.0,-0.01,0.04,4.9623203,0,nan,nan,0.0,0.0,0,3,0,0,1,10,0,0,0
20924000,0,47.3977508,8.5456073,488.112,488.112,1757596747690401,0,0.25,0.5,1.0,1.0,0.0,0.0,0,0,0.0,0.0,0.0,-0.03,4.9846606,0,nan,nan,0.0,0.0,0,3,0,0,1,10,0,0,0
21320000,0,47.3977508,8.5456074,488.105,488.105,1757596748090401,0,0.25,0.5,1.0,1.0,0.0,0.0,0,0,0.0,0.01,0.0,0.0,5.928883,0,nan,nan,0.0,0.0,0,3,0,0,1,10,0,0,0
21724000,0,47.3977508,8.5456075,488.108,488.108,1757596748490401,0,0.25,0.5,1.0,1.0,0.0,0.0,0,0,0.0,0.0,0.01,0.01,1.7313665,0,nan,nan,0.0,0.0,0,3,0,0,1,10,0,0,0
22124000,0,47.3977508,8.5456075,488.11400000000003,488.11400000000003,1757596748894401,0,0.25,0.5,1.0,1.0,0.0,0.0,0,0,0.0,0.01,0.0,-0.04,5.867448,0,nan,nan,0.0,0.0,0,3,0,0,1,10,0,0,0
22524000,0,47.3977508,8.5456075,488.103,488.103,1757596749294401,0,0.25,0.5,1.0,1.0,0.0,0.0,0,0,0.0,0.02,0.0,0.01,6.0849156,0,nan,nan,0.0,0.0,0,3,0,0,1,10,0,0,0
22924000,0,47.3977508,8.5456074,488.117,488.117,1757596749690401,0,0.25,0.5,1.0,1.0,0.0,0.0,0,0,0.03,-0.03,0.04,-0.089999996,2.280796,0,nan,nan,0.0,0.0,0,3,0,0,1,10,0,0,0
23324000,0,47.3977505,8.5456079,488.236,488.236,1757596750090401,0,0.25,0.5,1.0,1.0,0.0,0.0,0,0,0.17999999,-0.12,0.12,-0.44,2.3853414,0,nan,nan,0.0,0.0,0,3,0,0,1,10,0,0,0
23724000,0,47.3977499,8.5456085,488.47700000000003,488.47700000000003,1757596750490401,0,0.25,0.5,1.0,1.0,0.0,0.0,0,0,0.17999999,-0.14999999,0.099999994,-0.71,2.547308,0,nan,nan,0.0,0.0,0,3,0,0,1,10,0,0,0
24124000,0,47.397749399999995,8.5456088,488.79200000000003,488.79200000000003,1757596750894401,0,0.25,0.5,1.0,1.0,0.0,0.0,0,0,0.11,-0.08,0.02,-0.81,2.8225465,0,nan,nan,0.0,0.0,0,3,0,0,1,10,0,0,0
24524000,0,47.3977491,8.5456089,489.113,489.113,1757596751294401,0,0.25,0.5,1.0,1.0,0.0,0.0,0,0,0.049999997,-0.049999997,-0.01,-0.78,3.326423,0,nan,nan,0.0,0.0,0,3,0,0,1,10,0,0,0
24924000,0,47.397749,8.545608699999999,489.418,489.418,1757596751690401,0,0.25,0.5,1.0,1.0,0.0,0.0,0,0,0.049999997,-0.01,-0.04,-0.79999995,4.3624506,0,nan,nan,0.0,0.0,0,3,0,0,1,10,0,0,0
25324000,0,47.397749,8.5456083,489.726,489.726,1757596752090401,0,0.25,0.5,1.0,1.0,0.0,0.0,0,0,0.07,0.03,-0.08,-0.78,5.0750685,0,nan,nan,0.0,0.0,0,3,0,0,1,10,0,0,0
25724000,0,47.3977492,8.5456079,490.02,490.02,1757596752490401,0,0.25,0.5,1.0,1.0,0.0,0.0,0,0,0.08,0.04,-0.07,-0.71,5.246634,0,nan,nan,0.0,0.0,0,3,0,0,1,10,0,0,0
25924000,0,47.3977492,8.5456077,490.169,490.169,1757596752694401,0,0.25,0.5,1.0,1.0,0.0,0.0,0,0,0.08,0.03,-0.07,-0.69,5.2185345,0,nan,nan,0.0,0.0,0,3,0,0,1,10,0,0,0
26324000,0,47.397749399999995,8.5456073,490.422,490.422,1757596753090401,0,0.25,0.5,1.0,1.0,0.0,0.0,0,0,0.07,0.03,-0.04,-0.61,5.3435,0,nan,nan,0.0,0.0,0,3,0,0,1,10,0,0,0
26724000,0,47.3977496,8.545607,490.588,490.588,1757596753490401,0,0.25,0.5,1.0,1.0,0.0,0.0,0,0,0.06,0.07,-0.049999997,-0.26,5.586624,0,nan,nan,0.0,0.0,0,3,0,0,1,10,0,0,0
27128000,0,47.3977498,8.5456068,490.671,490.671,1757596753894401,0,0.25,0.5,1.0,1.0,0.0,0.0,0,0,0.06,0.049999997,-0.07,-0.21,5.376312,0,nan,nan,0.0,0.0,0,3,0,0,1,10,0,0,0
27524000,0,47.397749999999995,8.5456067,490.76,490.76,1757596754294401,0,0.25,0.5,1.0,1.0,0.0,0.0,0,0,0.04,0.06,-0.02,-0.16,5.9527946,0,nan,nan,0.0,0.0,0,3,0,0,1,10,0,0,0
27924000,0,47.397750099999996,8.5456067,490.82,490.82,1757596754690401,0,0.25,0.5,1.0,1.0,0.0,0.0,0,0,0.01,0.01,-0.01,-0.14,5.6148987,0,nan,nan,0.0,0.0,0,3,0,0,1,10,0,0,0
28324000,0,47.397750099999996,8.5456067,490.87,490.87,1757596755090401,0,0.25,0.5,1.0,1.0,0.0,0.0,0,0,0.02,0.0,0.02,-0.11,1.2751375,0,nan,nan,0.0,0.0,0,3,0,0,1,10,0,0,0
28724000,0,47.3977505,8.5456071,490.943,490.943,1757596755490401,0,0.25,0.5,1.0,1.0,0.0,0.0,0,0,0.37,0.32,0.14999999,-0.16,0.43842667,0,nan,nan,0.0,0.0,0,3,0,0,1,10,0,0,0
29128000,0,47.3977533,8.545608399999999,490.991,490.991,1757596755894401,0,0.25,0.5,1.0,1.0,0.0,0.0,0,0,1.31,1.28,0.26999998,-0.099999994,0.2083923,0,nan,nan,0.0,0.0,0,3,0,0,1,10,0,0,0
29524000,0,47.39776,8.545609899999999,491.036,491.036,1757596756294401,0,0.25,0.5,1.0,1.0,0.0,0.0,0,0,2.46,2.45,0.29999998,-0.02,0.12391838,0,nan,nan,0.0,0.0,0,3,0,0,1,10,0,0,0
29924000,0,47.397770699999995,8.5456115,491.055,491.055,1757596756690401,0,0.25,0.5,1.0,1.0,0.0,0.0,0,0,3.51,3.5,0.29999998,0.0,0.086219266,0,nan,nan,0.0,0.0,0,3,0,0,1,10,0,0,0
30324000,0,47.3977851,8.5456132,491.041,491.041,1757596757090401,0,0.25,0.5,1.0,1.0,0.0,0.0,0,0,4.39,4.39,0.32999998,0.11,0.076270886,0,nan,nan,0.0,0.0,0,3,0,0,1,10,0,0,0
30724000,0,47.397801799999996,8.5456155,491.014,491.014,1757596757490401,0,0.25,0.5,1.0,1.0,0.0,0.0,0,0,4.8599997,4.83,0.59999996,0.08,0.1251401,0,nan,nan,0.0,0.0,0,3,0,0,1,10,0,0,0
31124000,0,47.3978195,8.5456197,490.976,490.976,1757596757894401,0,0.25,0.5,1.0,1.0,0.0,0.0,0,0,4.8399997,4.7599998,0.9,0.06,0.18814649,0,nan,nan,0.0,0.0,0,3,0,0,1,10,0,0,0
31524000,0,47.397836299999994,8.545625099999999,490.973,490.973,1757596758294401,0,0.25,0.5,1.0,1.0,0.0,0.0,0,0,4.66,4.5099998,1.0699999,0.03,0.23335052,0,nan,nan,0.0,0.0,0,3,0,0,1,10,0,0,0
31924000,0,47.397852199999996,8.5456311,490.957,490.957,1757596758690401,0,0.25,0.5,1.0,1.0,0.0,0.0,0,0,4.5899997,4.44,1.18,0.03,0.26110125,0,nan,nan,0.0,0.0,0,3,0,0,1,10,0,0,0
32324000,0,47.3978684,8.5456376,490.954,490.954,1757596759094401,0,0.25,0.5,1.0,1.0,0.0,0.0,0,0,4.58,4.44,1.22,0.03,0.26773348,0,nan,nan,0.0,0.0,0,3,0,0,1,10,0,0,0
32724000,0,47.3978842,8.5456439,490.958,490.958,1757596759490401,0,0.25,0.5,1.0,1.0,0.0,0.0,0,0,4.6,4.44,1.17,0.02,0.2576106,0,nan,nan,0.0,0.0,0,3,0,0,1,10,0,0,0
33124000,0,47.397900299999996,8.545649899999999,490.958,490.958,1757596759890401,0,0.25,0.5,1.0,1.0,0.0,0.0,0,0,4.63,4.5,1.06,-0.01,0.2323033,0,nan,nan,0.0,0.0,0,3,0,0,1,10,0,0,0
33524000,0,47.3979169,8.5456556,490.95,490.95,1757596760294401,0,0.25,0.5,1.0,1.0,0.0,0.0,0,0,4.68,4.56,0.96999997,0.0,0.20978856,0,nan,nan,0.0,0.0,0,3,0,0,1,10,0,0,0
33924000,0,47.3979334,8.5456605,490.958,490.958,1757596760690401,0,0.25,0.5,1.0,1.0,0.0,0.0,0,0,4.72,4.61,0.89,0.0,0.1914626,0,nan,nan,0.0,0.0,0,3,0,0,1,10,0,0,0
34324000,0,47.3979503,8.5456652,490.954,490.954,1757596761094401,0,0.25,0.5,1.0,1.0,0.0,0.0,0,0,4.73,4.65,0.85999995,0.0,0.1829105,0,nan,nan,0.0,0.0,0,3,0,0,1,10,0,0,0
34724000,0,47.397967,8.5456696,490.97,490.97,1757596761490401,0,0.25,0.5,1.0,1.0,0.0,0.0,0,0,4.73,4.67,0.82,0.0,0.17418385,0,nan,nan,0.0,0.0,0,3,0,0,1,10,0,0,0
35124000,0,47.3979838,8.545673899999999,490.96500000000003,490.96500000000003,1757596761890401,0,0.25,0.5,1.0,1.0,0.0,0.0,0,0,4.75,4.67,0.78999996,0.0,0.16929694,0,nan,nan,0.0,0.0,0,3,0,0,1,10,0,0,0
35524000,0,47.3980009,8.5456782,490.95,490.95,1757596762294401,0,0.25,0.5,1.0,1.0,0.0,0.0,0,0,4.77,4.7,0.78999996,0.06,0.16720253,0,nan,nan,0.0,0.0,0,3,0,0,1,10,0,0,0
35924000,0,47.3980178,8.5456824,490.945,490.945,1757596762690401,0,0.25,0.5,1.0,1.0,0.0,0.0,0,0,4.79,4.72,0.79999995,0.049999997,0.16790067,0,nan,nan,0.0,0.0,0,3,0,0,1,10,0,0,0
36320000,0,47.398035,8.5456868,490.942,490.942,1757596763094401,0,0.25,0.5,1.0,1.0,0.0,0.0,0,0,4.81,4.72,0.84,0.03,0.17610373,0,nan,nan,0.0,0.0,0,3,0,0,1,10,0,0,0
36724000,0,47.398052,8.5456913,490.954,490.954,1757596763490401,0,0.25,0.5,1.0,1.0,0.0,0.0,0,0,4.83,4.7799997,0.88,-0.01,0.18256144,0,nan,nan,0.0,0.0,0,3,0,0,1,10,0,0,0
37124000,0,47.398069299999996,8.545696,490.942,490.942,1757596763890401,0,0.25,0.5,1.0,1.0,0.0,0.0,0,0,4.87,4.7799997,0.87,0.03,0.18046704,0,nan,nan,0.0,0.0,0,3,0,0,1,10,0,0,0
37524000,0,47.3980867,8.545700799999999,490.938,490.938,1757596764294401,0,0.25,0.5,1.0,1.0,0.0,0.0,0,0,4.9,4.79,0.90999997,0.03,0.1891937,0,nan,nan,0.0,0.0,0,3,0,0,1,10,0,0,0
37924000,0,47.398104,8.5457058,490.931,490.931,1757596764690401,0,0.25,0.5,1.0,1.0,0.0,0.0,0,0,4.92,4.85,0.90999997,0.02,0.18675022,0,nan,nan,0.0,0.0,0,3,0,0,1,10,0,0,0
38324000,0,47.398121599999996,8.5457108,490.922,490.922,1757596765094401,0,0.25,0.5,1.0,1.0,0.0,0.0,0,0,4.94,4.8599997,0.93,0.03,0.19006634,0,nan,nan,0.0,0.0,0,3,0,0,1,10,0,0,0
38724000,0,47.398139,8.5457158,490.923,490.923,1757596765490401,0,0.25,0.5,1.0,1.0,0.0,0.0,0,0,4.96,4.87,0.95,0.0,0.19250982,0,nan,nan,0.0,0.0,0,3,0,0,1,10,0,0,0
39124000,0,47.3981566,8.5457207,490.909,490.909,1757596765890401,0,0.25,0.5,1.0,1.0,0.0,0.0,0,0,4.96,4.8599997,0.91999996,0.04,0.18849556,0,nan,nan,0.0,0.0,0,3,0,0,1,10,0,0,0
39528000,0,47.3981743,8.5457258,490.91,490.91,1757596766294401,0,0.25,0.5,1.0,1.0,0.0,0.0,0,0,4.97,4.89,0.93,0.06,0.18832102,0,nan,nan,0.0,0.0,0,3,0,0,1,10,0,0,0
39924000,0,47.3981919,8.545730599999999,490.894,490.894,1757596766690401,0,0.25,0.5,1.0,1.0,0.0,0.0,0,0,4.97,4.88,0.93,0.0,0.18832102,0,nan,nan,0.0,0.0,0,3,0,0,1,10,0,0,0
40324000,0,47.3982095,8.5457359,490.88100000000003,490.88100000000003,1757596767094401,0,0.25,0.5,1.0,1.0,0.0,0.0,0,0,4.8399997,4.73,1.1,0.04,0.23003438,0,nan,nan,0.0,0.0,0,3,0,0,1,10,0,0,0
40724000,0,47.398225,8.5457434,490.886,490.886,1757596767490401,0,0.25,0.5,1.0,1.0,0.0,0.0,0,0,4.25,3.85,1.75,-0.01,0.42655843,0,nan,nan,0.0,0.0,0,3,0,0,1,10,0,0,0
41124000,0,47.3982366,8.5457546,490.88100000000003,490.88100000000003,1757596767890401,0,0.25,0.5,1.0,1.0,0.0,0.0,0,0,3.51,2.56,2.3999999,-0.049999997,0.75363314,0,nan,nan,0.0,0.0,0,3,0,0,1,10,0,0,0
41520000,0,47.3982433,8.545769199999999,490.884,490.884,1757596768286401,0,0.25,0.5,1.0,1.0,0.0,0.0,0,0,3.31,1.22,3.08,0.0,1.1918854,0,nan,nan,0.0,0.0,0,3,0,0,1,10,0,0,0
41724000,0,47.398244999999996,8.545778,490.88100000000003,490.88100000000003,1757596768490401,0,0.25,0.5,1.0,1.0,0.0,0.0,0,0,3.4099998,0.57,3.3799999,0.04,1.4035938,0,nan,nan,0.0,0.0,0,3,0,0,1,10,0,0,0
42124000,0,47.3982446,8.5457971,490.874,490.874,1757596768890401,0,0.25,0.5,1.0,1.0,0.0,0.0,0,0,3.84,-0.65,3.79,0.049999997,1.7421876,0,nan,nan,0.0,0.0,0,3,0,0,1,10,0,0,0
42524000,0,47.3982402,8.545818299999999,490.868,490.868,1757596769294401,0,0.25,0.5,1.0,1.0,0.0,0.0,0,0,4.4,-1.7199999,4.06,0.06,1.972571,0,nan,nan,0.0,0.0,0,3,0,0,1,10,0,0,0
42924000,0,47.3982326,8.545839899999999,490.822,490.822,1757596769690401,0,0.25,0.5,1.0,1.0,0.0,0.0,0,0,4.73,-2.46,4.02,0.12,2.120924,0,nan,nan,0.0,0.0,0,3,0,0,1,10,0,0,0
43324000,0,47.398222999999994,8.5458611,490.797,490.797,1757596770094401,0,0.25,0.5,1.0,1.0,0.0,0.0,0,0,4.72,-2.71,3.87,0.06,2.1821852,0,nan,nan,0.0,0.0,0,3,0,0,1,10,0,0,0
43724000,0,47.3982137,8.545881399999999,490.795,490.795,1757596770490401,0,0.25,0.5,1.0,1.0,0.0,0.0,0,0,4.61,-2.47,3.85,-0.01,2.1423917,0,nan,nan,0.0,0.0,0,3,0,0,1,10,0,0,0
44124000,0,47.3982052,8.5459025,490.788,490.788,1757596770890401,0,0.25,0.5,1.0,1.0,0.0,0.0,0,0,4.54,-2.21,3.98,-0.03,2.0781636,0,nan,nan,0.0,0.0,0,3,0,0,1,10,0,0,0
44528000,0,47.398197599999996,8.5459242,490.807,490.807,1757596771294401,0,0.25,0.5,1.0,1.0,0.0,0.0,0,0,4.54,-2.0,4.0699997,-0.03,2.027549,0,nan,nan,0.0,0.0,0,3,0,0,1,10,0,0,0
44924000,0,47.3981907,8.5459459,490.827,490.827,1757596771690401,0,0.25,0.5,1.0,1.0,0.0,0.0,0,0,4.5699997,-1.88,4.18,-0.01,1.9945623,0,nan,nan,0.0,0.0,0,3,0,0,1,10,0,0,0
45324000,0,47.3981839,8.545968499999999,490.85200000000003,490.85200000000003,1757596772094401,0,0.25,0.5,1.0,1.0,0.0,0.0,0,0,4.5899997,-1.8299999,4.21,-0.06,1.9812977,0,nan,nan,0.0,0.0,0,3,0,0,1,10,0,0,0
45724000,0,47.3981773,8.5459908,490.856,490.856,1757596772490401,0,0.25,0.5,1.0,1.0,0.0,0.0,0,0,4.5699997,-1.81,4.19,0.03,1.977807,0,nan,nan,0.0,0.0,0,3,0,0,1,10,0,0,0
46124000,0,47.3981709,8.5460121,490.86400000000003,490.86400000000003,1757596772890401,0,0.25,0.5,1.0,1.0,0.0,0.0,0,0,4.13,-1.74,3.74,0.01,2.0055578,0,nan,nan,0.0,0.0,0,3,0,0,1,10,0,0,0
46524000,0,47.3981649,8.5460308,490.88100000000003,490.88100000000003,1757596773294401,0,0.25,0.5,1.0,1.0,0.0,0.0,0,0,3.53,-1.53,3.1799998,-0.049999997,2.0203931,0,nan,nan,0.0,0.0,0,3,0,0,1,10,0,0,0
46924000,0,47.398159799999995,8.5460462,490.875,490.875,1757596773690401,0,0.25,0.5,1.0,1.0,0.0,0.0,0,0,2.98,-1.35,2.6699998,0.0,2.038719,0,nan,nan,0.0,0.0,0,3,0,0,1,10,0,0,0
47324000,0,47.3981553,8.5460592,490.886,490.886,1757596774094401,0,0.25,0.5,1.0,1.0,0.0,0.0,0,0,2.44,-1.11,2.1699998,0.04,2.0458748,0,nan,nan,0.0,0.0,0,3,0,0,1,10,0,0,0
47724000,0,47.3981517,8.5460694,490.884,490.884,1757596774490401,0,0.25,0.5,1.0,1.0,0.0,0.0,0,0,1.9499999,-0.89,1.6999999,0.0,2.0549507,0,nan,nan,0.0,0.0,0,3,0,0,1,10,0,0,0
48124000,0,47.3981487,8.5460776,490.88,490.88,1757596774890401,0,0.25,0.5,1.0,1.0,0.0,0.0,0,0,1.53,-0.72999996,1.35,0.03,2.070484,0,nan,nan,0.0,0.0,0,3,0,0,1,10,0,0,0
48524000,0,47.3981462,8.5460839,490.867,490.867,1757596775294401,0,0.25,0.5,1.0,1.0,0.0,0.0,0,0,1.1899999,-0.59999996,1.04,0.049999997,2.0950933,0,nan,nan,0.0,0.0,0,3,0,0,1,10,0,0,0
48924000,0,47.3981442,8.5460886,490.857,490.857,1757596775690401,0,0.25,0.5,1.0,1.0,0.0,0.0,0,0,0.90999997,-0.48,0.74,0.0,2.1457076,0,nan,nan,0.0,0.0,0,3,0,0,1,10,0,0,0
49324000,0,47.398142299999996,8.5460914,490.854,490.854,1757596776094401,0,0.25,0.5,1.0,1.0,0.0,0.0,0,0,0.63,-0.61,0.14999999,-0.02,2.8961995,0,nan,nan,0.0,0.0,0,3,0,0,1,10,0,0,0
49724000,0,47.398139799999996,8.5460899,490.86400000000003,490.86400000000003,1757596776490401,0,0.25,0.5,1.0,1.0,0.0,0.0,0,0,1.0,-0.74,-0.66999996,0.049999997,3.8749797,0,nan,nan,0.0,0.0,0,3,0,0,1,10,0,0,0
50124000,0,47.398136799999996,8.5460849,490.858,490.858,1757596776890401,0,0.25,0.5,1.0,1.0,0.0,0.0,0,0,1.5,-0.95,-1.16,-0.04,4.0275216,0,nan,nan,0.0,0.0,0,3,0,0,1,10,0,0,0
50524000,0,47.3981322,8.5460776,490.882,490.882,1757596777294401,0,0.25,0.5,1.0,1.0,0.0,0.0,0,0,2.26,-1.5999999,-1.5799999,-0.01,3.9203584,0,nan,nan,0.0,0.0,0,3,0,0,1,10,0,0,0
50732000,0,47.398128899999996,8.546073,490.89,490.89,1757596777494401,0,0.25,0.5,1.0,1.0,0.0,0.0,0,0,2.74,-2.07,-1.8199999,-0.03,3.8643332,0,nan,nan,0.0,0.0,0,3,0,0,1,10,0,0,0
51124000,0,47.398119799999996,8.5460623,490.902,490.902,1757596777890401,0,0.25,0.5,1.0,1.0,0.0,0.0,0,0,3.75,-3.03,-2.23,-0.01,3.7763689,0,nan,nan,0.0,0.0,0,3,0,0,1,10,0,0,0
51524000,0,47.3981073,8.5460494,490.887,490.887,1757596778294401,0,0.25,0.5,1.0,1.0,0.0,0.0,0,0,4.5499997,-3.76,-2.56,0.099999994,3.7402403,0,nan,nan,0.0,0.0,0,3,0,0,1,10,0,0,0
51728000,0,47.398100299999996,8.5460425,490.879,490.879,1757596778494401,0,0.25,0.5,1.0,1.0,0.0,0.0,0,0,4.7599998,-3.9499998,-2.6399999,0.08,3.7316885,0,nan,nan,0.0,0.0,0,3,0,0,1,10,0,0,0
52128000,0,47.398085599999995,8.546028399999999,490.86,490.86,1757596778898401,0,0.25,0.5,1.0,1.0,0.0,0.0,0,0,4.72,-3.98,-2.52,0.04,3.7062066,0,nan,nan,0.0,0.0,0,3,0,0,1,10,0,0,0
52524000,0,47.3980715,8.5460157,490.862,490.862,1757596779294401,0,0.25,0.5,1.0,1.0,0.0,0.0,0,0,4.5499997,-3.8899999,-2.33,-0.02,3.682121,0,nan,nan,0.0,0.0,0,3,0,0,1,10,0,0,0
52928000,0,47.3980573,8.5460034,490.856,490.856,1757596779698401,0,0.25,0.5,1.0,1.0,0.0,0.0,0,0,4.5,-3.8899999,-2.26,-0.03,3.6688564,0,nan,nan,0.0,0.0,0,3,0,0,1,10,0,0,0
53328000,0,47.3980435,8.5459911,490.854,490.854,1757596780094401,0,0.25,0.5,1.0,1.0,0.0,0.0,0,0,4.52,-3.87,-2.34,0.0,3.685437,0,nan,nan,0.0,0.0,0,3,0,0,1,10,0,0,0
53728000,0,47.3980296,8.5459784,490.86400000000003,490.86400000000003,1757596780494401,0,0.25,0.5,1.0,1.0,0.0,0.0,0,0,4.54,-3.84,-2.44,0.01,3.7077775,0,nan,nan,0.0,0.0,0,3,0,0,1,10,0,0,0
54128000,0,47.398015699999995,8.545964999999999,490.84700000000004,490.84700000000004,1757596780898401,0,0.25,0.5,1.0,1.0,0.0,0.0,0,0,4.5499997,-3.76,-2.52,-0.02,3.7316885,0,nan,nan,0.0,0.0,0,3,0,0,1,10,0,0,0
54528000,0,47.3980022,8.5459515,490.849,490.849,1757596781294401,0,0.25,0.5,1.0,1.0,0.0,0.0,0,0,4.5299997,-3.73,-2.59,0.04,3.7493162,0,nan,nan,0.0,0.0,0,3,0,0,1,10,0,0,0
54928000,0,47.3979888,8.5459374,490.845,490.845,1757596781698401,0,0.25,0.5,1.0,1.0,0.0,0.0,0,0,4.54,-3.6899998,-2.6399999,0.0,3.7629297,0,nan,nan,0.0,0.0,0,3,0,0,1,10,0,0,0
55328000,0,47.397975699999996,8.5459237,490.829,490.829,1757596782094401,0,0.25,0.5,1.0,1.0,0.0,0.0,0,0,4.39,-3.59,-2.56,0.03,3.762057,0,nan,nan,0.0,0.0,0,3,0,0,1,10,0,0,0
55728000,0,47.3979636,8.5459106,490.818,490.818,1757596782494401,0,0.25,0.5,1.0,1.0,0.0,0.0,0,0,3.84,-3.11,-2.28,0.0,3.7742746,0,nan,nan,0.0,0.0,0,3,0,0,1,10,0,0,0
56128000,0,47.397953199999996,8.5458993,490.827,490.827,1757596782898401,0,0.25,0.5,1.0,1.0,0.0,0.0,0,0,3.27,-2.62,-1.91,0.03,3.7713075,0,nan,nan,0.0,0.0,0,3,0,0,1,10,0,0,0
56528000,0,47.3979445,8.54589,490.817,490.817,1757596783294401,0,0.25,0.5,1.0,1.0,0.0,0.0,0,0,2.74,-2.22,-1.5999999,0.0,3.7662458,0,nan,nan,0.0,0.0,0,3,0,0,1,10,0,0,0
56928000,0,47.3979372,8.5458822,490.81,490.81,1757596783698401,0,0.25,0.5,1.0,1.0,0.0,0.0,0,0,2.24,-1.8399999,-1.28,0.0,3.7507124,0,nan,nan,0.0,0.0,0,3,0,0,1,10,0,0,0
57328000,0,47.397931199999995,8.545876,490.801,490.801,1757596784094401,0,0.25,0.5,1.0,1.0,0.0,0.0,0,0,1.8299999,-1.49,-1.03,-0.01,3.7480946,0,nan,nan,0.0,0.0,0,3,0,0,1,10,0,0,0
57728000,0,47.397926299999995,8.5458711,490.794,490.794,1757596784494401,0,0.25,0.5,1.0,1.0,0.0,0.0,0,0,1.4499999,-1.1899999,-0.84,-0.03,3.7540286,0,nan,nan,0.0,0.0,0,3,0,0,1,10,0,0,0
58128000,0,47.3979224,8.5458672,490.781,490.781,1757596784898401,0,0.25,0.5,1.0,1.0,0.0,0.0,0,0,1.13,-0.94,-0.61,0.04,3.719122,0,nan,nan,0.0,0.0,0,3,0,0,1,10,0,0,0
58528000,0,47.3979194,8.5458643,490.783,490.783,1757596785294401,0,0.25,0.5,1.0,1.0,0.0,0.0,0,0,0.87,-0.7,-0.44,-0.01,3.704985,0,nan,nan,0.0,0.0,0,3,0,0,1,10,0,0,0
58928000,0,47.3979171,8.5458622,490.778,490.778,1757596785698401,0,0.25,0.5,1.0,1.0,0.0,0.0,0,0,0.65,-0.55,-0.32,-0.03,3.6702528,0,nan,nan,0.0,0.0,0,3,0,0,1,10,0,0,0
59328000,0,47.397915399999995,8.5458607,490.788,490.788,1757596786094401,0,0.25,0.5,1.0,1.0,0.0,0.0,0,0,0.5,-0.42999998,-0.26,0.099999994,3.6859608,0,nan,nan,0.0,0.0,0,3,0,0,1,10,0,0,0
59728000,0,47.397914,8.5458594,490.634,490.634,1757596786494401,0,0.25,0.5,1.0,1.0,0.0,0.0,0,0,0.38,-0.34,-0.19999999,0.71,3.6922438,0,nan,nan,0.0,0.0,0,3,0,0,1,10,0,0,0
60124000,0,47.397912999999996,8.5458588,490.336,490.336,1757596786890401,0,0.25,0.5,1.0,1.0,0.0,0.0,0,0,0.17999999,-0.17999999,-0.049999997,0.69,3.4030428,0,nan,nan,0.0,0.0,0,3,0,0,1,10,0,0,0
60328000,0,47.3979128,8.5458588,490.20300000000003,490.20300000000003,1757596787094401,0,0.25,0.5,1.0,1.0,0.0,0.0,0,0,0.13,-0.13,0.0,0.69,3.1435125,0,nan,nan,0.0,0.0,0,3,0,0,1,10,0,0,0
60724000,0,47.397912299999994,8.5458587,489.95,489.95,1757596787494401,0,0.25,0.5,1.0,1.0,0.0,0.0,0,0,0.099999994,-0.099999994,0.01,0.64,3.0455995,0,nan,nan,0.0,0.0,0,3,0,0,1,10,0,0,0
61132000,0,47.397912,8.5458588,489.669,489.669,1757596787898401,0,0.25,0.5,1.0,1.0,0.0,0.0,0,0,0.08,-0.08,0.0,0.66999996,3.1475267,0,nan,nan,0.0,0.0,0,3,0,0,1,10,0,0,0
61528000,0,47.397911799999996,8.545859,489.389,489.389,1757596788294401,0,0.25,0.5,1.0,1.0,0.0,0.0,0,0,0.049999997,-0.049999997,0.0,0.71999997,3.0276227,0,nan,nan,0.0,0.0,0,3,0,0,1,10,0,0,0
61928000,0,47.3979116,8.545859,489.107,489.107,1757596788698401,0,0.25,0.5,1.0,1.0,0.0,0.0,0,0,0.03,-0.01,0.0,0.66999996,2.5783749,0,nan,nan,0.0,0.0,0,3,0,0,1,10,0,0,0
62328000,0,47.3979115,8.545859,488.827,488.827,1757596789094401,0,0.25,0.5,1.0,1.0,0.0,0.0,0,0,0.01,-0.02,0.01,0.69,2.5682518,0,nan,nan,0.0,0.0,0,3,0,0,1,10,0,0,0
62728000,0,47.3979115,8.545858899999999,488.553,488.553,1757596789494401,0,0.25,0.5,1.0,1.0,0.0,0.0,0,0,0.02,0.0,-0.01,0.7,4.208687,0,nan,nan,0.0,0.0,0,3,0,0,1,10,0,0,0
63128000,0,47.3979115,8.5458587,488.271,488.271,1757596789898401,0,0.25,0.5,1.0,1.0,0.0,0.0,0,0,0.03,-0.01,-0.04,0.66999996,4.3910737,0,nan,nan,0.0,0.0,0,3,0,0,1,10,0,0,0
63524000,0,47.3979115,8.5458585,488.10200000000003,488.10200000000003,1757596790294401,0,0.25,0.5,1.0,1.0,0.0,0.0,0,0,0.0,0.0,0.0,0.04,3.0052824,0,nan,nan,0.0,0.0,0,3,0,0,1,10,0,0,0
63928000,0,47.3979114,8.5458585,488.105,488.105,1757596790698401,0,0.25,0.5,1.0,1.0,0.0,0.0,0,0,0.0,-0.02,-0.01,-0.01,3.5452871,0,nan,nan,0.0,0.0,0,3,0,0,1,10,0,0,0
64328000,0,47.3979114,8.545858599999999,488.115,488.115,1757596791094401,0,0.25,0.5,1.0,1.0,0.0,0.0,0,0,0.0,0.0,-0.02,0.01,4.8593454,0,nan,nan,0.0,0.0,0,3,0,0,1,10,0,0,0
64728000,0,47.3979114,8.5458585,488.11,488.11,1757596791494401,0,0.25,0.5,1.0,1.0,0.0,0.0,0,0,0.0,0.01,0.0,-0.02,0.2736676,0,nan,nan,0.0,0.0,0,3,0,0,1,10,0,0,0
65124000,0,47.3979114,8.545858599999999,488.108,488.108,1757596791894401,0,0.25,0.5,1.0,1.0,0.0,0.0,0,0,0.0,0.0,0.0,-0.01,2.6967082,0,nan,nan,0.0,0.0,0,3,0,0,1,10,0,0,0
65528000,0,47.3979115,8.545858599999999,488.108,488.108,1757596792298401,0,0.25,0.5,1.0,1.0,0.0,0.0,0,0,0.0,0.0,0.0,-0.01,0.16650441,0,nan,nan,0.0,0.0,0,3,0,0,1,10,0,0,0
65928000,0,47.3979115,8.545858599999999,488.101,488.101,1757596792698401,0,0.25,0.5,1.0,1.0,0.0,0.0,0,0,0.0,0.01,0.0,-0.01,5.6201344,0,nan,nan,0.0,0.0,0,3,0,0,1,10,0,0,0
66328000,0,47.3979115,8.5458585,488.101,488.101,1757596793094401,0,0.25,0.5,1.0,1.0,0.0,0.0,0,0,0.0,0.0,0.0,0.0,1.0728538,0,nan,nan,0.0,0.0,0,3,0,0,1,10,0,0,0
66728000,0,47.3979114,8.545858599999999,488.098,488.098,1757596793494401,0,0.25,0.5,1.0,1.0,0.0,0.0,0,0,0.0,0.0,0.0,0.02,5.410171,0,nan,nan,0.0,0.0,0,3,0,0,1,10,0,0,0
67128000,0,47.3979115,8.545858599999999,488.107,488.107,1757596793894401,0,0.25,0.5,1.0,1.0,0.0,0.0,0,0,0.0,0.0,0.0,0.03,4.0104175,0,nan,nan,0.0,0.0,0,3,0,0,1,10,0,0,0
