timestamp,yaw_sp_move_rate,q_d[0],q_d[1],q_d[2],q_d[3],thrust_body[0],thrust_body[1],thrust_body[2]
5036000,0.0,1.0,-0.0,0.0,-0.00027339856,0.0,0.0,-0.001
5044000,0.0,0.99999994,-0.0,0.0,-0.0002592585,0.0,0.0,-0.001
5092000,0.0,1.0,-0.0,0.0,-1.843426e-05,0.0,0.0,-0.001
5140000,0.0,1.0,0.0,0.0,0.000121934354,0.0,0.0,-0.001
5188000,0.0,0.99999994,0.0,0.0,0.0002934301,0.0,0.0,-0.001
5236000,0.0,0.99999994,0.0,0.0,0.000265386,0.0,0.0,-0.001
5292000,0.0,0.9999999,0.0,0.0,0.00042269006,0.0,0.0,-0.001
5340000,0.0,0.99999994,0.0,0.0,0.00025850395,0.0,0.0,-0.001
5396000,0.0,1.0,0.0,0.0,4.0251842e-07,0.0,0.0,-0.001
5436000,0.0,1.0,-0.0,0.0,-8.299758e-05,0.0,0.0,-0.001
5492000,0.0,0.99999994,-0.0,0.0,-0.00033049978,0.0,0.0,-0.001
5540000,0.0,0.9999998,-0.0,0.0,-0.0005444697,0.0,0.0,-0.001
5588000,0.0,0.99999976,-0.0,0.0,-0.00067786156,0.0,0.0,-0.001
5636000,0.0,0.99999964,-0.0,0.0,-0.0008899697,0.0,0.0,-0.001
5692000,0.0,0.99999946,-0.0,0.0,-0.0010419491,0.0,0.0,-0.001
5740000,0.0,0.9999994,-0.0,0.0,-0.001111601,0.0,0.0,-0.001
5788000,0.0,0.9999996,-0.0,0.0,-0.00091260416,0.0,0.0,-0.001
5836000,0.0,0.9999994,-0.0,0.0,-0.0010834988,0.0,0.0,-0.001
5892000,0.0,0.70144093,0.0,0.0,0.7127276,0.0,0.0,-0.001
5940000,0.0,0.701407,0.0,0.0,0.71276104,0.0,0.0,-0.001
5996000,0.0,0.7014567,0.0,0.0,0.71271205,0.0,0.0,-0.001
6036000,0.0,0.70159,0.0,0.0,0.7125809,0.0,0.0,-0.001
6092000,0.0,0.7017259,0.0,0.0,0.71244705,0.0,0.0,-0.001
6140000,0.0,0.70186657,0.0,0.0,0.71230847,0.0,0.0,-0.001
6196000,0.0,0.70201725,0.0,0.0,0.71215993,0.0,0.0,-0.001
6244000,0.0,0.7020813,0.0,0.0,0.71209675,0.0,0.0,-0.001
6292000,0.0,0.70208985,0.0,0.0,0.7120884,0.0,0.0,-0.001
6340000,0.0,0.70200706,0.0,0.0,0.71217006,0.0,0.0,-0.001
6396000,0.0,0.7019552,0.0,0.0,0.71222115,0.0,0.0,-0.001
6444000,0.0,0.7018568,0.0,0.0,0.71231806,0.0,0.0,-0.001
6492000,0.0,0.70172304,0.0,0.0,0.71244985,0.0,0.0,-0.001
6540000,0.0,0.7015932,0.0,0.0,0.7125777,0.0,0.0,-0.001
6588000,0.0,0.70139027,0.0,0.0,0.7127775,0.0,0.0,-0.001
6644000,0.0,0.7014269,0.0,0.0,0.71274143,0.0,0.0,-0.001
6692000,0.0,0.701462,0.0,0.0,0.7127069,0.0,0.0,-0.001
6740000,0.0,0.7014583,0.0,0.0,0.71271056,0.0,0.0,-0.001
6796000,0.0,0.70135134,0.0,0.0,0.71281576,0.0,0.0,-0.001
6844000,0.0,0.70128,0.0,0.0,0.71288604,0.0,0.0,-0.001
6892000,0.0,0.7012262,0.0,0.0,0.71293896,0.0,0.0,-0.001
6940000,0.0,0.7012917,0.0,0.0,0.71287453,0.0,0.0,-0.001
6996000,0.0,0.70133495,0.0,0.0,0.7128319,0.0,0.0,-0.001
7044000,0.0,0.70150024,0.0,0.0,0.7126692,0.0,0.0,-0.001
7092000,0.0,0.70151275,0.0,0.0,0.712657,0.0,0.0,-0.001
7140000,0.0,0.7015112,0.0,0.0,0.71265846,0.0,0.0,-0.001
7196000,0.0,0.7014854,0.0,0.0,0.7126838,0.0,0.0,-0.001
7236000,0.0,0.7015188,0.0,0.0,0.71265095,0.0,0.0,-0.001
7292000,0.0,0.70157397,0.0,0.0,0.71259665,0.0,0.0,-0.001
7340000,0.0,0.70169854,0.0,0.0,0.712474,0.0,0.0,-0.001
7396000,0.0,0.70177233,0.0,0.0,0.71240133,0.0,0.0,-0.001
7444000,0.0,0.70177376,0.0,0.0,0.7123999,0.0,0.0,-0.001
7492000,0.0,0.70184535,0.0,0.0,0.7123293,0.0,0.0,-0.001
7540000,0.0,0.7019397,0.0,0.0,0.71223646,0.0,0.0,-0.001
7596000,0.0,0.7020693,0.0,0.0,0.7121087,0.0,0.0,-0.001
7644000,0.0,0.7022782,0.0,0.0,0.7119026,0.0,0.0,-0.001
7692000,0.0,0.70238096,0.0,0.0,0.71180123,0.0,0.0,-0.001
7740000,0.0,0.702416,0.0,0.0,0.71176666,0.0,0.0,-0.001
7796000,0.0,0.7025295,0.0,0.0,0.71165466,0.0,0.0,-0.001
7836000,0.0,0.7024953,0.0,0.0,0.7116884,0.0,0.0,-0.001
7892000,0.0,0.7024956,0.0,0.0,0.71168816,0.0,0.0,-0.001
7940000,0.0,0.70248467,0.0,0.0,0.7116989,0.0,0.0,-0.001
7988000,0.0,0.7025051,0.0,0.0,0.7116787,0.0,0.0,-0.001
8044000,0.0,0.70257086,0.0,0.0,0.71161383,0.0,0.0,-0.001
8092000,0.0,0.70264405,0.0,0.0,0.71154153,0.0,0.0,-0.001
8140000,0.0,0.702801,0.0,0.0,0.71138656,0.0,0.0,-0.001
8188000,0.0,0.702774,0.0,0.0,0.7114132,0.0,0.0,-0.001
8244000,0.0,0.70268226,0.0,0.0,0.71150386,0.0,0.0,-0.001
8292000,0.0,0.702683,0.0,0.0,0.7115031,0.0,0.0,-0.001
8340000,0.0,0.70275617,0.0,0.0,0.7114308,0.0,0.0,-0.001
8388000,0.0,0.70271266,0.0,0.0,0.7114738,0.0,0.0,-0.001
8436000,0.0,0.702854,0.0,0.0,0.7113342,0.0,0.0,-0.001
8492000,0.0,0.7029058,0.0,0.0,0.711283,0.0,0.0,-0.001
8540000,0.0,0.702952,0.0,0.0,0.7112373,0.0,0.0,-0.001
8588000,0.0,0.70301354,0.0,0.0,0.71117646,0.0,0.0,-0.001
8644000,0.0,0.70313925,0.0,0.0,0.71105224,0.0,0.0,-0.001
8692000,0.0,0.70319873,0.0,0.0,0.71099335,0.0,0.0,-0.001
8740000,0.0,0.70317006,0.0,0.0,0.7110217,0.0,0.0,-0.001
8796000,0.0,0.7032532,0.0,0.0,0.71093947,0.0,0.0,-0.001
8844000,0.0,0.70315903,0.0,0.0,0.71103257,0.0,0.0,-0.001
8892000,0.0,0.70323485,0.0,0.0,0.7109577,0.0,0.0,-0.001
8940000,0.0,0.7032951,0.0,0.0,0.710898,0.0,0.0,-0.001
8996000,0.0,0.7031967,0.0,0.0,0.7109954,0.0,0.0,-0.001
9044000,0.0,0.7031411,0.0,0.0,0.71105045,0.0,0.0,-0.001
9092000,0.0,0.703078,0.0,0.0,0.7111128,0.0,0.0,-0.001
9140000,0.0,0.7030404,0.0,0.0,0.71114993,0.0,0.0,-0.001
9196000,0.0,0.70304596,0.0,0.0,0.71114445,0.0,0.0,-0.001
9244000,0.0,0.70303065,0.0,0.0,0.71115965,0.0,0.0,-0.001
9292000,0.0,0.703022,0.0,0.0,0.7111681,0.0,0.0,-0.001
9340000,0.0,0.70305973,0.0,0.0,0.7111308,0.0,0.0,-0.001
9396000,0.0,0.70314723,0.0,0.0,0.71104425,0.0,0.0,-0.001
9444000,0.0,0.70318145,0.0,0.0,0.71101046,0.0,0.0,-0.001
9492000,0.0,0.7031721,0.0,0.0,0.7110197,0.0,0.0,-0.001
9540000,0.0,0.70318395,0.0,0.0,0.711008,0.0,0.0,-0.001
9596000,0.0,0.7032024,0.0,0.0,0.7109897,0.0,0.0,-0.001
9644000,0.0,0.7031749,0.0,0.0,0.711017,0.0,0.0,-0.001
9692000,0.0,0.70321685,0.0,0.0,0.7109754,0.0,0.0,-0.001
9740000,0.0,0.70325345,0.0,0.0,0.7109392,0.0,0.0,-0.001
9788000,0.0,0.7031871,0.0,0.0,0.71100485,0.0,0.0,-0.001
9844000,0.0,0.70302516,0.0,0.0,0.7111651,0.0,0.0,-0.001
9892000,0.0,0.7030069,0.0,0.0,0.7111831,0.0,0.0,-0.001
9940000,0.0,0.702817,0.0,0.0,0.71137077,0.0,0.0,-0.001
9996000,0.0,0.70274645,0.0,0.0,0.7114404,0.0,0.0,-0.001
10036000,0.0,0.7027637,0.0,0.0,0.7114234,0.0,0.0,-0.001
10092000,0.0,0.70279235,0.0,0.0,0.71139514,0.0,0.0,-0.001
10140000,0.0,0.702697,0.0,0.0,0.71148926,0.0,0.0,-0.001
10196000,0.0,0.70265275,0.0,0.0,0.71153295,0.0,0.0,-0.001
10236000,0.0,0.70272684,0.0,0.0,0.71145976,0.0,0.0,-0.001
10292000,0.0,0.7027929,0.0,0.0,0.71139455,0.0,0.0,-0.001
10340000,0.0,0.70282006,0.0,0.0,0.7113677,0.0,0.0,-0.001
10388000,0.0,0.7027961,0.0,0.0,0.7113914,0.0,0.0,-0.001
10444000,0.0,0.7028643,0.0,0.0,0.71132404,0.0,0.0,-0.001
10492000,0.0,0.70277,0.0,0.0,0.71141714,0.0,0.0,-0.001
10540000,0.0,0.70274603,0.0,0.0,0.7114408,0.0,0.0,-0.001
10588000,0.0,0.70279425,0.0,0.0,0.71139324,0.0,0.0,-0.001
10636000,0.0,0.7028464,0.0,0.0,0.71134174,0.0,0.0,-0.001
10692000,0.0,0.7028743,0.0,0.0,0.7113141,0.0,0.0,-0.001
10740000,0.0,0.70282847,0.0,0.0,0.7113593,0.0,0.0,-0.001
10796000,0.0,0.70289093,0.0,0.0,0.71129775,0.0,0.0,-0.001
10844000,0.0,0.7029859,0.0,0.0,0.7112038,0.0,0.0,-0.001
10892000,0.0,0.7029682,0.0,0.0,0.71122134,0.0,0.0,-0.001
10940000,0.0,0.70295984,0.0,0.0,0.71122956,0.0,0.0,-0.001
10996000,0.0,0.70285183,0.0,0.0,0.7113364,0.0,0.0,-0.001
11036000,0.0,0.7027969,0.0,0.0,0.7113906,0.0,0.0,-0.001
11092000,0.0,0.7028517,0.0,0.0,0.71133643,0.0,0.0,-0.001
11140000,0.0,0.7028063,0.0,0.0,0.7113814,0.0,0.0,-0.001
11188000,0.0,0.7028385,0.0,0.0,0.7113495,0.0,0.0,-0.001
11244000,0.0,0.7029232,0.0,0.0,0.71126586,0.0,0.0,-0.001
11292000,0.0,0.7027869,0.0,0.0,0.7114005,0.0,0.0,-0.001
11340000,0.0,0.7026808,0.0,0.0,0.71150523,0.0,0.0,-0.001
11388000,0.0,0.702601,0.0,0.0,0.711584,0.0,0.0,-0.001
11436000,0.0,0.70259875,0.0,0.0,0.7115863,0.0,0.0,-0.001
11492000,0.0,0.7026096,0.0,0.0,0.71157557,0.0,0.0,-0.001
11540000,0.0,0.7026125,0.0,0.0,0.71157265,0.0,0.0,-0.001
11596000,0.0,0.70259506,0.0,0.0,0.7115899,0.0,0.0,-0.001
11644000,0.0,0.70258504,0.0,0.0,0.7115998,0.0,0.0,-0.001
11692000,0.0,0.7025775,0.0,0.0,0.7116072,0.0,0.0,-0.001
11740000,0.0,0.702683,0.0,0.0,0.7115031,0.0,0.0,-0.001
11796000,0.0,0.7026609,0.0,0.0,0.71152484,0.0,0.0,-0.001
11836000,0.0,0.70253164,0.0,0.0,0.7116526,0.0,0.0,-0.001
11892000,0.0,0.7025477,0.0,0.0,0.71163666,0.0,0.0,-0.001
11940000,0.0,0.7024687,0.0,0.0,0.7117146,0.0,0.0,-0.001
11996000,0.0,0.70238006,0.0,0.0,0.7118021,0.0,0.0,-0.001
12044000,0.0,0.70237356,0.0,0.0,0.71180856,0.0,0.0,-0.001
12092000,0.0,0.7023798,0.0,0.0,0.7118024,0.0,0.0,-0.001
12140000,0.0,0.70231384,0.0,0.0,0.71186745,0.0,0.0,-0.001
12196000,0.0,0.7022916,0.0,0.0,0.7118894,0.0,0.0,-0.001
12236000,0.0,0.7023052,0.0,0.0,0.71187603,0.0,0.0,-0.001
12292000,0.0,0.7023502,0.0,0.0,0.71183157,0.0,0.0,-0.001
12340000,0.0,0.7023781,0.0,0.0,0.71180415,0.0,0.0,-0.001
12396000,0.0,0.70238763,0.0,0.0,0.7117947,0.0,0.0,-0.001
12444000,0.0,0.70244026,0.0,0.0,0.7117427,0.0,0.0,-0.001
12492000,0.0,0.70252895,0.0,0.0,0.7116552,0.0,0.0,-0.001
12540000,0.0,0.7025,0.0,0.0,0.71168375,0.0,0.0,-0.001
12596000,0.0,0.70236355,0.0,0.0,0.7118185,0.0,0.0,-0.001
12636000,0.0,0.70227265,0.0,0.0,0.71190816,0.0,0.0,-0.001
12692000,0.0,0.70226693,0.0,0.0,0.71191376,0.0,0.0,-0.001
12740000,0.0,0.70226526,0.0,0.0,0.7119154,0.0,0.0,-0.001
12788000,0.0,0.70223296,0.0,0.0,0.71194726,0.0,0.0,-0.001
12844000,0.0,0.7022069,0.0,0.0,0.71197295,0.0,0.0,-0.001
12892000,0.0,0.70209,0.0,0.0,0.7120882,0.0,0.0,-0.001
12940000,0.0,0.7020312,0.0,0.0,0.7121463,0.0,0.0,-0.001
12996000,0.0,0.7020424,0.0,0.0,0.71213514,0.0,0.0,-0.001
13036000,0.0,0.7020058,0.0,0.0,0.71217126,0.0,0.0,-0.001
13092000,0.0,0.70193833,0.0,0.0,0.71223783,0.0,0.0,-0.001
13140000,0.0,0.70204693,0.0,0.0,0.71213067,0.0,0.0,-0.001
13196000,0.0,0.70210254,0.0,0.0,0.71207595,0.0,0.0,-0.001
13244000,0.0,0.7021481,0.0,0.0,0.712031,0.0,0.0,-0.001
13292000,0.0,0.70217675,0.0,0.0,0.71200275,0.0,0.0,-0.001
13340000,0.0,0.70208585,0.0,0.0,0.71209234,0.0,0.0,-0.001
13388000,0.0,0.70214033,0.0,0.0,0.7120387,0.0,0.0,-0.001
13444000,0.0,0.7020916,0.0,0.0,0.7120866,0.0,0.0,-0.001
13492000,0.0,0.7021468,0.0,0.0,0.7120322,0.0,0.0,-0.001
13540000,0.0,0.7021826,0.0,0.0,0.7119969,0.0,0.0,-0.001
13596000,0.0,0.7020948,0.0,0.0,0.7120835,0.0,0.0,-0.001
13636000,0.0,0.7021,0.0,0.0,0.7120784,0.0,0.0,-0.001
13692000,0.0,0.7020163,0.0,0.0,0.71216094,0.0,0.0,-0.001
13740000,0.0,0.70196325,0.0,0.0,0.7122133,0.0,0.0,-0.001
13788000,0.0,0.70194036,0.0,0.0,0.71223575,0.0,0.0,-0.001
13836000,0.0,0.70197344,0.0,0.0,0.7122032,0.0,0.0,-0.001
13892000,0.0,0.70202935,0.0,0.0,0.71214813,0.0,0.0,-0.001
13940000,0.0,0.701964,0.0,0.0,0.71221244,0.0,0.0,-0.001
13996000,0.0,0.7019564,0.0,0.0,0.7122199,0.0,0.0,-0.001
14036000,0.0,0.70191556,0.0,0.0,0.7122602,0.0,0.0,-0.001
14092000,0.0,0.7018229,0.0,0.0,0.71235156,0.0,0.0,-0.001
14140000,0.0,0.70175356,0.0,0.0,0.71241987,0.0,0.0,-0.001
14196000,0.0,0.7017702,0.0,0.0,0.71240336,0.0,0.0,-0.001
14236000,0.0,0.70174474,0.0,0.0,0.7124285,0.0,0.0,-0.001
14292000,0.0,0.7016686,0.0,0.0,0.71250355,0.0,0.0,-0.001
14340000,0.0,0.7016706,0.0,0.0,0.7125015,0.0,0.0,-0.001
14388000,0.0,0.7017221,0.0,0.0,0.7124508,0.0,0.0,-0.001
14444000,0.0,0.7016952,0.0,0.0,0.7124773,0.0,0.0,-0.001
14492000,0.0,0.701657,0.0,0.0,0.7125149,0.0,0.0,-0.001
14540000,0.0,0.7015409,0.0,0.0,0.71262926,0.0,0.0,-0.001
14596000,0.0,0.7014189,0.0,0.0,0.71274936,0.0,0.0,-0.001
14636000,0.0,0.70138466,0.0,0.0,0.71278304,0.0,0.0,-0.001
14692000,0.0,0.7013846,0.0,0.0,0.7127831,0.0,0.0,-0.001
14740000,0.0,0.7014055,0.0,0.0,0.7127624,0.0,0.0,-0.001
14796000,0.0,0.7014652,0.0,0.0,0.71270376,0.0,0.0,-0.001
14836000,0.0,0.7015671,0.0,0.0,0.7126034,0.0,0.0,-0.001
14892000,0.0,0.7015748,0.0,0.0,0.7125959,0.0,0.0,-0.001
14940000,0.0,0.7016341,0.0,0.0,0.7125375,0.0,0.0,-0.001
14996000,0.0,0.70173484,0.0,0.0,0.7124382,0.0,0.0,-0.001
15044000,0.0,0.70174074,0.0,0.0,0.7124325,0.0,0.0,-0.001
15092000,0.0,0.70167667,0.0,0.0,0.71249557,0.0,0.0,-0.001
15140000,0.0,0.7016658,0.0,0.0,0.71250623,0.0,0.0,-0.001
15196000,0.0,0.7014856,0.0,0.0,0.71268374,0.0,0.0,-0.001
15244000,0.0,0.70144445,0.0,0.0,0.7127242,0.0,0.0,-0.001
15292000,0.0,0.70132166,0.0,0.0,0.712845,0.0,0.0,-0.001
15340000,0.0,0.70124555,0.0,0.0,0.7129199,0.0,0.0,-0.001
15388000,0.0,0.7012416,0.0,0.0,0.71292377,0.0,0.0,-0.001
15436000,0.0,0.7012659,0.0,0.0,0.7128999,0.0,0.0,-0.001
15492000,0.0,0.70121676,0.0,0.0,0.71294814,0.0,0.0,-0.001
15540000,0.0,0.701246,0.0,0.0,0.71291935,0.0,0.0,-0.001
15588000,0.0,0.7011962,0.0,0.0,0.71296835,0.0,0.0,-0.001
15636000,0.0,0.7011267,0.0,0.0,0.7130368,0.0,0.0,-0.001
15692000,0.0,0.7011173,0.0,0.0,0.713046,0.0,0.0,-0.001
15740000,0.0,0.7012352,0.0,0.0,0.7129301,0.0,0.0,-0.001
15788000,0.0,0.7012691,0.0,0.0,0.7128967,0.0,0.0,-0.001
15836000,0.0,0.70124876,0.0,0.0,0.7129166,0.0,0.0,-0.001
15892000,0.0,0.7011857,0.0,0.0,0.71297866,0.0,0.0,-0.001
15940000,0.0,0.70111895,0.0,0.0,0.7130443,0.0,0.0,-0.001
15988000,0.0,0.70105743,0.0,0.0,0.7131048,0.0,0.0,-0.001
16036000,0.0,0.70099926,0.0,0.0,0.71316206,0.0,0.0,-0.001
16092000,0.0,0.70100635,0.0,0.0,0.71315503,0.0,0.0,-0.001
16140000,0.0,0.70093733,0.0,0.0,0.71322286,0.0,0.0,-0.001
16188000,0.0,0.70092595,0.0,0.0,0.7132341,0.0,0.0,-0.001
16236000,0.0,0.7008396,0.0,0.0,0.713319,0.0,0.0,-0.001
16292000,0.0,0.70085627,0.0,0.0,0.7133026,0.0,0.0,-0.001
16340000,0.0,0.7009222,0.0,0.0,0.7132378,0.0,0.0,-0.001
16396000,0.0,0.7009187,0.0,0.0,0.7132413,0.0,0.0,-0.001
16444000,0.0,0.7008333,0.0,0.0,0.7133251,0.0,0.0,-0.001
16492000,0.0,0.70086837,0.0,0.0,0.7132907,0.0,0.0,-0.001
16540000,0.0,0.7009653,0.0,0.0,0.7131954,0.0,0.0,-0.001
16588000,0.0,0.7009274,0.0,0.0,0.71323264,0.0,0.0,-0.001
16644000,0.0,0.70101225,0.0,0.0,0.71314925,0.0,0.0,-0.001
16692000,0.0,0.7009874,0.0,0.0,0.7131737,0.0,0.0,-0.001
16740000,0.0,0.7011068,0.0,0.0,0.7130564,0.0,0.0,-0.001
16796000,0.0,0.7012186,0.0,0.0,0.7129464,0.0,0.0,-0.001
16844000,0.0,0.7011937,0.0,0.0,0.71297085,0.0,0.0,-0.001
16892000,0.0,0.7011513,0.0,0.0,0.7130125,0.0,0.0,-0.001
16940000,0.0,0.70118725,0.0,0.0,0.7129772,0.0,0.0,-0.001
16988000,0.0,0.70114046,0.0,0.0,0.71302325,0.0,0.0,-0.001
17036000,0.0,0.70108134,0.0,0.0,0.71308136,0.0,0.0,-0.001
17092000,0.0,0.70101255,0.0,0.0,0.71314895,0.0,0.0,-0.001
17140000,0.0,0.7009872,0.0,0.0,0.7131739,0.0,0.0,-0.001
17196000,0.0,0.7009287,0.0,0.0,0.7132314,0.0,0.0,-0.001
17244000,0.0,0.70094866,0.0,0.0,0.7132117,0.0,0.0,-0.001
17292000,0.0,0.700911,0.0,0.0,0.71324885,0.0,0.0,-0.001
17340000,0.0,0.7008324,0.0,0.0,0.71332604,0.0,0.0,-0.001
17396000,0.0,0.7007442,0.0,0.0,0.7134127,0.0,0.0,-0.001
17444000,0.0,0.7006672,0.0,0.0,0.7134883,0.0,0.0,-0.001
17492000,0.0,0.70067036,0.0,0.0,0.7134851,0.0,0.0,-0.001
17540000,0.0,0.70062643,0.0,0.0,0.71352834,0.0,0.0,-0.001
17596000,0.0,0.70062685,0.0,0.0,0.71352786,0.0,0.0,-0.001
17636000,0.0,0.7005678,0.0,0.0,0.71358585,0.0,0.0,-0.001
17692000,0.0,0.7006502,0.0,0.0,0.71350497,0.0,0.0,-0.001
17740000,0.0,0.70062953,0.0,0.0,0.71352524,0.0,0.0,-0.001
17788000,0.0,0.7007006,0.0,0.0,0.7134555,0.0,0.0,-0.001
17844000,0.0,0.7006574,0.0,0.0,0.7134978,0.0,0.0,-0.001
17892000,0.0,0.70064986,0.0,0.0,0.7135054,0.0,0.0,-0.001
17940000,0.0,0.7006526,0.0,0.0,0.7135026,0.0,0.0,-0.001
17996000,0.0,0.7006985,0.0,0.0,0.7134575,0.0,0.0,-0.001
18044000,0.0,0.70076764,0.0,0.0,0.71338964,0.0,0.0,-0.001
18092000,0.0,0.70091075,0.0,0.0,0.71324897,0.0,0.0,-0.001
18140000,0.0,0.7008403,0.0,0.0,0.7133182,0.0,0.0,-0.001
18188000,0.0,0.70088375,0.0,0.0,0.7132755,0.0,0.0,-0.001
18236000,0.0,0.70090675,0.0,0.0,0.71325296,0.0,0.0,-0.001
18292000,0.0,0.700813,0.0,0.0,0.7133451,0.0,0.0,-0.001
18340000,0.0,0.70070666,0.0,0.0,0.7134495,0.0,0.0,-0.001
18388000,0.0,0.7006265,0.0,0.0,0.7135283,0.0,0.0,-0.001
18436000,0.0,0.7005721,0.0,0.0,0.71358174,0.0,0.0,-0.001
18492000,0.0,0.7006534,0.0,0.0,0.71350193,0.0,0.0,-0.001
18540000,0.0,0.70063287,0.0,0.0,0.71352196,0.0,0.0,-0.001
18596000,0.0,0.700621,0.0,0.0,0.71353364,0.0,0.0,-0.001
18636000,0.0,0.7006645,0.0,0.0,0.71349084,0.0,0.0,-0.001
18692000,0.0,0.7006263,0.0,0.0,0.71352845,0.0,0.0,-0.001
18740000,0.0,0.7005663,0.0,0.0,0.71358734,0.0,0.0,-0.001
18796000,0.0,0.70063996,0.0,0.0,0.713515,0.0,0.0,-0.001
18844000,0.0,0.700723,0.0,0.0,0.71343344,0.0,0.0,-0.001
18892000,0.0,0.70068026,0.0,0.0,0.71347547,0.0,0.0,-0.001
18940000,0.0,0.70073545,0.0013734621,-0.0002252853,0.7134199,0.0,0.0,-0.008070291
18996000,0.0,0.70062315,0.0010434757,-0.00027101472,0.7135308,0.0,0.0,-0.015365666
19044000,0.0,0.7006052,0.001544033,-1.2155557e-05,0.7135475,0.0,0.0,-0.022474546
19092000,0.0,0.7006244,0.0012738111,0.00012858132,0.71352917,0.0,0.0,-0.029910335
19140000,0.0,0.70059025,0.0017330662,8.072383e-05,0.7135617,0.0,0.0,-0.037019208
19188000,0.0,0.70049495,0.0017074083,0.00018758158,0.7136553,0.0,0.0,-0.04527104
19244000,0.0,0.7004532,0.0021363175,-0.0002356018,0.71369517,0.0,0.0,-0.055163447
19292000,0.0,0.700385,0.0014023451,-1.9545943e-05,0.71376395,0.0,0.0,-0.063966736
19340000,0.0,0.70047,0.002315974,-0.00024553319,0.7136781,0.0,0.0,-0.073645286
19396000,0.0,0.7004959,0.002757513,-0.0012902108,0.71365,0.0,0.0,-0.08529672
19444000,0.0,0.7006625,0.0027266198,-0.0013975974,0.7134863,0.0,0.0,-0.09581949
19492000,0.0,0.7007018,0.002830995,-0.0018599364,0.7134463,0.0,0.0,-0.106142156
19540000,0.0,0.7007018,0.0024431353,-0.0015021753,0.7134485,0.0,0.0,-0.11763984
19596000,0.0,0.7007195,0.0022386194,-0.0019595595,0.71343076,0.0,0.0,-0.13080446
19636000,0.0,0.7007009,0.00258057,-0.0017050522,0.7134485,0.0,0.0,-0.14105861
19692000,0.0,0.7009022,0.0024672288,-0.00209838,0.71325004,0.0,0.0,-0.15558569
19740000,0.0,0.70098215,0.0026879671,-0.0024811446,0.71316946,0.0,0.0,-0.16863509
19796000,0.0,0.7010926,0.0023892035,-0.0015388748,0.7130646,0.0,0.0,-0.18405482
19844000,0.0,0.70120776,0.0026670848,-0.0015374651,0.7129504,0.0,0.0,-0.19785158
19892000,0.0,0.7012318,0.002995699,-0.0008435307,0.7129267,0.0,0.0,-0.21187444
19940000,0.0,0.70116305,0.0028702973,-0.0018477287,0.71299285,0.0,0.0,-0.22607268
19996000,0.0,0.7011905,0.0031011407,-0.002095237,0.7129643,0.0,0.0,-0.24360472
20036000,0.0,0.7011865,0.0034357768,-0.0018015569,0.7129674,0.0,0.0,-0.2564228
20092000,0.0,0.70127743,0.0027586324,-0.0018403812,0.7128808,0.0,0.0,-0.27492678
20140000,0.0,0.70113873,0.0033005765,-0.0025516164,0.7130127,0.0,0.0,-0.29180518
20188000,0.0,0.7012372,0.003040668,-0.002301711,0.7129179,0.0,0.0,-0.30897474
20236000,0.0,0.70122856,0.0033152504,-0.0021368028,0.7129257,0.0,0.0,-0.31930053
20292000,0.0,0.70112705,0.003237439,-0.0016676391,0.71302706,0.0,0.0,-0.32492098
20340000,0.0,0.7011127,0.0033064834,-0.0019389975,0.7130402,0.0,0.0,-0.32866025
20396000,0.0,0.7010409,0.0038016364,-0.0023736742,0.71310693,0.0,0.0,-0.33506107
20436000,0.0,0.7009113,0.0038701163,-0.0019101445,0.71323544,0.0,0.0,-0.33914262
20492000,0.0,0.70089656,0.0037338978,-0.0014359157,0.7132517,0.0,0.0,-0.34486657
20540000,0.0,0.70088,0.0039867717,-0.0016256379,0.7132662,0.0,0.0,-0.3497037
20596000,0.0,0.70082587,0.003710524,-0.0013149979,0.7133215,0.0,0.0,-0.35677132
20644000,0.0,0.70072705,0.0037025667,-0.0017090044,0.7134179,0.0,0.0,-0.36276183
20692000,0.0,0.7007321,0.0039929007,-0.002277408,0.7134097,0.0,0.0,-0.36773634
20740000,0.0,0.70071644,0.0037551362,-0.0016363566,0.71342814,0.0,0.0,-0.37220636
20796000,0.0,0.7006741,0.0045698257,-0.0018853635,0.71346426,0.0,0.0,-0.38081676
20844000,0.0,0.70065945,0.004540742,-0.0016209503,0.7134796,0.0,0.0,-0.3876925
20892000,0.0,0.70065516,0.004435141,-0.0019981398,0.71348345,0.0,0.0,-0.3925342
20940000,0.0,0.70068216,0.0044987476,-0.0021065602,0.71345633,0.0,0.0,-0.39807117
20996000,0.0,0.7006287,0.005283185,-0.0018058787,0.7135042,0.0,0.0,-0.4068074
21044000,0.0,0.7005352,0.0051748333,-0.002016557,0.71359634,0.0,0.0,-0.4136528
21092000,0.0,0.70049846,0.0053929896,-0.0016922605,0.7136315,0.0,0.0,-0.41944796
21140000,0.0,0.7005433,0.0055402406,-0.0016654572,0.7135865,0.0,0.0,-0.4259482
21196000,0.0,0.7005005,0.0056045507,-0.0017351374,0.7136279,0.0,0.0,-0.4356029
21244000,0.0,0.7005662,0.00579108,-0.001904439,0.7135614,0.0,0.0,-0.442731
21292000,0.0,0.7005651,0.0055490476,-0.0015990216,0.7135652,0.0,0.0,-0.4487676
21340000,0.0,0.7005463,0.0054338877,-0.0017876851,0.713584,0.0,0.0,-0.45585278
21396000,0.0,0.70064366,0.0060245376,-0.0016207345,0.7134841,0.0,0.0,-0.46646455
21436000,0.0,0.70050263,0.006409003,-0.001981462,0.71361834,0.0,0.0,-0.47274494
21492000,0.0,0.70047444,0.0060981293,-0.0014152288,0.71365005,0.0,0.0,-0.48105073
21540000,0.0,0.7003909,0.0064735906,-0.0017842497,0.71372795,0.0,0.0,-0.4875977
21588000,0.0,0.70025986,0.007069738,-0.0016640055,0.7138512,0.0,0.0,-0.49838135
21636000,0.0,0.70033145,0.006698398,-0.0006565064,0.7137861,0.0,0.0,-0.5059593
21692000,0.0,0.70033467,0.0067554624,-0.0014820503,0.7137812,0.0,0.0,-0.5143755
21740000,0.0,0.7003591,0.0068116253,-0.0012583731,0.7137571,0.0,0.0,-0.521626
21788000,0.0,0.7002799,0.007204767,-0.001328652,0.7138308,0.0,0.0,-0.53271073
21844000,0.0,0.7003797,0.007591445,-0.0013945589,0.71372867,0.0,0.0,-0.54199606
21892000,0.0,0.7003622,0.0069920113,-0.00095470436,0.7137528,0.0,0.0,-0.5496591
21940000,0.0,0.70038056,0.007158822,-0.00055613794,0.71373355,0.0,0.0,-0.5835856
21996000,0.0,0.70046896,0.00730704,-0.00040242897,0.7136454,0.0,0.0,-0.59571403
22044000,0.0,0.70039344,0.0076208618,-8.4782194e-05,0.7137163,0.0,0.0,-0.6048056
22092000,0.0,0.700423,0.0076409844,0.0005964264,0.7136869,0.0,0.0,-0.6122173
22140000,0.0,0.70050395,0.008281053,0.00045601313,0.7136004,0.0,0.0,-0.6205961
22196000,0.0,0.7004561,0.007849221,0.0007465743,0.713652,0.0,0.0,-0.6338153
22244000,0.0,0.7005457,0.007876815,0.0008304678,0.7135636,0.0,0.0,-0.6425937
22292000,0.0,0.70054096,0.008072322,0.0007427887,0.7135661,0.0,0.0,-0.651429
22340000,0.0,0.7005448,0.008569015,0.00060210814,0.71355677,0.0,0.0,-0.6598521
22396000,0.0,0.70043296,0.008096587,0.0009352341,0.7136717,0.0,0.0,-0.6740199
22444000,0.0,0.70038056,0.007963678,0.0008274284,0.7137248,0.0,0.0,-0.6834702
22492000,0.0,0.70046324,0.008692765,0.0010984669,0.7136347,0.0,0.0,-0.69273376
22540000,0.0,0.7004574,0.009154945,0.0015794097,0.7136338,0.0,0.0,-0.70217556
22588000,0.0,0.7005199,0.009001805,0.0013702417,0.7135748,0.0,0.0,-0.71494204
22636000,0.0,0.70049995,0.008063933,0.00219764,0.71360344,0.0,0.0,-0.7214488
22692000,0.0,0.7005402,0.0072995713,0.0020578476,0.7135727,0.0,0.0,-0.7268171
22740000,0.0,0.70069003,0.0061127455,0.0021228779,0.71343654,0.0,0.0,-0.7315953
22796000,0.0,0.7007389,0.0043347282,0.0019186157,0.7134021,0.0,0.0,-0.74010396
22844000,0.0,0.7007015,0.0018755565,0.0021420836,0.71344894,0.0,0.0,-0.742946
22892000,0.0,0.7006515,-0.0010677539,0.002268963,0.71349925,0.0,0.0,-0.7447458
22940000,0.0,0.70059,-0.0030718774,0.002704159,0.7135523,0.0,0.0,-0.7451739
22988000,0.0,0.7006702,-0.005833945,0.0029498513,0.7134554,0.0,0.0,-0.75072616
23044000,0.0,0.70049953,-0.008297891,0.003752979,0.7135948,0.0,0.0,-0.75033575
23092000,0.0,0.7004066,-0.009839668,0.0036223908,0.7136671,0.0,0.0,-0.75044596
23140000,0.0,0.7002568,-0.011418702,0.0033694368,0.71379185,0.0,0.0,-0.7497522
23188000,0.0,0.70010245,-0.012656985,0.00375693,0.7139203,0.0,0.0,-0.75546867
23244000,0.0,0.7000963,-0.014360976,0.003595641,0.713895,0.0,0.0,-0.7534856
23292000,0.0,0.70007056,-0.014953644,0.003301962,0.7139095,0.0,0.0,-0.752382
23340000,0.0,0.70009243,-0.015624452,0.0032962316,0.7138736,0.0,0.0,-0.7482451
23396000,0.0,0.70006526,-0.015791535,0.0029471584,0.7138982,0.0,0.0,-0.73807347
23444000,0.0,0.6999617,-0.016005008,0.0022421766,0.71399754,0.0,0.0,-0.7259074
23492000,0.0,0.6997568,-0.016737085,0.002456006,0.7141808,0.0,0.0,-0.7254052
23540000,0.0,0.69964254,-0.017204436,0.0023741804,0.71428186,0.0,0.0,-0.7258338
23596000,0.0,0.699532,-0.017213916,0.0023301519,0.71439016,0.0,0.0,-0.73134726
23644000,0.0,0.6994535,-0.017138531,0.0016475393,0.7144706,0.0,0.0,-0.7315715
23692000,0.0,0.69938934,-0.016808053,0.0011123542,0.7145424,0.0,0.0,-0.72569066
23740000,0.0,0.6993296,-0.016504854,0.00067809806,0.71460843,0.0,0.0,-0.7184205
23788000,0.0,0.6991845,-0.015755882,0.00077561964,0.7147672,0.0,0.0,-0.7242898
23844000,0.0,0.6990753,-0.01556406,0.0006171179,0.7148783,0.0,0.0,-0.7204999
23892000,0.0,0.698986,-0.015726611,0.00018154226,0.7149623,0.0,0.0,-0.7198263
23940000,0.0,0.69888157,-0.01602877,6.6484245e-05,0.71505773,0.0,0.0,-0.7198312
23996000,0.0,0.6988832,-0.015782967,-0.0008008861,0.7150613,0.0,0.0,-0.7242799
24044000,0.0,0.6987559,-0.015141242,-0.00063204445,0.7151996,0.0,0.0,-0.72105217
24092000,0.0,0.69863784,-0.015034913,-0.00088141055,0.715317,0.0,0.0,-0.7203139
24140000,0.0,0.6985637,-0.015104264,-0.0009601353,0.7153878,0.0,0.0,-0.719563
24196000,0.0,0.6984727,-0.0143393725,-0.0015880164,0.7154913,0.0,0.0,-0.72369283
24236000,0.0,0.69858027,-0.014060874,-0.0008459836,0.715393,0.0,0.0,-0.72306156
24292000,0.0,0.6986467,-0.01370413,-0.0014584174,0.71533406,0.0,0.0,-0.7189
24340000,0.0,0.6986074,-0.0131965615,-0.0013973736,0.7153821,0.0,0.0,-0.71800846
24396000,0.0,0.698592,-0.012878583,-0.002235804,0.7154009,0.0,0.0,-0.7215743
24436000,0.0,0.698541,-0.012070702,-0.0019913302,0.7154654,0.0,0.0,-0.7215565
24492000,0.0,0.6985702,-0.011667417,-0.0014677093,0.71544486,0.0,0.0,-0.7171998
24540000,0.0,0.6985755,-0.010498852,-0.001417618,0.7154579,0.0,0.0,-0.7156591
24596000,0.0,0.69859725,-0.009617162,-0.0015685704,0.71544874,0.0,0.0,-0.71957725
24644000,0.0,0.69857574,-0.008597301,-0.0016456639,0.71548265,0.0,0.0,-0.7163282
24692000,0.0,0.69851077,-0.008606743,-0.0018466228,0.7155455,0.0,0.0,-0.7153285
24740000,0.0,0.69840974,-0.008811919,-0.0027431995,0.71563864,0.0,0.0,-0.7146854
24788000,0.0,0.6984726,-0.007921635,-0.002081523,0.71558994,0.0,0.0,-0.7194576
24844000,0.0,0.698535,-0.007882688,-0.0022774322,0.71552885,0.0,0.0,-0.7153851
24892000,0.0,0.69860137,-0.007319785,-0.002584767,0.715469,0.0,0.0,-0.7146616
24940000,0.0,0.69854736,-0.006488289,-0.0023634345,0.7155305,0.0,0.0,-0.71351904
24988000,0.0,0.69855154,-0.006318413,-0.0021797547,0.71552855,0.0,0.0,-0.71810645
25044000,0.0,0.6984693,-0.005107124,-0.0017757731,0.7156196,0.0,0.0,-0.71433866
25092000,0.0,0.69851583,-0.0055057043,-0.001742418,0.71557134,0.0,0.0,-0.7134991
25140000,0.0,0.698498,-0.0059211045,-0.0021603282,0.7155842,0.0,0.0,-0.7124526
25188000,0.0,0.69857115,-0.006127547,-0.0028110002,0.7155089,0.0,0.0,-0.71617526
25244000,0.0,0.6985935,-0.005305326,-0.0024630425,0.715495,0.0,0.0,-0.7125972
25292000,0.0,0.6977593,-0.005098323,-0.0019209915,0.71631163,0.0,0.0,-0.711559
25340000,0.0,0.6977487,-0.0046654856,-0.0018239495,0.7163251,0.0,0.0,-0.71060985
25396000,0.0,0.698401,-0.0037668732,-0.0019445993,0.7156942,0.0,0.0,-0.71378314
25444000,0.0,0.6988425,-0.0032012966,-0.0018198238,0.71526605,0.0,0.0,-0.71085656
25492000,0.0,0.69915867,-0.0034464078,-0.0018946441,0.7149558,0.0,0.0,-0.709848
25540000,0.0,0.6994936,-0.0032700044,-0.0023110001,0.7146277,0.0,0.0,-0.7089114
25588000,0.0,0.69969845,-0.003487537,-0.0026060245,0.714425,0.0,0.0,-0.71318084
25636000,0.0,0.69981277,-0.002985909,-0.002547969,0.7143156,0.0,0.0,-0.7122029
25692000,0.0,0.6997635,-0.002354222,-0.003126665,0.71436393,0.0,0.0,-0.7087817
25740000,0.0,0.6997894,-0.00215619,-0.0028731946,0.7143402,0.0,0.0,-0.7074681
25796000,0.0,0.6996905,-0.0021730221,-0.0022677178,0.7144392,0.0,0.0,-0.71068466
25836000,0.0,0.6995811,-0.001351899,-0.0029634433,0.71454585,0.0,0.0,-0.71039045
25892000,0.0,0.6996149,-0.0016187466,-0.0030740201,0.7145117,0.0,0.0,-0.70657593
25940000,0.0,0.6996415,-0.0015002146,-0.0033629471,0.7144846,0.0,0.0,-0.7056362
25996000,0.0,0.69975203,-0.0013106856,-0.0034928194,0.71437603,0.0,0.0,-0.7087
26044000,0.0,0.6998592,-0.0007747819,-0.0031306108,0.7142736,0.0,0.0,-0.70634973
26092000,0.0,0.6998578,-0.00047652968,-0.0040463335,0.7142706,0.0,0.0,-0.705908
26140000,0.0,0.69992477,-0.0014039635,-0.004783725,0.7141992,0.0,0.0,-0.705113
26196000,0.0,0.6997465,-0.0013592538,-0.0042462423,0.71437734,0.0,0.0,-0.70206654
26244000,0.0,0.69971097,-0.00071544386,-0.0049670013,0.71440846,0.0,0.0,-0.69044656
26292000,0.0023259697,0.69967586,-0.0009941019,-0.004444568,0.7144459,0.0,0.0,-0.6823985
26340000,0.0,0.69967604,-0.00080063357,-0.0044834595,0.7144457,0.0,0.0,-0.67527854
26396000,0.0,0.69967645,-0.0003556788,-0.0042383373,0.7144472,0.0,0.0,-0.6626371
26436000,0.0,0.6996764,-0.00046927223,-0.0048846765,0.714443,0.0,0.0,-0.655134
26492000,0.0,0.69967604,-0.0008746514,-0.005214361,0.71444064,0.0,0.0,-0.6579033
26540000,0.0,0.69967633,-0.0005903536,-0.005296518,0.7144401,0.0,0.0,-0.6680151
26588000,0.0,0.69967574,-0.0010459196,-0.0049744016,0.71444255,0.0,0.0,-0.6783162
26644000,0.0,0.69967455,-0.0016460894,-0.004485417,0.71444577,0.0,0.0,-0.6922478
26692000,0.0,0.6996755,-0.0011770303,-0.0045265337,0.71444553,0.0,0.0,-0.70090944
26740000,0.0,0.699676,-0.0008437603,-0.0040379683,0.7144484,0.0,0.0,-0.70781773
26796000,0.0,0.6996763,-0.0005400688,-0.003339524,0.714452,0.0,0.0,-0.71535695
26836000,0.0,0.69967645,-0.00020461017,-0.0028969282,0.714454,0.0,0.0,-0.7188658
26892000,0.0,0.69967645,-4.531998e-05,-0.0032247414,0.7144525,0.0,0.0,-0.7216911
26940000,0.0,0.6996765,0.0001856593,-0.003087406,0.7144531,0.0,0.0,-0.72025824
26996000,0.0,0.6996763,0.0005582823,-0.002947647,0.7144537,0.0,0.0,-0.71689385
27044000,0.0,0.69967586,0.000977475,-0.0027347028,0.71445453,0.0,0.0,-0.7120391
27092000,0.0,0.6996761,0.00076444744,-0.0025218176,0.71445537,0.0,0.0,-0.7084314
27140000,0.0,0.6996756,0.0011050005,-0.0020501215,0.714457,0.0,0.0,-0.7063415
27196000,0.0,0.6996749,0.0014880802,-0.0016258521,0.714458,0.0,0.0,-0.70552075
27244000,0.0,0.69967455,0.0016434306,-0.0014170051,0.7144584,0.0,0.0,-0.70461106
27292000,0.0,0.69967395,0.001916246,-0.0022692482,0.7144561,0.0,0.0,-0.7033198
27340000,0.0,0.6996745,0.0016957627,-0.0022935614,0.71445614,0.0,0.0,-0.7033982
27396000,0.0,0.69967294,0.0022700396,-0.002663771,0.71445477,0.0,0.0,-0.7043873
27444000,0.0,0.69967204,0.0025370284,-0.0024899142,0.71445537,0.0,0.0,-0.70383376
27492000,0.0,0.699673,0.0022523834,-0.0031301964,0.7144528,0.0,0.0,-0.70373166
27540000,0.0,0.69967145,0.0027018506,-0.0026635556,0.71445477,0.0,0.0,-0.7038637
27588000,0.0,0.69967,0.0030472279,-0.002186573,0.7144563,0.0,0.0,-0.7054211
27644000,0.0,0.6996696,0.0031232676,-0.0011795203,0.71445876,0.0,0.0,-0.7048931
27692000,0.0,0.69967234,0.002415307,-0.0011221612,0.71445894,0.0,0.0,-0.7040266
27740000,0.0,0.69967324,0.0021622437,-0.00193105,0.7144571,0.0,0.0,-0.7034681
27788000,0.0,0.69967276,0.0022951318,-0.001970199,0.7144571,0.0,0.0,-0.7044367
27844000,0.0,0.6996722,0.0024590276,-0.0020651368,0.7144568,0.0,0.0,-0.7043653
27892000,0.0,0.6996726,0.0023662697,-0.0021776534,0.7144565,0.0,0.0,-0.7045957
27940000,0.0,0.69967395,0.0018760107,-0.00089550007,0.71445924,0.0,0.0,-0.7045169
27988000,-0.00837758,0.69970816,0.0024335587,-0.0012482684,0.7144236,0.0,0.0,-0.70578074
28044000,-0.027925268,0.7000731,0.0026089482,-0.017144343,0.7138605,0.0,0.0,-0.7055262
28092000,-0.0418879,0.7005777,0.0018433449,-0.02992988,0.7129457,0.0,0.0,-0.7069012
28140000,-0.055850536,0.70127356,-0.0025196339,-0.038267817,0.71186,0.0,0.0,-0.70762336
28196000,-0.07819075,0.7026908,-0.012621179,-0.05051527,0.7095876,0.0,0.0,-0.70904976
28244000,-0.09773844,0.7042234,-0.021515468,-0.06091984,0.7070326,0.0,0.0,-0.7102874
28292000,-0.11170107,0.70546854,-0.02826336,-0.067489125,0.7049542,0.0,0.0,-0.71033835
28340000,-0.12566371,0.70684963,-0.034903623,-0.07353597,0.70266485,0.0,0.0,-0.7101762
28396000,-0.14800394,0.70935005,-0.04525787,-0.08516892,0.69822663,0.0,0.0,-0.7113751
28444000,-0.16755164,0.7118164,-0.0543293,-0.09531939,0.69374347,0.0,0.0,-0.71311224
28492000,-0.18151428,0.7138064,-0.059969213,-0.10179581,0.6903056,0.0,0.0,-0.7138673
28540000,-0.19547692,0.7159278,-0.06574653,-0.10775794,0.6866681,0.0,0.0,-0.71490705
28596000,-0.21781714,0.71950257,-0.076009214,-0.11963062,0.6798729,0.0,0.0,-0.7176909
28636000,-0.23177978,0.72200537,-0.0815046,-0.12597986,0.6754216,0.0,0.0,-0.71932644
28692000,-0.25132748,0.72590804,-0.08777664,-0.13557243,0.66856027,0.0,0.0,-0.7210725
28740000,-0.2652901,0.7289762,-0.091467015,-0.13994792,0.66380876,0.0,0.0,-0.72094125
28796000,-0.28763032,0.73409617,-0.098004155,-0.15185319,0.6545522,0.0,0.0,-0.725283
28836000,-0.30159295,0.73820376,-0.096734524,-0.15352868,0.6497127,0.0,0.0,-0.7232573
28892000,-0.32114062,0.74402577,-0.096338995,-0.1570287,0.642251,0.0,0.0,-0.7220855
28940000,-0.33510324,0.7485669,-0.094417706,-0.15821764,0.6369458,0.0,0.0,-0.7203302
28996000,-0.35744345,0.7558098,-0.09370437,-0.16273054,0.6272877,0.0,0.0,-0.72138596
29044000,-0.37699112,0.76242626,-0.092955664,-0.16706108,0.61818767,0.0,0.0,-0.7247532
29092000,-0.39095375,0.7676035,-0.09011375,-0.16599032,0.6124634,0.0,0.0,-0.7245944
29140000,-0.40491638,0.77296084,-0.08655695,-0.1647863,0.60653514,0.0,0.0,-0.7241439
29196000,-0.42725658,0.7813536,-0.08360586,-0.16902773,0.59491706,0.0,0.0,-0.7268109
29244000,-0.44680426,0.788875,-0.08117835,-0.17218925,0.58432627,0.0,0.0,-0.72903734
29292000,-0.46076688,0.79443324,-0.07892257,-0.17252989,0.57695794,0.0,0.0,-0.729804
29340000,-0.4747295,0.80014735,-0.076014474,-0.17173293,0.56964356,0.0,0.0,-0.7307036
29388000,-0.49706972,0.8089187,-0.07502609,-0.17808487,0.55525434,0.0,0.0,-0.73416173
29436000,-0.51103234,0.8147982,-0.07194162,-0.17731808,0.5472537,0.0,0.0,-0.7338833
29492000,-0.53058004,0.8229843,-0.06818224,-0.1782863,0.53503466,0.0,0.0,-0.7332536
29540000,-0.5445427,0.8290076,-0.064786434,-0.17666595,0.52662915,0.0,0.0,-0.731165
29596000,-0.56688285,0.838231,-0.06200151,-0.18100631,0.51064783,0.0,0.0,-0.73260355
29644000,-0.58643055,0.84635556,-0.058323134,-0.18452193,0.49621806,0.0,0.0,-0.73352975
29692000,-0.6003932,0.8523146,-0.053455703,-0.1851377,0.48623702,0.0,0.0,-0.73320657
29740000,-0.6143558,0.8583049,-0.04764662,-0.18490031,0.47629234,0.0,0.0,-0.73277617
29796000,-0.636696,0.8673006,-0.042830914,-0.19007283,0.45806938,0.0,0.0,-0.73486817
29844000,-0.6562437,0.8749667,-0.039266817,-0.19518581,0.44135478,0.0,0.0,-0.73788744
29892000,-0.6702063,0.8812287,-0.03190087,-0.18904527,0.43206507,0.0,0.0,-0.73316264
29940000,-0.68416893,0.8875459,-0.025230888,-0.18173428,0.422609,0.0,0.0,-0.72759056
29996000,-0.6942834,0.896851,-0.01620721,-0.17711836,0.4049995,0.0,0.0,-0.72553194
30044000,-0.6747357,0.9044672,-0.008237168,-0.17336816,0.38963395,0.0,0.0,-0.72555953
30092000,-0.6607731,0.9098145,0.0006669588,-0.16706428,0.37990353,0.0,0.0,-0.72472584
30140000,-0.6468105,0.9150998,0.008371073,-0.15910962,0.3704139,0.0,0.0,-0.72353977
30196000,-0.6244703,0.9223177,0.01719353,-0.15446271,0.35380203,0.0,0.0,-0.72390455
30236000,-0.61050767,0.9268302,0.022446122,-0.14883722,0.3439906,0.0,0.0,-0.7237728
30292000,-0.59095997,0.9327934,0.029323293,-0.14097285,0.33039865,0.0,0.0,-0.7224089
30340000,-0.57699734,0.9372742,0.033708904,-0.13125075,0.32117587,0.0,0.0,-0.72002566
30388000,-0.55465716,0.94289786,0.03821267,-0.127643,0.3052716,0.0,0.0,-0.72063816
30436000,-0.54069453,0.94691366,0.042234015,-0.11743069,0.29627845,0.0,0.0,-0.7179674
30492000,-0.52114683,0.9515935,0.048454847,-0.10832491,0.2835272,0.0,0.0,-0.71832746
30540000,-0.5071842,0.95506847,0.052582357,-0.09818937,0.27466005,0.0,0.0,-0.71736354
30596000,-0.484844,0.9596641,0.057548072,-0.08931397,0.26029992,0.0,0.0,-0.71662956
30644000,-0.46529633,0.9636273,0.058217477,-0.08149979,0.24777204,0.0,0.0,-0.715941
30692000,-0.4513337,0.9671418,0.053600423,-0.069264755,0.23867586,0.0,0.0,-0.7129672
30740000,-0.43737108,0.9703902,0.048365284,-0.056795232,0.22973442,0.0,0.0,-0.7109271
30788000,-0.41503087,0.97392035,0.041296903,-0.05544951,0.21609978,0.0,0.0,-0.7177699
30836000,-0.40106824,0.9756305,0.041245274,-0.055768665,0.20816772,0.0,0.0,-0.7167804
30892000,-0.38152057,0.9778311,0.041224174,-0.05604037,0.19749993,0.0,0.0,-0.7161793
30940000,-0.36755794,0.97933507,0.041536454,-0.054781504,0.19020146,0.0,0.0,-0.71531034
30996000,-0.34521773,0.98114854,0.04033974,-0.060581826,0.17902549,0.0,0.0,-0.71546125
31044000,-0.32567006,0.98248816,0.040190373,-0.06519848,0.16985554,0.0,0.0,-0.7152496
31092000,-0.31170744,0.9836101,0.03863624,-0.06543635,0.16351311,0.0,0.0,-0.7145939
31140000,-0.2977448,0.98474056,0.037170872,-0.06417433,0.15743579,0.0,0.0,-0.71337837
31196000,-0.2754046,0.9857763,0.035837132,-0.070320554,0.14837706,0.0,0.0,-0.71283543
31236000,-0.26144198,0.986453,0.034135886,-0.0727886,0.14299327,0.0,0.0,-0.7122335
31292000,-0.24189429,0.987515,0.03334674,-0.07212471,0.13601536,0.0,0.0,-0.7114993
31340000,-0.22793165,0.9882982,0.032276258,-0.07057912,0.13131447,0.0,0.0,-0.7116783
31388000,-0.20559143,0.98867536,0.03184058,-0.07752892,0.12448472,0.0,0.0,-0.7131948
31444000,-0.18604372,0.9892782,0.031112859,-0.078675985,0.11904097,0.0,0.0,-0.71266913
31492000,-0.17208108,0.9899823,0.028588412,-0.07629072,0.115314655,0.0,0.0,-0.71203953
31540000,-0.15811844,0.99058104,0.027371,-0.07391695,0.11196586,0.0,0.0,-0.71180177
31596000,-0.13577822,0.99070084,0.025773028,-0.079699196,0.107217684,0.0,0.0,-0.7134333
31644000,-0.116230525,0.9908647,0.02387357,-0.08298802,0.10358655,0.0,0.0,-0.7141578
31692000,-0.10226789,0.99130327,0.023349686,-0.08056934,0.1013967,0.0,0.0,-0.7132312
31740000,-0.08830526,0.9917531,0.02207518,-0.07780667,0.09942103,0.0,0.0,-0.7129645
31788000,-0.06596504,0.99141824,0.021508666,-0.085043326,0.09692723,0.0,0.0,-0.7142824
31836000,-0.052002408,0.9918139,0.019883472,-0.08223738,0.095639214,0.0,0.0,-0.7134082
31892000,-0.03245472,0.9918965,0.018396992,-0.08307449,0.094347656,0.0,0.0,-0.7127989
31940000,-0.018492088,0.9922147,0.01607746,-0.0804816,0.093671106,0.0,0.0,-0.71249837
31988000,0.0038481262,0.99155146,0.015391313,-0.08877562,0.09331523,0.0,0.0,-0.7141986
32044000,0.023395814,0.991546,0.013644678,-0.08889133,0.09353439,0.0,0.0,-0.71402735
32092000,0.028486593,0.9917445,0.011804041,-0.08644399,0.09397331,0.0,0.0,-0.7134942
32140000,0.014523959,0.9919609,0.010653939,-0.08367194,0.09433542,0.0,0.0,-0.7125225
32188000,-0.007816255,0.9913001,0.0100245895,-0.09130142,0.09427507,0.0,0.0,-0.71437985
32244000,-0.00647332,0.9913158,0.00808595,-0.09182677,0.093784355,0.0,0.0,-0.71465147
32292000,-0.003635955,0.9916701,0.007328615,-0.0881131,0.09366344,0.0,0.0,-0.71369493
32340000,-0.0036553675,0.991978,0.0061017694,-0.084835924,0.093516484,0.0,0.0,-0.71266407
32396000,-0.0030075116,0.99160564,0.005366203,-0.08945993,0.09320103,0.0,0.0,-0.7132264
32444000,-0.0037063633,0.99134296,0.00420036,-0.0926984,0.0928901,0.0,0.0,-0.7143275
32492000,-0.0038876438,0.9916423,0.003135041,-0.08961794,0.092759386,0.0,0.0,-0.7135179
32540000,-0.0038229052,0.99196345,0.0017908341,-0.08618519,0.092614375,0.0,0.0,-0.7127056
32596000,-0.003079845,0.9916592,0.0008781765,-0.08997867,0.09227696,0.0,0.0,-0.71370125
32644000,-0.0037671477,0.99132305,0.00096463866,-0.09383323,0.09204892,0.0,0.0,-0.7152306
32692000,-0.003610531,0.9916174,0.00049217744,-0.09074101,0.091983005,0.0,0.0,-0.71395296
32740000,-0.0035245772,0.99188834,0.0003363237,-0.08777173,0.09194358,0.0,0.0,-0.7129888
32796000,-0.0025299853,0.9914688,0.00040321713,-0.0926578,0.09167321,0.0,0.0,-0.7148257
32836000,-0.002369288,0.99145764,-0.00013818027,-0.092923224,0.0915259,0.0,0.0,-0.7142223
32892000,-0.0033946212,0.991361,-0.0006098595,-0.09413918,0.09132746,0.0,0.0,-0.7140543
32940000,-0.00322799,0.9915953,-0.001038292,-0.091701195,0.09126086,0.0,0.0,-0.71328723
32996000,-0.002142514,0.99132544,-0.001692279,-0.09484366,0.09097115,0.0,0.0,-0.71393114
33044000,-0.0028325731,0.99103624,-0.0013876694,-0.0979855,0.09079699,0.0,0.0,-0.7144094
33092000,-0.0027135292,0.9912712,-0.0018784078,-0.09562673,0.090737805,0.0,0.0,-0.7138383
33140000,-0.002641895,0.99160624,-0.002981038,-0.09213663,0.09065867,0.0,0.0,-0.7128032
33196000,-0.0012483587,0.9913147,-0.0026278645,-0.09540594,0.090476446,0.0,0.0,-0.71407354
33244000,-0.0023423138,0.99106413,-0.0022141018,-0.09810679,0.09034417,0.0,0.0,-0.71506983
33292000,-0.0021737393,0.99144447,-0.001975678,-0.09412216,0.09041552,0.0,0.0,-0.71426433
33340000,-0.0021776804,0.99175644,-0.002166662,-0.09075687,0.090429835,0.0,0.0,-0.71393585
33396000,-6.0257968e-05,0.99144524,-0.0014559655,-0.094228625,0.090305984,0.0,0.0,-0.7155569
33444000,-0.0018458937,0.9912081,-0.00048366038,-0.09674489,0.09025928,0.0,0.0,-0.7155696
33492000,-0.0016285216,0.9915851,-0.0011485014,-0.09279846,0.09025592,0.0,0.0,-0.7133636
33540000,-0.001404393,0.9919087,-0.0013802123,-0.08924051,0.09028398,0.0,0.0,-0.71229845
33596000,0.0,0.9916425,-0.0011983583,-0.09228174,0.0901547,0.0,0.0,-0.71335447
33644000,-0.00079432153,0.9913628,-0.00065828674,-0.09532205,0.0900726,0.0,0.0,-0.71391666
33692000,-0.00072051235,0.9916829,-0.00027868032,-0.09184497,0.09016366,0.0,0.0,-0.7123874
33740000,-0.00050226017,0.9920315,-0.0009786612,-0.08799294,0.09016548,0.0,0.0,-0.7115534
33796000,0.0,0.9917527,4.259281e-05,-0.091123015,0.09012867,0.0,0.0,-0.7125023
33836000,0.0,0.99180377,0.00057187525,-0.0905273,0.09016462,0.0,0.0,-0.7124487
33892000,0.0,0.991883,0.0006520431,-0.08965793,0.09016169,0.0,0.0,-0.7116203
33940000,0.0,0.992214,0.0004365534,-0.08586406,0.090213455,0.0,0.0,-0.7112407
33988000,0.0,0.99169517,0.0013787894,-0.09173163,0.09013339,0.0,0.0,-0.7129256
34036000,0.0,0.9919983,0.000979145,-0.088367924,0.09016372,0.0,0.0,-0.7117592
34092000,0.0,0.99197066,0.0014322114,-0.08865385,0.09018141,0.0,0.0,-0.7117637
34140000,0.0,0.9922447,0.0020264392,-0.08539832,0.09029604,0.0,0.0,-0.7113446
34188000,0.0,0.99173456,0.0029942882,-0.09115376,0.09024763,0.0,0.0,-0.7136506
34236000,0.0,0.9918978,0.0032487984,-0.089289196,0.09030829,0.0,0.0,-0.7132184
34292000,0.0,0.9919336,0.0035217719,-0.088847026,0.09034175,0.0,0.0,-0.71334416
34340000,0.0,0.9921883,0.002959852,-0.08596281,0.09035542,0.0,0.0,-0.7128305
34388000,0.0,0.99156994,0.004174301,-0.09280674,0.09032485,0.0,0.0,-0.7140994
34444000,0.0,0.9915892,0.004611899,-0.09252789,0.09037897,0.0,0.0,-0.7136975
34492000,0.0,0.99185,0.0045873695,-0.089630336,0.09043758,0.0,0.0,-0.7128276
34540000,0.0,0.99215966,0.004108673,-0.08612969,0.0904653,0.0,0.0,-0.712393
34588000,0.0,0.9914712,0.004959024,-0.09375363,0.09039113,0.0,0.0,-0.7139227
34636000,0.0,0.99179685,0.0049908143,-0.09016215,0.09047093,0.0,0.0,-0.7124054
34692000,0.0,0.9917464,0.0053674383,-0.090660416,0.09050386,0.0,0.0,-0.71268654
34740000,0.0,0.99207115,0.0046840664,-0.08705655,0.09052116,0.0,0.0,-0.71161896
34796000,0.0,0.9917117,0.0051988973,-0.09105057,0.09050272,0.0,0.0,-0.71243876
34836000,0.0,0.9917629,0.0053866524,-0.0904419,0.090541,0.0,0.0,-0.7119941
34892000,0.0,0.99176407,0.0062676724,-0.090274096,0.09063891,0.0,0.0,-0.7118988
34940000,0.0,0.99201494,0.0059444765,-0.087459326,0.09067488,0.0,0.0,-0.7114794
34988000,0.0,0.9914482,0.0063036424,-0.0937021,0.09061261,0.0,0.0,-0.7131501
35036000,0.0,0.9917417,0.0062637525,-0.09047321,0.090684704,0.0,0.0,-0.7127183
35092000,0.0,0.99172896,0.00615479,-0.09061217,0.09069348,0.0,0.0,-0.713165
35140000,0.0,0.99202186,0.006709261,-0.08717506,0.09081943,0.0,0.0,-0.71254003
35196000,0.0,0.99172705,0.0067255627,-0.09049689,0.09078852,0.0,0.0,-0.71351486
35244000,0.0,0.99141705,0.007268491,-0.09377881,0.09080153,0.0,0.0,-0.7138288
35292000,0.0,0.9917472,0.007060846,-0.09016727,0.09087052,0.0,0.0,-0.7123824
35340000,0.0,0.9919646,0.007126964,-0.087660365,0.090945646,0.0,0.0,-0.7112496
35396000,0.0,0.99165976,0.007414397,-0.09101443,0.090952784,0.0,0.0,-0.71283555
35444000,0.0,0.99138844,0.0075412467,-0.093920514,0.090945095,0.0,0.0,-0.71363187
35492000,0.0,0.99169433,0.007576095,-0.09054476,0.091030754,0.0,0.0,-0.71309733
35540000,0.0,0.99198127,0.0077920742,-0.08722531,0.09112776,0.0,0.0,-0.7123518
35596000,0.0,0.99167347,0.008504437,-0.090549536,0.091170914,0.0,0.0,-0.71363515
35636000,0.0,0.9916606,0.0088116955,-0.09061264,0.09121951,0.0,0.0,-0.7136202
35692000,0.00067913136,0.99165297,0.009115901,-0.090599805,0.0912853,0.0,0.0,-0.71254957
35740000,0.0006039485,0.99190843,0.008946574,-0.08770941,0.0913498,0.0,0.0,-0.7122087
35796000,0.0,0.99154747,0.009640551,-0.09157624,0.09140274,0.0,0.0,-0.71464664
35844000,0.00018104562,0.99125516,0.010269289,-0.09457028,0.091455944,0.0,0.0,-0.71574676
35892000,0.00010293769,0.99156964,0.00967206,-0.09125325,0.0914817,0.0,0.0,-0.7147327
35940000,0.0,0.99190867,0.0095202755,-0.08743418,0.091552764,0.0,0.0,-0.71332395
35996000,0.0,0.9916002,0.009599167,-0.09086135,0.091548525,0.0,0.0,-0.7138359
36044000,0.0,0.9913084,0.010602482,-0.09380627,0.09162783,0.0,0.0,-0.71506363
36092000,0.0008138602,0.9915376,0.011078362,-0.091182,0.0917408,0.0,0.0,-0.7145962
36140000,0.0006658321,0.9918101,0.010412784,-0.08823121,0.091758005,0.0,0.0,-0.71412146
36196000,0.0,0.9914684,0.010942365,-0.091883905,0.0918041,0.0,0.0,-0.71451175
36244000,1.2602424e-05,0.99116915,0.0116052795,-0.09492407,0.091860965,0.0,0.0,-0.7152776
36292000,0.0,0.99147725,0.011420703,-0.09161612,0.09191824,0.0,0.0,-0.7142142
36340000,0.0,0.9918137,0.010768798,-0.087962106,0.091935836,0.0,0.0,-0.7135275
36396000,0.0,0.9914791,0.010997759,-0.09162375,0.09194205,0.0,0.0,-0.7148827
36444000,0.0,0.9911079,0.011907688,-0.09538999,0.09200101,0.0,0.0,-0.7159281
36492000,0.0,0.99137294,0.011832548,-0.092552975,0.09205292,0.0,0.0,-0.7141996
36540000,0.0,0.9916949,0.011291355,-0.08908992,0.09206913,0.0,0.0,-0.7134681
36596000,0.0,0.9913761,0.011999787,-0.09243639,0.09211363,0.0,0.0,-0.71385103
36636000,0.0,0.99132794,0.0119315665,-0.09295848,0.09211591,0.0,0.0,-0.71422327
36692000,0.0,0.9912799,0.011175461,-0.093621686,0.092055984,0.0,0.0,-0.71353424
36740000,0.0,0.9915906,0.010742404,-0.09030247,0.09207688,0.0,0.0,-0.7130787
36796000,0.0,0.9912713,0.010623157,-0.09380248,0.09202938,0.0,0.0,-0.71377164
36844000,0.0,0.9909961,0.011018552,-0.09661866,0.092033334,0.0,0.0,-0.7144597
36892000,0.0,0.99133843,0.01008867,-0.093177594,0.09200195,0.0,0.0,-0.7134446
36940000,0.0,0.99168307,0.009504947,-0.089494884,0.092005216,0.0,0.0,-0.71246094
36996000,0.0,0.9913606,0.009043083,-0.09314884,0.09190049,0.0,0.0,-0.71310407
37036000,0.0,0.99138004,0.0094219325,-0.09286884,0.091935955,0.0,0.0,-0.7126309
37092000,0.0,0.9914227,0.009292887,-0.092436545,0.091924965,0.0,0.0,-0.7126571
37140000,0.0,0.99171925,0.008926811,-0.089221306,0.09193928,0.0,0.0,-0.71221524
37196000,0.0,0.99140686,0.008969611,-0.092684306,0.091878735,0.0,0.0,-0.7128531
37236000,0.0,0.99142617,0.008495884,-0.0925681,0.09183179,0.0,0.0,-0.7126536
37292000,0.0,0.99141604,0.008969556,-0.09258989,0.09187459,0.0,0.0,-0.71352965
37340000,0.0,0.99169743,0.00886255,-0.08948653,0.09192342,0.0,0.0,-0.7125759
37388000,0.0,0.9911132,0.009189212,-0.09577279,0.09185772,0.0,0.0,-0.7145748
37444000,0.0,0.99114865,0.009737598,-0.09528608,0.09192424,0.0,0.0,-0.71462125
37492000,0.0,0.9914046,0.008914909,-0.092697635,0.09189453,0.0,0.0,-0.7133191
37540000,0.0,0.9917152,0.008856728,-0.08926436,0.0919485,0.0,0.0,-0.7126573
37588000,0.0,0.99113387,0.009653299,-0.09545012,0.09192242,0.0,0.0,-0.71396637
37644000,0.0,0.9911162,0.009295181,-0.09570342,0.0918862,0.0,0.0,-0.7142223
37692000,0.0,0.99145305,0.009083932,-0.092131995,0.09192425,0.0,0.0,-0.7133692
37740000,0.0,0.9917215,0.008681899,-0.08923012,0.09193005,0.0,0.0,-0.71191186
37788000,0.0,0.9911478,0.008896141,-0.09546358,0.09183519,0.0,0.0,-0.7134136
37836000,0.0,0.9914814,0.008441479,-0.09196424,0.09184755,0.0,0.0,-0.7125061
37892000,0.0,0.99149233,0.00816414,-0.091904685,0.09181438,0.0,0.0,-0.71218807
37940000,0.0,0.9917725,0.007786032,-0.08885325,0.09182561,0.0,0.0,-0.7124524
37996000,0.0,0.99148,0.008379413,-0.092019476,0.09181254,0.0,0.0,-0.7141145
38044000,0.0,0.99116206,0.009082899,-0.09532085,0.091810904,0.0,0.0,-0.71524465
38092000,0.0,0.9914826,0.008168177,-0.09204609,0.09177703,0.0,0.0,-0.7144997
38140000,0.0,0.99182016,0.007989027,-0.08830695,0.091819674,0.0,0.0,-0.7130661
38196000,0.0,0.99156165,0.008363665,-0.09115161,0.091798015,0.0,0.0,-0.71349096
38244000,0.0,0.9912129,0.009027322,-0.09481613,0.09179051,0.0,0.0,-0.71503323
38292000,0.0,0.991542,0.009010442,-0.09125616,0.09184535,0.0,0.0,-0.7144227
38340000,0.0,0.9919056,0.008446961,-0.08725833,0.091857605,0.0,0.0,-0.7129907
38396000,0.0,0.9915748,0.008335101,-0.091026954,0.091782704,0.0,0.0,-0.7138059
38444000,0.0,0.9912557,0.008622219,-0.09444764,0.09174666,0.0,0.0,-0.7142543
38492000,0.0,0.9915538,0.0077724736,-0.091378726,0.09170966,0.0,0.0,-0.7134883
38540000,0.0,0.9919027,0.00790156,-0.08743593,0.091769174,0.0,0.0,-0.71279687
38596000,0.0,0.9915952,0.0078924205,-0.0909441,0.09168337,0.0,0.0,-0.7138782
38636000,0.0,0.9915887,0.0077642086,-0.091055,0.09165518,0.0,0.0,-0.7141678
38692000,0.0,0.9916088,0.007902672,-0.09082613,0.09165245,0.0,0.0,-0.7135802
38740000,0.0,0.99189824,0.007316678,-0.08766972,0.09164261,0.0,0.0,-0.71222395
38796000,0.0,0.991612,0.0075699375,-0.09088037,0.091591835,0.0,0.0,-0.7132016
38844000,0.0,0.9913617,0.008227246,-0.09351652,0.091591895,0.0,0.0,-0.71379787
38892000,-0.00073698885,0.99160737,0.0076360106,-0.09095908,0.09155857,0.0,0.0,-0.71268284
38940000,-0.00044387602,0.99193686,0.0070699193,-0.087362245,0.09153729,0.0,0.0,-0.71199363
38996000,0.0,0.99168104,0.0074967337,-0.09024592,0.09147787,0.0,0.0,-0.71251696
39044000,0.0,0.99135566,0.007464047,-0.093855254,0.0913755,0.0,0.0,-0.7131371
39092000,0.0,0.9916194,0.007348036,-0.09101491,0.09139603,0.0,0.0,-0.712164
39140000,0.0,0.99193954,0.0070822537,-0.08745687,0.0914169,0.0,0.0,-0.7110038
39196000,0.0,0.9916339,0.007272374,-0.09091023,0.09134991,0.0,0.0,-0.71143216
39236000,0.0,0.9916124,0.0076921396,-0.09108599,0.09137342,0.0,0.0,-0.7111981
39292000,0.0,0.9916642,0.0073292446,-0.090594515,0.09132987,0.0,0.0,-0.71231997
39340000,0.0,0.9919552,0.007097869,-0.08735076,0.09134756,0.0,0.0,-0.71211225
39396000,0.0,0.99166816,0.0074627264,-0.09056849,0.091301404,0.0,0.0,-0.7128234
39444000,0.0,0.99137795,0.0073827445,-0.09377545,0.09122164,0.0,0.0,-0.7141773
39492000,0.0,0.9916637,0.0074491617,-0.09064344,0.09127609,0.0,0.0,-0.7140506
39540000,0.0,0.99197036,0.0073247063,-0.08719013,0.09131819,0.0,0.0,-0.7131801
39596000,0.0,0.99166083,0.00815618,-0.09056018,0.09132977,0.0,0.0,-0.71399736
39644000,0.0,0.99136305,0.008384075,-0.09377692,0.09129558,0.0,0.0,-0.71439266
39692000,0.0,0.9916648,0.007839171,-0.09058801,0.09128689,0.0,0.0,-0.71321815
39740000,0.013962634,0.99223495,0.010280702,-0.08335026,0.091743514,0.0,0.0,-0.7124839
39796000,0.03630285,0.99246687,0.02577035,-0.07448053,0.09379821,0.0,0.0,-0.71099406
39844000,0.055850536,0.9923378,0.04005796,-0.06666162,0.096006416,0.0,0.0,-0.71075666
39892000,0.06981317,0.99243,0.050365016,-0.05497439,0.09759043,0.0,0.0,-0.71036965
39940000,0.0837758,0.99231464,0.06028244,-0.042956658,0.09915891,0.0,0.0,-0.71167856
39996000,0.10611602,0.99112564,0.07814444,-0.032853503,0.10239169,0.0,0.0,-0.71370226
40044000,0.12566371,0.98969597,0.09425493,-0.022488518,0.105414405,0.0,0.0,-0.7162742
40092000,0.13962635,0.9886812,0.10445097,-0.010285711,0.10720814,0.0,0.0,-0.7183552
40140000,0.153589,0.98759764,0.11302965,0.0023199762,0.10894851,0.0,0.0,-0.71988785
40188000,0.17592922,0.98627114,0.11969433,0.012839614,0.113038085,0.0,0.0,-0.7191535
40236000,0.18989186,0.98571867,0.12030793,0.024511615,0.115256034,0.0,0.0,-0.71722513
40292000,0.20943956,0.9844528,0.12332702,0.038589317,0.118970625,0.0,0.0,-0.71774465
40340000,0.2234022,0.9836075,0.123229556,0.0501376,0.12172512,0.0,0.0,-0.71760386
40396000,0.24574243,0.9815237,0.12832777,0.063037954,0.12715937,0.0,0.0,-0.72004503
40436000,0.25970507,0.9801958,0.12978725,0.07285615,0.13062693,0.0,0.0,-0.72148746
40492000,0.27925274,0.97809803,0.13409653,0.08205453,0.1364161,0.0,0.0,-0.7236954
40540000,0.29321536,0.9770038,0.1349033,0.08498149,0.14157255,0.0,0.0,-0.72351235
40596000,0.31555557,0.97465086,0.14114267,0.08624211,0.15065445,0.0,0.0,-0.7248393
40636000,0.3295182,0.9733289,0.14334476,0.08638869,0.15690805,0.0,0.0,-0.72614205
40692000,0.34906587,0.9712487,0.14717694,0.08598113,0.16619919,0.0,0.0,-0.72853494
40740000,0.3630285,0.96998954,0.14721504,0.08629076,0.17321075,0.0,0.0,-0.7295173
40788000,0.3853687,0.96660143,0.15596078,0.08453423,0.18496442,0.0,0.0,-0.733709
40844000,0.40491638,0.96399915,0.15906578,0.083707914,0.19595087,0.0,0.0,-0.73420703
40892000,0.418879,0.96194166,0.16086483,0.08547473,0.20367831,0.0,0.0,-0.7344035
40940000,0.43284163,0.9598462,0.16207568,0.08725869,0.21168995,0.0,0.0,-0.73410535
40988000,0.45518184,0.95522755,0.17116013,0.085363485,0.22573784,0.0,0.0,-0.7369951
41044000,0.4747295,0.9513585,0.17548847,0.085179694,0.23846439,0.0,0.0,-0.73639864
41092000,0.48869213,0.94883865,0.17599618,0.0852164,0.2479287,0.0,0.0,-0.7353073
41140000,0.5026548,0.9462257,0.17618755,0.084566526,0.25780493,0.0,0.0,-0.7339952
41196000,0.52499497,0.94095796,0.18043846,0.08301224,0.27413332,0.0,0.0,-0.7344819
41236000,0.5389576,0.9376748,0.18171002,0.081015326,0.28492782,0.0,0.0,-0.7337017
41292000,0.5585053,0.93347716,0.17918669,0.08088787,0.29994932,0.0,0.0,-0.73113483
41340000,0.5724679,0.93018013,0.17765197,0.08045176,0.3110181,0.0,0.0,-0.73041517
41396000,0.5948081,0.92283714,0.18371326,0.077797994,0.3294975,0.0,0.0,-0.7342836
41444000,0.6143558,0.9173149,0.18160066,0.07553619,0.34619197,0.0,0.0,-0.73303866
41492000,0.6283184,0.9131167,0.17982857,0.07391491,0.358352,0.0,0.0,-0.7321048
41540000,0.64228106,0.9086796,0.17792644,0.071807854,0.37079272,0.0,0.0,-0.73124236
41588000,0.66462123,0.8996767,0.18146692,0.06729881,0.39130864,0.0,0.0,-0.73329544
41644000,0.68416893,0.8920469,0.18021855,0.06337684,0.4095814,0.0,0.0,-0.73389035
41692000,0.69813156,0.8863416,0.17886305,0.061524633,0.4226362,0.0,0.0,-0.73505116
41740000,0.7120942,0.88042563,0.17699358,0.059048343,0.43593267,0.0,0.0,-0.73485255
41788000,0.73443437,0.868831,0.18078624,0.0546123,0.4576752,0.0,0.0,-0.73655665
41844000,0.75398207,0.8588437,0.17996173,0.049979713,0.47697306,0.0,0.0,-0.7355973
41892000,0.7679447,0.8515641,0.1783635,0.048356798,0.49059826,0.0,0.0,-0.7350592
41940000,0.7819073,0.8440203,0.17628628,0.045750733,0.50444007,0.0,0.0,-0.7339585
41996000,0.8042475,0.8285759,0.18404943,0.039648004,0.527272,0.0,0.0,-0.7372841
42044000,0.79023427,0.815547,0.18614133,0.034118727,0.54687333,0.0,0.0,-0.73692673
42092000,0.77721816,0.8071381,0.18363836,0.029649876,0.560291,0.0,0.0,-0.7351175
42140000,0.76415354,0.7986838,0.18127854,0.026000235,0.573207,0.0,0.0,-0.7330609
42196000,0.7431509,0.7850123,0.17859486,0.026151218,0.5926007,0.0,0.0,-0.73131466
42244000,0.7246757,0.77350885,0.17431474,0.026815316,0.60875237,0.0,0.0,-0.72989213
42292000,0.7114827,0.76616955,0.16767979,0.028977424,0.6196999,0.0,0.0,-0.72817653
42340000,0.69827706,0.75891244,0.1604822,0.03126541,0.6303331,0.0,0.0,-0.72662634
42396000,0.6770373,0.74553865,0.15649746,0.031345166,0.64706886,0.0,0.0,-0.72697407
42436000,0.6636935,0.73839897,0.14839429,0.02864442,0.6572105,0.0,0.0,-0.72434723
42492000,0.64491856,0.7284823,0.13653359,0.026010694,0.670817,0.0,0.0,-0.72148556
42540000,0.63144046,0.7219305,0.124974735,0.024628526,0.6801405,0.0,0.0,-0.7197257
42596000,0.60975426,0.70965225,0.11640089,0.020825412,0.694558,0.0,0.0,-0.7195593
42644000,0.59065175,0.69929683,0.1071569,0.018652208,0.7065079,0.0,0.0,-0.71925914
42692000,0.5769561,0.6924022,0.09737522,0.016094003,0.7147296,0.0,0.0,-0.718831
42740000,0.5632136,0.68514234,0.0903274,0.011499458,0.72269547,0.0,0.0,-0.7192322
42788000,0.54109305,0.67196304,0.09299273,-0.0013038513,0.7347219,0.0,0.0,-0.72078085
42844000,0.5215996,0.66182345,0.08674309,-0.008929139,0.74457085,0.0,0.0,-0.7192855
42892000,0.50763696,0.65481895,0.081576616,-0.015986886,0.7512002,0.0,0.0,-0.7189466
42940000,0.49367434,0.6480675,0.07491305,-0.02113737,0.75759476,0.0,0.0,-0.7165386
42988000,0.47133413,0.6364934,0.07497037,-0.03280283,0.76692873,0.0,0.0,-0.7170653
43036000,0.4573715,0.6301446,0.06768216,-0.03751366,0.7726122,0.0,0.0,-0.71564204
43092000,0.43782383,0.6212274,0.059969686,-0.045236263,0.78002167,0.0,0.0,-0.71579635
43140000,0.4238612,0.61519754,0.050900415,-0.048725326,0.7852179,0.0,0.0,-0.7156912
43188000,0.401521,0.60513306,0.049605843,-0.060677722,0.7922572,0.0,0.0,-0.7171875
43236000,0.38755837,0.5993821,0.04146047,-0.065091036,0.7967341,0.0,0.0,-0.71702147
43292000,0.3680107,0.5911563,0.04083845,-0.072829165,0.8022234,0.0,0.0,-0.71705484
43340000,0.35404807,0.5854167,0.03869643,-0.07137099,0.8066574,0.0,0.0,-0.714605
43388000,0.33170786,0.57637054,0.046092983,-0.07436929,0.812491,0.0,0.0,-0.71584654
43436000,0.31774524,0.57105476,0.046514146,-0.07301943,0.8163339,0.0,0.0,-0.71449554
43492000,0.29819757,0.5640946,0.044390623,-0.07235404,0.82133526,0.0,0.0,-0.71478146
43540000,0.28423494,0.55936205,0.042231034,-0.071009874,0.82479584,0.0,0.0,-0.71548235
43588000,0.26189473,0.5519663,0.050251126,-0.07427197,0.8290306,0.0,0.0,-0.7175035
43636000,0.2479321,0.54775965,0.048285354,-0.07193779,0.8321375,0.0,0.0,-0.71675754
43692000,0.2283844,0.54216164,0.049059752,-0.07085195,0.8358432,0.0,0.0,-0.7164425
43740000,0.21442176,0.5384647,0.047627825,-0.06889477,0.83847535,0.0,0.0,-0.71546274
43788000,0.19208154,0.53287727,0.054504525,-0.07252669,0.8413149,0.0,0.0,-0.71626973
43844000,0.17253384,0.5284579,0.05608673,-0.07055983,0.84416103,0.0,0.0,-0.7150986
43892000,0.1585712,0.52575773,0.05331042,-0.0694554,0.8461163,0.0,0.0,-0.71520317
43940000,0.14460856,0.5232932,0.05030409,-0.06859385,0.84789664,0.0,0.0,-0.71565115
43996000,0.122268334,0.51961523,0.05447832,-0.07108083,0.8496939,0.0,0.0,-0.7168043
44036000,0.1083057,0.5176176,0.055599432,-0.07103639,0.85084337,0.0,0.0,-0.71702397
44092000,0.088758014,0.5152045,0.056419324,-0.069955036,0.8523424,0.0,0.0,-0.71599734
44140000,0.07479538,0.51376677,0.055300437,-0.06742679,0.85348654,0.0,0.0,-0.71424514
44188000,0.052455164,0.51183367,0.06137827,-0.069271766,0.85408455,0.0,0.0,-0.7152759
44236000,0.03849253,0.5110337,0.060437247,-0.06749,0.85477304,0.0,0.0,-0.7138511
44292000,0.018944845,0.5103504,0.059858013,-0.06680115,0.85527605,0.0,0.0,-0.7139614
44340000,0.0049822107,0.51014864,0.05793298,-0.06458374,0.8556991,0.0,0.0,-0.71368885
44388000,-0.017358003,0.5101912,0.06246099,-0.066938765,0.8551742,0.0,0.0,-0.7158588
44444000,-0.03690569,0.51073545,0.06424468,-0.066788234,0.8547288,0.0,0.0,-0.7164933
44492000,-0.050868325,0.51143706,0.06273988,-0.063845724,0.85464597,0.0,0.0,-0.7155012
44540000,-0.06483096,0.5124034,0.060696226,-0.060789626,0.8544373,0.0,0.0,-0.71436584
44588000,-0.07895792,0.514111,0.06828675,-0.063189276,0.8526628,0.0,0.0,-0.7161248
44644000,-0.059410237,0.5155727,0.06963943,-0.061072905,0.8518246,0.0,0.0,-0.7156067
44692000,-0.045447603,0.51649964,0.06709046,-0.058170848,0.85167074,0.0,0.0,-0.71332306
44740000,-0.03148497,0.5171717,0.06516732,-0.055739667,0.8515748,0.0,0.0,-0.7129843
44796000,-0.009144755,0.5175141,0.068189874,-0.055347186,0.8511558,0.0,0.0,-0.7133635
44844000,0.010402933,0.5172614,0.07241865,-0.05653294,0.85088193,0.0,0.0,-0.7146127
44892000,0.024365567,0.51705986,0.069227204,-0.05344384,0.8514696,0.0,0.0,-0.71383816
44940000,0.03123003,0.51654303,0.0681738,-0.05162582,0.8519803,0.0,0.0,-0.71389246
44996000,0.022579944,0.51557815,0.07080956,-0.051014077,0.8523865,0.0,0.0,-0.7128917
45044000,0.020002227,0.514848,0.074715555,-0.053141754,0.85236436,0.0,0.0,-0.7133045
45092000,0.019600144,0.5145988,0.07126531,-0.049897216,0.85300624,0.0,0.0,-0.7116728
45140000,0.019879028,0.5142677,0.069375105,-0.04738771,0.85350466,0.0,0.0,-0.7114849
45196000,0.020992815,0.51348835,0.07292098,-0.04933281,0.8535681,0.0,0.0,-0.71294576
45244000,0.022298517,0.5127941,0.07478005,-0.049260076,0.8538288,0.0,0.0,-0.7131623
45292000,0.023245735,0.5123897,0.07349722,-0.047228526,0.85429764,0.0,0.0,-0.712741
45340000,0.024175309,0.51257676,0.061166473,-0.041566543,0.85545087,0.0,0.0,-0.70972776
45388000,0.025512401,0.5119491,0.056593124,-0.036537796,0.8563705,0.0,0.0,-0.7085405
45444000,0.0268161,0.5115374,0.046911083,-0.027711006,0.8575319,0.0,0.0,-0.70806736
45492000,0.028855063,0.51125747,0.037071593,-0.01863006,0.8584256,0.0,0.0,-0.70782024
45540000,0.030890878,0.5108691,0.028276209,-0.0091067385,0.8591451,0.0,0.0,-0.7070347
45596000,0.033071246,0.51002806,0.021127233,0.001872436,0.8598962,0.0,0.0,-0.707318
45644000,0.03463802,0.5093034,0.013784179,0.010364536,0.86041427,0.0,0.0,-0.70827186
45692000,0.035458125,0.5088083,0.005816861,0.016918657,0.8606938,0.0,0.0,-0.7088824
45740000,0.03608489,0.508215,0.0017777557,0.018495124,0.8610297,0.0,0.0,-0.7090998
45788000,0.03671044,0.5071231,0.0040757223,0.014989927,0.8617337,0.0,0.0,-0.7090091
