timestamp,timestamp_sample,q[0],q[1],q[2],q[3],delta_q_reset[0],delta_q_reset[1],delta_q_reset[2],delta_q_reset[3],quat_reset_counter
4776000,4776000,0.999987,0.0029600014,0.004160732,-1.4882084e-05,1.0,0.0,0.0,0.0,0
4780000,4780000,0.99998736,0.0029322547,0.0040959143,-2.6554222e-05,1.0,0.0,0.0,0.0,0
4784000,4784000,0.9999878,0.0028877254,0.004017994,-2.4582523e-05,1.0,0.0,0.0,0.0,0
4788000,4788000,0.9999883,0.002831476,0.0039310204,-2.3122513e-05,1.0,0.0,0.0,0.0,0
4792000,4792000,0.99998873,0.0027939999,0.0038517818,-2.8887873e-05,1.0,0.0,0.0,0.0,0
4800000,4800000,0.9999894,0.002766134,0.003705778,-2.8563134e-05,1.0,0.0,0.0,0.0,0
4808000,4808000,0.99999005,0.0027413825,0.0035479318,3.719179e-06,1.0,0.0,0.0,0.0,0
4812000,4812000,0.99999017,0.0027489602,0.003474533,-9.078295e-06,1.0,0.0,0.0,0.0,0
4816000,4816000,0.9999906,0.0027326664,0.003404117,-4.4933335e-05,1.0,0.0,0.0,0.0,0
4820000,4820000,0.9999908,0.002696198,0.003337909,-6.153323e-05,1.0,0.0,0.0,0.0,0
4824000,4824000,0.9999912,0.0026583395,0.0032660817,-7.2526534e-05,1.0,0.0,0.0,0.0,0
4828000,4828000,0.99999154,0.0026226148,0.0031883924,-8.24771e-05,1.0,0.0,0.0,0.0,0
4832000,4832000,0.9999919,0.0025967015,0.0031013284,-7.8343364e-05,1.0,0.0,0.0,0.0,0
4840000,4840000,0.99999243,0.0025445225,0.002954553,-6.5469685e-05,1.0,0.0,0.0,0.0,0
4844000,4844000,0.99999267,0.002512404,0.0028959021,-5.457914e-05,1.0,0.0,0.0,0.0,0
4848000,4848000,0.9999929,0.0024926858,0.0028321452,-4.824518e-05,1.0,0.0,0.0,0.0,0
4852000,4852000,0.9999931,0.0024873014,0.0027599065,-5.8484686e-05,1.0,0.0,0.0,0.0,0
4860000,4860000,0.9999937,0.0024454677,0.0025828118,-6.879912e-05,1.0,0.0,0.0,0.0,0
4864000,4864000,0.999994,0.0024319596,0.0024950046,-5.078321e-05,1.0,0.0,0.0,0.0,0
4868000,4868000,0.9999942,0.0024024455,0.0024258674,-4.3867338e-05,1.0,0.0,0.0,0.0,0
4872000,4872000,0.9999945,0.0023608105,0.0023538664,-6.380241e-05,1.0,0.0,0.0,0.0,0
4876000,4876000,0.9999948,0.002310095,0.0022707058,-9.439514e-05,1.0,0.0,0.0,0.0,0
4884000,4884000,0.9999953,0.0022549618,0.0021091157,-0.00012790166,1.0,0.0,0.0,0.0,0
4888000,4888000,0.9999954,0.002247875,0.0020520047,-0.00012862643,1.0,0.0,0.0,0.0,0
4892000,4892000,0.9999956,0.00221468,0.001988515,-0.0001335731,1.0,0.0,0.0,0.0,0
4896000,4896000,0.9999959,0.0021745306,0.0019274474,-0.00014702679,1.0,0.0,0.0,0.0,0
4900000,4900000,0.999996,0.0021221319,0.0018775662,-0.00016043252,1.0,0.0,0.0,0.0,0
4904000,4904000,0.9999963,0.0020457727,0.0018167811,-0.00017539995,1.0,0.0,0.0,0.0,0
4908000,4908000,0.9999966,0.0019694092,0.0017410845,-0.00019146314,1.0,0.0,0.0,0.0,0
4912000,4912000,0.99999684,0.0019085252,0.0016683231,-0.00020966072,1.0,0.0,0.0,0.0,0
4916000,4916000,0.99999696,0.0018513697,0.0016131415,-0.00022996153,1.0,0.0,0.0,0.0,0
4920000,4920000,0.9999972,0.0017889496,0.0015560831,-0.00024543927,1.0,0.0,0.0,0.0,0
4924000,4924000,0.99999744,0.0017292005,0.0014840971,-0.00025349096,1.0,0.0,0.0,0.0,0
4932000,4932000,0.9999977,0.001644422,0.0013474983,-0.0002472287,1.0,0.0,0.0,0.0,0
4940000,4940000,0.99999803,0.0015741261,0.0011743993,-0.00021515148,1.0,0.0,0.0,0.0,0
4948000,4948000,0.9999984,0.0015012784,0.0009969247,-0.00018889141,1.0,0.0,0.0,0.0,0
4952000,4952000,0.9999985,0.0014755903,0.0009116232,-0.0001869153,1.0,0.0,0.0,0.0,0
4956000,4956000,0.99999857,0.0014765373,0.0008380322,-0.00018334827,1.0,0.0,0.0,0.0,0
4960000,4960000,0.9999986,0.0014581622,0.00078117097,-0.00016424744,1.0,0.0,0.0,0.0,0
4964000,4964000,0.99999875,0.0014115534,0.0007280521,-0.00015151071,1.0,0.0,0.0,0.0,0
4968000,4968000,0.99999887,0.001365853,0.0006629677,-0.0001664322,1.0,0.0,0.0,0.0,0
4972000,4972000,0.999999,0.0013217487,0.000580304,-0.00017978085,1.0,0.0,0.0,0.0,0
4976000,4976000,0.9999991,0.0012700548,0.0005059755,-0.00017388658,1.0,0.0,0.0,0.0,0
4980000,4980000,0.99999917,0.001223688,0.00044869553,-0.00017223443,1.0,0.0,0.0,0.0,0
4988000,4988000,0.9999993,0.0011951069,0.00036984647,-0.00021779873,1.0,0.0,0.0,0.0,0
4992000,4992000,0.9999993,0.0011750824,0.0003194781,-0.00024158755,1.0,0.0,0.0,0.0,0
4996000,4996000,0.9999993,0.0011603858,0.000261639,-0.00025473422,1.0,0.0,0.0,0.0,0
5000000,5000000,0.9999993,0.0011392009,0.00020723262,-0.00026673713,1.0,0.0,0.0,0.0,0
5004000,5004000,0.99999946,0.0010961792,0.00015495958,-0.00027606997,1.0,0.0,0.0,0.0,0
5012000,5012000,0.9999995,0.0010402758,4.6669757e-05,-0.00025409576,1.0,0.0,0.0,0.0,0
5016000,5016000,0.9999994,0.0010231639,2.7482787e-07,-0.00025046815,1.0,0.0,0.0,0.0,0
5020000,5020000,0.9999995,0.0010172415,-3.0136302e-05,-0.00025428107,1.0,0.0,0.0,0.0,0
5024000,5024000,0.9999994,0.0010144358,-7.14518e-05,-0.00024735677,1.0,0.0,0.0,0.0,0
5028000,5028000,0.9999995,0.0009935203,-0.00011754677,-0.000250026,1.0,0.0,0.0,0.0,0
5032000,5032000,0.9999995,0.0009725449,-0.00014203037,-0.00026642554,1.0,0.0,0.0,0.0,0
5036000,5036000,0.9999995,0.00096648163,-0.00016759257,-0.00027323666,1.0,0.0,0.0,0.0,0
5044000,5044000,0.9999995,0.0009376831,-0.0002718631,-0.0002590036,1.0,0.0,0.0,0.0,0
5048000,5048000,0.99999946,0.00090484106,-0.00032766757,-0.00024645674,1.0,0.0,0.0,0.0,0
5052000,5052000,0.9999995,0.0008666688,-0.0003882721,-0.00022539383,1.0,0.0,0.0,0.0,0
5056000,5056000,0.9999995,0.0008471054,-0.00045761178,-0.00020901764,1.0,0.0,0.0,0.0,0
5060000,5060000,0.9999995,0.0008360671,-0.0005205585,-0.00019636063,1.0,0.0,0.0,0.0,0
5064000,5064000,0.9999995,0.00081376167,-0.00057196844,-0.00016282486,1.0,0.0,0.0,0.0,0
5068000,5068000,0.9999995,0.00080477213,-0.0006036774,-0.00012393908,1.0,0.0,0.0,0.0,0
5072000,5072000,0.9999995,0.00080372905,-0.00062489166,-0.000101979385,1.0,0.0,0.0,0.0,0
5076000,5076000,0.9999995,0.00077552925,-0.00066473347,-9.4965304e-05,1.0,0.0,0.0,0.0,0
5080000,5080000,0.99999946,0.00074620906,-0.0007148902,-8.0931466e-05,1.0,0.0,0.0,0.0,0
5084000,5084000,0.9999995,0.00073231995,-0.00077039003,-4.6117904e-05,1.0,0.0,0.0,0.0,0
5088000,5088000,0.99999946,0.00072153565,-0.00082717283,-2.2381204e-05,1.0,0.0,0.0,0.0,0
5092000,5092000,0.9999994,0.0007033105,-0.000874887,-1.7818926e-05,1.0,0.0,0.0,0.0,0
5096000,5096000,0.9999994,0.0006806385,-0.00090737257,-1.2058901e-05,1.0,0.0,0.0,0.0,0
5100000,5100000,0.9999994,0.0006622228,-0.0009340028,-9.646874e-07,1.0,0.0,0.0,0.0,0
5104000,5104000,0.9999994,0.00064943207,-0.0009603662,3.7424135e-05,1.0,0.0,0.0,0.0,0
5108000,5108000,0.99999934,0.0006424901,-0.0010123034,8.751989e-05,1.0,0.0,0.0,0.0,0
5112000,5112000,0.9999993,0.00063215237,-0.0010724977,9.831852e-05,1.0,0.0,0.0,0.0,0
5116000,5116000,0.9999993,0.00061544304,-0.0010996555,8.729324e-05,1.0,0.0,0.0,0.0,0
5120000,5120000,0.9999993,0.0005984749,-0.0011074629,9.344541e-05,1.0,0.0,0.0,0.0,0
5124000,5124000,0.99999917,0.00058256375,-0.001128591,0.000108112916,1.0,0.0,0.0,0.0,0
5128000,5128000,0.9999992,0.00057275506,-0.0011591592,0.00010692229,1.0,0.0,0.0,0.0,0
5132000,5132000,0.99999917,0.00056348485,-0.0011934531,0.000100936435,1.0,0.0,0.0,0.0,0
5136000,5136000,0.9999991,0.00055204256,-0.0012254445,0.000105112165,1.0,0.0,0.0,0.0,0
5140000,5140000,0.9999991,0.0005288651,-0.0012483897,0.00012259431,1.0,0.0,0.0,0.0,0
5144000,5144000,0.9999991,0.00050853024,-0.0012627918,0.00016150539,1.0,0.0,0.0,0.0,0
5148000,5148000,0.9999991,0.0005132263,-0.0012803869,0.00020310962,1.0,0.0,0.0,0.0,0
5152000,5152000,0.99999905,0.00051915285,-0.0013065203,0.00023949865,1.0,0.0,0.0,0.0,0
5156000,5156000,0.99999887,0.0005256131,-0.0013544932,0.00027907276,1.0,0.0,0.0,0.0,0
5160000,5160000,0.9999989,0.0005391692,-0.0014094422,0.00029266468,1.0,0.0,0.0,0.0,0
5164000,5164000,0.99999875,0.0005319984,-0.0014542585,0.00027161156,1.0,0.0,0.0,0.0,0
5168000,5168000,0.9999988,0.0005201205,-0.0014949156,0.0002495975,1.0,0.0,0.0,0.0,0
5172000,5172000,0.99999875,0.00051142316,-0.0015259887,0.00023611535,1.0,0.0,0.0,0.0,0
5176000,5176000,0.9999986,0.00048786012,-0.0015455153,0.00024935522,1.0,0.0,0.0,0.0,0
5180000,5180000,0.9999987,0.00045520574,-0.0015661216,0.0002865491,1.0,0.0,0.0,0.0,0
5188000,5188000,0.9999987,0.00040614247,-0.0015821183,0.00029407153,1.0,0.0,0.0,0.0,0
5192000,5192000,0.99999857,0.00038752737,-0.0015967543,0.00030646322,1.0,0.0,0.0,0.0,0
5196000,5196000,0.9999987,0.00036622878,-0.0015948837,0.00032844438,1.0,0.0,0.0,0.0,0
5204000,5204000,0.9999987,0.00034299464,-0.0015826632,0.00028422262,1.0,0.0,0.0,0.0,0
5208000,5208000,0.9999987,0.00035323141,-0.0015915316,0.00023081129,1.0,0.0,0.0,0.0,0
5212000,5212000,0.9999987,0.00035116213,-0.0015945557,0.00021147098,1.0,0.0,0.0,0.0,0
5220000,5220000,0.9999987,0.00034097917,-0.0016126201,0.00023155373,1.0,0.0,0.0,0.0,0
5224000,5224000,0.9999987,0.0003302545,-0.0015989302,0.00024381488,1.0,0.0,0.0,0.0,0
5228000,5228000,0.9999986,0.00032326378,-0.0015799117,0.00025182267,1.0,0.0,0.0,0.0,0
5232000,5232000,0.99999875,0.00031087355,-0.001574705,0.00025457895,1.0,0.0,0.0,0.0,0
5236000,5236000,0.99999875,0.00028036203,-0.0015758969,0.0002658268,1.0,0.0,0.0,0.0,0
5240000,5240000,0.9999986,0.00025931824,-0.0015888222,0.00029048708,1.0,0.0,0.0,0.0,0
5244000,5244000,0.9999987,0.00026118974,-0.0016139905,0.00030985434,1.0,0.0,0.0,0.0,0
5248000,5248000,0.9999987,0.0002698145,-0.0016141781,0.00032878874,1.0,0.0,0.0,0.0,0
5252000,5252000,0.9999986,0.0002688163,-0.0015898722,0.00036475845,1.0,0.0,0.0,0.0,0
5256000,5256000,0.9999986,0.00025643286,-0.0015794948,0.0003986545,1.0,0.0,0.0,0.0,0
5260000,5260000,0.9999986,0.00024939765,-0.0015818956,0.00042190298,1.0,0.0,0.0,0.0,0
5264000,5264000,0.99999875,0.0002485553,-0.0015631557,0.0004431118,1.0,0.0,0.0,0.0,0
5268000,5268000,0.9999987,0.00024931892,-0.0015326946,0.00045580385,1.0,0.0,0.0,0.0,0
5272000,5272000,0.99999875,0.00025682143,-0.0015019093,0.00045952393,1.0,0.0,0.0,0.0,0
5276000,5276000,0.9999988,0.0002611023,-0.0014599438,0.00047709057,1.0,0.0,0.0,0.0,0
5280000,5280000,0.99999887,0.0002635435,-0.001426233,0.0005064392,1.0,0.0,0.0,0.0,0
5288000,5288000,0.99999887,0.0002604129,-0.0014304711,0.00044905813,1.0,0.0,0.0,0.0,0
5292000,5292000,0.99999887,0.00026113188,-0.0014407365,0.00042306492,1.0,0.0,0.0,0.0,0
5296000,5296000,0.99999887,0.0002764964,-0.0014593829,0.00042486633,1.0,0.0,0.0,0.0,0
5300000,5300000,0.99999887,0.00029453545,-0.0014679052,0.00041602182,1.0,0.0,0.0,0.0,0
5304000,5304000,0.99999887,0.00029100318,-0.0014577302,0.0003944438,1.0,0.0,0.0,0.0,0
5312000,5312000,0.999999,0.000292637,-0.001410738,0.00038227288,1.0,0.0,0.0,0.0,0
5320000,5320000,0.999999,0.0003735833,-0.001389262,0.00036555628,1.0,0.0,0.0,0.0,0
5324000,5324000,0.99999887,0.00042747066,-0.001392373,0.00037455696,1.0,0.0,0.0,0.0,0
5328000,5328000,0.99999887,0.0004703849,-0.0014093682,0.00037880975,1.0,0.0,0.0,0.0,0
5332000,5332000,0.99999887,0.0004898884,-0.0014290275,0.0003659841,1.0,0.0,0.0,0.0,0
5336000,5336000,0.9999988,0.00051312137,-0.0014555804,0.00031769922,1.0,0.0,0.0,0.0,0
5340000,5340000,0.99999875,0.00054488995,-0.0014783968,0.00025930867,1.0,0.0,0.0,0.0,0
5344000,5344000,0.99999875,0.0005565157,-0.0014731111,0.00022540681,1.0,0.0,0.0,0.0,0
5348000,5348000,0.9999988,0.00055797526,-0.0014438747,0.0002192002,1.0,0.0,0.0,0.0,0
5352000,5352000,0.99999887,0.0005548172,-0.0014190386,0.00020233108,1.0,0.0,0.0,0.0,0
5360000,5360000,0.99999887,0.00056465826,-0.0014020061,0.000158474,1.0,0.0,0.0,0.0,0
5364000,5364000,0.9999989,0.0005967979,-0.0013693372,0.0001507104,1.0,0.0,0.0,0.0,0
5368000,5368000,0.999999,0.00063864974,-0.0013347211,0.00014135722,1.0,0.0,0.0,0.0,0
5372000,5372000,0.999999,0.00066561677,-0.0013235305,0.000112794354,1.0,0.0,0.0,0.0,0
5376000,5376000,0.99999887,0.00067618466,-0.0013237409,7.833483e-05,1.0,0.0,0.0,0.0,0
5380000,5380000,0.999999,0.0006877807,-0.0013159809,7.157903e-05,1.0,0.0,0.0,0.0,0
5388000,5388000,0.999999,0.0007085425,-0.0013079271,7.08207e-05,1.0,0.0,0.0,0.0,0
5396000,5396000,0.99999887,0.0007654514,-0.0012843523,1.3856279e-06,1.0,0.0,0.0,0.0,0
5400000,5400000,0.99999887,0.00079554616,-0.0012774366,-9.646635e-06,1.0,0.0,0.0,0.0,0
5408000,5408000,0.999999,0.00078814814,-0.0012607621,-1.6366288e-05,1.0,0.0,0.0,0.0,0
5412000,5412000,0.999999,0.00077357644,-0.0012627098,-2.6414715e-05,1.0,0.0,0.0,0.0,0
5416000,5416000,0.999999,0.00075640745,-0.0012613332,-3.168963e-05,1.0,0.0,0.0,0.0,0
5420000,5420000,0.999999,0.00074935646,-0.0012567623,-3.5351448e-05,1.0,0.0,0.0,0.0,0
5424000,5424000,0.999999,0.0007679076,-0.0012456698,-3.580193e-05,1.0,0.0,0.0,0.0,0
5428000,5428000,0.999999,0.00077901105,-0.0012372344,-4.3720604e-05,1.0,0.0,0.0,0.0,0
5436000,5436000,0.99999887,0.0008209695,-0.0012484244,-8.1972496e-05,1.0,0.0,0.0,0.0,0
5444000,5444000,0.99999887,0.0008634653,-0.0012333529,-0.00011119798,1.0,0.0,0.0,0.0,0
5448000,5448000,0.99999887,0.00088098296,-0.0012294948,-0.0001213183,1.0,0.0,0.0,0.0,0
5452000,5452000,0.99999887,0.0009107515,-0.001233094,-0.00013249539,1.0,0.0,0.0,0.0,0
5456000,5456000,0.99999887,0.00091817474,-0.0012297021,-0.00016502851,1.0,0.0,0.0,0.0,0
5460000,5460000,0.99999887,0.000897378,-0.0012081913,-0.00020290603,1.0,0.0,0.0,0.0,0
5464000,5464000,0.9999989,0.0008659035,-0.0011674449,-0.000222168,1.0,0.0,0.0,0.0,0
5472000,5472000,0.99999905,0.0008237667,-0.0010875042,-0.00028147563,1.0,0.0,0.0,0.0,0
5476000,5476000,0.99999905,0.00083280675,-0.0010776082,-0.00032418757,1.0,0.0,0.0,0.0,0
5480000,5480000,0.99999905,0.0008407612,-0.0010650797,-0.0003568142,1.0,0.0,0.0,0.0,0
5484000,5484000,0.99999905,0.0008502871,-0.0010376633,-0.00035959925,1.0,0.0,0.0,0.0,0
5492000,5492000,0.99999905,0.0008921769,-0.001033602,-0.00032957722,1.0,0.0,0.0,0.0,0
5496000,5496000,0.99999905,0.00089471333,-0.001012189,-0.00031662933,1.0,0.0,0.0,0.0,0
5500000,5500000,0.99999905,0.0008850022,-0.0010024841,-0.00031009593,1.0,0.0,0.0,0.0,0
5504000,5504000,0.99999905,0.00087956054,-0.001004524,-0.00033199502,1.0,0.0,0.0,0.0,0
5508000,5508000,0.99999917,0.000874132,-0.000991643,-0.00036187057,1.0,0.0,0.0,0.0,0
5512000,5512000,0.99999917,0.0008569805,-0.00096923846,-0.00037170603,1.0,0.0,0.0,0.0,0
5516000,5516000,0.99999917,0.000853665,-0.00094844744,-0.00036927895,1.0,0.0,0.0,0.0,0
5520000,5520000,0.99999917,0.0008657669,-0.00092610816,-0.00036703303,1.0,0.0,0.0,0.0,0
5524000,5524000,0.9999992,0.00087842037,-0.00089097256,-0.0003802218,1.0,0.0,0.0,0.0,0
5528000,5528000,0.9999992,0.0008910793,-0.00085906446,-0.0004303622,1.0,0.0,0.0,0.0,0
5532000,5532000,0.99999917,0.0008898954,-0.00085749093,-0.0005023795,1.0,0.0,0.0,0.0,0
5536000,5536000,0.99999917,0.0008764732,-0.0008727243,-0.0005454316,1.0,0.0,0.0,0.0,0
5540000,5540000,0.99999917,0.00086888345,-0.0008650969,-0.0005437175,1.0,0.0,0.0,0.0,0
5544000,5544000,0.99999917,0.00087303604,-0.00083674013,-0.0005245869,1.0,0.0,0.0,0.0,0
5548000,5548000,0.99999917,0.0008937213,-0.0008046435,-0.0005283424,1.0,0.0,0.0,0.0,0
5556000,5556000,0.99999905,0.00095420977,-0.0007918575,-0.0005820671,1.0,0.0,0.0,0.0,0
5560000,5560000,0.99999905,0.0009705676,-0.0007733406,-0.0006059205,1.0,0.0,0.0,0.0,0
5564000,5564000,0.99999917,0.0009677416,-0.00073938916,-0.0006058053,1.0,0.0,0.0,0.0,0
5568000,5568000,0.99999917,0.0009552479,-0.0007173136,-0.00059684116,1.0,0.0,0.0,0.0,0
5572000,5572000,0.99999917,0.000949156,-0.0006952281,-0.00060225354,1.0,0.0,0.0,0.0,0
5576000,5576000,0.99999917,0.00095099007,-0.0006711657,-0.0006168999,1.0,0.0,0.0,0.0,0
5580000,5580000,0.99999917,0.0009554862,-0.0006593463,-0.00064114353,1.0,0.0,0.0,0.0,0
5584000,5584000,0.99999917,0.0009625921,-0.00065567746,-0.00065705733,1.0,0.0,0.0,0.0,0
5588000,5588000,0.99999917,0.00095372286,-0.0006503961,-0.00067724107,1.0,0.0,0.0,0.0,0
5592000,5592000,0.99999917,0.0009261457,-0.00064096303,-0.0007119994,1.0,0.0,0.0,0.0,0
5600000,5600000,0.9999991,0.00096727733,-0.00063553714,-0.00076247787,1.0,0.0,0.0,0.0,0
5604000,5604000,0.999999,0.0009832563,-0.0006400362,-0.00078036264,1.0,0.0,0.0,0.0,0
5608000,5608000,0.999999,0.00097037427,-0.00065159064,-0.00079685904,1.0,0.0,0.0,0.0,0
5612000,5612000,0.999999,0.0009708058,-0.00066635106,-0.00081388233,1.0,0.0,0.0,0.0,0
5616000,5616000,0.999999,0.0009860564,-0.00067915156,-0.0008209573,1.0,0.0,0.0,0.0,0
5620000,5620000,0.999999,0.0009778751,-0.00068767124,-0.00082857674,1.0,0.0,0.0,0.0,0
5624000,5624000,0.999999,0.0009488773,-0.0006872729,-0.00084970077,1.0,0.0,0.0,0.0,0
5628000,5628000,0.999999,0.00093799783,-0.0006709176,-0.000863873,1.0,0.0,0.0,0.0,0
5636000,5636000,0.999999,0.0009550057,-0.0006385467,-0.0008893596,1.0,0.0,0.0,0.0,0
5640000,5640000,0.999999,0.0009535697,-0.0006267913,-0.0008836522,1.0,0.0,0.0,0.0,0
5644000,5644000,0.999999,0.00094255165,-0.0006134236,-0.0008843408,1.0,0.0,0.0,0.0,0
5648000,5648000,0.999999,0.00091924693,-0.0006028469,-0.0009059918,1.0,0.0,0.0,0.0,0
5652000,5652000,0.9999991,0.0008916708,-0.00059919694,-0.00092072773,1.0,0.0,0.0,0.0,0
5656000,5656000,0.999999,0.00086776656,-0.0006079785,-0.00091755146,1.0,0.0,0.0,0.0,0
5660000,5660000,0.9999991,0.0008518626,-0.0006077096,-0.00091809116,1.0,0.0,0.0,0.0,0
5668000,5668000,0.999999,0.00087964797,-0.00055844866,-0.00095197844,1.0,0.0,0.0,0.0,0
5672000,5672000,0.999999,0.0008646878,-0.0005642899,-0.0009800905,1.0,0.0,0.0,0.0,0
5676000,5676000,0.999999,0.00084280095,-0.000571192,-0.0010055442,1.0,0.0,0.0,0.0,0
5680000,5680000,0.999999,0.0008341672,-0.0005628273,-0.0010317253,1.0,0.0,0.0,0.0,0
5684000,5684000,0.999999,0.00082338415,-0.00056725147,-0.0010483309,1.0,0.0,0.0,0.0,0
5688000,5688000,0.999999,0.0008002895,-0.0005670413,-0.0010449238,1.0,0.0,0.0,0.0,0
5692000,5692000,0.9999991,0.00077453745,-0.0005615022,-0.0010415139,1.0,0.0,0.0,0.0,0
5700000,5700000,0.999999,0.0007716322,-0.0005818864,-0.0010341973,1.0,0.0,0.0,0.0,0
5704000,5704000,0.9999991,0.000780064,-0.0006046166,-0.0010159248,1.0,0.0,0.0,0.0,0
5708000,5708000,0.999999,0.0007890247,-0.0006294795,-0.0009955228,1.0,0.0,0.0,0.0,0
5712000,5712000,0.999999,0.00079220923,-0.0006479351,-0.0009866088,1.0,0.0,0.0,0.0,0
5716000,5716000,0.999999,0.0007735759,-0.0006594289,-0.0009979433,1.0,0.0,0.0,0.0,0
5720000,5720000,0.99999905,0.0007529014,-0.00066020887,-0.0010287593,1.0,0.0,0.0,0.0,0
5724000,5724000,0.99999905,0.00075032975,-0.0006615469,-0.0010505089,1.0,0.0,0.0,0.0,0
5728000,5728000,0.99999905,0.000746761,-0.00066710863,-0.001060867,1.0,0.0,0.0,0.0,0
5732000,5732000,0.9999989,0.00073468493,-0.00066732464,-0.0010850752,1.0,0.0,0.0,0.0,0
5736000,5736000,0.9999989,0.0007230812,-0.00067404413,-0.0011076707,1.0,0.0,0.0,0.0,0
5740000,5740000,0.9999989,0.0007247613,-0.00069783645,-0.0011110947,1.0,0.0,0.0,0.0,0
5744000,5744000,0.9999989,0.0007355533,-0.0007200594,-0.0011159083,1.0,0.0,0.0,0.0,0
5748000,5748000,0.9999988,0.0007447667,-0.00073108816,-0.0011303021,1.0,0.0,0.0,0.0,0
5752000,5752000,0.9999988,0.0007507262,-0.0007381914,-0.0011434426,1.0,0.0,0.0,0.0,0
5756000,5756000,0.9999988,0.0007359273,-0.0007346162,-0.0011592535,1.0,0.0,0.0,0.0,0
5760000,5760000,0.9999989,0.00070677965,-0.00073263806,-0.0011509247,1.0,0.0,0.0,0.0,0
5764000,5764000,0.99999887,0.0006898252,-0.00075360655,-0.0011005248,1.0,0.0,0.0,0.0,0
5768000,5768000,0.9999989,0.0006686357,-0.00078469835,-0.0010520924,1.0,0.0,0.0,0.0,0
5772000,5772000,0.999999,0.00063257874,-0.00078593445,-0.0010228266,1.0,0.0,0.0,0.0,0
5776000,5776000,0.9999991,0.00060940004,-0.0007546803,-0.0009997576,1.0,0.0,0.0,0.0,0
5780000,5780000,0.9999991,0.00060644775,-0.0007351657,-0.0009740169,1.0,0.0,0.0,0.0,0
5788000,5788000,0.99999917,0.0006363155,-0.0007606503,-0.00091211946,1.0,0.0,0.0,0.0,0
5792000,5792000,0.99999917,0.0006654476,-0.00078213564,-0.0009095158,1.0,0.0,0.0,0.0,0
5800000,5800000,0.99999905,0.00069290085,-0.0008170342,-0.00091963744,1.0,0.0,0.0,0.0,0
5804000,5804000,0.999999,0.0007002892,-0.00084215414,-0.0009605934,1.0,0.0,0.0,0.0,0
5808000,5808000,0.9999989,0.0006945142,-0.0008535853,-0.0010083499,1.0,0.0,0.0,0.0,0
5812000,5812000,0.99999887,0.0006812843,-0.00084904145,-0.0010395901,1.0,0.0,0.0,0.0,0
5816000,5816000,0.999999,0.00066650036,-0.00084394665,-0.0010456799,1.0,0.0,0.0,0.0,0
5820000,5820000,0.99999887,0.0006479764,-0.0008484362,-0.0010501811,1.0,0.0,0.0,0.0,0
5828000,5828000,0.99999887,0.0006498711,-0.0008632451,-0.0010434897,1.0,0.0,0.0,0.0,0
5832000,5832000,0.99999887,0.0006698093,-0.0008671747,-0.0010546723,1.0,0.0,0.0,0.0,0
5836000,5836000,0.99999887,0.00069029664,-0.00086949556,-0.0010828975,1.0,0.0,0.0,0.0,0
5840000,5840000,0.9999988,0.0007002027,-0.0008643153,-0.0011168936,1.0,0.0,0.0,0.0,0
5844000,5844000,0.9999988,0.00069889735,-0.0008676582,-0.0011317306,1.0,0.0,0.0,0.0,0
5848000,5848000,0.9999988,0.0006922803,-0.00087898015,-0.0011124057,1.0,0.0,0.0,0.0,0
5852000,5852000,0.99999887,0.0006973738,-0.0008855314,-0.001078686,1.0,0.0,0.0,0.0,0
5856000,5856000,0.7016231,0.0011213524,-0.000102663806,0.7125474,0.7008721,2.5750069e-11,8.276402e-11,0.713287,1
5860000,5860000,0.70161116,0.0011007756,-7.511226e-05,0.7125592,0.7008721,2.5750069e-11,8.276402e-11,0.713287,1
5864000,5864000,0.7015878,0.0010848216,-6.251487e-05,0.71258223,0.7008721,2.5750069e-11,8.276402e-11,0.713287,1
5868000,5868000,0.7015481,0.00108305,-8.184631e-05,0.71262133,0.7008721,2.5750069e-11,8.276402e-11,0.713287,1
5872000,5872000,0.7015126,0.0010909862,-0.00013380023,0.71265626,0.7008721,2.5750069e-11,8.276402e-11,0.713287,1
5876000,5876000,0.7014934,0.0011064991,-0.00019094242,0.71267515,0.7008721,2.5750069e-11,8.276402e-11,0.713287,1
5880000,5880000,0.70147717,0.0011060607,-0.00023231577,0.71269107,0.7008721,2.5750069e-11,8.276402e-11,0.713287,1
5884000,5884000,0.7014594,0.0010967712,-0.00025003336,0.7127086,0.7008721,2.5750069e-11,8.276402e-11,0.713287,1
5888000,5888000,0.7014469,0.0011038512,-0.00024421373,0.7127209,0.7008721,2.5750069e-11,8.276402e-11,0.713287,1
5892000,5892000,0.7014401,0.0011128855,-0.00024703247,0.71272755,0.7008721,2.5750069e-11,8.276402e-11,0.713287,1
5896000,5896000,0.70143294,0.0011192685,-0.00025984363,0.7127346,0.7008721,2.5750069e-11,8.276402e-11,0.713287,1
5900000,5900000,0.701433,0.0011366997,-0.00024091742,0.7127345,0.7008721,2.5750069e-11,8.276402e-11,0.713287,1
5904000,5904000,0.70144325,0.0011574104,-0.0002145744,0.7127244,0.7008721,2.5750069e-11,8.276402e-11,0.713287,1
5908000,5908000,0.7014513,0.0011758056,-0.00022855401,0.71271646,0.7008721,2.5750069e-11,8.276402e-11,0.713287,1
5912000,5912000,0.7014563,0.0011909113,-0.00025779882,0.71271145,0.7008721,2.5750069e-11,8.276402e-11,0.713287,1
5916000,5916000,0.701456,0.0011896437,-0.00026496107,0.71271175,0.7008721,2.5750069e-11,8.276402e-11,0.713287,1
5920000,5920000,0.7014451,0.0011785155,-0.00026748364,0.7127225,0.7008721,2.5750069e-11,8.276402e-11,0.713287,1
5924000,5924000,0.7014243,0.0011806823,-0.00028460537,0.7127429,0.7008721,2.5750069e-11,8.276402e-11,0.713287,1
5932000,5932000,0.7013948,0.0011990676,-0.00029046115,0.71277195,0.7008721,2.5750069e-11,8.276402e-11,0.713287,1
5940000,5940000,0.701406,0.0012177273,-0.00026466427,0.7127609,0.7008721,2.5750069e-11,8.276402e-11,0.713287,1
5944000,5944000,0.7014213,0.0012202375,-0.00027364673,0.71274585,0.7008721,2.5750069e-11,8.276402e-11,0.713287,1
5948000,5948000,0.7014283,0.0012141154,-0.0002868556,0.712739,0.7008721,2.5750069e-11,8.276402e-11,0.713287,1
5952000,5952000,0.7014338,0.0012179698,-0.00027905963,0.7127336,0.7008721,2.5750069e-11,8.276402e-11,0.713287,1
5956000,5956000,0.70144224,0.0012319308,-0.0002632683,0.7127252,0.7008721,2.5750069e-11,8.276402e-11,0.713287,1
5964000,5964000,0.7014579,0.0012438857,-0.0002759846,0.7127098,0.7008721,2.5750069e-11,8.276402e-11,0.713287,1
5972000,5972000,0.70146227,0.0012306138,-0.00029112515,0.7127055,0.7008721,2.5750069e-11,8.276402e-11,0.713287,1
5980000,5980000,0.70143986,0.0011895358,-0.00032570376,0.71272767,0.7008721,2.5750069e-11,8.276402e-11,0.713287,1
5984000,5984000,0.70143926,0.001182896,-0.00034416735,0.71272826,0.7008721,2.5750069e-11,8.276402e-11,0.713287,1
5988000,5988000,0.7014428,0.0011826875,-0.00036596242,0.7127247,0.7008721,2.5750069e-11,8.276402e-11,0.713287,1
5996000,5996000,0.7014558,0.0011694133,-0.00041299075,0.71271193,0.7008721,2.5750069e-11,8.276402e-11,0.713287,1
6000000,6000000,0.7014773,0.0011550712,-0.00041601248,0.7126908,0.7008721,2.5750069e-11,8.276402e-11,0.713287,1
6004000,6004000,0.7015022,0.0011569166,-0.00041777047,0.7126663,0.7008721,2.5750069e-11,8.276402e-11,0.713287,1
6008000,6008000,0.70152485,0.0011639837,-0.00041553873,0.712644,0.7008721,2.5750069e-11,8.276402e-11,0.713287,1
6012000,6012000,0.70153576,0.0011514896,-0.0004172463,0.71263325,0.7008721,2.5750069e-11,8.276402e-11,0.713287,1
6016000,6016000,0.7015442,0.0011374655,-0.0004257462,0.7126249,0.7008721,2.5750069e-11,8.276402e-11,0.713287,1
6020000,6020000,0.70155954,0.0011357822,-0.00042246273,0.7126098,0.7008721,2.5750069e-11,8.276402e-11,0.713287,1
6028000,6028000,0.7015952,0.0011095598,-0.0003908157,0.7125748,0.7008721,2.5750069e-11,8.276402e-11,0.713287,1
6032000,6032000,0.70159805,0.0010904409,-0.00038428704,0.712572,0.7008721,2.5750069e-11,8.276402e-11,0.713287,1
6036000,6036000,0.7015892,0.0010684899,-0.0004019032,0.71258074,0.7008721,2.5750069e-11,8.276402e-11,0.713287,1
6040000,6040000,0.70159674,0.0010585007,-0.00041168506,0.71257335,0.7008721,2.5750069e-11,8.276402e-11,0.713287,1
6044000,6044000,0.7016194,0.0010648282,-0.00038742024,0.71255106,0.7008721,2.5750069e-11,8.276402e-11,0.713287,1
6048000,6048000,0.70163757,0.0010669768,-0.00036263544,0.7125332,0.7008721,2.5750069e-11,8.276402e-11,0.713287,1
6052000,6052000,0.7016504,0.0010629088,-0.00036238797,0.71252054,0.7008721,2.5750069e-11,8.276402e-11,0.713287,1
6056000,6056000,0.7016648,0.0010701142,-0.0003603567,0.71250635,0.7008721,2.5750069e-11,8.276402e-11,0.713287,1
6060000,6060000,0.7016777,0.0010806073,-0.00034512018,0.71249366,0.7008721,2.5750069e-11,8.276402e-11,0.713287,1
6064000,6064000,0.7016793,0.0010840555,-0.00032677484,0.71249205,0.7008721,2.5750069e-11,8.276402e-11,0.713287,1
6068000,6068000,0.70167404,0.0010923878,-0.0003072726,0.7124972,0.7008721,2.5750069e-11,8.276402e-11,0.713287,1
6072000,6072000,0.7016713,0.0011101424,-0.00029014683,0.7124999,0.7008721,2.5750069e-11,8.276402e-11,0.713287,1
6076000,6076000,0.70167804,0.0011320754,-0.00027711733,0.7124933,0.7008721,2.5750069e-11,8.276402e-11,0.713287,1
6080000,6080000,0.70169014,0.0011415744,-0.0002651395,0.7124814,0.7008721,2.5750069e-11,8.276402e-11,0.713287,1
6084000,6084000,0.7017011,0.0011300226,-0.0002585971,0.7124706,0.7008721,2.5750069e-11,8.276402e-11,0.713287,1
6088000,6088000,0.70171213,0.0011078642,-0.00024595013,0.7124597,0.7008721,2.5750069e-11,8.276402e-11,0.713287,1
6096000,6096000,0.70173293,0.0010580466,-0.00019791703,0.71243936,0.7008721,2.5750069e-11,8.276402e-11,0.713287,1
6100000,6100000,0.701732,0.0010519088,-0.00021963268,0.7124403,0.7008721,2.5750069e-11,8.276402e-11,0.713287,1
6104000,6104000,0.70173,0.0010625848,-0.00023087287,0.7124422,0.7008721,2.5750069e-11,8.276402e-11,0.713287,1
6108000,6108000,0.7017391,0.0010762431,-0.00023755444,0.7124333,0.7008721,2.5750069e-11,8.276402e-11,0.713287,1
6112000,6112000,0.7017532,0.001078313,-0.00026259717,0.71241933,0.7008721,2.5750069e-11,8.276402e-11,0.713287,1
6116000,6116000,0.70176166,0.0010697617,-0.000277936,0.712411,0.7008721,2.5750069e-11,8.276402e-11,0.713287,1
6120000,6120000,0.70176077,0.0010617673,-0.00027735953,0.7124119,0.7008721,2.5750069e-11,8.276402e-11,0.713287,1
6124000,6124000,0.7017595,0.0010651111,-0.00028197118,0.71241313,0.7008721,2.5750069e-11,8.276402e-11,0.713287,1
6132000,6132000,0.7017864,0.0010779841,-0.0002799788,0.71238655,0.7008721,2.5750069e-11,8.276402e-11,0.713287,1
6136000,6136000,0.7018268,0.0010871124,-0.00027993516,0.71234673,0.7008721,2.5750069e-11,8.276402e-11,0.713287,1
6140000,6140000,0.70186573,0.0010778836,-0.00029321262,0.7123084,0.7008721,2.5750069e-11,8.276402e-11,0.713287,1
6148000,6148000,0.70190793,0.0010121203,-0.00031283544,0.712267,0.7008721,2.5750069e-11,8.276402e-11,0.713287,1
6152000,6152000,0.7019268,0.0009977293,-0.00031283058,0.7122483,0.7008721,2.5750069e-11,8.276402e-11,0.713287,1
6156000,6156000,0.70193815,0.0009873651,-0.00029736472,0.7122372,0.7008721,2.5750069e-11,8.276402e-11,0.713287,1
6160000,6160000,0.70194,0.00097629067,-0.00029916773,0.7122354,0.7008721,2.5750069e-11,8.276402e-11,0.713287,1
6164000,6164000,0.70194906,0.00095061614,-0.00031274304,0.71222645,0.7008721,2.5750069e-11,8.276402e-11,0.713287,1
6168000,6168000,0.70196533,0.0009342625,-0.00032353486,0.7122104,0.7008721,2.5750069e-11,8.276402e-11,0.713287,1
6172000,6172000,0.7019771,0.0009419558,-0.00032662562,0.71219885,0.7008721,2.5750069e-11,8.276402e-11,0.713287,1
6180000,6180000,0.7019911,0.0009385354,-0.00030308138,0.71218514,0.7008721,2.5750069e-11,8.276402e-11,0.713287,1
6188000,6188000,0.7020191,0.0008935688,-0.00033281444,0.71215755,0.7008721,2.5750069e-11,8.276402e-11,0.713287,1
6192000,6192000,0.70201945,0.00086339307,-0.00033527403,0.7121572,0.7008721,2.5750069e-11,8.276402e-11,0.713287,1
6196000,6196000,0.70201683,0.00083657046,-0.0003328171,0.7121599,0.7008721,2.5750069e-11,8.276402e-11,0.713287,1
6200000,6200000,0.70201796,0.00081455265,-0.00032613365,0.7121588,0.7008721,2.5750069e-11,8.276402e-11,0.713287,1
6204000,6204000,0.70203197,0.000791473,-0.00032810585,0.712145,0.7008721,2.5750069e-11,8.276402e-11,0.713287,1
6208000,6208000,0.70204675,0.00076753524,-0.0003240174,0.7121304,0.7008721,2.5750069e-11,8.276402e-11,0.713287,1
6212000,6212000,0.70205545,0.00074337993,-0.00028980602,0.7121219,0.7008721,2.5750069e-11,8.276402e-11,0.713287,1
6216000,6216000,0.70205647,0.0007180582,-0.0002589489,0.71212095,0.7008721,2.5750069e-11,8.276402e-11,0.713287,1
6220000,6220000,0.70204914,0.0006951272,-0.00024691498,0.7121282,0.7008721,2.5750069e-11,8.276402e-11,0.713287,1
6224000,6224000,0.70204973,0.00067702564,-0.00023292545,0.7121276,0.7008721,2.5750069e-11,8.276402e-11,0.713287,1
6228000,6228000,0.70206666,0.00066461886,-0.00022452947,0.71211094,0.7008721,2.5750069e-11,8.276402e-11,0.713287,1
6232000,6232000,0.7020826,0.00066090137,-0.00022772294,0.71209526,0.7008721,2.5750069e-11,8.276402e-11,0.713287,1
6236000,6236000,0.7020943,0.000652807,-0.0002512896,0.7120837,0.7008721,2.5750069e-11,8.276402e-11,0.713287,1
6244000,6244000,0.70208114,0.00062641356,-0.00031091514,0.7120967,0.7008721,2.5750069e-11,8.276402e-11,0.713287,1
6248000,6248000,0.7020862,0.00063347555,-0.00030986167,0.7120917,0.7008721,2.5750069e-11,8.276402e-11,0.713287,1
6252000,6252000,0.7020924,0.00064573076,-0.00029747133,0.7120855,0.7008721,2.5750069e-11,8.276402e-11,0.713287,1
6256000,6256000,0.7020942,0.00064823986,-0.0002994542,0.7120837,0.7008721,2.5750069e-11,8.276402e-11,0.713287,1
6260000,6260000,0.7020972,0.0006398196,-0.00030038334,0.71208084,0.7008721,2.5750069e-11,8.276402e-11,0.713287,1
6264000,6264000,0.7021074,0.0006347429,-0.0003016515,0.7120707,0.7008721,2.5750069e-11,8.276402e-11,0.713287,1
6268000,6268000,0.7021226,0.0006354158,-0.0003168104,0.71205574,0.7008721,2.5750069e-11,8.276402e-11,0.713287,1
6276000,6276000,0.7021282,0.0006092376,-0.0003051544,0.71205026,0.7008721,2.5750069e-11,8.276402e-11,0.713287,1
6280000,6280000,0.70210683,0.00059682183,-0.00029632935,0.7120713,0.7008721,2.5750069e-11,8.276402e-11,0.713287,1
6284000,6284000,0.70208853,0.0005979655,-0.00028740623,0.71208936,0.7008721,2.5750069e-11,8.276402e-11,0.713287,1
6288000,6288000,0.7020841,0.00060025614,-0.00028636464,0.7120937,0.7008721,2.5750069e-11,8.276402e-11,0.713287,1
6292000,6292000,0.70208955,0.0005973634,-0.00029740384,0.71208835,0.7008721,2.5750069e-11,8.276402e-11,0.713287,1
6296000,6296000,0.702089,0.00058651716,-0.00030439193,0.7120889,0.7008721,2.5750069e-11,8.276402e-11,0.713287,1
6300000,6300000,0.70208097,0.0005756464,-0.0003083734,0.7120969,0.7008721,2.5750069e-11,8.276402e-11,0.713287,1
6304000,6304000,0.7020623,0.0005802155,-0.0003141713,0.7121152,0.7008721,2.5750069e-11,8.276402e-11,0.713287,1
6308000,6308000,0.7020297,0.00059570296,-0.00032027968,0.7121474,0.7008721,2.5750069e-11,8.276402e-11,0.713287,1
6312000,6312000,0.70201164,0.00059654063,-0.0003321659,0.71216524,0.7008721,2.5750069e-11,8.276402e-11,0.713287,1
6320000,6320000,0.70201516,0.0005561175,-0.00036603774,0.7121618,0.7008721,2.5750069e-11,8.276402e-11,0.713287,1
6324000,6324000,0.7020132,0.0005437128,-0.0003693805,0.71216375,0.7008721,2.5750069e-11,8.276402e-11,0.713287,1
6328000,6328000,0.70202047,0.00051682995,-0.00034950755,0.71215653,0.7008721,2.5750069e-11,8.276402e-11,0.713287,1
6332000,6332000,0.70202965,0.00047259658,-0.00032599116,0.7121475,0.7008721,2.5750069e-11,8.276402e-11,0.713287,1
6340000,6340000,0.702007,0.00044094984,-0.0003510278,0.7121699,0.7008721,2.5750069e-11,8.276402e-11,0.713287,1
6344000,6344000,0.7020004,0.00044501186,-0.00035026408,0.7121764,0.7008721,2.5750069e-11,8.276402e-11,0.713287,1
6348000,6348000,0.702001,0.0004822523,-0.0003537768,0.7121758,0.7008721,2.5750069e-11,8.276402e-11,0.713287,1
6352000,6352000,0.7020002,0.0005358211,-0.00037341577,0.71217644,0.7008721,2.5750069e-11,8.276402e-11,0.713287,1
6356000,6356000,0.7020033,0.00056901126,-0.00038717227,0.7121734,0.7008721,2.5750069e-11,8.276402e-11,0.713287,1
6360000,6360000,0.7020091,0.0005870495,-0.00038601807,0.7121677,0.7008721,2.5750069e-11,8.276402e-11,0.713287,1
6364000,6364000,0.70200956,0.0006159445,-0.00037612775,0.7121672,0.7008721,2.5750069e-11,8.276402e-11,0.713287,1
6368000,6368000,0.7019989,0.00064185716,-0.00036857778,0.71217775,0.7008721,2.5750069e-11,8.276402e-11,0.713287,1
6372000,6372000,0.70198965,0.00066371716,-0.00037348448,0.71218675,0.7008721,2.5750069e-11,8.276402e-11,0.713287,1
6380000,6380000,0.7019926,0.0006989301,-0.00039737677,0.7121839,0.7008721,2.5750069e-11,8.276402e-11,0.713287,1
6388000,6388000,0.7020053,0.0007273458,-0.00041161836,0.7121712,0.7008721,2.5750069e-11,8.276402e-11,0.713287,1
6396000,6396000,0.70195484,0.0007356189,-0.00039867673,0.71222097,0.7008721,2.5750069e-11,8.276402e-11,0.713287,1
6404000,6404000,0.70193815,0.0007609309,-0.00038756485,0.7122375,0.7008721,2.5750069e-11,8.276402e-11,0.713287,1
6408000,6408000,0.7019306,0.0007490416,-0.00039523243,0.7122449,0.7008721,2.5750069e-11,8.276402e-11,0.713287,1
6412000,6412000,0.7019177,0.00072077085,-0.00037779033,0.7122576,0.7008721,2.5750069e-11,8.276402e-11,0.713287,1
6416000,6416000,0.70190907,0.00070043316,-0.0003592086,0.71226615,0.7008721,2.5750069e-11,8.276402e-11,0.713287,1
6420000,6420000,0.70190614,0.000688395,-0.0003420671,0.7122691,0.7008721,2.5750069e-11,8.276402e-11,0.713287,1
6424000,6424000,0.70191383,0.000679335,-0.00031515353,0.71226156,0.7008721,2.5750069e-11,8.276402e-11,0.713287,1
6432000,6432000,0.7019049,0.0007010921,-0.0003036733,0.7122704,0.7008721,2.5750069e-11,8.276402e-11,0.713287,1
6436000,6436000,0.70187867,0.0006783042,-0.00030293647,0.7122961,0.7008721,2.5750069e-11,8.276402e-11,0.713287,1
6440000,6440000,0.7018674,0.0006569959,-0.0002931882,0.71230733,0.7008721,2.5750069e-11,8.276402e-11,0.713287,1
6444000,6444000,0.70185643,0.00065989146,-0.00029681972,0.71231806,0.7008721,2.5750069e-11,8.276402e-11,0.713287,1
6448000,6448000,0.70184076,0.0006612917,-0.0002975065,0.7123335,0.7008721,2.5750069e-11,8.276402e-11,0.713287,1
6452000,6452000,0.7018323,0.0006610319,-0.0002771072,0.71234185,0.7008721,2.5750069e-11,8.276402e-11,0.713287,1
6456000,6456000,0.7018327,0.00067293027,-0.00026570112,0.7123414,0.7008721,2.5750069e-11,8.276402e-11,0.713287,1
6460000,6460000,0.7018335,0.0006805164,-0.00028219793,0.71234065,0.7008721,2.5750069e-11,8.276402e-11,0.713287,1
6468000,6468000,0.7018131,0.0006271681,-0.00031055004,0.71236074,0.7008721,2.5750069e-11,8.276402e-11,0.713287,1
6476000,6476000,0.70178735,0.0005842591,-0.0003523598,0.71238625,0.7008721,2.5750069e-11,8.276402e-11,0.713287,1
6480000,6480000,0.7017676,0.0005568247,-0.00037524852,0.7124057,0.7008721,2.5750069e-11,8.276402e-11,0.713287,1
6484000,6484000,0.70175695,0.0005306299,-0.0004120564,0.7124161,0.7008721,2.5750069e-11,8.276402e-11,0.713287,1
6488000,6488000,0.7017446,0.0005100296,-0.0004371973,0.7124283,0.7008721,2.5750069e-11,8.276402e-11,0.713287,1
6492000,6492000,0.7017228,0.0005013728,-0.00044869573,0.7124497,0.7008721,2.5750069e-11,8.276402e-11,0.713287,1
6500000,6500000,0.7016907,0.0004944377,-0.00044672322,0.71248144,0.7008721,2.5750069e-11,8.276402e-11,0.713287,1
6504000,6504000,0.70167506,0.000476664,-0.0004454535,0.7124968,0.7008721,2.5750069e-11,8.276402e-11,0.713287,1
6508000,6508000,0.7016632,0.00046149726,-0.00044001828,0.7125085,0.7008721,2.5750069e-11,8.276402e-11,0.713287,1
6512000,6512000,0.7016569,0.00046095066,-0.00042428164,0.7125147,0.7008721,2.5750069e-11,8.276402e-11,0.713287,1
6516000,6516000,0.70165175,0.00046266447,-0.00040852692,0.71251976,0.7008721,2.5750069e-11,8.276402e-11,0.713287,1
6524000,6524000,0.70163286,0.00045886124,-0.0004154616,0.7125384,0.7008721,2.5750069e-11,8.276402e-11,0.713287,1
6528000,6528000,0.70161986,0.0004766887,-0.0004372159,0.71255124,0.7008721,2.5750069e-11,8.276402e-11,0.713287,1
6532000,6532000,0.701597,0.0005093826,-0.00043400368,0.71257377,0.7008721,2.5750069e-11,8.276402e-11,0.713287,1
6536000,6536000,0.7015863,0.00052215555,-0.00042708663,0.71258426,0.7008721,2.5750069e-11,8.276402e-11,0.713287,1
6540000,6540000,0.7015931,0.0004962969,-0.00043966592,0.7125776,0.7008721,2.5750069e-11,8.276402e-11,0.713287,1
6544000,6544000,0.7015895,0.00047713608,-0.000440873,0.7125811,0.7008721,2.5750069e-11,8.276402e-11,0.713287,1
6548000,6548000,0.7015696,0.00049527065,-0.00044443752,0.7126007,0.7008721,2.5750069e-11,8.276402e-11,0.713287,1
6552000,6552000,0.7015499,0.0005241326,-0.00046973382,0.71262,0.7008721,2.5750069e-11,8.276402e-11,0.713287,1
6560000,6560000,0.7015089,0.00050784834,-0.00049526547,0.7126604,0.7008721,2.5750069e-11,8.276402e-11,0.713287,1
6568000,6568000,0.70144904,0.0004893895,-0.00043489036,0.7127194,0.7008721,2.5750069e-11,8.276402e-11,0.713287,1
6572000,6572000,0.70142186,0.0005021366,-0.00042032922,0.7127461,0.7008721,2.5750069e-11,8.276402e-11,0.713287,1
6576000,6576000,0.70140326,0.0005081345,-0.0004080473,0.7127644,0.7008721,2.5750069e-11,8.276402e-11,0.713287,1
6584000,6584000,0.7013906,0.00048675196,-0.0003983889,0.71277684,0.7008721,2.5750069e-11,8.276402e-11,0.713287,1
6592000,6592000,0.7013868,0.000486338,-0.00041748618,0.71278065,0.7008721,2.5750069e-11,8.276402e-11,0.713287,1
6596000,6596000,0.7013888,0.00049141294,-0.00042734822,0.7127787,0.7008721,2.5750069e-11,8.276402e-11,0.713287,1
6600000,6600000,0.70139474,0.00048224648,-0.00044481762,0.7127728,0.7008721,2.5750069e-11,8.276402e-11,0.713287,1
6608000,6608000,0.70141375,0.00046653915,-0.0004770557,0.7127541,0.7008721,2.5750069e-11,8.276402e-11,0.713287,1
6612000,6612000,0.7014298,0.00048459214,-0.00050556054,0.7127383,0.7008721,2.5750069e-11,8.276402e-11,0.713287,1
6620000,6620000,0.7014369,0.0005148042,-0.00048571936,0.7127313,0.7008721,2.5750069e-11,8.276402e-11,0.713287,1
6624000,6624000,0.7014344,0.00051805464,-0.00045325796,0.7127338,0.7008721,2.5750069e-11,8.276402e-11,0.713287,1
6628000,6628000,0.70143867,0.0005109086,-0.0004389534,0.7127296,0.7008721,2.5750069e-11,8.276402e-11,0.713287,1
6632000,6632000,0.7014462,0.00051563745,-0.00043847613,0.7127222,0.7008721,2.5750069e-11,8.276402e-11,0.713287,1
6636000,6636000,0.7014472,0.0005283824,-0.00045187524,0.71272117,0.7008721,2.5750069e-11,8.276402e-11,0.713287,1
6640000,6640000,0.7014377,0.00051742856,-0.0004590555,0.71273047,0.7008721,2.5750069e-11,8.276402e-11,0.713287,1
6644000,6644000,0.70142674,0.00048211767,-0.00043479365,0.71274126,0.7008721,2.5750069e-11,8.276402e-11,0.713287,1
6648000,6648000,0.7014257,0.0004709353,-0.00040203138,0.71274245,0.7008721,2.5750069e-11,8.276402e-11,0.713287,1
6652000,6652000,0.7014218,0.00049535226,-0.00039384403,0.71274614,0.7008721,2.5750069e-11,8.276402e-11,0.713287,1
6660000,6660000,0.70140386,0.00047670404,-0.00044314892,0.71276385,0.7008721,2.5750069e-11,8.276402e-11,0.713287,1
6668000,6668000,0.7014215,0.00040173403,-0.00044351592,0.7127465,0.7008721,2.5750069e-11,8.276402e-11,0.713287,1
6672000,6672000,0.7014409,0.00037548097,-0.00042400538,0.7127274,0.7008721,2.5750069e-11,8.276402e-11,0.713287,1
6676000,6676000,0.7014618,0.00037750805,-0.00040841143,0.71270686,0.7008721,2.5750069e-11,8.276402e-11,0.713287,1
6680000,6680000,0.7014775,0.0003984948,-0.00039868316,0.7126914,0.7008721,2.5750069e-11,8.276402e-11,0.713287,1
6684000,6684000,0.70147693,0.00041957395,-0.00040176895,0.712692,0.7008721,2.5750069e-11,8.276402e-11,0.713287,1
6688000,6688000,0.70146656,0.00042054348,-0.00042383967,0.7127022,0.7008721,2.5750069e-11,8.276402e-11,0.713287,1
6692000,6692000,0.7014619,0.00041014614,-0.000436958,0.7127068,0.7008721,2.5750069e-11,8.276402e-11,0.713287,1
6696000,6696000,0.7014532,0.00040448408,-0.0004247865,0.7127153,0.7008721,2.5750069e-11,8.276402e-11,0.713287,1
6700000,6700000,0.7014358,0.0003897481,-0.0004089258,0.71273243,0.7008721,2.5750069e-11,8.276402e-11,0.713287,1
6704000,6704000,0.7014398,0.00039016714,-0.00039743315,0.7127285,0.7008721,2.5750069e-11,8.276402e-11,0.713287,1
6712000,6712000,0.7015201,0.0004355822,-0.00038081355,0.71264946,0.7008721,2.5750069e-11,8.276402e-11,0.713287,1
6716000,6716000,0.7015432,0.00045039566,-0.00037294402,0.7126267,0.7008721,2.5750069e-11,8.276402e-11,0.713287,1
6720000,6720000,0.70155215,0.0004743905,-0.00037855085,0.7126179,0.7008721,2.5750069e-11,8.276402e-11,0.713287,1
6724000,6724000,0.70155275,0.00049955497,-0.00038980358,0.7126173,0.7008721,2.5750069e-11,8.276402e-11,0.713287,1
6728000,6728000,0.70154285,0.00050969585,-0.0004019178,0.712627,0.7008721,2.5750069e-11,8.276402e-11,0.713287,1
6732000,6732000,0.7015155,0.0005221043,-0.00041628646,0.71265393,0.7008721,2.5750069e-11,8.276402e-11,0.713287,1
6736000,6736000,0.7014798,0.00054390635,-0.00042526165,0.7126891,0.7008721,2.5750069e-11,8.276402e-11,0.713287,1
6740000,6740000,0.7014581,0.0005479292,-0.00042344458,0.7127104,0.7008721,2.5750069e-11,8.276402e-11,0.713287,1
6744000,6744000,0.70145434,0.00053953525,-0.00041605014,0.7127141,0.7008721,2.5750069e-11,8.276402e-11,0.713287,1
6748000,6748000,0.7014639,0.00053833774,-0.0004127314,0.71270466,0.7008721,2.5750069e-11,8.276402e-11,0.713287,1
6752000,6752000,0.70147806,0.0005453664,-0.0003957727,0.7126907,0.7008721,2.5750069e-11,8.276402e-11,0.713287,1
6756000,6756000,0.7014767,0.0005624147,-0.00036104437,0.7126921,0.7008721,2.5750069e-11,8.276402e-11,0.713287,1
6764000,6764000,0.7014626,0.00057626795,-0.00034032177,0.7127059,0.7008721,2.5750069e-11,8.276402e-11,0.713287,1
6772000,6772000,0.7014449,0.0005908734,-0.00030827633,0.71272343,0.7008721,2.5750069e-11,8.276402e-11,0.713287,1
6780000,6780000,0.7014212,0.0006519285,-0.00032782386,0.7127467,0.7008721,2.5750069e-11,8.276402e-11,0.713287,1
6788000,6788000,0.70141965,0.0007156926,-0.00039100385,0.71274817,0.7008721,2.5750069e-11,8.276402e-11,0.713287,1
6792000,6792000,0.70138776,0.0007302577,-0.0003969558,0.71277946,0.7008721,2.5750069e-11,8.276402e-11,0.713287,1
6796000,6796000,0.701351,0.0007588828,-0.00037191482,0.71281564,0.7008721,2.5750069e-11,8.276402e-11,0.713287,1
6800000,6800000,0.70134044,0.0007864352,-0.00034722418,0.712826,0.7008721,2.5750069e-11,8.276402e-11,0.713287,1
6804000,6804000,0.70134586,0.0007892061,-0.00033100348,0.7128207,0.7008721,2.5750069e-11,8.276402e-11,0.713287,1
6808000,6808000,0.70134944,0.00077511236,-0.00032056446,0.7128172,0.7008721,2.5750069e-11,8.276402e-11,0.713287,1
6812000,6812000,0.7013492,0.00077050866,-0.00031946864,0.71281743,0.7008721,2.5750069e-11,8.276402e-11,0.713287,1
6816000,6816000,0.70134866,0.000775794,-0.0003258193,0.71281797,0.7008721,2.5750069e-11,8.276402e-11,0.713287,1
6820000,6820000,0.7013386,0.0007829183,-0.00032726905,0.71282786,0.7008721,2.5750069e-11,8.276402e-11,0.713287,1
6824000,6824000,0.7013225,0.0007908636,-0.00033323246,0.71284366,0.7008721,2.5750069e-11,8.276402e-11,0.713287,1
6828000,6828000,0.701311,0.0007891724,-0.00035810136,0.712855,0.7008721,2.5750069e-11,8.276402e-11,0.713287,1
6836000,6836000,0.7012823,0.0008067373,-0.00038280417,0.7128832,0.7008721,2.5750069e-11,8.276402e-11,0.713287,1
6840000,6840000,0.70128036,0.00083096005,-0.0003904898,0.7128851,0.7008721,2.5750069e-11,8.276402e-11,0.713287,1
6844000,6844000,0.7012795,0.0008513034,-0.00043022045,0.7128858,0.7008721,2.5750069e-11,8.276402e-11,0.713287,1
6848000,6848000,0.70128214,0.00084822695,-0.00045808154,0.7128832,0.7008721,2.5750069e-11,8.276402e-11,0.713287,1
6852000,6852000,0.70128554,0.00084528356,-0.00045618604,0.71287984,0.7008721,2.5750069e-11,8.276402e-11,0.713287,1
6856000,6856000,0.701281,0.00085585733,-0.0004466517,0.7128843,0.7008721,2.5750069e-11,8.276402e-11,0.713287,1
6860000,6860000,0.7012742,0.0008713225,-0.0004367033,0.71289104,0.7008721,2.5750069e-11,8.276402e-11,0.713287,1
6868000,6868000,0.7012723,0.00086390995,-0.00043495913,0.71289295,0.7008721,2.5750069e-11,8.276402e-11,0.713287,1
6872000,6872000,0.701263,0.00083828747,-0.00042335188,0.71290207,0.7008721,2.5750069e-11,8.276402e-11,0.713287,1
6876000,6876000,0.7012556,0.00082280685,-0.00040826914,0.71290934,0.7008721,2.5750069e-11,8.276402e-11,0.713287,1
6880000,6880000,0.701262,0.000813742,-0.00039123214,0.71290314,0.7008721,2.5750069e-11,8.276402e-11,0.713287,1
6884000,6884000,0.7012664,0.0008292149,-0.00038115142,0.7128988,0.7008721,2.5750069e-11,8.276402e-11,0.713287,1
6892000,6892000,0.7012257,0.0008542787,-0.0003769096,0.71293885,0.7008721,2.5750069e-11,8.276402e-11,0.713287,1
6896000,6896000,0.70121765,0.0008400867,-0.0003749732,0.71294665,0.7008721,2.5750069e-11,8.276402e-11,0.713287,1
6900000,6900000,0.70122033,0.0008163697,-0.0003591677,0.7129441,0.7008721,2.5750069e-11,8.276402e-11,0.713287,1
6904000,6904000,0.70122755,0.000811058,-0.00033602718,0.712937,0.7008721,2.5750069e-11,8.276402e-11,0.713287,1
6908000,6908000,0.70124424,0.00082206045,-0.0003266765,0.71292055,0.7008721,2.5750069e-11,8.276402e-11,0.713287,1
6912000,6912000,0.70126367,0.00082495407,-0.00033770804,0.7129015,0.7008721,2.5750069e-11,8.276402e-11,0.713287,1
6916000,6916000,0.7012751,0.0008362162,-0.00035922593,0.7128902,0.7008721,2.5750069e-11,8.276402e-11,0.713287,1
6920000,6920000,0.7012763,0.00085725886,-0.00037914855,0.712889,0.7008721,2.5750069e-11,8.276402e-11,0.713287,1
6924000,6924000,0.70127106,0.00087034283,-0.00039349464,0.7128942,0.7008721,2.5750069e-11,8.276402e-11,0.713287,1
6932000,6932000,0.70128906,0.0008995251,-0.00041907365,0.7128764,0.7008721,2.5750069e-11,8.276402e-11,0.713287,1
6940000,6940000,0.7012911,0.00087190693,-0.00037911098,0.71287435,0.7008721,2.5750069e-11,8.276402e-11,0.713287,1
6944000,6944000,0.7012938,0.0008821014,-0.00037040267,0.7128717,0.7008721,2.5750069e-11,8.276402e-11,0.713287,1
6948000,6948000,0.7013069,0.00090135244,-0.00036311417,0.7128589,0.7008721,2.5750069e-11,8.276402e-11,0.713287,1
6952000,6952000,0.7013267,0.0009054192,-0.00034161197,0.71283937,0.7008721,2.5750069e-11,8.276402e-11,0.713287,1
6956000,6956000,0.70134014,0.0009008053,-0.00031830548,0.7128262,0.7008721,2.5750069e-11,8.276402e-11,0.713287,1
6964000,6964000,0.7013689,0.0008772149,-0.00031358222,0.71279794,0.7008721,2.5750069e-11,8.276402e-11,0.713287,1
6968000,6968000,0.7013843,0.00086717156,-0.00031928704,0.7127828,0.7008721,2.5750069e-11,8.276402e-11,0.713287,1
6976000,6976000,0.70138395,0.00082902354,-0.00028905694,0.7127832,0.7008721,2.5750069e-11,8.276402e-11,0.713287,1
6980000,6980000,0.7013625,0.0008056368,-0.00027794827,0.7128043,0.7008721,2.5750069e-11,8.276402e-11,0.713287,1
6984000,6984000,0.70133346,0.0007838707,-0.00028263812,0.71283287,0.7008721,2.5750069e-11,8.276402e-11,0.713287,1
6988000,6988000,0.7013185,0.0007638306,-0.0002673367,0.7128476,0.7008721,2.5750069e-11,8.276402e-11,0.713287,1
6992000,6992000,0.70131916,0.0007512067,-0.00023838354,0.71284705,0.7008721,2.5750069e-11,8.276402e-11,0.713287,1
6996000,6996000,0.7013346,0.0007508666,-0.00023718602,0.71283185,0.7008721,2.5750069e-11,8.276402e-11,0.713287,1
7000000,7000000,0.70135903,0.00074453274,-0.00024128777,0.71280783,0.7008721,2.5750069e-11,8.276402e-11,0.713287,1
7004000,7004000,0.70137507,0.0007342775,-0.00022659796,0.71279204,0.7008721,2.5750069e-11,8.276402e-11,0.713287,1
7008000,7008000,0.7013862,0.0007383855,-0.0002200683,0.7127811,0.7008721,2.5750069e-11,8.276402e-11,0.713287,1
7012000,7012000,0.7014065,0.00073882117,-0.00022485797,0.71276116,0.7008721,2.5750069e-11,8.276402e-11,0.713287,1
7020000,7020000,0.7014356,0.00072834565,-0.00023225094,0.7127325,0.7008721,2.5750069e-11,8.276402e-11,0.713287,1
7028000,7028000,0.70146227,0.0007283495,-0.0002072467,0.71270627,0.7008721,2.5750069e-11,8.276402e-11,0.713287,1
7032000,7032000,0.70147437,0.00075710943,-0.00019945043,0.71269435,0.7008721,2.5750069e-11,8.276402e-11,0.713287,1
7036000,7036000,0.701483,0.0007835967,-0.00019016919,0.71268576,0.7008721,2.5750069e-11,8.276402e-11,0.713287,1
7040000,7040000,0.70149046,0.000792434,-0.00017541746,0.71267843,0.7008721,2.5750069e-11,8.276402e-11,0.713287,1
7044000,7044000,0.7014998,0.0007918951,-0.00016563413,0.71266925,0.7008721,2.5750069e-11,8.276402e-11,0.713287,1
7052000,7052000,0.7015243,0.00077821035,-0.00014698904,0.71264505,0.7008721,2.5750069e-11,8.276402e-11,0.713287,1
7056000,7056000,0.70153046,0.0007819835,-0.00013461446,0.71263903,0.7008721,2.5750069e-11,8.276402e-11,0.713287,1
7060000,7060000,0.70153314,0.00077187736,-0.00012950879,0.71263635,0.7008721,2.5750069e-11,8.276402e-11,0.713287,1
7068000,7068000,0.7015289,0.0007322691,-0.00011953855,0.71264064,0.7008721,2.5750069e-11,8.276402e-11,0.713287,1
7072000,7072000,0.7015128,0.0007459419,-9.739663e-05,0.7126565,0.7008721,2.5750069e-11,8.276402e-11,0.713287,1
7076000,7076000,0.70148903,0.00076702127,-5.9385526e-05,0.71267986,0.7008721,2.5750069e-11,8.276402e-11,0.713287,1
7080000,7080000,0.7014705,0.000780609,-1.4688969e-05,0.7126981,0.7008721,2.5750069e-11,8.276402e-11,0.713287,1
7084000,7084000,0.7014682,0.0008003067,1.9528192e-05,0.71270025,0.7008721,2.5750069e-11,8.276402e-11,0.713287,1
7088000,7088000,0.70148647,0.0008236635,3.1534528e-05,0.7126823,0.7008721,2.5750069e-11,8.276402e-11,0.713287,1
7092000,7092000,0.7015123,0.0008300694,4.379206e-05,0.7126569,0.7008721,2.5750069e-11,8.276402e-11,0.713287,1
7096000,7096000,0.7015046,0.00080442237,7.717486e-05,0.71266454,0.7008721,2.5750069e-11,8.276402e-11,0.713287,1
7100000,7100000,0.7014756,0.00079132186,9.594379e-05,0.71269304,0.7008721,2.5750069e-11,8.276402e-11,0.713287,1
7108000,7108000,0.7014832,0.00083523185,0.000109523855,0.7126856,0.7008721,2.5750069e-11,8.276402e-11,0.713287,1
7112000,7112000,0.70148784,0.00081064744,0.00013528956,0.712681,0.7008721,2.5750069e-11,8.276402e-11,0.713287,1
7116000,7116000,0.7014796,0.0007794356,0.00014215618,0.71268916,0.7008721,2.5750069e-11,8.276402e-11,0.713287,1
7120000,7120000,0.7014804,0.0007680753,0.00013105798,0.71268845,0.7008721,2.5750069e-11,8.276402e-11,0.713287,1
7124000,7124000,0.70150465,0.00077390956,0.00013594028,0.7126645,0.7008721,2.5750069e-11,8.276402e-11,0.713287,1
7128000,7128000,0.70152545,0.0007733527,0.00015540372,0.71264404,0.7008721,2.5750069e-11,8.276402e-11,0.713287,1
7132000,7132000,0.7015314,0.00076806586,0.0001540987,0.71263814,0.7008721,2.5750069e-11,8.276402e-11,0.713287,1
7136000,7136000,0.7015236,0.00078112463,0.00015680541,0.7126458,0.7008721,2.5750069e-11,8.276402e-11,0.713287,1
7140000,7140000,0.7015108,0.00081664516,0.00017700883,0.71265835,0.7008721,2.5750069e-11,8.276402e-11,0.713287,1
7144000,7144000,0.701498,0.0008433521,0.00018353121,0.712671,0.7008721,2.5750069e-11,8.276402e-11,0.713287,1
7148000,7148000,0.7014738,0.0008554781,0.00017674241,0.7126948,0.7008721,2.5750069e-11,8.276402e-11,0.713287,1
7152000,7152000,0.70145136,0.00086057483,0.00016871502,0.7127169,0.7008721,2.5750069e-11,8.276402e-11,0.713287,1
7156000,7156000,0.7014418,0.00085468346,0.00016852513,0.7127262,0.7008721,2.5750069e-11,8.276402e-11,0.713287,1
7160000,7160000,0.70144665,0.0008504252,0.00016680325,0.71272147,0.7008721,2.5750069e-11,8.276402e-11,0.713287,1
7164000,7164000,0.7014648,0.0008458143,0.00016170467,0.71270365,0.7008721,2.5750069e-11,8.276402e-11,0.713287,1
7168000,7168000,0.7014748,0.00083669036,0.00017081662,0.7126938,0.7008721,2.5750069e-11,8.276402e-11,0.713287,1
7172000,7172000,0.7014722,0.00084792444,0.00017781548,0.71269625,0.7008721,2.5750069e-11,8.276402e-11,0.713287,1
7176000,7176000,0.70147073,0.00088262104,0.0001856987,0.71269774,0.7008721,2.5750069e-11,8.276402e-11,0.713287,1
7180000,7180000,0.70147794,0.00090477645,0.00020742886,0.71269065,0.7008721,2.5750069e-11,8.276402e-11,0.713287,1
7184000,7184000,0.70149374,0.0009153913,0.00022638646,0.712675,0.7008721,2.5750069e-11,8.276402e-11,0.713287,1
7188000,7188000,0.70150197,0.000924864,0.0002472084,0.71266687,0.7008721,2.5750069e-11,8.276402e-11,0.713287,1
7196000,7196000,0.70148486,0.0008774206,0.0002840314,0.7126838,0.7008721,2.5750069e-11,8.276402e-11,0.713287,1
7200000,7200000,0.7014731,0.0008771029,0.00028618713,0.7126953,0.7008721,2.5750069e-11,8.276402e-11,0.713287,1
7204000,7204000,0.70146596,0.0008878218,0.00027374705,0.71270233,0.7008721,2.5750069e-11,8.276402e-11,0.713287,1
7208000,7208000,0.7014671,0.0008828044,0.00026415294,0.7127013,0.7008721,2.5750069e-11,8.276402e-11,0.713287,1
7212000,7212000,0.7014701,0.00086448796,0.00026914445,0.7126984,0.7008721,2.5750069e-11,8.276402e-11,0.713287,1
7220000,7220000,0.7014984,0.00086771423,0.00026543354,0.71267056,0.7008721,2.5750069e-11,8.276402e-11,0.713287,1
7224000,7224000,0.7015122,0.00088140037,0.0002502527,0.7126569,0.7008721,2.5750069e-11,8.276402e-11,0.713287,1
7228000,7228000,0.70150787,0.00087580533,0.00024506653,0.7126612,0.7008721,2.5750069e-11,8.276402e-11,0.713287,1
7232000,7232000,0.70150304,0.0008589782,0.00024426178,0.712666,0.7008721,2.5750069e-11,8.276402e-11,0.713287,1
7236000,7236000,0.7015183,0.0008538222,0.00024319683,0.71265095,0.7008721,2.5750069e-11,8.276402e-11,0.713287,1
7240000,7240000,0.70152926,0.00087199867,0.0002573277,0.71264017,0.7008721,2.5750069e-11,8.276402e-11,0.713287,1
7248000,7248000,0.7015316,0.0009085142,0.00032582003,0.71263766,0.7008721,2.5750069e-11,8.276402e-11,0.713287,1
7252000,7252000,0.701542,0.00090882176,0.00037328387,0.7126274,0.7008721,2.5750069e-11,8.276402e-11,0.713287,1
7256000,7256000,0.7015319,0.0009026554,0.00039501395,0.71263736,0.7008721,2.5750069e-11,8.276402e-11,0.713287,1
7260000,7260000,0.7015184,0.0008959152,0.00039413688,0.7126507,0.7008721,2.5750069e-11,8.276402e-11,0.713287,1
7264000,7264000,0.7015269,0.0009096921,0.000406487,0.7126423,0.7008721,2.5750069e-11,8.276402e-11,0.713287,1
7268000,7268000,0.7015494,0.00093398266,0.0004219509,0.71262014,0.7008721,2.5750069e-11,8.276402e-11,0.713287,1
7272000,7272000,0.7015719,0.0009388225,0.0004311941,0.712598,0.7008721,2.5750069e-11,8.276402e-11,0.713287,1
7276000,7276000,0.7015917,0.0009131962,0.00043529994,0.71257854,0.7008721,2.5750069e-11,8.276402e-11,0.713287,1
7280000,7280000,0.70160747,0.0008782967,0.00043212515,0.712563,0.7008721,2.5750069e-11,8.276402e-11,0.713287,1
7284000,7284000,0.70160353,0.00085880083,0.00043544816,0.71256685,0.7008721,2.5750069e-11,8.276402e-11,0.713287,1
7288000,7288000,0.7015855,0.0008642087,0.00044417998,0.7125847,0.7008721,2.5750069e-11,8.276402e-11,0.713287,1
7292000,7292000,0.70157343,0.0008721758,0.00046235498,0.7125965,0.7008721,2.5750069e-11,8.276402e-11,0.713287,1
7296000,7296000,0.70157117,0.00085873116,0.0004867144,0.71259874,0.7008721,2.5750069e-11,8.276402e-11,0.713287,1
7300000,7300000,0.70157456,0.0008439114,0.0004937446,0.7125954,0.7008721,2.5750069e-11,8.276402e-11,0.713287,1
7308000,7308000,0.70157206,0.0008434971,0.0005075217,0.71259785,0.7008721,2.5750069e-11,8.276402e-11,0.713287,1
7312000,7312000,0.7015631,0.000836046,0.0005156032,0.71260667,0.7008721,2.5750069e-11,8.276402e-11,0.713287,1
7316000,7316000,0.7015652,0.00083489827,0.0005354228,0.71260464,0.7008721,2.5750069e-11,8.276402e-11,0.713287,1
7320000,7320000,0.7015789,0.0008470807,0.00054814544,0.7125911,0.7008721,2.5750069e-11,8.276402e-11,0.713287,1
7324000,7324000,0.70159984,0.00085862755,0.0005450529,0.7125705,0.7008721,2.5750069e-11,8.276402e-11,0.713287,1
7328000,7328000,0.70163167,0.0008578338,0.00054219743,0.71253914,0.7008721,2.5750069e-11,8.276402e-11,0.713287,1
7332000,7332000,0.70166427,0.00083930074,0.00054410234,0.712507,0.7008721,2.5750069e-11,8.276402e-11,0.713287,1
7340000,7340000,0.70169806,0.00082688924,0.00056184107,0.7124738,0.7008721,2.5750069e-11,8.276402e-11,0.713287,1
7344000,7344000,0.70170444,0.0008286865,0.00054564537,0.71246755,0.7008721,2.5750069e-11,8.276402e-11,0.713287,1
7348000,7348000,0.7017032,0.0008141431,0.0005492783,0.71246874,0.7008721,2.5750069e-11,8.276402e-11,0.713287,1
7352000,7352000,0.70170486,0.00080380595,0.00055476656,0.71246713,0.7008721,2.5750069e-11,8.276402e-11,0.713287,1
7356000,7356000,0.7017213,0.0008142314,0.0005525202,0.7124509,0.7008721,2.5750069e-11,8.276402e-11,0.713287,1
7360000,7360000,0.7017521,0.0008344057,0.00056461286,0.7124206,0.7008721,2.5750069e-11,8.276402e-11,0.713287,1
7364000,7364000,0.7017703,0.00084056135,0.000589014,0.7124025,0.7008721,2.5750069e-11,8.276402e-11,0.713287,1
7368000,7368000,0.7017749,0.00083173753,0.00061322417,0.7123981,0.7008721,2.5750069e-11,8.276402e-11,0.713287,1
7372000,7372000,0.7017813,0.0008237386,0.00062765006,0.71239173,0.7008721,2.5750069e-11,8.276402e-11,0.713287,1
7380000,7380000,0.7017959,0.0008054114,0.00063414196,0.71237737,0.7008721,2.5750069e-11,8.276402e-11,0.713287,1
7388000,7388000,0.701777,0.0007509874,0.00065451756,0.712396,0.7008721,2.5750069e-11,8.276402e-11,0.713287,1
7392000,7392000,0.7017737,0.00074928376,0.00066126714,0.71239924,0.7008721,2.5750069e-11,8.276402e-11,0.713287,1
7396000,7396000,0.701772,0.00076216774,0.00068131025,0.712401,0.7008721,2.5750069e-11,8.276402e-11,0.713287,1
7400000,7400000,0.70176744,0.0007795296,0.0007156381,0.7124053,0.7008721,2.5750069e-11,8.276402e-11,0.713287,1
7404000,7404000,0.70175195,0.00079487555,0.0007190543,0.7124206,0.7008721,2.5750069e-11,8.276402e-11,0.713287,1
7412000,7412000,0.7017546,0.00081484247,0.00066170277,0.71241796,0.7008721,2.5750069e-11,8.276402e-11,0.713287,1
7416000,7416000,0.7017677,0.0007919736,0.0006504407,0.7124051,0.7008721,2.5750069e-11,8.276402e-11,0.713287,1
7420000,7420000,0.7017656,0.00074794306,0.0006503017,0.71240723,0.7008721,2.5750069e-11,8.276402e-11,0.713287,1
7424000,7424000,0.7017555,0.00070945156,0.00062903226,0.7124173,0.7008721,2.5750069e-11,8.276402e-11,0.713287,1
7428000,7428000,0.7017514,0.0006951262,0.0005989117,0.71242136,0.7008721,2.5750069e-11,8.276402e-11,0.713287,1
7432000,7432000,0.7017563,0.00069930265,0.00057451916,0.7124165,0.7008721,2.5750069e-11,8.276402e-11,0.713287,1
7440000,7440000,0.70177466,0.00075922953,0.000540752,0.71239847,0.7008721,2.5750069e-11,8.276402e-11,0.713287,1
7444000,7444000,0.70177335,0.0007869124,0.0005089291,0.7123997,0.7008721,2.5750069e-11,8.276402e-11,0.713287,1
7448000,7448000,0.7017783,0.0007866678,0.0004964213,0.71239483,0.7008721,2.5750069e-11,8.276402e-11,0.713287,1
7452000,7452000,0.7017973,0.0007764348,0.00050871226,0.7123761,0.7008721,2.5750069e-11,8.276402e-11,0.713287,1
7456000,7456000,0.70181423,0.00077766576,0.00051122875,0.7123594,0.7008721,2.5750069e-11,8.276402e-11,0.713287,1
7460000,7460000,0.7018111,0.0007740293,0.0005118037,0.7123626,0.7008721,2.5750069e-11,8.276402e-11,0.713287,1
7464000,7464000,0.7017975,0.00075694104,0.0005106963,0.712376,0.7008721,2.5750069e-11,8.276402e-11,0.713287,1
7468000,7468000,0.7017884,0.00075161766,0.0004972528,0.7123849,0.7008721,2.5750069e-11,8.276402e-11,0.713287,1
7472000,7472000,0.70179516,0.00075309677,0.00049059413,0.7123782,0.7008721,2.5750069e-11,8.276402e-11,0.713287,1
7480000,7480000,0.7018359,0.0007350166,0.00047859314,0.7123382,0.7008721,2.5750069e-11,8.276402e-11,0.713287,1
7484000,7484000,0.70185155,0.00073465775,0.0004760111,0.7123228,0.7008721,2.5750069e-11,8.276402e-11,0.713287,1
7488000,7488000,0.7018521,0.00074008416,0.00046699453,0.71232224,0.7008721,2.5750069e-11,8.276402e-11,0.713287,1
7492000,7492000,0.70184505,0.0007232644,0.00046194834,0.7123292,0.7008721,2.5750069e-11,8.276402e-11,0.713287,1
7500000,7500000,0.70185333,0.00067025545,0.0005107914,0.71232104,0.7008721,2.5750069e-11,8.276402e-11,0.713287,1
