timestamp,unallocated_torque[0],unallocated_torque[1],unallocated_torque[2],unallocated_thrust[0],unallocated_thrust[1],unallocated_thrust[2],handled_motor_failure_mask,torque_setpoint_achieved,thrust_setpoint_achieved,actuator_saturation[0],actuator_saturation[1],actuator_saturation[2],actuator_saturation[3],actuator_saturation[4],actuator_saturation[5],actuator_saturation[6],actuator_saturation[7],actuator_saturation[8],actuator_saturation[9],actuator_saturation[10],actuator_saturation[11],actuator_saturation[12],actuator_saturation[13],actuator_saturation[14],actuator_saturation[15]
3884000,-0.0016399543,-0.0040935897,-2.5332763e-05,0.0,0.0,8.7481265e-11,0,0,1,-2,-2,-2,-2,2,2,2,2,2,2,2,2,2,2,2,2
3892000,-0.00035970457,0.0038911765,9.81674e-06,0.0,0.0,0.0,0,0,1,-2,-2,-2,-2,2,2,2,2,2,2,2,2,2,2,2,2
4084000,-0.0018481832,0.0015717462,-0.00051962194,0.0,0.0,2.910383e-11,0,0,1,-2,-2,-2,-2,2,2,2,2,2,2,2,2,2,2,2,2
4284000,-2.2847002e-05,0.00034057628,0.0002761195,0.0,0.0,0.0,0,1,1,-2,-2,-2,-2,2,2,2,2,2,2,2,2,2,2,2,2
4484000,0.0006507688,0.0050644428,-0.00022718377,0.0,0.0,0.0,0,0,1,-2,-2,-2,-2,2,2,2,2,2,2,2,2,2,2,2,2
4684000,0.0040021176,-0.0071351957,-0.00023823512,0.0,0.0,2.3283064e-10,0,0,1,-2,-2,-2,-2,2,2,2,2,2,2,2,2,2,2,2,2
4884000,-0.0049501103,-0.0007408266,0.0001258417,0.0,0.0,-1.1641532e-10,0,0,1,-2,0,-2,0,2,2,2,2,2,2,2,2,2,2,2,2
5084000,0.00016064537,0.0025728832,-0.0010129402,0.0,0.0,-1.1641532e-10,0,0,1,0,-2,0,-2,2,2,2,2,2,2,2,2,2,2,2,2
5284000,-0.0006344512,0.0005420202,-0.0013626842,0.0,0.0,-1.1641532e-10,0,0,1,0,-2,0,-2,2,2,2,2,2,2,2,2,2,2,2,2
5484000,-0.0030648904,-1.1641532e-10,1.1641532e-10,0.0,0.0,-1.1641532e-10,0,0,1,0,0,0,0,2,2,2,2,2,2,2,2,2,2,2,2
5684000,-1.2732926e-10,0.0,0.00078822917,0.0,0.0,-1.1641532e-10,0,1,1,0,0,0,-2,2,2,2,2,2,2,2,2,2,2,2,2
5884000,0.0011852481,8.1490725e-10,0.050386477,0.0,0.0,1.1641532e-10,0,0,1,0,0,0,-2,2,2,2,2,2,2,2,2,2,2,2,2
6084000,-2.3283064e-10,-4.3655746e-11,0.0030397072,0.0,0.0,-1.1641532e-10,0,0,1,0,0,0,-2,2,2,2,2,2,2,2,2,2,2,2,2
6284000,-0.00015993079,-2.910383e-11,0.0006703045,0.0,0.0,-1.1641532e-10,0,1,1,0,0,-2,0,2,2,2,2,2,2,2,2,2,2,2,2
6484000,0.0043399925,0.0007213822,-4.002649e-05,0.0,0.0,-1.1641532e-10,0,0,1,0,-2,0,-2,2,2,2,2,2,2,2,2,2,2,2,2
6684000,-0.003859293,0.0039563794,0.0003076264,0.0,0.0,-4.656613e-10,0,0,1,0,-2,0,-2,2,2,2,2,2,2,2,2,2,2,2,2
6884000,-0.0032819565,0.00056867884,-0.00060961285,0.0,0.0,-1.1641532e-10,0,0,1,0,-2,0,-2,2,2,2,2,2,2,2,2,2,2,2,2
7084000,-0.0048713023,-4.3655746e-11,-1.7462298e-10,0.0,0.0,-2.3283064e-10,0,0,1,0,0,0,0,2,2,2,2,2,2,2,2,2,2,2,2
7284000,0.0028362542,-0.00068783364,0.0002156338,0.0,0.0,0.0,0,0,1,-2,0,-2,0,2,2,2,2,2,2,2,2,2,2,2,2
7484000,2.3283064e-10,5.820766e-11,-3.6379788e-11,0.0,0.0,-1.1641532e-10,0,1,1,0,0,0,0,2,2,2,2,2,2,2,2,2,2,2,2
7684000,0.0011739705,0.0013552373,0.0012389356,0.0,0.0,-1.1641532e-10,0,0,1,0,-2,0,-2,2,2,2,2,2,2,2,2,2,2,2,2
7884000,-0.003548787,0.0,7.239591e-05,0.0,0.0,-1.1641532e-10,0,0,1,0,0,-2,0,2,2,2,2,2,2,2,2,2,2,2,2
8084000,-0.00075071666,-0.00061199046,0.0011238637,0.0,0.0,-1.1641532e-10,0,0,1,-2,0,-2,0,2,2,2,2,2,2,2,2,2,2,2,2
8284000,-0.0010876457,-1.1641532e-10,6.1969004e-06,0.0,0.0,-1.1641532e-10,0,0,1,0,0,0,-2,2,2,2,2,2,2,2,2,2,2,2,2
8484000,0.0010425152,-0.00010121451,0.0008149314,0.0,0.0,0.0,0,0,1,-2,0,-2,0,2,2,2,2,2,2,2,2,2,2,2,2
8684000,-0.0048231464,0.0,0.00078891765,0.0,0.0,-1.1641532e-10,0,0,1,0,0,-2,0,2,2,2,2,2,2,2,2,2,2,2,2
8884000,-1.0913936e-11,0.0,0.00030565768,0.0,0.0,-1.1641532e-10,0,1,1,0,0,0,-2,2,2,2,2,2,2,2,2,2,2,2,2
9084000,2.3283064e-10,-1.4551915e-11,-8.091141e-06,0.0,0.0,-1.1641532e-10,0,1,1,0,-2,0,0,2,2,2,2,2,2,2,2,2,2,2,2
9284000,-0.0029417586,-0.000356738,5.783896e-05,0.0,0.0,-1.1641532e-10,0,0,1,-2,0,-2,0,2,2,2,2,2,2,2,2,2,2,2,2
9484000,-0.0024636746,-0.00050799723,0.00013337417,0.0,0.0,0.0,0,0,1,-2,0,-2,0,2,2,2,2,2,2,2,2,2,2,2,2
9684000,1.2732926e-11,0.0,5.820766e-11,0.0,0.0,-1.1641532e-10,0,1,1,0,0,0,0,2,2,2,2,2,2,2,2,2,2,2,2
9884000,-0.001197193,-1.1641532e-10,-0.00019805833,0.0,0.0,0.0,0,0,1,0,-2,0,0,2,2,2,2,2,2,2,2,2,2,2,2
10084000,-0.0003591004,0.0038014278,0.00023039246,0.0,0.0,-2.3283064e-10,0,0,1,0,-2,0,-2,2,2,2,2,2,2,2,2,2,2,2,2
10284000,-0.0030385747,0.003281014,0.00033556554,0.0,0.0,-1.1641532e-10,0,0,1,0,-2,0,-2,2,2,2,2,2,2,2,2,2,2,2,2
10484000,-0.0005166644,0.004418947,-0.00023653719,0.0,0.0,-2.3283064e-10,0,0,1,0,-2,0,-2,2,2,2,2,2,2,2,2,2,2,2,2
10684000,0.001818182,0.0013226054,0.0007515456,0.0,0.0,-1.1641532e-10,0,0,1,0,-2,0,-2,2,2,2,2,2,2,2,2,2,2,2,2
10884000,-0.0054585272,0.00031531788,0.0005675251,0.0,0.0,0.0,0,0,1,0,-2,0,-2,2,2,2,2,2,2,2,2,2,2,2,2
11084000,2.3283064e-10,0.0,5.820766e-11,0.0,0.0,-1.1641532e-10,0,1,1,0,0,0,0,2,2,2,2,2,2,2,2,2,2,2,2
11284000,-0.002330764,-0.0015623858,0.0002938983,0.0,0.0,-1.1641532e-10,0,0,1,-2,0,-2,0,2,2,2,2,2,2,2,2,2,2,2,2
11484000,-0.0011254449,0.0,-1.4551915e-11,0.0,0.0,-1.1641532e-10,0,0,1,0,0,0,0,2,2,2,2,2,2,2,2,2,2,2,2
11684000,0.0027920548,-1.1641532e-10,9.609252e-05,0.0,0.0,-1.1641532e-10,0,0,1,0,0,0,-2,2,2,2,2,2,2,2,2,2,2,2,2
11884000,-0.0047645574,-2.3283064e-10,-1.1641532e-10,0.0,0.0,-1.1641532e-10,0,0,1,0,0,0,0,2,2,2,2,2,2,2,2,2,2,2,2
12084000,5.820766e-11,5.820766e-11,2.910383e-11,0.0,0.0,-1.1641532e-10,0,1,1,0,0,0,0,2,2,2,2,2,2,2,2,2,2,2,2
12284000,-0.0017029209,0.0033735528,0.00026632068,0.0,0.0,-1.1641532e-10,0,0,1,0,-2,0,-2,2,2,2,2,2,2,2,2,2,2,2,2
12484000,0.00014653747,-0.0006592446,0.0006344297,0.0,0.0,-1.1641532e-10,0,1,1,-2,0,-2,0,2,2,2,2,2,2,2,2,2,2,2,2
12684000,-0.0010330386,5.820766e-11,2.4063716e-05,0.0,0.0,-1.1641532e-10,0,0,1,0,0,-2,0,2,2,2,2,2,2,2,2,2,2,2,2
12884000,-5.820766e-11,0.0,-7.275958e-12,0.0,0.0,-1.1641532e-10,0,1,1,0,0,0,0,2,2,2,2,2,2,2,2,2,2,2,2
13084000,0.004837851,-5.820766e-11,-0.00024616614,0.0,0.0,-1.1641532e-10,0,0,1,-2,0,0,0,2,2,2,2,2,2,2,2,2,2,2,2
13284000,-0.0014500604,0.0,5.820766e-11,0.0,0.0,-1.1641532e-10,0,0,1,0,0,0,0,2,2,2,2,2,2,2,2,2,2,2,2
13484000,0.0010083863,6.7317975e-05,0.0002950997,0.0,0.0,-1.1641532e-10,0,0,1,0,-2,0,-2,2,2,2,2,2,2,2,2,2,2,2,2
13684000,0.0017337209,-0.007150703,-0.00028418846,0.0,0.0,-1.1641532e-10,0,0,1,-2,0,-2,0,2,2,2,2,2,2,2,2,2,2,2,2
13884000,5.820766e-11,5.820766e-11,5.820766e-11,0.0,0.0,-2.3283064e-10,0,1,1,0,0,0,0,2,2,2,2,2,2,2,2,2,2,2,2
14084000,3.4924597e-10,2.910383e-11,-0.00018385501,0.0,0.0,0.0,0,1,1,0,-2,0,0,2,2,2,2,2,2,2,2,2,2,2,2
14284000,5.6323013e-05,7.275958e-12,-6.0964143e-05,0.0,0.0,-1.1641532e-10,0,1,1,-2,0,0,0,2,2,2,2,2,2,2,2,2,2,2,2
14484000,0.0028143197,-1.1641532e-10,2.0372681e-10,0.0,0.0,0.0,0,0,1,0,0,0,0,2,2,2,2,2,2,2,2,2,2,2,2
14684000,-5.8315272e-05,0.0,-7.94939e-05,0.0,0.0,-1.1641532e-10,0,1,1,0,-2,0,0,2,2,2,2,2,2,2,2,2,2,2,2
14884000,-0.00164745,0.0,0.0005400048,0.0,0.0,-1.1641532e-10,0,0,1,0,0,0,-2,2,2,2,2,2,2,2,2,2,2,2,2
15084000,0.0016597265,0.0,1.382432e-10,0.0,0.0,0.0,0,0,1,0,0,0,0,2,2,2,2,2,2,2,2,2,2,2,2
15284000,0.0024247572,-0.0040774485,-0.0005857204,0.0,0.0,0.0,0,0,1,-2,0,-2,0,2,2,2,2,2,2,2,2,2,2,2,2
15484000,6.4811335e-05,-0.0027026627,-0.00025212904,0.0,0.0,-2.3283064e-10,0,0,1,-2,0,-2,0,2,2,2,2,2,2,2,2,2,2,2,2
15684000,-0.0038517835,-0.0013466415,-0.00031892495,0.0,0.0,-1.1641532e-10,0,0,1,-2,0,-2,0,2,2,2,2,2,2,2,2,2,2,2,2
15884000,-0.00052568153,1.1641532e-10,-1.3096724e-10,0.0,0.0,0.0,0,1,1,0,0,0,0,2,2,2,2,2,2,2,2,2,2,2,2
16084000,-1.1641532e-10,5.820766e-11,1.0186341e-10,0.0,0.0,-1.1641532e-10,0,1,1,0,0,0,0,2,2,2,2,2,2,2,2,2,2,2,2
16284000,-0.0018032817,-1.1641532e-10,-1.7462298e-10,0.0,0.0,-1.1641532e-10,0,0,1,0,0,0,0,2,2,2,2,2,2,2,2,2,2,2,2
16484000,0.002304275,8.731149e-11,-0.00047054084,0.0,0.0,-1.1641532e-10,0,0,1,-2,0,0,0,2,2,2,2,2,2,2,2,2,2,2,2
16684000,0.0056316936,-0.004502469,1.8213008e-05,0.0,0.0,-1.1641532e-10,0,0,1,-2,0,-2,0,2,2,2,2,2,2,2,2,2,2,2,2
16884000,-0.0036108312,-0.0006262611,4.44865e-05,0.0,0.0,-1.1641532e-10,0,0,1,-2,0,-2,0,2,2,2,2,2,2,2,2,2,2,2,2
17084000,-0.0041193184,0.00068452954,-0.00013373505,0.0,0.0,-1.1641532e-10,0,0,1,0,-2,0,-2,2,2,2,2,2,2,2,2,2,2,2,2
17284000,0.0017958549,-0.00076456624,2.245716e-05,0.0,0.0,-1.1641532e-10,0,0,1,-2,0,-2,0,2,2,2,2,2,2,2,2,2,2,2,2
17484000,-0.0012140978,-0.001793673,-0.0006784139,0.0,0.0,-1.1641532e-10,0,0,1,-2,0,-2,0,2,2,2,2,2,2,2,2,2,2,2,2
17684000,-0.0016153696,3.9419276e-05,-0.00014880019,0.0,0.0,-1.1641532e-10,0,0,1,0,-2,0,-2,2,2,2,2,2,2,2,2,2,2,2,2
17884000,-0.0017936326,0.0,-5.3947624e-05,0.0,0.0,-1.1641532e-10,0,0,1,0,-2,0,0,2,2,2,2,2,2,2,2,2,2,2,2
18084000,0.003094872,-0.00051516097,0.0011196125,0.0,0.0,0.0,0,0,1,-2,0,-2,0,2,2,2,2,2,2,2,2,2,2,2,2
18284000,-0.001465263,-0.0017327357,-0.00040086164,0.0,0.0,-1.1641532e-10,0,0,1,-2,0,-2,0,2,2,2,2,2,2,2,2,2,2,2,2
18484000,0.00010439748,-0.00084204995,-0.000107464206,0.0,0.0,-1.1641532e-10,0,1,1,-2,0,-2,0,2,2,2,2,2,2,2,2,2,2,2,2
18684000,-0.0021568895,1.1641532e-10,-0.00017768092,0.0,0.0,-1.1641532e-10,0,0,1,0,-2,0,0,2,2,2,2,2,2,2,2,2,2,2,2
18884000,-0.0024755392,-0.0032184974,8.8866655e-05,0.0,0.0,-1.1641532e-10,0,0,1,-2,0,-2,0,2,2,2,2,2,2,2,2,2,2,2,2
19084000,1.5115802e-09,-6.9849193e-10,8.440111e-10,0.0,0.0,-1.8626451e-09,0,1,1,0,0,0,0,2,2,2,2,2,2,2,2,2,2,2,2
19284000,1.1641532e-09,1.6298145e-09,2.2700988e-09,0.0,0.0,3.7252903e-09,0,1,1,0,0,0,0,2,2,2,2,2,2,2,2,2,2,2,2
19484000,2.3283064e-09,-9.313226e-10,1.9208528e-09,0.0,0.0,-7.450581e-09,0,1,1,0,0,0,0,2,2,2,2,2,2,2,2,2,2,2,2
19684000,-9.080395e-09,-1.8626451e-09,-5.9371814e-09,0.0,0.0,0.0,0,1,1,0,0,0,0,2,2,2,2,2,2,2,2,2,2,2,2
19884000,1.6298145e-09,-2.3283064e-09,1.3387762e-08,0.0,0.0,0.0,0,1,1,0,0,0,0,2,2,2,2,2,2,2,2,2,2,2,2
20084000,-1.7229468e-08,3.259629e-09,-6.897608e-09,0.0,0.0,-2.9802322e-08,0,1,1,0,0,0,0,2,2,2,2,2,2,2,2,2,2,2,2
20284000,2.6542693e-08,9.313226e-09,-6.344635e-09,0.0,0.0,-2.9802322e-08,0,1,1,0,0,0,0,2,2,2,2,2,2,2,2,2,2,2,2
20484000,-1.792796e-08,4.656613e-09,2.3283064e-09,0.0,0.0,2.9802322e-08,0,1,1,0,0,0,0,2,2,2,2,2,2,2,2,2,2,2,2
20684000,6.7520887e-09,-1.21071935e-08,-1.5716068e-08,0.0,0.0,0.0,0,1,1,0,0,0,0,2,2,2,2,2,2,2,2,2,2,2,2
20884000,7.683411e-09,-1.8626451e-09,-9.604264e-10,0.0,0.0,0.0,0,1,1,0,0,0,0,2,2,2,2,2,2,2,2,2,2,2,2
21084000,1.0244548e-08,-1.8626451e-08,-1.8742867e-08,0.0,0.0,-2.9802322e-08,0,1,1,0,0,0,0,2,2,2,2,2,2,2,2,2,2,2,2
21284000,-2.514571e-08,-7.450581e-09,-1.8764695e-08,0.0,0.0,-2.9802322e-08,0,1,1,0,0,0,0,2,2,2,2,2,2,2,2,2,2,2,2
21484000,3.7252903e-09,2.0489097e-08,-2.1565938e-08,0.0,0.0,0.0,0,1,1,0,0,0,0,2,2,2,2,2,2,2,2,2,2,2,2
21684000,1.6763806e-08,3.3527613e-08,7.188646e-09,0.0,0.0,-5.9604645e-08,0,1,1,0,0,0,0,2,2,2,2,2,2,2,2,2,2,2,2
21884000,1.1175871e-08,1.4901161e-08,-9.1677066e-10,0.0,0.0,-5.9604645e-08,0,1,1,0,0,0,0,2,2,2,2,2,2,2,2,2,2,2,2
22084000,5.5879354e-09,2.6077032e-08,-1.5252795e-08,0.0,0.0,0.0,0,1,1,0,0,0,0,2,2,2,2,2,2,2,2,2,2,2,2
22284000,-4.8428774e-08,-3.7252903e-09,-4.0163286e-09,0.0,0.0,-5.9604645e-08,0,1,1,0,0,0,0,2,2,2,2,2,2,2,2,2,2,2,2
22484000,3.7252903e-09,3.3527613e-08,1.2019882e-08,0.0,0.0,-5.9604645e-08,0,1,1,0,0,0,0,2,2,2,2,2,2,2,2,2,2,2,2
22684000,1.6763806e-08,-3.7252903e-09,1.7462298e-08,0.0,0.0,-5.9604645e-08,0,1,1,0,0,0,0,2,2,2,2,2,2,2,2,2,2,2,2
22884000,-6.193295e-08,-4.284084e-08,6.024493e-09,0.0,0.0,-5.9604645e-08,0,1,1,0,0,0,0,2,2,2,2,2,2,2,2,2,2,2,2
23084000,2.3283064e-08,2.438901e-08,1.7753337e-09,0.0,0.0,-5.9604645e-08,0,1,1,0,0,0,0,2,2,2,2,2,2,2,2,2,2,2,2
23284000,1.0011718e-08,-3.0602678e-08,6.1409082e-09,0.0,0.0,0.0,0,1,1,0,0,0,0,2,2,2,2,2,2,2,2,2,2,2,2
23484000,4.703179e-08,-1.1641532e-09,-6.1118044e-09,0.0,0.0,0.0,0,1,1,0,0,0,0,2,2,2,2,2,2,2,2,2,2,2,2
23684000,-6.7288056e-08,-1.094304e-08,9.720679e-09,0.0,0.0,-5.9604645e-08,0,1,1,0,0,0,0,2,2,2,2,2,2,2,2,2,2,2,2
23884000,-6.868504e-09,-1.5366822e-08,8.3236955e-09,0.0,0.0,0.0,0,1,1,0,0,0,0,2,2,2,2,2,2,2,2,2,2,2,2
24084000,1.9092113e-08,3.0035153e-08,1.6007107e-09,0.0,0.0,-5.9604645e-08,0,1,1,0,0,0,0,2,2,2,2,2,2,2,2,2,2,2,2
24284000,2.6542693e-08,1.8626451e-09,5.820766e-09,0.0,0.0,-5.9604645e-08,0,1,1,0,0,0,0,2,2,2,2,2,2,2,2,2,2,2,2
24484000,2.8812792e-08,1.0477379e-09,-1.4173565e-08,0.0,0.0,0.0,0,1,1,0,0,0,0,2,2,2,2,2,2,2,2,2,2,2,2
24684000,-1.618173e-08,-2.910383e-08,-1.9426807e-08,0.0,0.0,0.0,0,1,1,0,0,0,0,2,2,2,2,2,2,2,2,2,2,2,2
24884000,-1.5133992e-08,-2.0605512e-08,-1.6880222e-09,0.0,0.0,-5.9604645e-08,0,1,1,0,0,0,0,2,2,2,2,2,2,2,2,2,2,2,2
25084000,-1.3504177e-08,-2.4447218e-09,-3.815512e-08,0.0,0.0,0.0,0,1,1,0,0,0,0,2,2,2,2,2,2,2,2,2,2,2,2
25284000,8.1025064e-08,9.429641e-09,-2.7866918e-08,0.0,0.0,-5.9604645e-08,0,1,1,0,0,0,0,2,2,2,2,2,2,2,2,2,2,2,2
25484000,-4.5867637e-08,3.1199306e-08,-2.4303517e-08,0.0,0.0,0.0,0,1,1,0,0,0,0,2,2,2,2,2,2,2,2,2,2,2,2
25684000,-7.21775e-09,-1.3969839e-09,-1.2922101e-08,0.0,0.0,-5.9604645e-08,0,1,1,0,0,0,0,2,2,2,2,2,2,2,2,2,2,2,2
25884000,-5.5879354e-09,-9.080395e-09,7.799827e-09,0.0,0.0,-5.9604645e-08,0,1,1,0,0,0,0,2,2,2,2,2,2,2,2,2,2,2,2
26084000,4.353933e-08,-4.1152816e-08,-2.8754584e-08,0.0,0.0,0.0,0,1,1,0,0,0,0,2,2,2,2,2,2,2,2,2,2,2,2
26284000,-1.9092113e-08,3.3993274e-08,-2.86891e-08,0.0,0.0,-5.9604645e-08,0,1,1,0,0,0,0,2,2,2,2,2,2,2,2,2,2,2,2
26484000,1.3504177e-08,-1.21071935e-08,2.7939677e-08,0.0,0.0,-5.9604645e-08,0,1,1,0,0,0,0,2,2,2,2,2,2,2,2,2,2,2,2
26684000,9.6915755e-09,-2.6164344e-08,-4.1443855e-08,0.0,0.0,0.0,0,1,1,0,0,0,0,2,2,2,2,2,2,2,2,2,2,2,2
26884000,1.29657565e-08,5.180482e-09,1.4049874e-08,0.0,0.0,-5.9604645e-08,0,1,1,0,0,0,0,2,2,2,2,2,2,2,2,2,2,2,2
27084000,3.1897798e-08,-1.21071935e-08,-1.5948899e-08,0.0,0.0,0.0,0,1,1,0,0,0,0,2,2,2,2,2,2,2,2,2,2,2,2
27284000,6.018672e-08,4.4237822e-09,1.0477379e-08,0.0,0.0,-5.9604645e-08,0,1,1,0,0,0,0,2,2,2,2,2,2,2,2,2,2,2,2
27484000,-4.1909516e-09,-1.497392e-08,-8.527422e-09,0.0,0.0,0.0,0,1,1,0,0,0,0,2,2,2,2,2,2,2,2,2,2,2,2
27684000,3.5157427e-08,3.7252903e-09,-4.1909516e-09,0.0,0.0,0.0,0,1,1,0,0,0,0,2,2,2,2,2,2,2,2,2,2,2,2
27884000,5.424954e-08,-1.3969839e-09,-3.929017e-09,0.0,0.0,-5.9604645e-08,0,1,1,0,0,0,0,2,2,2,2,2,2,2,2,2,2,2,2
28084000,-4.656613e-08,6.519258e-09,-1.1175871e-08,0.0,0.0,0.0,0,1,1,0,0,0,0,2,2,2,2,2,2,2,2,2,2,2,2
28284000,3.5390258e-08,-1.1175871e-08,-1.8626451e-09,0.0,0.0,0.0,0,1,1,0,0,0,0,2,2,2,2,2,2,2,2,2,2,2,2
28484000,8.4983185e-09,3.632158e-08,-1.1175871e-08,0.0,0.0,0.0,0,1,1,0,0,0,0,2,2,2,2,2,2,2,2,2,2,2,2
28684000,-2.2118911e-08,3.3760443e-08,2.0489097e-08,0.0,0.0,0.0,0,1,1,0,0,0,0,2,2,2,2,2,2,2,2,2,2,2,2
28884000,-3.5390258e-08,3.0035153e-08,4.656613e-09,0.0,0.0,-5.9604645e-08,0,1,1,0,0,0,0,2,2,2,2,2,2,2,2,2,2,2,2
29084000,7.264316e-08,-2.6077032e-08,3.7252903e-09,0.0,0.0,0.0,0,1,1,0,0,0,0,2,2,2,2,2,2,2,2,2,2,2,2
29284000,-6.3562766e-08,1.4901161e-08,-2.2351742e-08,0.0,0.0,-5.9604645e-08,0,1,1,0,0,0,0,2,2,2,2,2,2,2,2,2,2,2,2
29484000,-1.5366822e-08,-3.259629e-09,3.7252903e-09,0.0,0.0,-5.9604645e-08,0,1,1,0,0,0,0,2,2,2,2,2,2,2,2,2,2,2,2
29684000,-3.958121e-08,1.3038516e-08,-7.450581e-09,0.0,0.0,0.0,0,1,1,0,0,0,0,2,2,2,2,2,2,2,2,2,2,2,2
29884000,1.07247615e-08,5.5879354e-09,1.1175871e-08,0.0,0.0,-1.1920929e-07,0,1,1,0,0,0,0,2,2,2,2,2,2,2,2,2,2,2,2
30084000,2.3050234e-08,3.1664968e-08,-5.122274e-09,0.0,0.0,0.0,0,1,1,0,0,0,0,2,2,2,2,2,2,2,2,2,2,2,2
30284000,-3.7252903e-08,5.122274e-09,-2.7008355e-08,0.0,0.0,0.0,0,1,1,0,0,0,0,2,2,2,2,2,2,2,2,2,2,2,2
30484000,-2.0489097e-08,-4.656613e-09,2.7939677e-08,0.0,0.0,0.0,0,1,1,0,0,0,0,2,2,2,2,2,2,2,2,2,2,2,2
30684000,3.5390258e-08,1.9092113e-08,-4.1443855e-08,0.0,0.0,-5.9604645e-08,0,1,1,0,0,0,0,2,2,2,2,2,2,2,2,2,2,2,2
30884000,7.916242e-09,-1.8626451e-09,1.1641532e-08,0.0,0.0,0.0,0,1,1,0,0,0,0,2,2,2,2,2,2,2,2,2,2,2,2
31084000,4.1909516e-08,1.8626451e-09,1.3038516e-08,0.0,0.0,-5.9604645e-08,0,1,1,0,0,0,0,2,2,2,2,2,2,2,2,2,2,2,2
31284000,-3.6263373e-08,-2.2817403e-08,-9.313226e-10,0.0,0.0,-5.9604645e-08,0,1,1,0,0,0,0,2,2,2,2,2,2,2,2,2,2,2,2
31484000,3.7020072e-08,1.4901161e-08,8.8475645e-09,0.0,0.0,-5.9604645e-08,0,1,1,0,0,0,0,2,2,2,2,2,2,2,2,2,2,2,2
31684000,-2.5247573e-09,1.1175871e-08,1.44355e-08,0.0,0.0,0.0,0,1,1,0,0,0,0,2,2,2,2,2,2,2,2,2,2,2,2
31884000,-6.0535967e-09,-2.7939677e-08,8.381903e-09,0.0,0.0,-5.9604645e-08,0,1,1,0,0,0,0,2,2,2,2,2,2,2,2,2,2,2,2
32084000,1.816079e-08,-5.5879354e-08,-9.313226e-10,0.0,0.0,0.0,0,1,1,0,0,0,0,2,2,2,2,2,2,2,2,2,2,2,2
32284000,-8.614734e-09,1.3969839e-08,-2.142042e-08,0.0,0.0,5.9604645e-08,0,1,1,0,0,0,0,2,2,2,2,2,2,2,2,2,2,2,2
32484000,1.816079e-08,0.0,-4.656613e-09,0.0,0.0,0.0,0,1,1,0,0,0,0,2,2,2,2,2,2,2,2,2,2,2,2
32684000,-1.6298145e-09,9.313226e-10,3.3411197e-08,0.0,0.0,-5.9604645e-08,0,1,1,0,0,0,0,2,2,2,2,2,2,2,2,2,2,2,2
32884000,-9.313226e-10,-3.7252903e-08,-4.656613e-10,0.0,0.0,-5.9604645e-08,0,1,1,0,0,0,0,2,2,2,2,2,2,2,2,2,2,2,2
33084000,3.4924597e-08,1.8626451e-09,3.678724e-08,0.0,0.0,-5.9604645e-08,0,1,1,0,0,0,0,2,2,2,2,2,2,2,2,2,2,2,2
33284000,5.2386895e-09,4.4703484e-08,2.165325e-08,0.0,0.0,-5.9604645e-08,0,1,1,0,0,0,0,2,2,2,2,2,2,2,2,2,2,2,2
33484000,-5.47152e-08,1.8626451e-09,-1.4842954e-09,0.0,0.0,-5.9604645e-08,0,1,1,0,0,0,0,2,2,2,2,2,2,2,2,2,2,2,2
33684000,4.2433385e-08,-1.3038516e-08,2.1536835e-08,0.0,0.0,0.0,0,1,1,0,0,0,0,2,2,2,2,2,2,2,2,2,2,2,2
33884000,2.5029294e-08,1.4901161e-08,1.542503e-08,0.0,0.0,0.0,0,1,1,0,0,0,0,2,2,2,2,2,2,2,2,2,2,2,2
34084000,6.0535967e-09,2.6077032e-08,-2.0954758e-09,0.0,0.0,-5.9604645e-08,0,1,1,0,0,0,0,2,2,2,2,2,2,2,2,2,2,2,2
34284000,-4.2200554e-09,3.259629e-08,-3.0180672e-08,0.0,0.0,5.9604645e-08,0,1,1,0,0,0,0,2,2,2,2,2,2,2,2,2,2,2,2
34484000,3.4924597e-08,-2.7008355e-08,1.5890691e-08,0.0,0.0,0.0,0,1,1,0,0,0,0,2,2,2,2,2,2,2,2,2,2,2,2
34684000,-3.015157e-08,2.0489097e-08,1.4173565e-08,0.0,0.0,-5.9604645e-08,0,1,1,0,0,0,0,2,2,2,2,2,2,2,2,2,2,2,2
34884000,6.3562766e-08,2.7939677e-09,-8.818461e-09,0.0,0.0,0.0,0,1,1,0,0,0,0,2,2,2,2,2,2,2,2,2,2,2,2
35084000,2.3981556e-08,-1.6763806e-08,-8.076313e-09,0.0,0.0,0.0,0,1,1,0,0,0,0,2,2,2,2,2,2,2,2,2,2,2,2
35284000,-4.9476512e-08,9.313226e-09,8.458301e-09,0.0,0.0,0.0,0,1,1,0,0,0,0,2,2,2,2,2,2,2,2,2,2,2,2
35484000,4.726462e-08,-2.7939677e-09,5.2095857e-09,0.0,0.0,-5.9604645e-08,0,1,1,0,0,0,0,2,2,2,2,2,2,2,2,2,2,2,2
35684000,1.9965228e-08,-1.8626451e-08,4.5401976e-09,0.0,0.0,0.0,0,1,1,0,0,0,0,2,2,2,2,2,2,2,2,2,2,2,2
35884000,-6.170012e-08,1.4901161e-08,3.4327968e-08,0.0,0.0,-5.9604645e-08,0,1,1,0,0,0,0,2,2,2,2,2,2,2,2,2,2,2,2
36084000,-1.7695129e-08,-1.3969839e-08,1.0128133e-08,0.0,0.0,0.0,0,1,1,0,0,0,0,2,2,2,2,2,2,2,2,2,2,2,2
36284000,1.5716068e-08,-2.6077032e-08,-4.307367e-09,0.0,0.0,-5.9604645e-08,0,1,1,0,0,0,0,2,2,2,2,2,2,2,2,2,2,2,2
36484000,1.1175871e-08,1.7695129e-08,-2.5851477e-08,0.0,0.0,-1.1920929e-07,0,1,1,0,0,0,0,2,2,2,2,2,2,2,2,2,2,2,2
36684000,-6.321352e-08,-1.3038516e-08,-1.3387762e-09,0.0,0.0,0.0,0,1,1,0,0,0,0,2,2,2,2,2,2,2,2,2,2,2,2
36884000,-2.142042e-08,-1.8626451e-08,-1.2925739e-08,0.0,0.0,0.0,0,1,1,0,0,0,0,2,2,2,2,2,2,2,2,2,2,2,2
37084000,1.8626451e-08,-9.313226e-09,-1.6880222e-09,0.0,0.0,0.0,0,1,1,0,0,0,0,2,2,2,2,2,2,2,2,2,2,2,2
37284000,-2.795423e-08,2.3283064e-08,-1.542503e-08,0.0,0.0,-1.1920929e-07,0,1,1,0,0,0,0,2,2,2,2,2,2,2,2,2,2,2,2
37484000,4.5634806e-08,1.6763806e-08,5.5181317e-09,0.0,0.0,-5.9604645e-08,0,1,1,0,0,0,0,2,2,2,2,2,2,2,2,2,2,2,2
37684000,-1.839362e-08,2.7939677e-08,1.2136297e-08,0.0,0.0,-1.1920929e-07,0,1,1,0,0,0,0,2,2,2,2,2,2,2,2,2,2,2,2
37884000,-2.6775524e-08,1.8626451e-09,-3.1868694e-08,0.0,0.0,-5.9604645e-08,0,1,1,0,0,0,0,2,2,2,2,2,2,2,2,2,2,2,2
38084000,3.608875e-08,-5.5879354e-09,-5.5879354e-09,0.0,0.0,-5.9604645e-08,0,1,1,0,0,0,0,2,2,2,2,2,2,2,2,2,2,2,2
38284000,-1.1641532e-08,1.3038516e-08,2.6484486e-09,0.0,0.0,0.0,0,1,1,0,0,0,0,2,2,2,2,2,2,2,2,2,2,2,2
38484000,-1.839362e-08,-1.4901161e-08,-3.6670826e-09,0.0,0.0,-5.9604645e-08,0,1,1,0,0,0,0,2,2,2,2,2,2,2,2,2,2,2,2
38684000,-1.2193777e-07,1.8626451e-08,-1.731678e-08,0.0,0.0,0.0,0,1,1,0,0,0,0,2,2,2,2,2,2,2,2,2,2,2,2
38884000,-3.282912e-08,4.656613e-08,-3.3760443e-09,0.0,0.0,-5.9604645e-08,0,1,1,0,0,0,0,2,2,2,2,2,2,2,2,2,2,2,2
39084000,-1.071021e-08,-1.4901161e-08,3.3993274e-08,0.0,0.0,0.0,0,1,1,0,0,0,0,2,2,2,2,2,2,2,2,2,2,2,2
39284000,-3.632158e-08,-9.313226e-09,2.9685907e-09,0.0,0.0,0.0,0,1,1,0,0,0,0,2,2,2,2,2,2,2,2,2,2,2,2
39484000,-3.3294782e-08,3.7252903e-09,-6.6065695e-09,0.0,0.0,0.0,0,1,1,0,0,0,0,2,2,2,2,2,2,2,2,2,2,2,2
39684000,1.792796e-08,4.656613e-09,-1.51922e-08,0.0,0.0,-5.9604645e-08,0,1,1,0,0,0,0,2,2,2,2,2,2,2,2,2,2,2,2
39884000,1.21071935e-08,6.170012e-09,-1.3969839e-08,0.0,0.0,0.0,0,1,1,0,0,0,0,2,2,2,2,2,2,2,2,2,2,2,2
40084000,6.984919e-08,1.5832484e-08,1.6763806e-08,0.0,0.0,0.0,0,1,1,0,0,0,0,2,2,2,2,2,2,2,2,2,2,2,2
40284000,-9.313226e-09,-6.519258e-09,-1.21071935e-08,0.0,0.0,-5.9604645e-08,0,1,1,0,0,0,0,2,2,2,2,2,2,2,2,2,2,2,2
40484000,-6.0535967e-09,3.259629e-08,-2.3515895e-08,0.0,0.0,-5.9604645e-08,0,1,1,0,0,0,0,2,2,2,2,2,2,2,2,2,2,2,2
40684000,-9.313226e-09,-1.1175871e-08,2.0489097e-08,0.0,0.0,-5.9604645e-08,0,1,1,0,0,0,0,2,2,2,2,2,2,2,2,2,2,2,2
40884000,5.8673322e-08,-5.5879354e-09,-1.8626451e-09,0.0,0.0,-5.9604645e-08,0,1,1,0,0,0,0,2,2,2,2,2,2,2,2,2,2,2,2
41084000,4.6216883e-08,-7.450581e-09,3.9115548e-08,0.0,0.0,-5.9604645e-08,0,1,1,0,0,0,0,2,2,2,2,2,2,2,2,2,2,2,2
41284000,-4.703179e-08,2.0489097e-08,2.4214387e-08,0.0,0.0,0.0,0,1,1,0,0,0,0,2,2,2,2,2,2,2,2,2,2,2,2
41484000,-8.1490725e-09,1.6763806e-08,1.1175871e-08,0.0,0.0,-5.9604645e-08,0,1,1,0,0,0,0,2,2,2,2,2,2,2,2,2,2,2,2
41684000,-5.5879354e-09,9.313226e-10,-1.4901161e-08,0.0,0.0,-5.9604645e-08,0,1,1,0,0,0,0,2,2,2,2,2,2,2,2,2,2,2,2
41884000,-1.8626451e-08,4.656613e-09,1.8626451e-08,0.0,0.0,0.0,0,1,1,0,0,0,0,2,2,2,2,2,2,2,2,2,2,2,2
42084000,-4.2375177e-08,1.8626451e-08,1.6763806e-08,0.0,0.0,0.0,0,1,1,0,0,0,0,2,2,2,2,2,2,2,2,2,2,2,2
42284000,0.0,3.4924597e-09,1.9092113e-08,0.0,0.0,-5.9604645e-08,0,1,1,0,0,0,0,2,2,2,2,2,2,2,2,2,2,2,2
42484000,-8.1257895e-08,-2.514571e-08,-1.1175871e-08,0.0,0.0,0.0,0,1,1,0,0,0,0,2,2,2,2,2,2,2,2,2,2,2,2
42684000,2.514571e-08,9.313226e-09,-6.0535967e-09,0.0,0.0,-5.9604645e-08,0,1,1,0,0,0,0,2,2,2,2,2,2,2,2,2,2,2,2
42884000,9.406358e-08,9.313226e-09,1.3969839e-08,0.0,0.0,0.0,0,1,1,0,0,0,0,2,2,2,2,2,2,2,2,2,2,2,2
43084000,4.8894435e-09,8.381903e-09,-1.990702e-08,0.0,0.0,0.0,0,1,1,0,0,0,0,2,2,2,2,2,2,2,2,2,2,2,2
43284000,3.3527613e-08,-1.6763806e-08,-9.778887e-09,0.0,0.0,0.0,0,1,1,0,0,0,0,2,2,2,2,2,2,2,2,2,2,2,2
43484000,-1.8626451e-08,-1.3969839e-08,-7.450581e-09,0.0,0.0,-5.9604645e-08,0,1,1,0,0,0,0,2,2,2,2,2,2,2,2,2,2,2,2
43684000,2.7939677e-09,4.656613e-09,-1.071021e-08,0.0,0.0,0.0,0,1,1,0,0,0,0,2,2,2,2,2,2,2,2,2,2,2,2
43884000,1.4784746e-08,-1.9557774e-08,-3.7718564e-08,0.0,0.0,-5.9604645e-08,0,1,1,0,0,0,0,2,2,2,2,2,2,2,2,2,2,2,2
44084000,3.623427e-08,5.029142e-08,7.450581e-09,0.0,0.0,-5.9604645e-08,0,1,1,0,0,0,0,2,2,2,2,2,2,2,2,2,2,2,2
44284000,-2.3981556e-08,-1.8626451e-08,-1.9557774e-08,0.0,0.0,0.0,0,1,1,0,0,0,0,2,2,2,2,2,2,2,2,2,2,2,2
44484000,3.747118e-08,-2.8871e-08,-5.5879354e-09,0.0,0.0,0.0,0,1,1,0,0,0,0,2,2,2,2,2,2,2,2,2,2,2,2
44684000,1.816079e-08,-3.0733645e-08,1.6298145e-08,0.0,0.0,-5.9604645e-08,0,1,1,0,0,0,0,2,2,2,2,2,2,2,2,2,2,2,2
44884000,4.656613e-09,2.9802322e-08,3.7252903e-08,0.0,0.0,-5.9604645e-08,0,1,1,0,0,0,0,2,2,2,2,2,2,2,2,2,2,2,2
45084000,3.585592e-08,-2.7939677e-09,-1.4901161e-08,0.0,0.0,-5.9604645e-08,0,1,1,0,0,0,0,2,2,2,2,2,2,2,2,2,2,2,2
45284000,1.565786e-08,3.5390258e-08,5.122274e-09,0.0,0.0,0.0,0,1,1,0,0,0,0,2,2,2,2,2,2,2,2,2,2,2,2
45484000,1.6763806e-08,-1.3969839e-09,6.9849193e-09,0.0,0.0,-5.9604645e-08,0,1,1,0,0,0,0,2,2,2,2,2,2,2,2,2,2,2,2
45684000,1.816079e-08,-1.3504177e-08,-6.0535967e-09,0.0,0.0,0.0,0,1,1,0,0,0,0,2,2,2,2,2,2,2,2,2,2,2,2
45884000,-3.632158e-08,-3.7252903e-09,2.514571e-08,0.0,0.0,0.0,0,1,1,0,0,0,0,2,2,2,2,2,2,2,2,2,2,2,2
46084000,1.21071935e-08,-1.7695129e-08,-2.9453076e-08,0.0,0.0,-5.9604645e-08,0,1,1,0,0,0,0,2,2,2,2,2,2,2,2,2,2,2,2
46284000,4.551839e-08,-1.1175871e-08,-1.3620593e-08,0.0,0.0,-5.9604645e-08,0,1,1,0,0,0,0,2,2,2,2,2,2,2,2,2,2,2,2
46484000,-2.7939677e-08,2.0489097e-08,3.3760443e-08,0.0,0.0,0.0,0,1,1,0,0,0,0,2,2,2,2,2,2,2,2,2,2,2,2
46684000,-5.0407834e-08,-9.313226e-09,-5.2386895e-09,0.0,0.0,-5.9604645e-08,0,1,1,0,0,0,0,2,2,2,2,2,2,2,2,2,2,2,2
46884000,5.0873496e-08,1.1175871e-08,1.3969839e-09,0.0,0.0,-5.9604645e-08,0,1,1,0,0,0,0,2,2,2,2,2,2,2,2,2,2,2,2
47084000,4.6333298e-08,1.2572855e-08,-1.4784746e-08,0.0,0.0,-5.9604645e-08,0,1,1,0,0,0,0,2,2,2,2,2,2,2,2,2,2,2,2
47284000,2.3108441e-08,2.2351742e-08,-8.8475645e-09,0.0,0.0,0.0,0,1,1,0,0,0,0,2,2,2,2,2,2,2,2,2,2,2,2
47484000,-2.7590431e-08,-1.3271347e-08,-3.259629e-08,0.0,0.0,-5.9604645e-08,0,1,1,0,0,0,0,2,2,2,2,2,2,2,2,2,2,2,2
47684000,-5.1688403e-08,-1.6065314e-08,-1.4901161e-08,0.0,0.0,0.0,0,1,1,0,0,0,0,2,2,2,2,2,2,2,2,2,2,2,2
47884000,-4.1909516e-08,-6.519258e-09,1.9324943e-08,0.0,0.0,-5.9604645e-08,0,1,1,0,0,0,0,2,2,2,2,2,2,2,2,2,2,2,2
48084000,-1.3038516e-08,-1.8626451e-08,-6.519258e-09,0.0,0.0,0.0,0,1,1,0,0,0,0,2,2,2,2,2,2,2,2,2,2,2,2
48284000,2.9802322e-08,3.7252903e-09,9.895302e-09,0.0,0.0,0.0,0,1,1,0,0,0,0,2,2,2,2,2,2,2,2,2,2,2,2
48484000,-1.816079e-08,-2.6775524e-09,-1.6065314e-08,0.0,0.0,-5.9604645e-08,0,1,1,0,0,0,0,2,2,2,2,2,2,2,2,2,2,2,2
48684000,-8.009374e-08,-8.818461e-09,-3.259629e-08,0.0,0.0,-5.9604645e-08,0,1,1,0,0,0,0,2,2,2,2,2,2,2,2,2,2,2,2
48884000,-6.984919e-08,1.4901161e-08,-1.21071935e-08,0.0,0.0,-5.9604645e-08,0,1,1,0,0,0,0,2,2,2,2,2,2,2,2,2,2,2,2
49084000,1.8626451e-09,-3.585592e-08,1.1175871e-08,0.0,0.0,0.0,0,1,1,0,0,0,0,2,2,2,2,2,2,2,2,2,2,2,2
49284000,2.514571e-08,-1.1175871e-08,-9.313226e-09,0.0,0.0,-5.9604645e-08,0,1,1,0,0,0,0,2,2,2,2,2,2,2,2,2,2,2,2
49484000,-4.656613e-08,-1.4901161e-08,3.3527613e-08,0.0,0.0,0.0,0,1,1,0,0,0,0,2,2,2,2,2,2,2,2,2,2,2,2
49684000,-1.9557774e-08,-4.8894435e-08,3.1664968e-08,0.0,0.0,-5.9604645e-08,0,1,1,0,0,0,0,2,2,2,2,2,2,2,2,2,2,2,2
49884000,3.3294782e-08,3.9523e-08,-1.8626451e-08,0.0,0.0,0.0,0,1,1,0,0,0,0,2,2,2,2,2,2,2,2,2,2,2,2
50084000,3.3091055e-08,-2.0256266e-08,1.4901161e-08,0.0,0.0,-5.9604645e-08,0,1,1,0,0,0,0,2,2,2,2,2,2,2,2,2,2,2,2
50284000,1.7462298e-08,8.8475645e-09,0.0,0.0,0.0,-5.9604645e-08,0,1,1,0,0,0,0,2,2,2,2,2,2,2,2,2,2,2,2
50484000,-5.7742e-08,2.0489097e-08,2.2351742e-08,0.0,0.0,-5.9604645e-08,0,1,1,0,0,0,0,2,2,2,2,2,2,2,2,2,2,2,2
50684000,-1.816079e-08,-1.3737008e-08,-1.9557774e-08,0.0,0.0,0.0,0,1,1,0,0,0,0,2,2,2,2,2,2,2,2,2,2,2,2
50884000,-4.5169145e-08,-2.8172508e-08,1.9557774e-08,0.0,0.0,-5.9604645e-08,0,1,1,0,0,0,0,2,2,2,2,2,2,2,2,2,2,2,2
51084000,3.306195e-08,-3.259629e-09,-1.8626451e-08,0.0,0.0,-5.9604645e-08,0,1,1,0,0,0,0,2,2,2,2,2,2,2,2,2,2,2,2
51284000,-9.150244e-08,-1.5832484e-08,-7.2759576e-10,0.0,0.0,0.0,0,1,1,0,0,0,0,2,2,2,2,2,2,2,2,2,2,2,2
51484000,-2.9336661e-08,2.7939677e-09,-2.863817e-08,0.0,0.0,0.0,0,1,1,0,0,0,0,2,2,2,2,2,2,2,2,2,2,2,2
51684000,-2.3748726e-08,-3.3527613e-08,9.080395e-09,0.0,0.0,0.0,0,1,1,0,0,0,0,2,2,2,2,2,2,2,2,2,2,2,2
51884000,-9.313226e-09,4.0978193e-08,5.401671e-08,0.0,0.0,0.0,0,1,1,0,0,0,0,2,2,2,2,2,2,2,2,2,2,2,2
52084000,1.4901161e-08,-1.3038516e-08,1.7229468e-08,0.0,0.0,-5.9604645e-08,0,1,1,0,0,0,0,2,2,2,2,2,2,2,2,2,2,2,2
52284000,-4.528556e-08,-5.5879354e-09,1.9092113e-08,0.0,0.0,0.0,0,1,1,0,0,0,0,2,2,2,2,2,2,2,2,2,2,2,2
52484000,1.3969839e-08,9.313226e-09,1.8626451e-09,0.0,0.0,0.0,0,1,1,0,0,0,0,2,2,2,2,2,2,2,2,2,2,2,2
52684000,-6.0535967e-09,7.450581e-09,-3.259629e-08,0.0,0.0,0.0,0,1,1,0,0,0,0,2,2,2,2,2,2,2,2,2,2,2,2
52884000,7.345807e-08,2.6077032e-08,-1.816079e-08,0.0,0.0,0.0,0,1,1,0,0,0,0,2,2,2,2,2,2,2,2,2,2,2,2
53084000,7.497147e-08,-8.381903e-09,-1.1175871e-08,0.0,0.0,-5.9604645e-08,0,1,1,0,0,0,0,2,2,2,2,2,2,2,2,2,2,2,2
53284000,-2.9802322e-08,8.381903e-09,-1.6298145e-08,0.0,0.0,-5.9604645e-08,0,1,1,0,0,0,0,2,2,2,2,2,2,2,2,2,2,2,2
53484000,-3.0559022e-08,-2.9802322e-08,2.910383e-08,0.0,0.0,-5.9604645e-08,0,1,1,0,0,0,0,2,2,2,2,2,2,2,2,2,2,2,2
53684000,2.3515895e-08,9.313226e-09,2.9685907e-09,0.0,0.0,0.0,0,1,1,0,0,0,0,2,2,2,2,2,2,2,2,2,2,2,2
53884000,-2.5465852e-08,2.6077032e-08,1.8626451e-09,0.0,0.0,-5.9604645e-08,0,1,1,0,0,0,0,2,2,2,2,2,2,2,2,2,2,2,2
54084000,3.2305252e-08,1.21071935e-08,1.2232704e-08,0.0,0.0,-5.9604645e-08,0,1,1,0,0,0,0,2,2,2,2,2,2,2,2,2,2,2,2
54284000,-6.798655e-08,1.8626451e-09,-7.887138e-09,0.0,0.0,-5.9604645e-08,0,1,1,0,0,0,0,2,2,2,2,2,2,2,2,2,2,2,2
54484000,3.8744474e-08,-4.377216e-08,-1.8626451e-09,0.0,0.0,-5.9604645e-08,0,1,1,0,0,0,0,2,2,2,2,2,2,2,2,2,2,2,2
54684000,9.5460564e-08,3.7252903e-09,6.9849193e-10,0.0,0.0,-5.9604645e-08,0,1,1,0,0,0,0,2,2,2,2,2,2,2,2,2,2,2,2
54884000,1.8626451e-09,-1.717126e-08,-2.8594513e-09,0.0,0.0,0.0,0,1,1,0,0,0,0,2,2,2,2,2,2,2,2,2,2,2,2
55084000,7.345807e-08,1.3154931e-08,8.4983185e-09,0.0,0.0,-5.9604645e-08,0,1,1,0,0,0,0,2,2,2,2,2,2,2,2,2,2,2,2
55284000,7.450581e-09,-3.7252903e-09,1.1816155e-08,0.0,0.0,-5.9604645e-08,0,1,1,0,0,0,0,2,2,2,2,2,2,2,2,2,2,2,2
55484000,3.9406586e-08,5.5879354e-09,-8.614734e-09,0.0,0.0,-5.9604645e-08,0,1,1,0,0,0,0,2,2,2,2,2,2,2,2,2,2,2,2
55684000,6.129267e-08,-1.7695129e-08,-2.9431249e-08,0.0,0.0,-1.1920929e-07,0,1,1,0,0,0,0,2,2,2,2,2,2,2,2,2,2,2,2
55884000,7.1013346e-09,-2.7939677e-09,1.8335413e-08,0.0,0.0,-5.9604645e-08,0,1,1,0,0,0,0,2,2,2,2,2,2,2,2,2,2,2,2
56084000,-3.5652192e-08,1.7695129e-08,-1.2485543e-08,0.0,0.0,0.0,0,1,1,0,0,0,0,2,2,2,2,2,2,2,2,2,2,2,2
56284000,1.3038516e-08,1.3038516e-08,-5.820766e-11,0.0,0.0,-5.9604645e-08,0,1,1,0,0,0,0,2,2,2,2,2,2,2,2,2,2,2,2
56484000,4.656613e-10,4.656613e-09,1.5250407e-08,0.0,0.0,-5.9604645e-08,0,1,1,0,0,0,0,2,2,2,2,2,2,2,2,2,2,2,2
56684000,-5.5180863e-08,3.585592e-08,-1.6530976e-08,0.0,0.0,-5.9604645e-08,0,1,1,0,0,0,0,2,2,2,2,2,2,2,2,2,2,2,2
56884000,-1.9208528e-08,-2.7474016e-08,2.9540388e-08,0.0,0.0,-5.9604645e-08,0,1,1,0,0,0,0,2,2,2,2,2,2,2,2,2,2,2,2
57084000,3.5506673e-08,1.6763806e-08,-4.3422915e-08,0.0,0.0,-5.9604645e-08,0,1,1,0,0,0,0,2,2,2,2,2,2,2,2,2,2,2,2
57284000,-5.7043508e-09,2.0954758e-08,2.8754584e-08,0.0,0.0,-5.9604645e-08,0,1,1,0,0,0,0,2,2,2,2,2,2,2,2,2,2,2,2
57484000,-4.991307e-08,-2.8521754e-09,-1.2223609e-08,0.0,0.0,-5.9604645e-08,0,1,1,0,0,0,0,2,2,2,2,2,2,2,2,2,2,2,2
57684000,3.5157427e-08,3.085006e-08,1.4202669e-08,0.0,0.0,-5.9604645e-08,0,1,1,0,0,0,0,2,2,2,2,2,2,2,2,2,2,2,2
57884000,5.7742e-08,-1.792796e-08,-2.0954758e-09,0.0,0.0,-5.9604645e-08,0,1,1,0,0,0,0,2,2,2,2,2,2,2,2,2,2,2,2
58084000,6.845221e-08,-3.1664968e-08,5.355105e-09,0.0,0.0,0.0,0,1,1,0,0,0,0,2,2,2,2,2,2,2,2,2,2,2,2
58284000,4.4237822e-08,-3.5739504e-08,2.0954758e-08,0.0,0.0,-5.9604645e-08,0,1,1,0,0,0,0,2,2,2,2,2,2,2,2,2,2,2,2
58484000,-6.519258e-09,-5.1015377e-08,1.2922101e-08,0.0,0.0,-5.9604645e-08,0,1,1,0,0,0,0,2,2,2,2,2,2,2,2,2,2,2,2
58684000,-1.9790605e-09,-8.6729415e-09,5.180482e-09,0.0,0.0,-5.9604645e-08,0,1,1,0,0,0,0,2,2,2,2,2,2,2,2,2,2,2,2
58884000,5.9022568e-08,1.9324943e-08,-1.4319085e-08,0.0,0.0,-5.9604645e-08,0,1,1,0,0,0,0,2,2,2,2,2,2,2,2,2,2,2,2
59084000,-7.264316e-08,-2.0023435e-08,-6.8102963e-09,0.0,0.0,0.0,0,1,1,0,0,0,0,2,2,2,2,2,2,2,2,2,2,2,2
59284000,-2.561137e-09,1.2485543e-08,-1.204171e-08,0.0,0.0,-5.9604645e-08,0,1,1,0,0,0,0,2,2,2,2,2,2,2,2,2,2,2,2
59484000,-7.590279e-08,-1.1175871e-08,7.450581e-09,0.0,0.0,-5.9604645e-08,0,1,1,0,0,0,0,2,2,2,2,2,2,2,2,2,2,2,2
59684000,2.4563633e-08,-7.450581e-09,-3.5681296e-08,0.0,0.0,-5.9604645e-08,0,1,1,0,0,0,0,2,2,2,2,2,2,2,2,2,2,2,2
59884000,4.8661605e-08,-1.1175871e-08,-3.213063e-08,0.0,0.0,-5.9604645e-08,0,1,1,0,0,0,0,2,2,2,2,2,2,2,2,2,2,2,2
60084000,-1.8626451e-08,1.9557774e-08,1.0695658e-08,0.0,0.0,0.0,0,1,1,0,0,0,0,2,2,2,2,2,2,2,2,2,2,2,2
60284000,5.820766e-09,6.2864274e-09,-7.494236e-09,0.0,0.0,0.0,0,1,1,0,0,0,0,2,2,2,2,2,2,2,2,2,2,2,2
60484000,-1.268927e-08,-5.5879354e-09,-6.9849193e-09,0.0,0.0,0.0,0,1,1,0,0,0,0,2,2,2,2,2,2,2,2,2,2,2,2
60684000,-4.010508e-08,6.722985e-09,-3.6488927e-09,0.0,0.0,-5.9604645e-08,0,1,1,0,0,0,0,2,2,2,2,2,2,2,2,2,2,2,2
60884000,-5.203765e-08,5.5879354e-09,2.9685907e-09,0.0,0.0,0.0,0,1,1,0,0,0,0,2,2,2,2,2,2,2,2,2,2,2,2
61084000,-1.839362e-08,2.0954758e-08,-7.392373e-09,0.0,0.0,5.9604645e-08,0,1,1,0,0,0,0,2,2,2,2,2,2,2,2,2,2,2,2
61284000,-1.6298145e-08,6.868504e-09,2.4610927e-08,0.0,0.0,0.0,0,1,1,0,0,0,0,2,2,2,2,2,2,2,2,2,2,2,2
61484000,2.0256266e-08,-1.8510036e-08,-6.9849193e-10,0.0,0.0,0.0,0,1,1,0,0,0,0,2,2,2,2,2,2,2,2,2,2,2,2
61684000,-3.7252903e-09,-3.1781383e-08,-1.3354111e-08,0.0,0.0,0.0,0,1,1,0,0,0,0,2,2,2,2,2,2,2,2,2,2,2,2
61884000,-6.565824e-08,3.1199306e-08,-6.868504e-09,0.0,0.0,-5.9604645e-08,0,1,1,0,0,0,0,2,2,2,2,2,2,2,2,2,2,2,2
62084000,4.0512532e-08,-2.9976945e-08,-2.3283064e-08,0.0,0.0,0.0,0,1,1,0,0,0,0,2,2,2,2,2,2,2,2,2,2,2,2
62284000,1.231092e-08,-2.2817403e-08,-1.0535587e-08,0.0,0.0,-5.9604645e-08,0,1,1,0,0,0,0,2,2,2,2,2,2,2,2,2,2,2,2
62484000,2.0721927e-08,-3.585592e-08,1.4959369e-08,0.0,0.0,-5.9604645e-08,0,1,1,0,0,0,0,2,2,2,2,2,2,2,2,2,2,2,2
62684000,1.3737008e-08,3.0733645e-08,-6.693881e-10,0.0,0.0,-5.9604645e-08,0,1,1,0,0,0,0,2,2,2,2,2,2,2,2,2,2,2,2
62884000,2.0954758e-08,1.7666025e-08,-1.0280928e-08,0.0,0.0,0.0,0,1,1,0,0,0,0,2,2,2,2,2,2,2,2,2,2,2,2
63084000,4.8894435e-08,1.7811544e-08,-1.1001248e-08,0.0,0.0,0.0,0,1,1,0,0,0,0,2,2,2,2,2,2,2,2,2,2,2,2
63284000,3.9115548e-08,1.1175871e-08,-2.8958311e-08,0.0,0.0,-5.9604645e-08,0,1,1,0,0,0,0,2,2,2,2,2,2,2,2,2,2,2,2
63484000,-3.0267984e-08,-1.4901161e-08,-1.7389539e-09,0.0,0.0,0.0,0,1,1,0,0,0,0,2,2,2,2,2,2,2,2,2,2,2,2
63684000,-2.3283064e-08,-9.313226e-10,-4.7148205e-09,0.0,0.0,0.0,0,1,1,0,0,0,0,2,2,2,2,2,2,2,2,2,2,2,2
63884000,-8.381903e-09,-1.8626451e-09,8.8766683e-10,0.0,0.0,0.0,0,1,1,0,0,0,0,2,2,2,2,2,2,2,2,2,2,2,2
64084000,9.313226e-10,-4.656613e-10,-3.3178367e-09,0.0,0.0,0.0,0,1,1,0,0,0,0,2,2,2,2,2,2,2,2,2,2,2,2
64284000,-4.656613e-10,5.5879354e-09,-7.0795068e-09,0.0,0.0,0.0,0,1,1,0,0,0,0,2,2,2,2,2,2,2,2,2,2,2,2
64484000,0.0056902627,-0.004681254,-0.00065210805,0.0,0.0,1.1641532e-10,0,0,1,-2,0,-2,0,2,2,2,2,2,2,2,2,2,2,2,2
64684000,0.006290536,-0.010208744,-0.00027038477,0.0,0.0,3.4924597e-10,0,0,1,-2,0,-2,0,2,2,2,2,2,2,2,2,2,2,2,2
64884000,0.0051102317,-0.0040568565,-0.0007225153,0.0,0.0,1.1641532e-10,0,0,1,-2,0,-2,0,2,2,2,2,2,2,2,2,2,2,2,2
65084000,0.005576583,-0.0100413505,-0.0003651218,0.0,0.0,0.0,0,0,1,-2,0,-2,0,2,2,2,2,2,2,2,2,2,2,2,2
65284000,0.007731939,-0.0057370584,-8.431213e-05,0.0,0.0,-1.1641532e-10,0,0,1,-2,0,-2,0,2,2,2,2,2,2,2,2,2,2,2,2
65484000,0.0076398277,-0.005648746,0.0001234678,0.0,0.0,1.1641532e-10,0,0,1,-2,0,-2,0,2,2,2,2,2,2,2,2,2,2,2,2
65684000,0.005221404,-0.00949806,-0.00031670948,0.0,0.0,1.1641532e-10,0,0,1,-2,0,-2,0,2,2,2,2,2,2,2,2,2,2,2,2
65884000,0.0064630774,-0.005867129,-0.00042383984,0.0,0.0,1.1641532e-10,0,0,1,-2,0,-2,0,2,2,2,2,2,2,2,2,2,2,2,2
66084000,0.005232563,-0.0029104338,-0.00049702224,0.0,0.0,1.1641532e-10,0,0,1,-2,0,-2,0,2,2,2,2,2,2,2,2,2,2,2,2
66284000,0.0059242425,-0.0042051463,-0.00011048804,0.0,0.0,3.4924597e-10,0,0,1,-2,0,-2,0,2,2,2,2,2,2,2,2,2,2,2,2
66484000,0.0019751305,-0.0023152302,-0.0011969364,0.0,0.0,0.0,0,0,1,-2,0,-2,0,2,2,2,2,2,2,2,2,2,2,2,2
66684000,-0.0015789984,1.1641532e-10,-2.910383e-11,0.0,0.0,-1.1641532e-10,0,0,1,0,0,0,0,2,2,2,2,2,2,2,2,2,2,2,2
66884000,-0.0034207827,-0.00074173673,-8.925179e-05,0.0,0.0,-1.1641532e-10,0,0,1,-2,0,-2,0,2,2,2,2,2,2,2,2,2,2,2,2
67084000,1.1641532e-10,5.820766e-11,-0.00035419158,0.0,0.0,-1.1641532e-10,0,1,1,0,-2,0,0,2,2,2,2,2,2,2,2,2,2,2,2
67284000,-0.0019785452,0.004241789,0.00020024339,0.0,0.0,1.1641532e-10,0,0,1,0,-2,0,-2,2,2,2,2,2,2,2,2,2,2,2,2
