timestamp,timestamp_sample,control_mode_flags,output_tracking_error[0],output_tracking_error[1],output_tracking_error[2],filter_fault_flags,pos_horiz_accuracy,pos_vert_accuracy,hdg_test_ratio,vel_test_ratio,pos_test_ratio,hgt_test_ratio,tas_test_ratio,hagl_test_ratio,beta_test_ratio,time_slip,accel_device_id,gyro_device_id,baro_device_id,mag_device_id,mag_inclination_deg,mag_inclination_ref_deg,mag_strength_gs,mag_strength_ref_gs,gps_check_fail_flags,solution_status_flags,reset_count_vel_ne,reset_count_vel_d,reset_count_pos_ne,reset_count_pod_d,reset_count_quat,pre_flt_fail_innov_heading,pre_flt_fail_innov_height,pre_flt_fail_innov_pos_horiz,pre_flt_fail_innov_vel_horiz,pre_flt_fail_innov_vel_vert,pre_flt_fail_mag_field_disturbed,health_flags,timeout_flags
3884000,3732000,13421772800,0.0017858383,0.0027243425,0.00019476718,0,14.182927,10.011546,nan,nan,nan,nan,nan,nan,nan,0.0,1310988,1310988,6620172,197388,nan,nan,nan,nan,0,128,1,1,1,1,0,0,0,0,0,0,0,0,0
3892000,3740000,13421772800,0.0016965456,0.002766906,0.00021732585,0,14.187328,10.012793,nan,nan,nan,nan,nan,nan,nan,0.0,1310988,1310988,6620172,197388,nan,nan,nan,nan,0,128,1,1,1,1,0,0,0,0,0,0,0,0,0
3900000,3748000,13421772800,0.0015958246,0.0027920932,0.00023901433,0,14.191953,10.014103,nan,nan,nan,nan,nan,nan,nan,0.0,1310988,1310988,6620172,197388,nan,nan,nan,nan,0,128,1,1,1,1,0,0,0,0,0,0,0,0,0
3908000,3756000,13421772800,0.0015233697,0.0028022528,0.0002591316,0,14.196802,10.015477,nan,nan,nan,nan,nan,nan,nan,0.0,1310988,1310988,6620172,197388,nan,nan,nan,nan,0,128,1,1,1,1,0,0,0,0,0,0,0,0,0
3916000,3764000,13421772800,0.0014607206,0.0028023398,0.00027885495,0,14.201876,10.016915,nan,nan,nan,nan,nan,nan,nan,0.0,1310988,1310988,6620172,197388,nan,nan,nan,nan,0,128,1,1,1,1,0,0,0,0,0,0,0,0,0
3924000,3772000,13421772800,0.0014030406,0.0027923568,0.00029698832,0,14.207173,10.018416,nan,nan,nan,nan,nan,nan,nan,0.0,1310988,1310988,6620172,197388,nan,nan,nan,nan,0,128,1,1,1,1,0,0,0,0,0,0,0,0,0
3940000,3788000,13421772800,0.0012955128,0.0027513874,0.00033072557,0,14.21844,10.02161,nan,nan,nan,nan,nan,nan,nan,0.0,1310988,1310988,6620172,197388,nan,nan,nan,nan,0,128,1,1,1,1,0,0,0,0,0,0,0,0,0
3948000,3796000,13421772800,0.001244039,0.002723225,0.00034635435,0,14.224407,10.023302,nan,nan,nan,nan,nan,nan,nan,0.0,1310988,1310988,6620172,197388,nan,nan,nan,nan,0,128,1,1,1,1,0,0,0,0,0,0,0,0,0
3956000,3804000,13421772800,0.0011935284,0.0026922869,0.0003617023,0,14.230598,10.025058,nan,nan,nan,nan,nan,nan,nan,0.0,1310988,1310988,6620172,197388,nan,nan,nan,nan,0,128,1,1,1,1,0,0,0,0,0,0,0,0,0
3964000,3812000,13421772800,0.0011437432,0.0026591322,0.000376549,0,14.237012,10.026877,nan,nan,nan,nan,nan,nan,nan,0.0,1310988,1310988,6620172,197388,nan,nan,nan,nan,0,128,1,1,1,1,0,0,0,0,0,0,0,0,0
3980000,3828000,13421772800,0.0010457435,0.0025850777,0.00040390596,0,14.250507,10.030707,nan,nan,nan,nan,nan,nan,nan,0.0,1310988,1310988,6620172,197388,nan,nan,nan,nan,0,128,1,1,1,1,0,0,0,0,0,0,0,0,0
3988000,3836000,13421772800,0.0009973316,0.002544622,0.00041749617,0,14.257587,10.032718,nan,nan,nan,nan,nan,nan,nan,0.0,1310988,1310988,6620172,197388,nan,nan,nan,nan,0,128,1,1,1,1,0,0,0,0,0,0,0,0,0
3996000,3844000,13421772800,0.00094922126,0.0025018652,0.0004303201,0,14.26489,10.034791,nan,nan,nan,nan,nan,nan,nan,0.0,1310988,1310988,6620172,197388,nan,nan,nan,nan,0,128,1,1,1,1,0,0,0,0,0,0,0,0,0
4004000,3852000,13421772800,0.0009013683,0.0024597142,0.00044249903,0,14.272413,10.036928,nan,nan,nan,nan,nan,nan,nan,0.0,1310988,1310988,6620172,197388,nan,nan,nan,nan,0,128,1,1,1,1,0,0,0,0,0,0,0,0,0
4020000,3868000,13421772800,0.00080628984,0.0023683505,0.00046746022,0,14.288123,10.04139,nan,nan,nan,nan,nan,nan,nan,0.0,1310988,1310988,6620172,197388,nan,nan,nan,nan,0,128,1,1,1,1,0,0,0,0,0,0,0,0,0
4028000,3876000,13421772800,0.00075901346,0.0023218724,0.00047951489,0,14.2963085,10.043717,nan,nan,nan,nan,nan,nan,nan,0.0,1310988,1310988,6620172,197388,nan,nan,nan,nan,0,128,1,1,1,1,0,0,0,0,0,0,0,0,0
4036000,3884000,13421772800,0.0007118835,0.0022727703,0.0004906411,0,14.304715,10.046106,nan,nan,nan,nan,nan,nan,nan,0.0,1310988,1310988,6620172,197388,nan,nan,nan,nan,0,128,1,1,1,1,0,0,0,0,0,0,0,0,0
4044000,3892000,13421772800,0.00066488545,0.0022252693,0.00050219306,0,14.31334,10.048559,nan,nan,nan,nan,nan,nan,nan,0.0,1310988,1310988,6620172,197388,nan,nan,nan,nan,0,128,1,1,1,1,0,0,0,0,0,0,0,0,0
4060000,3908000,13421772800,0.0005782426,0.0021283142,0.00052381767,0,14.331251,10.053654,nan,nan,nan,nan,nan,nan,nan,0.0,1310988,1310988,6620172,197388,nan,nan,nan,nan,0,1152,1,1,1,1,0,0,0,0,0,0,0,0,0
4068000,3916000,13421772800,0.00053815404,0.0020779853,0.000533364,0,14.340534,10.056296,nan,nan,nan,nan,nan,nan,nan,0.0,1310988,1310988,6620172,197388,nan,nan,nan,nan,0,1152,1,1,1,1,0,0,0,0,0,0,0,0,0
4076000,3924000,13421772800,0.0004997139,0.0020294322,0.0005429572,0,14.350037,10.059001,nan,nan,nan,nan,nan,nan,nan,0.0,1310988,1310988,6620172,197388,nan,nan,nan,nan,0,1152,1,1,1,1,0,0,0,0,0,0,0,0,0
4084000,3932000,13421772800,0.00046279174,0.0019783294,0.0005510451,0,14.359757,10.0617695,nan,nan,nan,nan,nan,nan,nan,0.0,1310988,1310988,6620172,197388,nan,nan,nan,nan,0,1152,1,1,1,1,0,0,0,0,0,0,0,0,0
4100000,3948000,13421772800,0.00039315852,0.0017942113,0.0014816126,0,0.70894724,7.095859,nan,nan,nan,nan,nan,nan,nan,0.0,1310988,1310988,6620172,197388,nan,nan,nan,nan,0,1152,1,1,1,1,0,0,0,0,0,0,0,0,0
4108000,3956000,13421772800,0.0003604221,0.0017444079,0.0014254369,0,0.715999,7.09801,nan,nan,nan,nan,nan,nan,nan,0.0,1310988,1310988,6620172,197388,nan,nan,nan,nan,0,1152,1,1,1,1,0,0,0,0,0,0,0,0,0
4116000,3964000,13421772800,0.00032901394,0.001694767,0.0013711619,0,0.7272825,7.10025,nan,nan,nan,nan,nan,nan,nan,0.0,1310988,1310988,6620172,197388,nan,nan,nan,nan,0,1152,1,1,1,1,0,0,0,0,0,0,0,0,0
4124000,3972000,13421772800,0.0002989142,0.0016457301,0.0013186169,0,0.7426066,7.1025786,nan,nan,nan,nan,nan,nan,nan,0.0,1310988,1310988,6620172,197388,nan,nan,nan,nan,0,1152,1,1,1,1,0,0,0,0,0,0,0,0,0
4140000,3988000,13421772800,0.00024259041,0.0015511945,0.0012209177,0,0.78437346,7.107503,nan,nan,nan,nan,nan,nan,nan,0.0,1310988,1310988,6620172,197388,nan,nan,nan,nan,0,1152,1,1,1,1,0,0,0,0,0,0,0,0,0
4148000,3996000,13421772800,0.00021634604,0.0015037125,0.0011744071,0,0.81024665,7.110098,nan,nan,nan,nan,nan,nan,nan,0.0,1310988,1310988,6620172,197388,nan,nan,nan,nan,0,1152,1,1,1,1,0,0,0,0,0,0,0,0,0
4156000,4004000,13421772800,0.00019136789,0.0014563908,0.0011301405,0,0.83905137,7.1127815,nan,nan,nan,nan,nan,nan,nan,0.0,1310988,1310988,6620172,197388,nan,nan,nan,nan,0,1152,1,1,1,1,0,0,0,0,0,0,0,0,0
4164000,4012000,13421772800,0.00016764669,0.0014087488,0.0010874448,0,0.8704982,7.1155534,nan,nan,nan,nan,nan,nan,nan,0.0,1310988,1310988,6620172,197388,nan,nan,nan,nan,0,1152,1,1,1,1,0,0,0,0,0,0,0,0,0
4180000,4028000,13421772800,0.00012396151,0.0013131916,0.0010076426,0,0.94024247,7.121362,nan,nan,nan,nan,nan,nan,nan,0.0,1310988,1310988,6620172,197388,nan,nan,nan,nan,0,1152,1,1,1,1,0,0,0,0,0,0,0,0,0
4188000,4036000,13421772800,0.000103988314,0.0012666385,0.00096953334,0,0.97805446,7.124399,nan,nan,nan,nan,nan,nan,nan,0.0,1310988,1310988,6620172,197388,nan,nan,nan,nan,0,1152,1,1,1,1,0,0,0,0,0,0,0,0,0
4196000,4044000,13421772800,8.5254316e-05,0.0012206216,0.00093400077,0,1.0175408,7.1275244,nan,nan,nan,nan,nan,nan,nan,0.0,1310988,1310988,6620172,197388,nan,nan,nan,nan,0,1152,1,1,1,1,0,0,0,0,0,0,0,0,0
4204000,4052000,13421772800,6.775685e-05,0.0011740453,0.00089898484,0,1.0585157,7.130737,nan,nan,nan,nan,nan,nan,nan,0.0,1310988,1310988,6620172,197388,nan,nan,nan,nan,0,1152,1,1,1,1,0,0,0,0,0,0,0,0,0
4220000,4068000,13421772800,3.6217854e-05,0.0010828628,0.0008342334,0,1.144291,7.137425,nan,nan,nan,nan,nan,nan,nan,0.0,1310988,1310988,6620172,197388,nan,nan,nan,nan,0,1152,1,1,1,1,0,0,0,0,0,0,0,0,0
4228000,4076000,13421772800,2.205728e-05,0.0010374279,0.0008040143,0,1.1888183,7.1409006,nan,nan,nan,nan,nan,nan,nan,0.0,1310988,1310988,6620172,197388,nan,nan,nan,nan,0,1152,1,1,1,1,0,0,0,0,0,0,0,0,0
4236000,4084000,13421772800,8.909269e-06,0.0009941886,0.00077489746,0,1.2342837,7.1444635,nan,nan,nan,nan,nan,nan,nan,0.0,1310988,1310988,6620172,197388,nan,nan,nan,nan,0,1152,1,1,1,1,0,0,0,0,0,0,0,0,0
4244000,4092000,13421772800,3.2819519e-06,0.0009507772,0.00074655004,0,1.2805885,7.148114,nan,nan,nan,nan,nan,nan,nan,0.0,1310988,1310988,6620172,197388,nan,nan,nan,nan,0,1152,1,1,1,1,0,0,0,0,0,0,0,0,0
4260000,4108000,13421772800,2.486145e-05,0.00087150285,0.00069365744,0,1.3753811,7.1556764,nan,nan,nan,nan,nan,nan,nan,0.0,1310988,1310988,6620172,197388,nan,nan,nan,nan,0,1152,1,1,1,1,0,0,0,0,0,0,0,0,0
4268000,4116000,13421772800,3.434581e-05,0.0008314518,0.0006692571,0,1.4237261,7.159588,nan,nan,nan,nan,nan,nan,nan,0.0,1310988,1310988,6620172,197388,nan,nan,nan,nan,0,1152,1,1,1,1,0,0,0,0,0,0,0,0,0
4276000,4124000,13421772800,4.3004115e-05,0.0007908485,0.00064580876,0,1.4726223,7.1635866,nan,nan,nan,nan,nan,nan,nan,0.0,1310988,1310988,6620172,197388,nan,nan,nan,nan,0,1152,1,1,1,1,0,0,0,0,0,0,0,0,0
4284000,4132000,13421772800,5.0869683e-05,0.00075123133,0.0006226237,0,1.522018,7.1676717,nan,nan,nan,nan,nan,nan,nan,0.0,1310988,1310988,6620172,197388,nan,nan,nan,nan,0,1152,1,1,1,1,0,0,0,0,0,0,0,0,0
4300000,4148000,13421772800,9.082136e-05,0.01840418,0.005305677,0,0.6481983,5.830252,nan,nan,nan,nan,nan,nan,nan,0.0,1310988,1310988,6620172,197388,nan,nan,nan,nan,0,1152,1,1,1,1,0,0,0,0,0,0,0,0,0
4308000,4156000,13421772800,9.620326e-05,0.017823718,0.0052771512,0,0.66880894,5.8338,nan,nan,nan,nan,nan,nan,nan,0.0,1310988,1310988,6620172,197388,nan,nan,nan,nan,0,1152,1,1,1,1,0,0,0,0,0,0,0,0,0
4316000,4164000,13421772800,0.00010099873,0.01725774,0.0052492144,0,0.6902632,5.837453,nan,nan,nan,nan,nan,nan,nan,0.0,1310988,1310988,6620172,197388,nan,nan,nan,nan,0,1152,1,1,1,1,0,0,0,0,0,0,0,0,0
4324000,4172000,13421772800,0.00010523021,0.01671003,0.0052212924,0,0.71248627,5.841212,nan,nan,nan,nan,nan,nan,nan,0.0,1310988,1310988,6620172,197388,nan,nan,nan,nan,0,1152,1,1,1,1,0,0,0,0,0,0,0,0,0
4340000,4188000,13488881664,0.00011207725,0.015663564,0.005168246,0,0.7589717,5.8490458,nan,nan,nan,nan,nan,nan,nan,0.0,1310988,1310988,6620172,197388,nan,nan,nan,nan,0,1152,1,1,1,1,0,0,0,0,0,0,0,0,0
4348000,4196000,13488881664,0.00021038635,0.038564555,0.00883137,0,0.5004822,5.773524,nan,nan,nan,nan,nan,nan,nan,0.0,1310988,1310988,6620172,197388,nan,nan,nan,nan,0,1152,1,1,1,1,0,0,0,0,0,0,0,0,0
4356000,4204000,13488881664,0.0002125416,0.0373384,0.008873262,0,0.5004822,5.773524,nan,nan,nan,nan,nan,nan,nan,0.0,1310988,1310988,6620172,197388,nan,nan,nan,nan,0,1152,1,1,1,1,0,0,0,0,0,0,0,0,0
4364000,4212000,13488881664,0.0002143235,0.036147587,0.008913378,0,0.50047636,5.773524,nan,nan,nan,nan,nan,nan,nan,0.0,1310988,1310988,6620172,197388,nan,nan,nan,nan,0,1152,1,1,1,1,0,0,0,0,0,0,0,0,0
4380000,4228000,13488881664,0.00021685635,0.033866595,0.008988221,0,0.5004473,5.773524,nan,nan,nan,nan,nan,nan,nan,0.0,1310988,1310988,6620172,197388,nan,nan,nan,nan,0,1152,1,1,1,1,0,0,0,0,0,0,0,0,0
4388000,4236000,13488881664,0.00021765006,0.032775156,0.009023147,0,0.50042427,5.773524,nan,nan,nan,nan,nan,nan,nan,0.0,1310988,1310988,6620172,197388,nan,nan,nan,nan,0,1152,1,1,1,1,0,0,0,0,0,0,0,0,0
4396000,4244000,13488881664,0.00021815761,0.03171593,0.009056021,0,0.5003961,5.773524,nan,nan,nan,nan,nan,nan,nan,0.0,1310988,1310988,6620172,197388,nan,nan,nan,nan,0,1152,1,1,1,1,0,0,0,0,0,0,0,0,0
4404000,4252000,13488881664,0.00021840168,0.030689523,0.0090889055,0,0.50036293,5.773524,nan,nan,nan,nan,nan,nan,nan,0.0,1310988,1310988,6620172,197388,nan,nan,nan,nan,0,1152,1,1,1,1,0,0,0,0,0,0,0,0,0
4420000,4268000,13488881664,0.00021817499,0.028722854,0.0091471905,0,0.50028354,5.773524,nan,nan,nan,nan,nan,nan,nan,0.0,1310988,1310988,6620172,197388,nan,nan,nan,nan,0,1152,1,1,1,1,0,0,0,0,0,0,0,0,0
4428000,4276000,13488881664,0.00021774684,0.027781276,0.009174019,0,0.50023824,5.773524,nan,nan,nan,nan,nan,nan,nan,0.0,1310988,1310988,6620172,197388,nan,nan,nan,nan,0,1152,1,1,1,1,0,0,0,0,0,0,0,0,0
4436000,4284000,13488881664,0.00021713266,0.026867522,0.009200498,0,0.50018996,5.773524,nan,nan,nan,nan,nan,nan,nan,0.0,1310988,1310988,6620172,197388,nan,nan,nan,nan,0,1152,1,1,1,1,0,0,0,0,0,0,0,0,0
4444000,4292000,13488881664,0.00021635185,0.025981225,0.009224479,0,0.50013936,5.773523,nan,nan,nan,nan,nan,nan,nan,0.0,1310988,1310988,6620172,197388,nan,nan,nan,nan,0,1152,1,1,1,1,0,0,0,0,0,0,0,0,0
4460000,4308000,13488881664,0.0002133616,0.024280798,0.009264161,0,0.50003445,5.773522,nan,nan,nan,nan,nan,nan,nan,0.0,1310988,1310988,6620172,197388,nan,nan,nan,nan,0,1152,1,1,1,1,0,0,0,0,0,0,0,0,0
4468000,4316000,13488881664,0.0002111804,0.023465825,0.009275429,0,0.4999819,5.773521,nan,nan,nan,nan,nan,nan,nan,0.0,1310988,1310988,6620172,197388,nan,nan,nan,nan,0,1152,1,1,1,1,0,0,0,0,0,0,0,0,0
4476000,4324000,13488881664,0.00020889343,0.022677002,0.00928087,0,0.49993062,5.7735205,nan,nan,nan,nan,nan,nan,nan,0.0,1310988,1310988,6620172,197388,nan,nan,nan,nan,0,1152,1,1,1,1,0,0,0,0,0,0,0,0,0
4484000,4332000,13488881664,0.00020651406,0.021909285,0.009281506,0,0.49988157,5.77352,nan,nan,nan,nan,nan,nan,nan,0.0,1310988,1310988,6620172,197388,nan,nan,nan,nan,0,1152,1,1,1,1,0,0,0,0,0,0,0,0,0
4500000,4348000,13488881664,0.00020153452,0.020444088,0.009268081,0,0.49979493,5.7735186,nan,nan,nan,nan,nan,nan,nan,0.0,1310988,1310988,6620172,197388,nan,nan,nan,nan,0,1152,1,1,1,1,0,0,0,0,0,0,0,0,0
4508000,4356000,2208217169920,0.00019600113,0.0197403,0.009351526,0,14.142136,5.00001,nan,nan,nan,nan,nan,nan,nan,0.0,1310988,1310988,6620172,197388,nan,nan,nan,nan,0,1152,2,1,2,1,0,0,0,0,0,0,0,0,0
4516000,4364000,2208217169920,0.00019041217,0.019057723,0.009428593,0,14.142249,5.0000095,nan,nan,nan,nan,nan,nan,nan,0.0,1310988,1310988,6620172,197388,nan,nan,nan,nan,0,1152,2,1,2,1,0,0,0,0,0,0,0,0,0
4524000,4372000,2208217169920,0.00018477582,0.018394962,0.009492228,0,14.142589,5.000009,nan,nan,nan,nan,nan,nan,nan,0.0,1310988,1310988,6620172,197388,nan,nan,nan,nan,0,1152,2,1,2,1,0,0,0,0,0,0,0,0,0
4540000,4388000,2208217169920,0.0024769271,0.016405739,0.009576936,0,14.143946,5.0000086,nan,nan,nan,nan,nan,nan,nan,0.0,1310988,1310988,6620172,197388,nan,nan,nan,nan,0,1152,2,1,2,1,0,0,0,0,0,0,0,0,0
4548000,4396000,2208217169920,0.0025066466,0.015630016,0.009601979,0,14.144964,5.000008,nan,nan,nan,nan,nan,nan,nan,0.0,1310988,1310988,6620172,197388,nan,nan,nan,nan,0,1152,2,1,2,1,0,0,0,0,0,0,0,0,0
4556000,4404000,2208217169920,0.0022134073,0.01986319,0.00972567,0,14.142136,5.000003,nan,nan,nan,nan,nan,nan,nan,0.0,1310988,1310988,6620172,197388,nan,nan,nan,nan,0,1152,2,1,2,1,0,0,0,0,0,0,0,0,0
4564000,4412000,2208217169920,0.0022426364,0.019054756,0.009760339,0,14.142136,5.000003,nan,nan,nan,nan,nan,nan,nan,0.0,1310988,1310988,6620172,197388,nan,nan,nan,nan,0,1152,2,1,2,1,0,0,0,0,0,0,0,0,0
4580000,4428000,2208217169920,0.0023011845,0.017511927,0.009796786,0,14.142136,5.000003,nan,nan,nan,nan,nan,nan,nan,0.0,1310988,1310988,6620172,197388,nan,nan,nan,nan,0,1152,2,1,2,1,0,0,0,0,0,0,0,0,0
4588000,4436000,2208217169920,0.002330499,0.01677498,0.00979969,0,14.142136,5.000003,nan,nan,nan,nan,nan,nan,nan,0.0,1310988,1310988,6620172,197388,nan,nan,nan,nan,0,1152,2,1,2,1,0,0,0,0,0,0,0,0,0
4596000,4444000,2208217169920,0.002359841,0.016058734,0.00979374,0,14.142136,5.000003,nan,nan,nan,nan,nan,nan,nan,0.0,1310988,1310988,6620172,197388,nan,nan,nan,nan,0,1152,2,1,2,1,0,0,0,0,0,0,0,0,0
4604000,4452000,2208217169920,0.0023892052,0.015365395,0.009779418,0,14.142136,5.000003,nan,nan,nan,nan,nan,nan,nan,0.0,1310988,1310988,6620172,197388,nan,nan,nan,nan,0,1152,2,1,2,1,0,0,0,0,0,0,0,0,0
4620000,4468000,2208217169920,0.0024479749,0.014049879,0.009724428,0,14.142136,5.000003,nan,nan,nan,nan,nan,nan,nan,0.0,1310988,1310988,6620172,197388,nan,nan,nan,nan,0,1152,2,1,2,1,0,0,0,0,0,0,0,0,0
4628000,4476000,2208217169920,0.0024773504,0.01342044,0.009685646,0,14.142136,5.000003,nan,nan,nan,nan,nan,nan,nan,0.0,1310988,1310988,6620172,197388,nan,nan,nan,nan,0,1152,2,1,2,1,0,0,0,0,0,0,0,0,0
4636000,4484000,2208217169920,0.0025067176,0.012813447,0.009640051,0,14.142136,5.000003,nan,nan,nan,nan,nan,nan,nan,0.0,1310988,1310988,6620172,197388,nan,nan,nan,nan,0,1152,2,1,2,1,0,0,0,0,0,0,0,0,0
4644000,4492000,2208217169920,0.002536074,0.012225793,0.009587495,0,14.142136,5.000003,nan,nan,nan,nan,nan,nan,nan,0.0,1310988,1310988,6620172,197388,nan,nan,nan,nan,0,1152,2,1,2,1,0,0,0,0,0,0,0,0,0
4660000,4508000,2208217169920,0.002594751,0.011113695,0.009463825,0,14.142136,5.000003,nan,nan,nan,nan,nan,nan,nan,0.0,1310988,1310988,6620172,197388,nan,nan,nan,nan,0,1152,2,1,2,1,0,0,0,0,0,0,0,0,0
4668000,4516000,2208217169920,0.002623995,0.010586598,0.009282852,0,14.142136,5.000003,nan,nan,nan,nan,nan,nan,nan,0.0,1310988,1310988,6620172,197388,nan,nan,nan,nan,0,1152,2,1,2,1,0,0,0,0,0,0,0,0,0
4676000,4524000,2208217169920,0.0026531531,0.010079669,0.00909937,0,14.142137,5.000003,nan,nan,nan,nan,nan,nan,nan,0.0,1310988,1310988,6620172,197388,nan,nan,nan,nan,0,1152,2,1,2,1,0,0,0,0,0,0,0,0,0
4684000,4532000,2208217169920,0.0026822214,0.00959724,0.008915623,0,14.142138,5.000003,nan,nan,nan,nan,nan,nan,nan,0.0,1310988,1310988,6620172,197388,nan,nan,nan,nan,0,1152,2,1,2,1,0,0,0,0,0,0,0,0,0
4700000,4548000,2208217169920,0.002552622,0.008705668,0.008544245,0,14.14214,5.000003,nan,nan,nan,nan,nan,nan,nan,0.0,1310988,1310988,6620172,197388,nan,nan,nan,nan,0,1152,2,1,2,1,0,0,0,0,0,0,0,0,0
4708000,4556000,2208217169920,0.0024866592,0.008297273,0.008357616,0,14.142141,5.000003,nan,nan,nan,nan,nan,nan,nan,0.0,1310988,1310988,6620172,197388,nan,nan,nan,nan,0,1152,2,1,2,1,0,0,0,0,0,0,0,0,0
4716000,4564000,2208217169920,0.0024284455,0.007819796,0.0097185075,0,0.014142129,4.472138,nan,nan,nan,nan,nan,nan,nan,0.0,1310988,1310988,6620172,197388,nan,nan,nan,nan,0,1152,2,1,2,1,0,0,0,0,0,0,0,0,0
4724000,4572000,2208217169920,0.0023694716,0.007362984,0.009479187,0,0.014258417,4.472138,nan,nan,nan,nan,nan,nan,nan,0.0,1310988,1310988,6620172,197388,nan,nan,nan,nan,0,1152,2,1,2,1,0,0,0,0,0,0,0,0,0
4740000,4588000,2208217169920,0.00159594,0.0074997316,0.009025088,0,0.015247803,4.472138,nan,nan,nan,nan,nan,nan,nan,0.0,1310988,1310988,6620172,197388,nan,nan,nan,nan,0,1152,2,1,2,1,0,0,0,0,0,0,0,0,0
4748000,4596000,2208217169920,0.0015606262,0.00711302,0.008795842,0,0.016141396,4.472138,nan,nan,nan,nan,nan,nan,nan,0.0,1310988,1310988,6620172,197388,nan,nan,nan,nan,0,1152,2,1,2,1,0,0,0,0,0,0,0,0,0
4756000,4604000,2208217169920,0.0015273368,0.0067449016,0.00856819,0,0.017292665,4.472138,nan,nan,nan,nan,nan,nan,nan,0.0,1310988,1310988,6620172,197388,nan,nan,nan,nan,0,1152,2,1,2,1,0,0,0,0,0,0,0,0,0
4764000,4612000,2208217169920,0.01160503,0.031877022,0.009450078,0,0.01414489,4.472138,nan,nan,nan,nan,nan,nan,nan,0.0,1310988,1310988,6620172,197388,nan,nan,nan,nan,0,1152,2,1,2,1,0,0,0,0,0,0,0,0,0
4780000,4628000,2225397039105,0.011720392,0.031543553,0.0093617,0,0.014145041,4.472138,nan,nan,nan,nan,nan,nan,nan,0.0,1310988,1310988,6620172,197388,nan,nan,nan,nan,0,1153,2,1,2,1,0,0,0,0,0,0,0,0,0
4788000,4636000,2225397039105,0.0117825335,0.031391367,0.009323809,0,0.014145265,4.472138,nan,nan,nan,nan,nan,nan,nan,0.0,1310988,1310988,6620172,197388,63.271965,nan,0.48102656,nan,0,1153,2,1,2,1,0,0,0,0,0,0,0,0,0
4796000,4644000,2225397039105,0.0118443025,0.03124209,0.009289704,0,0.014145708,4.472138,nan,nan,nan,nan,nan,nan,nan,0.0,1310988,1310988,6620172,197388,63.271965,nan,0.48102656,nan,0,1153,2,1,2,1,0,0,0,0,0,0,0,0,0
4804000,4652000,2225397039105,0.011909192,0.031096693,0.009259974,0,0.014146464,4.472138,nan,nan,nan,nan,nan,nan,nan,0.0,1310988,1310988,6620172,197388,63.271965,nan,0.48102656,nan,0,1153,2,1,2,1,0,0,0,0,0,0,0,0,0
4820000,4668000,2225397039105,0.012032974,0.030815514,0.009213071,0,0.014149352,4.472138,nan,nan,nan,nan,nan,nan,nan,0.0,1310988,1310988,6620172,197388,63.271965,nan,0.48102656,nan,0,1153,2,1,2,1,0,0,0,0,0,0,0,0,0
4828000,4676000,2225397039105,0.012095856,0.030686162,0.009195574,0,0.014151723,4.472138,nan,nan,nan,nan,nan,nan,nan,0.0,1310988,1310988,6620172,197388,63.271965,nan,0.48102656,nan,0,1153,2,1,2,1,0,0,0,0,0,0,0,0,0
4836000,4684000,2225397039105,0.012166752,0.030574726,0.009182418,0,0.014154884,4.472138,nan,nan,nan,nan,nan,nan,nan,0.0,1310988,1310988,6620172,197388,63.271965,nan,0.48102656,nan,0,1153,2,1,2,1,0,0,0,0,0,0,0,0,0
4844000,4692000,2225397039105,0.0122366315,0.03045524,0.009174452,0,0.014158979,4.472138,nan,nan,nan,nan,nan,nan,nan,0.0,1310988,1310988,6620172,197388,63.271965,nan,0.48102656,nan,0,1153,2,1,2,1,0,0,0,0,0,0,0,0,0
4860000,4708000,2216807106561,0.012368753,0.030242827,0.009169068,0,2.0,1.0,nan,nan,nan,1.1754944e-38,nan,nan,nan,0.0,1310988,1310988,6620172,197388,62.082893,nan,0.4721367,nan,0,165,2,1,3,3,0,0,0,0,0,0,0,0,0
4868000,4716000,2216807106561,0.0124292625,0.030137116,0.009173312,0,2.0,1.0,nan,nan,nan,1.1754944e-38,nan,nan,nan,0.0,1310988,1310988,6620172,197388,62.082893,nan,0.4721367,nan,0,165,2,1,3,3,0,0,0,0,0,0,0,0,0
4876000,4724000,2216807106561,0.01248819,0.03004017,0.009183168,0,2.0,1.0,nan,nan,nan,1.1754944e-38,nan,nan,nan,0.0,1310988,1310988,6620172,197388,62.082893,nan,0.4721367,nan,0,165,2,1,3,3,0,0,0,0,0,0,0,0,0
4884000,4732000,2216807106561,0.012545631,0.02995693,0.009197864,0,2.0,1.0,nan,nan,nan,1.1754944e-38,nan,nan,nan,0.0,1310988,1310988,6620172,197388,62.082893,nan,0.4721367,nan,0,165,2,1,3,3,0,0,0,0,0,0,0,0,0
4900000,4748000,2216807106561,0.012616532,0.029793067,0.009239806,0,2.0,1.0,nan,nan,nan,1.1754944e-38,nan,nan,nan,0.0,1310988,1310988,6620172,197388,62.082893,nan,0.4721367,nan,0,165,2,1,3,3,0,0,0,0,0,0,0,0,0
4908000,4756000,2216807106561,0.012649654,0.029713577,0.009267094,0,2.0,1.0,nan,nan,nan,1.1754944e-38,nan,nan,nan,0.0,1310988,1310988,6620172,197388,62.082893,nan,0.4721367,nan,0,165,2,1,3,3,0,0,0,0,0,0,0,0,0
4916000,4764000,2216807106561,0.012682898,0.029637692,0.009298848,0,2.0,1.0,nan,nan,nan,1.1754944e-38,nan,nan,nan,0.0,1310988,1310988,6620172,197388,62.082893,nan,0.4721367,nan,0,165,2,1,3,3,0,0,0,0,0,0,0,0,0
4924000,4772000,2216807106561,0.012375644,0.029504444,0.009328013,0,2.0,1.0000001,nan,nan,nan,1.1754944e-38,nan,nan,nan,0.0,1310988,1310988,6620172,197388,62.082893,nan,0.4721367,nan,0,165,2,1,3,3,0,0,0,0,0,0,0,0,0
4940000,4788000,2216807106561,0.011866154,0.029267993,0.00938132,0,2.0000002,1.0000004,nan,nan,nan,1.1754944e-38,nan,nan,nan,0.0,1310988,1310988,6620172,197388,63.117714,63.157204,0.4807356,0.48238713,0,165,2,1,3,3,0,0,0,0,0,0,0,0,0
4948000,4796000,2216807106561,0.011557989,0.029073566,0.009402703,0,2.0000005,1.0000005,nan,nan,nan,1.1754944e-38,nan,nan,nan,0.0,1310988,1310988,6620172,197388,63.117714,63.157204,0.4807356,0.48238713,0,165,2,1,3,3,0,0,0,0,0,0,0,0,0
4956000,4804000,2216807106561,0.011247446,0.028858263,0.009419863,0,2.0000007,1.0000006,nan,nan,nan,1.1754944e-38,nan,nan,nan,0.0,1310988,1310988,6620172,197388,63.117714,63.157204,0.4807356,0.48238713,0,165,2,1,3,3,0,0,0,0,0,0,0,0,0
4964000,4812000,2216807106561,0.0109339,0.028619153,0.009433745,0,2.000001,1.0000007,nan,nan,nan,1.1754944e-38,nan,nan,nan,0.0,1310988,1310988,6620172,197388,63.117714,63.157204,0.4807356,0.48238713,0,165,2,1,3,3,0,0,0,0,0,0,0,0,0
4980000,4828000,2216807106561,0.0102910735,0.02802266,0.009445412,0,2.0000014,1.0000012,nan,nan,nan,1.1754944e-38,nan,nan,nan,0.0,1310988,1310988,6620172,197388,63.117714,63.157204,0.4807356,0.48238713,0,165,2,1,3,3,0,0,0,0,0,0,0,0,0
4988000,4836000,2216807106561,0.009978588,0.027735393,0.009448163,0,2.0000017,1.0000014,nan,nan,nan,1.1754944e-38,nan,nan,nan,0.0,1310988,1310988,6620172,197388,63.117714,63.157204,0.4807356,0.48238713,0,165,2,1,3,3,0,0,0,0,0,0,0,0,0
4996000,4844000,2216807106561,0.00966392,0.027427243,0.009446866,0,2.0000021,1.0000017,nan,nan,nan,1.1754944e-38,nan,nan,nan,0.0,1310988,1310988,6620172,197388,63.117714,63.157204,0.4807356,0.48238713,0,165,2,1,3,3,0,0,0,0,0,0,0,0,0
5004000,4852000,2216807106561,0.009343473,0.027093144,0.0094423555,0,2.0000026,1.0000019,nan,nan,nan,1.1754944e-38,nan,nan,nan,0.0,1310988,1310988,6620172,197388,63.21503,63.157204,0.48211253,0.48238713,0,165,2,1,3,3,0,0,0,0,0,0,0,0,0
5020000,4868000,2216807106561,0.0086967535,0.026375692,0.009421233,0,2.0000036,1.0000025,nan,nan,nan,1.1754944e-38,nan,nan,nan,0.0,1310988,1310988,6620172,197388,63.21503,63.157204,0.48211253,0.48238713,0,165,2,1,3,3,0,0,0,0,0,0,0,0,0
5028000,4876000,2216807106561,0.008372465,0.025991209,0.009405008,0,2.000004,1.0000029,nan,nan,nan,1.1754944e-38,nan,nan,nan,0.0,1310988,1310988,6620172,197388,63.21503,63.157204,0.48211253,0.48238713,0,165,2,1,3,3,0,0,0,0,0,0,0,0,0
5036000,4884000,2216807106561,0.008042387,0.025594588,0.009385138,0,2.0000045,1.0000032,nan,nan,nan,1.1754944e-38,nan,nan,nan,0.0,1310988,1310988,6620172,197388,63.21503,63.157204,0.48211253,0.48238713,0,165,2,1,3,3,0,0,0,0,0,0,0,0,0
5044000,4892000,2216807106561,0.007713332,0.025183463,0.009360404,0,2.0000052,1.0000037,nan,nan,nan,1.1754944e-38,nan,nan,nan,0.0,1310988,1310988,6620172,197388,63.21503,63.157204,0.48211253,0.48238713,0,165,2,1,3,3,0,0,0,0,0,0,0,0,0
5060000,4908000,2216807106561,0.0070495284,0.024308356,0.009299198,0,2.0000067,1.0000046,nan,nan,nan,1.1754944e-38,nan,nan,nan,0.0,1310988,1310988,6620172,197388,63.21503,63.157204,0.48211253,0.48238713,0,165,2,1,3,3,0,0,0,0,0,0,0,0,0
5068000,4916000,2216807106561,0.0067152707,0.023851799,0.009261354,0,2.0000074,1.0000051,nan,nan,nan,1.1754944e-38,nan,nan,nan,0.0,1310988,1310988,6620172,197388,63.21503,63.157204,0.48211253,0.48238713,0,165,2,1,3,3,0,0,0,0,0,0,0,0,0
5076000,4924000,2216807106561,0.006383467,0.023379777,0.009219637,0,2.000008,1.0000057,nan,nan,nan,1.1754944e-38,nan,nan,nan,0.0,1310988,1310988,6620172,197388,63.098938,63.157204,0.47882298,0.48238713,0,165,2,1,3,3,0,0,0,0,0,0,0,0,0
5084000,4932000,2216807106561,0.0060597095,0.022898113,0.009173163,0,2.000009,1.0000063,nan,nan,nan,1.1754944e-38,nan,nan,nan,0.0,1310988,1310988,6620172,197388,63.098938,63.157204,0.47882298,0.48238713,0,165,2,1,3,3,0,0,0,0,0,0,0,0,0
5100000,4948000,2216807106561,0.0054248837,0.021885665,0.009067863,0,2.0000112,1.0000076,nan,nan,nan,1.1754944e-38,nan,nan,nan,0.0,1310988,1310988,6620172,197388,63.098938,63.157204,0.47882298,0.48238713,0,165,2,1,3,3,0,0,0,0,0,0,0,0,0
5108000,4956000,2216807106561,0.0051184692,0.021371152,0.009008218,0,2.0000124,1.0000083,nan,nan,nan,1.1754944e-38,nan,nan,nan,0.0,1310988,1310988,6620172,197388,63.098938,63.157204,0.47882298,0.48238713,0,165,2,1,3,3,0,0,0,0,0,0,0,0,0
5116000,4964000,2216807106561,0.0048196344,0.020848174,0.008943871,0,2.0000136,1.0000091,nan,nan,nan,1.1754944e-38,nan,nan,nan,0.0,1310988,1310988,6620172,197388,63.098938,63.157204,0.47882298,0.48238713,0,165,2,1,3,3,0,0,0,0,0,0,0,0,0
5124000,4972000,2216807106561,0.004531574,0.020312492,0.008778215,0,14.142136,1.0000099,nan,nan,nan,1.1754944e-38,nan,nan,nan,0.0,1310988,1310988,6620172,197388,63.098938,63.157204,0.47882298,0.48238713,0,165,3,1,4,3,0,0,0,0,0,0,0,0,0
5140000,4988000,2216807106561,0.0038665328,0.019212436,0.0084427865,0,14.142589,1.0000117,nan,nan,nan,1.1754944e-38,nan,nan,nan,0.0,1310988,1310988,6620172,197388,63.098938,63.157204,0.47882298,0.48238713,0,165,3,1,4,3,0,0,0,0,0,0,0,0,0
5148000,4996000,2216807106561,0.0036043373,0.018652858,0.008273605,0,14.143153,1.0000126,nan,nan,nan,1.1754944e-38,nan,nan,nan,0.0,1310988,1310988,6620172,197388,62.437923,63.157204,0.48183873,0.48238713,0,165,3,1,4,3,0,0,0,0,0,0,0,0,0
5156000,5004000,2216807106561,0.0033503203,0.018088738,0.0081020845,0,14.143946,1.0000136,nan,nan,nan,1.1754944e-38,nan,nan,nan,0.0,1310988,1310988,6620172,197388,62.437923,63.157204,0.48183873,0.48238713,0,165,3,1,4,3,0,0,0,0,0,0,0,0,0
5164000,5012000,2216807106561,0.0031038164,0.017522933,0.007929358,0,14.144964,1.0000147,nan,nan,nan,1.1754944e-38,nan,nan,nan,0.0,1310988,1310988,6620172,197388,62.437923,63.157204,0.48183873,0.48238713,0,165,3,1,4,3,0,0,0,0,0,0,0,0,0
5180000,5028000,2216807106561,0.002631297,0.016752066,0.0075997734,0,14.142144,1.0000167,nan,nan,nan,1.1754944e-38,nan,nan,nan,0.0,1310988,1310988,6620172,197388,62.437923,63.157204,0.48183873,0.48238713,0,165,3,1,4,3,0,0,0,0,0,0,0,0,0
5188000,5036000,2216807106561,0.0024062723,0.016170027,0.0074234735,0,14.142147,1.000018,nan,nan,nan,1.1754944e-38,nan,nan,nan,0.0,1310988,1310988,6620172,197388,62.437923,63.157204,0.48183873,0.48238713,0,165,3,1,4,3,0,0,0,0,0,0,0,0,0
5196000,5044000,2216807106561,0.00219246,0.01558582,0.007245385,0,14.14215,1.0000193,nan,nan,nan,1.1754944e-38,nan,nan,nan,0.0,1310988,1310988,6620172,197388,62.437923,63.157204,0.48183873,0.48238713,0,165,3,1,4,3,0,0,0,0,0,0,0,0,0
5204000,5052000,2216807106561,0.001988287,0.015002024,0.007066374,0,14.142154,1.0000206,nan,nan,nan,1.1754944e-38,nan,nan,nan,0.0,1310988,1310988,6620172,197388,62.437923,63.157204,0.48183873,0.48238713,0,165,3,1,4,3,0,0,0,0,0,0,0,0,0
5220000,5068000,2216807106561,0.0016019448,0.013838076,0.0067040958,0,14.142161,1.0000236,nan,nan,nan,1.1754944e-38,nan,nan,nan,0.0,1310988,1310988,6620172,197388,63.283012,63.157204,0.48199594,0.48238713,0,165,3,1,4,3,0,0,0,0,0,0,0,0,0
5228000,5076000,2216807106561,0.0014216119,0.013260773,0.006520453,0,14.142166,1.0000252,nan,nan,nan,1.1754944e-38,nan,nan,nan,0.0,1310988,1310988,6620172,197388,63.283012,63.157204,0.48199594,0.48238713,0,165,3,1,4,3,0,0,0,0,0,0,0,0,0
5236000,5084000,2216807106561,0.0012496704,0.01268556,0.0063341367,0,14.142171,1.0000267,nan,nan,nan,1.1754944e-38,nan,nan,nan,0.0,1310988,1310988,6620172,197388,63.283012,63.157204,0.48199594,0.48238713,0,165,3,1,4,3,0,0,0,0,0,0,0,0,0
5244000,5092000,2216807106561,0.0010872094,0.012114433,0.006147039,0,14.142176,1.0000285,nan,nan,nan,1.1754944e-38,nan,nan,nan,0.0,1310988,1310988,6620172,197388,63.283012,63.157204,0.48199594,0.48238713,0,165,3,1,4,3,0,0,0,0,0,0,0,0,0
5260000,5108000,2216807106561,0.000786794,0.010992114,0.005849544,0,14.142187,0.70711815,nan,nan,nan,0.00016399918,nan,nan,nan,0.0,1310988,1310988,6620172,197388,63.283012,63.157204,0.48199594,0.48238713,0,165,3,1,4,3,0,0,0,0,0,0,0,0,0
5268000,5116000,2216807106561,0.0006503331,0.010438003,0.0056567113,0,14.142194,0.7071195,nan,nan,nan,0.00016399918,nan,nan,nan,0.0,1310988,1310988,6620172,197388,63.283012,63.157204,0.48199594,0.48238713,0,165,3,1,4,3,0,0,0,0,0,0,0,0,0
5276000,5124000,2216807106561,0.00052356377,0.009892398,0.005461351,0,14.1422,0.707121,nan,nan,nan,0.00016399918,nan,nan,nan,0.0,1310988,1310988,6620172,197388,63.283012,63.157204,0.48199594,0.48238713,0,165,3,1,4,3,0,0,0,0,0,0,0,0,0
5284000,5132000,2216807106561,0.0004060402,0.009351835,0.005357996,0,14.142207,0.7071227,nan,nan,nan,0.00016399918,nan,nan,nan,0.0,1310988,1310988,6620172,197388,63.283012,63.157204,0.48199594,0.48238713,0,165,3,1,4,3,0,0,0,0,0,0,0,0,0
5300000,5148000,2216807106561,0.0002167133,0.008295794,0.0051401197,0,14.142222,0.7071262,nan,nan,nan,0.00016399918,nan,nan,nan,0.0,1310988,1310988,6620172,197388,63.08425,63.157204,0.48098227,0.48238713,0,165,3,1,4,3,0,0,0,0,0,0,0,0,0
5308000,5156000,2216807106561,0.00015359093,0.00778076,0.00502569,0,14.142231,0.70712817,nan,nan,nan,0.00016399918,nan,nan,nan,0.0,1310988,1310988,6620172,197388,63.08425,63.157204,0.48098227,0.48238713,0,165,3,1,4,3,0,0,0,0,0,0,0,0,0
5316000,5164000,2216807106561,0.00012992242,0.0072728456,0.004907579,0,14.14224,0.70713025,nan,nan,nan,0.00016399918,nan,nan,nan,0.0,1310988,1310988,6620172,197388,63.08425,63.157204,0.48098227,0.48238713,0,165,3,1,4,3,0,0,0,0,0,0,0,0,0
5324000,5172000,2216807106561,0.00015754442,0.006775236,0.00478593,0,14.142248,0.70713246,nan,nan,nan,0.00016399918,nan,nan,nan,0.0,1310988,1310988,6620172,197388,63.08425,63.157204,0.48098227,0.48238713,0,165,3,1,4,3,0,0,0,0,0,0,0,0,0
5340000,5188000,2216807107073,0.0019473557,0.005755338,0.0040346356,0,0.014323044,0.7071372,nan,nan,nan,0.0006400595,nan,nan,nan,0.0,1310988,1310988,6620172,197388,63.08425,63.157204,0.48098227,0.48238713,0,165,3,1,4,3,0,0,0,0,0,0,0,0,0
5348000,5196000,2216807107073,0.001957554,0.005285893,0.00392416,0,0.014852727,0.70713985,nan,nan,nan,0.0006400595,nan,nan,nan,0.0,1310988,1310988,6620172,197388,63.08425,63.157204,0.48098227,0.48238713,0,165,3,1,4,3,0,0,0,0,0,0,0,0,0
5356000,5204000,2216807107073,0.0019697233,0.0048269695,0.003809634,0,0.01569618,0.7071426,nan,nan,nan,0.0006400595,nan,nan,nan,0.0,1310988,1310988,6620172,197388,63.08425,63.157204,0.48098227,0.48238713,0,165,3,1,4,3,0,0,0,0,0,0,0,0,0
5364000,5212000,2216807107073,0.00198295,0.0043793456,0.0036921308,0,0.016806489,0.70714545,nan,nan,nan,0.0006400595,nan,nan,nan,0.0,1310988,1310988,6620172,197388,63.275913,63.157204,0.47997048,0.48238713,0,165,3,1,4,3,0,0,0,0,0,0,0,0,0
5380000,5228000,2216807107073,0.002009828,0.00351761,0.00345084,0,0.019637601,0.70715165,nan,nan,nan,0.0006400595,nan,nan,nan,0.0,1310988,1310988,6620172,197388,63.275913,63.157204,0.47997048,0.48238713,0,165,3,1,4,3,0,0,0,0,0,0,0,0,0
5388000,5236000,2216807107073,0.0020249034,0.0023124136,0.0031160354,0,0.018050097,0.7071534,nan,nan,nan,0.0006400595,nan,nan,nan,0.0,1310988,1310988,6620172,197388,63.275913,63.157204,0.47997048,0.48238713,0,165,3,1,4,3,0,0,0,0,0,0,0,0,0
5396000,5244000,2216807107073,0.0020373052,0.0023887055,0.0029648195,0,0.019087657,0.7071568,nan,nan,nan,0.0006400595,nan,nan,nan,0.0,1310988,1310988,6620172,197388,63.275913,63.157204,0.47997048,0.48238713,0,165,3,1,4,3,0,0,0,0,0,0,0,0,0
5404000,5252000,2216807107073,0.002049807,0.002492698,0.0028125911,0,0.02019972,0.70716023,nan,nan,nan,0.0006400595,nan,nan,nan,0.0,1310988,1310988,6620172,197388,63.275913,63.157204,0.47997048,0.48238713,0,165,3,1,4,3,0,0,0,0,0,0,0,0,0
5420000,5268000,2216807107073,0.0020702535,0.002767836,0.0032449453,0,0.022603272,0.6931622,nan,nan,nan,0.0004470158,nan,nan,nan,0.0,1310988,1310988,6620172,197388,63.275913,63.157204,0.47997048,0.48238713,0,165,3,1,4,3,0,0,0,0,0,0,0,0,0
5428000,5276000,2216807107073,0.0020777013,0.0029248183,0.0031066828,0,0.023877012,0.69316614,nan,nan,nan,0.0004470158,nan,nan,nan,0.0,1310988,1310988,6620172,197388,63.45107,63.157204,0.48206925,0.48238713,0,165,3,1,4,3,0,0,0,0,0,0,0,0,0
5436000,5284000,2216807107073,0.0020858282,0.0030907367,0.0029702198,0,0.02518932,0.69317025,nan,nan,nan,0.0004470158,nan,nan,nan,0.0,1310988,1310988,6620172,197388,63.45107,63.157204,0.48206925,0.48238713,0,165,3,1,4,3,0,0,0,0,0,0,0,0,0
5444000,5292000,2216807107073,0.002092628,0.0032647818,0.0028321575,0,0.026534628,0.69317454,nan,nan,nan,0.0004470158,nan,nan,nan,0.0,1310988,1310988,6620172,197388,63.45107,63.157204,0.48206925,0.48238713,0,165,3,1,4,3,0,0,0,0,0,0,0,0,0
5460000,5308000,2216807107073,0.0021074957,0.0036193302,0.002563681,0,0.029306548,0.6931836,nan,nan,nan,0.0004470158,nan,nan,nan,0.0,1310988,1310988,6620172,197388,63.45107,63.157204,0.48206925,0.48238713,0,165,3,1,4,3,0,0,0,0,0,0,0,0,0
5468000,5316000,2216807107073,0.0021142333,0.0037966059,0.0024318395,0,0.030726124,0.6931884,nan,nan,nan,0.0004470158,nan,nan,nan,0.0,1310988,1310988,6620172,197388,63.45107,63.157204,0.48206925,0.48238713,0,165,3,1,4,3,0,0,0,0,0,0,0,0,0
5476000,5324000,2216807107073,0.0021179665,0.003972128,0.0023068485,0,0.03216437,0.69319344,nan,nan,nan,0.0004470158,nan,nan,nan,0.0,1310988,1310988,6620172,197388,63.45107,63.157204,0.48206925,0.48238713,0,165,3,1,4,3,0,0,0,0,0,0,0,0,0
5484000,5332000,2216807107073,0.0021196702,0.0041478993,0.0013602363,0,0.033619042,0.6799927,nan,nan,nan,0.00051823555,nan,nan,nan,0.0,1310988,1310988,6620172,197388,63.45107,63.157204,0.48206925,0.48238713,0,165,3,1,4,3,0,0,0,0,0,0,0,0,0
5500000,5348000,2216807107073,0.0020177301,0.004484653,0.0010837583,0,0.036570396,0.6800035,nan,nan,nan,0.00051823555,nan,nan,nan,0.0,1310988,1310988,6620172,197388,63.125923,63.157204,0.48055333,0.48238713,0,165,3,1,4,3,0,0,0,0,0,0,0,0,0
5508000,5356000,2216807107073,0.0019676352,0.0046495656,0.00096021744,0,0.038064122,0.68000925,nan,nan,nan,0.00051823555,nan,nan,nan,0.0,1310988,1310988,6620172,197388,63.125923,63.157204,0.48055333,0.48238713,0,165,3,1,4,3,0,0,0,0,0,0,0,0,0
5516000,5364000,2216807107073,0.0019175449,0.004805597,0.00083776563,0,0.039568257,0.68001515,nan,nan,nan,0.00051823555,nan,nan,nan,0.0,1310988,1310988,6620172,197388,63.125923,63.157204,0.48055333,0.48238713,0,165,3,1,4,3,0,0,0,0,0,0,0,0,0
5524000,5372000,2216807107073,0.001866443,0.004957198,0.00072925386,0,0.041081805,0.6800213,nan,nan,nan,0.00051823555,nan,nan,nan,0.0,1310988,1310988,6620172,197388,63.125923,63.157204,0.48055333,0.48238713,0,165,3,1,4,3,0,0,0,0,0,0,0,0,0
5540000,5388000,2216807107073,0.0013967742,0.0068857823,0.0006935951,0,0.013467405,0.6800342,nan,nan,nan,0.00051823555,nan,nan,nan,0.0,1310988,1310988,6620172,197388,63.125923,63.157204,0.48055333,0.48238713,0,165,3,1,4,3,0,0,0,0,0,0,0,0,0
5548000,5396000,2216807107073,0.0013474543,0.0069111492,0.00077811134,0,0.013945695,0.6800411,nan,nan,nan,0.00051823555,nan,nan,nan,0.0,1310988,1310988,6620172,197388,63.125923,63.157204,0.48055333,0.48238713,0,165,3,1,4,3,0,0,0,0,0,0,0,0,0
5556000,5404000,2216807107073,0.0012990368,0.006934265,0.00087421504,0,0.014443669,0.66756743,nan,nan,nan,0.00048858527,nan,nan,nan,0.0,1310988,1310988,6620172,197388,63.125923,63.157204,0.48055333,0.48238713,0,165,3,1,4,3,0,0,0,0,0,0,0,0,0
5564000,5412000,2216807107073,0.0012523849,0.006955219,0.000980256,0,0.014959643,0.66757464,nan,nan,nan,0.00048858527,nan,nan,nan,0.0,1310988,1310988,6620172,197388,63.125923,63.157204,0.48055333,0.48238713,0,165,3,1,4,3,0,0,0,0,0,0,0,0,0
5580000,5428000,2216807107073,0.0011611385,0.006987514,0.0011987103,0,0.016039697,0.6675898,nan,nan,nan,0.00048858527,nan,nan,nan,0.0,1310988,1310988,6620172,197388,63.289917,63.157204,0.48094156,0.48238713,0,165,3,1,4,3,0,0,0,0,0,0,0,0,0
5588000,5436000,2216807107073,0.0011178781,0.006998463,0.0013088648,0,0.016601218,0.6675977,nan,nan,nan,0.00048858527,nan,nan,nan,0.0,1310988,1310988,6620172,197388,63.289917,63.157204,0.48094156,0.48238713,0,165,3,1,4,3,0,0,0,0,0,0,0,0,0
5596000,5444000,2216807107073,0.0010751473,0.0073135616,0.0014502638,0,0.016655175,0.66759723,nan,nan,nan,0.00048858527,nan,nan,nan,0.0,1310988,1310988,6620172,197388,63.289917,63.157204,0.48094156,0.48238713,0,165,3,1,4,3,0,0,0,0,0,0,0,0,0
5604000,5452000,2216807107073,0.0010355971,0.007309941,0.0015617138,0,0.017203184,0.6676053,nan,nan,nan,0.00048858527,nan,nan,nan,0.0,1310988,1310988,6620172,197388,63.289917,63.157204,0.48094156,0.48238713,0,165,3,1,4,3,0,0,0,0,0,0,0,0,0
5620000,5468000,2216807107073,0.0009605205,0.007296099,0.0017774736,0,0.018331155,0.6676221,nan,nan,nan,0.00048858527,nan,nan,nan,0.0,1310988,1310988,6620172,197388,63.289917,63.157204,0.48094156,0.48238713,0,165,3,1,4,3,0,0,0,0,0,0,0,0,0
5628000,5476000,2216807107073,0.00092467497,0.0072868112,0.0018871925,0,0.018909773,0.6558109,nan,nan,nan,0.0004769744,nan,nan,nan,0.0,1310988,1310988,6620172,197388,63.289917,63.157204,0.48094156,0.48238713,0,165,3,1,4,3,0,0,0,0,0,0,0,0,0
5636000,5484000,2216807107073,0.0008925703,0.0072733387,0.0019863332,0,0.01949737,0.65581983,nan,nan,nan,0.0004769744,nan,nan,nan,0.0,1310988,1310988,6620172,197388,63.00793,63.157204,0.48132062,0.48238713,0,165,3,1,4,3,0,0,0,0,0,0,0,0,0
5644000,5492000,2216807107073,0.00086124707,0.0072590946,0.002084114,0,0.020093463,0.655829,nan,nan,nan,0.0004769744,nan,nan,nan,0.0,1310988,1310988,6620172,197388,63.00793,63.157204,0.48132062,0.48238713,0,165,3,1,4,3,0,0,0,0,0,0,0,0,0
5660000,5508000,2216807107073,0.0008094979,0.0072245235,0.0023177715,0,0.021309413,0.54842156,nan,nan,nan,0.00046582444,nan,nan,nan,0.0,1310988,1310988,6620172,197388,63.00793,63.157204,0.48132062,0.48238713,0,165,3,1,4,3,0,0,0,0,0,0,0,0,0
5668000,5516000,2216807107073,0.0007918914,0.0072025717,0.0024082956,0,0.021928541,0.54843,nan,nan,nan,0.00046582444,nan,nan,nan,0.0,1310988,1310988,6620172,197388,63.00793,63.157204,0.48132062,0.48238713,0,165,3,1,4,3,0,0,0,0,0,0,0,0,0
5676000,5524000,2216807107073,0.00078090286,0.007176426,0.002495877,0,0.02255469,0.5484388,nan,nan,nan,0.00046582444,nan,nan,nan,0.0,1310988,1310988,6620172,197388,63.00793,63.157204,0.48132062,0.48238713,0,165,3,1,4,3,0,0,0,0,0,0,0,0,0
5684000,5532000,2216807107073,0.0007713234,0.0071506365,0.0025859857,0,0.023187576,0.5484479,nan,nan,nan,0.00046582444,nan,nan,nan,0.0,1310988,1310988,6620172,197388,63.00793,63.157204,0.48132062,0.48238713,0,165,3,1,4,3,0,0,0,0,0,0,0,0,0
5700000,5548000,2216807107073,0.00071939983,0.0070974277,0.0031260136,0,0.024472686,0.54185784,nan,nan,nan,0.00033116026,nan,nan,nan,0.0,1310988,1310988,6620172,197388,63.00793,63.157204,0.48132062,0.48238713,0,165,3,1,4,3,0,0,0,0,0,0,0,0,0
5708000,5556000,2216807107073,0.0006959974,0.007070612,0.0031751539,0,0.025124526,0.54186785,nan,nan,nan,0.00033116026,nan,nan,nan,0.0,1310988,1310988,6620172,197388,63.39816,63.157204,0.47887653,0.48238713,0,165,3,1,4,3,0,0,0,0,0,0,0,0,0
5716000,5564000,2216807107073,0.00067090464,0.007045742,0.0032266148,0,0.02578234,0.54187834,nan,nan,nan,0.00033116026,nan,nan,nan,0.0,1310988,1310988,6620172,197388,63.39816,63.157204,0.47887653,0.48238713,0,165,3,1,4,3,0,0,0,0,0,0,0,0,0
5724000,5572000,2216807107073,0.00064572657,0.0070226737,0.0032831389,0,0.026446009,0.54188913,nan,nan,nan,0.00033116026,nan,nan,nan,0.0,1310988,1310988,6620172,197388,63.39816,63.157204,0.47887653,0.48238713,0,165,3,1,4,3,0,0,0,0,0,0,0,0,0
5740000,5588000,2216807107073,0.0012935079,0.005152917,0.0031839982,0,0.027765956,0.54191196,nan,nan,nan,0.00033116026,nan,nan,nan,0.0,1310988,1310988,6620172,197388,63.39816,63.157204,0.47887653,0.48238713,0,165,3,1,4,3,0,0,0,0,0,0,0,0,0
5748000,5596000,2216807107073,0.0012238666,0.008268032,0.0040921415,0,0.012663305,0.541924,nan,nan,nan,0.00033116026,nan,nan,nan,0.0,1310988,1310988,6620172,197388,63.39816,63.157204,0.47887653,0.48238713,0,165,3,1,4,3,0,0,0,0,0,0,0,0,0
5756000,5604000,2216807107073,0.0012228799,0.008153094,0.004129714,0,0.012970913,0.54193634,nan,nan,nan,0.00033116026,nan,nan,nan,0.0,1310988,1310988,6620172,197388,63.39816,63.157204,0.47887653,0.48238713,0,165,3,1,4,3,0,0,0,0,0,0,0,0,0
5764000,5612000,2216807107073,0.0012250318,0.008042249,0.0041619013,0,0.013287427,0.54194915,nan,nan,nan,0.00033116026,nan,nan,nan,0.0,1310988,1310988,6620172,197388,63.39816,63.157204,0.47887653,0.48238713,0,165,3,1,4,3,0,0,0,0,0,0,0,0,0
5780000,5628000,2216807107073,0.0012227676,0.00782696,0.0044502555,0,0.0139465695,0.53559667,nan,nan,nan,0.00042749027,nan,nan,nan,0.0,1310988,1310988,6620172,197388,62.87892,63.157204,0.47959018,0.48238713,0,165,3,1,4,3,0,0,0,0,0,0,0,0,0
5788000,5636000,2216807107073,0.0012168557,0.00772443,0.0044721155,0,0.014288942,0.53561056,nan,nan,nan,0.00042749027,nan,nan,nan,0.0,1310988,1310988,6620172,197388,62.87892,63.157204,0.47959018,0.48238713,0,165,3,1,4,3,0,0,0,0,0,0,0,0,0
5796000,5644000,2216807107073,0.0012113822,0.007624701,0.0044953274,0,0.014639699,0.53562486,nan,nan,nan,0.00042749027,nan,nan,nan,0.0,1310988,1310988,6620172,197388,62.87892,63.157204,0.47959018,0.48238713,0,165,3,1,4,3,0,0,0,0,0,0,0,0,0
5804000,5652000,2216807107073,0.0011682765,0.007970676,0.0046323524,0,0.014812087,0.5356177,nan,nan,nan,0.00042749027,nan,nan,nan,0.0,1310988,1310988,6620172,197388,62.87892,63.157204,0.47959018,0.48238713,0,165,3,1,4,3,0,0,0,0,0,0,0,0,0
5820000,5668000,2216807107073,0.0011608654,0.0077639953,0.0046615466,0,0.01553136,0.5356464,nan,nan,nan,0.00042749027,nan,nan,nan,0.0,1310988,1310988,6620172,197388,62.87892,63.157204,0.47959018,0.48238713,0,165,3,1,4,3,0,0,0,0,0,0,0,0,0
5828000,5676000,2216807107073,0.0011573067,0.0076656663,0.004671485,0,0.015902871,0.53566134,nan,nan,nan,0.00042749027,nan,nan,nan,0.0,1310988,1310988,6620172,197388,62.87892,63.157204,0.47959018,0.48238713,0,165,3,1,4,3,0,0,0,0,0,0,0,0,0
5836000,5684000,2216807107073,0.0011536356,0.0075700204,0.004681488,0,0.016282234,0.5356768,nan,nan,nan,0.00042749027,nan,nan,nan,0.0,1310988,1310988,6620172,197388,62.87892,63.157204,0.47959018,0.48238713,0,165,3,1,4,3,0,0,0,0,0,0,0,0,0
5844000,5692000,2216807107073,0.0011502199,0.007476145,0.004390934,0,0.016669396,0.52953047,nan,nan,nan,0.00061954703,nan,nan,nan,0.0,1310988,1310988,6620172,197388,62.87892,63.157204,0.47959018,0.48238713,0,165,3,1,4,3,0,0,0,0,0,0,0,0,0
5860000,5708000,2388605798915,0.0011332284,0.008445684,0.004444305,0,0.017466977,0.5295632,nan,nan,nan,0.00061954703,nan,nan,nan,0.0,1310988,1310988,6620172,197388,63.402294,63.157204,0.48134252,0.48238713,0,165,3,1,4,3,1,0,0,0,0,0,0,0,0
5868000,5716000,2388605798915,0.0011291101,0.0075323596,0.0044716676,0,0.017877216,0.5295803,nan,nan,nan,0.00061954703,nan,nan,nan,0.0,1310988,1310988,6620172,197388,63.402294,63.157204,0.48134252,0.48238713,0,165,3,1,4,3,1,0,0,0,0,0,0,0,0
5876000,5724000,2388605798915,0.0011225801,0.008314566,0.0044981036,0,0.018295081,0.5295978,nan,nan,nan,0.00061954703,nan,nan,nan,0.0,1310988,1310988,6620172,197388,63.402294,63.157204,0.48134252,0.48238713,0,165,3,1,4,3,1,0,0,0,0,0,0,0,0
5884000,5732000,2388605798915,0.0011189955,0.009281551,0.0045290473,0,0.018720731,0.5296159,nan,nan,nan,0.00061954703,nan,nan,nan,0.0,1310988,1310988,6620172,197388,63.402294,63.157204,0.48134252,0.48238713,0,165,3,1,4,3,1,0,0,0,0,0,0,0,0
5900000,5748000,2388605798915,0.001056747,0.011741002,0.004614543,0,0.019596398,0.52965343,nan,nan,nan,0.00061954703,nan,nan,nan,0.0,1310988,1310988,6620172,197388,63.402294,63.157204,0.48134252,0.48238713,0,165,3,1,4,3,1,0,0,0,0,0,0,0,0
5908000,5756000,2388605798915,0.0010264204,0.011467234,0.004660596,0,0.020047044,0.5296729,nan,nan,nan,0.00061954703,nan,nan,nan,0.0,1310988,1310988,6620172,197388,63.402294,63.157204,0.48134252,0.48238713,0,165,3,1,4,3,1,0,0,0,0,0,0,0,0
5916000,5764000,2388605798915,0.0009945793,0.011375262,0.004907345,0,0.0205068,0.5237338,nan,nan,nan,0.000117188465,nan,nan,nan,0.0,1310988,1310988,6620172,197388,63.402294,63.157204,0.48134252,0.48238713,0,165,3,1,4,3,1,0,0,0,0,0,0,0,0
5924000,5772000,2388605798995,0.002265179,0.010638834,0.0049459008,0,0.020972373,0.5237541,0.0033888842,nan,nan,0.000117188465,nan,nan,nan,0.0,1310988,1310988,6620172,197388,63.389412,63.157204,0.4808474,0.48238713,0,165,3,1,4,3,1,0,0,0,0,0,0,0,0
5940000,5788000,2388605798995,0.0021618863,0.0103398645,0.0050314777,0,0.021874469,0.5237964,0.0033888842,nan,nan,0.000117188465,nan,nan,nan,0.0,1310988,1310988,6620172,197388,63.389412,63.157204,0.4808474,0.48238713,0,165,3,1,4,3,1,0,0,0,0,0,0,0,0
5948000,5796000,2388605798995,0.0021518825,0.010446977,0.0050527626,0,0.022369469,0.5238183,0.0033888842,nan,nan,0.000117188465,nan,nan,nan,0.0,1310988,1310988,6620172,197388,63.389412,63.157204,0.4808474,0.48238713,0,165,3,1,4,3,1,0,0,0,0,0,0,0,0
5956000,5804000,2388605798995,0.0020869584,0.013794203,0.006198962,0,0.012029072,0.5238408,0.0033888842,nan,nan,0.000117188465,nan,nan,nan,0.0,1310988,1310988,6620172,197388,63.389412,63.157204,0.4808474,0.48238713,0,165,3,1,4,3,1,0,0,0,0,0,0,0,0
5964000,5812000,2388605798995,0.0020835649,0.013030956,0.006212559,0,0.012306897,0.52386385,0.0033888842,nan,nan,0.000117188465,nan,nan,nan,0.0,1310988,1310988,6620172,197388,63.389412,63.157204,0.4808474,0.48238713,0,165,3,1,4,3,1,0,0,0,0,0,0,0,0
5980000,5828000,2388605798995,0.0020836128,0.014623637,0.0062480234,0,0.012915768,0.5239116,0.0033888842,nan,nan,0.000117188465,nan,nan,nan,0.0,1310988,1310988,6620172,197388,63.389412,63.157204,0.4808474,0.48238713,0,165,3,1,4,3,1,0,0,0,0,0,0,0,0
5988000,5836000,2388605798995,0.0020851213,0.015296757,0.0061673885,0,0.013248971,0.51816785,0.0033888842,nan,nan,0.00055687816,nan,nan,nan,0.0,1310988,1310988,6620172,197388,63.389412,63.157204,0.4808474,0.48238713,0,165,3,1,4,3,1,0,0,0,0,0,0,0,0
5996000,5844000,2388605798995,0.00310213,0.014842863,0.006200959,0,0.013601862,0.51819295,0.0024507334,nan,nan,0.00055687816,nan,nan,nan,0.0,1310988,1310988,6620172,197388,63.131523,63.157204,0.48224095,0.48238713,0,165,3,1,4,3,1,0,0,0,0,0,0,0,0
6004000,5852000,2388605798995,0.003105257,0.014415884,0.0062335962,0,0.013976909,0.5182186,0.0024507334,nan,nan,0.00055687816,nan,nan,nan,0.0,1310988,1310988,6620172,197388,63.131523,63.157204,0.48224095,0.48238713,0,165,3,1,4,3,1,0,0,0,0,0,0,0,0
6020000,5868000,2388605798995,0.0031441844,0.013985139,0.0063016964,0,0.014546935,0.5182039,0.0024507334,nan,nan,0.00055687816,nan,nan,nan,0.0,1310988,1310988,6620172,197388,63.131523,63.157204,0.48224095,0.48238713,0,165,3,1,4,3,1,0,0,0,0,0,0,0,0
6028000,5876000,2388605798995,0.0031520873,0.013748683,0.006328425,0,0.014965556,0.51822895,0.0024507334,nan,nan,0.00055687816,nan,nan,nan,0.0,1310988,1310988,6620172,197388,63.131523,63.157204,0.48224095,0.48238713,0,165,3,1,4,3,1,0,0,0,0,0,0,0,0
6036000,5884000,2388605798995,0.0031600604,0.013518889,0.006352388,0,0.015407549,0.5182545,0.0024507334,nan,nan,0.00055687816,nan,nan,nan,0.0,1310988,1310988,6620172,197388,63.131523,63.157204,0.48224095,0.48238713,0,165,3,1,4,3,1,0,0,0,0,0,0,0,0
6044000,5892000,2388605798995,0.0031679915,0.01329579,0.0063770907,0,0.015873563,0.5182807,0.0024507334,nan,nan,0.00055687816,nan,nan,nan,0.0,1310988,1310988,6620172,197388,63.131523,63.157204,0.48224095,0.48238713,0,165,3,1,4,3,1,0,0,0,0,0,0,0,0
6060000,5908000,17764051847767,0.0031942497,0.012805321,0.0064875046,0,0.01667864,0.45625526,0.0024507334,0.010225048,0.0011645448,0.000869253,nan,nan,nan,0.0,1310988,1310988,6620172,197388,63.131523,63.157204,0.48224095,0.48238713,0,959,3,1,4,3,1,0,0,0,0,0,0,0,0
6068000,5916000,17764051847767,0.0023446742,0.012588795,0.006498108,0,0.017200856,0.4562795,0.0039434545,0.010225048,0.0011645448,0.000869253,nan,nan,nan,0.0,1310988,1310988,6620172,197388,63.114952,63.157204,0.48002526,0.48238713,0,959,3,1,4,3,1,0,0,0,0,0,0,0,0
6076000,5924000,17764051847767,0.0023523753,0.0123976795,0.0065090517,0,0.017749859,0.45630434,0.0039434545,0.010225048,0.0011645448,0.000869253,nan,nan,nan,0.0,1310988,1310988,6620172,197388,63.114952,63.157204,0.48002526,0.48238713,0,959,3,1,4,3,1,0,0,0,0,0,0,0,0
6084000,5932000,17764051847767,0.0022941192,0.012211807,0.0065195262,0,0.018324764,0.45632985,0.0039434545,0.010225048,0.0011645448,0.000869253,nan,nan,nan,0.0,1310988,1310988,6620172,197388,63.114952,63.157204,0.48002526,0.48238713,0,959,3,1,4,3,1,0,0,0,0,0,0,0,0
6100000,5948000,17764051847767,0.002190608,0.011860489,0.006533537,0,0.019553512,0.45638293,0.0039434545,0.010225048,0.0011645448,0.000869253,nan,nan,nan,0.0,1310988,1310988,6620172,197388,63.114952,63.157204,0.48002526,0.48238713,0,959,3,1,4,3,1,0,0,0,0,0,0,0,0
6108000,5956000,17764051847767,0.0021391613,0.011691836,0.0065374738,0,0.020207873,0.4564105,0.0039434545,0.010225048,0.0011645448,0.000869253,nan,nan,nan,0.0,1310988,1310988,6620172,197388,63.114952,63.157204,0.48002526,0.48238713,0,959,3,1,4,3,1,0,0,0,0,0,0,0,0
6116000,5964000,17764051847767,0.0020863109,0.011518684,0.0066058678,0,0.020889064,0.45261025,0.0039434545,0.010225048,0.0011645448,0.00078688015,nan,nan,nan,0.0,1310988,1310988,6620172,197388,63.114952,63.157204,0.48002526,0.48238713,0,959,3,1,4,3,1,0,0,0,0,0,0,0,0
6124000,5972000,17764051847767,0.0020333,0.011351537,0.0066022268,0,0.02159725,0.45263898,0.0039434545,0.010225048,0.0011645448,0.00078688015,nan,nan,nan,0.0,1310988,1310988,6620172,197388,63.114952,63.157204,0.48002526,0.48238713,0,959,3,1,4,3,1,0,0,0,0,0,0,0,0
6140000,5988000,17764051847767,0.0019021869,0.011109617,0.0065986486,0,0.02301838,0.45269856,0.0025481666,0.010225048,0.0011645448,0.00078688015,nan,nan,nan,0.0,1310988,1310988,6620172,197388,63.40807,63.157204,0.48217964,0.48238713,0,959,3,1,4,3,1,0,0,0,0,0,0,0,0
6148000,5996000,17764051847767,0.0018531277,0.010947261,0.006587498,0,0.02380383,0.45272943,0.0025481666,0.010225048,0.0011645448,0.00078688015,nan,nan,nan,0.0,1310988,1310988,6620172,197388,63.40807,63.157204,0.48217964,0.48238713,0,959,3,1,4,3,1,0,0,0,0,0,0,0,0
6156000,6004000,17764051847767,0.0017764254,0.010787059,0.006575744,0,0.024616482,0.45276105,0.0025481666,0.010225048,0.0011645448,0.00078688015,nan,nan,nan,0.0,1310988,1310988,6620172,197388,63.40807,63.157204,0.48217964,0.48238713,0,959,3,1,4,3,1,0,0,0,0,0,0,0,0
6164000,6012000,17764051847767,0.0016999948,0.010630956,0.006562433,0,0.025456313,0.45279342,0.0025481666,0.010225048,0.0011645448,0.00078688015,nan,nan,nan,0.0,1310988,1310988,6620172,197388,63.40807,63.157204,0.48217964,0.48238713,0,959,3,1,4,3,1,0,0,0,0,0,0,0,0
6180000,6028000,17764051847767,0.0015445779,0.010326629,0.006872644,0,0.027217364,0.4491209,0.0025481666,0.010225048,0.0011645448,0.0010115458,nan,nan,nan,0.0,1310988,1310988,6620172,197388,63.40807,63.157204,0.48217964,0.48238713,0,959,3,1,4,3,1,0,0,0,0,0,0,0,0
6188000,6036000,17764051847767,0.0014668829,0.01017965,0.006837106,0,0.028138453,0.4491553,0.0025481666,0.010225048,0.0011645448,0.0010115458,nan,nan,nan,0.0,1310988,1310988,6620172,197388,63.40807,63.157204,0.48217964,0.48238713,0,959,3,1,4,3,1,0,0,0,0,0,0,0,0
6196000,6044000,17764051847767,0.001389185,0.010034661,0.0068000695,0,0.02908654,0.44919047,0.0025481666,0.010225048,0.0011645448,0.0010115458,nan,nan,nan,0.0,1310988,1310988,6620172,197388,63.40807,63.157204,0.48217964,0.48238713,0,959,3,1,4,3,1,0,0,0,0,0,0,0,0
6204000,6052000,17764051847767,0.0013113023,0.009893427,0.0067610703,0,0.030061496,0.44922647,0.0025481666,0.010225048,0.0011645448,0.0010115458,nan,nan,nan,0.0,1310988,1310988,6620172,197388,63.40807,63.157204,0.48217964,0.48238713,0,959,3,1,4,3,1,0,0,0,0,0,0,0,0
6220000,6068000,17764051847767,0.0003135586,0.009718866,0.0066952636,0,0.032088336,0.44930086,0.006669022,0.010225048,0.0011645448,0.0010115458,nan,nan,nan,0.0,1310988,1310988,6620172,197388,63.47699,63.157204,0.48086601,0.48238713,0,959,3,1,4,3,1,0,0,0,0,0,0,0,0
6228000,6076000,17764051847767,0.00034525894,0.009583263,0.0066531287,0,0.03314335,0.4493393,0.006669022,0.010225048,0.0011645448,0.0010115458,nan,nan,nan,0.0,1310988,1310988,6620172,197388,63.47699,63.157204,0.48086601,0.48238713,0,959,3,1,4,3,1,0,0,0,0,0,0,0,0
6236000,6084000,17764051847767,0.00038339573,0.00945269,0.006610941,0,0.034224972,0.44937858,0.006669022,0.010225048,0.0011645448,0.0010115458,nan,nan,nan,0.0,1310988,1310988,6620172,197388,63.47699,63.157204,0.48086601,0.48238713,0,959,3,1,4,3,1,0,0,0,0,0,0,0,0
6244000,6092000,17764051847767,0.00042514698,0.009325719,0.006569574,0,0.035333242,0.4494187,0.006669022,0.010225048,0.0011645448,0.0010115458,nan,nan,nan,0.0,1310988,1310988,6620172,197388,63.47699,63.157204,0.48086601,0.48238713,0,959,3,1,4,3,1,0,0,0,0,0,0,0,0
6260000,6108000,17764051847767,0.00051409163,0.009079761,0.00664269,0,0.0376291,0.4458449,0.006669022,0.010225048,0.0011645448,0.0010541792,nan,nan,nan,0.0,1310988,1310988,6620172,197388,63.47699,63.157204,0.48086601,0.48238713,0,959,3,1,4,3,1,0,0,0,0,0,0,0,0
6268000,6116000,17764051847767,0.0005594153,0.008961975,0.0065906914,0,0.038816575,0.44588727,0.006669022,0.010225048,0.0011645448,0.0010541792,nan,nan,nan,0.0,1310988,1310988,6620172,197388,63.47699,63.157204,0.48086601,0.48238713,0,959,3,1,4,3,1,0,0,0,0,0,0,0,0
6276000,6124000,17764051847767,0.0006050182,0.008845852,0.0065407106,0,0.040030323,0.44593054,0.006669022,0.010225048,0.0011645448,0.0010541792,nan,nan,nan,0.0,1310988,1310988,6620172,197388,63.47699,63.157204,0.48086601,0.48238713,0,959,3,1,4,3,1,0,0,0,0,0,0,0,0
6284000,6132000,17764051847767,0.0013951136,0.008783218,0.0064991014,0,0.041266188,0.44597474,0.007837781,0.010225048,0.0011645448,0.0010541792,nan,nan,nan,0.0,1310988,1310988,6620172,197388,63.36502,63.157204,0.4833071,0.48238713,0,959,3,1,4,3,1,0,0,0,0,0,0,0,0
6300000,6148000,17764051847767,0.0014999937,0.0085666105,0.0063939267,0,0.043823782,0.4460658,0.007837781,0.010225048,0.0011645448,0.0010541792,nan,nan,nan,0.0,1310988,1310988,6620172,197388,63.36502,63.157204,0.4833071,0.48238713,0,959,3,1,4,3,1,0,0,0,0,0,0,0,0
6308000,6156000,17764051847767,0.0015468741,0.008460884,0.006341894,0,0.045141596,0.44611272,0.007837781,0.010225048,0.0011645448,0.0010541792,nan,nan,nan,0.0,1310988,1310988,6620172,197388,63.36502,63.157204,0.4833071,0.48238713,0,959,3,1,4,3,1,0,0,0,0,0,0,0,0
6316000,6164000,17764051847767,0.001591752,0.0083576925,0.006291246,0,0.046485383,0.44616058,0.007837781,0.010225048,0.0011645448,0.0010541792,nan,nan,nan,0.0,1310988,1310988,6620172,197388,63.36502,63.157204,0.4833071,0.48238713,0,959,3,1,4,3,1,0,0,0,0,0,0,0,0
6324000,6172000,17764051847767,0.0016349439,0.008255605,0.0060233944,0,0.04785505,0.4426316,0.007837781,0.010225048,0.0011645448,0.0005236331,nan,nan,nan,0.0,1310988,1310988,6620172,197388,63.36502,63.157204,0.4833071,0.48238713,0,959,3,1,4,3,1,0,0,0,0,0,0,0,0
6340000,6188000,17764051847767,0.0019070177,0.0074142828,0.0056753303,0,0.050531585,0.44273132,0.007837781,0.010225048,0.0011645448,0.0005236331,nan,nan,nan,0.0,1310988,1310988,6620172,197388,63.36502,63.157204,0.4833071,0.48238713,0,959,3,1,4,3,1,0,0,0,0,0,0,0,0
6348000,6196000,17764051847767,0.0019455632,0.0073490227,0.005640039,0,0.051975258,0.44278267,0.007837781,0.010225048,0.0011645448,0.0005236331,nan,nan,nan,0.0,1310988,1310988,6620172,197388,63.36502,63.157204,0.4833071,0.48238713,0,959,3,1,4,3,1,0,0,0,0,0,0,0,0
6356000,6204000,17764051847767,0.0020145497,0.007186278,0.0055801813,0,0.053439606,0.442835,0.007330202,0.010225048,0.0011645448,0.0005236331,nan,nan,nan,0.0,1310988,1310988,6620172,197388,62.988644,63.157204,0.47962505,0.48238713,0,959,3,1,4,3,1,0,0,0,0,0,0,0,0
6364000,6212000,17764051847767,0.0020489194,0.0071258103,0.0055431435,0,0.05493404,0.44288832,0.007330202,0.010225048,0.0011645448,0.0005236331,nan,nan,nan,0.0,1310988,1310988,6620172,197388,62.988644,63.157204,0.47962505,0.48238713,0,959,3,1,4,3,1,0,0,0,0,0,0,0,0
6380000,6228000,17764051847767,0.002046268,0.007006539,0.0054697413,0,0.057999443,0.44299802,0.007330202,0.010225048,0.0011645448,0.0005236331,nan,nan,nan,0.0,1310988,1310988,6620172,197388,62.988644,63.157204,0.47962505,0.48238713,0,959,3,1,4,3,1,0,0,0,0,0,0,0,0
6388000,6236000,17764051847767,0.0020423997,0.0069491034,0.005429843,0,0.059570495,0.44305444,0.007330202,0.010225048,0.0011645448,0.0005236331,nan,nan,nan,0.0,1310988,1310988,6620172,197388,62.988644,63.157204,0.47962505,0.48238713,0,959,3,1,4,3,1,0,0,0,0,0,0,0,0
6396000,6244000,17764051847767,0.0020369673,0.0068931086,0.005374267,0,0.061167017,0.43960783,0.007330202,0.010225048,0.0011645448,0.0004908781,nan,nan,nan,0.0,1310988,1310988,6620172,197388,62.988644,63.157204,0.47962505,0.48238713,0,959,3,1,4,3,1,0,0,0,0,0,0,0,0
6404000,6252000,17764051847767,0.002029906,0.0068361135,0.005335121,0,0.06278883,0.43966588,0.007330202,0.010225048,0.0011645448,0.0004908781,nan,nan,nan,0.0,1310988,1310988,6620172,197388,62.988644,63.157204,0.47962505,0.48238713,0,959,3,1,4,3,1,0,0,0,0,0,0,0,0
6420000,6268000,17764051847767,0.0020120034,0.0067300326,0.0052571204,0,0.06610822,0.4397852,0.007330202,0.010225048,0.0011645448,0.0004908781,nan,nan,nan,0.0,1310988,1310988,6620172,197388,62.988644,63.157204,0.47962505,0.48238713,0,959,3,1,4,3,1,0,0,0,0,0,0,0,0
6428000,6276000,17764051847767,0.0017930015,0.006693842,0.00522088,0,0.06780024,0.4398465,0.006673711,0.010225048,0.0011645448,0.0004908781,nan,nan,nan,0.0,1310988,1310988,6620172,197388,63.332844,63.157204,0.48101306,0.48238713,0,959,3,1,4,3,1,0,0,0,0,0,0,0,0
6436000,6284000,17764051847767,0.0017805742,0.006643555,0.005180877,0,0.06952264,0.4399089,0.006673711,0.010225048,0.0011645448,0.0004908781,nan,nan,nan,0.0,1310988,1310988,6620172,197388,63.332844,63.157204,0.48101306,0.48238713,0,959,3,1,4,3,1,0,0,0,0,0,0,0,0
6444000,6292000,17764051847767,0.0017463202,0.0065925573,0.0051416215,0,0.07127014,0.4399724,0.006673711,0.010225048,0.0011645448,0.0004908781,nan,nan,nan,0.0,1310988,1310988,6620172,197388,63.332844,63.157204,0.48101306,0.48238713,0,959,3,1,4,3,1,0,0,0,0,0,0,0,0
6460000,6308000,17764051847767,0.0016733707,0.0064948373,0.005064386,0,0.074840635,0.44010282,0.006673711,0.010225048,0.0011645448,0.0004908781,nan,nan,nan,0.0,1310988,1310988,6620172,197388,63.332844,63.157204,0.48101306,0.48238713,0,959,3,1,4,3,1,0,0,0,0,0,0,0,0
6468000,6316000,17764051847767,0.0012681038,0.0066189333,0.0050346125,0,0.067424305,0.40017354,0.006673711,0.010646239,0.00091897085,0.0005762245,nan,nan,nan,0.0,1310988,1310988,6620172,197388,63.332844,63.157204,0.48101306,0.48238713,0,959,3,1,4,3,1,0,0,0,0,0,0,0,0
