timestamp,timestamp_sample,xyz[0],xyz[1],xyz[2]
3888000,3888000,-0.0022950214,-0.0014272413,-1.997147e-05
3892000,3892000,-0.00035970457,0.0038911765,9.81674e-06
3908000,3908000,-0.003339558,-0.0011425317,-1.7519968e-05
3928000,3928000,0.00083089864,0.00033163375,8.499117e-05
3948000,3948000,0.00094443245,0.0035226787,0.00017291239
3968000,3968000,-0.00022581624,-0.00059948966,-5.9945087e-06
3988000,3988000,0.004730354,0.005657031,-0.00024303063
4008000,4008000,0.0024449255,0.001457672,-0.00019882432
4028000,4028000,-0.000799627,-0.004221,-0.00020157079
4048000,4048000,-0.0012209555,-0.00038259258,-0.0003247381
4068000,4068000,0.0031316278,-0.0003356949,-0.00028873316
4088000,4088000,-0.0006594976,0.00070364616,-0.00049776357
4108000,4108000,-0.0007365442,0.0050092298,-0.00034126732
4128000,4128000,0.00047398207,-0.0014957163,-0.00014509303
4148000,4148000,-0.0010520283,0.002290538,9.768161e-05
4168000,4168000,0.0016846613,0.0026144348,6.9763206e-05
4188000,4188000,-0.0022561362,0.003415498,-3.4194298e-05
4208000,4208000,-0.0009960316,0.00014254526,0.00018704716
4228000,4228000,0.0014266707,0.0023546726,0.00024246902
4248000,4248000,0.00133547,-0.0047051962,-9.7455835e-05
4268000,4268000,0.00069483556,0.0006984742,-6.7633573e-06
4288000,4288000,-0.001045862,-0.0010314161,0.00031120586
4308000,4308000,-0.0017930381,0.003955136,0.0003262489
4328000,4328000,-0.0044658473,0.0018138858,0.00026686693
4348000,4348000,-0.0046105953,-0.0018787729,0.00062881917
4368000,4368000,-0.0010754404,-0.00013868177,0.00047645136
4388000,4388000,-0.00038671476,0.002243081,0.00015833451
4408000,4408000,0.0026403212,-0.0044588353,-0.00020151843
4428000,4428000,-0.0019312227,-0.00010674045,-6.851939e-05
4448000,4448000,-0.0013728263,0.0049120635,-0.0003515774
4468000,4468000,0.0027849998,-0.0066733677,-0.00048653886
4488000,4488000,-0.0014500308,0.0028906928,-0.0003813881
4508000,4508000,-0.0023378292,0.000517204,-0.00035739734
4528000,4528000,-0.0010931896,0.0007429577,-0.00019467653
4548000,4548000,-0.0003141022,-0.0010019441,-0.00047032462
4568000,4568000,0.0002076446,-0.0041164,-0.00019436667
4588000,4588000,-0.0030508875,0.0027628427,5.6251927e-05
4608000,4608000,0.004313533,-0.0029209356,0.0005377472
4628000,4628000,-0.003956548,0.0045387684,0.00034356295
4648000,4648000,-0.002553605,-0.0021647047,0.000451977
4668000,4668000,-0.001514982,0.0037762104,-0.00012964723
4688000,4688000,-0.0007405372,-0.005760726,-0.00018475839
4708000,4708000,0.004367026,0.0036713788,-0.0005610213
4728000,4728000,-0.0034242258,-0.0014441779,-0.00064341334
4748000,4748000,-0.0040754853,0.0019175244,-0.00073193584
4768000,4768000,-0.00082652865,6.772108e-05,-0.00036578596
4788000,4788000,-0.00020143646,-0.001296262,-0.0001738472
4808000,4808000,-0.0069908276,-0.0036480946,-0.0002646191
4828000,4828000,-0.0007166434,-0.003346139,8.945973e-05
4848000,4848000,-0.0042494317,-0.00595239,-0.00013397494
4864000,4864000,-0.0046665045,0.00012192619,-0.00012746041
4888000,4888000,-0.007892685,-0.004996444,0.00013018028
4908000,4908000,0.004794294,-0.0015997896,0.00025563527
4928000,4928000,-0.0017299829,-0.0015947991,0.0004163837
4948000,4948000,-0.0012598188,0.0014526277,-6.3906286e-05
4964000,4964000,-0.00039279263,-0.0044846297,-0.0002983033
4988000,4988000,-0.0054882513,-0.005061066,-0.00012064777
5008000,5008000,0.0016352172,-0.00042780227,0.000109532106
5028000,5028000,-0.0022468627,-0.00062820286,-0.00011284894
5048000,5048000,0.0012237154,0.003665402,-0.00016922725
5068000,5068000,-0.0022809762,-0.0014889656,-0.0007197461
5088000,5088000,-0.0014482324,0.0045506274,-0.0011113293
5108000,5108000,-0.0018824015,0.002465068,-0.001384826
5124000,5124000,0.00020997919,-0.0020494296,-0.001344109
5148000,5148000,-0.0019172039,0.000103949395,-0.0014632486
5168000,5168000,0.00092461606,0.0045598596,-0.0015126107
5188000,5188000,0.0016117921,-0.00047847687,-0.0014151632
5208000,5208000,-0.003697606,0.0018924838,-0.0009305158
5228000,5228000,0.00043495238,-0.002118807,-0.00076730293
5248000,5248000,-0.003237015,0.0033317334,-0.0009721684
5268000,5268000,-0.00094439357,-0.0020579586,-0.0013668184
5288000,5288000,0.000463459,0.0053716702,-0.0011663608
5308000,5308000,0.0024723033,-0.002175714,-0.0005741419
5328000,5328000,-0.0064721545,0.005445933,-0.00041951318
5348000,5348000,0.0011681622,-0.0033473512,0.00017806987
5368000,5368000,-0.006995168,-0.0026225187,0.00018036358
5388000,5388000,-0.0005979091,0.0024611747,0.00016080157
5408000,5408000,0.0025544385,0.0015274476,0.00023442417
5428000,5428000,-0.0040096277,0.0005556944,8.04821e-06
5448000,5448000,-0.0015972643,0.00096082827,7.200447e-05
5468000,5468000,0.0055418955,-0.0057950625,0.00031399398
5488000,5488000,-0.004568194,0.0015929234,0.00045687784
5508000,5508000,0.00076723844,0.0013167528,6.473188e-05
5528000,5528000,-0.0036344756,-0.0024860234,7.22945e-05
5548000,5548000,-0.0044187196,-0.004250942,0.00035097875
5568000,5568000,0.0023112358,-0.0024994747,0.00041699983
5588000,5588000,-0.0008710588,0.0018500858,0.0004733384
5608000,5608000,-0.0011296157,0.002843105,0.00076641416
5628000,5628000,0.001773597,-0.002327401,0.0007684701
5648000,5648000,0.0020005004,-0.00033679383,0.0006688434
5668000,5668000,-0.0059194686,-0.0036225216,0.00064325496
5688000,5688000,0.00095246395,0.00080043235,0.0009064936
5704000,5704000,-0.0043300968,0.0037956154,0.0005789773
5728000,5728000,-0.0012322969,-0.00014086452,0.0005779535
5748000,5748000,-0.003852033,0.001904698,0.0007455226
5768000,5768000,0.0017169811,0.004745961,0.0003471939
5788000,5788000,-0.0063677323,0.0035705082,-0.00037691896
5808000,5808000,0.0006662961,0.0018521176,8.6162225e-05
5828000,5828000,-0.0027104288,0.0015534582,0.00035501656
5848000,5848000,0.00092789606,0.0018228597,0.00067805586
5868000,5868000,0.0013277757,0.001315215,0.062004376
5888000,5888000,-0.0032124256,-0.0016867619,0.04789824
5908000,5908000,-0.0031576836,0.0024390935,0.03754626
5928000,5928000,-0.0006280561,0.0025567818,0.029184017
5948000,5948000,0.0016860957,0.0015684196,0.022642847
5968000,5968000,0.0006431906,0.0018621661,0.017677117
5988000,5988000,0.0005797145,0.0032094629,0.013405487
6008000,6008000,-0.0031480202,0.0008034186,0.010619707
6028000,6028000,-0.0016292089,-0.0024072905,0.008313813
6048000,6048000,-0.0051764264,-0.00040242242,0.0063177375
6068000,6068000,-0.0031361943,-6.474089e-06,0.004783156
6088000,6088000,0.002263944,-0.0024609733,0.0036048128
6108000,6108000,-0.0013406507,0.00578186,0.0026636343
6128000,6128000,-0.0015720355,0.0014101997,0.0019523064
6148000,6148000,0.004731272,-0.0017470488,0.002103121
6168000,6168000,0.0024043596,0.0014039314,0.0017065104
6188000,6188000,0.0040170997,0.00033701948,0.0014379304
6208000,6208000,0.00046140997,-0.0005065985,0.001078539
6228000,6228000,-5.7111592e-05,0.0009978267,0.00091078674
6248000,6248000,-0.00090264424,0.0021839538,0.0008761253
6268000,6268000,0.0013690537,0.0019531567,0.0009251453
6288000,6288000,-0.0013983366,0.0015285925,0.00057762925
6308000,6308000,-0.0016140728,0.0031742337,0.00037198365
6324000,6324000,0.0020986267,-0.00073049753,0.00028856096
6348000,6348000,-0.0045849658,0.005999104,0.0004028599
6368000,6368000,-0.0031220051,0.00026929344,0.00061421667
6388000,6388000,0.00052728405,0.0013127988,0.00078078994
6408000,6408000,0.0020555363,0.0007828068,0.0004347153
6424000,6424000,-0.0023899204,-0.0021527791,0.00045322042
6448000,6448000,-0.0004925305,0.0019310695,0.00021830782
6468000,6468000,0.0054776515,-0.00093531143,0.00023833053
6488000,6488000,0.0032738128,0.0020468887,-8.9618436e-05
6508000,6508000,-0.0001889184,-0.0016035098,-0.00040956418
6528000,6528000,0.0009955772,0.0057205446,-0.00041601478
6548000,6548000,0.00023608358,0.00091836177,-0.00042018137
6568000,6568000,-0.003468713,-0.005188638,-0.0008828386
6588000,6588000,0.003096193,0.0017824951,-0.0010110502
6608000,6608000,0.0019967696,0.0019063877,-0.00058005395
6628000,6628000,-0.002223676,-0.0034436644,-0.00022583106
6644000,6644000,0.0022061677,-0.0039051152,-0.00018753679
6668000,6668000,0.0042125564,-0.0044257054,-0.00016689734
6688000,6688000,0.000956772,0.0051801465,0.00026197697
6708000,6708000,-0.0036402857,0.002036237,0.00016921424
6728000,6728000,0.0010615506,0.0033677074,0.00070898625
6748000,6748000,0.00016443369,-0.0018584051,3.2272037e-05
6768000,6768000,0.00081730355,1.8849823e-05,4.577703e-05
6788000,6788000,0.0017991568,0.0074086655,-0.00017137328
6808000,6808000,0.0009334361,-0.003075688,-0.0005389945
6828000,6828000,0.0019513452,0.003278153,-0.0005830878
6848000,6848000,0.002809704,0.0039869007,-0.00063678436
6868000,6868000,0.00040731713,-4.6556816e-06,-0.0005659376
6888000,6888000,-0.003976154,0.0045961975,-0.0006525805
6908000,6908000,-0.002775475,0.0008246435,-0.0007173916
6928000,6928000,-0.00011712748,0.0043159826,-0.0004511902
6948000,6948000,-0.0031746747,0.002607244,-0.00029325119
6968000,6968000,0.0024408957,0.0014297743,0.00014891052
6988000,6988000,0.00042241428,-0.00045448547,-0.00036165136
7004000,7004000,-0.00061315915,0.0011175348,-9.402486e-05
7028000,7028000,-0.0026196851,-2.727029e-05,0.0003022159
7048000,7048000,0.00096547714,-0.0011424881,0.0004183826
7068000,7068000,0.0013441001,-0.0011226793,0.0003398299
7088000,7088000,-0.003572538,0.0025369592,-0.00019445615
7108000,7108000,-0.0030583816,0.0037217522,-0.0002866244
7128000,7128000,-0.0029426971,0.0009766656,-7.8002195e-05
7148000,7148000,-0.0018320607,0.0033567692,-0.0004204468
7168000,7168000,-0.00046161067,-0.00096501654,-0.00049828645
7188000,7188000,-0.0031318676,-0.00087345566,-0.00031306953
7204000,7204000,0.00017628662,0.0040026563,-0.00053665694
7228000,7228000,-0.0004309347,0.0023741708,-0.00022570885
7248000,7248000,-0.007619326,-0.0015463863,-0.00012979834
7268000,7268000,-0.0036176771,0.0035256736,-0.00012997258
7288000,7288000,-0.0015794341,0.0005093231,7.89889e-05
7308000,7308000,-0.0014534898,0.001052741,-0.0002535213
7328000,7328000,-0.0005612416,0.0022517368,-7.832395e-05
7348000,7348000,-0.0002687035,0.0008845539,0.00024967478
7368000,7368000,-0.0037395228,-0.002728589,0.00043984168
7388000,7388000,0.0007160837,-0.002873826,0.00017121655
7408000,7408000,-0.00015738897,0.005536196,-0.0002749487
7428000,7428000,0.0031871446,0.0005465637,-0.00036126608
7444000,7444000,-0.0037831012,0.0065791328,-0.0003070357
7468000,7468000,0.00084711856,0.0004019678,-0.00032236072
7488000,7488000,-0.0015677256,0.0016147137,-1.1363427e-05
7508000,7508000,-0.0004815191,0.0015234872,3.6442492e-05
7528000,7528000,-0.0026349,-0.0010705758,0.00020266869
7548000,7548000,-0.0012022621,0.00029189186,9.170665e-05
7568000,7568000,0.0027802226,0.0022673944,0.00028967133
7588000,7588000,-0.0026907006,-0.0010318478,0.0003190086
7608000,7608000,0.0018898963,0.0014527668,0.0005323941
7628000,7628000,-0.0032385383,0.00043006014,0.0009502447
7648000,7648000,-0.0024114707,-0.005775109,0.0011983659
7668000,7668000,-0.00017394987,0.0025092307,0.0012841009
7684000,7684000,0.0011739705,0.002769451,0.0012389356
7708000,7708000,-0.0028062344,-0.0073826867,0.00032163115
7728000,7728000,-0.0023956988,0.00027762994,0.00074250903
7748000,7748000,0.0023815609,-0.00092765846,0.00046931516
7768000,7768000,-0.008157763,-0.0008524901,0.0007912811
7788000,7788000,-0.0010618588,0.0034467005,0.0006655032
7808000,7808000,0.0008869831,-0.0028660323,0.00063956727
7828000,7828000,8.40344e-06,-0.0010677581,0.0003028005
7848000,7848000,-0.0021155905,0.00064270536,3.5630343e-05
7868000,7868000,0.0020055608,6.532506e-05,-0.00016804892
7888000,7888000,-0.0029775607,0.0031923512,3.386183e-05
7904000,7904000,0.002703236,0.0025181253,-0.00012120087
7928000,7928000,-0.0018447861,0.0014354198,-7.82233e-05
7948000,7948000,-0.0016454308,0.0013116414,-0.00018060529
7968000,7968000,-0.0037250163,0.0030244587,-1.3500747e-05
7988000,7988000,-0.007557921,0.0014919868,0.0002719232
8008000,8008000,0.007859808,0.00069271337,0.00026941235
8028000,8028000,0.00049258815,-0.0037257401,0.00031999362
8048000,8048000,-0.0027121662,-0.0027280245,0.00085641013
8068000,8068000,-0.0030068173,0.0029821433,0.0011080597
8088000,8088000,0.002251324,-0.0030774784,0.00097494014
8108000,8108000,-0.00043585367,-0.0016199745,0.0013528585
8128000,8128000,-0.00049578515,0.0019333274,0.0013481987
8148000,8148000,0.0026945663,-0.003376274,0.001234051
8168000,8168000,-0.0009480041,-0.0026320845,0.001138394
8184000,8184000,0.0005497808,0.0004763638,0.00077742536
8208000,8208000,0.0018013716,-0.0026214647,0.0006204033
8228000,8228000,-0.0012605294,0.0031171476,3.9931096e-05
8248000,8248000,-0.0013120014,-0.004407949,3.597984e-05
8268000,8268000,-0.0015898903,0.001996911,0.00020337036
8288000,8288000,0.0018778783,0.0033471014,8.037632e-05
8308000,8308000,-0.0020547113,0.0007426923,0.0001361941
8328000,8328000,-0.0046839905,-0.00024993485,0.00033075002
8348000,8348000,0.001721073,0.001686607,0.00019713813
8368000,8368000,-0.0004892208,0.0048239594,0.00024007591
8388000,8388000,-0.0027929735,0.0023186984,0.00025069845
8408000,8408000,0.00042566174,-7.724608e-05,0.00011460042
8428000,8428000,-0.0029410108,0.0020401208,0.0005433273
8448000,8448000,-0.0024280497,0.00047564076,0.0011550987
8468000,8468000,0.0005063938,-0.00016431342,0.0011003668
8488000,8488000,0.002455361,-0.0013364337,0.0007255047
8508000,8508000,-0.0026783864,-0.0023997864,0.0004894
8528000,8528000,-0.0017264241,0.0011177701,0.0003994243
8548000,8548000,-0.0019071065,-0.005061553,0.0005853575
8568000,8568000,-0.00035990536,0.0037902317,0.0007529819
8588000,8588000,0.0028743206,-0.0025619273,0.0006036195
8608000,8608000,-0.0013571723,0.0020544054,0.0007451377
8628000,8628000,-0.0035338188,-0.00088197336,0.0009172814
8648000,8648000,0.00083487097,-0.0013641943,0.00082098704
8668000,8668000,-1.802096e-05,0.0023322615,0.0007909147
8688000,8688000,-0.0025354563,0.0011615796,0.00076902454
8708000,8708000,0.002703949,-0.0017974038,0.00069487
8728000,8728000,-0.00036843063,-0.003971708,0.00026143139
8748000,8748000,0.002458324,-0.0018235447,0.00011734785
8768000,8768000,0.0034036613,-0.0005056965,0.00019819764
8788000,8788000,-0.005496077,-0.003011886,0.00071133836
8808000,8808000,0.0021780403,0.0021754126,0.0006471958
8828000,8828000,-0.0017137495,-0.0025003043,0.00032406847
8848000,8848000,-0.007753621,-0.0014593868,2.269763e-05
8868000,8868000,-0.006099659,-0.004204805,0.00013515208
8888000,8888000,-0.0019264593,0.0010523642,0.00064750575
8908000,8908000,-0.0034169243,-0.0007606817,0.000586459
8928000,8928000,0.00040401297,7.283653e-05,0.00083292497
8948000,8948000,0.0017290509,-0.0010023869,0.0010296807
8968000,8968000,-0.005333541,-0.0011533577,0.0005948208
8988000,8988000,0.0019514565,-0.003669568,0.000306672
9008000,9008000,0.000581846,-0.00019130472,0.0002507014
9028000,9028000,-0.003169945,-0.0044337064,0.0004976116
9048000,9048000,0.0013206388,0.00092522375,-3.6277583e-05
9068000,9068000,-0.004085136,-0.0034247315,-5.843434e-05
9088000,9088000,-0.0010136092,-0.001343846,-0.00012040302
9108000,9108000,-0.0017242375,-0.0018336573,8.0102625e-05
9128000,9128000,-0.0011318175,-0.0004435689,-5.851667e-06
9148000,9148000,-0.0004038175,0.0027246561,-0.00014743698
9168000,9168000,0.004543029,0.001797525,-0.0002443393
9188000,9188000,-0.0054316884,0.0010073214,2.0046944e-05
9208000,9208000,-0.0034727568,-0.001407538,-5.6164667e-05
9228000,9228000,-0.0006536532,-0.00047102122,0.0001508441
9248000,9248000,-0.0034846726,0.00054675166,4.7373193e-05
9268000,9268000,0.0003042941,0.0011466607,-0.00022216336
9288000,9288000,-0.0027432695,-0.0005855526,8.1110615e-05
9308000,9308000,0.00038068957,-0.0007199809,0.00012500705
9328000,9328000,-0.0024506906,-0.0033409982,0.00019232866
9348000,9348000,0.0011043183,-0.0027246815,0.000290473
9368000,9368000,-0.004303986,-0.0002044203,0.00048786486
9388000,9388000,0.0007076746,-0.00794752,0.0004820036
9408000,9408000,-0.003551479,0.0032198709,0.0005156661
9428000,9428000,-0.0034107673,-0.000904517,0.0003039749
9448000,9448000,0.0033205394,0.0019484772,0.0003340063
9468000,9468000,-0.00021019166,2.3948378e-05,0.00039899125
9488000,9488000,-0.005696943,-0.0021399716,6.632205e-05
9508000,9508000,-0.0018290463,-0.0020200082,-0.00018464713
9528000,9528000,0.004339477,-0.005305458,-4.9347414e-05
9548000,9548000,0.0017519349,-0.0021173407,6.531496e-05
9568000,9568000,-0.003567947,-0.002296769,5.4515378e-05
9588000,9588000,0.002294146,0.0023013295,0.00011108518
9608000,9608000,0.0014535165,-0.0051453793,9.408464e-05
9628000,9628000,-0.0012340602,-0.0018376294,-5.473116e-05
9648000,9648000,-0.002440541,-0.0053407983,9.8808974e-05
9668000,9668000,0.0037051435,0.000980313,0.0001060227
9688000,9688000,-0.0013234534,0.004293934,0.00022091856
9708000,9708000,-0.0017997946,-0.0020776053,0.00040838768
9728000,9728000,0.001199482,-0.0033889827,0.0003213713
9748000,9748000,-0.0010466755,-0.0042441487,0.0008628167
9768000,9768000,0.0013684157,-0.0037097326,0.00049792184
9788000,9788000,-0.0025934717,0.0019263724,-7.353279e-06
9808000,9808000,-0.004253179,-0.004531852,3.8122133e-05
9828000,9828000,0.0010868078,0.004373658,-0.00021177622
9848000,9848000,0.002873613,-0.004472118,-0.00068306783
9868000,9868000,-0.00069453975,0.0034064301,-0.00023284325
9888000,9888000,-0.0022065102,0.0014067417,-0.00024754158
9904000,9904000,0.00051815424,0.003199501,-0.0004741417
9928000,9928000,-0.0006070857,-0.00058865914,-0.0007213537
9948000,9948000,-0.0013445651,-0.005835333,-0.001167915
9968000,9968000,0.00029528348,-0.0006920755,-0.0011556941
9988000,9988000,-0.002114025,0.0018260211,-0.0007847928
10008000,10008000,-0.0047266185,-0.0020376197,-0.00041089172
10028000,10028000,-0.0030138441,0.00019936409,-0.00023036363
10044000,10044000,-0.0022671008,0.0010269838,-0.00010074752
10068000,10068000,-0.0054535125,-0.0010547921,7.051566e-05
10088000,10088000,-0.00083005225,0.0018010768,0.00023994413
10108000,10108000,0.0009969439,0.0022620894,0.00025956696
10128000,10128000,-0.003990361,-0.0004923319,-0.00017892825
10148000,10148000,-0.0013215505,-0.0067589777,-0.00016143447
10168000,10168000,0.00023659511,-0.00082630146,-0.0001250889
10188000,10188000,0.0026789252,-0.00061504595,-0.00032341998
10208000,10208000,0.001146327,-0.00093255995,-8.763066e-05
10228000,10228000,-0.0007068212,-0.0034177308,0.00013540749
10244000,10244000,-0.001422321,-0.0018111505,9.393359e-05
10268000,10268000,-0.0007714396,-0.001210005,-1.8912935e-05
10288000,10288000,-0.0049123215,0.0031581582,0.00033704223
10308000,10308000,0.0013971168,0.0007114815,0.0005412632
10328000,10328000,0.0015427589,-0.00030150852,0.000359659
10348000,10348000,-0.00390945,0.0012495661,0.00039774473
10368000,10368000,0.0011819081,0.0018722648,0.00017591305
10388000,10388000,-0.005241636,-0.0015118935,6.6094326e-05
10408000,10408000,-0.0025297222,-0.00427212,-8.9774054e-05
10428000,10428000,-0.0006619849,-0.008984232,0.00015346656
10448000,10448000,-0.0020412127,0.0039933156,0.0004880776
10468000,10468000,0.004097594,-0.0016810794,-8.527063e-05
10488000,10488000,-0.0017806981,0.0065846834,-0.0001941867
10508000,10508000,0.0007366841,0.00090317376,-7.701512e-05
10528000,10528000,-0.0032282206,-0.0005855852,-0.00013814394
10548000,10548000,0.0016487873,0.0037484658,-0.0001351976
10568000,10568000,-0.007063427,-0.0010103134,0.00019028137
10588000,10588000,0.0010661989,-0.0030005556,0.00028070842
10608000,10608000,-0.0014072006,-0.0006949301,0.00043690778
10628000,10628000,0.0012104567,0.0017336914,0.00047489977
10648000,10648000,-0.00026900345,-0.001783909,0.0006937968
10668000,10668000,-0.003047442,0.0022762858,0.0008733788
10688000,10688000,0.0009361515,0.0010005961,0.0006794413
10708000,10708000,0.00080261304,0.00013799351,0.00041723595
10724000,10724000,-0.0022087563,-0.002404002,0.00034282502
10748000,10748000,-0.0011124585,0.0020092765,0.0002323215
10768000,10768000,0.0026416625,0.00079400063,0.00027318142
10784000,10784000,-8.167175e-06,-0.0046064006,0.0003224019
10804000,10804000,-0.0067534694,-0.0038307419,0.0006360407
10828000,10828000,0.0018814707,-0.0044324542,0.00069346034
10848000,10848000,-0.0015023823,0.000118528726,0.0008738184
10868000,10868000,0.0017894751,0.0038381733,0.00071463996
10888000,10888000,-0.001174245,0.0014012298,0.0004926868
10908000,10908000,0.0008135621,-0.0026647127,0.00021799997
10928000,10928000,-0.0041502984,-0.004024121,0.00014641506
10948000,10948000,0.0015021234,0.00081850984,0.00022496424
10968000,10968000,-0.00097193033,-0.0055623343,4.9179616e-05
10988000,10988000,-0.003951079,-0.00069873454,-0.00025135942
11008000,11008000,-0.002556719,0.00048189328,1.881348e-05
11028000,11028000,0.00086690753,0.00080712535,-0.00022364703
11048000,11048000,-0.0036470415,0.0018408345,-0.00014283603
11068000,11068000,0.0043513672,-0.0044257035,7.739448e-05
11084000,11084000,-0.0010122553,0.0006368678,0.00025816512
11108000,11108000,-0.0023116998,-0.00080129516,0.00029885868
11128000,11128000,-0.0014519317,-0.0010207412,0.00018219302
11148000,11148000,0.001956555,0.0014842004,9.519094e-05
11168000,11168000,0.0019035405,-0.0010573865,0.0005605739
11188000,11188000,0.0027613174,0.0006113113,0.0003586059
11208000,11208000,0.0025436839,-0.0012557658,0.00035488783
11228000,11228000,-0.002197875,-0.005835237,0.00059593405
11244000,11244000,-0.0058254492,-0.0031466065,0.0009265265
11268000,11268000,-0.0042695915,0.0025252264,0.0005767604
11288000,11288000,-0.0030809385,-0.0013798794,0.00014744584
11308000,11308000,0.0016030524,0.0020068786,-8.7095745e-05
11328000,11328000,-0.0025164408,-0.002444102,-0.00016202497
11348000,11348000,-0.00037045957,0.0027255253,-0.00027201517
11368000,11368000,-0.0031977794,0.0017255847,-0.0004460662
11388000,11388000,0.00046722894,-0.0051723244,-0.00036710748
11408000,11408000,0.0011467488,1.917906e-05,-0.00010362564
11428000,11428000,0.0010775834,-0.00075947854,-8.430921e-06
11448000,11448000,0.0012290042,-0.0021668419,-0.00015464195
11468000,11468000,0.0019692727,-0.0017065267,2.1156666e-05
11488000,11488000,-0.0023898652,0.001859051,0.00026124966
11508000,11508000,-0.003059417,0.0018827983,0.00040377278
11528000,11528000,-0.004526096,-0.0005506176,0.0004996217
11548000,11548000,-0.000412803,-0.0045849103,0.00034092643
11568000,11568000,-0.0019203993,0.0013568597,0.00024236977
11588000,11588000,0.0023466304,0.00023531023,0.00026710832
11608000,11608000,0.0012553558,-0.0013455669,-0.00026214545
11628000,11628000,0.0018139922,0.001180569,-0.0003932398
11648000,11648000,-0.0047821198,-0.002025742,0.00022527084
11668000,11668000,0.0032766515,0.0010656207,0.00013596143
11688000,11688000,0.0016978213,0.0013418494,0.000117216245
11708000,11708000,0.00090555963,-0.0047480552,0.00024125766
11728000,11728000,0.001252388,0.004504702,0.00068833306
11748000,11748000,-0.00025856885,-0.0005798001,0.00083002524
11768000,11768000,0.0011104957,-0.0020551395,0.0007598885
11788000,11788000,0.0051940773,-0.005539838,0.0005213284
11808000,11808000,0.0003534773,0.0012245444,0.00012477007
11828000,11828000,0.0022634924,-0.0066481372,-0.0001692464
11848000,11848000,0.00074454176,0.0009920212,-0.00035603574
11868000,11868000,0.0008025875,-0.0014407666,-0.00030126865
11888000,11888000,-0.0017037987,-0.005014252,-0.00011967579
11908000,11908000,-0.00025756616,0.004716595,-2.6261478e-06
11928000,11928000,0.003500483,-0.00058964454,-0.00010838018
11948000,11948000,-0.0020019312,0.003476917,-0.00037886546
11968000,11968000,0.000686117,0.0014581492,-0.00044306155
11988000,11988000,0.004931373,0.00030004987,-0.0004242647
12008000,12008000,0.0019447191,-0.0007520972,-0.00019114291
12028000,12028000,-0.0011349269,0.0030844545,-0.0002425338
12048000,12048000,0.0032959285,0.003520025,0.00010462126
12068000,12068000,0.00082907587,-3.5782345e-05,0.0003302275
12088000,12088000,-0.0036302821,-0.0021911082,0.00032150745
12108000,12108000,-0.0001867954,-0.0007997087,0.00021576026
12128000,12128000,0.0025665546,0.00079200993,-2.812891e-05
12148000,12148000,-0.00071301614,-0.00236568,-0.00010739565
12168000,12168000,-0.0024578436,-0.0018820621,-4.6628855e-05
12188000,12188000,-0.0011036284,0.0006233992,-0.0001573793
12208000,12208000,0.006662622,-0.0026990792,0.00028643088
12228000,12228000,0.0014377062,0.0007424238,0.00019080064
12248000,12248000,-0.0024002425,-0.002967698,4.169968e-05
12268000,12268000,0.0009930694,-0.0036481204,0.00021028264
12288000,12288000,-0.0036728284,0.0003705083,0.0003219507
12308000,12308000,-0.0028832438,-0.0038299821,0.00055148406
12328000,12328000,0.002443993,-0.0038596182,0.00058210205
12348000,12348000,0.0019431963,-0.0013667981,0.0002515107
12368000,12368000,0.0020918152,0.0011984173,8.0937796e-05
12388000,12388000,2.7175702e-07,-0.005283274,0.0003698806
12408000,12408000,-6.796463e-05,-0.002041357,0.00053629105
12428000,12428000,9.953987e-05,-0.002799577,0.00069997483
12448000,12448000,0.0002137117,-0.0013756158,0.00044958678
12468000,12468000,-0.0036329867,-0.004646791,0.00047363536
12488000,12488000,-0.0028982188,-0.0019471945,0.00076686055
12508000,12508000,0.0029785521,-0.0022977954,0.00076746853
12528000,12528000,0.002062257,-0.0032345748,0.0005419564
12548000,12548000,-0.0025584647,-0.00080291583,0.0005000025
12568000,12568000,-0.0012069624,0.001506382,0.00018845944
12588000,12588000,-0.0002960438,-0.0009839113,-0.00023234775
12608000,12608000,0.00019386953,-0.0014307848,-0.00034725765
12628000,12628000,-0.00050980924,2.315169e-05,-0.0006304149
12648000,12648000,0.0012116731,0.00020792917,-0.00029475678
12668000,12668000,-0.00037777115,0.0019854107,-4.9857994e-05
12688000,12688000,0.0014059609,0.0013362281,0.0001271461
12708000,12708000,0.004518937,-0.0012947741,0.00013805364
12728000,12728000,0.0037640184,-0.0007848465,0.00027956898
12748000,12748000,-0.002957637,0.0013030085,0.0004085987
12768000,12768000,0.001561726,-0.0025322998,0.00043703153
12788000,12788000,0.003420862,0.0024696924,0.0003103533
12808000,12808000,0.0007826424,0.004654715,0.00023452059
12828000,12828000,-0.00024140615,-0.003353986,0.00034343894
12848000,12848000,-0.0030038054,-0.0037323353,0.0002761057
12868000,12868000,0.0040836358,0.007352669,0.00019816749
12888000,12888000,-0.0017648031,-0.0021018004,-0.00014888891
12908000,12908000,-0.0013106788,0.0028738894,-0.0007965603
12928000,12928000,0.0020532291,-0.00027399426,-0.00052942574
12948000,12948000,0.0011480664,-0.005808949,0.00020711955
12968000,12968000,0.0020890618,0.0066852695,0.00039340026
12988000,12988000,-0.0012641922,0.0028237998,0.00033551143
13008000,13008000,0.0028651615,0.0036927063,-3.9647282e-05
13024000,13024000,-0.0007743477,-0.0022199207,-0.00016541017
13048000,13048000,0.00082226633,-0.00062145334,-0.00038882456
13068000,13068000,0.0019065429,0.0013198184,-0.00043538265
13088000,13088000,0.00443791,-0.002828556,-0.0003257364
13108000,13108000,0.0019789264,0.0034051528,-0.00014930179
13128000,13128000,-0.00228581,0.0014722592,2.0862812e-05
13148000,13148000,0.0012066381,-0.0042624697,0.000576996
13168000,13168000,-0.0032193973,3.6408106e-05,0.00085557933
13188000,13188000,0.0043886052,-0.002499335,0.0005122373
13208000,13208000,0.0006672896,-0.00069172215,0.0005213023
13228000,13228000,-0.0019269395,0.00720807,0.00059677794
13248000,13248000,-0.0024075315,-0.003707402,0.0005380604
13268000,13268000,0.008191056,-0.003068031,0.00036391657
13288000,13288000,0.00039141838,0.0028847302,0.00040426865
13308000,13308000,0.002324692,-0.004393842,0.00029815573
13328000,13328000,-0.0045502456,0.004627916,-0.00013085778
13348000,13348000,-0.0003741758,-0.0051194616,-3.5218778e-05
13368000,13368000,-0.0007909216,0.00077940733,0.00041812885
13388000,13388000,0.002682413,0.0065448475,0.00027429237
13408000,13408000,0.0032605873,-0.0036490415,3.5710415e-05
13428000,13428000,-0.0009658639,0.0018519755,0.00028166967
13448000,13448000,-0.0017674139,-0.007236352,-0.00013303178
13468000,13468000,0.0020743287,-0.0035864688,0.00015590077
13484000,13484000,0.0010083863,0.0014815315,0.0002950997
13508000,13508000,0.0021728352,-0.0026919935,0.00053674233
13528000,13528000,0.0015504404,-0.0013845874,0.0006494157
13548000,13548000,0.006083592,0.00042639667,0.00029910737
13568000,13568000,-0.0017142274,-0.0021670947,0.00034758355
13588000,13588000,0.0025089278,-0.0012290422,8.7320805e-05
13608000,13608000,-0.00046093483,0.0034504172,-3.675068e-05
13628000,13628000,-0.00611291,-0.004855751,0.000406256
13648000,13648000,0.0012382295,-0.0020214848,-4.379553e-05
13668000,13668000,0.0016376106,0.0035430137,-0.00012497361
13688000,13688000,0.002549511,-0.0055031115,-0.00025365566
13708000,13708000,-0.0017883035,0.0012496888,-2.0676198e-05
13728000,13728000,0.0034370867,0.0009705354,-0.00020223577
13744000,13744000,0.005184233,-0.00050830055,-0.00016954096
13768000,13768000,0.003657531,-0.0007635524,-0.00019578185
13788000,13788000,0.0024562052,0.0022275797,-0.00014143222
13808000,13808000,-0.0014370787,0.0022177948,-0.00011603288
13828000,13828000,-0.0007984142,-0.0023641363,0.0002679707
13848000,13848000,0.00480654,-0.002526403,0.0003939729
13868000,13868000,0.00380588,-0.00061650935,0.00064780767
13888000,13888000,-0.00029708224,-0.00032976078,0.00054527976
13908000,13908000,0.0034414479,-0.008463556,-0.00011024109
13928000,13928000,-0.0033941101,0.002845646,0.00018035281
13948000,13948000,0.007203562,0.0022316573,0.00042248017
13968000,13968000,0.0030331647,-0.0033996652,0.00033636348
13988000,13988000,-0.0012096197,-0.004399214,0.00020392452
14008000,14008000,0.004102606,0.0011314334,0.00011910919
14028000,14028000,0.0011868945,-0.0023663258,-8.717764e-05
14048000,14048000,0.004143781,0.00049135106,-0.0002758183
14068000,14068000,0.0038310378,-0.00068361853,-0.00033852636
14088000,14088000,-0.0017916447,0.0017265356,-0.0003199506
14104000,14104000,-0.000422976,-0.0031492321,-0.00062899286
14128000,14128000,0.0042577945,3.2062904e-05,-0.0004328321
14148000,14148000,-0.003203681,-0.00011511559,-0.00044497065
14168000,14168000,0.00101539,0.0027610515,-0.0003754993
14188000,14188000,0.001719377,0.0026279746,0.0002451876
14208000,14208000,0.003643829,-0.00081229134,0.00023307004
14228000,14228000,0.0020704104,0.00036711572,0.0001628733
14248000,14248000,-0.004521769,-0.00038497627,-0.0001856854
14268000,14268000,-0.00088747044,0.0009356957,-0.00033838765
14288000,14288000,0.0009810005,-0.0020577519,-7.9261095e-05
14304000,14304000,0.0019402585,9.368177e-05,0.00036661507
14328000,14328000,-0.0014082998,-0.002577764,0.0006062892
14348000,14348000,0.0005314521,0.0041501727,0.0003471642
14368000,14368000,-0.00048731655,-8.946308e-05,0.00058643357
14388000,14388000,0.0014128564,0.001400948,0.00070428767
14408000,14408000,0.0028496054,-0.00062545424,0.00080176274
14428000,14428000,-0.0011754694,3.4524273e-05,0.00045431824
14448000,14448000,-0.0013801176,0.0027125564,0.00034938
14468000,14468000,-0.0015085964,0.003799559,0.0003406795
14488000,14488000,0.0043422934,0.0008586389,5.511265e-06
14508000,14508000,-0.0019985163,7.220147e-05,-0.00034375058
14528000,14528000,-0.0018881347,0.0062272185,-0.00040676942
14544000,14544000,0.0009219978,-0.0009470176,-0.00050285953
14568000,14568000,0.0063618543,0.00161168,-0.00069530885
14588000,14588000,-0.0045476896,-0.0022705712,-0.0005635464
14608000,14608000,0.003966717,0.004937293,-0.000547331
14628000,14628000,-0.00059120136,-0.0018696524,-0.00050167943
14648000,14648000,0.002202747,0.001290136,-0.00013272052
14668000,14668000,0.0034212363,-0.001639977,-0.00012536168
14688000,14688000,0.00030748412,0.0019763077,-0.00014561816
14708000,14708000,0.00077027123,0.002653947,-0.00010024027
14728000,14728000,-0.0011432669,-0.004855201,0.00014850995
14748000,14748000,0.0034243814,-0.0016818568,1.52536695e-05
14768000,14768000,0.0030538633,-0.0021121628,0.0003520316
14784000,14784000,0.0007950582,-0.0056205494,0.00035099534
14804000,14804000,0.0011634971,-0.0022536842,0.0003521963
14828000,14828000,-0.0015333472,-0.0012947924,0.00058626063
14848000,14848000,0.005249757,-0.0010365916,0.00071540894
14868000,14868000,0.0004968457,0.00078236836,0.00053677603
14888000,14888000,-0.0010399264,0.0005773328,0.00045035343
14908000,14908000,0.0017809065,-0.0016205183,0.00046253784
14928000,14928000,0.0026173815,-0.0006674542,0.0005275813
14948000,14948000,0.0009632632,0.0005252869,0.0004949517
14968000,14968000,0.0024761362,-0.00074910535,0.0006158323
14984000,14984000,-0.0036994827,-0.0012303827,0.0009690117
15008000,15008000,0.006165082,0.003006665,0.00082068547
15028000,15028000,-0.0029661441,0.0022295725,0.0005476036
15048000,15048000,0.0034966313,-0.0026705808,0.00046512584
15068000,15068000,0.004450375,-0.008097675,4.836278e-05
15088000,15088000,0.0020503753,0.0010937492,-2.7095622e-05
15108000,15108000,0.003620253,-0.002264593,5.7293742e-05
15128000,15128000,-0.0006099016,-0.00046060316,-2.6181917e-05
15148000,15148000,0.003917703,-0.0011741205,0.00023142748
15168000,15168000,0.0022401805,-0.00044280867,-9.998017e-05
15188000,15188000,-6.4451684e-05,0.0010565799,-0.00041699226
15208000,15208000,0.0018552761,0.0012320139,-0.00041539784
15228000,15228000,0.0003274944,0.0014103975,-0.0006571128
15248000,15248000,-0.0072534,0.00033816835,-0.00012814857
15268000,15268000,0.0027016627,0.0001793963,-0.00038735662
15288000,15288000,0.0032984368,-0.0061599524,-0.00061058736
15304000,15304000,-0.0011670821,0.005043338,-0.00022608491
15328000,15328000,0.0036988552,-0.00038078267,-0.00026572563
15348000,15348000,-0.00046702847,-0.0019003464,-0.00048233927
15368000,15368000,0.0024341713,0.0011210878,-0.00017625571
15388000,15388000,0.0051783896,0.0028922772,-9.641667e-05
15408000,15408000,0.0020300434,0.0032511977,0.00013434715
15428000,15428000,4.249334e-05,-0.0009496509,0.00031199522
15448000,15448000,-0.0020726048,0.0007424657,0.00011276215
15468000,15468000,0.00068054476,0.00077133084,-0.00013038806
15488000,15488000,0.00049500144,-0.0029765288,-0.0002205178
15508000,15508000,-0.0014132045,0.0022741558,0.00018438537
15528000,15528000,0.002655154,-0.0003274272,0.00035174712
15548000,15548000,0.0031437578,-0.00079828734,0.00014003146
15568000,15568000,0.0034257967,-0.0032052975,-0.0003326867
15588000,15588000,0.0001306821,0.002164634,-0.00018175278
15604000,15604000,0.004852075,-0.001947175,-0.00036080257
15628000,15628000,0.003152858,0.0015790727,-0.00030519385
15648000,15648000,-0.001732735,-0.0032838285,-0.0003605564
15668000,15668000,-0.0022917173,-0.0016021,-0.00021069418
15688000,15688000,-0.0024293712,-0.0033976813,-0.00040652056
15708000,15708000,-0.00018162583,-0.0014832362,-0.00013783979
15728000,15728000,0.0037367642,0.0003125287,0.00034790236
15748000,15748000,0.0008794083,0.0019284457,0.0003855454
15768000,15768000,-0.0014129685,-0.0032154783,0.00039911133
15788000,15788000,0.0013256941,0.0008261362,0.00053021923
15808000,15808000,0.00064131466,0.0030458944,0.00011505097
15828000,15828000,0.002004485,-0.0037668734,0.00037279516
15848000,15848000,-0.0048062084,-0.0005898995,0.00033255716
15868000,15868000,-0.0010791097,0.0022577844,0.0001481496
15884000,15884000,-0.00083885354,-0.001194812,-0.00021042262
15908000,15908000,4.2466447e-05,0.000462135,-0.00013891312
15928000,15928000,0.0012395962,-0.0021958859,-0.0002454388
15948000,15948000,-0.0013431784,-0.00058574113,-0.0005545509
15968000,15968000,0.0023903036,-0.0036712491,-0.00033749995
15988000,15988000,0.0015500651,-0.0021999453,-0.00049802975
16004000,16004000,-0.0016845227,-0.00068185385,-0.00013736333
16028000,16028000,0.00088395807,0.0022637886,-0.00047263573
16048000,16048000,0.0015747137,-0.001303633,-0.00044042026
16068000,16068000,0.0003061734,-0.0003152851,-0.00059600465
16088000,16088000,0.0010959918,-0.0005642308,-0.00015798377
16108000,16108000,-0.0035967662,-0.0049703047,-0.00021094132
16128000,16128000,-0.0034501627,0.0032623257,-0.00023799064
16148000,16148000,0.0031306157,-0.00731319,-0.0006306793
16164000,16164000,0.0011666862,0.0016412515,-0.00020681796
16188000,16188000,0.0017544746,-0.0035809267,-0.0004810988
16208000,16208000,-0.004092107,-0.0023588405,-0.0005178501
16228000,16228000,0.0023431738,-0.0019618918,-0.00061901746
16248000,16248000,0.002821003,0.0019894708,-0.0007220701
16268000,16268000,-0.0006446063,0.0018320566,-0.0008464133
16288000,16288000,-0.006457926,0.0003512015,-0.0005826303
16304000,16304000,0.0020329093,-0.0011888469,-0.00043261348
16328000,16328000,0.0020135313,-0.00042750846,-0.000103835875
16348000,16348000,-4.792901e-05,-0.002985165,-0.00014245365
16368000,16368000,0.0008491498,-0.004343903,-0.00022300091
16388000,16388000,0.0012986257,-0.0016569248,-7.973322e-05
16408000,16408000,-0.00021639274,1.771131e-05,-0.00038576318
16428000,16428000,0.0022583595,-0.0040815566,-0.00048185652
16444000,16444000,-0.0007093758,0.0009113238,-0.00071733317
16468000,16468000,-0.0012534331,-0.0008504505,-0.0005169717
16488000,16488000,-0.0009417356,-0.003215863,-0.0004292181
16508000,16508000,0.004074667,0.00020864757,0.00023054097
16528000,16528000,-0.0043045953,2.0662788e-05,0.00042332773
16548000,16548000,-0.00273479,0.0014674213,-7.2571245e-05
16568000,16568000,-4.5739012e-05,-0.0042326767,-9.615355e-05
16588000,16588000,0.0049283416,0.0017143581,-0.0002412642
16608000,16608000,0.0038841292,-0.008895678,3.5990586e-05
16628000,16628000,-0.0028441823,0.001612034,8.96756e-05
16648000,16648000,-0.00033026814,-0.0043689287,0.00033386628
16668000,16668000,0.0021281205,0.00038068063,0.00045659856
16688000,16688000,0.0049125957,-0.0050458563,-8.575972e-05
16708000,16708000,-0.0057198876,0.0019419774,-0.00019059371
16728000,16728000,0.0015039148,-0.006523384,0.00033685577
16748000,16748000,0.00046247384,0.0040681544,0.00056683394
16768000,16768000,0.0025649054,-0.0029797559,0.00070085836
16788000,16788000,0.0021690119,-0.002743552,0.000687631
16808000,16808000,-0.0058459984,-0.0022462872,0.00040689358
16828000,16828000,-0.00045657274,-0.0023487143,-4.054272e-05
16848000,16848000,-0.0037346836,-0.004471044,0.0001400281
16868000,16868000,0.0012564382,0.0013520159,-0.00012770438
16888000,16888000,-0.0026235,-0.0052632955,-2.8080729e-05
16908000,16908000,-0.0033963646,-0.00049726595,-5.020237e-05
16928000,16928000,0.0033228146,-0.002715032,5.304662e-05
16948000,16948000,0.002428775,-0.0035244063,-0.00017240693
16968000,16968000,0.00020631572,-0.006269588,-0.00016607807
16988000,16988000,0.0017115871,-0.0063334936,-7.024904e-05
17012000,17012000,-0.0017681883,-0.0038271388,-0.0003033739
17028000,17028000,-0.000984184,0.00025184243,-0.00013651629
17048000,17048000,0.00026230625,-0.003648915,-0.00041071308
17068000,17068000,0.001574154,-0.004733646,-0.0002764693
17088000,17088000,-0.0007373111,-0.00017454798,-0.00012628711
17104000,17104000,-0.0036276733,-0.0038486836,-0.00017482287
17128000,17128000,-0.0015725659,-0.00019916752,-6.20854e-05
17148000,17148000,0.0023607775,-0.001583873,-0.00011224719
17168000,17168000,0.00047016586,-0.0013160743,-0.00026584294
17184000,17184000,0.0030641793,-0.00026520115,-0.00019912355
17208000,17208000,0.0027851837,-0.0038607568,-0.00015679694
17224000,17224000,0.0018960244,-0.0006512073,0.00014500844
17248000,17248000,0.0018406258,0.005987806,5.5372955e-05
17268000,17268000,0.0032902826,-0.0018679085,0.00022827325
17288000,17288000,0.0029842954,-0.0029290793,-1.7366645e-05
17308000,17308000,0.0011578483,0.00509915,-0.00019966811
17328000,17328000,0.0037382888,0.0014044009,-0.00019985596
17348000,17348000,-0.0017948552,-0.0050167413,-0.0004495105
17364000,17364000,0.006717851,0.0015911612,-0.00029028996
17388000,17388000,-0.0020926048,-0.0031561498,-0.00049681694
17408000,17408000,0.006055504,0.00257018,-0.0008914859
17428000,17428000,-0.0018647619,-0.0009934845,-0.00074774225
17448000,17448000,0.0024826094,-0.0021146247,-0.00093469874
17468000,17468000,0.0034819357,-0.00013606774,-0.0008227163
17488000,17488000,-0.00078220095,-0.0036585573,-0.0006298888
17508000,17508000,0.0009997634,-0.0024436207,-0.00038497578
17528000,17528000,0.0027196482,-0.003945289,-0.00027679408
17548000,17548000,0.0018938384,-0.0002485459,-0.0005033875
17568000,17568000,0.004876921,-0.0043335976,-0.0002797382
17588000,17588000,-0.0012709765,-0.0022404061,-0.00049882533
17608000,17608000,0.0007227195,-0.00393631,-0.000739046
17628000,17628000,0.002982203,-0.0034233867,-0.0006232106
17648000,17648000,0.00044306536,0.0005725386,-0.0005251745
17664000,17664000,0.00025392696,-0.005333649,-0.00039322753
17688000,17688000,-0.003145367,0.0021963622,-2.445071e-06
17708000,17708000,0.0060394695,-0.0020181844,-1.908109e-05
17728000,17728000,-0.004825237,-0.004134265,-9.026983e-05
17748000,17748000,0.0006466909,0.007018676,-0.00017465439
17768000,17768000,0.002746181,-0.0061076926,0.000115479656
17784000,17784000,0.0019498536,-0.0042656716,0.00035708514
17808000,17808000,0.0027357747,-0.0029456676,-0.00012885449
17828000,17828000,0.0020214545,-0.0037417805,-0.00014840336
17848000,17848000,0.0058790543,0.0040835696,-9.5687355e-05
17868000,17868000,-0.001376467,-0.003776415,-0.00032899622
17888000,17888000,0.0007567046,0.0022983623,-0.00011717014
17904000,17904000,-0.00089449366,0.0022570535,-0.00043083698
17928000,17928000,0.0021624179,0.00223421,-0.00014553752
17948000,17948000,-0.005002674,-0.0052390806,-6.677754e-05
17968000,17968000,0.00207351,0.0004691761,0.00023073843
17988000,17988000,0.00021941747,0.0006670904,0.0001298875
18008000,18008000,0.0016643394,-0.0028264676,4.5220215e-05
18028000,18028000,-0.0063152937,-0.005649072,0.00012206015
18048000,18048000,0.0031499048,0.0014184599,0.00044598625
18068000,18068000,0.00057392335,0.0020550005,0.0006193957
18088000,18088000,0.002976226,-0.0032019855,0.0010898868
18108000,18108000,0.0013862781,-0.0031375322,0.0006036591
18128000,18128000,-0.00061880006,-0.0045254687,0.0005100393
18148000,18148000,-0.00016997688,5.2516843e-05,0.00028773784
18168000,18168000,-0.0022451782,0.0017865276,0.0004434256
18188000,18188000,0.00063409057,0.0009181454,0.00032463137
18208000,18208000,-0.00070229644,-0.0035322807,0.0003120092
18228000,18228000,0.0015980661,0.0012657364,0.00022366353
18248000,18248000,0.003862184,-0.006867666,0.00023811476
18268000,18268000,0.0022561538,-0.0002462354,-0.00026177816
18288000,18288000,-0.0020180591,-0.0025538362,-0.00027842302
18308000,18308000,0.0022302282,-0.0016665151,-0.00015874908
18328000,18328000,0.0011895809,-0.000370441,-0.00075707614
18348000,18348000,0.0010384566,-0.0033802672,-0.00062940194
18364000,18364000,-0.0005361652,-0.00025498058,-0.00053515687
18388000,18388000,-0.0021863529,-0.0015998139,-0.00075647666
18408000,18408000,0.0042846752,-0.002588601,-0.00049685297
18428000,18428000,-0.00081944757,-0.0039054258,-0.0006046213
18448000,18448000,-0.0007491407,-0.0040050657,-0.00029099357
18464000,18464000,0.0055497386,0.0029659844,-9.1572845e-05
18484000,18484000,0.00010439748,-0.0022562635,-0.000107464206
18508000,18508000,0.001340391,0.00049347524,-0.000107813554
18528000,18528000,-0.0014381909,0.00020820406,2.3850962e-05
18548000,18548000,0.0015651991,-0.0021119807,-0.00014900263
18568000,18568000,0.00245962,0.0013575951,-0.00014535779
18588000,18588000,-0.0013465808,-0.0016754938,-0.00030874513
18604000,18604000,0.0008908009,-0.004810707,-0.00012038065
18628000,18628000,-0.0035002949,-0.0056505883,0.00012908995
18644000,18644000,0.0017699179,-0.0012074155,0.00011073073
18668000,18668000,0.004422182,-0.005018306,-0.00041037923
18688000,18688000,-0.003074229,0.0013244337,-0.00016560404
18708000,18708000,0.0026622256,-0.00292687,-0.0002468317
18728000,18728000,-0.002065974,-0.0030072955,-0.0004734651
18748000,18748000,-0.005422741,0.0021002616,-0.00044964746
18768000,18768000,-0.00047653326,-0.005757382,-5.3500407e-05
18788000,18788000,-0.0012621213,-0.0010318921,-3.812567e-05
18808000,18808000,0.0011437708,-0.0010379243,0.00021907597
18828000,18828000,0.00266474,-0.00054320507,0.0004275638
18848000,18848000,-7.374503e-05,0.0036763705,0.00035383628
18868000,18868000,-0.0021656894,0.0038280636,-9.064823e-05
18888000,18888000,-0.0053106844,-0.0030055728,0.00015761633
18908000,18908000,0.0003005361,-0.0014973255,8.2202336e-05
18928000,18928000,-0.0009998052,-0.0040320666,0.00047911794
18948000,18948000,0.0008660832,0.0017341606,0.0002273199
18968000,18968000,0.007549464,0.00020510866,-0.00027596293
18988000,18988000,0.0038247923,-0.0062322696,-0.00044677337
19008000,19008000,-0.001028342,-7.49249e-07,-0.00031533814
19028000,19028000,0.0042463946,-0.003961444,-0.0004038352
19044000,19044000,0.005396882,-0.0030348895,-0.00045531002
19068000,19068000,0.003813903,-0.0015526278,-0.00024082995
19088000,19088000,-0.00062992086,-0.0045339596,-0.0002828215
19108000,19108000,0.009259205,-0.00044628337,-0.00023288162
19128000,19128000,0.0020248294,-0.002848324,-0.00010473522
19148000,19148000,0.0043007475,0.00021544332,-0.00048517136
19168000,19168000,0.0032533417,-0.0027680083,-0.0008322713
19184000,19184000,0.0007356596,-0.0057965084,-0.0006318327
19208000,19208000,0.0026517748,-0.0037080664,-0.00089292345
19228000,19228000,-0.0044942945,-0.0013479722,-0.0004018003
19248000,19248000,0.0044377856,-0.002274557,-0.000505465
19268000,19268000,0.0064221956,-0.0026497806,-0.0004715079
19288000,19288000,0.0010400057,0.00019009027,-0.0008298441
19308000,19308000,-0.0025979986,-0.0057112956,-0.00046349072
19324000,19324000,0.00285092,-0.008015163,-0.00011641637
19348000,19348000,-3.8462807e-05,-0.0042025866,0.0001663655
19368000,19368000,0.0010336457,-0.003430097,-9.056784e-05
19388000,19388000,0.0076383585,-0.0047809877,-0.00012354573
19408000,19408000,0.00011665188,-0.0047307494,0.00033738717
19428000,19428000,0.00047765294,-0.0048731957,0.0008476968
19448000,19448000,0.00523699,-0.005379995,0.00075870357
19468000,19468000,0.0015054793,-0.0018949765,0.0006461229
19488000,19488000,-0.00022631307,-0.0017459614,0.00048633118
19508000,19508000,0.00050748675,-0.0043481067,0.00016305076
19528000,19528000,0.0013748683,-0.0072014625,0.00011743493
19548000,19548000,0.00092183665,0.0012230258,0.00041381962
19564000,19564000,0.00063879247,-0.0070805745,0.00010823073
19588000,19588000,-0.0028590853,-0.0052774297,0.0001599051
19608000,19608000,0.0015736388,-0.006127975,-0.00019289486
19628000,19628000,-0.00082855916,-0.0056616236,-0.0002659757
19644000,19644000,0.0026557604,-0.006955553,0.00023597533
19668000,19668000,0.0040908167,-0.0082669975,0.0007649902
19688000,19688000,0.0015620948,-0.00229846,0.00083205546
19708000,19708000,0.0019684937,-0.0047121756,0.00056544103
19728000,19728000,-0.006275245,-0.011160273,0.0007064951
19748000,19748000,0.002526767,-0.004396175,0.0012269702
19764000,19764000,0.006498251,-0.0045327563,0.0013503926
19788000,19788000,0.007300621,-0.0063958024,0.0009764369
19808000,19808000,0.00038726674,-0.005950937,0.0012824713
19828000,19828000,0.0035100763,-0.0048729526,0.0014179883
19848000,19848000,-7.7450415e-05,-0.0027857423,0.0011407444
19868000,19868000,-0.0023750104,-0.010813763,0.00085560663
19888000,19888000,0.007214077,-0.0074866316,0.001053397
19908000,19908000,0.0019342548,-0.002621706,0.0006466469
19928000,19928000,0.0048575914,-0.009330692,0.00025293604
19948000,19948000,0.0043546134,-0.0069688074,0.00021605047
19968000,19968000,-0.00060359685,-0.005071615,0.00024592638
19988000,19988000,-0.0008584909,-0.0044128187,-4.3766442e-05
20008000,20008000,0.003350348,-0.008738577,0.00040648333
20028000,20028000,0.0026172786,-0.008485675,0.00012254904
20048000,20048000,0.004899969,-0.008759059,0.00018278557
20068000,20068000,0.0033636894,-0.006074782,0.00036976548
20088000,20088000,-0.0019104492,-0.0070401886,0.0005219343
20108000,20108000,0.0044929394,-0.011038437,2.2815046e-05
20128000,20128000,0.005482431,-0.009178932,-0.00039804162
20148000,20148000,0.000845589,-0.012225293,-0.00017272995
20168000,20168000,0.007298802,-0.0059900777,-7.395473e-05
20188000,20188000,0.002679867,-0.008838372,0.00035288467
20208000,20208000,0.00021037972,-0.009428171,0.00022134342
20228000,20228000,0.0095738005,-0.0109151155,0.00028862385
20248000,20248000,-0.005314461,-0.0127029,-7.895662e-05
20268000,20268000,0.0037429,-0.0073971963,-9.352552e-05
20288000,20288000,0.005456295,-0.009132107,-0.00032420465
20308000,20308000,0.007779796,-0.010530935,-0.00021782628
20328000,20328000,0.0038791099,-0.0062801186,-0.0002802705
20348000,20348000,0.00019769708,-0.009477931,-0.00024122221
20368000,20368000,0.0055845343,-0.012123781,-0.00083626306
20388000,20388000,0.008686645,-0.015032306,-0.0004097333
20408000,20408000,0.002734248,-0.013901428,-0.0003979996
20428000,20428000,0.005725371,-0.0063213315,-0.00086925103
20448000,20448000,0.010463556,-0.012640875,-0.0008261544
20468000,20468000,0.005227073,-0.009052319,-0.0007877077
20484000,20484000,0.0034194943,-0.01511583,-0.00064968463
20504000,20504000,0.0053321277,-0.01617182,-0.00064948143
20528000,20528000,0.0025445826,-0.006379987,-0.00072456675
20548000,20548000,0.005230913,-0.01706581,-0.00043717853
20568000,20568000,0.0020803988,-0.012256739,-0.00064643065
20588000,20588000,0.009447036,-0.010999071,-0.00038126548
20608000,20608000,0.0037655,-0.01039301,-0.0004591628
20628000,20628000,0.0067016566,-0.010777722,-0.00062527333
20648000,20648000,0.006897548,-0.017798036,-0.00067480566
20668000,20668000,0.010041162,-0.010805121,-0.0003233231
20688000,20688000,0.00721512,-0.01142038,-0.00046552852
20708000,20708000,0.0049480833,-0.0143177435,-0.00026773105
20728000,20728000,0.00578983,-0.013237712,-0.00013999004
20748000,20748000,0.0021328414,-0.00956998,-0.00028987185
20768000,20768000,0.006618007,-0.01457322,-0.00040705485
20788000,20788000,0.005409148,-0.013552237,-0.00054144196
20804000,20804000,0.00818681,-0.01611273,-0.00022111333
20828000,20828000,0.006963809,-0.012749836,-0.00020058635
20848000,20848000,0.005145886,-0.014712198,-0.0002333085
20868000,20868000,0.0054291678,-0.015363994,-0.00026341106
20888000,20888000,0.0032867342,-0.018158926,-0.000115424744
20908000,20908000,0.01519587,-0.016125774,-0.00014437878
20928000,20928000,0.010972016,-0.014146154,4.386712e-05
20948000,20948000,0.0060673165,-0.015428498,-0.00012255413
20968000,20968000,0.012374021,-0.017996296,-1.8434828e-05
20984000,20984000,0.0077441,-0.014736523,-0.00027212818
21004000,21004000,0.005795725,-0.016674338,-0.00042554014
21028000,21028000,0.007749692,-0.02002924,-0.0006785822
21048000,21048000,0.010120857,-0.019343693,-0.00075799646
21068000,21068000,0.010550564,-0.016583106,-0.00052027166
21088000,21088000,0.0071561057,-0.015848514,-0.00055680086
21108000,21108000,0.0064610345,-0.01661461,-0.0007476824
21128000,21128000,0.0072087385,-0.015765103,-0.00032805055
21148000,21148000,0.011668887,-0.01639949,-0.0002859525
21168000,21168000,0.009264731,-0.018879404,-0.00019428463
21188000,21188000,0.007912809,-0.019377535,-0.0002869412
21208000,21208000,0.009050663,-0.019697,-0.00023266356
21228000,21228000,0.009524086,-0.020501593,-0.00022448637
21244000,21244000,0.010358902,-0.021754475,0.00012884635
21268000,21268000,0.01089491,-0.020114878,-0.00013343879
21288000,21288000,0.0078633865,-0.018575793,9.57311e-05
21308000,21308000,0.008492918,-0.013725854,-0.00012838282
21328000,21328000,0.012213421,-0.03004564,4.6802234e-05
21348000,21348000,0.014621798,-0.019545563,-5.8387e-05
21368000,21368000,0.0059408816,-0.01971744,0.00023007477
21388000,21388000,0.017151862,-0.022294465,0.00059004896
21408000,21408000,0.008758541,-0.020051725,0.00021637206
21424000,21424000,0.017129261,-0.024400663,-0.0001912051
21448000,21448000,0.010316036,-0.023384538,-0.00050105655
21468000,21468000,0.018096402,-0.028119616,-0.00013796391
21488000,21488000,0.011890092,-0.019824343,-0.00023598713
21508000,21508000,0.010681599,-0.02248987,-0.0009510198
21528000,21528000,0.01430956,-0.023765838,-0.00064910157
21548000,21548000,0.018101405,-0.02015116,-0.0005934099
21564000,21564000,0.011315398,-0.020250361,-0.0007043283
21584000,21584000,0.010952279,-0.027126785,-0.000964579
21604000,21604000,0.0132190585,-0.025814822,-0.00097113184
21628000,21628000,0.014217442,-0.026842777,-0.0005177025
21648000,21648000,0.012825817,-0.022217372,-0.0003153488
21668000,21668000,0.013356376,-0.02682307,-9.339933e-07
21688000,21688000,0.018224945,-0.02177953,-0.00021041732
21708000,21708000,0.016083376,-0.025377333,-0.000122464
21728000,21728000,0.02039203,-0.023950713,-0.00022357363
21748000,21748000,0.016024645,-0.026783813,-0.00010363874
21768000,21768000,0.020279478,-0.02701474,-0.0003887331
21788000,21788000,0.015386155,-0.027010787,-0.00038527523
21808000,21808000,0.017765392,-0.026551433,2.9029892e-05
21828000,21828000,0.020881312,-0.024150958,-9.757156e-05
21848000,21848000,0.018974485,-0.029479152,0.00022100797
21868000,21868000,0.016658317,-0.024644036,0.00013706213
21888000,21888000,0.013373934,-0.02373702,6.690808e-05
21908000,21908000,0.018308332,-0.022656573,-0.00022456325
21928000,21928000,0.02182708,-0.028107448,-0.00031998527
21944000,21944000,0.015637103,-0.027393527,0.0003689095
21968000,21968000,0.019490153,-0.029404752,0.00038809807
21988000,21988000,0.022114584,-0.025525758,0.00061506644
22008000,22008000,0.022494413,-0.021287683,0.00015520741
22024000,22024000,0.019265378,-0.027312795,0.00016316904
22044000,22044000,0.023835333,-0.030254167,4.629566e-05
22068000,22068000,0.024070565,-0.027672322,0.0002773239
22088000,22088000,0.022288725,-0.023943188,-5.7073767e-06
22108000,22108000,0.02512021,-0.029165106,0.00054124213
22128000,22128000,0.023956373,-0.024575623,0.0006246843
22148000,22148000,0.020692082,-0.027480401,0.00052421214
22168000,22168000,0.027608171,-0.029347103,0.00018479809
22188000,22188000,0.022881217,-0.025417332,7.164458e-05
22208000,22208000,0.023694456,-0.029450113,0.000119936856
22228000,22228000,0.023930004,-0.030656049,0.0005436667
22248000,22248000,0.023360822,-0.02287532,0.00038364466
22268000,22268000,0.026339348,-0.028366419,1.9395124e-05
22288000,22288000,0.024156589,-0.025600957,0.00042955126
22308000,22308000,0.024212057,-0.027174491,0.0006196029
22328000,22328000,0.027810201,-0.032016397,0.00032482785
22348000,22348000,0.023285203,-0.028245946,0.00016145708
22368000,22368000,0.031880148,-0.026190681,8.478854e-05
22388000,22388000,0.023282694,-0.026650907,-0.0002064501
22408000,22408000,0.02596797,-0.0320124,-0.0005719576
22428000,22428000,0.0271802,-0.0286544,-0.00026493252
22448000,22448000,0.026623996,-0.032501858,-0.00033274648
22468000,22468000,0.029910695,-0.029200774,1.7702361e-05
22488000,22488000,0.024514424,-0.025163168,0.0004948234
22508000,22508000,0.028977057,-0.03136552,0.00047297223
22528000,22528000,0.0289551,-0.025963686,0.00043755138
22548000,22548000,0.030799005,-0.03105192,0.00039162632
22568000,22568000,0.029337604,-0.031384166,0.0004727304
22588000,22588000,0.025697136,-0.032052502,0.00070407306
22608000,22608000,0.023913378,-0.026015595,0.0005335571
22628000,22628000,0.02566114,-0.021210844,0.0004009232
22648000,22648000,0.018546227,-0.01699226,0.00025811692
22664000,22664000,0.013352485,-0.0134361945,0.0004276325
22688000,22688000,0.008204388,-0.011781453,0.00071449036
22708000,22708000,0.0067561413,-0.006943059,0.0007613085
22728000,22728000,0.0007871628,0.0031745206,0.00092811754
22748000,22748000,-0.0053628143,0.006827968,0.001382978
22768000,22768000,-0.002990508,0.0073373457,0.0007477737
22788000,22788000,-0.0043667792,0.008815273,0.00055413577
22808000,22808000,-0.004717267,0.009645941,0.00058037974
22828000,22828000,-0.005589799,0.017540244,0.0004364118
22848000,22848000,-0.0054636067,0.012980617,-6.842188e-05
22868000,22868000,-0.008259753,0.011483152,-0.00030856216
22888000,22888000,-0.0014821403,0.011951105,-0.00023232625
22908000,22908000,-0.0065407148,0.011395516,-0.0006375355
22928000,22928000,-0.006380705,0.0034252922,-0.00085119484
22948000,22948000,-0.0067651733,0.010054467,-0.00045056644
22968000,22968000,-0.0030381028,0.0043926463,0.0003422185
22988000,22988000,-0.0044311173,0.00864258,0.00014457795
23008000,23008000,-0.0010653306,0.0009771124,-4.085688e-05
23028000,23028000,-0.0015282317,0.0024033217,-0.00039022602
23048000,23048000,-0.005422715,0.005875943,-0.00044484212
23068000,23068000,-0.005018021,0.0061010607,-0.00030748604
23088000,23088000,0.0031667838,-0.00035620062,-0.0003308369
23108000,23108000,0.0017056754,0.0044575958,-0.0005359373
23128000,23128000,0.00085110555,0.006345115,-0.00036910246
23148000,23148000,-0.0006110666,0.007853289,-0.0005888142
23168000,23168000,-0.0019168826,0.0053515458,-0.0010305054
23188000,23188000,-0.0024537626,0.0022458548,-0.0007146988
23208000,23208000,0.004888175,6.650362e-05,-0.00023207447
23228000,23228000,-0.0013658487,-0.00037164916,-0.00017346474
23248000,23248000,0.0012496068,-0.0015443219,0.00018408848
23268000,23268000,-0.0013457411,0.00684643,8.891679e-05
23288000,23288000,-0.0033131354,-0.004301804,0.0002048167
23308000,23308000,0.005110359,-0.0055961534,0.00043252594
23328000,23328000,0.002259598,0.0031977196,0.00077079685
23348000,23348000,-0.00086619356,-0.0051147873,0.0006567255
23368000,23368000,0.0072476096,-0.001763849,0.0005222785
23388000,23388000,-0.0011725733,-0.00077349483,0.00075983605
23408000,23408000,-0.0015991768,0.0016764208,0.00048621738
23428000,23428000,-0.0002189891,-0.00025792822,0.00015055573
23448000,23448000,-0.0013911182,-0.0044631604,0.00010546233
23468000,23468000,0.0022735903,0.0036856034,1.5953417e-05
23488000,23488000,0.0021968805,0.00029939384,-0.0005106239
23508000,23508000,-0.00014267804,-0.004361062,-0.0004438946
23528000,23528000,-0.001115171,0.0032206997,-0.0004350009
23548000,23548000,0.00035055127,0.0011758192,-6.327401e-05
23564000,23564000,-0.0023741247,0.0030226554,0.00021813459
23588000,23588000,-0.0008101403,0.0048553627,-0.00026774773
23604000,23604000,0.005625903,-0.0010689977,-0.00022143494
23628000,23628000,0.0025113374,-0.0040508593,-0.0001426893
23648000,23648000,0.002872602,-0.0032445942,-4.13145e-05
23668000,23668000,-0.001604966,0.004085461,-2.8143855e-05
23688000,23688000,0.0020815763,0.0051389947,-8.411688e-05
23708000,23708000,0.0013328029,-0.0007589536,-0.0006033672
23728000,23728000,-0.0036770473,0.001274373,-0.00032633625
23748000,23748000,0.0027529974,-0.004399015,-3.5883386e-05
23768000,23768000,0.0031269207,0.0006382847,-0.0002086534
23788000,23788000,0.0029871135,0.002980073,-0.00047921692
23808000,23808000,0.0015720641,-0.0022519112,-0.0005426646
23828000,23828000,-0.0020002944,0.0004510908,-0.00028529787
23848000,23848000,0.0075706383,-0.0013792156,-0.00059096847
23868000,23868000,5.3160125e-05,-0.0015323425,-0.00080356386
23888000,23888000,-0.0007997176,0.0025373527,-0.0002910836
23908000,23908000,-0.00020961784,0.004555801,-0.00014087651
23928000,23928000,-0.001420637,0.003523994,-0.00021393971
23948000,23948000,-0.0012599134,-0.001120073,-1.1481388e-05
23968000,23968000,0.0003272834,0.00466372,0.00026731112
23988000,23988000,0.00393694,0.0012237197,0.0005628723
24008000,24008000,0.0033456485,0.004046295,0.000492108
24028000,24028000,0.00094981,0.0073480555,0.00013280631
24048000,24048000,-0.0015905802,0.002037881,0.000115468654
24068000,24068000,-0.0015721489,0.0047599324,-0.00023842364
24088000,24088000,0.002418633,0.0016028533,-0.00015325812
24108000,24108000,0.0018147081,0.0021495419,5.7600948e-05
24128000,24128000,0.0010538113,0.0077118548,-0.000113563656
24148000,24148000,0.0019624569,0.0071053025,1.290414e-05
24168000,24168000,0.0010923375,-0.00072636886,9.085231e-05
24188000,24188000,0.0020602583,-0.0067782765,-0.0003579071
24208000,24208000,5.59208e-05,0.005471099,-4.0082814e-06
24228000,24228000,0.003726284,0.0016702093,0.0005208384
24248000,24248000,-0.0006841732,0.006636358,0.00057855604
24268000,24268000,-0.0012005772,0.005754288,0.00040063632
24288000,24288000,-0.006614602,0.0001664944,0.00081347604
24304000,24304000,-0.0004611177,-0.004033511,0.0005210808
24324000,24324000,0.0075011295,0.0028500308,0.0001935055
24348000,24348000,0.0037363386,0.0008918046,0.00028239397
24368000,24368000,0.0012398758,-0.00086464005,0.0003357639
24388000,24388000,-0.0017443369,0.004498385,6.0570615e-05
24408000,24408000,-0.0023671156,-0.0025158385,5.0159393e-05
24428000,24428000,0.0014887284,0.0028365583,-0.00030209357
24444000,24444000,-0.0014577195,3.67827e-05,-0.00016192053
24468000,24468000,-0.0010156074,-0.00047936884,0.00019328154
24488000,24488000,-0.0005937043,0.00059731025,1.0829011e-05
24508000,24508000,-0.003612873,0.00084208726,-4.383761e-06
