timestamp,gyro_rad[0],gyro_rad[1],gyro_rad[2],gyro_integral_dt,accelerometer_timestamp_relative,accelerometer_m_s2[0],accelerometer_m_s2[1],accelerometer_m_s2[2],accelerometer_integral_dt,accelerometer_clipping,gyro_clipping,accel_calibration_count,gyro_calibration_count
3888000,0.006125289,-0.00026633154,0.0042610317,4000,0,0.11372458,0.09576825,-9.742006,4000,0,0,0,1
3892000,-0.0013315601,-0.014114742,-0.007456881,4000,0,0.06943185,-0.0011969312,-9.743204,4000,0,0,0,1
3900000,-0.005060021,-0.0018641807,0.004527371,4000,0,0.0023942017,-0.12928674,-9.749191,4000,0,0,0,1
3904000,0.008255803,-0.004261034,0.0069242315,4000,0,-0.03232173,-0.06105198,-9.751583,4000,0,0,0,1
3908000,0.007456844,0.002663176,0.0010652825,4000,0,-0.03351883,-0.025138952,-9.70849,4000,0,0,0,1
3912000,0.009054742,0.0106526585,-0.00426104,4000,0,-0.023942016,-0.027533153,-9.733627,4000,0,0,0,1
3916000,0.00719053,0.00479369,-0.0034621207,4000,0,-0.023942016,0.020350888,-9.7803135,4000,0,0,0,1
3920000,0.001331564,-0.009321056,-0.0037284507,4000,0,-0.03232173,-0.0059853336,-9.767147,4000,0,0,0,1
3924000,0.0015978862,-0.009853697,-0.00053263194,4000,0,-0.088585466,-0.05865778,-9.764753,4000,0,0,0,1
3932000,-0.0021305499,0.013315808,-0.009321056,4000,0,0.020350715,-0.083796896,-9.812637,4000,0,0,0,1
3936000,-0.004793719,0.004261066,-0.009321045,4000,0,-0.005985504,-0.0119708385,-9.767147,4000,0,0,0,1
3940000,-0.0047937077,-0.006125255,0.001065281,4000,0,-0.05746084,-0.008379536,-9.782708,4000,0,0,0,1
3944000,-0.004793694,-0.009853693,0.0031957994,4000,0,-0.033518832,-0.07661429,-9.828198,4000,0,0,0,1
3948000,-0.003462107,-0.00692422,0.0013315803,4000,0,0.0071826046,-0.07661429,-9.806652,4000,0,0,0,1
3952000,0.0031957733,0.00692423,0.0074568517,4000,0,0.055066645,-0.05147517,-9.829395,4000,0,0,0,1
3956000,0.003195771,0.01997371,0.011717923,4000,0,0.077811554,-0.040701255,-9.827001,4000,0,0,0,1
3960000,-0.00026634923,0.014381068,0.003462127,4000,0,0.041898537,-0.020350546,-9.750386,4000,0,0,0,1
3964000,0.0013315456,0.0061252723,-0.0058589615,4000,0,0.031124622,-0.008379537,-9.788694,4000,0,0,0,1
3968000,0.001065271,0.0063915867,-0.002929477,4000,0,0.008379707,-0.0011969288,-9.865309,4000,0,0,0,1
3972000,0.003462133,0.007456846,0.0074568475,4000,0,-0.06344634,0.019153787,-9.829395,4000,0,0,0,1
3976000,0.0018642301,0.0039947336,0.010918962,4000,0,-0.016759414,0.04908131,-9.817424,4000,0,0,0,1
3980000,-0.0077231117,-0.012250576,0.008255804,4000,0,0.09457098,0.08260014,-9.864112,4000,0,0,0,1
3984000,-0.012250503,-0.020506365,0.003994744,4000,0,0.095768064,0.074220434,-9.894039,4000,0,0,0,1
3988000,-0.013848401,-0.011451626,-0.003195842,4000,0,0.06703766,0.034716096,-9.829395,4000,0,0,0,1
3992000,-0.0119842235,-0.008788438,-0.0034621153,4000,0,0.06703766,0.0359132,-9.726444,4000,0,0,0,1
3996000,-0.0066579077,-0.0074568507,-0.0015978867,4000,0,0.015562309,0.034716096,-9.7444,4000,0,0,0,1
4000000,-0.009587374,-0.004793694,-0.0037284389,4000,0,-0.027533323,-0.037109964,-9.7803135,4000,0,0,0,1
4004000,-0.014913725,-0.010119977,0.0050600152,4000,0,0.013168109,-0.02873025,-9.775527,4000,0,0,0,1
4008000,-0.011185304,-0.008255762,0.011717915,4000,0,0.023942016,0.059855223,-9.79827,4000,0,0,0,1
4012000,-0.00852213,0.0026631327,0.0013315472,4000,0,-0.015562311,0.029927695,-9.848549,4000,0,0,0,1
4016000,-0.007989491,0.0018641853,-0.008522116,4000,0,-0.044292733,-0.043095466,-9.921572,4000,0,0,0,1
4020000,-0.0018642286,-0.0042610676,-0.0055926256,4000,0,-0.07302317,0.014365385,-9.933543,4000,0,0,0,1
4024000,0.00213053,0.005060006,0.006125272,4000,0,-0.064643465,0.070629135,-9.872493,4000,0,0,0,1
4028000,-0.004527383,0.014381053,0.01225056,4000,0,-0.037110135,-0.046686772,-9.878476,4000,0,0,0,1
4032000,-0.014647329,0.00079890835,0.013049559,4000,0,-0.035913028,-0.084994,-9.885658,4000,0,0,0,1
4036000,-0.009853661,-0.0071905027,0.015446372,4000,0,0.008379707,0.028730595,-9.813835,4000,0,0,0,1
4040000,0.0007989436,-0.00079893216,0.0037284298,4000,0,0.05267244,0.063446514,-9.806652,4000,0,0,0,1
4044000,-0.0021305226,-0.0029294773,-0.0106526455,4000,0,0.06105215,-0.020350542,-9.831791,4000,0,0,0,1
4048000,-0.00053261,0.0029294705,-0.012250545,4000,0,0.056263745,-0.0885853,-9.78989,4000,0,0,0,1
4052000,0.010652689,0.012516813,-0.0066579166,4000,0,0.0011971015,-0.056263577,-9.768345,4000,0,0,0,1
4056000,0.0063916002,0.007989475,-0.0010652627,4000,0,-0.0011971015,0.011971181,-9.836577,4000,0,0,0,1
4060000,-0.0047936914,0.0023968488,-0.0007989305,4000,0,0.038307235,0.06584072,-9.932346,4000,0,0,0,1
4064000,-0.00639158,0.0023968597,0.007989486,4000,0,0.027533324,0.052672613,-9.93594,4000,0,0,0,1
4068000,-0.0074568545,0.005592652,0.015712645,4000,0,0.027533324,0.007182777,-9.837774,4000,0,0,0,1
4072000,-0.0061253146,0.011185266,0.0082557835,4000,0,0.023942018,-0.062249083,-9.78989,4000,0,0,0,1
4076000,0.0007989431,0.009853712,0.005858932,4000,0,0.029927526,-0.0957679,-9.818621,4000,0,0,0,1
4080000,0.002663188,0.0013315835,0.008788424,4000,0,0.083797075,-0.056263573,-9.793484,4000,0,0,0,1
4084000,0.0026631672,-0.0015978909,0.0021305264,4000,0,0.06943185,-0.055066474,-9.744401,4000,0,0,0,1
4088000,-0.0005326346,0.003994743,-0.0010652611,4000,0,0.02274492,-0.034715753,-9.736021,4000,0,0,0,1
4092000,-0.008522107,0.00506001,0.0053263335,4000,0,-0.034715924,-0.02633605,-9.821015,4000,0,0,0,1
4096000,-0.008255773,-0.0082557965,0.006924257,4000,0,-0.14365211,-0.0897824,-9.856929,4000,0,0,0,1
4100000,-0.0018641634,-0.020506352,-0.00079889747,4000,0,-0.10773909,-0.0861911,-9.745598,4000,0,0,0,1
4104000,5.257854e-08,-0.021305295,-0.008522103,4000,0,-0.035913028,0.0023943724,-9.775528,4000,0,0,0,1
4108000,-0.0010652314,-0.013582119,-0.010120019,4000,0,-0.07422027,0.06105232,-9.862916,4000,0,0,0,1
4112000,-0.0029294726,-0.008255795,-0.007190546,4000,0,-0.038307235,0.073023334,-9.823412,4000,0,0,0,1
4116000,-0.009054749,-0.0031957754,-0.0031958157,4000,0,0.0011971008,0.070629135,-9.76595,4000,0,0,0,1
4120000,-0.016245276,0.0045273835,-0.002663192,4000,0,-0.021547817,0.044292904,-9.746797,4000,0,0,0,1
4124000,-0.010652644,0.0002663285,0.00053264695,4000,0,-0.023942016,0.003591473,-9.758768,4000,0,0,0,1
4128000,-0.0018642128,0.0007989632,0.004261056,4000,0,-0.016759414,0.0047885748,-9.779117,4000,0,0,0,1
4132000,-0.0055926475,0.0053263125,-0.0042610606,4000,0,-0.009576809,0.0442929,-9.841368,4000,0,0,0,1
4136000,-0.002929493,-0.0007989596,-0.008255795,4000,0,-0.044292733,0.07062913,-9.846155,4000,0,0,0,1
4140000,0.009853677,-0.0074568824,-0.0034620997,4000,0,-0.023942018,0.06224942,-9.747993,4000,0,0,0,1
4144000,0.008788437,-0.008522109,-0.005592645,4000,0,0.05267244,0.056263912,-9.753978,4000,0,0,0,1
4148000,-0.0021305217,-0.0058589326,-0.006391611,4000,0,0.009576807,0.034716096,-9.78989,4000,0,0,0,1
4152000,0.007190522,-0.0074568684,-0.0013315614,4000,0,-0.031124622,-0.03950416,-9.709686,4000,0,0,0,1
4156000,0.010386317,-0.009321078,0.003462113,4000,0,0.011971009,-0.050278075,-9.661802,4000,0,0,0,1
4160000,-0.0077231564,-0.013049504,0.0010651952,4000,0,0.050278246,0.020350885,-9.698913,4000,0,0,0,1
4164000,-0.007989465,-0.017576877,-0.0026631511,4000,0,0.08619127,0.02274509,-9.762358,4000,0,0,0,1
4172000,-0.0013316033,-0.005858957,0.008522113,4000,0,-0.015562311,-0.041898366,-9.855732,4000,0,0,0,1
4176000,0.0061252844,-0.0087884115,0.006125287,4000,0,-0.005985504,-0.043095466,-9.838972,4000,0,0,0,1
4180000,0.017576879,-0.00585892,0.00026635555,4000,0,-0.0071826046,-0.11492151,-9.805454,4000,0,0,0,1
4188000,0.006125271,-0.01597896,-0.0034621551,4000,0,0.04548984,-0.035912853,-9.810242,4000,0,0,0,1
4192000,0.0047937296,-0.011185263,-0.009853694,4000,0,-0.02513912,-0.025138948,-9.805454,4000,0,0,0,1
4196000,0.0031958339,-0.0050599924,-0.015180016,4000,0,-0.09217678,-0.0921766,-9.791088,4000,0,0,0,1
4200000,0.005592638,-0.002396867,-0.00639158,4000,0,-0.057460845,-0.06105198,-9.7803135,4000,0,0,0,1
4208000,0.0050599985,-0.0042610643,0.0061252736,4000,0,0.06584056,-0.019153446,-9.767147,4000,0,0,0,1
4212000,7.376127e-09,-0.0021305254,-0.0021305326,4000,0,0.06823475,-0.031124454,-9.752781,4000,0,0,0,1
4220000,-0.0015978897,-0.0055926405,-0.0071905362,4000,0,-0.08020576,-0.043095466,-9.859325,4000,0,0,0,1
4228000,-0.0021305545,-0.011717891,0.0069242413,4000,0,-0.041898534,0.051475517,-9.841368,4000,0,0,0,1
4232000,0.005059991,-0.011984207,0.010918991,4000,0,0.029927526,0.021547988,-9.776725,4000,0,0,0,1
4236000,0.0010652845,-0.0133158155,0.007190518,4000,0,0.01316811,-0.031124454,-9.665392,4000,0,0,0,1
4240000,-0.0021305182,-0.009054757,0.002396832,4000,0,0.02274492,0.0383074,-9.663,4000,0,0,0,1
4244000,-0.003994759,0.0021305298,0.005059993,4000,0,-0.0035913028,0.1304842,-9.76116,4000,0,0,0,1
4248000,-0.0031958069,0.010120015,0.0058589433,4000,0,-0.025139121,0.05746102,-9.805454,4000,0,0,0,1
4252000,-0.0021305524,0.013848437,0.0010652571,4000,0,0.059855048,-0.08140269,-9.770737,4000,0,0,0,1
4256000,-0.00133159,0.008522116,-0.0013315803,4000,0,0.04908113,-0.088585295,-9.776724,4000,0,0,0,1
4260000,0.0021305182,-0.0013315832,-0.0037284314,4000,0,-0.03232173,0.016759587,-9.767147,4000,0,0,0,1
4264000,0.0034621092,-0.0015978987,-0.0034621092,4000,0,-0.050278243,0.086191446,-9.727643,4000,0,0,0,1
4268000,-0.00585895,0.0034621188,-0.001864212,4000,0,-0.025139121,0.026336389,-9.72884,4000,0,0,0,1
4272000,-0.0130494945,0.002929474,-0.0058589457,4000,0,0.03950433,-0.035912856,-9.758768,4000,0,0,0,1
4276000,-0.004527383,0.0010652251,-0.011185279,4000,0,0.014365211,0.013168281,-9.773131,4000,0,0,0,1
4280000,-0.0013315803,0.0010652549,-0.009853697,4000,0,-0.053869545,0.047884203,-9.846155,4000,0,0,0,1
4284000,-0.0039947443,-0.0002663052,-0.0050600045,4000,0,-0.010773908,-0.017956339,-9.941923,4000,0,0,0,1
4288000,0.0015979076,0.006125263,-0.004261066,4000,0,0.04548984,-0.084993996,-9.89045,4000,0,0,0,1
4292000,-0.00079893135,0.0074568517,0.0031957997,4000,0,0.023942016,-0.07781139,-9.767147,4000,0,0,0,1
4296000,-0.012783162,0.00026630372,0.004793722,4000,0,-0.013168109,-0.019153448,-9.688137,4000,0,0,0,1
4300000,-0.013582126,0.0015978391,-0.008522123,4000,0,0.0,0.0407016,-9.713276,4000,0,0,0,1
4304000,-0.001597909,-0.0026631926,-0.007989473,4000,0,0.037110135,0.034716096,-9.775528,4000,0,0,0,1
4308000,0.0034620746,-0.013049499,0.0005326421,4000,0,0.017956512,0.0035914732,-9.76116,4000,0,0,0,1
4312000,-0.009321098,-0.015180032,0.008522058,4000,0,-0.015562311,-0.027533153,-9.697714,4000,0,0,0,1
4316000,-0.014913745,-0.0055926465,0.0111852195,4000,0,-0.021547817,-0.069431685,-9.710884,4000,0,0,0,1
4320000,-0.004527379,0.002396815,-0.0026631814,4000,0,-0.082599975,-0.06823458,-9.803061,4000,0,0,0,1
4324000,0.005326313,-0.0023968644,-0.009853697,4000,0,-0.08738836,-0.037109964,-9.807847,4000,0,0,0,1
4328000,0.01011998,-0.0127831865,-0.01278319,4000,0,0.020350715,-0.04548967,-9.742006,4000,0,0,0,1
4332000,-0.0018642046,-0.016511533,-0.01837588,4000,0,0.017956512,-0.0933737,-9.734823,4000,0,0,0,1
4336000,-0.01890836,0.0029295855,-0.01278328,4000,0,-0.050278246,-0.10055631,-9.786301,4000,0,0,0,1
4340000,-0.018375736,0.019973733,-0.008788541,4000,0,-0.083797075,-0.05985488,-9.809044,4000,0,0,0,1
4344000,-0.0005326356,0.011717878,-0.0055927075,4000,0,-0.117315896,-0.032321554,-9.806652,4000,0,0,0,1
4348000,0.014114775,-0.0005326577,0.0053262673,4000,0,-0.043095633,-0.05386937,-9.752781,4000,0,0,0,1
4352000,0.004793707,-0.010386353,0.006924172,4000,0,0.07422027,-0.06823458,-9.688137,4000,0,0,0,1
4356000,-0.011185252,-0.009321088,-0.00079900224,4000,0,0.07541737,-0.029927356,-9.7396145,4000,0,0,0,1
4360000,-0.011185264,0.0002663033,-0.0042610946,4000,0,0.04908113,0.007182777,-9.791088,4000,0,0,0,1
4364000,0.00026631422,-0.0010652817,-0.0045273704,4000,0,0.096965164,0.013168282,-9.801862,4000,0,0,0,1
4368000,0.002663156,-0.0029294817,0.0029294784,4000,0,0.13168111,0.025139295,-9.815032,4000,0,0,0,1
4372000,-0.006391604,0.0021305096,0.0149137,4000,0,0.044292733,0.027533496,-9.781511,4000,0,0,0,1
4376000,-0.009587395,0.004527355,0.013049487,4000,0,-0.043095633,-0.0011969307,-9.777922,4000,0,0,0,1
4380000,-0.005858969,0.003994724,0.0021305252,4000,0,-0.025139121,-0.037109964,-9.843761,4000,0,0,0,1
4384000,-0.003728433,0.0013315694,-0.0045273723,4000,0,-0.077811554,-0.084993996,-9.920377,4000,0,0,0,1
4388000,-0.0010652792,-0.008788435,-0.0029294665,4000,0,-0.15203184,-0.08020559,-9.926363,4000,0,0,0,1
4392000,0.004527356,-0.017310552,0.0007989675,4000,0,-0.070628956,-0.039504156,-9.879675,4000,0,0,0,1
4396000,0.007456842,-0.016511606,0.002396863,4000,0,0.09217678,-0.01556214,-9.883265,4000,0,0,0,1
4400000,0.0050599435,-0.003728452,0.011984243,4000,0,0.1604115,0.021547988,-9.859323,4000,0,0,0,1
4404000,-0.0026632291,0.011451554,0.018109515,4000,0,0.06703766,0.008379878,-9.824609,4000,0,0,0,1
4408000,-0.007456853,0.0045273365,0.006924243,4000,0,-0.01316811,-0.04908096,-9.847352,4000,0,0,0,1
4412000,-0.0055926363,-0.002663179,-0.001864198,4000,0,-0.0071826056,-0.07422009,-9.873688,4000,0,0,0,1
4416000,0.00053263205,0.0010652662,0.0010652631,4000,0,0.02873042,-0.07302299,-9.878479,4000,0,0,0,1
4420000,0.003462109,0.0039947433,0.0015978963,4000,0,0.034715924,-0.07422009,-9.865309,4000,0,0,0,1
4424000,0.0010652512,0.0069242283,-0.0071905293,4000,0,0.005985504,-0.06584038,-9.842566,4000,0,0,0,1
4428000,0.006125246,-0.002130541,-0.008522131,4000,0,0.0023942022,-0.013167939,-9.797075,4000,0,0,0,1
4432000,0.009054722,-0.009321095,0.0029294651,4000,0,-0.0047884043,0.0359132,-9.768345,4000,0,0,0,1
4440000,0.00399474,-0.00372844,0.011984223,4000,0,-0.043095633,0.13527258,-9.733627,4000,0,0,0,1
4448000,0.009054796,-0.017044203,0.0026631874,4000,0,-0.1113304,0.0047885757,-9.878479,4000,0,0,0,1
4452000,0.01757683,-0.008255807,0.007456927,4000,0,-0.053869545,-0.04668677,-9.837774,4000,0,0,0,1
4456000,0.020506343,-0.006924208,0.0066579184,4000,0,0.016759416,-0.06584038,-9.805454,4000,0,0,0,1
4460000,0.011185282,-0.003462092,0.0010652666,4000,0,-0.019153617,-0.0933737,-9.79827,4000,0,0,0,1
4464000,0.0037284123,0.011717881,0.008255849,4000,0,-0.058657948,-0.033518657,-9.742006,4000,0,0,0,1
4468000,-0.0018642504,0.016245276,0.001864241,4000,0,-0.056263745,0.051475517,-9.765951,4000,0,0,0,1
4472000,-0.0053263907,0.0023968343,-0.012250516,4000,0,-0.035913028,0.057461016,-9.841368,4000,0,0,0,1
4476000,-0.0031958323,-0.006924229,-0.0127831595,4000,0,-0.053869545,0.0395045,-9.797075,4000,0,0,0,1
4480000,-0.0055926773,-0.010386309,-0.0026631632,4000,0,-0.050278243,-0.015562142,-9.715671,4000,0,0,0,1
4484000,-0.0002663789,-0.012783147,0.014913727,4000,0,-0.02873042,-0.028730253,-9.716867,4000,0,0,0,1
4488000,0.0047936435,-0.006657879,0.018908467,4000,0,-0.011971009,0.0047885757,-9.812637,4000,0,0,0,1
4492000,-0.004261079,0.0018641801,0.0037284195,4000,0,-0.020350713,0.022745093,-9.901223,4000,0,0,0,1
4496000,-0.003994749,0.0034620985,-0.0045273774,4000,0,-0.06344634,0.023942191,-9.884462,4000,0,0,0,1
4500000,0.0034621065,-0.0021305347,-0.00026631737,4000,0,-0.043095633,-0.029927354,-9.816229,4000,0,0,0,1
4504000,0.0058589536,-0.0018642159,0.0021305312,4000,0,-0.02274492,-0.007182435,-9.78989,4000,0,0,0,1
4508000,0.006125275,-0.0018642013,-0.003728426,4000,0,-0.043095633,0.055066817,-9.810242,4000,0,0,0,1
4512000,-0.0050600087,-0.0058589345,-0.007190551,4000,0,-0.023942016,0.031124793,-9.831791,4000,0,0,0,1
4516000,-0.013049501,-0.0045273434,-0.0002663341,4000,0,0.03351883,0.034716096,-9.815031,4000,0,0,0,1
4520000,-0.008255805,-0.003994736,0.0013315853,4000,0,0.0035913012,0.081403024,-9.812637,4000,0,0,0,1
4524000,-0.0029294717,-0.0042610676,-0.00292947,4000,0,-0.09696517,0.053869717,-9.829395,4000,0,0,0,1
4528000,0.001864209,-0.0045273774,-0.00026630916,4000,0,-0.083797075,-0.041898366,-9.7719345,4000,0,0,0,1
4532000,0.0013315737,-0.002130532,0.004527376,4000,0,-0.021547817,-0.101753406,-9.664197,4000,0,0,0,1
4536000,-0.0063915974,0.005059996,0.0029294754,4000,0,-0.051475346,-0.062249076,-9.664197,4000,0,0,0,1
4540000,-0.012516861,0.009054747,0.004527377,4000,0,-0.084994175,0.010774078,-9.746798,4000,0,0,0,1
4544000,-0.0061252387,0.0050600534,0.013315803,4000,0,-0.06703766,-0.0011969311,-9.773131,4000,0,0,0,1
4548000,0.0002663262,0.0010652837,0.008788431,4000,0,-0.06584056,-0.07661429,-9.764753,4000,0,0,0,1
4552000,-0.0047936905,-0.00026632976,-0.0037284244,4000,0,-0.047884032,-0.05985488,-9.7324295,4000,0,0,0,1
4556000,0.0029294668,-0.009054761,-0.005326308,4000,0,0.0,0.06584073,-9.7001095,4000,0,0,0,1
4560000,0.018109499,-0.0077231964,-0.0039946944,4000,0,-0.019153617,0.10055665,-9.749191,4000,0,0,0,1
4564000,0.011451629,0.01171794,-0.0071904357,4000,0,-0.077811554,0.011971179,-9.827002,4000,0,0,0,1
4572000,-0.009853772,-0.012250524,-0.009587325,4000,0,-0.02633622,-0.07661429,-9.825806,4000,0,0,0,1
4576000,-0.0026631835,-0.007989479,-0.00079893315,4000,0,-0.06105215,-0.055066474,-9.873688,4000,0,0,0,1
4580000,0.0023968508,-0.0034621125,-0.0023968352,4000,0,-0.07422027,-0.023941847,-9.837774,4000,0,0,0,1
4584000,0.007989486,-0.011984226,-0.008788433,4000,0,-0.08020575,-0.011970839,-9.733627,4000,0,0,0,1
4588000,0.0055926344,-0.011451592,-0.0071905437,4000,0,-0.084994175,-0.022744749,-9.750386,4000,0,0,0,1
4592000,-0.00479365,-0.005592602,-0.013848469,4000,0,-0.07062895,0.023942187,-9.788693,4000,0,0,0,1
4596000,-0.015978916,0.0037284708,-0.018109534,4000,0,-0.03711013,0.05865812,-9.76954,4000,0,0,0,1
4600000,-0.022370525,0.007456937,-0.009321077,4000,0,0.010773908,-0.016759243,-9.830592,4000,0,0,0,1
4604000,-0.019973718,0.0066578863,-0.010652645,4000,0,0.02873042,-0.069431685,-9.868899,4000,0,0,0,1
4612000,-0.015978964,0.0034621486,-0.0034620962,4000,0,-0.07302317,-0.083796896,-9.749191,4000,0,0,0,1
4616000,-0.015712641,0.012783168,-0.004527424,4000,0,0.0011970999,-0.07182589,-9.865309,4000,0,0,0,1
4620000,-0.006924205,0.014381074,-0.0015979422,4000,0,0.06105215,-0.05746067,-9.871296,4000,0,0,0,1
4624000,0.005326362,-0.004527358,0.008788417,4000,0,-0.01316811,-0.07182589,-9.825806,4000,0,0,0,1
4632000,-0.012783159,-0.005060043,-0.00053268805,4000,0,-0.025139123,0.09337404,-9.858126,4000,0,0,0,1
4636000,-0.01731053,0.0039946903,-0.012783222,4000,0,0.02633622,0.14604652,-9.909603,4000,0,0,0,1
4640000,-0.012516854,0.0069241705,-0.017843204,4000,0,0.029927526,0.10055665,-9.848549,4000,0,0,0,1
4644000,-0.0063915686,0.004793712,-0.003994747,4000,0,0.005985504,0.073023334,-9.811439,4000,0,0,0,1
4652000,0.010120031,0.0007989704,0.012516841,4000,0,-0.044292733,0.038307402,-9.765951,4000,0,0,0,1
4656000,0.0047936924,0.00026630002,0.010652645,4000,0,0.020350713,0.019153785,-9.727644,4000,0,0,0,1
4660000,-0.0034621272,0.005059981,0.008522125,4000,0,0.010773908,-0.013167939,-9.743204,4000,0,0,0,1
4664000,-0.0015978783,-0.0029294754,0.0061252774,4000,0,0.020350713,-0.040701255,-9.76595,4000,0,0,0,1
4668000,0.008522139,-0.014647367,0.006924235,4000,0,0.039504327,-0.04668677,-9.77433,4000,0,0,0,1
4672000,0.010120011,-0.020240031,0.009853688,4000,0,0.040701427,-0.04668677,-9.787498,4000,0,0,0,1
4676000,-0.003994732,-0.015979003,0.0063915057,4000,0,0.016759414,-0.005985333,-9.788693,4000,0,0,0,1
4680000,-0.016511595,0.004527335,-0.0034622035,4000,0,-0.08020575,0.0407016,-9.838972,4000,0,0,0,1
4684000,-0.006924211,0.017310519,-0.0071906196,4000,0,-0.142455,0.04668711,-9.879675,4000,0,0,0,1
4688000,0.0058589512,0.005326302,-0.0029295238,4000,0,-0.095768064,0.038307402,-9.7719345,4000,0,0,0,1
4692000,0.008522126,-0.0026631833,0.006924199,4000,0,-0.050278243,0.0035914718,-9.670183,4000,0,0,0,1
4696000,0.0077231443,0.005592622,0.012250565,4000,0,-0.08020575,-0.009576639,-9.690533,4000,0,0,0,1
4700000,-0.0015979231,0.010119986,0.008255831,4000,0,-0.096965164,0.0359132,-9.749191,4000,0,0,0,1
4704000,-0.0071905116,0.0005326169,0.0077231918,4000,0,-0.0047884034,0.07900883,-9.821015,4000,0,0,0,1
4708000,-0.012783135,-0.014647395,0.010652682,4000,0,0.10654198,0.06224942,-9.841368,4000,0,0,0,1
4712000,-0.020772649,-0.014381108,0.008788394,4000,0,0.06823475,-0.0011969295,-9.768345,4000,0,0,0,1
4716000,-0.010918957,0.0023967943,-0.00266323,4000,0,0.0011971011,-0.049080964,-9.683351,4000,0,0,0,1
4720000,0.001597899,0.009054721,-0.007456886,4000,0,0.026336217,-0.06344618,-9.694122,4000,0,0,0,1
4724000,0.0037284575,0.0029294637,0.007989475,4000,0,0.027533323,-0.058657777,-9.77433,4000,0,0,0,1
4728000,0.0026631756,0.00026630412,0.015180019,4000,0,0.025139121,-0.043095466,-9.832989,4000,0,0,0,1
4736000,-0.013582127,0.0023968148,0.0061252704,4000,0,0.082599975,0.026336389,-9.746798,4000,0,0,0,1
4740000,-0.002396845,0.0013315901,0.0031957896,4000,0,0.02274492,0.017956685,-9.730038,4000,0,0,0,1
4748000,0.0074568526,-0.006657901,-0.00079896045,4000,0,0.05985505,-0.02873025,-9.868899,4000,0,0,0,1
4752000,0.0042610494,-0.0031958036,0.003462111,4000,0,0.03232173,-0.051475175,-9.804258,4000,0,0,0,1
4756000,0.00559264,-0.0018642088,0.0015979001,4000,0,-0.009576809,-0.11492152,-9.762358,4000,0,0,0,1
4760000,0.006391593,1.8939028e-08,-0.008255798,4000,0,-0.037110135,-0.11492152,-9.770737,4000,0,0,0,1
4768000,0.0037284133,-0.0034621034,-0.008788442,4000,0,0.009576809,-0.016759245,-9.811439,4000,0,0,0,1
4772000,-0.006391567,0.0061252927,-0.0021305291,4000,0,0.03232173,-0.01556214,-9.804258,4000,0,0,0,1
4776000,-0.0047936933,0.008788426,-0.004261067,4000,0,0.033518832,0.019153787,-9.803061,4000,0,0,0,1
4780000,0.0015978807,0.00026630505,-0.0055926437,4000,0,0.06105215,0.09935955,-9.756373,4000,0,0,0,1
4784000,-0.006657915,-0.0061252597,0.001331578,4000,0,0.010773908,0.11252767,-9.706093,4000,0,0,0,1
4788000,-0.012516856,-0.010652648,0.0010652624,4000,0,-0.10654198,0.046687115,-9.770737,4000,0,0,0,1
4792000,-0.0029294665,-0.0066579147,-0.002396828,4000,0,-0.05267244,-0.0011969295,-9.830593,4000,0,0,0,1
4800000,0.010120013,-0.005326324,0.0010652561,4000,0,0.034715924,0.02633639,-9.816229,4000,0,0,0,1
4808000,0.012783156,-0.0045273737,0.011185302,4000,0,0.009576809,-0.069431685,-9.788694,4000,0,0,0,1
4812000,0.01997373,-0.0034620117,-0.005592623,4000,0,0.023942016,-0.055066474,-9.77433,4000,0,0,0,1
4816000,0.008255816,-0.0018641145,-0.017044239,4000,0,-0.04070143,-0.041898366,-9.805454,4000,0,0,0,1
4820000,-0.0018642069,0.00026634737,-0.0074568526,4000,0,-0.039504327,-0.007182435,-9.793484,4000,0,0,0,1
4824000,-0.0023968513,-0.0023968418,-0.004527373,4000,0,0.01436521,0.01316828,-9.791088,4000,0,0,0,1
4828000,-0.0013315855,-0.0053263237,-0.003994739,4000,0,-0.017956514,0.04189871,-9.854535,4000,0,0,0,1
4832000,0.0037284072,-0.0098537,0.0031958045,4000,0,-0.06823475,0.06943203,-9.892841,4000,0,0,0,1
4840000,0.0026631495,0.0015978952,0.0037284351,4000,0,-0.12569559,-0.071825884,-9.876082,4000,0,0,0,1
4844000,0.00079894636,0.0045273695,0.0066579073,4000,0,-0.11372458,-0.05746067,-9.818621,4000,0,0,0,1
4848000,0.0071905376,0.0021305438,0.004527364,4000,0,-0.02035072,0.023942186,-9.75757,4000,0,0,0,1
4852000,0.0143810725,-0.0021304986,-0.0037284412,4000,0,0.050278243,0.019153785,-9.731234,4000,0,0,0,1
4860000,0.006391557,-0.013315827,0.0031957766,4000,0,-0.019153617,-0.056263573,-9.787498,4000,0,0,0,1
4864000,0.010652607,-0.009587392,0.010652673,4000,0,-0.019153617,-0.052672267,-9.7803135,4000,0,0,0,1
4868000,0.0026631465,-0.00026632476,0.0050600143,4000,0,-0.011971008,-0.039504156,-9.788693,4000,0,0,0,1
4872000,-0.00319579,-0.0015978948,-0.008255803,4000,0,-0.02633622,-0.02633605,-9.783907,4000,0,0,0,1
4876000,-0.0077231806,-0.0071905283,-0.013582118,4000,0,-0.03232173,-0.016759245,-9.740809,4000,0,0,0,1
4884000,0.01278318,-0.0021305755,-0.0034620655,4000,0,0.12689269,0.0359132,-9.871296,4000,0,0,0,1
4888000,0.014381077,0.0061252476,0.0015979334,4000,0,0.06943185,0.056263916,-9.825806,4000,0,0,0,1
4892000,0.0013315781,0.0029294805,-0.0005326209,4000,0,-0.009576809,-0.033518657,-9.805454,4000,0,0,0,1
4896000,-0.0021305329,0.0042610615,-0.004793686,4000,0,-0.019153617,-0.096965,-9.811439,4000,0,0,0,1
4900000,-0.008255792,0.009853708,-0.0047936854,4000,0,-0.0011971012,-0.067037486,-9.779117,4000,0,0,0,1
4904000,-0.020240035,0.004527391,-0.0055925846,4000,0,0.077811554,0.02394219,-9.768345,4000,0,0,0,1
4908000,-0.020240039,-0.002929481,-0.006125221,4000,0,0.1604115,0.07062913,-9.792285,4000,0,0,0,1
4912000,-0.012516854,-0.0013316036,-0.0071905386,4000,0,0.12928693,0.017956687,-9.835382,4000,0,0,0,1
4916000,-0.010652624,0.007456843,-0.0082558375,4000,0,0.038307235,-0.043095466,-9.853339,4000,0,0,0,1
4920000,-0.0133158015,0.006657919,-0.005858945,4000,0,-0.015562311,-0.059854876,-9.817424,4000,0,0,0,1
4924000,-0.011984234,-0.0007989345,-0.002130499,4000,0,0.009576809,-0.01436504,-9.777922,4000,0,0,0,1
4932000,-0.0010652634,-0.00026630418,0.0058589564,4000,0,0.016759414,0.04189871,-9.8677025,4000,0,0,0,1
4936000,-0.003195782,-0.00639159,0.011185281,4000,0,-0.041898537,-0.03351866,-9.743204,4000,0,0,0,1
4940000,-0.0013315617,-0.0103863245,0.009321073,4000,0,-0.035913024,-0.06344618,-9.645043,4000,0,0,0,1
4948000,-0.007190537,-0.010120036,0.008788406,4000,0,0.027533323,-0.035912853,-9.804258,4000,0,0,0,1
4952000,0.0015979143,-0.009587367,0.0031958218,4000,0,0.03351883,-0.0011969283,-9.879675,4000,0,0,0,1
4956000,0.014913695,-0.003728412,0.003994787,4000,0,0.020350713,-0.022744745,-9.832989,4000,0,0,0,1
4960000,0.00479367,0.003728374,0.011717933,4000,0,-0.0035913028,-0.11372442,-9.849746,4000,0,0,0,1
4964000,-0.009321076,0.005592589,0.008522137,4000,0,0.016759414,-0.0873882,-9.886856,4000,0,0,0,1
4968000,-0.009321071,-0.0013316236,-0.005326302,4000,0,0.03232173,0.041898705,-9.801862,4000,0,0,0,1
4972000,-0.008522132,-0.010120011,-0.0045273467,4000,0,-0.01316811,0.07182623,-9.71208,4000,0,0,0,1
4976000,-0.012783201,-0.006924186,0.005059982,4000,0,-0.041898537,0.057461016,-9.7324295,4000,0,0,0,1
4980000,-0.010120021,0.0015978924,0.0029294475,4000,0,-0.05865795,0.027533496,-9.823412,4000,0,0,0,1
4988000,0.007456838,0.010652644,-0.012516868,4000,0,-0.055066645,-0.065840386,-9.889252,4000,0,0,0,1
4992000,0.0021305075,0.0031958094,-0.009853696,4000,0,-0.06464346,0.0035914744,-9.816229,4000,0,0,0,1
4996000,0.004793683,-0.0005326448,-0.0045273807,4000,0,-0.06584056,0.033519,-9.733627,4000,0,0,0,1
5000000,0.0010652656,0.000266321,-0.003994742,4000,0,-0.08020575,0.017956685,-9.753977,4000,0,0,0,1
5004000,-0.009853695,0.0013315948,-0.0026631602,4000,0,-0.055066645,-0.005985333,-9.792284,4000,0,0,0,1
5012000,0.0010652742,-0.0026631372,0.010386334,4000,0,-0.03232173,0.09337404,-9.862916,4000,0,0,0,1
5016000,0.0021305177,0.0023968508,0.0037284286,4000,0,-0.057460837,0.0071827755,-9.816229,4000,0,0,0,1
5020000,0.0077231564,0.010386338,1.386989e-09,4000,0,0.0011971015,-0.052672267,-9.720461,4000,0,0,0,1
5024000,0.008788451,0.003994728,0.0053263023,4000,0,0.016759416,-0.06464328,-9.7396145,4000,0,0,0,1
5028000,-0.00026631827,0.0015978948,0.0005326374,4000,0,0.010773908,-0.10414762,-9.78989,4000,0,0,0,1
5032000,-0.00079895393,0.011451594,-0.006391588,4000,0,0.01436521,-0.118512824,-9.817425,4000,0,0,0,1
5036000,0.0066579203,0.010918948,-0.0015979249,4000,0,-0.0071826056,-0.11731573,-9.807847,4000,0,0,0,1
5040000,0.0053263395,-1.2963597e-08,0.0045273555,4000,0,-0.031124622,-0.09935922,-9.812637,4000,0,0,0,1
5044000,-0.0013315706,-0.0066579166,0.0061252597,4000,0,-0.034715924,-0.032321557,-9.824609,4000,0,0,0,1
5048000,-0.0077231745,-0.006125283,0.007989469,4000,0,-0.0023942017,0.0323219,-9.846155,4000,0,0,0,1
5052000,-0.010386332,-0.008522114,0.012250544,4000,0,-0.009576809,0.07661464,-9.854535,4000,0,0,0,1
5056000,-0.0015978686,-0.013848412,0.00985374,4000,0,-0.03232173,0.0359132,-9.758768,4000,0,0,0,1
5060000,0.0026631597,-0.010652633,0.0079895025,4000,0,-0.01436521,-0.04429256,-9.752781,4000,0,0,0,1
5064000,-0.003462159,-0.0058589806,0.018375797,4000,0,0.01436521,-0.123301215,-9.825806,4000,0,0,0,1
5068000,0.0031957284,0.003994785,0.021038977,4000,0,0.0047884043,-0.15682006,-9.794682,4000,0,0,0,1
5072000,0.0066578616,0.008255835,0.012516859,4000,0,-0.009576809,-0.07781139,-9.731234,4000,0,0,0,1
5076000,-0.0069242003,-0.0010653047,0.0050600227,4000,0,0.038307235,-0.022744749,-9.721657,4000,0,0,0,1
5080000,-0.0079894755,-0.0071905293,0.00852213,4000,0,0.041898537,-0.06823458,-9.7803135,4000,0,0,0,1
5084000,-0.00026633346,-0.009853646,0.01890847,4000,0,-0.016759414,-0.099359214,-9.764753,4000,0,0,0,1
5088000,0.0007989768,-0.011451588,0.013315811,4000,0,0.008379709,-0.003591134,-9.683351,4000,0,0,0,1
5092000,-0.0029294607,-0.006924234,0.0037284128,4000,0,0.077811554,0.073023334,-9.72884,4000,0,0,0,1
5096000,-0.0055926484,-0.000266319,0.0042610453,4000,0,0.12808979,0.088585645,-9.862916,4000,0,0,0,1
5100000,-0.0034621141,0.0026631693,0.0069242143,4000,0,0.14963764,0.124498665,-9.941923,4000,0,0,0,1
5104000,-0.0010652508,0.0018642338,0.020506343,4000,0,0.055066645,0.037110306,-9.895235,4000,0,0,0,1
5108000,0.0018643041,-0.0109189395,0.0263653,4000,0,-0.047884036,-0.07541719,-9.821015,4000,0,0,0,1
5112000,-0.0002662,-0.015978973,0.0066578914,4000,0,-0.027533324,-0.07182589,-9.812637,4000,0,0,0,1
5116000,-0.0034620883,0.0005326248,-0.0042610774,4000,0,0.050278246,-0.06105198,-9.842566,4000,0,0,0,1
5120000,-0.0039947275,0.009321076,0.004261048,4000,0,0.035913028,-0.04548967,-9.883265,4000,0,0,0,1
5124000,-0.0034620871,0.0026631677,0.008522125,4000,0,-0.017956514,-0.037109964,-9.834186,4000,0,0,0,1
5128000,-0.00079893967,-0.0029294793,0.0005326363,4000,0,-0.020350713,-0.087388195,-9.7240505,4000,0,0,0,1
5132000,-0.00053262967,-0.0047936905,-0.0018642123,4000,0,-0.0071826046,-0.14245483,-9.719263,4000,0,0,0,1
5136000,-0.0015979056,-0.0053263213,0.0034621083,4000,0,0.043095633,-0.13168094,-9.749191,4000,0,0,0,1
5140000,-0.007456869,-0.0007989519,0.010120002,4000,0,0.0071826056,-0.05147517,-9.782708,4000,0,0,0,1
5144000,-0.0063916016,0.0026631907,0.020772649,4000,0,-0.095768064,-0.0047882316,-9.859323,4000,0,0,0,1
5148000,0.006125283,0.0010653536,0.022104232,4000,0,-0.101753585,-0.014365039,-9.858126,4000,0,0,0,1
5152000,0.0063916235,-0.003994735,0.019441068,4000,0,-0.099359386,0.020350888,-9.832989,4000,0,0,0,1
5156000,0.0066579725,-0.014913706,0.02103895,4000,0,-0.11372458,-0.0035911307,-9.868902,4000,0,0,0,1
5160000,0.009853792,-0.019174712,0.0079894895,4000,0,-0.062249243,-0.0885853,-9.91439,4000,0,0,0,1
5164000,-0.00053253496,-0.014114725,-0.009321115,4000,0,0.01316811,-0.028730249,-9.838972,4000,0,0,0,1
5168000,-0.003195787,-0.012783166,-0.00985371,4000,0,0.016759416,0.021547986,-9.740809,4000,0,0,0,1
5172000,-0.0015978994,-0.007989486,-0.0055926377,4000,0,-0.04548984,-0.020350544,-9.7240505,4000,0,0,0,1
5176000,-0.00932109,-0.0029294563,0.0077231433,4000,0,-0.043095633,-0.044292565,-9.65103,4000,0,0,0,1
5180000,-0.013848449,-0.0034620843,0.01970739,4000,0,-0.011971009,-0.02274475,-9.65462,4000,0,0,0,1
5188000,-0.008522125,0.0026631318,-0.001864219,4000,0,-0.04070143,0.07661464,-9.743204,4000,0,0,0,1
5192000,-0.007456847,-0.0018641881,0.0071905474,4000,0,-0.05267244,-0.013167938,-9.841368,4000,0,0,0,1
5196000,-0.008788454,0.0063915965,0.011984205,4000,0,-0.008379709,-0.06464328,-9.90601,4000,0,0,0,1
5200000,-0.008788483,0.0125168245,-0.0002663336,4000,0,0.034715924,-0.084993996,-9.824608,4000,0,0,0,1
5204000,0.00026623285,0.0031957356,-0.019973723,4000,0,0.043095633,-0.06703748,-9.830592,4000,0,0,0,1
5208000,0.006391559,-0.00026635602,-0.025832675,4000,0,0.053869545,-0.019153446,-9.853339,4000,0,0,0,1
5212000,0.00026633983,0.0026631781,-0.008788428,4000,0,0.05746084,-0.0023940324,-9.718067,4000,0,0,0,1
5220000,-0.0013315814,-0.0007989475,0.0063915877,4000,0,0.041898537,0.01197118,-9.815031,4000,0,0,0,1
5224000,-0.004527398,0.00985369,0.0069242143,4000,0,0.020350713,-0.05985488,-9.834185,4000,0,0,0,1
5228000,-0.0026631744,0.01251686,0.0047936807,4000,0,-0.035913028,-0.12808962,-9.745598,4000,0,0,0,1
5232000,-0.0055926386,0.00506,0.0021305482,4000,0,-0.09816227,-0.11133021,-9.694122,4000,0,0,0,1
5236000,-0.0146473795,0.0018642143,0.006391609,4000,0,-0.10654198,-0.062249076,-9.738417,4000,0,0,0,1
5240000,-0.010119996,-0.0045273323,0.013049518,4000,0,-0.067037664,-0.019153448,-9.747993,4000,0,0,0,1
5244000,0.0013316113,-0.010652604,0.010386367,4000,0,0.03232173,0.0071827755,-9.727644,4000,0,0,0,1
5248000,0.004527334,0.0013315917,0.01012003,4000,0,0.05865795,-0.014365041,-9.763555,4000,0,0,0,1
5252000,-0.00026635372,0.013582094,0.01864215,4000,0,-0.011971008,-0.069431685,-9.77433,4000,0,0,0,1
5256000,-0.00612523,0.0061252345,0.017576892,4000,0,-0.08738836,-0.07900849,-9.747993,4000,0,0,0,1
5260000,-0.0034620832,-0.00026631163,0.01225055,4000,0,-0.08140285,-0.03351866,-9.759963,4000,0,0,0,1
5264000,-0.00053267356,0.009853709,0.011185267,4000,0,-0.0047884043,0.0083798785,-9.838972,4000,0,0,0,1
5268000,0.0002662803,0.015712654,0.0069242166,4000,0,-0.0023942024,0.033519,-9.90601,4000,0,0,0,1
5272000,0.0034620867,0.015446345,0.0023968287,4000,0,-0.08858546,0.06943203,-9.836578,4000,0,0,0,1
5276000,0.001864244,0.021038966,0.00932108,4000,0,-0.13407531,0.11372475,-9.745598,4000,0,0,0,1
5280000,0.0007990035,0.016511595,0.015180025,4000,0,-0.05746084,0.09457115,-9.755177,4000,0,0,0,1
5284000,0.00079891965,0.00106527,-0.0042610625,4000,0,0.02274492,0.043095805,-9.733627,4000,0,0,0,1
5288000,-0.0034621242,-0.004261046,-0.023435822,4000,0,-0.014365209,0.037110303,-9.676167,4000,0,0,0,1
5292000,-0.00026634417,-0.005858967,-0.012516852,4000,0,-0.08738836,0.051475514,-9.746798,4000,0,0,0,1
5296000,0.006924174,-0.01038636,0.0013315948,4000,0,-0.07541737,0.035913195,-9.815031,4000,0,0,0,1
5300000,0.008255816,-0.0053263097,-0.003994725,4000,0,0.02753332,0.0442929,-9.76595,4000,0,0,0,1
5308000,-0.00958735,0.010386359,-0.004261056,4000,0,0.1161188,0.005985673,-9.743204,4000,0,0,0,1
5312000,0.008522127,0.010119998,-0.0010653262,4000,0,0.06344634,-0.057460673,-9.709686,4000,0,0,0,1
5320000,0.019441081,0.0026631388,-0.0021305415,4000,0,-0.040701427,-0.011970836,-9.901223,4000,0,0,0,1
5324000,0.02583267,-0.0034621588,0.0047936444,4000,0,-0.1412579,0.02633639,-9.823412,4000,0,0,0,1
5328000,0.020240039,-0.010652634,0.0023967763,4000,0,-0.21308395,-0.038307063,-9.799467,4000,0,0,0,1
5332000,0.008522148,-0.011984179,-0.006125321,4000,0,-0.16879125,-0.026336048,-9.838972,4000,0,0,0,1
5336000,0.010652681,-0.015978944,-0.016777918,4000,0,-0.12928692,0.11372476,-9.864112,4000,0,0,0,1
5340000,0.0149137415,-0.01411476,-0.021837894,4000,0,-0.07661447,0.13766678,-9.877279,4000,0,0,0,1
5344000,0.004793734,-0.00026630342,-0.009587361,4000,0,-0.008379708,0.081403024,-9.901223,4000,0,0,0,1
5348000,-0.00026627906,0.011717904,0.0042610774,4000,0,-0.032321732,0.007182777,-9.921572,4000,0,0,0,1
5352000,-0.0026631788,0.00932106,-0.0010652553,4000,0,-0.023942018,-0.08020559,-9.847351,4000,0,0,0,1
5360000,0.006391593,0.0023968308,-0.0007989508,4000,0,0.079008654,0.056263912,-9.702503,4000,0,0,0,1
5364000,0.014913711,0.013049479,0.003462126,4000,0,0.053869545,0.06224942,-9.7240505,4000,0,0,0,1
5368000,0.01970739,0.013848447,0.0026631446,4000,0,0.020350713,0.056263912,-9.75757,4000,0,0,0,1
5372000,0.01225051,0.0021305857,-0.0069242613,4000,0,0.049081136,0.016759582,-9.759963,4000,0,0,0,1
5376000,0.003994726,-0.0037283949,-0.009853716,4000,0,0.020350715,-0.037109964,-9.7324295,4000,0,0,0,1
5380000,0.0045273704,0.0002662959,0.003994748,4000,0,-0.02633622,-0.022744749,-9.762358,4000,0,0,0,1
5384000,0.0034621118,-0.0007989642,0.013315804,4000,0,0.027533324,-0.020350544,-9.870098,4000,0,0,0,1
5388000,0.0042610695,-0.0026631434,0.0010652626,4000,0,0.0071826056,-0.07781139,-9.931149,4000,0,0,0,1
5392000,0.008788444,0.0015979181,-0.012516849,4000,0,-0.067037664,-0.0921766,-9.895235,4000,0,0,0,1
5396000,0.01677792,0.002396797,-0.007456854,4000,0,-0.041898537,-0.034715753,-9.8198185,4000,0,0,0,1
5400000,0.013582122,-0.0005326765,0.0018641992,4000,0,0.01316811,-0.037109964,-9.811439,4000,0,0,0,1
5408000,-0.007190531,-0.0010652815,0.004793694,4000,0,0.016759416,0.019153787,-9.801862,4000,0,0,0,1
5412000,-0.008788425,-0.005060015,0.002396854,4000,0,-0.083797075,0.038307402,-9.807847,4000,0,0,0,1
5416000,-0.010120017,-0.003462104,0.004793683,4000,0,-0.06584056,0.050278414,-9.830592,4000,0,0,0,1
5420000,-0.0050600097,-0.0018642023,0.00559264,4000,0,0.005985504,0.02633639,-9.823412,4000,0,0,0,1
5424000,0.0077231606,0.0013316071,0.007190538,4000,0,-0.005985504,-0.06105198,-9.813835,4000,0,0,0,1
5428000,0.0039947433,6.015358e-10,0.0034621083,4000,0,0.01316811,-0.049080964,-9.777922,4000,0,0,0,1
5436000,0.016777912,-0.006657919,-0.0013315415,4000,0,0.082599975,0.05865812,-9.806652,4000,0,0,0,1
5444000,0.002396845,-0.00026631597,-7.6117385e-10,4000,0,0.027533323,0.025139295,-9.88207,4000,0,0,0,1
5448000,0.007190536,-0.0023968471,0.0023968436,4000,0,-0.0023942022,0.058658123,-9.799467,4000,0,0,0,1
5452000,0.013315811,-0.0061252643,0.0018642088,4000,0,0.038307235,0.13766676,-9.738417,4000,0,0,0,1
5456000,0.002130549,-0.002663121,-0.008788441,4000,0,0.06584056,0.11731607,-9.736021,4000,0,0,0,1
5460000,-0.011984198,0.006391631,-0.0114516,4000,0,-0.004788406,0.06224942,-9.756374,4000,0,0,0,1
5464000,-0.017310493,0.01597903,-0.002130556,4000,0,-0.04668694,0.031124797,-9.7324295,4000,0,0,0,1
5472000,-0.0074569094,0.0109189125,-0.010652656,4000,0,0.02633622,-0.04788387,-9.702503,4000,0,0,0,1
5476000,0.0029294293,0.00053258764,-0.01384845,4000,0,0.039504327,0.021547986,-9.758768,4000,0,0,0,1
5480000,0.002396852,0.0018642105,-0.008788431,4000,0,0.020350713,0.05865812,-9.831791,4000,0,0,0,1
5484000,0.003195825,0.009321049,0.006125277,4000,0,-0.010773908,0.004788576,-9.831791,4000,0,0,0,1
5492000,0.008255824,-0.0055926414,0.014381058,4000,0,0.010773908,-0.06344618,-9.793484,4000,0,0,0,1
5496000,-0.00026637258,0.006391547,0.013848457,4000,0,-0.029927526,-0.0897824,-9.78989,4000,0,0,0,1
5500000,-0.006391567,0.0005326036,0.0106526585,4000,0,0.0047884034,-0.07302299,-9.793484,4000,0,0,0,1
5504000,-0.0042610406,-0.0053263456,-0.0037284137,4000,0,0.1173159,-0.008379535,-9.836578,4000,0,0,0,1
5508000,-0.0042610425,0.0021305236,-0.007723178,4000,0,0.07661447,0.029927697,-9.856929,4000,0,0,0,1
5512000,-0.010119994,0.0069242488,0.0021305266,4000,0,0.013168109,1.7151353e-07,-9.827002,4000,0,0,0,1
5516000,-0.003195779,0.006125297,0.008255787,4000,0,0.02633622,0.053869717,-9.776724,4000,0,0,0,1
5520000,0.004527372,0.0069242404,0.007989468,4000,0,-0.02513912,0.087388545,-9.733627,4000,0,0,0,1
5524000,0.0047936556,0.01331582,0.0002663254,4000,0,-0.050278243,0.037110306,-9.716867,4000,0,0,0,1
5528000,0.004793607,0.011717941,-0.018375814,4000,0,0.0047884043,0.021547988,-9.781511,4000,0,0,0,1
5532000,-0.0021306651,-0.0034620496,-0.029294774,4000,0,-0.016759414,-0.040701255,-9.827002,4000,0,0,0,1
5536000,-0.006125338,-0.0087883845,-0.015978971,4000,0,-0.023942016,-0.10773892,-9.769541,4000,0,0,0,1
5540000,-0.0031957985,0.002663191,0.0063915728,4000,0,0.01436521,-0.07182589,-9.769541,4000,0,0,0,1
5544000,0.002663147,0.013049512,0.0149136875,4000,0,-0.02274492,-0.011970837,-9.856929,4000,0,0,0,1
5548000,0.010918903,0.014913754,0.003462076,4000,0,-0.029927526,0.011971182,-9.866506,4000,0,0,0,1
5556000,0.015179996,-0.0018642044,-0.008788475,4000,0,-0.040701427,-0.07302299,-9.840169,4000,0,0,0,1
5560000,0.008788461,0.008255809,-0.0069241724,4000,0,0.04668694,-0.040701255,-9.913193,4000,0,0,0,1
5564000,-0.00079889764,0.015978957,0.0050600567,4000,0,0.13407533,-0.03710996,-9.977838,4000,0,0,0,1
5568000,-0.005592606,0.010120005,0.009321091,4000,0,0.10893619,-0.070628785,-9.988609,4000,0,0,0,1
5572000,-0.0023968697,0.010120009,0.002130519,4000,0,0.050278243,-0.0885853,-9.915586,4000,0,0,0,1
5576000,0.00159788,0.011185278,-0.0026631756,4000,0,0.038307235,-0.03351866,-9.794682,4000,0,0,0,1
5580000,0.002929454,0.005060008,-0.0074568596,4000,0,0.01436521,0.04668711,-9.731234,4000,0,0,0,1
5584000,0.0042610555,0.0010652575,-0.003462116,4000,0,-0.041898537,-0.0023940315,-9.832989,4000,0,0,0,1
5588000,-0.003728426,0.0018642254,-0.0055926354,4000,0,-0.06584056,-0.06823458,-9.98502,4000,0,0,0,1
5592000,-0.013049491,0.00399475,-0.013049487,4000,0,-0.03711013,-0.044292558,-10.004173,4000,0,0,0,1
5596000,0.0026631586,0.0023967887,-0.010386344,4000,0,0.04070143,-0.025138948,-9.913193,4000,0,0,0,1
5600000,0.01944107,-0.001065326,-0.0063916035,4000,0,0.05746084,-0.033518657,-9.78989,4000,0,0,0,1
5604000,0.008788428,-0.0029294654,-0.004793706,4000,0,-0.06584056,0.0071827755,-9.703699,4000,0,0,0,1
5608000,-0.005592644,-0.006391566,-0.004261082,4000,0,-0.102950685,0.05865812,-9.670183,4000,0,0,0,1
5612000,0.0010652628,-0.007989493,-0.004527358,4000,0,0.0,0.031124797,-9.660606,4000,0,0,0,1
5616000,0.008522105,-0.0069242325,0.00026633625,4000,0,0.017956512,-0.015562142,-9.7396145,4000,0,0,0,1
5620000,-0.0031957936,-0.0047936905,-2.1077255e-08,4000,0,-0.037110135,-0.01556214,-9.8198185,4000,0,0,0,1
5624000,-0.013582112,-0.00026632345,-0.0069242404,4000,0,-0.084994175,-0.041898366,-9.7803135,4000,0,0,0,1
5628000,-0.004527357,0.0077231624,-0.003462145,4000,0,-0.09337388,-0.10893602,-9.701307,4000,0,0,0,1
5636000,0.00452737,0.0053263237,-0.0029294821,4000,0,0.12569559,-0.014365038,-9.848549,4000,0,0,0,1
5640000,0.00026633247,0.005592629,0.0061252797,4000,0,0.10055649,-0.02035054,-9.900026,4000,0,0,0,1
5644000,-0.004527382,0.0063915784,0.0029294868,4000,0,0.02633622,-0.01556214,-9.822214,4000,0,0,0,1
5648000,-0.010652668,0.0050599836,-0.0077231536,4000,0,-0.0011971012,-0.041898366,-9.792285,4000,0,0,0,1
5652000,-0.012783178,0.0015979146,-0.004261043,4000,0,-0.043095633,-0.15203166,-9.828198,4000,0,0,0,1
5656000,-0.010918964,-0.00452734,0.0045274002,4000,0,-0.02873042,-0.102950506,-9.844959,4000,0,0,0,1
5660000,-0.0069242227,-8.0300755e-10,0.002663151,4000,0,0.034715924,0.070629135,-9.872493,4000,0,0,0,1
5668000,0.009587362,0.011984234,-0.007989498,4000,0,-0.008379708,0.04668711,-9.827002,4000,0,0,0,1
5672000,-0.0063916408,-0.0029294235,-0.011451577,4000,0,-0.034715924,-0.0011969276,-9.8677025,4000,0,0,0,1
5676000,-0.0098537,-0.0034620934,-0.010120014,4000,0,-0.07062895,-0.01556214,-9.889252,4000,0,0,0,1
5680000,-0.0031957673,0.004261034,-0.010652663,4000,0,-0.067037664,0.027533494,-9.805455,4000,0,0,0,1
5684000,-0.0042610746,-0.0021305203,-0.005858947,4000,0,-0.029927524,0.019153787,-9.805455,4000,0,0,0,1
5688000,-0.010386331,0.00026634225,0.003994734,4000,0,-0.05746084,0.033519,-9.865309,4000,0,0,0,1
5692000,-0.011717915,0.0029294759,0.0039947326,4000,0,-0.071826056,0.051475517,-9.824608,4000,0,0,0,1
5700000,0.004261057,-0.0058589447,0.0053263353,4000,0,0.021547817,-0.07541719,-9.751583,4000,0,0,0,1
5704000,0.0053263213,-0.011185283,0.0111852735,4000,0,0.095768064,-0.01316794,-9.768345,4000,0,0,0,1
5708000,0.0055926396,-0.012250544,0.012250543,4000,0,0.049081136,0.059855223,-9.716867,4000,0,0,0,1
5712000,0.002663172,-0.009054751,0.006391581,4000,0,-0.11133039,-0.01077374,-9.688137,4000,0,0,0,1
5716000,-0.008255777,-0.0055926535,-0.003728456,4000,0,-0.09337388,-0.020350546,-9.664197,4000,0,0,0,1
5720000,-0.0093210405,-0.00026634173,-0.013582139,4000,0,0.023942016,0.057461005,-9.689336,4000,0,0,0,1
5724000,-0.00026631774,-0.0005326591,-0.009054747,4000,0,0.023942016,0.05865812,-9.768345,4000,0,0,0,1
5728000,-0.0007989559,-0.0026631595,-0.0034621095,4000,0,-0.01436521,0.09576825,-9.793484,4000,0,0,0,1
5732000,-0.0050599976,3.254661e-09,-0.010386333,4000,0,0.0011971008,0.16041169,-9.794682,4000,0,0,0,1
5736000,-0.0034621113,-0.0005326385,-0.010918961,4000,0,0.05506665,0.18555081,-9.782708,4000,0,0,0,1
5740000,0.0031957608,-0.009054763,-0.0013315699,4000,0,0.053869545,0.18914211,-9.696517,4000,0,0,0,1
5744000,0.00772317,-0.008255802,-0.0021305147,4000,0,0.021547817,0.11611897,-9.62589,4000,0,0,0,1
5748000,0.006924237,-0.0026631483,-0.0069242073,4000,0,-0.017956514,-0.020350546,-9.71208,4000,0,0,0,1
5752000,0.0053263255,-0.0010652619,-0.006391585,4000,0,-0.049081136,-0.03351866,-9.816229,4000,0,0,0,1
5756000,-0.0050599948,0.0042610825,-0.0077231624,4000,0,-0.02633622,0.029927695,-9.812637,4000,0,0,0,1
5760000,-0.012250527,0.003462148,0.0042610695,4000,0,-0.009576809,1.7078226e-07,-9.785104,4000,0,0,0,1
5764000,-0.006125231,-0.007989389,0.025300073,4000,0,-0.0011971008,-0.023941848,-9.759963,4000,0,0,0,1
5768000,-0.0082557555,-0.013049511,0.024234772,4000,0,-0.0071826046,-0.05865778,-9.810242,4000,0,0,0,1
5772000,-0.015712729,0.001864126,0.014647315,4000,0,-0.050278243,-0.10295051,-9.879675,4000,0,0,0,1
5776000,-0.009321146,0.018109515,0.011451505,4000,0,-0.05865795,-0.058657777,-9.853339,4000,0,0,0,1
5780000,0.0007989789,0.0122505855,0.012783132,4000,0,-0.041898537,0.0059856763,-9.846155,4000,0,0,0,1
5788000,0.014114803,-0.007456779,0.01091895,4000,0,-0.040701427,0.09696535,-9.90601,4000,0,0,0,1
5792000,0.016777944,-0.008255744,0.0010652672,4000,0,-0.011971008,0.038307406,-9.949107,4000,0,0,0,1
5800000,0.007989502,-0.007989449,-0.007989499,4000,0,-0.0047884043,-0.037109964,-9.825806,4000,0,0,0,1
5804000,0.005858983,-0.010119972,-0.02077267,4000,0,-0.0035913025,-0.039504156,-9.787498,4000,0,0,0,1
5808000,-0.0007988907,-0.0034620564,-0.024234775,4000,0,-0.02873042,-0.05985488,-9.837774,4000,0,0,0,1
5812000,-0.00452732,0.0045274068,-0.015978973,4000,0,-0.044292733,-0.07541719,-9.846155,4000,0,0,0,1
5816000,-0.005326302,0.0047937133,-0.003462109,4000,0,0.008379707,-0.003591131,-9.864112,4000,0,0,0,1
5820000,-0.007190539,3.6163363e-09,-0.00266315,4000,0,0.055066645,0.06703782,-9.880873,4000,0,0,0,1
5828000,0.0069242176,-0.0005326313,0.0026631674,4000,0,0.07541737,0.059855223,-9.734823,4000,0,0,0,1
5832000,0.011984228,0.00026634103,-0.0061252685,4000,0,0.09217678,0.0395045,-9.806652,4000,0,0,0,1
5836000,0.012250544,0.0010652984,-0.014647385,4000,0,0.021547817,-0.002394031,-9.815032,4000,0,0,0,1
5840000,0.0069242367,0.0047937282,-0.01757685,4000,0,-0.0071826056,-0.057460673,-9.749191,4000,0,0,0,1
5844000,0.0013315709,0.000532643,-0.007989487,4000,0,-0.025139121,-0.02274475,-9.707291,4000,0,0,0,1
5848000,-0.0013315884,-0.0034621102,0.009054748,4000,0,-0.055066645,0.026336389,-9.7444,4000,0,0,0,1
5852000,0.0045273597,-0.0010652439,0.016245289,4000,0,-0.05746084,-0.0047882334,-9.764753,4000,0,0,0,1
5856000,0.009587327,0.009054784,0.011717927,4000,0,-0.09337388,0.007182776,-9.747993,4000,0,0,0,1
5860000,0.004527324,0.019174753,0.007723216,4000,0,-0.08259997,0.004788576,-9.787498,4000,0,0,0,1
5864000,0.0007990174,0.01225052,0.015712665,4000,0,0.0011971015,-0.0047882316,-9.847352,4000,0,0,0,1
5868000,-0.0055925064,-0.003994779,0.027164267,4000,0,0.029927526,0.021547988,-9.848549,4000,0,0,0,1
5872000,-0.0138483,-0.018908527,0.024234783,4000,0,0.031124622,0.017956685,-9.797075,4000,0,0,0,1
5876000,-0.013049382,-0.023435866,0.0127832005,4000,0,0.027533324,0.04668711,-9.714474,4000,0,0,0,1
5880000,-0.013049521,-0.012250552,0.010652598,4000,0,0.0047884043,0.074220434,-9.704897,4000,0,0,0,1
5884000,-0.0077232136,-0.0007989252,0.011717881,4000,0,0.0,0.0059856754,-9.783907,4000,0,0,0,1
5888000,0.0063915793,0.0015979424,0.007989482,4000,0,-0.019153617,0.010774079,-9.821016,4000,0,0,0,1
5892000,0.0039947494,-0.0021305273,0.003994735,4000,0,-0.005985504,0.037110303,-9.829395,4000,0,0,0,1
5896000,-0.0005326289,-0.004793697,0.0042610513,4000,0,0.021547817,-0.051475175,-9.838972,4000,0,0,0,1
5900000,0.014647386,0.002396866,-0.00079892547,4000,0,-0.062249243,-0.029927354,-9.821015,4000,0,0,0,1
5904000,0.01837581,0.0037284603,-0.007989481,4000,0,-0.17956513,0.04549001,-9.799467,4000,0,0,0,1
5908000,0.0031957608,-0.009587351,-0.0063916505,4000,0,-0.21787238,0.02394219,-9.806652,4000,0,0,0,1
5912000,-0.0034621258,-0.013848429,-0.0042610844,4000,0,-0.11492168,-0.013167939,-9.841368,4000,0,0,0,1
5916000,-0.0013315787,-0.00026631463,-0.0005326381,4000,0,0.038307235,-0.01556214,-9.864112,4000,0,0,0,1
5920000,-0.0031957936,0.0047936947,0.0069242176,4000,0,0.07302317,0.014365383,-9.891646,4000,0,0,0,1
5924000,-0.0037283918,-0.005060001,0.01384845,4000,0,0.015562313,-0.0095766345,-9.921572,4000,0,0,0,1
5932000,0.006125213,0.0021305569,0.018375829,4000,0,0.08020575,-0.0957679,-9.842566,4000,0,0,0,1
5940000,0.008522104,0.0013316211,-0.0039947554,4000,0,-0.05267244,-0.03112445,-9.928757,4000,0,0,0,1
5944000,-0.0010652685,-0.0015978841,-0.0039947457,4000,0,-0.039504327,-0.071825884,-9.879675,4000,0,0,0,1
5948000,-0.0055926405,8.076475e-09,0.0018642099,4000,0,-0.009576809,-0.124498315,-9.849746,4000,0,0,0,1
5952000,0.005326321,0.003728435,0.0029294703,4000,0,-0.0011971011,-0.06105198,-9.817424,4000,0,0,0,1
5956000,0.011717909,0.0029294877,0.00079893915,4000,0,0.017956512,-0.016759245,-9.805454,4000,0,0,0,1
5964000,-0.0018642122,-0.0037284277,0.0015978939,4000,0,0.104147784,-0.15801716,-9.815031,4000,0,0,0,1
5972000,-0.008522118,0.0023968434,0.008788433,4000,0,0.06105215,0.051475517,-9.767148,4000,0,0,0,1
5980000,-0.014114761,0.0034621053,0.015180015,4000,0,0.050278246,0.0143653825,-9.813835,4000,0,0,0,1
5984000,-0.009054726,-0.002663172,0.0074568754,4000,0,0.06105215,0.020350888,-9.822214,4000,0,0,0,1
5988000,-0.007989474,-0.006125278,0.0045273853,4000,0,0.062249243,0.063446514,-9.794682,4000,0,0,0,1
5996000,-0.00985369,-0.0026631819,-0.00053264265,4000,0,-0.07302317,-0.0035911293,-9.926363,4000,0,0,0,1
6000000,-0.006391582,0.005326309,-0.0045273984,4000,0,0.028730422,-0.019153444,-9.876082,4000,0,0,0,1
6004000,-0.00026632848,-1.42294985e-08,-0.006924219,4000,0,0.1209072,-0.034715753,-9.838972,4000,0,0,0,1
6008000,0.0029294766,-0.00053263945,-0.0053263223,4000,0,0.089782566,-0.01436504,-9.849746,4000,0,0,0,1
6012000,-0.0053263144,0.0050600134,0.0029294814,4000,0,0.025139121,0.013168281,-9.827002,4000,0,0,0,1
6016000,-0.008255796,0.0029294782,0.0047936994,4000,0,-0.011971008,-0.020350542,-9.831791,4000,0,0,0,1
6020000,0.00026631186,0.0026631616,-7.542418e-09,4000,0,-0.051475342,-0.011970838,-9.830592,4000,0,0,0,1
6024000,0.0015978948,0.0085221175,-0.0021305298,4000,0,-0.038307235,0.013168281,-9.770737,4000,0,0,0,1
6028000,-0.00026631032,0.0135821225,-0.0013315724,4000,0,0.045489836,-0.029927356,-9.76116,4000,0,0,0,1
6032000,-0.004793646,0.009853699,0.008788453,4000,0,0.089782566,-0.038307063,-9.825806,4000,0,0,0,1
6036000,-0.014381023,0.0023968301,0.017044276,4000,0,0.08619127,-0.008379536,-9.830592,4000,0,0,0,1
6040000,-0.0074568526,0.0007989328,0.0055926405,4000,0,0.08020575,-0.058657777,-9.747993,4000,0,0,0,1
6044000,0.010386316,0.006924227,-0.005060026,4000,0,0.03711013,-0.071825884,-9.730038,4000,0,0,0,1
6048000,0.00905476,0.008522107,-0.0018642043,4000,0,0.020350715,-0.043095466,-9.755177,4000,0,0,0,1
6052000,-0.0018642064,0.0021305245,0.0018642246,4000,0,0.010773908,-0.06823458,-9.744401,4000,0,0,0,1
6056000,0.0026631625,-0.0013315786,0.0007989474,4000,0,-0.04668694,-0.083796896,-9.738417,4000,0,0,0,1
6060000,0.008522116,0.00213053,0.0018642187,4000,0,-0.039504327,-0.043095466,-9.758768,4000,0,0,0,1
6064000,0.0071905386,0.005592616,0.009853709,4000,0,0.033518832,0.034716096,-9.797075,4000,0,0,0,1
6068000,0.009321079,0.004261053,0.014647381,4000,0,0.049081136,0.04549001,-9.791088,4000,0,0,0,1
6072000,0.011717924,2.5592538e-08,0.010119997,4000,0,0.0011971008,0.016759584,-9.762358,4000,0,0,0,1
6076000,0.01171792,-0.0029294514,0.0034620985,4000,0,0.05267244,-0.014365039,-9.801862,4000,0,0,0,1
6080000,0.0069242185,0.0010652737,-0.00026630523,4000,0,0.13527243,-0.083796896,-9.878479,4000,0,0,0,1
6084000,-0.0023968443,0.0066579017,0.0005326486,4000,0,0.043095633,-0.11372441,-9.853339,4000,0,0,0,1
6092000,0.0015978904,0.021837924,-0.0010652998,4000,0,-0.10893619,0.0442929,-9.762358,4000,0,0,0,1
6096000,-0.003462088,0.01304949,0.0023968776,4000,0,-0.06823475,0.05267261,-9.813835,4000,0,0,0,1
6100000,-0.010652604,-0.0053263213,0.008522169,4000,0,-0.06823475,-0.01795634,-9.770737,4000,0,0,0,1
6104000,-0.0010652586,-0.0077231377,0.009054774,4000,0,-0.13048401,-0.055066474,-9.756374,4000,0,0,0,1
6108000,0.0015979147,-0.0071905307,0.0013315872,4000,0,-0.09097968,0.014365383,-9.818621,4000,0,0,0,1
6112000,-0.009054739,-0.009587383,-0.002396872,4000,0,0.07182605,0.06703783,-9.841368,4000,0,0,0,1
6116000,-0.009321072,-0.0023968325,0.0015978744,4000,0,0.1221043,-0.0023940294,-9.855732,4000,0,0,0,1
6120000,-0.0034621179,0.0029295,0.007989473,4000,0,0.041898537,-0.04908096,-9.872493,4000,0,0,0,1
6124000,-0.0013315649,-0.0029294717,0.008255806,4000,0,0.050278243,-0.010773737,-9.804258,4000,0,0,0,1
6132000,0.0039947503,-0.00079894636,-0.0069242152,4000,0,0.041898537,-0.049080964,-9.713276,4000,0,0,0,1
6136000,0.0023968406,-0.004261037,-0.020240031,4000,0,-0.015562311,-0.12569542,-9.722853,4000,0,0,0,1
6140000,-0.008788421,-0.0023967705,-0.019174777,4000,0,-0.07302317,-0.09696501,-9.718066,4000,0,0,0,1
6148000,-0.015446336,0.005858966,-0.0063915756,4000,0,0.023942016,-0.07422009,-9.824609,4000,0,0,0,1
6152000,-0.0058589596,0.003994722,-0.006391597,4000,0,0.015562311,-0.0861911,-9.811439,4000,0,0,0,1
6156000,0.0010652803,0.00798948,-0.0010652815,4000,0,-0.055066645,-0.021547647,-9.856928,4000,0,0,0,1
6160000,-0.0053263074,0.0021305294,0.005326338,4000,0,-0.07182605,0.06703783,-9.877279,4000,0,0,0,1
6164000,-0.014647394,0.0031957685,0.00026632095,4000,0,-0.035913024,0.09935955,-9.837774,4000,0,0,0,1
6168000,-0.010386335,0.00079892296,-0.0050599994,4000,0,-0.037110135,0.013168285,-9.885658,4000,0,0,0,1
6172000,0.00079893944,-0.0050600143,-0.0018641957,4000,0,-0.062249243,-0.06823457,-9.9467125,4000,0,0,0,1
6176000,0.007190535,0.0021305243,0.0013315935,4000,0,-0.022744918,-0.034715753,-9.903616,4000,0,0,0,1
6180000,-0.0015978983,0.004793687,0.0010652773,4000,0,0.0035913028,-0.026336048,-9.807847,4000,0,0,0,1
6184000,-0.014381077,-0.0002663237,-0.004793667,4000,0,-0.020350713,-0.05746067,-9.770737,4000,0,0,0,1
6188000,-0.013582118,0.0031957997,-0.0031958101,4000,0,-0.007182605,-0.017956343,-9.793484,4000,0,0,0,1
6192000,-0.012250528,0.008522155,0.0053262976,4000,0,0.01436521,0.0323219,-9.747993,4000,0,0,0,1
6196000,-0.009321058,0.009054764,0.007456841,4000,0,0.04548984,0.013168279,-9.677362,4000,0,0,0,1
6200000,-0.0061252797,0.008788433,0.004527366,4000,0,0.08738837,0.0035914725,-9.730038,4000,0,0,0,1
6204000,-0.009587403,0.006125247,-0.0045273597,4000,0,0.096965164,-0.01795634,-9.776724,4000,0,0,0,1
6208000,-0.007723165,0.008522112,-0.0053263344,4000,0,0.06943185,-0.009576637,-9.801862,4000,0,0,0,1
6212000,0.002929509,0.019174753,-0.001065322,4000,0,-0.039504327,0.016759586,-9.835382,4000,0,0,0,1
6216000,0.0013315874,0.018375812,9.753651e-09,4000,0,-0.13048401,-0.037109964,-9.801862,4000,0,0,0,1
6220000,-0.0045273392,0.010918959,0.005858988,4000,0,-0.04668694,-0.069431685,-9.831791,4000,0,0,0,1
6224000,-0.0021305487,0.009853692,-6.944092e-09,4000,0,0.07541737,-0.046686765,-9.945517,4000,0,0,0,1
6228000,-0.0021305669,0.0058589466,-0.011451592,4000,0,0.067037664,-0.035912853,-9.959879,4000,0,0,0,1
6232000,-0.00319582,-0.0013315759,-0.010918955,4000,0,0.010773908,-0.0885853,-9.884462,4000,0,0,0,1
6236000,-0.011984247,-0.0069241845,-0.007989483,4000,0,0.020350713,-0.065840386,-9.841368,4000,0,0,0,1
6244000,-0.01251687,-0.0069241878,0.0066579166,4000,0,0.023942016,0.04668711,-9.807848,4000,0,0,0,1
6248000,0.002130546,-0.003728437,-0.0037284053,4000,0,-0.031124622,-0.0071824347,-9.7803135,4000,0,0,0,1
6252000,0.007989487,-0.0015979036,-0.0045273653,4000,0,0.011971008,-0.051475175,-9.759963,4000,0,0,0,1
6256000,-0.00053263624,-0.003195789,-0.0015979055,4000,0,0.038307235,-0.064643286,-9.764753,4000,0,0,0,1
6260000,-0.003994739,0.0010652662,-0.00239685,4000,0,0.0023942022,-0.055066474,-9.792285,4000,0,0,0,1
6264000,-0.0029294803,-0.0002663239,-0.007723166,4000,0,0.029927526,-0.08259979,-9.8198185,4000,0,0,0,1
6268000,-0.005858973,-0.0071905316,-0.011185273,4000,0,0.05267244,-0.01556214,-9.794682,4000,0,0,0,1
6272000,-0.003994724,0.0002663168,-0.0074568614,4000,0,0.020350713,0.05027841,-9.733627,4000,0,0,0,1
6276000,-0.0023968206,0.009853707,0.0021305163,4000,0,0.083797075,0.023942186,-9.709686,4000,0,0,0,1
6280000,-0.0018641707,0.0058589643,0.014114756,4000,0,0.142455,0.02513929,-9.764753,4000,0,0,0,1
6284000,0.002929496,0.0010652855,0.011984221,4000,0,0.040701427,0.0323219,-9.873688,4000,0,0,0,1
6288000,0.00053264055,-0.0021305264,-0.0005326347,4000,0,-0.027533323,0.033519,-9.90601,4000,0,0,0,1
6292000,-0.005592635,-0.0045273723,-0.0074568572,4000,0,-0.01316811,0.015562486,-9.856929,4000,0,0,0,1
6296000,-0.0069242152,-0.00026630537,-0.0034621195,4000,0,-0.05746084,-0.011970838,-9.830593,4000,0,0,0,1
6300000,-0.0058589545,0.0007989595,0.0018642105,4000,0,-0.05626375,-0.021547647,-9.823412,4000,0,0,0,1
6304000,-0.001065259,-0.0053263055,0.00905476,4000,0,-0.005985504,-0.009576638,-9.791088,4000,0,0,0,1
6308000,0.002663156,-0.009321049,0.018908452,4000,0,0.009576809,0.0323219,-9.753978,4000,0,0,0,1
6312000,-0.004527363,-0.006125307,0.008522097,4000,0,0.027533323,0.043095805,-9.744401,4000,0,0,0,1
6320000,-0.01358212,0.00026632668,-0.004261064,4000,0,0.005985504,-0.0059853345,-9.816229,4000,0,0,0,1
6324000,-0.00612527,0.0015978924,-0.0029294842,4000,0,0.0071826056,-0.0861911,-9.834186,4000,0,0,0,1
6328000,-0.0029294682,0.0149136875,-0.009587409,4000,0,0.06344634,-0.10414762,-9.79827,4000,0,0,0,1
6332000,-0.007723151,0.02237057,-0.010918946,4000,0,0.08140285,-0.07422009,-9.811439,4000,0,0,0,1
6340000,-0.009321054,-0.0034620848,0.006125299,4000,0,-0.07541737,-0.11492152,-9.91918,4000,0,0,0,1
6344000,0.001597901,-0.001597896,-0.00079894165,4000,0,-0.13287823,-0.123301215,-9.878476,4000,0,0,0,1
6348000,0.01171791,-0.014913704,-0.005858958,4000,0,-0.09696517,-0.10773892,-9.840169,4000,0,0,0,1
6352000,0.011717883,-0.026365303,-0.0050600516,4000,0,-0.023942018,-0.038307063,-9.813835,4000,0,0,0,1
6356000,0.006657942,-0.017044215,-0.0077231764,4000,0,0.01436521,0.013168281,-9.7719345,4000,0,0,0,1
6360000,0.0066579427,-0.0063915825,-0.009853674,4000,0,-0.010773908,-0.04429256,-9.747993,4000,0,0,0,1
6364000,0.013582112,-0.0071905665,-0.0061252583,4000,0,-0.038307235,-0.03950416,-9.7719345,4000,0,0,0,1
6368000,0.011717891,-0.006924251,0.0015978935,4000,0,0.009576809,-0.034715753,-9.792284,4000,0,0,0,1
6372000,0.0058589596,-0.0098536955,0.00053260714,4000,0,0.050278243,-0.071825884,-9.809044,4000,0,0,0,1
6380000,0.0034621265,-0.010120017,-0.008788419,4000,0,0.19273323,0.08499434,-9.812637,4000,0,0,0,1
6384000,0.007989504,-0.01065265,-0.015180006,4000,0,0.06464346,0.09935954,-9.762358,4000,0,0,0,1
6388000,-0.0031957994,-0.0050599757,-0.005592664,4000,0,-0.02274492,0.056263912,-9.747993,4000,0,0,0,1
6396000,0.01065264,0.001331634,0.012250542,4000,0,0.06943185,-0.12210413,-9.73722,4000,0,0,0,1
6404000,0.0002663228,-0.005592624,-0.0034621332,4000,0,-0.011971008,0.025139293,-9.861719,4000,0,0,0,1
6408000,-0.0069242166,0.0013315891,-0.00053264503,4000,0,-0.021547817,0.007182777,-9.829395,4000,0,0,0,1
6412000,-0.0037284216,0.015978973,0.003195759,4000,0,-0.06823475,-0.0011969289,-9.847352,4000,0,0,0,1
6416000,-0.0005326453,0.013582122,0.00026630232,4000,0,-0.07541737,-0.032321557,-9.855732,4000,0,0,0,1
6420000,0.0018641951,0.010120011,-0.003728436,4000,0,0.08020576,-0.04429256,-9.830592,4000,0,0,0,1
6424000,0.006391565,0.012516859,-0.01118529,4000,0,0.16759415,0.0323219,-9.799467,4000,0,0,0,1
6432000,0.0018641962,-0.0053263507,0.00639157,4000,0,0.01436521,0.088585645,-9.827002,4000,0,0,0,1
6436000,-0.007723209,0.008255775,0.013315798,4000,0,0.0011971012,0.10773926,-9.852142,4000,0,0,0,1
6440000,-0.0039947825,0.010918952,0.0029294607,4000,0,-0.044292733,0.07661464,-9.846155,4000,0,0,0,1
6444000,-0.00026630415,-0.0023968415,0.0026631653,4000,0,-0.053869545,-0.021547647,-9.822214,4000,0,0,0,1
6448000,0.00026631195,-0.00079894747,0.006125272,4000,0,0.03232173,-0.047883864,-9.842566,4000,0,0,0,1
6452000,0.00719052,0.00719055,0.0010652671,4000,0,0.10773909,-0.004788231,-9.902418,4000,0,0,0,1
6456000,0.008255788,-0.0002663012,-0.0050600264,4000,0,0.118513,0.0023943745,-9.871296,4000,0,0,0,1
6460000,-0.0031958078,-0.008522096,-0.005326346,4000,0,0.117315896,0.0035914727,-9.756374,4000,0,0,0,1
6468000,-0.015446334,0.007456864,0.0039947173,4000,0,-0.011971008,0.071826234,-9.661802,4000,0,0,0,1
6476000,-0.013582124,-0.0010652379,0.008522117,4000,0,-0.08259997,-0.047883864,-9.72884,4000,0,0,0,1
6480000,-0.01704424,0.00026631696,0.010918955,4000,0,-0.053869545,0.043095805,-9.821015,4000,0,0,0,1
6484000,-0.02157159,-0.0050600595,0.004527405,4000,0,-0.021547817,0.12569578,-9.897632,4000,0,0,0,1
