timestamp,timestamp_sample,time_last_fuse,observation[0],observation[1],device_id,observation_variance[0],observation_variance[1],innovation[0],innovation[1],innovation_filtered[0],innovation_filtered[1],innovation_variance[0],innovation_variance[1],test_ratio[0],test_ratio[1],test_ratio_filtered[0],test_ratio_filtered[1],estimator_instance,innovation_rejected,fused
3732000,3732000,3732000,-1.9424616266600775e-13,-3.409232057359664e-14,0,0.25,0.25,-2.1478629e-08,-3.7951398e-09,-2.1478629e-08,-3.7951398e-09,0.5000057,0.5000057,1.02516934e-16,3.200649e-18,1.02516934e-16,3.200649e-18,0,0,0
4092000,3940000,3940000,-1.2492593626234338e-08,9.686358382055005e-09,0,0.25,0.25,-0.001381338,0.0010782843,-0.00040583196,0.00031678143,103.494064,103.494064,2.0485282e-09,1.2482703e-09,-6.0182737e-10,3.6672346e-10,0,0,1
4300000,4148000,4148000,-4.110259865797161e-08,3.153393635102475e-08,0,0.25,0.25,-0.0045448686,0.0035103455,-0.0016218201,0.0012550036,1.5656519,1.5656519,1.4659021e-06,8.745044e-07,-4.310855e-07,2.5717554e-07,0,0,1
4508000,4356000,4356000,3.402746528990974e-09,-1.0764606983570957e-09,0,1e-04,1e-04,0.00037627772,-0.000119827266,-0.0010348083,0.00085109856,0.12497996,0.12497996,1.2587344e-07,1.27652235e-08,-2.6745914e-07,1.7787092e-07,0,0,0
4716000,4564000,4564000,-8.969021969562618e-09,5.574249950512922e-09,0,1e-04,1e-04,-0.0013679994,0.0007403537,-0.001132695,0.00081856333,100.000206,100.000206,2.0793538e-09,6.0902505e-10,-1.8949447e-07,1.2579397e-07,0,0,1
4924000,4772000,4564000,47.39775085449219,8.545607566833496,0,1e-04,1e-04,5289201.5,645154.9,8.485493,8.485493,2.0001,2.0001,1554125400000.0,23122446000.0,4.0,4.0,0,1,0
4932000,4780000,4564000,47.39775085449219,8.545607566833496,0,1e-04,1e-04,5289201.5,645154.9,8.485494,8.485494,2.0001001,2.0001001,1554125200000.0,23122444000.0,4.0,4.0,0,1,0
4940000,4788000,4564000,47.39775085449219,8.545607566833496,0,1e-04,1e-04,5289201.5,645154.9,8.485495,8.485495,2.0001006,2.0001006,1554124900000.0,23122438000.0,4.0,4.0,0,1,0
4948000,4796000,4564000,47.39775085449219,8.545607566833496,0,1e-04,1e-04,5289201.5,645154.9,8.485496,8.485496,2.000101,2.000101,1554124500000.0,23122432000.0,4.0,4.0,0,1,0
4956000,4804000,4564000,47.39775085449219,8.545607566833496,0,1e-04,1e-04,5289201.5,645154.9,8.4854965,8.4854965,2.0001016,2.0001016,1554124100000.0,23122428000.0,4.0,4.0,0,1,0
4964000,4812000,4564000,47.39775085449219,8.545607566833496,0,1e-04,1e-04,5289201.5,645154.9,8.485498,8.485498,2.000102,2.000102,1554123700000.0,23122422000.0,4.0,4.0,0,1,0
4972000,4820000,4564000,47.39775085449219,8.545607566833496,0,1e-04,1e-04,5289201.5,645154.9,8.485498,8.485498,2.0001025,2.0001025,1554123300000.0,23122416000.0,4.0,4.0,0,1,0
4980000,4828000,4564000,47.39775085449219,8.545607566833496,0,1e-04,1e-04,5289201.5,645154.9,8.4855,8.4855,2.000103,2.000103,1554122900000.0,23122412000.0,4.0,4.0,0,1,0
4996000,4844000,4564000,47.39775085449219,8.545607566833496,0,1e-04,1e-04,5289201.5,645154.9,8.485502,8.485502,2.0001042,2.0001042,1554122000000.0,23122397000.0,4.0,4.0,0,1,0
5004000,4852000,4564000,47.39775085449219,8.545607566833496,0,1e-04,1e-04,5289201.5,645154.9,8.485504,8.485504,2.0001051,2.0001051,1554121400000.0,23122385000.0,4.0,4.0,0,1,0
5012000,4860000,4564000,47.39775085449219,8.545607566833496,0,1e-04,1e-04,5289201.5,645154.9,8.485506,8.485506,2.000106,2.000106,1554120600000.0,23122375000.0,4.0,4.0,0,1,0
5020000,4868000,4564000,47.39775085449219,8.545607566833496,0,1e-04,1e-04,5289201.5,645154.9,8.485509,8.485509,2.000107,2.000107,1554119800000.0,23122364000.0,4.0,4.0,0,1,0
5036000,4884000,4564000,47.39775085449219,8.545607566833496,0,1e-04,1e-04,5289201.5,645154.9,8.485512,8.485512,2.000109,2.000109,1554118300000.0,23122342000.0,4.0,4.0,0,1,0
5044000,4892000,4564000,47.39775085449219,8.545607566833496,0,1e-04,1e-04,5289201.5,645154.9,8.485516,8.485516,2.0001104,2.0001104,1554117300000.0,23122326000.0,4.0,4.0,0,1,0
5052000,4900000,4564000,47.39775085449219,8.545607566833496,0,1e-04,1e-04,5289201.5,645154.9,8.485518,8.485518,2.0001118,2.0001118,1554116100000.0,23122310000.0,4.0,4.0,0,1,0
5060000,4908000,4564000,47.39775085449219,8.545607566833496,0,1e-04,1e-04,5289201.5,645154.9,8.485521,8.485521,2.0001132,2.0001132,1554115100000.0,23122293000.0,4.0,4.0,0,1,0
5076000,4924000,4564000,47.39775085449219,8.545607566833496,0,1e-04,1e-04,5289201.5,645154.9,8.485528,8.485528,2.0001163,2.0001163,1554112600000.0,23122256000.0,4.0,4.0,0,1,0
5084000,4932000,4564000,47.39775085449219,8.545607566833496,0,1e-04,1e-04,5289201.5,645154.9,8.485533,8.485533,2.0001183,2.0001183,1554111100000.0,23122233000.0,4.0,4.0,0,1,0
5092000,4940000,4564000,47.39775085449219,8.545607566833496,0,1e-04,1e-04,5289201.5,645154.9,8.485537,8.485537,2.0001202,2.0001202,1554109700000.0,23122213000.0,4.0,4.0,0,1,0
5100000,4948000,4564000,47.39775085449219,8.545607566833496,0,1e-04,1e-04,5289201.5,645154.9,8.48554,8.48554,2.0001223,2.0001223,1554108000000.0,23122188000.0,4.0,4.0,0,1,0
5116000,4964000,4564000,47.39775085449219,8.545607566833496,0,1e-04,1e-04,5289201.5,645154.9,8.485551,8.485551,2.000127,2.000127,1554104300000.0,23122133000.0,4.0,4.0,0,1,0
5124000,4972000,4972000,47.39775085449219,8.545607566833496,0,1e-04,1e-04,5289201.5,645154.9,8.485557,8.485557,2.0001297,2.0001297,1554102200000.0,23122102000.0,4.0,4.0,0,1,0
5332000,5180000,5180000,47.39775085449219,8.545607566833496,0,1e-04,1e-04,0.00040255897,-0.0003712162,5.992743,5.9925156,100.001816,100.001816,1.8005643e-10,1.5310998e-10,2.8248587,2.8248587,0,0,1
5540000,5388000,5388000,47.39775085449219,8.545607566833496,0,1e-04,1e-04,0.00072067796,-0.00043485986,4.232375,4.231875,0.0010735946,0.0010735956,5.3752625e-05,1.9571107e-05,1.9949725,1.994951,0,0,1
5748000,5596000,5596000,47.39775085449219,8.545607566833496,0,1e-04,1e-04,0.0014734183,0.0002454501,2.9893985,2.9886844,0.00050453085,0.0005045327,0.00047810347,1.3267667e-05,1.4090194,1.4088676,0,0,1
5956000,5804000,5804000,47.39775085449219,8.545607566833496,0,1e-04,1e-04,0.0017783534,0.00029673873,2.1116796,2.1107402,0.00036162575,0.00036168302,0.00097170466,2.7050659e-05,0.9953556,0.9949709,0,0,1
