timestamp,timestamp_sample,gps_hvel[0],gps_hvel[1],gps_vvel,gps_hpos[0],gps_hpos[1],gps_vpos,ev_hvel[0],ev_hvel[1],ev_vvel,ev_hpos[0],ev_hpos[1],ev_vpos,rng_vpos,baro_vpos,aux_hvel[0],aux_hvel[1],flow[0],flow[1],heading,mag_field[0],mag_field[1],mag_field[2],gravity[0],gravity[1],gravity[2],drag[0],drag[1],airspeed,beta,hagl,hagl_rate
3884000,3732000,0.0,0.0,0.0,0.0,0.0,0.0,0.0,0.0,0.0,0.0,0.0,0.0,0.0,0.0,0.0,0.0,0.0,0.0,0.0,-0.011412704,0.21963505,-0.42796984,0.0013709897,0.00024310872,9.119511e-06,0.0,0.0,0.0,0.0,0.0,0.0
3892000,3740000,0.0,0.0,0.0,0.0,0.0,0.0,0.0,0.0,0.0,0.0,0.0,0.0,0.0,0.0,0.0,0.0,0.0,0.0,0.0,-0.011412704,0.21963505,-0.42796984,-0.0022245264,0.005613483,-7.367134e-05,0.0,0.0,0.0,0.0,0.0,0.0
3900000,3748000,0.0,0.0,0.0,0.0,0.0,0.0,0.0,0.0,0.0,0.0,0.0,0.0,0.0,3.0610972e-06,0.0,0.0,0.0,0.0,0.0,-0.011412704,0.21963505,-0.42796984,0.00026292447,-0.0028040644,1.603365e-05,0.0,0.0,0.0,0.0,0.0,0.0
3908000,3756000,0.0,0.0,0.0,0.0,0.0,0.0,0.0,0.0,0.0,0.0,0.0,0.0,0.0,3.0610972e-06,0.0,0.0,0.0,0.0,0.0,-0.011412704,0.21963505,-0.42796984,-0.003826471,-0.0058169067,-1.9907951e-05,0.0,0.0,0.0,0.0,0.0,0.0
3916000,3764000,0.0,0.0,0.0,0.0,0.0,0.0,0.0,0.0,0.0,0.0,0.0,0.0,0.0,3.0610972e-06,0.0,0.0,0.0,0.0,0.0,-0.011412704,0.21963505,-0.42796984,0.008056359,-0.0076921256,5.4121017e-05,0.0,0.0,0.0,0.0,0.0,0.0
3924000,3772000,0.0,0.0,0.0,0.0,0.0,0.0,0.0,0.0,0.0,0.0,0.0,0.0,0.0,3.0610972e-06,0.0,0.0,0.0,0.0,0.0,-0.0086238505,0.21515355,-0.42756042,0.009976339,-0.009876367,4.8041344e-05,0.0,0.0,0.0,0.0,0.0,0.0
3940000,3788000,0.0,0.0,0.0,0.0,0.0,0.0,0.0,0.0,0.0,0.0,0.0,0.0,0.0,3.0610972e-06,0.0,0.0,0.0,0.0,0.0,-0.0086238505,0.21515355,-0.42756042,0.0027075843,-0.010686566,2.7000904e-05,0.0,0.0,0.0,0.0,0.0,0.0
3948000,3796000,0.0,0.0,0.0,0.0,0.0,0.0,0.0,0.0,0.0,0.0,0.0,0.0,0.0,3.0610972e-06,0.0,0.0,0.0,0.0,0.0,-0.0086238505,0.21515355,-0.42756042,0.0038330765,-0.0054884087,4.3809414e-05,0.0,0.0,0.0,0.0,0.0,0.0
3956000,3804000,0.0,0.0,0.0,0.0,0.0,0.0,0.0,0.0,0.0,0.0,0.0,0.0,0.0,3.0610972e-06,0.0,0.0,0.0,0.0,0.0,-0.0086238505,0.21515355,-0.42756042,0.0085150255,0.0016254005,2.6166439e-05,0.0,0.0,0.0,0.0,0.0,0.0
3964000,3812000,0.0,0.0,0.0,0.0,0.0,0.0,0.0,0.0,0.0,0.0,0.0,0.0,0.0,3.0610972e-06,0.0,0.0,0.0,0.0,0.0,-0.0086238505,0.21515355,-0.42756042,0.009324573,0.00019464549,3.4928322e-05,0.0,0.0,0.0,0.0,0.0,0.0
3980000,3828000,0.0,0.0,0.0,0.0,0.0,0.0,0.0,0.0,0.0,0.0,0.0,0.0,0.0,-0.042276245,0.0,0.0,0.0,0.0,0.0,-0.0086238505,0.21515355,-0.42756042,0.009707192,-0.014250583,2.1100044e-05,0.0,0.0,0.0,0.0,0.0,0.0
3988000,3836000,0.0,0.0,0.0,0.0,0.0,0.0,0.0,0.0,0.0,0.0,0.0,0.0,0.0,-0.042276245,0.0,0.0,0.0,0.0,0.0,-0.0086238505,0.21515355,-0.42756042,0.008447257,-0.0025525752,4.7683716e-05,0.0,0.0,0.0,0.0,0.0,0.0
3996000,3844000,0.0,0.0,0.0,0.0,0.0,0.0,0.0,0.0,0.0,0.0,0.0,0.0,0.0,-0.042276245,0.0,0.0,0.0,0.0,0.0,-0.009248013,0.22092049,-0.43330473,0.011079169,-0.008905463,4.7683716e-05,0.0,0.0,0.0,0.0,0.0,0.0
4004000,3852000,0.0,0.0,0.0,0.0,0.0,0.0,0.0,0.0,0.0,0.0,0.0,0.0,0.0,-0.042276245,0.0,0.0,0.0,0.0,0.0,-0.009248013,0.22092049,-0.43330473,0.0058148056,-0.0075469147,5.054474e-05,0.0,0.0,0.0,0.0,0.0,0.0
4020000,3868000,0.0,0.0,0.0,0.0,0.0,0.0,0.0,0.0,0.0,0.0,0.0,0.0,0.0,-0.042276245,0.0,0.0,0.0,0.0,0.0,-0.009248013,0.22092049,-0.43330473,0.008338845,-0.0022682426,4.720688e-05,0.0,0.0,0.0,0.0,0.0,0.0
4028000,3876000,0.0,0.0,0.0,0.0,0.0,0.0,0.0,0.0,0.0,0.0,0.0,0.0,0.0,-0.042276245,0.0,0.0,0.0,0.0,0.0,-0.009248013,0.22092049,-0.43330473,0.01016116,-0.006049314,5.3048134e-05,0.0,0.0,0.0,0.0,0.0,0.0
4036000,3884000,0.0,0.0,0.0,0.0,0.0,0.0,0.0,0.0,0.0,0.0,0.0,0.0,0.0,-0.042276245,0.0,0.0,0.0,0.0,0.0,-0.009248013,0.22092049,-0.43330473,0.000755345,-0.019680105,-6.574392e-05,0.0,0.0,0.0,0.0,0.0,0.0
4044000,3892000,0.0,0.0,0.0,0.0,0.0,0.0,0.0,0.0,0.0,0.0,0.0,0.0,0.0,0.0338094,0.0,0.0,0.0,0.0,0.0,-0.009248013,0.22092049,-0.43330473,-0.00090154447,-0.011058418,-4.172325e-07,0.0,0.0,0.0,0.0,0.0,0.0
4060000,3908000,-0.010767383,0.0103640845,-0.014708485,-5240972.0,-951292.7,0.0,0.0,0.0,0.0,0.0,0.0,0.0,0.0,0.0338094,0.0,0.0,0.0,0.0,0.0,-0.009248013,0.22092049,-0.43330473,0.01179404,-0.0017391159,3.8921833e-05,0.0,0.0,0.0,0.0,0.0,0.0
4068000,3916000,-0.010767383,0.0103640845,-0.014708485,-5240972.0,-951292.7,0.0,0.0,0.0,0.0,0.0,0.0,0.0,0.0,0.0338094,0.0,0.0,0.0,0.0,0.0,-0.010345868,0.21631296,-0.42856708,0.010905175,-0.005864827,5.2511692e-05,0.0,0.0,0.0,0.0,0.0,0.0
4076000,3924000,-0.010767383,0.0103640845,-0.014708485,-5240972.0,-951292.7,0.0,0.0,0.0,0.0,0.0,0.0,0.0,0.0,0.0338094,0.0,0.0,0.0,0.0,0.0,-0.010345868,0.21631296,-0.42856708,0.014628744,-0.0029593983,3.0100346e-05,0.0,0.0,0.0,0.0,0.0,0.0
4084000,3932000,-0.010767383,0.0103640845,-0.014708485,-5240972.0,-951292.7,0.0,0.0,0.0,0.0,0.0,0.0,0.0,0.0,0.0338094,0.0,0.0,0.0,0.0,0.0,-0.010345868,0.21631296,-0.42856708,0.010872119,0.0023922082,1.5199184e-05,0.0,0.0,0.0,0.0,0.0,0.0
4100000,3948000,-0.010767383,0.0103640845,-0.014708485,-5240972.0,-951292.7,0.0,0.0,0.0,0.0,0.0,0.0,0.0,0.0,0.0338094,0.0,0.0,0.0,0.0,0.0,-0.010345868,0.21631296,-0.42856708,0.0097740935,0.001590563,2.3245811e-05,0.0,0.0,0.0,0.0,0.0,0.0
4108000,3956000,-0.010767383,0.0103640845,-0.014708485,-5240972.0,-951292.7,0.0,0.0,0.0,0.0,0.0,0.0,0.0,0.0,0.0338094,0.0,0.0,0.0,0.0,0.0,-0.010345868,0.21631296,-0.42856708,0.0016827895,-0.00152183,2.1219254e-05,0.0,0.0,0.0,0.0,0.0,0.0
4116000,3964000,-0.010767383,0.0103640845,-0.014708485,-5240972.0,-951292.7,0.0,0.0,0.0,0.0,0.0,0.0,0.0,0.0,-0.03721555,0.0,0.0,0.0,0.0,0.0,-0.010345868,0.21631296,-0.42856708,0.0048213303,-0.004754234,4.8041344e-05,0.0,0.0,0.0,0.0,0.0,0.0
4124000,3972000,-0.010767383,0.0103640845,-0.014708485,-5240972.0,-951292.7,0.0,0.0,0.0,0.0,0.0,0.0,0.0,0.0,-0.03721555,0.0,0.0,0.0,0.0,0.0,-0.010345868,0.21631296,-0.42856708,0.011413802,-0.007146884,5.2511692e-05,0.0,0.0,0.0,0.0,0.0,0.0
4140000,3988000,-0.010767383,0.0103640845,-0.014708485,-5240972.0,-951292.7,0.0,0.0,0.0,0.0,0.0,0.0,0.0,0.0,-0.03721555,0.0,0.0,0.0,0.0,0.0,-0.0103404755,0.21164812,-0.4254954,0.0002862271,-0.011696272,5.543232e-06,0.0,0.0,0.0,0.0,0.0,0.0
4148000,3996000,-0.010767383,0.0103640845,-0.014708485,-5240972.0,-951292.7,0.0,0.0,0.0,0.0,0.0,0.0,0.0,0.0,-0.03721555,0.0,0.0,0.0,0.0,0.0,-0.0103404755,0.21164812,-0.4254954,0.004209405,-0.0097040525,3.8146973e-05,0.0,0.0,0.0,0.0,0.0,0.0
4156000,4004000,-0.010767383,0.0103640845,-0.014708485,-5240972.0,-951292.7,0.0,0.0,0.0,0.0,0.0,0.0,0.0,0.0,-0.03721555,0.0,0.0,0.0,0.0,0.0,-0.0103404755,0.21164812,-0.4254954,0.009130486,-0.0026343134,4.684925e-05,0.0,0.0,0.0,0.0,0.0,0.0
4164000,4012000,-0.010767383,0.0103640845,-0.014708485,-5240972.0,-951292.7,0.0,0.0,0.0,0.0,0.0,0.0,0.0,0.0,-0.03721555,0.0,0.0,0.0,0.0,0.0,-0.0103404755,0.21164812,-0.4254954,0.00791169,-0.010474803,4.1246414e-05,0.0,0.0,0.0,0.0,0.0,0.0
4180000,4028000,-0.010767383,0.0103640845,-0.014708485,-5240972.0,-951292.7,0.0,0.0,0.0,0.0,0.0,0.0,0.0,0.0,-0.03721555,0.0,0.0,0.0,0.0,0.0,-0.0103404755,0.21164812,-0.4254954,0.013509516,-0.007043373,3.8444996e-05,0.0,0.0,0.0,0.0,0.0,0.0
4188000,4036000,-0.010767383,0.0103640845,-0.014708485,-5240972.0,-951292.7,0.0,0.0,0.0,0.0,0.0,0.0,0.0,0.0,0.008774868,0.0,0.0,0.0,0.0,0.0,-0.0103404755,0.21164812,-0.4254954,0.009798682,-0.0029108154,4.6610832e-05,0.0,0.0,0.0,0.0,0.0,0.0
4196000,4044000,-0.010767383,0.0103640845,-0.014708485,-5240972.0,-951292.7,0.0,0.0,0.0,0.0,0.0,0.0,0.0,0.0,0.008774868,0.0,0.0,0.0,0.0,0.0,-0.0103404755,0.21164812,-0.4254954,0.00258401,-0.007917061,3.2126904e-05,0.0,0.0,0.0,0.0,0.0,0.0
4204000,4052000,-0.010767383,0.0103640845,-0.014708485,-5240972.0,-951292.7,0.0,0.0,0.0,0.0,0.0,0.0,0.0,0.0,0.008774868,0.0,0.0,0.0,0.0,0.0,-0.0103404755,0.21164812,-0.4254954,0.0054487456,0.0016803565,2.0086765e-05,0.0,0.0,0.0,0.0,0.0,0.0
4220000,4068000,-0.010767383,0.0103640845,-0.014708485,-5240972.0,-951292.7,0.0,0.0,0.0,0.0,0.0,0.0,0.0,0.0,0.008774868,0.0,0.0,0.0,0.0,0.0,-0.009229738,0.21536554,-0.4275707,0.0056960993,-0.0087641375,4.386902e-05,0.0,0.0,0.0,0.0,0.0,0.0
4228000,4076000,-0.010767383,0.0103640845,-0.014708485,-5240972.0,-951292.7,0.0,0.0,0.0,0.0,0.0,0.0,0.0,0.0,0.008774868,0.0,0.0,0.0,0.0,0.0,-0.009229738,0.21536554,-0.4275707,0.0057965005,0.002367002,1.6748905e-05,0.0,0.0,0.0,0.0,0.0,0.0
4236000,4084000,-0.010767383,0.0103640845,-0.014708485,-5240972.0,-951292.7,0.0,0.0,0.0,0.0,0.0,0.0,0.0,0.0,0.008774868,0.0,0.0,0.0,0.0,0.0,-0.009229738,0.21536554,-0.4275707,0.00074413326,-6.384216e-07,6.020069e-06,0.0,0.0,0.0,0.0,0.0,0.0
4244000,4092000,-0.010767383,0.0103640845,-0.014708485,-5240972.0,-951292.7,0.0,0.0,0.0,0.0,0.0,0.0,0.0,0.0,0.008774868,0.0,0.0,0.0,0.0,0.0,-0.009229738,0.21536554,-0.4275707,0.009212008,-0.0025775963,4.8160553e-05,0.0,0.0,0.0,0.0,0.0,0.0
4260000,4108000,-0.010767383,0.0103640845,-0.014708485,-5240972.0,-951292.7,0.0,0.0,0.0,0.0,0.0,0.0,0.0,0.0,-0.017457373,0.0,0.0,0.0,0.0,0.0,-0.009229738,0.21536554,-0.4275707,0.014034581,-0.008861778,2.9563904e-05,0.0,0.0,0.0,0.0,0.0,0.0
4268000,4116000,-0.010767383,0.0103640845,-0.014708485,-5240972.0,-951292.7,0.0,0.0,0.0,0.0,0.0,0.0,0.0,0.0,-0.017457373,0.0,0.0,0.0,0.0,0.0,-0.009229738,0.21536554,-0.4275707,0.010231467,-0.012942872,2.1278858e-05,0.0,0.0,0.0,0.0,0.0,0.0
4276000,4124000,-0.010767383,0.0103640845,-0.014708485,-5240972.0,-951292.7,0.0,0.0,0.0,0.0,0.0,0.0,0.0,0.0,-0.017457373,0.0,0.0,0.0,0.0,0.0,-0.009229738,0.21536554,-0.4275707,0.010665156,-0.007975241,4.3809414e-05,0.0,0.0,0.0,0.0,0.0,0.0
4284000,4132000,-0.010767383,0.0103640845,-0.014708485,-5240972.0,-951292.7,0.0,0.0,0.0,0.0,0.0,0.0,0.0,0.0,-0.017457373,0.0,0.0,0.0,0.0,0.0,-0.010376677,0.21692343,-0.43042585,0.009688378,-0.0079624755,4.5597553e-05,0.0,0.0,0.0,0.0,0.0,0.0
4300000,4148000,-0.010767383,0.0103640845,-0.014708485,-5240972.0,-951292.7,0.0,0.0,0.0,0.0,0.0,0.0,0.0,0.0,-0.017457373,0.0,0.0,0.0,0.0,0.0,-0.010376677,0.21692343,-0.43042585,0.005113961,-0.010148687,3.3557415e-05,0.0,0.0,0.0,0.0,0.0,0.0
4308000,4156000,-0.010767383,0.0103640845,-0.014708485,-5240972.0,-951292.7,0.0,0.0,0.0,0.0,0.0,0.0,0.0,0.0,-0.017457373,0.0,0.0,0.0,0.0,0.0,-0.010376677,0.21692343,-0.43042585,0.009199188,-0.0008694846,3.7372112e-05,0.0,0.0,0.0,0.0,0.0,0.0
4316000,4164000,-0.010767383,0.0103640845,-0.014708485,-5240972.0,-951292.7,0.0,0.0,0.0,0.0,0.0,0.0,0.0,0.0,-0.017457373,0.0,0.0,0.0,0.0,0.0,-0.010376677,0.21692343,-0.43042585,0.0011059488,-0.0077257077,2.0802021e-05,0.0,0.0,0.0,0.0,0.0,0.0
4324000,4172000,-0.010767383,0.0103640845,-0.014708485,-5240972.0,-951292.7,0.0,0.0,0.0,0.0,0.0,0.0,0.0,0.0,-0.017457373,0.0,0.0,0.0,0.0,0.0,-0.010376677,0.21692343,-0.43042585,0.0061924774,-0.0012815376,3.6597252e-05,0.0,0.0,0.0,0.0,0.0,0.0
4340000,4188000,-0.010767383,0.0103640845,-0.014708485,-5240972.0,-951292.7,0.0,0.0,0.0,0.0,0.0,0.0,0.0,0.0,0.026535269,0.0,0.0,0.0,0.0,0.0,-0.010376677,0.21692343,-0.43042585,0.005377393,0.0026232041,9.23872e-06,0.0,0.0,0.0,0.0,0.0,0.0
4348000,4196000,-0.010767383,0.0103640845,-0.014708485,-5240972.0,-951292.7,0.0,0.0,0.0,0.0,0.0,0.0,0.0,0.0,0.026535269,0.0,0.0,0.0,0.0,0.0,-0.010376677,0.21692343,-0.43042585,0.013767829,0.0003227084,1.001358e-05,0.0,0.0,0.0,0.0,0.0,0.0
4356000,4204000,-0.010767383,0.0103640845,-0.014708485,-5240972.0,-951292.7,0.0,0.0,0.0,0.0,0.0,0.0,0.0,0.0,0.026535269,0.0,0.0,0.0,0.0,0.0,-0.009518652,0.21636316,-0.4311543,0.010830347,-0.0021524944,3.385544e-05,0.0,0.0,0.0,0.0,0.0,0.0
4364000,4212000,-0.010767383,0.0103640845,-0.014708485,-5240972.0,-951292.7,0.0,0.0,0.0,0.0,0.0,0.0,0.0,0.0,0.026535269,0.0,0.0,0.0,0.0,0.0,-0.009518652,0.21636316,-0.4311543,0.00073653366,-0.003110565,1.8119812e-05,0.0,0.0,0.0,0.0,0.0,0.0
4380000,4228000,-0.010767383,0.0103640845,-0.014708485,-5240972.0,-951292.7,0.0,0.0,0.0,0.0,0.0,0.0,0.0,0.0,0.026535269,0.0,0.0,0.0,0.0,0.0,-0.009518652,0.21636316,-0.4311543,0.016015973,-0.0077190585,5.066395e-06,0.0,0.0,0.0,0.0,0.0,0.0
4388000,4236000,-0.010767383,0.0103640845,-0.014708485,-5240972.0,-951292.7,0.0,0.0,0.0,0.0,0.0,0.0,0.0,0.0,0.026535269,0.0,0.0,0.0,0.0,0.0,-0.009518652,0.21636316,-0.4311543,0.005200754,-0.0051634014,4.082918e-05,0.0,0.0,0.0,0.0,0.0,0.0
4396000,4244000,-0.010767383,0.0103640845,-0.014708485,-5240972.0,-951292.7,0.0,0.0,0.0,0.0,0.0,0.0,0.0,0.0,0.026535269,0.0,0.0,0.0,0.0,0.0,-0.009518652,0.21636316,-0.4311543,0.006353644,-0.01434336,4.6491623e-06,0.0,0.0,0.0,0.0,0.0,0.0
4404000,4252000,-0.010767383,0.0103640845,-0.014708485,-5240972.0,-951292.7,0.0,0.0,0.0,0.0,0.0,0.0,0.0,0.0,-0.09864984,0.0,0.0,0.0,0.0,0.0,-0.009518652,0.21636316,-0.4311543,0.00560751,-0.004405222,4.1007996e-05,0.0,0.0,0.0,0.0,0.0,0.0
4420000,4268000,-0.010767383,0.0103640845,-0.014708485,-5240972.0,-951292.7,0.0,0.0,0.0,0.0,0.0,0.0,0.0,0.0,-0.09864984,0.0,0.0,0.0,0.0,0.0,-0.009518652,0.21636316,-0.4311543,0.011335882,-0.011409014,1.9431114e-05,0.0,0.0,0.0,0.0,0.0,0.0
4428000,4276000,-0.010767383,0.0103640845,-0.014708485,-5240972.0,-951292.7,0.0,0.0,0.0,0.0,0.0,0.0,0.0,0.0,-0.09864984,0.0,0.0,0.0,0.0,0.0,-0.013743796,0.22416094,-0.4274299,0.004720358,-0.004402807,3.8802624e-05,0.0,0.0,0.0,0.0,0.0,0.0
4436000,4284000,-0.010767383,0.0103640845,-0.014708485,-5240972.0,-951292.7,0.0,0.0,0.0,0.0,0.0,0.0,0.0,0.0,-0.09864984,0.0,0.0,0.0,0.0,0.0,-0.013743796,0.22416094,-0.4274299,0.010754453,-0.007044207,3.6776066e-05,0.0,0.0,0.0,0.0,0.0,0.0
4444000,4292000,-0.010767383,0.0103640845,-0.014708485,-5240972.0,-951292.7,0.0,0.0,0.0,0.0,0.0,0.0,0.0,0.0,-0.09864984,0.0,0.0,0.0,0.0,0.0,-0.013743796,0.22416094,-0.4274299,0.0039814636,0.002759344,3.0994415e-06,0.0,0.0,0.0,0.0,0.0,0.0
4460000,4308000,-0.008345116,0.015854819,-0.006669337,-5240972.0,-951292.7,0.0,0.0,0.0,0.0,0.0,0.0,0.0,0.0,-0.09864984,0.0,0.0,0.0,0.0,0.0,-0.013743796,0.22416094,-0.4274299,0.0047094235,-0.007374898,3.7014484e-05,0.0,0.0,0.0,0.0,0.0,0.0
4468000,4316000,-0.008345116,0.015854819,-0.006669337,-5240972.0,-951292.7,0.0,0.0,0.0,0.0,0.0,0.0,0.0,0.0,-0.09864984,0.0,0.0,0.0,0.0,0.0,-0.013743796,0.22416094,-0.4274299,0.009346496,-0.0003845566,2.7418137e-05,0.0,0.0,0.0,0.0,0.0,0.0
4476000,4324000,-0.008345116,0.015854819,-0.006669337,-5240972.0,-951292.7,0.0,0.0,0.0,0.0,0.0,0.0,0.0,0.0,0.012640933,0.0,0.0,0.0,0.0,0.0,-0.013743796,0.22416094,-0.4274299,0.016074575,5.4180622e-05,-1.04904175e-05,0.0,0.0,0.0,0.0,0.0,0.0
4484000,4332000,-0.008345116,0.015854819,-0.006669337,-5240972.0,-951292.7,0.0,0.0,0.0,0.0,0.0,0.0,0.0,0.0,0.012640933,0.0,0.0,0.0,0.0,0.0,-0.013743796,0.22416094,-0.4274299,0.0053807446,0.0017729602,1.3709068e-05,0.0,0.0,0.0,0.0,0.0,0.0
4500000,4348000,-0.008345116,0.015854819,-0.006669337,-5240972.0,-951292.7,0.0,0.0,0.0,0.0,0.0,0.0,0.0,0.0,0.012640933,0.0,0.0,0.0,0.0,0.0,-0.011357859,0.21712725,-0.42922363,0.015612606,-0.00081691705,-1.9073486e-06,0.0,0.0,0.0,0.0,0.0,0.0
4508000,4356000,-0.008345116,0.015854819,-0.006669337,-5240972.0,-951292.7,0.0,0.0,0.0,0.0,0.0,0.0,0.0,0.0,0.012640933,0.0,0.0,0.0,0.0,0.0,-0.011357859,0.21712725,-0.42922363,-0.0003210106,-0.00021578465,-1.3709068e-06,0.0,0.0,0.0,0.0,0.0,0.0
4516000,4364000,-0.008345116,0.015854819,-0.006669337,-5240972.0,-951292.7,0.0,0.0,0.0,0.0,0.0,0.0,0.0,0.0,0.012640933,0.0,0.0,0.0,0.0,0.0,-0.011357859,0.21712725,-0.42922363,-0.000111541245,-0.0062445733,1.2218952e-05,0.0,0.0,0.0,0.0,0.0,0.0
4524000,4372000,-0.008345116,0.015854819,-0.006669337,-5240972.0,-951292.7,0.0,0.0,0.0,0.0,0.0,0.0,0.0,0.0,0.012640933,0.0,0.0,0.0,0.0,0.0,-0.011357859,0.21712725,-0.42922363,-0.0016475506,-0.007884596,-3.5762787e-06,0.0,0.0,0.0,0.0,0.0,0.0
4540000,4388000,-0.008345116,0.015854819,-0.006669337,-5240972.0,-951292.7,0.0,0.0,0.0,0.0,0.0,0.0,0.0,0.0,0.012640933,0.0,0.0,0.0,0.0,0.0,-0.011357859,0.21712725,-0.42922363,0.020800294,0.0016614664,-3.7431717e-05,0.0,0.0,0.0,0.0,0.0,0.0
4548000,4396000,-0.008345116,0.015854819,-0.006669337,-5240972.0,-951292.7,0.0,0.0,0.0,0.0,0.0,0.0,0.0,0.0,0.028247153,0.0,0.0,0.0,0.0,0.0,-0.011357859,0.21712725,-0.42922363,0.008054872,-0.0039046665,5.9247017e-05,0.0,0.0,0.0,0.0,0.0,0.0
4556000,4404000,-0.008345116,0.015854819,-0.006669337,-5240972.0,-951292.7,0.0,0.0,0.0,0.0,0.0,0.0,0.0,0.0,0.028247153,0.0,0.0,0.0,0.0,0.0,-0.011357859,0.21712725,-0.42922363,-0.0024586022,-0.008266059,-3.874302e-06,0.0,0.0,0.0,0.0,0.0,0.0
4564000,4412000,-0.008345116,0.015854819,-0.006669337,-5240972.0,-951292.7,0.0,0.0,0.0,0.0,0.0,0.0,0.0,0.0,0.028247153,0.0,0.0,0.0,0.0,0.0,-0.011357859,0.21712725,-0.42922363,0.009837193,-0.00031540636,4.041195e-05,0.0,0.0,0.0,0.0,0.0,0.0
4580000,4428000,-0.008345116,0.015854819,-0.006669337,-5240972.0,-951292.7,0.0,0.0,0.0,0.0,0.0,0.0,0.0,0.0,0.028247153,0.0,0.0,0.0,0.0,0.0,-0.016367568,0.21190646,-0.43287683,0.008452723,-0.0025717048,5.3226948e-05,0.0,0.0,0.0,0.0,0.0,0.0
4588000,4436000,-0.008345116,0.015854819,-0.006669337,-5240972.0,-951292.7,0.0,0.0,0.0,0.0,0.0,0.0,0.0,0.0,0.028247153,0.0,0.0,0.0,0.0,0.0,-0.016367568,0.21190646,-0.43287683,0.010948994,-0.012354568,4.3570995e-05,0.0,0.0,0.0,0.0,0.0,0.0
4596000,4444000,-0.008345116,0.015854819,-0.006669337,-5240972.0,-951292.7,0.0,0.0,0.0,0.0,0.0,0.0,0.0,0.0,0.028247153,0.0,0.0,0.0,0.0,0.0,-0.016367568,0.21190646,-0.43287683,0.01409076,-0.01923881,-3.0517578e-05,0.0,0.0,0.0,0.0,0.0,0.0
4604000,4452000,-0.008345116,0.015854819,-0.006669337,-5240972.0,-951292.7,0.0,0.0,0.0,0.0,0.0,0.0,0.0,0.0,0.028247153,0.0,0.0,0.0,0.0,0.0,-0.016367568,0.21190646,-0.43287683,0.01711082,-0.004669319,2.4020672e-05,0.0,0.0,0.0,0.0,0.0,0.0
4620000,4468000,-0.008345116,0.015854819,-0.006669337,-5240972.0,-951292.7,0.0,0.0,0.0,0.0,0.0,0.0,0.0,0.0,0.033919945,0.0,0.0,0.0,0.0,0.0,-0.016367568,0.21190646,-0.43287683,0.01463101,-0.007937801,4.643202e-05,0.0,0.0,0.0,0.0,0.0,0.0
4628000,4476000,-0.008345116,0.015854819,-0.006669337,-5240972.0,-951292.7,0.0,0.0,0.0,0.0,0.0,0.0,0.0,0.0,0.033919945,0.0,0.0,0.0,0.0,0.0,-0.016367568,0.21190646,-0.43287683,0.013393804,-0.011940619,4.0888786e-05,0.0,0.0,0.0,0.0,0.0,0.0
4636000,4484000,-0.008345116,0.015854819,-0.006669337,-5240972.0,-951292.7,0.0,0.0,0.0,0.0,0.0,0.0,0.0,0.0,0.033919945,0.0,0.0,0.0,0.0,0.0,-0.016367568,0.21190646,-0.43287683,0.012843616,-0.004720748,5.173683e-05,0.0,0.0,0.0,0.0,0.0,0.0
4644000,4492000,-0.008345116,0.015854819,-0.006669337,-5240972.0,-951292.7,0.0,0.0,0.0,0.0,0.0,0.0,0.0,0.0,0.033919945,0.0,0.0,0.0,0.0,0.0,-0.0129907,0.21525615,-0.42887884,0.0103725465,-0.008409791,6.0737133e-05,0.0,0.0,0.0,0.0,0.0,0.0
4660000,4508000,-0.008345116,0.015854819,-0.006669337,-5240972.0,-951292.7,0.0,0.0,0.0,0.0,0.0,0.0,0.0,0.0,0.033919945,0.0,0.0,0.0,0.0,0.0,-0.0129907,0.21525615,-0.42887884,0.012121999,-0.00949789,5.51939e-05,0.0,0.0,0.0,0.0,0.0,0.0
4668000,4516000,-0.008345116,0.015854819,-0.006669337,-5240972.0,-951292.7,0.0,0.0,0.0,0.0,0.0,0.0,0.0,0.0,0.033919945,0.0,0.0,0.0,0.0,0.0,-0.0129907,0.21525615,-0.42887884,0.008270958,-0.010415271,5.7399273e-05,0.0,0.0,0.0,0.0,0.0,0.0
4676000,4524000,-0.008345116,0.015854819,-0.006669337,-5240972.0,-951292.7,0.0,0.0,0.0,0.0,0.0,0.0,0.0,0.0,0.033919945,0.0,0.0,0.0,0.0,0.0,-0.0129907,0.21525615,-0.42887884,0.013485035,-0.013887631,2.783537e-05,0.0,0.0,0.0,0.0,0.0,0.0
4684000,4532000,-0.008345116,0.015854819,-0.006669337,-5240972.0,-951292.7,0.0,0.0,0.0,0.0,0.0,0.0,0.0,0.0,0.033919945,0.0,0.0,0.0,0.0,0.0,-0.0129907,0.21525615,-0.42887884,0.014135251,0.00035886094,2.104044e-05,0.0,0.0,0.0,0.0,0.0,0.0
4700000,4548000,-0.008345116,0.015854819,-0.006669337,-5240972.0,-951292.7,0.0,0.0,0.0,0.0,0.0,0.0,0.0,0.0,0.0727537,0.0,0.0,0.0,0.0,0.0,-0.0129907,0.21525615,-0.42887884,0.0156108625,-0.0029868884,3.2544136e-05,0.0,0.0,0.0,0.0,0.0,0.0
4708000,4556000,-0.008345116,0.015854819,-0.006669337,-5240972.0,-951292.7,0.0,0.0,0.0,0.0,0.0,0.0,0.0,0.0,0.0727537,0.0,0.0,0.0,0.0,0.0,-0.0129907,0.21525615,-0.42887884,0.011298275,-0.00726735,6.0081482e-05,0.0,0.0,0.0,0.0,0.0,0.0
4716000,4564000,-0.008345116,0.015854819,-0.006669337,-5240972.0,-951292.7,0.0,0.0,0.0,0.0,0.0,0.0,0.0,0.0,0.0727537,0.0,0.0,0.0,0.0,0.0,-0.011022707,0.21630345,-0.42689115,0.01376272,-0.012782419,3.6478043e-05,0.0,0.0,0.0,0.0,0.0,0.0
4724000,4572000,-0.008345116,0.015854819,-0.006669337,-5240972.0,-951292.7,0.0,0.0,0.0,0.0,0.0,0.0,0.0,0.0,0.0727537,0.0,0.0,0.0,0.0,0.0,-0.011022707,0.21630345,-0.42689115,0.013010562,-8.923514e-05,3.1352043e-05,0.0,0.0,0.0,0.0,0.0,0.0
4740000,4588000,-0.008345116,0.015854819,-0.006669337,-5240972.0,-951292.7,0.0,0.0,0.0,0.0,0.0,0.0,0.0,0.0,0.0727537,0.0,0.0,0.0,0.0,0.0,-0.011022707,0.21630345,-0.42689115,0.017351948,-0.0038913721,1.7762184e-05,0.0,0.0,0.0,0.0,0.0,0.0
4748000,4596000,-0.008345116,0.015854819,-0.006669337,-5240972.0,-951292.7,0.0,0.0,0.0,0.0,0.0,0.0,0.0,0.0,0.0727537,0.0,0.0,0.0,0.0,0.0,-0.011022707,0.21630345,-0.42689115,0.014347954,-0.009882322,3.105402e-05,0.0,0.0,0.0,0.0,0.0,0.0
4756000,4604000,-0.008345116,0.015854819,-0.006669337,-5240972.0,-951292.7,0.0,0.0,0.0,0.0,0.0,0.0,0.0,0.0,0.0727537,0.0,0.0,0.0,0.0,0.0,-0.011022707,0.21630345,-0.42689115,0.006901203,-0.0011629337,4.3690205e-05,0.0,0.0,0.0,0.0,0.0,0.0
4764000,4612000,-0.008345116,0.015854819,-0.006669337,-5240972.0,-951292.7,0.0,0.0,0.0,0.0,0.0,0.0,0.0,0.0,0.04857611,0.0,0.0,0.0,0.0,0.0,-0.011022707,0.21630345,-0.42689115,0.0139927715,0.0028204448,9.23872e-06,0.0,0.0,0.0,0.0,0.0,0.0
4780000,4628000,-0.008345116,0.015854819,-0.006669337,-5240972.0,-951292.7,0.0,0.0,0.0,0.0,0.0,0.0,0.0,0.0,0.04857611,0.0,0.0,0.0,0.0,0.0,-0.011022707,0.21630345,-0.42689115,0.0010562914,0.0050476477,-1.9907951e-05,0.0,0.0,0.0,0.0,0.0,0.0
4788000,4636000,-0.008345116,0.015854819,-0.006669337,-5240972.0,-951292.7,0.0,0.0,0.0,0.0,0.0,0.0,0.0,0.0,0.04857611,0.0,0.0,0.0,0.0,0.0,-0.0088675115,0.21595652,-0.42973328,-0.00354175,-0.012546453,-6.711483e-05,0.0,0.0,0.0,0.0,0.0,0.0
4796000,4644000,-0.008345116,0.015854819,-0.006669337,-5240972.0,-951292.7,0.0,0.0,0.0,0.0,0.0,0.0,0.0,0.0,0.04857611,0.0,0.0,0.0,0.0,0.0,-0.0088675115,0.21595652,-0.42973328,-0.0052579353,-0.009162265,-3.5881996e-05,0.0,0.0,0.0,0.0,0.0,0.0
4804000,4652000,-0.008345116,0.015854819,-0.006669337,-5240972.0,-951292.7,0.0,0.0,0.0,0.0,0.0,0.0,0.0,0.0,0.04857611,0.0,0.0,0.0,0.0,0.0,-0.0088675115,0.21595652,-0.42973328,0.0019316955,-0.0052227657,-1.8000603e-05,0.0,0.0,0.0,0.0,0.0,0.0
4820000,4668000,-0.008345116,0.015854819,-0.006669337,-5240972.0,-951292.7,0.0,0.0,0.0,0.0,0.0,0.0,0.0,0.0,0.04857611,0.0,0.0,0.0,0.0,0.0,-0.0088675115,0.21595652,-0.42973328,-0.006399947,0.0040801885,-1.2934208e-05,0.0,0.0,0.0,0.0,0.0,0.0
4828000,4676000,-0.008345116,0.015854819,-0.006669337,-5240972.0,-951292.7,0.0,0.0,0.0,0.0,0.0,0.0,0.0,0.0,0.04857611,0.0,0.0,0.0,0.0,0.0,-0.0088675115,0.21595652,-0.42973328,-0.0063767917,0.0022470574,-5.3048134e-06,0.0,0.0,0.0,0.0,0.0,0.0
4836000,4684000,-0.008345116,0.015854819,-0.006669337,-5240972.0,-951292.7,0.0,0.0,0.0,0.0,0.0,0.0,0.0,0.0,-0.121064045,0.0,0.0,0.0,0.0,0.0,-0.0088675115,0.21595652,-0.42973328,0.007815183,-0.0048118588,-6.186962e-05,0.0,0.0,0.0,0.0,0.0,0.0
4844000,4692000,-0.008345116,0.015854819,-0.006669337,-5240972.0,-951292.7,0.0,0.0,0.0,0.0,0.0,0.0,0.0,0.0,-0.121064045,0.0,0.0,0.0,0.0,0.0,-0.0088675115,0.21595652,-0.42973328,0.004119987,-0.002528026,-2.1755695e-05,0.0,0.0,0.0,0.0,0.0,0.0
4860000,4708000,0.0016532869,-0.007879967,-0.01074248,0.0,0.0,0.0,0.0,0.0,0.0,0.0,0.0,0.0,0.0,-0.121064045,0.0,0.0,0.0,0.0,0.0,-0.007841621,0.22071938,-0.4172943,-0.008461351,-0.0075797676,-3.6597252e-05,0.0,0.0,0.0,0.0,0.0,0.0
4868000,4716000,0.0016532869,-0.007879967,-0.01074248,0.0,0.0,0.0,0.0,0.0,0.0,0.0,0.0,0.0,0.0,-0.121064045,0.0,0.0,0.0,0.0,0.0,-0.007841621,0.22071938,-0.4172943,-0.006929326,0.0022936137,-7.927418e-06,0.0,0.0,0.0,0.0,0.0,0.0
4876000,4724000,0.0016532869,-0.007879967,-0.01074248,0.0,0.0,0.0,0.0,0.0,0.0,0.0,0.0,0.0,0.0,-0.121064045,0.0,0.0,0.0,0.0,0.0,-0.007841621,0.22071938,-0.4172943,-0.0060863155,0.006017306,-2.2530556e-05,0.0,0.0,0.0,0.0,0.0,0.0
4884000,4732000,0.0016532869,-0.007879967,-0.01074248,0.0,0.0,0.0,0.0,0.0,0.0,0.0,0.0,0.0,0.0,-0.121064045,0.0,0.0,0.0,0.0,0.0,-0.007841621,0.22071938,-0.4172943,-0.008508717,0.0024702223,-1.7046928e-05,0.0,0.0,0.0,0.0,0.0,0.0
4900000,4748000,0.0016532869,-0.007879967,-0.01074248,0.0,0.0,0.0,0.0,0.0,0.0,0.0,0.0,0.0,0.0,-0.121064045,0.0,0.0,0.0,0.0,0.0,-0.007841621,0.22071938,-0.4172943,-0.007976396,0.0024379767,-1.424551e-05,0.0,0.0,0.0,0.0,0.0,0.0
4908000,4756000,0.0016532869,-0.007879967,-0.01074248,0.0,0.0,0.0,0.0,0.0,0.0,0.0,0.0,0.0,0.0,0.0854187,0.0,0.0,0.0,0.0,0.0,-0.007841621,0.22071938,-0.4172943,-0.004426738,0.008208514,-3.5703182e-05,0.0,0.0,0.0,0.0,0.0,0.0
4916000,4764000,0.0016532869,-0.007879967,-0.01074248,0.0,0.0,0.0,0.0,0.0,0.0,0.0,0.0,0.0,0.0,0.0854187,0.0,0.0,0.0,0.0,0.0,-0.007841621,0.22071938,-0.4172943,-0.00026524998,0.008459098,-3.9875507e-05,0.0,0.0,0.0,0.0,0.0,0.0
4924000,4772000,0.0016532869,-0.007879967,-0.01074248,0.0,0.0,0.0,0.0,0.0,0.0,0.0,0.0,0.0,0.0,0.0854187,0.0,0.0,0.0,0.0,0.0,-0.007841621,0.22071938,-0.4172943,-0.0053780125,0.0012717233,-1.6093254e-06,0.0,0.0,0.0,0.0,0.0,0.0
4940000,4788000,0.0016532869,-0.007879967,-0.01074248,0.0,0.0,0.0,0.0,0.0,0.0,0.0,0.0,0.0,0.0,0.0854187,0.0,0.0,0.0,0.0,0.0,-0.012127782,0.21685378,-0.4288754,0.0015047577,-0.008726022,-3.707409e-05,0.0,0.0,0.0,0.0,0.0,0.0
4948000,4796000,0.0016532869,-0.007879967,-0.01074248,0.0,0.0,0.0,0.0,0.0,0.0,0.0,0.0,0.0,0.0,0.0854187,0.0,0.0,0.0,0.0,0.0,-0.012127782,0.21685378,-0.4288754,-0.003387808,-0.0012596253,4.351139e-06,0.0,0.0,0.0,0.0,0.0,0.0
4956000,4804000,0.0016532869,-0.007879967,-0.01074248,0.0,0.0,0.0,0.0,0.0,0.0,0.0,0.0,0.0,0.0,0.0854187,0.0,0.0,0.0,0.0,0.0,-0.012127782,0.21685378,-0.4288754,-0.0048105503,-0.00041401008,3.0398369e-06,0.0,0.0,0.0,0.0,0.0,0.0
4964000,4812000,0.0016532869,-0.007879967,-0.01074248,0.0,0.0,0.0,0.0,0.0,0.0,0.0,0.0,0.0,0.0,0.0854187,0.0,0.0,0.0,0.0,0.0,-0.012127782,0.21685378,-0.4288754,-0.005219497,0.0056604748,-1.9609928e-05,0.0,0.0,0.0,0.0,0.0,0.0
4980000,4828000,0.0016532869,-0.007879967,-0.01074248,0.0,0.0,0.0,0.0,0.0,0.0,0.0,0.0,0.0,0.0,0.021942139,0.0,0.0,0.0,0.0,0.0,-0.012127782,0.21685378,-0.4288754,-0.0033136178,-0.0036025061,1.4901161e-06,0.0,0.0,0.0,0.0,0.0,0.0
4988000,4836000,0.0016532869,-0.007879967,-0.01074248,0.0,0.0,0.0,0.0,0.0,0.0,0.0,0.0,0.0,0.0,0.021942139,0.0,0.0,0.0,0.0,0.0,-0.012127782,0.21685378,-0.4288754,0.004863815,-0.0045104777,-3.194809e-05,0.0,0.0,0.0,0.0,0.0,0.0
4996000,4844000,0.0016532869,-0.007879967,-0.01074248,0.0,0.0,0.0,0.0,0.0,0.0,0.0,0.0,0.0,0.0,0.021942139,0.0,0.0,0.0,0.0,0.0,-0.012127782,0.21685378,-0.4288754,0.008589601,0.0056952974,-8.505583e-05,0.0,0.0,0.0,0.0,0.0,0.0
5004000,4852000,0.0016532869,-0.007879967,-0.01074248,0.0,0.0,0.0,0.0,0.0,0.0,0.0,0.0,0.0,0.0,0.021942139,0.0,0.0,0.0,0.0,0.0,-0.0049009393,0.21671921,-0.4306289,-0.0050578034,-0.0031165376,1.2516975e-06,0.0,0.0,0.0,0.0,0.0,0.0
5020000,4868000,0.0016532869,-0.007879967,-0.01074248,0.0,0.0,0.0,0.0,0.0,0.0,0.0,0.0,0.0,0.0,0.021942139,0.0,0.0,0.0,0.0,0.0,-0.0049009393,0.21671921,-0.4306289,-0.0020238024,0.0036357017,-7.3313713e-06,0.0,0.0,0.0,0.0,0.0,0.0
5028000,4876000,0.0016532869,-0.007879967,-0.01074248,0.0,0.0,0.0,0.0,0.0,0.0,0.0,0.0,0.0,0.0,0.021942139,0.0,0.0,0.0,0.0,0.0,-0.0049009393,0.21671921,-0.4306289,-0.0006236818,0.0011251394,-2.9802322e-07,0.0,0.0,0.0,0.0,0.0,0.0
5036000,4884000,0.0016532869,-0.007879967,-0.01074248,0.0,0.0,0.0,0.0,0.0,0.0,0.0,0.0,0.0,0.0,0.021942139,0.0,0.0,0.0,0.0,0.0,-0.0049009393,0.21671921,-0.4306289,-0.012597583,-0.0022789345,-3.9339066e-05,0.0,0.0,0.0,0.0,0.0,0.0
5044000,4892000,0.0016532869,-0.007879967,-0.01074248,0.0,0.0,0.0,0.0,0.0,0.0,0.0,0.0,0.0,0.0,0.021942139,0.0,0.0,0.0,0.0,0.0,-0.0049009393,0.21671921,-0.4306289,-0.0066897525,-0.0023073577,-1.1920929e-06,0.0,0.0,0.0,0.0,0.0,0.0
5060000,4908000,0.0016532869,-0.007879967,-0.01074248,0.0,0.0,0.0,0.0,0.0,0.0,0.0,0.0,0.0,0.0,-0.030944824,0.0,0.0,0.0,0.0,0.0,-0.0049009393,0.21671921,-0.4306289,-0.015701272,-0.0058934456,-8.624792e-05,0.0,0.0,0.0,0.0,0.0,0.0
5068000,4916000,0.0016532869,-0.007879967,-0.01074248,0.0,0.0,0.0,0.0,0.0,0.0,0.0,0.0,0.0,0.0,-0.030944824,0.0,0.0,0.0,0.0,0.0,-0.0049009393,0.21671921,-0.4306289,-0.012025041,0.00032710168,-3.7133694e-05,0.0,0.0,0.0,0.0,0.0,0.0
5076000,4924000,0.0016532869,-0.007879967,-0.01074248,0.0,0.0,0.0,0.0,0.0,0.0,0.0,0.0,0.0,0.0,-0.030944824,0.0,0.0,0.0,0.0,0.0,-0.009721434,0.21603377,-0.42720762,-0.0031696027,0.0029223252,-2.9206276e-06,0.0,0.0,0.0,0.0,0.0,0.0
5084000,4932000,0.0016532869,-0.007879967,-0.01074248,0.0,0.0,0.0,0.0,0.0,0.0,0.0,0.0,0.0,0.0,-0.030944824,0.0,0.0,0.0,0.0,0.0,-0.009721434,0.21603377,-0.42720762,-0.007032727,-0.0055331914,-1.40070915e-05,0.0,0.0,0.0,0.0,0.0,0.0
5100000,4948000,0.0016532869,-0.007879967,-0.01074248,0.0,0.0,0.0,0.0,0.0,0.0,0.0,0.0,0.0,0.0,-0.030944824,0.0,0.0,0.0,0.0,0.0,-0.009721434,0.21603377,-0.42720762,-0.0050188256,0.003695557,-8.046627e-06,0.0,0.0,0.0,0.0,0.0,0.0
5108000,4956000,0.0016532869,-0.007879967,-0.01074248,0.0,0.0,0.0,0.0,0.0,0.0,0.0,0.0,0.0,0.0,-0.030944824,0.0,0.0,0.0,0.0,0.0,-0.009721434,0.21603377,-0.42720762,-0.006329393,0.00041636045,-1.1920929e-06,0.0,0.0,0.0,0.0,0.0,0.0
5116000,4964000,0.0016532869,-0.007879967,-0.01074248,0.0,0.0,0.0,0.0,0.0,0.0,0.0,0.0,0.0,0.0,-0.030944824,0.0,0.0,0.0,0.0,0.0,-0.009721434,0.21603377,-0.42720762,-0.0042572767,0.009317628,-4.953146e-05,0.0,0.0,0.0,0.0,0.0,0.0
5124000,4972000,0.0016532869,-0.007879967,-0.01074248,0.0,0.0,0.0,0.0,0.0,0.0,0.0,0.0,0.0,0.0,0.00592041,0.0,0.0,0.0,0.0,0.0,-0.009721434,0.21603377,-0.42720762,-0.0045593055,-0.006626009,-1.168251e-05,0.0,0.0,0.0,0.0,0.0,0.0
5140000,4988000,0.0016532869,-0.007879967,-0.01074248,0.0,0.0,0.0,0.0,0.0,0.0,0.0,0.0,0.0,0.0,0.00592041,0.0,0.0,0.0,0.0,0.0,-0.009721434,0.21603377,-0.42720762,0.0023922764,0.005816316,-3.1650066e-05,0.0,0.0,0.0,0.0,0.0,0.0
5148000,4996000,0.0016532869,-0.007879967,-0.01074248,0.0,0.0,0.0,0.0,0.0,0.0,0.0,0.0,0.0,0.0,0.00592041,0.0,0.0,0.0,0.0,0.0,-0.015684329,0.222078,-0.4273218,0.0033135153,-0.0025889743,-1.5616417e-05,0.0,0.0,0.0,0.0,0.0,0.0
5156000,5004000,0.0016532869,-0.007879967,-0.01074248,0.0,0.0,0.0,0.0,0.0,0.0,0.0,0.0,0.0,0.0,0.00592041,0.0,0.0,0.0,0.0,0.0,-0.015684329,0.222078,-0.4273218,0.0035772724,-0.0013234471,-1.603365e-05,0.0,0.0,0.0,0.0,0.0,0.0
5164000,5012000,0.0016532869,-0.007879967,-0.01074248,0.0,0.0,0.0,0.0,0.0,0.0,0.0,0.0,0.0,0.0,0.00592041,0.0,0.0,0.0,0.0,0.0,-0.015684329,0.222078,-0.4273218,-0.0016079588,-0.008333663,-2.4139881e-05,0.0,0.0,0.0,0.0,0.0,0.0
5180000,5028000,0.0016532869,-0.007879967,-0.01074248,0.0,0.0,0.0,0.0,0.0,0.0,0.0,0.0,0.0,0.0,0.00592041,0.0,0.0,0.0,0.0,0.0,-0.015684329,0.222078,-0.4273218,-0.004634168,0.0078787785,-3.7312508e-05,0.0,0.0,0.0,0.0,0.0,0.0
5188000,5036000,0.0016532869,-0.007879967,-0.01074248,0.0,0.0,0.0,0.0,0.0,0.0,0.0,0.0,0.0,0.0,0.00592041,0.0,0.0,0.0,0.0,0.0,-0.015684329,0.222078,-0.4273218,-0.0035203882,0.011224766,-7.18236e-05,0.0,0.0,0.0,0.0,0.0,0.0
5196000,5044000,0.0016532869,-0.007879967,-0.01074248,0.0,0.0,0.0,0.0,0.0,0.0,0.0,0.0,0.0,0.0,-0.041137695,0.0,0.0,0.0,0.0,0.0,-0.015684329,0.222078,-0.4273218,0.00024600094,0.0058784615,-2.4199486e-05,0.0,0.0,0.0,0.0,0.0,0.0
5204000,5052000,0.0016532869,-0.007879967,-0.01074248,0.0,0.0,0.0,0.0,0.0,0.0,0.0,0.0,0.0,0.0,-0.041137695,0.0,0.0,0.0,0.0,0.0,-0.015684329,0.222078,-0.4273218,-0.0025264889,-0.006317226,-1.0371208e-05,0.0,0.0,0.0,0.0,0.0,0.0
5220000,5068000,0.0016532869,-0.007879967,-0.01074248,0.0,0.0,0.0,0.0,0.0,0.0,0.0,0.0,0.0,0.0,-0.041137695,0.0,0.0,0.0,0.0,0.0,-0.009703893,0.21609521,-0.43073052,-0.004223394,0.013487205,-0.00010210276,0.0,0.0,0.0,0.0,0.0,0.0
5228000,5076000,0.0016532869,-0.007879967,-0.01074248,0.0,0.0,0.0,0.0,0.0,0.0,0.0,0.0,0.0,0.0,-0.041137695,0.0,0.0,0.0,0.0,0.0,-0.009703893,0.21609521,-0.43073052,-0.0046849167,0.004366569,-1.2814999e-05,0.0,0.0,0.0,0.0,0.0,0.0
5236000,5084000,0.0016532869,-0.007879967,-0.01074248,0.0,0.0,0.0,0.0,0.0,0.0,0.0,0.0,0.0,0.0,-0.041137695,0.0,0.0,0.0,0.0,0.0,-0.009703893,0.21609521,-0.43073052,-0.004503155,0.007795858,-3.629923e-05,0.0,0.0,0.0,0.0,0.0,0.0
5244000,5092000,0.0016532869,-0.007879967,-0.01074248,0.0,0.0,0.0,0.0,0.0,0.0,0.0,0.0,0.0,0.0,-0.041137695,0.0,0.0,0.0,0.0,0.0,-0.009703893,0.21609521,-0.43073052,-0.0077205454,-0.004336761,-1.3709068e-05,0.0,0.0,0.0,0.0,0.0,0.0
5260000,5108000,-0.0061736377,-0.0016779995,0.027726715,0.0020846073,-0.0074143,0.001739502,0.0,0.0,0.0,0.0,0.0,0.0,0.0,-0.041137695,0.0,0.0,0.0,0.0,0.0,-0.009703893,0.21609521,-0.43073052,-0.0036390137,0.0012015203,1.4305115e-06,0.0,0.0,0.0,0.0,0.0,0.0
5268000,5116000,-0.0061736377,-0.0016779995,0.027726715,0.0020846073,-0.0074143,0.001739502,0.0,0.0,0.0,0.0,0.0,0.0,0.0,-0.011688232,0.0,0.0,0.0,0.0,0.0,-0.009703893,0.21609521,-0.43073052,-0.004496208,0.0060037253,-2.1576881e-05,0.0,0.0,0.0,0.0,0.0,0.0
5276000,5124000,-0.0061736377,-0.0016779995,0.027726715,0.0020846073,-0.0074143,0.001739502,0.0,0.0,0.0,0.0,0.0,0.0,0.0,-0.011688232,0.0,0.0,0.0,0.0,0.0,-0.009703893,0.21609521,-0.43073052,-0.004217042,0.0034524822,-6.735325e-06,0.0,0.0,0.0,0.0,0.0,0.0
5284000,5132000,-0.0061736377,-0.0016779995,0.027726715,0.0020846073,-0.0074143,0.001739502,0.0,0.0,0.0,0.0,0.0,0.0,0.0,-0.011688232,0.0,0.0,0.0,0.0,0.0,-0.009703893,0.21609521,-0.43073052,-0.0018835302,0.011084735,-6.878376e-05,0.0,0.0,0.0,0.0,0.0,0.0
5300000,5148000,-0.0061736377,-0.0016779995,0.027726715,0.0020846073,-0.0074143,0.001739502,0.0,0.0,0.0,0.0,0.0,0.0,0.0,-0.011688232,0.0,0.0,0.0,0.0,0.0,-0.006843156,0.2172554,-0.4290655,0.006710968,0.0002797942,-4.0888786e-05,0.0,0.0,0.0,0.0,0.0,0.0
5308000,5156000,-0.0061736377,-0.0016779995,0.027726715,0.0020846073,-0.0074143,0.001739502,0.0,0.0,0.0,0.0,0.0,0.0,0.0,-0.011688232,0.0,0.0,0.0,0.0,0.0,-0.006843156,0.2172554,-0.4290655,0.007499577,-0.0015857033,-4.8577785e-05,0.0,0.0,0.0,0.0,0.0,0.0
5316000,5164000,-0.0061736377,-0.0016779995,0.027726715,0.0020846073,-0.0074143,0.001739502,0.0,0.0,0.0,0.0,0.0,0.0,0.0,-0.011688232,0.0,0.0,0.0,0.0,0.0,-0.006843156,0.2172554,-0.4290655,-0.0009241402,0.0051309755,-1.6331673e-05,0.0,0.0,0.0,0.0,0.0,0.0
5324000,5172000,-0.0061736377,-0.0016779995,0.027726715,0.0020846073,-0.0074143,0.001739502,0.0,0.0,0.0,0.0,0.0,0.0,0.0,-0.011688232,0.0,0.0,0.0,0.0,0.0,-0.006843156,0.2172554,-0.4290655,-0.0020333133,-0.0008641294,4.529953e-06,0.0,0.0,0.0,0.0,0.0,0.0
5340000,5188000,-0.0061736377,-0.0016779995,0.027726715,0.0020846073,-0.0074143,0.001739502,0.0,0.0,0.0,0.0,0.0,0.0,0.0,0.05847168,0.0,0.0,0.0,0.0,0.0,-0.006843156,0.2172554,-0.4290655,-0.0002108335,-0.008024103,-2.515316e-05,0.0,0.0,0.0,0.0,0.0,0.0
5348000,5196000,-0.0061736377,-0.0016779995,0.027726715,0.0020846073,-0.0074143,0.001739502,0.0,0.0,0.0,0.0,0.0,0.0,0.0,0.05847168,0.0,0.0,0.0,0.0,0.0,-0.006843156,0.2172554,-0.4290655,-0.00034368178,0.003398272,-7.5101852e-06,0.0,0.0,0.0,0.0,0.0,0.0
5356000,5204000,-0.0061736377,-0.0016779995,0.027726715,0.0020846073,-0.0074143,0.001739502,0.0,0.0,0.0,0.0,0.0,0.0,0.0,0.05847168,0.0,0.0,0.0,0.0,0.0,-0.006843156,0.2172554,-0.4290655,-0.0073144548,0.007239895,-3.8087368e-05,0.0,0.0,0.0,0.0,0.0,0.0
5364000,5212000,-0.0061736377,-0.0016779995,0.027726715,0.0020846073,-0.0074143,0.001739502,0.0,0.0,0.0,0.0,0.0,0.0,0.0,0.05847168,0.0,0.0,0.0,0.0,0.0,-0.012008277,0.21524188,-0.42883375,-0.009004162,0.0005959683,-1.66893e-05,0.0,0.0,0.0,0.0,0.0,0.0
5380000,5228000,-0.0061736377,-0.0016779995,0.027726715,0.0020846073,-0.0074143,0.001739502,0.0,0.0,0.0,0.0,0.0,0.0,0.0,0.05847168,0.0,0.0,0.0,0.0,0.0,-0.012008277,0.21524188,-0.42883375,-0.002455588,0.009087214,-4.476309e-05,0.0,0.0,0.0,0.0,0.0,0.0
5388000,5236000,-0.0061736377,-0.0016779995,0.027726715,0.0020846073,-0.0074143,0.001739502,0.0,0.0,0.0,0.0,0.0,0.0,0.0,0.05847168,0.0,0.0,0.0,0.0,0.0,-0.012008277,0.21524188,-0.42883375,0.0073447223,0.008458391,-8.7201595e-05,0.0,0.0,0.0,0.0,0.0,0.0
5396000,5244000,-0.0061736377,-0.0016779995,0.027726715,0.0020846073,-0.0074143,0.001739502,0.0,0.0,0.0,0.0,0.0,0.0,0.0,0.05847168,0.0,0.0,0.0,0.0,0.0,-0.012008277,0.21524188,-0.42883375,-0.001381471,0.00021176954,2.4437904e-06,0.0,0.0,0.0,0.0,0.0,0.0
5404000,5252000,-0.0061736377,-0.0016779995,0.027726715,0.0020846073,-0.0074143,0.001739502,0.0,0.0,0.0,0.0,0.0,0.0,0.0,0.05847168,0.0,0.0,0.0,0.0,0.0,-0.012008277,0.21524188,-0.42883375,-0.0055493526,0.003865724,-1.1384487e-05,0.0,0.0,0.0,0.0,0.0,0.0
5420000,5268000,-0.0061736377,-0.0016779995,0.027726715,0.0020846073,-0.0074143,0.001739502,0.0,0.0,0.0,0.0,0.0,0.0,0.0,-0.06466675,0.0,0.0,0.0,0.0,0.0,-0.012008277,0.21524188,-0.42883375,-0.0026525725,-0.0025196713,1.1920929e-06,0.0,0.0,0.0,0.0,0.0,0.0
5428000,5276000,-0.0061736377,-0.0016779995,0.027726715,0.0020846073,-0.0074143,0.001739502,0.0,0.0,0.0,0.0,0.0,0.0,0.0,-0.06466675,0.0,0.0,0.0,0.0,0.0,-0.012904858,0.21483909,-0.43135646,0.008472586,-0.009758571,-9.548664e-05,0.0,0.0,0.0,0.0,0.0,0.0
5436000,5284000,-0.0061736377,-0.0016779995,0.027726715,0.0020846073,-0.0074143,0.001739502,0.0,0.0,0.0,0.0,0.0,0.0,0.0,-0.06466675,0.0,0.0,0.0,0.0,0.0,-0.012904858,0.21483909,-0.43135646,-0.0009615243,-0.007491,-2.1338463e-05,0.0,0.0,0.0,0.0,0.0,0.0
5444000,5292000,-0.0061736377,-0.0016779995,0.027726715,0.0020846073,-0.0074143,0.001739502,0.0,0.0,0.0,0.0,0.0,0.0,0.0,-0.06466675,0.0,0.0,0.0,0.0,0.0,-0.012904858,0.21483909,-0.43135646,0.0025057874,-0.0049906424,-1.758337e-05,0.0,0.0,0.0,0.0,0.0,0.0
5460000,5308000,-0.0061736377,-0.0016779995,0.027726715,0.0020846073,-0.0074143,0.001739502,0.0,0.0,0.0,0.0,0.0,0.0,0.0,-0.06466675,0.0,0.0,0.0,0.0,0.0,-0.012904858,0.21483909,-0.43135646,-0.014952948,-0.0042919717,-8.636713e-05,0.0,0.0,0.0,0.0,0.0,0.0
5468000,5316000,-0.0061736377,-0.0016779995,0.027726715,0.0020846073,-0.0074143,0.001739502,0.0,0.0,0.0,0.0,0.0,0.0,0.0,-0.06466675,0.0,0.0,0.0,0.0,0.0,-0.012904858,0.21483909,-0.43135646,-0.006708481,0.0053008967,-2.7239323e-05,0.0,0.0,0.0,0.0,0.0,0.0
5476000,5324000,-0.0061736377,-0.0016779995,0.027726715,0.0020846073,-0.0074143,0.001739502,0.0,0.0,0.0,0.0,0.0,0.0,0.0,-0.06466675,0.0,0.0,0.0,0.0,0.0,-0.012904858,0.21483909,-0.43135646,0.006592793,-0.0014003377,-3.46303e-05,0.0,0.0,0.0,0.0,0.0,0.0
5484000,5332000,-0.0061736377,-0.0016779995,0.027726715,0.0020846073,-0.0074143,0.001739502,0.0,0.0,0.0,0.0,0.0,0.0,0.0,0.055236816,0.0,0.0,0.0,0.0,0.0,-0.012904858,0.21483909,-0.43135646,0.016756335,0.0024407534,-0.00018143654,0.0,0.0,0.0,0.0,0.0,0.0
5500000,5348000,-0.0061736377,-0.0016779995,0.027726715,0.0020846073,-0.0074143,0.001739502,0.0,0.0,0.0,0.0,0.0,0.0,0.0,0.055236816,0.0,0.0,0.0,0.0,0.0,-0.007067879,0.21659373,-0.42891574,-0.000730315,-0.005488797,-6.67572e-06,0.0,0.0,0.0,0.0,0.0,0.0
5508000,5356000,-0.0061736377,-0.0016779995,0.027726715,0.0020846073,-0.0074143,0.001739502,0.0,0.0,0.0,0.0,0.0,0.0,0.0,0.055236816,0.0,0.0,0.0,0.0,0.0,-0.007067879,0.21659373,-0.42891574,-0.0038698646,0.004897235,-1.7404556e-05,0.0,0.0,0.0,0.0,0.0,0.0
5516000,5364000,-0.0061736377,-0.0016779995,0.027726715,0.0020846073,-0.0074143,0.001739502,0.0,0.0,0.0,0.0,0.0,0.0,0.0,0.055236816,0.0,0.0,0.0,0.0,0.0,-0.007067879,0.21659373,-0.42891574,-0.009501062,-0.0071415314,-4.172325e-05,0.0,0.0,0.0,0.0,0.0,0.0
5524000,5372000,-0.0061736377,-0.0016779995,0.027726715,0.0020846073,-0.0074143,0.001739502,0.0,0.0,0.0,0.0,0.0,0.0,0.0,0.055236816,0.0,0.0,0.0,0.0,0.0,-0.007067879,0.21659373,-0.42891574,-0.00611914,-0.0049170484,-1.1622906e-05,0.0,0.0,0.0,0.0,0.0,0.0
5540000,5388000,-0.0061736377,-0.0016779995,0.027726715,0.0020846073,-0.0074143,0.001739502,0.0,0.0,0.0,0.0,0.0,0.0,0.0,0.055236816,0.0,0.0,0.0,0.0,0.0,-0.007067879,0.21659373,-0.42891574,-0.004956376,0.0041172896,-1.21593475e-05,0.0,0.0,0.0,0.0,0.0,0.0
5548000,5396000,-0.0061736377,-0.0016779995,0.027726715,0.0020846073,-0.0074143,0.001739502,0.0,0.0,0.0,0.0,0.0,0.0,0.0,0.055236816,0.0,0.0,0.0,0.0,0.0,-0.007067879,0.21659373,-0.42891574,0.00233204,0.0055229096,-3.0636787e-05,0.0,0.0,0.0,0.0,0.0,0.0
5556000,5404000,-0.0061736377,-0.0016779995,0.027726715,0.0020846073,-0.0074143,0.001739502,0.0,0.0,0.0,0.0,0.0,0.0,0.0,-0.0032348633,0.0,0.0,0.0,0.0,0.0,-0.007067879,0.21659373,-0.42891574,-0.006090805,0.0029466841,-1.0728836e-05,0.0,0.0,0.0,0.0,0.0,0.0
5564000,5412000,-0.0061736377,-0.0016779995,0.027726715,0.0020846073,-0.0074143,0.001739502,0.0,0.0,0.0,0.0,0.0,0.0,0.0,-0.0032348633,0.0,0.0,0.0,0.0,0.0,-0.007067879,0.21659373,-0.42891574,0.00024730223,-0.0039228667,-3.7550926e-06,0.0,0.0,0.0,0.0,0.0,0.0
5580000,5428000,-0.0061736377,-0.0016779995,0.027726715,0.0020846073,-0.0074143,0.001739502,0.0,0.0,0.0,0.0,0.0,0.0,0.0,-0.0032348633,0.0,0.0,0.0,0.0,0.0,-0.0061717094,0.21562394,-0.4298523,-0.003548573,0.0046777567,-1.3649464e-05,0.0,0.0,0.0,0.0,0.0,0.0
5588000,5436000,-0.0061736377,-0.0016779995,0.027726715,0.0020846073,-0.0074143,0.001739502,0.0,0.0,0.0,0.0,0.0,0.0,0.0,-0.0032348633,0.0,0.0,0.0,0.0,0.0,-0.0061717094,0.21562394,-0.4298523,-0.009311183,-0.0066003604,-3.2186508e-05,0.0,0.0,0.0,0.0,0.0,0.0
5596000,5444000,-0.0061736377,-0.0016779995,0.027726715,0.0020846073,-0.0074143,0.001739502,0.0,0.0,0.0,0.0,0.0,0.0,0.0,-0.0032348633,0.0,0.0,0.0,0.0,0.0,-0.0061717094,0.21562394,-0.4298523,-0.009686638,-0.003867788,-2.3841858e-05,0.0,0.0,0.0,0.0,0.0,0.0
5604000,5452000,-0.0061736377,-0.0016779995,0.027726715,0.0020846073,-0.0074143,0.001739502,0.0,0.0,0.0,0.0,0.0,0.0,0.0,-0.0032348633,0.0,0.0,0.0,0.0,0.0,-0.0061717094,0.21562394,-0.4298523,-0.0050489693,-0.011174536,-4.6133995e-05,0.0,0.0,0.0,0.0,0.0,0.0
5620000,5468000,-0.0061736377,-0.0016779995,0.027726715,0.0020846073,-0.0074143,0.001739502,0.0,0.0,0.0,0.0,0.0,0.0,0.0,-0.0032348633,0.0,0.0,0.0,0.0,0.0,-0.0061717094,0.21562394,-0.4298523,-0.00085870747,-0.0012069324,2.4437904e-06,0.0,0.0,0.0,0.0,0.0,0.0
5628000,5476000,-0.0061736377,-0.0016779995,0.027726715,0.0020846073,-0.0074143,0.001739502,0.0,0.0,0.0,0.0,0.0,0.0,0.0,0.010772705,0.0,0.0,0.0,0.0,0.0,-0.0061717094,0.21562394,-0.4298523,-0.0063934117,0.00035020988,-5.6624413e-06,0.0,0.0,0.0,0.0,0.0,0.0
5636000,5484000,-0.0061736377,-0.0016779995,0.027726715,0.0020846073,-0.0074143,0.001739502,0.0,0.0,0.0,0.0,0.0,0.0,0.0,0.010772705,0.0,0.0,0.0,0.0,0.0,-0.011228084,0.21767999,-0.42913738,-0.0034577206,-0.0042410763,-1.66893e-06,0.0,0.0,0.0,0.0,0.0,0.0
5644000,5492000,-0.0061736377,-0.0016779995,0.027726715,0.0020846073,-0.0074143,0.001739502,0.0,0.0,0.0,0.0,0.0,0.0,0.0,0.010772705,0.0,0.0,0.0,0.0,0.0,-0.011228084,0.21767999,-0.42913738,-0.0033703619,0.0036903094,-9.596348e-06,0.0,0.0,0.0,0.0,0.0,0.0
5660000,5508000,-0.0028730775,0.002525752,0.027745454,0.0025011105,-0.0071581393,-0.0016784668,0.0,0.0,0.0,0.0,0.0,0.0,0.0,0.010772705,0.0,0.0,0.0,0.0,0.0,-0.011228084,0.21767999,-0.42913738,-0.012759106,-0.0021629806,-5.1498413e-05,0.0,0.0,0.0,0.0,0.0,0.0
5668000,5516000,-0.0028730775,0.002525752,0.027745454,0.0025011105,-0.0071581393,-0.0016784668,0.0,0.0,0.0,0.0,0.0,0.0,0.0,0.010772705,0.0,0.0,0.0,0.0,0.0,-0.011228084,0.21767999,-0.42913738,-0.004902518,-0.0037660669,-3.5762787e-06,0.0,0.0,0.0,0.0,0.0,0.0
5676000,5524000,-0.0028730775,0.002525752,0.027745454,0.0025011105,-0.0071581393,-0.0016784668,0.0,0.0,0.0,0.0,0.0,0.0,0.0,0.010772705,0.0,0.0,0.0,0.0,0.0,-0.011228084,0.21767999,-0.42913738,0.001046069,-0.0074141594,-2.0802021e-05,0.0,0.0,0.0,0.0,0.0,0.0
5684000,5532000,-0.0028730775,0.002525752,0.027745454,0.0025011105,-0.0071581393,-0.0016784668,0.0,0.0,0.0,0.0,0.0,0.0,0.0,0.010772705,0.0,0.0,0.0,0.0,0.0,-0.011228084,0.21767999,-0.42913738,-0.0021233356,-8.305686e-05,2.2649765e-06,0.0,0.0,0.0,0.0,0.0,0.0
5700000,5548000,-0.0028730775,0.002525752,0.027745454,0.0025011105,-0.0071581393,-0.0016784668,0.0,0.0,0.0,0.0,0.0,0.0,0.0,-0.045532227,0.0,0.0,0.0,0.0,0.0,-0.011228084,0.21767999,-0.42913738,-1.2817327e-05,-0.0010479866,8.34465e-07,0.0,0.0,0.0,0.0,0.0,0.0
5708000,5556000,-0.0028730775,0.002525752,0.027745454,0.0025011105,-0.0071581393,-0.0016784668,0.0,0.0,0.0,0.0,0.0,0.0,0.0,-0.045532227,0.0,0.0,0.0,0.0,0.0,-0.011280136,0.21356821,-0.42846715,0.00092926854,0.004080849,-1.6391277e-05,0.0,0.0,0.0,0.0,0.0,0.0
5716000,5564000,-0.0028730775,0.002525752,0.027745454,0.0025011105,-0.0071581393,-0.0016784668,0.0,0.0,0.0,0.0,0.0,0.0,0.0,-0.045532227,0.0,0.0,0.0,0.0,0.0,-0.011280136,0.21356821,-0.42846715,-0.011615681,0.002662315,-5.298853e-05,0.0,0.0,0.0,0.0,0.0,0.0
5724000,5572000,-0.0028730775,0.002525752,0.027745454,0.0025011105,-0.0071581393,-0.0016784668,0.0,0.0,0.0,0.0,0.0,0.0,0.0,-0.045532227,0.0,0.0,0.0,0.0,0.0,-0.011280136,0.21356821,-0.42846715,-0.010421291,0.0067525934,-6.836653e-05,0.0,0.0,0.0,0.0,0.0,0.0
5740000,5588000,-0.0028730775,0.002525752,0.027745454,0.0025011105,-0.0071581393,-0.0016784668,0.0,0.0,0.0,0.0,0.0,0.0,0.0,-0.045532227,0.0,0.0,0.0,0.0,0.0,-0.011280136,0.21356821,-0.42846715,0.0024747374,0.0026304442,-1.5318394e-05,0.0,0.0,0.0,0.0,0.0,0.0
5748000,5596000,-0.0028730775,0.002525752,0.027745454,0.0025011105,-0.0071581393,-0.0016784668,0.0,0.0,0.0,0.0,0.0,0.0,0.0,-0.045532227,0.0,0.0,0.0,0.0,0.0,-0.011280136,0.21356821,-0.42846715,-0.0031062611,0.0025932896,-3.8146973e-06,0.0,0.0,0.0,0.0,0.0,0.0
5756000,5604000,-0.0028730775,0.002525752,0.027745454,0.0025011105,-0.0071581393,-0.0016784668,0.0,0.0,0.0,0.0,0.0,0.0,0.0,-0.045532227,0.0,0.0,0.0,0.0,0.0,-0.011280136,0.21356821,-0.42846715,-0.0023952597,0.0004198657,1.7881393e-06,0.0,0.0,0.0,0.0,0.0,0.0
5764000,5612000,-0.0028730775,0.002525752,0.027745454,0.0025011105,-0.0071581393,-0.0016784668,0.0,0.0,0.0,0.0,0.0,0.0,0.0,-0.045532227,0.0,0.0,0.0,0.0,0.0,-0.011280136,0.21356821,-0.42846715,0.002456578,-0.005596813,-1.758337e-05,0.0,0.0,0.0,0.0,0.0,0.0
5780000,5628000,-0.0028730775,0.002525752,0.027745454,0.0025011105,-0.0071581393,-0.0016784668,0.0,0.0,0.0,0.0,0.0,0.0,0.0,-0.026031494,0.0,0.0,0.0,0.0,0.0,-0.0095638465,0.21797888,-0.42708367,0.006224652,0.0067952033,-6.4373016e-05,0.0,0.0,0.0,0.0,0.0,0.0
5788000,5636000,-0.0028730775,0.002525752,0.027745454,0.0025011105,-0.0071581393,-0.0016784668,0.0,0.0,0.0,0.0,0.0,0.0,0.0,-0.026031494,0.0,0.0,0.0,0.0,0.0,-0.0095638465,0.21797888,-0.42708367,-0.009572141,0.003952854,-3.7252903e-05,0.0,0.0,0.0,0.0,0.0,0.0
5796000,5644000,-0.0028730775,0.002525752,0.027745454,0.0025011105,-0.0071581393,-0.0016784668,0.0,0.0,0.0,0.0,0.0,0.0,0.0,-0.026031494,0.0,0.0,0.0,0.0,0.0,-0.0095638465,0.21797888,-0.42708367,-0.009218182,0.00086557586,-2.4020672e-05,0.0,0.0,0.0,0.0,0.0,0.0
5804000,5652000,-0.0028730775,0.002525752,0.027745454,0.0025011105,-0.0071581393,-0.0016784668,0.0,0.0,0.0,0.0,0.0,0.0,0.0,-0.026031494,0.0,0.0,0.0,0.0,0.0,-0.0095638465,0.21797888,-0.42708367,-0.00049488654,0.008975267,-4.8995018e-05,0.0,0.0,0.0,0.0,0.0,0.0
5820000,5668000,-0.0028730775,0.002525752,0.027745454,0.0025011105,-0.0071581393,-0.0016784668,0.0,0.0,0.0,0.0,0.0,0.0,0.0,-0.026031494,0.0,0.0,0.0,0.0,0.0,-0.0095638465,0.21797888,-0.42708367,-0.003921168,-0.007732678,-2.1517277e-05,0.0,0.0,0.0,0.0,0.0,0.0
5828000,5676000,-0.0028730775,0.002525752,0.027745454,0.0025011105,-0.0071581393,-0.0016784668,0.0,0.0,0.0,0.0,0.0,0.0,0.0,-0.026031494,0.0,0.0,0.0,0.0,0.0,-0.0095638465,0.21797888,-0.42708367,0.002721374,2.6045134e-05,-9.119511e-06,0.0,0.0,0.0,0.0,0.0,0.0
5836000,5684000,-0.0028730775,0.002525752,0.027745454,0.0025011105,-0.0071581393,-0.0016784668,0.0,0.0,0.0,0.0,0.0,0.0,0.0,-0.026031494,0.0,0.0,0.0,0.0,0.0,-0.0095638465,0.21797888,-0.42708367,0.002331731,-0.003148552,-9.059906e-06,0.0,0.0,0.0,0.0,0.0,0.0
5844000,5692000,-0.0028730775,0.002525752,0.027745454,0.0025011105,-0.0071581393,-0.0016784668,0.0,0.0,0.0,0.0,0.0,0.0,0.0,0.063568115,0.0,0.0,0.0,0.0,0.0,-0.0095638465,0.21797888,-0.42708367,0.0039597554,-0.0050251386,-2.3961067e-05,0.0,0.0,0.0,0.0,0.0,0.0
5860000,5708000,-0.0028730775,0.002525752,0.027745454,0.0025011105,-0.0071581393,-0.0016784668,0.0,0.0,0.0,0.0,0.0,0.0,0.0,0.063568115,0.0,0.0,0.0,0.0,0.0,0.0,0.0,0.0,-0.010094969,-0.0030882058,-3.1650066e-05,0.0,0.0,0.0,0.0,0.0,0.0
5868000,5716000,-0.0028730775,0.002525752,0.027745454,0.0025011105,-0.0071581393,-0.0016784668,0.0,0.0,0.0,0.0,0.0,0.0,0.0,0.063568115,0.0,0.0,0.0,0.0,0.0,0.0,0.0,0.0,0.007817974,0.0008860398,-4.851818e-05,0.0,0.0,0.0,0.0,0.0,0.0
5876000,5724000,-0.0028730775,0.002525752,0.027745454,0.0025011105,-0.0071581393,-0.0016784668,0.0,0.0,0.0,0.0,0.0,0.0,0.0,0.063568115,0.0,0.0,0.0,0.0,0.0,0.0,0.0,0.0,-0.00522501,-0.0066300468,-1.859665e-05,0.0,0.0,0.0,0.0,0.0,0.0
5884000,5732000,-0.0028730775,0.002525752,0.027745454,0.0025011105,-0.0071581393,-0.0016784668,0.0,0.0,0.0,0.0,0.0,0.0,0.0,0.063568115,0.0,0.0,0.0,0.0,0.0,0.0,0.0,0.0,-0.0020914099,-0.013714741,-8.004904e-05,0.0,0.0,0.0,0.0,0.0,0.0
5900000,5748000,-0.0028730775,0.002525752,0.027745454,0.0025011105,-0.0071581393,-0.0016784668,0.0,0.0,0.0,0.0,0.0,0.0,0.0,0.063568115,0.0,0.0,0.0,0.0,0.0,0.0,0.0,0.0,-0.0029969339,-0.0056024874,-8.523464e-06,0.0,0.0,0.0,0.0,0.0,0.0
5908000,5756000,-0.0028730775,0.002525752,0.027745454,0.0025011105,-0.0071581393,-0.0016784668,0.0,0.0,0.0,0.0,0.0,0.0,0.0,0.063568115,0.0,0.0,0.0,0.0,0.0,0.0,0.0,0.0,0.001028108,-0.0005167484,-2.4437904e-06,0.0,0.0,0.0,0.0,0.0,0.0
5916000,5764000,-0.0028730775,0.002525752,0.027745454,0.0025011105,-0.0071581393,-0.0016784668,0.0,0.0,0.0,0.0,0.0,0.0,0.0,-0.050994873,0.0,0.0,0.0,0.0,0.0,0.0,0.0,0.0,-0.002242075,0.000576644,1.847744e-06,0.0,0.0,0.0,0.0,0.0,0.0
5924000,5772000,-0.0028730775,0.002525752,0.027745454,0.0025011105,-0.0071581393,-0.0016784668,0.0,0.0,0.0,0.0,0.0,0.0,0.0,-0.050994873,0.0,0.0,0.0,0.0,0.00050109625,-0.0013945829,-0.0024807006,0.00050109625,2.7417671e-05,0.007635058,-3.4749508e-05,0.0,0.0,0.0,0.0,0.0,0.0
5940000,5788000,-0.0028730775,0.002525752,0.027745454,0.0025011105,-0.0071581393,-0.0016784668,0.0,0.0,0.0,0.0,0.0,0.0,0.0,-0.050994873,0.0,0.0,0.0,0.0,0.00050109625,-0.0013945829,-0.0024807006,0.00050109625,0.00165217,-0.009123656,-4.005432e-05,0.0,0.0,0.0,0.0,0.0,0.0
5948000,5796000,-0.0028730775,0.002525752,0.027745454,0.0025011105,-0.0071581393,-0.0016784668,0.0,0.0,0.0,0.0,0.0,0.0,0.0,-0.050994873,0.0,0.0,0.0,0.0,0.00050109625,-0.0013945829,-0.0024807006,0.00050109625,-0.0021393804,-0.0017339617,2.9206276e-06,0.0,0.0,0.0,0.0,0.0,0.0
5956000,5804000,-0.0028730775,0.002525752,0.027745454,0.0025011105,-0.0071581393,-0.0016784668,0.0,0.0,0.0,0.0,0.0,0.0,0.0,-0.050994873,0.0,0.0,0.0,0.0,0.00050109625,-0.0013945829,-0.0024807006,0.00050109625,-0.0027331703,0.0032320302,-4.9471855e-06,0.0,0.0,0.0,0.0,0.0,0.0
5964000,5812000,-0.0028730775,0.002525752,0.027745454,0.0025011105,-0.0071581393,-0.0016784668,0.0,0.0,0.0,0.0,0.0,0.0,0.0,-0.050994873,0.0,0.0,0.0,0.0,0.00050109625,-0.0013945829,-0.0024807006,0.00050109625,0.00060117175,0.0057334774,-2.5212765e-05,0.0,0.0,0.0,0.0,0.0,0.0
5980000,5828000,-0.0028730775,0.002525752,0.027745454,0.0025011105,-0.0071581393,-0.0016784668,0.0,0.0,0.0,0.0,0.0,0.0,0.0,-0.050994873,0.0,0.0,0.0,0.0,0.00050109625,-0.0013945829,-0.0024807006,0.00050109625,-0.009017447,-0.007569336,-3.8802624e-05,0.0,0.0,0.0,0.0,0.0,0.0
5988000,5836000,-0.0028730775,0.002525752,0.027745454,0.0025011105,-0.0071581393,-0.0016784668,0.0,0.0,0.0,0.0,0.0,0.0,0.0,0.048309326,0.0,0.0,0.0,0.0,0.00050109625,-0.0013945829,-0.0024807006,0.00050109625,-0.008848321,-0.0030357782,-1.9073486e-05,0.0,0.0,0.0,0.0,0.0,0.0
5996000,5844000,-0.0028730775,0.002525752,0.027745454,0.0025011105,-0.0071581393,-0.0016784668,0.0,0.0,0.0,0.0,0.0,0.0,0.0,0.048309326,0.0,0.0,0.0,0.0,0.0015991777,-0.0011273847,0.0015991777,-0.00014072657,-0.0013591335,0.0029046116,-5.90086e-06,0.0,0.0,0.0,0.0,0.0,0.0
6004000,5852000,-0.0028730775,0.002525752,0.027745454,0.0025011105,-0.0071581393,-0.0016784668,0.0,0.0,0.0,0.0,0.0,0.0,0.0,0.048309326,0.0,0.0,0.0,0.0,0.0015991777,-0.0011273847,0.0015991777,-0.00014072657,0.002744016,-0.0023324015,-9.775162e-06,0.0,0.0,0.0,0.0,0.0,0.0
6020000,5868000,-0.0028730775,0.002525752,0.027745454,0.0025011105,-0.0071581393,-0.0016784668,0.0,0.0,0.0,0.0,0.0,0.0,0.0,0.048309326,0.0,0.0,0.0,0.0,0.0015991777,-0.0011273847,0.0015991777,-0.00014072657,-0.004342479,-0.0021721334,2.9802322e-07,0.0,0.0,0.0,0.0,0.0,0.0
6028000,5876000,-0.0028730775,0.002525752,0.027745454,0.0025011105,-0.0071581393,-0.0016784668,0.0,0.0,0.0,0.0,0.0,0.0,0.0,0.048309326,0.0,0.0,0.0,0.0,0.0015991777,-0.0011273847,0.0015991777,-0.00014072657,-0.005844814,-0.004563359,-8.404255e-06,0.0,0.0,0.0,0.0,0.0,0.0
6036000,5884000,-0.0028730775,0.002525752,0.027745454,0.0025011105,-0.0071581393,-0.0016784668,0.0,0.0,0.0,0.0,0.0,0.0,0.0,0.048309326,0.0,0.0,0.0,0.0,0.0015991777,-0.0011273847,0.0015991777,-0.00014072657,-0.0032060435,-0.0052680643,-5.3048134e-06,0.0,0.0,0.0,0.0,0.0,0.0
6044000,5892000,-0.0028730775,0.002525752,0.027745454,0.0025011105,-0.0071581393,-0.0016784668,0.0,0.0,0.0,0.0,0.0,0.0,0.0,0.048309326,0.0,0.0,0.0,0.0,0.0015991777,-0.0011273847,0.0015991777,-0.00014072657,-0.0016805433,-0.0035816133,5.364418e-07,0.0,0.0,0.0,0.0,0.0,0.0
6060000,5908000,-0.00056508754,0.0027647344,0.023798471,0.0025555573,-0.006903871,-0.0063171387,0.0,0.0,0.0,0.0,0.0,0.0,0.0,0.01852417,0.0,0.0,0.0,0.0,0.0015991777,-0.0011273847,0.0015991777,-0.00014072657,0.017326728,-0.004815393,-0.00019520521,0.0,0.0,0.0,0.0,0.0,0.0
6068000,5916000,-0.00056508754,0.0027647344,0.023798471,0.0025555573,-0.006903871,-0.0063171387,0.0,0.0,0.0,0.0,0.0,0.0,0.0,0.01852417,0.0,0.0,0.0,0.0,0.0019596815,0.0013547275,0.00020371377,0.0019596815,0.00092008733,0.00015058042,-2.8014183e-06,0.0,0.0,0.0,0.0,0.0,0.0
6076000,5924000,-0.00056508754,0.0027647344,0.023798471,0.0025555573,-0.006903871,-0.0063171387,0.0,0.0,0.0,0.0,0.0,0.0,0.0,0.01852417,0.0,0.0,0.0,0.0,0.0019596815,0.0013547275,0.00020371377,0.0019596815,-0.0074244705,-0.0015293389,-9.298325e-06,0.0,0.0,0.0,0.0,0.0,0.0
6084000,5932000,-0.00056508754,0.0027647344,0.023798471,0.0025555573,-0.006903871,-0.0063171387,0.0,0.0,0.0,0.0,0.0,0.0,0.0,0.01852417,0.0,0.0,0.0,0.0,0.0019596815,0.0013547275,0.00020371377,0.0019596815,-0.007779227,0.007448545,-4.976988e-05,0.0,0.0,0.0,0.0,0.0,0.0
6100000,5948000,-0.00056508754,0.0027647344,0.023798471,0.0025555573,-0.006903871,-0.0063171387,0.0,0.0,0.0,0.0,0.0,0.0,0.0,0.01852417,0.0,0.0,0.0,0.0,0.0019596815,0.0013547275,0.00020371377,0.0019596815,-0.00046743767,0.008559562,-4.786253e-05,0.0,0.0,0.0,0.0,0.0,0.0
6108000,5956000,-0.00056508754,0.0027647344,0.023798471,0.0025555573,-0.006903871,-0.0063171387,0.0,0.0,0.0,0.0,0.0,0.0,0.0,0.01852417,0.0,0.0,0.0,0.0,0.0019596815,0.0013547275,0.00020371377,0.0019596815,-0.0037899876,0.0025693704,-5.4836273e-06,0.0,0.0,0.0,0.0,0.0,0.0
6116000,5964000,-0.00056508754,0.0027647344,0.023798471,0.0025555573,-0.006903871,-0.0063171387,0.0,0.0,0.0,0.0,0.0,0.0,0.0,-0.023345947,0.0,0.0,0.0,0.0,0.0019596815,0.0013547275,0.00020371377,0.0019596815,-0.011621052,0.01127038,-0.00012087822,0.0,0.0,0.0,0.0,0.0,0.0
6124000,5972000,-0.00056508754,0.0027647344,0.023798471,0.0025555573,-0.006903871,-0.0063171387,0.0,0.0,0.0,0.0,0.0,0.0,0.0,-0.023345947,0.0,0.0,0.0,0.0,0.0019596815,0.0013547275,0.00020371377,0.0019596815,-0.01010507,-0.00044226833,-2.7239323e-05,0.0,0.0,0.0,0.0,0.0,0.0
6140000,5988000,-0.00056508754,0.0027647344,0.023798471,0.0025555573,-0.006903871,-0.0063171387,0.0,0.0,0.0,0.0,0.0,0.0,0.0,-0.023345947,0.0,0.0,0.0,0.0,0.00066965993,0.00066965993,-0.0011240989,-0.0016427934,-0.008995724,-0.0055320812,-2.9742718e-05,0.0,0.0,0.0,0.0,0.0,0.0
6148000,5996000,-0.00056508754,0.0027647344,0.023798471,0.0025555573,-0.006903871,-0.0063171387,0.0,0.0,0.0,0.0,0.0,0.0,0.0,-0.023345947,0.0,0.0,0.0,0.0,0.00066965993,0.00066965993,-0.0011240989,-0.0016427934,0.0026932321,-0.0035485807,-1.13248825e-05,0.0,0.0,0.0,0.0,0.0,0.0
6156000,6004000,-0.00056508754,0.0027647344,0.023798471,0.0025555573,-0.006903871,-0.0063171387,0.0,0.0,0.0,0.0,0.0,0.0,0.0,-0.023345947,0.0,0.0,0.0,0.0,0.00066965993,0.00066965993,-0.0011240989,-0.0016427934,-0.010324199,0.0015982664,-3.4928322e-05,0.0,0.0,0.0,0.0,0.0,0.0
6164000,6012000,-0.00056508754,0.0027647344,0.023798471,0.0025555573,-0.006903871,-0.0063171387,0.0,0.0,0.0,0.0,0.0,0.0,0.0,-0.023345947,0.0,0.0,0.0,0.0,0.00066965993,0.00066965993,-0.0011240989,-0.0016427934,-0.008563304,-0.0010673896,-1.8239021e-05,0.0,0.0,0.0,0.0,0.0,0.0
6180000,6028000,-0.00056508754,0.0027647344,0.023798471,0.0025555573,-0.006903871,-0.0063171387,0.0,0.0,0.0,0.0,0.0,0.0,0.0,-0.07998657,0.0,0.0,0.0,0.0,0.00066965993,0.00066965993,-0.0011240989,-0.0016427934,-0.0030140392,-0.00023348333,1.6093254e-06,0.0,0.0,0.0,0.0,0.0,0.0
6188000,6036000,-0.00056508754,0.0027647344,0.023798471,0.0025555573,-0.006903871,-0.0063171387,0.0,0.0,0.0,0.0,0.0,0.0,0.0,-0.07998657,0.0,0.0,0.0,0.0,0.00066965993,0.00066965993,-0.0011240989,-0.0016427934,-0.01149561,0.0013080318,-4.6670437e-05,0.0,0.0,0.0,0.0,0.0,0.0
6196000,6044000,-0.00056508754,0.0027647344,0.023798471,0.0025555573,-0.006903871,-0.0063171387,0.0,0.0,0.0,0.0,0.0,0.0,0.0,-0.07998657,0.0,0.0,0.0,0.0,0.00066965993,0.00066965993,-0.0011240989,-0.0016427934,-0.008543641,0.0056843376,-4.3094158e-05,0.0,0.0,0.0,0.0,0.0,0.0
6204000,6052000,-0.00056508754,0.0027647344,0.023798471,0.0025555573,-0.006903871,-0.0063171387,0.0,0.0,0.0,0.0,0.0,0.0,0.0,-0.07998657,0.0,0.0,0.0,0.0,0.00066965993,0.00066965993,-0.0011240989,-0.0016427934,-0.004066662,0.0046454696,-1.6987324e-05,0.0,0.0,0.0,0.0,0.0,0.0
6220000,6068000,-0.00056508754,0.0027647344,0.023798471,0.0025555573,-0.006903871,-0.0063171387,0.0,0.0,0.0,0.0,0.0,0.0,0.0,-0.07998657,0.0,0.0,0.0,0.0,0.0030198214,0.0030198214,-0.0018863827,-0.00036922097,-0.006640571,-0.005237466,-1.758337e-05,0.0,0.0,0.0,0.0,0.0,0.0
6228000,6076000,-0.00056508754,0.0027647344,0.023798471,0.0025555573,-0.006903871,-0.0063171387,0.0,0.0,0.0,0.0,0.0,0.0,0.0,-0.07998657,0.0,0.0,0.0,0.0,0.0030198214,0.0030198214,-0.0018863827,-0.00036922097,-0.005158312,-0.0013542998,-3.33786e-06,0.0,0.0,0.0,0.0,0.0,0.0
6236000,6084000,-0.00056508754,0.0027647344,0.023798471,0.0025555573,-0.006903871,-0.0063171387,0.0,0.0,0.0,0.0,0.0,0.0,0.0,-0.07998657,0.0,0.0,0.0,0.0,0.0030198214,0.0030198214,-0.0018863827,-0.00036922097,-0.011422494,0.008696767,-9.5427036e-05,0.0,0.0,0.0,0.0,0.0,0.0
6244000,6092000,-0.00056508754,0.0027647344,0.023798471,0.0025555573,-0.006903871,-0.0063171387,0.0,0.0,0.0,0.0,0.0,0.0,0.0,-0.07998657,0.0,0.0,0.0,0.0,0.0030198214,0.0030198214,-0.0018863827,-0.00036922097,0.007729236,-0.0011672858,-4.1246414e-05,0.0,0.0,0.0,0.0,0.0,0.0
6260000,6108000,-0.00056508754,0.0027647344,0.023798471,0.0025555573,-0.006903871,-0.0063171387,0.0,0.0,0.0,0.0,0.0,0.0,0.0,-0.032440186,0.0,0.0,0.0,0.0,0.0030198214,0.0030198214,-0.0018863827,-0.00036922097,0.009074751,0.00084019254,-5.7041645e-05,0.0,0.0,0.0,0.0,0.0,0.0
6268000,6116000,-0.00056508754,0.0027647344,0.023798471,0.0025555573,-0.006903871,-0.0063171387,0.0,0.0,0.0,0.0,0.0,0.0,0.0,-0.032440186,0.0,0.0,0.0,0.0,0.0030198214,0.0030198214,-0.0018863827,-0.00036922097,-0.012105853,-0.0044828085,-5.787611e-05,0.0,0.0,0.0,0.0,0.0,0.0
6276000,6124000,-0.00056508754,0.0027647344,0.023798471,0.0025555573,-0.006903871,-0.0063171387,0.0,0.0,0.0,0.0,0.0,0.0,0.0,-0.032440186,0.0,0.0,0.0,0.0,0.0030198214,0.0030198214,-0.0018863827,-0.00036922097,-0.0069573447,0.0018797854,-1.6987324e-05,0.0,0.0,0.0,0.0,0.0,0.0
6284000,6132000,-0.00056508754,0.0027647344,0.023798471,0.0025555573,-0.006903871,-0.0063171387,0.0,0.0,0.0,0.0,0.0,0.0,0.0,-0.032440186,0.0,0.0,0.0,0.0,0.002189148,0.002189148,0.0003746152,-0.0020653903,-0.009005332,0.0005622045,-2.670288e-05,0.0,0.0,0.0,0.0,0.0,0.0
6300000,6148000,-0.00056508754,0.0027647344,0.023798471,0.0025555573,-0.006903871,-0.0063171387,0.0,0.0,0.0,0.0,0.0,0.0,0.0,-0.032440186,0.0,0.0,0.0,0.0,0.002189148,0.002189148,0.0003746152,-0.0020653903,-0.00057564804,0.005503819,-2.0503998e-05,0.0,0.0,0.0,0.0,0.0,0.0
6308000,6156000,-0.00056508754,0.0027647344,0.023798471,0.0025555573,-0.006903871,-0.0063171387,0.0,0.0,0.0,0.0,0.0,0.0,0.0,-0.032440186,0.0,0.0,0.0,0.0,0.002189148,0.002189148,0.0003746152,-0.0020653903,-0.00022330263,0.0044617155,-1.4364719e-05,0.0,0.0,0.0,0.0,0.0,0.0
6316000,6164000,-0.00056508754,0.0027647344,0.023798471,0.0025555573,-0.006903871,-0.0063171387,0.0,0.0,0.0,0.0,0.0,0.0,0.0,-0.032440186,0.0,0.0,0.0,0.0,0.002189148,0.002189148,0.0003746152,-0.0020653903,0.0032735418,-0.0094061885,-4.518032e-05,0.0,0.0,0.0,0.0,0.0,0.0
