timestamp,timestamp_sample,baro_device_id,baro_alt_meter,baro_pressure_pa,ambient_temperature,rho,temperature_source,calibration_count
3844000,3820000,6620172,488.06525,95598.445,15.0,1.1555774,0,1
3916000,3892000,6620172,488.14508,95597.5,15.0,1.155566,0,1
3988000,3964000,6620172,488.06995,95598.4,15.0,1.1555767,0,1
4060000,4036000,6620172,488.1169,95597.84,15.0,1.15557,0,1
4132000,4108000,6620172,488.0887,95598.164,15.0,1.1555738,0,1
4204000,4180000,6620172,488.13568,95597.62,15.0,1.1555673,0,1
4276000,4252000,6620172,487.9995,95599.19,15.0,1.1555862,0,1
4348000,4324000,6620172,488.1122,95597.9,15.0,1.1555707,0,1
4420000,4396000,6620172,488.13098,95597.71,15.0,1.1555685,0,1
4492000,4468000,6620172,488.14038,95597.586,15.0,1.1555669,0,1
4564000,4540000,6620172,488.18732,95597.06,15.0,1.1555606,0,1
4636000,4610666,6620172,488.16855,95597.27,15.0,1.1555632,0,1
4708000,4684000,6620172,487.98544,95599.38,15.0,1.1555887,0,1
4780000,4756000,6620172,488.20142,95596.87,15.0,1.1555582,0,1
4852000,4828000,6620172,488.14038,95597.57,15.0,1.1555668,0,1
4924000,4900000,6620172,488.08405,95598.23,15.0,1.1555747,0,1
4996000,4972000,6620172,488.12158,95597.77,15.0,1.1555692,0,1
5068000,5044000,6620172,488.06995,95598.414,15.0,1.155577,0,1
5140000,5116000,6620172,488.0981,95598.06,15.0,1.1555728,0,1
5212000,5188000,6620172,488.16855,95597.25,15.0,1.1555629,0,1
5284000,5258666,6620172,488.05118,95598.586,15.0,1.1555791,0,1
5356000,5332000,6620172,488.16855,95597.27,15.0,1.1555632,0,1
5428000,5404000,6620172,488.1122,95597.9,15.0,1.1555707,0,1
5500000,5476000,6620172,488.12628,95597.74,15.0,1.1555688,0,1
5572000,5546666,6620172,488.06995,95598.37,15.0,1.1555765,0,1
5644000,5618666,6620172,488.0887,95598.164,15.0,1.1555738,0,1
5716000,5692000,6620172,488.17795,95597.164,15.0,1.1555618,0,1
5788000,5764000,6620172,488.06525,95598.44,15.0,1.1555773,0,1
5860000,5836000,6620172,488.16385,95597.28,15.0,1.1555632,0,1
5928000,5906666,6620172,488.13568,95597.63,15.0,1.1555675,0,1
5980000,5968000,6620172,488.0934,95598.125,15.0,1.1555735,0,1
6052000,6028000,6620172,488.03708,95598.74,15.0,1.1555809,0,1
6124000,6100000,6620172,488.08405,95598.23,15.0,1.1555747,0,1
6196000,6172000,6620172,488.17795,95597.15,15.0,1.1555616,0,1
6268000,6244000,6620172,488.12628,95597.75,15.0,1.155569,0,1
6340000,6316000,6620172,488.1028,95598.01,15.0,1.155572,0,1
6412000,6388000,6620172,488.14038,95597.6,15.0,1.155567,0,1
6480000,6457333,6620172,488.13568,95597.66,15.0,1.1555678,0,1
6532000,6520000,6620172,488.07465,95598.33,15.0,1.1555759,0,1
6604000,6580000,6620172,488.13568,95597.63,15.0,1.1555675,0,1
6676000,6652000,6620172,488.0981,95598.086,15.0,1.1555729,0,1
6748000,6724000,6620172,488.04648,95598.69,15.0,1.1555803,0,1
6820000,6796000,6620172,488.13568,95597.65,15.0,1.1555678,0,1
6892000,6868000,6620172,488.1028,95597.99,15.0,1.1555718,0,1
6964000,6940000,6620172,488.20142,95596.91,15.0,1.1555587,0,1
7036000,7012000,6620172,488.0887,95598.164,15.0,1.1555738,0,1
7108000,7084000,6620172,488.0934,95598.12,15.0,1.1555734,0,1
7180000,7153333,6620172,488.15445,95597.445,15.0,1.1555651,0,1
7248000,7226666,6620172,488.13098,95597.71,15.0,1.1555685,0,1
7300000,7288000,6620172,488.07935,95598.29,15.0,1.1555755,0,1
7372000,7348000,6620172,488.07465,95598.34,15.0,1.1555761,0,1
7444000,7418666,6620172,488.0934,95598.15,15.0,1.1555737,0,1
7516000,7492000,6620172,488.1075,95597.96,15.0,1.1555715,0,1
7588000,7562666,6620172,488.0887,95598.21,15.0,1.1555746,0,1
7660000,7636000,6620172,488.06055,95598.46,15.0,1.1555775,0,1
7728000,7705333,6620172,488.12628,95597.75,15.0,1.155569,0,1
7780000,7768000,6620172,488.06995,95598.37,15.0,1.1555765,0,1
7848000,7826666,6620172,488.1075,95597.96,15.0,1.1555715,0,1
7900000,7888000,6620172,488.06995,95598.41,15.0,1.1555768,0,1
7972000,7946666,6620172,488.15915,95597.37,15.0,1.1555642,0,1
8040000,8016000,6620172,488.14975,95597.46,15.0,1.1555654,0,1
8092000,8078000,6620172,488.04648,95598.66,15.0,1.1555799,0,1
8160000,8137333,6620172,488.19202,95596.98,15.0,1.1555595,0,1
8212000,8200000,6620172,488.1169,95597.86,15.0,1.1555703,0,1
8280000,8257333,6620172,488.14038,95597.59,15.0,1.155567,0,1
8332000,8320000,6620172,488.05118,95598.64,15.0,1.1555797,0,1
8400000,8377333,6620172,488.12628,95597.75,15.0,1.155569,0,1
8452000,8440000,6620172,488.0981,95598.03,15.0,1.1555723,0,1
8520000,8498666,6620172,488.16855,95597.27,15.0,1.1555632,0,1
8572000,8560000,6620172,488.18262,95597.09,15.0,1.155561,0,1
8644000,8620000,6620172,488.0934,95598.15,15.0,1.1555737,0,1
8712000,8689333,6620172,488.14038,95597.57,15.0,1.1555668,0,1
8764000,8752000,6620172,488.28592,95595.89,15.0,1.1555464,0,1
8836000,8812000,6620172,488.1028,95597.98,15.0,1.1555717,0,1
8908000,8882666,6620172,488.15915,95597.375,15.0,1.1555643,0,1
8980000,8956000,6620172,488.14508,95597.52,15.0,1.1555661,0,1
9052000,9028000,6620172,488.14038,95597.586,15.0,1.1555669,0,1
9120000,9098666,6620172,488.06055,95598.51,15.0,1.1555781,0,1
9172000,9160000,6620172,488.17325,95597.21,15.0,1.1555624,0,1
9244000,9220000,6620172,488.04648,95598.695,15.0,1.1555804,0,1
9312000,9290666,6620172,488.14508,95597.54,15.0,1.1555663,0,1
9388000,9361333,6620172,488.14038,95597.57,15.0,1.1555668,0,1
9456000,9434666,6620172,488.13568,95597.65,15.0,1.1555678,0,1
9508000,9494000,6620172,488.23428,95596.5,15.0,1.1555538,0,1
9580000,9556000,6620172,488.13568,95597.664,15.0,1.1555679,0,1
9652000,9628000,6620172,488.0981,95598.086,15.0,1.1555729,0,1
9724000,9700000,6620172,488.0981,95598.06,15.0,1.1555728,0,1
9796000,9770666,6620172,488.1075,95597.96,15.0,1.1555715,0,1
9868000,9844000,6620172,488.07935,95598.26,15.0,1.155575,0,1
9940000,9913333,6620172,488.16385,95597.336,15.0,1.155564,0,1
10008000,9986666,6620172,488.06525,95598.44,15.0,1.1555773,0,1
10084000,10058666,6620172,488.07465,95598.35,15.0,1.1555762,0,1
10152000,10130666,6620172,488.05118,95598.62,15.0,1.1555794,0,1
10228000,10201333,6620172,488.0887,95598.16,15.0,1.1555738,0,1
10300000,10276000,6620172,488.13098,95597.72,15.0,1.1555686,0,1
10372000,10348000,6620172,488.04178,95598.72,15.0,1.1555806,0,1
10440000,10418666,6620172,488.13098,95597.72,15.0,1.1555686,0,1
10516000,10490666,6620172,488.14508,95597.53,15.0,1.1555662,0,1
10588000,10564000,6620172,488.13098,95597.68,15.0,1.155568,0,1
10660000,10636000,6620172,488.0981,95598.06,15.0,1.1555728,0,1
10732000,10708000,6620172,488.12158,95597.81,15.0,1.1555697,0,1
10804000,10778666,6620172,488.12158,95597.77,15.0,1.1555692,0,1
10876000,10852000,6620172,488.13568,95597.65,15.0,1.1555678,0,1
10948000,10922666,6620172,488.0887,95598.18,15.0,1.1555741,0,1
11020000,10996000,6620172,488.16855,95597.25,15.0,1.1555629,0,1
11092000,11068000,6620172,488.06055,95598.48,15.0,1.1555777,0,1
11164000,11138666,6620172,488.07465,95598.32,15.0,1.1555758,0,1
11232000,11210666,6620172,488.1028,95598.02,15.0,1.1555722,0,1
11284000,11270000,6620172,488.06525,95598.44,15.0,1.1555773,0,1
11352000,11330666,6620172,488.18262,95597.1,15.0,1.1555611,0,1
11404000,11392000,6620172,488.2108,95596.78,15.0,1.1555573,0,1
11476000,11452000,6620172,488.08405,95598.22,15.0,1.1555747,0,1
11548000,11524000,6620172,488.06995,95598.37,15.0,1.1555765,0,1
11620000,11596000,6620172,488.20612,95596.836,15.0,1.1555579,0,1
11692000,11666666,6620172,488.0183,95598.99,15.0,1.155584,0,1
11764000,11738666,6620172,488.1075,95597.96,15.0,1.1555715,0,1
11836000,11809333,6620172,488.1028,95598.02,15.0,1.1555722,0,1
11908000,11884000,6620172,488.03708,95598.77,15.0,1.1555814,0,1
11980000,11956000,6620172,488.12628,95597.76,15.0,1.155569,0,1
12052000,12026666,6620172,488.0887,95598.16,15.0,1.1555738,0,1
12124000,12100000,6620172,488.13568,95597.664,15.0,1.1555679,0,1
12196000,12169333,6620172,488.12628,95597.76,15.0,1.155569,0,1
12268000,12244000,6620172,488.15445,95597.44,15.0,1.1555651,0,1
12340000,12314666,6620172,488.1122,95597.9,15.0,1.1555707,0,1
12412000,12388000,6620172,488.08405,95598.23,15.0,1.1555747,0,1
12484000,12460000,6620172,488.07935,95598.29,15.0,1.1555755,0,1
12556000,12532000,6620172,488.16385,95597.29,15.0,1.1555634,0,1
12628000,12602666,6620172,488.13568,95597.65,15.0,1.1555678,0,1
12700000,12674666,6620172,488.14508,95597.53,15.0,1.1555662,0,1
12768000,12745333,6620172,488.0934,95598.09,15.0,1.155573,0,1
12820000,12808000,6620172,488.23428,95596.49,15.0,1.1555538,0,1
12888000,12866666,6620172,488.07465,95598.34,15.0,1.1555761,0,1
12964000,12938666,6620172,488.16385,95597.305,15.0,1.1555635,0,1
13032000,13010666,6620172,488.15445,95597.4,15.0,1.1555647,0,1
13108000,13081333,6620172,488.17325,95597.19,15.0,1.1555622,0,1
13180000,13156000,6620172,488.0887,95598.164,15.0,1.1555738,0,1
13252000,13228000,6620172,488.1169,95597.875,15.0,1.1555704,0,1
13320000,13298666,6620172,488.1169,95597.84,15.0,1.15557,0,1
13396000,13370666,6620172,488.16385,95597.28,15.0,1.1555632,0,1
13464000,13442666,6620172,488.14508,95597.49,15.0,1.1555659,0,1
13516000,13502000,6620172,488.21548,95596.71,15.0,1.1555564,0,1
13588000,13562666,6620172,488.03238,95598.85,15.0,1.1555823,0,1
13656000,13633333,6620172,488.07935,95598.28,15.0,1.1555754,0,1
13708000,13696000,6620172,488.023,95598.93,15.0,1.1555831,0,1
13780000,13756000,6620172,488.13568,95597.65,15.0,1.1555678,0,1
13852000,13828000,6620172,488.13098,95597.71,15.0,1.1555685,0,1
13924000,13898666,6620172,488.1122,95597.88,15.0,1.1555705,0,1
13996000,13970666,6620172,488.18262,95597.12,15.0,1.1555613,0,1
14068000,14044000,6620172,488.16385,95597.336,15.0,1.155564,0,1
14140000,14116000,6620172,488.16385,95597.31,15.0,1.1555636,0,1
14212000,14188000,6620172,488.17795,95597.18,15.0,1.155562,0,1
14280000,14258666,6620172,488.07935,95598.25,15.0,1.1555749,0,1
14332000,14320000,6620172,488.14508,95597.5,15.0,1.155566,0,1
14404000,14377333,6620172,488.18262,95597.1,15.0,1.1555611,0,1
14476000,14452000,6620172,488.06995,95598.375,15.0,1.1555765,0,1
14548000,14524000,6620172,488.07465,95598.32,15.0,1.1555758,0,1
14620000,14596000,6620172,488.1122,95597.9,15.0,1.1555707,0,1
14692000,14666666,6620172,487.96198,95599.66,15.0,1.155592,0,1
14764000,14740000,6620172,487.99484,95599.26,15.0,1.1555871,0,1
14836000,14812000,6620172,488.0887,95598.195,15.0,1.1555743,0,1
14908000,14884000,6620172,488.03238,95598.84,15.0,1.1555822,0,1
14980000,14954666,6620172,488.16385,95597.32,15.0,1.1555637,0,1
15052000,15028000,6620172,488.12628,95597.75,15.0,1.155569,0,1
15124000,15098666,6620172,488.15915,95597.35,15.0,1.1555642,0,1
15196000,15170666,6620172,488.13568,95597.65,15.0,1.1555678,0,1
15268000,15244000,6620172,488.15915,95597.38,15.0,1.1555644,0,1
15340000,15314666,6620172,488.1075,95597.97,15.0,1.1555716,0,1
15412000,15386666,6620172,488.12628,95597.75,15.0,1.155569,0,1
15484000,15460000,6620172,488.14038,95597.6,15.0,1.155567,0,1
15556000,15532000,6620172,488.14975,95597.48,15.0,1.1555656,0,1
15628000,15602666,6620172,488.14038,95597.586,15.0,1.1555669,0,1
15700000,15676000,6620172,488.06525,95598.445,15.0,1.1555774,0,1
15772000,15746666,6620172,488.17325,95597.23,15.0,1.1555625,0,1
15844000,15820000,6620172,488.13098,95597.73,15.0,1.1555686,0,1
15912000,15890666,6620172,488.22958,95596.57,15.0,1.1555548,0,1
15964000,15952000,6620172,488.20142,95596.89,15.0,1.1555585,0,1
16032000,16010666,6620172,488.1028,95598.01,15.0,1.155572,0,1
16084000,16072000,6620172,488.06525,95598.445,15.0,1.1555774,0,1
16156000,16132000,6620172,488.03708,95598.77,15.0,1.1555814,0,1
16228000,16201333,6620172,488.13098,95597.73,15.0,1.1555686,0,1
16300000,16276000,6620172,488.15445,95597.445,15.0,1.1555651,0,1
16372000,16348000,6620172,488.16385,95597.31,15.0,1.1555636,0,1
16440000,16418666,6620172,488.1122,95597.91,15.0,1.1555709,0,1
16492000,16480000,6620172,488.23898,95596.47,15.0,1.1555535,0,1
16564000,16540000,6620172,488.0934,95598.1,15.0,1.1555731,0,1
16636000,16612000,6620172,488.14508,95597.53,15.0,1.1555662,0,1
16708000,16684000,6620172,488.05588,95598.56,15.0,1.1555787,0,1
16780000,16756000,6620172,488.17325,95597.24,15.0,1.1555628,0,1
16852000,16826666,6620172,488.1122,95597.93,15.0,1.1555711,0,1
16924000,16898666,6620172,488.14508,95597.52,15.0,1.1555661,0,1
16996000,16972000,6620172,488.15445,95597.43,15.0,1.1555651,0,1
17068000,17044000,6620172,488.1122,95597.88,15.0,1.1555705,0,1
17140000,17116000,6620172,488.22958,95596.555,15.0,1.1555545,0,1
17212000,17188000,6620172,488.20142,95596.88,15.0,1.1555585,0,1
17280000,17258666,6620172,488.12628,95597.75,15.0,1.155569,0,1
17332000,17320000,6620172,488.05588,95598.58,15.0,1.155579,0,1
17404000,17380000,6620172,488.07935,95598.29,15.0,1.1555755,0,1
17476000,17452000,6620172,488.06055,95598.51,15.0,1.1555781,0,1
17548000,17522666,6620172,488.1122,95597.93,15.0,1.1555711,0,1
17620000,17596000,6620172,488.15445,95597.414,15.0,1.1555649,0,1
17692000,17665333,6620172,488.16855,95597.27,15.0,1.1555632,0,1
17764000,17740000,6620172,488.1028,95598.0,15.0,1.1555719,0,1
17836000,17812000,6620172,488.13568,95597.664,15.0,1.1555679,0,1
17908000,17884000,6620172,488.18732,95597.06,15.0,1.1555606,0,1
17980000,17954666,6620172,488.0887,95598.195,15.0,1.1555743,0,1
18052000,18026666,6620172,488.07465,95598.32,15.0,1.1555758,0,1
18124000,18097333,6620172,488.13098,95597.72,15.0,1.1555686,0,1
18196000,18172000,6620172,488.07935,95598.25,15.0,1.1555749,0,1
18268000,18242666,6620172,488.05588,95598.555,15.0,1.1555786,0,1
18340000,18314666,6620172,488.06055,95598.48,15.0,1.1555777,0,1
18412000,18386666,6620172,488.14508,95597.53,15.0,1.1555662,0,1
18480000,18458666,6620172,488.14508,95597.5,15.0,1.155566,0,1
18532000,18518000,6620172,488.17325,95597.19,15.0,1.1555622,0,1
18604000,18580000,6620172,488.04648,95598.69,15.0,1.1555803,0,1
18676000,18652000,6620172,488.14038,95597.56,15.0,1.1555667,0,1
18748000,18724000,6620172,488.06995,95598.41,15.0,1.1555768,0,1
18820000,18793333,6620172,488.1169,95597.875,15.0,1.1555704,0,1
18892000,18868000,6620172,488.07465,95598.336,15.0,1.155576,0,1
18964000,18940000,6620172,488.06055,95598.48,15.0,1.1555777,0,1
19036000,19012000,6620172,488.07935,95598.27,15.0,1.1555753,0,1
19108000,19082666,6620172,488.0887,95598.195,15.0,1.1555743,0,1
19180000,19156000,6620172,488.20612,95596.81,15.0,1.1555575,0,1
19252000,19228000,6620172,488.14038,95597.56,15.0,1.1555667,0,1
19324000,19300000,6620172,488.17795,95597.13,15.0,1.1555614,0,1
19392000,19370666,6620172,488.0934,95598.1,15.0,1.1555731,0,1
19444000,19432000,6620172,488.03238,95598.83,15.0,1.155582,0,1
19512000,19489333,6620172,488.07935,95598.29,15.0,1.1555755,0,1
19564000,19550000,6620172,488.14508,95597.55,15.0,1.1555665,0,1
19636000,19612000,6620172,488.1028,95597.98,15.0,1.1555717,0,1
19708000,19681333,6620172,488.0934,95598.13,15.0,1.1555736,0,1
19780000,19756000,6620172,488.07935,95598.25,15.0,1.1555749,0,1
19848000,19826666,6620172,488.04648,95598.664,15.0,1.1555799,0,1
19900000,19888000,6620172,488.16855,95597.266,15.0,1.1555631,0,1
19968000,19946666,6620172,488.15915,95597.37,15.0,1.1555642,0,1
20020000,20008000,6620172,488.1169,95597.875,15.0,1.1555704,0,1
20092000,20066666,6620172,488.19672,95596.94,15.0,1.1555591,0,1
20164000,20137333,6620172,488.13098,95597.71,15.0,1.1555685,0,1
20232000,20210666,6620172,488.02768,95598.88,15.0,1.1555825,0,1
20308000,20281333,6620172,488.17325,95597.21,15.0,1.1555624,0,1
20380000,20356000,6620172,488.1122,95597.93,15.0,1.1555711,0,1
20452000,20425333,6620172,488.13098,95597.68,15.0,1.155568,0,1
20520000,20498666,6620172,488.0136,95599.01,15.0,1.1555841,0,1
20572000,20560000,6620172,488.12158,95597.81,15.0,1.1555697,0,1
20644000,20620000,6620172,488.03238,95598.85,15.0,1.1555823,0,1
20716000,20690666,6620172,488.04178,95598.71,15.0,1.1555805,0,1
20788000,20762666,6620172,488.0136,95599.01,15.0,1.1555841,0,1
20860000,20834666,6620172,488.17795,95597.15,15.0,1.1555616,0,1
20932000,20908000,6620172,488.16385,95597.32,15.0,1.1555637,0,1
21004000,20978666,6620172,488.1169,95597.836,15.0,1.1555699,0,1
21076000,21052000,6620172,488.1122,95597.94,15.0,1.1555712,0,1
21148000,21121333,6620172,488.0981,95598.06,15.0,1.1555728,0,1
21220000,21196000,6620172,488.05588,95598.555,15.0,1.1555786,0,1
21288000,21265333,6620172,488.13098,95597.71,15.0,1.1555685,0,1
21340000,21326000,6620172,488.05588,95598.555,15.0,1.1555786,0,1
21408000,21386666,6620172,488.0183,95598.98,15.0,1.1555837,0,1
21460000,21446000,6620172,488.0183,95598.99,15.0,1.155584,0,1
21532000,21508000,6620172,488.16855,95597.26,15.0,1.155563,0,1
21604000,21577333,6620172,488.023,95598.93,15.0,1.1555831,0,1
21676000,21652000,6620172,488.14508,95597.5,15.0,1.155566,0,1
21748000,21721333,6620172,488.13098,95597.695,15.0,1.1555682,0,1
21820000,21796000,6620172,488.0089,95599.1,15.0,1.1555852,0,1
21888000,21866666,6620172,488.15445,95597.44,15.0,1.1555651,0,1
21940000,21926000,6620172,488.12158,95597.8,15.0,1.1555696,0,1
22012000,21988000,6620172,488.16385,95597.28,15.0,1.1555632,0,1
22084000,22060000,6620172,488.0183,95599.0,15.0,1.1555841,0,1
22156000,22132000,6620172,488.05588,95598.54,15.0,1.1555785,0,1
22228000,22204000,6620172,488.15445,95597.445,15.0,1.1555651,0,1
22300000,22276000,6620172,488.1122,95597.9,15.0,1.1555707,0,1
22372000,22346666,6620172,488.0981,95598.086,15.0,1.1555729,0,1
22444000,22420000,6620172,488.07465,95598.305,15.0,1.1555756,0,1
22516000,22492000,6620172,488.14038,95597.586,15.0,1.1555669,0,1
22588000,22564000,6620172,488.15915,95597.35,15.0,1.1555642,0,1
22660000,22633333,6620172,488.03708,95598.76,15.0,1.1555811,0,1
22732000,22708000,6620172,488.0981,95598.06,15.0,1.1555728,0,1
22804000,22778666,6620172,488.16385,95597.31,15.0,1.1555636,0,1
22876000,22852000,6620172,488.13098,95597.73,15.0,1.1555686,0,1
22944000,22922666,6620172,488.20612,95596.836,15.0,1.1555579,0,1
22996000,22984000,6620172,488.13098,95597.69,15.0,1.1555681,0,1
23068000,23041333,6620172,488.18262,95597.086,15.0,1.1555609,0,1
23140000,23114666,6620172,488.25305,95596.305,15.0,1.1555514,0,1
23212000,23186666,6620172,488.25775,95596.25,15.0,1.1555508,0,1
23284000,23258666,6620172,488.3141,95595.6,15.0,1.155543,0,1
23356000,23332000,6620172,488.35635,95595.1,15.0,1.1555369,0,1
23428000,23404000,6620172,488.37512,95594.9,15.0,1.1555345,0,1
23500000,23474666,6620172,488.42676,95594.29,15.0,1.1555271,0,1
23572000,23548000,6620172,488.46902,95593.836,15.0,1.1555215,0,1
23644000,23618666,6620172,488.577,95592.6,15.0,1.1555067,0,1
23716000,23692000,6620172,488.53476,95593.07,15.0,1.1555123,0,1
23784000,23762666,6620172,488.6052,95592.25,15.0,1.1555024,0,1
23836000,23824000,6620172,488.6052,95592.28,15.0,1.1555028,0,1
23908000,23882666,6620172,488.73193,95590.82,15.0,1.1554852,0,1
23980000,23956000,6620172,488.79297,95590.1,15.0,1.1554765,0,1
24052000,24028000,6620172,488.7648,95590.44,15.0,1.1554806,0,1
24124000,24100000,6620172,488.84933,95589.46,15.0,1.1554687,0,1
24192000,24170666,6620172,488.91504,95588.695,15.0,1.1554595,0,1
24244000,24230000,6620172,488.91974,95588.625,15.0,1.1554587,0,1
24316000,24292000,6620172,489.02774,95587.414,15.0,1.1554439,0,1
24388000,24362666,6620172,489.0371,95587.336,15.0,1.1554431,0,1
24460000,24436000,6620172,489.06998,95586.91,15.0,1.155438,0,1
24532000,24508000,6620172,489.1451,95586.086,15.0,1.1554279,0,1
24604000,24580000,6620172,489.18268,95585.625,15.0,1.1554223,0,1
24676000,24652000,6620172,489.33762,95583.88,15.0,1.1554012,0,1
24748000,24724000,6620172,489.4456,95582.6,15.0,1.1553857,0,1
24820000,24796000,6620172,489.39865,95583.18,15.0,1.1553928,0,1
24892000,24868000,6620172,489.51132,95581.836,15.0,1.1553766,0,1
24964000,24940000,6620172,489.50662,95581.9,15.0,1.1553773,0,1
25036000,25012000,6620172,489.57236,95581.164,15.0,1.1553684,0,1
25108000,25084000,6620172,489.67096,95580.07,15.0,1.1553552,0,1
25180000,25156000,6620172,489.68973,95579.82,15.0,1.1553522,0,1
25252000,25228000,6620172,489.8071,95578.48,15.0,1.1553359,0,1
25324000,25300000,6620172,489.86343,95577.85,15.0,1.1553284,0,1
25392000,25370666,6620172,489.8118,95578.44,15.0,1.1553354,0,1
25444000,25432000,6620172,489.92917,95577.09,15.0,1.1553193,0,1
25516000,25492000,6620172,489.8212,95578.305,15.0,1.1553339,0,1
25588000,25561333,6620172,489.97144,95576.586,15.0,1.1553131,0,1
25656000,25634666,6620172,490.0841,95575.32,15.0,1.1552978,0,1
25708000,25696000,6620172,490.11227,95574.984,15.0,1.1552937,0,1
25780000,25756000,6620172,490.20618,95573.91,15.0,1.1552807,0,1
25848000,25825333,6620172,490.03717,95575.836,15.0,1.1553041,0,1
25900000,25888000,6620172,490.2766,95573.11,15.0,1.155271,0,1
25972000,25948000,6620172,490.29538,95572.9,15.0,1.1552685,0,1
26044000,26020000,6620172,490.32825,95572.49,15.0,1.1552635,0,1
26116000,26090666,6620172,490.3658,95572.086,15.0,1.1552587,0,1
26184000,26161333,6620172,490.44562,95571.195,15.0,1.1552479,0,1
26236000,26224000,6620172,490.43155,95571.34,15.0,1.1552497,0,1
26304000,26282666,6620172,490.53952,95570.1,15.0,1.1552348,0,1
26356000,26344000,6620172,490.45972,95571.0,15.0,1.1552455,0,1
26424000,26402666,6620172,490.55362,95569.93,15.0,1.1552327,0,1
26476000,26464000,6620172,490.5771,95569.65,15.0,1.1552292,0,1
26548000,26524000,6620172,490.5677,95569.77,15.0,1.1552308,0,1
26620000,26596000,6620172,490.52545,95570.27,15.0,1.1552367,0,1
26692000,26666666,6620172,490.59586,95569.46,15.0,1.155227,0,1
26764000,26740000,6620172,490.64752,95568.836,15.0,1.1552194,0,1
26836000,26812000,6620172,490.6616,95568.72,15.0,1.155218,0,1
26908000,26884000,6620172,490.70386,95568.195,15.0,1.1552117,0,1
26980000,26956000,6620172,490.74142,95567.805,15.0,1.1552069,0,1
27052000,27028000,6620172,490.72733,95567.914,15.0,1.1552082,0,1
27120000,27098666,6620172,490.7649,95567.52,15.0,1.1552035,0,1
27172000,27160000,6620172,490.77426,95567.41,15.0,1.1552022,0,1
27244000,27220000,6620172,490.77896,95567.37,15.0,1.1552016,0,1
27316000,27292000,6620172,490.7461,95567.73,15.0,1.155206,0,1
27388000,27364000,6620172,490.79306,95567.164,15.0,1.1551992,0,1
27460000,27436000,6620172,490.80246,95567.06,15.0,1.155198,0,1
27532000,27506666,6620172,490.80713,95567.055,15.0,1.1551979,0,1
27600000,27578666,6620172,490.78836,95567.26,15.0,1.1552004,0,1
27676000,27649333,6620172,490.8588,95566.4,15.0,1.15519,0,1
27744000,27722666,6620172,490.80246,95567.09,15.0,1.1551983,0,1
27796000,27784000,6620172,490.82593,95566.83,15.0,1.1551951,0,1
27868000,27844000,6620172,490.87286,95566.25,15.0,1.1551882,0,1
27940000,27916000,6620172,490.7602,95567.6,15.0,1.1552044,0,1
28008000,27985333,6620172,490.8447,95566.6,15.0,1.1551924,0,1
28060000,28048000,6620172,490.9339,95565.56,15.0,1.1551797,0,1
28132000,28108000,6620172,490.90103,95565.96,15.0,1.1551846,0,1
28204000,28178666,6620172,490.97147,95565.13,15.0,1.1551746,0,1
28276000,28250666,6620172,490.96207,95565.25,15.0,1.155176,0,1
28348000,28324000,6620172,490.8588,95566.4,15.0,1.15519,0,1
28420000,28394666,6620172,490.9339,95565.59,15.0,1.1551802,0,1
28492000,28468000,6620172,490.89633,95565.99,15.0,1.155185,0,1
28564000,28537333,6620172,490.87756,95566.22,15.0,1.1551877,0,1
28636000,28612000,6620172,490.96207,95565.27,15.0,1.1551763,0,1
28708000,28684000,6620172,490.96207,95565.27,15.0,1.1551763,0,1
28780000,28756000,6620172,491.00903,95564.71,15.0,1.1551695,0,1
28852000,28825333,6620172,491.07007,95564.01,15.0,1.155161,0,1
28924000,28900000,6620172,490.99963,95564.81,15.0,1.1551708,0,1
28996000,28972000,6620172,491.07477,95564.0,15.0,1.1551609,0,1
29064000,29042666,6620172,491.0231,95564.57,15.0,1.1551678,0,1
29116000,29104000,6620172,491.0325,95564.484,15.0,1.1551667,0,1
29188000,29164000,6620172,490.97147,95565.164,15.0,1.1551751,0,1
29256000,29234666,6620172,491.14047,95563.23,15.0,1.1551516,0,1
29308000,29296000,6620172,491.06067,95564.125,15.0,1.1551625,0,1
29380000,29356000,6620172,491.05597,95564.18,15.0,1.1551632,0,1
29452000,29426666,6620172,491.0419,95564.34,15.0,1.1551651,0,1
29520000,29498666,6620172,491.10764,95563.6,15.0,1.1551561,0,1
29572000,29558000,6620172,491.07007,95564.01,15.0,1.155161,0,1
29644000,29618666,6620172,491.05597,95564.164,15.0,1.1551629,0,1
29716000,29692000,6620172,491.16867,95562.875,15.0,1.1551474,0,1
29788000,29764000,6620172,491.00433,95564.74,15.0,1.15517,0,1
29860000,29834666,6620172,491.00903,95564.71,15.0,1.1551695,0,1
29932000,29908000,6620172,491.06537,95564.06,15.0,1.1551617,0,1
30004000,29978666,6620172,491.05597,95564.195,15.0,1.1551633,0,1
30076000,30052000,6620172,490.98087,95565.06,15.0,1.1551738,0,1
30148000,30124000,6620172,491.18274,95562.76,15.0,1.1551459,0,1
30220000,30196000,6620172,490.97147,95565.18,15.0,1.1551752,0,1
30292000,30266666,6620172,491.15927,95563.02,15.0,1.1551492,0,1
30364000,30340000,6620172,491.0466,95564.305,15.0,1.1551646,0,1
30436000,30412000,6620172,491.0372,95564.37,15.0,1.1551654,0,1
30508000,30484000,6620172,491.05597,95564.16,15.0,1.1551628,0,1
30576000,30554666,6620172,491.05597,95564.21,15.0,1.1551635,0,1
30628000,30614000,6620172,490.99963,95564.8,15.0,1.1551706,0,1
30696000,30674666,6620172,491.0466,95564.25,15.0,1.155164,0,1
30748000,30736000,6620172,491.05597,95564.164,15.0,1.1551629,0,1
30820000,30796000,6620172,491.0419,95564.31,15.0,1.1551647,0,1
30892000,30868000,6620172,490.99493,95564.91,15.0,1.155172,0,1
30964000,30940000,6620172,491.00903,95564.72,15.0,1.1551696,0,1
31036000,31012000,6620172,491.0419,95564.34,15.0,1.1551651,0,1
31108000,31082666,6620172,490.95737,95565.31,15.0,1.1551769,0,1
31180000,31156000,6620172,490.98557,95565.0,15.0,1.1551731,0,1
31252000,31228000,6620172,491.10764,95563.555,15.0,1.1551555,0,1
31324000,31300000,6620172,491.00433,95564.75,15.0,1.1551701,0,1
31396000,31370666,6620172,491.00903,95564.71,15.0,1.1551695,0,1
31468000,31444000,6620172,491.01373,95564.65,15.0,1.1551688,0,1
31536000,31514666,6620172,490.97617,95565.125,15.0,1.1551746,0,1
31588000,31576000,6620172,490.9386,95565.53,15.0,1.1551795,0,1
31660000,31636000,6620172,490.9386,95565.5,15.0,1.155179,0,1
31732000,31708000,6620172,490.99493,95564.875,15.0,1.1551715,0,1
31804000,31780000,6620172,490.91983,95565.71,15.0,1.1551816,0,1
31876000,31852000,6620172,490.91043,95565.85,15.0,1.1551833,0,1
31948000,31924000,6620172,490.97147,95565.13,15.0,1.1551746,0,1
32020000,31996000,6620172,490.99023,95564.94,15.0,1.1551722,0,1
32092000,32068000,6620172,490.98087,95565.06,15.0,1.1551738,0,1
32164000,32140000,6620172,490.91983,95565.73,15.0,1.1551818,0,1
32236000,32212000,6620172,490.89633,95566.03,15.0,1.1551855,0,1
32308000,32282666,6620172,490.99023,95564.945,15.0,1.1551723,0,1
32380000,32356000,6620172,490.9433,95565.46,15.0,1.1551787,0,1
32452000,32428000,6620172,491.00903,95564.73,15.0,1.1551697,0,1
32524000,32500000,6620172,490.97147,95565.15,15.0,1.1551749,0,1
32596000,32570666,6620172,491.06067,95564.13,15.0,1.1551626,0,1
32664000,32642666,6620172,490.99493,95564.91,15.0,1.155172,0,1
32716000,32704000,6620172,491.0372,95564.39,15.0,1.1551657,0,1
32788000,32764000,6620172,490.9339,95565.6,15.0,1.1551803,0,1
32860000,32836000,6620172,490.99023,95564.94,15.0,1.1551722,0,1
32932000,32906666,6620172,490.948,95565.414,15.0,1.1551781,0,1
33004000,32980000,6620172,490.99023,95564.945,15.0,1.1551723,0,1
33076000,33050666,6620172,490.97617,95565.086,15.0,1.1551741,0,1
33148000,33124000,6620172,490.97617,95565.07,15.0,1.1551739,0,1
33220000,33196000,6620172,490.9292,95565.65,15.0,1.1551808,0,1
33292000,33266666,6620172,491.00903,95564.73,15.0,1.1551697,0,1
33364000,33340000,6620172,491.07477,95563.99,15.0,1.1551608,0,1
33436000,33412000,6620172,491.0325,95564.43,15.0,1.1551661,0,1
33508000,33484000,6620172,490.99963,95564.81,15.0,1.1551708,0,1
33580000,33553333,6620172,491.06537,95564.04,15.0,1.1551615,0,1
33652000,33628000,6620172,491.0372,95564.38,15.0,1.1551656,0,1
33724000,33700000,6620172,490.99963,95564.81,15.0,1.1551708,0,1
33796000,33770666,6620172,490.91043,95565.87,15.0,1.1551836,0,1
33868000,33844000,6620172,490.99493,95564.875,15.0,1.1551715,0,1
33940000,33914666,6620172,490.98557,95564.98,15.0,1.1551728,0,1
34012000,33986666,6620172,490.96207,95565.25,15.0,1.155176,0,1
34080000,34057333,6620172,490.97617,95565.1,15.0,1.1551743,0,1
34132000,34118000,6620172,490.91513,95565.78,15.0,1.1551825,0,1
34204000,34180000,6620172,491.00903,95564.73,15.0,1.1551697,0,1
34276000,34250666,6620172,490.99493,95564.914,15.0,1.155172,0,1
34344000,34321333,6620172,491.0231,95564.54,15.0,1.1551675,0,1
34396000,34384000,6620172,491.00433,95564.766,15.0,1.1551703,0,1
34468000,34444000,6620172,490.98557,95564.96,15.0,1.1551726,0,1
34540000,34516000,6620172,490.87286,95566.27,15.0,1.1551884,0,1
34612000,34588000,6620172,491.00433,95564.74,15.0,1.15517,0,1
34684000,34658666,6620172,490.91043,95565.875,15.0,1.1551836,0,1
34756000,34732000,6620172,491.01373,95564.65,15.0,1.1551688,0,1
34828000,34804000,6620172,490.98087,95565.03,15.0,1.1551734,0,1
34900000,34876000,6620172,490.96207,95565.23,15.0,1.1551758,0,1
34972000,34948000,6620172,490.97617,95565.07,15.0,1.1551739,0,1
35044000,35018666,6620172,490.98087,95565.01,15.0,1.1551732,0,1
35112000,35090666,6620172,490.9433,95565.46,15.0,1.1551787,0,1
35164000,35152000,6620172,490.90573,95565.89,15.0,1.1551838,0,1
35236000,35212000,6620172,490.99963,95564.836,15.0,1.1551712,0,1
35308000,35284000,6620172,490.9292,95565.625,15.0,1.1551807,0,1
35380000,35356000,6620172,491.0278,95564.5,15.0,1.155167,0,1
35448000,35426666,6620172,490.9386,95565.52,15.0,1.1551794,0,1
35500000,35488000,6620172,490.9527,95565.375,15.0,1.1551776,0,1
35572000,35548000,6620172,491.01373,95564.664,15.0,1.155169,0,1
35644000,35620000,6620172,490.9433,95565.46,15.0,1.1551787,0,1
35716000,35692000,6620172,491.0184,95564.6,15.0,1.1551683,0,1
35788000,35764000,6620172,490.9527,95565.375,15.0,1.1551776,0,1
35856000,35834666,6620172,491.0278,95564.5,15.0,1.155167,0,1
35908000,35896000,6620172,490.99963,95564.81,15.0,1.1551708,0,1
35980000,35956000,6620172,490.99493,95564.88,15.0,1.1551716,0,1
36048000,36026666,6620172,490.91043,95565.875,15.0,1.1551836,0,1
36100000,36088000,6620172,491.01373,95564.7,15.0,1.1551694,0,1
36172000,36148000,6620172,490.97617,95565.09,15.0,1.1551741,0,1
36244000,36218666,6620172,490.91983,95565.76,15.0,1.1551822,0,1
36316000,36292000,6620172,491.0231,95564.555,15.0,1.1551676,0,1
36388000,36364000,6620172,490.97617,95565.125,15.0,1.1551746,0,1
36460000,36436000,6620172,490.91983,95565.76,15.0,1.1551822,0,1
36532000,36508000,6620172,490.99023,95564.94,15.0,1.1551722,0,1
36604000,36580000,6620172,490.97147,95565.164,15.0,1.1551751,0,1
36676000,36652000,6620172,490.96677,95565.21,15.0,1.1551756,0,1
36748000,36724000,6620172,490.90573,95565.91,15.0,1.155184,0,1
36820000,36796000,6620172,490.8588,95566.44,15.0,1.1551903,0,1
36892000,36868000,6620172,490.99493,95564.87,15.0,1.1551714,0,1
36964000,36940000,6620172,490.98557,95564.97,15.0,1.1551727,0,1
37036000,37012000,6620172,490.97617,95565.09,15.0,1.1551741,0,1
37108000,37082666,6620172,491.00903,95564.71,15.0,1.1551695,0,1
37180000,37156000,6620172,490.9527,95565.37,15.0,1.1551775,0,1
37252000,37226666,6620172,490.948,95565.41,15.0,1.155178,0,1
37324000,37300000,6620172,490.98557,95564.96,15.0,1.1551726,0,1
37396000,37372000,6620172,490.99023,95564.94,15.0,1.1551722,0,1
37464000,37442666,6620172,490.9386,95565.52,15.0,1.1551794,0,1
37516000,37504000,6620172,490.97617,95565.08,15.0,1.155174,0,1
37588000,37564000,6620172,490.86816,95566.336,15.0,1.1551893,0,1
37660000,37636000,6620172,490.91043,95565.85,15.0,1.1551833,0,1
37732000,37708000,6620172,490.98087,95565.02,15.0,1.1551733,0,1
37804000,37778666,6620172,490.9292,95565.65,15.0,1.1551808,0,1
37872000,37849333,6620172,490.99493,95564.9,15.0,1.1551719,0,1
37924000,37912000,6620172,490.91513,95565.805,15.0,1.1551827,0,1
37996000,37972000,6620172,490.96207,95565.23,15.0,1.1551758,0,1
38064000,38042666,6620172,490.87286,95566.29,15.0,1.1551886,0,1
38116000,38104000,6620172,490.95737,95565.31,15.0,1.1551769,0,1
38188000,38164000,6620172,490.95737,95565.28,15.0,1.1551764,0,1
38260000,38236000,6620172,490.96207,95565.27,15.0,1.1551763,0,1
38332000,38308000,6620172,490.91043,95565.85,15.0,1.1551833,0,1
38404000,38380000,6620172,490.9339,95565.555,15.0,1.1551797,0,1
38476000,38452000,6620172,490.89166,95566.04,15.0,1.1551856,0,1
38548000,38522666,6620172,491.0372,95564.4,15.0,1.1551658,0,1
38620000,38596000,6620172,490.89633,95565.98,15.0,1.1551849,0,1
38692000,38668000,6620172,490.9527,95565.35,15.0,1.1551772,0,1
38764000,38738666,6620172,490.97147,95565.16,15.0,1.155175,0,1
38836000,38810666,6620172,490.98087,95565.04,15.0,1.1551735,0,1
38908000,38882666,6620172,490.97147,95565.16,15.0,1.155175,0,1
38980000,38956000,6620172,490.88226,95566.18,15.0,1.1551874,0,1
39052000,39028000,6620172,490.81653,95566.94,15.0,1.1551964,0,1
39124000,39100000,6620172,490.86816,95566.31,15.0,1.1551889,0,1
39196000,39172000,6620172,490.92453,95565.68,15.0,1.1551813,0,1
39268000,39244000,6620172,490.99493,95564.875,15.0,1.1551715,0,1
39340000,39316000,6620172,490.948,95565.41,15.0,1.155178,0,1
39412000,39388000,6620172,490.91043,95565.84,15.0,1.1551833,0,1
39480000,39456000,6620172,490.83063,95566.75,15.0,1.1551942,0,1
39532000,39520000,6620172,490.91043,95565.836,15.0,1.1551832,0,1
39604000,39578666,6620172,490.97147,95565.15,15.0,1.1551749,0,1
39676000,39652000,6620172,490.87286,95566.26,15.0,1.1551883,0,1
39748000,39724000,6620172,490.8541,95566.49,15.0,1.1551912,0,1
39820000,39796000,6620172,490.9339,95565.56,15.0,1.1551797,0,1
39892000,39866666,6620172,490.88696,95566.125,15.0,1.1551867,0,1
39960000,39938666,6620172,490.9292,95565.664,15.0,1.155181,0,1
40012000,40000000,6620172,490.90573,95565.91,15.0,1.155184,0,1
40084000,40060000,6620172,490.99023,95564.94,15.0,1.1551722,0,1
40156000,40130666,6620172,490.87756,95566.23,15.0,1.1551878,0,1
40224000,40202666,6620172,490.78836,95567.23,15.0,1.1551999,0,1
40276000,40264000,6620172,490.9292,95565.66,15.0,1.1551809,0,1
40348000,40324000,6620172,490.9433,95565.46,15.0,1.1551787,0,1
40420000,40396000,6620172,490.91043,95565.875,15.0,1.1551836,0,1
40492000,40468000,6620172,490.8588,95566.4,15.0,1.15519,0,1
40560000,40538666,6620172,490.92453,95565.68,15.0,1.1551813,0,1
40612000,40600000,6620172,490.9433,95565.47,15.0,1.1551788,0,1
40684000,40658666,6620172,490.9386,95565.51,15.0,1.1551791,0,1
40756000,40732000,6620172,490.77896,95567.37,15.0,1.1552016,0,1
40828000,40804000,6620172,490.82593,95566.836,15.0,1.1551952,0,1
40900000,40876000,6620172,490.87286,95566.29,15.0,1.1551886,0,1
40972000,40948000,6620172,490.77896,95567.35,15.0,1.1552016,0,1
41044000,41020000,6620172,490.88696,95566.15,15.0,1.1551869,0,1
41112000,41090666,6620172,490.89633,95565.99,15.0,1.155185,0,1
41164000,41152000,6620172,490.88226,95566.17,15.0,1.1551872,0,1
41236000,41212000,6620172,490.79776,95567.15,15.0,1.1551989,0,1
41308000,41281333,6620172,491.0184,95564.59,15.0,1.1551682,0,1
41380000,41356000,6620172,490.90103,95565.96,15.0,1.1551846,0,1
41452000,41428000,6620172,490.88696,95566.125,15.0,1.1551867,0,1
41520000,41498666,6620172,490.8541,95566.5,15.0,1.1551912,0,1
41572000,41560000,6620172,490.91043,95565.875,15.0,1.1551836,0,1
41644000,41620000,6620172,490.96207,95565.25,15.0,1.155176,0,1
41716000,41690666,6620172,490.81183,95567.0,15.0,1.1551973,0,1
41788000,41764000,6620172,490.99963,95564.81,15.0,1.1551708,0,1
41860000,41836000,6620172,490.91043,95565.85,15.0,1.1551833,0,1
41928000,41906666,6620172,490.82593,95566.79,15.0,1.1551946,0,1
41980000,41966000,6620172,491.01373,95564.67,15.0,1.1551691,0,1
42052000,42026666,6620172,490.87756,95566.24,15.0,1.1551881,0,1
42124000,42100000,6620172,490.78366,95567.336,15.0,1.1552013,0,1
42196000,42172000,6620172,490.9292,95565.65,15.0,1.1551808,0,1
42268000,42244000,6620172,490.91983,95565.71,15.0,1.1551816,0,1
42340000,42314666,6620172,490.96207,95565.24,15.0,1.1551759,0,1
42412000,42388000,6620172,490.81653,95566.914,15.0,1.1551962,0,1
42484000,42460000,6620172,490.9339,95565.586,15.0,1.1551801,0,1
42552000,42530666,6620172,490.88226,95566.164,15.0,1.1551871,0,1
42604000,42592000,6620172,490.8447,95566.59,15.0,1.1551923,0,1
42676000,42650666,6620172,490.7696,95567.48,15.0,1.155203,0,1
42748000,42722666,6620172,490.7696,95567.48,15.0,1.155203,0,1
42820000,42794666,6620172,490.88696,95566.13,15.0,1.1551868,0,1
42892000,42868000,6620172,490.82123,95566.85,15.0,1.1551955,0,1
42964000,42940000,6620172,490.82593,95566.81,15.0,1.155195,0,1
43036000,43012000,6620172,490.81183,95566.96,15.0,1.1551968,0,1
43108000,43084000,6620172,490.87756,95566.22,15.0,1.1551877,0,1
43180000,43154666,6620172,490.80713,95567.055,15.0,1.1551979,0,1
43252000,43226666,6620172,490.78366,95567.336,15.0,1.1552013,0,1
43324000,43300000,6620172,490.81653,95566.914,15.0,1.1551962,0,1
43392000,43370666,6620172,490.77426,95567.375,15.0,1.1552017,0,1
43444000,43432000,6620172,490.77426,95567.39,15.0,1.1552019,0,1
43516000,43492000,6620172,490.72263,95568.01,15.0,1.1552094,0,1
43588000,43562666,6620172,490.82123,95566.875,15.0,1.1551957,0,1
43660000,43636000,6620172,490.80713,95567.04,15.0,1.1551977,0,1
43732000,43706666,6620172,490.81183,95566.97,15.0,1.1551969,0,1
43804000,43778666,6620172,490.84,95566.65,15.0,1.155193,0,1
43876000,43852000,6620172,490.89166,95566.09,15.0,1.1551863,0,1
43948000,43924000,6620172,490.7602,95567.555,15.0,1.1552039,0,1
44020000,43996000,6620172,490.80246,95567.125,15.0,1.1551988,0,1
44088000,44066666,6620172,490.8353,95566.73,15.0,1.1551939,0,1
44140000,44128000,6620172,490.7555,95567.62,15.0,1.1552047,0,1
44212000,44188000,6620172,490.73203,95567.875,15.0,1.1552078,0,1
44284000,44260000,6620172,490.7461,95567.72,15.0,1.155206,0,1
44356000,44332000,6620172,490.82593,95566.81,15.0,1.155195,0,1
44428000,44404000,6620172,490.81183,95566.98,15.0,1.1551969,0,1
44500000,44476000,6620172,490.80246,95567.09,15.0,1.1551983,0,1
44572000,44548000,6620172,490.8541,95566.49,15.0,1.1551912,0,1
44644000,44618666,6620172,490.89633,95566.01,15.0,1.1551852,0,1
44716000,44692000,6620172,490.91513,95565.805,15.0,1.1551827,0,1
44788000,44762666,6620172,490.78366,95567.32,15.0,1.1552011,0,1
44860000,44834666,6620172,490.83063,95566.77,15.0,1.1551945,0,1
44932000,44906666,6620172,490.8447,95566.62,15.0,1.1551926,0,1
45004000,44980000,6620172,490.80246,95567.086,15.0,1.1551982,0,1
45076000,45052000,6620172,490.80246,95567.125,15.0,1.1551988,0,1
45148000,45124000,6620172,490.82593,95566.81,15.0,1.155195,0,1
45220000,45194666,6620172,490.87286,95566.28,15.0,1.1551884,0,1
45292000,45268000,6620172,490.91513,95565.79,15.0,1.1551826,0,1
45364000,45340000,6620172,490.8353,95566.68,15.0,1.1551933,0,1
45432000,45410666,6620172,490.9339,95565.59,15.0,1.1551802,0,1
45484000,45472000,6620172,490.79306,95567.2,15.0,1.1551998,0,1
45556000,45532000,6620172,490.9292,95565.664,15.0,1.155181,0,1
45628000,45602666,6620172,490.88226,95566.18,15.0,1.1551874,0,1
45700000,45674666,6620172,490.87286,95566.305,15.0,1.1551888,0,1
45772000,45748000,6620172,490.90103,95565.96,15.0,1.1551846,0,1
45844000,45820000,6620172,490.8588,95566.4,15.0,1.15519,0,1
45916000,45892000,6620172,490.91043,95565.84,15.0,1.1551833,0,1
45984000,45962666,6620172,490.89166,95566.055,15.0,1.1551858,0,1
46036000,46024000,6620172,490.87756,95566.24,15.0,1.1551881,0,1
46108000,46082666,6620172,490.91983,95565.73,15.0,1.1551818,0,1
46180000,46156000,6620172,490.88226,95566.16,15.0,1.155187,0,1
46252000,46226666,6620172,490.88226,95566.16,15.0,1.155187,0,1
46324000,46300000,6620172,490.8353,95566.69,15.0,1.1551934,0,1
46392000,46370666,6620172,490.89166,95566.06,15.0,1.1551859,0,1
46444000,46430000,6620172,490.78366,95567.305,15.0,1.1552008,0,1
46516000,46490666,6620172,490.80246,95567.07,15.0,1.1551981,0,1
46584000,46562666,6620172,490.8635,95566.38,15.0,1.1551898,0,1
46636000,46624000,6620172,490.97617,95565.11,15.0,1.1551744,0,1
46708000,46682666,6620172,490.9386,95565.5,15.0,1.155179,0,1
46780000,46756000,6620172,490.9386,95565.54,15.0,1.1551796,0,1
46852000,46828000,6620172,490.91513,95565.81,15.0,1.1551828,0,1
46924000,46900000,6620172,490.97617,95565.1,15.0,1.1551743,0,1
46996000,46972000,6620172,490.90103,95565.97,15.0,1.1551847,0,1
47068000,47044000,6620172,490.90573,95565.9,15.0,1.1551839,0,1
47140000,47114666,6620172,490.9386,95565.52,15.0,1.1551794,0,1
47212000,47188000,6620172,490.97617,95565.07,15.0,1.1551739,0,1
47284000,47258666,6620172,490.9433,95565.47,15.0,1.1551788,0,1
47356000,47332000,6620172,490.87286,95566.27,15.0,1.1551884,0,1
47428000,47402666,6620172,490.83063,95566.77,15.0,1.1551945,0,1
47500000,47476000,6620172,490.89633,95566.03,15.0,1.1551855,0,1
47568000,47546666,6620172,490.91513,95565.82,15.0,1.155183,0,1
47620000,47608000,6620172,490.89166,95566.05,15.0,1.1551857,0,1
47692000,47666666,6620172,490.89633,95565.98,15.0,1.1551849,0,1
47764000,47740000,6620172,490.87286,95566.29,15.0,1.1551886,0,1
47836000,47812000,6620172,490.92453,95565.69,15.0,1.1551814,0,1
47908000,47882666,6620172,490.8353,95566.71,15.0,1.1551938,0,1
47980000,47956000,6620172,490.9339,95565.59,15.0,1.1551802,0,1
48052000,48028000,6620172,490.81653,95566.914,15.0,1.1551962,0,1
48120000,48096000,6620172,491.0184,95564.62,15.0,1.1551684,0,1
48172000,48160000,6620172,490.78366,95567.3,15.0,1.1552007,0,1
48244000,48220000,6620172,490.88696,95566.15,15.0,1.1551869,0,1
48316000,48292000,6620172,490.91513,95565.77,15.0,1.1551825,0,1
48388000,48364000,6620172,490.84,95566.65,15.0,1.155193,0,1
48460000,48436000,6620172,490.90573,95565.9,15.0,1.1551839,0,1
48532000,48506666,6620172,490.8353,95566.71,15.0,1.1551938,0,1
48604000,48577333,6620172,490.88696,95566.15,15.0,1.1551869,0,1
48676000,48652000,6620172,490.90573,95565.91,15.0,1.155184,0,1
48748000,48724000,6620172,490.8353,95566.73,15.0,1.1551939,0,1
48820000,48794666,6620172,490.81653,95566.91,15.0,1.1551961,0,1
48892000,48868000,6620172,490.82123,95566.85,15.0,1.1551955,0,1
48964000,48938666,6620172,490.88696,95566.15,15.0,1.1551869,0,1
49036000,49010666,6620172,490.88696,95566.1,15.0,1.1551864,0,1
49108000,49084000,6620172,490.9292,95565.625,15.0,1.1551807,0,1
49180000,49156000,6620172,490.9339,95565.6,15.0,1.1551803,0,1
49252000,49228000,6620172,490.9433,95565.47,15.0,1.1551788,0,1
49324000,49300000,6620172,490.8588,95566.4,15.0,1.15519,0,1
49396000,49372000,6620172,490.91043,95565.875,15.0,1.1551836,0,1
49464000,49442666,6620172,490.88696,95566.1,15.0,1.1551864,0,1
49516000,49504000,6620172,490.88696,95566.14,15.0,1.1551868,0,1
49588000,49564000,6620172,490.8541,95566.49,15.0,1.1551912,0,1
49660000,49636000,6620172,490.88226,95566.164,15.0,1.1551871,0,1
49732000,49708000,6620172,490.78836,95567.23,15.0,1.1551999,0,1
49804000,49780000,6620172,490.87756,95566.19,15.0,1.1551874,0,1
49872000,49850666,6620172,490.89633,95566.02,15.0,1.1551855,0,1
49924000,49912000,6620172,490.9386,95565.5,15.0,1.155179,0,1
49996000,49972000,6620172,490.90103,95565.96,15.0,1.1551846,0,1
50068000,50044000,6620172,490.91043,95565.836,15.0,1.1551832,0,1
50140000,50116000,6620172,490.79306,95567.164,15.0,1.1551992,0,1
50212000,50188000,6620172,490.88696,95566.125,15.0,1.1551867,0,1
50280000,50258666,6620172,490.87756,95566.23,15.0,1.1551878,0,1
50332000,50320000,6620172,490.98087,95565.06,15.0,1.1551738,0,1
50404000,50380000,6620172,490.95737,95565.336,15.0,1.1551771,0,1
50476000,50452000,6620172,490.9386,95565.54,15.0,1.1551796,0,1
50548000,50524000,6620172,490.92453,95565.69,15.0,1.1551814,0,1
50620000,50596000,6620172,490.90573,95565.91,15.0,1.155184,0,1
50692000,50668000,6620172,490.90103,95565.94,15.0,1.1551844,0,1
50764000,50738666,6620172,490.98087,95565.06,15.0,1.1551738,0,1
50836000,50812000,6620172,490.9292,95565.63,15.0,1.1551807,0,1
50908000,50884000,6620172,490.98087,95565.04,15.0,1.1551735,0,1
50980000,50956000,6620172,490.80246,95567.09,15.0,1.1551983,0,1
51052000,51028000,6620172,490.9433,95565.48,15.0,1.1551788,0,1
51124000,51100000,6620172,490.89633,95565.99,15.0,1.155185,0,1
51196000,51170666,6620172,490.9292,95565.625,15.0,1.1551807,0,1
51264000,51242666,6620172,490.9433,95565.445,15.0,1.1551784,0,1
51316000,51304000,6620172,490.99023,95564.94,15.0,1.1551722,0,1
51388000,51364000,6620172,490.86816,95566.31,15.0,1.1551889,0,1
51460000,51434666,6620172,490.87286,95566.26,15.0,1.1551883,0,1
51532000,51508000,6620172,490.90103,95565.94,15.0,1.1551844,0,1
51600000,51578666,6620172,490.8447,95566.63,15.0,1.1551929,0,1
51652000,51640000,6620172,490.8353,95566.7,15.0,1.1551937,0,1
51720000,51698666,6620172,490.91513,95565.79,15.0,1.1551826,0,1
51772000,51760000,6620172,490.948,95565.41,15.0,1.155178,0,1
51840000,51818666,6620172,490.80246,95567.125,15.0,1.1551988,0,1
51892000,51880000,6620172,490.82123,95566.86,15.0,1.1551955,0,1
51964000,51940000,6620172,490.91983,95565.75,15.0,1.1551821,0,1
52036000,52010666,6620172,490.91983,95565.76,15.0,1.1551822,0,1
52108000,52084000,6620172,490.80246,95567.086,15.0,1.1551982,0,1
52176000,52154666,6620172,490.89633,95565.99,15.0,1.155185,0,1
52228000,52214000,6620172,490.92453,95565.68,15.0,1.1551813,0,1
52300000,52276000,6620172,490.9386,95565.54,15.0,1.1551796,0,1
52372000,52345333,6620172,490.81653,95566.9,15.0,1.155196,0,1
52444000,52420000,6620172,490.8588,95566.44,15.0,1.1551903,0,1
52516000,52492000,6620172,490.92453,95565.69,15.0,1.1551814,0,1
52588000,52564000,6620172,490.77426,95567.4,15.0,1.155202,0,1
52660000,52636000,6620172,490.80246,95567.06,15.0,1.155198,0,1
52732000,52708000,6620172,490.8353,95566.72,15.0,1.1551938,0,1
52804000,52778666,6620172,490.9527,95565.37,15.0,1.1551775,0,1
52876000,52852000,6620172,490.8541,95566.48,15.0,1.155191,0,1
52948000,52924000,6620172,490.89166,95566.06,15.0,1.1551859,0,1
53020000,52994666,6620172,490.7602,95567.57,15.0,1.1552042,0,1
53092000,53068000,6620172,490.9339,95565.555,15.0,1.1551797,0,1
53164000,53140000,6620172,490.81653,95566.9,15.0,1.155196,0,1
53236000,53210666,6620172,490.79776,95567.13,15.0,1.1551988,0,1
53308000,53284000,6620172,490.82593,95566.836,15.0,1.1551952,0,1
53376000,53354666,6620172,490.91983,95565.72,15.0,1.1551816,0,1
53428000,53416000,6620172,490.91043,95565.84,15.0,1.1551833,0,1
53496000,53473333,6620172,490.82593,95566.836,15.0,1.1551952,0,1
53548000,53536000,6620172,490.86816,95566.36,15.0,1.1551894,0,1
53620000,53596000,6620172,490.8447,95566.63,15.0,1.1551929,0,1
53692000,53666666,6620172,490.91513,95565.78,15.0,1.1551825,0,1
53764000,53740000,6620172,490.88696,95566.12,15.0,1.1551865,0,1
53836000,53812000,6620172,490.82593,95566.81,15.0,1.155195,0,1
53908000,53884000,6620172,490.8353,95566.73,15.0,1.1551939,0,1
53980000,53956000,6620172,490.948,95565.414,15.0,1.1551781,0,1
54048000,54025333,6620172,490.8635,95566.375,15.0,1.1551896,0,1
54100000,54088000,6620172,490.9339,95565.555,15.0,1.1551797,0,1
54172000,54148000,6620172,490.8588,95566.44,15.0,1.1551903,0,1
54244000,54220000,6620172,490.9292,95565.63,15.0,1.1551807,0,1
54316000,54290666,6620172,490.91043,95565.84,15.0,1.1551833,0,1
54388000,54362666,6620172,490.81653,95566.88,15.0,1.1551958,0,1
54460000,54436000,6620172,490.89166,95566.06,15.0,1.1551859,0,1
54532000,54506666,6620172,490.83063,95566.74,15.0,1.155194,0,1
54604000,54578666,6620172,490.90103,95565.94,15.0,1.1551844,0,1
54676000,54652000,6620172,490.9292,95565.62,15.0,1.1551806,0,1
54748000,54724000,6620172,490.91983,95565.73,15.0,1.1551818,0,1
54816000,54794666,6620172,490.89166,95566.04,15.0,1.1551856,0,1
54868000,54856000,6620172,490.80246,95567.09,15.0,1.1551983,0,1
54940000,54916000,6620172,490.87286,95566.25,15.0,1.1551882,0,1
55012000,54986666,6620172,490.88226,95566.16,15.0,1.155187,0,1
55084000,55060000,6620172,490.82123,95566.85,15.0,1.1551955,0,1
55156000,55132000,6620172,490.86816,95566.336,15.0,1.1551893,0,1
55228000,55204000,6620172,490.88226,95566.164,15.0,1.1551871,0,1
55300000,55276000,6620172,490.81183,95566.96,15.0,1.1551968,0,1
55372000,55346666,6620172,490.80713,95567.055,15.0,1.1551979,0,1
55444000,55420000,6620172,490.81183,95566.96,15.0,1.1551968,0,1
55516000,55489333,6620172,490.8494,95566.56,15.0,1.155192,0,1
55584000,55562666,6620172,490.8588,95566.414,15.0,1.1551902,0,1
55636000,55622000,6620172,490.7555,95567.63,15.0,1.1552049,0,1
55708000,55684000,6620172,490.81653,95566.9,15.0,1.155196,0,1
55780000,55756000,6620172,490.88696,95566.1,15.0,1.1551864,0,1
55852000,55826666,6620172,490.78836,95567.26,15.0,1.1552004,0,1
55924000,55900000,6620172,490.77426,95567.375,15.0,1.1552017,0,1
55996000,55970666,6620172,490.8447,95566.586,15.0,1.1551921,0,1
56064000,56041333,6620172,490.80246,95567.086,15.0,1.1551982,0,1
56116000,56104000,6620172,490.83063,95566.75,15.0,1.1551942,0,1
56188000,56164000,6620172,490.77896,95567.37,15.0,1.1552016,0,1
56260000,56236000,6620172,490.8588,95566.43,15.0,1.1551902,0,1
56332000,56308000,6620172,490.81183,95566.96,15.0,1.1551968,0,1
56404000,56380000,6620172,490.8494,95566.555,15.0,1.1551919,0,1
56476000,56452000,6620172,490.89633,95566.0,15.0,1.1551851,0,1
56548000,56524000,6620172,490.8447,95566.625,15.0,1.1551927,0,1
56620000,56596000,6620172,490.87756,95566.23,15.0,1.1551878,0,1
56692000,56666666,6620172,490.83063,95566.74,15.0,1.155194,0,1
56760000,56738666,6620172,490.80246,95567.1,15.0,1.1551985,0,1
56812000,56800000,6620172,490.80246,95567.1,15.0,1.1551985,0,1
56880000,56858666,6620172,490.80246,95567.125,15.0,1.1551988,0,1
56956000,56930666,6620172,490.77426,95567.375,15.0,1.1552017,0,1
57028000,57002666,6620172,490.78836,95567.25,15.0,1.1552002,0,1
57096000,57074666,6620172,490.68506,95568.4,15.0,1.1552141,0,1
57148000,57136000,6620172,490.8588,95566.445,15.0,1.1551905,0,1
57216000,57193333,6620172,490.79306,95567.195,15.0,1.1551996,0,1
57268000,57256000,6620172,490.81183,95567.0,15.0,1.1551973,0,1
57340000,57314666,6620172,490.80246,95567.12,15.0,1.1551987,0,1
57412000,57388000,6620172,490.78366,95567.32,15.0,1.1552011,0,1
57484000,57458666,6620172,490.77426,95567.41,15.0,1.1552022,0,1
57556000,57532000,6620172,490.82123,95566.875,15.0,1.1551957,0,1
57628000,57604000,6620172,490.8588,95566.41,15.0,1.1551901,0,1
57700000,57676000,6620172,490.91043,95565.84,15.0,1.1551833,0,1
57772000,57748000,6620172,490.63812,95568.98,15.0,1.1552211,0,1
57844000,57818666,6620172,490.8447,95566.6,15.0,1.1551924,0,1
57916000,57890666,6620172,490.82123,95566.875,15.0,1.1551957,0,1
57988000,57964000,6620172,490.78836,95567.27,15.0,1.1552006,0,1
58060000,58034666,6620172,490.88696,95566.15,15.0,1.1551869,0,1
58132000,58108000,6620172,490.7602,95567.56,15.0,1.155204,0,1
58204000,58178666,6620172,490.79306,95567.164,15.0,1.1551992,0,1
58276000,58252000,6620172,490.88696,95566.1,15.0,1.1551864,0,1
58348000,58324000,6620172,490.72733,95567.96,15.0,1.1552088,0,1
58420000,58396000,6620172,490.7696,95567.44,15.0,1.1552025,0,1
58488000,58466666,6620172,490.81183,95566.945,15.0,1.1551965,0,1
58540000,58528000,6620172,490.7649,95567.516,15.0,1.1552035,0,1
58608000,58586666,6620172,490.8541,95566.51,15.0,1.1551912,0,1
58660000,58648000,6620172,490.9292,95565.64,15.0,1.1551807,0,1
58732000,58708000,6620172,490.7508,95567.695,15.0,1.1552056,0,1
58804000,58780000,6620172,490.83063,95566.75,15.0,1.1551942,0,1
58876000,58850666,6620172,490.80713,95567.04,15.0,1.1551977,0,1
58944000,58921333,6620172,490.81653,95566.914,15.0,1.1551962,0,1
58996000,58984000,6620172,490.78366,95567.33,15.0,1.1552012,0,1
59068000,59041333,6620172,490.6804,95568.46,15.0,1.1552149,0,1
59140000,59116000,6620172,490.79776,95567.15,15.0,1.1551989,0,1
59212000,59186666,6620172,490.7555,95567.62,15.0,1.1552047,0,1
59284000,59258666,6620172,490.7649,95567.53,15.0,1.1552036,0,1
59356000,59332000,6620172,490.77426,95567.41,15.0,1.1552022,0,1
59424000,59401333,6620172,490.70856,95568.15,15.0,1.1552111,0,1
59476000,59462000,6620172,490.7602,95567.56,15.0,1.155204,0,1
59548000,59524000,6620172,490.80713,95567.02,15.0,1.1551975,0,1
59620000,59596000,6620172,490.63812,95568.945,15.0,1.1552207,0,1
59692000,59666666,6620172,490.59586,95569.43,15.0,1.1552266,0,1
59760000,59738666,6620172,490.42685,95571.375,15.0,1.1552501,0,1
59812000,59800000,6620172,490.64752,95568.84,15.0,1.1552196,0,1
59884000,59860000,6620172,490.51605,95570.35,15.0,1.1552377,0,1
59956000,59932000,6620172,490.38928,95571.82,15.0,1.1552556,0,1
60024000,60002666,6620172,490.41745,95571.46,15.0,1.1552511,0,1
60076000,60064000,6620172,490.39398,95571.734,15.0,1.1552545,0,1
60148000,60122666,6620172,490.28598,95572.97,15.0,1.1552694,0,1
60220000,60194666,6620172,490.22028,95573.77,15.0,1.1552792,0,1
60292000,60268000,6620172,490.22495,95573.69,15.0,1.1552781,0,1
60364000,60337333,6620172,490.0794,95575.38,15.0,1.1552985,0,1
60436000,60412000,6620172,490.07004,95575.5,15.0,1.1553,0,1
60508000,60484000,6620172,490.04654,95575.77,15.0,1.1553032,0,1
60580000,60556000,6620172,490.03247,95575.88,15.0,1.1553046,0,1
60652000,60628000,6620172,489.95264,95576.82,15.0,1.1553159,0,1
60724000,60700000,6620172,489.7977,95578.6,15.0,1.1553375,0,1
60796000,60769333,6620172,489.76486,95578.94,15.0,1.1553415,0,1
60868000,60842666,6620172,489.75546,95579.055,15.0,1.1553429,0,1
60940000,60916000,6620172,489.78833,95578.69,15.0,1.1553384,0,1
61008000,60985333,6620172,489.68503,95579.875,15.0,1.1553528,0,1
61060000,61048000,6620172,489.6193,95580.64,15.0,1.155362,0,1
61132000,61106666,6620172,489.55356,95581.37,15.0,1.1553708,0,1
61204000,61178666,6620172,489.5395,95581.555,15.0,1.1553732,0,1
61272000,61250666,6620172,489.5254,95581.71,15.0,1.1553751,0,1
61324000,61312000,6620172,489.4409,95582.67,15.0,1.1553867,0,1
61392000,61370666,6620172,489.4503,95582.57,15.0,1.1553855,0,1
61444000,61432000,6620172,489.40802,95583.06,15.0,1.1553915,0,1
61516000,61492000,6620172,489.4409,95582.71,15.0,1.1553872,0,1
61588000,61564000,6620172,489.32352,95584.04,15.0,1.1554031,0,1
61656000,61634666,6620172,489.30005,95584.305,15.0,1.1554065,0,1
61708000,61696000,6620172,489.131,95586.25,15.0,1.15543,0,1
61780000,61756000,6620172,489.2202,95585.21,15.0,1.1554173,0,1
61852000,61826666,6620172,489.16388,95585.85,15.0,1.1554251,0,1
61924000,61900000,6620172,489.01364,95587.62,15.0,1.1554465,0,1
61996000,61972000,6620172,488.9714,95588.1,15.0,1.1554523,0,1
62068000,62042666,6620172,488.9432,95588.34,15.0,1.1554552,0,1
62140000,62114666,6620172,488.9667,95588.125,15.0,1.1554526,0,1
62212000,62188000,6620172,488.92914,95588.57,15.0,1.1554579,0,1
62280000,62257333,6620172,488.9526,95588.29,15.0,1.1554545,0,1
62332000,62320000,6620172,488.8681,95589.25,15.0,1.1554662,0,1
62400000,62377333,6620172,488.6944,95591.24,15.0,1.1554902,0,1
62452000,62440000,6620172,488.66623,95591.586,15.0,1.1554945,0,1
62524000,62500000,6620172,488.61456,95592.164,15.0,1.1555015,0,1
62596000,62572000,6620172,488.61456,95592.164,15.0,1.1555015,0,1
62664000,62641333,6620172,488.5864,95592.46,15.0,1.155505,0,1
62716000,62704000,6620172,488.47842,95593.69,15.0,1.1555197,0,1
62788000,62764000,6620172,488.3282,95595.4,15.0,1.1555405,0,1
62860000,62836000,6620172,488.44086,95594.15,15.0,1.1555253,0,1
62928000,62904000,6620172,488.3282,95595.414,15.0,1.1555407,0,1
62980000,62968000,6620172,488.3141,95595.59,15.0,1.1555429,0,1
63052000,63026666,6620172,488.26245,95596.195,15.0,1.1555501,0,1
63124000,63100000,6620172,488.21548,95596.72,15.0,1.1555564,0,1
63192000,63170666,6620172,488.13568,95597.66,15.0,1.1555678,0,1
63244000,63232000,6620172,488.07935,95598.28,15.0,1.1555754,0,1
63312000,63290666,6620172,488.15445,95597.414,15.0,1.1555649,0,1
63364000,63352000,6620172,488.14508,95597.55,15.0,1.1555665,0,1
63436000,63412000,6620172,488.20142,95596.875,15.0,1.1555583,0,1
63508000,63484000,6620172,488.08405,95598.23,15.0,1.1555747,0,1
63580000,63554666,6620172,488.14508,95597.52,15.0,1.1555661,0,1
63652000,63628000,6620172,488.14038,95597.6,15.0,1.155567,0,1
63724000,63698666,6620172,488.1028,95598.02,15.0,1.1555722,0,1
63792000,63770666,6620172,488.14038,95597.6,15.0,1.155567,0,1
63844000,63832000,6620172,488.22018,95596.69,15.0,1.1555561,0,1
63912000,63890666,6620172,488.06055,95598.49,15.0,1.1555779,0,1
63988000,63961333,6620172,488.04648,95598.65,15.0,1.1555798,0,1
64060000,64036000,6620172,488.14038,95597.586,15.0,1.1555669,0,1
64132000,64108000,6620172,488.13568,95597.625,15.0,1.1555674,0,1
64200000,64178666,6620172,488.0887,95598.18,15.0,1.1555741,0,1
64252000,64238000,6620172,488.15915,95597.375,15.0,1.1555643,0,1
64324000,64300000,6620172,488.18262,95597.086,15.0,1.1555609,0,1
64396000,64372000,6620172,488.13568,95597.66,15.0,1.1555678,0,1
64468000,64444000,6620172,488.16385,95597.29,15.0,1.1555634,0,1
64540000,64514666,6620172,488.15915,95597.38,15.0,1.1555644,0,1
64612000,64588000,6620172,488.06995,95598.37,15.0,1.1555765,0,1
64684000,64658666,6620172,488.12158,95597.78,15.0,1.1555693,0,1
64756000,64732000,6620172,488.14038,95597.57,15.0,1.1555668,0,1
64828000,64804000,6620172,488.07465,95598.34,15.0,1.1555761,0,1
64900000,64876000,6620172,488.06525,95598.43,15.0,1.1555772,0,1
64972000,64946666,6620172,488.0934,95598.125,15.0,1.1555735,0,1
65044000,65020000,6620172,488.12628,95597.74,15.0,1.1555688,0,1
65116000,65092000,6620172,488.14975,95597.46,15.0,1.1555654,0,1
65188000,65164000,6620172,488.20612,95596.85,15.0,1.1555581,0,1
65260000,65236000,6620172,488.13568,95597.664,15.0,1.1555679,0,1
65332000,65308000,6620172,488.15445,95597.41,15.0,1.1555648,0,1
65404000,65378666,6620172,488.23428,95596.51,15.0,1.1555538,0,1
65476000,65450666,6620172,488.13568,95597.625,15.0,1.1555674,0,1
65548000,65522666,6620172,488.06995,95598.4,15.0,1.1555767,0,1
65616000,65593333,6620172,488.05588,95598.56,15.0,1.1555787,0,1
65668000,65654000,6620172,488.19672,95596.97,15.0,1.1555594,0,1
65736000,65713333,6620172,488.14508,95597.52,15.0,1.1555661,0,1
65788000,65776000,6620172,488.0981,95598.06,15.0,1.1555728,0,1
65860000,65836000,6620172,488.0183,95599.0,15.0,1.1555841,0,1
65932000,65908000,6620172,488.1122,95597.93,15.0,1.1555711,0,1
66000000,65977333,6620172,488.0887,95598.19,15.0,1.1555742,0,1
66052000,66040000,6620172,488.17795,95597.16,15.0,1.1555617,0,1
66120000,66097333,6620172,488.0183,95598.98,15.0,1.1555837,0,1
66172000,66160000,6620172,488.15445,95597.45,15.0,1.1555653,0,1
66244000,66220000,6620172,488.06995,95598.37,15.0,1.1555765,0,1
66316000,66292000,6620172,488.06995,95598.38,15.0,1.1555766,0,1
66388000,66364000,6620172,488.05588,95598.54,15.0,1.1555785,0,1
66460000,66436000,6620172,488.15915,95597.38,15.0,1.1555644,0,1
66528000,66506666,6620172,488.16385,95597.29,15.0,1.1555634,0,1
66580000,66568000,6620172,488.13098,95597.67,15.0,1.155568,0,1
66652000,66628000,6620172,488.1169,95597.836,15.0,1.1555699,0,1
66724000,66700000,6620172,488.20612,95596.81,15.0,1.1555575,0,1
66792000,66770666,6620172,488.14508,95597.5,15.0,1.155566,0,1
66844000,66830000,6620172,488.05118,95598.586,15.0,1.1555791,0,1
66916000,66892000,6620172,488.14038,95597.586,15.0,1.1555669,0,1
66988000,66964000,6620172,488.05588,95598.53,15.0,1.1555784,0,1
67060000,67036000,6620172,488.03708,95598.79,15.0,1.1555815,0,1
67132000,67106666,6620172,488.14975,95597.46,15.0,1.1555654,0,1
67204000,67178666,6620172,488.18262,95597.1,15.0,1.1555611,0,1
67276000,67250666,6620172,488.17795,95597.18,15.0,1.155562,0,1
67348000,67322666,6620172,488.06525,95598.44,15.0,1.1555773,0,1
67420000,67394666,6620172,488.14508,95597.54,15.0,1.1555663,0,1
