timestamp,data_rate,rate_multiplier,tx_rate_avg,tx_error_rate_avg,tx_message_count,tx_buffer_overruns,rx_rate_avg,rx_message_count,rx_message_lost_count,rx_buffer_overruns,rx_parse_errors,rx_packet_drop_count,rx_message_lost_rate,type,mode,flow_control,forwarding,mavlink_v2,ftp,streams,heartbeat_type_antenna_tracker,heartbeat_type_gcs,heartbeat_type_onboard_controller,heartbeat_type_gimbal,heartbeat_type_adsb,heartbeat_type_camera,heartbeat_type_parachute,heartbeat_type_open_drone_id,heartbeat_component_telemetry_radio,heartbeat_component_log,heartbeat_component_osd,heartbeat_component_vio,heartbeat_component_pairing_manager,heartbeat_component_udp_bridge,heartbeat_component_uart_bridge,open_drone_id_system_healthy,parachute_system_healthy
3876000,4000.0,0.15211694,0.0,0.0,2,0,0.0,0,0,0,0,0,0.0,0,2,0,1,1,1,61,0,0,0,0,0,0,0,0,0,0,0,0,0,0,0,0,0
5132000,4000.0,0.1386454,2526.8926,0.0,49,0,0.0,0,0,0,0,0,0.0,0,2,0,1,1,1,61,0,0,0,0,0,0,0,0,0,0,0,0,0,0,0,0,0
6388000,4000.0,0.1386454,3373.506,0.0,136,0,0.0,0,0,0,0,0,0.0,0,2,0,1,1,1,61,0,0,0,0,0,0,0,0,0,0,0,0,0,0,0,0,0
7648000,4000.0,0.1386454,4034.8606,0.0,214,0,0.0,0,0,0,0,0,0.0,0,2,0,1,1,1,61,0,0,0,0,0,0,0,0,0,0,0,0,0,0,0,0,0
8648000,4000.0,0.1386454,3299.8008,0.0,279,0,0.0,0,0,0,0,0,0.0,0,2,0,1,1,1,61,0,0,0,0,0,0,0,0,0,0,0,0,0,0,0,0,0
8900000,4000.0,0.1386454,4218.1274,0.0,303,0,0.0,0,0,0,0,0,0.0,0,2,0,1,1,1,61,0,0,0,0,0,0,0,0,0,0,0,0,0,0,0,0,0
10148000,4000.0,0.1386454,3613.546,0.0,378,0,0.0,0,0,0,0,0,0.0,0,2,0,1,1,1,61,0,0,0,0,0,0,0,0,0,0,0,0,0,0,0,0,0
11404000,4000.0,0.1386454,3394.4224,0.0,463,0,0.0,0,0,0,0,0,0.0,0,2,0,1,1,1,61,0,0,0,0,0,0,0,0,0,0,0,0,0,0,0,0,0
12656000,4000.0,0.1386454,4056.773,0.0,543,0,0.0,0,0,0,0,0,0.0,0,2,0,1,1,1,61,0,0,0,0,0,0,0,0,0,0,0,0,0,0,0,0,0
13656000,4000.0,0.1386454,3373.506,0.0,600,0,0.0,0,0,0,0,0,0.0,0,2,0,1,1,1,61,0,0,0,0,0,0,0,0,0,0,0,0,0,0,0,0,0
13908000,4000.0,0.1386454,3394.4224,0.0,612,0,0.0,0,0,0,0,0,0.0,0,2,0,1,1,1,61,0,0,0,0,0,0,0,0,0,0,0,0,0,0,0,0,0
15160000,4000.0,0.1386454,4041.8328,0.0,693,0,0.0,0,0,0,0,0,0.0,0,2,0,1,1,1,61,0,0,0,0,0,0,0,0,0,0,0,0,0,0,0,0,0
16412000,4000.0,0.1386454,3460.1594,0.0,773,0,0.0,0,0,0,0,0,0.0,0,2,0,1,1,1,61,0,0,0,0,0,0,0,0,0,0,0,0,0,0,0,0,0
17672000,4000.0,0.1386454,3813.745,0.0,850,0,0.0,0,0,0,0,0,0.0,0,2,0,1,1,1,61,0,0,0,0,0,0,0,0,0,0,0,0,0,0,0,0,0
18672000,4000.0,0.1386454,3415.3389,0.0,921,0,0.0,0,0,0,0,0,0.0,0,2,0,1,1,1,61,0,0,0,0,0,0,0,0,0,0,0,0,0,0,0,0,0
18932000,4000.0,0.1386454,3983.0679,0.0,937,0,0.0,0,0,0,0,0,0.0,0,2,0,1,1,1,61,0,0,0,0,0,0,0,0,0,0,0,0,0,0,0,0,0
20184000,4000.0,0.1386454,3937.2512,0.0,1020,0,0.0,0,0,0,0,0,0.0,0,2,0,1,1,1,61,0,0,0,0,0,0,0,0,0,0,0,0,0,0,0,0,0
21436000,4000.0,0.1386454,3724.1038,0.0,1100,0,0.0,0,0,0,0,0,0.0,0,2,0,1,1,1,61,0,0,0,0,0,0,0,0,0,0,0,0,0,0,0,0,0
22696000,4000.0,0.1386454,3870.518,0.0,1180,0,0.0,0,0,0,0,0,0.0,0,2,0,1,1,1,61,0,0,0,0,0,0,0,0,0,0,0,0,0,0,0,0,0
23696000,4000.0,0.1386454,3527.8887,0.0,1238,0,0.0,0,0,0,0,0,0.0,0,2,0,1,1,1,61,0,0,0,0,0,0,0,0,0,0,0,0,0,0,0,0,0
23948000,4000.0,0.1386454,3470.1196,0.0,1251,0,0.0,0,0,0,0,0,0.0,0,2,0,1,1,1,61,0,0,0,0,0,0,0,0,0,0,0,0,0,0,0,0,0
25204000,4000.0,0.1386454,3925.2988,0.0,1334,0,0.0,0,0,0,0,0,0.0,0,2,0,1,1,1,61,0,0,0,0,0,0,0,0,0,0,0,0,0,0,0,0,0
26460000,4000.0,0.1386454,4144.4224,0.0,1421,0,0.0,0,0,0,0,0,0.0,0,2,0,1,1,1,61,0,0,0,0,0,0,0,0,0,0,0,0,0,0,0,0,0
27720000,4000.0,0.1386454,3857.5698,0.0,1502,0,0.0,0,0,0,0,0,0.0,0,2,0,1,1,1,61,0,0,0,0,0,0,0,0,0,0,0,0,0,0,0,0,0
28720000,4000.0,0.1386454,3475.0996,0.0,1560,0,0.0,0,0,0,0,0,0.0,0,2,0,1,1,1,61,0,0,0,0,0,0,0,0,0,0,0,0,0,0,0,0,0
28980000,4000.0,0.1386454,3535.8567,0.0,1576,0,0.0,0,0,0,0,0,0.0,0,2,0,1,1,1,61,0,0,0,0,0,0,0,0,0,0,0,0,0,0,0,0,0
30232000,4000.0,0.1386454,3912.3508,0.0,1656,0,0.0,0,0,0,0,0,0.0,0,2,0,1,1,1,61,0,0,0,0,0,0,0,0,0,0,0,0,0,0,0,0,0
31484000,4000.0,0.1386454,3483.0679,0.0,1738,0,0.0,0,0,0,0,0,0.0,0,2,0,1,1,1,61,0,0,0,0,0,0,0,0,0,0,0,0,0,0,0,0,0
32740000,4000.0,0.1386454,4195.219,0.0,1829,0,0.0,0,0,0,0,0,0.0,0,2,0,1,1,1,61,0,0,0,0,0,0,0,0,0,0,0,0,0,0,0,0,0
33740000,4000.0,0.1386454,3876.4941,0.0,1886,0,0.0,0,0,0,0,0,0.0,0,2,0,1,1,1,61,0,0,0,0,0,0,0,0,0,0,0,0,0,0,0,0,0
34000000,4000.0,0.1386454,3498.008,0.0,1903,0,0.0,0,0,0,0,0,0.0,0,2,0,1,1,1,61,0,0,0,0,0,0,0,0,0,0,0,0,0,0,0,0,0
35260000,4000.0,0.1386454,3857.5698,0.0,1982,0,0.0,0,0,0,0,0,0.0,0,2,0,1,1,1,61,0,0,0,0,0,0,0,0,0,0,0,0,0,0,0,0,0
36516000,4000.0,0.1386454,3590.6375,0.0,2062,0,0.0,0,0,0,0,0,0.0,0,2,0,1,1,1,61,0,0,0,0,0,0,0,0,0,0,0,0,0,0,0,0,0
37772000,4000.0,0.1386454,3420.3188,0.0,2144,0,0.0,0,0,0,0,0,0.0,0,2,0,1,1,1,61,0,0,0,0,0,0,0,0,0,0,0,0,0,0,0,0,0
38772000,4000.0,0.1386454,4121.514,0.0,2204,0,0.0,0,0,0,0,0,0.0,0,2,0,1,1,1,61,0,0,0,0,0,0,0,0,0,0,0,0,0,0,0,0,0
39032000,4000.0,0.1386454,3535.8567,0.0,2217,0,0.0,0,0,0,0,0,0.0,0,2,0,1,1,1,61,0,0,0,0,0,0,0,0,0,0,0,0,0,0,0,0,0
40292000,4000.0,0.1386454,4196.2153,0.0,2306,0,0.0,0,0,0,0,0,0.0,0,2,0,1,1,1,61,0,0,0,0,0,0,0,0,0,0,0,0,0,0,0,0,0
41544000,4000.0,0.1386454,3470.1196,0.0,2385,0,0.0,0,0,0,0,0,0.0,0,2,0,1,1,1,61,0,0,0,0,0,0,0,0,0,0,0,0,0,0,0,0,0
42800000,4000.0,0.1386454,3527.8887,0.0,2466,0,0.0,0,0,0,0,0,0.0,0,2,0,1,1,1,61,0,0,0,0,0,0,0,0,0,0,0,0,0,0,0,0,0
43800000,4000.0,0.1386454,4208.1675,0.0,2527,0,0.0,0,0,0,0,0,0.0,0,2,0,1,1,1,61,0,0,0,0,0,0,0,0,0,0,0,0,0,0,0,0,0
44056000,4000.0,0.1386454,3470.1196,0.0,2539,0,0.0,0,0,0,0,0,0.0,0,2,0,1,1,1,61,0,0,0,0,0,0,0,0,0,0,0,0,0,0,0,0,0
45312000,4000.0,0.1386454,3912.3508,0.0,2618,0,0.0,0,0,0,0,0,0.0,0,2,0,1,1,1,61,0,0,0,0,0,0,0,0,0,0,0,0,0,0,0,0,0
46568000,4000.0,0.1386454,3402.3906,0.0,2701,0,0.0,0,0,0,0,0,0.0,0,2,0,1,1,1,61,0,0,0,0,0,0,0,0,0,0,0,0,0,0,0,0,0
47824000,4000.0,0.1386454,3524.9004,0.0,2785,0,0.0,0,0,0,0,0,0.0,0,2,0,1,1,1,61,0,0,0,0,0,0,0,0,0,0,0,0,0,0,0,0,0
48824000,4000.0,0.1386454,4300.797,0.0,2852,0,0.0,0,0,0,0,0,0.0,0,2,0,1,1,1,61,0,0,0,0,0,0,0,0,0,0,0,0,0,0,0,0,0
49076000,4000.0,0.1386454,3886.4543,0.0,2868,0,0.0,0,0,0,0,0,0.0,0,2,0,1,1,1,61,0,0,0,0,0,0,0,0,0,0,0,0,0,0,0,0,0
50332000,4000.0,0.1386454,3857.5698,0.0,2947,0,0.0,0,0,0,0,0,0.0,0,2,0,1,1,1,61,0,0,0,0,0,0,0,0,0,0,0,0,0,0,0,0,0
51584000,4000.0,0.1386454,3462.1516,0.0,3028,0,0.0,0,0,0,0,0,0.0,0,2,0,1,1,1,61,0,0,0,0,0,0,0,0,0,0,0,0,0,0,0,0,0
52584000,4000.0,0.1386454,3603.5857,0.0,3087,0,0.0,0,0,0,0,0,0.0,0,2,0,1,1,1,61,0,0,0,0,0,0,0,0,0,0,0,0,0,0,0,0,0
52836000,4000.0,0.1386454,3603.5857,0.0,3098,0,0.0,0,0,0,0,0,0.0,0,2,0,1,1,1,61,0,0,0,0,0,0,0,0,0,0,0,0,0,0,0,0,0
54088000,4000.0,0.1386454,3470.1196,0.0,3181,0,0.0,0,0,0,0,0,0.0,0,2,0,1,1,1,61,0,0,0,0,0,0,0,0,0,0,0,0,0,0,0,0,0
55336000,4000.0,0.1386454,4479.084,0.0,3270,0,0.0,0,0,0,0,0,0.0,0,2,0,1,1,1,61,0,0,0,0,0,0,0,0,0,0,0,0,0,0,0,0,0
56600000,4000.0,0.1386454,3473.1077,0.0,3349,0,0.0,0,0,0,0,0,0.0,0,2,0,1,1,1,61,0,0,0,0,0,0,0,0,0,0,0,0,0,0,0,0,0
57600000,4000.0,0.1386454,3524.9004,0.0,3409,0,0.0,0,0,0,0,0,0.0,0,2,0,1,1,1,61,0,0,0,0,0,0,0,0,0,0,0,0,0,0,0,0,0
57852000,4000.0,0.1386454,3524.9004,0.0,3420,0,0.0,0,0,0,0,0,0.0,0,2,0,1,1,1,61,0,0,0,0,0,0,0,0,0,0,0,0,0,0,0,0,0
59108000,4000.0,0.1386454,3679.283,0.0,3507,0,0.0,0,0,0,0,0,0.0,0,2,0,1,1,1,61,0,0,0,0,0,0,0,0,0,0,0,0,0,0,0,0,0
60368000,4000.0,0.1386454,4119.522,0.0,3590,0,0.0,0,0,0,0,0,0.0,0,2,0,1,1,1,61,0,0,0,0,0,0,0,0,0,0,0,0,0,0,0,0,0
61620000,4000.0,0.1386454,3630.4783,0.0,3684,0,0.0,0,0,0,0,0,0.0,0,2,0,1,1,1,61,0,0,0,0,0,0,0,0,0,0,0,0,0,0,0,0,0
62620000,4000.0,0.1386454,4034.8606,0.0,3739,0,0.0,0,0,0,0,0,0.0,0,2,0,1,1,1,61,0,0,0,0,0,0,0,0,0,0,0,0,0,0,0,0,0
62876000,4000.0,0.1386454,4034.8606,0.0,3755,0,0.0,0,0,0,0,0,0.0,0,2,0,1,1,1,61,0,0,0,0,0,0,0,0,0,0,0,0,0,0,0,0,0
64132000,4000.0,0.1386454,3537.8486,0.0,3835,0,0.0,0,0,0,0,0,0.0,0,2,0,1,1,1,61,0,0,0,0,0,0,0,0,0,0,0,0,0,0,0,0,0
65392000,4000.0,0.1386454,3498.008,0.0,3918,0,0.0,0,0,0,0,0,0.0,0,2,0,1,1,1,61,0,0,0,0,0,0,0,0,0,0,0,0,0,0,0,0,0
66648000,4000.0,0.1386454,4191.2354,0.0,3998,0,0.0,0,0,0,0,0,0.0,0,2,0,1,1,1,61,0,0,0,0,0,0,0,0,0,0,0,0,0,0,0,0,0
