timestamp,timestamp_sample,states[0],states[1],states[2],states[3],states[4],states[5],states[6],states[7],states[8],states[9],states[10],states[11],states[12],states[13],states[14],states[15],states[16],states[17],states[18],states[19],states[20],states[21],states[22],states[23],states[24],covariances[0],covariances[1],covariances[2],covariances[3],covariances[4],covariances[5],covariances[6],covariances[7],covariances[8],covariances[9],covariances[10],covariances[11],covariances[12],covariances[13],covariances[14],covariances[15],covariances[16],covariances[17],covariances[18],covariances[19],covariances[20],covariances[21],covariances[22],covariances[23],n_states
3884000,3732000,0.99998564,0.0032681022,0.004219702,-0.00056185597,-0.0011223366,-0.00019789091,0.0024768338,0.0,0.0,0.00018874211,0.0,0.0,0.0,0.0,0.0,0.0,0.0,0.0,0.0,0.0,0.0,0.0,0.0,0.0,0.10018875,0.010256315,0.010256301,0.00025612427,25.02336,25.02336,10.001073,100.57771,100.57771,100.23105,0.010000001,0.010000001,0.009993605,0.040000003,0.040000003,0.040000003,0.0025000002,0.0025000002,0.0025000002,0.0025000002,0.0025000002,0.0025000002,1.0,1.0,0.010000001,25
3892000,3740000,0.9999855,0.0032577864,0.0042326464,-0.00060970755,-0.0009464083,-0.00064336817,0.0016155764,0.0,0.0,0.00020511175,0.0,0.0,0.0,0.0,0.0,0.0,0.0,0.0,0.0,0.0,0.0,0.0,0.0,0.0,0.100205116,0.010282571,0.0102825565,0.00028236196,25.025923,25.025923,10.001181,100.64014,100.64014,100.25601,0.010000001,0.010000001,0.009993605,0.040000003,0.040000003,0.040000003,0.0025000002,0.0025000002,0.0025000002,0.0025000002,0.0025000002,0.0025000002,1.0,1.0,0.010000001,25
3900000,3748000,0.9999858,0.0031969226,0.00423173,-0.00064354215,-0.0009668443,-0.00042240196,0.0012775213,0.0,0.0,0.00021668414,0.0,0.0,0.0,0.0,0.0,0.0,0.0,0.0,0.0,0.0,0.0,0.0,0.0,0.0,0.10021669,0.010310104,0.010310089,0.0003098787,25.028603,25.028603,10.001294,100.705765,100.705765,100.28226,0.010000001,0.010000001,0.009993605,0.040000003,0.040000003,0.040000003,0.0025000002,0.0025000002,0.0025000002,0.0025000002,0.0025000002,0.0025000002,1.0,1.0,0.010000001,25
3908000,3756000,0.9999858,0.0031746454,0.0042465953,-0.0006236927,-0.0006671037,3.198773e-05,0.001551196,0.0,0.0,0.00022799901,0.0,0.0,0.0,0.0,0.0,0.0,0.0,0.0,0.0,0.0,0.0,0.0,0.0,0.0,0.100228004,0.01033892,0.010338906,0.00033867473,25.031397,25.031397,10.001411,100.7746,100.7746,100.309784,0.010000001,0.010000001,0.009993605,0.040000003,0.040000003,0.040000003,0.0025000002,0.0025000002,0.0025000002,0.0025000002,0.0025000002,0.0025000002,1.0,1.0,0.010000001,25
3916000,3764000,0.99998605,0.0031209046,0.0042359303,-0.00060911727,-0.0012984907,0.0006363019,0.0015463829,0.0,0.0,0.00024038933,0.0,0.0,0.0,0.0,0.0,0.0,0.0,0.0,0.0,0.0,0.0,0.0,0.0,0.0,0.100240394,0.010369016,0.010369003,0.00036874996,25.034336,25.034336,10.001534,100.846634,100.846634,100.33859,0.010000001,0.010000001,0.009993605,0.040000003,0.040000003,0.040000003,0.0025000002,0.0025000002,0.0025000002,0.0025000002,0.0025000002,0.0025000002,1.0,1.0,0.010000001,25
3924000,3772000,0.99998593,0.0031054267,0.0042727306,-0.0006217204,-0.0020808596,0.001412764,0.0014864579,0.0,0.0,0.0002525207,0.0,0.0,0.0,0.0,0.0,0.0,0.0,0.0,0.0,0.0,0.0,0.0,0.0,0.0,0.100252524,0.010400392,0.010400379,0.00040010444,25.037413,25.037413,10.001663,100.92189,100.92189,100.368675,0.010000001,0.010000001,0.009993605,0.040000003,0.040000003,0.040000003,0.0025000002,0.0025000002,0.0025000002,0.0025000002,0.0025000002,0.0025000002,1.0,1.0,0.010000001,25
3940000,3788000,0.9999861,0.0030192768,0.0042748167,-0.00058991916,-0.002617798,0.0019833567,0.003300704,0.0,0.0,0.00029204038,0.0,0.0,0.0,0.0,0.0,0.0,0.0,0.0,0.0,0.0,0.0,0.0,0.0,0.0,0.10029204,0.01046698,0.010466968,0.00046665076,25.04389,25.04389,10.001934,101.082016,101.082016,100.43267,0.010000001,0.010000001,0.009993605,0.040000003,0.040000003,0.040000003,0.0025000002,0.0025000002,0.0025000002,0.0025000002,0.0025000002,0.0025000002,1.0,1.0,0.010000001,25
3948000,3796000,0.99998593,0.0030356287,0.0043058237,-0.0006314417,-0.0029186965,0.0024153553,0.0031148046,0.0,0.0,0.00031770242,0.0,0.0,0.0,0.0,0.0,0.0,0.0,0.0,0.0,0.0,0.0,0.0,0.0,0.0,0.1003177,0.010502194,0.010502183,0.00050184265,25.047377,25.047377,10.002078,101.166885,101.166885,100.46659,0.010000001,0.010000001,0.009993605,0.040000003,0.040000003,0.040000003,0.0025000002,0.0025000002,0.0025000002,0.0025000002,0.0025000002,0.0025000002,1.0,1.0,0.010000001,25
3956000,3804000,0.9999859,0.0030280561,0.0043186992,-0.00066013215,-0.0035911936,0.0022879015,0.002612643,0.0,0.0,0.0003406122,0.0,0.0,0.0,0.0,0.0,0.0,0.0,0.0,0.0,0.0,0.0,0.0,0.0,0.0,0.10034061,0.010538688,0.010538678,0.0005383137,25.051016,25.051016,10.002226,101.25497,101.25497,100.50179,0.010000001,0.010000001,0.009993605,0.040000003,0.040000003,0.040000003,0.0025000002,0.0025000002,0.0025000002,0.0025000002,0.0025000002,0.0025000002,1.0,1.0,0.010000001,25
3964000,3812000,0.99998623,0.0029908535,0.004267512,-0.00063349394,-0.0043191053,0.0022736273,0.0030071586,0.0,0.0,0.0003630914,0.0,0.0,0.0,0.0,0.0,0.0,0.0,0.0,0.0,0.0,0.0,0.0,0.0,0.0,0.10036309,0.010576461,0.010576452,0.000576064,25.054752,25.054752,10.002379,101.34626,101.34626,100.53828,0.010000001,0.010000001,0.009993605,0.040000003,0.040000003,0.040000003,0.0025000002,0.0025000002,0.0025000002,0.0025000002,0.0025000002,0.0025000002,1.0,1.0,0.010000001,25
3980000,3828000,0.99998623,0.003088322,0.0042067054,-0.000625574,-0.0057915733,0.0042083506,0.0025248677,0.0,0.0,0.00040963627,0.0,0.0,0.0,0.0,0.0,0.0,0.0,0.0,0.0,0.0,0.0,0.0,0.0,0.0,0.100409634,0.010655851,0.010655842,0.000655402,25.0627,25.0627,10.002704,101.538475,101.538475,100.61509,0.010000001,0.010000001,0.009993605,0.040000003,0.040000003,0.040000003,0.0025000002,0.0025000002,0.0025000002,0.0025000002,0.0025000002,0.0025000002,1.0,1.0,0.010000001,25
3988000,3836000,0.9999863,0.0030666008,0.004200771,-0.0005967393,-0.0064541767,0.0044094394,0.002513051,0.0,0.0,0.00042978793,0.0,0.0,0.0,0.0,0.0,0.0,0.0,0.0,0.0,0.0,0.0,0.0,0.0,0.0,0.10042979,0.010697467,0.010697458,0.00069699,25.066874,25.066874,10.002872,101.6394,101.6394,100.65542,0.010000001,0.010000001,0.009993605,0.040000003,0.040000003,0.040000003,0.0025000002,0.0025000002,0.0025000002,0.0025000002,0.0025000002,0.0025000002,1.0,1.0,0.010000001,25
3996000,3844000,0.9999862,0.0030964713,0.004223635,-0.00058987126,-0.00731994,0.005107026,0.0027550235,0.0,0.0,0.00045086024,0.0,0.0,0.0,0.0,0.0,0.0,0.0,0.0,0.0,0.0,0.0,0.0,0.0,0.0,0.10045086,0.010740362,0.010740353,0.0007398569,25.071173,25.071173,10.003047,101.74354,101.74354,100.69703,0.010000001,0.010000001,0.009993605,0.040000003,0.040000003,0.040000003,0.0025000002,0.0025000002,0.0025000002,0.0025000002,0.0025000002,0.0025000002,1.0,1.0,0.010000001,25
4004000,3852000,0.99998623,0.0031178396,0.004193736,-0.00057087926,-0.007780406,0.005706068,0.0019059554,0.0,0.0,0.00046950416,0.0,0.0,0.0,0.0,0.0,0.0,0.0,0.0,0.0,0.0,0.0,0.0,0.0,0.0,0.10046951,0.010784539,0.010784529,0.0007840033,25.075672,25.075672,10.003227,101.85088,101.85088,100.73992,0.010000001,0.010000001,0.009993605,0.040000003,0.040000003,0.040000003,0.0025000002,0.0025000002,0.0025000002,0.0025000002,0.0025000002,0.0025000002,1.0,1.0,0.010000001,25
4020000,3868000,0.9999862,0.003096587,0.0042203506,-0.00056165294,-0.008537921,0.007691448,0.0019399896,0.0,0.0,0.0005008107,0.0,0.0,0.0,0.0,0.0,0.0,0.0,0.0,0.0,0.0,0.0,0.0,0.0,0.0,0.100500815,0.010876731,0.010876719,0.00087613345,25.085009,25.085009,10.003601,102.075226,102.075226,100.82953,0.010000001,0.010000001,0.009993605,0.040000003,0.040000003,0.040000003,0.0025000002,0.0025000002,0.0025000002,0.0025000002,0.0025000002,0.0025000002,1.0,1.0,0.010000001,25
4028000,3876000,0.99998623,0.0030806635,0.0042144577,-0.00054775545,-0.009326451,0.00816206,0.0027449653,0.0,0.0,0.0005195505,0.0,0.0,0.0,0.0,0.0,0.0,0.0,0.0,0.0,0.0,0.0,0.0,0.0,0.0,0.10051955,0.010924747,0.010924734,0.00092411746,25.089846,25.089846,10.003797,102.19222,102.19222,100.87625,0.010000001,0.010000001,0.009993605,0.040000003,0.040000003,0.040000003,0.0025000002,0.0025000002,0.0025000002,0.0025000002,0.0025000002,0.0025000002,1.0,1.0,0.010000001,25
4036000,3884000,0.999986,0.0030965412,0.004254486,-0.00057699415,-0.00938323,0.009689536,0.003598176,0.0,0.0,0.00054492307,0.0,0.0,0.0,0.0,0.0,0.0,0.0,0.0,0.0,0.0,0.0,0.0,0.0,0.0,0.10054492,0.010974042,0.010974028,0.0009733803,25.09482,25.09482,10.003996,102.31243,102.31243,100.924255,0.010000001,0.010000001,0.009993605,0.040000003,0.040000003,0.040000003,0.0025000002,0.0025000002,0.0025000002,0.0025000002,0.0025000002,0.0025000002,1.0,1.0,0.010000001,25
4044000,3892000,0.9999861,0.003106085,0.004225739,-0.00058351597,-0.009311932,0.010551389,0.0041109696,0.0,0.0,0.0005757597,0.0,0.0,0.0,0.0,0.0,0.0,0.0,0.0,0.0,0.0,0.0,0.0,0.0,0.0,0.10057576,0.011024617,0.011024603,0.0010239225,25.099958,25.099958,10.004201,102.43586,102.43586,100.97354,0.010000001,0.010000001,0.009993605,0.040000003,0.040000003,0.040000003,0.0025000002,0.0025000002,0.0025000002,0.0025000002,0.0025000002,0.0025000002,1.0,1.0,0.010000001,25
4060000,3908000,0.9999862,0.003101852,0.0042054732,-0.00057397276,-0.010767383,0.0103640845,0.005291514,0.0,0.0,0.0006507639,0.0,0.0,0.0,0.0,0.0,0.0,0.0,0.0,0.0,0.0,0.0,0.0,0.0,0.0,0.100650765,0.011129608,0.011129593,0.0011288446,25.110662,25.110662,10.004626,102.692375,102.692375,101.07596,0.010000001,0.010000001,0.009993605,0.040000003,0.040000003,0.040000003,0.0025000002,0.0025000002,0.0025000002,0.0025000002,0.0025000002,0.0025000002,1.0,1.0,0.010000001,25
4068000,3916000,0.99998593,0.0031342949,0.004236395,-0.0005894598,-0.011618049,0.010822867,0.0056947023,0.0,0.0,0.0006947088,0.0,0.0,0.0,0.0,0.0,0.0,0.0,0.0,0.0,0.0,0.0,0.0,0.0,0.0,0.10069471,0.011184023,0.011184006,0.0011832241,25.116245,25.116245,10.004847,102.82546,102.82546,101.12909,0.010000001,0.010000001,0.009993605,0.040000003,0.040000003,0.040000003,0.0025000002,0.0025000002,0.0025000002,0.0025000002,0.0025000002,0.0025000002,1.0,1.0,0.010000001,25
4076000,3924000,0.9999861,0.003140095,0.004198069,-0.0005981268,-0.012760682,0.01105543,0.006027065,0.0,0.0,0.00074159587,0.0,0.0,0.0,0.0,0.0,0.0,0.0,0.0,0.0,0.0,0.0,0.0,0.0,0.0,0.100741595,0.011239717,0.011239699,0.0012388831,25.121983,25.121983,10.005073,102.96178,102.96178,101.1835,0.010000001,0.010000001,0.009993605,0.040000003,0.040000003,0.040000003,0.0025000002,0.0025000002,0.0025000002,0.0025000002,0.0025000002,0.0025000002,1.0,1.0,0.010000001,25
4084000,3932000,0.99998593,0.0031373808,0.004236475,-0.0006155717,-0.013613832,0.010868796,0.0060335323,0.0,0.0,0.00078983826,0.0,0.0,0.0,0.0,0.0,0.0,0.0,0.0,0.0,0.0,0.0,0.0,0.0,0.0,0.10078984,0.011296693,0.011296675,0.0012958215,25.127893,25.127893,10.005303,103.10131,103.10131,101.2392,0.010000001,0.010000001,0.009993605,0.040000003,0.040000003,0.040000003,0.0025000002,0.0025000002,0.0025000002,0.0025000002,0.0025000002,0.0025000002,1.0,1.0,0.010000001,25
4100000,3948000,0.9999862,0.003101606,0.0041991933,-0.00062299334,-0.015177891,0.011059307,0.0061934963,0.0,0.0,0.00046702058,7.93614e-09,1.017624e-08,-2.904496e-13,0.0,0.0,0.0,0.0,0.0,0.0,0.0,0.0,0.0,0.0,0.0,0.10046702,0.011414074,0.011414055,0.0006004808,24.353348,24.353348,9.941361,0.25130308,0.25130308,50.351215,0.009999613,0.0099997595,0.004248729,0.040000003,0.040000003,0.040000003,0.0025000002,0.0025000002,0.0025000002,0.0025000002,0.0025000002,0.0025000002,1.0,1.0,0.010000001,25
4108000,3956000,0.999986,0.0031145837,0.004252862,-0.000584531,-0.015310071,0.011179125,0.0060186535,0.0,0.0,0.0005158692,7.93614e-09,1.017624e-08,-2.904496e-13,0.0,0.0,0.0,0.0,0.0,0.0,0.0,0.0,0.0,0.0,0.0,0.10051587,0.011474888,0.011474867,0.0006263072,24.359638,24.359638,9.9416065,0.2563273,0.2563273,50.381744,0.009999613,0.0099997595,0.004248729,0.040000003,0.040000003,0.040000003,0.0025000002,0.0025000002,0.0025000002,0.0025000002,0.0025000002,0.0025000002,1.0,1.0,0.010000001,25
4116000,3964000,0.9999858,0.003116717,0.004293888,-0.000589206,-0.015686462,0.011551151,0.0063167065,0.0,0.0,0.0005652106,7.93614e-09,1.017624e-08,-2.904496e-13,0.0,0.0,0.0,0.0,0.0,0.0,0.0,0.0,0.0,0.0,0.0,0.10056521,0.011536983,0.011536962,0.0006526775,24.366047,24.366047,9.941857,0.26446995,0.26446995,50.413548,0.009999613,0.0099997595,0.004248729,0.040000003,0.040000003,0.040000003,0.0025000002,0.0025000002,0.0025000002,0.0025000002,0.0025000002,0.0025000002,1.0,1.0,0.010000001,25
4124000,3972000,0.9999857,0.0031258273,0.0043215505,-0.000580104,-0.016584964,0.01211521,0.0059979036,0.0,0.0,0.00061446906,7.93614e-09,1.017624e-08,-2.904496e-13,0.0,0.0,0.0,0.0,0.0,0.0,0.0,0.0,0.0,0.0,0.0,0.10061447,0.0116003575,0.011600337,0.0006795915,24.37266,24.37266,9.942114,0.27573225,0.27573225,50.446625,0.009999613,0.0099997595,0.004248729,0.040000003,0.040000003,0.040000003,0.0025000002,0.0025000002,0.0025000002,0.0025000002,0.0025000002,0.0025000002,1.0,1.0,0.010000001,25
4140000,3988000,0.9999862,0.0030620417,0.0042410335,-0.0005401331,-0.016974812,0.014056798,0.005291015,0.0,0.0,0.00070546503,7.93614e-09,1.017624e-08,-2.904496e-13,0.0,0.0,0.0,0.0,0.0,0.0,0.0,0.0,0.0,0.0,0.0,0.10070547,0.011730948,0.011730925,0.0007350509,24.386366,24.386366,9.94264,0.30762085,0.30762085,50.516598,0.009999613,0.0099997595,0.004248729,0.040000003,0.040000003,0.040000003,0.0025000002,0.0025000002,0.0025000002,0.0025000002,0.0025000002,0.0025000002,1.0,1.0,0.010000001,25
4148000,3996000,0.9999865,0.003024698,0.004208595,-0.00055019424,-0.017301822,0.01481295,0.005863987,0.0,0.0,0.00075008505,7.93614e-09,1.017624e-08,-2.904496e-13,0.0,0.0,0.0,0.0,0.0,0.0,0.0,0.0,0.0,0.0,0.0,0.10075009,0.011798162,0.011798137,0.00076359604,24.39338,24.39338,9.942912,0.3282498,0.3282498,50.553493,0.009999613,0.0099997595,0.004248729,0.040000003,0.040000003,0.040000003,0.0025000002,0.0025000002,0.0025000002,0.0025000002,0.0025000002,0.0025000002,1.0,1.0,0.010000001,25
4156000,4004000,0.99998665,0.0029756906,0.004178787,-0.00054741494,-0.018015819,0.015019799,0.006096907,0.0,0.0,0.0007979286,7.93614e-09,1.017624e-08,-2.904496e-13,0.0,0.0,0.0,0.0,0.0,0.0,0.0,0.0,0.0,0.0,0.0,0.10079793,0.011866662,0.011866636,0.0007926854,24.400581,24.400581,9.943188,0.35200357,0.35200357,50.59166,0.009999613,0.0099997595,0.004248729,0.040000003,0.040000003,0.040000003,0.0025000002,0.0025000002,0.0025000002,0.0025000002,0.0025000002,0.0025000002,1.0,1.0,0.010000001,25
4164000,4012000,0.99998695,0.0029363795,0.0041675456,-0.0005211854,-0.018636711,0.015843632,0.0059687793,0.0,0.0,0.00084619137,7.93614e-09,1.017624e-08,-2.904496e-13,0.0,0.0,0.0,0.0,0.0,0.0,0.0,0.0,0.0,0.0,0.0,0.100846194,0.011936435,0.011936407,0.000822318,24.407978,24.407978,9.943469,0.37888354,0.37888354,50.6311,0.009999613,0.0099997595,0.004248729,0.040000003,0.040000003,0.040000003,0.0025000002,0.0025000002,0.0025000002,0.0025000002,0.0025000002,0.0025000002,1.0,1.0,0.010000001,25
4180000,4028000,0.9999868,0.0029119325,0.0042016217,-0.0005124616,-0.020834636,0.01675145,0.0044662654,0.0,0.0,0.0009280026,7.93614e-09,1.017624e-08,-2.904496e-13,0.0,0.0,0.0,0.0,0.0,0.0,0.0,0.0,0.0,0.0,0.0,0.100928,0.012079826,0.012079793,0.0008832149,24.423384,24.423384,9.944049,0.44202793,0.44202793,50.713802,0.009999613,0.0099997595,0.004248729,0.040000003,0.040000003,0.040000003,0.0025000002,0.0025000002,0.0025000002,0.0025000002,0.0025000002,0.0025000002,1.0,1.0,0.010000001,25
4188000,4036000,0.9999871,0.0028631648,0.0041886987,-0.0004553014,-0.021606546,0.01698152,0.004125215,0.0,0.0,0.0009623685,7.93614e-09,1.017624e-08,-2.904496e-13,0.0,0.0,0.0,0.0,0.0,0.0,0.0,0.0,0.0,0.0,0.0,0.10096237,0.01215344,0.012153405,0.0009144789,24.431297,24.431297,9.944345,0.47829527,0.47829527,50.757065,0.009999613,0.0099997595,0.004248729,0.040000003,0.040000003,0.040000003,0.0025000002,0.0025000002,0.0025000002,0.0025000002,0.0025000002,0.0025000002,1.0,1.0,0.010000001,25
4196000,4044000,0.99998707,0.00286044,0.0041812826,-0.00046915983,-0.021808948,0.017603636,0.004025869,0.0,0.0,0.0009949729,7.93614e-09,1.017624e-08,-2.904496e-13,0.0,0.0,0.0,0.0,0.0,0.0,0.0,0.0,0.0,0.0,0.0,0.100994974,0.01222834,0.012228303,0.0009462872,24.439356,24.439356,9.944648,0.5176947,0.5176947,50.8016,0.009999613,0.0099997595,0.004248729,0.040000003,0.040000003,0.040000003,0.0025000002,0.0025000002,0.0025000002,0.0025000002,0.0025000002,0.0025000002,1.0,1.0,0.010000001,25
4204000,4052000,0.9999869,0.0028805367,0.004212273,-0.0005069727,-0.022235367,0.017472606,0.0042449385,0.0,0.0,0.0010280561,7.93614e-09,1.017624e-08,-2.904496e-13,0.0,0.0,0.0,0.0,0.0,0.0,0.0,0.0,0.0,0.0,0.0,0.101028055,0.012304514,0.012304476,0.0009786387,24.447552,24.447552,9.944954,0.56022775,0.56022775,50.84741,0.009999613,0.0099997595,0.004248729,0.040000003,0.040000003,0.040000003,0.0025000002,0.0025000002,0.0025000002,0.0025000002,0.0025000002,0.0025000002,1.0,1.0,0.010000001,25
4220000,4068000,0.9999868,0.0028562397,0.0042489106,-0.00046308758,-0.023204522,0.018934352,0.0029891357,0.0,0.0,0.0010860094,7.93614e-09,1.017624e-08,-2.904496e-13,0.0,0.0,0.0,0.0,0.0,0.0,0.0,0.0,0.0,0.0,0.0,0.10108601,0.012460703,0.012460667,0.001044973,24.464632,24.464632,9.945583,0.654701,0.654701,50.942837,0.009999613,0.0099997595,0.004248729,0.040000003,0.040000003,0.040000003,0.0025000002,0.0025000002,0.0025000002,0.0025000002,0.0025000002,0.0025000002,1.0,1.0,0.010000001,25
4228000,4076000,0.9999867,0.0028457264,0.0042909128,-0.00043469333,-0.023659343,0.018749086,0.0030069947,0.0,0.0,0.0011099939,7.93614e-09,1.017624e-08,-2.904496e-13,0.0,0.0,0.0,0.0,0.0,0.0,0.0,0.0,0.0,0.0,0.0,0.10111,0.01254072,0.012540684,0.001078956,24.473364,24.473364,9.945905,0.7066445,0.7066445,50.992462,0.009999613,0.0099997595,0.004248729,0.040000003,0.040000003,0.040000003,0.0025000002,0.0025000002,0.0025000002,0.0025000002,0.0025000002,0.0025000002,1.0,1.0,0.010000001,25
4236000,4084000,0.99998665,0.0028564725,0.0042903135,-0.00041290297,-0.023717502,0.018749185,0.003305003,0.0,0.0,0.0011352419,7.93614e-09,1.017624e-08,-2.904496e-13,0.0,0.0,0.0,0.0,0.0,0.0,0.0,0.0,0.0,0.0,0.0,0.10113525,0.012622017,0.012621982,0.0011134828,24.482239,24.482239,9.946232,0.7617281,0.7617281,51.04336,0.009999613,0.0099997595,0.004248729,0.040000003,0.040000003,0.040000003,0.0025000002,0.0025000002,0.0025000002,0.0025000002,0.0025000002,0.0025000002,1.0,1.0,0.010000001,25
4244000,4092000,0.99998665,0.0028384074,0.004308406,-0.0004042514,-0.024437983,0.01895141,0.0035332441,0.0,0.0,0.0011625949,7.93614e-09,1.017624e-08,-2.904496e-13,0.0,0.0,0.0,0.0,0.0,0.0,0.0,0.0,0.0,0.0,0.0,0.1011626,0.012704591,0.012704557,0.0011485532,24.491295,24.491295,9.946565,0.8199535,0.8199535,51.095535,0.009999613,0.0099997595,0.004248729,0.040000003,0.040000003,0.040000003,0.0025000002,0.0025000002,0.0025000002,0.0025000002,0.0025000002,0.0025000002,1.0,1.0,0.010000001,25
4260000,4108000,0.99998724,0.0028158822,0.004181188,-0.0004295477,-0.027217861,0.01938866,0.0034937337,0.0,0.0,0.0012193838,7.93614e-09,1.017624e-08,-2.904496e-13,0.0,0.0,0.0,0.0,0.0,0.0,0.0,0.0,0.0,0.0,0.0,0.101219386,0.012873578,0.012873545,0.0012203251,24.51,24.51,9.9472475,0.9458366,0.9458366,51.203705,0.009999613,0.0099997595,0.004248729,0.040000003,0.040000003,0.040000003,0.0025000002,0.0025000002,0.0025000002,0.0025000002,0.0025000002,0.0025000002,1.0,1.0,0.010000001,25
4268000,4116000,0.9999874,0.0027918175,0.0041583544,-0.00045028472,-0.028018644,0.020403557,0.0035979077,0.0,0.0,0.0012477504,7.93614e-09,1.017624e-08,-2.904496e-13,0.0,0.0,0.0,0.0,0.0,0.0,0.0,0.0,0.0,0.0,0.0,0.10124775,0.012959995,0.012959963,0.001257027,24.519608,24.519608,9.947596,1.013498,1.013498,51.2597,0.009999613,0.0099997595,0.004248729,0.040000003,0.040000003,0.040000003,0.0025000002,0.0025000002,0.0025000002,0.0025000002,0.0025000002,0.0025000002,1.0,1.0,0.010000001,25
4276000,4124000,0.99998754,0.002738009,0.004167978,-0.0004542951,-0.028850188,0.021026552,0.0040353388,0.0,0.0,0.0012782833,7.93614e-09,1.017624e-08,-2.904496e-13,0.0,0.0,0.0,0.0,0.0,0.0,0.0,0.0,0.0,0.0,0.0,0.10127828,0.013047692,0.01304766,0.0012942726,24.529356,24.529356,9.947949,1.0843083,1.0843083,51.31697,0.009999613,0.0099997595,0.004248729,0.040000003,0.040000003,0.040000003,0.0025000002,0.0025000002,0.0025000002,0.0025000002,0.0025000002,0.0025000002,1.0,1.0,0.010000001,25
4284000,4132000,0.99998754,0.0027231008,0.0041802353,-0.00045419944,-0.029609976,0.021652149,0.0040124506,0.0,0.0,0.0013104745,7.93614e-09,1.017624e-08,-2.904496e-13,0.0,0.0,0.0,0.0,0.0,0.0,0.0,0.0,0.0,0.0,0.0,0.10131048,0.013136669,0.013136637,0.0013320618,24.539343,24.539343,9.948309,1.1582694,1.1582694,51.375515,0.009999613,0.0099997595,0.004248729,0.040000003,0.040000003,0.040000003,0.0025000002,0.0025000002,0.0025000002,0.0025000002,0.0025000002,0.0025000002,1.0,1.0,0.010000001,25
4300000,4148000,0.9999877,0.002738221,0.0041197534,-0.0005018467,-0.016085114,0.011934704,0.004343173,0.0,0.0,0.00090883905,4.977651e-06,6.4552073e-06,1.2777363e-10,0.0,0.0,0.0,0.0,0.0,0.0,0.0,0.0,0.0,0.0,0.0,0.10137683,0.013247317,0.013247288,0.0005849369,7.843596,7.843596,9.850793,0.21008052,0.21008052,33.99184,0.009996294,0.009996528,0.0017659392,0.040000003,0.040000003,0.040000003,0.0025000002,0.0025000002,0.0025000002,0.0025000002,0.0025000002,0.0025000002,1.0,1.0,0.010000001,25
4308000,4156000,0.9999877,0.002773355,0.0040861424,-0.00049782236,-0.016797861,0.012002787,0.0053128675,0.0,0.0,0.0009474632,4.977651e-06,6.4552073e-06,1.2777363e-10,0.0,0.0,0.0,0.0,0.0,0.0,0.0,0.0,0.0,0.0,0.0,0.10094746,0.013339896,0.013339868,0.00060130766,7.8484707,7.8484707,9.851164,0.2236527,0.2236527,34.03322,0.009996294,0.009996528,0.0017659392,0.040000003,0.040000003,0.040000003,0.0025000002,0.0025000002,0.0025000002,0.0025000002,0.0025000002,0.0025000002,1.0,1.0,0.010000001,25
4316000,4164000,0.999988,0.002741867,0.0040248893,-0.00050105964,-0.01688335,0.012604295,0.0059212595,0.0,0.0,0.0009923998,4.977651e-06,6.4552073e-06,1.2777363e-10,0.0,0.0,0.0,0.0,0.0,0.0,0.0,0.0,0.0,0.0,0.0,0.100992404,0.013433753,0.013433725,0.0006179043,7.8535447,7.8535447,9.851541,0.23823166,0.23823166,34.075855,0.009996294,0.009996528,0.0017659392,0.040000003,0.040000003,0.040000003,0.0025000002,0.0025000002,0.0025000002,0.0025000002,0.0025000002,0.0025000002,1.0,1.0,0.010000001,25
4324000,4172000,0.99998814,0.0027397885,0.003993912,-0.00047929806,-0.017370656,0.012705633,0.005668223,0.0,0.0,0.0010387577,4.977651e-06,6.4552073e-06,1.2777363e-10,0.0,0.0,0.0,0.0,0.0,0.0,0.0,0.0,0.0,0.0,0.0,0.10103876,0.013528885,0.013528857,0.00063472666,7.858855,7.858855,9.851923,0.25381833,0.25381833,34.119755,0.009996294,0.009996528,0.0017659392,0.040000003,0.040000003,0.040000003,0.0025000002,0.0025000002,0.0025000002,0.0025000002,0.0025000002,0.0025000002,1.0,1.0,0.010000001,25
4340000,4188000,0.99998826,0.0028254641,0.0039085993,-0.00047934306,-0.018470956,0.012301892,0.0055380315,0.0,0.0,0.0011279373,4.977651e-06,6.4552073e-06,1.2777363e-10,0.0,0.0,0.0,0.0,0.0,0.0,0.0,0.0,0.0,0.0,0.0,0.10112794,0.01372299,0.013722962,0.0006690493,7.8700047,7.8700047,9.852701,0.28801903,0.28801903,34.211338,0.009996294,0.009996528,0.0017659392,0.040000003,0.040000003,0.040000003,0.0025000002,0.0025000002,0.0025000002,0.0025000002,0.0025000002,0.0025000002,1.0,1.0,0.010000001,25
4348000,4196000,0.99998856,0.0028125832,0.003830589,-0.0005295426,-1.8625606e-09,1.8625869e-09,4.656613e-10,0.0,0.0,-0.00054600334,2.2944252e-05,3.511866e-05,-3.3435278e-08,-2.9995275e-05,1.8810424e-05,1.35587325e-05,0.0,0.0,0.0,0.0,0.0,0.0,0.0,0.0,0.10117253,0.013651355,0.013651318,0.0006865494,1e-06,1e-06,1e-06,0.12524122,0.12524122,33.333576,0.009979474,0.009979707,0.0017659379,0.039981622,0.039981622,0.039939262,0.0025000002,0.0025000002,0.0025000002,0.0025000002,0.0025000002,0.0025000002,1.0,1.0,0.010000001,25
4356000,4204000,0.99998856,0.002838571,0.0038102006,-0.00053183,-0.000846648,0.00016920181,0.00026715547,0.0,0.0,-0.0005449347,2.2944252e-05,3.511866e-05,-3.3435278e-08,-2.9995275e-05,1.8810424e-05,1.35587325e-05,0.0,0.0,0.0,0.0,0.0,0.0,0.0,0.0,0.099455066,0.013750747,0.01375071,0.0007042754,9.474818e-05,9.474891e-05,1.1406368e-05,0.12524122,0.12524122,33.333576,0.009979474,0.009979707,0.0017659379,0.039981622,0.039981622,0.039939262,0.0025000002,0.0025000002,0.0025000002,0.0025000002,0.0025000002,0.0025000002,1.0,1.0,0.010000001,25
4364000,4212000,0.9999886,0.0028486229,0.0037972492,-0.0005239154,-0.0009039073,0.00041214377,0.00063883513,0.0,0.0,-0.00054131076,2.2944252e-05,3.511866e-05,-3.3435278e-08,-2.9995275e-05,1.8810424e-05,1.35587325e-05,0.0,0.0,0.0,0.0,0.0,0.0,0.0,0.0,0.099458694,0.013851417,0.013851381,0.00072222744,0.0003610741,0.0003610755,2.6918045e-05,0.12523828,0.12523828,33.333576,0.009979474,0.009979707,0.0017659379,0.039981622,0.039981622,0.039939262,0.0025000002,0.0025000002,0.0025000002,0.0025000002,0.0025000002,0.0025000002,1.0,1.0,0.010000001,25
4380000,4228000,0.9999889,0.0028227677,0.0037336529,-0.00054264057,-0.0030754085,0.0011770793,0.00020217896,0.0,0.0,-0.00053364574,2.2944252e-05,3.511866e-05,-3.3435278e-08,-2.9995275e-05,1.8810424e-05,1.35587325e-05,0.0,0.0,0.0,0.0,0.0,0.0,0.0,0.0,0.09946635,0.014056589,0.014056554,0.00075880927,0.0014290272,0.0014290368,7.340901e-05,0.12522373,0.12522373,33.333576,0.009979474,0.009979707,0.0017659379,0.039981622,0.039981622,0.039939262,0.0025000002,0.0025000002,0.0025000002,0.0025000002,0.0025000002,0.0025000002,1.0,1.0,0.010000001,25
4388000,4236000,0.99998915,0.0028350346,0.0036828045,-0.0005066107,-0.003479462,0.0015790435,0.0008886978,0.0,0.0,-0.00052928226,2.2944252e-05,3.511866e-05,-3.3435278e-08,-2.9995275e-05,1.8810424e-05,1.35587325e-05,0.0,0.0,0.0,0.0,0.0,0.0,0.0,0.0,0.09947072,0.014161092,0.014161057,0.0007774391,0.0022232903,0.0022233033,0.00010430722,0.12521222,0.12521222,33.333576,0.009979474,0.009979707,0.0017659379,0.039981622,0.039981622,0.039939262,0.0025000002,0.0025000002,0.0025000002,0.0025000002,0.0025000002,0.0025000002,1.0,1.0,0.010000001,25
4396000,4244000,0.99998915,0.00282274,0.0036687793,-0.0004916914,-0.0039720084,0.0026939777,0.0016517341,0.0,0.0,-0.00051912054,2.2944252e-05,3.511866e-05,-3.3435278e-08,-2.9995275e-05,1.8810424e-05,1.35587325e-05,0.0,0.0,0.0,0.0,0.0,0.0,0.0,0.0,0.09948088,0.01426688,0.014266845,0.0007962952,0.003195193,0.003195208,0.00014038336,0.12519811,0.12519811,33.333576,0.009979474,0.009979707,0.0017659379,0.039981622,0.039981622,0.039939262,0.0025000002,0.0025000002,0.0025000002,0.0025000002,0.0025000002,0.0025000002,1.0,1.0,0.010000001,25
4404000,4252000,0.99998903,0.0028120696,0.0037165415,-0.00047766877,-0.0044107796,0.0030393517,0.0018018633,0.0,0.0,-0.0005053062,2.2944252e-05,3.511866e-05,-3.3435278e-08,-2.9995275e-05,1.8810424e-05,1.35587325e-05,0.0,0.0,0.0,0.0,0.0,0.0,0.0,0.0,0.099494696,0.014373938,0.014373903,0.0008153768,0.0043567577,0.0043567773,0.00018153203,0.12518154,0.12518154,33.333576,0.009979474,0.009979707,0.0017659379,0.039981622,0.039981622,0.039939262,0.0025000002,0.0025000002,0.0025000002,0.0025000002,0.0025000002,0.0025000002,1.0,1.0,0.010000001,25
4420000,4268000,0.999989,0.0028086214,0.0037344298,-0.00049837824,-0.005807857,0.004080421,0.0027161092,0.0,0.0,-0.00047058807,2.2944252e-05,3.511866e-05,-3.3435278e-08,-2.9995275e-05,1.8810424e-05,1.35587325e-05,0.0,0.0,0.0,0.0,0.0,0.0,0.0,0.0,0.099529415,0.014591888,0.01459185,0.0008542179,0.0072242944,0.007224327,0.00027931633,0.1251418,0.1251418,33.333576,0.009979474,0.009979707,0.0017659379,0.039981622,0.039981622,0.039939262,0.0025000002,0.0025000002,0.0025000002,0.0025000002,0.0025000002,0.0025000002,1.0,1.0,0.010000001,25
4428000,4276000,0.9999891,0.0027732528,0.0037423912,-0.0005323125,-0.0061762887,0.0044248,0.0030428693,0.0,0.0,-0.00044755216,2.2944252e-05,3.511866e-05,-3.3435278e-08,-2.9995275e-05,1.8810424e-05,1.35587325e-05,0.0,0.0,0.0,0.0,0.0,0.0,0.0,0.0,0.09955245,0.014702779,0.01470274,0.0008739773,0.008941202,0.008941241,0.00033582823,0.12511913,0.12511913,33.333576,0.009979474,0.009979707,0.0017659379,0.039981622,0.039981622,0.039939262,0.0025000002,0.0025000002,0.0025000002,0.0025000002,0.0025000002,0.0025000002,1.0,1.0,0.010000001,25
4436000,4284000,0.9999891,0.0027623975,0.0037439372,-0.0005620952,-0.0070268945,0.0049833166,0.0023496747,0.0,0.0,-0.00042598197,2.2944252e-05,3.511866e-05,-3.3435278e-08,-2.9995275e-05,1.8810424e-05,1.35587325e-05,0.0,0.0,0.0,0.0,0.0,0.0,0.0,0.0,0.09957402,0.014814951,0.014814911,0.0008939629,0.010873497,0.010873545,0.00039758458,0.125095,0.125095,33.333576,0.009979474,0.009979707,0.0017659379,0.039981622,0.039981622,0.039939262,0.0025000002,0.0025000002,0.0025000002,0.0025000002,0.0025000002,0.0025000002,1.0,1.0,0.010000001,25
4444000,4292000,0.999989,0.0027639112,0.0037709656,-0.0005641565,-0.0073402137,0.004766691,0.0021701157,0.0,0.0,-0.00040790281,2.2944252e-05,3.511866e-05,-3.3435278e-08,-2.9995275e-05,1.8810424e-05,1.35587325e-05,0.0,0.0,0.0,0.0,0.0,0.0,0.0,0.0,0.0995921,0.014928401,0.0149283605,0.0009141744,0.012988763,0.012988822,0.00046424867,0.1250697,0.1250697,33.33357,0.009979474,0.009979707,0.0017659379,0.039981622,0.039981622,0.039939262,0.0025000002,0.0025000002,0.0025000002,0.0025000002,0.0025000002,0.0025000002,1.0,1.0,0.010000001,25
4460000,4308000,0.9999892,0.002714625,0.003743076,-0.00058641663,-0.008345116,0.0058548185,0.0033306628,0.0,0.0,-0.00036172537,2.2944252e-05,3.511866e-05,-3.3435278e-08,-2.9995275e-05,1.8810424e-05,1.35587325e-05,0.0,0.0,0.0,0.0,0.0,0.0,0.0,0.0,0.099638276,0.015159133,0.015159089,0.0009552752,0.017762583,0.017762657,0.00061324774,0.12501724,0.12501724,33.333553,0.009979474,0.009979707,0.0017659379,0.039981622,0.039981622,0.039939262,0.0025000002,0.0025000002,0.0025000002,0.0025000002,0.0025000002,0.0025000002,1.0,1.0,0.010000001,25
4468000,4316000,0.9999895,0.0026661868,0.0037013118,-0.00054693443,-0.009070699,0.005885464,0.004151657,0.0,0.0,-0.0003317961,2.2944252e-05,3.511866e-05,-3.3435278e-08,-2.9995275e-05,1.8810424e-05,1.35587325e-05,0.0,0.0,0.0,0.0,0.0,0.0,0.0,0.0,0.099668205,0.015276415,0.01527637,0.0009761645,0.020435875,0.020435968,0.00069540937,0.12499096,0.12499096,33.333546,0.009979474,0.009979707,0.0017659379,0.039981622,0.039981622,0.039939262,0.0025000002,0.0025000002,0.0025000002,0.0025000002,0.0025000002,0.0025000002,1.0,1.0,0.010000001,25
4476000,4324000,0.9999895,0.0026676,0.0037012368,-0.00057197374,-0.010331678,0.0058826273,0.004167177,0.0,0.0,-0.00029852075,2.2944252e-05,3.511866e-05,-3.3435278e-08,-2.9995275e-05,1.8810424e-05,1.35587325e-05,0.0,0.0,0.0,0.0,0.0,0.0,0.0,0.0,0.09970148,0.0153949745,0.015394928,0.0009972797,0.023337174,0.023337295,0.00078285113,0.12496531,0.12496531,33.333538,0.009979474,0.009979707,0.0017659379,0.039981622,0.039981622,0.039939262,0.0025000002,0.0025000002,0.0025000002,0.0025000002,0.0025000002,0.0025000002,1.0,1.0,0.010000001,25
4484000,4332000,0.9999896,0.0026837555,0.0036426652,-0.00063450926,-0.010751064,0.0057450286,0.00471206,0.0,0.0,-0.0002630038,2.2944252e-05,3.511866e-05,-3.3435278e-08,-2.9995275e-05,1.8810424e-05,1.35587325e-05,0.0,0.0,0.0,0.0,0.0,0.0,0.0,0.0,0.099736996,0.015514811,0.015514764,0.0010186208,0.026421724,0.02642186,0.0008751533,0.12494079,0.12494079,33.33353,0.009979474,0.009979707,0.0017659379,0.039981622,0.039981622,0.039939262,0.0025000002,0.0025000002,0.0025000002,0.0025000002,0.0025000002,0.0025000002,1.0,1.0,0.010000001,25
4500000,4348000,0.9999894,0.0026360543,0.0037107063,-0.0006778343,-0.013082394,0.0055846577,0.0050090253,0.0,0.0,-0.00018581949,2.2944252e-05,3.511866e-05,-3.3435278e-08,-2.9995275e-05,1.8810424e-05,1.35587325e-05,0.0,0.0,0.0,0.0,0.0,0.0,0.0,0.0,0.099814184,0.015758317,0.01575827,0.0010619808,0.033239853,0.033240054,0.0010756812,0.12489749,0.12489749,33.333515,0.009979474,0.009979707,0.0017659379,0.039981622,0.039981622,0.039939262,0.0025000002,0.0025000002,0.0025000002,0.0025000002,0.0025000002,0.0025000002,1.0,1.0,0.010000001,25
4508000,4356000,0.9999897,0.0026231988,0.0036711278,-0.00066564116,0.0,0.0,0.0057478244,0.0,0.0,-0.00010696359,2.2944265e-05,3.5118683e-05,-3.3435306e-08,-2.9995299e-05,1.881044e-05,1.3561463e-05,0.0,0.0,0.0,0.0,0.0,0.0,0.0,0.0,0.09985721,0.015881978,0.015881933,0.00052015344,25.0,25.0,0.0011832039,100.0,100.0,25.0001,0.009979424,0.009979685,0.0008490998,0.039981622,0.039981622,0.039939214,0.0025000002,0.0025000002,0.0025000002,0.0025000002,0.0025000002,0.0025000002,1.0,1.0,0.010000001,25
4516000,4364000,0.9999896,0.0026012035,0.0036694496,-0.0006831417,9.412703e-06,0.00048939907,0.0058284327,0.0,0.0,-6.065856e-05,2.2944265e-05,3.5118683e-05,-3.3435306e-08,-2.9995299e-05,1.881044e-05,1.3561463e-05,0.0,0.0,0.0,0.0,0.0,0.0,0.0,0.0,0.09993935,0.016006924,0.016006881,0.0005308351,25.000109,25.000109,0.0012959278,100.0016,100.0016,25.000095,0.009979424,0.009979685,0.0008490998,0.039981622,0.039981622,0.039939214,0.0025000002,0.0025000002,0.0025000002,0.0025000002,0.0025000002,0.0025000002,1.0,1.0,0.010000001,25
4524000,4372000,0.99998975,0.0025937846,0.0036676237,-0.0006474325,0.00013937434,0.0011072954,0.0058944523,0.0,0.0,-1.3767018e-05,2.2944265e-05,3.5118683e-05,-3.3435306e-08,-2.9995299e-05,1.881044e-05,1.3561463e-05,0.0,0.0,0.0,0.0,0.0,0.0,0.0,0.0,0.09998623,0.01613314,0.016133098,0.00054162514,25.00042,25.00042,0.0014137496,100.0064,100.0064,25.000092,0.009979424,0.009979685,0.0008490998,0.039981622,0.039981622,0.039939214,0.0025000002,0.0025000002,0.0025000002,0.0025000002,0.0025000002,0.0025000002,1.0,1.0,0.010000001,25
4540000,4388000,0.99998397,0.003329233,0.004599182,-0.0001494119,-0.0027863828,0.0015823762,0.0049719736,0.0,0.0,7.2553856e-05,-0.001887406,-0.0022633865,-0.0011874713,-3.5281668e-05,2.3208531e-05,1.3611613e-05,0.0,0.0,0.0,0.0,0.0,0.0,0.0,0.0,0.100072555,0.009980114,0.009980079,0.000119308745,25.001062,25.001062,0.0016643151,100.0256,100.0256,25.000084,0.00022003647,0.00022003768,0.00017783027,0.03998157,0.03998157,0.039939214,0.0025000002,0.0025000002,0.0025000002,0.0025000002,0.0025000002,0.0025000002,1.0,1.0,0.010000001,25
4548000,4396000,0.99998415,0.0033607928,0.00454055,-0.00013861034,-0.0034230596,0.0018912305,0.004376143,0.0,0.0,0.000109946326,-0.001887406,-0.0022633865,-0.0011874713,-3.5281668e-05,2.3208531e-05,1.3611613e-05,0.0,0.0,0.0,0.0,0.0,0.0,0.0,0.0,0.10010995,0.009983001,0.009982966,0.00012165076,25.00165,25.00165,0.0017976491,100.04,100.04,25.00008,0.00022003653,0.00022003773,0.00017783033,0.03998157,0.03998157,0.039939214,0.0025000002,0.0025000002,0.0025000002,0.0025000002,0.0025000002,0.0025000002,1.0,1.0,0.010000001,25
4556000,4404000,0.9999849,0.0032910414,0.0043974696,-7.3459e-05,-2.2654481e-10,2.2973991e-10,2.1127053e-06,0.0,0.0,0.00079297303,-0.0018848412,-0.0022580985,-0.0011874826,-0.00016749563,0.000120836354,0.017559567,0.0,0.0,0.0,0.0,0.0,0.0,0.0,0.0,0.10014382,0.009981903,0.009972076,0.00012401553,1e-06,1e-06,1e-06,100.0,100.0,25.000027,0.00022003555,0.0002200343,0.00017783038,0.039979413,0.03998033,0.0043119565,0.0025000002,0.0025000002,0.0025000002,0.0025000002,0.0025000002,0.0025000002,1.0,1.0,0.010000001,25
4564000,4412000,0.9999849,0.0032725483,0.0044101826,-5.846541e-05,-0.00077739067,2.501439e-05,-0.0005670637,0.0,0.0,0.00079071324,-0.0018848412,-0.0022580985,-0.0011874826,-0.00016749563,0.000120836354,0.017559567,0.0,0.0,0.0,0.0,0.0,0.0,0.0,0.0,0.10079072,0.00998484,0.00997501,0.00012640301,7.358436e-05,7.364514e-05,9.181951e-06,100.0,100.0,25.000027,0.00022003561,0.00022003436,0.00017783044,0.039979413,0.03998033,0.004311957,0.0025000002,0.0025000002,0.0025000002,0.0025000002,0.0025000002,0.0025000002,1.0,1.0,0.010000001,25
4580000,4428000,0.9999847,0.0033099253,0.004448007,-7.510615e-05,-0.0018873413,0.00015701243,-0.0014742166,0.0,0.0,0.00077270163,-0.0018848412,-0.0022580985,-0.0011874826,-0.00016749563,0.000120836354,0.017559567,0.0,0.0,0.0,0.0,0.0,0.0,0.0,0.0,0.1007727,0.009990797,0.009980961,0.00013124626,0.0006062913,0.0006068369,2.7179845e-05,100.0,100.0,25.000027,0.00022003573,0.00022003448,0.00017783056,0.039979413,0.03998033,0.004311958,0.0025000002,0.0025000002,0.0025000002,0.0025000002,0.0025000002,0.0025000002,1.0,1.0,0.010000001,25
4588000,4436000,0.9999846,0.003348478,0.004431911,-4.7677244e-05,-0.0027428265,0.0011225177,-0.001155369,0.0,0.0,0.0007621833,-0.0018848412,-0.0022580985,-0.0011874826,-0.00016749563,0.000120836354,0.017559567,0.0,0.0,0.0,0.0,0.0,0.0,0.0,0.0,0.10076219,0.00999382,0.00998398,0.00013370204,0.001061667,0.001062632,3.6991627e-05,100.0,100.0,25.000027,0.00022003578,0.00022003453,0.00017783062,0.039979413,0.03998033,0.0043119583,0.0025000002,0.0025000002,0.0025000002,0.0025000002,0.0025000002,0.0025000002,1.0,1.0,0.010000001,25
4596000,4444000,0.9999847,0.0033711495,0.00440296,1.6169106e-06,-0.003847233,0.0026304733,-0.0010652915,0.0,0.0,0.0007533006,-0.0018848412,-0.0022580985,-0.0011874826,-0.00016749563,0.000120836354,0.017559567,0.0,0.0,0.0,0.0,0.0,0.0,0.0,0.0,0.1007533,0.009996871,0.009987028,0.00013618058,0.0016457443,0.0016472491,4.7375113e-05,100.0,100.0,25.000027,0.00022003584,0.00022003459,0.00017783068,0.039979413,0.03998033,0.004311959,0.0025000002,0.0025000002,0.0025000002,0.0025000002,0.0025000002,0.0025000002,1.0,1.0,0.010000001,25
4604000,4452000,0.99998456,0.0034320604,0.004361308,2.6199741e-05,-0.0051991055,0.0029992817,-0.0016080812,0.0,0.0,0.0007426071,-0.0018848412,-0.0022580985,-0.0011874826,-0.00016749563,0.000120836354,0.017559567,0.0,0.0,0.0,0.0,0.0,0.0,0.0,0.0,0.10074261,0.00999995,0.009990105,0.00013868188,0.002363457,0.0023656292,5.8304246e-05,100.0,100.0,25.000027,0.0002200359,0.00022003465,0.00017783073,0.039979413,0.03998033,0.0043119593,0.0025000002,0.0025000002,0.0025000002,0.0025000002,0.0025000002,0.0025000002,1.0,1.0,0.010000001,25
4620000,4468000,0.99998415,0.0035144435,0.0044143717,7.121476e-05,-0.00703585,0.0035279011,-0.0014193729,0.0,0.0,0.00071681937,-0.0018848412,-0.0022580985,-0.0011874826,-0.00016749563,0.000120836354,0.017559567,0.0,0.0,0.0,0.0,0.0,0.0,0.0,0.0,0.10071682,0.01000619,0.00999634,0.00014375272,0.0041720923,0.004175951,8.177394e-05,100.0,100.0,25.000027,0.00022003602,0.00022003477,0.00017783085,0.039979413,0.03998033,0.00431196,0.0025000002,0.0025000002,0.0025000002,0.0025000002,0.0025000002,0.0025000002,1.0,1.0,0.010000001,25
4628000,4476000,0.9999842,0.0035047382,0.004414508,2.5940117e-05,-0.008089896,0.0044674925,-0.0016495064,0.0,0.0,0.00070454384,-0.0018848412,-0.0022580985,-0.0011874826,-0.00016749563,0.000120836354,0.017559567,0.0,0.0,0.0,0.0,0.0,0.0,0.0,0.0,0.10070454,0.010009354,0.009999501,0.00014632232,0.005272717,0.005277603,9.436091e-05,100.0,100.0,25.000027,0.00022003608,0.00022003482,0.00017783091,0.039979413,0.03998033,0.0043119607,0.0025000002,0.0025000002,0.0025000002,0.0025000002,0.0025000002,0.0025000002,1.0,1.0,0.010000001,25
4636000,4484000,0.99998426,0.0035006884,0.0043770997,5.5078686e-05,-0.009090073,0.0048349826,-0.0010604709,0.0,0.0,0.00069370394,-0.0018848412,-0.0022580985,-0.0011874826,-0.00016749563,0.000120836354,0.017559567,0.0,0.0,0.0,0.0,0.0,0.0,0.0,0.0,0.1006937,0.010012549,0.010002693,0.0001489147,0.0064893933,0.0064954152,0.00010747519,100.0,100.0,25.000027,0.00022003613,0.00022003488,0.00017783097,0.039979413,0.03998033,0.004311961,0.0025000002,0.0025000002,0.0025000002,0.0025000002,0.0025000002,0.0025000002,1.0,1.0,0.010000001,25
4644000,4492000,0.9999843,0.0035095117,0.00437637,0.00010506193,-0.0099095935,0.005499143,-0.0015963167,0.0,0.0,0.0006830768,-0.0018848412,-0.0022580985,-0.0011874826,-0.00016749563,0.000120836354,0.017559567,0.0,0.0,0.0,0.0,0.0,0.0,0.0,0.0,0.10068308,0.010015765,0.010005906,0.00015152975,0.007851889,0.007859185,0.00012113714,100.0,100.0,25.000027,0.00022003619,0.00022003494,0.00017783103,0.039979413,0.03998033,0.0043119616,0.0025000002,0.0025000002,0.0025000002,0.0025000002,0.0025000002,0.0025000002,1.0,1.0,0.010000001,25
4660000,4508000,0.99998415,0.003547477,0.004389656,0.00010165864,-0.0119797075,0.006774446,-0.002156958,0.0,0.0,0.0006514412,-0.0018848412,-0.0022580985,-0.0011874826,-0.00016749563,0.000120836354,0.017559567,0.0,0.0,0.0,0.0,0.0,0.0,0.0,0.0,0.10065144,0.01002229,0.010012425,0.00015682826,0.010956485,0.010966686,0.00015014414,100.0,100.0,25.000027,0.00022003631,0.00022003506,0.00017783114,0.039979413,0.03998033,0.0043119625,0.0025000002,0.0025000002,0.0025000002,0.0025000002,0.0025000002,0.0025000002,1.0,1.0,0.010000001,25
4668000,4516000,0.9999842,0.0035187537,0.0043779486,9.157898e-05,-0.012631005,0.0075942934,-0.0024249926,0.0,0.0,0.00063311344,-0.0018848412,-0.0022580985,-0.0011874826,-0.00016749563,0.000120836354,0.017559567,0.0,0.0,0.0,0.0,0.0,0.0,0.0,0.0,0.100633115,0.010025594,0.010015727,0.00015951168,0.012702442,0.012714277,0.00016544966,100.0,100.0,25.000027,0.00022003637,0.00022003512,0.0001778312,0.039979413,0.03998033,0.004311963,0.0025000002,0.0025000002,0.0025000002,0.0025000002,0.0025000002,0.0025000002,1.0,1.0,0.010000001,25
4676000,4524000,0.9999843,0.0035039303,0.0043704626,9.3171824e-05,-0.013692578,0.008687166,-0.0026683807,0.0,0.0,0.00061273994,-0.0018848412,-0.0022580985,-0.0011874826,-0.00016749563,0.000120836354,0.017559567,0.0,0.0,0.0,0.0,0.0,0.0,0.0,0.0,0.100612745,0.010028926,0.010019056,0.00016221782,0.0145771485,0.014590739,0.00018137397,100.000015,100.000015,25.000027,0.00022003643,0.00022003517,0.00017783126,0.039979413,0.03998033,0.0043119635,0.0025000002,0.0025000002,0.0025000002,0.0025000002,0.0025000002,0.0025000002,1.0,1.0,0.010000001,25
4684000,4532000,0.99998426,0.0035179195,0.004366134,0.00010636779,-0.014793515,0.008658959,-0.0020956472,0.0,0.0,0.0005936838,-0.0018848412,-0.0022580985,-0.0011874826,-0.00016749563,0.000120836354,0.017559567,0.0,0.0,0.0,0.0,0.0,0.0,0.0,0.0,0.100593686,0.010032285,0.010022412,0.00016494673,0.016560638,0.016576089,0.00019775581,100.00003,100.00003,25.000027,0.00022003648,0.00022003523,0.00017783132,0.039979413,0.03998033,0.004311964,0.0025000002,0.0025000002,0.0025000002,0.0025000002,0.0025000002,0.0025000002,1.0,1.0,0.010000001,25
4700000,4548000,0.9999842,0.0034837592,0.0044244346,0.00017534464,-0.017242867,0.009231246,-0.0012499914,0.0,0.0,0.000568952,-0.0018848412,-0.0022580985,-0.0011874826,-0.00016749563,0.000120836354,0.017559567,0.0,0.0,0.0,0.0,0.0,0.0,0.0,0.0,0.10056895,0.010039093,0.010029214,0.00017047291,0.020916602,0.020936139,0.00023226303,100.00006,100.00006,25.000027,0.0002200366,0.00022003535,0.00017783143,0.039979413,0.03998033,0.004311965,0.0025000002,0.0025000002,0.0025000002,0.0025000002,0.0025000002,0.0025000002,1.0,1.0,0.010000001,25
4708000,4556000,0.99998415,0.003487512,0.0044148713,0.00016193512,-0.018122846,0.009796868,-0.00066062063,0.0,0.0,0.0005613096,-0.0018848412,-0.0022580985,-0.0011874826,-0.00016749563,0.000120836354,0.017559567,0.0,0.0,0.0,0.0,0.0,0.0,0.0,0.0,0.10056131,0.010042538,0.010032657,0.00017327012,0.02328069,0.02330244,0.00025031794,100.00008,100.00008,25.000027,0.00022003666,0.0002200354,0.00017783149,0.039979413,0.03998033,0.0043119653,0.0025000002,0.0025000002,0.0025000002,0.0025000002,0.0025000002,0.0025000002,1.0,1.0,0.010000001,25
4716000,4564000,0.99998385,0.0035540885,0.004431958,0.00014408136,-0.019202713,0.010799253,-0.0006410704,0.0,0.0,0.0004449864,-0.0018848411,-0.0022580982,-0.0011874826,-0.00016750142,0.00012083948,0.017559566,0.0,0.0,0.0,0.0,0.0,0.0,0.0,0.0,0.100556105,0.010045997,0.010036112,0.00014972496,0.025789602,0.025813697,0.00026899786,9.9999896e-05,9.9999896e-05,20.00002,0.00022003494,0.00022003446,0.00015147861,0.039979413,0.03998033,0.0043119653,0.0025000002,0.0025000002,0.0025000002,0.0025000002,0.0025000002,0.0025000002,1.0,1.0,0.010000001,25
4724000,4572000,0.99998397,0.003527901,0.0044331336,0.000105808605,-0.020227458,0.01080605,-0.0009450689,0.0,0.0,0.00043864184,-0.0018848411,-0.0022580982,-0.0011874826,-0.00016750142,0.00012083948,0.017559566,0.0,0.0,0.0,0.0,0.0,0.0,0.0,0.0,0.10043865,0.010049497,0.010039609,0.00015214423,0.028438011,0.028464591,0.00028811806,0.00010165046,0.000101652004,20.00002,0.000220035,0.00022003452,0.00015147867,0.039979413,0.03998033,0.004311966,0.0025000002,0.0025000002,0.0025000002,0.0025000002,0.0025000002,0.0025000002,1.0,1.0,0.010000001,25
4740000,4588000,0.99998605,0.0028553198,0.004428727,-0.00041947677,-0.022962773,0.009141947,-0.0010914803,0.0,0.0,0.00041797283,-0.00047446816,-0.0023465075,-0.00020166195,-0.00016749371,0.00011739112,0.01753069,0.0,0.0,0.0,0.0,0.0,0.0,0.0,0.0,0.10041797,0.009945591,0.009935853,9.458944e-05,0.03381192,0.033843335,0.00032815142,0.00011624021,0.00011625531,20.00002,0.000111244764,0.000111244735,9.052992e-05,0.039979413,0.03998033,0.004311648,0.0025000002,0.0025000002,0.0025000002,0.0025000002,0.0025000002,0.0025000002,1.0,1.0,0.010000001,25
4748000,4596000,0.9999862,0.0028153965,0.0044345823,-0.00048239395,-0.024086505,0.009917533,-0.0010014251,0.0,0.0,0.0004096012,-0.00047446816,-0.0023465075,-0.00020166195,-0.00016749371,0.00011739112,0.01753069,0.0,0.0,0.0,0.0,0.0,0.0,0.0,0.0,0.100409605,0.00994741,0.009937671,9.6075884e-05,0.036805514,0.03683971,0.00034902504,0.00013025827,0.0001302864,20.00002,0.00011124483,0.0001112448,9.052998e-05,0.039979413,0.03998033,0.0043116487,0.0025000002,0.0025000002,0.0025000002,0.0025000002,0.0025000002,0.0025000002,1.0,1.0,0.010000001,25
4756000,4604000,0.9999861,0.0027324515,0.004472347,-0.00052106107,-0.024631191,0.010009906,-0.0014854074,0.0,0.0,0.00039965386,-0.00047446816,-0.0023465075,-0.00020166195,-0.00016749371,0.00011739112,0.01753069,0.0,0.0,0.0,0.0,0.0,0.0,0.0,0.0,0.10039966,0.0099492455,0.009939505,9.757394e-05,0.039948687,0.0399858,0.00037024703,0.00014949513,0.00014954113,20.00002,0.000111244895,0.000111244866,9.053005e-05,0.039979413,0.03998033,0.004311649,0.0025000002,0.0025000002,0.0025000002,0.0025000002,0.0025000002,0.0025000002,1.0,1.0,0.010000001,25
4764000,4612000,0.9999986,0.00038001782,-0.0015233626,-0.00052907673,-6.1317775e-07,2.3839598e-07,-8.749426e-06,0.0,0.0,0.00036010946,-0.00042756944,-0.0022227224,-0.00020193015,-0.005130529,0.0019866428,0.013396995,0.0,0.0,0.0,0.0,0.0,0.0,0.0,0.0,0.100388855,0.00044688777,0.00044681286,9.908341e-05,1e-06,1e-06,1.0031126e-06,0.00010003896,0.00010003897,20.00002,0.00011022279,0.00011022313,9.0530106e-05,0.038433436,0.038435217,0.002235337,0.0025000002,0.0025000002,0.0025000002,0.0025000002,0.0025000002,0.0025000002,1.0,1.0,0.010000001,25
4780000,4628000,0.9999987,0.00035394324,-0.0014840863,-0.00050458754,0.00044066514,-0.00087394717,-0.0007929818,0.0,0.0,0.00035203836,-0.00042776612,-0.0022228183,-0.00020193972,-0.005152281,0.0020298753,0.013397001,0.0,0.0,0.0,0.0,0.0,0.0,0.0,0.0,0.10035204,0.0004470718,0.00044699726,0.00010213717,1.8096955e-05,1.8097526e-05,1.7328694e-05,0.00010004108,0.000100041085,20.00002,0.00011022229,0.00011022263,9.053024e-05,0.038403004,0.038404785,0.0022353379,0.0025000002,0.0025000002,0.0025000002,0.0025000002,0.0025000002,0.0025000002,1.0,1.0,0.010000001,25
4788000,4636000,0.9999988,0.00029270412,-0.0014764945,-0.0005305003,0.000722106,0.00011906537,-0.0015167542,0.0,0.0,0.00034280107,-0.00042752663,-0.0022228858,-0.00020192323,-0.005166136,0.0019809841,0.013397087,0.0,0.0,0.0,0.0,0.0,0.0,0.0,0.0,0.1003428,0.00044718458,0.00044711021,0.00010368143,2.760668e-05,2.7608414e-05,2.5920297e-05,0.00010004427,0.00010004428,20.00002,0.00011022199,0.00011022233,9.05303e-05,0.038387805,0.038389586,0.0022353383,0.0025000002,0.0025000002,0.0025000002,0.0025000002,0.0025000002,0.0025000002,1.0,1.0,0.010000001,25
4796000,4644000,0.99999875,0.00025462944,-0.0014429579,-0.0005734159,0.0011368991,0.00083996437,-0.001809432,0.0,0.0,0.0003294986,-0.0004273438,-0.0022229908,-0.00020190966,-0.0051866625,0.0019453056,0.013397176,0.0,0.0,0.0,0.0,0.0,0.0,0.0,0.0,0.1003295,0.0004473115,0.0004472373,0.000105237326,3.774857e-05,3.7751855e-05,3.4798853e-05,0.00010005052,0.00010005053,20.00002,0.000110221656,0.000110222,9.053037e-05,0.038372617,0.038374398,0.0022353388,0.0025000002,0.0025000002,0.0025000002,0.0025000002,0.0025000002,0.0025000002,1.0,1.0,0.010000001,25
4804000,4652000,0.99999887,0.0002828096,-0.0014228084,-0.00052515726,0.0009859041,0.0012495257,-0.0017639276,0.0,0.0,0.0003152044,-0.00042723495,-0.0022229506,-0.00020190478,-0.0051791607,0.0019249553,0.01339718,0.0,0.0,0.0,0.0,0.0,0.0,0.0,0.0,0.100315206,0.00044745204,0.00044737803,0.000106804764,4.8520546e-05,4.8525086e-05,4.3963173e-05,0.00010006122,0.000100061225,20.00002,0.000110221285,0.00011022163,9.053043e-05,0.03835744,0.03835922,0.0022353393,0.0025000002,0.0025000002,0.0025000002,0.0025000002,0.0025000002,0.0025000002,1.0,1.0,0.010000001,25
4820000,4668000,0.9999988,0.00030340313,-0.0014270146,-0.00045907003,0.0018722756,0.0009832999,-0.0011146913,0.0,0.0,0.00029329068,-0.00042731225,-0.0022232027,-0.00020190208,-0.005223325,0.0019381854,0.013397272,0.0,0.0,0.0,0.0,0.0,0.0,0.0,0.0,0.10029329,0.0004477747,0.00044770102,0.00010997445,7.196844e-05,7.197757e-05,6.3150095e-05,0.00010010209,0.000100102094,20.00002,0.00011022043,0.000110220775,9.0530564e-05,0.03832712,0.0383289,0.0022353402,0.0025000002,0.0025000002,0.0025000002,0.0025000002,0.0025000002,0.0025000002,1.0,1.0,0.010000001,25
4828000,4676000,0.9999988,0.00031779017,-0.0014891492,-0.00042577402,0.002371936,0.00080674706,-0.001072434,0.0,0.0,0.0002845448,-0.000427365,-0.0022233522,-0.00020190094,-0.0052481256,0.0019469477,0.013397322,0.0,0.0,0.0,0.0,0.0,0.0,0.0,0.0,0.10028455,0.00044795658,0.00044788307,0.00011157664,8.4682266e-05,8.469434e-05,7.3172996e-05,0.00010013562,0.00010013564,20.00002,0.000110219946,0.00011022029,9.053063e-05,0.038311977,0.038313758,0.0022353407,0.0025000002,0.0025000002,0.0025000002,0.0025000002,0.0025000002,0.0025000002,1.0,1.0,0.010000001,25
4836000,4684000,0.99999887,0.00027160224,-0.0014383051,-0.00044632223,0.0017552546,0.0011871948,-0.0016029311,0.0,0.0,0.00027384015,-0.00042724787,-0.002223162,-0.00020190001,-0.0052177487,0.0019282077,0.013397269,0.0,0.0,0.0,0.0,0.0,0.0,0.0,0.0,0.10027384,0.00044815242,0.00044807905,0.00011319047,9.8097145e-05,9.811055e-05,8.348087e-05,0.00010018036,0.0001001804,20.00002,0.00011021942,0.000110219764,9.0530695e-05,0.038296845,0.038298625,0.0022353411,0.0025000002,0.0025000002,0.0025000002,0.0025000002,0.0025000002,0.0025000002,1.0,1.0,0.010000001,25
4844000,4692000,0.99999887,0.0003015001,-0.0014250258,-0.00043747708,0.0014347363,0.0013842498,-0.0010265037,0.0,0.0,0.00026332072,-0.00042718413,-0.0022230581,-0.00020189954,-0.0052017407,0.001918366,0.013397241,0.0,0.0,0.0,0.0,0.0,0.0,0.0,0.0,0.10026332,0.000448362,0.0004482888,0.000114815884,0.00011209652,0.00011211179,9.407531e-05,0.00010023833,0.000100238365,20.00002,0.000110218854,0.000110219196,9.053076e-05,0.038281724,0.038283505,0.0022353416,0.0025000002,0.0025000002,0.0025000002,0.0025000002,0.0025000002,0.0025000002,1.0,1.0,0.010000001,25
4860000,4708000,0.9999989,0.00027501784,-0.0014034546,-0.00035812662,0.0016528752,0.0021196592,-0.0007424935,0.0,0.0,-488.101,-0.00042693343,-0.002223136,-0.00020188726,-0.0052122464,0.0018819853,0.013397306,0.0,0.0,0.0,0.0,0.0,0.0,0.0,0.0,-488.001,0.00044882204,0.00044874923,0.000118101416,0.00014217426,0.00014219603,0.00011612433,2.0,2.0,1.0,0.00011021758,0.00011021792,9.053089e-05,0.038251515,0.03825329,0.0022353425,0.0025000002,0.0025000002,0.0025000002,0.0025000002,0.0025000002,0.0025000002,1.0,1.0,0.010000001,25
4868000,4716000,0.9999989,0.00021363703,-0.0014169572,-0.00034494686,0.0021922765,0.0019406995,-0.0002021223,0.0,0.0,-488.101,-0.00042699723,-0.0022233287,-0.00020188579,-0.0052391486,0.0018909095,0.013397361,0.0,0.0,0.0,0.0,0.0,0.0,0.0,0.0,-488.001,0.00044907263,0.00044899998,0.000119761564,0.00015819182,0.00015821808,0.00012757751,2.0,2.0,1.0,0.000110216875,0.00011021722,9.053096e-05,0.038236428,0.038238198,0.002235343,0.0025000002,0.0025000002,0.0025000002,0.0025000002,0.0025000002,0.0025000002,1.0,1.0,0.010000001,25
4876000,4724000,0.999999,0.00022716192,-0.0013827338,-0.00034283518,0.002666227,0.001471468,0.00027090247,0.0,0.0,-488.101,-0.00042716978,-0.0022235033,-0.00020188904,-0.0052627577,0.0019142844,0.013397392,0.0,0.0,0.0,0.0,0.0,0.0,0.0,0.0,-488.001,0.0004493369,0.00044926442,0.000121433295,0.00017490027,0.000174931,0.00013931638,2.0,2.0,1.0,0.00011021612,0.00011021646,9.053102e-05,0.03822135,0.038223118,0.0022353434,0.0025000002,0.0025000002,0.0025000002,0.0025000002,0.0025000002,0.0025000002,1.0,1.0,0.010000001,25
4884000,4732000,0.9999991,0.00022277253,-0.0013698075,-0.00029281652,0.0033357549,0.0012766633,-3.595041e-05,0.0,0.0,-488.101,-0.00042724278,-0.0022237548,-0.00020188681,-0.0052957693,0.0019238878,0.013397461,0.0,0.0,0.0,0.0,0.0,0.0,0.0,0.0,-488.001,0.00044961477,0.00044954248,0.00012311662,0.00019239495,0.00019243149,0.00015134261,2.0,2.0,1.0,0.00011021531,0.00011021565,9.053109e-05,0.038206287,0.03820805,0.002235344,0.0025000002,0.0025000002,0.0025000002,0.0025000002,0.0025000002,0.0025000002,1.0,1.0,0.010000001,25
4900000,4748000,0.9999991,0.00022895976,-0.0013626602,-0.0002742556,0.0046396507,0.0012769678,-7.501756e-05,0.0,0.0,-488.101,-0.00042724362,-0.0022242677,-0.00020187692,-0.00536028,0.0019237532,0.013397616,0.0,0.0,0.0,0.0,0.0,0.0,0.0,0.0,-488.001,0.0004502118,0.00045013987,0.00012651813,0.00022944575,0.00022949566,0.00017625505,2.0,2.0,1.0,0.000110213536,0.00011021388,9.053122e-05,0.03817619,0.038177945,0.0022353448,0.0025000002,0.0025000002,0.0025000002,0.0025000002,0.0025000002,0.0025000002,1.0,1.0,0.010000001,25
4908000,4756000,0.9999991,0.00025201295,-0.0013628952,-0.00026308355,0.0049859216,0.0006340435,4.8687816e-06,0.0,0.0,-488.101,-0.00042750748,-0.00222441,-0.00020188358,-0.0053774207,0.001955581,0.013397622,0.0,0.0,0.0,0.0,0.0,0.0,0.0,0.0,-488.001,0.0004505308,0.00045045902,0.00012823628,0.00024903627,0.00024909133,0.00018913874,2.0,2.0,1.0,0.00011021257,0.00011021291,9.0531285e-05,0.03816116,0.03816291,0.0022353453,0.0025000002,0.0025000002,0.0025000002,0.0025000002,0.0025000002,0.0025000002,1.0,1.0,0.010000001,25
4916000,4764000,0.999999,0.0002837218,-0.0013555334,-0.0003051596,0.005006281,-2.8537543e-05,5.509917e-05,0.0,0.0,-488.101,-0.0004277867,-0.0022244188,-0.000201893,-0.0053784274,0.0019883604,0.013397588,0.0,0.0,0.0,0.0,0.0,0.0,0.0,0.0,-488.001,0.00045086333,0.00045079176,0.00012996604,0.00026936014,0.00026941887,0.0002023076,2.0,2.0,1.0000001,0.00011021154,0.000110211884,9.053135e-05,0.03814614,0.038147885,0.0022353458,0.0025000002,0.0025000002,0.0025000002,0.0025000002,0.0025000002,0.0025000002,1.0,1.0,0.010000001,25
4924000,4772000,0.999999,0.00028022978,-0.0013400889,-0.00032597722,0.005428315,-0.00012862457,-6.0897426e-05,0.0,0.0,-488.101,-0.0004278298,-0.002224601,-0.00020189123,-0.005399254,0.0019932985,0.013397633,0.0,0.0,0.0,0.0,0.0,0.0,0.0,0.0,-488.001,0.00045120923,0.00045113784,0.00013170732,0.0002904483,0.00029051377,0.00021576477,2.0,2.0,1.0000004,0.00011021046,0.0001102108,9.0531415e-05,0.03813113,0.038132872,0.0022353462,0.0025000002,0.0025000002,0.0025000002,0.0025000002,0.0025000002,0.0025000002,1.0,1.0,0.010000001,25
4940000,4788000,0.99999887,0.00037296332,-0.001456865,-0.00038091134,0.006175175,0.0013208027,0.0004883296,0.0,0.0,-488.101,-0.0012831364,-0.0014776605,-0.00014246334,-0.0051674685,0.0022289667,0.013398752,0.0,0.0,0.0,0.0,0.0,0.0,0.0,0.0,-488.001,0.000448155,0.0004480862,9.705356e-05,0.0003305794,0.0003306448,0.00024353761,2.0000007,2.0000007,1.0000008,7.397441e-05,7.397458e-05,6.455642e-05,0.0380969,0.038098633,0.0022353448,0.0025000002,0.0025000002,0.0025000002,0.0025000002,0.0025000002,0.0025000002,1.0,1.0,0.010000001,25
4948000,4796000,0.99999887,0.0003872053,-0.0014667108,-0.00038437077,0.006441454,0.0014195791,0.0002714822,0.0,0.0,-488.101,-0.0012831056,-0.0014777434,-0.00014246094,-0.005180565,0.002224107,0.013398789,0.0,0.0,0.0,0.0,0.0,0.0,0.0,0.0,-488.001,0.0004483555,0.00044828685,9.832418e-05,0.0003533793,0.0003534506,0.00025785278,2.0000012,2.0000012,1.0000011,7.3973875e-05,7.397405e-05,6.455649e-05,0.03808196,0.038083687,0.0022353453,0.0025000002,0.0025000002,0.0025000002,0.0025000002,0.0025000002,0.0025000002,1.0,1.0,0.010000001,25
4956000,4804000,0.9999988,0.00042610566,-0.001486374,-0.00036862434,0.006819591,0.0014518445,2.6175796e-05,0.0,0.0,-488.101,-0.0012830952,-0.001477864,-0.00014245861,-0.0051991506,0.0022225198,0.013398835,0.0,0.0,0.0,0.0,0.0,0.0,0.0,0.0,-488.001,0.0004485651,0.00044849663,9.960306e-05,0.0003769086,0.00037698646,0.00027245455,2.0000017,2.0000017,1.0000013,7.3973315e-05,7.397349e-05,6.455655e-05,0.038067028,0.038068753,0.0022353458,0.0025000002,0.0025000002,0.0025000002,0.0025000002,0.0025000002,0.0025000002,1.0,1.0,0.010000001,25
4964000,4812000,0.99999875,0.00049780414,-0.0014953007,-0.00035655443,0.0072277356,0.0010085731,0.000120510114,0.0,0.0,-488.101,-0.0012832404,-0.0014779979,-0.00014246089,-0.005219291,0.002244394,0.01339886,0.0,0.0,0.0,0.0,0.0,0.0,0.0,0.0,-488.001,0.00044878377,0.0004487155,0.000100890196,0.00040109988,0.00040118396,0.00028734186,2.0000021,2.0000021,1.0000015,7.3972726e-05,7.39729e-05,6.455662e-05,0.03805211,0.03805383,0.0022353462,0.0025000002,0.0025000002,0.0025000002,0.0025000002,0.0025000002,0.0025000002,1.0,1.0,0.010000001,25
4980000,4828000,0.99999875,0.00051155436,-0.0014919305,-0.0004211152,0.0073677716,0.0011489784,-0.0001664954,0.0,0.0,-488.101,-0.0012824947,-0.0014837577,-0.00014226863,-0.0052222577,0.0022390438,0.013400335,0.0,0.0,0.0,0.0,0.0,0.0,0.0,0.0,-488.001,0.00044896326,0.0004488955,0.000103489096,0.0004471112,0.00044720515,0.00031564603,2.000003,2.000003,1.0000024,7.394613e-05,7.3946285e-05,6.455662e-05,0.038022246,0.03802397,0.00222993,0.0025000002,0.0025000002,0.0025000002,0.0025000002,0.0025000002,0.0025000002,1.0,1.0,0.010000001,25
4988000,4836000,0.9999987,0.0005324803,-0.0015217263,-0.0004037998,0.006983216,0.0015061785,-0.0009500597,0.0,0.0,-488.101,-0.0012823716,-0.0014836249,-0.00014226716,-0.0052035106,0.0022216307,0.01340031,0.0,0.0,0.0,0.0,0.0,0.0,0.0,0.0,-488.001,0.00044920805,0.00044914047,0.00010480102,0.00047353256,0.0004736305,0.0003313315,2.0000036,2.0000036,1.0000029,7.3945455e-05,7.394561e-05,6.455668e-05,0.03800736,0.038009085,0.0022299304,0.0025000002,0.0025000002,0.0025000002,0.0025000002,0.0025000002,0.0025000002,1.0,1.0,0.010000001,25
4996000,4844000,0.9999987,0.000545591,-0.0015054882,-0.00038221208,0.0063062245,0.0010580673,-0.001385784,0.0,0.0,-488.101,-0.0012825304,-0.0014833855,-0.0001422752,-0.005170374,0.0022435696,0.013400206,0.0,0.0,0.0,0.0,0.0,0.0,0.0,0.0,-488.001,0.00044946186,0.00044939446,0.00010612122,0.0005006363,0.00050073536,0.0003472998,2.0000043,2.0000043,1.0000033,7.394474e-05,7.3944895e-05,6.455675e-05,0.03799249,0.03799421,0.0022299308,0.0025000002,0.0025000002,0.0025000002,0.0025000002,0.0025000002,0.0025000002,1.0,1.0,0.010000001,25
5004000,4852000,0.9999987,0.00059296575,-0.0014984363,-0.00037975618,0.006700603,0.0013006637,-0.0009939598,0.0,0.0,-488.101,-0.0012824417,-0.0014835293,-0.00014227066,-0.005189877,0.0022315702,0.013400266,0.0,0.0,0.0,0.0,0.0,0.0,0.0,0.0,-488.001,0.00044972473,0.0004496575,0.000107449676,0.00052829785,0.00052840495,0.00036355987,2.0000052,2.0000052,1.0000038,7.3944e-05,7.394415e-05,6.4556814e-05,0.03797763,0.037979346,0.0022299313,0.0025000002,0.0025000002,0.0025000002,0.0025000002,0.0025000002,0.0025000002,1.0,1.0,0.010000001,25
5020000,4868000,0.9999986,0.00065830146,-0.0015455445,-0.0003509574,0.0071358983,0.0006969923,-0.00075853936,0.0,0.0,-488.101,-0.0012826677,-0.0014836923,-0.00014227426,-0.005211322,0.002261306,0.013400284,0.0,0.0,0.0,0.0,0.0,0.0,0.0,0.0,-488.001,0.00045027744,0.0004502106,0.0001101314,0.00058605126,0.000586171,0.000396933,2.0000072,2.0000072,1.0000051,7.394241e-05,7.394256e-05,6.4556945e-05,0.03794794,0.03794965,0.0022299322,0.0025000002,0.0025000002,0.0025000002,0.0025000002,0.0025000002,0.0025000002,1.0,1.0,0.010000001,25
