timestamp,timestamp_sample,gyro_device_id,gyro_bias[0],gyro_bias[1],gyro_bias[2],gyro_bias_limit,gyro_bias_variance[0],gyro_bias_variance[1],gyro_bias_variance[2],accel_device_id,accel_bias[0],accel_bias[1],accel_bias[2],accel_bias_limit,accel_bias_variance[0],accel_bias_variance[1],accel_bias_variance[2],mag_device_id,mag_bias[0],mag_bias[1],mag_bias[2],mag_bias_limit,mag_bias_variance[0],mag_bias_variance[1],mag_bias_variance[2],gyro_bias_valid,gyro_bias_stable,accel_bias_valid,accel_bias_stable,mag_bias_valid,mag_bias_stable
3732000,3732000,1310988,0.0,0.0,0.0,0.15,0.010000001,0.010000001,0.009993605,1310988,0.0,0.0,0.0,0.4,0.040000003,0.040000003,0.040000003,197388,0.0,0.0,0.0,0.5,0.0025000002,0.0025000002,0.0025000002,1,0,1,0,1,0
4532000,4380000,1310988,-0.001887406,-0.0022633865,-0.0011874713,0.15,0.00022003641,0.00022003762,0.00017783021,1310988,-3.5281668e-05,2.3208531e-05,1.3611613e-05,0.4,0.03998157,0.03998157,0.039939214,197388,0.0,0.0,0.0,0.5,0.0025000002,0.0025000002,0.0025000002,1,0,1,0,1,0
4556000,4404000,1310988,-0.0018848412,-0.0022580985,-0.0011874826,0.15,0.00022003555,0.0002200343,0.00017783038,1310988,-0.00016749563,0.000120836354,0.017559567,0.4,0.039979413,0.03998033,0.0043119565,197388,0.0,0.0,0.0,0.5,0.0025000002,0.0025000002,0.0025000002,1,0,1,0,1,0
4732000,4580000,1310988,-0.00047446816,-0.0023465075,-0.00020166195,0.15,0.0001112447,0.00011124467,9.052985e-05,1310988,-0.00016749371,0.00011739112,0.01753069,0.4,0.039979413,0.03998033,0.0043116477,197388,0.0,0.0,0.0,0.5,0.0025000002,0.0025000002,0.0025000002,1,0,1,0,1,0
4764000,4612000,1310988,-0.00042756944,-0.0022227224,-0.00020193015,0.15,0.00011022279,0.00011022313,9.0530106e-05,1310988,-0.005130529,0.0019866428,0.013396995,0.4,0.038433436,0.038435217,0.002235337,197388,0.0,0.0,0.0,0.5,0.0025000002,0.0025000002,0.0025000002,1,0,1,0,1,0
4932000,4780000,1310988,-0.0012833449,-0.0014776965,-0.00014246962,0.15,7.3974916e-05,7.397509e-05,6.4556356e-05,1310988,-0.005173261,0.0022627113,0.013398728,0.4,0.038111854,0.03811359,0.0022353444,197388,0.0,0.0,0.0,0.5,0.0025000002,0.0025000002,0.0025000002,1,0,1,0,1,0
5332000,5180000,1310988,-0.001042053,-0.0018948308,0.0010470831,0.15,4.459389e-05,4.4593948e-05,4.10202e-05,1310988,-0.0058261403,0.0024311051,0.013361823,0.4,0.037376832,0.037378445,0.0022088247,197388,0.0,0.0,0.0,0.5,0.0025000002,0.0025000002,0.0025000002,1,0,1,0,1,0
5732000,5580000,1310988,-0.00020365512,-0.0005451906,0.00073738146,0.15,3.178234e-05,3.178235e-05,3.0061758e-05,1310988,-0.0061179395,0.0021720193,0.013174691,0.4,0.036675762,0.03667735,0.0020890804,197388,0.0,0.0,0.0,0.5,0.0025000002,0.0025000002,0.0025000002,1,0,1,0,1,0
5956000,5804000,1310988,-0.00042713716,-0.00065138296,0.0005317392,0.15,2.6509719e-05,2.651233e-05,2.6519718e-05,1310988,-0.0069751726,0.0012876822,0.01290687,0.4,0.035743408,0.03593601,0.001985656,197388,0.00027965833,0.0007751147,-0.00018810999,0.5,0.001961147,0.0016761199,0.0016689703,1,0,1,0,1,0
6060000,5908000,1310988,-0.00041687125,-0.00065251335,0.0005319542,0.15,2.6209014e-05,2.6212387e-05,2.6520447e-05,1310988,-0.006195981,0.0006317093,0.01281768,0.4,0.0333384,0.03354897,0.0018326058,197388,0.0004460035,0.00046694162,-0.00015346578,0.5,0.0018827335,0.0015125182,0.0015030184,1,0,1,0,1,0
6468000,6316000,1310988,-0.00037854936,-0.00046764364,0.000825827,0.15,2.1062959e-05,2.1064918e-05,2.1461874e-05,1310988,-0.004283373,-0.0035739522,0.01316974,0.4,0.026813118,0.026975911,0.0017878695,197388,0.000101428624,0.0007282294,-0.0002315813,0.5,0.0017605731,0.0013372395,0.0013267921,1,0,1,0,1,0
6860000,6708000,1310988,-0.00061830645,-0.0003779414,0.00092277525,0.15,1.7581136e-05,1.7581668e-05,1.8019964e-05,1310988,-0.0011751116,-0.009928606,0.012504902,0.4,0.018312637,0.018390914,0.0017216806,197388,0.00014356911,0.0009506631,-0.0004928159,0.5,0.001713372,0.0013028966,0.0012953626,1,0,1,0,1,0
7132000,6980000,1310988,-0.00033533032,-0.00056917424,0.0009474879,0.15,1.5206767e-05,1.5207163e-05,1.5529537e-05,1310988,-0.0019982152,-0.008305695,0.012505053,0.4,0.018245084,0.018323252,0.0017196765,197388,0.00020571219,0.0008057189,-0.0006098056,0.5,0.0016985025,0.0012955607,0.0012879896,1,0,1,0,1,0
7260000,7108000,1310988,-0.0003307218,-0.0005785591,0.0009461142,0.15,1.5096368e-05,1.5095893e-05,1.5526679e-05,1310988,-0.00078860344,-0.010353691,0.011332691,0.4,0.012247602,0.012285779,0.0016318702,197388,0.00021350745,0.0007698123,-0.00063962786,0.5,0.0016888718,0.0012887679,0.0012835255,1,0,1,0,1,0
7332000,7180000,1310988,-2.6597269e-05,-0.00054328097,0.0010269391,0.15,1.4147668e-05,1.4147247e-05,1.4522949e-05,1310988,-0.0028752543,-0.0098677445,0.0113440575,0.4,0.012202718,0.01224084,0.0016311351,197388,0.00034374325,0.0007804655,-0.0008409724,0.5,0.0016851836,0.0012871951,0.0012819591,1,0,1,0,1,0
7532000,7380000,1310988,0.00014200555,-0.00044604135,0.00095120503,0.15,1.3312118e-05,1.3311742e-05,1.3637621e-05,1310988,-0.0041974923,-0.0100461235,0.011318439,0.4,0.0121626565,0.012200617,0.0016281932,197388,0.00033473407,0.0007104144,-0.00072648504,0.5,0.0016754743,0.0012833312,0.0012780705,1,0,1,0,1,0
7660000,7508000,1310988,0.00014729264,-0.00044316263,0.0009570164,0.15,1.3217028e-05,1.32159375e-05,1.3633541e-05,1310988,-0.0035436673,-0.00922048,0.010509902,0.4,0.008789597,0.008818451,0.0015203878,197388,0.00040313374,0.0007876172,-0.0007538685,0.5,0.001668801,0.0012794645,0.0012755321,1,0,1,0,1,0
8060000,7908000,1310988,0.0001310486,-0.00039298573,0.0007267078,0.15,1.1722256e-05,1.1720858e-05,1.214669e-05,1310988,-0.0007173591,-0.010022835,0.009546553,0.4,0.0068787197,0.006907197,0.001392068,197388,0.00040964474,0.001024265,-0.0006699198,0.5,0.0016542834,0.0012738311,0.0012706174,1,0,1,0,1,0
8132000,7980000,1310988,0.0001509398,-0.00053649454,0.00077038346,0.15,1.1142299e-05,1.1141018e-05,1.1522033e-05,1310988,-0.0007721548,-0.008719222,0.009554921,0.4,0.0068335915,0.0068618646,0.0013905121,197388,0.00040138996,0.0008962855,-0.0006198483,0.5,0.0016523361,0.0012732096,0.0012700042,1,0,1,0,1,0
8388000,8236000,1310988,8.492016e-05,-0.0004667722,0.0004948852,0.15,1.0618443e-05,1.0617256e-05,1.0950018e-05,1310988,-0.00026256396,-0.00961066,0.009550434,0.4,0.0067895222,0.0068180365,0.0013824549,197388,0.0005019779,0.001019429,-0.0007240677,0.5,0.0016454569,0.0012711245,0.0012679036,1,0,1,0,1,0
8460000,8308000,1310988,8.834545e-05,-0.00048889796,0.00049218273,0.15,1.0483394e-05,1.0481528e-05,1.0946969e-05,1310988,0.0012155117,-0.010713926,0.008541426,0.4,0.0057885866,0.00581806,0.001254361,197388,0.0005132635,0.001044827,-0.0007222097,0.5,0.0016435188,0.0012701193,0.0012673103,1,0,1,0,1,0
8732000,8580000,1310988,0.00015360789,-0.0004096927,0.00031878368,0.15,9.591703e-06,9.590067e-06,9.964616e-06,1310988,0.00034516948,-0.011432957,0.008545516,0.4,0.0057038767,0.005733246,0.0012433153,197388,0.0005653791,0.0009078833,-0.000622023,0.5,0.0016378757,0.0012685079,0.0012657034,1,0,1,0,1,0
9132000,8980000,1310988,0.000351855,-0.00018693796,0.00012654797,0.15,8.692468e-06,8.689942e-06,9.13893e-06,1310988,-0.0013161903,-0.012864525,0.008401392,0.4,0.005057996,0.0050887065,0.0011027652,197388,0.000603188,0.0009315013,-0.00048625917,0.5,0.0016317496,0.0012665566,0.0012639995,1,0,1,0,1,0
9260000,9108000,1310988,0.00033697337,-0.00018504378,0.00012848632,0.15,8.473072e-06,8.468737e-06,9.131733e-06,1310988,-0.0017523192,-0.013285714,0.007065789,0.4,0.0047297245,0.004762407,0.0009778535,197388,0.0006096442,0.00090865727,-0.00050090736,0.5,0.0016294639,0.0012658028,0.0012633936,1,0,1,0,1,0
9380000,9228000,1310988,0.00042084465,-0.00016847825,0.00015421043,0.15,8.166486e-06,8.1623875e-06,8.768252e-06,1310988,-0.0028411245,-0.013525614,0.007051831,0.4,0.0046901777,0.0047228616,0.0009728589,197388,0.00062263233,0.0008358829,-0.00047190595,0.5,0.001627514,0.0012652938,0.0012628789,1,0,1,0,1,0
10060000,9908000,1310988,0.00045217486,-0.0001420848,3.5855734e-05,0.15,6.8124596e-06,6.8035847e-06,7.819085e-06,1310988,-0.0019921283,-0.012554049,0.0069154873,0.4,0.0042704856,0.004306813,0.0007416028,197388,0.0006591096,0.0008355859,-0.00056841614,0.5,0.0016194633,0.0012631977,0.00126094,1,0,1,0,1,0
10428000,10276000,1310988,0.0005341717,-0.00013502603,0.00013809212,0.15,6.4262786e-06,6.4181418e-06,7.287637e-06,1310988,-0.0030301255,-0.01267473,0.00682901,0.4,0.0041996553,0.0042368933,0.0007253253,197388,0.00062295503,0.00084832584,-0.0006042833,0.5,0.0016155394,0.001262297,0.0012599801,1,0,1,0,1,0
10860000,10708000,1310988,0.00060260063,-8.7740074e-05,7.343828e-05,0.15,5.3598264e-06,5.344263e-06,6.819633e-06,1310988,-0.0040850346,-0.011703958,0.00643218,0.4,0.004009774,0.004047737,0.0005564827,197388,0.00059521734,0.00085091987,-0.00061976473,0.5,0.0016110889,0.0012613488,0.0012591418,1,0,1,0,1,0
10932000,10780000,1310988,0.00052421924,-0.0001061957,4.925969e-07,0.15,5.235668e-06,5.22066e-06,6.6148255e-06,1310988,-0.0031380171,-0.011166844,0.0064319093,0.4,0.003985728,0.004023319,0.0005544167,197388,0.00061238516,0.0008302943,-0.0006145827,0.5,0.0016105681,0.0012612281,0.0012590216,1,0,1,0,1,0
11660000,11508000,1310988,0.0007033958,-3.895547e-05,-7.3223884e-05,0.15,4.100797e-06,4.078126e-06,6.037995e-06,1310988,-0.0042015743,-0.0110669825,0.0057902676,0.4,0.0038205378,0.003856039,0.00042401205,197388,0.0006816761,0.0009362804,-0.0005671626,0.5,0.0016048985,0.0012600909,0.001257958,1,0,1,0,1,0
11932000,11780000,1310988,0.0006306964,-4.7466503e-05,-0.00017771329,0.15,3.9586566e-06,3.9372044e-06,5.713862e-06,1310988,-0.0033863771,-0.010487132,0.005767933,0.4,0.0037818642,0.0038174223,0.00041735906,197388,0.0006966011,0.0008917777,-0.0005587686,0.5,0.0016032932,0.0012597686,0.0012576166,1,0,1,0,1,0
12732000,12580000,1310988,0.0006539221,0.00010061508,-0.00023546547,0.15,2.740595e-06,2.712009e-06,5.139216e-06,1310988,-0.0029852071,-0.0115801655,0.0054785702,0.4,0.0036031427,0.0036308437,0.00030184418,197388,0.00073710206,0.0009848555,-0.00053467636,0.5,0.0015988896,0.001258754,0.0012567575,1,0,1,0,1,0
13132000,12980000,1310988,0.0006491811,3.480139e-05,-0.00027607285,0.15,2.378479e-06,2.3496152e-06,4.8868937e-06,1310988,-0.003732351,-0.010466775,0.0053212517,0.4,0.0035387408,0.0035634346,0.00027198857,197388,0.00071923627,0.00094825984,-0.0005681994,0.5,0.0015967768,0.001258324,0.0012563756,1,0,1,0,1,0
14132000,13980000,1310988,0.0005690255,7.102767e-05,-0.00037995732,0.15,1.7657584e-06,1.7398277e-06,4.3411424e-06,1310988,-0.0026470611,-0.010005848,0.005183023,0.4,0.003417723,0.00343581,0.00022213116,197388,0.00078457955,0.00095213216,-0.0005703653,0.5,0.0015927511,0.0012574483,0.0012555957,1,0,1,0,1,0
15132000,14980000,1310988,0.0005474369,0.00010706158,-0.00044897644,0.15,1.1638376e-06,1.1459504e-06,3.8910953e-06,1310988,-0.0022416369,-0.010060805,0.0046727117,0.4,0.0032961944,0.0033048699,0.00017521135,197388,0.0008500574,0.0009862513,-0.0005447517,0.5,0.0015890205,0.0012566687,0.0012549828,1,1,1,0,1,0
16132000,15980000,1310988,0.00051449373,0.00013553887,-0.0003954947,0.15,8.345605e-07,8.24253e-07,3.512935e-06,1310988,-0.0014196442,-0.0103057055,0.0046644234,0.4,0.003217347,0.0032194417,0.00014564783,197388,0.0008709819,0.0010077608,-0.00050031417,0.5,0.0015857817,0.0012560455,0.0012544981,1,1,1,0,1,0
16868000,16716000,1310988,0.00047539175,0.00018352315,-0.00033041125,0.15,6.7670004e-07,6.705975e-07,3.3051192e-06,1310988,-0.00048103364,-0.010925832,0.004507097,0.4,0.0031759501,0.0031740626,0.00013012208,197388,0.000768301,0.0009776277,-0.0005118664,0.5,0.0015841249,0.0012556706,0.0012541957,1,1,1,0,1,0
17740000,17588000,1310988,0.00042025198,0.00019138871,-0.0002835932,0.15,5.5847283e-07,5.5525317e-07,3.0155627e-06,1310988,0.0004205272,-0.010491062,0.004481086,0.4,0.0031408335,0.003135577,0.0001172971,197388,0.00082228455,0.00095628767,-0.00049546425,0.5,0.0015823134,0.0012552454,0.0012538574,1,1,1,0,1,0
18740000,18588000,1310988,0.00039945377,0.00020963694,-0.00026763944,0.15,4.738046e-07,4.7241042e-07,2.7601711e-06,1310988,0.00082859246,-0.010688381,0.0044520036,0.4,0.0031129906,0.0031051226,0.000106238935,197388,0.00077293324,0.00092956744,-0.0004922986,0.5,0.0015804449,0.0012548403,0.0012535591,1,1,1,0,1,0
19740000,19588000,1310988,0.00036726304,0.00023070633,-0.00023946568,0.15,3.8506232e-07,3.851593e-07,2.5339414e-06,1310988,0.0016731343,-0.010672781,0.004397242,0.4,0.0030827655,0.0030725275,9.4309806e-05,197388,0.00075812795,0.00092588336,-0.0004626477,0.5,0.0015786771,0.0012544573,0.0012532936,1,1,1,0,1,0
20740000,20588000,1310988,0.00034640922,0.00026286335,-0.00023342784,0.15,3.3154586e-07,3.32105e-07,2.461557e-06,1310988,0.0024891975,-0.010940275,0.0042777644,0.4,0.0030617006,0.0030502942,8.5038606e-05,197388,0.0006965915,0.0009689598,-0.00045418102,0.5,0.0015778458,0.0012541423,0.0012530457,1,0,1,0,1,0
21740000,21588000,1310988,0.0003289502,0.00029062296,-0.00022225526,0.15,3.091165e-07,3.0974664e-07,2.3800285e-06,1310988,0.0032477202,-0.011143425,0.00432937,0.4,0.003049794,0.0030381859,7.961022e-05,197388,0.0006932492,0.0010022286,-0.00043023142,0.5,0.0015770649,0.0012538299,0.0012528275,1,0,1,0,1,0
22668000,22516000,1310988,0.0002923822,0.0003279782,-0.0002458552,0.15,2.7703032e-07,2.7776613e-07,2.3026575e-06,1310988,0.0043533915,-0.011202863,0.004350819,0.4,0.0030341349,0.003023002,7.321878e-05,197388,0.0007709194,0.0010515974,-0.00040110387,0.5,0.0015763219,0.0012535069,0.0012526064,1,0,1,0,1,0
23668000,23516000,1310988,0.00026892594,0.0003348956,-0.00025816684,0.15,2.615438e-07,2.622076e-07,2.2197746e-06,1310988,0.004931073,-0.010803728,0.0039335256,0.4,0.0030219923,0.003010768,6.909948e-05,197388,0.0012544859,0.0011322383,-0.00054500543,0.5,0.0015530373,0.0012506422,0.0012465708,1,0,1,0,1,0
24268000,24116000,1310988,0.00022810094,0.00034500138,-0.0002859305,0.15,2.4593865e-07,2.4634377e-07,2.1632861e-06,1310988,0.005794187,-0.010135321,0.0038685496,0.4,0.0030099642,0.002999516,6.568291e-05,197388,0.0014843189,0.001115434,-0.00051132427,0.5,0.0015444327,0.001249676,0.0012449326,1,0,1,0,1,0
25068000,24916000,1310988,0.00017829349,0.00035996965,-0.00029724932,0.15,2.3507064e-07,2.3541908e-07,2.0926273e-06,1310988,0.0067872303,-0.009535436,0.0038265234,0.4,0.0030001483,0.002991696,6.248137e-05,197388,0.0012285041,0.0011569972,-0.0004313388,0.5,0.0015345175,0.0012476787,0.0012426235,1,0,1,0,1,0
25268000,25116000,1310988,0.00017829276,0.00035996994,-0.00030346474,0.15,2.3667079e-07,2.3701922e-07,2.0810903e-06,1310988,0.006777941,-0.009528987,0.0038337396,0.4,0.003000075,0.002991631,6.2326224e-05,197388,0.0,0.0,0.0,0.5,0.0025000002,0.0025000002,0.0025000002,1,0,1,0,1,0
25340000,25188000,1310988,0.00017795655,0.0003601956,-0.00030397592,0.15,2.3717938e-07,2.37553e-07,2.0815298e-06,1310988,0.0068460074,-0.009496008,0.0038358355,0.4,0.0029981143,0.002990595,6.2270505e-05,197388,0.0011767694,0.0011563259,-7.230219e-05,0.5,0.0018312442,0.001500496,0.0014989856,1,0,1,0,1,0
25404000,25252000,1310988,0.00017767065,0.0003600163,-0.00030411166,0.15,2.3767419e-07,2.3805762e-07,2.0820082e-06,1310988,0.0068256976,-0.009457261,0.003842388,0.4,0.0029978098,0.002990339,6.2211955e-05,197388,0.00067671645,0.0018758348,0.0011450814,0.5,0.0017267037,0.001250887,0.0012484126,1,0,1,0,1,0
26068000,25916000,1310988,0.00011775346,0.00035714763,-0.00030179188,0.15,2.2170939e-07,2.2239098e-07,2.0805217e-06,1310988,0.007536997,-0.008680828,0.0039306846,0.4,0.002987946,0.0029829452,5.838551e-05,197388,0.0005565041,0.0016599337,0.00060439715,0.5,0.0016114898,0.0009296704,0.0009259516,1,0,1,0,1,0
27068000,26916000,1310988,9.107923e-05,0.00035719018,-0.0003027509,0.15,2.1770956e-07,2.185859e-07,2.0856166e-06,1310988,0.007903463,-0.008453561,0.0041487413,0.4,0.0029842257,0.0029799559,5.586322e-05,197388,0.00054318964,0.0016901839,1.1032384e-05,0.5,0.001593438,0.00087768724,0.0008737097,1,0,1,0,1,0
28068000,27916000,1310988,4.8274927e-05,0.00033717853,-0.00029779333,0.15,2.0785386e-07,2.0882239e-07,2.0900795e-06,1310988,0.008303885,-0.007877458,0.0040755896,0.4,0.0029792415,0.0029757665,5.262711e-05,197388,0.0009683089,0.0016086854,-0.00023711135,0.5,0.0015833249,0.0008622462,0.0008581825,1,0,1,0,1,0
28868000,28716000,1310988,-3.7563677e-05,0.0003143127,-0.0002932258,0.15,2.0298386e-07,2.0433346e-07,2.0929622e-06,1310988,0.009467691,-0.006805974,0.004047561,0.4,0.0029745216,0.0029725423,5.061071e-05,197388,0.0038637954,0.0012200269,-0.0006486719,0.5,0.0014304639,0.0008241714,0.0008198544,1,0,1,0,1,0
29268000,29116000,1310988,-0.00010520002,0.00030389024,-0.00029015163,0.15,2.0063877e-07,2.0528304e-07,2.093812e-06,1310988,0.010887054,-0.005810892,0.0040029604,0.4,0.0029697255,0.0029698825,4.9636154e-05,197388,0.0059091835,0.0015475907,-0.0008347554,0.5,0.0009146852,0.0007228579,0.0007377191,1,0,1,0,1,0
29668000,29516000,1310988,-0.00016040386,0.00029316108,-0.00028713513,0.15,1.9803284e-07,2.0726122e-07,2.0939115e-06,1310988,0.012277896,-0.0044732634,0.0039424533,0.4,0.0029606873,0.002965609,4.8700946e-05,197388,0.0037258381,0.0009646947,-0.0016709192,0.5,0.0005137763,0.0005716033,0.0006506716,1,0,1,0,1,0
30044000,29892000,1310988,-0.00016260133,0.000298066,-0.00028348222,0.15,2.0081211e-07,2.0859217e-07,2.0942164e-06,1310988,0.012556121,-0.0045583616,0.0039482876,0.4,0.0029551997,0.002964363,4.855201e-05,197388,0.0027391505,0.001000204,-0.0010925434,0.5,0.000424763,0.0004121614,0.00061510754,1,1,1,0,1,0
30068000,29916000,1310988,-0.00020606782,0.00029198304,-0.0002824175,0.15,1.9531828e-07,2.0842312e-07,2.0943492e-06,1310988,0.014202898,-0.0028612984,0.0038863728,0.4,0.002937232,0.0029561569,4.7802474e-05,197388,0.0003614777,0.00057069334,-0.00199911,0.5,0.00032115768,0.00040922745,0.00060456025,1,1,1,0,1,0
30332000,30180000,1310988,-0.00020621387,0.00029288372,-0.0002794333,0.15,1.9728525e-07,2.0887768e-07,2.09533e-06,1310988,0.014248426,-0.0029277457,0.0038920222,0.4,0.0029300663,0.0029545717,4.7721584e-05,197388,0.00023879786,0.0015946049,-0.0020567568,0.5,0.00027418608,0.00031302762,0.000595562,1,1,1,0,1,0
30468000,30316000,1310988,-0.00021988737,0.00028955677,-0.00028080025,0.15,1.9268168e-07,2.0914935e-07,2.0961415e-06,1310988,0.014145252,-0.001315615,0.0038011419,0.4,0.0028881608,0.002933228,4.6965735e-05,197388,-0.0020619852,0.0010007097,-0.0029996356,0.5,0.00022797739,0.00029102748,0.0005874346,1,1,1,0,1,0
30868000,30716000,1310988,-0.00020056852,0.0002804814,-0.00028707544,0.15,1.9026099e-07,2.086633e-07,2.0983343e-06,1310988,0.0104401065,-0.0008936997,0.0038054527,0.4,0.0027994202,0.0028782638,4.6129742e-05,197388,-0.0024400628,0.00022757765,-0.0033721176,0.5,0.0001626723,0.00019869223,0.0005774718,1,1,1,0,1,0
31268000,31116000,1310988,-0.00016500222,0.00027792325,-0.00029406016,0.15,1.8836649e-07,2.0765302e-07,2.1001035e-06,1310988,0.004602005,-0.0028646723,0.0038188363,0.4,0.0026753428,0.0027736062,4.5328383e-05,197388,-0.002317437,-0.0004248667,-0.0030544163,0.5,0.00012198857,0.0001437019,0.0005571595,1,1,1,0,1,0
31668000,31516000,1310988,-0.00014935332,0.00027289288,-0.00030063096,0.15,1.8726443e-07,2.0663741e-07,2.101077e-06,1310988,0.0013145623,-0.0033961127,0.0038245681,0.4,0.0025248898,0.0026184225,4.4555756e-05,197388,-0.0020374237,-0.00033490936,-0.00277044,0.5,0.00010044258,0.000114726536,0.00054607406,1,1,1,0,1,0
32068000,31916000,1310988,-0.00013809816,0.00027345016,-0.00030378342,0.15,1.8695577e-07,2.0548622e-07,2.1011017e-06,1310988,-0.00090648874,-0.004669035,0.003804547,0.4,0.0023537467,0.0024299647,4.3839198e-05,197388,-0.001816942,-0.00045002243,-0.0026674664,0.5,8.386322e-05,9.301747e-05,0.0005405756,1,1,1,0,1,0
32468000,32316000,1310988,-0.00013095493,0.00027803445,-0.0003028268,0.15,1.8739782e-07,2.0491063e-07,2.1005994e-06,1310988,-0.002009736,-0.0063702334,0.0037747053,0.4,0.002177857,0.0022330757,4.3122996e-05,197388,-0.0017290234,-0.0004801414,-0.0026136923,0.5,7.478742e-05,8.142216e-05,0.0005384752,1,1,1,0,1,0
33468000,33316000,1310988,-0.00013255487,0.00027650196,-0.00030421527,0.15,1.913755e-07,2.067607e-07,2.0977443e-06,1310988,-0.0012153642,-0.006046644,0.0037559774,0.4,0.0018469384,0.0018779234,4.173434e-05,197388,-0.0014517213,-0.0007215045,-0.0026082706,0.5,5.9979542e-05,6.2612766e-05,0.00053550705,1,1,1,0,1,0
33668000,33516000,1310988,-0.0001350465,0.0002744374,-0.00030271255,0.15,1.9154209e-07,2.0619309e-07,2.094654e-06,1310988,-0.00032739772,-0.0050488887,0.0037518756,0.4,0.0017068004,0.0017321281,4.11516e-05,197388,-0.0014320723,-0.00071876677,-0.0026216207,0.5,5.8085512e-05,6.0193906e-05,0.0005350555,1,1,1,0,1,0
34068000,33916000,1310988,-0.00013679621,0.00027102832,-0.00030097042,0.15,1.9348128e-07,2.0748573e-07,2.0918474e-06,1310988,0.000326573,-0.004004153,0.0037546526,0.4,0.0015846165,0.0016076113,4.053387e-05,197388,-0.0013750676,-0.0006396256,-0.0025669346,0.5,5.5387733e-05,5.682161e-05,0.0005343933,1,1,1,0,1,0
35068000,34916000,1310988,-0.00013834689,0.00027169366,-0.00028820708,0.15,1.9918235e-07,2.1215139e-07,2.0829245e-06,1310988,0.0010753935,-0.0038453818,0.0037728262,0.4,0.0013940147,0.0014155706,3.93418e-05,197388,-0.0014980208,-0.0004469231,-0.002505448,0.5,4.9926854e-05,5.0199968e-05,0.00053287874,1,1,1,0,1,0
35268000,35116000,1310988,-0.00013701408,0.0002669586,-0.00029060646,0.15,1.9970737e-07,2.1228934e-07,2.0778787e-06,1310988,0.0013467347,-0.0027559402,0.003792026,0.4,0.0013228098,0.0013440455,3.8840488e-05,197388,-0.001455264,-0.00038127726,-0.0024866497,0.5,4.903477e-05,4.9069105e-05,0.0005326326,1,1,1,0,1,0
36068000,35916000,1310988,-0.00013145384,0.00025699358,-0.00030660746,0.15,2.0369707e-07,2.1558274e-07,2.0648663e-06,1310988,0.001062316,-0.001048728,0.0037423354,0.4,0.0012157967,0.0012390445,3.7808033e-05,197388,-0.0013716229,-0.0004846883,-0.002490765,0.5,4.6392055e-05,4.5871893e-05,0.00053189835,1,1,1,0,1,0
37068000,36916000,1310988,-0.00013169182,0.00025309206,-0.0003024185,0.15,2.087466e-07,2.1984573e-07,2.0444238e-06,1310988,0.0016509197,-0.0007462887,0.0037599178,0.4,0.0011432908,0.0011724185,3.684093e-05,197388,-0.0013076186,-0.00041605224,-0.002452934,0.5,4.3843334e-05,4.2870794e-05,0.0005310798,1,1,1,0,1,0
38068000,37916000,1310988,-0.00012876347,0.0002483483,-0.00029474273,0.15,2.1118711e-07,2.2085565e-07,2.01298e-06,1310988,0.0016787759,-0.00012890097,0.0037600703,0.4,0.0010757691,0.0011196475,3.5596862e-05,197388,-0.0013137881,-0.00026224888,-0.0024823004,0.5,4.2170283e-05,4.0730338e-05,0.00053052534,1,1,1,0,1,0
39068000,38916000,1310988,-0.00013393149,0.00025616534,-0.00029474858,0.15,2.1441157e-07,2.2261733e-07,1.980712e-06,1310988,0.0018445915,-0.0006829806,0.0037791233,0.4,0.0010446579,0.0011023645,3.4824152e-05,197388,-0.0011540608,-0.0002650771,-0.002476282,0.5,4.0931474e-05,3.9190632e-05,0.00053005357,1,1,1,0,1,0
40068000,39916000,1310988,-0.00014298885,0.00026853028,-0.00029326597,0.15,2.1395651e-07,2.194684e-07,1.9351908e-06,1310988,0.0016474446,-0.0011453604,0.0037519601,0.4,0.0010106429,0.001090764,3.385022e-05,197388,-0.0010127451,-0.0003142974,-0.0025183845,0.5,3.9923852e-05,3.78681e-05,0.0005295956,1,1,1,0,1,1
40868000,40716000,1310988,-8.387445e-05,0.0003542801,-0.000396444,0.15,2.145527e-07,2.1532563e-07,1.8812837e-06,1310988,0.00068918115,-0.00019697925,0.0037042284,0.4,0.0009871651,0.0010838776,3.3252134e-05,197388,-0.0012954493,-0.00022751567,-0.0018037034,0.5,3.8583177e-05,3.6393718e-05,0.00045342295,1,1,1,0,1,1
41660000,41508000,1310988,-3.1790874e-05,0.0004547802,-0.00045474668,0.15,2.1644851e-07,2.0877513e-07,1.784369e-06,1310988,0.0006034241,0.0016429459,0.0036062514,0.4,0.0009580135,0.0010671786,3.270417e-05,197388,-0.001732335,-0.00042370622,-0.0019899851,0.5,3.738592e-05,3.435416e-05,0.00033177703,1,1,1,0,1,1
41868000,41716000,1310988,-1.7552908e-05,0.00048997835,-0.00044887984,0.15,2.1637328e-07,2.0531807e-07,1.7482163e-06,1310988,0.0004999761,0.002677412,0.0035486848,0.4,0.00094498525,0.0010578729,3.2482738e-05,197388,-0.001838109,-0.0005594915,-0.0020060262,0.5,3.703777e-05,3.3697237e-05,0.00030902892,1,1,1,0,1,1
42668000,42516000,1310988,-1.9852803e-05,0.0005027928,-0.0004246599,0.15,2.1853309e-07,2.0015253e-07,1.6528543e-06,1310988,-0.00044916268,0.0031827136,0.0035143902,0.4,0.00090345007,0.0010187612,3.2002954e-05,197388,-0.0018826007,-0.00063245423,-0.0019238492,0.5,3.497202e-05,3.1186377e-05,0.00025908655,1,1,1,0,1,1
43068000,42916000,1310988,-4.627562e-05,0.00047066988,-0.00038887872,0.15,2.192668e-07,1.9722737e-07,1.6071081e-06,1310988,-0.0029373427,0.0018756235,0.00357941,0.4,0.00087395293,0.0009894801,3.174043e-05,197388,-0.0018032858,-0.0005729997,-0.0014153824,0.5,3.30611e-05,2.9334858e-05,0.00024970033,1,1,1,0,1,1
43468000,43316000,1310988,-8.335013e-05,0.00041418202,-0.0003313455,0.15,2.195286e-07,1.9430455e-07,1.5748352e-06,1310988,-0.006805894,-0.00093575893,0.0037445652,0.4,0.0008393664,0.0009546535,3.1459895e-05,197388,-0.001519374,-0.0005028022,-0.0008899697,0.5,3.11727e-05,2.7662209e-05,0.00024757726,1,1,1,0,1,1
43868000,43716000,1310988,-0.00010913671,0.00036188963,-0.0002900698,0.15,2.1878984e-07,1.9153022e-07,1.5454394e-06,1310988,-0.009952295,-0.0042323815,0.0038999221,0.4,0.0007993864,0.0009129127,3.1157233e-05,197388,-0.0013227669,-0.00044193678,-0.0004172771,0.5,2.881528e-05,2.5585601e-05,0.00024556008,1,1,1,0,1,1
44268000,44116000,1310988,-0.00013589415,0.00032938216,-0.00028220896,0.15,2.1718091e-07,1.8913792e-07,1.5219576e-06,1310988,-0.012806316,-0.006306437,0.004043542,0.4,0.0007564769,0.00086607423,3.0843843e-05,197388,-0.0012247374,-0.00015683554,0.00016030957,0.5,2.6737096e-05,2.3704724e-05,0.00024329573,1,1,1,0,1,1
44668000,44516000,1310988,-0.00015182118,0.0003159454,-0.0002802417,0.15,2.1512658e-07,1.8718544e-07,1.5052326e-06,1310988,-0.014430099,-0.00714365,0.004111471,0.4,0.0007126522,0.00081643433,3.0511726e-05,197388,-0.0011989039,-1.9887673e-05,0.00045522343,0.5,2.5295421e-05,2.2368882e-05,0.00024154085,1,1,1,0,1,1
45068000,44916000,1310988,-0.00016561811,0.00031713626,-0.0002787442,0.15,2.1301162e-07,1.8566848e-07,1.486929e-06,1310988,-0.015588281,-0.0066489056,0.0041564745,0.4,0.00066997454,0.00076635514,3.0175099e-05,197388,-0.0012698987,-6.726315e-05,0.000551551,0.5,2.3930377e-05,2.1077749e-05,0.00023995999,1,1,1,0,1,1
45868000,45716000,1310988,-0.0001803918,0.0003453303,-0.0003075007,0.15,2.1011422e-07,1.8400482e-07,1.4549228e-06,1310988,-0.015836056,-0.003523896,0.004162984,0.4,0.0005942453,0.00067504303,2.9523413e-05,197388,-0.0012956157,-5.432275e-05,0.00049027323,0.5,2.2041066e-05,1.9277264e-05,0.00023819991,1,1,1,0,1,1
46268000,46116000,1310988,-0.00020306122,0.0003668686,-0.0003248582,0.15,2.0964974e-07,1.8363508e-07,1.4309584e-06,1310988,-0.017248398,-0.0010790944,0.00423338,0.4,0.0005622852,0.00063577894,2.9209004e-05,197388,-0.0012807865,-4.4312033e-05,0.0005671254,0.5,2.098616e-05,1.8564891e-05,0.0002369125,1,1,1,0,1,1
46668000,46516000,1310988,-0.00021411513,0.00038520712,-0.00035583993,0.15,2.098189e-07,1.8356357e-07,1.4084634e-06,1310988,-0.017458117,0.0008468634,0.0042683487,0.4,0.00053431507,0.0006020873,2.8907303e-05,197388,-0.0013339359,-2.1561527e-05,0.00049948855,0.5,2.0151056e-05,1.8045537e-05,0.0002354589,1,1,1,0,1,1
47068000,46916000,1310988,-0.00021950838,0.00039886314,-0.0003743805,0.15,2.1038925e-07,1.8380871e-07,1.3825946e-06,1310988,-0.017479183,0.0022375754,0.0042702146,0.4,0.00051000103,0.0005740247,2.861873e-05,197388,-0.0013453482,-4.906226e-05,0.0004995059,0.5,1.9234276e-05,1.7492026e-05,0.00023373493,1,1,1,0,1,1
47868000,47716000,1310988,-0.00021024226,0.00040222774,-0.00043163553,0.15,2.1257439e-07,1.851031e-07,1.3369677e-06,1310988,-0.015565669,0.0029169852,0.0041283304,0.4,0.00047097722,0.00053319876,2.8084547e-05,197388,-0.001346784,3.3165936e-05,0.00022812354,0.5,1.7739952e-05,1.6629014e-05,0.00023052905,1,1,1,0,1,1
48268000,48116000,1310988,-0.00020014163,0.00040082642,-0.00045829223,0.15,2.1401026e-07,1.8601645e-07,1.3162563e-06,1310988,-0.014179233,0.0031967638,0.004026928,0.4,0.00045550094,0.00051860866,2.7830014e-05,197388,-0.0013348863,2.2490582e-05,0.00015760394,0.5,1.7042667e-05,1.6222355e-05,0.00022921339,1,1,1,0,1,1
48668000,48516000,1310988,-0.00018875948,0.00039442757,-0.00048108245,0.15,2.1557483e-07,1.8700499e-07,1.2984711e-06,1310988,-0.01286416,0.0031766256,0.003909665,0.4,0.00044223096,0.0005067945,2.7585196e-05,197388,-0.0013379519,1.4376362e-05,8.3702624e-05,0.5,1.640137e-05,1.5840484e-05,0.0002282397,1,1,1,0,1,1
49068000,48916000,1310988,-0.00017161423,0.0003832097,-0.0005063944,0.15,2.1719733e-07,1.879999e-07,1.282902e-06,1310988,-0.011144947,0.0030920263,0.0037893339,0.4,0.00043093477,0.0004970665,2.7356191e-05,197388,-0.0013098624,-6.9248895e-06,1.3319146e-05,0.5,1.5828462e-05,1.5502244e-05,0.000227292,1,1,1,0,1,1
49468000,49316000,1310988,-0.00016179508,0.00038944205,-0.0005576013,0.15,2.1918467e-07,1.889715e-07,1.2679232e-06,1310988,-0.010062838,0.0040487275,0.0036965434,0.4,0.00042178718,0.0004887769,2.712803e-05,197388,-0.0012548639,3.0479068e-05,-0.00013878857,0.5,1.5388794e-05,1.532221e-05,0.00022315502,1,1,1,0,1,1
49868000,49716000,1310988,-0.00015017473,0.00037942218,-0.0005921572,0.15,2.2122414e-07,1.8985924e-07,1.2513185e-06,1310988,-0.008778158,0.0039787977,0.003585495,0.4,0.00041439952,0.0004813214,2.6907353e-05,197388,-0.0011766881,-5.7792477e-06,-6.195183e-05,0.5,1.4858824e-05,1.5117067e-05,0.0002179279,1,1,1,0,1,1
50268000,50116000,1310988,-0.0001352983,0.00035798425,-0.0006512908,0.15,2.2312473e-07,1.9064358e-07,1.2386681e-06,1310988,-0.006901487,0.003425524,0.0034806982,0.4,0.00040828303,0.0004739655,2.6692112e-05,197388,-0.0010640308,-2.4584686e-05,-0.00014314795,0.5,1.4435294e-05,1.4803103e-05,0.00021539629,1,1,1,0,1,1
50668000,50516000,1310988,-0.00011674674,0.00033658688,-0.0007171434,0.15,2.2466482e-07,1.9139614e-07,1.22822e-06,1310988,-0.0049086157,0.002817215,0.0033351148,0.4,0.00040317103,0.00046560008,2.6488167e-05,197388,-0.00093480863,-7.137434e-05,-0.00031186035,0.5,1.4188747e-05,1.440914e-05,0.00021077477,1,1,1,0,1,1
50876000,50724000,1310988,-0.0001002726,0.0003168792,-0.000768595,0.15,2.2465895e-07,1.9104489e-07,1.2195231e-06,1310988,-0.0032856015,0.002128691,0.0032322297,0.4,0.00039922463,0.00045790384,2.6306614e-05,197388,-0.00085653417,-0.00013767534,-0.00037446275,0.5,1.407353e-05,1.408595e-05,0.00020641473,1,1,1,0,1,1
51268000,51116000,1310988,-8.962571e-05,0.00030092453,-0.0008094402,0.15,2.248985e-07,1.921272e-07,1.2045647e-06,1310988,-0.002177135,0.0013030708,0.0031708,0.4,0.00039489561,0.00044846,2.6113761e-05,197388,-0.00079378154,-0.00021166954,-0.00052833825,0.5,1.3849536e-05,1.3319271e-05,0.00019717636,1,1,1,0,1,1
51868000,51716000,1310988,-0.00010042332,0.00028143197,-0.00084840547,0.15,2.2324643e-07,1.9344482e-07,1.1820662e-06,1310988,-0.0022533685,-5.6006476e-05,0.0031372297,0.4,0.00038540672,0.00043068195,2.5744124e-05,197388,-0.0007836148,-0.00022710772,-0.00041280422,0.5,1.3425737e-05,1.2321516e-05,0.00019051282,1,1,1,0,1,1
52268000,52116000,1310988,-0.00012095653,0.00027071778,-0.00086298503,0.15,2.2305113e-07,1.949493e-07,1.1744628e-06,1310988,-0.0031189583,-0.000805901,0.0031860864,0.4,0.00037978528,0.00042351393,2.555957e-05,197388,-0.0008289993,-0.00027572876,-0.00036971134,0.5,1.2905267e-05,1.1666838e-05,0.00018843969,1,1,1,0,1,1
53268000,53116000,1310988,-0.0001257259,0.00026667715,-0.0008578642,0.15,2.2431558e-07,1.9937849e-07,1.163096e-06,1310988,-0.003398794,-0.0010249956,0.0032184424,0.4,0.00036697945,0.00041068514,2.5178097e-05,197388,-0.00089557783,-0.0002808058,-0.00033778226,0.5,1.198447e-05,1.0458373e-05,0.00018518,1,1,1,1,1,1
54268000,54116000,1310988,-0.00010993224,0.0002561649,-0.00083543005,0.15,2.2431901e-07,2.0234047e-07,1.1531688e-06,1310988,-0.00288525,-0.001534808,0.003151814,0.4,0.00034827145,0.00039379127,2.460755e-05,197388,-0.00095296145,-0.00028081966,-0.0003748487,0.5,1.1392798e-05,9.606985e-06,0.00018344093,1,1,1,1,1,1
55268000,55116000,1310988,-0.000100194055,0.00024096784,-0.0008122725,0.15,2.2775578e-07,2.0684804e-07,1.1416208e-06,1310988,-0.0025831403,-0.0022101912,0.0030890936,0.4,0.0003376001,0.00038481824,2.4239956e-05,197388,-0.0009945265,-0.00025552124,-0.00036142528,0.5,1.0897709e-05,8.931467e-06,0.00018206635,1,1,1,1,1,1
56268000,56116000,1310988,-0.00010493022,0.00023512436,-0.0007694216,0.15,2.3082806e-07,2.0930536e-07,1.1123877e-06,1310988,-0.003268483,-0.002068313,0.0030537657,0.4,0.00032621587,0.00037729958,2.3733162e-05,197388,-0.0011427909,-0.0003004635,-0.00072570454,0.5,1.0186161e-05,8.482008e-06,0.00017893701,1,1,1,1,1,1
57268000,57116000,1310988,-9.185745e-05,0.00020970964,-0.0007156887,0.15,2.3581704e-07,2.1273713e-07,1.0757626e-06,1310988,-0.002975828,-0.002355905,0.0029896519,0.4,0.00032134107,0.00037507707,2.3421759e-05,197388,-0.0012049814,-0.00035490765,-0.0010768716,0.5,9.5648675e-06,8.135443e-06,0.000175322,1,1,1,1,1,1
58268000,58116000,1310988,-5.8913072e-05,0.00013728844,-0.00066500716,0.15,2.395621e-07,2.1279709e-07,1.0255902e-06,1310988,-0.0017961392,-0.0028178187,0.0028513311,0.4,0.0003169326,0.00037330494,2.2988304e-05,197388,-0.001230555,-0.00041577735,-0.0014128189,0.5,9.035447e-06,7.850679e-06,0.000172376,1,1,1,1,1,1
59268000,59116000,1310988,-2.8389259e-05,6.493014e-05,-0.0006511906,0.15,2.4323543e-07,2.1409592e-07,1.0005425e-06,1310988,-0.0008982382,-0.0029506194,0.0027829234,0.4,0.00031512775,0.00037228057,2.2705586e-05,197388,-0.0012082317,-0.0004956643,-0.0015157512,0.5,8.672616e-06,7.649453e-06,0.00017048532,1,1,1,1,1,1
60268000,60116000,1310988,3.5950807e-06,-2.4262583e-05,-0.000649629,0.15,2.4287178e-07,2.1107456e-07,9.798647e-07,1310988,-0.00015610483,-0.0027007281,0.0028041897,0.4,0.0003133777,0.0003712087,2.2306776e-05,197388,-0.0011689496,-0.0005668954,-0.0015273641,0.5,8.370299e-06,7.493672e-06,0.00016875315,1,1,1,1,1,1
61268000,61116000,1310988,3.866903e-05,-9.016895e-05,-0.00063648354,0.15,2.4313235e-07,2.1139303e-07,9.673291e-07,1310988,6.99528e-05,-0.002210748,0.002811979,0.4,0.00031256766,0.00036999985,2.2059281e-05,197388,-0.0011691432,-0.00062981644,-0.0015505056,0.5,8.162617e-06,7.3688802e-06,0.0001679701,1,1,1,1,1,1
62268000,62116000,1310988,8.174335e-05,-0.00018728289,-0.0006250298,0.15,2.3487958e-07,2.0596369e-07,9.540047e-07,1310988,0.0001268096,-0.0012880755,0.002842256,0.4,0.0003115996,0.0003680131,2.16816e-05,197388,-0.0010877155,-0.00069928396,-0.0013972265,0.5,7.970435e-06,7.246311e-06,0.00016731813,1,1,1,1,1,1
63268000,63116000,1310988,0.00012283261,-0.00026183718,-0.00061253685,0.15,2.2246323e-07,1.9914809e-07,9.402008e-07,1310988,-7.332204e-05,-0.00039087905,0.002873016,0.4,0.00031058938,0.00036536672,2.1292744e-05,197388,-0.0009910952,-0.00073559216,-0.0012108547,0.5,7.806044e-06,7.1262116e-06,0.00016680227,1,1,1,1,1,1
64268000,64116000,1310988,0.00013782259,-0.00028329706,-0.0006097742,0.15,2.1508616e-07,1.9630463e-07,9.261236e-07,1310988,-0.000120045705,-0.00033026162,0.00286031,0.4,0.00031018758,0.00036425132,2.1199512e-05,197388,-0.0009186017,-0.0007695253,-0.0010923768,0.5,7.665283e-06,7.0232663e-06,0.00016634383,1,1,1,1,1,1
65268000,65116000,1310988,0.0001484882,-0.0002956132,-0.0005784758,0.15,2.0178614e-07,1.8877756e-07,8.996777e-07,1310988,-0.0001238418,-5.966477e-05,0.002815493,0.4,0.0003087111,0.00036057967,2.0811527e-05,197388,-0.000843408,-0.0007662034,-0.00096021325,0.5,7.510999e-06,6.893691e-06,0.00016583577,1,1,1,1,1,1
66268000,66116000,1310988,0.00016255729,-0.0002935608,-0.00056118437,0.15,1.9599175e-07,1.8624978e-07,8.688769e-07,1310988,-0.00020287307,-3.3946475e-05,0.0028027957,0.4,0.00030754795,0.00035746334,2.0546917e-05,197388,-0.00083825266,-0.00075542135,-0.00096818374,0.5,7.3797396e-06,6.7828355e-06,0.0001654043,1,1,1,1,1,1
67268000,67116000,1310988,0.0001697874,-0.00027815605,-0.00052412326,0.15,1.8630585e-07,1.7998904e-07,8.382537e-07,1310988,-9.071297e-05,-0.00011166878,0.0027377855,0.4,0.0003058989,0.0003537534,2.0164849e-05,197388,-0.00083874824,-0.0007392906,-0.000993153,0.5,7.247261e-06,6.6649163e-06,0.0001649903,1,1,1,1,1,1
