timestamp,timestamp_sample,position[0],position[1],position[2],q[0],q[1],q[2],q[3],velocity[0],velocity[1],velocity[2],angular_velocity[0],angular_velocity[1],angular_velocity[2],position_variance[0],position_variance[1],position_variance[2],orientation_variance[0],orientation_variance[1],orientation_variance[2],velocity_variance[0],velocity_variance[1],velocity_variance[2],pose_frame,velocity_frame,reset_counter,quality
2043328000,2043328000,46.563408,-16.585787,-0.00680542,-0.07634583,0.0032362426,-0.00032422427,-0.99707615,-0.0006256633,-0.046656635,-0.007845477,-0.0024488748,-0.009216044,0.0056046015,0.10834065,0.10866205,0.08175905,1.7980203e-05,1.672235e-05,0.00034829107,0.0130348075,0.013185838,0.005062189,1,1,13,0
2043336000,2043336000,46.563713,-16.585691,-0.006866455,-0.07636842,0.0032788222,-0.00034052893,-0.99707425,0.00077958254,-0.046922173,-0.009131942,0.003809644,0.01075767,-0.0054474343,0.10871631,0.10904114,0.08143948,1.800507e-05,1.6747857e-05,0.0003483865,0.0130887,0.013240478,0.005055464,1,1,13,0
2043344000,2043344000,46.56402,-16.58561,-0.006958008,-0.07635634,0.0033430604,-0.00031109012,-0.997075,0.0007648779,-0.04700503,-0.0094746,-0.00804147,0.0152850505,0.003207672,0.10909403,0.10942231,0.0816588,1.8031478e-05,1.677354e-05,0.00034848027,0.0131428,0.013295331,0.0050639827,1,1,13,0
2043352000,2043352000,46.564304,-16.585537,-0.007019043,-0.07632894,0.003385852,-0.00031747847,-0.997077,0.0010280599,-0.04630759,-0.00888218,0.0012794967,0.010624532,0.0070692096,0.10946562,0.10980231,0.08187879,1.8048495e-05,1.6783883e-05,0.00034783428,0.0131898,0.013346973,0.0050725015,1,1,13,0
2043360000,2043360000,46.56459,-16.585474,-0.0071105957,-0.07634054,0.0033903872,-0.00031975732,-0.99707603,0.0020891244,-0.04598718,-0.008781644,0.001013168,0.0010366638,-0.002651676,0.10984737,0.110187635,0.08209944,1.807483e-05,1.6809394e-05,0.00034792823,0.013245058,0.013403004,0.0050810217,1,1,13,0
2043368000,2043368000,46.56488,-16.585417,-0.007171631,-0.076359704,0.0033582903,-0.00036089506,-0.99707466,0.0033183603,-0.0454085,-0.007889882,0.01139963,-0.007352174,-0.00451579,0.110231206,0.11057509,0.08232075,1.8099916e-05,1.6835087e-05,0.00034802323,0.01329973,0.013458594,0.005089543,1,1,13,0
2043376000,2043376000,46.565163,-16.58537,-0.0072631836,-0.076417014,0.0034111293,-0.00039507405,-0.9970701,0.0034152227,-0.045374945,-0.008441248,0.00807083,0.013686722,-0.014103086,0.110617146,0.11096466,0.08254273,1.8126178e-05,1.6861142e-05,0.0003481168,0.013354944,0.013514955,0.0050980644,1,1,13,0
2043384000,2043384000,46.56544,-16.585331,-0.0073242188,-0.076417886,0.003460257,-0.00039392567,-0.99706984,0.0037646727,-0.044931058,-0.009436478,-0.00071788975,0.012088788,1.1481915e-05,0.111005194,0.111356385,0.08276538,1.8150491e-05,1.688712e-05,0.0003482125,0.013409973,0.013570703,0.005106588,1,1,13,0
2043400000,2043400000,46.565987,-16.585289,-0.007507324,-0.07644263,0.0034590608,-0.00044862,-0.99706787,0.004532493,-0.045649122,-0.010963722,0.0110000605,-0.0034906655,0.0012099122,0.11178765,0.11214627,0.083212666,1.819646e-05,1.6939024e-05,0.0003484068,0.013520602,0.013682809,0.0051236385,1,1,13,0
2043408000,2043408000,46.566254,-16.585285,-0.0076293945,-0.07647859,0.003398441,-0.0004646317,-0.99706537,0.0051071094,-0.044881012,-0.011657914,0.005673886,-0.0149421645,-0.008777076,0.11218208,0.11254447,0.08287833,1.8219373e-05,1.6965265e-05,0.00034850382,0.013576356,0.013739586,0.005116289,1,1,13,0
2043416000,2043416000,46.566517,-16.585285,-0.007751465,-0.0765086,0.0034103259,-0.00046861175,-0.99706304,0.004766446,-0.04487851,-0.011734277,0.0012795879,0.002900875,-0.007312192,0.11257867,0.11294485,0.083102144,1.82458e-05,1.6991055e-05,0.00034859774,0.013632194,0.013796347,0.0051248143,1,1,13,0
2043424000,2043424000,46.56677,-16.585299,-0.007873535,-0.07646332,0.0033869792,-0.00050654425,-0.99706656,0.0051624626,-0.045320176,-0.011929163,0.01033418,-0.005221793,0.011596295,0.11296799,0.113343604,0.08332663,1.8264735e-05,1.7000664e-05,0.00034795076,0.013680096,0.013849097,0.005133342,1,1,13,0
2043440000,2043440000,46.56726,-16.585361,-0.008117676,-0.07643643,0.0033894563,-0.0005392066,-0.99706864,0.005040029,-0.045519553,-0.011941954,8.117964e-05,-0.0014933952,-0.003183967,0.11377172,0.11415523,0.083777614,1.8318535e-05,1.7052958e-05,0.00034813714,0.013792103,0.01396282,0.005150401,1,1,13,0
2043448000,2043448000,46.5675,-16.585405,-0.008239746,-0.07646461,0.00334917,-0.00053254527,-0.9970666,0.0061584827,-0.04514484,-0.011595994,-0.00045148018,-0.010281778,-0.0069124657,0.11417686,0.114564374,0.08400411,1.8344588e-05,1.7078859e-05,0.00034823138,0.01384863,0.014020251,0.005158932,1,1,13,0
2043456000,2043456000,46.56774,-16.585457,-0.008331299,-0.076420344,0.0032894856,-0.00046487834,-0.99707025,0.007357081,-0.04537039,-0.011248315,-0.015365228,-0.016273923,0.011197023,0.1145842,0.11497574,0.08423129,1.8372119e-05,1.7104794e-05,0.0003483243,0.013905371,0.014077962,0.005167464,1,1,13,0
2043464000,2043464000,46.567986,-16.585518,-0.008453369,-0.07644831,0.0032908905,-0.00042255258,-0.99706805,0.0080531705,-0.04534059,-0.011866472,-0.010171846,-0.0005614511,-0.006912563,0.11499375,0.115389355,0.08445914,1.839932e-05,1.7130877e-05,0.00034841752,0.013962291,0.014136016,0.0051759956,1,1,13,0
2043480000,2043480000,46.56847,-16.585678,-0.008666992,-0.07647965,0.0033846216,-0.00038535302,-0.99706537,0.008546332,-0.04541365,-0.011478627,-0.0044438853,0.013288138,-0.0023840943,0.11581858,0.11622226,0.084337965,1.8447716e-05,1.7180862e-05,0.00034849602,0.014075514,0.014251093,0.005176538,1,1,13,0
2043488000,2043488000,46.56871,-16.585772,-0.0087890625,-0.07644594,0.0033806905,-0.0003987162,-0.997068,0.009499742,-0.04540123,-0.011868195,0.0036788937,-0.0008265372,0.008534794,0.11623481,0.116642654,0.08456629,1.8475595e-05,1.7206708e-05,0.00034858886,0.014133819,0.014310691,0.005185073,1,1,13,0
2043496000,2043496000,46.56894,-16.585867,-0.008911133,-0.076394185,0.0033561431,-0.00042290834,-0.9970719,0.009616879,-0.045117438,-0.012464511,0.006741288,-0.0057536177,0.013062207,0.11664251,0.11706093,0.08479529,1.8494948e-05,1.7216584e-05,0.000347942,0.014182936,0.014364893,0.0051936083,1,1,13,0
2043504000,2043504000,46.569164,-16.585974,-0.009002686,-0.07634023,0.003329207,-0.000398878,-0.9970763,0.0102421,-0.04595413,-0.012117187,-0.005243129,-0.0072188727,0.013726919,0.11706311,0.11748584,0.08502497,1.8522876e-05,1.7242537e-05,0.00034803455,0.014240363,0.014423287,0.005202144,1,1,13,0
2043520000,2043520000,46.5696,-16.586214,-0.009246826,-0.07632623,0.0033558337,-0.00037340692,-0.9970772,0.00970186,-0.04546217,-0.01302149,-0.0023135606,-0.0002947593,-0.00012152952,0.11791113,0.1183426,0.08548636,1.8574232e-05,1.7294165e-05,0.00034822468,0.014355898,0.014541319,0.005219218,1,1,13,0
2043528000,2043528000,46.56981,-16.586338,-0.009338379,-0.07628929,0.003392265,-0.00040029382,-0.99707985,0.00982904,-0.044457797,-0.012636124,0.0062086517,0.009558853,0.00946586,0.11833858,0.11877447,0.08571808,1.86027e-05,1.7319951e-05,0.00034831697,0.0144146215,0.014600982,0.005227757,1,1,13,0
2043536000,2043536000,46.570015,-16.586464,-0.009460449,-0.07624321,0.0033713449,-0.00038762763,-0.99708354,0.009608881,-0.04416904,-0.012429116,-0.0025796052,-0.0054880395,0.011729539,0.11876833,0.119208686,0.08595049,1.8630963e-05,1.7346074e-05,0.00034840932,0.014473823,0.0146612115,0.0052362974,1,1,13,0
2043544000,2043544000,46.570213,-16.586596,-0.0095825195,-0.076202944,0.0033262274,-0.0003768882,-0.9970868,0.009196606,-0.04437079,-0.01274919,-0.0016477981,-0.011480016,0.010264814,0.1192004,0.11964526,0.08618358,1.8657895e-05,1.7372055e-05,0.00034850335,0.01453308,0.014721521,0.0052448395,1,1,13,0
2043560000,2043560000,46.5706,-16.586872,-0.00982666,-0.07628226,0.0032708521,-0.00038121932,-0.99708086,0.010648566,-0.043428656,-0.013143442,0.009937136,-0.00082764286,-0.017431995,0.12007155,0.120525524,0.08605071,1.8707446e-05,1.742375e-05,0.00034869602,0.014652094,0.014842684,0.005244735,1,1,13,0
2043568000,2043568000,46.570797,-16.587017,-0.0099487305,-0.076287776,0.0032945608,-0.0004409331,-0.9970803,0.011630328,-0.043706823,-0.013972088,0.014597563,0.0070288316,-0.0011867508,0.120498374,0.12096415,0.086284235,1.8724933e-05,1.7432918e-05,0.00034805227,0.014702101,0.014898032,0.005253278,1,1,13,0
2043576000,2043576000,46.570995,-16.587172,-0.010070801,-0.07630713,0.0033101686,-0.0004733168,-0.9970788,0.0121115185,-0.04420402,-0.014085143,0.007939491,0.0044989563,-0.00464916,0.120939665,0.12141018,0.086518444,1.8750416e-05,1.7458722e-05,0.00034814776,0.014761682,0.014958698,0.005261823,1,1,13,0
2043584000,2043584000,46.571194,-16.587336,-0.010192871,-0.07633539,0.0032813828,-0.00046440054,-0.9970767,0.0124677485,-0.04435851,-0.014328572,-0.0015147344,-0.0073523438,-0.006912771,0.121383324,0.12185862,0.08675334,1.8777215e-05,1.7484612e-05,0.00034824194,0.014821624,0.015019632,0.005270369,1,1,13,0
2043600000,2043600000,46.571587,-16.587694,-0.010467529,-0.07633036,0.0032552057,-0.0004893974,-0.99707717,0.013679428,-0.045579135,-0.014743226,0.0032790028,-0.0042896955,0.0037397267,0.1222778,0.12276276,0.08722521,1.8828023e-05,1.7537062e-05,0.00034843283,0.014940962,0.015141188,0.0052874614,1,1,13,0
2043608000,2043608000,46.571785,-16.587887,-0.0105896,-0.076356344,0.0032866239,-0.00046815682,-0.9970751,0.013762013,-0.04591986,-0.014614042,-0.0057757692,0.0074281474,-0.0063803433,0.12272864,0.123218484,0.08746219,1.8851762e-05,1.756384e-05,0.0003485294,0.015000948,0.015202531,0.00529601,1,1,13,0
2043616000,2043616000,46.57198,-16.588087,-0.01071167,-0.07640679,0.0033535077,-0.00047203494,-0.99707097,0.013852545,-0.046021447,-0.014580772,-0.00018292137,0.016749345,-0.012505508,0.123181894,0.123676665,0.08769985,1.887811e-05,1.7590473e-05,0.0003486236,0.015061771,0.015264564,0.0053045596,1,1,13,0
2043624000,2043624000,46.572174,-16.588295,-0.010864258,-0.07637822,0.0033890577,-0.0005080151,-0.99707305,0.014063211,-0.046268478,-0.013848006,0.0083392495,0.009558718,0.007334903,0.12363758,0.12413731,0.08731752,1.890609e-05,1.7616976e-05,0.00034871642,0.015122649,0.015326485,0.0052952436,1,1,13,0
2043640000,2043640000,46.57256,-16.588728,-0.011108398,-0.076343425,0.0033286752,-0.00058063737,-0.9970759,0.014763762,-0.046449933,-0.014549663,0.013532212,-0.007618568,0.00041085898,0.12454233,0.12506022,0.08779295,1.8951585e-05,1.7652193e-05,0.00034816627,0.015234184,0.015445232,0.0053123436,1,1,13,0
2043648000,2043648000,46.57275,-16.588951,-0.011260986,-0.07632792,0.003329132,-0.0006139639,-0.9970771,0.0152059235,-0.046523847,-0.014887644,0.008338847,0.0007703054,0.004138667,0.12500517,0.12552825,0.08803171,1.8977144e-05,1.7678281e-05,0.0003482619,0.015295709,0.015507828,0.005320895,1,1,13,0
2043656000,2043656000,46.57282,-16.588858,-0.0113220215,-0.07632236,0.0033519561,-0.0006132132,-0.9970774,0.015181292,-0.0465065,-0.01580035,-0.0005827437,0.005697144,0.0016086863,0.10505897,0.10534868,0.08019779,1.7750514e-05,1.650667e-05,0.0003480555,0.012562527,0.012707772,0.004996615,1,1,13,0
2043664000,2043664000,46.57288,-16.588778,-0.011383057,-0.07633273,0.0033503282,-0.00063348346,-0.99707663,0.014087534,-0.04659189,-0.016648619,0.005405408,0.00023417569,-0.0025183137,0.10541664,0.105709545,0.08041303,1.7777129e-05,1.653228e-05,0.00034814863,0.012615394,0.012761341,0.0050051254,1,1,13,0
2043680000,2043680000,46.572998,-16.588667,-0.011566162,-0.076297015,0.0033142099,-0.00075350114,-0.9970794,0.01443912,-0.047355425,-0.01760109,0.005271767,-0.007889156,0.009464971,0.10613733,0.10643656,0.080845475,1.7827566e-05,1.6580998e-05,0.000348225,0.012720212,0.012867535,0.005022147,1,1,13,0
2043688000,2043688000,46.57306,-16.588625,-0.011627197,-0.07630298,0.0033067015,-0.0006964787,-0.997079,0.014190802,-0.046651144,-0.017612154,-0.013769782,-0.002695891,-0.0014538139,0.10650094,0.10680344,0.08053496,1.7852366e-05,1.6606598e-05,0.00034832014,0.012773193,0.012921211,0.0050158147,1,1,13,0
2043696000,2043696000,46.57312,-16.588594,-0.01171875,-0.07628525,0.0033210977,-0.0007160269,-0.9970803,0.015090749,-0.047053535,-0.017202377,0.0048723705,0.0042284983,0.0045382716,0.10686655,0.10717234,0.080751404,1.7876248e-05,1.6632192e-05,0.0003484163,0.012826658,0.012975325,0.0050243274,1,1,13,0
2043704000,2043704000,46.573185,-16.588581,-0.011779785,-0.076262236,0.0033038296,-0.00074441405,-0.9970821,0.015414812,-0.04744616,-0.016916601,0.0076685897,-0.0034947032,0.0058699558,0.10722672,0.10754035,0.08096851,1.7891569e-05,1.6642916e-05,0.0003477708,0.012872479,0.013025632,0.0050328407,1,1,13,0
2043720000,2043720000,46.57331,-16.58859,-0.011932373,-0.07623214,0.0033100399,-0.0007076589,-0.9970843,0.014420009,-0.04762196,-0.015716854,-0.00817717,-0.0009647409,0.0038725655,0.10796782,0.108288296,0.081404686,1.7943985e-05,1.6693219e-05,0.00034795908,0.012980816,0.013136093,0.005049872,1,1,13,0
2043728000,2043728000,46.57337,-16.588612,-0.012023926,-0.07624065,0.0032774387,-0.0006568577,-0.99708384,0.014533957,-0.047540385,-0.0155450925,-0.011772426,-0.008821118,-0.0021193326,0.108341426,0.10866538,0.08162377,1.7970437e-05,1.671855e-05,0.00034805288,0.013034826,0.013191036,0.00505839,1,1,13,0
2043736000,2043736000,46.57343,-16.588642,-0.012084961,-0.076228596,0.003268833,-0.0006763562,-0.9970848,0.01485568,-0.047480512,-0.015391592,0.0052717943,-0.0014973659,0.0030737775,0.108717084,0.10904454,0.08184351,1.799504e-05,1.6744229e-05,0.00034814826,0.013089093,0.013246208,0.005066909,1,1,13,0
2043744000,2043744000,46.57349,-16.58868,-0.012145996,-0.076195724,0.0032351934,-0.0006598415,-0.9970874,0.014677963,-0.04735776,-0.0146244345,-0.0032502045,-0.008421687,0.008266842,0.109094806,0.10942579,0.081523106,1.8020546e-05,1.6769744e-05,0.00034824293,0.013143343,0.01330139,0.0050601447,1,1,13,0
2043760000,2043760000,46.573612,-16.588785,-0.012268066,-0.07618481,0.0031883263,-0.00069554965,-0.9970884,0.014955873,-0.046965994,-0.01255136,0.0044728657,-0.0032285096,0.0020084174,0.10985647,0.110194616,0.081962995,1.8072697e-05,1.6821185e-05,0.00034843123,0.013252719,0.013412624,0.0050771832,1,1,13,0
2043768000,2043768000,46.573673,-16.588848,-0.012329102,-0.07616519,0.0031794985,-0.00069696055,-0.99709,0.015345008,-0.04679974,-0.012442828,0.0007444644,-0.0018969574,0.004937882,0.11024043,0.1105822,0.082183935,1.8101211e-05,1.6846912e-05,0.0003485229,0.013307546,0.013468284,0.005085704,1,1,13,0
2043776000,2043776000,46.573742,-16.588917,-0.012390137,-0.07617192,0.0031684532,-0.0006436432,-0.99708945,0.015494708,-0.04650439,-0.013179217,-0.012837677,-0.0034947707,-0.0017199223,0.11061789,0.110968485,0.08240554,1.8120141e-05,1.6856777e-05,0.00034787518,0.0133542605,0.013519689,0.005094226,1,1,13,0
2043784000,2043784000,46.57381,-16.588995,-0.012451172,-0.076181315,0.0031240133,-0.00062939466,-0.9970889,0.015661804,-0.046952397,-0.013349543,-0.0024516154,-0.011084674,-0.002253217,0.111005925,0.11136028,0.0826278,1.8145049e-05,1.6882303e-05,0.00034797064,0.013409499,0.013575958,0.0051027494,1,1,13,0
2043800000,2043800000,46.57395,-16.589178,-0.01260376,-0.076167755,0.003082572,-0.0006580767,-0.99709004,0.016725447,-0.046422858,-0.013856987,0.012462151,-0.0026957304,0.0021408936,0.11178837,0.11215034,0.083074346,1.81958e-05,1.6933103e-05,0.000348161,0.0135209,0.013689218,0.0051197987,1,1,13,0
2043808000,2043808000,46.57403,-16.589277,-0.012664795,-0.076145604,0.0030913702,-0.0006181125,-0.9970917,0.017822536,-0.046066433,-0.014177435,-0.0099084005,0.001698497,0.005603,0.1121828,0.11254863,0.08329862,1.822266e-05,1.6958908e-05,0.00034825454,0.013577177,0.0137463715,0.005128325,1,1,13,0
2043816000,2043816000,46.57412,-16.58938,-0.012756348,-0.07613997,0.003131574,-0.00061469164,-0.99709207,0.018503882,-0.04566053,-0.014064624,-0.0013863184,0.010220634,0.0014750093,0.11257939,0.112949096,0.08296342,1.8248658e-05,1.6984539e-05,0.00034834913,0.013633601,0.013803354,0.005120933,1,1,13,0
2043824000,2043824000,46.57421,-16.58949,-0.012817383,-0.07610614,0.0031808463,-0.000597669,-0.99709445,0.01844062,-0.046047848,-0.014357686,-0.0049814177,0.012217977,0.008532583,0.11297814,0.11335176,0.08318752,1.8274919e-05,1.700953e-05,0.00034844404,0.013690213,0.013860871,0.005129461,1,1,13,0
2043840000,2043840000,46.574387,-16.589739,-0.012969971,-0.07608003,0.0032241615,-0.0006026525,-0.9970964,0.01839713,-0.04683918,-0.0154471835,0.0014100359,0.0038290399,0.0008093153,0.11377246,0.11415979,0.08363773,1.8316403e-05,1.7045497e-05,0.00034789505,0.01379467,0.013971171,0.0051465165,1,1,13,0
2043848000,2043848000,46.57447,-16.589878,-0.013061523,-0.07611261,0.0032410335,-0.00057016715,-0.99709386,0.017717518,-0.04669794,-0.016162764,-0.008177652,0.003828917,-0.007980188,0.114177614,0.11456904,0.08386385,1.834314e-05,1.7071223e-05,0.0003479889,0.013851003,0.014028685,0.0051550474,1,1,13,0
2043856000,2043856000,46.574554,-16.59002,-0.013153076,-0.07615311,0.0032512303,-0.0005275669,-0.9970907,0.018019527,-0.046126515,-0.0158627,-0.010574389,0.0019646876,-0.009977679,0.114584975,0.11498052,0.08409064,1.8368628e-05,1.7096863e-05,0.00034808402,0.0139075965,0.01408629,0.0051635792,1,1,13,0
2043864000,2043864000,46.57464,-16.59016,-0.013244629,-0.076183565,0.0032695474,-0.00050488487,-0.99708843,0.018498404,-0.045134522,-0.015040497,-0.0057808305,0.0043614805,-0.0074475887,0.11499454,0.11539424,0.08431811,1.8395092e-05,1.7122808e-05,0.0003481779,0.013964245,0.014143738,0.005172112,1,1,13,0
2043880000,2043880000,46.574814,-16.590443,-0.013427734,-0.07626675,0.0032691532,-0.0005329554,-0.99708194,0.018102052,-0.04474068,-0.01418868,0.007532673,0.00036687945,-0.012508893,0.1158194,0.11622735,0.084775075,1.844328e-05,1.7173072e-05,0.0003482564,0.014077118,0.0142581975,0.0051891794,1,1,13,0
2043888000,2043888000,46.574898,-16.590591,-0.0134887695,-0.07628119,0.003293189,-0.0005764174,-0.9970808,0.017520186,-0.044860817,-0.0139106475,0.010595195,0.00702479,-0.0033211152,0.11623564,0.11664785,0.08442446,1.8469169e-05,1.7198869e-05,0.00034835117,0.0141345225,0.014316626,0.0051811473,1,1,13,0
2043896000,2043896000,46.574978,-16.590752,-0.013580322,-0.07632321,0.003288461,-0.00060533255,-0.9970775,0.017105985,-0.0456344,-0.013826976,0.0075326622,-0.00043220277,-0.0102451965,0.116654135,0.11707063,0.08465307,1.849397e-05,1.7224964e-05,0.00034844675,0.014191723,0.01437469,0.005189682,1,1,13,0
2043904000,2043904000,46.575054,-16.590923,-0.013671875,-0.07628455,0.0033256344,-0.0006591235,-0.9970803,0.016751068,-0.04620982,-0.013432226,0.012858876,0.010486878,0.009994809,0.117074884,0.11749571,0.08488236,1.8518982e-05,1.725079e-05,0.00034854256,0.014248853,0.0144327665,0.0051982175,1,1,13,0
2043920000,2043920000,46.5752,-16.59129,-0.0138549805,-0.07623474,0.003370569,-0.0006421629,-0.997084,0.016997809,-0.046729114,-0.012518543,-0.008579446,0.00822295,0.015987318,0.117911935,0.118348174,0.08534298,1.856137e-05,1.7286113e-05,0.0003479945,0.014355539,0.014545852,0.0052152914,1,1,13,0
2043928000,2043928000,46.575275,-16.591486,-0.013916016,-0.07619661,0.003411869,-0.00061466516,-0.9970869,0.017210709,-0.046728414,-0.0128400745,-0.0075141075,0.009954083,0.009728898,0.11833937,0.11878012,0.085574314,1.8587021e-05,1.7312597e-05,0.00034808886,0.014414386,0.014605721,0.0052238298,1,1,13,0
2043936000,2043936000,46.575348,-16.59169,-0.014007568,-0.076230146,0.0034221867,-0.0005738972,-0.99708426,0.016885802,-0.04715547,-0.013217382,-0.010177264,0.0019644718,-0.008247507,0.11876912,0.119214416,0.08580633,1.861147e-05,1.733876e-05,0.00034818493,0.014473058,0.014665418,0.005232371,1,1,13,0
2043944000,2043944000,46.575424,-16.591904,-0.014099121,-0.07622711,0.0034541753,-0.0005643248,-0.9970844,0.017652353,-0.04754487,-0.013573246,-0.0028534825,0.007956779,0.00094031513,0.119201176,0.119651064,0.08603904,1.8636672e-05,1.7364995e-05,0.00034828015,0.0145322,0.014725656,0.005240912,1,1,13,0
2043960000,2043960000,46.57558,-16.592354,-0.014312744,-0.0763221,0.003422715,-0.0005792846,-0.9970772,0.017538624,-0.04796205,-0.013759968,-5.717699e-05,-0.0074896845,-0.010111623,0.1200723,0.12053148,0.085907385,1.8689114e-05,1.7417173e-05,0.00034846924,0.01465042,0.01484641,0.0052408637,1,1,13,0
2043968000,2043968000,46.57566,-16.592587,-0.014404297,-0.076382875,0.0033975972,-0.00059138745,-0.99707264,0.01745739,-0.047491495,-0.013014405,0.0036710515,-0.005891605,-0.015038592,0.120511375,0.12097526,0.08614052,1.8717103e-05,1.7443384e-05,0.000348562,0.014709668,0.014906854,0.0052494057,1,1,13,0
2043976000,2043976000,46.57574,-16.592817,-0.01449585,-0.07638499,0.0033615432,-0.00053717836,-0.9970726,0.018092595,-0.04665862,-0.013303837,-0.01270747,-0.009886229,-0.0003912496,0.12095282,0.12142145,0.08637434,1.8745439e-05,1.7469725e-05,0.00034865437,0.014769374,0.014967523,0.0052579497,1,1,13,0
2043984000,2043984000,46.575825,-16.593046,-0.01461792,-0.076372206,0.0033224383,-0.0004742694,-0.9970737,0.01868987,-0.046638105,-0.014028064,-0.014837706,-0.010818695,0.0033373898,0.121383995,0.12186483,0.08660885,1.8763589e-05,1.7478895e-05,0.0003480105,0.014819732,0.015023437,0.0052664946,1,1,13,0
2044000000,2044000000,46.576004,-16.593517,-0.014831543,-0.07633724,0.0033225345,-0.00044901547,-0.99707645,0.01949468,-0.045640666,-0.015112042,-0.0013890495,-0.0010982087,0.00014062674,0.122278444,0.12276914,0.08707994,1.881762e-05,1.7531567e-05,0.00034819767,0.014940638,0.015146227,0.005283588,1,1,13,0
2044008000,2044008000,46.5761,-16.593752,-0.014953613,-0.07635064,0.003303484,-0.00046664802,-0.9970755,0.01945926,-0.045267493,-0.015620868,0.0048693386,-0.004294057,-0.003055113,0.12272928,0.12322495,0.086704515,1.8844356e-05,1.7558192e-05,0.00034829133,0.015000656,0.015207362,0.0052745324,1,1,13,0
2044016000,2044016000,46.57619,-16.593988,-0.015075684,-0.076385245,0.0032966423,-0.0004857055,-0.9970729,0.019304788,-0.044983808,-0.016432123,0.0050025885,-0.001231272,-0.008381477,0.12318252,0.12368322,0.086940125,1.8871513e-05,1.7584669e-05,0.0003483849,0.015060515,0.015268394,0.005283078,1,1,13,0
2044024000,2044024000,46.576286,-16.59423,-0.015197754,-0.076403484,0.003260697,-0.00053626776,-0.9970715,0.020086879,-0.045424107,-0.017039994,0.013391428,-0.007889286,-0.004253698,0.12363818,0.12414396,0.08717643,1.8898052e-05,1.7610966e-05,0.00034847923,0.015120826,0.015329659,0.005291626,1,1,13,0
2044040000,2044040000,46.57649,-16.594725,-0.015472412,-0.07644437,0.0032742352,-0.00056921504,-0.99706835,0.020208996,-0.044914953,-0.017204456,0.00074141944,0.0051602363,-0.0022562686,0.12455682,0.12507285,0.08765111,1.8952242e-05,1.766298e-05,0.00034866767,0.015242131,0.015452753,0.0053087245,1,1,13,0
2044048000,2044048000,46.57659,-16.594978,-0.015594482,-0.076476686,0.0033448117,-0.000596993,-0.9970656,0.020734116,-0.045297105,-0.016995482,0.0056685605,0.018209664,-0.007848864,0.12501982,0.12554103,0.08788949,1.8978695e-05,1.7689088e-05,0.0003487626,0.015303251,0.015514768,0.005317277,1,1,13,0
2044056000,2044056000,46.576447,-16.594639,-0.015655518,-0.07647654,0.0033688946,-0.0005973016,-0.99706554,0.020715637,-0.04493824,-0.016863745,-0.00032380753,0.00609234,0.00027385665,0.10506003,0.105352856,0.08007997,1.7744227e-05,1.6500482e-05,0.00034780728,0.012560711,0.012708726,0.0049937586,1,1,13,0
2044064000,2044064000,46.576305,-16.594313,-0.015716553,-0.07644162,0.0033850223,-0.0004900219,-0.9970682,0.020167656,-0.044745304,-0.017080773,-0.026431372,0.0024907908,0.008664272,0.10541769,0.105713755,0.080294915,1.77703e-05,1.6525817e-05,0.00034790116,0.012612832,0.012761572,0.005002268,1,1,13,0
2044080000,2044080000,46.576035,-16.593725,-0.015838623,-0.07645188,0.0034887386,-0.00043780883,-0.99706715,0.019953135,-0.045458168,-0.016557418,0.0024641324,0.024993666,-0.006782609,0.106138326,0.10644082,0.08020335,1.782212e-05,1.6575163e-05,0.00034797538,0.012717739,0.012868149,0.005004577,1,1,13,0
2044088000,2044088000,46.575905,-16.593462,-0.015899658,-0.07644131,0.003480134,-0.00047233797,-0.997068,0.019845081,-0.045737132,-0.016318787,0.009388466,-0.0009722109,0.0026717577,0.10650192,0.10680773,0.08041884,1.784808e-05,1.660103e-05,0.0003480689,0.012771047,0.012922155,0.005013088,1,1,13,0
2044096000,2044096000,46.575783,-16.593216,-0.015960693,-0.0764408,0.00342882,-0.00049983844,-0.99706817,0.02052419,-0.046053186,-0.01608971,0.00845639,-0.01175784,0.00014197273,0.10686752,0.10717668,0.08063499,1.787501e-05,1.6626655e-05,0.0003481618,0.012824522,0.012976638,0.0050216014,1,1,13,0
2044104000,2044104000,46.575672,-16.59299,-0.016021729,-0.07639822,0.0033969388,-0.00050388626,-0.9970715,0.020455334,-0.04594047,-0.016058506,0.0021977366,-0.0073638577,0.010661335,0.10723513,0.10754766,0.08085179,1.7900747e-05,1.6652066e-05,0.00034825617,0.012878257,0.013031096,0.005030115,1,1,13,0
2044120000,2044120000,46.575462,-16.592567,-0.016174316,-0.0763809,0.0033736974,-0.0005068984,-0.9970729,0.021135617,-0.044472072,-0.016171584,0.0012658524,-0.002436752,-0.004784921,0.10797642,0.10829579,0.08128738,1.795006e-05,1.6703121e-05,0.00034844736,0.01298507,0.013139507,0.0050471453,1,1,13,0
2044128000,2044128000,46.57537,-16.592373,-0.016235352,-0.076362625,0.0034033523,-0.0005102897,-0.9970742,0.021104194,-0.044495456,-0.016347656,0.0008663431,0.00794957,0.0045360643,0.1083423,0.10866986,0.08150616,1.7965835e-05,1.6713924e-05,0.00034780087,0.013031698,0.01319079,0.0050556613,1,1,13,0
2044136000,2044136000,46.575283,-16.592194,-0.016296387,-0.07637795,0.0034171958,-0.00058069994,-0.997073,0.020816023,-0.0448482,-0.01581199,0.017910393,0.0052862703,-0.0037203196,0.108717926,0.109049045,0.081725605,1.7989896e-05,1.6740072e-05,0.00034789625,0.013086234,0.013246337,0.005064179,1,1,13,0
2044144000,2044144000,46.5752,-16.592031,-0.01638794,-0.07638939,0.0034809597,-0.00062023976,-0.99707186,0.021395113,-0.044768218,-0.01616242,0.009254956,0.017137418,-0.002788279,0.10909562,0.10943032,0.08194571,1.801583e-05,1.6765869e-05,0.00034799022,0.013141001,0.013302059,0.005072698,1,1,13,0
2044160000,2044160000,46.57505,-16.591747,-0.016571045,-0.07642026,0.0034541532,-0.00069926673,-0.9970695,0.020939235,-0.04495431,-0.016945349,0.0040618908,-0.002037431,0.00014115612,0.10985723,0.110199206,0.08184429,1.806661e-05,1.6817092e-05,0.00034817978,0.0132506,0.013413438,0.0050744005,1,1,13,0
2044168000,2044168000,46.57498,-16.591625,-0.016662598,-0.07639685,0.0034777105,-0.00066431443,-0.9970712,0.02081205,-0.045094192,-0.016642453,-0.0085880235,0.0056856987,0.005867076,0.110241175,0.11058682,0.08206493,1.809226e-05,1.6842623e-05,0.00034827454,0.013305923,0.013469559,0.00508292,1,1,13,0
2044176000,2044176000,46.574913,-16.591518,-0.01675415,-0.076413155,0.0034679186,-0.0005908894,-0.99707013,0.020878902,-0.045245353,-0.015831105,-0.017509598,-0.0033690662,-0.004120267,0.11062722,0.11097658,0.082286224,1.8116878e-05,1.6867878e-05,0.0003483706,0.013361307,0.013526024,0.0050914427,1,1,13,0
2044184000,2044184000,46.57485,-16.591423,-0.016815186,-0.07643743,0.0034940562,-0.0005437073,-0.9970681,0.020847335,-0.044858895,-0.015653893,-0.011650752,0.006085242,-0.0061172927,0.11101537,0.11136848,0.08250819,1.8142606e-05,1.689337e-05,0.00034846537,0.013416718,0.013582433,0.0050999653,1,1,13,0
2044200000,2044200000,46.57474,-16.591276,-0.016998291,-0.076441154,0.0034349177,-0.00053715723,-0.99706805,0.021474991,-0.046256438,-0.015460073,-0.002595923,-0.0033689658,-0.010511563,0.111789055,0.11215515,0.08295413,1.8189468e-05,1.6928965e-05,0.00034790963,0.013519385,0.013690754,0.005117014,1,1,13,0
2044208000,2044208000,46.57469,-16.59122,-0.017089844,-0.07649778,0.0034085384,-0.0005274939,-0.99706376,0.021283912,-0.046176653,-0.015437856,-0.0012646668,-0.0062985565,-0.014107515,0.112183474,0.11255347,0.083178096,1.8216395e-05,1.6954771e-05,0.000348003,0.013575012,0.01374729,0.00512554,1,1,13,0
2044216000,2044216000,46.57465,-16.59118,-0.017181396,-0.07650662,0.003424958,-0.0005378505,-0.99706304,0.021534188,-0.04639029,-0.015829206,0.0028633042,0.004753661,-0.0021232886,0.11258004,0.11295398,0.08340273,1.8242767e-05,1.69815e-05,0.000348096,0.013631034,0.013804065,0.005134067,1,1,13,0
2044224000,2044224000,46.574615,-16.591152,-0.017242432,-0.07648022,0.00345917,-0.0004979511,-0.997065,0.021818545,-0.047055475,-0.016616322,-0.010052913,0.00821584,0.0066652056,0.11297876,0.11335668,0.083066486,1.8268891e-05,1.70079e-05,0.00034818967,0.013686889,0.013860772,0.0051266253,1,1,13,0
2044240000,2044240000,46.57455,-16.591139,-0.017425537,-0.07641246,0.0034702842,-0.0005406303,-0.9970702,0.021450112,-0.04721358,-0.017117776,0.0056596035,0.0024899612,0.004135097,0.113782726,0.114168696,0.0835161,1.8324783e-05,1.705919e-05,0.00034837495,0.0137993265,0.01397502,0.0051436825,1,1,13,0
2044248000,2044248000,46.574528,-16.591148,-0.017547607,-0.07640086,0.0034548424,-0.00047465105,-0.99707115,0.022581844,-0.047493313,-0.017493859,-0.015645653,-0.0047006328,0.002936741,0.11418799,0.11457803,0.08374191,1.8348925e-05,1.7084778e-05,0.00034847157,0.013855807,0.014032638,0.005152213,1,1,13,0
2044256000,2044256000,46.574512,-16.59117,-0.01763916,-0.076435626,0.0034482267,-0.00045466344,-0.9970685,0.022872537,-0.047341086,-0.01760856,-0.004327159,-0.0016380905,-0.008648094,0.11459546,0.1149896,0.08396839,1.8373814e-05,1.7110606e-05,0.00034856732,0.013912594,0.014090334,0.005160744,1,1,13,0
2044264000,2044264000,46.5745,-16.5912,-0.017730713,-0.07645086,0.0034403133,-0.00047317636,-0.9970674,0.02245792,-0.047650352,-0.01751224,0.0052601234,-0.0012384617,-0.0037212456,0.11499497,0.115399316,0.084195554,1.8390612e-05,1.7120281e-05,0.00034792238,0.013961016,0.01414385,0.0051692748,1,1,13,0
2044280000,2044280000,46.57448,-16.5913,-0.017944336,-0.07638849,0.0034378923,-0.00046217142,-0.9970721,0.021678224,-0.048126426,-0.017306155,-0.006190561,-0.0027035,0.010395576,0.115819775,0.1162325,0.0846519,1.8441255e-05,1.7169757e-05,0.00034799916,0.014074632,0.014259514,0.0051863417,1,1,13,0
2044288000,2044288000,46.57447,-16.591368,-0.018035889,-0.076448835,0.0034022992,-0.00048134907,-0.99706763,0.022396084,-0.048233774,-0.016906593,0.005926681,-0.008162843,-0.015170806,0.11623599,0.11665303,0.08488109,1.846824e-05,1.71951e-05,0.00034809322,0.014131776,0.014317524,0.0051948773,1,1,13,0
2044296000,2044296000,46.574467,-16.591444,-0.018127441,-0.0764746,0.0033516174,-0.00048193044,-0.99706584,0.02237616,-0.048567258,-0.017240757,0.0015325221,-0.012290748,-0.006515498,0.11665445,0.117075846,0.08452939,1.8497185e-05,1.7220767e-05,0.000348185,0.014189669,0.014376566,0.0051867925,1,1,13,0
2044304000,2044304000,46.57447,-16.591532,-0.018188477,-0.07649074,0.0033075104,-0.000467092,-0.99706477,0.022833968,-0.048613716,-0.017797658,-0.002462251,-0.0109591605,-0.0041186307,0.117075175,0.11750097,0.08475837,1.8522993e-05,1.7246184e-05,0.00034828027,0.014248183,0.014436086,0.005195328,1,1,13,0
2044320000,2044320000,46.574497,-16.591722,-0.018371582,-0.07650687,0.0033694308,-0.00041821314,-0.9970633,0.023591986,-0.047713418,-0.018345319,-0.0136472825,0.009680543,0.005602022,0.11792347,0.118358165,0.08521836,1.8576005e-05,1.729842e-05,0.00034846828,0.014364108,0.014553732,0.0052124024,1,1,13,0
2044328000,2044328000,46.574516,-16.59183,-0.018463135,-0.07649007,0.003392161,-0.0004253794,-0.9970645,0.023353634,-0.047495518,-0.018372126,0.0016656758,0.0060850848,0.0041371286,0.11835106,0.11879025,0.08544938,1.860167e-05,1.7325083e-05,0.0003485627,0.014422006,0.014612613,0.0052209417,1,1,13,0
2044336000,2044336000,46.574535,-16.591938,-0.018554688,-0.07646269,0.003411056,-0.00044838132,-0.9970666,0.023243174,-0.047368925,-0.017545972,0.005660399,0.0054194243,0.0068002245,0.11876935,0.11921993,0.08568109,1.8619707e-05,1.7334894e-05,0.0003479174,0.0144714,0.014667423,0.005229481,1,1,13,0
2044344000,2044344000,46.574554,-16.592058,-0.01864624,-0.0764739,0.00341449,-0.0005059066,-0.9970656,0.023604989,-0.047963016,-0.01696016,0.0145818945,0.0022235175,-0.0027876375,0.11920139,0.11965664,0.08591348,1.8644232e-05,1.7360868e-05,0.00034801348,0.014530112,0.014727172,0.005238023,1,1,13,0
2044360000,2044360000,46.57461,-16.592325,-0.018829346,-0.07638462,0.0033743626,-0.0005597125,-0.99707264,0.024011714,-0.047563348,-0.017111031,0.01351689,-0.0065651652,0.022512408,0.12007246,0.12053714,0.08638032,1.869521e-05,1.7413275e-05,0.00034820358,0.014648029,0.014847218,0.005255109,1,1,13,0
2044368000,2044368000,46.574646,-16.592466,-0.018920898,-0.07634296,0.0033523892,-0.00053233904,-0.99707586,0.024222963,-0.04768196,-0.016709054,-0.006190733,-0.005766306,0.010395069,0.12051151,0.12098097,0.08601254,1.8722309e-05,1.7439323e-05,0.00034829724,0.014707588,0.014907875,0.0052463673,1,1,13,0
2044376000,2044376000,46.574688,-16.592617,-0.019012451,-0.0763449,0.00333241,-0.00052159757,-0.99707586,0.02500728,-0.047875226,-0.016844653,-0.0020627645,-0.0049672634,-0.00052378513,0.12095293,0.1214272,0.086246036,1.8750008e-05,1.7465849e-05,0.00034838993,0.0147676,0.014969004,0.0052549117,1,1,13,0
2044384000,2044384000,46.57474,-16.592775,-0.019073486,-0.07632615,0.003269897,-0.000515747,-0.9970774,0.02554693,-0.047752187,-0.01680552,-6.5528075e-05,-0.015486722,0.004669392,0.12139672,0.121875845,0.08648022,1.8776702e-05,1.7491828e-05,0.0003484842,0.014827468,0.015029835,0.0052634566,1,1,13,0
2044400000,2044400000,46.574852,-16.593111,-0.019256592,-0.07637169,0.003278595,-0.0004410112,-0.99707395,0.02593409,-0.047773946,-0.015865522,-0.013115088,0.0059514977,-0.014239032,0.122278474,0.12277506,0.08695067,1.881963e-05,1.7527464e-05,0.00034793612,0.01493819,0.015147646,0.005280549,1,1,13,0
2044408000,2044408000,46.574913,-16.593287,-0.019317627,-0.07642991,0.003310051,-0.0004161072,-0.9970694,0.02648121,-0.0476789,-0.015602165,-0.006589992,0.007549299,-0.014638922,0.12272927,0.12323093,0.08718692,1.8845783e-05,1.7553884e-05,0.00034803053,0.014998466,0.015209075,0.005289097,1,1,13,0
2044416000,2044416000,46.57498,-16.59347,-0.01940918,-0.07646546,0.0033109519,-0.00044187927,-0.9970667,0.02654527,-0.047680076,-0.016295066,0.006592353,0.00089147344,-0.008913077,0.12318248,0.12368925,0.08742387,1.8872004e-05,1.7579956e-05,0.00034812515,0.015058793,0.015270315,0.005297646,1,1,13,0
2044424000,2044424000,46.57505,-16.593658,-0.019500732,-0.07645251,0.003336532,-0.00042489028,-0.9970676,0.026845442,-0.047704276,-0.01680472,-0.004592814,0.00621783,0.003204355,0.12363812,0.12415003,0.08766151,1.8898909e-05,1.760608e-05,0.00034821933,0.015119206,0.015331642,0.005306196,1,1,13,0
2044440000,2044440000,46.575203,-16.594053,-0.019714355,-0.0764983,0.0033222162,-0.00038260163,-0.9970642,0.02698399,-0.04814788,-0.017613413,0.0037961497,-0.0039022868,-0.0075813634,0.12455672,0.12507902,0.08751535,1.8950066e-05,1.7658715e-05,0.00034840984,0.015240713,0.0154553875,0.005305333,1,1,13,0
2044448000,2044448000,46.575283,-16.594267,-0.019805908,-0.07655508,0.0032890697,-0.00040857028,-0.9970598,0.026774777,-0.04909938,-0.016824936,0.0072582616,-0.00763062,-0.014239312,0.1250197,0.12554726,0.08775338,1.8974539e-05,1.7685012e-05,0.00034850638,0.015302106,0.015517846,0.0053138845,1,1,13,0
2044456000,2044456000,46.57522,-16.593977,-0.019866943,-0.07660165,0.0032698358,-0.0003929521,-0.9970564,0.026861228,-0.048180424,-0.016534474,-0.0033943758,-0.0049673175,-0.011709385,0.10506706,0.10535866,0.07996715,1.7745422e-05,1.6512078e-05,0.00034828315,0.012567404,0.012715136,0.0049910815,1,1,13,0
2044464000,2044464000,46.57516,-16.593699,-0.019958496,-0.07658717,0.0032984833,-0.00040748782,-0.9970574,0.027420988,-0.047730755,-0.017001934,0.0036555794,0.0078117223,0.0033392499,0.10542482,0.10571965,0.08018179,1.7771861e-05,1.6537517e-05,0.00034837675,0.012620375,0.012769021,0.00499959,1,1,13,0
2044480000,2044480000,46.575058,-16.593182,-0.020080566,-0.07663223,0.0032492408,-0.00039834724,-0.9970541,0.026853148,-0.04657161,-0.016450057,-0.004067356,-0.01575771,-0.007445041,0.10613859,0.10644417,0.08061305,1.7815037e-05,1.6571905e-05,0.0003477088,0.012718042,0.0128717255,0.005016612,1,1,13,0
2044488000,2044488000,46.575012,-16.592945,-0.02017212,-0.07670548,0.0032423923,-0.00036085246,-0.9970485,0.026795913,-0.04640602,-0.016284904,-0.008594636,-0.002042458,-0.018763497,0.106502175,0.106811136,0.08082966,1.7841548e-05,1.6597205e-05,0.00034780227,0.01277065,0.0129251005,0.005025124,1,1,13,0
2044496000,2044496000,46.574974,-16.59272,-0.020233154,-0.076753356,0.0031949135,-0.0003518693,-0.997045,0.027643027,-0.045755554,-0.017096426,-0.00073862466,-0.011629942,-0.012371726,0.10686776,0.107180126,0.081046924,1.7867567e-05,1.6622218e-05,0.00034789657,0.0128235705,0.012978932,0.0050336393,1,1,13,0
2044504000,2044504000,46.574947,-16.592508,-0.020324707,-0.0768028,0.0031860662,-0.0003410842,-0.9970412,0.02786635,-0.045384225,-0.017231807,-0.0019367241,-0.002042292,-0.01277137,0.10723536,0.10755115,0.08126485,1.7892959e-05,1.664773e-05,0.0003479911,0.012877103,0.013033289,0.0050421543,1,1,13,0
2044520000,2044520000,46.574905,-16.592121,-0.020477295,-0.07683781,0.0031962441,-0.00028457172,-0.9970384,0.027132114,-0.0447437,-0.0152393,-0.0023363545,0.0042159525,-0.004382401,0.107976615,0.10829937,0.081168056,1.7942484e-05,1.6698614e-05,0.0003481819,0.012984272,0.013142263,0.0050441506,1,1,13,0
2044528000,2044528000,46.574886,-16.591948,-0.02053833,-0.076842636,0.0032238087,-0.00028057222,-0.99703807,0.027310688,-0.044802617,-0.014795002,-0.0010046853,0.0071454826,-0.0015860188,0.1083503,0.10867657,0.08138653,1.7967455e-05,1.6724298e-05,0.0003482769,0.013038325,0.01319737,0.0050526676,1,1,13,0
2044536000,2044536000,46.574883,-16.591784,-0.020599365,-0.076794274,0.0032566509,-0.00025688187,-0.99704164,0.027458083,-0.04484265,-0.014346389,-0.0060645402,0.008077553,0.011729862,0.1087181,0.10905274,0.08160566,1.7982466e-05,1.6734683e-05,0.00034763254,0.013084878,0.013248636,0.0050611855,1,1,13,0
2044544000,2044544000,46.57488,-16.591633,-0.0206604,-0.07677305,0.0032922602,-0.00021236273,-0.9970432,0.027002692,-0.044366963,-0.015046866,-0.011258679,0.008344053,0.0052027395,0.10909577,0.10943406,0.08182545,1.8007493e-05,1.6760512e-05,0.00034772747,0.013138795,0.013303442,0.0050697043,1,1,13,0
2044560000,2044560000,46.57487,-16.591358,-0.020812988,-0.07676929,0.0033066683,-0.0002583273,-0.9970434,0.025650974,-0.043469302,-0.014449748,0.0065847007,-0.0028410438,-0.0019876033,0.10985732,0.11020301,0.08226702,1.8061224e-05,1.6812568e-05,0.0003479131,0.01324754,0.013414121,0.005086745,1,1,13,0
2044568000,2044568000,46.574867,-16.591234,-0.020874023,-0.07675237,0.0033272575,-0.00022927072,-0.9970447,0.025708657,-0.042901587,-0.014544222,-0.007130546,0.004882034,0.0041377977,0.11024123,0.11059066,0.08248881,1.8087207e-05,1.683804e-05,0.0003480074,0.013302774,0.01347024,0.005095267,1,1,13,0
2044576000,2044576000,46.57487,-16.591122,-0.020935059,-0.07676152,0.0032820983,-0.00020790717,-0.9970441,0.026419744,-0.042765018,-0.014627086,-0.003934793,-0.011363288,-0.0023868652,0.110627234,0.11098044,0.082161926,1.8114062e-05,1.6863924e-05,0.00034810058,0.013358083,0.013526503,0.0050882213,1,1,13,0
2044584000,2044584000,46.574883,-16.591019,-0.020996094,-0.07675632,0.0032494126,-0.0001843651,-0.9970446,0.0264388,-0.04287962,-0.014029698,-0.004733815,-0.008300592,0.0012079944,0.11101536,0.111372374,0.082383566,1.8139912e-05,1.6890175e-05,0.00034819447,0.013413718,0.013583026,0.005096743,1,1,13,0
2044600000,2044600000,46.574917,-16.590855,-0.021087646,-0.076775186,0.0032903017,-0.0001731982,-0.99704295,0.026182875,-0.042865224,-0.013833784,-0.0016710338,0.007278959,0.0020070467,0.11179798,0.1121627,0.08282885,1.8189898e-05,1.6941309e-05,0.00034838554,0.013524189,0.013695185,0.0051137926,1,1,13,0
2044608000,2044608000,46.574932,-16.590784,-0.021148682,-0.07678238,0.003278818,-0.00021486847,-0.9970425,0.024928218,-0.042724673,-0.013705292,0.011112044,-0.0017756533,-0.0018546021,0.11218335,0.11255748,0.083052486,1.8206221e-05,1.6951479e-05,0.00034774016,0.01357164,0.013747546,0.0051223175,1,1,13,0
2044616000,2044616000,46.574944,-16.590729,-0.021209717,-0.07679752,0.0032654116,-0.00021144732,-0.9970414,0.025070941,-0.043364864,-0.013768288,-7.350585e-05,-0.0031076479,-0.0037198628,0.112579875,0.11295801,0.08327679,1.8233419e-05,1.697714e-05,0.00034783327,0.013627783,0.013804789,0.0051308447,1,1,13,0
2044624000,2044624000,46.57496,-16.590687,-0.021270752,-0.07679934,0.0032804725,-0.00019270144,-0.9970412,0.025555916,-0.043585148,-0.013480093,-0.004467678,0.003683413,-0.00039094433,0.11297856,0.11336074,0.08350177,1.8260043e-05,1.7002823e-05,0.00034792698,0.013683661,0.013861451,0.005139372,1,1,13,0
2044640000,2044640000,46.57502,-16.590641,-0.021331787,-0.07675462,0.00327336,-0.00012011304,-0.9970446,0.02607465,-0.044269614,-0.013093777,-0.008196178,-0.0045721848,0.0075987005,0.11378245,0.11417282,0.08338934,1.830921e-05,1.7055032e-05,0.0003481179,0.013796016,0.013975593,0.005140409,1,1,13,0
2044648000,2044648000,46.575054,-16.590637,-0.021392822,-0.076694034,0.003247545,-0.00014830299,-0.9970494,0.025860325,-0.04438327,-0.012995229,0.007915981,-0.005637665,0.015321782,0.11418767,0.11458218,0.083614826,1.8333389e-05,1.7080956e-05,0.0003482142,0.013853114,0.0140339,0.005148938,1,1,13,0
2044656000,2044656000,46.575092,-16.590643,-0.02142334,-0.07667748,0.003248039,-0.00015439646,-0.99705064,0.025819063,-0.044476748,-0.01345606,0.0019238435,0.0004875799,0.004269663,0.11459511,0.11499379,0.08384098,1.8359127e-05,1.7106951e-05,0.00034830888,0.013909979,0.014091767,0.005157468,1,1,13,0
2044664000,2044664000,46.57513,-16.59066,-0.021484375,-0.076675326,0.0032705485,-0.00017341657,-0.99705076,0.02561605,-0.044673067,-0.01360686,0.0047201556,0.0062134136,0.00067434617,0.11500475,0.115407646,0.08406781,1.8384866e-05,1.713328e-05,0.00034840335,0.013966276,0.014148835,0.005165999,1,1,13,0
2044680000,2044680000,46.57523,-16.590727,-0.021575928,-0.07662462,0.0031972958,-0.0002513232,-0.9970548,0.02695261,-0.045016,-0.0128827775,0.011778027,-0.008033703,0.011065092,0.11581928,0.116236806,0.08452349,1.8427516e-05,1.7166729e-05,0.00034773955,0.014070209,0.01425877,0.0051830653,1,1,13,0
2044688000,2044688000,46.57529,-16.590775,-0.021636963,-0.07658342,0.0031530946,-0.00020246756,-0.9970582,0.027092248,-0.045300227,-0.012711049,-0.01099191,-0.011762078,0.010265624,0.11623544,0.11665736,0.08475235,1.8454944e-05,1.719292e-05,0.00034783222,0.014127375,0.014316941,0.0051916004,1,1,13,0
2044696000,2044696000,46.57536,-16.590837,-0.02166748,-0.07665224,0.003144042,-0.00017631991,-0.9970529,0.027542349,-0.046420805,-0.011698916,-0.005932084,-0.0025741349,-0.01729796,0.11665385,0.117080204,0.08498189,1.848243e-05,1.7219341e-05,0.00034792465,0.0141854575,0.014375846,0.0052001355,1,1,13,0
2044704000,2044704000,46.575436,-16.590914,-0.021697998,-0.07670308,0.003123008,-0.00017447822,-0.9970491,0.028435323,-0.046392385,-0.011500142,0.00032644699,-0.0051039234,-0.012770619,0.11707453,0.11750534,0.08462915,1.8509882e-05,1.724513e-05,0.00034801784,0.014243364,0.014434373,0.005192,1,1,13,0
2044720000,2044720000,46.575596,-16.591087,-0.021728516,-0.07672451,0.003085957,-0.00014864563,-0.99704754,0.027946858,-0.046216983,-0.010792076,-0.001138303,-0.008965529,-0.0053137615,0.11792271,0.118362546,0.08508847,1.8562587e-05,1.7297205e-05,0.0003482061,0.01435918,0.014552038,0.005209072,1,1,13,0
2044728000,2044728000,46.57568,-16.59119,-0.021728516,-0.07667292,0.0030731633,-0.00016610291,-0.9970516,0.027868345,-0.046993025,-0.010192523,0.0048537278,-0.0027071587,0.0129288845,0.11835024,0.11879464,0.08531915,1.8586976e-05,1.7323426e-05,0.0003483021,0.014417623,0.01461169,0.0052176104,1,1,13,0
2044736000,2044736000,46.575768,-16.591307,-0.021759033,-0.07661489,0.003064318,-0.00016043827,-0.99705607,0.028808147,-0.04779862,-0.011167231,-0.0010052265,-0.002174378,0.014526795,0.11878008,0.11922908,0.08555051,1.861189e-05,1.7349696e-05,0.0003483976,0.014475813,0.014670857,0.00522615,1,1,13,0
2044744000,2044744000,46.575867,-16.591436,-0.02178955,-0.07656382,0.0030647346,-0.00017368609,-0.99706,0.029287614,-0.04820465,-0.0120160375,0.003522185,0.00048860867,0.012795731,0.119212225,0.11966586,0.08578256,1.863868e-05,1.7375847e-05,0.00034849145,0.0145344725,0.014730449,0.005234691,1,1,13,0
2044760000,2044760000,46.576073,-16.591724,-0.021881104,-0.0764786,0.0030720823,-0.00020722182,-0.99706656,0.02959547,-0.048547115,-0.013067499,0.0020575554,0.004216996,0.015725415,0.12007141,0.12054161,0.08624871,1.868288e-05,1.7410941e-05,0.00034794104,0.014643178,0.014845225,0.005251774,1,1,13,0
2044768000,2044768000,46.576187,-16.591879,-0.021911621,-0.076425344,0.0030842812,-0.00022850635,-0.99707055,0.03038211,-0.04785481,-0.013485219,0.005253208,0.0035515977,0.013328493,0.1205104,0.12098544,0.086482815,1.8708693e-05,1.7437105e-05,0.00034803583,0.014702487,0.0149056,0.005260319,1,1,13,0
2044776000,2044776000,46.57631,-16.592033,-0.021972656,-0.07641617,0.0030949262,-0.00025653827,-0.9970712,0.030703878,-0.047007132,-0.014106053,0.006984297,0.003285115,0.0022764024,0.12095175,0.12143167,0.086113945,1.8735624e-05,1.7463446e-05,0.00034812934,0.014761757,0.0149660455,0.005251527,1,1,13,0
2044784000,2044784000,46.57643,-16.59219,-0.022003174,-0.07637985,0.0030803804,-0.00026515295,-0.997074,0.030818183,-0.046428036,-0.013732152,0.0025900523,-0.0033728583,0.00906746,0.12139547,0.12188031,0.08634778,1.876231e-05,1.7489992e-05,0.00034822302,0.014821236,0.015026861,0.005260072,1,1,13,0
2044800000,2044800000,46.576687,-16.59252,-0.022125244,-0.07637337,0.003063171,-0.00022609388,-0.9970746,0.030453153,-0.04687246,-0.014179552,0.0008591216,-0.0020412302,-0.0059793736,0.12229007,0.12278485,0.08681753,1.8813444e-05,1.7542425e-05,0.00034841345,0.014940965,0.015148416,0.005277163,1,1,13,0
2044808000,2044808000,46.57682,-16.5927,-0.02218628,-0.07637932,0.003115979,-0.00019342249,-0.99707395,0.031050662,-0.04722447,-0.015248738,-0.008994699,0.0126061365,-0.0015850675,0.12274096,0.123240784,0.08705344,1.8839944e-05,1.7568591e-05,0.00034850792,0.0150015,0.015209968,0.0052857106,1,1,13,0
2044816000,2044816000,46.576958,-16.592888,-0.022247314,-0.07640599,0.0031124798,-0.00015695723,-0.9970719,0.031296186,-0.047697227,-0.015199755,-0.008861559,-0.0015086646,-0.006778247,0.12319428,0.123699166,0.08729004,1.8867395e-05,1.759468e-05,0.00034860155,0.01506202,0.0152714485,0.005294259,1,1,13,0
2044824000,2044824000,46.577095,-16.59308,-0.02230835,-0.076429725,0.0031141771,-0.00021336424,-0.9970701,0.031431254,-0.04709436,-0.015037682,0.014174851,0.0015539816,-0.005979395,0.12363646,0.12415445,0.087527335,1.8882889e-05,1.7603274e-05,0.0003479601,0.015112682,0.015328115,0.005302809,1,1,13,0
2044840000,2044840000,46.577377,-16.593483,-0.02243042,-0.07648211,0.0030858526,-0.00028752163,-0.99706614,0.031076094,-0.047041427,-0.015411402,0.011112085,-0.0060358914,-0.009841381,0.12455488,0.12508342,0.088004,1.8932638e-05,1.765585e-05,0.00034815207,0.01523387,0.015451804,0.005319913,1,1,13,0
2044848000,2044848000,46.577526,-16.59369,-0.022491455,-0.07651012,0.003045467,-0.00030822685,-0.9970641,0.03172842,-0.047149416,-0.015511224,0.006052104,-0.009631407,-0.0070447847,0.12501778,0.12555164,0.08761837,1.8958714e-05,1.7682445e-05,0.0003482466,0.015294302,0.015513451,0.005310449,1,1,13,0
2044856000,2044856000,46.577667,-16.593384,-0.022491455,-0.076489806,0.0030258365,-0.00033712728,-0.9970658,0.031411473,-0.04696259,-0.015530851,0.007650093,-0.004304977,0.005072441,0.10506779,0.10536256,0.0798552,1.7733188e-05,1.6511005e-05,0.0003480111,0.012561462,0.012711654,0.004988361,1,1,13,0
2044864000,2044864000,46.57781,-16.593096,-0.022491455,-0.07647899,0.003022163,-0.000353391,-0.9970666,0.031517424,-0.046518706,-0.015424428,0.0047130366,-0.00044527792,0.002411084,0.10542551,0.105723545,0.080069564,1.7758724e-05,1.653663e-05,0.00034810536,0.012613874,0.012764749,0.0049968697,1,1,13,0
2044880000,2044880000,46.578114,-16.592556,-0.022521973,-0.0765049,0.0029774911,-0.00036544172,-0.99706465,0.0328256,-0.045056444,-0.016371464,0.0007189582,0.0027511572,-0.0035824738,0.106146246,0.10645079,0.08050025,1.7806013e-05,1.6585316e-05,0.00034818487,0.012718115,0.012870412,0.0050138924,1,1,13,0
2044888000,2044888000,46.578274,-16.592306,-0.022521973,-0.076497585,0.0029742671,-0.0003770773,-0.9970653,0.032790583,-0.044510573,-0.01626803,0.0035152314,-0.00044463616,0.0016106509,0.10650989,0.10681778,0.08071658,1.783136e-05,1.6610873e-05,0.0003482795,0.012771777,0.012925148,0.0050224066,1,1,13,0
2044896000,2044896000,46.578434,-16.592072,-0.02255249,-0.07645158,0.0029739882,-0.0004200726,-0.99706876,0.032783013,-0.04448383,-0.016451735,0.011238294,0.00088695466,0.011331299,0.1068682,0.10718398,0.08093356,1.7848664e-05,1.662124e-05,0.00034763082,0.012818251,0.012976161,0.005030921,1,1,13,0
2044904000,2044904000,46.578594,-16.591852,-0.022583008,-0.07642599,0.002999982,-0.0004335672,-0.99707067,0.033061862,-0.04403271,-0.016759444,0.0033822851,0.0068788035,0.0061384193,0.10723575,0.107555,0.0811512,1.7874123e-05,1.664653e-05,0.00034772538,0.012872011,0.013030702,0.005039436,1,1,13,0
2044920000,2044920000,46.578945,-16.591438,-0.022644043,-0.07641603,0.002960164,-0.00036961652,-0.9970716,0.034363512,-0.04306347,-0.016955838,-0.0036751868,0.00035411317,-0.0017179438,0.10797692,0.10830322,0.081053875,1.7926768e-05,1.6697384e-05,0.00034791295,0.012979875,0.013140577,0.0050413837,1,1,13,0
2044928000,2044928000,46.57912,-16.591253,-0.02267456,-0.07639373,0.002903925,-0.0004041294,-0.9970735,0.034015547,-0.04282733,-0.017000504,0.010173274,-0.013227986,0.005339428,0.10835057,0.108680435,0.08127206,1.7953025e-05,1.6722723e-05,0.000348007,0.013034193,0.0131958155,0.0050498988,1,1,13,0
2044936000,2044936000,46.5793,-16.591082,-0.022735596,-0.076343745,0.0028733741,-0.000424157,-0.99707735,0.034026347,-0.043065034,-0.017129213,0.0060451324,-0.0071028178,0.012263713,0.10872627,0.109059736,0.081490904,1.797828e-05,1.6748254e-05,0.00034810192,0.013088104,0.01325058,0.0050584152,1,1,13,0
2044944000,2044944000,46.579483,-16.590925,-0.022766113,-0.07626828,0.002897077,-0.00046125907,-0.997083,0.0347816,-0.042842593,-0.017254828,0.009241112,0.006745723,0.018655255,0.10910402,0.10944112,0.081710406,1.8003624e-05,1.6774267e-05,0.0003481963,0.013142392,0.013305721,0.005066934,1,1,13,0
2044960000,2044960000,46.57986,-16.59065,-0.022857666,-0.07615494,0.0029371877,-0.0004846512,-0.9970916,0.03546412,-0.042706188,-0.016037056,0.004580688,0.0035499986,0.016657839,0.109865755,0.110210195,0.0821514,1.805689e-05,1.6825952e-05,0.0003483833,0.013252474,0.013417524,0.0050839754,1,1,13,0
2044968000,2044968000,46.58005,-16.590532,-0.022888184,-0.07614429,0.0028999064,-0.00050949014,-0.9970925,0.034918383,-0.043046575,-0.016185194,0.007377057,-0.008700546,0.0024098475,0.110241294,0.110594586,0.08237289,1.8073728e-05,1.6836499e-05,0.00034773516,0.013299488,0.013469302,0.005092498,1,1,13,0
2044976000,2044976000,46.58024,-16.590431,-0.022949219,-0.07611781,0.0029023183,-0.0004962811,-0.9970945,0.034404796,-0.043775443,-0.017309885,-0.0028764086,0.00048702306,0.0064042034,0.110627264,0.110984385,0.08259505,1.809983e-05,1.686167e-05,0.00034782957,0.013354374,0.0135250855,0.00510102,1,1,13,0
2044984000,2044984000,46.580425,-16.590347,-0.023010254,-0.07609726,0.0029189715,-0.0005135402,-0.997096,0.034471925,-0.043980036,-0.017642416,0.0044473712,0.004614958,0.0049394877,0.11101534,0.11137632,0.08281788,1.812578e-05,1.6887096e-05,0.0003479241,0.013409647,0.01358116,0.005109544,1,1,13,0
2045000000,2045000000,46.58081,-16.59021,-0.023101807,-0.07612023,0.002934635,-0.00047873054,-0.9970942,0.034859233,-0.043434698,-0.01748495,-0.009267891,0.00048700176,-0.0037157251,0.11179788,0.112166665,0.082710326,1.8175158e-05,1.6937985e-05,0.0003481158,0.013520697,0.013694103,0.005110878,1,1,13,0
2045008000,2045008000,46.581,-16.590157,-0.023162842,-0.07611594,0.0029261862,-0.00042623183,-0.99709463,0.034253184,-0.04327362,-0.017926175,-0.012463683,-0.0029750776,0.00081166916,0.112192355,0.11256509,0.082933664,1.8200433e-05,1.6963486e-05,0.00034821106,0.013576429,0.013750613,0.0051194034,1,1,13,0
2045016000,2045016000,46.581192,-16.590107,-0.023223877,-0.076133974,0.002900099,-0.00036699197,-0.9970934,0.033919808,-0.041931164,-0.018549683,-0.013795323,-0.0075024054,-0.0047809677,0.11258898,0.112965696,0.08315767,1.822633e-05,1.6989126e-05,0.00034830577,0.013632269,0.01380736,0.0051279296,1,1,13,0
2045024000,2045024000,46.581383,-16.590061,-0.023284912,-0.076123506,0.0028808308,-0.0003725269,-0.99709415,0.03442187,-0.041871503,-0.018956603,0.0021836928,-0.004572942,0.0024096605,0.11298776,0.1133685,0.08338235,1.8250234e-05,1.7014794e-05,0.0003484024,0.013688528,0.013864759,0.005136457,1,1,13,0
2045040000,2045040000,46.58177,-16.59,-0.0234375,-0.07621308,0.002928118,-0.00037987594,-0.99708724,0.033755124,-0.04131029,-0.01966224,-0.0054063695,0.003682828,-0.009574637,0.11378214,0.114176854,0.083833724,1.8293484e-05,1.7050352e-05,0.00034784974,0.013793265,0.013975529,0.005153515,1,1,13,0
2045048000,2045048000,46.581955,-16.589981,-0.023498535,-0.07626616,0.0028852366,-0.0003932214,-0.9970833,0.03335744,-0.04096966,-0.019214045,0.0045805513,-0.010299328,-0.013436645,0.11418732,0.114586234,0.084060416,1.8319657e-05,1.7075807e-05,0.00034794427,0.0138499625,0.01403314,0.005162046,1,1,13,0
2045056000,2045056000,46.58214,-16.589968,-0.023590088,-0.076293305,0.0028614833,-0.00042900242,-0.9970813,0.03378746,-0.040670034,-0.019427089,0.0097737275,-0.00510608,-0.0069119087,0.11459471,0.11499786,0.084287785,1.834679e-05,1.7101585e-05,0.00034803752,0.013906925,0.014091107,0.0051705777,1,1,13,0
2045064000,2045064000,46.582336,-16.589966,-0.02368164,-0.07628533,0.0028930304,-0.0004472769,-0.99708176,0.03417361,-0.04096295,-0.020130355,0.004314384,0.008342817,0.0018764712,0.115004316,0.11541173,0.08394235,1.8371116e-05,1.712789e-05,0.00034813327,0.013963952,0.0141495,0.005162751,1,1,13,0
2045080000,2045080000,46.582733,-16.589977,-0.023895264,-0.07626027,0.0028300947,-0.00046361345,-0.99708384,0.034501065,-0.040334754,-0.02097701,0.0047118696,-0.002974788,-0.008913226,0.11582927,0.11624516,0.084397376,1.841893e-05,1.717726e-05,0.00034821295,0.014077467,0.014264629,0.0051798164,1,1,13,0
2045088000,2045088000,46.582935,-16.589994,-0.024017334,-0.076304145,0.002749719,-0.00043105867,-0.99708074,0.034829054,-0.039682683,-0.020265438,-0.006207246,-0.020551547,-0.010910709,0.11624555,0.11666582,0.0846259,1.8443976e-05,1.7203012e-05,0.00034830862,0.014135051,0.014323147,0.005188351,1,1,13,0
2045096000,2045096000,46.583145,-16.590014,-0.024108887,-0.07634284,0.0027142637,-0.0004468878,-0.99707794,0.035528,-0.039193224,-0.0197435,0.004978386,-0.008434465,-0.009578771,0.1166641,0.117088765,0.0848551,1.847118e-05,1.7228653e-05,0.00034840233,0.014192823,0.014382091,0.0051968875,1,1,13,0
2045104000,2045104000,46.583363,-16.59004,-0.024230957,-0.07638265,0.0026924699,-0.00047984248,-0.99707484,0.03658234,-0.039582837,-0.01966897,0.008972948,-0.004705799,-0.009845369,0.117084906,0.117514014,0.08508499,1.8498456e-05,1.7254597e-05,0.0003484957,0.014250383,0.014440476,0.005205424,1,1,13,0
2045120000,2045120000,46.58381,-16.59012,-0.024414062,-0.07646386,0.0025863962,-0.00044811514,-0.99706894,0.036147792,-0.03922104,-0.01869762,-0.01100085,-0.016557096,-0.016504453,0.11792208,0.1183669,0.0855468,1.854072e-05,1.7289722e-05,0.00034794566,0.014357367,0.0145539,0.0052225017,1,1,13,0
2045128000,2045128000,46.584026,-16.590166,-0.024505615,-0.076517485,0.0025751307,-0.00040662242,-0.9970648,0.035314288,-0.038927574,-0.01893626,-0.009802552,-0.0035073985,-0.013175487,0.11834958,0.11879904,0.08577873,1.8567016e-05,1.7315886e-05,0.00034803973,0.014416465,0.014613813,0.005231042,1,1,13,0
2045136000,2045136000,46.58424,-16.59022,-0.024627686,-0.076476574,0.002568045,-0.0003593425,-0.99706805,0.0350065,-0.03875933,-0.01971407,-0.01140055,-0.0025751777,0.010526727,0.11877939,0.11923352,0.08541746,1.8593979e-05,1.73418e-05,0.00034813344,0.014475248,0.014673592,0.0052225646,1,1,13,0
2045144000,2045144000,46.584454,-16.59028,-0.024749756,-0.07643482,0.0025724676,-0.0003990083,-0.9970712,0.035214573,-0.03881753,-0.019991256,0.010037811,0.0019522104,0.010793124,0.119211525,0.11967036,0.08564915,1.8620716e-05,1.7367867e-05,0.00034822727,0.014533885,0.014733352,0.005231105,1,1,13,0
2045160000,2045160000,46.584892,-16.590424,-0.024963379,-0.07642188,0.0026348715,-0.000428475,-0.99707204,0.03510775,-0.038465917,-0.01852889,0.002314868,0.0044819326,0.008129838,0.120082766,0.12055114,0.086114585,1.86729e-05,1.7420922e-05,0.00034841572,0.014652288,0.014853476,0.005248187,1,1,13,0
2045168000,2045168000,46.58511,-16.590506,-0.02508545,-0.07644112,0.0026481573,-0.00040899322,-0.99707055,0.03529712,-0.039316338,-0.01885379,-0.0048758043,0.0030171406,-0.0045201066,0.12052192,0.120995104,0.08634833,1.8698049e-05,1.744761e-05,0.00034851086,0.0147120375,0.01491409,0.0052567283,1,1,13,0
2045176000,2045176000,46.58533,-16.590603,-0.025177002,-0.07646674,0.0026540214,-0.00038897904,-0.9970686,0.034998108,-0.03974024,-0.01927778,-0.004875755,0.0011529333,-0.00611804,0.12096343,0.12144147,0.086582765,1.8723666e-05,1.7473702e-05,0.00034860626,0.0147718275,0.0149750365,0.005265273,1,1,13,0
2045184000,2045184000,46.585545,-16.590704,-0.025299072,-0.0764325,0.0026589835,-0.00041558378,-0.9970712,0.03485081,-0.039407406,-0.019266339,0.0067089642,0.0018187303,0.008928851,0.12139468,0.1218851,0.08681788,1.8741694e-05,1.7482602e-05,0.00034796057,0.014822679,0.015031609,0.005273819,1,1,13,0
2045200000,2045200000,46.585983,-16.590929,-0.025543213,-0.07634206,0.0026496782,-0.0003355247,-0.9970781,0.035211615,-0.03957779,-0.019378426,-0.01366439,-0.004439657,0.017716644,0.12228928,0.12278978,0.087290205,1.8793393e-05,1.7535098e-05,0.00034815018,0.014942096,0.015152646,0.0052909115,1,1,13,0
2045208000,2045208000,46.58621,-16.59105,-0.025634766,-0.076286905,0.0026421957,-0.0003431863,-0.99708235,0.03562256,-0.03925168,-0.01965262,0.0021815142,-0.001643435,0.01425456,0.12274017,0.12324577,0.08691247,1.8818997e-05,1.7560995e-05,0.00034824573,0.015002466,0.015214186,0.0052817673,1,1,13,0
2045216000,2045216000,46.586433,-16.591175,-0.025726318,-0.076296635,0.0026028932,-0.00037606293,-0.9970817,0.03576585,-0.03938127,-0.019913629,0.009105749,-0.009100395,-0.0019907246,0.12319348,0.12370422,0.08714869,1.884675e-05,1.7587101e-05,0.00034833903,0.015063351,0.015276238,0.005290316,1,1,13,0
2045224000,2045224000,46.586662,-16.591305,-0.025848389,-0.076303616,0.002574983,-0.00037193467,-0.9970812,0.035632383,-0.03883327,-0.020143587,-0.000348485,-0.0069698794,-0.0013249919,0.12364922,0.12416514,0.0873856,1.887129e-05,1.7613334e-05,0.0003484354,0.015124475,0.015338313,0.005298864,1,1,13,0
2045240000,2045240000,46.587116,-16.59158,-0.026031494,-0.076296456,0.002548089,-0.0004189572,-0.9970818,0.03506922,-0.039040804,-0.0184159,0.0041788374,0.005680132,0.0021372274,0.12456803,0.12509443,0.08786151,1.8920538e-05,1.7666041e-05,0.00034862803,0.015245866,0.015462061,0.005315965,1,1,13,0
2045248000,2045248000,46.587337,-16.591728,-0.026123047,-0.0763045,0.0025267496,-0.00042720724,-0.9970813,0.034626726,-0.039522465,-0.0185512,0.002580969,-0.0051056733,-0.0015912802,0.12503111,0.12556282,0.08810051,1.8945711e-05,1.7692211e-05,0.0003487241,0.0153067075,0.015524169,0.0053245174,1,1,13,0
2045256000,2045256000,46.587257,-16.591518,-0.026000977,-0.07632416,0.0024835982,-0.00040655452,-0.9970799,0.03462889,-0.039546106,-0.018364832,-0.0042100386,-0.011097799,-0.0045207543,0.105067015,0.10536493,0.08025438,1.7709359e-05,1.6502518e-05,0.0003477419,0.012563238,0.0127157215,0.0049996823,1,1,13,0
2045264000,2045264000,46.58718,-16.591322,-0.025848389,-0.07633491,0.0024769888,-0.000403132,-0.99707913,0.0343588,-0.03934901,-0.018445846,-0.0003523532,-0.0012501073,-0.0026540365,0.10542473,0.10572597,0.08046982,1.7733444e-05,1.6527785e-05,0.00034783783,0.012615433,0.012768657,0.005008193,1,1,13,0
2045280000,2045280000,46.58708,-16.590961,-0.02557373,-0.07639489,0.0025006928,-0.00039104355,-0.9970745,0.035078023,-0.03813023,-0.017264029,-0.009674477,0.0003504654,-0.009843775,0.10614547,0.1064533,0.080377005,1.7779683e-05,1.6577393e-05,0.00034791752,0.012720219,0.012874586,0.005010431,1,1,13,0
