timestamp,timestamp_sample,xyz[0],xyz[1],xyz[2],xyz_derivative[0],xyz_derivative[1],xyz_derivative[2]
2043328000,0,3.9012008e-05,4.3580123e-05,2.0197541e-08,0.0,0.0,0.0
2043332000,0,3.9012015e-05,4.3580123e-05,2.0185215e-08,0.0,0.0,0.0
2043340000,0,3.901204e-05,4.358015e-05,2.0160563e-08,0.0,0.0,0.0
2043348000,0,3.886332e-05,4.3487624e-05,2.0052799e-08,0.0,0.0,0.0
2043360000,0,3.8591512e-05,4.315778e-05,1.991994e-08,0.0,0.0,0.0
2043368000,0,3.8636557e-05,4.3196957e-05,1.9876842e-08,0.0,0.0,0.0
2043380000,0,3.8602906e-05,4.2784814e-05,1.9937097e-08,0.0,0.0,0.0
2043388000,0,3.854779e-05,4.275446e-05,1.9887802e-08,0.0,0.0,0.0
2043400000,0,3.857481e-05,4.2778993e-05,1.9855255e-08,0.0,0.0,0.0
2043408000,0,3.847512e-05,4.3024953e-05,1.9695657e-08,0.0,0.0,0.0
2043420000,0,3.823709e-05,4.2826257e-05,1.95946e-08,0.0,0.0,0.0
2043428000,0,3.816913e-05,4.228035e-05,1.9721405e-08,0.0,0.0,0.0
2043440000,0,3.7988728e-05,4.070629e-05,2.0101892e-08,0.0,0.0,0.0
2043448000,0,3.7699014e-05,3.963586e-05,2.0226373e-08,0.0,0.0,0.0
2043460000,0,3.7985024e-05,4.2816173e-05,1.9306517e-08,0.0,0.0,0.0
2043468000,0,3.7956263e-05,4.2649925e-05,1.9321845e-08,0.0,0.0,0.0
2043480000,0,3.757165e-05,3.9056325e-05,2.0269544e-08,0.0,0.0,0.0
2043488000,0,3.7659745e-05,3.9234383e-05,2.0281124e-08,0.0,0.0,0.0
2043500000,0,3.7753e-05,4.0255047e-05,1.9913369e-08,0.0,0.0,0.0
2043504000,0,3.8004357e-05,4.1986783e-05,1.9448557e-08,0.0,0.0,0.0
2043520000,0,3.8092883e-05,4.2501797e-05,1.9299435e-08,0.0,0.0,0.0
2043528000,0,3.778271e-05,4.0944717e-05,1.9640922e-08,0.0,0.0,0.0
2043540000,0,3.7916394e-05,4.1501968e-05,1.9518799e-08,0.0,0.0,0.0
2043548000,0,3.7914353e-05,4.1457624e-05,1.9509917e-08,0.0,0.0,0.0
2043560000,0,3.7779886e-05,4.0751118e-05,1.9615753e-08,0.0,0.0,0.0
2043568000,0,3.814981e-05,4.2583004e-05,1.9150683e-08,0.0,0.0,0.0
2043580000,0,3.824304e-05,4.1900894e-05,1.945466e-08,0.0,0.0,0.0
2043588000,0,3.816441e-05,4.1736457e-05,1.9374253e-08,0.0,0.0,0.0
2043600000,0,3.840002e-05,4.1695625e-05,1.9539007e-08,0.0,0.0,0.0
2043608000,0,3.8362763e-05,4.2601136e-05,1.919938e-08,0.0,0.0,0.0
2043620000,0,3.8221548e-05,4.2881038e-05,1.8991917e-08,0.0,0.0,0.0
2043628000,0,3.8439346e-05,4.3167947e-05,1.8990836e-08,0.0,0.0,0.0
2043640000,0,3.8664588e-05,4.3169664e-05,1.906466e-08,0.0,0.0,0.0
2043648000,0,3.8639642e-05,4.3230066e-05,1.9006645e-08,0.0,0.0,0.0
2043660000,0,3.8444607e-05,4.312676e-05,1.8904155e-08,0.0,0.0,0.0
2043668000,0,3.840769e-05,4.3164375e-05,1.8843261e-08,0.0,0.0,0.0
2043680000,0,3.8598388e-05,4.2923642e-05,1.8994013e-08,0.0,0.0,0.0
2043688000,0,3.856834e-05,4.271551e-05,1.9025256e-08,0.0,0.0,0.0
2043700000,0,3.8516835e-05,4.2714386e-05,1.8962801e-08,0.0,0.0,0.0
2043708000,0,3.8538034e-05,4.27243e-05,1.8947025e-08,0.0,0.0,0.0
2043720000,0,3.85015e-05,4.294073e-05,1.8817634e-08,0.0,0.0,0.0
2043728000,0,3.826063e-05,4.2838314e-05,1.870495e-08,0.0,0.0,0.0
2043740000,0,3.813567e-05,4.212523e-05,1.8850058e-08,0.0,0.0,0.0
2043748000,0,3.810392e-05,4.114854e-05,1.9143885e-08,0.0,0.0,0.0
2043760000,0,3.7928963e-05,4.0802905e-05,1.9061956e-08,0.0,0.0,0.0
2043768000,0,3.7767153e-05,4.1549007e-05,1.8711694e-08,0.0,0.0,0.0
2043780000,0,3.7922273e-05,4.2327116e-05,1.8468214e-08,0.0,0.0,0.0
2043788000,0,3.7854294e-05,4.0487164e-05,1.906252e-08,0.0,0.0,0.0
2043800000,0,3.761281e-05,3.897049e-05,1.9480096e-08,0.0,0.0,0.0
2043808000,0,3.7706344e-05,3.993718e-05,1.9136163e-08,0.0,0.0,0.0
2043820000,0,3.7838705e-05,4.2059586e-05,1.8473052e-08,0.0,0.0,0.0
2043824000,0,3.783199e-05,4.1410713e-05,1.87148e-08,0.0,0.0,0.0
2043840000,0,3.783542e-05,4.1095234e-05,1.874834e-08,0.0,0.0,0.0
2043848000,0,3.7944737e-05,4.1628206e-05,1.8606928e-08,0.0,0.0,0.0
2043860000,0,3.796019e-05,4.1658895e-05,1.8570399e-08,0.0,0.0,0.0
2043868000,0,3.7873542e-05,4.1137835e-05,1.8678648e-08,0.0,0.0,0.0
2043880000,0,3.808745e-05,4.2294792e-05,1.8296655e-08,0.0,0.0,0.0
2043888000,0,3.7945876e-05,4.219109e-05,1.8297484e-08,0.0,0.0,0.0
2043900000,0,3.8295682e-05,4.248124e-05,1.827798e-08,0.0,0.0,0.0
2043904000,0,3.8179023e-05,4.120475e-05,1.8676344e-08,0.0,0.0,0.0
2043920000,0,3.830588e-05,4.24343e-05,1.8317884e-08,0.0,0.0,0.0
2043928000,0,3.823393e-05,4.2755648e-05,1.8143565e-08,0.0,0.0,0.0
2043940000,0,3.8443988e-05,4.310042e-05,1.8097918e-08,0.0,0.0,0.0
2043948000,0,3.8620572e-05,4.3357486e-05,1.806503e-08,0.0,0.0,0.0
2043960000,0,3.868683e-05,4.3201682e-05,1.8121854e-08,0.0,0.0,0.0
2043968000,0,3.8467893e-05,4.3094722e-05,1.8021105e-08,0.0,0.0,0.0
2043980000,0,3.8406717e-05,4.3015745e-05,1.7980806e-08,0.0,0.0,0.0
2043988000,0,3.858791e-05,4.292707e-05,1.8079689e-08,0.0,0.0,0.0
2044000000,0,3.851751e-05,4.2715666e-05,1.8082014e-08,0.0,0.0,0.0
2044008000,0,3.848624e-05,4.2719832e-05,1.8040563e-08,0.0,0.0,0.0
2044020000,0,3.8509042e-05,4.270143e-05,1.802377e-08,0.0,0.0,0.0
2044028000,0,3.8542552e-05,4.2720563e-05,1.8010734e-08,0.0,0.0,0.0
2044040000,0,3.8258913e-05,4.2799205e-05,1.7800883e-08,0.0,0.0,0.0
2044048000,0,3.8147795e-05,4.2347718e-05,1.7879257e-08,0.0,0.0,0.0
2044056000,0,3.801861e-05,4.137418e-05,1.814068e-08,0.0,0.0,0.0
2044068000,0,3.8074715e-05,4.136771e-05,1.8073642e-08,0.0,0.0,0.0
2044080000,0,3.7692065e-05,4.0952127e-05,1.7999998e-08,0.0,0.0,0.0
2044088000,0,3.8185997e-05,4.257342e-05,1.7605467e-08,0.0,0.0,0.0
2044100000,0,3.7913447e-05,4.0552895e-05,1.8216726e-08,0.0,0.0,0.0
2044108000,0,3.7554473e-05,3.878864e-05,1.8640787e-08,0.0,0.0,0.0
2044120000,0,3.7901274e-05,4.1420557e-05,1.781176e-08,0.0,0.0,0.0
2044128000,0,3.779174e-05,4.1877647e-05,1.7625304e-08,0.0,0.0,0.0
2044140000,0,3.7951213e-05,4.1934625e-05,1.7601112e-08,0.0,0.0,0.0
2044148000,0,3.7837297e-05,4.1098643e-05,1.7869588e-08,0.0,0.0,0.0
2044160000,0,3.7992148e-05,4.18584e-05,1.7651745e-08,0.0,0.0,0.0
2044168000,0,3.800662e-05,4.191607e-05,1.7614468e-08,0.0,0.0,0.0
2044180000,0,3.7914164e-05,4.1318202e-05,1.774458e-08,0.0,0.0,0.0
2044188000,0,3.783541e-05,4.0884282e-05,1.7812738e-08,0.0,0.0,0.0
2044200000,0,3.8164973e-05,4.1733067e-05,1.7689263e-08,0.0,0.0,0.0
2044208000,0,3.843996e-05,4.268744e-05,1.7420241e-08,0.0,0.0,0.0
2044220000,0,3.816698e-05,4.1356314e-05,1.772852e-08,0.0,0.0,0.0
2044228000,0,3.8182672e-05,4.209812e-05,1.747015e-08,0.0,0.0,0.0
2044240000,0,3.830925e-05,4.28411e-05,1.723822e-08,0.0,0.0,0.0
2044248000,0,3.8447968e-05,4.3250435e-05,1.712794e-08,0.0,0.0,0.0
2044260000,0,3.8570695e-05,4.344319e-05,1.7083204e-08,0.0,0.0,0.0
2044268000,0,3.8745056e-05,4.3199478e-05,1.7240508e-08,0.0,0.0,0.0
2044280000,0,3.844176e-05,4.299474e-05,1.7123876e-08,0.0,0.0,0.0
2044284000,0,3.842892e-05,4.3115593e-05,1.705575e-08,0.0,0.0,0.0
2044300000,0,3.859468e-05,4.2771622e-05,1.7221168e-08,0.0,0.0,0.0
2044308000,0,3.8504404e-05,4.2717817e-05,1.7169462e-08,0.0,0.0,0.0
2044320000,0,3.845855e-05,4.2721967e-05,1.7108809e-08,0.0,0.0,0.0
2044328000,0,3.8471066e-05,4.269625e-05,1.7101568e-08,0.0,0.0,0.0
2044340000,0,3.8520473e-05,4.265205e-05,1.7108288e-08,0.0,0.0,0.0
2044348000,0,3.8418748e-05,4.2765958e-05,1.6990994e-08,0.0,0.0,0.0
2044360000,0,3.8098035e-05,4.212492e-05,1.7027658e-08,0.0,0.0,0.0
2044368000,0,3.7923273e-05,4.1048595e-05,1.7309004e-08,0.0,0.0,0.0
2044380000,0,3.8245624e-05,4.2009433e-05,1.7056589e-08,0.0,0.0,0.0
2044388000,0,3.768265e-05,4.0131035e-05,1.7480584e-08,0.0,0.0,0.0
2044400000,0,3.7862617e-05,4.066096e-05,1.7263837e-08,0.0,0.0,0.0
2044408000,0,3.766808e-05,4.0314488e-05,1.7322446e-08,0.0,0.0,0.0
2044420000,0,3.7538342e-05,3.9525432e-05,1.7440822e-08,0.0,0.0,0.0
2044428000,0,3.7857728e-05,4.0676136e-05,1.7244462e-08,0.0,0.0,0.0
2044440000,0,3.7829745e-05,4.176564e-05,1.6718536e-08,0.0,0.0,0.0
2044448000,0,3.7755388e-05,4.1145977e-05,1.6938909e-08,0.0,0.0,0.0
2044460000,0,3.7899805e-05,4.2062187e-05,1.6631075e-08,0.0,0.0,0.0
2044468000,0,3.7910708e-05,4.218784e-05,1.6560172e-08,0.0,0.0,0.0
2044480000,0,3.7878413e-05,4.187838e-05,1.6624792e-08,0.0,0.0,0.0
2044488000,0,3.7767084e-05,4.1168e-05,1.6802785e-08,0.0,0.0,0.0
2044500000,0,3.8100705e-05,4.2644122e-05,1.6338015e-08,0.0,0.0,0.0
2044508000,0,3.7840982e-05,4.2216194e-05,1.6391468e-08,0.0,0.0,0.0
2044520000,0,3.7683232e-05,4.149836e-05,1.6504872e-08,0.0,0.0,0.0
2044528000,0,3.7995196e-05,4.2370437e-05,1.6341367e-08,0.0,0.0,0.0
2044540000,0,3.837286e-05,4.3337775e-05,1.6130098e-08,0.0,0.0,0.0
2044548000,0,3.8158796e-05,4.319518e-05,1.605473e-08,0.0,0.0,0.0
2044560000,0,3.8189897e-05,4.313985e-05,1.6041819e-08,0.0,0.0,0.0
2044568000,0,3.8360697e-05,4.2567608e-05,1.6312624e-08,0.0,0.0,0.0
2044580000,0,3.805729e-05,4.2580286e-05,1.610267e-08,0.0,0.0,0.0
2044588000,0,3.8008988e-05,4.2589814e-05,1.6047883e-08,0.0,0.0,0.0
2044600000,0,3.796296e-05,4.2438736e-05,1.603469e-08,0.0,0.0,0.0
2044608000,0,3.7974318e-05,4.2230586e-05,1.609846e-08,0.0,0.0,0.0
2044620000,0,3.7749895e-05,4.1461753e-05,1.6233706e-08,0.0,0.0,0.0
2044628000,0,3.7650494e-05,4.2485026e-05,1.5707652e-08,0.0,0.0,0.0
2044640000,0,3.7848928e-05,4.2202653e-05,1.5902668e-08,0.0,0.0,0.0
2044648000,0,3.7364924e-05,3.916561e-05,1.681926e-08,0.0,0.0,0.0
2044660000,0,3.73175e-05,4.017876e-05,1.6300381e-08,0.0,0.0,0.0
2044668000,0,3.7755955e-05,4.2467516e-05,1.5630073e-08,0.0,0.0,0.0
2044680000,0,3.7179972e-05,4.0759773e-05,1.5953622e-08,0.0,0.0,0.0
2044688000,0,3.728196e-05,4.121284e-05,1.5848554e-08,0.0,0.0,0.0
2044696000,0,3.7392252e-05,4.193135e-05,1.5596017e-08,0.0,0.0,0.0
2044708000,0,3.746423e-05,4.2055537e-05,1.5546892e-08,0.0,0.0,0.0
2044720000,0,3.7384594e-05,4.1272102e-05,1.5762978e-08,0.0,0.0,0.0
2044728000,0,3.7356804e-05,4.1568375e-05,1.5555075e-08,0.0,0.0,0.0
2044740000,0,3.737182e-05,4.3007964e-05,1.4977397e-08,0.0,0.0,0.0
2044748000,0,3.7440037e-05,4.164815e-05,1.5534766e-08,0.0,0.0,0.0
2044760000,0,3.7489463e-05,4.2794214e-05,1.5082081e-08,0.0,0.0,0.0
2044768000,0,3.7724058e-05,4.2847343e-05,1.5156022e-08,0.0,0.0,0.0
2044780000,0,3.746546e-05,4.2599593e-05,1.507536e-08,0.0,0.0,0.0
2044788000,0,3.7533093e-05,4.2302287e-05,1.5192951e-08,0.0,0.0,0.0
2044800000,0,3.734803e-05,4.217847e-05,1.5100209e-08,0.0,0.0,0.0
2044808000,0,3.7299473e-05,4.1822954e-05,1.5186226e-08,0.0,0.0,0.0
2044820000,0,3.7110545e-05,4.0489827e-05,1.5539289e-08,0.0,0.0,0.0
2044828000,0,3.694472e-05,4.184646e-05,1.492867e-08,0.0,0.0,0.0
2044840000,0,3.682103e-05,3.9213737e-05,1.5808391e-08,0.0,0.0,0.0
2044848000,0,3.681052e-05,4.127275e-05,1.4997534e-08,0.0,0.0,0.0
2044860000,0,3.6519574e-05,3.9391805e-05,1.5512668e-08,0.0,0.0,0.0
2044868000,0,3.664308e-05,4.1759726e-05,1.4641514e-08,0.0,0.0,0.0
2044880000,0,3.6668083e-05,4.0989373e-05,1.4913079e-08,0.0,0.0,0.0
2044888000,0,3.679417e-05,4.1666204e-05,1.4677712e-08,0.0,0.0,0.0
2044900000,0,3.6877704e-05,4.1445164e-05,1.4769352e-08,0.0,0.0,0.0
2044908000,0,3.6441e-05,4.0970506e-05,1.4676514e-08,0.0,0.0,0.0
2044920000,0,3.712553e-05,4.2992437e-05,1.4173489e-08,0.0,0.0,0.0
2044928000,0,3.6645157e-05,4.1330604e-05,1.458844e-08,0.0,0.0,0.0
2044940000,0,3.685548e-05,4.2219424e-05,1.429294e-08,0.0,0.0,0.0
2044948000,0,3.6722995e-05,4.2264317e-05,1.4172557e-08,0.0,0.0,0.0
2044960000,0,3.68148e-05,4.193167e-05,1.4305774e-08,0.0,0.0,0.0
2044968000,0,3.6629117e-05,4.161087e-05,1.4314598e-08,0.0,0.0,0.0
2044980000,0,3.6304486e-05,3.981649e-05,1.4785286e-08,0.0,0.0,0.0
2044988000,0,3.6172965e-05,4.0118357e-05,1.46010795e-08,0.0,0.0,0.0
2044996000,0,3.619713e-05,4.042353e-05,1.4415042e-08,0.0,0.0,0.0
2045008000,0,3.617681e-05,4.0450414e-05,1.4383019e-08,0.0,0.0,0.0
2045020000,0,3.602692e-05,3.990139e-05,1.4470562e-08,0.0,0.0,0.0
2045028000,0,3.598698e-05,4.1528667e-05,1.37734935e-08,0.0,0.0,0.0
2045040000,0,3.605254e-05,4.0893985e-05,1.4004526e-08,0.0,0.0,0.0
2045048000,0,3.6216108e-05,4.135408e-05,1.387336e-08,0.0,0.0,0.0
2045060000,0,3.588901e-05,4.0786384e-05,1.3862589e-08,0.0,0.0,0.0
2045068000,0,3.6044024e-05,4.142696e-05,1.36808485e-08,0.0,0.0,0.0
2045080000,0,3.5910787e-05,4.1259642e-05,1.36233425e-08,0.0,0.0,0.0
2045088000,0,3.5941695e-05,4.1816005e-05,1.337343e-08,0.0,0.0,0.0
2045100000,0,3.579692e-05,4.160835e-05,1.3335707e-08,0.0,0.0,0.0
2045108000,0,3.5804987e-05,4.087139e-05,1.3590015e-08,0.0,0.0,0.0
2045120000,0,3.5652683e-05,4.0157494e-05,1.3728243e-08,0.0,0.0,0.0
2045128000,0,3.5462166e-05,3.9979208e-05,1.3615702e-08,0.0,0.0,0.0
2045140000,0,3.5539753e-05,4.0450184e-05,1.3501778e-08,0.0,0.0,0.0
2045148000,0,3.549051e-05,4.0981282e-05,1.3235506e-08,0.0,0.0,0.0
2045160000,0,3.5297184e-05,4.102567e-05,1.3001184e-08,0.0,0.0,0.0
2045168000,0,3.528077e-05,4.104436e-05,1.2961739e-08,0.0,0.0,0.0
2045180000,0,3.5216835e-05,4.1350733e-05,1.28030635e-08,0.0,0.0,0.0
2045188000,0,3.5096902e-05,4.030811e-05,1.3128278e-08,0.0,0.0,0.0
2045200000,0,3.496517e-05,4.0304174e-05,1.2947074e-08,0.0,0.0,0.0
2045208000,0,3.4959856e-05,4.085623e-05,1.273718e-08,0.0,0.0,0.0
2045220000,0,3.512441e-05,4.12882e-05,1.2595316e-08,0.0,0.0,0.0
2045228000,0,3.4842375e-05,4.0660212e-05,1.2669016e-08,0.0,0.0,0.0
2045240000,0,3.4321376e-05,3.817405e-05,1.336834e-08,0.0,0.0,0.0
2045248000,0,3.441999e-05,3.865145e-05,1.3178856e-08,0.0,0.0,0.0
2045260000,0,3.4766454e-05,4.06775e-05,1.2485111e-08,0.0,0.0,0.0
2045268000,0,3.4546974e-05,4.0578285e-05,1.2365482e-08,0.0,0.0,0.0
2045280000,0,3.4447756e-05,4.0680996e-05,1.21811e-08,0.0,0.0,0.0
2045288000,0,3.4271616e-05,3.9304014e-05,1.26390125e-08,0.0,0.0,0.0
2045300000,0,3.4350636e-05,4.0439358e-05,1.2188154e-08,0.0,0.0,0.0
2045308000,0,3.414159e-05,4.00107e-05,1.2236643e-08,0.0,0.0,0.0
2045320000,0,3.4044133e-05,4.0313127e-05,1.1998779e-08,0.0,0.0,0.0
2045328000,0,3.406162e-05,4.067209e-05,1.1812431e-08,0.0,0.0,0.0
2045340000,0,3.364414e-05,3.87436e-05,1.2330493e-08,0.0,0.0,0.0
2045348000,0,3.387003e-05,3.9812665e-05,1.188612e-08,0.0,0.0,0.0
2045360000,0,3.353551e-05,3.9498947e-05,1.18648495e-08,0.0,0.0,0.0
2045368000,0,3.371981e-05,4.029053e-05,1.1580997e-08,0.0,0.0,0.0
2045380000,0,3.3410222e-05,3.919042e-05,1.1833353e-08,0.0,0.0,0.0
2045388000,0,3.3317978e-05,3.9659724e-05,1.1539398e-08,0.0,0.0,0.0
2045400000,0,3.3367087e-05,3.999325e-05,1.1369835e-08,0.0,0.0,0.0
2045408000,0,3.3083594e-05,3.9861898e-05,1.1178437e-08,0.0,0.0,0.0
2045420000,0,3.2952077e-05,3.9463266e-05,1.12889245e-08,0.0,0.0,0.0
2045428000,0,3.2977274e-05,3.9861596e-05,1.1106792e-08,0.0,0.0,0.0
2045436000,0,3.2666492e-05,3.820465e-05,1.1606795e-08,0.0,0.0,0.0
2045448000,0,3.250618e-05,3.7481233e-05,1.1699654e-08,0.0,0.0,0.0
2045460000,0,3.2545875e-05,3.9465904e-05,1.0877171e-08,0.0,0.0,0.0
2045468000,0,3.2586784e-05,3.9643386e-05,1.0772751e-08,0.0,0.0,0.0
2045480000,0,3.234442e-05,3.7737558e-05,1.1380302e-08,0.0,0.0,0.0
2045488000,0,3.209983e-05,3.9031533e-05,1.0655301e-08,0.0,0.0,0.0
2045500000,0,3.182525e-05,3.8311355e-05,1.0767253e-08,0.0,0.0,0.0
2045508000,0,3.1775544e-05,3.863381e-05,1.0530505e-08,0.0,0.0,0.0
2045520000,0,3.1750173e-05,3.876877e-05,1.0445258e-08,0.0,0.0,0.0
2045528000,0,3.156295e-05,3.807676e-05,1.0534504e-08,0.0,0.0,0.0
2045540000,0,3.1667398e-05,3.797862e-05,1.0656964e-08,0.0,0.0,0.0
2045548000,0,3.146962e-05,3.8909042e-05,1.0107699e-08,0.0,0.0,0.0
2045560000,0,3.1377167e-05,3.8748913e-05,1.0056788e-08,0.0,0.0,0.0
2045568000,0,3.125379e-05,3.7546815e-05,1.0431817e-08,0.0,0.0,0.0
2045580000,0,3.1011863e-05,3.8543116e-05,9.832094e-09,0.0,0.0,0.0
2045588000,0,3.0841715e-05,3.8802635e-05,9.555964e-09,0.0,0.0,0.0
2045600000,0,3.0643292e-05,3.8084756e-05,9.754637e-09,0.0,0.0,0.0
2045608000,0,3.0253135e-05,3.664018e-05,1.004307e-08,0.0,0.0,0.0
2045620000,0,3.0408883e-05,3.7089565e-05,9.906771e-09,0.0,0.0,0.0
2045628000,0,3.0436497e-05,3.8034083e-05,9.502787e-09,0.0,0.0,0.0
2045640000,0,3.0182056e-05,3.8090566e-05,9.270199e-09,0.0,0.0,0.0
2045648000,0,2.2401604e-05,3.934926e-05,4.4267567e-09,0.0,0.0,0.0
2045660000,0,2.9809602e-05,3.7466674e-05,9.540049e-09,0.0,0.0,0.0
2045668000,0,2.9796516e-05,3.8116526e-05,9.201484e-09,0.0,0.0,0.0
2045680000,0,2.955528e-05,3.6556736e-05,9.7571755e-09,0.0,0.0,0.0
2045688000,0,2.9746394e-05,3.739878e-05,9.447306e-09,0.0,0.0,0.0
2045700000,0,2.9779232e-05,3.7250982e-05,9.549464e-09,0.0,0.0,0.0
2045708000,0,2.9657827e-05,3.7718517e-05,9.295467e-09,0.0,0.0,0.0
2045720000,0,3.0027793e-05,3.7928537e-05,9.370367e-09,0.0,0.0,0.0
2045728000,0,2.981119e-05,3.7178557e-05,9.555463e-09,0.0,0.0,0.0
2045740000,0,2.9397419e-05,3.735287e-05,9.253994e-09,0.0,0.0,0.0
2045748000,0,2.9302204e-05,3.6985613e-05,9.386879e-09,0.0,0.0,0.0
2045760000,0,2.9469176e-05,3.7217924e-05,9.270577e-09,0.0,0.0,0.0
2045768000,0,2.9361217e-05,3.6961348e-05,9.3498045e-09,0.0,0.0,0.0
2045780000,0,2.9524104e-05,3.7114536e-05,9.353301e-09,0.0,0.0,0.0
2045788000,0,2.9493396e-05,3.7595233e-05,9.143074e-09,0.0,0.0,0.0
2045800000,0,2.95166e-05,3.7854912e-05,9.029215e-09,0.0,0.0,0.0
2045808000,0,2.9249128e-05,3.7562033e-05,8.954778e-09,0.0,0.0,0.0
2045820000,0,2.8949053e-05,3.6489728e-05,9.2524015e-09,0.0,0.0,0.0
2045828000,0,2.8718236e-05,3.4987534e-05,9.742369e-09,0.0,0.0,0.0
2045840000,0,2.893112e-05,3.668987e-05,9.154337e-09,0.0,0.0,0.0
2045848000,0,2.906229e-05,3.7181682e-05,9.013432e-09,0.0,0.0,0.0
2045860000,0,2.9073755e-05,3.7266447e-05,8.961866e-09,0.0,0.0,0.0
2045868000,0,2.9189672e-05,3.7895716e-05,8.733545e-09,0.0,0.0,0.0
2045880000,0,2.8885013e-05,3.7164657e-05,8.861296e-09,0.0,0.0,0.0
2045888000,0,2.8848597e-05,3.7613718e-05,8.624118e-09,0.0,0.0,0.0
2045900000,0,2.864164e-05,3.6431295e-05,8.953556e-09,0.0,0.0,0.0
2045908000,0,2.8432643e-05,3.5515044e-05,9.259453e-09,0.0,0.0,0.0
2045920000,0,2.8742928e-05,3.708129e-05,8.757707e-09,0.0,0.0,0.0
2045928000,0,2.8859478e-05,3.661233e-05,8.999447e-09,0.0,0.0,0.0
2045940000,0,2.8884793e-05,3.759597e-05,8.586019e-09,0.0,0.0,0.0
2045948000,0,2.8809874e-05,3.7787635e-05,8.472272e-09,0.0,0.0,0.0
2045960000,0,2.06528e-05,3.8427268e-05,3.6412342e-09,0.0,0.0,0.0
2045968000,0,2.8139704e-05,3.52788e-05,9.342963e-09,0.0,0.0,0.0
2045980000,0,2.8158218e-05,3.582924e-05,9.155641e-09,0.0,0.0,0.0
2045988000,0,2.8285558e-05,3.675229e-05,8.824804e-09,0.0,0.0,0.0
2046000000,0,2.8490022e-05,3.6603884e-05,8.95415e-09,0.0,0.0,0.0
2046008000,0,2.840902e-05,3.7148016e-05,8.691352e-09,0.0,0.0,0.0
2046016000,0,2.8443223e-05,3.767908e-05,8.460436e-09,0.0,0.0,0.0
2046028000,0,2.8136183e-05,3.65631e-05,8.770148e-09,0.0,0.0,0.0
2046040000,0,2.756585e-05,3.4667228e-05,9.1903605e-09,0.0,0.0,0.0
2046048000,0,2.775464e-05,3.4793407e-05,9.279894e-09,0.0,0.0,0.0
2046060000,0,2.7941816e-05,3.658845e-05,8.607686e-09,0.0,0.0,0.0
2046068000,0,2.8095787e-05,3.6570575e-05,8.6699785e-09,0.0,0.0,0.0
2046080000,0,2.815508e-05,3.7148304e-05,8.455712e-09,0.0,0.0,0.0
2046088000,0,2.8024291e-05,3.73921e-05,8.261514e-09,0.0,0.0,0.0
2046100000,0,2.764655e-05,3.5641708e-05,8.787175e-09,0.0,0.0,0.0
2046108000,0,2.7208851e-05,3.444781e-05,8.996777e-09,0.0,0.0,0.0
2046120000,0,2.748145e-05,3.5717796e-05,8.6332275e-09,0.0,0.0,0.0
2046128000,0,2.7517402e-05,3.631345e-05,8.38339e-09,0.0,0.0,0.0
2046136000,0,2.7641889e-05,3.6302918e-05,8.417245e-09,0.0,0.0,0.0
2046148000,0,2.7851816e-05,3.6874284e-05,8.286351e-09,0.0,0.0,0.0
2046160000,0,2.7612386e-05,3.7081812e-05,8.083087e-09,0.0,0.0,0.0
2046168000,0,2.732248e-05,3.5716046e-05,8.467752e-09,0.0,0.0,0.0
2046180000,0,2.6752401e-05,3.368443e-05,8.963226e-09,0.0,0.0,0.0
2046188000,0,2.7108536e-05,3.512381e-05,8.593316e-09,0.0,0.0,0.0
2046200000,0,2.7355807e-05,3.622459e-05,8.243051e-09,0.0,0.0,0.0
2046208000,0,2.7480331e-05,3.643278e-05,8.196803e-09,0.0,0.0,0.0
2046220000,0,2.730593e-05,3.6789945e-05,7.937847e-09,0.0,0.0,0.0
2046228000,0,2.7111064e-05,3.6520854e-05,7.918791e-09,0.0,0.0,0.0
2046240000,0,2.668659e-05,3.490031e-05,8.3614164e-09,0.0,0.0,0.0
2046248000,0,2.6621836e-05,3.459915e-05,8.422941e-09,0.0,0.0,0.0
2046260000,0,2.6781421e-05,3.5635294e-05,8.078562e-09,0.0,0.0,0.0
2046268000,0,2.6966505e-05,3.5789366e-05,8.095972e-09,0.0,0.0,0.0
2046276000,0,2.6958272e-05,3.623459e-05,7.90213e-09,0.0,0.0,0.0
2046288000,0,2.6877911e-05,3.6401623e-05,7.756644e-09,0.0,0.0,0.0
2046300000,0,2.6545384e-05,3.6200538e-05,7.602421e-09,0.0,0.0,0.0
2046308000,0,2.6484502e-05,3.572759e-05,7.785197e-09,0.0,0.0,0.0
2046320000,0,-0.004340257,-0.003917684,-2.0463106e-06,0.0,0.0,0.0
2046328000,0,2.71469e-05,3.5138954e-05,8.689254e-09,0.0,0.0,0.0
2046340000,0,2.6429227e-05,3.6014793e-05,7.917375e-09,0.0,0.0,0.0
2046348000,0,2.659954e-05,3.60604e-05,7.9734805e-09,0.0,0.0,0.0
2046360000,0,2.6172376e-05,3.5696386e-05,7.909118e-09,0.0,0.0,0.0
2046368000,0,2.6224827e-05,3.5884754e-05,7.811404e-09,0.0,0.0,0.0
2046380000,0,2.581168e-05,3.405445e-05,8.326255e-09,0.0,0.0,0.0
2046388000,0,2.593828e-05,3.4850375e-05,8.030201e-09,0.0,0.0,0.0
2046400000,0,2.6008194e-05,3.5672078e-05,7.748926e-09,0.0,0.0,0.0
2046408000,0,2.5916766e-05,3.5829853e-05,7.567404e-09,0.0,0.0,0.0
2046420000,0,2.592658e-05,3.574164e-05,7.585895e-09,0.0,0.0,0.0
2046428000,0,2.5604299e-05,3.5054443e-05,7.712982e-09,0.0,0.0,0.0
2046440000,0,2.5486048e-05,3.5159967e-05,7.572257e-09,0.0,0.0,0.0
2046448000,0,2.5295387e-05,3.4396708e-05,7.746895e-09,0.0,0.0,0.0
2046460000,0,2.5575077e-05,3.5298865e-05,7.543913e-09,0.0,0.0,0.0
2046468000,0,2.5644249e-05,3.569846e-05,7.3985458e-09,0.0,0.0,0.0
2046476000,0,2.543614e-05,3.5011886e-05,7.536665e-09,0.0,0.0,0.0
2046488000,0,2.534933e-05,3.5066714e-05,7.451281e-09,0.0,0.0,0.0
2046500000,0,2.5195472e-05,3.5107907e-05,7.350298e-09,0.0,0.0,0.0
2046508000,0,2.5096735e-05,3.4616995e-05,7.484459e-09,0.0,0.0,0.0
2046520000,0,2.5188541e-05,3.4298824e-05,7.654946e-09,0.0,0.0,0.0
2046528000,0,2.519616e-05,3.5397563e-05,7.1661113e-09,0.0,0.0,0.0
2046540000,0,2.481569e-05,3.4289977e-05,7.415759e-09,0.0,0.0,0.0
2046548000,0,2.4853545e-05,3.4791436e-05,7.212479e-09,0.0,0.0,0.0
2046560000,0,2.4782179e-05,3.4927194e-05,7.1014203e-09,0.0,0.0,0.0
2046568000,0,2.4726047e-05,3.4843764e-05,7.067053e-09,0.0,0.0,0.0
2046580000,0,2.4553667e-05,3.4430002e-05,7.0627046e-09,0.0,0.0,0.0
2046588000,0,2.4759725e-05,3.500296e-05,6.996374e-09,0.0,0.0,0.0
2046600000,0,2.450015e-05,3.4781417e-05,6.8778845e-09,0.0,0.0,0.0
2046608000,0,2.4321906e-05,3.4308505e-05,6.993903e-09,0.0,0.0,0.0
2046620000,0,2.4270881e-05,3.4713186e-05,6.788108e-09,0.0,0.0,0.0
2046628000,0,2.43102e-05,3.4693665e-05,6.8083637e-09,0.0,0.0,0.0
2046640000,0,2.3878158e-05,3.4146564e-05,6.7372476e-09,0.0,0.0,0.0
2046648000,0,2.409855e-05,3.4386943e-05,6.775159e-09,0.0,0.0,0.0
2046660000,0,2.4049777e-05,3.4390145e-05,6.76291e-09,0.0,0.0,0.0
2046668000,0,2.4106419e-05,3.4042983e-05,6.8956405e-09,0.0,0.0,0.0
2046680000,0,2.3765939e-05,3.444125e-05,6.50406e-09,0.0,0.0,0.0
2046688000,0,2.377275e-05,3.443646e-05,6.5000725e-09,0.0,0.0,0.0
2046700000,0,2.3870574e-05,3.3131637e-05,7.0938637e-09,0.0,0.0,0.0
2046708000,0,2.3531746e-05,3.308049e-05,6.9290285e-09,0.0,0.0,0.0
2046720000,0,2.3466817e-05,3.4093966e-05,6.4159256e-09,0.0,0.0,0.0
2046728000,0,2.3405079e-05,3.335998e-05,6.656313e-09,0.0,0.0,0.0
2046740000,0,2.3330353e-05,3.4043784e-05,6.312141e-09,0.0,0.0,0.0
2046748000,0,2.327432e-05,3.396451e-05,6.277575e-09,0.0,0.0,0.0
2046760000,0,2.302507e-05,3.292375e-05,6.6057693e-09,0.0,0.0,0.0
2046768000,0,2.2954266e-05,3.3143046e-05,6.437851e-09,0.0,0.0,0.0
2046780000,0,2.309272e-05,3.384704e-05,6.2094823e-09,0.0,0.0,0.0
2046788000,0,2.2968377e-05,3.3659744e-05,6.197035e-09,0.0,0.0,0.0
2046800000,0,2.2889846e-05,3.3858818e-05,6.032349e-09,0.0,0.0,0.0
2046808000,0,2.2796254e-05,3.4022556e-05,5.90891e-09,0.0,0.0,0.0
2046820000,0,2.2316695e-05,3.2581953e-05,6.2043566e-09,0.0,0.0,0.0
2046828000,0,2.2256527e-05,3.2692376e-05,6.112487e-09,0.0,0.0,0.0
2046840000,0,2.230744e-05,3.288578e-05,6.0552336e-09,0.0,0.0,0.0
2046848000,0,-0.0064688185,-0.0061657364,-1.0368756e-06,0.0,0.0,0.0
2046856000,0,2.2968266e-05,3.3270855e-05,6.6501613e-09,0.0,0.0,0.0
2046868000,0,2.237435e-05,3.3935583e-05,6.030442e-09,0.0,0.0,0.0
2046880000,0,2.1766771e-05,3.1830124e-05,6.5032872e-09,0.0,0.0,0.0
2046888000,0,2.1673437e-05,3.2194108e-05,6.301234e-09,0.0,0.0,0.0
2046900000,0,2.1874997e-05,3.304709e-05,6.049482e-09,0.0,0.0,0.0
2046908000,0,2.1859807e-05,3.3365122e-05,5.903065e-09,0.0,0.0,0.0
2046920000,0,2.2026225e-05,3.3702585e-05,5.824146e-09,0.0,0.0,0.0
2046928000,0,2.1549087e-05,3.2589836e-05,6.0242797e-09,0.0,0.0,0.0
2046940000,0,2.1292393e-05,3.176467e-05,6.1775713e-09,0.0,0.0,0.0
2046948000,0,2.1347061e-05,3.2504893e-05,5.9191887e-09,0.0,0.0,0.0
2046960000,0,2.1422871e-05,3.2881966e-05,5.7446057e-09,0.0,0.0,0.0
2046968000,0,2.1444297e-05,3.3275373e-05,5.5656844e-09,0.0,0.0,0.0
2046980000,0,2.1212401e-05,3.251317e-05,5.7786385e-09,0.0,0.0,0.0
2046988000,0,2.1087151e-05,3.239532e-05,5.746253e-09,0.0,0.0,0.0
2047000000,0,2.075732e-05,3.1823507e-05,5.752804e-09,0.0,0.0,0.0
2047008000,0,2.0819341e-05,3.2464704e-05,5.482445e-09,0.0,0.0,0.0
2047020000,0,2.0975489e-05,3.285321e-05,5.4073714e-09,0.0,0.0,0.0
2047028000,0,2.0892972e-05,3.2507964e-05,5.4912834e-09,0.0,0.0,0.0
2047040000,0,2.0718388e-05,3.2789736e-05,5.2635833e-09,0.0,0.0,0.0
2047048000,0,2.0501078e-05,3.172353e-05,5.530508e-09,0.0,0.0,0.0
2047060000,0,2.026652e-05,3.178523e-05,5.368324e-09,0.0,0.0,0.0
2047068000,0,2.0461355e-05,3.20609e-05,5.332944e-09,0.0,0.0,0.0
2047080000,0,2.0328129e-05,3.2606084e-05,4.9698845e-09,0.0,0.0,0.0
2047088000,0,2.0273963e-05,3.237182e-05,5.0674567e-09,0.0,0.0,0.0
2047096000,0,2.0083355e-05,3.2012813e-05,5.112125e-09,0.0,0.0,0.0
2047108000,0,1.9978017e-05,3.1385258e-05,5.2854694e-09,0.0,0.0,0.0
2047120000,0,2.0041023e-05,3.1742966e-05,5.131169e-09,0.0,0.0,0.0
2047128000,0,1.9841116e-05,3.1879343e-05,4.9268434e-09,0.0,0.0,0.0
2047140000,0,1.967316e-05,3.2203352e-05,4.6842845e-09,0.0,0.0,0.0
2047148000,0,1.9651607e-05,3.1998137e-05,4.7423216e-09,0.0,0.0,0.0
2047160000,0,1.9239253e-05,3.1272204e-05,4.769766e-09,0.0,0.0,0.0
2047168000,0,1.9341445e-05,3.1531657e-05,4.681082e-09,0.0,0.0,0.0
2047180000,0,1.9243318e-05,3.1532778e-05,4.64499e-09,0.0,0.0,0.0
2047188000,0,1.9261437e-05,3.1960426e-05,4.469284e-09,0.0,0.0,0.0
2047200000,0,1.8847108e-05,3.1300635e-05,4.451197e-09,0.0,0.0,0.0
2047208000,0,1.8836949e-05,3.1662214e-05,4.278526e-09,0.0,0.0,0.0
2047220000,0,1.9053237e-05,3.1263742e-05,4.557344e-09,0.0,0.0,0.0
2047228000,0,1.8893623e-05,3.0778247e-05,4.684442e-09,0.0,0.0,0.0
2047236000,0,1.8472161e-05,3.1314165e-05,4.144116e-09,0.0,0.0,0.0
2047248000,0,1.8371727e-05,3.1292355e-05,4.067825e-09,0.0,0.0,0.0
2047260000,0,1.8332554e-05,3.1229072e-05,4.0686023e-09,0.0,0.0,0.0
2047268000,0,1.8452532e-05,3.0702173e-05,4.351651e-09,0.0,0.0,0.0
2047280000,0,1.8178282e-05,3.0800456e-05,4.125766e-09,0.0,0.0,0.0
2047288000,0,1.8003133e-05,3.1087187e-05,3.8769943e-09,0.0,0.0,0.0
2047300000,0,1.783106e-05,3.085947e-05,3.859324e-09,0.0,0.0,0.0
2047308000,0,1.785152e-05,3.0878575e-05,3.8582404e-09,0.0,0.0,0.0
2047320000,0,1.7622508e-05,3.0350859e-05,3.89263e-09,0.0,0.0,0.0
2047328000,0,1.7610248e-05,3.058873e-05,3.7593937e-09,0.0,0.0,0.0
2047340000,0,1.7522267e-05,3.0929532e-05,3.5822396e-09,0.0,0.0,0.0
2047348000,0,1.7482878e-05,3.0652376e-05,3.6521681e-09,0.0,0.0,0.0
2047360000,0,1.7101816e-05,3.0216765e-05,3.5463381e-09,0.0,0.0,0.0
2047368000,0,1.6607468e-05,2.9641447e-05,3.4256633e-09,0.0,0.0,0.0
2047380000,0,1.5805075e-05,2.9600893e-05,2.839914e-09,0.0,0.0,0.0
2047388000,0,1.532989e-05,2.9285377e-05,2.625292e-09,0.0,0.0,0.0
2047400000,0,1.49528905e-05,2.9208866e-05,2.3425786e-09,0.0,0.0,0.0
2047408000,0,1.4998028e-05,2.8920957e-05,2.4739504e-09,0.0,0.0,0.0
2047420000,0,1.473449e-05,2.880713e-05,2.341621e-09,0.0,0.0,0.0
2047428000,0,1.4496486e-05,2.8260283e-05,2.4097444e-09,0.0,0.0,0.0
2047440000,0,1.4424005e-05,2.8948927e-05,2.0433704e-09,0.0,0.0,0.0
2047448000,0,1.4358475e-05,2.870705e-05,2.0820499e-09,0.0,0.0,0.0
2047460000,0,1.4259804e-05,2.8428365e-05,2.0796758e-09,0.0,0.0,0.0
2047468000,0,1.3120327e-05,2.7486087e-05,1.5942733e-09,0.0,0.0,0.0
2047480000,0,1.2259982e-05,2.692564e-05,1.1794982e-09,0.0,0.0,0.0
2047488000,0,1.2246454e-05,2.705398e-05,1.071993e-09,0.0,0.0,0.0
2047500000,0,1.2224518e-05,2.673776e-05,1.1707033e-09,0.0,0.0,0.0
2047508000,0,1.2325727e-05,2.6545516e-05,1.2896368e-09,0.0,0.0,0.0
2047520000,0,1.1990547e-05,2.6280553e-05,1.1930695e-09,0.0,0.0,0.0
2047528000,0,1.2025244e-05,2.6313091e-05,1.1149031e-09,0.0,0.0,0.0
2047540000,0,1.2017425e-05,2.637929e-05,1.0668645e-09,0.0,0.0,0.0
2047548000,0,1.2055645e-05,2.6095138e-05,1.1877094e-09,0.0,0.0,0.0
2047560000,0,1.0865401e-05,2.4508785e-05,7.2144013e-10,0.0,0.0,0.0
2047568000,0,9.943485e-06,2.4281995e-05,2.0593086e-10,0.0,0.0,0.0
2047580000,0,9.9580175e-06,2.4140945e-05,2.4130756e-10,0.0,0.0,0.0
2047588000,0,9.954018e-06,2.4092653e-05,2.1210242e-10,0.0,0.0,0.0
2047600000,0,9.967058e-06,2.3732904e-05,3.517666e-10,0.0,0.0,0.0
2047608000,0,9.822869e-06,2.377098e-05,2.3501212e-10,0.0,0.0,0.0
2047620000,0,9.429018e-06,2.3162906e-05,1.37031e-10,0.0,0.0,0.0
2047628000,0,9.728263e-06,2.3432036e-05,2.1221129e-10,0.0,0.0,0.0
2047640000,0,9.072433e-06,2.287953e-05,-7.205475e-11,0.0,0.0,0.0
2047648000,0,9.068783e-06,2.3159278e-05,-1.8590327e-10,0.0,0.0,0.0
2047660000,0,8.962247e-06,2.2889591e-05,-1.397813e-10,0.0,0.0,0.0
2047664000,0,8.905319e-06,2.2591037e-05,-2.3020091e-11,0.0,0.0,0.0
2047680000,0,8.738342e-06,2.2210934e-05,-1.4539181e-10,0.0,0.0,0.0
2047688000,0,8.6033415e-06,2.2842913e-05,-4.924049e-10,0.0,0.0,0.0
2047700000,0,8.459751e-06,2.205128e-05,-3.008381e-10,0.0,0.0,0.0
2047708000,0,8.3122595e-06,2.2269604e-05,-5.2535687e-10,0.0,0.0,0.0
2047720000,0,7.733347e-06,2.1463053e-05,-6.3262223e-10,0.0,0.0,0.0
2047728000,0,7.815574e-06,2.1713682e-05,-6.7570677e-10,0.0,0.0,0.0
2047740000,0,7.806088e-06,2.1644644e-05,-6.920525e-10,0.0,0.0,0.0
2047748000,0,7.86078e-06,2.1689917e-05,-7.0764405e-10,0.0,0.0,0.0
2047760000,0,7.3455326e-06,2.0867248e-05,-7.4648854e-10,0.0,0.0,0.0
2047768000,0,6.7850056e-06,2.0590123e-05,-1.0575746e-09,0.0,0.0,0.0
2047780000,0,6.853555e-06,2.0741623e-05,-1.0955321e-09,0.0,0.0,0.0
2047788000,0,6.9072703e-06,2.0977619e-05,-1.1898882e-09,0.0,0.0,0.0
2047800000,0,6.628842e-06,1.9937608e-05,-1.0330936e-09,0.0,0.0,0.0
2047808000,0,6.3041834e-06,1.9666824e-05,-1.1670678e-09,0.0,0.0,0.0
2047820000,0,6.283756e-06,1.9932071e-05,-1.3332756e-09,0.0,0.0,0.0
2047828000,0,6.2395684e-06,2.0591822e-05,-1.6588986e-09,0.0,0.0,0.0
2047840000,0,6.1353676e-06,1.9549672e-05,-1.3195948e-09,0.0,0.0,0.0
2047848000,0,5.7872403e-06,1.9127045e-05,-1.4033923e-09,0.0,0.0,0.0
2047860000,0,5.6283347e-06,1.9233757e-05,-1.5870819e-09,0.0,0.0,0.0
2047868000,0,5.53468e-06,1.962625e-05,-1.8016872e-09,0.0,0.0,0.0
2047880000,0,5.8170504e-06,1.4556183e-05,-4.9421706e-10,0.0,0.0,0.0
2047888000,0,5.169797e-06,1.4166249e-05,-8.3512075e-10,0.0,0.0,0.0
2047900000,0,3.5074963e-06,1.6030119e-05,-2.4487306e-09,0.0,0.0,0.0
2047908000,0,4.4098974e-06,1.7413146e-05,-2.5489573e-09,0.0,0.0,0.0
2047920000,0,2.2683053e-06,1.3650571e-05,-2.775685e-09,0.0,0.0,0.0
2047928000,0,2.8485138e-06,1.53904e-05,-3.0371097e-09,0.0,0.0,0.0
2047940000,0,2.66506e-06,3.856458e-06,-3.0737785e-10,0.0,0.0,0.0
2047948000,0,8.046562e-06,2.2042555e-06,1.1754782e-09,0.0,0.0,0.0
2047960000,0,3.241262e-05,-0.0026999936,-1.080716e-05,0.0,0.0,0.0
2047968000,0,2.5693156e-05,-0.00584472,-9.078403e-06,0.0,0.0,0.0
2047980000,0,-9.114396e-06,-0.012140054,3.0805114e-07,0.0,0.0,0.0
2047988000,0,-5.7555244e-06,-0.017465625,-9.513896e-07,0.0,0.0,0.0
2048000000,0,-2.1833179e-05,-0.027222723,2.9976527e-06,0.0,0.0,0.0
2048008000,0,-2.6167318e-05,-0.03453409,4.1458516e-06,0.0,0.0,0.0
2048020000,0,-2.3245138e-05,-0.04646009,4.174995e-06,0.0,0.0,0.0
2048028000,0,-2.6556181e-05,-0.055020444,4.2752185e-06,0.0,0.0,0.0
2048040000,0,-3.2194028e-05,-0.06918198,5.2842893e-06,0.0,0.0,0.0
2048048000,0,-3.2883756e-05,-0.07932061,5.6298986e-06,0.0,0.0,0.0
2048060000,0,2.1705246e-06,-0.09516083,-2.724725e-06,0.0,0.0,0.0
2048068000,0,2.7051721e-05,-0.10598419,-1.17729e-05,0.0,0.0,0.0
2048080000,0,2.8627712e-05,-0.12367594,-1.5287133e-05,0.0,0.0,0.0
2048088000,0,3.28369e-05,-0.13587135,-1.46936245e-05,0.0,0.0,0.0
2048100000,0,4.6057572e-05,-0.15458365,-1.3101485e-05,0.0,0.0,0.0
2048108000,0,3.624026e-05,-0.16690068,-1.1442464e-05,0.0,0.0,0.0
2048120000,0,-4.0373066e-06,-0.1857645,-5.406011e-06,0.0,0.0,0.0
2048128000,0,2.5648164e-05,-0.19860028,-8.358058e-06,0.0,0.0,0.0
2048140000,0,-0.0010463364,-0.21743032,-0.00072806986,0.0,0.0,0.0
2048144000,0,-0.0018810756,-0.22328147,-0.0011813799,0.0,0.0,0.0
2048160000,0,-0.003892474,-0.24734072,-0.0023134795,0.0,0.0,0.0
2048168000,0,-0.01074086,-0.2551609,-0.0030345994,0.0,0.0,0.0
2048180000,0,-0.025717594,-0.26422653,-0.005812631,0.0,0.0,0.0
2048188000,0,-0.03226408,-0.2676201,-0.0057954155,0.0,0.0,0.0
2048200000,0,-0.031588387,-0.26469654,-0.0056175566,0.0,0.0,0.0
2048208000,0,-0.03560716,-0.26042625,-0.0055378373,0.0,0.0,0.0
2048220000,0,-0.044837356,-0.2537086,-0.005459691,0.0,0.0,0.0
2048228000,0,-0.04249358,-0.24497613,-0.005549867,0.0,0.0,0.0
2048240000,0,-0.036163393,-0.22924729,-0.005263873,0.0,0.0,0.0
2048248000,0,-0.03732382,-0.21959972,-0.0050485954,0.0,0.0,0.0
2048260000,0,-0.03948283,-0.20685026,-0.004709566,0.0,0.0,0.0
2048268000,0,-0.035510283,-0.19392386,-0.0045259283,0.0,0.0,0.0
2048280000,0,-0.032129522,-0.17312984,-0.004075507,0.0,0.0,0.0
2048288000,0,-0.03418693,-0.16190156,-0.0037946703,0.0,0.0,0.0
2048300000,0,-0.031527184,-0.14553338,-0.0035944104,0.0,0.0,0.0
2048308000,0,-0.025084566,-0.12961437,-0.003452993,0.0,0.0,0.0
2048316000,0,-0.022728214,-0.11570199,-0.0031699024,0.0,0.0,0.0
2048328000,0,-0.023059754,-0.09789739,-0.002771568,0.0,0.0,0.0
2048340000,0,-0.02356806,-0.077992335,-0.0025356973,0.0,0.0,0.0
2048348000,0,-0.021453846,-0.063846216,-0.0023554019,0.0,0.0,0.0
2048360000,0,-0.02305396,-0.0440485,-0.0019536582,0.0,0.0,0.0
2048368000,0,-0.02120151,-0.03337908,-0.001578864,0.0,0.0,0.0
2048380000,0,-0.014325379,-0.014097927,-0.0012179309,0.0,0.0,0.0
2048388000,0,-0.009379788,-0.0012377703,-0.00093530695,0.0,0.0,0.0
2048400000,0,-0.0022971805,0.016666137,-0.00054212165,0.0,0.0,0.0
2048408000,0,0.00084792456,0.028534709,-0.00029490795,0.0,0.0,0.0
2048420000,0,0.0046644364,0.04518186,8.0990765e-05,0.0,0.0,0.0
2048428000,0,0.0074704755,0.054588925,0.00039767698,0.0,0.0,0.0
2048440000,0,0.013100666,0.06766142,0.00092306937,0.0,0.0,0.0
2048448000,0,0.016844878,0.07660421,0.0012804546,0.0,0.0,0.0
2048460000,0,0.01711645,0.08722571,0.0017074586,0.0,0.0,0.0
2048468000,0,0.016268618,0.093625195,0.0018852903,0.0,0.0,0.0
2048480000,0,0.015866736,0.09954127,0.0021534993,0.0,0.0,0.0
2048488000,0,0.0152007835,0.10414006,0.0023521415,0.0,0.0,0.0
2048500000,0,0.014270724,0.1098228,0.002464314,0.0,0.0,0.0
2048508000,0,0.016191652,0.11468778,0.0024336658,0.0,0.0,0.0
2048520000,0,0.02056691,0.12456876,0.002471195,0.0,0.0,0.0
2048528000,0,0.019810045,0.12967722,0.0026539124,0.0,0.0,0.0
2048540000,0,0.018724645,0.13575087,0.0026859445,0.0,0.0,0.0
2048548000,0,0.021357423,0.14033298,0.002680931,0.0,0.0,0.0
2048560000,0,0.025719475,0.14690633,0.0028059778,0.0,0.0,0.0
2048568000,0,0.025759572,0.14731471,0.0030181787,0.0,0.0,0.0
2048580000,0,0.026983261,0.14657485,0.002963149,0.0,0.0,0.0
2048588000,0,0.02813692,0.1475834,0.0029476727,0.0,0.0,0.0
2048600000,0,0.027707275,0.15316974,0.003175718,0.0,0.0,0.0
2048608000,0,0.0241684,0.1549267,0.0032384936,0.0,0.0,0.0
2048620000,0,0.021027746,0.15704387,0.002966779,0.0,0.0,0.0
2048628000,0,0.021206724,0.15860853,0.0028964449,0.0,0.0,0.0
2048640000,0,0.020850586,0.15726642,0.0031777888,0.0,0.0,0.0
2048648000,0,0.017399898,0.15496057,0.0031928036,0.0,0.0,0.0
2048660000,0,0.019910658,0.1529764,0.0031272043,0.0,0.0,0.0
2048668000,0,0.020381758,0.15363084,0.0032319783,0.0,0.0,0.0
2048680000,0,0.016281096,0.1515251,0.0036116322,0.0,0.0,0.0
2048688000,0,0.013413397,0.14708324,0.0035509272,0.0,0.0,0.0
2048700000,0,0.015197707,0.14206855,0.0034208174,0.0,0.0,0.0
2048708000,0,0.017008057,0.13999435,0.0034973267,0.0,0.0,0.0
2048720000,0,0.015391145,0.1370665,0.0036595885,0.0,0.0,0.0
2048728000,0,0.0150812855,0.13596165,0.0035579174,0.0,0.0,0.0
2048740000,0,0.018289855,0.1353476,0.0035065073,0.0,0.0,0.0
2048748000,0,0.019676404,0.13363399,0.0036205351,0.0,0.0,0.0
2048760000,0,0.01581395,0.12731129,0.0035609663,0.0,0.0,0.0
2048768000,0,0.015972974,0.123984024,0.0033420364,0.0,0.0,0.0
2048780000,0,0.019284777,0.120566696,0.0031483818,0.0,0.0,0.0
2048788000,0,0.02004961,0.11673736,0.0031940497,0.0,0.0,0.0
2048800000,0,0.018543422,0.11083846,0.0030175196,0.0,0.0,0.0
2048808000,0,0.020523805,0.108726114,0.0029153517,0.0,0.0,0.0
2048820000,0,0.022289626,0.107877,0.0028652886,0.0,0.0,0.0
2048828000,0,0.019503966,0.10573487,0.002877056,0.0,0.0,0.0
2048840000,0,0.015986336,0.10219337,0.0025573252,0.0,0.0,0.0
2048848000,0,0.017277595,0.10119376,0.0023626117,0.0,0.0,0.0
2048860000,0,0.017246818,0.098238096,0.0022536232,0.0,0.0,0.0
2048868000,0,0.013819473,0.09524655,0.0021148731,0.0,0.0,0.0
2048880000,0,0.008997392,0.09080363,0.0016965021,0.0,0.0,0.0
2048888000,0,0.007618044,0.090423524,0.0014333146,0.0,0.0,0.0
2048900000,0,0.0065934253,0.09042878,0.001249006,0.0,0.0,0.0
2048908000,0,0.005784697,0.08783018,0.0010666889,0.0,0.0,0.0
2048920000,0,0.007814621,0.085611366,0.00071039796,0.0,0.0,0.0
2048928000,0,0.009646857,0.0851093,0.00056121283,0.0,0.0,0.0
2048940000,0,0.009092884,0.08167989,0.0004881572,0.0,0.0,0.0
2048948000,0,0.0076804827,0.07896202,0.00032107907,0.0,0.0,0.0
2048960000,0,0.01036104,0.07539976,2.112593e-05,0.0,0.0,0.0
2048968000,0,0.010858369,0.07345875,-0.00013696191,0.0,0.0,0.0
2048980000,0,0.008629496,0.06911978,-0.00024546552,0.0,0.0,0.0
2048984000,0,0.007254148,0.067681566,-0.00031554987,0.0,0.0,0.0
2049000000,0,0.008068943,0.06393401,-0.00052561215,0.0,0.0,0.0
2049008000,0,0.00881642,0.06307251,-0.00047075155,0.0,0.0,0.0
2049020000,0,0.0073205396,0.06267905,-0.00029654658,0.0,0.0,0.0
2049028000,0,0.0074781477,0.060382154,-0.00026291015,0.0,0.0,0.0
2049040000,0,0.009036396,0.05795783,-0.00011552444,0.0,0.0,0.0
2049048000,0,0.00804995,0.057274602,0.0001116703,0.0,0.0,0.0
2049060000,0,0.002932011,0.056076173,0.00049441954,0.0,0.0,0.0
2049068000,0,0.00085205515,0.05465385,0.0006728078,0.0,0.0,0.0
2049080000,0,-0.00029317886,0.053982984,0.0009374326,0.0,0.0,0.0
2049088000,0,-0.0009649502,0.053086206,0.0012150401,0.0,0.0,0.0
2049100000,0,-0.0013959171,0.04836921,0.0017029528,0.0,0.0,0.0
2049108000,0,-0.0005921857,0.045838587,0.0019598124,0.0,0.0,0.0
2049120000,0,0.0027339195,0.04373583,0.0023520198,0.0,0.0,0.0
2049128000,0,0.004083925,0.041799285,0.0026516723,0.0,0.0,0.0
2049140000,0,0.0025684764,0.0386375,0.003027534,0.0,0.0,0.0
2049148000,0,0.002936479,0.0376898,0.0032694277,0.0,0.0,0.0
2049160000,0,0.0022982673,0.037063845,0.0036706317,0.0,0.0,0.0
2049168000,0,0.00091733393,0.036167927,0.0039554355,0.0,0.0,0.0
2049176000,0,0.000277238,0.035000626,0.004167987,0.0,0.0,0.0
2049184000,0,0.001119945,0.03383655,0.0043554367,0.0,0.0,0.0
2049200000,0,0.0036802457,0.032197844,0.00479744,0.0,0.0,0.0
2049208000,0,0.0042192233,0.03163851,0.0050587514,0.0,0.0,0.0
2049220000,0,0.0047595236,0.029401023,0.005329134,0.0,0.0,0.0
2049228000,0,0.0066494327,0.02648887,0.0054875626,0.0,0.0,0.0
2049240000,0,0.0070220307,0.022257917,0.0056737987,0.0,0.0,0.0
2049248000,0,0.0048189266,0.020447785,0.0058374074,0.0,0.0,0.0
2049260000,0,0.004705155,0.018198065,0.005885709,0.0,0.0,0.0
2049268000,0,0.00502065,0.017294465,0.005867474,0.0,0.0,0.0
2049280000,0,0.0068411,0.019071849,0.0057890266,0.0,0.0,0.0
2049288000,0,0.008379017,0.019039845,0.0057264348,0.0,0.0,0.0
2049300000,0,0.009452298,0.017455284,0.0055890824,0.0,0.0,0.0
2049308000,0,0.009303342,0.01733971,0.005505485,0.0,0.0,0.0
2049320000,0,0.009627625,0.017511033,0.005368283,0.0,0.0,0.0
2049328000,0,0.0108553255,0.017606514,0.0052501988,0.0,0.0,0.0
2049340000,0,0.009968538,0.016717404,0.0049483743,0.0,0.0,0.0
2049348000,0,0.00904193,0.016619736,0.004743181,0.0,0.0,0.0
2049360000,0,0.008432542,0.01722587,0.0044755707,0.0,0.0,0.0
2049368000,0,0.0074146073,0.01513856,0.004251802,0.0,0.0,0.0
2049380000,0,0.009128267,0.0165751,0.003826432,0.0,0.0,0.0
2049388000,0,0.00856543,0.018755276,0.003636081,0.0,0.0,0.0
2049400000,0,0.0039285137,0.020891521,0.0034247776,0.0,0.0,0.0
2049408000,0,0.0019257568,0.020269308,0.0032852807,0.0,0.0,0.0
2049420000,0,0.0019708064,0.018882088,0.003011776,0.0,0.0,0.0
2049428000,0,0.0016266762,0.018559447,0.0028218455,0.0,0.0,0.0
2049440000,0,-0.0005888978,0.017843392,0.0026203499,0.0,0.0,0.0
2049448000,0,-0.0018420385,0.016242757,0.002540139,0.0,0.0,0.0
2049460000,0,-0.0030121643,0.013274684,0.0024210026,0.0,0.0,0.0
2049468000,0,-0.0037744117,0.011151675,0.002347904,0.0,0.0,0.0
2049480000,0,-0.002038848,0.009879044,0.002188082,0.0,0.0,0.0
2049488000,0,-0.00032212667,0.008031697,0.0020473574,0.0,0.0,0.0
2049500000,0,0.002069422,0.0052513,0.0018150113,0.0,0.0,0.0
2049508000,0,0.004285882,0.004059262,0.0016204481,0.0,0.0,0.0
2049520000,0,0.0059768837,0.0034639707,0.0013439846,0.0,0.0,0.0
2049528000,0,0.004833246,0.0035476682,0.001195679,0.0,0.0,0.0
2049540000,0,0.002301354,0.005104055,0.0010107092,0.0,0.0,0.0
2049548000,0,-0.00020385109,0.005757217,0.00087759335,0.0,0.0,0.0
2049560000,0,-0.0018419331,0.0059377705,0.00062860164,0.0,0.0,0.0
2049568000,0,-0.0014279566,0.006483791,0.00040633598,0.0,0.0,0.0
2049580000,0,-0.0014256379,0.0061011957,0.00015150604,0.0,0.0,0.0
2049588000,0,-0.0011032881,0.0053034867,2.8912016e-05,0.0,0.0,0.0
2049600000,0,0.00060247583,0.0043229456,-0.00017968162,0.0,0.0,0.0
2049608000,0,0.0010712495,0.004634624,-0.00027122357,0.0,0.0,0.0
2049620000,0,-5.0045488e-05,0.0043556164,-0.0004185917,0.0,0.0,0.0
2049628000,0,-0.0011630653,0.0039274246,-0.00048685647,0.0,0.0,0.0
2049640000,0,-0.00184252,0.0016678342,-0.00058468216,0.0,0.0,0.0
2049648000,0,-0.0033192853,-0.0008591127,-0.0006580831,0.0,0.0,0.0
2049660000,0,-0.0054861824,-0.0048724907,-0.00067626906,0.0,0.0,0.0
2049668000,0,-0.006883446,-0.006916888,-0.0006347621,0.0,0.0,0.0
2049680000,0,-0.008212683,-0.008108616,-0.0005286972,0.0,0.0,0.0
2049688000,0,-0.00936088,-0.00714276,-0.00045376486,0.0,0.0,0.0
2049700000,0,-0.009124515,-0.006191139,-0.0003606308,0.0,0.0,0.0
2049708000,0,-0.009995056,-0.00617191,-0.00036035548,0.0,0.0,0.0
2049720000,0,-0.011420432,-0.005572746,-0.00048205804,0.0,0.0,0.0
2049728000,0,-0.00966065,-0.0061675482,-0.0005706824,0.0,0.0,0.0
2049740000,0,-0.007832726,-0.0061880476,-0.0006324897,0.0,0.0,0.0
2049748000,0,-0.0070681274,-0.00447724,-0.0006998313,0.0,0.0,0.0
2049760000,0,-0.004329627,-0.0036438087,-0.00090014644,0.0,0.0,0.0
2049768000,0,-0.0027089268,-0.0031031664,-0.0010744281,0.0,0.0,0.0
2049780000,0,-0.000712374,-0.0031143946,-0.0013780477,0.0,0.0,0.0
2049788000,0,-0.0003114382,-0.0032208273,-0.0016138142,0.0,0.0,0.0
2049796000,0,-0.0020196477,-0.003347425,-0.0018409372,0.0,0.0,0.0
2049804000,0,-0.004235826,-0.0038388118,-0.002052559,0.0,0.0,0.0
2049820000,0,-0.005610793,-0.0071198214,-0.0023705184,0.0,0.0,0.0
2049828000,0,-0.0073080063,-0.008476445,-0.0025179463,0.0,0.0,0.0
2049840000,0,-0.009131282,-0.009512807,-0.0026519436,0.0,0.0,0.0
2049848000,0,-0.009761385,-0.0108826915,-0.0027394672,0.0,0.0,0.0
2049860000,0,-0.010403963,-0.0111875525,-0.0028901652,0.0,0.0,0.0
2049868000,0,-0.010650278,-0.010372273,-0.0029706615,0.0,0.0,0.0
2049880000,0,-0.011097369,-0.011421026,-0.0030323993,0.0,0.0,0.0
2049888000,0,-0.011957863,-0.012867403,-0.0030532235,0.0,0.0,0.0
2049900000,0,-0.012423553,-0.014815239,-0.003086098,0.0,0.0,0.0
2049908000,0,-0.012017491,-0.015681414,-0.0030920152,0.0,0.0,0.0
2049920000,0,-0.008694421,-0.016093435,-0.003040412,0.0,0.0,0.0
2049928000,0,-0.007416166,-0.0154850995,-0.0029272435,0.0,0.0,0.0
2049940000,0,-0.0049144267,-0.01587862,-0.0027676665,0.0,0.0,0.0
2049948000,0,-0.0016798569,-0.01602838,-0.0026420408,0.0,0.0,0.0
2049960000,0,0.0003449343,-0.01635587,-0.0024263551,0.0,0.0,0.0
2049968000,0,-0.0001408937,-0.016554456,-0.002241895,0.0,0.0,0.0
2049980000,0,0.001214705,-0.016536701,-0.002038347,0.0,0.0,0.0
2049988000,0,0.00087454484,-0.016785355,-0.0019191405,0.0,0.0,0.0
2050000000,0,0.0015226125,-0.01816065,-0.0017279462,0.0,0.0,0.0
2050008000,0,0.0007384898,-0.019133745,-0.0016149242,0.0,0.0,0.0
2050020000,0,-0.0016698481,-0.02043405,-0.0014220027,0.0,0.0,0.0
2050028000,0,-0.0035703995,-0.020499313,-0.0012597855,0.0,0.0,0.0
2050040000,0,-0.0073762285,-0.020693896,-0.0009853526,0.0,0.0,0.0
2050048000,0,-0.008703253,-0.021339605,-0.0008057757,0.0,0.0,0.0
2050060000,0,-0.008145485,-0.021244261,-0.00056479766,0.0,0.0,0.0
2050068000,0,-0.007343447,-0.0223651,-0.00038133105,0.0,0.0,0.0
2050080000,0,-0.0028426177,-0.024364004,-0.00016487272,0.0,0.0,0.0
2050088000,0,-0.0015571376,-0.024648568,1.4111697e-05,0.0,0.0,0.0
2050100000,0,-0.0025380156,-0.02295618,0.0003270975,0.0,0.0,0.0
2050108000,0,-0.0035895961,-0.022392808,0.0005316275,0.0,0.0,0.0
2050120000,0,-0.004540392,-0.020870268,0.0007062044,0.0,0.0,0.0
2050128000,0,-0.0039507276,-0.020571375,0.00078762736,0.0,0.0,0.0
2050140000,0,-0.0040205535,-0.022195866,0.0008639525,0.0,0.0,0.0
2050148000,0,-0.004514588,-0.023416167,0.0009234106,0.0,0.0,0.0
2050160000,0,-0.0058084102,-0.02312668,0.0009521505,0.0,0.0,0.0
2050168000,0,-0.007649399,-0.02236378,0.0009415983,0.0,0.0,0.0
2050180000,0,-0.01005985,-0.01833859,0.00094728166,0.0,0.0,0.0
2050188000,0,-0.011266071,-0.01608064,0.0009893454,0.0,0.0,0.0
2050200000,0,-0.012225412,-0.01573504,0.0010313289,0.0,0.0,0.0
2050208000,0,-0.01271541,-0.01661442,0.0010392591,0.0,0.0,0.0
2050220000,0,-0.011434798,-0.01752203,0.001082718,0.0,0.0,0.0
2050228000,0,-0.011961648,-0.018393517,0.001081667,0.0,0.0,0.0
2050240000,0,-0.0133669535,-0.019489504,0.0010251945,0.0,0.0,0.0
2050248000,0,-0.013690309,-0.018814782,0.0009609126,0.0,0.0,0.0
2050260000,0,-0.012091648,-0.017577365,0.00093474245,0.0,0.0,0.0
2050268000,0,-0.010679995,-0.01697568,0.00095136586,0.0,0.0,0.0
2050280000,0,-0.010203677,-0.012951183,0.0010493383,0.0,0.0,0.0
2050288000,0,-0.009016106,-0.009240445,0.0010725895,0.0,0.0,0.0
2050300000,0,-0.0074574193,-0.008010157,0.0011019403,0.0,0.0,0.0
2050308000,0,-0.0068788286,-0.008200271,0.0010921911,0.0,0.0,0.0
2050320000,0,-0.0051727346,-0.009719429,0.0010545946,0.0,0.0,0.0
2050328000,0,-0.0046646507,-0.010969366,0.0010428305,0.0,0.0,0.0
2050340000,0,-0.0032891587,-0.013209216,0.0010448904,0.0,0.0,0.0
2050344000,0,-0.0027620585,-0.013865717,0.0010404743,0.0,0.0,0.0
2050360000,0,-0.0007669172,-0.015148577,0.0010373596,0.0,0.0,0.0
2050368000,0,0.00031630546,-0.014756494,0.001071459,0.0,0.0,0.0
2050380000,0,0.003102347,-0.013405386,0.0011216357,0.0,0.0,0.0
2050388000,0,0.0058743414,-0.0123978015,0.0011237788,0.0,0.0,0.0
2050400000,0,0.0032814564,-0.011312556,0.001142425,0.0,0.0,0.0
2050408000,0,0.002071371,-0.011267103,0.0011776043,0.0,0.0,0.0
2050420000,0,-0.0019907786,-0.012504069,0.0012274254,0.0,0.0,0.0
2050428000,0,-0.004633526,-0.013321015,0.0012626351,0.0,0.0,0.0
2050440000,0,-0.006504687,-0.015481938,0.0013178166,0.0,0.0,0.0
2050448000,0,-0.006310474,-0.015151636,0.0013565988,0.0,0.0,0.0
2050460000,0,-0.005592745,-0.014714637,0.0015321943,0.0,0.0,0.0
2050468000,0,-0.005749022,-0.014659623,0.0016599719,0.0,0.0,0.0
2050480000,0,-0.005106572,-0.012889792,0.0018549637,0.0,0.0,0.0
2050488000,0,-0.0022976284,-0.011687131,0.00198004,0.0,0.0,0.0
2050500000,0,0.002461694,-0.011013547,0.0021334,0.0,0.0,0.0
2050508000,0,0.004010067,-0.01121354,0.0022210306,0.0,0.0,0.0
2050520000,0,0.002485451,-0.011659227,0.0023199266,0.0,0.0,0.0
2050528000,0,0.00078916363,-0.012651903,0.0023648904,0.0,0.0,0.0
2050540000,0,-0.00026605267,-0.013207155,0.0023374003,0.0,0.0,0.0
2050548000,0,-0.001591505,-0.013438549,0.0022656724,0.0,0.0,0.0
2050560000,0,-0.0010284977,-0.013072335,0.0020452328,0.0,0.0,0.0
2050568000,0,-0.0010327401,-0.012729188,0.00188097,0.0,0.0,0.0
2050580000,0,-0.0034249139,-0.013203712,0.0015534837,0.0,0.0,0.0
2050588000,0,-0.00535796,-0.013584161,0.0013091881,0.0,0.0,0.0
2050600000,0,-0.006854773,-0.013490723,0.0009751579,0.0,0.0,0.0
2050608000,0,-0.008339541,-0.011871376,0.0008115624,0.0,0.0,0.0
2050620000,0,-0.008581238,-0.010046191,0.000585916,0.0,0.0,0.0
2050624000,0,-0.007867011,-0.010031138,0.0005301711,0.0,0.0,0.0
2050640000,0,-0.0060614254,-0.0096815135,0.0003007362,0.0,0.0,0.0
2050648000,0,-0.0048620217,-0.010541865,0.00022230575,0.0,0.0,0.0
2050660000,0,-0.003782568,-0.01087466,0.00014252061,0.0,0.0,0.0
2050668000,0,-0.0031080956,-0.008828681,8.857948e-05,0.0,0.0,0.0
2050680000,0,-0.00064747955,-0.0044344864,1.6997008e-06,0.0,0.0,0.0
2050688000,0,-5.4687145e-05,-0.003566634,-3.562418e-05,0.0,0.0,0.0
2050700000,0,0.00017714457,-0.004043069,-1.1353619e-05,0.0,0.0,0.0
2050708000,0,-0.0007171568,-0.005894703,3.191062e-05,0.0,0.0,0.0
2050720000,0,-0.0047352687,-0.008243441,8.070164e-05,0.0,0.0,0.0
2050728000,0,-0.006844202,-0.008525492,0.00010570892,0.0,0.0,0.0
2050740000,0,-0.007940799,-0.008484673,0.00021597031,0.0,0.0,0.0
2050748000,0,-0.007443793,-0.008123376,0.00034084622,0.0,0.0,0.0
2050760000,0,-0.006558848,-0.008189317,0.00068329764,0.0,0.0,0.0
2050768000,0,-0.0063579604,-0.007509096,0.0010063134,0.0,0.0,0.0
2050776000,0,-0.0065337135,-0.0083565675,0.0013125157,0.0,0.0,0.0
2050788000,0,-0.0067218468,-0.011588087,0.0017742123,0.0,0.0,0.0
2050800000,0,-0.0054517556,-0.012314909,0.0021899752,0.0,0.0,0.0
2050808000,0,-0.0049033337,-0.013247757,0.0024479842,0.0,0.0,0.0
2050820000,0,-0.002734886,-0.01339864,0.002739753,0.0,0.0,0.0
2050828000,0,-0.0022131584,-0.013176306,0.0028684996,0.0,0.0,0.0
2050840000,0,-0.0035177262,-0.016111827,0.002949107,0.0,0.0,0.0
2050848000,0,-0.0046754694,-0.017504737,0.0029681786,0.0,0.0,0.0
2050860000,0,-0.006808841,-0.01784638,0.0029644961,0.0,0.0,0.0
2050868000,0,-0.007881354,-0.01808653,0.0029087462,0.0,0.0,0.0
2050880000,0,-0.012987485,-0.019737368,0.0027485052,0.0,0.0,0.0
2050888000,0,-0.016304022,-0.020211043,0.0026045407,0.0,0.0,0.0
2050900000,0,-0.018863374,-0.02075737,0.0023101023,0.0,0.0,0.0
2050908000,0,-0.020098358,-0.02077409,0.002052448,0.0,0.0,0.0
2050920000,0,-0.019607272,-0.020544179,0.001661073,0.0,0.0,0.0
2050928000,0,-0.018278195,-0.020228859,0.0014092324,0.0,0.0,0.0
2050940000,0,-0.013690413,-0.02034026,0.0010326605,0.0,0.0,0.0
2050948000,0,-0.010148745,-0.019180607,0.0007874945,0.0,0.0,0.0
2050960000,0,-0.008013065,-0.014670393,0.00056952005,0.0,0.0,0.0
2050968000,0,-0.006388056,-0.013141029,0.00046175363,0.0,0.0,0.0
2050980000,0,-0.0039904267,-0.011932063,0.00025483523,0.0,0.0,0.0
2050988000,0,-0.00228906,-0.010987115,7.1654205e-05,0.0,0.0,0.0
2051000000,0,-0.0015148427,-0.011121802,-0.0001703267,0.0,0.0,0.0
2051008000,0,-0.0020036127,-0.011502017,-0.00036433942,0.0,0.0,0.0
2051020000,0,-0.00060284976,-0.011230872,-0.00073375617,0.0,0.0,0.0
2051028000,0,0.00012478993,-0.011509909,-0.0009859949,0.0,0.0,0.0
2051040000,0,0.0021048125,-0.012831842,-0.0013353908,0.0,0.0,0.0
2051048000,0,0.0013334071,-0.0139586255,-0.0015973253,0.0,0.0,0.0
2051060000,0,-0.00014130394,-0.01473899,-0.0020195213,0.0,0.0,0.0
2051068000,0,-0.000728287,-0.014989658,-0.0022991362,0.0,0.0,0.0
2051080000,0,-0.0019299877,-0.015100583,-0.002639749,0.0,0.0,0.0
2051088000,0,-0.0024204045,-0.014892355,-0.0028175537,0.0,0.0,0.0
2051100000,0,-0.0015085244,-0.016832452,-0.0030019141,0.0,0.0,0.0
2051108000,0,-0.0016600743,-0.017300185,-0.0031137192,0.0,0.0,0.0
2051120000,0,0.0017954141,-0.016176837,-0.003311767,0.0,0.0,0.0
2051128000,0,0.005441746,-0.015894884,-0.0034090355,0.0,0.0,0.0
2051140000,0,0.00904388,-0.014834184,-0.003529481,0.0,0.0,0.0
2051148000,0,0.009369658,-0.014387842,-0.003610343,0.0,0.0,0.0
2051160000,0,0.009009527,-0.013402622,-0.0037003981,0.0,0.0,0.0
2051168000,0,0.008592085,-0.01238033,-0.003767039,0.0,0.0,0.0
2051180000,0,0.0081592975,-0.010895064,-0.0038475886,0.0,0.0,0.0
2051188000,0,0.0076581812,-0.009637376,-0.0038605789,0.0,0.0,0.0
2051200000,0,0.005652784,-0.0071274256,-0.003829233,0.0,0.0,0.0
2051208000,0,0.0029805272,-0.007210552,-0.003828527,0.0,0.0,0.0
2051220000,0,0.00022977492,-0.0076214643,-0.0038665175,0.0,0.0,0.0
2051224000,0,-9.033425e-05,-0.008154769,-0.003869913,0.0,0.0,0.0
2051240000,0,-0.00080581376,-0.008426506,-0.0039549544,0.0,0.0,0.0
2051248000,0,-0.00021448737,-0.007932026,-0.0039882637,0.0,0.0,0.0
2051260000,0,0.002081721,-0.0073776646,-0.0039981445,0.0,0.0,0.0
2051268000,0,0.003079858,-0.0072376113,-0.003972869,0.0,0.0,0.0
2051280000,0,0.004495151,-0.009263519,-0.003823888,0.0,0.0,0.0
2051288000,0,0.0042638923,-0.008620589,-0.0036089795,0.0,0.0,0.0
2051300000,0,0.0041374457,-0.006109018,-0.0032810585,0.0,0.0,0.0
2051308000,0,0.002104683,-0.0052719773,-0.0031045158,0.0,0.0,0.0
2051320000,0,0.00022800647,-0.0057157567,-0.0029343339,0.0,0.0,0.0
2051328000,0,0.00074539776,-0.0069859717,-0.0028115546,0.0,0.0,0.0
2051340000,0,0.0017440234,-0.008949134,-0.0026859785,0.0,0.0,0.0
2051348000,0,0.0025995246,-0.009922927,-0.0026255571,0.0,0.0,0.0
2051360000,0,0.003136046,-0.009977644,-0.0025724974,0.0,0.0,0.0
2051368000,0,0.0040600747,-0.010784857,-0.0025195093,0.0,0.0,0.0
2051380000,0,0.0034160046,-0.0100617325,-0.0023789965,0.0,0.0,0.0
2051388000,0,0.0021603333,-0.008675732,-0.0022719353,0.0,0.0,0.0
2051400000,0,0.001560818,-0.008197782,-0.00212218,0.0,0.0,0.0
2051408000,0,0.001313531,-0.009019953,-0.0020666283,0.0,0.0,0.0
2051420000,0,0.00083519,-0.009919711,-0.0019844044,0.0,0.0,0.0
2051428000,0,0.00034541593,-0.009362974,-0.0019048351,0.0,0.0,0.0
2051440000,0,0.0019085794,-0.007949503,-0.0017810068,0.0,0.0,0.0
2051448000,0,0.0027108584,-0.009059722,-0.0017428484,0.0,0.0,0.0
2051460000,0,0.0013944331,-0.012609346,-0.0017656331,0.0,0.0,0.0
2051468000,0,0.0010041102,-0.0150722535,-0.0017715129,0.0,0.0,0.0
2051480000,0,-0.0014222211,-0.017507533,-0.0017603242,0.0,0.0,0.0
2051488000,0,-0.00328591,-0.019229399,-0.0017823448,0.0,0.0,0.0
2051500000,0,-0.0038165883,-0.02076073,-0.0018323688,0.0,0.0,0.0
2051508000,0,-0.0036781554,-0.021418877,-0.0018353278,0.0,0.0,0.0
2051520000,0,-0.0020018711,-0.021667624,-0.0018262704,0.0,0.0,0.0
2051528000,0,-0.0007750174,-0.020302093,-0.0018262572,0.0,0.0,0.0
2051540000,0,0.0021476534,-0.016940422,-0.0017888992,0.0,0.0,0.0
2051548000,0,0.0042508226,-0.014002791,-0.0017189614,0.0,0.0,0.0
2051560000,0,0.0062200367,-0.012446963,-0.0016262692,0.0,0.0,0.0
2051568000,0,0.007139057,-0.012841672,-0.0015469298,0.0,0.0,0.0
2051580000,0,0.0072259307,-0.013945697,-0.0014066439,0.0,0.0,0.0
2051588000,0,0.0059130928,-0.014135814,-0.0012852782,0.0,0.0,0.0
2051600000,0,0.0031719394,-0.0149764735,-0.0011493268,0.0,0.0,0.0
2051608000,0,0.0017360585,-0.016601732,-0.0011066983,0.0,0.0,0.0
2051620000,0,-0.0004557961,-0.018132316,-0.001112379,0.0,0.0,0.0
2051628000,0,-0.0005518222,-0.017867018,-0.0011886507,0.0,0.0,0.0
2051640000,0,0.0026770155,-0.015917549,-0.00142365,0.0,0.0,0.0
2051648000,0,0.0050153933,-0.01512988,-0.0015731687,0.0,0.0,0.0
2051660000,0,0.0069773593,-0.015189319,-0.001776062,0.0,0.0,0.0
2051668000,0,0.0074031022,-0.013390787,-0.0018308354,0.0,0.0,0.0
2051680000,0,0.0067913462,-0.0093075335,-0.0019175999,0.0,0.0,0.0
2051688000,0,0.0061426694,-0.006872218,-0.0019946732,0.0,0.0,0.0
2051700000,0,0.0048867697,-0.0024289151,-0.002092804,0.0,0.0,0.0
2051708000,0,0.003119953,-0.000942147,-0.0021421628,0.0,0.0,0.0
2051720000,0,0.0015098264,-0.001840212,-0.0021893936,0.0,0.0,0.0
2051728000,0,-0.00010781118,-0.0024014483,-0.002213163,0.0,0.0,0.0
2051740000,0,-0.0017940053,-0.003730939,-0.0022347535,0.0,0.0,0.0
2051748000,0,-0.0017274492,-0.0046784095,-0.0022400846,0.0,0.0,0.0
2051760000,0,-0.00071771024,-0.0066997996,-0.00228168,0.0,0.0,0.0
2051768000,0,0.00059407175,-0.007931229,-0.0023219073,0.0,0.0,0.0
2051780000,0,0.001727648,-0.008254685,-0.0023991843,0.0,0.0,0.0
2051788000,0,0.00071775273,-0.008605778,-0.0024769928,0.0,0.0,0.0
2051800000,0,-0.0016771179,-0.009035096,-0.0025979737,0.0,0.0,0.0
2051808000,0,-0.0034562305,-0.008030274,-0.0026559248,0.0,0.0,0.0
2051820000,0,-0.0067001814,-0.0064781406,-0.0027037712,0.0,0.0,0.0
2051828000,0,-0.008555408,-0.0068557113,-0.0026991437,0.0,0.0,0.0
2051840000,0,-0.010547523,-0.008390573,-0.0026829683,0.0,0.0,0.0
2051848000,0,-0.010852521,-0.008453291,-0.0026727773,0.0,0.0,0.0
2051860000,0,-0.010444589,-0.0077196993,-0.0026246689,0.0,0.0,0.0
2051868000,0,-0.008986541,-0.006986476,-0.0025813715,0.0,0.0,0.0
2051880000,0,-0.0069584902,-0.006143714,-0.0025217917,0.0,0.0,0.0
2051888000,0,-0.006775987,-0.005702084,-0.0024769327,0.0,0.0,0.0
2051900000,0,-0.007670669,-0.0052973945,-0.0023916238,0.0,0.0,0.0
2051908000,0,-0.0061521986,-0.0054427143,-0.002283475,0.0,0.0,0.0
2051920000,0,-0.0043480196,-0.006486446,-0.0021434617,0.0,0.0,0.0
2051928000,0,-0.0043597454,-0.006899863,-0.0020664416,0.0,0.0,0.0
2051940000,0,-0.006160729,-0.00848644,-0.0020193495,0.0,0.0,0.0
2051948000,0,-0.0072739557,-0.009828872,-0.0020028031,0.0,0.0,0.0
2051960000,0,-0.0074474155,-0.009665535,-0.0019476974,0.0,0.0,0.0
2051968000,0,-0.0074345083,-0.009189322,-0.0018556411,0.0,0.0,0.0
2051980000,0,-0.0049726325,-0.0075080963,-0.0016670551,0.0,0.0,0.0
2051988000,0,-0.005428015,-0.0062723025,-0.001514492,0.0,0.0,0.0
2052000000,0,-0.011339026,-0.0048194537,-0.0012670521,0.0,0.0,0.0
2052008000,0,-0.011749485,-0.004528534,-0.0010602291,0.0,0.0,0.0
2052020000,0,-0.007683431,-0.0044183773,-0.0007217494,0.0,0.0,0.0
2052028000,0,-0.007224113,-0.0044060107,-0.00051090424,0.0,0.0,0.0
2052040000,0,-0.003611619,-0.007823079,-0.0001888925,0.0,0.0,0.0
2052048000,0,0.00033247482,-0.01075809,8.34852e-06,0.0,0.0,0.0
2052060000,0,0.0026353237,-0.014646149,0.0002039976,0.0,0.0,0.0
2052068000,0,0.003325064,-0.01625277,0.00029659938,0.0,0.0,0.0
2052080000,0,0.001847514,-0.015176407,0.00040560352,0.0,0.0,0.0
2052088000,0,0.0012348039,-0.012079352,0.0004029878,0.0,0.0,0.0
2052100000,0,-0.00047809148,-0.009649127,0.00028993923,0.0,0.0,0.0
2052108000,0,-0.00027846507,-0.007737447,0.00013682657,0.0,0.0,0.0
2052120000,0,-0.00070835033,-0.008366341,-0.00022195454,0.0,0.0,0.0
2052128000,0,-0.0010939431,-0.007912729,-0.00050950877,0.0,0.0,0.0
2052140000,0,-0.0008788962,-0.008954587,-0.00096849696,0.0,0.0,0.0
2052148000,0,0.0016210161,-0.007892818,-0.0013012078,0.0,0.0,0.0
2052160000,0,0.0045846445,-0.006266685,-0.0017364791,0.0,0.0,0.0
2052168000,0,0.007104084,-0.007548287,-0.0020133064,0.0,0.0,0.0
2052180000,0,0.008659907,-0.008428851,-0.002399157,0.0,0.0,0.0
2052188000,0,0.008447411,-0.008579546,-0.0026341681,0.0,0.0,0.0
2052200000,0,0.006534842,-0.007050517,-0.0029752336,0.0,0.0,0.0
2052208000,0,0.0049962867,-0.0053275116,-0.0031771564,0.0,0.0,0.0
2052220000,0,0.0050851977,-0.003628103,-0.0034574645,0.0,0.0,0.0
2052228000,0,0.0060114376,-0.0038574992,-0.0036147456,0.0,0.0,0.0
2052240000,0,0.0072110896,-0.0051786047,-0.0038783755,0.0,0.0,0.0
2052248000,0,0.0076752324,-0.007408984,-0.004133612,0.0,0.0,0.0
2052260000,0,0.0067182835,-0.008940378,-0.0045428243,0.0,0.0,0.0
2052268000,0,0.006507367,-0.008261177,-0.004849106,0.0,0.0,0.0
2052280000,0,0.006137408,-0.0072480612,-0.0052443496,0.0,0.0,0.0
2052288000,0,0.0070550265,-0.006055623,-0.005467897,0.0,0.0,0.0
2052300000,0,0.0060431785,-0.0034890268,-0.005662623,0.0,0.0,0.0
2052308000,0,0.0055098506,-0.004112026,-0.005714607,0.0,0.0,0.0
2052320000,0,0.005845877,-0.0038098996,-0.0057463944,0.0,0.0,0.0
2052328000,0,0.005996808,-0.0041099763,-0.0057625757,0.0,0.0,0.0
2052340000,0,0.0066876146,-0.005244273,-0.005816704,0.0,0.0,0.0
2052344000,0,0.0074109393,-0.0051268437,-0.0058565415,0.0,0.0,0.0
2052360000,0,0.008091775,-0.005930646,-0.0060918424,0.0,0.0,0.0
2052368000,0,0.008275206,-0.0068328683,-0.00624225,0.0,0.0,0.0
2052380000,0,0.010489918,-0.0053485474,-0.006494924,0.0,0.0,0.0
2052388000,0,0.011696485,-0.0031985175,-0.0066255536,0.0,0.0,0.0
2052400000,0,0.010718496,-0.00018657043,-0.006790971,0.0,0.0,0.0
2052408000,0,0.009801188,0.0010585471,-0.0068828096,0.0,0.0,0.0
2052420000,0,0.009033123,0.0017310554,-0.0069689294,0.0,0.0,0.0
2052428000,0,0.007852599,0.00206816,-0.007030531,0.0,0.0,0.0
2052440000,0,0.005876182,0.0020169949,-0.0071317633,0.0,0.0,0.0
2052448000,0,0.004789863,0.002758304,-0.0072066225,0.0,0.0,0.0
2052456000,0,0.0040007182,0.0033277161,-0.0072848042,0.0,0.0,0.0
2052468000,0,0.0024521812,0.005058208,-0.007361081,0.0,0.0,0.0
2052480000,0,0.0024448524,0.0058545894,-0.0073201014,0.0,0.0,0.0
2052488000,0,0.003704003,0.0060556196,-0.0072196447,0.0,0.0,0.0
2052500000,0,0.004636532,0.0054425895,-0.007084751,0.0,0.0,0.0
2052508000,0,0.0037521317,0.0034189073,-0.007059729,0.0,0.0,0.0
2052520000,0,0.0047717295,0.0016074431,-0.0069396864,0.0,0.0,0.0
