timestamp,timestamp_sample,lat,lon,alt,alt_ellipsoid,delta_alt,delta_terrain,eph,epv,terrain_alt,lat_lon_valid,alt_valid,lat_lon_reset_counter,alt_reset_counter,terrain_reset_counter,terrain_alt_valid,dead_reckoning
2043328000,2043328000,47.39816955457735,8.545386942972485,488.10782,488.10782,488.10132,488.10132,0.46583548,0.2859354,488.00656,1,1,4,3,3,0,0
2043336000,2043336000,47.39816955732963,8.545386944241852,488.10788,488.10788,488.10132,488.10132,0.46664488,0.28537604,488.00662,1,1,4,3,3,0,0
2043344000,2043344000,47.39816956005303,8.545386945312432,488.10797,488.10797,488.10132,488.10132,0.46745732,0.28576005,488.00668,1,1,4,3,3,0,0
2043352000,2043352000,47.39816956264911,8.545386946277466,488.10803,488.10803,488.10132,488.10132,0.46826053,0.2861447,488.00674,1,1,4,3,3,0,0
2043360000,2043360000,47.39816956521955,8.545386947127927,488.10812,488.10812,488.10132,488.10132,0.4690789,0.28653,488.00684,1,1,4,3,3,0,0
2043368000,2043368000,47.39816956780331,8.545386947878407,488.1082,488.1082,488.10132,488.10132,0.4699003,0.28691593,488.00693,1,1,4,3,3,0,0
2043376000,2043376000,47.398169570369745,8.545386948505012,488.10828,488.10828,488.10132,488.10132,0.4707248,0.28730252,488.00702,1,1,4,3,3,0,0
2043384000,2043384000,47.39816957287165,8.545386949012846,488.10834,488.10834,488.10132,488.10132,0.4715523,0.28768972,488.0071,1,1,4,3,3,0,0
2043400000,2043400000,47.39816957777459,8.545386949569089,488.10852,488.10852,488.10132,488.10132,0.47321656,0.28846607,488.0073,1,1,4,3,3,0,0
2043408000,2043408000,47.39816958017659,8.545386949641058,488.10864,488.10864,488.10132,488.10132,0.47405332,0.28788596,488.00787,1,1,4,3,3,0,0
2043416000,2043416000,47.398169582527146,8.545386949636235,488.10876,488.10876,488.10132,488.10132,0.47489315,0.28827444,488.00797,1,1,4,3,3,0,0
2043424000,2043424000,47.39816958480315,8.545386949458901,488.1089,488.1089,488.10132,488.10132,0.4757222,0.28866354,488.00806,1,1,4,3,3,0,0
2043440000,2043440000,47.39816958922345,8.545386948606286,488.10913,488.10913,488.10132,488.10132,0.47741696,0.28944364,488.0082,1,1,4,3,3,0,0
2043448000,2043448000,47.3981695913731,8.545386948035171,488.10925,488.10925,488.10132,488.10132,0.47826898,0.28983462,488.00827,1,1,4,3,3,0,0
2043456000,2043456000,47.39816959355941,8.54538694734809,488.10934,488.10934,488.10132,488.10132,0.47912413,0.29022628,488.00833,1,1,4,3,3,0,0
2043464000,2043464000,47.39816959575827,8.545386946536015,488.10947,488.10947,488.10132,488.10132,0.4799824,0.29061854,488.0084,1,1,4,3,3,0,0
2043480000,2043480000,47.398169600110634,8.545386944414895,488.10968,488.10968,488.10132,488.10132,0.4817062,0.29040998,488.00833,1,1,4,3,3,0,0
2043488000,2043488000,47.39816960226952,8.5453869431695,488.1098,488.1098,488.10132,488.10132,0.48257378,0.29080284,488.0084,1,1,4,3,3,0,0
2043496000,2043496000,47.39816960431424,8.545386941900803,488.10992,488.10992,488.10132,488.10132,0.48342884,0.29119632,488.00848,1,1,4,3,3,0,0
2043504000,2043504000,47.39816960633762,8.545386940492872,488.11002,488.11002,488.10132,488.10132,0.48430255,0.29159042,488.00858,1,1,4,3,3,0,0
2043520000,2043520000,47.3981696102711,8.545386937286224,488.11026,488.11026,488.10132,488.10132,0.4860594,0.2923805,488.0087,1,1,4,3,3,0,0
2043528000,2043528000,47.39816961215675,8.545386935632056,488.11035,488.11035,488.10132,488.10132,0.48694256,0.2927765,488.00876,1,1,4,3,3,0,0
2043536000,2043536000,47.39816961399504,8.545386933976928,488.11047,488.11047,488.10132,488.10132,0.48782888,0.29317313,488.00882,1,1,4,3,3,0,0
2043544000,2043544000,47.398169615767976,8.545386932213278,488.1106,488.1106,488.10132,488.10132,0.4887184,0.2935704,488.0089,1,1,4,3,3,0,0
2043560000,2043560000,47.39816961925901,8.545386928551142,488.11084,488.11084,488.10132,488.10132,0.49050695,0.29334402,488.00934,1,1,4,3,3,0,0
2043568000,2043568000,47.39816962103466,8.54538692661934,488.11096,488.11096,488.10132,488.10132,0.49138838,0.2937418,488.00943,1,1,4,3,3,0,0
2043576000,2043576000,47.3981696228129,8.545386924558299,488.11108,488.11108,488.10132,488.10132,0.4922904,0.2941402,488.00952,1,1,4,3,3,0,0
2043584000,2043584000,47.39816962459365,8.545386922388705,488.1112,488.1112,488.10132,488.10132,0.49319562,0.29453918,488.0096,1,1,4,3,3,0,0
2043600000,2043600000,47.398169628145276,8.545386917628596,488.11148,488.11148,488.10132,488.10132,0.4950157,0.29533914,488.0098,1,1,4,3,3,0,0
2043608000,2043608000,47.39816962993049,8.545386915063547,488.1116,488.1116,488.10132,488.10132,0.49593055,0.29574007,488.0099,1,1,4,3,3,0,0
2043616000,2043616000,47.398169631679345,8.545386912402291,488.11172,488.11172,488.10132,488.10132,0.49684864,0.2961416,488.00998,1,1,4,3,3,0,0
2043624000,2043624000,47.39816963341151,8.545386909649784,488.11188,488.11188,488.10132,488.10132,0.49776992,0.2954954,488.01022,1,1,4,3,3,0,0
2043640000,2043640000,47.39816963686659,8.54538690388402,488.11212,488.11212,488.10132,488.10132,0.4996024,0.29629874,488.0104,1,1,4,3,3,0,0
2043648000,2043648000,47.398169638576675,8.545386900915293,488.11227,488.11227,488.10132,488.10132,0.5005331,0.29670137,488.0105,1,1,4,3,3,0,0
2043656000,2043656000,47.39816963920242,8.545386902157198,488.11234,488.11234,488.10132,488.10132,0.45870212,0.28319213,488.0083,1,1,4,3,3,0,0
2043664000,2043664000,47.39816963977515,8.54538690323289,488.1124,488.1124,488.10132,488.10132,0.4594847,0.2835719,488.0084,1,1,4,3,3,0,0
2043680000,2043680000,47.39816964083814,8.54538690470926,488.11258,488.11258,488.10132,488.10132,0.46105736,0.28433338,488.00858,1,1,4,3,3,0,0
2043688000,2043688000,47.39816964137691,8.545386905251927,488.11264,488.11264,488.10132,488.10132,0.46184886,0.2837868,488.0084,1,1,4,3,3,0,0
2043696000,2043696000,47.398169641929115,8.545386905654652,488.11273,488.11273,488.10132,488.10132,0.46264338,0.28416792,488.00848,1,1,4,3,3,0,0
2043704000,2043704000,47.39816964251971,8.545386905846133,488.1128,488.1128,488.10132,488.10132,0.4634297,0.28454965,488.00858,1,1,4,3,3,0,0
2043720000,2043720000,47.39816964364833,8.545386905699885,488.11295,488.11295,488.10132,488.10132,0.46503344,0.28531507,488.00876,1,1,4,3,3,0,0
2043728000,2043728000,47.39816964417109,8.545386905431185,488.11304,488.11304,488.10132,488.10132,0.4658399,0.28569874,488.00888,1,1,4,3,3,0,0
2043736000,2043736000,47.3981696447153,8.545386905034466,488.1131,488.1131,488.10132,488.10132,0.46664935,0.28608304,488.009,1,1,4,3,3,0,0
2043744000,2043744000,47.398169645253645,8.545386904509536,488.11316,488.11316,488.10132,488.10132,0.46746185,0.28552252,488.0092,1,1,4,3,3,0,0
2043760000,2043760000,47.39816964633495,8.545386903121594,488.11328,488.11328,488.10132,488.10132,0.46909603,0.2862918,488.00943,1,1,4,3,3,0,0
2043768000,2043768000,47.398169646902375,8.545386902280674,488.11334,488.11334,488.10132,488.10132,0.46991768,0.28667742,488.00955,1,1,4,3,3,0,0
2043776000,2043776000,47.3981696475004,8.54538690136828,488.1134,488.1134,488.10132,488.10132,0.47072962,0.28706366,488.00967,1,1,4,3,3,0,0
2043784000,2043784000,47.398169648114035,8.545386900344178,488.11346,488.11346,488.10132,488.10132,0.47155723,0.28745052,488.00977,1,1,4,3,3,0,0
2043800000,2043800000,47.398169649402824,8.545386897911854,488.11362,488.11362,488.10132,488.10132,0.47322163,0.28822622,488.01,1,1,4,3,3,0,0
2043808000,2043808000,47.398169650129084,8.545386896599174,488.11368,488.11368,488.10132,488.10132,0.47405848,0.28861502,488.01013,1,1,4,3,3,0,0
2043816000,2043816000,47.39816965091941,8.54538689522869,488.11377,488.11377,488.10132,488.10132,0.4748984,0.28803372,488.01016,1,1,4,3,3,0,0
2043824000,2043824000,47.39816965172887,8.545386893749354,488.11383,488.11383,488.10132,488.10132,0.47574142,0.28842247,488.01028,1,1,4,3,3,0,0
2043840000,2043840000,47.39816965330777,8.54538689044812,488.11398,488.11398,488.10132,488.10132,0.4774225,0.2892019,488.01053,1,1,4,3,3,0,0
2043848000,2043848000,47.398169654070266,8.545386888611619,488.11407,488.11407,488.10132,488.10132,0.47827467,0.28959256,488.01065,1,1,4,3,3,0,0
2043856000,2043856000,47.398169654808484,8.5453868867314,488.11417,488.11417,488.10132,488.10132,0.47912994,0.28998387,488.01077,1,1,4,3,3,0,0
2043864000,2043864000,47.398169655586436,8.54538688484491,488.11426,488.11426,488.10132,488.10132,0.47998834,0.2903758,488.0109,1,1,4,3,3,0,0
2043880000,2043880000,47.398169657165944,8.545386881094528,488.11444,488.11444,488.10132,488.10132,0.4817123,0.2911616,488.01114,1,1,4,3,3,0,0
2043888000,2043888000,47.39816965791698,8.545386879119523,488.1145,488.1145,488.10132,488.10132,0.48258004,0.29055887,488.0116,1,1,4,3,3,0,0
2043896000,2043896000,47.398169658631176,8.545386877005983,488.1146,488.1146,488.10132,488.10132,0.4834509,0.290952,488.01172,1,1,4,3,3,0,0
2043904000,2043904000,47.39816965932154,8.545386874727221,488.1147,488.1147,488.10132,488.10132,0.48432487,0.29134578,488.01184,1,1,4,3,3,0,0
2043920000,2043920000,47.39816966060698,8.545386869846864,488.11487,488.11487,488.10132,488.10132,0.48606595,0.2921352,488.01202,1,1,4,3,3,0,0
2043928000,2043928000,47.39816966128668,8.545386867232704,488.11493,488.11493,488.10132,488.10132,0.48694918,0.29253086,488.01212,1,1,4,3,3,0,0
2043936000,2043936000,47.398169661955485,8.545386864521266,488.11502,488.11502,488.10132,488.10132,0.48783556,0.29292718,488.0122,1,1,4,3,3,0,0
2043944000,2043944000,47.39816966263944,8.54538686168861,488.1151,488.1151,488.10132,488.10132,0.4887251,0.2933241,488.0123,1,1,4,3,3,0,0
2043960000,2043960000,47.39816966405294,8.545386855722311,488.11533,488.11533,488.10132,488.10132,0.49051377,0.2930996,488.0129,1,1,4,3,3,0,0
2043968000,2043968000,47.39816966475815,8.54538685263119,488.11542,488.11542,488.10132,488.10132,0.4914129,0.29349706,488.01303,1,1,4,3,3,0,0
2043976000,2043976000,47.39816966548306,8.545386849558069,488.1155,488.1155,488.10132,488.10132,0.4923152,0.29389513,488.01315,1,1,4,3,3,0,0
2043984000,2043984000,47.39816966624122,8.545386846503964,488.11563,488.11563,488.10132,488.10132,0.49320263,0.29429382,488.01328,1,1,4,3,3,0,0
2044000000,2044000000,47.398169667857935,8.54538684026349,488.11584,488.11584,488.10132,488.10132,0.4950228,0.29509312,488.01352,1,1,4,3,3,0,0
2044008000,2044008000,47.398169668698685,8.545386837140606,488.11597,488.11597,488.10132,488.10132,0.49593773,0.2944563,488.0136,1,1,4,3,3,0,0
2044016000,2044016000,47.39816966952947,8.545386833997611,488.1161,488.1161,488.10132,488.10132,0.49685585,0.2948561,488.01373,1,1,4,3,3,0,0
2044024000,2044024000,47.39816967038464,8.545386830781736,488.1162,488.1162,488.10132,488.10132,0.4977772,0.29525656,488.01385,1,1,4,3,3,0,0
2044040000,2044040000,47.39816967220752,8.545386824213212,488.1165,488.1165,488.10132,488.10132,0.49962953,0.2960593,488.0141,1,1,4,3,3,0,0
2044048000,2044048000,47.39816967312334,8.545386820842415,488.1166,488.1166,488.10132,488.10132,0.5005605,0.2964616,488.01422,1,1,4,3,3,0,0
2044056000,2044056000,47.398169671828875,8.545386825367741,488.11667,488.11667,488.10132,488.10132,0.45870784,0.28298405,488.0121,1,1,4,3,3,0,0
2044064000,2044064000,47.39816967056704,8.545386829680893,488.11673,488.11673,488.10132,488.10132,0.45949042,0.28336358,488.01218,1,1,4,3,3,0,0
2044080000,2044080000,47.39816966811543,8.545386837492408,488.11685,488.11685,488.10132,488.10132,0.46106306,0.28320196,488.01248,1,1,4,3,3,0,0
2044088000,2044088000,47.39816966695707,8.545386840997038,488.1169,488.1169,488.10132,488.10132,0.46185458,0.28358215,488.01257,1,1,4,3,3,0,0
2044096000,2044096000,47.39816966587436,8.545386844248887,488.11697,488.11697,488.10132,488.10132,0.4626491,0.283963,488.01266,1,1,4,3,3,0,0
2044104000,2044104000,47.39816966486495,8.545386847260344,488.11703,488.11703,488.10132,488.10132,0.46344665,0.2843445,488.01276,1,1,4,3,3,0,0
2044120000,2044120000,47.39816966299725,8.54538685286929,488.1172,488.1172,488.10132,488.10132,0.46505076,0.2851094,488.01294,1,1,4,3,3,0,0
2044128000,2044128000,47.398169662167675,8.545386855463457,488.11725,488.11725,488.10132,488.10132,0.46584564,0.28549284,488.01303,1,1,4,3,3,0,0
2044136000,2044136000,47.39816966136657,8.545386857841176,488.1173,488.1173,488.10132,488.10132,0.46665508,0.2858769,488.01312,1,1,4,3,3,0,0
2044144000,2044144000,47.39816966062031,8.545386860006646,488.1174,488.1174,488.10132,488.10132,0.46746758,0.28626162,488.01324,1,1,4,3,3,0,0
2044160000,2044160000,47.398169659287475,8.545386863776104,488.11758,488.11758,488.10132,488.10132,0.46910176,0.2860844,488.0138,1,1,4,3,3,0,0
2044168000,2044168000,47.3981696586463,8.54538686538793,488.11768,488.11768,488.10132,488.10132,0.4699234,0.28646976,488.01392,1,1,4,3,3,0,0
2044176000,2044176000,47.398169658041006,8.545386866808752,488.11777,488.11777,488.10132,488.10132,0.47074813,0.28685576,488.01404,1,1,4,3,3,0,0
2044184000,2044184000,47.39816965747735,8.545386868080316,488.11783,488.11783,488.10132,488.10132,0.47157592,0.28724238,488.01416,1,1,4,3,3,0,0
2044200000,2044200000,47.398169656485365,8.54538687004394,488.118,488.118,488.10132,488.10132,0.47322744,0.2880176,488.0144,1,1,4,3,3,0,0
2044208000,2044208000,47.39816965607009,8.545386870754802,488.1181,488.1181,488.10132,488.10132,0.4740643,0.28840613,488.01453,1,1,4,3,3,0,0
2044216000,2044216000,47.39816965568298,8.545386871309752,488.1182,488.1182,488.10132,488.10132,0.4749042,0.28879532,488.01465,1,1,4,3,3,0,0
2044224000,2044224000,47.39816965535977,8.545386871672592,488.11826,488.11826,488.10132,488.10132,0.47574723,0.28821257,488.01456,1,1,4,3,3,0,0
2044240000,2044240000,47.3981696547929,8.545386871851983,488.11844,488.11844,488.10132,488.10132,0.4774426,0.2889915,488.0148,1,1,4,3,3,0,0
2044248000,2044248000,47.398169654581245,8.54538687172276,488.11856,488.11856,488.10132,488.10132,0.4782949,0.28938195,488.01492,1,1,4,3,3,0,0
2044256000,2044256000,47.39816965445918,8.545386871462654,488.11865,488.11865,488.10132,488.10132,0.47915035,0.28977302,488.01505,1,1,4,3,3,0,0
2044264000,2044264000,47.39816965435497,8.545386871042219,488.11874,488.11874,488.10132,488.10132,0.47999406,0.2901647,488.01517,1,1,4,3,3,0,0
2044280000,2044280000,47.39816965412698,8.5453868697165,488.11896,488.11896,488.10132,488.10132,0.48171803,0.29095,488.0154,1,1,4,3,3,0,0
2044288000,2044288000,47.39816965405802,8.54538686882586,488.11905,488.11905,488.10132,488.10132,0.48258576,0.2913436,488.01553,1,1,4,3,3,0,0
2044296000,2044296000,47.398169654042434,8.545386867814226,488.11914,488.11914,488.10132,488.10132,0.4834566,0.2907394,488.01495,1,1,4,3,3,0,0
2044304000,2044304000,47.39816965406764,8.545386866637688,488.1192,488.1192,488.10132,488.10132,0.4843306,0.2911329,488.01508,1,1,4,3,3,0,0
2044320000,2044320000,47.39816965430016,8.545386864091011,488.1194,488.1194,488.10132,488.10132,0.4860881,0.29192185,488.01532,1,1,4,3,3,0,0
2044328000,2044328000,47.398169654476064,8.545386862692236,488.11948,488.11948,488.10132,488.10132,0.48697156,0.29231727,488.01544,1,1,4,3,3,0,0
2044336000,2044336000,47.39816965463299,8.545386861241395,488.11957,488.11957,488.10132,488.10132,0.48784146,0.2927133,488.01556,1,1,4,3,3,0,0
2044344000,2044344000,47.39816965482799,8.545386859649293,488.11966,488.11966,488.10132,488.10132,0.48873103,0.29311,488.0157,1,1,4,3,3,0,0
2044360000,2044360000,47.39816965533314,8.545386856088472,488.11984,488.11984,488.10132,488.10132,0.49051973,0.2939053,488.01593,1,1,4,3,3,0,0
2044368000,2044368000,47.39816965565871,8.545386854211122,488.11993,488.11993,488.10132,488.10132,0.49141884,0.29327896,488.0159,1,1,4,3,3,0,0
2044376000,2044376000,47.39816965603485,8.545386852207445,488.12003,488.12003,488.10132,488.10132,0.49232116,0.29367676,488.01602,1,1,4,3,3,0,0
2044384000,2044384000,47.39816965648947,8.545386850112948,488.1201,488.1201,488.10132,488.10132,0.4932267,0.2940752,488.01614,1,1,4,3,3,0,0
2044400000,2044400000,47.39816965749255,8.545386845657312,488.12027,488.12027,488.10132,488.10132,0.49502882,0.29487398,488.0164,1,1,4,3,3,0,0
2044408000,2044408000,47.3981696580517,8.545386843324058,488.12033,488.12033,488.10132,488.10132,0.49594375,0.29527432,488.0165,1,1,4,3,3,0,0
2044416000,2044416000,47.39816965864917,8.545386840893036,488.12042,488.12042,488.10132,488.10132,0.4968619,0.29567528,488.01663,1,1,4,3,3,0,0
2044424000,2044424000,47.39816965928936,8.545386838383882,488.1205,488.1205,488.10132,488.10132,0.49778324,0.29607686,488.01675,1,1,4,3,3,0,0
2044440000,2044440000,47.39816966065662,8.545386833143136,488.12073,488.12073,488.10132,488.10132,0.4996356,0.29582992,488.01727,1,1,4,3,3,0,0
2044448000,2044448000,47.39816966137337,8.545386830290457,488.12082,488.12082,488.10132,488.10132,0.50056666,0.29623196,488.0174,1,1,4,3,3,0,0
2044456000,2044456000,47.39816966078661,8.54538683414533,488.12088,488.12088,488.10132,488.10132,0.45872185,0.28278464,488.01654,1,1,4,3,3,0,0
2044464000,2044464000,47.398169660284964,8.545386837839976,488.12097,488.12097,488.10132,488.10132,0.4595046,0.2831639,488.0167,1,1,4,3,3,0,0
2044480000,2044480000,47.39816965935489,8.545386844708041,488.1211,488.1211,488.10132,488.10132,0.461067,0.28392437,488.017,1,1,4,3,3,0,0
2044488000,2044488000,47.39816965894485,8.545386847861485,488.1212,488.1212,488.10132,488.10132,0.46185854,0.28430557,488.01715,1,1,4,3,3,0,0
2044496000,2044496000,47.39816965860954,8.545386850841759,488.12125,488.12125,488.10132,488.10132,0.4626531,0.2846874,488.01727,1,1,4,3,3,0,0
2044504000,2044504000,47.39816965836658,8.545386853669656,488.12134,488.12134,488.10132,488.10132,0.46345064,0.2850699,488.0174,1,1,4,3,3,0,0
2044520000,2044520000,47.39816965796167,8.545386858804855,488.1215,488.1215,488.10132,488.10132,0.4650548,0.28490007,488.01752,1,1,4,3,3,0,0
2044528000,2044528000,47.39816965781592,8.545386861108387,488.12155,488.12155,488.10132,488.10132,0.4658614,0.28528324,488.01764,1,1,4,3,3,0,0
2044536000,2044536000,47.39816965775931,8.545386863296097,488.1216,488.1216,488.10132,488.10132,0.46665925,0.28566703,488.01776,1,1,4,3,3,0,0
2044544000,2044544000,47.3981696577452,8.545386865301454,488.12167,488.12167,488.10132,488.10132,0.46747172,0.28605148,488.01788,1,1,4,3,3,0,0
2044560000,2044560000,47.398169657653725,8.54538686894485,488.12183,488.12183,488.10132,488.10132,0.4691059,0.2868223,488.01813,1,1,4,3,3,0,0
2044568000,2044568000,47.39816965762808,8.545386870589391,488.1219,488.1219,488.10132,488.10132,0.46992752,0.28720865,488.01825,1,1,4,3,3,0,0
2044576000,2044576000,47.39816965767786,8.54538687209633,488.12195,488.12195,488.10132,488.10132,0.47075227,0.286639,488.01794,1,1,4,3,3,0,0
2044584000,2044584000,47.39816965778323,8.545386873443983,488.122,488.122,488.10132,488.10132,0.47158003,0.28702536,488.01807,1,1,4,3,3,0,0
2044600000,2044600000,47.398169658087895,8.545386875623928,488.1221,488.1221,488.10132,488.10132,0.47324485,0.2878,488.01834,1,1,4,3,3,0,0
2044608000,2044608000,47.398169658199826,8.545386876562375,488.12216,488.12216,488.10132,488.10132,0.47406837,0.28818828,488.01846,1,1,4,3,3,0,0
2044616000,2044616000,47.39816965830587,8.545386877317576,488.12222,488.12222,488.10132,488.10132,0.4749083,0.2885772,488.0186,1,1,4,3,3,0,0
2044624000,2044624000,47.398169658468916,8.545386877874178,488.12228,488.12228,488.10132,488.10132,0.4757513,0.28896672,488.0187,1,1,4,3,3,0,0
2044640000,2044640000,47.39816965901799,8.54538687846886,488.12234,488.12234,488.10132,488.10132,0.47744662,0.28877214,488.0185,1,1,4,3,3,0,0
2044648000,2044648000,47.39816965932137,8.545386878533359,488.1224,488.1224,488.10132,488.10132,0.4782989,0.28916228,488.01862,1,1,4,3,3,0,0
2044656000,2044656000,47.39816965964789,8.545386878439981,488.12244,488.12244,488.10132,488.10132,0.47915435,0.28955308,488.01874,1,1,4,3,3,0,0
2044664000,2044664000,47.39816965999337,8.545386878214911,488.1225,488.1225,488.10132,488.10132,0.48001292,0.2899445,488.01886,1,1,4,3,3,0,0
2044680000,2044680000,47.39816966088631,8.545386877338656,488.1226,488.1226,488.10132,488.10132,0.481722,0.29072925,488.0191,1,1,4,3,3,0,0
2044688000,2044688000,47.398169661445756,8.545386876709284,488.12265,488.12265,488.10132,488.10132,0.4825897,0.29112256,488.01923,1,1,4,3,3,0,0
2044696000,2044696000,47.39816966204376,8.545386875867685,488.12268,488.12268,488.10132,488.10132,0.48346052,0.29151654,488.01935,1,1,4,3,3,0,0
2044704000,2044704000,47.398169662728186,8.54538687485655,488.1227,488.1227,488.10132,488.10132,0.48433444,0.2909109,488.01874,1,1,4,3,3,0,0
2044720000,2044720000,47.398169664184266,8.545386872534728,488.12274,488.12274,488.10132,488.10132,0.48609182,0.2916993,488.01898,1,1,4,3,3,0,0
2044728000,2044728000,47.39816966493009,8.545386871175316,488.12274,488.12274,488.10132,488.10132,0.48697525,0.2920944,488.0191,1,1,4,3,3,0,0
2044736000,2044736000,47.3981696657288,8.545386869623606,488.12277,488.12277,488.10132,488.10132,0.4878618,0.29249018,488.01923,1,1,4,3,3,0,0
2044744000,2044744000,47.398169666607956,8.54538686789439,488.1228,488.1228,488.10132,488.10132,0.48875156,0.29288658,488.01935,1,1,4,3,3,0,0
2044760000,2044760000,47.3981696684783,8.545386864084193,488.1229,488.1229,488.10132,488.10132,0.4905232,0.2936813,488.0196,1,1,4,3,3,0,0
2044768000,2044768000,47.39816966950667,8.545386862034205,488.12292,488.12292,488.10132,488.10132,0.49142227,0.2940796,488.0197,1,1,4,3,3,0,0
2044776000,2044776000,47.39816967058652,8.545386859976036,488.123,488.123,488.10132,488.10132,0.4923245,0.2934518,488.01956,1,1,4,3,3,0,0
2044784000,2044784000,47.3981696717075,8.54538685790191,488.12302,488.12302,488.10132,488.10132,0.49322996,0.29384992,488.01965,1,1,4,3,3,0,0
2044800000,2044800000,47.39816967400836,8.545386853499732,488.12314,488.12314,488.10132,488.10132,0.49505043,0.29464814,488.01984,1,1,4,3,3,0,0
2044808000,2044808000,47.39816967518622,8.545386851130688,488.1232,488.1232,488.10132,488.10132,0.49596548,0.2950482,488.01993,1,1,4,3,3,0,0
2044816000,2044816000,47.39816967641618,8.545386848623554,488.12326,488.12326,488.10132,488.10132,0.49688372,0.29544887,488.02002,1,1,4,3,3,0,0
2044824000,2044824000,47.398169677671135,8.545386846050764,488.12332,488.12332,488.10132,488.10132,0.49778602,0.2958502,488.0201,1,1,4,3,3,0,0
2044840000,2044840000,47.398169680213186,8.545386840725692,488.12344,488.12344,488.10132,488.10132,0.49963817,0.29665467,488.0203,1,1,4,3,3,0,0
2044848000,2044848000,47.39816968152831,8.545386837957464,488.1235,488.1235,488.10132,488.10132,0.5005691,0.296004,488.0198,1,1,4,3,3,0,0
2044856000,2044856000,47.39816968279763,8.545386842020122,488.1235,488.1235,488.10132,488.10132,0.45872688,0.28258663,488.01807,1,1,4,3,3,0,0
2044864000,2044864000,47.398169684076336,8.545386845863016,488.1235,488.1235,488.10132,488.10132,0.45950958,0.28296566,488.01816,1,1,4,3,3,0,0
2044880000,2044880000,47.398169686829796,8.545386853022995,488.12354,488.12354,488.10132,488.10132,0.46108246,0.28372568,488.01834,1,1,4,3,3,0,0
2044888000,2044888000,47.39816968827071,8.545386856349234,488.12354,488.12354,488.10132,488.10132,0.4618741,0.28410664,488.01843,1,1,4,3,3,0,0
2044896000,2044896000,47.39816968970399,8.54538685947524,488.12357,488.12357,488.10132,488.10132,0.46265772,0.28448826,488.01852,1,1,4,3,3,0,0
2044904000,2044904000,47.39816969115753,8.545386862388673,488.1236,488.1236,488.10132,488.10132,0.46345523,0.2848705,488.01862,1,1,4,3,3,0,0
2044920000,2044920000,47.39816969429735,8.54538686788551,488.12366,488.12366,488.10132,488.10132,0.46505928,0.28469962,488.0188,1,1,4,3,3,0,0
2044928000,2044928000,47.39816969589595,8.545386870344116,488.1237,488.1237,488.10132,488.10132,0.46586585,0.28508255,488.0189,1,1,4,3,3,0,0
2044936000,2044936000,47.39816969749322,8.545386872608182,488.12375,488.12375,488.10132,488.10132,0.4666755,0.2854661,488.01898,1,1,4,3,3,0,0
2044944000,2044944000,47.398169699140134,8.545386874687692,488.12378,488.12378,488.10132,488.10132,0.4674881,0.28585032,488.01907,1,1,4,3,3,0,0
2044960000,2044960000,47.39816970252483,8.545386878341539,488.12387,488.12387,488.10132,488.10132,0.46912253,0.28662065,488.0193,1,1,4,3,3,0,0
2044968000,2044968000,47.39816970424243,8.545386879913066,488.1239,488.1239,488.10132,488.10132,0.46993178,0.28700677,488.0194,1,1,4,3,3,0,0
2044976000,2044976000,47.39816970592386,8.545386881252103,488.12396,488.12396,488.10132,488.10132,0.47075647,0.28739354,488.01953,1,1,4,3,3,0,0
2044984000,2044984000,47.39816970760249,8.54538688238379,488.12402,488.12402,488.10132,488.10132,0.4715842,0.28778097,488.01965,1,1,4,3,3,0,0
2045000000,2045000000,47.39816971106592,8.545386884204548,488.1241,488.1241,488.10132,488.10132,0.47324893,0.28759402,488.01944,1,1,4,3,3,0,0
2045008000,2045008000,47.39816971280356,8.545386884919838,488.12418,488.12418,488.10132,488.10132,0.4740859,0.28798205,488.01956,1,1,4,3,3,0,0
2045016000,2045016000,47.398169714508356,8.545386885574018,488.12424,488.12424,488.10132,488.10132,0.47492597,0.28837073,488.01968,1,1,4,3,3,0,0
2045024000,2045024000,47.398169716241476,8.545386886166451,488.1243,488.1243,488.10132,488.10132,0.4757691,0.28876004,488.0198,1,1,4,3,3,0,0
2045040000,2045040000,47.398169719711404,8.545386886974203,488.12445,488.12445,488.10132,488.10132,0.47745052,0.28954053,488.02005,1,1,4,3,3,0,0
2045048000,2045048000,47.398169721378785,8.545386887240255,488.1245,488.1245,488.10132,488.10132,0.4783028,0.28993174,488.02017,1,1,4,3,3,0,0
2045056000,2045056000,47.398169723064946,8.545386887414386,488.1246,488.1246,488.10132,488.10132,0.4791582,0.2903236,488.0203,1,1,4,3,3,0,0
2045064000,2045064000,47.39816972479781,8.545386887452334,488.1247,488.1247,488.10132,488.10132,0.4800167,0.28972805,488.02078,1,1,4,3,3,0,0
2045080000,2045080000,47.39816972836157,8.545386887285758,488.1249,488.1249,488.10132,488.10132,0.48174104,0.29051226,488.02103,1,1,4,3,3,0,0
2045088000,2045088000,47.398169730200784,8.54538688707343,488.12503,488.12503,488.10132,488.10132,0.4826089,0.2909053,488.02115,1,1,4,3,3,0,0
2045096000,2045096000,47.3981697320856,8.545386886819092,488.12512,488.12512,488.10132,488.10132,0.48347995,0.291299,488.02127,1,1,4,3,3,0,0
2045104000,2045104000,47.39816973404942,8.545386886442074,488.12524,488.12524,488.10132,488.10132,0.48435414,0.2916933,488.0214,1,1,4,3,3,0,0
2045120000,2045120000,47.39816973803777,8.545386885391574,488.12543,488.12543,488.10132,488.10132,0.48609564,0.29248384,488.02164,1,1,4,3,3,0,0
2045128000,2045128000,47.398169740003425,8.54538688477468,488.12552,488.12552,488.10132,488.10132,0.48697907,0.29288006,488.02176,1,1,4,3,3,0,0
2045136000,2045136000,47.39816974192267,8.545386884069938,488.12564,488.12564,488.10132,488.10132,0.48786566,0.29226264,488.022,1,1,4,3,3,0,0
2045144000,2045144000,47.39816974386185,8.54538688326792,488.12576,488.12576,488.10132,488.10132,0.48875543,0.29265875,488.02216,1,1,4,3,3,0,0
2045160000,2045160000,47.39816974777299,8.545386881365694,488.12598,488.12598,488.10132,488.10132,0.4905445,0.29345286,488.02243,1,1,4,3,3,0,0
2045168000,2045168000,47.39816974974986,8.545386880260452,488.1261,488.1261,488.10132,488.10132,0.4914438,0.29385087,488.02258,1,1,4,3,3,0,0
2045176000,2045176000,47.39816975172571,8.54538687897465,488.1262,488.1262,488.10132,488.10132,0.49234632,0.2942495,488.02274,1,1,4,3,3,0,0
2045184000,2045184000,47.39816975367051,8.545386877631664,488.1263,488.1263,488.10132,488.10132,0.493234,0.29464874,488.0229,1,1,4,3,3,0,0
2045200000,2045200000,47.39816975760849,8.545386874639807,488.12656,488.12656,488.10132,488.10132,0.4950546,0.29544917,488.0232,1,1,4,3,3,0,0
2045208000,2045208000,47.39816975961784,8.545386873051823,488.12665,488.12665,488.10132,488.10132,0.49596968,0.2948092,488.02258,1,1,4,3,3,0,0
2045216000,2045216000,47.39816976165646,8.545386871376486,488.12674,488.12674,488.10132,488.10132,0.496888,0.29520956,488.02274,1,1,4,3,3,0,0
2045224000,2045224000,47.39816976370372,8.545386869643501,488.12686,488.12686,488.10132,488.10132,0.49780956,0.29561055,488.0229,1,1,4,3,3,0,0
2045240000,2045240000,47.39816976778333,8.5453868660056,488.12704,488.12704,488.10132,488.10132,0.49966234,0.2964144,488.0232,1,1,4,3,3,0,0
2045248000,2045248000,47.39816976978756,8.545386864024959,488.12714,488.12714,488.10132,488.10132,0.5005936,0.2968173,488.02335,1,1,4,3,3,0,0
2045256000,2045256000,47.398169769057596,8.54538686680443,488.127,488.127,488.10132,488.10132,0.4587286,0.28329206,488.01584,1,1,4,3,3,0,0
2045264000,2045264000,47.39816976838963,8.545386869419964,488.12686,488.12686,488.10132,488.10132,0.45951137,0.28367203,488.01596,1,1,4,3,3,0,0
2045280000,2045280000,47.39816976743957,8.545386874222995,488.1266,488.1266,488.10132,488.10132,0.46108434,0.2835084,488.01608,1,1,4,3,3,0,0
2045288000,2045288000,47.39816976705314,8.545386876453247,488.12646,488.12646,488.10132,488.10132,0.461876,0.28388909,488.0162,1,1,4,3,3,0,0
2045296000,2045296000,47.39816976673019,8.545386878488936,488.1263,488.1263,488.10132,488.10132,0.46267068,0.2842704,488.01633,1,1,4,3,3,0,0
2045304000,2045304000,47.39816976646013,8.545386880321795,488.12622,488.12622,488.10132,488.10132,0.46346837,0.28465238,488.01645,1,1,4,3,3,0,0
2045320000,2045320000,47.398169766040816,8.545386883364266,488.12598,488.12598,488.10132,488.10132,0.46507278,0.2854182,488.0167,1,1,4,3,3,0,0
2045328000,2045328000,47.398169765910154,8.545386884642754,488.1259,488.1259,488.10132,488.10132,0.46586785,0.2858021,488.0168,1,1,4,3,3,0,0
2045336000,2045336000,47.39816976579934,8.545386885677933,488.1258,488.1258,488.10132,488.10132,0.46667746,0.28618664,488.01694,1,1,4,3,3,0,0
2045344000,2045344000,47.39816976571719,8.545386886511416,488.12567,488.12567,488.10132,488.10132,0.46749014,0.28657183,488.01706,1,1,4,3,3,0,0
2045360000,2045360000,47.3981697656579,8.545386887669055,488.1255,488.1255,488.10132,488.10132,0.46912456,0.2863925,488.01715,1,1,4,3,3,0,0
2045368000,2045368000,47.398169765696835,8.545386888021477,488.1254,488.1254,488.10132,488.10132,0.46994632,0.2867783,488.01727,1,1,4,3,3,0,0
2045376000,2045376000,47.39816976576313,8.545386888292512,488.12534,488.12534,488.10132,488.10132,0.4707712,0.28716475,488.01727,1,1,4,3,3,0,0
2045384000,2045384000,47.39816976582855,8.5453868884418,488.12527,488.12527,488.10132,488.10132,0.47159913,0.28755185,488.01727,1,1,4,3,3,0,0
2045400000,2045400000,47.39816976600264,8.545386888280635,488.12518,488.12518,488.10132,488.10132,0.4732509,0.28832793,488.01727,1,1,4,3,3,0,0
2045408000,2045408000,47.398169766144484,8.545386888028805,488.12512,488.12512,488.10132,488.10132,0.47408783,0.28871694,488.01727,1,1,4,3,3,0,0
2045416000,2045416000,47.398169766366316,8.545386887642243,488.1251,488.1251,488.10132,488.10132,0.47492787,0.28910658,488.01727,1,1,4,3,3,0,0
2045424000,2045424000,47.39816976664818,8.545386887076,488.12506,488.12506,488.10132,488.10132,0.47577098,0.28852117,488.01727,1,1,4,3,3,0,0
2045440000,2045440000,47.398169767323026,8.545386885513041,488.125,488.125,488.10132,488.10132,0.47746655,0.289301,488.01727,1,1,4,3,3,0,0
2045448000,2045448000,47.39816976770494,8.545386884492604,488.12497,488.12497,488.10132,488.10132,0.47831896,0.28969187,488.01727,1,1,4,3,3,0,0
2045456000,2045456000,47.39816976813462,8.545386883309146,488.12494,488.12494,488.10132,488.10132,0.4791745,0.29008338,488.01727,1,1,4,3,3,0,0
2045464000,2045464000,47.39816976865139,8.545386882052437,488.1249,488.1249,488.10132,488.10132,0.48003316,0.29047552,488.01727,1,1,4,3,3,0,0
2045480000,2045480000,47.39816976978576,8.545386879409238,488.1249,488.1249,488.10132,488.10132,0.48174462,0.2912617,488.01727,1,1,4,3,3,0,0
2045488000,2045488000,47.398169770451936,8.545386877967026,488.1249,488.1249,488.10132,488.10132,0.48261246,0.29165575,488.01727,1,1,4,3,3,0,0
2045496000,2045496000,47.39816977119777,8.545386876406079,488.1249,488.1249,488.10132,488.10132,0.4834834,0.29104882,488.01727,1,1,4,3,3,0,0
2045504000,2045504000,47.39816977197342,8.545386874731417,488.1249,488.1249,488.10132,488.10132,0.48435754,0.29144278,488.01727,1,1,4,3,3,0,0
2045520000,2045520000,47.39816977362533,8.545386870937486,488.12488,488.12488,488.10132,488.10132,0.4861152,0.2922326,488.01727,1,1,4,3,3,0,0
2045528000,2045528000,47.39816977453999,8.545386868925481,488.12488,488.12488,488.10132,488.10132,0.48699877,0.29262847,488.01727,1,1,4,3,3,0,0
2045536000,2045536000,47.39816977546059,8.545386866763392,488.12488,488.12488,488.10132,488.10132,0.48788556,0.29302493,488.01727,1,1,4,3,3,0,0
2045544000,2045544000,47.39816977637357,8.545386864433121,488.12488,488.12488,488.10132,488.10132,0.48875856,0.29342204,488.01727,1,1,4,3,3,0,0
2045560000,2045560000,47.39816977821093,8.545386859656901,488.12488,488.12488,488.10132,488.10132,0.4905475,0.29421815,488.01727,1,1,4,3,3,0,0
2045568000,2045568000,47.398169779194625,8.545386857218363,488.1249,488.1249,488.10132,488.10132,0.49144676,0.29358903,488.01727,1,1,4,3,3,0,0
2045576000,2045576000,47.39816978021486,8.545386854744656,488.1249,488.1249,488.10132,488.10132,0.49234918,0.29398724,488.01727,1,1,4,3,3,0,0
2045584000,2045584000,47.398169781293625,8.545386852232056,488.1249,488.1249,488.10132,488.10132,0.4932548,0.29438612,488.01727,1,1,4,3,3,0,0
2045600000,2045600000,47.39816978364984,8.545386846868245,488.12494,488.12494,488.10132,488.10132,0.4950757,0.29518574,488.01727,1,1,4,3,3,0,0
2045608000,2045608000,47.39816978492418,8.545386844014706,488.12497,488.12497,488.10132,488.10132,0.49599096,0.29558653,488.01727,1,1,4,3,3,0,0
2045616000,2045616000,47.39816978618827,8.54538684108313,488.12497,488.12497,488.10132,488.10132,0.49689046,0.2959879,488.01727,1,1,4,3,3,0,0
2045624000,2045624000,47.398169787479084,8.545386838084935,488.125,488.125,488.10132,488.10132,0.4978119,0.2963899,488.01727,1,1,4,3,3,0,0
2045640000,2045640000,47.39816979012207,8.54538683183855,488.12506,488.12506,488.10132,488.10132,0.4996645,0.29614052,488.01727,1,1,4,3,3,0,0
2045648000,2045648000,47.398169791500045,8.54538682858157,488.1251,488.1251,488.10132,488.10132,0.5005956,0.29654297,488.01727,1,1,4,3,3,0,0
2045656000,2045656000,47.3981697904402,8.545386833203183,488.12494,488.12494,488.10132,488.10132,0.458743,0.28305444,488.01727,1,1,4,3,3,0,0
2045664000,2045664000,47.39816978941599,8.54538683759162,488.12482,488.12482,488.10132,488.10132,0.45952582,0.2834341,488.01727,1,1,4,3,3,0,0
2045680000,2045680000,47.39816978774168,8.545386845744373,488.12454,488.12454,488.10132,488.10132,0.46110043,0.2841953,488.01727,1,1,4,3,3,0,0
2045688000,2045688000,47.39816978709696,8.545386849469216,488.12442,488.12442,488.10132,488.10132,0.46188143,0.28457686,488.01727,1,1,4,3,3,0,0
2045696000,2045696000,47.39816978650903,8.545386852974254,488.1243,488.1243,488.10132,488.10132,0.46267608,0.28495908,488.01727,1,1,4,3,3,0,0
2045704000,2045704000,47.39816978595861,8.545386856340157,488.12418,488.12418,488.10132,488.10132,0.4634737,0.28534195,488.01727,1,1,4,3,3,0,0
2045720000,2045720000,47.398169785049355,8.545386862644943,488.12393,488.12393,488.10132,488.10132,0.46507803,0.28517017,488.01727,1,1,4,3,3,0,0
2045728000,2045728000,47.39816978468501,8.545386865623486,488.1238,488.1238,488.10132,488.10132,0.46588472,0.28555366,488.01727,1,1,4,3,3,0,0
2045736000,2045736000,47.39816978438556,8.54538686844256,488.12372,488.12372,488.10132,488.10132,0.46669444,0.28593782,488.01727,1,1,4,3,3,0,0
2045744000,2045744000,47.39816978417402,8.545386871026533,488.1236,488.1236,488.10132,488.10132,0.4675072,0.28632262,488.01727,1,1,4,3,3,0,0
2045760000,2045760000,47.398169783960306,8.545386875688695,488.1234,488.1234,488.10132,488.10132,0.46912953,0.28709412,488.01727,1,1,4,3,3,0,0
2045768000,2045768000,47.39816978391516,8.545386877838437,488.12332,488.12332,488.10132,488.10132,0.46995127,0.28748083,488.01727,1,1,4,3,3,0,0
2045776000,2045776000,47.39816978392149,8.545386879804134,488.12323,488.12323,488.10132,488.10132,0.47077605,0.28786817,488.01727,1,1,4,3,3,0,0
2045784000,2045784000,47.398169783990014,8.545386881643603,488.12314,488.12314,488.10132,488.10132,0.47160393,0.28729296,488.01727,1,1,4,3,3,0,0
2045800000,2045800000,47.39816978434097,8.545386884856937,488.12296,488.12296,488.10132,488.10132,0.4732689,0.28806826,488.01727,1,1,4,3,3,0,0
2045808000,2045808000,47.398169784660794,8.545386886237033,488.1229,488.1229,488.10132,488.10132,0.47410598,0.28845686,488.01727,1,1,4,3,3,0,0
2045816000,2045816000,47.39816978503838,8.545386887468414,488.1228,488.1228,488.10132,488.10132,0.47494617,0.2888461,488.01727,1,1,4,3,3,0,0
2045824000,2045824000,47.39816978546666,8.545386888583032,488.12274,488.12274,488.10132,488.10132,0.47578946,0.28923598,488.01727,1,1,4,3,3,0,0
2045840000,2045840000,47.398169786187815,8.545386890264412,488.12262,488.12262,488.10132,488.10132,0.47747108,0.29001763,488.01727,1,1,4,3,3,0,0
2045848000,2045848000,47.39816978648101,8.54538689096915,488.1226,488.1226,488.10132,488.10132,0.47832352,0.29040942,488.01727,1,1,4,3,3,0,0
2045856000,2045856000,47.39816978679289,8.54538689166419,488.12253,488.12253,488.10132,488.10132,0.47917902,0.28981298,488.01727,1,1,4,3,3,0,0
2045864000,2045864000,47.39816978713031,8.545386892348189,488.12247,488.12247,488.10132,488.10132,0.48003763,0.2902047,488.01727,1,1,4,3,3,0,0
2045880000,2045880000,47.398169787923415,8.545386893387436,488.1224,488.1224,488.10132,488.10132,0.48176423,0.29099008,488.01727,1,1,4,3,3,0,0
2045888000,2045888000,47.39816978838849,8.545386893735701,488.12234,488.12234,488.10132,488.10132,0.48263222,0.2913837,488.01727,1,1,4,3,3,0,0
2045896000,2045896000,47.398169788935824,8.545386893961055,488.1223,488.1223,488.10132,488.10132,0.48350337,0.29177797,488.01727,1,1,4,3,3,0,0
2045904000,2045904000,47.39816978951767,8.545386894125569,488.12228,488.12228,488.10132,488.10132,0.4843618,0.29217285,488.01727,1,1,4,3,3,0,0
2045920000,2045920000,47.39816979089132,8.545386894154966,488.12222,488.12222,488.10132,488.10132,0.48611942,0.2919535,488.01727,1,1,4,3,3,0,0
2045928000,2045928000,47.39816979167099,8.545386893968944,488.1222,488.1222,488.10132,488.10132,0.48700294,0.29234892,488.01727,1,1,4,3,3,0,0
2045936000,2045936000,47.39816979249528,8.545386893637668,488.12216,488.12216,488.10132,488.10132,0.48788965,0.292745,488.01727,1,1,4,3,3,0,0
2045944000,2045944000,47.39816979333454,8.545386893171884,488.12213,488.12213,488.10132,488.10132,0.48877952,0.29314166,488.01727,1,1,4,3,3,0,0
2045960000,2045960000,47.39816979505936,8.545386891765615,488.1221,488.1221,488.10132,488.10132,0.49056876,0.2939369,488.01727,1,1,4,3,3,0,0
2045968000,2045968000,47.398169795893125,8.545386890845394,488.12207,488.12207,488.10132,488.10132,0.4914506,0.29433548,488.01727,1,1,4,3,3,0,0
2045976000,2045976000,47.39816979673404,8.545386889807522,488.12207,488.12207,488.10132,488.10132,0.492353,0.29370528,488.01727,1,1,4,3,3,0,0
2045984000,2045984000,47.39816979757311,8.545386888718612,488.12207,488.12207,488.10132,488.10132,0.4932586,0.2941037,488.01727,1,1,4,3,3,0,0
2046000000,2046000000,47.39816979934665,8.545386886488608,488.12207,488.12207,488.10132,488.10132,0.49507937,0.29490247,488.01727,1,1,4,3,3,0,0
2046008000,2046008000,47.39816980029114,8.545386885254006,488.1221,488.1221,488.10132,488.10132,0.49599454,0.2953028,488.01727,1,1,4,3,3,0,0
2046016000,2046016000,47.39816980123654,8.545386883947936,488.1221,488.1221,488.10132,488.10132,0.49691293,0.29570377,488.01727,1,1,4,3,3,0,0
2046024000,2046024000,47.39816980218501,8.545386882607193,488.12213,488.12213,488.10132,488.10132,0.49783453,0.29610536,488.01727,1,1,4,3,3,0,0
2046040000,2046040000,47.3981698041697,8.545386879843237,488.12216,488.12216,488.10132,488.10132,0.49966776,0.29691038,488.01727,1,1,4,3,3,0,0
2046048000,2046048000,47.398169805205384,8.545386878317686,488.1222,488.1222,488.10132,488.10132,0.50059885,0.29625726,488.01727,1,1,4,3,3,0,0
2046056000,2046056000,47.398169804560624,8.545386882290588,488.12216,488.12216,488.10132,488.10132,0.45874766,0.28280693,488.01727,1,1,4,3,3,0,0
2046064000,2046064000,47.398169804036094,8.545386885994764,488.12213,488.12213,488.10132,488.10132,0.4595304,0.28318617,488.01727,1,1,4,3,3,0,0
2046080000,2046080000,47.398169803268566,8.545386892736898,488.12204,488.12204,488.10132,488.10132,0.46110493,0.28394663,488.01727,1,1,4,3,3,0,0
2046088000,2046088000,47.398169803035024,8.545386895846683,488.122,488.122,488.10132,488.10132,0.4618967,0.28432783,488.01727,1,1,4,3,3,0,0
2046096000,2046096000,47.398169802866754,8.545386898769001,488.12198,488.12198,488.10132,488.10132,0.46269143,0.2847097,488.01727,1,1,4,3,3,0,0
2046104000,2046104000,47.398169802786995,8.545386901494703,488.12195,488.12195,488.10132,488.10132,0.4634892,0.28509218,488.01727,1,1,4,3,3,0,0
2046120000,2046120000,47.39816980277782,8.545386906318637,488.1219,488.1219,488.10132,488.10132,0.46508232,0.2849196,488.01727,1,1,4,3,3,0,0
2046128000,2046128000,47.39816980290666,8.545386908457436,488.12186,488.12186,488.10132,488.10132,0.46588898,0.28530273,488.01727,1,1,4,3,3,0,0
2046136000,2046136000,47.39816980312035,8.545386910505233,488.12186,488.12186,488.10132,488.10132,0.46669865,0.28568652,488.01727,1,1,4,3,3,0,0
2046144000,2046144000,47.3981698033686,8.54538691242375,488.12186,488.12186,488.10132,488.10132,0.46751133,0.2860709,488.01727,1,1,4,3,3,0,0
2046160000,2046160000,47.398169804074705,8.545386915792774,488.12186,488.12186,488.10132,488.10132,0.46914592,0.2868417,488.01727,1,1,4,3,3,0,0
2046168000,2046168000,47.398169804508306,8.545386917329358,488.12186,488.12186,488.10132,488.10132,0.46996778,0.28722802,488.01727,1,1,4,3,3,0,0
2046176000,2046176000,47.39816980502434,8.545386918732023,488.12186,488.12186,488.10132,488.10132,0.4707927,0.287615,488.01727,1,1,4,3,3,0,0
2046184000,2046184000,47.39816980558752,8.545386919961649,488.12186,488.12186,488.10132,488.10132,0.4716078,0.28704193,488.01727,1,1,4,3,3,0,0
2046200000,2046200000,47.39816980686117,8.545386921880501,488.1219,488.1219,488.10132,488.10132,0.47327265,0.2878165,488.01727,1,1,4,3,3,0,0
2046208000,2046208000,47.39816980763879,8.54538692258253,488.12192,488.12192,488.10132,488.10132,0.47410968,0.28820473,488.01727,1,1,4,3,3,0,0
2046216000,2046216000,47.3981698084747,8.545386923164846,488.12195,488.12195,488.10132,488.10132,0.47494984,0.28859362,488.01727,1,1,4,3,3,0,0
2046224000,2046224000,47.39816980928718,8.545386923652904,488.12195,488.12195,488.10132,488.10132,0.47579306,0.28898314,488.01727,1,1,4,3,3,0,0
2046240000,2046240000,47.39816981091097,8.545386924212485,488.12198,488.12198,488.10132,488.10132,0.47748882,0.2887857,488.01727,1,1,4,3,3,0,0
2046248000,2046248000,47.39816981183468,8.545386924300322,488.12198,488.12198,488.10132,488.10132,0.47834134,0.2891758,488.01727,1,1,4,3,3,0,0
2046256000,2046256000,47.3981698127672,8.545386924312314,488.12198,488.12198,488.10132,488.10132,0.47918236,0.28956655,488.01727,1,1,4,3,3,0,0
2046264000,2046264000,47.398169813714865,8.545386924211723,488.12198,488.12198,488.10132,488.10132,0.48004094,0.2899579,488.01727,1,1,4,3,3,0,0
2046280000,2046280000,47.39816981577445,8.545386923554323,488.122,488.122,488.10132,488.10132,0.48176748,0.29074258,488.01727,1,1,4,3,3,0,0
2046288000,2046288000,47.39816981685238,8.545386923011378,488.122,488.122,488.10132,488.10132,0.48263544,0.29113588,488.01727,1,1,4,3,3,0,0
2046296000,2046296000,47.39816981796396,8.545386922280612,488.122,488.122,488.10132,488.10132,0.4835066,0.29152977,488.01727,1,1,4,3,3,0,0
2046304000,2046304000,47.39816981913659,8.545386921394568,488.12204,488.12204,488.10132,488.10132,0.48438087,0.29092398,488.01727,1,1,4,3,3,0,0
2046320000,2046320000,47.39816982160667,8.545386919344068,488.12207,488.12207,488.10132,488.10132,0.4861226,0.29171228,488.01727,1,1,4,3,3,0,0
2046328000,2046328000,47.398169822906546,8.545386918106432,488.1221,488.1221,488.10132,488.10132,0.48700616,0.29210737,488.01727,1,1,4,3,3,0,0
2046336000,2046336000,47.398169824269964,8.545386916724167,488.12213,488.12213,488.10132,488.10132,0.48789284,0.2925031,488.01727,1,1,4,3,3,0,0
2046344000,2046344000,47.398169825669946,8.54538691522521,488.12213,488.12213,488.10132,488.10132,0.48878273,0.29289946,488.01727,1,1,4,3,3,0,0
2046360000,2046360000,47.398169828563354,8.545386911973319,488.1222,488.1222,488.10132,488.10132,0.490572,0.2926755,488.01727,1,1,4,3,3,0,0
2046368000,2046368000,47.39816983002617,8.545386910214795,488.12222,488.12222,488.10132,488.10132,0.49147144,0.29307234,488.01727,1,1,4,3,3,0,0
2046376000,2046376000,47.398169831508234,8.545386908390917,488.12225,488.12225,488.10132,488.10132,0.49237406,0.29346985,488.01727,1,1,4,3,3,0,0
2046384000,2046384000,47.3981698330692,8.545386906459893,488.12228,488.12228,488.10132,488.10132,0.49326184,0.29386798,488.01727,1,1,4,3,3,0,0
2046400000,2046400000,47.398169836262,8.545386902233147,488.1223,488.1223,488.10132,488.10132,0.49508256,0.29466617,488.01727,1,1,4,3,3,0,0
2046408000,2046408000,47.39816983788571,8.545386899981533,488.12234,488.12234,488.10132,488.10132,0.49599773,0.29506618,488.01727,1,1,4,3,3,0,0
2046416000,2046416000,47.39816983953521,8.545386897686535,488.12234,488.12234,488.10132,488.10132,0.49691612,0.29546684,488.01727,1,1,4,3,3,0,0
2046424000,2046424000,47.39816984121383,8.545386895381087,488.12238,488.12238,488.10132,488.10132,0.49783772,0.29586813,488.01727,1,1,4,3,3,0,0
2046440000,2046440000,47.398169844653,8.545386890628885,488.1224,488.1224,488.10132,488.10132,0.4996906,0.29562563,488.01727,1,1,4,3,3,0,0
2046448000,2046448000,47.39816984643437,8.54538688816022,488.12244,488.12244,488.10132,488.10132,0.5006219,0.29602736,488.01727,1,1,4,3,3,0,0
2046456000,2046456000,47.39816984509861,8.545386891302122,488.12238,488.12238,488.10132,488.10132,0.4587504,0.28260717,488.01727,1,1,4,3,3,0,0
2046464000,2046464000,47.39816984380902,8.545386894235921,488.1223,488.1223,488.10132,488.10132,0.45953313,0.28298622,488.01727,1,1,4,3,3,0,0
2046480000,2046480000,47.39816984151984,8.545386899424399,488.12222,488.12222,488.10132,488.10132,0.4611076,0.2837462,488.01727,1,1,4,3,3,0,0
2046488000,2046488000,47.39816984055349,8.545386901683887,488.12216,488.12216,488.10132,488.10132,0.46189934,0.28412718,488.01727,1,1,4,3,3,0,0
2046496000,2046496000,47.398169839643806,8.54538690371768,488.12213,488.12213,488.10132,488.10132,0.46269408,0.2845088,488.01727,1,1,4,3,3,0,0
2046504000,2046504000,47.398169838757546,8.54538690560457,488.12207,488.12207,488.10132,488.10132,0.46349183,0.28396103,488.01727,1,1,4,3,3,0,0
2046520000,2046520000,47.398169837144344,8.545386908915965,488.12198,488.12198,488.10132,488.10132,0.46509638,0.28472498,488.01727,1,1,4,3,3,0,0
2046528000,2046528000,47.3981698364553,8.545386910371766,488.12195,488.12195,488.10132,488.10132,0.46589157,0.2851079,488.01727,1,1,4,3,3,0,0
2046536000,2046536000,47.398169835854155,8.545386911750999,488.12192,488.12192,488.10132,488.10132,0.46670124,0.28549147,488.01727,1,1,4,3,3,0,0
2046544000,2046544000,47.398169835341676,8.545386913033104,488.1219,488.1219,488.10132,488.10132,0.46751395,0.28587568,488.01727,1,1,4,3,3,0,0
2046560000,2046560000,47.39816983453856,8.54538691509154,488.1218,488.1218,488.10132,488.10132,0.46914846,0.286646,488.01727,1,1,4,3,3,0,0
2046568000,2046568000,47.39816983430368,8.545386915909265,488.12177,488.12177,488.10132,488.10132,0.4699703,0.28703216,488.01727,1,1,4,3,3,0,0
2046576000,2046576000,47.398169834168996,8.54538691650273,488.12173,488.12173,488.10132,488.10132,0.47079518,0.286464,488.01727,1,1,4,3,3,0,0
2046584000,2046584000,47.398169834146536,8.545386916893216,488.1217,488.1217,488.10132,488.10132,0.47162312,0.28685015,488.01727,1,1,4,3,3,0,0
2046600000,2046600000,47.398169834428124,8.54538691718537,488.1216,488.1216,488.10132,488.10132,0.473275,0.28762433,488.01727,1,1,4,3,3,0,0
2046608000,2046608000,47.39816983469197,8.545386917242451,488.12158,488.12158,488.10132,488.10132,0.474112,0.28801236,488.01727,1,1,4,3,3,0,0
2046616000,2046616000,47.39816983509707,8.545386917178359,488.12155,488.12155,488.10132,488.10132,0.4749521,0.28840104,488.01727,1,1,4,3,3,0,0
2046624000,2046624000,47.398169835581434,8.545386916933671,488.12152,488.12152,488.10132,488.10132,0.4757953,0.28879035,488.01727,1,1,4,3,3,0,0
2046640000,2046640000,47.3981698366818,8.545386916248805,488.12146,488.12146,488.10132,488.10132,0.47749093,0.2895709,488.01727,1,1,4,3,3,0,0
2046648000,2046648000,47.39816983725916,8.545386915864235,488.12143,488.12143,488.10132,488.10132,0.47834346,0.28898174,488.01727,1,1,4,3,3,0,0
2046656000,2046656000,47.398169837880495,8.545386915382313,488.1214,488.1214,488.10132,488.10132,0.47919905,0.2893723,488.01727,1,1,4,3,3,0,0
2046664000,2046664000,47.39816983858115,8.545386914835232,488.12137,488.12137,488.10132,488.10132,0.48004296,0.28976345,488.01727,1,1,4,3,3,0,0
2046680000,2046680000,47.39816984024579,8.545386913421964,488.12128,488.12128,488.10132,488.10132,0.48176938,0.29054773,488.01727,1,1,4,3,3,0,0
2046688000,2046688000,47.39816984115803,8.545386912477714,488.12125,488.12125,488.10132,488.10132,0.48263732,0.29094082,488.01727,1,1,4,3,3,0,0
2046696000,2046696000,47.39816984210111,8.545386911416323,488.1212,488.1212,488.10132,488.10132,0.48350835,0.29133454,488.01727,1,1,4,3,3,0,0
2046704000,2046704000,47.398169843127704,8.5453869102829,488.12112,488.12112,488.10132,488.10132,0.48438254,0.29172888,488.01727,1,1,4,3,3,0,0
2046720000,2046720000,47.39816984547397,8.545386907870235,488.12106,488.12106,488.10132,488.10132,0.4861404,0.29151306,488.01727,1,1,4,3,3,0,0
2046728000,2046728000,47.398169846730255,8.545386906526332,488.12103,488.12103,488.10132,488.10132,0.48702407,0.29190794,488.01727,1,1,4,3,3,0,0
2046736000,2046736000,47.398169848024565,8.545386905092048,488.121,488.121,488.10132,488.10132,0.48789424,0.29230347,488.01727,1,1,4,3,3,0,0
2046744000,2046744000,47.39816984934401,8.54538690359722,488.12097,488.12097,488.10132,488.10132,0.48878402,0.2926996,488.01727,1,1,4,3,3,0,0
2046760000,2046760000,47.39816985217299,8.545386900403523,488.12088,488.12088,488.10132,488.10132,0.49057314,0.2934938,488.01727,1,1,4,3,3,0,0
2046768000,2046768000,47.39816985371333,8.545386898709655,488.12085,488.12085,488.10132,488.10132,0.49147248,0.29389188,488.01727,1,1,4,3,3,0,0
2046776000,2046776000,47.39816985529907,8.545386896896964,488.12082,488.12082,488.10132,488.10132,0.49237502,0.29429054,488.01727,1,1,4,3,3,0,0
2046784000,2046784000,47.39816985687807,8.545386894956906,488.1208,488.1208,488.10132,488.10132,0.49328077,0.29468983,488.01727,1,1,4,3,3,0,0
2046800000,2046800000,47.398169860129194,8.54538689086179,488.1207,488.1207,488.10132,488.10132,0.49510184,0.29445583,488.01727,1,1,4,3,3,0,0
2046808000,2046808000,47.39816986163536,8.545386888743753,488.12064,488.12064,488.10132,488.10132,0.4959985,0.29485565,488.01727,1,1,4,3,3,0,0
2046816000,2046816000,47.39816986317047,8.545386886606174,488.1206,488.1206,488.10132,488.10132,0.49691683,0.29525608,488.01727,1,1,4,3,3,0,0
2046824000,2046824000,47.398169864760554,8.545386884353817,488.12057,488.12057,488.10132,488.10132,0.49783838,0.29565713,488.01727,1,1,4,3,3,0,0
2046840000,2046840000,47.3981698680014,8.545386879576128,488.12048,488.12048,488.10132,488.10132,0.49969116,0.2964611,488.01727,1,1,4,3,3,0,0
2046848000,2046848000,47.39816986968128,8.545386877076888,488.12045,488.12045,488.10132,488.10132,0.50062245,0.29686403,488.01727,1,1,4,3,3,0,0
2046856000,2046856000,47.39816986804464,8.545386881801157,488.12033,488.12033,488.10132,488.10132,0.4587634,0.2833326,488.01727,1,1,4,3,3,0,0
2046864000,2046864000,47.39816986648886,8.545386886276178,488.12024,488.12024,488.10132,488.10132,0.4595462,0.28279406,488.01727,1,1,4,3,3,0,0
2046880000,2046880000,47.398169863678206,8.545386894593657,488.12003,488.12003,488.10132,488.10132,0.46111023,0.28355363,488.01727,1,1,4,3,3,0,0
2046888000,2046888000,47.398169862445485,8.545386898522928,488.1199,488.1199,488.10132,488.10132,0.4619019,0.28393438,488.01727,1,1,4,3,3,0,0
2046896000,2046896000,47.39816986132705,8.54538690224036,488.1198,488.1198,488.10132,488.10132,0.46269658,0.2843158,488.01727,1,1,4,3,3,0,0
2046904000,2046904000,47.398169860330206,8.54538690577114,488.11972,488.11972,488.10132,488.10132,0.46349427,0.28469783,488.01727,1,1,4,3,3,0,0
2046920000,2046920000,47.398169858755,8.545386912170137,488.11957,488.11957,488.10132,488.10132,0.46509865,0.2854638,488.01727,1,1,4,3,3,0,0
2046928000,2046928000,47.39816985818528,8.545386915115415,488.11948,488.11948,488.10132,488.10132,0.4659054,0.28584778,488.01727,1,1,4,3,3,0,0
2046936000,2046936000,47.39816985771867,8.545386917938053,488.11942,488.11942,488.10132,488.10132,0.46671516,0.28528923,488.01727,1,1,4,3,3,0,0
2046944000,2046944000,47.39816985736548,8.545386920648964,488.11935,488.11935,488.10132,488.10132,0.46752796,0.2856732,488.01727,1,1,4,3,3,0,0
2046960000,2046960000,47.39816985689232,8.54538692585618,488.1192,488.1192,488.10132,488.10132,0.46915036,0.28644308,488.01727,1,1,4,3,3,0,0
2046968000,2046968000,47.398169856734164,8.54538692832535,488.11914,488.11914,488.10132,488.10132,0.46997216,0.28682896,488.01727,1,1,4,3,3,0,0
2046976000,2046976000,47.39816985663815,8.545386930726131,488.11908,488.11908,488.10132,488.10132,0.470797,0.28721553,488.01727,1,1,4,3,3,0,0
2046984000,2046984000,47.398169856638454,8.545386932988078,488.119,488.119,488.10132,488.10132,0.4716249,0.2876027,488.01727,1,1,4,3,3,0,0
2047000000,2047000000,47.39816985679376,8.545386937054253,488.11887,488.11887,488.10132,488.10132,0.47328994,0.28837895,488.01727,1,1,4,3,3,0,0
2047008000,2047008000,47.39816985696457,8.54538693893276,488.11884,488.11884,488.10132,488.10132,0.47412708,0.2877997,488.01727,1,1,4,3,3,0,0
2047016000,2047016000,47.39816985719528,8.545386940717952,488.11877,488.11877,488.10132,488.10132,0.4749673,0.2881881,488.01727,1,1,4,3,3,0,0
2047024000,2047024000,47.398169857479026,8.545386942360928,488.11874,488.11874,488.10132,488.10132,0.4757968,0.28857717,488.01727,1,1,4,3,3,0,0
2047040000,2047040000,47.39816985816173,8.545386945361038,488.11865,488.11865,488.10132,488.10132,0.47749236,0.28935722,488.01727,1,1,4,3,3,0,0
2047048000,2047048000,47.39816985859061,8.545386946678853,488.1186,488.1186,488.10132,488.10132,0.4783448,0.28974816,488.01727,1,1,4,3,3,0,0
2047056000,2047056000,47.39816985906494,8.545386947822408,488.11856,488.11856,488.10132,488.10132,0.4792004,0.29013976,488.01727,1,1,4,3,3,0,0
2047064000,2047064000,47.398169859578324,8.545386948779871,488.1185,488.1185,488.10132,488.10132,0.4800591,0.29053202,488.01727,1,1,4,3,3,0,0
2047080000,2047080000,47.39816986087296,8.545386950283309,488.1184,488.1184,488.10132,488.10132,0.48178592,0.29032427,488.01727,1,1,4,3,3,0,0
2047088000,2047088000,47.398169861641854,8.54538695083892,488.11838,488.11838,488.10132,488.10132,0.48265404,0.29071707,488.01727,1,1,4,3,3,0,0
2047096000,2047096000,47.39816986250154,8.545386951185518,488.11835,488.11835,488.10132,488.10132,0.4835097,0.29111052,488.01727,1,1,4,3,3,0,0
2047104000,2047104000,47.39816986343183,8.545386951413207,488.11832,488.11832,488.10132,488.10132,0.4843839,0.29150456,488.01727,1,1,4,3,3,0,0
2047120000,2047120000,47.39816986557955,8.545386951620104,488.11826,488.11826,488.10132,488.10132,0.48614183,0.29229462,488.01727,1,1,4,3,3,0,0
2047128000,2047128000,47.398169866696506,8.545386951524627,488.11823,488.11823,488.10132,488.10132,0.48702553,0.29269058,488.01727,1,1,4,3,3,0,0
2047136000,2047136000,47.39816986783268,8.545386951251276,488.1182,488.1182,488.10132,488.10132,0.48791236,0.29308718,488.01727,1,1,4,3,3,0,0
2047144000,2047144000,47.398169869038874,8.545386950846533,488.11816,488.11816,488.10132,488.10132,0.48880243,0.2934844,488.01727,1,1,4,3,3,0,0
2047160000,2047160000,47.39816987163341,8.545386949788652,488.1181,488.1181,488.10132,488.10132,0.4905921,0.29325882,488.01727,1,1,4,3,3,0,0
2047168000,2047168000,47.39816987300524,8.545386949167844,488.11807,488.11807,488.10132,488.10132,0.4914741,0.29365656,488.01727,1,1,4,3,3,0,0
2047176000,2047176000,47.39816987445371,8.545386948489545,488.11807,488.11807,488.10132,488.10132,0.4923767,0.29405493,488.01727,1,1,4,3,3,0,0
2047184000,2047184000,47.39816987591011,8.545386947787406,488.11804,488.11804,488.10132,488.10132,0.4932825,0.29445395,488.01727,1,1,4,3,3,0,0
2047200000,2047200000,47.39816987888878,8.54538694621103,488.11798,488.11798,488.10132,488.10132,0.49510372,0.2952538,488.01727,1,1,4,3,3,0,0
2047208000,2047208000,47.39816988042125,8.545386945307678,488.11795,488.11795,488.10132,488.10132,0.49601912,0.2956547,488.01727,1,1,4,3,3,0,0
2047216000,2047216000,47.39816988192432,8.545386944316396,488.11792,488.11792,488.10132,488.10132,0.49693775,0.2960562,488.01727,1,1,4,3,3,0,0
2047224000,2047224000,47.39816988345812,8.545386943237046,488.1179,488.1179,488.10132,488.10132,0.4978596,0.29541084,488.01727,1,1,4,3,3,0,0
2047240000,2047240000,47.398169886702725,8.545386940833861,488.11786,488.11786,488.10132,488.10132,0.4996933,0.29621416,488.01727,1,1,4,3,3,0,0
2047248000,2047248000,47.39816988839129,8.54538693954309,488.11783,488.11783,488.10132,488.10132,0.5006246,0.29661676,488.01727,1,1,4,3,3,0,0
2047256000,2047256000,47.39816988649549,8.54538694344117,488.11777,488.11777,488.10132,488.10132,0.45876342,0.28311816,488.01727,1,1,4,3,3,0,0
2047264000,2047264000,47.39816988472874,8.545386947187117,488.1177,488.1177,488.10132,488.10132,0.4595463,0.28349793,488.01727,1,1,4,3,3,0,0
2047280000,2047280000,47.3981698815571,8.545386954177136,488.1176,488.1176,488.10132,488.10132,0.46112096,0.28425938,488.01727,1,1,4,3,3,0,0
2047288000,2047288000,47.39816988013571,8.5453869574781,488.11755,488.11755,488.10132,488.10132,0.46191278,0.28464106,488.01727,1,1,4,3,3,0,0
2047296000,2047296000,47.39816987886904,8.545386960621741,488.11752,488.11752,488.10132,488.10132,0.46270764,0.28409213,488.01727,1,1,4,3,3,0,0
2047304000,2047304000,47.39816987770123,8.545386963599299,488.11746,488.11746,488.10132,488.10132,0.4635055,0.28447384,488.01727,1,1,4,3,3,0,0
2047320000,2047320000,47.39816987567276,8.545386969136974,488.11737,488.11737,488.10132,488.10132,0.46509883,0.28523922,488.01727,1,1,4,3,3,0,0
2047328000,2047328000,47.39816987484955,8.545386971629469,488.11734,488.11734,488.10132,488.10132,0.4659056,0.28562286,488.01727,1,1,4,3,3,0,0
2047336000,2047336000,47.39816987414073,8.545386973967243,488.11728,488.11728,488.10132,488.10132,0.46671543,0.28600717,488.01727,1,1,4,3,3,0,0
2047344000,2047344000,47.398169873541356,8.54538697616012,488.11725,488.11725,488.10132,488.10132,0.46752828,0.2863921,488.01727,1,1,4,3,3,0,0
2047360000,2047360000,47.39816987256135,8.545386980075271,488.1172,488.1172,488.10132,488.10132,0.46916312,0.28716388,488.01727,1,1,4,3,3,0,0
2047368000,2047368000,47.39816987213539,8.545386981838652,488.11713,488.11713,488.10132,488.10132,0.46998513,0.28659454,488.01727,1,1,4,3,3,0,0
2047376000,2047376000,47.39816987188167,8.545386983516133,488.1171,488.1171,488.10132,488.10132,0.47079748,0.28698075,488.01727,1,1,4,3,3,0,0
2047384000,2047384000,47.39816987171242,8.545386985097903,488.11707,488.11707,488.10132,488.10132,0.47162545,0.28736758,488.01727,1,1,4,3,3,0,0
2047400000,2047400000,47.39816987167277,8.5453869879099,488.117,488.117,488.10132,488.10132,0.47329062,0.2881432,488.01727,1,1,4,3,3,0,0
2047408000,2047408000,47.39816987174382,8.545386989191478,488.117,488.117,488.10132,488.10132,0.47412783,0.28853193,488.01727,1,1,4,3,3,0,0
2047416000,2047416000,47.39816987185949,8.545386990382255,488.11697,488.11697,488.10132,488.10132,0.47496817,0.28892133,488.01727,1,1,4,3,3,0,0
2047424000,2047424000,47.39816987207139,8.545386991429943,488.11697,488.11697,488.10132,488.10132,0.47581157,0.28931138,488.01727,1,1,4,3,3,0,0
2047440000,2047440000,47.39816987277568,8.545386993003332,488.11694,488.11694,488.10132,488.10132,0.47750774,0.28911164,488.01727,1,1,4,3,3,0,0
2047448000,2047448000,47.398169873285795,8.545386993653315,488.11694,488.11694,488.10132,488.10132,0.47834608,0.28950226,488.01727,1,1,4,3,3,0,0
2047456000,2047456000,47.39816987387114,8.54538699422435,488.11697,488.11697,488.10132,488.10132,0.47920173,0.2898935,488.01727,1,1,4,3,3,0,0
2047464000,2047464000,47.398169874508504,8.545386994694192,488.11697,488.11697,488.10132,488.10132,0.48006055,0.2902854,488.01727,1,1,4,3,3,0,0
2047480000,2047480000,47.39816987594867,8.545386995376925,488.11703,488.11703,488.10132,488.10132,0.48178756,0.2910711,488.01727,1,1,4,3,3,0,0
2047488000,2047488000,47.39816987676766,8.545386995594367,488.11707,488.11707,488.10132,488.10132,0.4826558,0.29146487,488.01727,1,1,4,3,3,0,0
2047496000,2047496000,47.39816987765962,8.54538699568119,488.1171,488.1171,488.10132,488.10132,0.48352715,0.29185927,488.01727,1,1,4,3,3,0,0
