timestamp,timestamp_sample,states[0],states[1],states[2],states[3],states[4],states[5],states[6],states[7],states[8],states[9],states[10],states[11],states[12],states[13],states[14],states[15],states[16],states[17],states[18],states[19],states[20],states[21],states[22],states[23],states[24],covariances[0],covariances[1],covariances[2],covariances[3],covariances[4],covariances[5],covariances[6],covariances[7],covariances[8],covariances[9],covariances[10],covariances[11],covariances[12],covariances[13],covariances[14],covariances[15],covariances[16],covariances[17],covariances[18],covariances[19],covariances[20],covariances[21],covariances[22],covariances[23],n_states
2043328000,2043176000,-0.07637732,0.003383331,-0.0005301287,-0.9970732,-0.0028292162,-0.037768647,-0.009502307,0.0,0.0,-488.10657,-8.110443e-05,2.8167526e-05,0.00012125647,-0.021160305,-0.008950535,0.0033203745,0.2158501,0.0127515,0.42929968,0.00081583724,0.0006244844,0.00047125944,0.0,0.0,-488.00656,1.7841141e-05,1.6742362e-05,0.00034841013,0.0130348075,0.013185838,0.005062189,0.10834065,0.10866205,0.08175905,1.568555e-07,1.5648868e-07,2.9254602e-07,0.0003432736,0.00043618988,8.758572e-06,3.208225e-06,3.642196e-06,0.000107678505,2.30559e-06,3.1696734e-06,0.00010647682,1.0,1.0,0.010000001,25
2043336000,2043184000,-0.076285236,0.0033593888,-0.0005414168,-0.99708027,-0.0029832085,-0.03843752,-0.009086768,0.0,0.0,-488.10663,-8.110442e-05,2.8167524e-05,0.00012125647,-0.021160305,-0.008950535,0.0033203866,0.2158501,0.0127515,0.42929968,0.00081583724,0.0006244844,0.00047125944,0.0,0.0,-488.00662,1.7866894e-05,1.6767988e-05,0.00034850457,0.0130887,0.013240478,0.005055464,0.10871631,0.10904114,0.08143948,1.5691951e-07,1.5655269e-07,2.9261003e-07,0.00034327418,0.00043619046,8.758137e-06,3.208289e-06,3.6422598e-06,0.00010767857,2.3055907e-06,3.169674e-06,0.00010647682,1.0,1.0,0.010000001,25
2043344000,2043192000,-0.07631204,0.0033749675,-0.00053929724,-0.9970782,-0.003115319,-0.0393437,-0.008717105,0.0,0.0,-488.1067,-8.110442e-05,2.8167524e-05,0.00012125647,-0.021160305,-0.008950535,0.0033203866,0.2158501,0.0127515,0.42929968,0.00081583724,0.0006244844,0.00047125944,0.0,0.0,-488.00668,1.7892664e-05,1.679363e-05,0.000348599,0.0131428,0.013295331,0.0050639827,0.10909403,0.10942231,0.0816588,1.5698352e-07,1.566167e-07,2.9267403e-07,0.00034327476,0.00043619104,8.758712e-06,3.2083528e-06,3.6423237e-06,0.000107678636,2.3055914e-06,3.1696748e-06,0.00010647682,1.0,1.0,0.010000001,25
2043352000,2043200000,-0.07635108,0.0033665367,-0.0005261294,-0.9970752,-0.0027451378,-0.039566144,-0.009052716,0.0,0.0,-488.10675,-8.10867e-05,2.85943e-05,0.00012166525,-0.021159677,-0.008950459,0.0033203892,0.21584903,0.012751485,0.42930028,0.000815867,0.0006244672,0.00047162324,0.0,0.0,-488.00674,1.7909284e-05,1.6803579e-05,0.0003479538,0.0131898,0.013346973,0.0050725015,0.10946562,0.10980231,0.08187879,1.5701944e-07,1.5663709e-07,2.923317e-07,0.00034327526,0.00043619162,8.759288e-06,3.2079186e-06,3.6418194e-06,0.00010767805,2.3055916e-06,3.1696754e-06,0.00010647677,1.0,1.0,0.010000001,25
2043360000,2043208000,-0.0763923,0.003377635,-0.00054765714,-0.997072,-0.0029791794,-0.039661203,-0.010116808,0.0,0.0,-488.10684,-8.10867e-05,2.85943e-05,0.00012166525,-0.021159677,-0.008950459,0.0033203892,0.21584903,0.012751485,0.42930028,0.000815867,0.0006244672,0.00047162324,0.0,0.0,-488.00684,1.7935092e-05,1.6829252e-05,0.0003480481,0.013245058,0.013403004,0.0050810217,0.10984737,0.110187635,0.08209944,1.5708345e-07,1.5670109e-07,2.923957e-07,0.00034327584,0.0004361922,8.759864e-06,3.2079824e-06,3.6418833e-06,0.00010767812,2.3055923e-06,3.1696761e-06,0.00010647677,1.0,1.0,0.010000001,25
2043368000,2043216000,-0.0764186,0.003358898,-0.00054718496,-0.99707,-0.0026624075,-0.039640114,-0.009894103,0.0,0.0,-488.10693,-8.10867e-05,2.85943e-05,0.00012166525,-0.021159677,-0.008950459,0.0033203892,0.21584903,0.012751485,0.42930028,0.000815867,0.0006244672,0.00047162324,0.0,0.0,-488.00693,1.7960916e-05,1.6854943e-05,0.00034814238,0.01329973,0.013458594,0.005089543,0.110231206,0.11057509,0.08232075,1.5714745e-07,1.567651e-07,2.924597e-07,0.00034327642,0.0004361928,8.760439e-06,3.2080463e-06,3.6419472e-06,0.000107678185,2.305593e-06,3.1696768e-06,0.00010647677,1.0,1.0,0.010000001,25
2043376000,2043224000,-0.07642245,0.003371389,-0.00050858385,-0.9970698,-0.0015753184,-0.039269038,-0.010274984,0.0,0.0,-488.10703,-8.10867e-05,2.85943e-05,0.00012166525,-0.021159677,-0.008950459,0.0033203892,0.21584903,0.012751485,0.42930028,0.000815867,0.0006244672,0.00047162324,0.0,0.0,-488.00702,1.798676e-05,1.6880655e-05,0.00034823667,0.013354944,0.013514955,0.0050980644,0.110617146,0.11096466,0.08254273,1.5721146e-07,1.568291e-07,2.925237e-07,0.000343277,0.00043619337,8.761015e-06,3.2081102e-06,3.642011e-06,0.00010767825,2.3055936e-06,3.1696775e-06,0.00010647677,1.0,1.0,0.010000001,25
2043384000,2043232000,-0.076456636,0.0033346717,-0.00047786007,-0.9970673,-0.0019812456,-0.039422806,-0.010042407,0.0,0.0,-488.10712,-8.10867e-05,2.85943e-05,0.00012166525,-0.021159677,-0.008950459,0.0033203892,0.21584903,0.012751485,0.42930028,0.000815867,0.0006244672,0.00047162324,0.0,0.0,-488.0071,1.8012626e-05,1.690639e-05,0.0003483311,0.013409973,0.013570703,0.005106588,0.111005194,0.111356385,0.08276538,1.5727547e-07,1.5689311e-07,2.925877e-07,0.00034327758,0.00043619395,8.761591e-06,3.2081741e-06,3.642075e-06,0.000107678316,2.3055943e-06,3.1696782e-06,0.00010647677,1.0,1.0,0.010000001,25
2043400000,2043248000,-0.07647037,0.0031923805,-0.00042253206,-0.9970667,-0.0026813128,-0.039859604,-0.009619206,0.0,0.0,-488.1073,-8.10867e-05,2.85943e-05,0.00012166525,-0.021159677,-0.008950459,0.0033203892,0.21584903,0.012751485,0.42930028,0.000815867,0.0006244672,0.00047162324,0.0,0.0,-488.0073,1.8064417e-05,1.6957913e-05,0.00034851994,0.013520602,0.013682809,0.0051236385,0.11178765,0.11214627,0.083212666,1.5740348e-07,1.5702112e-07,2.9271573e-07,0.00034327875,0.0004361951,8.762742e-06,3.208302e-06,3.6422027e-06,0.00010767845,2.3055957e-06,3.1696795e-06,0.00010647677,1.0,1.0,0.010000001,25
2043408000,2043256000,-0.076451376,0.003120381,-0.00036416785,-0.99706835,-0.0020496843,-0.040809024,-0.009755853,0.0,0.0,-488.10788,-8.1086444e-05,2.8594195e-05,0.00012166521,-0.021159682,-0.008950459,0.003321042,0.21584903,0.012751485,0.42930028,0.00081586704,0.0006244672,0.00047162324,0.0,0.0,-488.00787,1.8090343e-05,1.69837e-05,0.00034861438,0.013576356,0.013739586,0.005116289,0.11218208,0.11254447,0.08287833,1.5746748e-07,1.5708513e-07,2.9277973e-07,0.00034327933,0.0004361957,8.762265e-06,3.2083658e-06,3.6422666e-06,0.00010767851,2.3055964e-06,3.1696802e-06,0.00010647677,1.0,1.0,0.010000001,25
2043416000,2043264000,-0.07641661,0.0031311535,-0.000368828,-0.9970711,-0.0017768411,-0.04068633,-0.009657919,0.0,0.0,-488.10797,-8.1086444e-05,2.8594195e-05,0.00012166521,-0.021159682,-0.008950459,0.003321042,0.21584903,0.012751485,0.42930028,0.00081586704,0.0006244672,0.00047162324,0.0,0.0,-488.00797,1.8116285e-05,1.7009505e-05,0.0003487088,0.013632194,0.013796347,0.0051248143,0.11257867,0.11294485,0.083102144,1.5753149e-07,1.5714913e-07,2.9284374e-07,0.0003432799,0.00043619628,8.7628405e-06,3.2084297e-06,3.6423305e-06,0.00010767858,2.305597e-06,3.169681e-06,0.00010647677,1.0,1.0,0.010000001,25
2043424000,2043272000,-0.076420546,0.003171393,-0.00040644058,-0.99707055,-0.0016143549,-0.041307975,-0.009727116,0.0,0.0,-488.10806,-8.118889e-05,2.8656887e-05,0.00012133263,-0.021159548,-0.008950438,0.0033210428,0.21584915,0.012751494,0.42930123,0.0008158573,0.0006244715,0.00047154148,0.0,0.0,-488.00806,1.813279e-05,1.7019116e-05,0.00034806423,0.013680096,0.013849097,0.005133342,0.11296799,0.113343604,0.08332663,1.5756662e-07,1.5716823e-07,2.9250148e-07,0.0003432804,0.00043619686,8.763416e-06,3.2079945e-06,3.6418262e-06,0.000107678025,2.3055973e-06,3.1696816e-06,0.000106476735,1.0,1.0,0.010000001,25
2043440000,2043288000,-0.07651167,0.0032208438,-0.00034474232,-0.9970634,-0.0016897676,-0.042474743,-0.00875771,0.0,0.0,-488.10822,-8.118889e-05,2.8656887e-05,0.00012133263,-0.021159548,-0.008950438,0.0033210428,0.21584915,0.012751494,0.42930123,0.0008158573,0.0006244715,0.00047154148,0.0,0.0,-488.0082,1.818477e-05,1.7070817e-05,0.00034825303,0.013792103,0.01396282,0.005150401,0.11377172,0.11415523,0.083777614,1.5769463e-07,1.5729624e-07,2.926295e-07,0.00034328157,0.00043619802,8.764568e-06,3.2081223e-06,3.641954e-06,0.000107678155,2.3055986e-06,3.169683e-06,0.000106476735,1.0,1.0,0.010000001,25
2043448000,2043296000,-0.076458834,0.0032208653,-0.00034329985,-0.9970676,-0.0016010025,-0.042959124,-0.008674622,0.0,0.0,-488.10828,-8.118889e-05,2.8656887e-05,0.00012133263,-0.021159548,-0.008950438,0.0033210428,0.21584915,0.012751494,0.42930123,0.0008158573,0.0006244715,0.00047154148,0.0,0.0,-488.00827,1.8210781e-05,1.709669e-05,0.00034834733,0.01384863,0.014020251,0.005158932,0.11417686,0.114564374,0.08400411,1.5775863e-07,1.5736025e-07,2.926935e-07,0.00034328215,0.0004361986,8.765143e-06,3.2081862e-06,3.6420179e-06,0.00010767822,2.3055993e-06,3.1696836e-06,0.000106476735,1.0,1.0,0.010000001,25
2043456000,2043304000,-0.07641659,0.0032572064,-0.00034193604,-0.99707067,-0.0012960926,-0.043345153,-0.008638173,0.0,0.0,-488.10834,-8.118889e-05,2.8656887e-05,0.00012133263,-0.021159548,-0.008950438,0.0033210428,0.21584915,0.012751494,0.42930123,0.0008158573,0.0006244715,0.00047154148,0.0,0.0,-488.00833,1.823682e-05,1.7122591e-05,0.0003484418,0.013905371,0.014077962,0.005167464,0.1145842,0.11497574,0.08423129,1.5782264e-07,1.5742425e-07,2.927575e-07,0.00034328274,0.0004361992,8.765719e-06,3.20825e-06,3.6420818e-06,0.00010767829,2.3056e-06,3.1696843e-06,0.000106476735,1.0,1.0,0.010000001,25
2043464000,2043312000,-0.07640404,0.0032860776,-0.00032654734,-0.9970715,-0.0004658889,-0.0430945,-0.008599073,0.0,0.0,-488.1084,-8.118889e-05,2.8656887e-05,0.00012133263,-0.021159548,-0.008950438,0.0033210428,0.21584915,0.012751494,0.42930123,0.0008158573,0.0006244715,0.00047154148,0.0,0.0,-488.0084,1.826288e-05,1.7148514e-05,0.0003485363,0.013962291,0.014136016,0.0051759956,0.11499375,0.115389355,0.08445914,1.5788665e-07,1.5748826e-07,2.928215e-07,0.00034328332,0.00043619977,8.766295e-06,3.208314e-06,3.6421457e-06,0.00010767835,2.3056007e-06,3.169685e-06,0.000106476735,1.0,1.0,0.010000001,25
2043480000,2043328000,-0.076356195,0.0032553778,-0.00027969092,-0.9970753,0.00012525715,-0.043475207,-0.008263867,0.0,0.0,-488.10834,-8.3432074e-05,2.7685977e-05,0.00012041062,-0.02115958,-0.008950351,0.003320811,0.21584913,0.012751573,0.42930126,0.000815856,0.0006244848,0.000471549,0.0,0.0,-488.00833,1.8312634e-05,1.7198096e-05,0.00034861386,0.014075514,0.014251093,0.005176538,0.11581858,0.11622226,0.084337965,1.5790374e-07,1.5750601e-07,2.9256864e-07,0.00034328448,0.00043620093,8.766349e-06,3.2084417e-06,3.6422698e-06,0.00010767848,2.305602e-06,3.1696864e-06,0.000106476735,1.0,1.0,0.010000001,25
2043488000,2043336000,-0.07637774,0.0032971415,-0.00029830524,-0.99707353,0.0014041099,-0.043950204,-0.009537891,0.0,0.0,-488.1084,-8.3432074e-05,2.7685977e-05,0.00012041062,-0.02115958,-0.008950351,0.003320811,0.21584913,0.012751573,0.42930126,0.000815856,0.0006244848,0.000471549,0.0,0.0,-488.0084,1.8338747e-05,1.7224069e-05,0.00034870836,0.014133819,0.014310691,0.005185073,0.11623481,0.116642654,0.08456629,1.5796775e-07,1.5757001e-07,2.9263265e-07,0.00034328506,0.00043620152,8.766925e-06,3.2085056e-06,3.6423337e-06,0.00010767855,2.3056027e-06,3.169687e-06,0.000106476735,1.0,1.0,0.010000001,25
2043496000,2043344000,-0.07638825,0.003353509,-0.00026937886,-0.99707246,0.00094748684,-0.04413644,-0.009868676,0.0,0.0,-488.1085,-8.328681e-05,2.8448607e-05,0.000121538564,-0.021158567,-0.008950218,0.0033208155,0.2158465,0.012751509,0.42930022,0.0008159406,0.0006244415,0.00047243756,0.0,0.0,-488.00848,1.8355133e-05,1.723333e-05,0.00034806508,0.014182936,0.014364893,0.0051936083,0.11664251,0.11706093,0.08479529,1.5800214e-07,1.5758788e-07,2.9229156e-07,0.00034328556,0.0004362021,8.767501e-06,3.2080736e-06,3.6418296e-06,0.00010767799,2.305603e-06,3.1696877e-06,0.00010647669,1.0,1.0,0.010000001,25
2043504000,2043352000,-0.07635984,0.0033954973,-0.00027802782,-0.99707454,0.001096091,-0.043637984,-0.009264462,0.0,0.0,-488.10858,-8.328681e-05,2.8448607e-05,0.000121538564,-0.021158567,-0.008950218,0.0033208155,0.2158465,0.012751509,0.42930022,0.0008159406,0.0006244415,0.00047243756,0.0,0.0,-488.00858,1.8381275e-05,1.7259326e-05,0.00034815932,0.014240363,0.014423287,0.005202144,0.11706311,0.11748584,0.08502497,1.5806614e-07,1.5765188e-07,2.9235557e-07,0.00034328614,0.00043620268,8.768076e-06,3.2081375e-06,3.6418935e-06,0.00010767805,2.3056036e-06,3.1696884e-06,0.00010647669,1.0,1.0,0.010000001,25
2043520000,2043368000,-0.07638816,0.003366555,-0.0003259169,-0.9970724,0.0031715895,-0.04311955,-0.008249544,0.0,0.0,-488.1087,-8.328681e-05,2.8448607e-05,0.000121538564,-0.021158567,-0.008950218,0.0033208155,0.2158465,0.012751509,0.42930022,0.0008159406,0.0006244415,0.00047243756,0.0,0.0,-488.0087,1.8433626e-05,1.7311391e-05,0.00034834805,0.014355898,0.014541319,0.005219218,0.11791113,0.1183426,0.08548636,1.5819415e-07,1.577799e-07,2.9248358e-07,0.0003432873,0.00043620385,8.769228e-06,3.2082653e-06,3.6420213e-06,0.000107678185,2.305605e-06,3.1696898e-06,0.00010647669,1.0,1.0,0.010000001,25
2043528000,2043376000,-0.07644428,0.0034187092,-0.00036230276,-0.9970679,0.0031632676,-0.043267474,-0.008790173,0.0,0.0,-488.10876,-8.328681e-05,2.8448607e-05,0.000121538564,-0.021158567,-0.008950218,0.0033208155,0.2158465,0.012751509,0.42930022,0.0008159406,0.0006244415,0.00047243756,0.0,0.0,-488.00876,1.8459823e-05,1.7337445e-05,0.00034844235,0.0144146215,0.014600982,0.005227757,0.11833858,0.11877447,0.08571808,1.5825816e-07,1.578439e-07,2.9254758e-07,0.0003432879,0.00043620443,8.769804e-06,3.2083292e-06,3.6420852e-06,0.00010767825,2.3056057e-06,3.1696904e-06,0.00010647669,1.0,1.0,0.010000001,25
2043536000,2043384000,-0.07644401,0.0034671575,-0.00036334124,-0.99706787,0.0034106171,-0.0430013,-0.009774946,0.0,0.0,-488.10883,-8.328681e-05,2.8448607e-05,0.000121538564,-0.021158567,-0.008950218,0.0033208155,0.2158465,0.012751509,0.42930022,0.0008159406,0.0006244415,0.00047243756,0.0,0.0,-488.00882,1.8486046e-05,1.7363522e-05,0.00034853676,0.014473823,0.0146612115,0.0052362974,0.11876833,0.119208686,0.08595049,1.5832217e-07,1.579079e-07,2.926116e-07,0.00034328847,0.000436205,8.770379e-06,3.208393e-06,3.642149e-06,0.000107678316,2.3056064e-06,3.1696911e-06,0.00010647669,1.0,1.0,0.010000001,25
2043544000,2043392000,-0.0764714,0.0034818766,-0.00037932524,-0.9970657,0.0037374431,-0.04356273,-0.010542676,0.0,0.0,-488.10892,-8.328681e-05,2.8448607e-05,0.000121538564,-0.021158567,-0.008950218,0.0033208155,0.2158465,0.012751509,0.42930022,0.0008159406,0.0006244415,0.00047243756,0.0,0.0,-488.0089,1.8512297e-05,1.7389626e-05,0.00034863138,0.01453308,0.014721521,0.0052448395,0.1192004,0.11964526,0.08618358,1.5838617e-07,1.5797191e-07,2.926756e-07,0.00034328905,0.0004362056,8.770955e-06,3.208457e-06,3.642213e-06,0.00010767838,2.305607e-06,3.1696918e-06,0.00010647669,1.0,1.0,0.010000001,25
2043560000,2043408000,-0.076501414,0.0034033053,-0.00044049096,-0.99706364,0.0044722287,-0.043452673,-0.012006603,0.0,0.0,-488.10934,-8.328667e-05,2.8448556e-05,0.000121538535,-0.021158569,-0.008950218,0.0033211608,0.2158465,0.012751509,0.42930022,0.0008159407,0.0006244415,0.00047243756,0.0,0.0,-488.00934,1.856485e-05,1.7441886e-05,0.00034882047,0.014652094,0.014842684,0.005244735,0.12007155,0.120525524,0.08605071,1.5851418e-07,1.5809992e-07,2.928036e-07,0.00034329022,0.00043620676,8.770965e-06,3.2085848e-06,3.6423407e-06,0.00010767851,2.3056084e-06,3.1696932e-06,0.00010647669,1.0,1.0,0.010000001,25
2043568000,2043416000,-0.07653612,0.0034133377,-0.00044606926,-0.99706084,0.0039889803,-0.04358141,-0.012071245,0.0,0.0,-488.10944,-8.3237675e-05,2.8577031e-05,0.00012181489,-0.021158425,-0.008950196,0.0033211615,0.21584573,0.012751496,0.42929927,0.0008159687,0.00062443,0.00047270395,0.0,0.0,-488.00943,1.8581111e-05,1.7450784e-05,0.00034817826,0.014702101,0.014898032,0.005253278,0.120498374,0.12096415,0.086284235,1.5854778e-07,1.5811648e-07,2.9246263e-07,0.0003432907,0.00043620734,8.771541e-06,3.208154e-06,3.6418367e-06,0.00010767794,2.3056086e-06,3.1696939e-06,0.00010647664,1.0,1.0,0.010000001,25
2043576000,2043424000,-0.076489806,0.0033893422,-0.00048604887,-0.9970645,0.0043005035,-0.04417483,-0.0122547,0.0,0.0,-488.10953,-8.3237675e-05,2.8577031e-05,0.00012181489,-0.021158425,-0.008950196,0.0033211615,0.21584573,0.012751496,0.42929927,0.0008159687,0.00062443,0.00047270395,0.0,0.0,-488.00952,1.8607421e-05,1.7476943e-05,0.0003482725,0.014761682,0.014958698,0.005261823,0.120939665,0.12141018,0.086518444,1.5861178e-07,1.5818048e-07,2.9252664e-07,0.0003432913,0.00043620792,8.772116e-06,3.208218e-06,3.6419005e-06,0.000107678,2.3056093e-06,3.1696945e-06,0.00010647664,1.0,1.0,0.010000001,25
2043584000,2043432000,-0.076448776,0.0033966,-0.0005225319,-0.9970677,0.004304753,-0.04475729,-0.012693986,0.0,0.0,-488.10962,-8.3237675e-05,2.8577031e-05,0.00012181489,-0.021158425,-0.008950196,0.0033211615,0.21584573,0.012751496,0.42929927,0.0008159687,0.00062443,0.00047270395,0.0,0.0,-488.0096,1.8633755e-05,1.7503125e-05,0.00034836686,0.014821624,0.015019632,0.005270369,0.121383324,0.12185862,0.08675334,1.5867579e-07,1.5824449e-07,2.9259064e-07,0.00034329187,0.0004362085,8.772692e-06,3.208282e-06,3.6419644e-06,0.00010767807,2.30561e-06,3.1696952e-06,0.00010647664,1.0,1.0,0.010000001,25
2043600000,2043448000,-0.07648863,0.0033498013,-0.00051772536,-0.99706465,0.005056804,-0.0444327,-0.011889115,0.0,0.0,-488.1098,-8.3237675e-05,2.8577031e-05,0.00012181489,-0.021158425,-0.008950196,0.0033211615,0.21584573,0.012751496,0.42929927,0.0008159687,0.00062443,0.00047270395,0.0,0.0,-488.0098,1.8686495e-05,1.7555561e-05,0.00034855588,0.014940962,0.015141188,0.0052874614,0.1222778,0.12276276,0.08722521,1.588038e-07,1.583725e-07,2.9271865e-07,0.00034329304,0.00043620967,8.773844e-06,3.2084097e-06,3.6420922e-06,0.0001076782,2.3056114e-06,3.1696966e-06,0.00010647664,1.0,1.0,0.010000001,25
2043608000,2043456000,-0.07644359,0.0032895897,-0.00045182015,-0.9970684,0.0061819693,-0.044797774,-0.011531204,0.0,0.0,-488.1099,-8.3237675e-05,2.8577031e-05,0.00012181489,-0.021158425,-0.008950196,0.0033211615,0.21584573,0.012751496,0.42929927,0.0008159687,0.00062443,0.00047270395,0.0,0.0,-488.0099,1.8712888e-05,1.75818e-05,0.0003486503,0.015000948,0.015202531,0.00529601,0.12272864,0.123218484,0.08746219,1.588678e-07,1.584365e-07,2.9278266e-07,0.00034329362,0.00043621025,8.774419e-06,3.2084736e-06,3.6421561e-06,0.000107678265,2.305612e-06,3.1696973e-06,0.00010647664,1.0,1.0,0.010000001,25
2043616000,2043464000,-0.076470815,0.003290488,-0.00041119373,-0.9970663,0.00680467,-0.0449024,-0.012139484,0.0,0.0,-488.11,-8.3237675e-05,2.8577031e-05,0.00012181489,-0.021158425,-0.008950196,0.0033211615,0.21584573,0.012751496,0.42929927,0.0008159687,0.00062443,0.00047270395,0.0,0.0,-488.00998,1.8739309e-05,1.7608068e-05,0.00034874486,0.015061771,0.015264564,0.0053045596,0.123181894,0.123676665,0.08769985,1.5893181e-07,1.5850051e-07,2.9284666e-07,0.0003432942,0.00043621083,8.774995e-06,3.2085375e-06,3.64222e-06,0.00010767833,2.3056127e-06,3.169698e-06,0.00010647664,1.0,1.0,0.010000001,25
2043624000,2043472000,-0.076491706,0.0033288496,-0.00039055475,-0.9970646,0.00691325,-0.044932544,-0.0125651285,0.0,0.0,-488.11023,-8.3237595e-05,2.8577004e-05,0.000121814875,-0.021158427,-0.008950196,0.003321362,0.21584573,0.012751496,0.42929927,0.0008159687,0.00062443,0.00047270395,0.0,0.0,-488.01022,1.8765746e-05,1.7634351e-05,0.00034883938,0.015122649,0.015326485,0.0052952436,0.12363758,0.12413731,0.08731752,1.5899582e-07,1.5856452e-07,2.9291067e-07,0.00034329479,0.0004362114,8.774385e-06,3.2086014e-06,3.642284e-06,0.000107678396,2.3056134e-06,3.1696986e-06,0.00010647664,1.0,1.0,0.010000001,25
2043640000,2043488000,-0.07647991,0.0033784292,-0.00039029,-0.9970654,0.008022721,-0.045248866,-0.012139898,0.0,0.0,-488.1104,-8.307372e-05,2.8628976e-05,0.00012244079,-0.021158393,-0.008950211,0.003321362,0.21584578,0.012751546,0.4292994,0.0008159723,0.0006244246,0.00047278387,0.0,0.0,-488.0104,1.8808334e-05,1.766918e-05,0.00034829252,0.015234184,0.015445232,0.0053123436,0.12454233,0.12506022,0.08779295,1.5909262e-07,1.5864373e-07,2.9263384e-07,0.00034329586,0.00043621258,8.775536e-06,3.2082353e-06,3.6418437e-06,0.000107677886,2.3056143e-06,3.1697e-06,0.0001064766,1.0,1.0,0.010000001,25
2043648000,2043496000,-0.076427706,0.003353411,-0.00041578675,-0.9970695,0.008084807,-0.045078784,-0.012728304,0.0,0.0,-488.1105,-8.307372e-05,2.8628976e-05,0.00012244079,-0.021158393,-0.008950211,0.003321362,0.21584578,0.012751546,0.4292994,0.0008159723,0.0006244246,0.00047278387,0.0,0.0,-488.0105,1.8834826e-05,1.7695513e-05,0.00034838694,0.015295709,0.015507828,0.005320895,0.12500517,0.12552825,0.08803171,1.5915663e-07,1.5870773e-07,2.9269785e-07,0.00034329644,0.00043621316,8.776112e-06,3.2082992e-06,3.6419076e-06,0.00010767795,2.305615e-06,3.1697007e-06,0.0001064766,1.0,1.0,0.010000001,25
2043656000,2043504000,-0.07634974,0.003294332,-0.00034848903,-0.9970756,0.006233229,-0.041589662,-0.011559308,0.0,0.0,-488.1083,-7.910242e-05,3.2048112e-05,0.000121435,-0.021158546,-0.008950218,0.0033144841,0.21584639,0.012751533,0.42929927,0.0008159492,0.0006244331,0.00047259394,0.0,0.0,-488.0083,1.7616974e-05,1.6525244e-05,0.00034817043,0.012562527,0.012707772,0.004996615,0.10505897,0.10534868,0.08019779,1.5640379e-07,1.5604938e-07,2.926216e-07,0.00034329697,0.00043621374,8.754119e-06,3.2081323e-06,3.6419692e-06,0.00010767798,2.3056155e-06,3.1696984e-06,0.0001064766,1.0,1.0,0.010000001,25
2043664000,2043512000,-0.076333486,0.0033209415,-0.00033453188,-0.9970768,0.0059956196,-0.041819625,-0.012062877,0.0,0.0,-488.1084,-7.910242e-05,3.2048112e-05,0.000121435,-0.021158546,-0.008950218,0.0033144841,0.21584639,0.012751533,0.42929927,0.0008159492,0.0006244331,0.00047259394,0.0,0.0,-488.0084,1.7642556e-05,1.6550704e-05,0.0003482648,0.012615394,0.012761341,0.0050051254,0.10541664,0.105709545,0.08041303,1.5646779e-07,1.5611339e-07,2.926856e-07,0.00034329755,0.00043621432,8.754695e-06,3.2081962e-06,3.642033e-06,0.000107678046,2.3056161e-06,3.169699e-06,0.0001064766,1.0,1.0,0.010000001,25
2043680000,2043528000,-0.076302,0.003355653,-0.00035232992,-0.99707913,0.005613163,-0.04034242,-0.0120563805,0.0,0.0,-488.10858,-7.8622696e-05,3.256207e-05,0.00012219229,-0.021158535,-0.008950221,0.0033144844,0.2158464,0.012751465,0.42929927,0.0008159493,0.00062442874,0.00047258803,0.0,0.0,-488.00858,1.769155e-05,1.6599546e-05,0.00034834244,0.012720212,0.012867535,0.005022147,0.10613733,0.10643656,0.080845475,1.5648688e-07,1.5613305e-07,2.924331e-07,0.0003432987,0.0004362155,8.7558465e-06,3.208324e-06,3.6421573e-06,0.00010767818,2.3056175e-06,3.1697004e-06,0.0001064766,1.0,1.0,0.010000001,25
2043688000,2043536000,-0.07625498,0.003334535,-0.00034070178,-0.99708277,0.0053417473,-0.040145684,-0.011794472,0.0,0.0,-488.1084,-7.862284e-05,3.2562115e-05,0.00012219232,-0.021158531,-0.008950221,0.0033140932,0.2158464,0.012751465,0.42929927,0.0008159492,0.00062442874,0.00047258803,0.0,0.0,-488.0084,1.7717186e-05,1.662506e-05,0.00034843685,0.012773193,0.012921211,0.0050158147,0.10650094,0.10680344,0.08053496,1.5655088e-07,1.5619706e-07,2.924971e-07,0.0003432993,0.00043621607,8.755437e-06,3.2083879e-06,3.6422211e-06,0.00010767824,2.3056182e-06,3.1697011e-06,0.0001064766,1.0,1.0,0.010000001,25
2043696000,2043544000,-0.07621382,0.0032892376,-0.00033094137,-0.9970861,0.0048807845,-0.0404364,-0.012107886,0.0,0.0,-488.1085,-7.862284e-05,3.2562115e-05,0.00012219232,-0.021158531,-0.008950221,0.0033140932,0.2158464,0.012751465,0.42929927,0.0008159492,0.00062442874,0.00047258803,0.0,0.0,-488.00848,1.7742846e-05,1.6650594e-05,0.0003485313,0.012826658,0.012975325,0.0050243274,0.10686655,0.10717234,0.080751404,1.5661489e-07,1.5626107e-07,2.925611e-07,0.00034329988,0.00043621665,8.756013e-06,3.2084517e-06,3.642285e-06,0.00010767831,2.3056189e-06,3.1697018e-06,0.0001064766,1.0,1.0,0.010000001,25
2043704000,2043552000,-0.07622006,0.0032386947,-0.00029809357,-0.99708575,0.0053667855,-0.039736442,-0.011625794,0.0,0.0,-488.10858,-7.8671656e-05,3.2682547e-05,0.00012210326,-0.021158332,-0.008950193,0.003314094,0.2158462,0.0127514675,0.4292998,0.0008159515,0.0006244263,0.0004726251,0.0,0.0,-488.00858,1.7759527e-05,1.6660773e-05,0.000347885,0.012872479,0.013025632,0.0050328407,0.10722672,0.10754035,0.08096851,1.566513e-07,1.562823e-07,2.922184e-07,0.00034330037,0.00043621723,8.756589e-06,3.2080156e-06,3.641781e-06,0.000107677755,2.305619e-06,3.1697025e-06,0.00010647656,1.0,1.0,0.010000001,25
2043720000,2043568000,-0.0762942,0.0032559645,-0.0003979504,-0.99707997,0.007123085,-0.040030915,-0.013308138,0.0,0.0,-488.10876,-7.8671656e-05,3.2682547e-05,0.00012210326,-0.021158332,-0.008950193,0.003314094,0.2158462,0.0127514675,0.4292998,0.0008159515,0.0006244263,0.0004726251,0.0,0.0,-488.00876,1.781092e-05,1.6711912e-05,0.00034807343,0.012980816,0.013136093,0.005049872,0.10796782,0.108288296,0.081404686,1.5677931e-07,1.5641031e-07,2.923464e-07,0.00034330154,0.0004362184,8.75774e-06,3.2081434e-06,3.6419087e-06,0.000107677886,2.3056205e-06,3.1697039e-06,0.00010647656,1.0,1.0,0.010000001,25
2043728000,2043576000,-0.076312624,0.0032714922,-0.0004311048,-0.9970785,0.007560681,-0.040605187,-0.013414137,0.0,0.0,-488.1089,-7.8671656e-05,3.2682547e-05,0.00012210326,-0.021158332,-0.008950193,0.003314094,0.2158462,0.0127514675,0.4292998,0.0008159515,0.0006244263,0.0004726251,0.0,0.0,-488.00888,1.7836646e-05,1.6737511e-05,0.0003481677,0.013034826,0.013191036,0.00505839,0.108341426,0.10866538,0.08162377,1.5684331e-07,1.5647431e-07,2.9241042e-07,0.00034330212,0.00043621898,8.758316e-06,3.2082073e-06,3.6419726e-06,0.00010767795,2.3056211e-06,3.1697045e-06,0.00010647656,1.0,1.0,0.010000001,25
2043736000,2043584000,-0.076339975,0.003242643,-0.0004229055,-0.9970765,0.0078762965,-0.040835913,-0.013650648,0.0,0.0,-488.109,-7.8671656e-05,3.2682547e-05,0.00012210326,-0.021158332,-0.008950193,0.003314094,0.2158462,0.0127514675,0.4292998,0.0008159515,0.0006244263,0.0004726251,0.0,0.0,-488.009,1.786239e-05,1.6763128e-05,0.000348262,0.013089093,0.013246208,0.005066909,0.108717084,0.10904454,0.08184351,1.5690732e-07,1.5653832e-07,2.9247443e-07,0.0003433027,0.00043621956,8.758891e-06,3.2082712e-06,3.6420365e-06,0.00010767802,2.3056218e-06,3.1697052e-06,0.00010647656,1.0,1.0,0.010000001,25
2043744000,2043592000,-0.07634826,0.003234506,-0.00043718814,-0.99707586,0.008294876,-0.04174782,-0.013558872,0.0,0.0,-488.1092,-7.867163e-05,3.268254e-05,0.00012210326,-0.021158332,-0.008950193,0.003314163,0.2158462,0.0127514675,0.4292998,0.0008159515,0.0006244263,0.0004726251,0.0,0.0,-488.0092,1.7888158e-05,1.6788765e-05,0.00034835632,0.013143343,0.01330139,0.0050601447,0.109094806,0.10942579,0.081523106,1.5697132e-07,1.5660233e-07,2.9253843e-07,0.00034330328,0.00043622014,8.758453e-06,3.208335e-06,3.6421004e-06,0.00010767808,2.3056225e-06,3.169706e-06,0.00010647656,1.0,1.0,0.010000001,25
2043760000,2043608000,-0.076358326,0.0032477907,-0.00042850792,-0.997075,0.009052945,-0.042609226,-0.013925217,0.0,0.0,-488.10944,-7.867163e-05,3.268254e-05,0.00012210326,-0.021158332,-0.008950193,0.003314163,0.2158462,0.0127514675,0.4292998,0.0008159515,0.0006244263,0.0004726251,0.0,0.0,-488.00943,1.7939763e-05,1.6840107e-05,0.00034854526,0.013252719,0.013412624,0.0050771832,0.10985647,0.110194616,0.081962995,1.5709934e-07,1.5673034e-07,2.9266644e-07,0.00034330445,0.0004362213,8.7596045e-06,3.2084629e-06,3.6422282e-06,0.000107678214,2.3056239e-06,3.1697073e-06,0.00010647656,1.0,1.0,0.010000001,25
2043768000,2043616000,-0.07640796,0.0033146702,-0.00043290848,-0.9970711,0.009104203,-0.042776205,-0.013885833,0.0,0.0,-488.10956,-7.867163e-05,3.268254e-05,0.00012210326,-0.021158332,-0.008950193,0.003314163,0.2158462,0.0127514675,0.4292998,0.0008159515,0.0006244263,0.0004726251,0.0,0.0,-488.00955,1.7965589e-05,1.6865806e-05,0.00034863965,0.013307546,0.013468284,0.005085704,0.11024043,0.1105822,0.082183935,1.5716334e-07,1.5679434e-07,2.9273045e-07,0.00034330503,0.0004362219,8.76018e-06,3.2085268e-06,3.642292e-06,0.00010767828,2.3056245e-06,3.169708e-06,0.00010647656,1.0,1.0,0.010000001,25
2043776000,2043624000,-0.07639325,0.0033516942,-0.00046754765,-0.9970721,0.009348312,-0.04301199,-0.013146477,0.0,0.0,-488.10968,-7.8457575e-05,3.2543445e-05,0.00012279757,-0.021158602,-0.008950246,0.0033141617,0.21584654,0.01275153,0.42929915,0.0008159519,0.0006244242,0.00047264874,0.0,0.0,-488.00967,1.7982153e-05,1.6875647e-05,0.00034799427,0.0133542605,0.013519689,0.005094226,0.11061789,0.110968485,0.08240554,1.5719897e-07,1.5681431e-07,2.9238782e-07,0.00034330552,0.00043622247,8.760756e-06,3.2080925e-06,3.641788e-06,0.00010767771,2.3056248e-06,3.1697086e-06,0.00010647651,1.0,1.0,0.010000001,25
2043784000,2043632000,-0.07635856,0.0033258914,-0.0004891685,-0.9970747,0.0099418685,-0.043443322,-0.013280354,0.0,0.0,-488.10977,-7.8457575e-05,3.2543445e-05,0.00012279757,-0.021158602,-0.008950246,0.0033141617,0.21584654,0.01275153,0.42929915,0.0008159519,0.0006244242,0.00047264874,0.0,0.0,-488.00977,1.8008015e-05,1.6901378e-05,0.00034808856,0.013409499,0.013575958,0.0051027494,0.111005925,0.11136028,0.0826278,1.5726297e-07,1.5687831e-07,2.9245183e-07,0.0003433061,0.00043622305,8.761332e-06,3.2081564e-06,3.641852e-06,0.00010767778,2.3056255e-06,3.1697093e-06,0.00010647651,1.0,1.0,0.010000001,25
2043800000,2043648000,-0.0763403,0.003291891,-0.0005747176,-0.99707633,0.010396023,-0.04344373,-0.014167085,0.0,0.0,-488.11002,-7.8457575e-05,3.2543445e-05,0.00012279757,-0.021158602,-0.008950246,0.0033141617,0.21584654,0.01275153,0.42929915,0.0008159519,0.0006244242,0.00047264874,0.0,0.0,-488.01,1.8059794e-05,1.695289e-05,0.0003482772,0.0135209,0.013689218,0.0051197987,0.11178837,0.11215034,0.083074346,1.5739099e-07,1.5700633e-07,2.9257984e-07,0.00034330727,0.00043622422,8.762483e-06,3.2082842e-06,3.6419797e-06,0.00010767791,2.3056268e-06,3.1697107e-06,0.00010647651,1.0,1.0,0.010000001,25
2043808000,2043656000,-0.07633364,0.0033147878,-0.0005743308,-0.9970767,0.01041797,-0.043625243,-0.015099943,0.0,0.0,-488.11014,-7.8457575e-05,3.2543445e-05,0.00012279757,-0.021158602,-0.008950246,0.0033141617,0.21584654,0.01275153,0.42929915,0.0008159519,0.0006244242,0.00047264874,0.0,0.0,-488.01013,1.8085722e-05,1.6978682e-05,0.00034837172,0.013577177,0.0137463715,0.005128325,0.1121828,0.11254863,0.08329862,1.5745499e-07,1.5707033e-07,2.9264385e-07,0.00034330785,0.0004362248,8.763059e-06,3.208348e-06,3.6420436e-06,0.00010767797,2.3056275e-06,3.1697114e-06,0.00010647651,1.0,1.0,0.010000001,25
2043816000,2043664000,-0.07634355,0.0033140902,-0.0005961211,-0.9970759,0.0093708495,-0.043902844,-0.015953798,0.0,0.0,-488.11017,-7.845762e-05,3.2543456e-05,0.00012279759,-0.021158602,-0.008950246,0.0033140478,0.21584654,0.01275153,0.42929915,0.0008159519,0.0006244242,0.00047264874,0.0,0.0,-488.01016,1.8111663e-05,1.7004486e-05,0.00034846613,0.013633601,0.013803354,0.005120933,0.11257939,0.112949096,0.08296342,1.57519e-07,1.5713434e-07,2.9270785e-07,0.00034330843,0.00043622538,8.762579e-06,3.208412e-06,3.6421075e-06,0.00010767804,2.3056282e-06,3.169712e-06,0.00010647651,1.0,1.0,0.010000001,25
2043824000,2043672000,-0.07634469,0.003312968,-0.000700174,-0.9970758,0.009481071,-0.045160238,-0.016817063,0.0,0.0,-488.1103,-7.845762e-05,3.2543456e-05,0.00012279759,-0.021158602,-0.008950246,0.0033140478,0.21584654,0.01275153,0.42929915,0.0008159519,0.0006244242,0.00047264874,0.0,0.0,-488.01028,1.8137622e-05,1.703031e-05,0.00034856057,0.013690213,0.013860871,0.005129461,0.11297814,0.11335176,0.08318752,1.57583e-07,1.5719834e-07,2.9277186e-07,0.00034330902,0.00043622596,8.763154e-06,3.2084758e-06,3.6421714e-06,0.000107678105,2.3056289e-06,3.1697127e-06,0.00010647651,1.0,1.0,0.010000001,25
2043840000,2043688000,-0.07633566,0.0032722412,-0.00066105183,-0.99707663,0.009571229,-0.04439765,-0.016974756,0.0,0.0,-488.11053,-7.818735e-05,3.2682616e-05,0.00012391133,-0.021158498,-0.008950244,0.0033140483,0.21584582,0.01275156,0.42929786,0.00081598875,0.0006244024,0.00047306262,0.0,0.0,-488.01053,1.8180071e-05,1.706569e-05,0.00034801124,0.01379467,0.013971171,0.0051465165,0.11377246,0.11415979,0.08363773,1.5768195e-07,1.5728118e-07,2.9249375e-07,0.0003433101,0.00043622713,8.764306e-06,3.2081055e-06,3.6417312e-06,0.000107677595,2.3056298e-06,3.169714e-06,0.00010647646,1.0,1.0,0.010000001,25
2043848000,2043696000,-0.07631741,0.0032876208,-0.00068202923,-0.997078,0.010514806,-0.0449717,-0.016584046,0.0,0.0,-488.11066,-7.818735e-05,3.2682616e-05,0.00012391133,-0.021158498,-0.008950244,0.0033140483,0.21584582,0.01275156,0.42929786,0.00081598875,0.0006244024,0.00047306262,0.0,0.0,-488.01065,1.8206087e-05,1.7091566e-05,0.00034810556,0.013851003,0.014028685,0.0051550474,0.114177614,0.11456904,0.08386385,1.5774596e-07,1.5734518e-07,2.9255776e-07,0.00034331068,0.0004362277,8.764881e-06,3.2081693e-06,3.641795e-06,0.00010767766,2.3056305e-06,3.1697148e-06,0.00010647646,1.0,1.0,0.010000001,25
2043856000,2043704000,-0.07629389,0.0032713404,-0.00071181863,-0.99707973,0.010884549,-0.04553022,-0.01631675,0.0,0.0,-488.11078,-7.818735e-05,3.2682616e-05,0.00012391133,-0.021158498,-0.008950244,0.0033140483,0.21584582,0.01275156,0.42929786,0.00081598875,0.0006244024,0.00047306262,0.0,0.0,-488.01077,1.8232122e-05,1.7117463e-05,0.00034819992,0.0139075965,0.01408629,0.0051635792,0.114584975,0.11498052,0.08409064,1.5780996e-07,1.5740919e-07,2.9262176e-07,0.00034331126,0.0004362283,8.765457e-06,3.2082332e-06,3.641859e-06,0.000107677726,2.3056311e-06,3.1697155e-06,0.00010647646,1.0,1.0,0.010000001,25
2043864000,2043712000,-0.07627876,0.0032809537,-0.0007104417,-0.9970809,0.010567912,-0.046106625,-0.01584313,0.0,0.0,-488.1109,-7.818735e-05,3.2682616e-05,0.00012391133,-0.021158498,-0.008950244,0.0033140483,0.21584582,0.01275156,0.42929786,0.00081598875,0.0006244024,0.00047306262,0.0,0.0,-488.0109,1.8258173e-05,1.7143375e-05,0.00034829427,0.013964245,0.014143738,0.005172112,0.11499454,0.11539424,0.08431811,1.5787397e-07,1.574732e-07,2.9268577e-07,0.00034331184,0.00043622887,8.766033e-06,3.2082971e-06,3.6419228e-06,0.00010767779,2.3056318e-06,3.1697161e-06,0.00010647646,1.0,1.0,0.010000001,25
2043880000,2043728000,-0.07628153,0.003248705,-0.00062286016,-0.99708086,0.010179833,-0.04587584,-0.014997825,0.0,0.0,-488.11115,-7.57284e-05,3.259133e-05,0.00012524998,-0.021158503,-0.008950297,0.0033140478,0.21584581,0.012751427,0.4292979,0.0008159878,0.00062439794,0.00047303463,0.0,0.0,-488.01114,1.8307917e-05,1.7192944e-05,0.0003483719,0.014077118,0.0142581975,0.0051891794,0.1158194,0.11622735,0.084775075,1.5789108e-07,1.5749097e-07,2.9243327e-07,0.000343313,0.00043623004,8.767184e-06,3.208425e-06,3.642047e-06,0.00010767792,2.3056332e-06,3.1697175e-06,0.00010647646,1.0,1.0,0.010000001,25
2043888000,2043736000,-0.076269135,0.003241134,-0.00064365147,-0.9970818,0.010544036,-0.045962617,-0.014915852,0.0,0.0,-488.1116,-7.5728225e-05,3.2591295e-05,0.00012524995,-0.021158507,-0.008950297,0.003314497,0.21584581,0.012751427,0.4292979,0.0008159879,0.00062439794,0.00047303463,0.0,0.0,-488.0116,1.8334023e-05,1.7218908e-05,0.00034846624,0.0141345225,0.014316626,0.0051811473,0.11623564,0.11664785,0.08442446,1.5795509e-07,1.5755498e-07,2.9249728e-07,0.0003433136,0.00043623062,8.76666e-06,3.2084888e-06,3.6421109e-06,0.00010767799,2.3056339e-06,3.1697182e-06,0.00010647646,1.0,1.0,0.010000001,25
2043896000,2043744000,-0.07623594,0.0032085325,-0.00062841095,-0.9970845,0.010408905,-0.045983747,-0.014164336,0.0,0.0,-488.11172,-7.5728225e-05,3.2591295e-05,0.00012524995,-0.021158507,-0.008950297,0.003314497,0.21584581,0.012751427,0.4292979,0.0008159879,0.00062439794,0.00047303463,0.0,0.0,-488.01172,1.836015e-05,1.7244893e-05,0.00034856063,0.014191723,0.01437469,0.005189682,0.116654135,0.11707063,0.08465307,1.5801909e-07,1.5761898e-07,2.9256128e-07,0.00034331417,0.0004362312,8.767236e-06,3.2085527e-06,3.6421748e-06,0.00010767805,2.3056346e-06,3.1697189e-06,0.00010647646,1.0,1.0,0.010000001,25
2043904000,2043752000,-0.0762326,0.0031779686,-0.00064955355,-0.99708486,0.010543904,-0.046046298,-0.013013542,0.0,0.0,-488.11185,-7.5728225e-05,3.2591295e-05,0.00012524995,-0.021158507,-0.008950297,0.003314497,0.21584581,0.012751427,0.4292979,0.0008159879,0.00062439794,0.00047303463,0.0,0.0,-488.01184,1.83863e-05,1.72709e-05,0.0003486551,0.014248853,0.0144327665,0.0051982175,0.117074884,0.11749571,0.08488236,1.580831e-07,1.5768299e-07,2.926253e-07,0.00034331475,0.00043623178,8.767812e-06,3.2086166e-06,3.6422387e-06,0.00010767812,2.3056352e-06,3.1697195e-06,0.00010647646,1.0,1.0,0.010000001,25
2043920000,2043768000,-0.076195374,0.0031541535,-0.0006705367,-0.9970877,0.011111815,-0.045879953,-0.012026936,0.0,0.0,-488.11203,-7.588402e-05,3.277e-05,0.00012481758,-0.021158213,-0.008950243,0.003314498,0.21584521,0.012751393,0.42929816,0.0008159964,0.00062439556,0.0004730818,0.0,0.0,-488.01202,1.8428826e-05,1.7306116e-05,0.00034810705,0.014355539,0.014545852,0.0052152914,0.117911935,0.118348174,0.08534298,1.5818131e-07,1.5776459e-07,2.9234835e-07,0.00034331583,0.00043623295,8.768963e-06,3.2082462e-06,3.6417985e-06,0.00010767762,2.3056361e-06,3.169721e-06,0.000106476415,1.0,1.0,0.010000001,25
2043928000,2043776000,-0.07620187,0.003144148,-0.0006184337,-0.9970873,0.011298057,-0.045716174,-0.012777239,0.0,0.0,-488.11212,-7.588402e-05,3.277e-05,0.00012481758,-0.021158213,-0.008950243,0.003314498,0.21584521,0.012751393,0.42929816,0.0008159964,0.00062439556,0.0004730818,0.0,0.0,-488.01212,1.8455023e-05,1.733217e-05,0.0003482013,0.014414386,0.014605721,0.0052238298,0.11833937,0.11878012,0.085574314,1.5824531e-07,1.578286e-07,2.9241235e-07,0.0003433164,0.00043623353,8.769539e-06,3.20831e-06,3.6418623e-06,0.00010767768,2.3056368e-06,3.1697216e-06,0.000106476415,1.0,1.0,0.010000001,25
2043936000,2043784000,-0.07621065,0.0031007063,-0.0006054346,-0.99708676,0.011502524,-0.04629054,-0.012961097,0.0,0.0,-488.1122,-7.588402e-05,3.277e-05,0.00012481758,-0.021158213,-0.008950243,0.003314498,0.21584521,0.012751393,0.42929816,0.0008159964,0.00062439556,0.0004730818,0.0,0.0,-488.0122,1.8481245e-05,1.7358247e-05,0.00034829567,0.014473058,0.014665418,0.005232371,0.11876912,0.119214416,0.08580633,1.5830932e-07,1.578926e-07,2.9247636e-07,0.000343317,0.0004362341,8.770115e-06,3.208374e-06,3.6419262e-06,0.00010767775,2.3056375e-06,3.1697223e-06,0.000106476415,1.0,1.0,0.010000001,25
2043944000,2043792000,-0.07620452,0.0030757994,-0.0005874893,-0.9970873,0.011903814,-0.046414286,-0.013575472,0.0,0.0,-488.1123,-7.588402e-05,3.277e-05,0.00012481758,-0.021158213,-0.008950243,0.003314498,0.21584521,0.012751393,0.42929816,0.0008159964,0.00062439556,0.0004730818,0.0,0.0,-488.0123,1.8507482e-05,1.738434e-05,0.00034839002,0.0145322,0.014725656,0.005240912,0.119201176,0.119651064,0.08603904,1.5837333e-07,1.579566e-07,2.9254036e-07,0.00034331757,0.0004362347,8.77069e-06,3.2084379e-06,3.6419901e-06,0.00010767781,2.3056382e-06,3.169723e-06,0.000106476415,1.0,1.0,0.010000001,25
2043960000,2043808000,-0.07617326,0.0030710548,-0.0005978351,-0.99708974,0.013768498,-0.04576059,-0.013886943,0.0,0.0,-488.1129,-7.588383e-05,3.2769964e-05,0.00012481754,-0.021158217,-0.008950243,0.0033149843,0.21584521,0.012751393,0.42929816,0.00081599643,0.00062439556,0.0004730818,0.0,0.0,-488.0129,1.8560026e-05,1.743659e-05,0.00034857888,0.01465042,0.01484641,0.0052408637,0.1200723,0.12053148,0.085907385,1.5850134e-07,1.5808462e-07,2.9266837e-07,0.00034331874,0.00043623586,8.770705e-06,3.2085657e-06,3.642118e-06,0.000107677944,2.3056396e-06,3.1697243e-06,0.000106476415,1.0,1.0,0.010000001,25
2043968000,2043816000,-0.07616714,0.003112252,-0.0005956241,-0.9970901,0.014481973,-0.045466363,-0.013786651,0.0,0.0,-488.11304,-7.588383e-05,3.2769964e-05,0.00012481754,-0.021158217,-0.008950243,0.0033149843,0.21584521,0.012751393,0.42929816,0.00081599643,0.00062439556,0.0004730818,0.0,0.0,-488.01303,1.8586332e-05,1.7462748e-05,0.0003486734,0.014709668,0.014906854,0.0052494057,0.120511375,0.12097526,0.08614052,1.5856534e-07,1.5814862e-07,2.9273238e-07,0.00034331932,0.00043623644,8.771281e-06,3.2086296e-06,3.6421818e-06,0.00010767801,2.3056402e-06,3.169725e-06,0.000106476415,1.0,1.0,0.010000001,25
2043976000,2043824000,-0.07613281,0.0031624942,-0.0005797709,-0.99709255,0.01444989,-0.04596264,-0.014091857,0.0,0.0,-488.11316,-7.588383e-05,3.2769964e-05,0.00012481754,-0.021158217,-0.008950243,0.0033149843,0.21584521,0.012751393,0.42929816,0.00081599643,0.00062439556,0.0004730818,0.0,0.0,-488.01315,1.8612656e-05,1.7488923e-05,0.00034876796,0.014769374,0.014967523,0.0052579497,0.12095282,0.12142145,0.08637434,1.5862935e-07,1.5821263e-07,2.927964e-07,0.0003433199,0.00043623702,8.771856e-06,3.2086934e-06,3.6422457e-06,0.000107678075,2.305641e-06,3.1697257e-06,0.000106476415,1.0,1.0,0.010000001,25
2043984000,2043832000,-0.076127805,0.0031915533,-0.0005779845,-0.99709284,0.014222518,-0.046127073,-0.01433158,0.0,0.0,-488.11328,-7.567063e-05,3.292063e-05,0.00012570353,-0.021158068,-0.008950236,0.0033149847,0.21584472,0.012751425,0.4292976,0.0008160196,0.00062437955,0.0004733621,0.0,0.0,-488.01328,1.862888e-05,1.7497745e-05,0.00034812637,0.014819732,0.015023437,0.0052664946,0.121383995,0.12186483,0.08660885,1.5866276e-07,1.582289e-07,2.9245555e-07,0.0003433204,0.0004362376,8.772432e-06,3.2082608e-06,3.6417416e-06,0.000107677515,2.3056411e-06,3.1697261e-06,0.00010647637,1.0,1.0,0.010000001,25
2044000000,2043848000,-0.07615589,0.0032242036,-0.0005536036,-0.99709064,0.013770417,-0.046832073,-0.015931495,0.0,0.0,-488.11353,-7.567063e-05,3.292063e-05,0.00012570353,-0.021158068,-0.008950236,0.0033149847,0.21584472,0.012751425,0.4292976,0.0008160196,0.00062437955,0.0004733621,0.0,0.0,-488.01352,1.8681605e-05,1.7550165e-05,0.00034831505,0.014940638,0.015146227,0.005283588,0.122278444,0.12276914,0.08707994,1.5879077e-07,1.5835691e-07,2.9258356e-07,0.00034332156,0.00043623877,8.773583e-06,3.2083885e-06,3.6418694e-06,0.000107677646,2.3056425e-06,3.1697275e-06,0.00010647637,1.0,1.0,0.010000001,25
2044008000,2043856000,-0.07619534,0.0032352977,-0.00051208504,-0.9970876,0.014104443,-0.046361487,-0.015639279,0.0,0.0,-488.11362,-7.5670636e-05,3.292063e-05,0.00012570353,-0.021158068,-0.008950236,0.0033149607,0.21584472,0.012751425,0.4292976,0.0008160196,0.00062437955,0.0004733621,0.0,0.0,-488.0136,1.8707999e-05,1.7576409e-05,0.00034840946,0.015000656,0.015207362,0.0052745324,0.12272928,0.12322495,0.086704515,1.5885477e-07,1.5842092e-07,2.9264757e-07,0.00034332214,0.00043623935,8.77299e-06,3.2084524e-06,3.6419333e-06,0.00010767771,2.3056432e-06,3.1697282e-06,0.00010647637,1.0,1.0,0.010000001,25
2044016000,2043864000,-0.07622475,0.0032544849,-0.00049044803,-0.9970853,0.014614687,-0.045466583,-0.014827549,0.0,0.0,-488.11374,-7.5670636e-05,3.292063e-05,0.00012570353,-0.021158068,-0.008950236,0.0033149607,0.21584472,0.012751425,0.4292976,0.0008160196,0.00062437955,0.0004733621,0.0,0.0,-488.01373,1.8734416e-05,1.7602673e-05,0.00034850393,0.015060515,0.015268394,0.005283078,0.12318252,0.12368322,0.086940125,1.5891878e-07,1.5848492e-07,2.9271158e-07,0.00034332272,0.00043623993,8.773566e-06,3.2085163e-06,3.6419972e-06,0.00010767778,2.3056439e-06,3.1697289e-06,0.00010647637,1.0,1.0,0.010000001,25
2044024000,2043872000,-0.07625584,0.0032565258,-0.0004904651,-0.9970829,0.014446259,-0.045575038,-0.014406532,0.0,0.0,-488.11386,-7.5670636e-05,3.292063e-05,0.00012570353,-0.021158068,-0.008950236,0.0033149607,0.21584472,0.012751425,0.4292976,0.0008160196,0.00062437955,0.0004733621,0.0,0.0,-488.01385,1.8760853e-05,1.7628958e-05,0.00034859843,0.015120826,0.015329659,0.005291626,0.12363818,0.12414396,0.08717643,1.5898279e-07,1.5854893e-07,2.9277558e-07,0.0003433233,0.00043624052,8.774142e-06,3.2085802e-06,3.642061e-06,0.00010767784,2.3056446e-06,3.1697296e-06,0.00010647637,1.0,1.0,0.010000001,25
2044040000,2043888000,-0.07631877,0.0032805337,-0.0005652064,-0.99707794,0.013724952,-0.04548236,-0.01372546,0.0,0.0,-488.1141,-7.5670636e-05,3.292063e-05,0.00012570353,-0.021158068,-0.008950236,0.0033149607,0.21584472,0.012751425,0.4292976,0.0008160196,0.00062437955,0.0004733621,0.0,0.0,-488.0141,1.8813786e-05,1.7681583e-05,0.00034878755,0.015242131,0.015452753,0.0053087245,0.12455682,0.12507285,0.08765111,1.591108e-07,1.5867694e-07,2.929036e-07,0.00034332447,0.00043624168,8.775293e-06,3.208708e-06,3.6421889e-06,0.00010767797,2.305646e-06,3.169731e-06,0.00010647637,1.0,1.0,0.010000001,25
2044048000,2043896000,-0.07635952,0.0032765474,-0.0005951784,-0.99707484,0.013339831,-0.046346504,-0.013649389,0.0,0.0,-488.11423,-7.5670636e-05,3.292063e-05,0.00012570353,-0.021158068,-0.008950236,0.0033149607,0.21584472,0.012751425,0.4292976,0.0008160196,0.00062437955,0.0004733621,0.0,0.0,-488.01422,1.8840283e-05,1.7707927e-05,0.00034888217,0.015303251,0.015514768,0.005317277,0.12501982,0.12554103,0.08788949,1.591748e-07,1.5874095e-07,2.929676e-07,0.00034332505,0.00043624226,8.775869e-06,3.208772e-06,3.6422528e-06,0.00010767804,2.3056466e-06,3.1697316e-06,0.00010647637,1.0,1.0,0.010000001,25
2044056000,2043904000,-0.07628456,0.0032545174,-0.00055489724,-0.9970806,0.0084570125,-0.03795064,-0.012575922,0.0,0.0,-488.1121,-6.7034714e-05,3.9421448e-05,0.0001242396,-0.021158133,-0.008950563,0.0033090913,0.21584591,0.012751599,0.42929783,0.00081600103,0.0006242784,0.00047320582,0.0,0.0,-488.0121,1.761219e-05,1.652058e-05,0.00034791924,0.012560711,0.012708726,0.0049937586,0.10506003,0.105352856,0.08007997,1.5639175e-07,1.560355e-07,2.9248338e-07,0.0003433255,0.00043624284,8.753928e-06,3.2081093e-06,3.6417464e-06,0.00010767743,2.3056466e-06,3.1697296e-06,0.00010647632,1.0,1.0,0.010000001,25
2044064000,2043912000,-0.07629657,0.0032654388,-0.00057111366,-0.9970797,0.008314926,-0.037726086,-0.011800893,0.0,0.0,-488.11218,-6.7034714e-05,3.9421448e-05,0.0001242396,-0.021158133,-0.008950563,0.0033090913,0.21584591,0.012751599,0.42929783,0.00081600103,0.0006242784,0.00047320582,0.0,0.0,-488.01218,1.7637767e-05,1.6546035e-05,0.00034801348,0.012612832,0.012761572,0.005002268,0.10541769,0.105713755,0.080294915,1.5645576e-07,1.560995e-07,2.9254738e-07,0.00034332607,0.00043624343,8.754504e-06,3.2081732e-06,3.6418103e-06,0.00010767749,2.3056473e-06,3.1697302e-06,0.00010647632,1.0,1.0,0.010000001,25
2044080000,2043928000,-0.07619451,0.0033415009,-0.00051381026,-0.99708724,0.008926416,-0.038694404,-0.0120238615,0.0,0.0,-488.1125,-6.737488e-05,3.9969585e-05,0.00012437433,-0.02115812,-0.008950556,0.0033092475,0.21584593,0.012751591,0.42929783,0.0008160017,0.000624275,0.00047321076,0.0,0.0,-488.01248,1.7686749e-05,1.6594864e-05,0.0003480911,0.012717739,0.012868149,0.005004577,0.106138326,0.10644082,0.08020335,1.5647485e-07,1.5611919e-07,2.9229525e-07,0.00034332724,0.0004362446,8.75468e-06,3.208301e-06,3.6419344e-06,0.000107677624,2.3056486e-06,3.1697316e-06,0.00010647632,1.0,1.0,0.010000001,25
2044088000,2043936000,-0.07622705,0.0033524437,-0.0004738683,-0.99708474,0.008621853,-0.039184563,-0.012407728,0.0,0.0,-488.11258,-6.737488e-05,3.9969585e-05,0.00012437433,-0.02115812,-0.008950556,0.0033092475,0.21584593,0.012751591,0.42929783,0.0008160017,0.000624275,0.00047321076,0.0,0.0,-488.01257,1.7712375e-05,1.6620368e-05,0.00034818528,0.012771047,0.012922155,0.005013088,0.10650192,0.10680773,0.08041884,1.5653886e-07,1.5618319e-07,2.9235926e-07,0.00034332782,0.00043624517,8.755255e-06,3.208365e-06,3.6419983e-06,0.00010767769,2.3056493e-06,3.1697323e-06,0.00010647632,1.0,1.0,0.010000001,25
2044096000,2043944000,-0.07622303,0.0033850356,-0.00046508634,-0.9970849,0.00940753,-0.039633382,-0.012770109,0.0,0.0,-488.11267,-6.737488e-05,3.9969585e-05,0.00012437433,-0.02115812,-0.008950556,0.0033092475,0.21584593,0.012751591,0.42929783,0.0008160017,0.000624275,0.00047321076,0.0,0.0,-488.01266,1.7738026e-05,1.6645896e-05,0.00034827957,0.012824522,0.012976638,0.0050216014,0.10686752,0.10717668,0.08063499,1.5660287e-07,1.562472e-07,2.9242327e-07,0.0003433284,0.00043624575,8.755831e-06,3.2084288e-06,3.6420622e-06,0.000107677755,2.30565e-06,3.169733e-06,0.00010647632,1.0,1.0,0.010000001,25
2044104000,2043952000,-0.07627596,0.003384538,-0.00048402717,-0.997081,0.009174084,-0.039932575,-0.013268784,0.0,0.0,-488.11276,-6.737488e-05,3.9969585e-05,0.00012437433,-0.02115812,-0.008950556,0.0033092475,0.21584593,0.012751591,0.42929783,0.0008160017,0.000624275,0.00047321076,0.0,0.0,-488.01276,1.7763694e-05,1.667144e-05,0.00034837384,0.012878257,0.013031096,0.005030115,0.10723513,0.10754766,0.08085179,1.5666687e-07,1.563112e-07,2.9248727e-07,0.00034332898,0.00043624634,8.756407e-06,3.2084927e-06,3.642126e-06,0.00010767782,2.3056507e-06,3.1697336e-06,0.00010647632,1.0,1.0,0.010000001,25
2044120000,2043968000,-0.07637591,0.0033300924,-0.0004943381,-0.9970734,0.009273731,-0.039743327,-0.012223534,0.0,0.0,-488.11295,-6.737488e-05,3.9969585e-05,0.00012437433,-0.02115812,-0.008950556,0.0033092475,0.21584593,0.012751591,0.42929783,0.0008160017,0.000624275,0.00047321076,0.0,0.0,-488.01294,1.7815104e-05,1.6722603e-05,0.00034856278,0.01298507,0.013139507,0.0050471453,0.10797642,0.10829579,0.08128738,1.5679488e-07,1.5643921e-07,2.9261528e-07,0.00034333015,0.0004362475,8.757558e-06,3.2086205e-06,3.642254e-06,0.00010767795,2.305652e-06,3.169735e-06,0.00010647632,1.0,1.0,0.010000001,25
2044128000,2043976000,-0.07639474,0.003294034,-0.00043892016,-0.9970721,0.0099122105,-0.03888236,-0.012516926,0.0,0.0,-488.11304,-6.716906e-05,4.003936e-05,0.00012521123,-0.021158075,-0.008950571,0.0033092475,0.21584584,0.012751642,0.42929772,0.0008160119,0.0006242663,0.0004733624,0.0,0.0,-488.01303,1.7831715e-05,1.6732662e-05,0.00034791627,0.013031698,0.01319079,0.0050556613,0.1083423,0.10866986,0.08150616,1.5683096e-07,1.5646002e-07,2.9227226e-07,0.00034333064,0.00043624808,8.758134e-06,3.2081848e-06,3.6417498e-06,0.000107677384,2.3056523e-06,3.1697357e-06,0.00010647628,1.0,1.0,0.010000001,25
2044136000,2043984000,-0.07638105,0.0032554034,-0.00037664035,-0.99707335,0.010530921,-0.03891526,-0.013244957,0.0,0.0,-488.11313,-6.716906e-05,4.003936e-05,0.00012521123,-0.021158075,-0.008950571,0.0033092475,0.21584584,0.012751642,0.42929772,0.0008160119,0.0006242663,0.0004733624,0.0,0.0,-488.01312,1.7857457e-05,1.6758277e-05,0.00034801048,0.013086234,0.013246337,0.005064179,0.108717926,0.109049045,0.081725605,1.5689497e-07,1.5652402e-07,2.9233627e-07,0.00034333122,0.00043624867,8.75871e-06,3.2082487e-06,3.6418137e-06,0.00010767745,2.305653e-06,3.1697364e-06,0.00010647628,1.0,1.0,0.010000001,25
2044144000,2043992000,-0.0763441,0.0032604074,-0.00035837744,-0.99707615,0.010955369,-0.03876581,-0.014051072,0.0,0.0,-488.11325,-6.716906e-05,4.003936e-05,0.00012521123,-0.021158075,-0.008950571,0.0033092475,0.21584584,0.012751642,0.42929772,0.0008160119,0.0006242663,0.0004733624,0.0,0.0,-488.01324,1.7883223e-05,1.6783915e-05,0.00034810478,0.013141001,0.013302059,0.005072698,0.10909562,0.10943032,0.08194571,1.5695898e-07,1.5658803e-07,2.9240027e-07,0.0003433318,0.00043624925,8.759285e-06,3.2083126e-06,3.6418776e-06,0.000107677515,2.3056537e-06,3.169737e-06,0.00010647628,1.0,1.0,0.010000001,25
2044160000,2044008000,-0.07635535,0.0032378216,-0.0003708919,-0.9970754,0.011358899,-0.03768498,-0.0148977265,0.0,0.0,-488.1138,-6.716891e-05,4.0039344e-05,0.0001252112,-0.021158077,-0.008950571,0.0033096506,0.21584584,0.012751642,0.42929772,0.000816012,0.0006242663,0.0004733624,0.0,0.0,-488.0138,1.7934808e-05,1.683524e-05,0.0003482934,0.0132506,0.013413438,0.0050744005,0.10985723,0.110199206,0.08184429,1.5708699e-07,1.5671604e-07,2.9252828e-07,0.00034333297,0.0004362504,8.759419e-06,3.2084404e-06,3.6420054e-06,0.000107677646,2.305655e-06,3.1697384e-06,0.00010647628,1.0,1.0,0.010000001,25
2044168000,2044016000,-0.07638863,0.0032313848,-0.0003905192,-0.9970728,0.011223166,-0.037443172,-0.015712328,0.0,0.0,-488.11392,-6.716891e-05,4.0039344e-05,0.0001252112,-0.021158077,-0.008950571,0.0033096506,0.21584584,0.012751642,0.42929772,0.000816012,0.0006242663,0.0004733624,0.0,0.0,-488.01392,1.7960638e-05,1.6860939e-05,0.0003483878,0.013305923,0.013469559,0.00508292,0.110241175,0.11058682,0.08206493,1.5715099e-07,1.5678005e-07,2.925923e-07,0.00034333355,0.000436251,8.759995e-06,3.2085043e-06,3.6420693e-06,0.00010767771,2.3056557e-06,3.169739e-06,0.00010647628,1.0,1.0,0.010000001,25
2044176000,2044024000,-0.07640556,0.003195824,-0.00044162266,-0.9970716,0.012024844,-0.037922345,-0.016323678,0.0,0.0,-488.11404,-6.716891e-05,4.0039344e-05,0.0001252112,-0.021158077,-0.008950571,0.0033096506,0.21584584,0.012751642,0.42929772,0.000816012,0.0006242663,0.0004733624,0.0,0.0,-488.01404,1.7986482e-05,1.6886655e-05,0.0003484822,0.013361307,0.013526024,0.0050914427,0.11062722,0.11097658,0.082286224,1.57215e-07,1.5684405e-07,2.926563e-07,0.00034333413,0.00043625158,8.76057e-06,3.2085682e-06,3.6421332e-06,0.00010767778,2.3056564e-06,3.1697398e-06,0.00010647628,1.0,1.0,0.010000001,25
2044184000,2044032000,-0.07643515,0.0031897167,-0.00047090388,-0.99706936,0.012558645,-0.03745782,-0.016669884,0.0,0.0,-488.11417,-6.716891e-05,4.0039344e-05,0.0001252112,-0.021158077,-0.008950571,0.0033096506,0.21584584,0.012751642,0.42929772,0.000816012,0.0006242663,0.0004733624,0.0,0.0,-488.01416,1.8012344e-05,1.6912392e-05,0.0003485766,0.013416718,0.013582433,0.0050999653,0.11101537,0.11136848,0.08250819,1.57279e-07,1.5690806e-07,2.927203e-07,0.00034333472,0.00043625216,8.761146e-06,3.208632e-06,3.642197e-06,0.00010767784,2.305657e-06,3.1697405e-06,0.00010647628,1.0,1.0,0.010000001,25
2044200000,2044048000,-0.07649099,0.003281155,-0.0005020007,-0.99706477,0.012734791,-0.037827894,-0.016288772,0.0,0.0,-488.1144,-6.696588e-05,4.0034516e-05,0.0001259672,-0.021158138,-0.0089505995,0.00330965,0.21584603,0.012751703,0.4292977,0.00081601425,0.0006242618,0.00047343617,0.0,0.0,-488.0144,1.8054729e-05,1.6947875e-05,0.0003480255,0.013519385,0.013690754,0.005117014,0.111789055,0.11215515,0.08295413,1.5737834e-07,1.569916e-07,2.9244143e-07,0.0003433358,0.00043625332,8.7622975e-06,3.208261e-06,3.6417568e-06,0.00010767733,2.305658e-06,3.1697418e-06,0.00010647623,1.0,1.0,0.010000001,25
2044208000,2044056000,-0.076489665,0.0033055407,-0.00050273613,-0.9970648,0.012878185,-0.037793446,-0.01618202,0.0,0.0,-488.11453,-6.696588e-05,4.0034516e-05,0.0001259672,-0.021158138,-0.0089505995,0.00330965,0.21584603,0.012751703,0.4292977,0.00081601425,0.0006242618,0.00047343617,0.0,0.0,-488.01453,1.8080647e-05,1.697366e-05,0.00034811982,0.013575012,0.01374729,0.00512554,0.112183474,0.11255347,0.083178096,1.5744234e-07,1.5705561e-07,2.9250543e-07,0.00034333637,0.0004362539,8.762873e-06,3.2083249e-06,3.6418207e-06,0.0001076774,2.3056587e-06,3.1697425e-06,0.00010647623,1.0,1.0,0.010000001,25
2044216000,2044064000,-0.07645454,0.0033235569,-0.00039839325,-0.9970675,0.01248778,-0.037919722,-0.016423307,0.0,0.0,-488.11465,-6.696588e-05,4.0034516e-05,0.0001259672,-0.021158138,-0.0089505995,0.00330965,0.21584603,0.012751703,0.4292977,0.00081601425,0.0006242618,0.00047343617,0.0,0.0,-488.01465,1.8106588e-05,1.6999462e-05,0.00034821418,0.013631034,0.013804065,0.005134067,0.11258004,0.11295398,0.08340273,1.5750635e-07,1.5711962e-07,2.9256944e-07,0.00034333696,0.0004362545,8.763449e-06,3.2083888e-06,3.6418846e-06,0.000107677464,2.3056593e-06,3.1697432e-06,0.00010647623,1.0,1.0,0.010000001,25
2044224000,2044072000,-0.07643762,0.0033320696,-0.00033439457,-0.99706876,0.012423673,-0.03863857,-0.016060086,0.0,0.0,-488.11456,-6.6965986e-05,4.0034523e-05,0.00012596723,-0.021158136,-0.0089505995,0.0033093516,0.21584603,0.012751703,0.4292977,0.00081601425,0.0006242618,0.00047343617,0.0,0.0,-488.01456,1.8132549e-05,1.7025284e-05,0.0003483086,0.013686889,0.013860772,0.0051266253,0.11297876,0.11335668,0.083066486,1.5757035e-07,1.5718362e-07,2.9263344e-07,0.00034333754,0.00043625507,8.762965e-06,3.2084527e-06,3.6419485e-06,0.00010767753,2.30566e-06,3.1697439e-06,0.00010647623,1.0,1.0,0.010000001,25
2044240000,2044088000,-0.07645373,0.0034242845,-0.00038934557,-0.99706715,0.012618711,-0.039802708,-0.015692547,0.0,0.0,-488.1148,-6.6965986e-05,4.0034523e-05,0.00012596723,-0.021158136,-0.0089505995,0.0033093516,0.21584603,0.012751703,0.4292977,0.00081601425,0.0006242618,0.00047343617,0.0,0.0,-488.0148,1.8184524e-05,1.7076993e-05,0.00034849744,0.0137993265,0.01397502,0.0051436825,0.113782726,0.114168696,0.0835161,1.5769837e-07,1.5731163e-07,2.9276146e-07,0.0003433387,0.00043625623,8.7641165e-06,3.2085804e-06,3.6420763e-06,0.00010767766,2.3056614e-06,3.1697452e-06,0.00010647623,1.0,1.0,0.010000001,25
2044248000,2044096000,-0.07645309,0.0033748199,-0.00041967258,-0.9970674,0.013444824,-0.040398132,-0.015484631,0.0,0.0,-488.11493,-6.6965986e-05,4.0034523e-05,0.00012596723,-0.021158136,-0.0089505995,0.0033093516,0.21584603,0.012751703,0.4292977,0.00081601425,0.0006242618,0.00047343617,0.0,0.0,-488.01492,1.8210536e-05,1.7102871e-05,0.00034859186,0.013855807,0.014032638,0.005152213,0.11418799,0.11457803,0.08374191,1.5776237e-07,1.5737564e-07,2.9282546e-07,0.00034333928,0.0004362568,8.764692e-06,3.2086443e-06,3.6421402e-06,0.000107677726,2.305662e-06,3.169746e-06,0.00010647623,1.0,1.0,0.010000001,25
2044256000,2044104000,-0.076410405,0.0033447759,-0.00042652417,-0.9970708,0.013518521,-0.040557746,-0.01547385,0.0,0.0,-488.11505,-6.6965986e-05,4.0034523e-05,0.00012596723,-0.021158136,-0.0089505995,0.0033093516,0.21584603,0.012751703,0.4292977,0.00081601425,0.0006242618,0.00047343617,0.0,0.0,-488.01505,1.8236571e-05,1.7128772e-05,0.00034868636,0.013912594,0.014090334,0.005160744,0.11459546,0.1149896,0.08396839,1.5782638e-07,1.5743964e-07,2.9288947e-07,0.00034333987,0.0004362574,8.765268e-06,3.2087082e-06,3.642204e-06,0.00010767779,2.3056627e-06,3.1697466e-06,0.00010647623,1.0,1.0,0.010000001,25
2044264000,2044112000,-0.07636642,0.0033347907,-0.0004315737,-0.9970741,0.013604917,-0.039883766,-0.015425646,0.0,0.0,-488.11517,-6.707208e-05,4.007395e-05,0.00012560563,-0.021158025,-0.008950586,0.003309352,0.21584634,0.012751723,0.42929897,0.0008159966,0.00062426866,0.0004732862,0.0,0.0,-488.01517,1.8252978e-05,1.7138196e-05,0.0003480421,0.013961016,0.01414385,0.0051692748,0.11499497,0.115399316,0.084195554,1.5786101e-07,1.5745803e-07,2.925471e-07,0.00034334036,0.00043625798,8.765844e-06,3.2082753e-06,3.6417e-06,0.000107677224,2.305663e-06,3.1697473e-06,0.00010647619,1.0,1.0,0.010000001,25
2044280000,2044128000,-0.07635291,0.00335569,-0.0004435303,-0.99707514,0.014524035,-0.03997828,-0.01582054,0.0,0.0,-488.11542,-6.779871e-05,4.0202605e-05,0.00012391583,-0.021158006,-0.008950628,0.0033093523,0.21584633,0.012751892,0.42929894,0.0008159989,0.00062426674,0.000473317,0.0,0.0,-488.0154,1.8302713e-05,1.7187755e-05,0.00034811968,0.014074632,0.014259514,0.0051863417,0.115819775,0.1162325,0.0846519,1.5787813e-07,1.5747582e-07,2.9229494e-07,0.00034334153,0.00043625914,8.766995e-06,3.208403e-06,3.6418242e-06,0.000107677355,2.3056643e-06,3.1697487e-06,0.00010647619,1.0,1.0,0.010000001,25
2044288000,2044136000,-0.07636776,0.0033713242,-0.0005167255,-0.9970739,0.01436368,-0.04057419,-0.01530309,0.0,0.0,-488.11554,-6.779871e-05,4.0202605e-05,0.00012391583,-0.021158006,-0.008950628,0.0033093523,0.21584633,0.012751892,0.42929894,0.0008159989,0.00062426674,0.000473317,0.0,0.0,-488.01553,1.832882e-05,1.7213719e-05,0.000348214,0.014131776,0.014317524,0.0051948773,0.11623599,0.11665303,0.08488109,1.5794214e-07,1.5753983e-07,2.9235895e-07,0.0003433421,0.00043625972,8.767571e-06,3.208467e-06,3.641888e-06,0.00010767742,2.305665e-06,3.1697493e-06,0.00010647619,1.0,1.0,0.010000001,25
