timestamp,timestamp_sample,gps_hvel[0],gps_hvel[1],gps_vvel,gps_hpos[0],gps_hpos[1],gps_vpos,ev_hvel[0],ev_hvel[1],ev_vvel,ev_hpos[0],ev_hpos[1],ev_vpos,rng_vpos,baro_vpos,aux_hvel[0],aux_hvel[1],flow[0],flow[1],heading,mag_field[0],mag_field[1],mag_field[2],gravity[0],gravity[1],gravity[2],drag[0],drag[1],airspeed,beta,hagl,hagl_rate
2043328000,2043176000,-0.028303131,-0.042029344,0.04226198,-0.023126135,-0.024698043,-0.007659912,0.0,0.0,0.0,0.0,0.0,0.0,0.0,-0.012359619,0.0,0.0,0.0,0.0,0.0019300617,-0.0014389686,0.0019300617,-0.00046879053,0.0033232651,-0.021138195,-0.00019484758,0.0,0.0,0.0,0.0,0.0,0.0
2043336000,2043184000,-0.028303131,-0.042029344,0.04226198,-0.023126135,-0.024698043,-0.007659912,0.0,0.0,0.0,0.0,0.0,0.0,0.0,0.0013427734,0.0,0.0,0.0,0.0,0.0019300617,-0.0014389686,0.0019300617,-0.00046879053,-0.00064661214,-0.008771416,-3.8146973e-05,0.0,0.0,0.0,0.0,0.0,0.0
2043344000,2043192000,-0.028303131,-0.042029344,0.04226198,-0.023126135,-0.024698043,-0.007659912,0.0,0.0,0.0,0.0,0.0,0.0,0.0,0.0013427734,0.0,0.0,0.0,0.0,0.0019300617,-0.0014389686,0.0019300617,-0.00046879053,9.388523e-05,-0.011726744,-6.15716e-05,0.0,0.0,0.0,0.0,0.0,0.0
2043352000,2043200000,-0.028303131,-0.042029344,0.04226198,-0.023126135,-0.024698043,-0.007659912,0.0,0.0,0.0,0.0,0.0,0.0,0.0,0.0013427734,0.0,0.0,0.0,0.0,0.00048885867,-0.0025908216,0.00048885867,-0.0020795763,0.0073209307,-0.002123978,2.193451e-05,0.0,0.0,0.0,0.0,0.0,0.0
2043360000,2043208000,-0.028303131,-0.042029344,0.04226198,-0.023126135,-0.024698043,-0.007659912,0.0,0.0,0.0,0.0,0.0,0.0,0.0,0.0013427734,0.0,0.0,0.0,0.0,0.00048885867,-0.0025908216,0.00048885867,-0.0020795763,-0.0027271463,-0.0016297833,-2.2768974e-05,0.0,0.0,0.0,0.0,0.0,0.0
2043368000,2043216000,-0.028303131,-0.042029344,0.04226198,-0.023126135,-0.024698043,-0.007659912,0.0,0.0,0.0,0.0,0.0,0.0,0.0,0.0013427734,0.0,0.0,0.0,0.0,0.00048885867,-0.0025908216,0.00048885867,-0.0020795763,0.003960318,0.0008835705,1.8119812e-05,0.0,0.0,0.0,0.0,0.0,0.0
2043376000,2043224000,-0.028303131,-0.042029344,0.04226198,-0.023126135,-0.024698043,-0.007659912,0.0,0.0,0.0,0.0,0.0,0.0,0.0,0.0013427734,0.0,0.0,0.0,0.0,0.00048885867,-0.0025908216,0.00048885867,-0.0020795763,0.012909764,0.006752916,-2.1755695e-05,0.0,0.0,0.0,0.0,0.0,0.0
2043384000,2043232000,-0.028303131,-0.042029344,0.04226198,-0.023126135,-0.024698043,-0.007659912,0.0,0.0,0.0,0.0,0.0,0.0,0.0,0.0013427734,0.0,0.0,0.0,0.0,0.00048885867,-0.0025908216,0.00048885867,-0.0020795763,-0.0048292857,-0.002733951,-4.6610832e-05,0.0,0.0,0.0,0.0,0.0,0.0
2043400000,2043248000,-0.028303131,-0.042029344,0.04226198,-0.023126135,-0.024698043,-0.007659912,0.0,0.0,0.0,0.0,0.0,0.0,0.0,0.0013427734,0.0,0.0,0.0,0.0,0.00048885867,-0.0025908216,0.00048885867,-0.0020795763,-0.0012159939,0.0031996248,-1.4841557e-05,0.0,0.0,0.0,0.0,0.0,0.0
2043408000,2043256000,-0.028303131,-0.042029344,0.04226198,-0.023126135,-0.024698043,-0.007659912,0.0,0.0,0.0,0.0,0.0,0.0,0.0,0.07098389,0.0,0.0,0.0,0.0,0.00048885867,-0.0025908216,0.00048885867,-0.0020795763,0.009792605,-0.010725978,-4.1425228e-05,0.0,0.0,0.0,0.0,0.0,0.0
2043416000,2043264000,-0.028303131,-0.042029344,0.04226198,-0.023126135,-0.024698043,-0.007659912,0.0,0.0,0.0,0.0,0.0,0.0,0.0,0.07098389,0.0,0.0,0.0,0.0,0.00048885867,-0.0025908216,0.00048885867,-0.0020795763,0.003202345,0.0020782298,1.2457371e-05,0.0,0.0,0.0,0.0,0.0,0.0
2043424000,2043272000,-0.028303131,-0.042029344,0.04226198,-0.023126135,-0.024698043,-0.007659912,0.0,0.0,0.0,0.0,0.0,0.0,0.0,0.07098389,0.0,0.0,0.0,0.0,0.00039917097,0.00039917097,-0.00076008216,-0.00178051,0.0035867684,-0.0069955154,-5.7816505e-06,0.0,0.0,0.0,0.0,0.0,0.0
2043440000,2043288000,-0.028303131,-0.042029344,0.04226198,-0.023126135,-0.024698043,-0.007659912,0.0,0.0,0.0,0.0,0.0,0.0,0.0,0.07098389,0.0,0.0,0.0,0.0,0.00039917097,0.00039917097,-0.00076008216,-0.00178051,-0.001376478,-0.00869111,-4.6014786e-05,0.0,0.0,0.0,0.0,0.0,0.0
2043448000,2043296000,-0.028303131,-0.042029344,0.04226198,-0.023126135,-0.024698043,-0.007659912,0.0,0.0,0.0,0.0,0.0,0.0,0.0,0.07098389,0.0,0.0,0.0,0.0,0.00039917097,0.00039917097,-0.00076008216,-0.00178051,0.0020613363,-0.0059355805,-5.364418e-06,0.0,0.0,0.0,0.0,0.0,0.0
2043456000,2043304000,-0.028303131,-0.042029344,0.04226198,-0.023126135,-0.024698043,-0.007659912,0.0,0.0,0.0,0.0,0.0,0.0,0.0,0.07098389,0.0,0.0,0.0,0.0,0.00039917097,0.00039917097,-0.00076008216,-0.00178051,0.0045925416,-0.0042726784,1.1086464e-05,0.0,0.0,0.0,0.0,0.0,0.0
2043464000,2043312000,-0.028303131,-0.042029344,0.04226198,-0.023126135,-0.024698043,-0.007659912,0.0,0.0,0.0,0.0,0.0,0.0,0.0,0.07098389,0.0,0.0,0.0,0.0,0.00039917097,0.00039917097,-0.00076008216,-0.00178051,0.009975877,0.0047720517,4.053116e-06,0.0,0.0,0.0,0.0,0.0,0.0
2043480000,2043328000,-0.028303131,-0.042029344,0.04226198,-0.023126135,-0.024698043,-0.007659912,0.0,0.0,0.0,0.0,0.0,0.0,0.0,-0.024719238,0.0,0.0,0.0,0.0,0.00039917097,0.00039917097,-0.00076008216,-0.00178051,0.0056294766,-0.0010366484,2.0384789e-05,0.0,0.0,0.0,0.0,0.0,0.0
2043488000,2043336000,-0.028303131,-0.042029344,0.04226198,-0.023126135,-0.024698043,-0.007659912,0.0,0.0,0.0,0.0,0.0,0.0,0.0,-0.024719238,0.0,0.0,0.0,0.0,0.00039917097,0.00039917097,-0.00076008216,-0.00178051,0.016758295,-0.0034446581,-3.5107136e-05,0.0,0.0,0.0,0.0,0.0,0.0
2043496000,2043344000,-0.028303131,-0.042029344,0.04226198,-0.023126135,-0.024698043,-0.007659912,0.0,0.0,0.0,0.0,0.0,0.0,0.0,-0.024719238,0.0,0.0,0.0,0.0,0.0015113316,-0.0064072288,0.0015113316,0.00012096763,-0.0011936789,-0.003880551,-1.6212463e-05,0.0,0.0,0.0,0.0,0.0,0.0
2043504000,2043352000,-0.028303131,-0.042029344,0.04226198,-0.023126135,-0.024698043,-0.007659912,0.0,0.0,0.0,0.0,0.0,0.0,0.0,-0.024719238,0.0,0.0,0.0,0.0,0.0015113316,-0.0064072288,0.0015113316,0.00012096763,0.0009112414,0.006618713,-1.6212463e-05,0.0,0.0,0.0,0.0,0.0,0.0
2043520000,2043368000,-0.028303131,-0.042029344,0.04226198,-0.023126135,-0.024698043,-0.007659912,0.0,0.0,0.0,0.0,0.0,0.0,0.0,-0.024719238,0.0,0.0,0.0,0.0,0.0015113316,-0.0064072288,0.0015113316,0.00012096763,0.01355632,0.007199831,-2.7120113e-05,0.0,0.0,0.0,0.0,0.0,0.0
2043528000,2043376000,-0.028303131,-0.042029344,0.04226198,-0.023126135,-0.024698043,-0.007659912,0.0,0.0,0.0,0.0,0.0,0.0,0.0,-0.024719238,0.0,0.0,0.0,0.0,0.0015113316,-0.0064072288,0.0015113316,0.00012096763,0.00018087635,-0.0018667759,-5.9604645e-08,0.0,0.0,0.0,0.0,0.0,0.0
2043536000,2043384000,-0.028303131,-0.042029344,0.04226198,-0.023126135,-0.024698043,-0.007659912,0.0,0.0,0.0,0.0,0.0,0.0,0.0,-0.024719238,0.0,0.0,0.0,0.0,0.0015113316,-0.0064072288,0.0015113316,0.00012096763,0.0025660815,0.0037861392,6.67572e-06,0.0,0.0,0.0,0.0,0.0,0.0
2043544000,2043392000,-0.028303131,-0.042029344,0.04226198,-0.023126135,-0.024698043,-0.007659912,0.0,0.0,0.0,0.0,0.0,0.0,0.0,-0.024719238,0.0,0.0,0.0,0.0,0.0015113316,-0.0064072288,0.0015113316,0.00012096763,0.0051574223,-0.006374655,3.9339066e-06,0.0,0.0,0.0,0.0,0.0,0.0
2043560000,2043408000,-0.028303131,-0.042029344,0.04226198,-0.023126135,-0.024698043,-0.007659912,0.0,0.0,0.0,0.0,0.0,0.0,0.0,0.036071777,0.0,0.0,0.0,0.0,0.0015113316,-0.0064072288,0.0015113316,0.00012096763,0.004893357,0.008494529,-1.758337e-05,0.0,0.0,0.0,0.0,0.0,0.0
2043568000,2043416000,-0.028303131,-0.042029344,0.04226198,-0.023126135,-0.024698043,-0.007659912,0.0,0.0,0.0,0.0,0.0,0.0,0.0,0.036071777,0.0,0.0,0.0,0.0,0.0014342368,-0.001780393,0.00032551214,0.0014342368,-0.005113671,-0.0027992139,-5.1140785e-05,0.0,0.0,0.0,0.0,0.0,0.0
2043576000,2043424000,-0.028303131,-0.042029344,0.04226198,-0.023126135,-0.024698043,-0.007659912,0.0,0.0,0.0,0.0,0.0,0.0,0.0,0.036071777,0.0,0.0,0.0,0.0,0.0014342368,-0.001780393,0.00032551214,0.0014342368,0.005065711,-0.0068535274,1.3113022e-06,0.0,0.0,0.0,0.0,0.0,0.0
2043584000,2043432000,-0.028303131,-0.042029344,0.04226198,-0.023126135,-0.024698043,-0.007659912,0.0,0.0,0.0,0.0,0.0,0.0,0.0,0.036071777,0.0,0.0,0.0,0.0,0.0014342368,-0.001780393,0.00032551214,0.0014342368,0.001178401,-0.0072882264,-1.5318394e-05,0.0,0.0,0.0,0.0,0.0,0.0
2043600000,2043448000,-0.028303131,-0.042029344,0.04226198,-0.023126135,-0.024698043,-0.007659912,0.0,0.0,0.0,0.0,0.0,0.0,0.0,0.036071777,0.0,0.0,0.0,0.0,0.0014342368,-0.001780393,0.00032551214,0.0014342368,0.01272939,0.0049922518,-1.013279e-05,0.0,0.0,0.0,0.0,0.0,0.0
2043608000,2043456000,-0.028303131,-0.042029344,0.04226198,-0.023126135,-0.024698043,-0.007659912,0.0,0.0,0.0,0.0,0.0,0.0,0.0,0.036071777,0.0,0.0,0.0,0.0,0.0014342368,-0.001780393,0.00032551214,0.0014342368,0.014950043,-0.0024235914,-1.4603138e-05,0.0,0.0,0.0,0.0,0.0,0.0
2043616000,2043464000,-0.028303131,-0.042029344,0.04226198,-0.023126135,-0.024698043,-0.007659912,0.0,0.0,0.0,0.0,0.0,0.0,0.0,0.036071777,0.0,0.0,0.0,0.0,0.0014342368,-0.001780393,0.00032551214,0.0014342368,0.00798513,-0.000106816806,2.104044e-05,0.0,0.0,0.0,0.0,0.0,0.0
2043624000,2043472000,-0.028303131,-0.042029344,0.04226198,-0.023126135,-0.024698043,-0.007659912,0.0,0.0,0.0,0.0,0.0,0.0,0.0,0.02053833,0.0,0.0,0.0,0.0,0.0014342368,-0.001780393,0.00032551214,0.0014342368,0.0014182883,-0.00016854767,8.46386e-06,0.0,0.0,0.0,0.0,0.0,0.0
2043640000,2043488000,-0.028303131,-0.042029344,0.04226198,-0.023126135,-0.024698043,-0.007659912,0.0,0.0,0.0,0.0,0.0,0.0,0.0,0.02053833,0.0,0.0,0.0,0.0,0.0015438758,-0.00023547211,0.0015438758,-0.00046670437,0.011291766,0.000435927,1.2755394e-05,0.0,0.0,0.0,0.0,0.0,0.0
2043648000,2043496000,-0.028303131,-0.042029344,0.04226198,-0.023126135,-0.024698043,-0.007659912,0.0,0.0,0.0,0.0,0.0,0.0,0.0,0.02053833,0.0,0.0,0.0,0.0,0.0015438758,-0.00023547211,0.0015438758,-0.00046670437,0.00044786278,0.0022463265,-3.5762787e-07,0.0,0.0,0.0,0.0,0.0,0.0
2043656000,2043504000,0.018656652,-0.026027836,-0.032373305,-0.013451532,-0.02691156,0.00076293945,0.0,0.0,0.0,0.0,0.0,0.0,0.0,0.02053833,0.0,0.0,0.0,0.0,0.0015438758,-0.00023547211,0.0015438758,-0.00046670437,0.009016108,-0.010810208,-3.7312508e-05,0.0,0.0,0.0,0.0,0.0,0.0
2043664000,2043512000,0.018656652,-0.026027836,-0.032373305,-0.013451532,-0.02691156,0.00076293945,0.0,0.0,0.0,0.0,0.0,0.0,0.0,0.02053833,0.0,0.0,0.0,0.0,0.0015438758,-0.00023547211,0.0015438758,-0.00046670437,-0.002531258,-0.0033366582,-2.5212765e-05,0.0,0.0,0.0,0.0,0.0,0.0
2043680000,2043528000,0.018656652,-0.026027836,-0.032373305,-0.013451532,-0.02691156,0.00076293945,0.0,0.0,0.0,0.0,0.0,0.0,0.0,0.02053833,0.0,0.0,0.0,0.0,0.0015438758,-0.00023547211,0.0015438758,-0.00046670437,-0.0008614529,0.011675762,-7.659197e-05,0.0,0.0,0.0,0.0,0.0,0.0
2043688000,2043536000,0.018656652,-0.026027836,-0.032373305,-0.013451532,-0.02691156,0.00076293945,0.0,0.0,0.0,0.0,0.0,0.0,0.0,-0.04397583,0.0,0.0,0.0,0.0,0.0015438758,-0.00023547211,0.0015438758,-0.00046670437,-0.0038107475,0.001958934,-3.504753e-05,0.0,0.0,0.0,0.0,0.0,0.0
2043696000,2043544000,0.018656652,-0.026027836,-0.032373305,-0.013451532,-0.02691156,0.00076293945,0.0,0.0,0.0,0.0,0.0,0.0,0.0,-0.04397583,0.0,0.0,0.0,0.0,0.0015438758,-0.00023547211,0.0015438758,-0.00046670437,-0.0052233627,-0.004537326,-5.7816505e-05,0.0,0.0,0.0,0.0,0.0,0.0
2043704000,2043552000,0.018656652,-0.026027836,-0.032373305,-0.013451532,-0.02691156,0.00076293945,0.0,0.0,0.0,0.0,0.0,0.0,0.0,-0.04397583,0.0,0.0,0.0,0.0,-0.0003111437,-0.0004047241,-0.0003111437,-0.0012234151,0.00542783,0.0100650685,-3.1113625e-05,0.0,0.0,0.0,0.0,0.0,0.0
2043720000,2043568000,0.018656652,-0.026027836,-0.032373305,-0.013451532,-0.02691156,0.00076293945,0.0,0.0,0.0,0.0,0.0,0.0,0.0,-0.04397583,0.0,0.0,0.0,0.0,-0.0003111437,-0.0004047241,-0.0003111437,-0.0012234151,0.012359412,-0.0026498532,1.9073486e-06,0.0,0.0,0.0,0.0,0.0,0.0
2043728000,2043576000,0.018656652,-0.026027836,-0.032373305,-0.013451532,-0.02691156,0.00076293945,0.0,0.0,0.0,0.0,0.0,0.0,0.0,-0.04397583,0.0,0.0,0.0,0.0,-0.0003111437,-0.0004047241,-0.0003111437,-0.0012234151,0.006617248,-0.006376979,3.695488e-06,0.0,0.0,0.0,0.0,0.0,0.0
2043736000,2043584000,0.018656652,-0.026027836,-0.032373305,-0.013451532,-0.02691156,0.00076293945,0.0,0.0,0.0,0.0,0.0,0.0,0.0,-0.04397583,0.0,0.0,0.0,0.0,-0.0003111437,-0.0004047241,-0.0003111437,-0.0012234151,0.00440999,-0.0022873094,1.7166138e-05,0.0,0.0,0.0,0.0,0.0,0.0
2043744000,2043592000,0.018656652,-0.026027836,-0.032373305,-0.013451532,-0.02691156,0.00076293945,0.0,0.0,0.0,0.0,0.0,0.0,0.0,0.007659912,0.0,0.0,0.0,0.0,-0.0003111437,-0.0004047241,-0.0003111437,-0.0012234151,0.007051155,-0.010688781,-3.20673e-05,0.0,0.0,0.0,0.0,0.0,0.0
2043760000,2043608000,0.018656652,-0.026027836,-0.032373305,-0.013451532,-0.02691156,0.00076293945,0.0,0.0,0.0,0.0,0.0,0.0,0.0,0.007659912,0.0,0.0,0.0,0.0,-0.0003111437,-0.0004047241,-0.0003111437,-0.0012234151,0.0013435599,-0.0050853197,-3.2186508e-06,0.0,0.0,0.0,0.0,0.0,0.0
2043768000,2043616000,0.018656652,-0.026027836,-0.032373305,-0.013451532,-0.02691156,0.00076293945,0.0,0.0,0.0,0.0,0.0,0.0,0.0,0.007659912,0.0,0.0,0.0,0.0,-0.0003111437,-0.0004047241,-0.0003111437,-0.0012234151,0.00097004604,-0.002005025,4.7683716e-06,0.0,0.0,0.0,0.0,0.0,0.0
2043776000,2043624000,0.018656652,-0.026027836,-0.032373305,-0.013451532,-0.02691156,0.00076293945,0.0,0.0,0.0,0.0,0.0,0.0,0.0,0.007659912,0.0,0.0,0.0,0.0,0.0018519387,0.0004143503,0.0018519387,0.0013795197,0.0028209495,-0.0035846059,1.013279e-05,0.0,0.0,0.0,0.0,0.0,0.0
2043784000,2043632000,0.018656652,-0.026027836,-0.032373305,-0.013451532,-0.02691156,0.00076293945,0.0,0.0,0.0,0.0,0.0,0.0,0.0,0.007659912,0.0,0.0,0.0,0.0,0.0018519387,0.0004143503,0.0018519387,0.0013795197,0.008299792,-0.004274352,1.40070915e-05,0.0,0.0,0.0,0.0,0.0,0.0
2043800000,2043648000,0.018656652,-0.026027836,-0.032373305,-0.013451532,-0.02691156,0.00076293945,0.0,0.0,0.0,0.0,0.0,0.0,0.0,0.007659912,0.0,0.0,0.0,0.0,0.0018519387,0.0004143503,0.0018519387,0.0013795197,0.0054080305,-0.0008528463,2.1576881e-05,0.0,0.0,0.0,0.0,0.0,0.0
2043808000,2043656000,0.018656652,-0.026027836,-0.032373305,-0.013451532,-0.02691156,0.00076293945,0.0,0.0,0.0,0.0,0.0,0.0,0.0,0.007659912,0.0,0.0,0.0,0.0,0.0018519387,0.0004143503,0.0018519387,0.0013795197,0.00062081404,-0.0022177473,2.861023e-06,0.0,0.0,0.0,0.0,0.0,0.0
2043816000,2043664000,0.018656652,-0.026027836,-0.032373305,-0.013451532,-0.02691156,0.00076293945,0.0,0.0,0.0,0.0,0.0,0.0,0.0,-0.012359619,0.0,0.0,0.0,0.0,0.0018519387,0.0004143503,0.0018519387,0.0013795197,-0.012512598,-0.005467947,-0.00017338991,0.0,0.0,0.0,0.0,0.0,0.0
2043824000,2043672000,0.018656652,-0.026027836,-0.032373305,-0.013451532,-0.02691156,0.00076293945,0.0,0.0,0.0,0.0,0.0,0.0,0.0,-0.012359619,0.0,0.0,0.0,0.0,0.0018519387,0.0004143503,0.0018519387,0.0013795197,0.0037867185,-0.015454679,-8.7320805e-05,0.0,0.0,0.0,0.0,0.0,0.0
2043840000,2043688000,0.018656652,-0.026027836,-0.032373305,-0.013451532,-0.02691156,0.00076293945,0.0,0.0,0.0,0.0,0.0,0.0,0.0,-0.012359619,0.0,0.0,0.0,0.0,0.0023781285,-0.0021412282,0.0023781285,0.0017789006,-0.0035752738,0.00621055,-5.4359436e-05,0.0,0.0,0.0,0.0,0.0,0.0
2043848000,2043696000,0.018656652,-0.026027836,-0.032373305,-0.013451532,-0.02691156,0.00076293945,0.0,0.0,0.0,0.0,0.0,0.0,0.0,-0.012359619,0.0,0.0,0.0,0.0,0.0023781285,-0.0021412282,0.0023781285,0.0017789006,0.013064371,-0.0054280004,-8.46386e-06,0.0,0.0,0.0,0.0,0.0,0.0
2043856000,2043704000,0.018656652,-0.026027836,-0.032373305,-0.013451532,-0.02691156,0.00076293945,0.0,0.0,0.0,0.0,0.0,0.0,0.0,-0.012359619,0.0,0.0,0.0,0.0,0.0023781285,-0.0021412282,0.0023781285,0.0017789006,0.005760189,-0.006340602,7.3313713e-06,0.0,0.0,0.0,0.0,0.0,0.0
2043864000,2043712000,0.018656652,-0.026027836,-0.032373305,-0.013451532,-0.02691156,0.00076293945,0.0,0.0,0.0,0.0,0.0,0.0,0.0,-0.012359619,0.0,0.0,0.0,0.0,0.0023781285,-0.0021412282,0.0023781285,0.0017789006,-0.0028889822,-0.007923205,-4.7445297e-05,0.0,0.0,0.0,0.0,0.0,0.0
2043880000,2043728000,0.018656652,-0.026027836,-0.032373305,-0.013451532,-0.02691156,0.00076293945,0.0,0.0,0.0,0.0,0.0,0.0,0.0,-0.012359619,0.0,0.0,0.0,0.0,0.0023781285,-0.0021412282,0.0023781285,0.0017789006,0.0021329075,-0.0006082709,1.2099743e-05,0.0,0.0,0.0,0.0,0.0,0.0
2043888000,2043736000,0.018656652,-0.026027836,-0.032373305,-0.013451532,-0.02691156,0.00076293945,0.0,0.0,0.0,0.0,0.0,0.0,0.0,0.047790527,0.0,0.0,0.0,0.0,0.0023781285,-0.0021412282,0.0023781285,0.0017789006,0.004763635,-0.00038938437,2.002716e-05,0.0,0.0,0.0,0.0,0.0,0.0
2043896000,2043744000,0.018656652,-0.026027836,-0.032373305,-0.013451532,-0.02691156,0.00076293945,0.0,0.0,0.0,0.0,0.0,0.0,0.0,0.047790527,0.0,0.0,0.0,0.0,0.0023781285,-0.0021412282,0.0023781285,0.0017789006,-0.0016779834,-0.00053322164,-1.1980534e-05,0.0,0.0,0.0,0.0,0.0,0.0
2043904000,2043752000,0.018656652,-0.026027836,-0.032373305,-0.013451532,-0.02691156,0.00076293945,0.0,0.0,0.0,0.0,0.0,0.0,0.0,0.047790527,0.0,0.0,0.0,0.0,0.0023781285,-0.0021412282,0.0023781285,0.0017789006,0.001848551,-0.0005342995,1.0430813e-05,0.0,0.0,0.0,0.0,0.0,0.0
2043920000,2043768000,0.018656652,-0.026027836,-0.032373305,-0.013451532,-0.02691156,0.00076293945,0.0,0.0,0.0,0.0,0.0,0.0,0.0,0.047790527,0.0,0.0,0.0,0.0,-0.0007503629,-0.0010459421,-0.0013218783,-0.0007503629,0.005337322,0.0012762795,1.7940998e-05,0.0,0.0,0.0,0.0,0.0,0.0
2043928000,2043776000,0.018656652,-0.026027836,-0.032373305,-0.013451532,-0.02691156,0.00076293945,0.0,0.0,0.0,0.0,0.0,0.0,0.0,0.047790527,0.0,0.0,0.0,0.0,-0.0007503629,-0.0010459421,-0.0013218783,-0.0007503629,0.002009394,0.0024010346,6.0796738e-06,0.0,0.0,0.0,0.0,0.0,0.0
2043936000,2043784000,0.018656652,-0.026027836,-0.032373305,-0.013451532,-0.02691156,0.00076293945,0.0,0.0,0.0,0.0,0.0,0.0,0.0,0.047790527,0.0,0.0,0.0,0.0,-0.0007503629,-0.0010459421,-0.0013218783,-0.0007503629,0.00367949,-0.006823887,-2.026558e-06,0.0,0.0,0.0,0.0,0.0,0.0
2043944000,2043792000,0.018656652,-0.026027836,-0.032373305,-0.013451532,-0.02691156,0.00076293945,0.0,0.0,0.0,0.0,0.0,0.0,0.0,0.047790527,0.0,0.0,0.0,0.0,-0.0007503629,-0.0010459421,-0.0013218783,-0.0007503629,0.0052535827,-0.0007756785,1.9133091e-05,0.0,0.0,0.0,0.0,0.0,0.0
2043960000,2043808000,0.018656652,-0.026027836,-0.032373305,-0.013451532,-0.02691156,0.00076293945,0.0,0.0,0.0,0.0,0.0,0.0,0.0,0.050872803,0.0,0.0,0.0,0.0,-0.0007503629,-0.0010459421,-0.0013218783,-0.0007503629,0.013722131,0.005188326,-2.6106834e-05,0.0,0.0,0.0,0.0,0.0,0.0
2043968000,2043816000,0.018656652,-0.026027836,-0.032373305,-0.013451532,-0.02691156,0.00076293945,0.0,0.0,0.0,0.0,0.0,0.0,0.0,0.050872803,0.0,0.0,0.0,0.0,-0.0007503629,-0.0010459421,-0.0013218783,-0.0007503629,0.008429123,0.0050943354,8.940697e-07,0.0,0.0,0.0,0.0,0.0,0.0
2043976000,2043824000,0.018656652,-0.026027836,-0.032373305,-0.013451532,-0.02691156,0.00076293945,0.0,0.0,0.0,0.0,0.0,0.0,0.0,0.050872803,0.0,0.0,0.0,0.0,-0.0007503629,-0.0010459421,-0.0013218783,-0.0007503629,0.0005536489,-0.0062900055,-1.2099743e-05,0.0,0.0,0.0,0.0,0.0,0.0
2043984000,2043832000,0.018656652,-0.026027836,-0.032373305,-0.013451532,-0.02691156,0.00076293945,0.0,0.0,0.0,0.0,0.0,0.0,0.0,0.050872803,0.0,0.0,0.0,0.0,0.0019261837,-0.0015584738,0.0019261837,0.00053459406,-0.001695463,-0.0035810252,-1.6391277e-05,0.0,0.0,0.0,0.0,0.0,0.0
2044000000,2043848000,0.018656652,-0.026027836,-0.032373305,-0.013451532,-0.02691156,0.00076293945,0.0,0.0,0.0,0.0,0.0,0.0,0.0,0.050872803,0.0,0.0,0.0,0.0,0.0019261837,-0.0015584738,0.0019261837,0.00053459406,-0.008154064,-0.00076876685,-8.6307526e-05,0.0,0.0,0.0,0.0,0.0,0.0
2044008000,2043856000,0.018656652,-0.026027836,-0.032373305,-0.013451532,-0.02691156,0.00076293945,0.0,0.0,0.0,0.0,0.0,0.0,0.0,-0.0024719238,0.0,0.0,0.0,0.0,0.0019261837,-0.0015584738,0.0019261837,0.00053459406,0.0033085153,0.006599771,-9.119511e-06,0.0,0.0,0.0,0.0,0.0,0.0
2044016000,2043864000,0.018656652,-0.026027836,-0.032373305,-0.013451532,-0.02691156,0.00076293945,0.0,0.0,0.0,0.0,0.0,0.0,0.0,-0.0024719238,0.0,0.0,0.0,0.0,0.0019261837,-0.0015584738,0.0019261837,0.00053459406,0.0047429614,0.012389911,-6.2823296e-05,0.0,0.0,0.0,0.0,0.0,0.0
2044024000,2043872000,0.018656652,-0.026027836,-0.032373305,-0.013451532,-0.02691156,0.00076293945,0.0,0.0,0.0,0.0,0.0,0.0,0.0,-0.0024719238,0.0,0.0,0.0,0.0,0.0019261837,-0.0015584738,0.0019261837,0.00053459406,-0.0019224193,-0.001702007,-1.513958e-05,0.0,0.0,0.0,0.0,0.0,0.0
2044040000,2043888000,0.018656652,-0.026027836,-0.032373305,-0.013451532,-0.02691156,0.00076293945,0.0,0.0,0.0,0.0,0.0,0.0,0.0,-0.0024719238,0.0,0.0,0.0,0.0,0.0019261837,-0.0015584738,0.0019261837,0.00053459406,-0.006581183,-0.0037682499,-7.015467e-05,0.0,0.0,0.0,0.0,0.0,0.0
2044048000,2043896000,0.018656652,-0.026027836,-0.032373305,-0.013451532,-0.02691156,0.00076293945,0.0,0.0,0.0,0.0,0.0,0.0,0.0,-0.0024719238,0.0,0.0,0.0,0.0,0.0019261837,-0.0015584738,0.0019261837,0.00053459406,-0.0031772358,-0.0116443755,-8.59499e-05,0.0,0.0,0.0,0.0,0.0,0.0
2044056000,2043904000,0.03297186,-0.056939594,-0.023262177,-0.013296645,-0.02641999,-0.0076904297,0.0,0.0,0.0,0.0,0.0,0.0,0.0,-0.0024719238,0.0,0.0,0.0,0.0,0.0015591942,-0.00020997005,0.0015591942,-0.0014621317,-0.0029937043,-0.008841961,-5.7816505e-05,0.0,0.0,0.0,0.0,0.0,0.0
2044064000,2043912000,0.03297186,-0.056939594,-0.023262177,-0.013296645,-0.02641999,-0.0076904297,0.0,0.0,0.0,0.0,0.0,0.0,0.0,-0.0024719238,0.0,0.0,0.0,0.0,0.0015591942,-0.00020997005,0.0015591942,-0.0014621317,-0.0022480176,0.0025788036,-2.2351742e-05,0.0,0.0,0.0,0.0,0.0,0.0
2044080000,2043928000,0.03297186,-0.056939594,-0.023262177,-0.013296645,-0.02641999,-0.0076904297,0.0,0.0,0.0,0.0,0.0,0.0,0.0,0.017608643,0.0,0.0,0.0,0.0,0.0015591942,-0.00020997005,0.0015591942,-0.0014621317,0.003041101,-0.00035773416,1.5974045e-05,0.0,0.0,0.0,0.0,0.0,0.0
2044088000,2043936000,0.03297186,-0.056939594,-0.023262177,-0.013296645,-0.02641999,-0.0076904297,0.0,0.0,0.0,0.0,0.0,0.0,0.0,0.017608643,0.0,0.0,0.0,0.0,0.0015591942,-0.00020997005,0.0015591942,-0.0014621317,-0.0028732899,-0.0067322524,-4.3332577e-05,0.0,0.0,0.0,0.0,0.0,0.0
2044096000,2043944000,0.03297186,-0.056939594,-0.023262177,-0.013296645,-0.02641999,-0.0076904297,0.0,0.0,0.0,0.0,0.0,0.0,0.0,0.017608643,0.0,0.0,0.0,0.0,0.0015591942,-0.00020997005,0.0015591942,-0.0014621317,0.010717359,-0.0041128993,8.940697e-06,0.0,0.0,0.0,0.0,0.0,0.0
2044104000,2043952000,0.03297186,-0.056939594,-0.023262177,-0.013296645,-0.02641999,-0.0076904297,0.0,0.0,0.0,0.0,0.0,0.0,0.0,0.017608643,0.0,0.0,0.0,0.0,0.0015591942,-0.00020997005,0.0015591942,-0.0014621317,-0.0023462484,-0.0041952175,-2.5689602e-05,0.0,0.0,0.0,0.0,0.0,0.0
2044120000,2043968000,0.03297186,-0.056939594,-0.023262177,-0.013296645,-0.02641999,-0.0076904297,0.0,0.0,0.0,0.0,0.0,0.0,0.0,0.017608643,0.0,0.0,0.0,0.0,0.0015591942,-0.00020997005,0.0015591942,-0.0014621317,-0.0015950105,0.005200783,-2.8014183e-05,0.0,0.0,0.0,0.0,0.0,0.0
2044128000,2043976000,0.03297186,-0.056939594,-0.023262177,-0.013296645,-0.02641999,-0.0076904297,0.0,0.0,0.0,0.0,0.0,0.0,0.0,0.017608643,0.0,0.0,0.0,0.0,0.001988683,-0.000644029,0.001988683,-4.211068e-05,0.00671325,0.011064671,-4.3272972e-05,0.0,0.0,0.0,0.0,0.0,0.0
2044136000,2043984000,0.03297186,-0.056939594,-0.023262177,-0.013296645,-0.02641999,-0.0076904297,0.0,0.0,0.0,0.0,0.0,0.0,0.0,0.017608643,0.0,0.0,0.0,0.0,0.001988683,-0.000644029,0.001988683,-4.211068e-05,0.007785333,0.0007794157,2.014637e-05,0.0,0.0,0.0,0.0,0.0,0.0
2044144000,2043992000,0.03297186,-0.056939594,-0.023262177,-0.013296645,-0.02641999,-0.0076904297,0.0,0.0,0.0,0.0,0.0,0.0,0.0,0.017608643,0.0,0.0,0.0,0.0,0.001988683,-0.000644029,0.001988683,-4.211068e-05,0.005005187,0.0026788013,1.6152859e-05,0.0,0.0,0.0,0.0,0.0,0.0
2044160000,2044008000,0.03297186,-0.056939594,-0.023262177,-0.013296645,-0.02641999,-0.0076904297,0.0,0.0,0.0,0.0,0.0,0.0,0.0,0.04458618,0.0,0.0,0.0,0.0,0.001988683,-0.000644029,0.001988683,-4.211068e-05,-0.0008323495,0.004089559,-1.5079975e-05,0.0,0.0,0.0,0.0,0.0,0.0
2044168000,2044016000,0.03297186,-0.056939594,-0.023262177,-0.013296645,-0.02641999,-0.0076904297,0.0,0.0,0.0,0.0,0.0,0.0,0.0,0.04458618,0.0,0.0,0.0,0.0,0.001988683,-0.000644029,0.001988683,-4.211068e-05,-0.0021573477,0.0027540475,-2.0980835e-05,0.0,0.0,0.0,0.0,0.0,0.0
2044176000,2044024000,0.03297186,-0.056939594,-0.023262177,-0.013296645,-0.02641999,-0.0076904297,0.0,0.0,0.0,0.0,0.0,0.0,0.0,0.04458618,0.0,0.0,0.0,0.0,0.001988683,-0.000644029,0.001988683,-4.211068e-05,0.010943597,-0.0044445614,2.3841858e-06,0.0,0.0,0.0,0.0,0.0,0.0
2044184000,2044032000,0.03297186,-0.056939594,-0.023262177,-0.013296645,-0.02641999,-0.0076904297,0.0,0.0,0.0,0.0,0.0,0.0,0.0,0.04458618,0.0,0.0,0.0,0.0,0.001988683,-0.000644029,0.001988683,-4.211068e-05,0.005795976,0.0068583684,-6.1392784e-06,0.0,0.0,0.0,0.0,0.0,0.0
2044200000,2044048000,0.03297186,-0.056939594,-0.023262177,-0.013296645,-0.02641999,-0.0076904297,0.0,0.0,0.0,0.0,0.0,0.0,0.0,0.04458618,0.0,0.0,0.0,0.0,0.0019268803,3.22258e-05,0.0019268803,-0.00011909008,0.0076235924,-0.0042056176,1.4662743e-05,0.0,0.0,0.0,0.0,0.0,0.0
2044208000,2044056000,0.03297186,-0.056939594,-0.023262177,-0.013296645,-0.02641999,-0.0076904297,0.0,0.0,0.0,0.0,0.0,0.0,0.0,0.04458618,0.0,0.0,0.0,0.0,0.0019268803,3.22258e-05,0.0019268803,-0.00011909008,0.0017413255,0.0007136836,9.4771385e-06,0.0,0.0,0.0,0.0,0.0,0.0
2044216000,2044064000,0.03297186,-0.056939594,-0.023262177,-0.013296645,-0.02641999,-0.0076904297,0.0,0.0,0.0,0.0,0.0,0.0,0.0,0.04458618,0.0,0.0,0.0,0.0,0.0019268803,3.22258e-05,0.0019268803,-0.00011909008,-0.0046585277,-0.0023422728,-4.4107437e-05,0.0,0.0,0.0,0.0,0.0,0.0
2044224000,2044072000,0.03297186,-0.056939594,-0.023262177,-0.013296645,-0.02641999,-0.0076904297,0.0,0.0,0.0,0.0,0.0,0.0,0.0,-0.032348633,0.0,0.0,0.0,0.0,0.0019268803,3.22258e-05,0.0019268803,-0.00011909008,0.00059164036,-0.009217211,-3.7252903e-05,0.0,0.0,0.0,0.0,0.0,0.0
2044240000,2044088000,0.03297186,-0.056939594,-0.023262177,-0.013296645,-0.02641999,-0.0076904297,0.0,0.0,0.0,0.0,0.0,0.0,0.0,-0.032348633,0.0,0.0,0.0,0.0,0.0019268803,3.22258e-05,0.0019268803,-0.00011909008,0.0016203988,-0.007070527,-1.3411045e-05,0.0,0.0,0.0,0.0,0.0,0.0
2044248000,2044096000,0.03297186,-0.056939594,-0.023262177,-0.013296645,-0.02641999,-0.0076904297,0.0,0.0,0.0,0.0,0.0,0.0,0.0,-0.032348633,0.0,0.0,0.0,0.0,0.0019268803,3.22258e-05,0.0019268803,-0.00011909008,0.011593614,-0.0059106755,-3.993511e-06,0.0,0.0,0.0,0.0,0.0,0.0
2044256000,2044104000,0.03297186,-0.056939594,-0.023262177,-0.013296645,-0.02641999,-0.0076904297,0.0,0.0,0.0,0.0,0.0,0.0,0.0,-0.032348633,0.0,0.0,0.0,0.0,0.0019268803,3.22258e-05,0.0019268803,-0.00011909008,0.0012381263,-0.0018679325,6.4969063e-06,0.0,0.0,0.0,0.0,0.0,0.0
2044264000,2044112000,0.03297186,-0.056939594,-0.023262177,-0.013296645,-0.02641999,-0.0076904297,0.0,0.0,0.0,0.0,0.0,0.0,0.0,-0.032348633,0.0,0.0,0.0,0.0,0.0008696584,0.0008696584,-0.0007338524,-0.002322048,-5.328562e-06,0.009194074,-4.5478344e-05,0.0,0.0,0.0,0.0,0.0,0.0
2044280000,2044128000,0.03297186,-0.056939594,-0.023262177,-0.013296645,-0.02641999,-0.0076904297,0.0,0.0,0.0,0.0,0.0,0.0,0.0,-0.032348633,0.0,0.0,0.0,0.0,0.0008696584,0.0008696584,-0.0007338524,-0.002322048,0.0017751926,-0.003278825,6.2584877e-06,0.0,0.0,0.0,0.0,0.0,0.0
2044288000,2044136000,0.03297186,-0.056939594,-0.023262177,-0.013296645,-0.02641999,-0.0076904297,0.0,0.0,0.0,0.0,0.0,0.0,0.0,-0.032348633,0.0,0.0,0.0,0.0,0.0008696584,0.0008696584,-0.0007338524,-0.002322048,-0.00086928345,-0.007870141,-3.325939e-05,0.0,0.0,0.0,0.0,0.0,0.0
2044296000,2044144000,0.03297186,-0.056939594,-0.023262177,-0.013296645,-0.02641999,-0.0076904297,0.0,0.0,0.0,0.0,0.0,0.0,0.0,-0.10336304,0.0,0.0,0.0,0.0,0.0008696584,0.0008696584,-0.0007338524,-0.002322048,0.009101,-0.00061558053,2.1874905e-05,0.0,0.0,0.0,0.0,0.0,0.0
2044304000,2044152000,0.03297186,-0.056939594,-0.023262177,-0.013296645,-0.02641999,-0.0076904297,0.0,0.0,0.0,0.0,0.0,0.0,0.0,-0.10336304,0.0,0.0,0.0,0.0,0.0008696584,0.0008696584,-0.0007338524,-0.002322048,0.0033727256,-0.0053552706,7.2717667e-06,0.0,0.0,0.0,0.0,0.0,0.0
2044320000,2044168000,0.03297186,-0.056939594,-0.023262177,-0.013296645,-0.02641999,-0.0076904297,0.0,0.0,0.0,0.0,0.0,0.0,0.0,-0.10336304,0.0,0.0,0.0,0.0,0.0008696584,0.0008696584,-0.0007338524,-0.002322048,0.0005503362,-0.0045877006,-3.6358833e-06,0.0,0.0,0.0,0.0,0.0,0.0
2044328000,2044176000,0.03297186,-0.056939594,-0.023262177,-0.013296645,-0.02641999,-0.0076904297,0.0,0.0,0.0,0.0,0.0,0.0,0.0,-0.10336304,0.0,0.0,0.0,0.0,0.0008696584,0.0008696584,-0.0007338524,-0.002322048,0.0030167187,-0.0043282416,9.357929e-06,0.0,0.0,0.0,0.0,0.0,0.0
2044336000,2044184000,0.03297186,-0.056939594,-0.023262177,-0.013296645,-0.02641999,-0.0076904297,0.0,0.0,0.0,0.0,0.0,0.0,0.0,-0.10336304,0.0,0.0,0.0,0.0,0.00082420185,-0.0011242218,0.00082420185,-0.0010092258,0.000634796,0.0023839644,3.5762787e-07,0.0,0.0,0.0,0.0,0.0,0.0
2044344000,2044192000,0.03297186,-0.056939594,-0.023262177,-0.013296645,-0.02641999,-0.0076904297,0.0,0.0,0.0,0.0,0.0,0.0,0.0,-0.10336304,0.0,0.0,0.0,0.0,0.00082420185,-0.0011242218,0.00082420185,-0.0010092258,0.004646883,-0.013900034,-6.866455e-05,0.0,0.0,0.0,0.0,0.0,0.0
2044360000,2044208000,0.03297186,-0.056939594,-0.023262177,-0.013296645,-0.02641999,-0.0076904297,0.0,0.0,0.0,0.0,0.0,0.0,0.0,-0.10336304,0.0,0.0,0.0,0.0,0.00082420185,-0.0011242218,0.00082420185,-0.0010092258,-0.0008823252,-0.0016110567,-6.9737434e-06,0.0,0.0,0.0,0.0,0.0,0.0
2044368000,2044216000,0.03297186,-0.056939594,-0.023262177,-0.013296645,-0.02641999,-0.0076904297,0.0,0.0,0.0,0.0,0.0,0.0,0.0,-0.022949219,0.0,0.0,0.0,0.0,0.00082420185,-0.0011242218,0.00082420185,-0.0010092258,0.0051590735,-0.0043543056,1.4603138e-05,0.0,0.0,0.0,0.0,0.0,0.0
2044376000,2044224000,0.03297186,-0.056939594,-0.023262177,-0.013296645,-0.02641999,-0.0076904297,0.0,0.0,0.0,0.0,0.0,0.0,0.0,-0.022949219,0.0,0.0,0.0,0.0,0.00082420185,-0.0011242218,0.00082420185,-0.0010092258,0.0063807443,-0.009862536,-2.0980835e-05,0.0,0.0,0.0,0.0,0.0,0.0
2044384000,2044232000,0.03297186,-0.056939594,-0.023262177,-0.013296645,-0.02641999,-0.0076904297,0.0,0.0,0.0,0.0,0.0,0.0,0.0,-0.022949219,0.0,0.0,0.0,0.0,0.00082420185,-0.0011242218,0.00082420185,-0.0010092258,2.1926593e-05,-0.006491265,-1.8000603e-05,0.0,0.0,0.0,0.0,0.0,0.0
2044400000,2044248000,0.03297186,-0.056939594,-0.023262177,-0.013296645,-0.02641999,-0.0076904297,0.0,0.0,0.0,0.0,0.0,0.0,0.0,-0.022949219,0.0,0.0,0.0,0.0,0.00033676997,-0.0011218239,0.00033676997,-0.0014330447,0.01620002,-0.0032886171,-2.360344e-05,0.0,0.0,0.0,0.0,0.0,0.0
2044408000,2044256000,0.03297186,-0.056939594,-0.023262177,-0.013296645,-0.02641999,-0.0076904297,0.0,0.0,0.0,0.0,0.0,0.0,0.0,-0.022949219,0.0,0.0,0.0,0.0,0.00033676997,-0.0011218239,0.00033676997,-0.0014330447,0.004798063,0.00057905854,2.1159649e-05,0.0,0.0,0.0,0.0,0.0,0.0
2044416000,2044264000,0.03297186,-0.056939594,-0.023262177,-0.013296645,-0.02641999,-0.0076904297,0.0,0.0,0.0,0.0,0.0,0.0,0.0,-0.022949219,0.0,0.0,0.0,0.0,0.00033676997,-0.0011218239,0.00033676997,-0.0014330447,-0.0032140887,-0.006522372,-4.607439e-05,0.0,0.0,0.0,0.0,0.0,0.0
2044424000,2044272000,0.03297186,-0.056939594,-0.023262177,-0.013296645,-0.02641999,-0.0076904297,0.0,0.0,0.0,0.0,0.0,0.0,0.0,-0.022949219,0.0,0.0,0.0,0.0,0.00033676997,-0.0011218239,0.00033676997,-0.0014330447,-0.0035350658,-0.004434119,-3.8564205e-05,0.0,0.0,0.0,0.0,0.0,0.0
2044440000,2044288000,0.03297186,-0.056939594,-0.023262177,-0.013296645,-0.02641999,-0.0076904297,0.0,0.0,0.0,0.0,0.0,0.0,0.0,0.037353516,0.0,0.0,0.0,0.0,0.00033676997,-0.0011218239,0.00033676997,-0.0014330447,0.0106363315,-0.001608295,1.5318394e-05,0.0,0.0,0.0,0.0,0.0,0.0
2044448000,2044296000,0.03297186,-0.056939594,-0.023262177,-0.013296645,-0.02641999,-0.0076904297,0.0,0.0,0.0,0.0,0.0,0.0,0.0,0.037353516,0.0,0.0,0.0,0.0,0.00033676997,-0.0011218239,0.00033676997,-0.0014330447,0.001699592,-0.005819187,-4.4703484e-06,0.0,0.0,0.0,0.0,0.0,0.0
2044456000,2044304000,0.018292967,-0.048152354,0.012538357,-0.0048131975,-0.024111364,-0.024505615,0.0,0.0,0.0,0.0,0.0,0.0,0.0,0.037353516,0.0,0.0,0.0,0.0,0.00033676997,-0.0011218239,0.00033676997,-0.0014330447,0.006998917,-0.0010996177,2.0980835e-05,0.0,0.0,0.0,0.0,0.0,0.0
2044464000,2044312000,0.018292967,-0.048152354,0.012538357,-0.0048131975,-0.024111364,-0.024505615,0.0,0.0,0.0,0.0,0.0,0.0,0.0,0.037353516,0.0,0.0,0.0,0.0,0.00033676997,-0.0011218239,0.00033676997,-0.0014330447,0.005622125,0.0071943454,-6.6161156e-06,0.0,0.0,0.0,0.0,0.0,0.0
2044480000,2044328000,0.018292967,-0.048152354,0.012538357,-0.0048131975,-0.024111364,-0.024505615,0.0,0.0,0.0,0.0,0.0,0.0,0.0,0.037353516,0.0,0.0,0.0,0.0,0.00025698543,-0.0020137886,-8.210167e-05,0.00025698543,-0.0023600012,0.0010068959,-1.9311905e-05,0.0,0.0,0.0,0.0,0.0,0.0
2044488000,2044336000,0.018292967,-0.048152354,0.012538357,-0.0048131975,-0.024111364,-0.024505615,0.0,0.0,0.0,0.0,0.0,0.0,0.0,0.037353516,0.0,0.0,0.0,0.0,0.00025698543,-0.0020137886,-8.210167e-05,0.00025698543,-0.0005687056,0.00014441993,-4.053116e-06,0.0,0.0,0.0,0.0,0.0,0.0
2044496000,2044344000,0.018292967,-0.048152354,0.012538357,-0.0048131975,-0.024111364,-0.024505615,0.0,0.0,0.0,0.0,0.0,0.0,0.0,0.037353516,0.0,0.0,0.0,0.0,0.00025698543,-0.0020137886,-8.210167e-05,0.00025698543,0.006813961,-0.008017266,-6.735325e-06,0.0,0.0,0.0,0.0,0.0,0.0
2044504000,2044352000,0.018292967,-0.048152354,0.012538357,-0.0048131975,-0.024111364,-0.024505615,0.0,0.0,0.0,0.0,0.0,0.0,0.0,0.037353516,0.0,0.0,0.0,0.0,0.00025698543,-0.0020137886,-8.210167e-05,0.00025698543,0.0018683109,-0.0042186957,3.33786e-06,0.0,0.0,0.0,0.0,0.0,0.0
2044520000,2044368000,0.018292967,-0.048152354,0.012538357,-0.0048131975,-0.024111364,-0.024505615,0.0,0.0,0.0,0.0,0.0,0.0,0.0,-0.019866943,0.0,0.0,0.0,0.0,0.00025698543,-0.0020137886,-8.210167e-05,0.00025698543,0.0038958008,-0.0021982042,1.680851e-05,0.0,0.0,0.0,0.0,0.0,0.0
2044528000,2044376000,0.018292967,-0.048152354,0.012538357,-0.0048131975,-0.024111364,-0.024505615,0.0,0.0,0.0,0.0,0.0,0.0,0.0,-0.019866943,0.0,0.0,0.0,0.0,0.00025698543,-0.0020137886,-8.210167e-05,0.00025698543,0.011191618,-0.0019648082,1.0371208e-05,0.0,0.0,0.0,0.0,0.0,0.0
2044536000,2044384000,0.018292967,-0.048152354,0.012538357,-0.0048131975,-0.024111364,-0.024505615,0.0,0.0,0.0,0.0,0.0,0.0,0.0,-0.019866943,0.0,0.0,0.0,0.0,0.0060708113,0.0034258645,0.0060708113,-0.0024244785,0.0075210165,0.0015921739,1.8775463e-05,0.0,0.0,0.0,0.0,0.0,0.0
2044544000,2044392000,0.018292967,-0.048152354,0.012538357,-0.0048131975,-0.024111364,-0.024505615,0.0,0.0,0.0,0.0,0.0,0.0,0.0,-0.019866943,0.0,0.0,0.0,0.0,0.0060708113,0.0034258645,0.0060708113,-0.0024244785,0.00300547,-0.0020100935,1.3589859e-05,0.0,0.0,0.0,0.0,0.0,0.0
2044560000,2044408000,0.018292967,-0.048152354,0.012538357,-0.0048131975,-0.024111364,-0.024505615,0.0,0.0,0.0,0.0,0.0,0.0,0.0,-0.019866943,0.0,0.0,0.0,0.0,0.0060708113,0.0034258645,0.0060708113,-0.0024244785,0.007612176,0.0013490737,1.9967556e-05,0.0,0.0,0.0,0.0,0.0,0.0
2044568000,2044416000,0.018292967,-0.048152354,0.012538357,-0.0048131975,-0.024111364,-0.024505615,0.0,0.0,0.0,0.0,0.0,0.0,0.0,-0.019866943,0.0,0.0,0.0,0.0,0.0060708113,0.0034258645,0.0060708113,-0.0024244785,0.0016625603,-0.000738387,9.4771385e-06,0.0,0.0,0.0,0.0,0.0,0.0
2044576000,2044424000,0.018292967,-0.048152354,0.012538357,-0.0048131975,-0.024111364,-0.024505615,0.0,0.0,0.0,0.0,0.0,0.0,0.0,-0.06274414,0.0,0.0,0.0,0.0,0.0060708113,0.0034258645,0.0060708113,-0.0024244785,0.004631995,-0.0005634458,2.002716e-05,0.0,0.0,0.0,0.0,0.0,0.0
2044584000,2044432000,0.018292967,-0.048152354,0.012538357,-0.0048131975,-0.024111364,-0.024505615,0.0,0.0,0.0,0.0,0.0,0.0,0.0,-0.06274414,0.0,0.0,0.0,0.0,0.0060708113,0.0034258645,0.0060708113,-0.0024244785,0.0008746907,0.0036851084,-1.66893e-06,0.0,0.0,0.0,0.0,0.0,0.0
2044600000,2044448000,0.018292967,-0.048152354,0.012538357,-0.0048131975,-0.024111364,-0.024505615,0.0,0.0,0.0,0.0,0.0,0.0,0.0,-0.06274414,0.0,0.0,0.0,0.0,0.0060708113,0.0034258645,0.0060708113,-0.0024244785,1.1486933e-05,-0.013256338,-8.5651875e-05,0.0,0.0,0.0,0.0,0.0,0.0
2044608000,2044456000,0.018292967,-0.048152354,0.012538357,-0.0048131975,-0.024111364,-0.024505615,0.0,0.0,0.0,0.0,0.0,0.0,0.0,-0.06274414,0.0,0.0,0.0,0.0,0.0025561117,-0.0016588129,0.0025561117,-0.001301676,0.0015821918,0.008123038,-2.503395e-05,0.0,0.0,0.0,0.0,0.0,0.0
2044616000,2044464000,0.018292967,-0.048152354,0.012538357,-0.0048131975,-0.024111364,-0.024505615,0.0,0.0,0.0,0.0,0.0,0.0,0.0,-0.06274414,0.0,0.0,0.0,0.0,0.0025561117,-0.0016588129,0.0025561117,-0.001301676,0.008315598,0.0032050288,1.4305115e-05,0.0,0.0,0.0,0.0,0.0,0.0
2044624000,2044472000,0.018292967,-0.048152354,0.012538357,-0.0048131975,-0.024111364,-0.024505615,0.0,0.0,0.0,0.0,0.0,0.0,0.0,-0.06274414,0.0,0.0,0.0,0.0,0.0025561117,-0.0016588129,0.0025561117,-0.001301676,-0.0045864424,0.0049040206,-5.364418e-05,0.0,0.0,0.0,0.0,0.0,0.0
2044640000,2044488000,0.018292967,-0.048152354,0.012538357,-0.0048131975,-0.024111364,-0.024505615,0.0,0.0,0.0,0.0,0.0,0.0,0.0,-0.06729126,0.0,0.0,0.0,0.0,0.0025561117,-0.0016588129,0.0025561117,-0.001301676,0.0010444014,-0.0012825867,5.4836273e-06,0.0,0.0,0.0,0.0,0.0,0.0
2044648000,2044496000,0.018292967,-0.048152354,0.012538357,-0.0048131975,-0.024111364,-0.024505615,0.0,0.0,0.0,0.0,0.0,0.0,0.0,-0.06729126,0.0,0.0,0.0,0.0,0.0025561117,-0.0016588129,0.0025561117,-0.001301676,0.011333009,0.0066318326,-1.4722347e-05,0.0,0.0,0.0,0.0,0.0,0.0
2044656000,2044504000,0.018292967,-0.048152354,0.012538357,-0.0048131975,-0.024111364,-0.024505615,0.0,0.0,0.0,0.0,0.0,0.0,0.0,-0.06729126,0.0,0.0,0.0,0.0,0.0025561117,-0.0016588129,0.0025561117,-0.001301676,0.004059513,0.0020516166,1.5258789e-05,0.0,0.0,0.0,0.0,0.0,0.0
2044664000,2044512000,0.018292967,-0.048152354,0.012538357,-0.0048131975,-0.024111364,-0.024505615,0.0,0.0,0.0,0.0,0.0,0.0,0.0,-0.06729126,0.0,0.0,0.0,0.0,0.0025561117,-0.0016588129,0.0025561117,-0.001301676,-0.0048378464,0.0013449073,-4.3153763e-05,0.0,0.0,0.0,0.0,0.0,0.0
2044680000,2044528000,0.018292967,-0.048152354,0.012538357,-0.0048131975,-0.024111364,-0.024505615,0.0,0.0,0.0,0.0,0.0,0.0,0.0,-0.06729126,0.0,0.0,0.0,0.0,0.0014596544,0.0008561395,0.0014596544,-0.0011855066,0.004202809,-0.0032117837,1.2874603e-05,0.0,0.0,0.0,0.0,0.0,0.0
2044688000,2044536000,0.018292967,-0.048152354,0.012538357,-0.0048131975,-0.024111364,-0.024505615,0.0,0.0,0.0,0.0,0.0,0.0,0.0,-0.06729126,0.0,0.0,0.0,0.0,0.0014596544,0.0008561395,0.0014596544,-0.0011855066,0.0036719118,-0.0030601844,1.2040138e-05,0.0,0.0,0.0,0.0,0.0,0.0
2044696000,2044544000,0.018292967,-0.048152354,0.012538357,-0.0048131975,-0.024111364,-0.024505615,0.0,0.0,0.0,0.0,0.0,0.0,0.0,-0.06729126,0.0,0.0,0.0,0.0,0.0014596544,0.0008561395,0.0014596544,-0.0011855066,-0.004950044,0.0023272885,-4.684925e-05,0.0,0.0,0.0,0.0,0.0,0.0
2044704000,2044552000,0.018292967,-0.048152354,0.012538357,-0.0048131975,-0.024111364,-0.024505615,0.0,0.0,0.0,0.0,0.0,0.0,0.0,-0.1048584,0.0,0.0,0.0,0.0,0.0014596544,0.0008561395,0.0014596544,-0.0011855066,-0.01244656,0.000111217385,-0.00015974045,0.0,0.0,0.0,0.0,0.0,0.0
2044720000,2044568000,0.018292967,-0.048152354,0.012538357,-0.0048131975,-0.024111364,-0.024505615,0.0,0.0,0.0,0.0,0.0,0.0,0.0,-0.1048584,0.0,0.0,0.0,0.0,0.0014596544,0.0008561395,0.0014596544,-0.0011855066,0.0011683418,0.004737264,-3.516674e-06,0.0,0.0,0.0,0.0,0.0,0.0
2044728000,2044576000,0.018292967,-0.048152354,0.012538357,-0.0048131975,-0.024111364,-0.024505615,0.0,0.0,0.0,0.0,0.0,0.0,0.0,-0.1048584,0.0,0.0,0.0,0.0,0.0014596544,0.0008561395,0.0014596544,-0.0011855066,0.010222049,0.0006643969,1.4424324e-05,0.0,0.0,0.0,0.0,0.0,0.0
2044736000,2044584000,0.018292967,-0.048152354,0.012538357,-0.0048131975,-0.024111364,-0.024505615,0.0,0.0,0.0,0.0,0.0,0.0,0.0,-0.1048584,0.0,0.0,0.0,0.0,0.0014596544,0.0008561395,0.0014596544,-0.0011855066,0.0019773305,-0.0038098965,2.8014183e-06,0.0,0.0,0.0,0.0,0.0,0.0
2044744000,2044592000,0.018292967,-0.048152354,0.012538357,-0.0048131975,-0.024111364,-0.024505615,0.0,0.0,0.0,0.0,0.0,0.0,0.0,-0.1048584,0.0,0.0,0.0,0.0,0.0014596544,0.0008561395,0.0014596544,-0.0011855066,0.00016373675,-0.005038152,-1.2695789e-05,0.0,0.0,0.0,0.0,0.0,0.0
2044760000,2044608000,0.018292967,-0.048152354,0.012538357,-0.0048131975,-0.024111364,-0.024505615,0.0,0.0,0.0,0.0,0.0,0.0,0.0,-0.1048584,0.0,0.0,0.0,0.0,0.0010969304,0.0010969304,-0.00017921254,-0.001046598,-0.014676911,-0.00286961,-0.00020831823,0.0,0.0,0.0,0.0,0.0,0.0
2044768000,2044616000,0.018292967,-0.048152354,0.012538357,-0.0048131975,-0.024111364,-0.024505615,0.0,0.0,0.0,0.0,0.0,0.0,0.0,-0.1048584,0.0,0.0,0.0,0.0,0.0010969304,0.0010969304,-0.00017921254,-0.001046598,0.004432421,-0.009923525,-3.159046e-05,0.0,0.0,0.0,0.0,0.0,0.0
2044776000,2044624000,0.018292967,-0.048152354,0.012538357,-0.0048131975,-0.024111364,-0.024505615,0.0,0.0,0.0,0.0,0.0,0.0,0.0,-0.03375244,0.0,0.0,0.0,0.0,0.0010969304,0.0010969304,-0.00017921254,-0.001046598,0.007907876,-0.0039384845,1.2040138e-05,0.0,0.0,0.0,0.0,0.0,0.0
2044784000,2044632000,0.018292967,-0.048152354,0.012538357,-0.0048131975,-0.024111364,-0.024505615,0.0,0.0,0.0,0.0,0.0,0.0,0.0,-0.03375244,0.0,0.0,0.0,0.0,0.0010969304,0.0010969304,-0.00017921254,-0.001046598,0.014253244,-0.0063427347,-2.9742718e-05,0.0,0.0,0.0,0.0,0.0,0.0
2044800000,2044648000,0.018292967,-0.048152354,0.012538357,-0.0048131975,-0.024111364,-0.024505615,0.0,0.0,0.0,0.0,0.0,0.0,0.0,-0.03375244,0.0,0.0,0.0,0.0,0.0010969304,0.0010969304,-0.00017921254,-0.001046598,-0.0012218468,-0.003752604,-1.6629696e-05,0.0,0.0,0.0,0.0,0.0,0.0
2044808000,2044656000,0.018292967,-0.048152354,0.012538357,-0.0048131975,-0.024111364,-0.024505615,0.0,0.0,0.0,0.0,0.0,0.0,0.0,-0.03375244,0.0,0.0,0.0,0.0,0.0010969304,0.0010969304,-0.00017921254,-0.001046598,0.00087093515,-0.0030956406,-2.3841858e-07,0.0,0.0,0.0,0.0,0.0,0.0
2044816000,2044664000,0.018292967,-0.048152354,0.012538357,-0.0048131975,-0.024111364,-0.024505615,0.0,0.0,0.0,0.0,0.0,0.0,0.0,-0.03375244,0.0,0.0,0.0,0.0,0.0010969304,0.0010969304,-0.00017921254,-0.001046598,-0.0010010139,-0.0046562194,-1.8894672e-05,0.0,0.0,0.0,0.0,0.0,0.0
2044824000,2044672000,0.018292967,-0.048152354,0.012538357,-0.0048131975,-0.024111364,-0.024505615,0.0,0.0,0.0,0.0,0.0,0.0,0.0,-0.03375244,0.0,0.0,0.0,0.0,0.0011153817,-0.0011039127,0.00034810975,0.0011153817,0.0063589253,-0.0037464392,1.347065e-05,0.0,0.0,0.0,0.0,0.0,0.0
2044840000,2044688000,0.018292967,-0.048152354,0.012538357,-0.0048131975,-0.024111364,-0.024505615,0.0,0.0,0.0,0.0,0.0,0.0,0.0,-0.03375244,0.0,0.0,0.0,0.0,0.0011153817,-0.0011039127,0.00034810975,0.0011153817,0.0033946831,-0.0050139176,2.503395e-06,0.0,0.0,0.0,0.0,0.0,0.0
2044848000,2044696000,0.018292967,-0.048152354,0.012538357,-0.0048131975,-0.024111364,-0.024505615,0.0,0.0,0.0,0.0,0.0,0.0,0.0,-0.080963135,0.0,0.0,0.0,0.0,0.0011153817,-0.0011039127,0.00034810975,0.0011153817,0.008999229,-0.0150650535,-9.9897385e-05,0.0,0.0,0.0,0.0,0.0,0.0
2044856000,2044704000,0.0054572113,-0.046314925,-0.011138275,-0.012120085,-0.031849112,-0.013122559,0.0,0.0,0.0,0.0,0.0,0.0,0.0,-0.080963135,0.0,0.0,0.0,0.0,0.0011153817,-0.0011039127,0.00034810975,0.0011153817,0.012192899,0.00068175665,1.3113022e-06,0.0,0.0,0.0,0.0,0.0,0.0
2044864000,2044712000,0.0054572113,-0.046314925,-0.011138275,-0.012120085,-0.031849112,-0.013122559,0.0,0.0,0.0,0.0,0.0,0.0,0.0,-0.080963135,0.0,0.0,0.0,0.0,0.0011153817,-0.0011039127,0.00034810975,0.0011153817,-0.0034297053,-0.00021976235,-2.7239323e-05,0.0,0.0,0.0,0.0,0.0,0.0
2044880000,2044728000,0.0054572113,-0.046314925,-0.011138275,-0.012120085,-0.031849112,-0.013122559,0.0,0.0,0.0,0.0,0.0,0.0,0.0,-0.080963135,0.0,0.0,0.0,0.0,0.0011153817,-0.0011039127,0.00034810975,0.0011153817,0.00142847,-0.011292501,-5.9604645e-05,0.0,0.0,0.0,0.0,0.0,0.0
2044888000,2044736000,0.0054572113,-0.046314925,-0.011138275,-0.012120085,-0.031849112,-0.013122559,0.0,0.0,0.0,0.0,0.0,0.0,0.0,-0.080963135,0.0,0.0,0.0,0.0,0.0011153817,-0.0011039127,0.00034810975,0.0011153817,0.014096925,-0.009443697,-6.097555e-05,0.0,0.0,0.0,0.0,0.0,0.0
2044896000,2044744000,0.0054572113,-0.046314925,-0.011138275,-0.012120085,-0.031849112,-0.013122559,0.0,0.0,0.0,0.0,0.0,0.0,0.0,-0.080963135,0.0,0.0,0.0,0.0,-0.00054609776,-0.0012739757,-0.0011391602,-0.00054609776,0.0075829616,-0.0053209346,1.7881393e-06,0.0,0.0,0.0,0.0,0.0,0.0
2044904000,2044752000,0.0054572113,-0.046314925,-0.011138275,-0.012120085,-0.031849112,-0.013122559,0.0,0.0,0.0,0.0,0.0,0.0,0.0,-0.080963135,0.0,0.0,0.0,0.0,-0.00054609776,-0.0012739757,-0.0011391602,-0.00054609776,-0.001024636,-0.0008809395,-7.3313713e-06,0.0,0.0,0.0,0.0,0.0,0.0
2044920000,2044768000,0.0054572113,-0.046314925,-0.011138275,-0.012120085,-0.031849112,-0.013122559,0.0,0.0,0.0,0.0,0.0,0.0,0.0,0.0012512207,0.0,0.0,0.0,0.0,-0.00054609776,-0.0012739757,-0.0011391602,-0.00054609776,0.009266412,0.009125832,-2.6106834e-05,0.0,0.0,0.0,0.0,0.0,0.0
2044928000,2044776000,0.0054572113,-0.046314925,-0.011138275,-0.012120085,-0.031849112,-0.013122559,0.0,0.0,0.0,0.0,0.0,0.0,0.0,0.0012512207,0.0,0.0,0.0,0.0,-0.00054609776,-0.0012739757,-0.0011391602,-0.00054609776,0.003113984,0.010189861,-3.6418438e-05,0.0,0.0,0.0,0.0,0.0,0.0
2044936000,2044784000,0.0054572113,-0.046314925,-0.011138275,-0.012120085,-0.031849112,-0.013122559,0.0,0.0,0.0,0.0,0.0,0.0,0.0,0.0012512207,0.0,0.0,0.0,0.0,-0.00054609776,-0.0012739757,-0.0011391602,-0.00054609776,0.0010461742,0.006542282,-1.4901161e-05,0.0,0.0,0.0,0.0,0.0,0.0
2044944000,2044792000,0.0054572113,-0.046314925,-0.011138275,-0.012120085,-0.031849112,-0.013122559,0.0,0.0,0.0,0.0,0.0,0.0,0.0,0.0012512207,0.0,0.0,0.0,0.0,-0.00054609776,-0.0012739757,-0.0011391602,-0.00054609776,0.0022121589,-0.0034650287,4.4703484e-06,0.0,0.0,0.0,0.0,0.0,0.0
2044960000,2044808000,0.0054572113,-0.046314925,-0.011138275,-0.012120085,-0.031849112,-0.013122559,0.0,0.0,0.0,0.0,0.0,0.0,0.0,0.0012512207,0.0,0.0,0.0,0.0,-0.00054609776,-0.0012739757,-0.0011391602,-0.00054609776,0.008724227,-0.004139074,6.4969063e-06,0.0,0.0,0.0,0.0,0.0,0.0
2044968000,2044816000,0.0054572113,-0.046314925,-0.011138275,-0.012120085,-0.031849112,-0.013122559,0.0,0.0,0.0,0.0,0.0,0.0,0.0,0.0012512207,0.0,0.0,0.0,0.0,0.002829522,-0.0039055808,0.00028746203,0.002829522,0.0046528936,-0.0063712196,-4.23193e-06,0.0,0.0,0.0,0.0,0.0,0.0
2044976000,2044824000,0.0054572113,-0.046314925,-0.011138275,-0.012120085,-0.031849112,-0.013122559,0.0,0.0,0.0,0.0,0.0,0.0,0.0,0.0012512207,0.0,0.0,0.0,0.0,0.002829522,-0.0039055808,0.00028746203,0.002829522,0.0011591334,0.0070509072,-1.7046928e-05,0.0,0.0,0.0,0.0,0.0,0.0
2044984000,2044832000,0.0054572113,-0.046314925,-0.011138275,-0.012120085,-0.031849112,-0.013122559,0.0,0.0,0.0,0.0,0.0,0.0,0.0,0.0012512207,0.0,0.0,0.0,0.0,0.002829522,-0.0039055808,0.00028746203,0.002829522,-0.001672036,-0.0028837277,-1.6331673e-05,0.0,0.0,0.0,0.0,0.0,0.0
2045000000,2044848000,0.0054572113,-0.046314925,-0.011138275,-0.012120085,-0.031849112,-0.013122559,0.0,0.0,0.0,0.0,0.0,0.0,0.0,-0.07019043,0.0,0.0,0.0,0.0,0.002829522,-0.0039055808,0.00028746203,0.002829522,0.0090095205,-0.00083231437,1.3887882e-05,0.0,0.0,0.0,0.0,0.0,0.0
2045008000,2044856000,0.0054572113,-0.046314925,-0.011138275,-0.012120085,-0.031849112,-0.013122559,0.0,0.0,0.0,0.0,0.0,0.0,0.0,-0.07019043,0.0,0.0,0.0,0.0,0.002829522,-0.0039055808,0.00028746203,0.002829522,-0.0031014606,-0.001988485,-2.5391579e-05,0.0,0.0,0.0,0.0,0.0,0.0
2045016000,2044864000,0.0054572113,-0.046314925,-0.011138275,-0.012120085,-0.031849112,-0.013122559,0.0,0.0,0.0,0.0,0.0,0.0,0.0,-0.07019043,0.0,0.0,0.0,0.0,0.002829522,-0.0039055808,0.00028746203,0.002829522,0.0016844193,0.0021751868,6.198883e-06,0.0,0.0,0.0,0.0,0.0,0.0
2045024000,2044872000,0.0054572113,-0.046314925,-0.011138275,-0.012120085,-0.031849112,-0.013122559,0.0,0.0,0.0,0.0,0.0,0.0,0.0,-0.07019043,0.0,0.0,0.0,0.0,0.002829522,-0.0039055808,0.00028746203,0.002829522,0.009559443,0.010938015,-5.030632e-05,0.0,0.0,0.0,0.0,0.0,0.0
2045040000,2044888000,0.0054572113,-0.046314925,-0.011138275,-0.012120085,-0.031849112,-0.013122559,0.0,0.0,0.0,0.0,0.0,0.0,0.0,-0.07019043,0.0,0.0,0.0,0.0,0.0004515387,-0.0032950148,0.0004515387,-0.00023269653,-0.0004201294,0.003513686,-9.357929e-06,0.0,0.0,0.0,0.0,0.0,0.0
2045048000,2044896000,0.0054572113,-0.046314925,-0.011138275,-0.012120085,-0.031849112,-0.013122559,0.0,0.0,0.0,0.0,0.0,0.0,0.0,-0.07019043,0.0,0.0,0.0,0.0,0.0004515387,-0.0032950148,0.0004515387,-0.00023269653,0.0009313491,-0.0028384295,1.847744e-06,0.0,0.0,0.0,0.0,0.0,0.0
2045056000,2044904000,0.0054572113,-0.046314925,-0.011138275,-0.012120085,-0.031849112,-0.013122559,0.0,0.0,0.0,0.0,0.0,0.0,0.0,-0.07019043,0.0,0.0,0.0,0.0,0.0004515387,-0.0032950148,0.0004515387,-0.00023269653,0.003660394,0.0031187607,9.596348e-06,0.0,0.0,0.0,0.0,0.0,0.0
2045064000,2044912000,0.0054572113,-0.046314925,-0.011138275,-0.012120085,-0.031849112,-0.013122559,0.0,0.0,0.0,0.0,0.0,0.0,0.0,0.051940918,0.0,0.0,0.0,0.0,0.0004515387,-0.0032950148,0.0004515387,-0.00023269653,0.016113933,0.016925996,-0.00018125772,0.0,0.0,0.0,0.0,0.0,0.0
2045080000,2044928000,0.0054572113,-0.046314925,-0.011138275,-0.012120085,-0.031849112,-0.013122559,0.0,0.0,0.0,0.0,0.0,0.0,0.0,0.051940918,0.0,0.0,0.0,0.0,0.0004515387,-0.0032950148,0.0004515387,-0.00023269653,-0.0038389228,-0.0005153385,-2.9802322e-05,0.0,0.0,0.0,0.0,0.0,0.0
2045088000,2044936000,0.0054572113,-0.046314925,-0.011138275,-0.012120085,-0.031849112,-0.013122559,0.0,0.0,0.0,0.0,0.0,0.0,0.0,0.051940918,0.0,0.0,0.0,0.0,0.0004515387,-0.0032950148,0.0004515387,-0.00023269653,0.0015551602,-0.0057047894,-6.67572e-06,0.0,0.0,0.0,0.0,0.0,0.0
2045096000,2044944000,0.0054572113,-0.046314925,-0.011138275,-0.012120085,-0.031849112,-0.013122559,0.0,0.0,0.0,0.0,0.0,0.0,0.0,0.051940918,0.0,0.0,0.0,0.0,0.0004515387,-0.0032950148,0.0004515387,-0.00023269653,0.009972008,0.0016071738,6.4969063e-06,0.0,0.0,0.0,0.0,0.0,0.0
2045104000,2044952000,0.0054572113,-0.046314925,-0.011138275,-0.012120085,-0.031849112,-0.013122559,0.0,0.0,0.0,0.0,0.0,0.0,0.0,0.051940918,0.0,0.0,0.0,0.0,0.0004515387,-0.0032950148,0.0004515387,-0.00023269653,-0.0030203024,-0.002107786,-2.3901463e-05,0.0,0.0,0.0,0.0,0.0,0.0
2045120000,2044968000,0.0054572113,-0.046314925,-0.011138275,-0.012120085,-0.031849112,-0.013122559,0.0,0.0,0.0,0.0,0.0,0.0,0.0,0.051940918,0.0,0.0,0.0,0.0,0.0027531832,-0.0010447607,0.0027531832,-3.1232834e-05,-0.005292286,-0.0077659776,-7.1287155e-05,0.0,0.0,0.0,0.0,0.0,0.0
2045128000,2044976000,0.0054572113,-0.046314925,-0.011138275,-0.012120085,-0.031849112,-0.013122559,0.0,0.0,0.0,0.0,0.0,0.0,0.0,0.051940918,0.0,0.0,0.0,0.0,0.0027531832,-0.0010447607,0.0027531832,-3.1232834e-05,-0.0041295006,-0.0123835495,-0.00010359287,0.0,0.0,0.0,0.0,0.0,0.0
2045136000,2044984000,0.0054572113,-0.046314925,-0.011138275,-0.012120085,-0.031849112,-0.013122559,0.0,0.0,0.0,0.0,0.0,0.0,0.0,0.017089844,0.0,0.0,0.0,0.0,0.0027531832,-0.0010447607,0.0027531832,-3.1232834e-05,0.0020709424,-0.0047331345,1.1920929e-06,0.0,0.0,0.0,0.0,0.0,0.0
2045144000,2044992000,0.0054572113,-0.046314925,-0.011138275,-0.012120085,-0.031849112,-0.013122559,0.0,0.0,0.0,0.0,0.0,0.0,0.0,0.017089844,0.0,0.0,0.0,0.0,0.0027531832,-0.0010447607,0.0027531832,-3.1232834e-05,0.006230063,0.0020692013,1.4066696e-05,0.0,0.0,0.0,0.0,0.0,0.0
2045160000,2045008000,0.0054572113,-0.046314925,-0.011138275,-0.012120085,-0.031849112,-0.013122559,0.0,0.0,0.0,0.0,0.0,0.0,0.0,0.017089844,0.0,0.0,0.0,0.0,0.0027531832,-0.0010447607,0.0027531832,-3.1232834e-05,-0.0071183513,-0.0012846523,-6.759167e-05,0.0,0.0,0.0,0.0,0.0,0.0
2045168000,2045016000,0.0054572113,-0.046314925,-0.011138275,-0.012120085,-0.031849112,-0.013122559,0.0,0.0,0.0,0.0,0.0,0.0,0.0,0.017089844,0.0,0.0,0.0,0.0,0.0027531832,-0.0010447607,0.0027531832,-3.1232834e-05,-0.005972827,0.014060576,-0.00015461445,0.0,0.0,0.0,0.0,0.0,0.0
2045176000,2045024000,0.0054572113,-0.046314925,-0.011138275,-0.012120085,-0.031849112,-0.013122559,0.0,0.0,0.0,0.0,0.0,0.0,0.0,0.017089844,0.0,0.0,0.0,0.0,0.0027531832,-0.0010447607,0.0027531832,-3.1232834e-05,0.0069209263,-0.0002758438,1.5974045e-05,0.0,0.0,0.0,0.0,0.0,0.0
2045184000,2045032000,0.0054572113,-0.046314925,-0.011138275,-0.012120085,-0.031849112,-0.013122559,0.0,0.0,0.0,0.0,0.0,0.0,0.0,0.017089844,0.0,0.0,0.0,0.0,0.0013813265,-0.00064439815,0.0013813265,-0.0020613372,0.0016267239,-0.00040238578,8.225441e-06,0.0,0.0,0.0,0.0,0.0,0.0
2045200000,2045048000,0.0054572113,-0.046314925,-0.011138275,-0.012120085,-0.031849112,-0.013122559,0.0,0.0,0.0,0.0,0.0,0.0,0.0,0.017089844,0.0,0.0,0.0,0.0,0.0013813265,-0.00064439815,0.0013813265,-0.0020613372,-0.0049286634,0.001698754,-4.261732e-05,0.0,0.0,0.0,0.0,0.0,0.0
2045208000,2045056000,0.0054572113,-0.046314925,-0.011138275,-0.012120085,-0.031849112,-0.013122559,0.0,0.0,0.0,0.0,0.0,0.0,0.0,-0.1065979,0.0,0.0,0.0,0.0,0.0013813265,-0.00064439815,0.0013813265,-0.0020613372,0.005559541,0.0028336279,1.1444092e-05,0.0,0.0,0.0,0.0,0.0,0.0
2045216000,2045064000,0.0054572113,-0.046314925,-0.011138275,-0.012120085,-0.031849112,-0.013122559,0.0,0.0,0.0,0.0,0.0,0.0,0.0,-0.1065979,0.0,0.0,0.0,0.0,0.0013813265,-0.00064439815,0.0013813265,-0.0020613372,0.0060697882,-0.0046240315,8.046627e-06,0.0,0.0,0.0,0.0,0.0,0.0
2045224000,2045072000,0.0054572113,-0.046314925,-0.011138275,-0.012120085,-0.031849112,-0.013122559,0.0,0.0,0.0,0.0,0.0,0.0,0.0,-0.1065979,0.0,0.0,0.0,0.0,0.0013813265,-0.00064439815,0.0013813265,-0.0020613372,-0.003201751,0.003700544,-3.1769276e-05,0.0,0.0,0.0,0.0,0.0,0.0
2045240000,2045088000,0.0054572113,-0.046314925,-0.011138275,-0.012120085,-0.031849112,-0.013122559,0.0,0.0,0.0,0.0,0.0,0.0,0.0,-0.1065979,0.0,0.0,0.0,0.0,0.0013813265,-0.00064439815,0.0013813265,-0.0020613372,0.0035645182,0.0072638774,-1.591444e-05,0.0,0.0,0.0,0.0,0.0,0.0
2045248000,2045096000,0.0054572113,-0.046314925,-0.011138275,-0.012120085,-0.031849112,-0.013122559,0.0,0.0,0.0,0.0,0.0,0.0,0.0,-0.1065979,0.0,0.0,0.0,0.0,0.0013813265,-0.00064439815,0.0013813265,-0.0020613372,0.008536239,0.005979135,-1.0371208e-05,0.0,0.0,0.0,0.0,0.0,0.0
2045256000,2045104000,0.034826897,-0.029846998,-0.0894066,-0.0007304044,-0.031662546,-0.015075684,0.0,0.0,0.0,0.0,0.0,0.0,0.0,-0.1065979,0.0,0.0,0.0,0.0,0.0011688686,0.0011688686,-0.0029566102,-9.7095966e-05,0.014526816,-0.0043083522,-3.5881996e-05,0.0,0.0,0.0,0.0,0.0,0.0
2045264000,2045112000,0.034826897,-0.029846998,-0.0894066,-0.0007304044,-0.031662546,-0.015075684,0.0,0.0,0.0,0.0,0.0,0.0,0.0,-0.1065979,0.0,0.0,0.0,0.0,0.0011688686,0.0011688686,-0.0029566102,-9.7095966e-05,-0.000357592,-0.0060608382,-1.7404556e-05,0.0,0.0,0.0,0.0,0.0,0.0
2045280000,2045128000,0.034826897,-0.029846998,-0.0894066,-0.0007304044,-0.031662546,-0.015075684,0.0,0.0,0.0,0.0,0.0,0.0,0.0,-0.018615723,0.0,0.0,0.0,0.0,0.0011688686,0.0011688686,-0.0029566102,-9.7095966e-05,-0.010577235,0.00068454014,-0.00010997057,0.0,0.0,0.0,0.0,0.0,0.0
2045288000,2045136000,0.034826897,-0.029846998,-0.0894066,-0.0007304044,-0.031662546,-0.015075684,0.0,0.0,0.0,0.0,0.0,0.0,0.0,-0.018615723,0.0,0.0,0.0,0.0,0.0011688686,0.0011688686,-0.0029566102,-9.7095966e-05,-0.0037251543,0.00017099053,-2.5868416e-05,0.0,0.0,0.0,0.0,0.0,0.0
2045296000,2045144000,0.034826897,-0.029846998,-0.0894066,-0.0007304044,-0.031662546,-0.015075684,0.0,0.0,0.0,0.0,0.0,0.0,0.0,-0.018615723,0.0,0.0,0.0,0.0,0.0011688686,0.0011688686,-0.0029566102,-9.7095966e-05,0.0031418158,-0.0015871559,1.013279e-05,0.0,0.0,0.0,0.0,0.0,0.0
2045304000,2045152000,0.034826897,-0.029846998,-0.0894066,-0.0007304044,-0.031662546,-0.015075684,0.0,0.0,0.0,0.0,0.0,0.0,0.0,-0.018615723,0.0,0.0,0.0,0.0,0.0011688686,0.0011688686,-0.0029566102,-9.7095966e-05,0.00083966414,-0.0015564099,3.3974648e-06,0.0,0.0,0.0,0.0,0.0,0.0
2045320000,2045168000,0.034826897,-0.029846998,-0.0894066,-0.0007304044,-0.031662546,-0.015075684,0.0,0.0,0.0,0.0,0.0,0.0,0.0,-0.018615723,0.0,0.0,0.0,0.0,0.0011688686,0.0011688686,-0.0029566102,-9.7095966e-05,0.004394014,-0.011467194,-4.8816204e-05,0.0,0.0,0.0,0.0,0.0,0.0
2045328000,2045176000,0.034826897,-0.029846998,-0.0894066,-0.0007304044,-0.031662546,-0.015075684,0.0,0.0,0.0,0.0,0.0,0.0,0.0,-0.018615723,0.0,0.0,0.0,0.0,0.0003277175,-0.00028371817,0.0003277175,1.463294e-05,-0.002564311,-0.007015255,-3.9339066e-05,0.0,0.0,0.0,0.0,0.0,0.0
2045336000,2045184000,0.034826897,-0.029846998,-0.0894066,-0.0007304044,-0.031662546,-0.015075684,0.0,0.0,0.0,0.0,0.0,0.0,0.0,-0.018615723,0.0,0.0,0.0,0.0,0.0003277175,-0.00028371817,0.0003277175,1.463294e-05,-0.0021146745,0.0028141246,-1.8239021e-05,0.0,0.0,0.0,0.0,0.0,0.0
2045344000,2045192000,0.034826897,-0.029846998,-0.0894066,-0.0007304044,-0.031662546,-0.015075684,0.0,0.0,0.0,0.0,0.0,0.0,0.0,-0.018615723,0.0,0.0,0.0,0.0,0.0003277175,-0.00028371817,0.0003277175,1.463294e-05,0.005232225,-0.0061823544,-3.5762787e-06,0.0,0.0,0.0,0.0,0.0,0.0
2045360000,2045208000,0.034826897,-0.029846998,-0.0894066,-0.0007304044,-0.031662546,-0.015075684,0.0,0.0,0.0,0.0,0.0,0.0,0.0,-0.024108887,0.0,0.0,0.0,0.0,0.0003277175,-0.00028371817,0.0003277175,1.463294e-05,0.004881124,0.0038961326,5.1259995e-06,0.0,0.0,0.0,0.0,0.0,0.0
2045368000,2045216000,0.034826897,-0.029846998,-0.0894066,-0.0007304044,-0.031662546,-0.015075684,0.0,0.0,0.0,0.0,0.0,0.0,0.0,-0.024108887,0.0,0.0,0.0,0.0,0.0003277175,-0.00028371817,0.0003277175,1.463294e-05,0.0024053284,-0.0022938843,7.56979e-06,0.0,0.0,0.0,0.0,0.0,0.0
2045376000,2045224000,0.034826897,-0.029846998,-0.0894066,-0.0007304044,-0.031662546,-0.015075684,0.0,0.0,0.0,0.0,0.0,0.0,0.0,-0.024108887,0.0,0.0,0.0,0.0,0.0003277175,-0.00028371817,0.0003277175,1.463294e-05,-0.0023966706,0.0056942413,-3.2782555e-05,0.0,0.0,0.0,0.0,0.0,0.0
2045384000,2045232000,0.034826897,-0.029846998,-0.0894066,-0.0007304044,-0.031662546,-0.015075684,0.0,0.0,0.0,0.0,0.0,0.0,0.0,-0.024108887,0.0,0.0,0.0,0.0,0.0003277175,-0.00028371817,0.0003277175,1.463294e-05,-0.0021703965,0.00033372027,-1.3291836e-05,0.0,0.0,0.0,0.0,0.0,0.0
2045400000,2045248000,0.034826897,-0.029846998,-0.0894066,-0.0007304044,-0.031662546,-0.015075684,0.0,0.0,0.0,0.0,0.0,0.0,0.0,-0.024108887,0.0,0.0,0.0,0.0,0.00089964643,-0.0008266243,0.00089964643,0.00048464537,-0.004331682,-0.0077444715,-5.7935715e-05,0.0,0.0,0.0,0.0,0.0,0.0
2045408000,2045256000,0.034826897,-0.029846998,-0.0894066,-0.0007304044,-0.031662546,-0.015075684,0.0,0.0,0.0,0.0,0.0,0.0,0.0,-0.024108887,0.0,0.0,0.0,0.0,0.00089964643,-0.0008266243,0.00089964643,0.00048464537,0.0027190056,-0.002810775,6.4969063e-06,0.0,0.0,0.0,0.0,0.0,0.0
2045416000,2045264000,0.034826897,-0.029846998,-0.0894066,-0.0007304044,-0.031662546,-0.015075684,0.0,0.0,0.0,0.0,0.0,0.0,0.0,-0.024108887,0.0,0.0,0.0,0.0,0.00089964643,-0.0008266243,0.00089964643,0.00048464537,-0.0012322078,-0.00047203992,-6.7949295e-06,0.0,0.0,0.0,0.0,0.0,0.0
2045424000,2045272000,0.034826897,-0.029846998,-0.0894066,-0.0007304044,-0.031662546,-0.015075684,0.0,0.0,0.0,0.0,0.0,0.0,0.0,-0.0,0.0,0.0,0.0,0.0,0.00089964643,-0.0008266243,0.00089964643,0.00048464537,0.009150684,0.0033953097,-3.8146973e-06,0.0,0.0,0.0,0.0,0.0,0.0
2045440000,2045288000,0.034826897,-0.029846998,-0.0894066,-0.0007304044,-0.031662546,-0.015075684,0.0,0.0,0.0,0.0,0.0,0.0,0.0,-0.0,0.0,0.0,0.0,0.0,0.00089964643,-0.0008266243,0.00089964643,0.00048464537,-0.006592295,-5.383855e-05,-5.465746e-05,0.0,0.0,0.0,0.0,0.0,0.0
2045448000,2045296000,0.034826897,-0.029846998,-0.0894066,-0.0007304044,-0.031662546,-0.015075684,0.0,0.0,0.0,0.0,0.0,0.0,0.0,-0.0,0.0,0.0,0.0,0.0,0.00089964643,-0.0008266243,0.00089964643,0.00048464537,0.0072115883,-0.00628423,-7.0929527e-06,0.0,0.0,0.0,0.0,0.0,0.0
2045456000,2045304000,0.034826897,-0.029846998,-0.0894066,-0.0007304044,-0.031662546,-0.015075684,0.0,0.0,0.0,0.0,0.0,0.0,0.0,-0.0,0.0,0.0,0.0,0.0,0.00089964643,-0.0008266243,0.00089964643,0.00048464537,-0.005126344,-0.0063991356,-5.90086e-05,0.0,0.0,0.0,0.0,0.0,0.0
2045464000,2045312000,0.034826897,-0.029846998,-0.0894066,-0.0007304044,-0.031662546,-0.015075684,0.0,0.0,0.0,0.0,0.0,0.0,0.0,-0.0,0.0,0.0,0.0,0.0,0.00089964643,-0.0008266243,0.00089964643,0.00048464537,0.0011779862,-0.009662766,-3.927946e-05,0.0,0.0,0.0,0.0,0.0,0.0
2045480000,2045328000,0.034826897,-0.029846998,-0.0894066,-0.0007304044,-0.031662546,-0.015075684,0.0,0.0,0.0,0.0,0.0,0.0,0.0,-0.0,0.0,0.0,0.0,0.0,-0.00019648671,-0.0018009585,-0.00019648671,-0.0032203197,-0.00027686125,-0.006778408,-2.2888184e-05,0.0,0.0,0.0,0.0,0.0,0.0
