timestamp,timestamp_sample,q[0],q[1],q[2],q[3],delta_q_reset[0],delta_q_reset[1],delta_q_reset[2],delta_q_reset[3],quat_reset_counter
2043328000,0,-0.08364421,0.00075073395,-0.00029604512,-0.9964999,0.0,0.0,0.0,0.0,0
2043332000,0,-0.08364421,0.00075067166,-0.00029619748,-0.9964999,0.0,0.0,0.0,0.0,0
2043340000,0,-0.08364421,0.0007505471,-0.00029650214,-0.9964999,0.0,0.0,0.0,0.0,0
2043348000,0,-0.08364421,0.00075042236,-0.0002968064,-0.9964999,0.0,0.0,0.0,0.0,0
2043360000,0,-0.08364421,0.00075023517,-0.00029726085,-0.9964999,0.0,0.0,0.0,0.0,0
2043368000,0,-0.08364421,0.0007501111,-0.000297563,-0.9964999,0.0,0.0,0.0,0.0,0
2043380000,0,-0.08364421,0.0007499238,-0.0002980158,-0.9964999,0.0,0.0,0.0,0.0,0
2043388000,0,-0.08364421,0.0007497996,-0.00029831674,-0.9964999,0.0,0.0,0.0,0.0,0
2043400000,0,-0.08364421,0.0007496144,-0.00029876767,-0.9964999,0.0,0.0,0.0,0.0,0
2043408000,0,-0.08364421,0.00074949185,-0.0002990681,-0.9964999,0.0,0.0,0.0,0.0,0
2043420000,0,-0.08364421,0.00074930827,-0.000299517,-0.9964999,0.0,0.0,0.0,0.0,0
2043428000,0,-0.08364421,0.0007491853,-0.00029981512,-0.9964999,0.0,0.0,0.0,0.0,0
2043440000,0,-0.08364421,0.0007489987,-0.00030025945,-0.9964999,0.0,0.0,0.0,0.0,0
2043448000,0,-0.08364421,0.0007488735,-0.00030055112,-0.9964999,0.0,0.0,0.0,0.0,0
2043460000,0,-0.08364421,0.0007487044,-0.0003009895,-0.9964999,0.0,0.0,0.0,0.0,0
2043468000,0,-0.08364421,0.00074858626,-0.0003012829,-0.9964999,0.0,0.0,0.0,0.0,0
2043480000,0,-0.08364421,0.0007483997,-0.0003017231,-0.9964999,0.0,0.0,0.0,0.0,0
2043488000,0,-0.08364421,0.0007482771,-0.0003020116,-0.9964999,0.0,0.0,0.0,0.0,0
2043500000,0,-0.08364421,0.00074810383,-0.0003024417,-0.9964999,0.0,0.0,0.0,0.0,0
2043504000,0,-0.08364421,0.00074805063,-0.0003025861,-0.9964999,0.0,0.0,0.0,0.0,0
2043520000,0,-0.08364421,0.0007478252,-0.0003031699,-0.9964999,0.0,0.0,0.0,0.0,0
2043528000,0,-0.08364421,0.0007477059,-0.00030346267,-0.9964999,0.0,0.0,0.0,0.0,0
2043540000,0,-0.08364421,0.0007475295,-0.0003039006,-0.9964999,0.0,0.0,0.0,0.0,0
2043548000,0,-0.08364421,0.00074741285,-0.00030419274,-0.9964999,0.0,0.0,0.0,0.0,0
2043560000,0,-0.08364421,0.00074723526,-0.00030462982,-0.9964999,0.0,0.0,0.0,0.0,0
2043568000,0,-0.08364421,0.00074712205,-0.00030492185,-0.9964999,0.0,0.0,0.0,0.0,0
2043580000,0,-0.08364421,0.00074694725,-0.00030536394,-0.9964999,0.0,0.0,0.0,0.0,0
2043588000,0,-0.08364421,0.00074682856,-0.0003056599,-0.9964999,0.0,0.0,0.0,0.0,0
2043600000,0,-0.08364421,0.00074664596,-0.00030610297,-0.9964999,0.0,0.0,0.0,0.0,0
2043608000,0,-0.08364421,0.0007465286,-0.00030639934,-0.9964999,0.0,0.0,0.0,0.0,0
2043620000,0,-0.08364421,0.00074635126,-0.00030684477,-0.9964999,0.0,0.0,0.0,0.0,0
2043628000,0,-0.08364421,0.0007462326,-0.00030714317,-0.9964999,0.0,0.0,0.0,0.0,0
2043640000,0,-0.08364421,0.00074605155,-0.00030759408,-0.9964999,0.0,0.0,0.0,0.0,0
2043648000,0,-0.08364421,0.0007459289,-0.00030789562,-0.9964999,0.0,0.0,0.0,0.0,0
2043660000,0,-0.08364421,0.00074574375,-0.00030834787,-0.9964999,0.0,0.0,0.0,0.0,0
2043668000,0,-0.08364421,0.0007456206,-0.00030864857,-0.9964999,0.0,0.0,0.0,0.0,0
2043680000,0,-0.08364421,0.00074543594,-0.00030909965,-0.9964999,0.0,0.0,0.0,0.0,0
2043688000,0,-0.08364421,0.000745312,-0.00030940055,-0.9964999,0.0,0.0,0.0,0.0,0
2043700000,0,-0.08364421,0.0007451268,-0.0003098511,-0.9964999,0.0,0.0,0.0,0.0,0
2043708000,0,-0.08364421,0.00074500375,-0.0003101513,-0.9964999,0.0,0.0,0.0,0.0,0
2043720000,0,-0.08364421,0.00074481993,-0.0003106017,-0.9964999,0.0,0.0,0.0,0.0,0
2043728000,0,-0.08364421,0.00074469775,-0.00031090106,-0.9964999,0.0,0.0,0.0,0.0,0
2043740000,0,-0.08364421,0.00074451347,-0.00031134827,-0.9964999,0.0,0.0,0.0,0.0,0
2043748000,0,-0.08364421,0.00074438925,-0.00031164454,-0.9964999,0.0,0.0,0.0,0.0,0
2043760000,0,-0.08364421,0.0007442048,-0.0003120836,-0.9964999,0.0,0.0,0.0,0.0,0
2043768000,0,-0.08364421,0.0007440883,-0.00031237522,-0.9964999,0.0,0.0,0.0,0.0,0
2043780000,0,-0.08364421,0.00074391486,-0.00031281594,-0.9964999,0.0,0.0,0.0,0.0,0
2043788000,0,-0.08364421,0.00074379134,-0.00031310937,-0.9964999,0.0,0.0,0.0,0.0,0
2043800000,0,-0.08364421,0.00074360624,-0.0003135425,-0.9964999,0.0,0.0,0.0,0.0,0
2043808000,0,-0.08364421,0.0007434908,-0.00031382876,-0.9964999,0.0,0.0,0.0,0.0,0
2043820000,0,-0.08364421,0.0007433277,-0.00031426336,-0.9964999,0.0,0.0,0.0,0.0,0
2043824000,0,-0.08364421,0.00074326945,-0.00031440912,-0.9964999,0.0,0.0,0.0,0.0,0
2043840000,0,-0.08364421,0.00074303476,-0.00031499457,-0.9964999,0.0,0.0,0.0,0.0,0
2043848000,0,-0.08364421,0.0007429181,-0.0003152867,-0.9964999,0.0,0.0,0.0,0.0,0
2043860000,0,-0.08364421,0.0007427433,-0.00031572583,-0.9964999,0.0,0.0,0.0,0.0,0
2043868000,0,-0.08364421,0.00074262475,-0.0003160183,-0.9964999,0.0,0.0,0.0,0.0,0
2043880000,0,-0.08364421,0.0007424499,-0.00031645605,-0.9964999,0.0,0.0,0.0,0.0,0
2043888000,0,-0.08364421,0.0007423349,-0.0003167502,-0.9964999,0.0,0.0,0.0,0.0,0
2043900000,0,-0.08364421,0.0007421578,-0.00031719435,-0.9964999,0.0,0.0,0.0,0.0,0
2043904000,0,-0.08364421,0.0007420953,-0.00031734258,-0.9964999,0.0,0.0,0.0,0.0,0
2043920000,0,-0.08364421,0.00074185536,-0.00031793455,-0.9964999,0.0,0.0,0.0,0.0,0
2043928000,0,-0.08364421,0.0007417373,-0.00031823156,-0.9964999,0.0,0.0,0.0,0.0,0
2043940000,0,-0.08364421,0.0007415592,-0.000318679,-0.9964999,0.0,0.0,0.0,0.0,0
2043948000,0,-0.08364421,0.0007414393,-0.00031897923,-0.9964999,0.0,0.0,0.0,0.0,0
2043960000,0,-0.08364421,0.0007412553,-0.00031943186,-0.9964999,0.0,0.0,0.0,0.0,0
2043968000,0,-0.08364421,0.00074113155,-0.0003197333,-0.9964999,0.0,0.0,0.0,0.0,0
2043980000,0,-0.08364421,0.0007409466,-0.00032018428,-0.9964999,0.0,0.0,0.0,0.0,0
2043988000,0,-0.08364421,0.0007408237,-0.000320485,-0.9964999,0.0,0.0,0.0,0.0,0
2044000000,0,-0.08364421,0.000740638,-0.00032093606,-0.9964999,0.0,0.0,0.0,0.0,0
2044008000,0,-0.08364421,0.0007405148,-0.0003212362,-0.9964999,0.0,0.0,0.0,0.0,0
2044020000,0,-0.08364421,0.00074033055,-0.00032168615,-0.9964999,0.0,0.0,0.0,0.0,0
2044028000,0,-0.08364421,0.00074020785,-0.00032198618,-0.9964999,0.0,0.0,0.0,0.0,0
2044040000,0,-0.08364421,0.00074002455,-0.00032243546,-0.9964999,0.0,0.0,0.0,0.0,0
2044048000,0,-0.08364421,0.0007399017,-0.0003227335,-0.9964999,0.0,0.0,0.0,0.0,0
2044056000,0,-0.08364421,0.00073977775,-0.00032302985,-0.9964999,0.0,0.0,0.0,0.0,0
2044068000,0,-0.08364421,0.0007395946,-0.00032347062,-0.9964999,0.0,0.0,0.0,0.0,0
2044080000,0,-0.08364421,0.00073941454,-0.0003239086,-0.9964999,0.0,0.0,0.0,0.0,0
2044088000,0,-0.08364421,0.0007393014,-0.00032420288,-0.9964999,0.0,0.0,0.0,0.0,0
2044100000,0,-0.08364421,0.0007391164,-0.00032464068,-0.9964999,0.0,0.0,0.0,0.0,0
2044108000,0,-0.08364421,0.0007389939,-0.00032492986,-0.9964999,0.0,0.0,0.0,0.0,0
2044120000,0,-0.08364421,0.00073882187,-0.00032535993,-0.9964999,0.0,0.0,0.0,0.0,0
2044128000,0,-0.08364421,0.00073871214,-0.00032564983,-0.9964999,0.0,0.0,0.0,0.0,0
2044140000,0,-0.08364421,0.0007385402,-0.00032608813,-0.9964999,0.0,0.0,0.0,0.0,0
2044148000,0,-0.08364421,0.0007384205,-0.00032638034,-0.9964999,0.0,0.0,0.0,0.0,0
2044160000,0,-0.08364421,0.00073824625,-0.00032681887,-0.9964999,0.0,0.0,0.0,0.0,0
2044168000,0,-0.08364421,0.00073812995,-0.00032711212,-0.9964999,0.0,0.0,0.0,0.0,0
2044180000,0,-0.08364421,0.00073795236,-0.000327552,-0.9964999,0.0,0.0,0.0,0.0,0
2044188000,0,-0.08364421,0.00073783274,-0.00032784397,-0.9964999,0.0,0.0,0.0,0.0,0
2044200000,0,-0.08364421,0.0007376597,-0.0003282844,-0.9964999,0.0,0.0,0.0,0.0,0
2044208000,0,-0.08364421,0.0007375437,-0.00032858015,-0.9964999,0.0,0.0,0.0,0.0,0
2044220000,0,-0.08364421,0.0007373615,-0.0003290253,-0.9964999,0.0,0.0,0.0,0.0,0
2044228000,0,-0.08364421,0.0007372416,-0.00032932078,-0.9964999,0.0,0.0,0.0,0.0,0
2044240000,0,-0.08364421,0.00073706487,-0.00032976607,-0.9964999,0.0,0.0,0.0,0.0,0
2044248000,0,-0.08364421,0.00073694653,-0.00033006456,-0.9964999,0.0,0.0,0.0,0.0,0
2044260000,0,-0.08364421,0.00073676655,-0.00033051477,-0.9964999,0.0,0.0,0.0,0.0,0
2044268000,0,-0.08364421,0.00073664385,-0.00033081678,-0.9964999,0.0,0.0,0.0,0.0,0
2044280000,0,-0.08364421,0.0007364578,-0.0003312689,-0.9964999,0.0,0.0,0.0,0.0,0
2044284000,0,-0.08364421,0.0007363963,-0.00033141926,-0.9964999,0.0,0.0,0.0,0.0,0
2044300000,0,-0.08364421,0.0007361498,-0.0003320207,-0.9964999,0.0,0.0,0.0,0.0,0
2044308000,0,-0.08364421,0.0007360261,-0.0003323212,-0.9964999,0.0,0.0,0.0,0.0,0
2044320000,0,-0.08364421,0.0007358415,-0.00033277113,-0.9964999,0.0,0.0,0.0,0.0,0
2044328000,0,-0.08364421,0.0007357189,-0.0003330709,-0.9964999,0.0,0.0,0.0,0.0,0
2044340000,0,-0.08364421,0.00073553494,-0.00033352055,-0.9964999,0.0,0.0,0.0,0.0,0
2044348000,0,-0.08364421,0.0007354126,-0.00033382018,-0.9964999,0.0,0.0,0.0,0.0,0
2044360000,0,-0.08364421,0.0007352284,-0.000334267,-0.9964999,0.0,0.0,0.0,0.0,0
2044368000,0,-0.08364421,0.0007351043,-0.00033456238,-0.9964999,0.0,0.0,0.0,0.0,0
2044380000,0,-0.08364421,0.00073492544,-0.00033500398,-0.9964999,0.0,0.0,0.0,0.0,0
2044388000,0,-0.08364421,0.00073480204,-0.0003352966,-0.9964999,0.0,0.0,0.0,0.0,0
2044400000,0,-0.08364421,0.00073462346,-0.00033573442,-0.9964999,0.0,0.0,0.0,0.0,0
2044408000,0,-0.08364421,0.0007345026,-0.0003360239,-0.9964999,0.0,0.0,0.0,0.0,0
2044420000,0,-0.08364421,0.00073432556,-0.00033645701,-0.9964999,0.0,0.0,0.0,0.0,0
2044428000,0,-0.08364421,0.0007342122,-0.00033674575,-0.9964999,0.0,0.0,0.0,0.0,0
2044440000,0,-0.08364421,0.000734044,-0.00033718138,-0.9964999,0.0,0.0,0.0,0.0,0
2044448000,0,-0.08364421,0.000733926,-0.00033747221,-0.9964999,0.0,0.0,0.0,0.0,0
2044460000,0,-0.08364421,0.00073375413,-0.00033790976,-0.9964999,0.0,0.0,0.0,0.0,0
2044468000,0,-0.08364421,0.0007336387,-0.00033820278,-0.9964999,0.0,0.0,0.0,0.0,0
2044480000,0,-0.08364421,0.0007334624,-0.00033864324,-0.9964999,0.0,0.0,0.0,0.0,0
2044488000,0,-0.08364421,0.00073334255,-0.00033893614,-0.9964999,0.0,0.0,0.0,0.0,0
2044500000,0,-0.08364421,0.00073316763,-0.00033937473,-0.9964999,0.0,0.0,0.0,0.0,0
2044508000,0,-0.08364421,0.00073305005,-0.0003396683,-0.9964999,0.0,0.0,0.0,0.0,0
2044520000,0,-0.08364421,0.00073287165,-0.00034011021,-0.9964999,0.0,0.0,0.0,0.0,0
2044528000,0,-0.08364421,0.0007327534,-0.00034040428,-0.9964999,0.0,0.0,0.0,0.0,0
2044540000,0,-0.08364421,0.0007325788,-0.00034085006,-0.9964999,0.0,0.0,0.0,0.0,0
2044548000,0,-0.08364421,0.00073245895,-0.00034114879,-0.9964999,0.0,0.0,0.0,0.0,0
2044560000,0,-0.08364421,0.0007322776,-0.00034159684,-0.9964999,0.0,0.0,0.0,0.0,0
2044568000,0,-0.08364421,0.0007321544,-0.0003418965,-0.9964999,0.0,0.0,0.0,0.0,0
2044580000,0,-0.08364421,0.0007319699,-0.00034234393,-0.9964999,0.0,0.0,0.0,0.0,0
2044588000,0,-0.08364421,0.00073184824,-0.00034264123,-0.9964999,0.0,0.0,0.0,0.0,0
2044600000,0,-0.08364421,0.00073166634,-0.00034308634,-0.9964999,0.0,0.0,0.0,0.0,0
2044608000,0,-0.08364421,0.000731545,-0.00034338268,-0.9964999,0.0,0.0,0.0,0.0,0
2044620000,0,-0.08364421,0.0007313616,-0.0003438255,-0.9964999,0.0,0.0,0.0,0.0,0
2044628000,0,-0.08364421,0.0007312428,-0.00034411802,-0.9964999,0.0,0.0,0.0,0.0,0
2044640000,0,-0.08364421,0.00073106604,-0.000344558,-0.9964999,0.0,0.0,0.0,0.0,0
2044648000,0,-0.08364421,0.00073093927,-0.000344849,-0.9964999,0.0,0.0,0.0,0.0,0
2044660000,0,-0.08364421,0.00073075935,-0.0003452776,-0.9964999,0.0,0.0,0.0,0.0,0
2044668000,0,-0.08364421,0.00073065184,-0.00034556474,-0.9964999,0.0,0.0,0.0,0.0,0
2044680000,0,-0.08364421,0.00073047855,-0.00034599757,-0.9964999,0.0,0.0,0.0,0.0,0
2044688000,0,-0.08364421,0.00073036266,-0.00034628532,-0.9964999,0.0,0.0,0.0,0.0,0
2044696000,0,-0.08364421,0.0007302502,-0.00034657406,-0.9964999,0.0,0.0,0.0,0.0,0
2044708000,0,-0.08364421,0.00073007896,-0.00034700963,-0.9964999,0.0,0.0,0.0,0.0,0
2044720000,0,-0.08364421,0.0007299026,-0.0003474461,-0.9964999,0.0,0.0,0.0,0.0,0
2044728000,0,-0.08364421,0.0007297847,-0.00034773586,-0.9964999,0.0,0.0,0.0,0.0,0
2044740000,0,-0.08364421,0.0007296159,-0.00034817253,-0.9964999,0.0,0.0,0.0,0.0,0
2044748000,0,-0.08364421,0.0007294959,-0.00034846456,-0.9964999,0.0,0.0,0.0,0.0,0
2044760000,0,-0.08364421,0.00072932144,-0.00034890356,-0.9964999,0.0,0.0,0.0,0.0,0
2044768000,0,-0.08364421,0.0007292044,-0.00034919786,-0.9964999,0.0,0.0,0.0,0.0,0
2044780000,0,-0.08364421,0.00072902546,-0.0003496393,-0.9964999,0.0,0.0,0.0,0.0,0
2044788000,0,-0.08364421,0.00072890543,-0.00034993363,-0.9964999,0.0,0.0,0.0,0.0,0
2044800000,0,-0.08364421,0.00072872575,-0.0003503735,-0.9964999,0.0,0.0,0.0,0.0,0
2044808000,0,-0.08364421,0.0007286059,-0.00035066577,-0.9964999,0.0,0.0,0.0,0.0,0
2044820000,0,-0.08364421,0.0007284237,-0.00035110116,-0.9964999,0.0,0.0,0.0,0.0,0
2044828000,0,-0.08364421,0.00072830945,-0.0003513904,-0.9964999,0.0,0.0,0.0,0.0,0
2044840000,0,-0.08364421,0.0007281266,-0.00035182107,-0.9964999,0.0,0.0,0.0,0.0,0
2044848000,0,-0.08364421,0.00072801515,-0.00035210667,-0.9964999,0.0,0.0,0.0,0.0,0
2044860000,0,-0.08364421,0.0007278382,-0.00035253327,-0.9964999,0.0,0.0,0.0,0.0,0
2044868000,0,-0.08364421,0.0007277304,-0.00035281735,-0.9964999,0.0,0.0,0.0,0.0,0
2044880000,0,-0.08364421,0.00072756,-0.00035324632,-0.9964999,0.0,0.0,0.0,0.0,0
2044888000,0,-0.08364421,0.0007274473,-0.00035353238,-0.9964999,0.0,0.0,0.0,0.0,0
2044900000,0,-0.08364421,0.0007272761,-0.000353963,-0.9964999,0.0,0.0,0.0,0.0,0
2044908000,0,-0.08364421,0.0007271596,-0.00035424903,-0.9964999,0.0,0.0,0.0,0.0,0
2044920000,0,-0.08364421,0.0007269941,-0.00035468105,-0.9964999,0.0,0.0,0.0,0.0,0
2044928000,0,-0.08364421,0.0007268742,-0.0003549691,-0.9964999,0.0,0.0,0.0,0.0,0
2044940000,0,-0.08364421,0.0007267019,-0.0003554017,-0.9964999,0.0,0.0,0.0,0.0,0
2044948000,0,-0.08364421,0.00072658673,-0.0003556907,-0.9964999,0.0,0.0,0.0,0.0,0
2044960000,0,-0.08364421,0.00072641217,-0.00035612393,-0.9964999,0.0,0.0,0.0,0.0,0
2044968000,0,-0.08364421,0.0007262945,-0.0003564122,-0.9964999,0.0,0.0,0.0,0.0,0
2044980000,0,-0.08364421,0.00072611484,-0.0003568409,-0.9964999,0.0,0.0,0.0,0.0,0
2044988000,0,-0.08364421,0.00072599936,-0.0003571247,-0.9964999,0.0,0.0,0.0,0.0,0
2044996000,0,-0.08364421,0.00072588335,-0.0003574061,-0.9964999,0.0,0.0,0.0,0.0,0
2045008000,0,-0.08364421,0.00072571554,-0.00035782927,-0.9964999,0.0,0.0,0.0,0.0,0
2045020000,0,-0.08364421,0.0007255451,-0.0003582516,-0.9964999,0.0,0.0,0.0,0.0,0
2045028000,0,-0.08364421,0.00072543643,-0.00035853285,-0.9964999,0.0,0.0,0.0,0.0,0
2045040000,0,-0.08364421,0.00072526693,-0.0003589562,-0.9964999,0.0,0.0,0.0,0.0,0
2045048000,0,-0.08364421,0.0007251556,-0.00035923868,-0.9964999,0.0,0.0,0.0,0.0,0
2045060000,0,-0.08364421,0.0007249862,-0.0003596619,-0.9964999,0.0,0.0,0.0,0.0,0
2045068000,0,-0.08364421,0.0007248759,-0.00035994532,-0.9964999,0.0,0.0,0.0,0.0,0
2045080000,0,-0.08364421,0.0007247043,-0.0003603685,-0.9964999,0.0,0.0,0.0,0.0,0
2045088000,0,-0.08364421,0.00072459364,-0.00036065065,-0.9964999,0.0,0.0,0.0,0.0,0
2045100000,0,-0.08364421,0.0007244253,-0.00036107504,-0.9964999,0.0,0.0,0.0,0.0,0
2045108000,0,-0.08364421,0.00072431035,-0.00036135767,-0.9964999,0.0,0.0,0.0,0.0,0
2045120000,0,-0.08364421,0.00072413584,-0.0003617767,-0.9964999,0.0,0.0,0.0,0.0,0
2045128000,0,-0.08364421,0.00072402146,-0.00036205305,-0.9964999,0.0,0.0,0.0,0.0,0
2045140000,0,-0.08364421,0.0007238578,-0.00036246562,-0.9964999,0.0,0.0,0.0,0.0,0
2045148000,0,-0.08364421,0.0007237513,-0.00036274258,-0.9964999,0.0,0.0,0.0,0.0,0
2045160000,0,-0.08364421,0.00072358636,-0.00036315736,-0.9964999,0.0,0.0,0.0,0.0,0
2045168000,0,-0.08364421,0.0007234785,-0.00036343426,-0.9964999,0.0,0.0,0.0,0.0,0
2045180000,0,-0.08364421,0.00072331354,-0.0003638499,-0.9964999,0.0,0.0,0.0,0.0,0
2045188000,0,-0.08364421,0.00072320283,-0.00036412696,-0.9964999,0.0,0.0,0.0,0.0,0
2045200000,0,-0.08364421,0.0007230378,-0.0003645428,-0.9964999,0.0,0.0,0.0,0.0,0
2045208000,0,-0.08364421,0.00072292687,-0.00036481878,-0.9964999,0.0,0.0,0.0,0.0,0
2045220000,0,-0.08364421,0.00072276464,-0.00036523363,-0.9964999,0.0,0.0,0.0,0.0,0
2045228000,0,-0.08364421,0.0007226538,-0.00036550986,-0.9964999,0.0,0.0,0.0,0.0,0
2045240000,0,-0.08364421,0.00072248065,-0.00036591882,-0.9964999,0.0,0.0,0.0,0.0,0
2045248000,0,-0.08364421,0.00072237256,-0.00036618963,-0.9964999,0.0,0.0,0.0,0.0,0
2045260000,0,-0.08364421,0.0007222149,-0.0003665948,-0.9964999,0.0,0.0,0.0,0.0,0
2045268000,0,-0.08364421,0.0007221103,-0.00036686673,-0.9964999,0.0,0.0,0.0,0.0,0
2045280000,0,-0.08364421,0.0007219482,-0.000367273,-0.9964999,0.0,0.0,0.0,0.0,0
2045288000,0,-0.08364421,0.0007218402,-0.000367544,-0.9964999,0.0,0.0,0.0,0.0,0
2045300000,0,-0.08364421,0.00072168297,-0.00036795024,-0.9964999,0.0,0.0,0.0,0.0,0
2045308000,0,-0.08364421,0.00072157464,-0.0003682205,-0.9964999,0.0,0.0,0.0,0.0,0
2045320000,0,-0.08364421,0.0007214151,-0.00036862522,-0.9964999,0.0,0.0,0.0,0.0,0
2045328000,0,-0.08364421,0.00072131056,-0.00036889492,-0.9964999,0.0,0.0,0.0,0.0,0
2045340000,0,-0.08364421,0.0007211475,-0.00036929848,-0.9964999,0.0,0.0,0.0,0.0,0
2045348000,0,-0.08364421,0.00072104094,-0.0003695651,-0.9964999,0.0,0.0,0.0,0.0,0
2045360000,0,-0.08364421,0.00072088063,-0.00036996097,-0.9964999,0.0,0.0,0.0,0.0,0
2045368000,0,-0.08364421,0.00072078133,-0.00037022546,-0.9964999,0.0,0.0,0.0,0.0,0
2045380000,0,-0.08364421,0.00072062557,-0.0003706236,-0.9964999,0.0,0.0,0.0,0.0,0
2045388000,0,-0.08364421,0.00072052045,-0.00037088717,-0.9964999,0.0,0.0,0.0,0.0,0
2045400000,0,-0.08364421,0.00072036695,-0.0003712834,-0.9964999,0.0,0.0,0.0,0.0,0
2045408000,0,-0.08364421,0.0007202629,-0.00037154718,-0.9964999,0.0,0.0,0.0,0.0,0
2045420000,0,-0.08364421,0.00072010607,-0.00037194026,-0.9964999,0.0,0.0,0.0,0.0,0
2045428000,0,-0.08364421,0.00072000537,-0.00037220225,-0.9964999,0.0,0.0,0.0,0.0,0
2045436000,0,-0.08364421,0.00071990036,-0.00037246372,-0.9964999,0.0,0.0,0.0,0.0,0
2045448000,0,-0.08364421,0.0007197433,-0.00037285135,-0.9964999,0.0,0.0,0.0,0.0,0
2045460000,0,-0.08364421,0.0007195965,-0.00037323756,-0.9964999,0.0,0.0,0.0,0.0,0
2045468000,0,-0.08364421,0.00071949867,-0.0003734967,-0.9964999,0.0,0.0,0.0,0.0,0
2045480000,0,-0.08364421,0.0007193436,-0.00037388442,-0.9964999,0.0,0.0,0.0,0.0,0
2045488000,0,-0.08364421,0.00071924465,-0.0003741412,-0.9964999,0.0,0.0,0.0,0.0,0
2045500000,0,-0.08364421,0.0007190936,-0.0003745266,-0.9964999,0.0,0.0,0.0,0.0,0
2045508000,0,-0.08364421,0.0007189941,-0.00037478117,-0.9964999,0.0,0.0,0.0,0.0,0
2045520000,0,-0.08364421,0.00071884634,-0.0003751624,-0.9964999,0.0,0.0,0.0,0.0,0
2045528000,0,-0.08364421,0.00071874546,-0.00037541467,-0.9964999,0.0,0.0,0.0,0.0,0
2045540000,0,-0.08364421,0.00071859703,-0.00037579093,-0.9964999,0.0,0.0,0.0,0.0,0
2045548000,0,-0.08364421,0.00071850355,-0.00037604177,-0.9964999,0.0,0.0,0.0,0.0,0
2045560000,0,-0.08364421,0.0007183605,-0.00037641934,-0.9964999,0.0,0.0,0.0,0.0,0
2045568000,0,-0.08364421,0.0007182606,-0.00037667033,-0.9964999,0.0,0.0,0.0,0.0,0
2045580000,0,-0.08364421,0.00071811693,-0.0003770447,-0.9964999,0.0,0.0,0.0,0.0,0
2045588000,0,-0.08364421,0.00071802153,-0.00037729304,-0.9964999,0.0,0.0,0.0,0.0,0
2045600000,0,-0.08364421,0.00071787735,-0.00037766426,-0.9964999,0.0,0.0,0.0,0.0,0
2045608000,0,-0.08364421,0.0007177792,-0.00037790884,-0.9964999,0.0,0.0,0.0,0.0,0
2045620000,0,-0.08364421,0.0007176374,-0.00037827244,-0.9964999,0.0,0.0,0.0,0.0,0
2045628000,0,-0.08364421,0.000717548,-0.00037851484,-0.9964999,0.0,0.0,0.0,0.0,0
2045640000,0,-0.08364421,0.0007174122,-0.00037887951,-0.9964999,0.0,0.0,0.0,0.0,0
2045648000,0,-0.08364422,0.00071298983,-0.0003725123,-0.9964999,0.0,0.0,0.0,0.0,0
2045660000,0,-0.08364422,0.0007132001,-0.0003727125,-0.9964999,0.0,0.0,0.0,0.0,0
2045668000,0,-0.08364422,0.0007133407,-0.0003728438,-0.9964999,0.0,0.0,0.0,0.0,0
2045680000,0,-0.08364422,0.0007135482,-0.00037303977,-0.9964999,0.0,0.0,0.0,0.0,0
2045688000,0,-0.08364422,0.0007136862,-0.00037317025,-0.9964999,0.0,0.0,0.0,0.0,0
2045700000,0,-0.08364422,0.0007138921,-0.00037336606,-0.9964999,0.0,0.0,0.0,0.0,0
2045708000,0,-0.08364422,0.0007140319,-0.00037349723,-0.9964999,0.0,0.0,0.0,0.0,0
2045720000,0,-0.08364422,0.0007142436,-0.00037369505,-0.9964999,0.0,0.0,0.0,0.0,0
2045728000,0,-0.08364422,0.00071438355,-0.00037382625,-0.9964999,0.0,0.0,0.0,0.0,0
2045740000,0,-0.08364422,0.0007145951,-0.00037402185,-0.9964999,0.0,0.0,0.0,0.0,0
2045748000,0,-0.08364422,0.00071473245,-0.00037415093,-0.9964999,0.0,0.0,0.0,0.0,0
2045760000,0,-0.08364422,0.0007149345,-0.000374344,-0.9964999,0.0,0.0,0.0,0.0,0
2045768000,0,-0.08364422,0.00071506976,-0.00037447253,-0.9964999,0.0,0.0,0.0,0.0,0
2045780000,0,-0.08364422,0.00071527704,-0.00037466732,-0.9964999,0.0,0.0,0.0,0.0,0
2045788000,0,-0.08364422,0.0007154169,-0.0003747972,-0.9964999,0.0,0.0,0.0,0.0,0
2045800000,0,-0.08364422,0.00071562844,-0.00037499296,-0.9964999,0.0,0.0,0.0,0.0,0
2045808000,0,-0.08364422,0.0007157682,-0.00037512238,-0.9964999,0.0,0.0,0.0,0.0,0
2045820000,0,-0.08364422,0.0007159756,-0.0003753151,-0.9964999,0.0,0.0,0.0,0.0,0
2045828000,0,-0.08364422,0.0007161079,-0.0003754421,-0.9964999,0.0,0.0,0.0,0.0,0
2045840000,0,-0.08364422,0.00071631256,-0.00037563345,-0.9964999,0.0,0.0,0.0,0.0,0
2045848000,0,-0.08364422,0.0007164511,-0.00037576183,-0.9964999,0.0,0.0,0.0,0.0,0
2045860000,0,-0.08364422,0.0007166582,-0.000375955,-0.9964999,0.0,0.0,0.0,0.0,0
2045868000,0,-0.08364422,0.00071679853,-0.0003760844,-0.9964999,0.0,0.0,0.0,0.0,0
2045880000,0,-0.08364422,0.0007170089,-0.00037627702,-0.9964999,0.0,0.0,0.0,0.0,0
2045888000,0,-0.08364422,0.00071714877,-0.00037640453,-0.9964999,0.0,0.0,0.0,0.0,0
2045900000,0,-0.08364422,0.0007173515,-0.00037659385,-0.9964999,0.0,0.0,0.0,0.0,0
2045908000,0,-0.08364422,0.0007174826,-0.000376719,-0.9964999,0.0,0.0,0.0,0.0,0
2045920000,0,-0.08364422,0.0007176885,-0.00037690878,-0.9964999,0.0,0.0,0.0,0.0,0
2045928000,0,-0.08364422,0.00071782555,-0.00037703573,-0.9964999,0.0,0.0,0.0,0.0,0
2045940000,0,-0.08364422,0.0007180339,-0.0003772271,-0.9964999,0.0,0.0,0.0,0.0,0
2045948000,0,-0.08364422,0.000718175,-0.000377355,-0.9964999,0.0,0.0,0.0,0.0,0
2045960000,0,-0.08364422,0.0007132149,-0.000370383,-0.99649996,0.0,0.0,0.0,0.0,0
2045968000,0,-0.08364422,0.0007133459,-0.00037050847,-0.99649996,0.0,0.0,0.0,0.0,0
2045980000,0,-0.08364422,0.00071354606,-0.00037069485,-0.99649996,0.0,0.0,0.0,0.0,0
2045988000,0,-0.08364422,0.0007136827,-0.0003708198,-0.9964999,0.0,0.0,0.0,0.0,0
2046000000,0,-0.08364422,0.00071388803,-0.000371008,-0.9964999,0.0,0.0,0.0,0.0,0
2046008000,0,-0.08364422,0.00071402546,-0.00037113408,-0.9964999,0.0,0.0,0.0,0.0,0
2046016000,0,-0.08364422,0.000714166,-0.0003712605,-0.9964999,0.0,0.0,0.0,0.0,0
2046028000,0,-0.08364422,0.00071437383,-0.0003714479,-0.9964999,0.0,0.0,0.0,0.0,0
2046040000,0,-0.08364422,0.0007145737,-0.00037163228,-0.9964999,0.0,0.0,0.0,0.0,0
2046048000,0,-0.08364422,0.00071470486,-0.00037175478,-0.9964999,0.0,0.0,0.0,0.0,0
2046060000,0,-0.08364422,0.0007149085,-0.00037194017,-0.9964999,0.0,0.0,0.0,0.0,0
2046068000,0,-0.08364422,0.000715045,-0.0003720641,-0.9964999,0.0,0.0,0.0,0.0,0
2046080000,0,-0.08364422,0.0007152507,-0.00037225103,-0.9964999,0.0,0.0,0.0,0.0,0
2046088000,0,-0.08364422,0.00071539055,-0.00037237568,-0.9964999,0.0,0.0,0.0,0.0,0
2046100000,0,-0.08364422,0.00071559544,-0.00037256032,-0.9964999,0.0,0.0,0.0,0.0,0
2046108000,0,-0.08364422,0.0007157275,-0.00037268162,-0.9964999,0.0,0.0,0.0,0.0,0
2046120000,0,-0.08364422,0.000715927,-0.00037286387,-0.9964999,0.0,0.0,0.0,0.0,0
2046128000,0,-0.08364422,0.00071606226,-0.0003729857,-0.9964999,0.0,0.0,0.0,0.0,0
2046136000,0,-0.08364422,0.00071619777,-0.00037310773,-0.9964999,0.0,0.0,0.0,0.0,0
2046148000,0,-0.08364422,0.00071640185,-0.00037329228,-0.9964999,0.0,0.0,0.0,0.0,0
2046160000,0,-0.08364422,0.0007166102,-0.00037347668,-0.9964999,0.0,0.0,0.0,0.0,0
2046168000,0,-0.08364422,0.0007167453,-0.0003735981,-0.9964999,0.0,0.0,0.0,0.0,0
2046180000,0,-0.08364422,0.0007169412,-0.00037377776,-0.9964999,0.0,0.0,0.0,0.0,0
2046188000,0,-0.08364422,0.0007170718,-0.00037389726,-0.9964999,0.0,0.0,0.0,0.0,0
2046200000,0,-0.08364422,0.00071727403,-0.0003740785,-0.9964999,0.0,0.0,0.0,0.0,0
2046208000,0,-0.08364422,0.00071740925,-0.00037419997,-0.9964999,0.0,0.0,0.0,0.0,0
2046220000,0,-0.08364422,0.0007176146,-0.00037438233,-0.9964999,0.0,0.0,0.0,0.0,0
2046228000,0,-0.08364422,0.00071775174,-0.00037450297,-0.9964999,0.0,0.0,0.0,0.0,0
2046240000,0,-0.08364422,0.00071795104,-0.00037468158,-0.9964999,0.0,0.0,0.0,0.0,0
2046248000,0,-0.08364422,0.0007180807,-0.0003747994,-0.9964999,0.0,0.0,0.0,0.0,0
2046260000,0,-0.08364422,0.0007182775,-0.0003749764,-0.9964999,0.0,0.0,0.0,0.0,0
2046268000,0,-0.08364422,0.00071841135,-0.00037509578,-0.9964999,0.0,0.0,0.0,0.0,0
2046276000,0,-0.08364422,0.0007185462,-0.00037521558,-0.9964999,0.0,0.0,0.0,0.0,0
2046288000,0,-0.08364422,0.0007187505,-0.00037539552,-0.9964999,0.0,0.0,0.0,0.0,0
2046300000,0,-0.08364422,0.0007189529,-0.00037557288,-0.9964999,0.0,0.0,0.0,0.0,0
2046308000,0,-0.08364422,0.00071908545,-0.00037569003,-0.9964999,0.0,0.0,0.0,0.0,0
2046320000,0,-0.08364422,0.0007121312,-0.00036649941,-0.99649996,0.0,0.0,0.0,0.0,0
2046328000,0,-0.08364422,0.0007122679,-0.00036659915,-0.99649996,0.0,0.0,0.0,0.0,0
2046340000,0,-0.08364422,0.0007124687,-0.0003667758,-0.99649996,0.0,0.0,0.0,0.0,0
2046348000,0,-0.08364422,0.00071260385,-0.00036689395,-0.99649996,0.0,0.0,0.0,0.0,0
2046360000,0,-0.08364422,0.0007128045,-0.00036706962,-0.99649996,0.0,0.0,0.0,0.0,0
2046368000,0,-0.08364422,0.0007129375,-0.00036718592,-0.99649996,0.0,0.0,0.0,0.0,0
2046380000,0,-0.08364422,0.00071313244,-0.00036735865,-0.99649996,0.0,0.0,0.0,0.0,0
2046388000,0,-0.08364422,0.000713264,-0.00036747404,-0.99649996,0.0,0.0,0.0,0.0,0
2046400000,0,-0.08364422,0.0007134621,-0.00036764776,-0.99649996,0.0,0.0,0.0,0.0,0
2046408000,0,-0.08364422,0.0007135965,-0.00036776363,-0.99649996,0.0,0.0,0.0,0.0,0
2046420000,0,-0.08364422,0.0007137967,-0.00036793653,-0.99649996,0.0,0.0,0.0,0.0,0
2046428000,0,-0.08364422,0.0007139279,-0.00036805056,-0.99649996,0.0,0.0,0.0,0.0,0
2046440000,0,-0.08364422,0.0007141242,-0.00036822047,-0.99649996,0.0,0.0,0.0,0.0,0
2046448000,0,-0.08364422,0.0007142529,-0.00036833296,-0.99649996,0.0,0.0,0.0,0.0,0
2046460000,0,-0.08364422,0.0007144479,-0.00036850278,-0.99649996,0.0,0.0,0.0,0.0,0
2046468000,0,-0.08364422,0.0007145812,-0.00036861683,-0.99649996,0.0,0.0,0.0,0.0,0
2046476000,0,-0.08364422,0.00071471324,-0.00036873014,-0.9964999,0.0,0.0,0.0,0.0,0
2046488000,0,-0.08364422,0.0007149103,-0.0003688994,-0.9964999,0.0,0.0,0.0,0.0,0
2046500000,0,-0.08364422,0.0007151062,-0.0003690673,-0.9964999,0.0,0.0,0.0,0.0,0
2046508000,0,-0.08364422,0.00071523665,-0.00036917903,-0.9964999,0.0,0.0,0.0,0.0,0
2046520000,0,-0.08364422,0.00071542815,-0.00036934626,-0.9964999,0.0,0.0,0.0,0.0,0
2046528000,0,-0.08364422,0.00071556016,-0.0003694584,-0.9964999,0.0,0.0,0.0,0.0,0
2046540000,0,-0.08364422,0.00071575516,-0.00036962485,-0.9964999,0.0,0.0,0.0,0.0,0
2046548000,0,-0.08364422,0.00071588514,-0.00036973582,-0.9964999,0.0,0.0,0.0,0.0,0
2046560000,0,-0.08364422,0.0007160805,-0.00036990154,-0.9964999,0.0,0.0,0.0,0.0,0
2046568000,0,-0.08364422,0.00071621133,-0.00037001178,-0.9964999,0.0,0.0,0.0,0.0,0
2046580000,0,-0.08364422,0.000716402,-0.00037017555,-0.9964999,0.0,0.0,0.0,0.0,0
2046588000,0,-0.08364422,0.0007165321,-0.00037028585,-0.9964999,0.0,0.0,0.0,0.0,0
2046600000,0,-0.08364422,0.0007167264,-0.00037044988,-0.9964999,0.0,0.0,0.0,0.0,0
2046608000,0,-0.08364422,0.00071685534,-0.00037055867,-0.9964999,0.0,0.0,0.0,0.0,0
2046620000,0,-0.08364422,0.00071705075,-0.0003707219,-0.9964999,0.0,0.0,0.0,0.0,0
2046628000,0,-0.08364422,0.00071718113,-0.00037083033,-0.9964999,0.0,0.0,0.0,0.0,0
2046640000,0,-0.08364422,0.0007173716,-0.00037099118,-0.9964999,0.0,0.0,0.0,0.0,0
2046648000,0,-0.08364422,0.0007174992,-0.00037109863,-0.9964999,0.0,0.0,0.0,0.0,0
2046660000,0,-0.08364422,0.000717691,-0.00037125926,-0.9964999,0.0,0.0,0.0,0.0,0
2046668000,0,-0.08364422,0.0007178192,-0.00037136677,-0.9964999,0.0,0.0,0.0,0.0,0
2046680000,0,-0.08364422,0.0007180115,-0.00037152637,-0.9964999,0.0,0.0,0.0,0.0,0
2046688000,0,-0.08364422,0.0007181409,-0.0003716327,-0.9964999,0.0,0.0,0.0,0.0,0
2046700000,0,-0.08364422,0.00071833073,-0.0003717918,-0.9964999,0.0,0.0,0.0,0.0,0
2046708000,0,-0.08364422,0.00071845506,-0.00037189675,-0.9964999,0.0,0.0,0.0,0.0,0
2046720000,0,-0.08364422,0.00071864604,-0.00037205397,-0.9964999,0.0,0.0,0.0,0.0,0
2046728000,0,-0.08364422,0.00071877247,-0.00037215868,-0.9964999,0.0,0.0,0.0,0.0,0
2046740000,0,-0.08364422,0.00071896473,-0.00037231552,-0.9964999,0.0,0.0,0.0,0.0,0
2046748000,0,-0.08364422,0.00071909267,-0.00037241963,-0.9964999,0.0,0.0,0.0,0.0,0
2046760000,0,-0.08364422,0.000719282,-0.0003725749,-0.9964999,0.0,0.0,0.0,0.0,0
2046768000,0,-0.08364422,0.0007194053,-0.0003726774,-0.9964999,0.0,0.0,0.0,0.0,0
2046780000,0,-0.08364422,0.0007195962,-0.00037283252,-0.9964999,0.0,0.0,0.0,0.0,0
2046788000,0,-0.08364422,0.0007197213,-0.00037293514,-0.9964999,0.0,0.0,0.0,0.0,0
2046800000,0,-0.08364422,0.00071991264,-0.00037308937,-0.9964999,0.0,0.0,0.0,0.0,0
2046808000,0,-0.08364422,0.00072004006,-0.00037319184,-0.9964999,0.0,0.0,0.0,0.0,0
2046820000,0,-0.08364422,0.0007202275,-0.00037334373,-0.9964999,0.0,0.0,0.0,0.0,0
2046828000,0,-0.08364422,0.00072035,-0.0003734434,-0.9964999,0.0,0.0,0.0,0.0,0
2046840000,0,-0.08364422,0.0007205367,-0.00037359333,-0.9964999,0.0,0.0,0.0,0.0,0
2046848000,0,-0.08364422,0.000709393,-0.0003597194,-0.99649996,0.0,0.0,0.0,0.0,0
2046856000,0,-0.08364422,0.0007095249,-0.0003597956,-0.99649996,0.0,0.0,0.0,0.0,0
2046868000,0,-0.08364422,0.0007097155,-0.00035994654,-0.99649996,0.0,0.0,0.0,0.0,0
2046880000,0,-0.08364422,0.0007099,-0.0003600942,-0.99649996,0.0,0.0,0.0,0.0,0
2046888000,0,-0.08364422,0.00071002176,-0.00036019154,-0.99649996,0.0,0.0,0.0,0.0,0
2046900000,0,-0.08364422,0.00071020774,-0.00036033834,-0.99649996,0.0,0.0,0.0,0.0,0
2046908000,0,-0.08364422,0.0007103332,-0.00036043668,-0.99649996,0.0,0.0,0.0,0.0,0
2046920000,0,-0.08364422,0.00071052264,-0.00036058482,-0.99649996,0.0,0.0,0.0,0.0,0
2046928000,0,-0.08364422,0.00071064633,-0.00036068202,-0.99649996,0.0,0.0,0.0,0.0,0
2046940000,0,-0.08364422,0.00071082904,-0.00036082618,-0.99649996,0.0,0.0,0.0,0.0,0
2046948000,0,-0.08364422,0.00071095093,-0.00036092228,-0.99649996,0.0,0.0,0.0,0.0,0
2046960000,0,-0.08364422,0.0007111368,-0.0003610668,-0.99649996,0.0,0.0,0.0,0.0,0
2046968000,0,-0.08364422,0.0007112615,-0.0003611631,-0.99649996,0.0,0.0,0.0,0.0,0
2046980000,0,-0.08364422,0.0007114473,-0.00036130717,-0.99649996,0.0,0.0,0.0,0.0,0
2046988000,0,-0.08364422,0.00071157044,-0.00036140237,-0.99649996,0.0,0.0,0.0,0.0,0
2047000000,0,-0.08364422,0.00071175135,-0.00036154338,-0.99649996,0.0,0.0,0.0,0.0,0
2047008000,0,-0.08364422,0.00071187294,-0.0003616372,-0.99649996,0.0,0.0,0.0,0.0,0
2047020000,0,-0.08364422,0.0007120572,-0.00036177883,-0.99649996,0.0,0.0,0.0,0.0,0
2047028000,0,-0.08364422,0.0007121811,-0.00036187368,-0.99649996,0.0,0.0,0.0,0.0,0
2047040000,0,-0.08364422,0.0007123669,-0.00036201449,-0.99649996,0.0,0.0,0.0,0.0,0
2047048000,0,-0.08364422,0.0007124869,-0.00036210683,-0.99649996,0.0,0.0,0.0,0.0,0
2047060000,0,-0.08364422,0.0007126658,-0.0003622442,-0.99649996,0.0,0.0,0.0,0.0,0
2047068000,0,-0.08364422,0.00071278703,-0.00036233637,-0.99649996,0.0,0.0,0.0,0.0,0
2047080000,0,-0.08364422,0.0007129713,-0.00036247497,-0.99649996,0.0,0.0,0.0,0.0,0
2047088000,0,-0.08364422,0.00071309274,-0.0003625663,-0.99649996,0.0,0.0,0.0,0.0,0
2047096000,0,-0.08364422,0.0007132146,-0.00036265742,-0.99649996,0.0,0.0,0.0,0.0,0
2047108000,0,-0.08364422,0.00071339303,-0.00036279255,-0.99649996,0.0,0.0,0.0,0.0,0
2047120000,0,-0.08364422,0.00071357226,-0.00036292744,-0.99649996,0.0,0.0,0.0,0.0,0
2047128000,0,-0.08364422,0.00071369286,-0.00036301732,-0.99649996,0.0,0.0,0.0,0.0,0
2047140000,0,-0.08364422,0.0007138756,-0.0003631515,-0.99649996,0.0,0.0,0.0,0.0,0
2047148000,0,-0.08364422,0.0007139969,-0.00036324066,-0.99649996,0.0,0.0,0.0,0.0,0
2047160000,0,-0.08364422,0.00071417284,-0.00036337133,-0.99649996,0.0,0.0,0.0,0.0,0
2047168000,0,-0.08364422,0.00071429054,-0.00036345853,-0.99649996,0.0,0.0,0.0,0.0,0
2047180000,0,-0.08364422,0.00071446976,-0.00036359005,-0.99649996,0.0,0.0,0.0,0.0,0
2047188000,0,-0.08364422,0.0007145902,-0.0003636774,-0.99649996,0.0,0.0,0.0,0.0,0
2047200000,0,-0.08364422,0.00071476976,-0.00036380722,-0.99649996,0.0,0.0,0.0,0.0,0
2047208000,0,-0.08364422,0.0007148888,-0.00036389282,-0.99649996,0.0,0.0,0.0,0.0,0
2047220000,0,-0.08364422,0.000715065,-0.0003640213,-0.99649996,0.0,0.0,0.0,0.0,0
2047228000,0,-0.08364422,0.0007151815,-0.00036410676,-0.99649996,0.0,0.0,0.0,0.0,0
2047236000,0,-0.08364422,0.0007152996,-0.00036419125,-0.99649996,0.0,0.0,0.0,0.0,0
2047248000,0,-0.08364422,0.00071547815,-0.00036431718,-0.99649996,0.0,0.0,0.0,0.0,0
2047260000,0,-0.08364422,0.0007156555,-0.00036444247,-0.99649996,0.0,0.0,0.0,0.0,0
2047268000,0,-0.08364422,0.0007157712,-0.00036452588,-0.99649996,0.0,0.0,0.0,0.0,0
2047280000,0,-0.08364422,0.0007159451,-0.00036465,-0.99649996,0.0,0.0,0.0,0.0,0
2047288000,0,-0.08364422,0.00071606267,-0.00036473252,-0.99649996,0.0,0.0,0.0,0.0,0
2047300000,0,-0.08364422,0.00071623875,-0.000364855,-0.99649996,0.0,0.0,0.0,0.0,0
2047308000,0,-0.08364422,0.00071635615,-0.0003649365,-0.99649996,0.0,0.0,0.0,0.0,0
2047320000,0,-0.08364422,0.00071652886,-0.00036505773,-0.99649996,0.0,0.0,0.0,0.0,0
2047328000,0,-0.08364422,0.0007166441,-0.00036513832,-0.99649996,0.0,0.0,0.0,0.0,0
2047340000,0,-0.08364422,0.0007168192,-0.00036525886,-0.9964999,0.0,0.0,0.0,0.0,0
2047348000,0,-0.08364422,0.0007169357,-0.0003653387,-0.9964999,0.0,0.0,0.0,0.0,0
2047360000,0,-0.08364422,0.00071710936,-0.00036545724,-0.9964999,0.0,0.0,0.0,0.0,0
2047368000,0,-0.08364422,0.0007172218,-0.00036553427,-0.9964999,0.0,0.0,0.0,0.0,0
2047380000,0,-0.08364422,0.0007173903,-0.0003656449,-0.9964999,0.0,0.0,0.0,0.0,0
2047388000,0,-0.08364422,0.00071750267,-0.00036571652,-0.9964999,0.0,0.0,0.0,0.0,0
2047400000,0,-0.08364422,0.00071767025,-0.00036582127,-0.9964999,0.0,0.0,0.0,0.0,0
2047408000,0,-0.08364422,0.0007177809,-0.00036589068,-0.9964999,0.0,0.0,0.0,0.0,0
2047420000,0,-0.08364422,0.00071794516,-0.0003659936,-0.9964999,0.0,0.0,0.0,0.0,0
2047428000,0,-0.08364422,0.0007180535,-0.00036606108,-0.9964999,0.0,0.0,0.0,0.0,0
2047440000,0,-0.08364422,0.0007182182,-0.00036616178,-0.9964999,0.0,0.0,0.0,0.0,0
2047448000,0,-0.08364422,0.00071832794,-0.00036622872,-0.9964999,0.0,0.0,0.0,0.0,0
2047460000,0,-0.08364422,0.000718491,-0.00036632852,-0.9964999,0.0,0.0,0.0,0.0,0
2047468000,0,-0.08364422,0.00071859686,-0.00036639188,-0.9964999,0.0,0.0,0.0,0.0,0
2047480000,0,-0.08364422,0.00071875146,-0.0003664786,-0.9964999,0.0,0.0,0.0,0.0,0
2047488000,0,-0.08364422,0.00071885536,-0.00036653638,-0.9964999,0.0,0.0,0.0,0.0,0
2047500000,0,-0.08364422,0.00071900996,-0.0003666229,-0.9964999,0.0,0.0,0.0,0.0,0
2047508000,0,-0.08364422,0.00071911205,-0.000366681,-0.9964999,0.0,0.0,0.0,0.0,0
2047520000,0,-0.08364422,0.0007192647,-0.00036676673,-0.9964999,0.0,0.0,0.0,0.0,0
2047528000,0,-0.08364422,0.0007193653,-0.0003668234,-0.9964999,0.0,0.0,0.0,0.0,0
2047540000,0,-0.08364422,0.000719517,-0.00036690824,-0.9964999,0.0,0.0,0.0,0.0,0
2047548000,0,-0.08364422,0.00071961625,-0.00036696455,-0.9964999,0.0,0.0,0.0,0.0,0
2047560000,0,-0.08364422,0.000719761,-0.0003670473,-0.9964999,0.0,0.0,0.0,0.0,0
2047568000,0,-0.08364422,0.0007198545,-0.00036709596,-0.9964999,0.0,0.0,0.0,0.0,0
2047580000,0,-0.08364422,0.000719994,-0.00036716872,-0.9964999,0.0,0.0,0.0,0.0,0
2047588000,0,-0.08364422,0.0007200869,-0.00036721642,-0.9964999,0.0,0.0,0.0,0.0,0
2047600000,0,-0.08364422,0.00072022434,-0.0003672876,-0.9964999,0.0,0.0,0.0,0.0,0
2047608000,0,-0.08364422,0.0007203163,-0.000367335,-0.9964999,0.0,0.0,0.0,0.0,0
2047620000,0,-0.08364422,0.0007204512,-0.00036740323,-0.9964999,0.0,0.0,0.0,0.0,0
2047628000,0,-0.08364422,0.00072054117,-0.0003674494,-0.9964999,0.0,0.0,0.0,0.0,0
2047640000,0,-0.08364422,0.00072067446,-0.0003675168,-0.9964999,0.0,0.0,0.0,0.0,0
2047648000,0,-0.08364422,0.0007207634,-0.00036756042,-0.9964999,0.0,0.0,0.0,0.0,0
2047660000,0,-0.08364422,0.00072089734,-0.0003676256,-0.9964999,0.0,0.0,0.0,0.0,0
2047664000,0,-0.08364422,0.0007209409,-0.00036764712,-0.9964999,0.0,0.0,0.0,0.0,0
2047680000,0,-0.08364422,0.0007211142,-0.00036773348,-0.9964999,0.0,0.0,0.0,0.0,0
2047688000,0,-0.08364422,0.0007212012,-0.00036777538,-0.9964999,0.0,0.0,0.0,0.0,0
2047700000,0,-0.08364422,0.0007213292,-0.00036783773,-0.9964999,0.0,0.0,0.0,0.0,0
2047708000,0,-0.08364422,0.00072141463,-0.00036787838,-0.9964999,0.0,0.0,0.0,0.0,0
2047720000,0,-0.08364422,0.00072153966,-0.0003679365,-0.9964999,0.0,0.0,0.0,0.0,0
2047728000,0,-0.08364422,0.0007216231,-0.00036797483,-0.9964999,0.0,0.0,0.0,0.0,0
2047740000,0,-0.08364422,0.0007217491,-0.00036803292,-0.9964999,0.0,0.0,0.0,0.0,0
2047748000,0,-0.08364422,0.0007218323,-0.0003680713,-0.9964999,0.0,0.0,0.0,0.0,0
2047760000,0,-0.08364422,0.00072195387,-0.00036812742,-0.9964999,0.0,0.0,0.0,0.0,0
2047768000,0,-0.08364422,0.0007220337,-0.0003681618,-0.9964999,0.0,0.0,0.0,0.0,0
2047780000,0,-0.08364422,0.000722156,-0.0003682133,-0.9964999,0.0,0.0,0.0,0.0,0
2047788000,0,-0.08364422,0.00072223734,-0.00036824786,-0.9964999,0.0,0.0,0.0,0.0,0
2047800000,0,-0.08364422,0.00072235416,-0.00036829847,-0.9964999,0.0,0.0,0.0,0.0,0
2047808000,0,-0.08364422,0.0007224306,-0.00036833054,-0.9964999,0.0,0.0,0.0,0.0,0
2047820000,0,-0.08364422,0.00072254956,-0.0003683789,-0.9964999,0.0,0.0,0.0,0.0,0
2047828000,0,-0.08364422,0.00072262797,-0.0003684105,-0.9964999,0.0,0.0,0.0,0.0,0
2047840000,0,-0.08364422,0.0007227413,-0.00036845737,-0.9964999,0.0,0.0,0.0,0.0,0
2047848000,0,-0.08364422,0.0007228155,-0.00036848744,-0.9964999,0.0,0.0,0.0,0.0,0
2047860000,0,-0.08364422,0.0007229305,-0.0003685317,-0.9964999,0.0,0.0,0.0,0.0,0
2047868000,0,-0.08364422,0.0007230063,-0.00036856037,-0.9964999,0.0,0.0,0.0,0.0,0
2047880000,0,-0.08364422,0.00072309206,-0.00036860563,-0.9964999,0.0,0.0,0.0,0.0,0
2047888000,0,-0.08364422,0.0007231475,-0.00036863284,-0.9964999,0.0,0.0,0.0,0.0,0
2047900000,0,-0.08364422,0.000723237,-0.000368666,-0.9964999,0.0,0.0,0.0,0.0,0
2047908000,0,-0.08364422,0.0007233038,-0.0003686877,-0.9964999,0.0,0.0,0.0,0.0,0
2047920000,0,-0.08364422,0.00072338775,-0.0003687102,-0.9964999,0.0,0.0,0.0,0.0,0
2047928000,0,-0.08364422,0.0007234449,-0.00036872513,-0.9964999,0.0,0.0,0.0,0.0,0
2047940000,0,-0.08364422,0.0007234991,-0.0003687443,-0.9964999,0.0,0.0,0.0,0.0,0
2047948000,0,-0.08364422,0.00072351174,-0.0003687718,-0.9964999,0.0,0.0,0.0,0.0,0
2047960000,0,-0.08364428,0.0007142955,-0.00036817757,-0.9964999,0.0,0.0,0.0,0.0,0
2047968000,0,-0.08364432,0.0006943548,-0.00036661996,-0.99649996,0.0,0.0,0.0,0.0,0
2047980000,0,-0.08364435,0.000635337,-0.00036164693,-0.99649996,0.0,0.0,0.0,0.0,0
2047988000,0,-0.083644375,0.0005711251,-0.00035623598,-0.9965,0.0,0.0,0.0,0.0,0
2048000000,0,-0.083649784,0.00040914703,-0.00031317121,-0.99649966,0.0,0.0,0.0,0.0,0
2048008000,0,-0.08364981,0.0002789392,-0.00030213885,-0.9964997,0.0,0.0,0.0,0.0,0
2048020000,0,-0.08364986,2.533156e-05,-0.0002807051,-0.9964997,0.0,0.0,0.0,0.0,0
2048028000,0,-0.083649896,-0.00018534996,-0.00026291888,-0.9964997,0.0,0.0,0.0,0.0,0
2048040000,0,-0.08364996,-0.00057029846,-0.00023043466,-0.9964996,0.0,0.0,0.0,0.0,0
2048048000,0,-0.08365001,-0.00087615364,-0.00020463033,-0.99649936,0.0,0.0,0.0,0.0,0
2048060000,0,-0.08365009,-0.0014133707,-0.00015942483,-0.99649876,0.0,0.0,0.0,0.0,0
2048068000,0,-0.08365017,-0.0018250789,-0.00012489656,-0.99649805,0.0,0.0,0.0,0.0,0
2048080000,0,-0.083650336,-0.0025288172,-6.603221e-05,-0.9964965,0.0,0.0,0.0,0.0,0
2048088000,0,-0.08365042,-0.0030581753,-2.1704498e-05,-0.996495,0.0,0.0,0.0,0.0,0
2048100000,0,-0.08365049,-0.0039449064,5.2490417e-05,-0.9964919,0.0,0.0,0.0,0.0,0
2048108000,0,-0.083650485,-0.0045980336,0.000107180866,-0.9964891,0.0,0.0,0.0,0.0,0
2048120000,0,-0.083650365,-0.005671039,0.0001971848,-0.99648356,0.0,0.0,0.0,0.0,0
2048128000,0,-0.08365022,-0.006449869,0.00026248817,-0.99647886,0.0,0.0,0.0,0.0,0
2048140000,0,-0.08365231,-0.007712467,0.0003715137,-0.9964697,0.0,0.0,0.0,0.0,0
2048144000,0,-0.08365452,-0.008157139,0.00041259988,-0.9964659,0.0,0.0,0.0,0.0,0
2048160000,0,-0.083669566,-0.010059476,0.0005919131,-0.99644715,0.0,0.0,0.0,0.0,0
2048168000,0,-0.08368073,-0.011066572,0.0007115442,-0.99643546,0.0,0.0,0.0,0.0,0
2048180000,0,-0.08371036,-0.012617611,0.0009659819,-0.99641436,0.0,0.0,0.0,0.0,0
2048188000,0,-0.08373396,-0.013671628,0.0011791962,-0.9963982,0.0,0.0,0.0,0.0,0
2048200000,0,-0.08376856,-0.015246456,0.001497186,-0.99637204,0.0,0.0,0.0,0.0,0
2048208000,0,-0.0837912,-0.016277535,0.0017218948,-0.99635345,0.0,0.0,0.0,0.0,0
2048220000,0,-0.08382523,-0.017788658,0.0021025876,-0.99632406,0.0,0.0,0.0,0.0,0
2048228000,0,-0.08384829,-0.018759685,0.002358594,-0.99630374,0.0,0.0,0.0,0.0,0
2048240000,0,-0.08388125,-0.020141935,0.002698074,-0.9962731,0.0,0.0,0.0,0.0,0
2048248000,0,-0.08390213,-0.021013938,0.002918442,-0.9962527,0.0,0.0,0.0,0.0,0
2048260000,0,-0.08393199,-0.02225943,0.0032596756,-0.9962221,0.0,0.0,0.0,0.0,0
2048268000,0,-0.083950914,-0.023033492,0.003472707,-0.9962022,0.0,0.0,0.0,0.0,0
2048280000,0,-0.083976835,-0.024091443,0.0037567338,-0.9961739,0.0,0.0,0.0,0.0,0
2048288000,0,-0.08399298,-0.024735726,0.0039447187,-0.99615604,0.0,0.0,0.0,0.0,0
2048300000,0,-0.08401583,-0.02562588,0.0042195576,-0.99613047,0.0,0.0,0.0,0.0,0
2048308000,0,-0.08403026,-0.026149895,0.0043709218,-0.996115,0.0,0.0,0.0,0.0,0
2048316000,0,-0.08404352,-0.026615595,0.0045030965,-0.99610096,0.0,0.0,0.0,0.0,0
2048328000,0,-0.0840617,-0.027224766,0.004689316,-0.9960821,0.0,0.0,0.0,0.0,0
2048340000,0,-0.08407872,-0.027719801,0.004874876,-0.9960661,0.0,0.0,0.0,0.0,0
2048348000,0,-0.08408942,-0.02798121,0.0049840445,-0.9960574,0.0,0.0,0.0,0.0,0
2048360000,0,-0.0841042,-0.028270783,0.005143198,-0.99604714,0.0,0.0,0.0,0.0,0
2048368000,0,-0.08411261,-0.028406844,0.00524252,-0.996042,0.0,0.0,0.0,0.0,0
2048380000,0,-0.08412281,-0.028522683,0.0053539113,-0.99603724,0.0,0.0,0.0,0.0,0
2048388000,0,-0.08412795,-0.02853666,0.005397682,-0.99603623,0.0,0.0,0.0,0.0,0
2048400000,0,-0.084133014,-0.028470194,0.0054178345,-0.99603754,0.0,0.0,0.0,0.0,0
2048408000,0,-0.084134966,-0.028368423,0.0054086614,-0.99604034,0.0,0.0,0.0,0.0,0
2048420000,0,-0.08413604,-0.028132195,0.0053682746,-0.9960472,0.0,0.0,0.0,0.0,0
2048428000,0,-0.08413514,-0.027925981,0.0053239586,-0.9960533,0.0,0.0,0.0,0.0,0
2048440000,0,-0.08413089,-0.027552959,0.005226353,-0.99606454,0.0,0.0,0.0,0.0,0
2048448000,0,-0.08412592,-0.027261816,0.005137755,-0.9960735,0.0,0.0,0.0,0.0,0
2048460000,0,-0.08411619,-0.026769478,0.0049915686,-0.9960884,0.0,0.0,0.0,0.0,0
2048468000,0,-0.08410892,-0.02640817,0.0048951996,-0.9960991,0.0,0.0,0.0,0.0,0
2048480000,0,-0.08409684,-0.025832517,0.004749816,-0.9961159,0.0,0.0,0.0,0.0,0
2048488000,0,-0.08408802,-0.025427174,0.004653818,-0.99612755,0.0,0.0,0.0,0.0,0
2048500000,0,-0.08407415,-0.024788829,0.004514081,-0.9961455,0.0,0.0,0.0,0.0,0
2048508000,0,-0.08406494,-0.024342356,0.00441425,-0.9961577,0.0,0.0,0.0,0.0,0
2048520000,0,-0.08405071,-0.023628427,0.004237934,-0.99617684,0.0,0.0,0.0,0.0,0
2048528000,0,-0.08404059,-0.02312297,0.004113891,-0.9961901,0.0,0.0,0.0,0.0,0
2048540000,0,-0.084025085,-0.022332197,0.003934874,-0.99621016,0.0,0.0,0.0,0.0,0
2048548000,0,-0.08401475,-0.021784764,0.00380679,-0.9962236,0.0,0.0,0.0,0.0,0
2048560000,0,-0.08399854,-0.020929677,0.0035902455,-0.99624413,0.0,0.0,0.0,0.0,0
2048568000,0,-0.083986625,-0.02035136,0.0034380036,-0.99625766,0.0,0.0,0.0,0.0,0
2048580000,0,-0.08396838,-0.01948652,0.0032064053,-0.9962773,0.0,0.0,0.0,0.0,0
2048588000,0,-0.08395633,-0.018909356,0.0030452313,-0.9962899,0.0,0.0,0.0,0.0,0
2048600000,0,-0.083937466,-0.018018601,0.0028017554,-0.99630874,0.0,0.0,0.0,0.0,0
2048608000,0,-0.08392445,-0.017411005,0.0026502928,-0.996321,0.0,0.0,0.0,0.0,0
2048620000,0,-0.08390642,-0.016489374,0.0024439306,-0.9963388,0.0,0.0,0.0,0.0,0
2048628000,0,-0.08389498,-0.015865382,0.0023062138,-0.99635017,0.0,0.0,0.0,0.0,0
2048640000,0,-0.08387676,-0.0149305165,0.0020964488,-0.9963666,0.0,0.0,0.0,0.0,0
2048648000,0,-0.083864175,-0.014316617,0.0019719058,-0.996377,0.0,0.0,0.0,0.0,0
2048660000,0,-0.083845675,-0.013409246,0.0017847386,-0.9963915,0.0,0.0,0.0,0.0,0
2048668000,0,-0.08383295,-0.012804977,0.0016525879,-0.9964008,0.0,0.0,0.0,0.0,0
2048680000,0,-0.08381208,-0.011900395,0.0014661808,-0.996414,0.0,0.0,0.0,0.0,0
2048688000,0,-0.08379799,-0.011313733,0.0013609468,-0.9964222,0.0,0.0,0.0,0.0,0
2048700000,0,-0.08377749,-0.010462696,0.0012026328,-0.9964334,0.0,0.0,0.0,0.0,0
2048708000,0,-0.08376364,-0.009908153,0.0010901894,-0.99644035,0.0,0.0,0.0,0.0,0
2048720000,0,-0.083741814,-0.0090921875,0.0009246121,-0.9964501,0.0,0.0,0.0,0.0,0
2048728000,0,-0.08372747,-0.008554696,0.0008198885,-0.9964562,0.0,0.0,0.0,0.0,0
2048740000,0,-0.08370622,-0.0077521256,0.0006472255,-0.99646467,0.0,0.0,0.0,0.0,0
2048748000,0,-0.08369167,-0.0072234278,0.000524773,-0.99647,0.0,0.0,0.0,0.0,0
2048760000,0,-0.08366955,-0.0064567826,0.00035723712,-0.9964771,0.0,0.0,0.0,0.0,0
2048768000,0,-0.083655804,-0.0059653823,0.00025304945,-0.9964814,0.0,0.0,0.0,0.0,0
2048780000,0,-0.08363624,-0.0052465973,8.352855e-05,-0.9964871,0.0,0.0,0.0,0.0,0
2048788000,0,-0.08362318,-0.004783874,-3.674009e-05,-0.99649054,0.0,0.0,0.0,0.0,0
2048800000,0,-0.08360403,-0.0041181073,-0.00020582521,-0.99649507,0.0,0.0,0.0,0.0,0
2048808000,0,-0.08359189,-0.0036897731,-0.00032131997,-0.99649775,0.0,0.0,0.0,0.0,0
2048820000,0,-0.08357407,-0.003054852,-0.00050507725,-0.9965013,0.0,0.0,0.0,0.0,0
2048828000,0,-0.08356209,-0.0026377672,-0.00062191236,-0.9965035,0.0,0.0,0.0,0.0,0
2048840000,0,-0.08354539,-0.0020291673,-0.000773635,-0.99650615,0.0,0.0,0.0,0.0,0
2048848000,0,-0.08353533,-0.0016304074,-0.0008753115,-0.99650764,0.0,0.0,0.0,0.0,0
2048860000,0,-0.08352101,-0.0010443231,-0.0010297142,-0.9965095,0.0,0.0,0.0,0.0,0
2048868000,0,-0.083511926,-0.0006666415,-0.0011205233,-0.9965105,0.0,0.0,0.0,0.0,0
2048880000,0,-0.08350032,-0.000121161625,-0.001227933,-0.9965116,0.0,0.0,0.0,0.0,0
2048888000,0,-0.08349389,0.00023632128,-0.0012902438,-0.996512,0.0,0.0,0.0,0.0,0
2048900000,0,-0.08348548,0.00077641715,-0.0013781175,-0.9965123,0.0,0.0,0.0,0.0,0
2048908000,0,-0.08348053,0.0011272494,-0.001431198,-0.9965123,0.0,0.0,0.0,0.0,0
2048920000,0,-0.08347495,0.0016383509,-0.00151492,-0.99651194,0.0,0.0,0.0,0.0,0
2048928000,0,-0.08347213,0.001975014,-0.001580094,-0.99651146,0.0,0.0,0.0,0.0,0
2048940000,0,-0.0834684,0.0024669378,-0.0016809269,-0.9965105,0.0,0.0,0.0,0.0,0
2048948000,0,-0.08346644,0.0027818412,-0.0017392666,-0.99650973,0.0,0.0,0.0,0.0,0
2048960000,0,-0.08346511,0.0032347003,-0.0018330343,-0.99650836,0.0,0.0,0.0,0.0,0
2048968000,0,-0.08346512,0.003525675,-0.0019005532,-0.9965072,0.0,0.0,0.0,0.0,0
2048980000,0,-0.08346573,0.003943314,-0.001994855,-0.99650544,0.0,0.0,0.0,0.0,0
2048984000,0,-0.08346615,0.004076994,-0.0020206084,-0.9965048,0.0,0.0,0.0,0.0,0
2049000000,0,-0.083469056,0.004590827,-0.002116996,-0.9965021,0.0,0.0,0.0,0.0,0
2049008000,0,-0.08347066,0.0048398534,-0.0021727586,-0.9965007,0.0,0.0,0.0,0.0,0
2049020000,0,-0.08347212,0.0052118017,-0.0022511755,-0.9964985,0.0,0.0,0.0,0.0,0
2049028000,0,-0.08347279,0.0054525873,-0.00230056,-0.99649704,0.0,0.0,0.0,0.0,0
2049040000,0,-0.08347328,0.0057988865,-0.0023831355,-0.9964949,0.0,0.0,0.0,0.0,0
2049048000,0,-0.08347272,0.0060250144,-0.0024353804,-0.99649346,0.0,0.0,0.0,0.0,0
2049060000,0,-0.08346978,0.006360374,-0.0024920078,-0.9964915,0.0,0.0,0.0,0.0,0
2049068000,0,-0.08346675,0.0065791947,-0.0025153062,-0.99649024,0.0,0.0,0.0,0.0,0
2049080000,0,-0.08346091,0.0069016567,-0.0025436052,-0.99648845,0.0,0.0,0.0,0.0,0
2049088000,0,-0.08345582,0.0071153822,-0.0025580297,-0.9964874,0.0,0.0,0.0,0.0,0
2049100000,0,-0.08344569,0.007415051,-0.0025749693,-0.996486,0.0,0.0,0.0,0.0,0
2049108000,0,-0.083437644,0.007600055,-0.002587205,-0.99648523,0.0,0.0,0.0,0.0,0
2049120000,0,-0.08342374,0.007864885,-0.0026173703,-0.9964843,0.0,0.0,0.0,0.0,0
2049128000,0,-0.08341317,0.0080321925,-0.0026475387,-0.99648374,0.0,0.0,0.0,0.0,0
2049140000,0,-0.08339526,0.008268207,-0.0026857879,-0.9964832,0.0,0.0,0.0,0.0,0
2049148000,0,-0.08338217,0.008417908,-0.002709692,-0.99648297,0.0,0.0,0.0,0.0,0
2049160000,0,-0.08336057,0.00863979,-0.0027441622,-0.9964828,0.0,0.0,0.0,0.0,0
2049168000,0,-0.08334473,0.008784303,-0.0027618734,-0.9964828,0.0,0.0,0.0,0.0,0
2049176000,0,-0.08332793,0.008924998,-0.0027750717,-0.9964829,0.0,0.0,0.0,0.0,0
2049184000,0,-0.08331042,0.009060531,-0.0027899393,-0.9964831,0.0,0.0,0.0,0.0,0
2049200000,0,-0.08327297,0.009320036,-0.002831342,-0.99648374,0.0,0.0,0.0,0.0,0
2049208000,0,-0.083252855,0.009445234,-0.0028588434,-0.99648416,0.0,0.0,0.0,0.0,0
2049220000,0,-0.08322121,0.009624496,-0.0029004836,-0.996485,0.0,0.0,0.0,0.0,0
2049228000,0,-0.083199404,0.009731094,-0.002934312,-0.99648565,0.0,0.0,0.0,0.0,0
2049240000,0,-0.08316592,0.009867928,-0.0029895555,-0.99648696,0.0,0.0,0.0,0.0,0
2049248000,0,-0.08314276,0.009949244,-0.0030180134,-0.996488,0.0,0.0,0.0,0.0,0
2049260000,0,-0.08310751,0.010060243,-0.0030550312,-0.9964897,0.0,0.0,0.0,0.0,0
2049268000,0,-0.083084084,0.010128004,-0.0030806926,-0.9964909,0.0,0.0,0.0,0.0,0
2049280000,0,-0.083049305,0.010234799,-0.0031265505,-0.99649256,0.0,0.0,0.0,0.0,0
2049288000,0,-0.0830265,0.010308284,-0.003165087,-0.9964936,0.0,0.0,0.0,0.0,0
2049300000,0,-0.082993045,0.010411208,-0.003228855,-0.99649507,0.0,0.0,0.0,0.0,0
2049308000,0,-0.08297118,0.010476997,-0.0032726103,-0.9964961,0.0,0.0,0.0,0.0,0
2049320000,0,-0.08293903,0.010576505,-0.0033369956,-0.99649745,0.0,0.0,0.0,0.0,0
2049328000,0,-0.08291819,0.010643042,-0.0033849545,-0.99649835,0.0,0.0,0.0,0.0,0
2049340000,0,-0.0828883,0.010739162,-0.0034561467,-0.99649954,0.0,0.0,0.0,0.0,0
2049348000,0,-0.082869366,0.010802225,-0.0034987305,-0.9965003,0.0,0.0,0.0,0.0,0
2049360000,0,-0.08284228,0.010901211,-0.0035599624,-0.99650127,0.0,0.0,0.0,0.0,0
2049368000,0,-0.08282521,0.010960907,-0.0035957438,-0.99650186,0.0,0.0,0.0,0.0,0
2049380000,0,-0.08280171,0.011051029,-0.003653778,-0.99650264,0.0,0.0,0.0,0.0,0
2049388000,0,-0.08278718,0.0111204395,-0.0036953425,-0.99650294,0.0,0.0,0.0,0.0,0
2049400000,0,-0.082766175,0.011240257,-0.003739514,-0.9965032,0.0,0.0,0.0,0.0,0
2049408000,0,-0.08275273,0.011321055,-0.0037556747,-0.9965033,0.0,0.0,0.0,0.0,0
2049420000,0,-0.08273385,0.011435402,-0.0037763247,-0.9965035,0.0,0.0,0.0,0.0,0
2049428000,0,-0.08272222,0.011509,-0.0037896694,-0.99650353,0.0,0.0,0.0,0.0,0
2049440000,0,-0.08270583,0.011617599,-0.0038004725,-0.9965036,0.0,0.0,0.0,0.0,0
2049448000,0,-0.08269531,0.011684525,-0.003800044,-0.9965037,0.0,0.0,0.0,0.0,0
2049460000,0,-0.08268009,0.011771714,-0.0037914235,-0.99650395,0.0,0.0,0.0,0.0,0
2049468000,0,-0.08267031,0.011819212,-0.0037808947,-0.99650425,0.0,0.0,0.0,0.0,0
2049480000,0,-0.08265644,0.011881815,-0.0037690878,-0.9965047,0.0,0.0,0.0,0.0,0
2049488000,0,-0.08264797,0.011916023,-0.003769037,-0.996505,0.0,0.0,0.0,0.0,0
2049500000,0,-0.08263659,0.011952158,-0.003779805,-0.9965055,0.0,0.0,0.0,0.0,0
2049508000,0,-0.082630046,0.011968088,-0.0037960114,-0.99650574,0.0,0.0,0.0,0.0,0
2049520000,0,-0.08262178,0.011986929,-0.0038322262,-0.9965061,0.0,0.0,0.0,0.0,0
2049528000,0,-0.082617074,0.0119990315,-0.0038539798,-0.9965062,0.0,0.0,0.0,0.0,0
2049540000,0,-0.082610786,0.012024802,-0.0038759292,-0.9965064,0.0,0.0,0.0,0.0,0
2049548000,0,-0.08260708,0.01204706,-0.003879644,-0.9965064,0.0,0.0,0.0,0.0,0
2049560000,0,-0.082602516,0.01208241,-0.0038724872,-0.9965064,0.0,0.0,0.0,0.0,0
2049568000,0,-0.082600504,0.012108311,-0.0038684672,-0.9965062,0.0,0.0,0.0,0.0,0
2049580000,0,-0.082598895,0.012146709,-0.0038638616,-0.9965059,0.0,0.0,0.0,0.0,0
2049588000,0,-0.08259851,0.012169237,-0.003860549,-0.9965057,0.0,0.0,0.0,0.0,0
2049600000,0,-0.082599126,0.012196138,-0.0038636893,-0.9965053,0.0,0.0,0.0,0.0,0
2049608000,0,-0.082600094,0.012213878,-0.003869032,-0.99650496,0.0,0.0,0.0,0.0,0
2049620000,0,-0.08260225,0.012240724,-0.0038743522,-0.9965044,0.0,0.0,0.0,0.0,0
2049628000,0,-0.08260402,0.012257137,-0.0038720502,-0.9965041,0.0,0.0,0.0,0.0,0
2049640000,0,-0.08260715,0.012273662,-0.0038639707,-0.9965037,0.0,0.0,0.0,0.0,0
2049648000,0,-0.082609564,0.012273688,-0.003852276,-0.99650353,0.0,0.0,0.0,0.0,0
2049660000,0,-0.08261335,0.0122551555,-0.0038216503,-0.99650353,0.0,0.0,0.0,0.0,0
2049668000,0,-0.08261571,0.012231524,-0.003793436,-0.9965038,0.0,0.0,0.0,0.0,0
2049680000,0,-0.0826187,0.012188186,-0.0037425265,-0.99650425,0.0,0.0,0.0,0.0,0
2049688000,0,-0.08262025,0.012161457,-0.0037039828,-0.9965046,0.0,0.0,0.0,0.0,0
2049700000,0,-0.082622014,0.012128293,-0.0036447372,-0.9965051,0.0,0.0,0.0,0.0,0
2049708000,0,-0.082623065,0.012106848,-0.003604308,-0.9965054,0.0,0.0,0.0,0.0,0
2049720000,0,-0.08262495,0.012077446,-0.00353336,-0.99650586,0.0,0.0,0.0,0.0,0
2049728000,0,-0.08262673,0.01205726,-0.003490881,-0.9965061,0.0,0.0,0.0,0.0,0
2049740000,0,-0.08262998,0.01202222,-0.0034384916,-0.9965064,0.0,0.0,0.0,0.0,0
2049748000,0,-0.08263241,0.012005065,-0.003407699,-0.9965065,0.0,0.0,0.0,0.0,0
2049760000,0,-0.08263704,0.011984699,-0.0033745635,-0.9965065,0.0,0.0,0.0,0.0,0
2049768000,0,-0.08264104,0.011972992,-0.0033610328,-0.99650633,0.0,0.0,0.0,0.0,0
2049780000,0,-0.08264862,0.0119551085,-0.003351775,-0.996506,0.0,0.0,0.0,0.0,0
2049788000,0,-0.082654834,0.011942564,-0.003349197,-0.9965056,0.0,0.0,0.0,0.0,0
2049796000,0,-0.082661934,0.01192981,-0.003342192,-0.9965052,0.0,0.0,0.0,0.0,0
2049804000,0,-0.08266979,0.011916469,-0.0033258284,-0.9965048,0.0,0.0,0.0,0.0,0
2049820000,0,-0.08268744,0.011874669,-0.0032811535,-0.99650395,0.0,0.0,0.0,0.0,0
2049828000,0,-0.08269713,0.011844189,-0.0032510946,-0.9965036,0.0,0.0,0.0,0.0,0
2049840000,0,-0.0827123,0.011794522,-0.0031935908,-0.9965031,0.0,0.0,0.0,0.0,0
2049848000,0,-0.08272281,0.011755698,-0.0031517188,-0.9965028,0.0,0.0,0.0,0.0,0
2049860000,0,-0.08273925,0.011692559,-0.0030845106,-0.9965024,0.0,0.0,0.0,0.0,0
2049868000,0,-0.08275066,0.0116542615,-0.0030386567,-0.99650204,0.0,0.0,0.0,0.0,0
2049880000,0,-0.08276813,0.011594507,-0.0029680915,-0.9965015,0.0,0.0,0.0,0.0,0
2049888000,0,-0.082779884,0.011548626,-0.0029169137,-0.99650127,0.0,0.0,0.0,0.0,0
2049900000,0,-0.082797654,0.011469756,-0.002835521,-0.9965009,0.0,0.0,0.0,0.0,0
2049908000,0,-0.0828096,0.011412027,-0.0027817409,-0.99650073,0.0,0.0,0.0,0.0,0
2049920000,0,-0.08282754,0.011320833,-0.0027150044,-0.99650043,0.0,0.0,0.0,0.0,0
2049928000,0,-0.08283913,0.011261218,-0.0026789452,-0.99650025,0.0,0.0,0.0,0.0,0
2049940000,0,-0.082855836,0.011170381,-0.0026355335,-0.9965,0.0,0.0,0.0,0.0,0
2049948000,0,-0.08286656,0.01110742,-0.0026199196,-0.9964999,0.0,0.0,0.0,0.0,0
2049960000,0,-0.0828818,0.0110105695,-0.0026133473,-0.9964997,0.0,0.0,0.0,0.0,0
2049968000,0,-0.082891084,0.010944826,-0.0026073018,-0.99649966,0.0,0.0,0.0,0.0,0
2049980000,0,-0.082903974,0.010845586,-0.002603613,-0.9964997,0.0,0.0,0.0,0.0,0
2049988000,0,-0.08291196,0.010778747,-0.002601877,-0.9964998,0.0,0.0,0.0,0.0,0
2050000000,0,-0.082923055,0.01067207,-0.0026010673,-0.99649996,0.0,0.0,0.0,0.0,0
2050008000,0,-0.08292984,0.010596527,-0.0025987283,-0.99650025,0.0,0.0,0.0,0.0,0
2050020000,0,-0.08293902,0.010476877,-0.0025838907,-0.9965008,0.0,0.0,0.0,0.0,0
2050028000,0,-0.0829443,0.010396044,-0.0025648302,-0.9965012,0.0,0.0,0.0,0.0,0
2050040000,0,-0.0829507,0.010276738,-0.0025170632,-0.99650204,0.0,0.0,0.0,0.0,0
2050048000,0,-0.08295396,0.010194985,-0.0024765944,-0.9965027,0.0,0.0,0.0,0.0,0
2050060000,0,-0.08295763,0.01007252,-0.0024147558,-0.99650383,0.0,0.0,0.0,0.0,0
2050068000,0,-0.08295924,0.0099871885,-0.0023772921,-0.9965046,0.0,0.0,0.0,0.0,0
2050080000,0,-0.08296069,0.009847792,-0.0023391068,-0.996506,0.0,0.0,0.0,0.0,0
2050088000,0,-0.08296099,0.009749704,-0.0023239988,-0.996507,0.0,0.0,0.0,0.0,0
2050100000,0,-0.08295986,0.009610628,-0.0022997689,-0.9965085,0.0,0.0,0.0,0.0,0
2050108000,0,-0.08295802,0.00952206,-0.00227926,-0.9965095,0.0,0.0,0.0,0.0,0
2050120000,0,-0.08295414,0.009395748,-0.0022417135,-0.9965111,0.0,0.0,0.0,0.0,0
2050128000,0,-0.0829511,0.00931507,-0.002218557,-0.9965122,0.0,0.0,0.0,0.0,0
2050140000,0,-0.08294618,0.009188287,-0.0021845873,-0.99651384,0.0,0.0,0.0,0.0,0
2050148000,0,-0.0829426,0.009097508,-0.0021595699,-0.99651504,0.0,0.0,0.0,0.0,0
2050160000,0,-0.08293691,0.008961115,-0.0021166462,-0.9965168,0.0,0.0,0.0,0.0,0
2050168000,0,-0.08293308,0.008873184,-0.0020804647,-0.996518,0.0,0.0,0.0,0.0,0
2050180000,0,-0.082927205,0.008759069,-0.002015203,-0.9965196,0.0,0.0,0.0,0.0,0
2050188000,0,-0.08292306,0.008696847,-0.00196585,-0.99652064,0.0,0.0,0.0,0.0,0
2050200000,0,-0.082916476,0.008609438,-0.0018878555,-0.99652207,0.0,0.0,0.0,0.0,0
2050208000,0,-0.082912035,0.008548292,-0.0018317609,-0.9965231,0.0,0.0,0.0,0.0,0
2050220000,0,-0.082905225,0.008450868,-0.0017529556,-0.99652463,0.0,0.0,0.0,0.0,0
2050228000,0,-0.082900636,0.008382419,-0.0016999192,-0.9965257,0.0,0.0,0.0,0.0,0
2050240000,0,-0.08289394,0.008273721,-0.0016141675,-0.9965273,0.0,0.0,0.0,0.0,0
2050248000,0,-0.082889706,0.0082024885,-0.0015531421,-0.9965283,0.0,0.0,0.0,0.0,0
2050260000,0,-0.08288363,0.008101235,-0.0014679389,-0.9965298,0.0,0.0,0.0,0.0,0
2050268000,0,-0.08287961,0.008036515,-0.0014184086,-0.9965307,0.0,0.0,0.0,0.0,0
2050280000,0,-0.082873166,0.007953878,-0.0013497565,-0.996532,0.0,0.0,0.0,0.0,0
2050288000,0,-0.08286868,0.007917019,-0.0013090558,-0.99653274,0.0,0.0,0.0,0.0,0
2050300000,0,-0.08286182,0.0078719575,-0.0012579821,-0.99653375,0.0,0.0,0.0,0.0,0
2050308000,0,-0.08285727,0.007841922,-0.0012272242,-0.9965344,0.0,0.0,0.0,0.0,0
2050320000,0,-0.08285068,0.0077899885,-0.0011886235,-0.99653536,0.0,0.0,0.0,0.0,0
2050328000,0,-0.08284642,0.007749109,-0.0011661289,-0.9965361,0.0,0.0,0.0,0.0,0
2050340000,0,-0.082840085,0.0076766983,-0.0011370787,-0.9965372,0.0,0.0,0.0,0.0,0
2050344000,0,-0.082838,0.007649518,-0.0011292925,-0.99653757,0.0,0.0,0.0,0.0,0
2050360000,0,-0.08282982,0.007532115,-0.0011071308,-0.9965392,0.0,0.0,0.0,0.0,0
2050368000,0,-0.08282565,0.007472843,-0.0011026666,-0.99654,0.0,0.0,0.0,0.0,0
2050380000,0,-0.0828192,0.0073886435,-0.0011071804,-0.99654114,0.0,0.0,0.0,0.0,0
2050388000,0,-0.08281493,0.0073366095,-0.0011242982,-0.99654186,0.0,0.0,0.0,0.0,0
2050400000,0,-0.08280843,0.007264867,-0.0011447519,-0.99654293,0.0,0.0,0.0,0.0,0
2050408000,0,-0.08280388,0.0072193523,-0.00115057,-0.9965436,0.0,0.0,0.0,0.0,0
2050420000,0,-0.0827967,0.0071475753,-0.0011421483,-0.9965447,0.0,0.0,0.0,0.0,0
2050428000,0,-0.08279165,0.0070965984,-0.0011217964,-0.99654555,0.0,0.0,0.0,0.0,0
2050440000,0,-0.08278369,0.007010848,-0.0010773576,-0.99654686,0.0,0.0,0.0,0.0,0
2050448000,0,-0.08277822,0.0069519538,-0.001047018,-0.99654776,0.0,0.0,0.0,0.0,0
2050460000,0,-0.082769305,0.006866751,-0.0010044269,-0.9965491,0.0,0.0,0.0,0.0,0
2050468000,0,-0.08276272,0.006810016,-0.0009772744,-0.9965501,0.0,0.0,0.0,0.0,0
2050480000,0,-0.08275182,0.006731411,-0.0009359308,-0.9965516,0.0,0.0,0.0,0.0,0
2050488000,0,-0.082744,0.0066846753,-0.00091994164,-0.9965526,0.0,0.0,0.0,0.0,0
2050500000,0,-0.08273164,0.0066180634,-0.0009198557,-0.996554,0.0,0.0,0.0,0.0,0
2050508000,0,-0.08272302,0.006572223,-0.000931349,-0.99655503,0.0,0.0,0.0,0.0,0
2050520000,0,-0.08270949,0.006502437,-0.0009445715,-0.9965566,0.0,0.0,0.0,0.0,0
2050528000,0,-0.082700185,0.0064526713,-0.0009452041,-0.9965577,0.0,0.0,0.0,0.0,0
2050540000,0,-0.08268619,0.006374038,-0.0009395387,-0.9965594,0.0,0.0,0.0,0.0,0
2050548000,0,-0.082677096,0.0063211396,-0.0009301371,-0.99656045,0.0,0.0,0.0,0.0,0
2050560000,0,-0.08266442,0.006242373,-0.0009150551,-0.99656206,0.0,0.0,0.0,0.0,0
2050568000,0,-0.08265679,0.006191573,-0.0009069898,-0.996563,0.0,0.0,0.0,0.0,0
2050580000,0,-0.08264674,0.006115942,-0.00088626787,-0.9965643,0.0,0.0,0.0,0.0,0
2050588000,0,-0.082641214,0.006063682,-0.00086225005,-0.9965651,0.0,0.0,0.0,0.0,0
2050600000,0,-0.08263458,0.005985062,-0.000817746,-0.9965662,0.0,0.0,0.0,0.0,0
2050608000,0,-0.08263104,0.005938572,-0.0007818278,-0.9965668,0.0,0.0,0.0,0.0,0
2050620000,0,-0.08262687,0.0058804783,-0.00072375033,-0.9965675,0.0,0.0,0.0,0.0,0
2050624000,0,-0.08262573,0.0058617843,-0.0007064189,-0.9965677,0.0,0.0,0.0,0.0,0
2050640000,0,-0.082622424,0.0057875784,-0.00064599357,-0.9965685,0.0,0.0,0.0,0.0,0
