timestamp,previous.timestamp,previous.lat,previous.lon,previous.vx,previous.vy,previous.vz,previous.alt,previous.yaw,previous.loiter_radius,previous.loiter_minor_radius,previous.loiter_orientation,previous.acceptance_radius,previous.alt_acceptance_radius,previous.cruising_speed,previous.cruising_throttle,previous.valid,previous.type,previous.loiter_direction_counter_clockwise,previous.loiter_pattern,previous.gliding_enabled,previous._padding0[0],previous._padding0[1],previous._padding0[2],current.timestamp,current.lat,current.lon,current.vx,current.vy,current.vz,current.alt,current.yaw,current.loiter_radius,current.loiter_minor_radius,current.loiter_orientation,current.acceptance_radius,current.alt_acceptance_radius,current.cruising_speed,current.cruising_throttle,current.valid,current.type,current.loiter_direction_counter_clockwise,current.loiter_pattern,current.gliding_enabled,current._padding0[0],current._padding0[1],current._padding0[2],next.timestamp,next.lat,next.lon,next.vx,next.vy,next.vz,next.alt,next.yaw,next.loiter_radius,next.loiter_minor_radius,next.loiter_orientation,next.acceptance_radius,next.alt_acceptance_radius,next.cruising_speed,next.cruising_throttle,next.valid,next.type,next.loiter_direction_counter_clockwise,next.loiter_pattern,next.gliding_enabled,next._padding0[0],next._padding0[1],next._padding0[2]
2043324000,2043324000,nan,nan,0.0,0.0,0.0,0.0,nan,80.0,0.0,0.0,2.0,0.0,-1.0,nan,0,5,0,0,0,0,0,0,2043324000,47.398169546138256,8.54538693814961,0.0,0.0,0.0,491.10712,nan,80.0,0.0,0.0,2.0,nan,-1.0,nan,1,3,0,0,0,0,0,0,2043324000,nan,nan,0.0,0.0,0.0,0.0,nan,80.0,0.0,0.0,2.0,0.0,-1.0,nan,0,5,0,0,0,0,0,0
2051600000,2043324000,nan,nan,0.0,0.0,0.0,0.0,nan,80.0,0.0,0.0,2.0,0.0,-1.0,nan,0,5,0,0,0,0,0,0,2051600000,47.398169546138256,8.54538693814961,0.0,0.0,0.0,491.10712,nan,80.0,0.0,0.0,2.0,nan,-1.0,nan,1,2,0,0,0,0,0,0,2043324000,nan,nan,0.0,0.0,0.0,0.0,nan,80.0,0.0,0.0,2.0,0.0,-1.0,nan,0,5,0,0,0,0,0,0
2051612000,2043324000,nan,nan,0.0,0.0,0.0,0.0,nan,80.0,0.0,0.0,2.0,0.0,-1.0,nan,0,5,0,0,0,0,0,0,2051612000,47.398169546138256,8.54538693814961,0.0,0.0,0.0,491.10712,nan,80.0,0.0,0.0,2.0,nan,-1.0,nan,1,2,0,0,0,0,0,0,2043324000,nan,nan,0.0,0.0,0.0,0.0,nan,80.0,0.0,0.0,2.0,0.0,-1.0,nan,0,5,0,0,0,0,0,0
2057104000,2043324000,47.39816927048477,8.545386611041485,0.0,0.0,0.0,491.08124,2.9922893,80.0,0.0,0.0,2.0,0.0,-1.0,nan,0,5,0,0,0,0,0,0,2057104000,47.397978099999996,8.545533899999999,0.0,0.0,0.0,491.07098,nan,0.0,0.0,0.0,2.0,0.0,-1.0,nan,1,2,0,0,0,0,0,0,2043324000,nan,nan,0.0,0.0,0.0,0.0,nan,80.0,0.0,0.0,2.0,0.0,-1.0,nan,0,5,0,0,0,0,0,0
2064548000,2043324000,47.397989200855875,8.545524575614698,0.0,0.0,0.0,491.06723,2.6397831,80.0,0.0,0.0,2.0,0.0,-1.0,nan,0,5,0,0,0,0,0,0,2064548000,47.398185899999994,8.545644099999999,0.0,0.0,0.0,491.0603,nan,0.0,0.0,0.0,2.0,0.0,-1.0,nan,1,2,0,0,0,0,0,0,2043324000,nan,nan,0.0,0.0,0.0,0.0,nan,80.0,0.0,0.0,2.0,0.0,-1.0,nan,0,5,0,0,0,0,0,0
2073984000,2043324000,47.398181228208955,8.545643064900796,0.0,0.0,0.0,491.06326,0.28172708,80.0,0.0,0.0,2.0,0.0,-1.0,nan,0,5,0,0,0,0,0,0,2073984000,47.398228499999995,8.545510199999999,0.0,0.0,0.0,491.064,nan,0.0,0.0,0.0,2.0,0.0,-1.0,nan,1,2,0,0,0,0,0,0,2043324000,nan,nan,0.0,0.0,0.0,0.0,nan,80.0,0.0,0.0,2.0,0.0,-1.0,nan,0,5,0,0,0,0,0,0
2081672000,2081672000,nan,nan,0.0,0.0,0.0,0.0,nan,80.0,0.0,0.0,2.0,0.0,-1.0,nan,0,5,0,0,0,0,0,0,2081672000,47.39822880940751,8.54551162726817,0.0,0.0,0.0,0.0,nan,80.0,0.0,0.0,2.0,nan,-1.0,nan,1,4,0,0,0,0,0,0,2081672000,nan,nan,0.0,0.0,0.0,0.0,nan,80.0,0.0,0.0,2.0,0.0,-1.0,nan,0,5,0,0,0,0,0,0
2087336000,2081672000,nan,nan,0.0,0.0,0.0,0.0,nan,80.0,0.0,0.0,2.0,0.0,-1.0,nan,0,5,0,0,0,0,0,0,2081672000,47.39822880940751,8.54551162726817,0.0,0.0,0.0,0.0,nan,80.0,0.0,0.0,2.0,nan,-1.0,nan,1,4,0,0,0,0,0,0,2081672000,nan,nan,0.0,0.0,0.0,0.0,nan,80.0,0.0,0.0,2.0,0.0,-1.0,nan,0,5,0,0,0,0,0,0
2087384000,2081672000,nan,nan,0.0,0.0,0.0,0.0,nan,80.0,0.0,0.0,2.0,0.0,-1.0,nan,0,5,0,0,0,0,0,0,2081672000,47.39822880940751,8.54551162726817,0.0,0.0,0.0,0.0,nan,80.0,0.0,0.0,2.0,nan,-1.0,nan,1,4,0,0,0,0,0,0,2081672000,nan,nan,0.0,0.0,0.0,0.0,nan,80.0,0.0,0.0,2.0,0.0,-1.0,nan,0,5,0,0,0,0,0,0
2087536000,2081672000,nan,nan,0.0,0.0,0.0,0.0,nan,80.0,0.0,0.0,2.0,0.0,-1.0,nan,0,5,0,0,0,0,0,0,2081672000,47.39822880940751,8.54551162726817,0.0,0.0,0.0,0.0,nan,80.0,0.0,0.0,2.0,nan,-1.0,nan,1,4,0,0,0,0,0,0,2081672000,nan,nan,0.0,0.0,0.0,0.0,nan,80.0,0.0,0.0,2.0,0.0,-1.0,nan,0,5,0,0,0,0,0,0
2087736000,2081672000,nan,nan,0.0,0.0,0.0,0.0,nan,80.0,0.0,0.0,2.0,0.0,-1.0,nan,0,5,0,0,0,0,0,0,2081672000,47.39822880940751,8.54551162726817,0.0,0.0,0.0,0.0,nan,80.0,0.0,0.0,2.0,nan,-1.0,nan,1,4,0,0,0,0,0,0,2081672000,nan,nan,0.0,0.0,0.0,0.0,nan,80.0,0.0,0.0,2.0,0.0,-1.0,nan,0,5,0,0,0,0,0,0
2087896000,2081672000,nan,nan,0.0,0.0,0.0,0.0,nan,80.0,0.0,0.0,2.0,0.0,-1.0,nan,0,5,0,0,0,0,0,0,2081672000,47.39822880940751,8.54551162726817,0.0,0.0,0.0,0.0,nan,80.0,0.0,0.0,2.0,nan,-1.0,nan,1,4,0,0,0,0,0,0,2081672000,nan,nan,0.0,0.0,0.0,0.0,nan,80.0,0.0,0.0,2.0,0.0,-1.0,nan,0,5,0,0,0,0,0,0
2088096000,2081672000,nan,nan,0.0,0.0,0.0,0.0,nan,80.0,0.0,0.0,2.0,0.0,-1.0,nan,0,5,0,0,0,0,0,0,2081672000,47.39822880940751,8.54551162726817,0.0,0.0,0.0,0.0,nan,80.0,0.0,0.0,2.0,nan,-1.0,nan,1,4,0,0,0,0,0,0,2081672000,nan,nan,0.0,0.0,0.0,0.0,nan,80.0,0.0,0.0,2.0,0.0,-1.0,nan,0,5,0,0,0,0,0,0
2088296000,2081672000,nan,nan,0.0,0.0,0.0,0.0,nan,80.0,0.0,0.0,2.0,0.0,-1.0,nan,0,5,0,0,0,0,0,0,2081672000,47.39822880940751,8.54551162726817,0.0,0.0,0.0,0.0,nan,80.0,0.0,0.0,2.0,nan,-1.0,nan,1,4,0,0,0,0,0,0,2081672000,nan,nan,0.0,0.0,0.0,0.0,nan,80.0,0.0,0.0,2.0,0.0,-1.0,nan,0,5,0,0,0,0,0,0
2088496000,2081672000,nan,nan,0.0,0.0,0.0,0.0,nan,80.0,0.0,0.0,2.0,0.0,-1.0,nan,0,5,0,0,0,0,0,0,2081672000,47.39822880940751,8.54551162726817,0.0,0.0,0.0,0.0,nan,80.0,0.0,0.0,2.0,nan,-1.0,nan,1,4,0,0,0,0,0,0,2081672000,nan,nan,0.0,0.0,0.0,0.0,nan,80.0,0.0,0.0,2.0,0.0,-1.0,nan,0,5,0,0,0,0,0,0
2088696000,2081672000,nan,nan,0.0,0.0,0.0,0.0,nan,80.0,0.0,0.0,2.0,0.0,-1.0,nan,0,5,0,0,0,0,0,0,2081672000,47.39822880940751,8.54551162726817,0.0,0.0,0.0,0.0,nan,80.0,0.0,0.0,2.0,nan,-1.0,nan,1,4,0,0,0,0,0,0,2081672000,nan,nan,0.0,0.0,0.0,0.0,nan,80.0,0.0,0.0,2.0,0.0,-1.0,nan,0,5,0,0,0,0,0,0
2088904000,2081672000,nan,nan,0.0,0.0,0.0,0.0,nan,80.0,0.0,0.0,2.0,0.0,-1.0,nan,0,5,0,0,0,0,0,0,2081672000,47.39822880940751,8.54551162726817,0.0,0.0,0.0,0.0,nan,80.0,0.0,0.0,2.0,nan,-1.0,nan,1,4,0,0,0,0,0,0,2081672000,nan,nan,0.0,0.0,0.0,0.0,nan,80.0,0.0,0.0,2.0,0.0,-1.0,nan,0,5,0,0,0,0,0,0
2089104000,2081672000,nan,nan,0.0,0.0,0.0,0.0,nan,80.0,0.0,0.0,2.0,0.0,-1.0,nan,0,5,0,0,0,0,0,0,2081672000,47.39822880940751,8.54551162726817,0.0,0.0,0.0,0.0,nan,80.0,0.0,0.0,2.0,nan,-1.0,nan,1,4,0,0,0,0,0,0,2081672000,nan,nan,0.0,0.0,0.0,0.0,nan,80.0,0.0,0.0,2.0,0.0,-1.0,nan,0,5,0,0,0,0,0,0
2089304000,2081672000,nan,nan,0.0,0.0,0.0,0.0,nan,80.0,0.0,0.0,2.0,0.0,-1.0,nan,0,5,0,0,0,0,0,0,2081672000,47.39822880940751,8.54551162726817,0.0,0.0,0.0,0.0,nan,80.0,0.0,0.0,2.0,nan,-1.0,nan,1,4,0,0,0,0,0,0,2081672000,nan,nan,0.0,0.0,0.0,0.0,nan,80.0,0.0,0.0,2.0,0.0,-1.0,nan,0,5,0,0,0,0,0,0
2089504000,2089504000,nan,nan,0.0,0.0,0.0,0.0,nan,80.0,0.0,0.0,2.0,0.0,-1.0,nan,0,5,0,0,0,0,0,0,2089504000,nan,nan,0.0,0.0,0.0,0.0,nan,80.0,0.0,0.0,2.0,0.0,-1.0,nan,0,5,0,0,0,0,0,0,2089504000,nan,nan,0.0,0.0,0.0,0.0,nan,80.0,0.0,0.0,2.0,0.0,-1.0,nan,0,5,0,0,0,0,0,0
2089704000,2089704000,nan,nan,0.0,0.0,0.0,0.0,nan,80.0,0.0,0.0,2.0,0.0,-1.0,nan,0,5,0,0,0,0,0,0,2089704000,nan,nan,0.0,0.0,0.0,0.0,nan,80.0,0.0,0.0,2.0,0.0,-1.0,nan,0,5,0,0,0,0,0,0,2089704000,nan,nan,0.0,0.0,0.0,0.0,nan,80.0,0.0,0.0,2.0,0.0,-1.0,nan,0,5,0,0,0,0,0,0
2089904000,2089904000,nan,nan,0.0,0.0,0.0,0.0,nan,80.0,0.0,0.0,2.0,0.0,-1.0,nan,0,5,0,0,0,0,0,0,2089904000,nan,nan,0.0,0.0,0.0,0.0,nan,80.0,0.0,0.0,2.0,0.0,-1.0,nan,0,5,0,0,0,0,0,0,2089904000,nan,nan,0.0,0.0,0.0,0.0,nan,80.0,0.0,0.0,2.0,0.0,-1.0,nan,0,5,0,0,0,0,0,0
2090104000,2090104000,nan,nan,0.0,0.0,0.0,0.0,nan,80.0,0.0,0.0,2.0,0.0,-1.0,nan,0,5,0,0,0,0,0,0,2090104000,nan,nan,0.0,0.0,0.0,0.0,nan,80.0,0.0,0.0,2.0,0.0,-1.0,nan,0,5,0,0,0,0,0,0,2090104000,nan,nan,0.0,0.0,0.0,0.0,nan,80.0,0.0,0.0,2.0,0.0,-1.0,nan,0,5,0,0,0,0,0,0
2090304000,2090304000,nan,nan,0.0,0.0,0.0,0.0,nan,80.0,0.0,0.0,2.0,0.0,-1.0,nan,0,5,0,0,0,0,0,0,2090304000,nan,nan,0.0,0.0,0.0,0.0,nan,80.0,0.0,0.0,2.0,0.0,-1.0,nan,0,5,0,0,0,0,0,0,2090304000,nan,nan,0.0,0.0,0.0,0.0,nan,80.0,0.0,0.0,2.0,0.0,-1.0,nan,0,5,0,0,0,0,0,0
