timestamp,timestamp_sample,gps_hvel[0],gps_hvel[1],gps_vvel,gps_hpos[0],gps_hpos[1],gps_vpos,ev_hvel[0],ev_hvel[1],ev_vvel,ev_hpos[0],ev_hpos[1],ev_vpos,rng_vpos,baro_vpos,aux_hvel[0],aux_hvel[1],flow[0],flow[1],heading,mag_field[0],mag_field[1],mag_field[2],gravity[0],gravity[1],gravity[2],drag[0],drag[1],airspeed,beta,hagl,hagl_rate
2043328000,2043176000,0.00030413287,0.0006693446,0.0003437504,1.9007817e-05,2.1669544e-05,2.1584444e-06,0.0,0.0,0.0,0.0,0.0,0.0,0.0,4.907444e-07,0.0,0.0,0.0,0.0,0.0001649909,9.188683e-05,0.0001649909,9.78116e-06,0.00017670251,0.0071490454,6.074493e-07,0.0,0.0,0.0,0.0,0.0,0.0
2043336000,2043184000,0.00030413287,0.0006693446,0.0003437504,1.9007817e-05,2.1669544e-05,2.1584444e-06,0.0,0.0,0.0,0.0,0.0,0.0,0.0,5.791606e-09,0.0,0.0,0.0,0.0,0.0001649909,9.188683e-05,0.0001649909,9.78116e-06,6.689604e-06,0.0012309818,2.3283064e-08,0.0,0.0,0.0,0.0,0.0,0.0
2043344000,2043192000,0.00030413287,0.0006693446,0.0003437504,1.9007817e-05,2.1669544e-05,2.1584444e-06,0.0,0.0,0.0,0.0,0.0,0.0,0.0,5.791606e-09,0.0,0.0,0.0,0.0,0.0001649909,9.188683e-05,0.0001649909,9.78116e-06,1.4102864e-07,0.002200225,6.065699e-08,0.0,0.0,0.0,0.0,0.0,0.0
2043352000,2043200000,0.00030413287,0.0006693446,0.0003437504,1.9007817e-05,2.1669544e-05,2.1584444e-06,0.0,0.0,0.0,0.0,0.0,0.0,0.0,5.791606e-09,0.0,0.0,0.0,0.0,0.00029786554,0.00029786554,1.0645801e-05,0.00019227645,0.000857522,7.217923e-05,7.697963e-09,0.0,0.0,0.0,0.0,0.0,0.0
2043360000,2043208000,0.00030413287,0.0006693446,0.0003437504,1.9007817e-05,2.1669544e-05,2.1584444e-06,0.0,0.0,0.0,0.0,0.0,0.0,0.0,5.791606e-09,0.0,0.0,0.0,0.0,0.00029786554,0.00029786554,1.0645801e-05,0.00019227645,0.00011899522,4.2498337e-05,8.294819e-09,0.0,0.0,0.0,0.0,0.0,0.0
2043368000,2043216000,0.00030413287,0.0006693446,0.0003437504,1.9007817e-05,2.1669544e-05,2.1584444e-06,0.0,0.0,0.0,0.0,0.0,0.0,0.0,5.791606e-09,0.0,0.0,0.0,0.0,0.00029786554,0.00029786554,1.0645801e-05,0.00019227645,0.00025094167,1.2490927e-05,5.2532414e-09,0.0,0.0,0.0,0.0,0.0,0.0
2043376000,2043224000,0.00030413287,0.0006693446,0.0003437504,1.9007817e-05,2.1669544e-05,2.1584444e-06,0.0,0.0,0.0,0.0,0.0,0.0,0.0,5.791606e-09,0.0,0.0,0.0,0.0,0.00029786554,0.00029786554,1.0645801e-05,0.00019227645,0.0026665474,0.00072961685,7.5729645e-09,0.0,0.0,0.0,0.0,0.0,0.0
2043384000,2043232000,0.00030413287,0.0006693446,0.0003437504,1.9007817e-05,2.1669544e-05,2.1584444e-06,0.0,0.0,0.0,0.0,0.0,0.0,0.0,5.791606e-09,0.0,0.0,0.0,0.0,0.00029786554,0.00029786554,1.0645801e-05,0.00019227645,0.0003731457,0.000119589655,3.4761115e-08,0.0,0.0,0.0,0.0,0.0,0.0
2043400000,2043248000,0.00030413287,0.0006693446,0.0003437504,1.9007817e-05,2.1669544e-05,2.1584444e-06,0.0,0.0,0.0,0.0,0.0,0.0,0.0,5.791606e-09,0.0,0.0,0.0,0.0,0.00029786554,0.00029786554,1.0645801e-05,0.00019227645,2.3657858e-05,0.00016379863,3.5243488e-09,0.0,0.0,0.0,0.0,0.0,0.0
2043408000,2043256000,0.00030413287,0.0006693446,0.0003437504,1.9007817e-05,2.1669544e-05,2.1584444e-06,0.0,0.0,0.0,0.0,0.0,0.0,0.0,1.6183061e-05,0.0,0.0,0.0,0.0,0.00029786554,0.00029786554,1.0645801e-05,0.00019227645,0.001534296,0.0018407124,2.7456792e-08,0.0,0.0,0.0,0.0,0.0,0.0
2043416000,2043264000,0.00030413287,0.0006693446,0.0003437504,1.9007817e-05,2.1669544e-05,2.1584444e-06,0.0,0.0,0.0,0.0,0.0,0.0,0.0,1.6183061e-05,0.0,0.0,0.0,0.0,0.00029786554,0.00029786554,1.0645801e-05,0.00019227645,0.00016407744,6.910337e-05,2.4829774e-09,0.0,0.0,0.0,0.0,0.0,0.0
2043424000,2043272000,0.00030413287,0.0006693446,0.0003437504,1.9007817e-05,2.1669544e-05,2.1584444e-06,0.0,0.0,0.0,0.0,0.0,0.0,0.0,1.6183061e-05,0.0,0.0,0.0,0.0,0.00014078115,7.0706046e-06,2.5580375e-05,0.00014078115,0.00020583504,0.0007829816,5.3483973e-10,0.0,0.0,0.0,0.0,0.0,0.0
2043440000,2043288000,0.00030413287,0.0006693446,0.0003437504,1.9007817e-05,2.1669544e-05,2.1584444e-06,0.0,0.0,0.0,0.0,0.0,0.0,0.0,1.6183061e-05,0.0,0.0,0.0,0.0,0.00014078115,7.0706046e-06,2.5580375e-05,0.00014078115,3.031455e-05,0.0012085442,3.3877768e-08,0.0,0.0,0.0,0.0,0.0,0.0
2043448000,2043296000,0.00030413287,0.0006693446,0.0003437504,1.9007817e-05,2.1669544e-05,2.1584444e-06,0.0,0.0,0.0,0.0,0.0,0.0,0.0,1.6183061e-05,0.0,0.0,0.0,0.0,0.00014078115,7.0706046e-06,2.5580375e-05,0.00014078115,6.798456e-05,0.0005636875,4.604317e-10,0.0,0.0,0.0,0.0,0.0,0.0
2043456000,2043304000,0.00030413287,0.0006693446,0.0003437504,1.9007817e-05,2.1669544e-05,2.1584444e-06,0.0,0.0,0.0,0.0,0.0,0.0,0.0,1.6183061e-05,0.0,0.0,0.0,0.0,0.00014078115,7.0706046e-06,2.5580375e-05,0.00014078115,0.00033745726,0.00029208715,1.966555e-09,0.0,0.0,0.0,0.0,0.0,0.0
2043464000,2043312000,0.00030413287,0.0006693446,0.0003437504,1.9007817e-05,2.1669544e-05,2.1584444e-06,0.0,0.0,0.0,0.0,0.0,0.0,0.0,1.6183061e-05,0.0,0.0,0.0,0.0,0.00014078115,7.0706046e-06,2.5580375e-05,0.00014078115,0.0015922628,0.00036435295,2.6284397e-10,0.0,0.0,0.0,0.0,0.0,0.0
2043480000,2043328000,0.00030413287,0.0006693446,0.0003437504,1.9007817e-05,2.1669544e-05,2.1584444e-06,0.0,0.0,0.0,0.0,0.0,0.0,0.0,1.962267e-06,0.0,0.0,0.0,0.0,0.00014078115,7.0706046e-06,2.5580375e-05,0.00014078115,0.0005070474,1.7193923e-05,6.6486336e-09,0.0,0.0,0.0,0.0,0.0,0.0
2043488000,2043336000,0.00030413287,0.0006693446,0.0003437504,1.9007817e-05,2.1669544e-05,2.1584444e-06,0.0,0.0,0.0,0.0,0.0,0.0,0.0,1.962267e-06,0.0,0.0,0.0,0.0,0.00014078115,7.0706046e-06,2.5580375e-05,0.00014078115,0.0044933697,0.00018984723,1.9720176e-08,0.0,0.0,0.0,0.0,0.0,0.0
2043496000,2043344000,0.00030413287,0.0006693446,0.0003437504,1.9007817e-05,2.1669544e-05,2.1584444e-06,0.0,0.0,0.0,0.0,0.0,0.0,0.0,1.962267e-06,0.0,0.0,0.0,0.0,0.0018216837,0.0018216837,0.000101609505,6.190569e-07,2.279752e-05,0.00024093437,4.2055035e-09,0.0,0.0,0.0,0.0,0.0,0.0
2043504000,2043352000,0.00030413287,0.0006693446,0.0003437504,1.9007817e-05,2.1669544e-05,2.1584444e-06,0.0,0.0,0.0,0.0,0.0,0.0,0.0,1.962267e-06,0.0,0.0,0.0,0.0,0.0018216837,0.0018216837,0.000101609505,6.190569e-07,1.3285546e-05,0.0007009049,4.2055035e-09,0.0,0.0,0.0,0.0,0.0,0.0
2043520000,2043368000,0.00030413287,0.0006693446,0.0003437504,1.9007817e-05,2.1669544e-05,2.1584444e-06,0.0,0.0,0.0,0.0,0.0,0.0,0.0,1.962267e-06,0.0,0.0,0.0,0.0,0.0018216837,0.0018216837,0.000101609505,6.190569e-07,0.0029403304,0.0008293857,1.1768009e-08,0.0,0.0,0.0,0.0,0.0,0.0
2043528000,2043376000,0.00030413287,0.0006693446,0.0003437504,1.9007817e-05,2.1669544e-05,2.1584444e-06,0.0,0.0,0.0,0.0,0.0,0.0,0.0,1.962267e-06,0.0,0.0,0.0,0.0,0.0018216837,0.0018216837,0.000101609505,6.190569e-07,5.2345104e-07,5.575661e-05,5.684342e-14,0.0,0.0,0.0,0.0,0.0,0.0
2043536000,2043384000,0.00030413287,0.0006693446,0.0003437504,1.9007817e-05,2.1669544e-05,2.1584444e-06,0.0,0.0,0.0,0.0,0.0,0.0,0.0,1.962267e-06,0.0,0.0,0.0,0.0,0.0018216837,0.0018216837,0.000101609505,6.190569e-07,0.000105354564,0.00022935333,7.1304385e-10,0.0,0.0,0.0,0.0,0.0,0.0
2043544000,2043392000,0.00030413287,0.0006693446,0.0003437504,1.9007817e-05,2.1669544e-05,2.1584444e-06,0.0,0.0,0.0,0.0,0.0,0.0,0.0,1.962267e-06,0.0,0.0,0.0,0.0,0.0018216837,0.0018216837,0.000101609505,6.190569e-07,0.0004255767,0.00065016747,2.4760993e-10,0.0,0.0,0.0,0.0,0.0,0.0
2043560000,2043408000,0.00030413287,0.0006693446,0.0003437504,1.9007817e-05,2.1669544e-05,2.1584444e-06,0.0,0.0,0.0,0.0,0.0,0.0,0.0,4.1780077e-06,0.0,0.0,0.0,0.0,0.0018216837,0.0018216837,0.000101609505,6.190569e-07,0.0003831124,0.001154491,4.9467985e-09,0.0,0.0,0.0,0.0,0.0,0.0
2043568000,2043416000,0.00030413287,0.0006693446,0.0003437504,1.9007817e-05,2.1669544e-05,2.1584444e-06,0.0,0.0,0.0,0.0,0.0,0.0,0.0,4.1780077e-06,0.0,0.0,0.0,0.0,0.00014065583,0.00014065583,4.720485e-06,9.1243775e-05,0.00041838683,0.00012536724,4.184608e-08,0.0,0.0,0.0,0.0,0.0,0.0
2043576000,2043424000,0.00030413287,0.0006693446,0.0003437504,1.9007817e-05,2.1669544e-05,2.1584444e-06,0.0,0.0,0.0,0.0,0.0,0.0,0.0,4.1780077e-06,0.0,0.0,0.0,0.0,0.00014065583,0.00014065583,4.720485e-06,9.1243775e-05,0.0004105757,0.00075151934,2.7512215e-11,0.0,0.0,0.0,0.0,0.0,0.0
2043584000,2043432000,0.00030413287,0.0006693446,0.0003437504,1.9007817e-05,2.1669544e-05,2.1584444e-06,0.0,0.0,0.0,0.0,0.0,0.0,0.0,4.1780077e-06,0.0,0.0,0.0,0.0,0.00014065583,0.00014065583,4.720485e-06,9.1243775e-05,2.2217677e-05,0.000849876,3.754451e-09,0.0,0.0,0.0,0.0,0.0,0.0
2043600000,2043448000,0.00030413287,0.0006693446,0.0003437504,1.9007817e-05,2.1669544e-05,2.1584444e-06,0.0,0.0,0.0,0.0,0.0,0.0,0.0,4.1780077e-06,0.0,0.0,0.0,0.0,0.00014065583,0.00014065583,4.720485e-06,9.1243775e-05,0.0025925525,0.0003987538,1.6427748e-09,0.0,0.0,0.0,0.0,0.0,0.0
2043608000,2043456000,0.00030413287,0.0006693446,0.0003437504,1.9007817e-05,2.1669544e-05,2.1584444e-06,0.0,0.0,0.0,0.0,0.0,0.0,0.0,4.1780077e-06,0.0,0.0,0.0,0.0,0.00014065583,0.00014065583,4.720485e-06,9.1243775e-05,0.0035759977,9.397896e-05,3.4120262e-09,0.0,0.0,0.0,0.0,0.0,0.0
2043616000,2043464000,0.00030413287,0.0006693446,0.0003437504,1.9007817e-05,2.1669544e-05,2.1584444e-06,0.0,0.0,0.0,0.0,0.0,0.0,0.0,4.1780077e-06,0.0,0.0,0.0,0.0,0.00014065583,0.00014065583,4.720485e-06,9.1243775e-05,0.0010201789,1.8255385e-07,7.0832016e-09,0.0,0.0,0.0,0.0,0.0,0.0
2043624000,2043472000,0.00030413287,0.0006693446,0.0003437504,1.9007817e-05,2.1669544e-05,2.1584444e-06,0.0,0.0,0.0,0.0,0.0,0.0,0.0,1.3542844e-06,0.0,0.0,0.0,0.0,0.00014065583,0.00014065583,4.720485e-06,9.1243775e-05,3.2184103e-05,4.5452455e-07,1.1461907e-09,0.0,0.0,0.0,0.0,0.0,0.0
2043640000,2043488000,0.00030413287,0.0006693446,0.0003437504,1.9007817e-05,2.1669544e-05,2.1584444e-06,0.0,0.0,0.0,0.0,0.0,0.0,0.0,1.3542844e-06,0.0,0.0,0.0,0.0,0.00010548494,2.4603594e-06,0.00010548494,9.671764e-06,0.0020400274,3.0404603e-06,2.6032012e-09,0.0,0.0,0.0,0.0,0.0,0.0
2043648000,2043496000,0.00030413287,0.0006693446,0.0003437504,1.9007817e-05,2.1669544e-05,2.1584444e-06,0.0,0.0,0.0,0.0,0.0,0.0,0.0,1.3542844e-06,0.0,0.0,0.0,0.0,0.00010548494,2.4603594e-06,0.00010548494,9.671764e-06,3.2092405e-06,8.07342e-05,2.046363e-12,0.0,0.0,0.0,0.0,0.0,0.0
2043656000,2043504000,0.0001321493,0.00025668176,0.00020170979,6.430865e-06,2.5727632e-05,2.1415815e-08,0.0,0.0,0.0,0.0,0.0,0.0,0.0,1.3542844e-06,0.0,0.0,0.0,0.0,0.00010548494,2.4603594e-06,0.00010548494,9.671764e-06,0.0013006218,0.0018697365,2.2275572e-08,0.0,0.0,0.0,0.0,0.0,0.0
2043664000,2043512000,0.0001321493,0.00025668176,0.00020170979,6.430865e-06,2.5727632e-05,2.1415815e-08,0.0,0.0,0.0,0.0,0.0,0.0,0.0,1.3542844e-06,0.0,0.0,0.0,0.0,0.00010548494,2.4603594e-06,0.00010548494,9.671764e-06,0.000102514576,0.00017812947,1.0170936e-08,0.0,0.0,0.0,0.0,0.0,0.0
2043680000,2043528000,0.0001321493,0.00025668176,0.00020170979,6.430865e-06,2.5727632e-05,2.1415815e-08,0.0,0.0,0.0,0.0,0.0,0.0,0.0,1.3542844e-06,0.0,0.0,0.0,0.0,0.00010548494,2.4603594e-06,0.00010548494,9.671764e-06,1.1873421e-05,0.0021811363,9.3861274e-08,0.0,0.0,0.0,0.0,0.0,0.0
2043688000,2043536000,0.0001321493,0.00025668176,0.00020170979,6.430865e-06,2.5727632e-05,2.1415815e-08,0.0,0.0,0.0,0.0,0.0,0.0,0.0,6.212276e-06,0.0,0.0,0.0,0.0,0.00010548494,2.4603594e-06,0.00010548494,9.671764e-06,0.00023234489,6.1397666e-05,1.9653271e-08,0.0,0.0,0.0,0.0,0.0,0.0
2043696000,2043544000,0.0001321493,0.00025668176,0.00020170979,6.430865e-06,2.5727632e-05,2.1415815e-08,0.0,0.0,0.0,0.0,0.0,0.0,0.0,6.212276e-06,0.0,0.0,0.0,0.0,0.00010548494,2.4603594e-06,0.00010548494,9.671764e-06,0.00043652905,0.00032939136,5.3483973e-08,0.0,0.0,0.0,0.0,0.0,0.0
2043704000,2043552000,0.0001321493,0.00025668176,0.00020170979,6.430865e-06,2.5727632e-05,2.1415815e-08,0.0,0.0,0.0,0.0,0.0,0.0,0.0,6.212276e-06,0.0,0.0,0.0,0.0,6.650482e-05,7.2688845e-06,4.2769593e-06,6.650482e-05,0.0004713736,0.0016208609,1.5488922e-08,0.0,0.0,0.0,0.0,0.0,0.0
2043720000,2043568000,0.0001321493,0.00025668176,0.00020170979,6.430865e-06,2.5727632e-05,2.1415815e-08,0.0,0.0,0.0,0.0,0.0,0.0,0.0,6.212276e-06,0.0,0.0,0.0,0.0,6.650482e-05,7.2688845e-06,4.2769593e-06,6.650482e-05,0.0024440405,0.00011234556,5.820766e-11,0.0,0.0,0.0,0.0,0.0,0.0
2043728000,2043576000,0.0001321493,0.00025668176,0.00020170979,6.430865e-06,2.5727632e-05,2.1415815e-08,0.0,0.0,0.0,0.0,0.0,0.0,0.0,6.212276e-06,0.0,0.0,0.0,0.0,6.650482e-05,7.2688845e-06,4.2769593e-06,6.650482e-05,0.00070059585,0.0006506422,2.185061e-10,0.0,0.0,0.0,0.0,0.0,0.0
2043736000,2043584000,0.0001321493,0.00025668176,0.00020170979,6.430865e-06,2.5727632e-05,2.1415815e-08,0.0,0.0,0.0,0.0,0.0,0.0,0.0,6.212276e-06,0.0,0.0,0.0,0.0,6.650482e-05,7.2688845e-06,4.2769593e-06,6.650482e-05,0.000311163,8.370705e-05,4.7148205e-09,0.0,0.0,0.0,0.0,0.0,0.0
2043744000,2043592000,0.0001321493,0.00025668176,0.00020170979,6.430865e-06,2.5727632e-05,2.1415815e-08,0.0,0.0,0.0,0.0,0.0,0.0,0.0,1.8847044e-07,0.0,0.0,0.0,0.0,6.650482e-05,7.2688845e-06,4.2769593e-06,6.650482e-05,0.0007954873,0.0018279678,1.6452987e-08,0.0,0.0,0.0,0.0,0.0,0.0
2043760000,2043608000,0.0001321493,0.00025668176,0.00020170979,6.430865e-06,2.5727632e-05,2.1415815e-08,0.0,0.0,0.0,0.0,0.0,0.0,0.0,1.8847044e-07,0.0,0.0,0.0,0.0,6.650482e-05,7.2688845e-06,4.2769593e-06,6.650482e-05,2.8881967e-05,0.00041376025,1.6575541e-10,0.0,0.0,0.0,0.0,0.0,0.0
2043768000,2043616000,0.0001321493,0.00025668176,0.00020170979,6.430865e-06,2.5727632e-05,2.1415815e-08,0.0,0.0,0.0,0.0,0.0,0.0,0.0,1.8847044e-07,0.0,0.0,0.0,0.0,6.650482e-05,7.2688845e-06,4.2769593e-06,6.650482e-05,1.5055576e-05,6.4320855e-05,3.6379788e-10,0.0,0.0,0.0,0.0,0.0,0.0
2043776000,2043624000,0.0001321493,0.00025668176,0.00020170979,6.430865e-06,2.5727632e-05,2.1415815e-08,0.0,0.0,0.0,0.0,0.0,0.0,0.0,1.8847044e-07,0.0,0.0,0.0,0.0,0.00015171719,7.6186584e-06,0.00015171719,8.45621e-05,0.00012732197,0.0002055867,1.6427748e-09,0.0,0.0,0.0,0.0,0.0,0.0
2043784000,2043632000,0.0001321493,0.00025668176,0.00020170979,6.430865e-06,2.5727632e-05,2.1415815e-08,0.0,0.0,0.0,0.0,0.0,0.0,0.0,1.8847044e-07,0.0,0.0,0.0,0.0,0.00015171719,7.6186584e-06,0.00015171719,8.45621e-05,0.0011021663,0.00029231608,3.1391778e-09,0.0,0.0,0.0,0.0,0.0,0.0
2043800000,2043648000,0.0001321493,0.00025668176,0.00020170979,6.430865e-06,2.5727632e-05,2.1415815e-08,0.0,0.0,0.0,0.0,0.0,0.0,0.0,1.8847044e-07,0.0,0.0,0.0,0.0,0.00015171719,7.6186584e-06,0.00015171719,8.45621e-05,0.0004679408,1.163734e-05,7.448989e-09,0.0,0.0,0.0,0.0,0.0,0.0
2043808000,2043656000,0.0001321493,0.00025668176,0.00020170979,6.430865e-06,2.5727632e-05,2.1415815e-08,0.0,0.0,0.0,0.0,0.0,0.0,0.0,1.8847044e-07,0.0,0.0,0.0,0.0,0.00015171719,7.6186584e-06,0.00015171719,8.45621e-05,6.1664564e-06,7.8693025e-05,1.3096724e-10,0.0,0.0,0.0,0.0,0.0,0.0
2043816000,2043664000,0.0001321493,0.00025668176,0.00020170979,6.430865e-06,2.5727632e-05,2.1415815e-08,0.0,0.0,0.0,0.0,0.0,0.0,0.0,4.90629e-07,0.0,0.0,0.0,0.0,0.00015171719,7.6186584e-06,0.00015171719,8.45621e-05,0.0025049995,0.00047836645,4.81025e-07,0.0,0.0,0.0,0.0,0.0,0.0
2043824000,2043672000,0.0001321493,0.00025668176,0.00020170979,6.430865e-06,2.5727632e-05,2.1415815e-08,0.0,0.0,0.0,0.0,0.0,0.0,0.0,4.90629e-07,0.0,0.0,0.0,0.0,0.00015171719,7.6186584e-06,0.00015171719,8.45621e-05,0.00022942391,0.0038214845,1.2199877e-07,0.0,0.0,0.0,0.0,0.0,0.0
2043840000,2043688000,0.0001321493,0.00025668176,0.00020170979,6.430865e-06,2.5727632e-05,2.1415815e-08,0.0,0.0,0.0,0.0,0.0,0.0,0.0,4.90629e-07,0.0,0.0,0.0,0.0,0.00025053174,0.0002034528,0.00025053174,0.00014041134,0.00020451783,0.0006171238,4.7279173e-08,0.0,0.0,0.0,0.0,0.0,0.0
2043848000,2043696000,0.0001321493,0.00025668176,0.00020170979,6.430865e-06,2.5727632e-05,2.1415815e-08,0.0,0.0,0.0,0.0,0.0,0.0,0.0,4.90629e-07,0.0,0.0,0.0,0.0,0.00025053174,0.0002034528,0.00025053174,0.00014041134,0.0027307982,0.00047140248,1.1461907e-09,0.0,0.0,0.0,0.0,0.0,0.0
2043856000,2043704000,0.0001321493,0.00025668176,0.00020170979,6.430865e-06,2.5727632e-05,2.1415815e-08,0.0,0.0,0.0,0.0,0.0,0.0,0.0,4.90629e-07,0.0,0.0,0.0,0.0,0.00025053174,0.0002034528,0.00025053174,0.00014041134,0.00053086743,0.00064323994,8.599841e-10,0.0,0.0,0.0,0.0,0.0,0.0
2043864000,2043712000,0.0001321493,0.00025668176,0.00020170979,6.430865e-06,2.5727632e-05,2.1415815e-08,0.0,0.0,0.0,0.0,0.0,0.0,0.0,4.90629e-07,0.0,0.0,0.0,0.0,0.00025053174,0.0002034528,0.00025053174,0.00014041134,0.00013353722,0.0010044165,3.60169e-08,0.0,0.0,0.0,0.0,0.0,0.0
2043880000,2043728000,0.0001321493,0.00025668176,0.00020170979,6.430865e-06,2.5727632e-05,2.1415815e-08,0.0,0.0,0.0,0.0,0.0,0.0,0.0,4.90629e-07,0.0,0.0,0.0,0.0,0.00025053174,0.0002034528,0.00025053174,0.00014041134,7.278746e-05,5.9197864e-06,2.3424604e-09,0.0,0.0,0.0,0.0,0.0,0.0
2043888000,2043736000,0.0001321493,0.00025668176,0.00020170979,6.430865e-06,2.5727632e-05,2.1415815e-08,0.0,0.0,0.0,0.0,0.0,0.0,0.0,7.334549e-06,0.0,0.0,0.0,0.0,0.00025053174,0.0002034528,0.00025053174,0.00014041134,0.00036306924,2.4258784e-06,6.4173946e-09,0.0,0.0,0.0,0.0,0.0,0.0
2043896000,2043744000,0.0001321493,0.00025668176,0.00020170979,6.430865e-06,2.5727632e-05,2.1415815e-08,0.0,0.0,0.0,0.0,0.0,0.0,0.0,7.334549e-06,0.0,0.0,0.0,0.0,0.00025053174,0.0002034528,0.00025053174,0.00014041134,4.504928e-05,4.549121e-06,2.296531e-09,0.0,0.0,0.0,0.0,0.0,0.0
2043904000,2043752000,0.0001321493,0.00025668176,0.00020170979,6.430865e-06,2.5727632e-05,2.1415815e-08,0.0,0.0,0.0,0.0,0.0,0.0,0.0,7.334549e-06,0.0,0.0,0.0,0.0,0.00025053174,0.0002034528,0.00025053174,0.00014041134,5.4673314e-05,4.567531e-06,1.7408297e-09,0.0,0.0,0.0,0.0,0.0,0.0
2043920000,2043768000,0.0001321493,0.00025668176,0.00020170979,6.430865e-06,2.5727632e-05,2.1415815e-08,0.0,0.0,0.0,0.0,0.0,0.0,0.0,7.334549e-06,0.0,0.0,0.0,0.0,7.724212e-05,4.8545247e-05,7.724212e-05,2.5048705e-05,0.00045578423,2.6061745e-05,5.1500706e-09,0.0,0.0,0.0,0.0,0.0,0.0
2043928000,2043776000,0.0001321493,0.00025668176,0.00020170979,6.430865e-06,2.5727632e-05,2.1415815e-08,0.0,0.0,0.0,0.0,0.0,0.0,0.0,7.334549e-06,0.0,0.0,0.0,0.0,7.724212e-05,4.8545247e-05,7.724212e-05,2.5048705e-05,6.4601525e-05,9.223777e-05,5.9139893e-10,0.0,0.0,0.0,0.0,0.0,0.0
2043936000,2043784000,0.0001321493,0.00025668176,0.00020170979,6.430865e-06,2.5727632e-05,2.1415815e-08,0.0,0.0,0.0,0.0,0.0,0.0,0.0,7.334549e-06,0.0,0.0,0.0,0.0,7.724212e-05,4.8545247e-05,7.724212e-05,2.5048705e-05,0.0002166146,0.0007450331,6.571099e-11,0.0,0.0,0.0,0.0,0.0,0.0
2043944000,2043792000,0.0001321493,0.00025668176,0.00020170979,6.430865e-06,2.5727632e-05,2.1415815e-08,0.0,0.0,0.0,0.0,0.0,0.0,0.0,7.334549e-06,0.0,0.0,0.0,0.0,7.724212e-05,4.8545247e-05,7.724212e-05,2.5048705e-05,0.0004415945,9.626655e-06,5.8572027e-09,0.0,0.0,0.0,0.0,0.0,0.0
2043960000,2043808000,0.0001321493,0.00025668176,0.00020170979,6.430865e-06,2.5727632e-05,2.1415815e-08,0.0,0.0,0.0,0.0,0.0,0.0,0.0,8.310364e-06,0.0,0.0,0.0,0.0,7.724212e-05,4.8545247e-05,7.724212e-05,2.5048705e-05,0.0030126977,0.0004306916,1.0905069e-08,0.0,0.0,0.0,0.0,0.0,0.0
2043968000,2043816000,0.0001321493,0.00025668176,0.00020170979,6.430865e-06,2.5727632e-05,2.1415815e-08,0.0,0.0,0.0,0.0,0.0,0.0,0.0,8.310364e-06,0.0,0.0,0.0,0.0,7.724212e-05,4.8545247e-05,7.724212e-05,2.5048705e-05,0.0011367821,0.00041522834,1.2789769e-11,0.0,0.0,0.0,0.0,0.0,0.0
2043976000,2043824000,0.0001321493,0.00025668176,0.00020170979,6.430865e-06,2.5727632e-05,2.1415815e-08,0.0,0.0,0.0,0.0,0.0,0.0,0.0,8.310364e-06,0.0,0.0,0.0,0.0,7.724212e-05,4.8545247e-05,7.724212e-05,2.5048705e-05,4.9043483e-06,0.00063301483,2.3424604e-09,0.0,0.0,0.0,0.0,0.0,0.0
2043984000,2043832000,0.0001321493,0.00025668176,0.00020170979,6.430865e-06,2.5727632e-05,2.1415815e-08,0.0,0.0,0.0,0.0,0.0,0.0,0.0,8.310364e-06,0.0,0.0,0.0,0.0,0.00016433305,0.000107776534,0.00016433305,1.2666954e-05,4.5992714e-05,0.00020517602,4.2987836e-09,0.0,0.0,0.0,0.0,0.0,0.0
2044000000,2043848000,0.0001321493,0.00025668176,0.00020170979,6.430865e-06,2.5727632e-05,2.1415815e-08,0.0,0.0,0.0,0.0,0.0,0.0,0.0,8.310364e-06,0.0,0.0,0.0,0.0,0.00016433305,0.000107776534,0.00016433305,1.2666954e-05,0.0010638016,9.455863e-06,1.19183824e-07,0.0,0.0,0.0,0.0,0.0,0.0
2044008000,2043856000,0.0001321493,0.00025668176,0.00020170979,6.430865e-06,2.5727632e-05,2.1415815e-08,0.0,0.0,0.0,0.0,0.0,0.0,0.0,1.9619602e-08,0.0,0.0,0.0,0.0,0.00016433305,0.000107776534,0.00016433305,1.2666954e-05,0.0001751373,0.00069689855,1.3306476e-09,0.0,0.0,0.0,0.0,0.0,0.0
2044016000,2043864000,0.0001321493,0.00025668176,0.00020170979,6.430865e-06,2.5727632e-05,2.1415815e-08,0.0,0.0,0.0,0.0,0.0,0.0,0.0,1.9619602e-08,0.0,0.0,0.0,0.0,0.00016433305,0.000107776534,0.00016433305,1.2666954e-05,0.0003599246,0.002456112,6.314826e-08,0.0,0.0,0.0,0.0,0.0,0.0
2044024000,2043872000,0.0001321493,0.00025668176,0.00020170979,6.430865e-06,2.5727632e-05,2.1415815e-08,0.0,0.0,0.0,0.0,0.0,0.0,0.0,1.9619602e-08,0.0,0.0,0.0,0.0,0.00016433305,0.000107776534,0.00016433305,1.2666954e-05,5.91301e-05,4.6348374e-05,3.66731e-09,0.0,0.0,0.0,0.0,0.0,0.0
2044040000,2043888000,0.0001321493,0.00025668176,0.00020170979,6.430865e-06,2.5727632e-05,2.1415815e-08,0.0,0.0,0.0,0.0,0.0,0.0,0.0,1.9619602e-08,0.0,0.0,0.0,0.0,0.00016433305,0.000107776534,0.00016433305,1.2666954e-05,0.0006929793,0.00022719103,7.874684e-08,0.0,0.0,0.0,0.0,0.0,0.0
2044048000,2043896000,0.0001321493,0.00025668176,0.00020170979,6.430865e-06,2.5727632e-05,2.1415815e-08,0.0,0.0,0.0,0.0,0.0,0.0,0.0,1.9619602e-08,0.0,0.0,0.0,0.0,0.00016433305,0.000107776534,0.00016433305,1.2666954e-05,0.00016151438,0.0021694226,1.1819816e-07,0.0,0.0,0.0,0.0,0.0,0.0
2044056000,2043904000,0.00041275733,0.001228405,0.00010415045,6.2836193e-06,2.4796173e-05,2.1762626e-06,0.0,0.0,0.0,0.0,0.0,0.0,0.0,1.9619602e-08,0.0,0.0,0.0,0.0,0.000107587344,1.9562904e-06,0.000107587344,9.4938594e-05,0.00014339389,0.0012508621,5.3483973e-08,0.0,0.0,0.0,0.0,0.0,0.0
2044064000,2043912000,0.00041275733,0.001228405,0.00010415045,6.2836193e-06,2.4796173e-05,2.1762626e-06,0.0,0.0,0.0,0.0,0.0,0.0,0.0,1.9619602e-08,0.0,0.0,0.0,0.0,0.000107587344,1.9562904e-06,0.000107587344,9.4938594e-05,8.0856e-05,0.00010640177,7.993606e-09,0.0,0.0,0.0,0.0,0.0,0.0
2044080000,2043928000,0.00041275733,0.001228405,0.00010415045,6.2836193e-06,2.4796173e-05,2.1762626e-06,0.0,0.0,0.0,0.0,0.0,0.0,0.0,9.960927e-07,0.0,0.0,0.0,0.0,0.000107587344,1.9562904e-06,0.000107587344,9.4938594e-05,0.00014797028,2.0475434e-06,4.0827217e-09,0.0,0.0,0.0,0.0,0.0,0.0
2044088000,2043936000,0.00041275733,0.001228405,0.00010415045,6.2836193e-06,2.4796173e-05,2.1762626e-06,0.0,0.0,0.0,0.0,0.0,0.0,0.0,9.960927e-07,0.0,0.0,0.0,0.0,0.000107587344,1.9562904e-06,0.000107587344,9.4938594e-05,0.00013209053,0.0007251588,3.0043395e-08,0.0,0.0,0.0,0.0,0.0,0.0
2044096000,2043944000,0.00041275733,0.001228405,0.00010415045,6.2836193e-06,2.4796173e-05,2.1762626e-06,0.0,0.0,0.0,0.0,0.0,0.0,0.0,9.960927e-07,0.0,0.0,0.0,0.0,0.000107587344,1.9562904e-06,0.000107587344,9.4938594e-05,0.0018377581,0.00027065026,1.2789769e-09,0.0,0.0,0.0,0.0,0.0,0.0
2044104000,2043952000,0.00041275733,0.001228405,0.00010415045,6.2836193e-06,2.4796173e-05,2.1762626e-06,0.0,0.0,0.0,0.0,0.0,0.0,0.0,9.960927e-07,0.0,0.0,0.0,0.0,0.000107587344,1.9562904e-06,0.000107587344,9.4938594e-05,8.807664e-05,0.0002815926,1.055929e-08,0.0,0.0,0.0,0.0,0.0,0.0
2044120000,2043968000,0.00041275733,0.001228405,0.00010415045,6.2836193e-06,2.4796173e-05,2.1762626e-06,0.0,0.0,0.0,0.0,0.0,0.0,0.0,9.960927e-07,0.0,0.0,0.0,0.0,0.000107587344,1.9562904e-06,0.000107587344,9.4938594e-05,4.0704257e-05,0.00043276258,1.2556711e-08,0.0,0.0,0.0,0.0,0.0,0.0
2044128000,2043976000,0.00041275733,0.001228405,0.00010415045,6.2836193e-06,2.4796173e-05,2.1762626e-06,0.0,0.0,0.0,0.0,0.0,0.0,0.0,9.960927e-07,0.0,0.0,0.0,0.0,0.00017507009,1.8405952e-05,0.00017507009,7.927931e-08,0.0007210716,0.0019587965,2.9960802e-08,0.0,0.0,0.0,0.0,0.0,0.0
2044136000,2043984000,0.00041275733,0.001228405,0.00010415045,6.2836193e-06,2.4796173e-05,2.1762626e-06,0.0,0.0,0.0,0.0,0.0,0.0,0.0,9.960927e-07,0.0,0.0,0.0,0.0,0.00017507009,1.8405952e-05,0.00017507009,7.927931e-08,0.00096976635,9.719648e-06,6.4940195e-09,0.0,0.0,0.0,0.0,0.0,0.0
2044144000,2043992000,0.00041275733,0.001228405,0.00010415045,6.2836193e-06,2.4796173e-05,2.1762626e-06,0.0,0.0,0.0,0.0,0.0,0.0,0.0,9.960927e-07,0.0,0.0,0.0,0.0,0.00017507009,1.8405952e-05,0.00017507009,7.927931e-08,0.00040082363,0.00011481357,4.1746375e-09,0.0,0.0,0.0,0.0,0.0,0.0
2044160000,2044008000,0.00041275733,0.001228405,0.00010415045,6.2836193e-06,2.4796173e-05,2.1762626e-06,0.0,0.0,0.0,0.0,0.0,0.0,0.0,6.385525e-06,0.0,0.0,0.0,0.0,0.00017507009,1.8405952e-05,0.00017507009,7.927931e-08,1.1084705e-05,0.0002675871,3.6384904e-09,0.0,0.0,0.0,0.0,0.0,0.0
2044168000,2044016000,0.00041275733,0.001228405,0.00010415045,6.2836193e-06,2.4796173e-05,2.1762626e-06,0.0,0.0,0.0,0.0,0.0,0.0,0.0,6.385525e-06,0.0,0.0,0.0,0.0,0.00017507009,1.8405952e-05,0.00017507009,7.927931e-08,7.446514e-05,0.00012135428,7.043127e-09,0.0,0.0,0.0,0.0,0.0,0.0
2044176000,2044024000,0.00041275733,0.001228405,0.00010415045,6.2836193e-06,2.4796173e-05,2.1762626e-06,0.0,0.0,0.0,0.0,0.0,0.0,0.0,6.385525e-06,0.0,0.0,0.0,0.0,0.00017507009,1.8405952e-05,0.00017507009,7.927931e-08,0.0019161649,0.00031606035,9.094947e-11,0.0,0.0,0.0,0.0,0.0,0.0
2044184000,2044032000,0.00041275733,0.001228405,0.00010415045,6.2836193e-06,2.4796173e-05,2.1762626e-06,0.0,0.0,0.0,0.0,0.0,0.0,0.0,6.385525e-06,0.0,0.0,0.0,0.0,0.00017507009,1.8405952e-05,0.00017507009,7.927931e-08,0.0005374844,0.0007525819,6.0305183e-10,0.0,0.0,0.0,0.0,0.0,0.0
2044200000,2044048000,0.00041275733,0.001228405,0.00010415045,6.2836193e-06,2.4796173e-05,2.1762626e-06,0.0,0.0,0.0,0.0,0.0,0.0,0.0,6.385525e-06,0.0,0.0,0.0,0.0,0.00016428425,4.6083816e-08,0.00016428425,6.275385e-07,0.00092989084,0.00028299043,3.4399363e-09,0.0,0.0,0.0,0.0,0.0,0.0
2044208000,2044056000,0.00041275733,0.001228405,0.00010415045,6.2836193e-06,2.4796173e-05,2.1762626e-06,0.0,0.0,0.0,0.0,0.0,0.0,0.0,6.385525e-06,0.0,0.0,0.0,0.0,0.00016428425,4.6083816e-08,0.00016428425,6.275385e-07,4.851461e-05,8.149363e-06,1.4370585e-09,0.0,0.0,0.0,0.0,0.0,0.0
2044216000,2044064000,0.00041275733,0.001228405,0.00010415045,6.2836193e-06,2.4796173e-05,2.1762626e-06,0.0,0.0,0.0,0.0,0.0,0.0,0.0,6.385525e-06,0.0,0.0,0.0,0.0,0.00016428425,4.6083816e-08,0.00016428425,6.275385e-07,0.0003472242,8.777827e-05,3.1127456e-08,0.0,0.0,0.0,0.0,0.0,0.0
2044224000,2044072000,0.00041275733,0.001228405,0.00010415045,6.2836193e-06,2.4796173e-05,2.1762626e-06,0.0,0.0,0.0,0.0,0.0,0.0,0.0,3.360897e-06,0.0,0.0,0.0,0.0,0.00016428425,4.6083816e-08,0.00016428425,6.275385e-07,5.6005183e-06,0.001359287,2.220446e-08,0.0,0.0,0.0,0.0,0.0,0.0
2044240000,2044088000,0.00041275733,0.001228405,0.00010415045,6.2836193e-06,2.4796173e-05,2.1762626e-06,0.0,0.0,0.0,0.0,0.0,0.0,0.0,3.360897e-06,0.0,0.0,0.0,0.0,0.00016428425,4.6083816e-08,0.00016428425,6.275385e-07,4.201036e-05,0.000799863,2.877698e-09,0.0,0.0,0.0,0.0,0.0,0.0
2044248000,2044096000,0.00041275733,0.001228405,0.00010415045,6.2836193e-06,2.4796173e-05,2.1762626e-06,0.0,0.0,0.0,0.0,0.0,0.0,0.0,3.360897e-06,0.0,0.0,0.0,0.0,0.00016428425,4.6083816e-08,0.00016428425,6.275385e-07,0.0021505535,0.0005589672,2.551701e-10,0.0,0.0,0.0,0.0,0.0,0.0
2044256000,2044104000,0.00041275733,0.001228405,0.00010415045,6.2836193e-06,2.4796173e-05,2.1762626e-06,0.0,0.0,0.0,0.0,0.0,0.0,0.0,3.360897e-06,0.0,0.0,0.0,0.0,0.00016428425,4.6083816e-08,0.00016428425,6.275385e-07,2.452689e-05,5.5825723e-05,6.7535666e-10,0.0,0.0,0.0,0.0,0.0,0.0
2044264000,2044112000,0.00041275733,0.001228405,0.00010415045,6.2836193e-06,2.4796173e-05,2.1762626e-06,0.0,0.0,0.0,0.0,0.0,0.0,0.0,3.360897e-06,0.0,0.0,0.0,0.0,0.00023938545,3.3560864e-05,2.3865101e-05,0.00023938545,4.5428944e-10,0.0013524712,3.3092476e-08,0.0,0.0,0.0,0.0,0.0,0.0
2044280000,2044128000,0.00041275733,0.001228405,0.00010415045,6.2836193e-06,2.4796173e-05,2.1762626e-06,0.0,0.0,0.0,0.0,0.0,0.0,0.0,3.360897e-06,0.0,0.0,0.0,0.0,0.00023938545,3.3560864e-05,2.3865101e-05,0.00023938545,5.0420073e-05,0.00017200793,6.266987e-10,0.0,0.0,0.0,0.0,0.0,0.0
2044288000,2044136000,0.00041275733,0.001228405,0.00010415045,6.2836193e-06,2.4796173e-05,2.1762626e-06,0.0,0.0,0.0,0.0,0.0,0.0,0.0,3.360897e-06,0.0,0.0,0.0,0.0,0.00023938545,3.3560864e-05,2.3865101e-05,0.00023938545,1.2090252e-05,0.0009910079,1.7698994e-08,0.0,0.0,0.0,0.0,0.0,0.0
2044296000,2044144000,0.00041275733,0.001228405,0.00010415045,6.2836193e-06,2.4796173e-05,2.1762626e-06,0.0,0.0,0.0,0.0,0.0,0.0,0.0,3.430998e-05,0.0,0.0,0.0,0.0,0.00023938545,3.3560864e-05,2.3865101e-05,0.00023938545,0.0013252284,6.0629186e-06,7.656183e-09,0.0,0.0,0.0,0.0,0.0,0.0
2044304000,2044152000,0.00041275733,0.001228405,0.00010415045,6.2836193e-06,2.4796173e-05,2.1762626e-06,0.0,0.0,0.0,0.0,0.0,0.0,0.0,3.430998e-05,0.0,0.0,0.0,0.0,0.00023938545,3.3560864e-05,2.3865101e-05,0.00023938545,0.00018200131,0.0004588543,8.4605745e-10,0.0,0.0,0.0,0.0,0.0,0.0
2044320000,2044168000,0.00041275733,0.001228405,0.00010415045,6.2836193e-06,2.4796173e-05,2.1762626e-06,0.0,0.0,0.0,0.0,0.0,0.0,0.0,3.430998e-05,0.0,0.0,0.0,0.0,0.00023938545,3.3560864e-05,2.3865101e-05,0.00023938545,4.8458355e-06,0.00033674572,2.1151436e-10,0.0,0.0,0.0,0.0,0.0,0.0
2044328000,2044176000,0.00041275733,0.001228405,0.00010415045,6.2836193e-06,2.4796173e-05,2.1762626e-06,0.0,0.0,0.0,0.0,0.0,0.0,0.0,3.430998e-05,0.0,0.0,0.0,0.0,0.00023938545,3.3560864e-05,2.3865101e-05,0.00023938545,0.00014560694,0.00029973328,1.4011334e-09,0.0,0.0,0.0,0.0,0.0,0.0
2044336000,2044184000,0.00041275733,0.001228405,0.00010415045,6.2836193e-06,2.4796173e-05,2.1762626e-06,0.0,0.0,0.0,0.0,0.0,0.0,0.0,3.430998e-05,0.0,0.0,0.0,0.0,5.6083278e-05,5.6083278e-05,3.0108993e-05,4.527533e-05,6.447344e-06,9.093089e-05,2.046363e-12,0.0,0.0,0.0,0.0,0.0,0.0
2044344000,2044192000,0.00041275733,0.001228405,0.00010415045,6.2836193e-06,2.4796173e-05,2.1762626e-06,0.0,0.0,0.0,0.0,0.0,0.0,0.0,3.430998e-05,0.0,0.0,0.0,0.0,5.6083278e-05,5.6083278e-05,3.0108993e-05,4.527533e-05,0.00034549035,0.0030913176,7.543713e-08,0.0,0.0,0.0,0.0,0.0,0.0
2044360000,2044208000,0.00041275733,0.001228405,0.00010415045,6.2836193e-06,2.4796173e-05,2.1762626e-06,0.0,0.0,0.0,0.0,0.0,0.0,0.0,3.430998e-05,0.0,0.0,0.0,0.0,5.6083278e-05,5.6083278e-05,3.0108993e-05,4.527533e-05,1.2455748e-05,4.1527288e-05,7.7812956e-10,0.0,0.0,0.0,0.0,0.0,0.0
2044368000,2044216000,0.00041275733,0.001228405,0.00010415045,6.2836193e-06,2.4796173e-05,2.1762626e-06,0.0,0.0,0.0,0.0,0.0,0.0,0.0,1.691109e-06,0.0,0.0,0.0,0.0,5.6083278e-05,5.6083278e-05,3.0108993e-05,4.527533e-05,0.0004258492,0.000303354,3.4120262e-09,0.0,0.0,0.0,0.0,0.0,0.0
2044376000,2044224000,0.00041275733,0.001228405,0.00010415045,6.2836193e-06,2.4796173e-05,2.1762626e-06,0.0,0.0,0.0,0.0,0.0,0.0,0.0,1.691109e-06,0.0,0.0,0.0,0.0,5.6083278e-05,5.6083278e-05,3.0108993e-05,4.527533e-05,0.000651411,0.0015562846,7.043127e-09,0.0,0.0,0.0,0.0,0.0,0.0
2044384000,2044232000,0.00041275733,0.001228405,0.00010415045,6.2836193e-06,2.4796173e-05,2.1762626e-06,0.0,0.0,0.0,0.0,0.0,0.0,0.0,1.691109e-06,0.0,0.0,0.0,0.0,5.6083278e-05,5.6083278e-05,3.0108993e-05,4.527533e-05,7.6922735e-09,0.00067417166,5.184347e-09,0.0,0.0,0.0,0.0,0.0,0.0
2044400000,2044248000,0.00041275733,0.001228405,0.00010415045,6.2836193e-06,2.4796173e-05,2.1762626e-06,0.0,0.0,0.0,0.0,0.0,0.0,0.0,1.691109e-06,0.0,0.0,0.0,0.0,9.126857e-05,5.584357e-05,5.0392864e-06,9.126857e-05,0.0041989773,0.0001730368,8.913958e-09,0.0,0.0,0.0,0.0,0.0,0.0
2044408000,2044256000,0.00041275733,0.001228405,0.00010415045,6.2836193e-06,2.4796173e-05,2.1762626e-06,0.0,0.0,0.0,0.0,0.0,0.0,0.0,1.691109e-06,0.0,0.0,0.0,0.0,9.126857e-05,5.584357e-05,5.0392864e-06,9.126857e-05,0.0003683361,5.36484e-06,7.163692e-09,0.0,0.0,0.0,0.0,0.0,0.0
2044416000,2044264000,0.00041275733,0.001228405,0.00010415045,6.2836193e-06,2.4796173e-05,2.1762626e-06,0.0,0.0,0.0,0.0,0.0,0.0,0.0,1.691109e-06,0.0,0.0,0.0,0.0,9.126857e-05,5.584357e-05,5.0392864e-06,9.126857e-05,0.00016528297,0.00068064855,3.396559e-08,0.0,0.0,0.0,0.0,0.0,0.0
2044424000,2044272000,0.00041275733,0.001228405,0.00010415045,6.2836193e-06,2.4796173e-05,2.1762626e-06,0.0,0.0,0.0,0.0,0.0,0.0,0.0,1.691109e-06,0.0,0.0,0.0,0.0,9.126857e-05,5.584357e-05,5.0392864e-06,9.126857e-05,0.00019994353,0.00031457664,2.3795167e-08,0.0,0.0,0.0,0.0,0.0,0.0
2044440000,2044288000,0.00041275733,0.001228405,0.00010415045,6.2836193e-06,2.4796173e-05,2.1762626e-06,0.0,0.0,0.0,0.0,0.0,0.0,0.0,4.479649e-06,0.0,0.0,0.0,0.0,9.126857e-05,5.584357e-05,5.0392864e-06,9.126857e-05,0.0018100729,4.138503e-05,3.754451e-09,0.0,0.0,0.0,0.0,0.0,0.0
2044448000,2044296000,0.00041275733,0.001228405,0.00010415045,6.2836193e-06,2.4796173e-05,2.1762626e-06,0.0,0.0,0.0,0.0,0.0,0.0,0.0,4.479649e-06,0.0,0.0,0.0,0.0,9.126857e-05,5.584357e-05,5.0392864e-06,9.126857e-05,4.6216992e-05,0.0005417968,3.1974423e-10,0.0,0.0,0.0,0.0,0.0,0.0
2044456000,2044304000,0.00012703889,0.0008784357,3.0258596e-05,8.233559e-07,2.0651813e-05,2.2100116e-05,0.0,0.0,0.0,0.0,0.0,0.0,0.0,4.479649e-06,0.0,0.0,0.0,0.0,9.126857e-05,5.584357e-05,5.0392864e-06,9.126857e-05,0.0007837445,1.9346204e-05,7.043127e-09,0.0,0.0,0.0,0.0,0.0,0.0
2044464000,2044312000,0.00012703889,0.0008784357,3.0258596e-05,8.233559e-07,2.0651813e-05,2.2100116e-05,0.0,0.0,0.0,0.0,0.0,0.0,0.0,4.479649e-06,0.0,0.0,0.0,0.0,9.126857e-05,5.584357e-05,5.0392864e-06,9.126857e-05,0.00050572434,0.00082812307,7.0036776e-10,0.0,0.0,0.0,0.0,0.0,0.0
2044480000,2044328000,0.00012703889,0.0008784357,3.0258596e-05,8.233559e-07,2.0651813e-05,2.2100116e-05,0.0,0.0,0.0,0.0,0.0,0.0,0.0,4.479649e-06,0.0,0.0,0.0,0.0,0.00017996176,0.00017996176,2.8913902e-07,2.910729e-06,8.911221e-05,1.6221144e-05,5.9671947e-09,0.0,0.0,0.0,0.0,0.0,0.0
2044488000,2044336000,0.00012703889,0.0008784357,3.0258596e-05,8.233559e-07,2.0651813e-05,2.2100116e-05,0.0,0.0,0.0,0.0,0.0,0.0,0.0,4.479649e-06,0.0,0.0,0.0,0.0,0.00017996176,0.00017996176,2.8913902e-07,2.910729e-06,5.174731e-06,3.33708e-07,2.6284397e-10,0.0,0.0,0.0,0.0,0.0,0.0
2044496000,2044344000,0.00012703889,0.0008784357,3.0258596e-05,8.233559e-07,2.0651813e-05,2.2100116e-05,0.0,0.0,0.0,0.0,0.0,0.0,0.0,4.479649e-06,0.0,0.0,0.0,0.0,0.00017996176,0.00017996176,2.8913902e-07,2.910729e-06,0.00074286875,0.0010284068,7.258336e-10,0.0,0.0,0.0,0.0,0.0,0.0
2044504000,2044352000,0.00012703889,0.0008784357,3.0258596e-05,8.233559e-07,2.0651813e-05,2.2100116e-05,0.0,0.0,0.0,0.0,0.0,0.0,0.0,4.479649e-06,0.0,0.0,0.0,0.0,0.00017996176,0.00017996176,2.8913902e-07,2.910729e-06,5.5848443e-05,0.00028475322,1.7826096e-10,0.0,0.0,0.0,0.0,0.0,0.0
2044520000,2044368000,0.00012703889,0.0008784357,3.0258596e-05,8.233559e-07,2.0651813e-05,2.2100116e-05,0.0,0.0,0.0,0.0,0.0,0.0,0.0,1.2678664e-06,0.0,0.0,0.0,0.0,0.00017996176,0.00017996176,2.8913902e-07,2.910729e-06,0.00024283217,7.731225e-05,4.520416e-09,0.0,0.0,0.0,0.0,0.0,0.0
2044528000,2044376000,0.00012703889,0.0008784357,3.0258596e-05,8.233559e-07,2.0651813e-05,2.2100116e-05,0.0,0.0,0.0,0.0,0.0,0.0,0.0,1.2678664e-06,0.0,0.0,0.0,0.0,0.00017996176,0.00017996176,2.8913902e-07,2.910729e-06,0.0020040034,6.176644e-05,1.7209913e-09,0.0,0.0,0.0,0.0,0.0,0.0
2044536000,2044384000,0.00012703889,0.0008784357,3.0258596e-05,8.233559e-07,2.0651813e-05,2.2100116e-05,0.0,0.0,0.0,0.0,0.0,0.0,0.0,1.2678664e-06,0.0,0.0,0.0,0.0,0.0016296306,0.00052082,0.0016296306,0.00026057978,0.00090503594,4.0559564e-05,5.6402882e-09,0.0,0.0,0.0,0.0,0.0,0.0
2044544000,2044392000,0.00012703889,0.0008784357,3.0258596e-05,8.233559e-07,2.0651813e-05,2.2100116e-05,0.0,0.0,0.0,0.0,0.0,0.0,0.0,1.2678664e-06,0.0,0.0,0.0,0.0,0.0016296306,0.00052082,0.0016296306,0.00026057978,0.00014452318,6.464646e-05,2.9549483e-09,0.0,0.0,0.0,0.0,0.0,0.0
2044560000,2044408000,0.00012703889,0.0008784357,3.0258596e-05,8.233559e-07,2.0651813e-05,2.2100116e-05,0.0,0.0,0.0,0.0,0.0,0.0,0.0,1.2678664e-06,0.0,0.0,0.0,0.0,0.0016296306,0.00052082,0.0016296306,0.00026057978,0.00092710793,2.9119477e-05,6.3792527e-09,0.0,0.0,0.0,0.0,0.0,0.0
2044568000,2044416000,0.00012703889,0.0008784357,3.0258596e-05,8.233559e-07,2.0651813e-05,2.2100116e-05,0.0,0.0,0.0,0.0,0.0,0.0,0.0,1.2678664e-06,0.0,0.0,0.0,0.0,0.0016296306,0.00052082,0.0016296306,0.00026057978,4.4224966e-05,8.723289e-06,1.4370585e-09,0.0,0.0,0.0,0.0,0.0,0.0
2044576000,2044424000,0.00012703889,0.0008784357,3.0258596e-05,8.233559e-07,2.0651813e-05,2.2100116e-05,0.0,0.0,0.0,0.0,0.0,0.0,0.0,1.26449795e-05,0.0,0.0,0.0,0.0,0.0016296306,0.00052082,0.0016296306,0.00026057978,0.00034328032,5.079447e-06,6.4173946e-09,0.0,0.0,0.0,0.0,0.0,0.0
2044584000,2044432000,0.00012703889,0.0008784357,3.0258596e-05,8.233559e-07,2.0651813e-05,2.2100116e-05,0.0,0.0,0.0,0.0,0.0,0.0,0.0,1.26449795e-05,0.0,0.0,0.0,0.0,0.0016296306,0.00052082,0.0016296306,0.00026057978,1.2241136e-05,0.00021727647,4.456524e-11,0.0,0.0,0.0,0.0,0.0,0.0
2044600000,2044448000,0.00012703889,0.0008784357,3.0258596e-05,8.233559e-07,2.0651813e-05,2.2100116e-05,0.0,0.0,0.0,0.0,0.0,0.0,0.0,1.26449795e-05,0.0,0.0,0.0,0.0,0.0016296306,0.00052082,0.0016296306,0.00026057978,2.1111581e-09,0.0028116377,1.173799e-07,0.0,0.0,0.0,0.0,0.0,0.0
2044608000,2044456000,0.00012703889,0.0008784357,3.0258596e-05,8.233559e-07,2.0651813e-05,2.2100116e-05,0.0,0.0,0.0,0.0,0.0,0.0,0.0,1.26449795e-05,0.0,0.0,0.0,0.0,0.00028934347,0.00012210551,0.00028934347,7.53148e-05,4.005262e-05,0.0010557211,1.0027179e-08,0.0,0.0,0.0,0.0,0.0,0.0
2044616000,2044464000,0.00012703889,0.0008784357,3.0258596e-05,8.233559e-07,2.0651813e-05,2.2100116e-05,0.0,0.0,0.0,0.0,0.0,0.0,0.0,1.26449795e-05,0.0,0.0,0.0,0.0,0.00028934347,0.00012210551,0.00028934347,7.53148e-05,0.0011063679,0.00016435237,3.274181e-09,0.0,0.0,0.0,0.0,0.0,0.0
2044624000,2044472000,0.00012703889,0.0008784357,3.0258596e-05,8.233559e-07,2.0651813e-05,2.2100116e-05,0.0,0.0,0.0,0.0,0.0,0.0,0.0,1.26449795e-05,0.0,0.0,0.0,0.0,0.00028934347,0.00012210551,0.00028934347,7.53148e-05,0.00033656156,0.00038478366,4.604317e-08,0.0,0.0,0.0,0.0,0.0,0.0
2044640000,2044488000,0.00012703889,0.0008784357,3.0258596e-05,8.233559e-07,2.0651813e-05,2.2100116e-05,0.0,0.0,0.0,0.0,0.0,0.0,0.0,1.4543248e-05,0.0,0.0,0.0,0.0,0.00028934347,0.00012210551,0.00028934347,7.53148e-05,1.7452092e-05,2.6319978e-05,4.811227e-10,0.0,0.0,0.0,0.0,0.0,0.0
2044648000,2044496000,0.00012703889,0.0008784357,3.0258596e-05,8.233559e-07,2.0651813e-05,2.2100116e-05,0.0,0.0,0.0,0.0,0.0,0.0,0.0,1.4543248e-05,0.0,0.0,0.0,0.0,0.00028934347,0.00012210551,0.00028934347,7.53148e-05,0.0020549586,0.00070368644,3.4679601e-09,0.0,0.0,0.0,0.0,0.0,0.0
2044656000,2044504000,0.00012703889,0.0008784357,3.0258596e-05,8.233559e-07,2.0651813e-05,2.2100116e-05,0.0,0.0,0.0,0.0,0.0,0.0,0.0,1.4543248e-05,0.0,0.0,0.0,0.0,0.00028934347,0.00012210551,0.00028934347,7.53148e-05,0.00026366988,6.734485e-05,3.7252903e-09,0.0,0.0,0.0,0.0,0.0,0.0
2044664000,2044512000,0.00012703889,0.0008784357,3.0258596e-05,8.233559e-07,2.0651813e-05,2.2100116e-05,0.0,0.0,0.0,0.0,0.0,0.0,0.0,1.4543248e-05,0.0,0.0,0.0,0.0,0.00028934347,0.00012210551,0.00028934347,7.53148e-05,0.00037446976,2.8939881e-05,2.9795956e-08,0.0,0.0,0.0,0.0,0.0,0.0
2044680000,2044528000,0.00012703889,0.0008784357,3.0258596e-05,8.233559e-07,2.0651813e-05,2.2100116e-05,0.0,0.0,0.0,0.0,0.0,0.0,0.0,1.4543248e-05,0.0,0.0,0.0,0.0,9.420464e-05,3.252543e-05,9.420464e-05,6.236425e-05,0.00028261283,0.00016504584,2.6520866e-09,0.0,0.0,0.0,0.0,0.0,0.0
2044688000,2044536000,0.00012703889,0.0008784357,3.0258596e-05,8.233559e-07,2.0651813e-05,2.2100116e-05,0.0,0.0,0.0,0.0,0.0,0.0,0.0,1.4543248e-05,0.0,0.0,0.0,0.0,9.420464e-05,3.252543e-05,9.420464e-05,6.236425e-05,0.00021572328,0.00014983291,2.3194389e-09,0.0,0.0,0.0,0.0,0.0,0.0
2044696000,2044544000,0.00012703889,0.0008784357,3.0258596e-05,8.233559e-07,2.0651813e-05,2.2100116e-05,0.0,0.0,0.0,0.0,0.0,0.0,0.0,1.4543248e-05,0.0,0.0,0.0,0.0,9.420464e-05,3.252543e-05,9.420464e-05,6.236425e-05,0.00039204027,8.665876e-05,3.5117637e-08,0.0,0.0,0.0,0.0,0.0,0.0
2044704000,2044552000,0.00012703889,0.0008784357,3.0258596e-05,8.233559e-07,2.0651813e-05,2.2100116e-05,0.0,0.0,0.0,0.0,0.0,0.0,0.0,3.5309942e-05,0.0,0.0,0.0,0.0,9.420464e-05,3.252543e-05,9.420464e-05,6.236425e-05,0.002478627,1.9790525e-07,4.0827217e-07,0.0,0.0,0.0,0.0,0.0,0.0
2044720000,2044568000,0.00012703889,0.0008784357,3.0258596e-05,8.233559e-07,2.0651813e-05,2.2100116e-05,0.0,0.0,0.0,0.0,0.0,0.0,0.0,3.5309942e-05,0.0,0.0,0.0,0.0,9.420464e-05,3.252543e-05,9.420464e-05,6.236425e-05,2.1839984e-05,0.0003590601,1.9787194e-10,0.0,0.0,0.0,0.0,0.0,0.0
2044728000,2044576000,0.00012703889,0.0008784357,3.0258596e-05,8.233559e-07,2.0651813e-05,2.2100116e-05,0.0,0.0,0.0,0.0,0.0,0.0,0.0,3.5309942e-05,0.0,0.0,0.0,0.0,9.420464e-05,3.252543e-05,9.420464e-05,6.236425e-05,0.0016718159,7.0626415e-06,3.328978e-09,0.0,0.0,0.0,0.0,0.0,0.0
2044736000,2044584000,0.00012703889,0.0008784357,3.0258596e-05,8.233559e-07,2.0651813e-05,2.2100116e-05,0.0,0.0,0.0,0.0,0.0,0.0,0.0,3.5309942e-05,0.0,0.0,0.0,0.0,9.420464e-05,3.252543e-05,9.420464e-05,6.236425e-05,6.255629e-05,0.00023224067,1.2556711e-10,0.0,0.0,0.0,0.0,0.0,0.0
2044744000,2044592000,0.00012703889,0.0008784357,3.0258596e-05,8.233559e-07,2.0651813e-05,2.2100116e-05,0.0,0.0,0.0,0.0,0.0,0.0,0.0,3.5309942e-05,0.0,0.0,0.0,0.0,9.420464e-05,3.252543e-05,9.420464e-05,6.236425e-05,4.2894817e-07,0.00040612003,2.578929e-09,0.0,0.0,0.0,0.0,0.0,0.0
2044760000,2044608000,0.00012703889,0.0008784357,3.0258596e-05,8.233559e-07,2.0651813e-05,2.2100116e-05,0.0,0.0,0.0,0.0,0.0,0.0,0.0,3.5309942e-05,0.0,0.0,0.0,0.0,5.3393174e-05,5.3393174e-05,1.4322284e-06,4.8598988e-05,0.0034465273,0.00013175214,6.943438e-07,0.0,0.0,0.0,0.0,0.0,0.0
2044768000,2044616000,0.00012703889,0.0008784357,3.0258596e-05,8.233559e-07,2.0651813e-05,2.2100116e-05,0.0,0.0,0.0,0.0,0.0,0.0,0.0,3.5309942e-05,0.0,0.0,0.0,0.0,5.3393174e-05,5.3393174e-05,1.4322284e-06,4.8598988e-05,0.00031433624,0.0015755923,1.5967316e-08,0.0,0.0,0.0,0.0,0.0,0.0
2044776000,2044624000,0.00012703889,0.0008784357,3.0258596e-05,8.233559e-07,2.0651813e-05,2.2100116e-05,0.0,0.0,0.0,0.0,0.0,0.0,0.0,3.658025e-06,0.0,0.0,0.0,0.0,5.3393174e-05,5.3393174e-05,1.4322284e-06,4.8598988e-05,0.0010005345,0.0002481819,2.3194389e-09,0.0,0.0,0.0,0.0,0.0,0.0
2044784000,2044632000,0.00012703889,0.0008784357,3.0258596e-05,8.233559e-07,2.0651813e-05,2.2100116e-05,0.0,0.0,0.0,0.0,0.0,0.0,0.0,3.658025e-06,0.0,0.0,0.0,0.0,5.3393174e-05,5.3393174e-05,1.4322284e-06,4.8598988e-05,0.0032504227,0.0006436725,1.4154068e-08,0.0,0.0,0.0,0.0,0.0,0.0
2044800000,2044648000,0.00012703889,0.0008784357,3.0258596e-05,8.233559e-07,2.0651813e-05,2.2100116e-05,0.0,0.0,0.0,0.0,0.0,0.0,0.0,3.658025e-06,0.0,0.0,0.0,0.0,5.3393174e-05,5.3393174e-05,1.4322284e-06,4.8598988e-05,2.3886136e-05,0.00022530835,4.4247486e-09,0.0,0.0,0.0,0.0,0.0,0.0
2044808000,2044656000,0.00012703889,0.0008784357,3.0258596e-05,8.233559e-07,2.0651813e-05,2.2100116e-05,0.0,0.0,0.0,0.0,0.0,0.0,0.0,3.658025e-06,0.0,0.0,0.0,0.0,5.3393174e-05,5.3393174e-05,1.4322284e-06,4.8598988e-05,1.21362355e-05,0.00015332499,9.094947e-13,0.0,0.0,0.0,0.0,0.0,0.0
2044816000,2044664000,0.00012703889,0.0008784357,3.0258596e-05,8.233559e-07,2.0651813e-05,2.2100116e-05,0.0,0.0,0.0,0.0,0.0,0.0,0.0,3.658025e-06,0.0,0.0,0.0,0.0,5.3393174e-05,5.3393174e-05,1.4322284e-06,4.8598988e-05,1.6032182e-05,0.00034687953,5.7121383e-09,0.0,0.0,0.0,0.0,0.0,0.0
2044824000,2044672000,0.00012703889,0.0008784357,3.0258596e-05,8.233559e-07,2.0651813e-05,2.2100116e-05,0.0,0.0,0.0,0.0,0.0,0.0,0.0,3.658025e-06,0.0,0.0,0.0,0.0,5.520606e-05,5.407429e-05,5.38349e-06,5.520606e-05,0.0006469635,0.00022456868,2.9033345e-09,0.0,0.0,0.0,0.0,0.0,0.0
2044840000,2044688000,0.00012703889,0.0008784357,3.0258596e-05,8.233559e-07,2.0651813e-05,2.2100116e-05,0.0,0.0,0.0,0.0,0.0,0.0,0.0,3.658025e-06,0.0,0.0,0.0,0.0,5.520606e-05,5.407429e-05,5.38349e-06,5.520606e-05,0.0001843787,0.00040222233,1.0027179e-10,0.0,0.0,0.0,0.0,0.0,0.0
2044848000,2044696000,0.00012703889,0.0008784357,3.0258596e-05,8.233559e-07,2.0651813e-05,2.2100116e-05,0.0,0.0,0.0,0.0,0.0,0.0,0.0,2.1045344e-05,0.0,0.0,0.0,0.0,5.520606e-05,5.407429e-05,5.38349e-06,5.520606e-05,0.001295755,0.0036312249,1.596718e-07,0.0,0.0,0.0,0.0,0.0,0.0
2044856000,2044704000,1.1306921e-05,0.0008127119,2.3878694e-05,5.220743e-06,3.6033598e-05,6.3380144e-06,0.0,0.0,0.0,0.0,0.0,0.0,0.0,2.1045344e-05,0.0,0.0,0.0,0.0,5.520606e-05,5.407429e-05,5.38349e-06,5.520606e-05,0.0023786295,7.4365435e-06,2.7512215e-11,0.0,0.0,0.0,0.0,0.0,0.0
2044864000,2044712000,1.1306921e-05,0.0008127119,2.3878694e-05,5.220743e-06,3.6033598e-05,6.3380144e-06,0.0,0.0,0.0,0.0,0.0,0.0,0.0,2.1045344e-05,0.0,0.0,0.0,0.0,5.520606e-05,5.407429e-05,5.38349e-06,5.520606e-05,0.00018820295,7.7271426e-07,1.1871691e-08,0.0,0.0,0.0,0.0,0.0,0.0
2044880000,2044728000,1.1306921e-05,0.0008127119,2.3878694e-05,5.220743e-06,3.6033598e-05,6.3380144e-06,0.0,0.0,0.0,0.0,0.0,0.0,0.0,2.1045344e-05,0.0,0.0,0.0,0.0,5.520606e-05,5.407429e-05,5.38349e-06,5.520606e-05,3.2647884e-05,0.0020402933,5.684342e-08,0.0,0.0,0.0,0.0,0.0,0.0
2044888000,2044736000,1.1306921e-05,0.0008127119,2.3878694e-05,5.220743e-06,3.6033598e-05,6.3380144e-06,0.0,0.0,0.0,0.0,0.0,0.0,0.0,2.1045344e-05,0.0,0.0,0.0,0.0,5.520606e-05,5.407429e-05,5.38349e-06,5.520606e-05,0.0031795201,0.0014269094,5.9488286e-08,0.0,0.0,0.0,0.0,0.0,0.0
2044896000,2044744000,1.1306921e-05,0.0008127119,2.3878694e-05,5.220743e-06,3.6033598e-05,6.3380144e-06,0.0,0.0,0.0,0.0,0.0,0.0,0.0,2.1045344e-05,0.0,0.0,0.0,0.0,7.202322e-05,7.202322e-05,5.733944e-05,1.3278322e-05,0.00092000567,0.0004529895,5.1159077e-11,0.0,0.0,0.0,0.0,0.0,0.0
2044904000,2044752000,1.1306921e-05,0.0008127119,2.3878694e-05,5.220743e-06,3.6033598e-05,6.3380144e-06,0.0,0.0,0.0,0.0,0.0,0.0,0.0,2.1045344e-05,0.0,0.0,0.0,0.0,7.202322e-05,7.202322e-05,5.733944e-05,1.3278322e-05,1.6797783e-05,1.241665e-05,8.599841e-10,0.0,0.0,0.0,0.0,0.0,0.0
2044920000,2044768000,1.1306921e-05,0.0008127119,2.3878694e-05,5.220743e-06,3.6033598e-05,6.3380144e-06,0.0,0.0,0.0,0.0,0.0,0.0,0.0,5.028976e-09,0.0,0.0,0.0,0.0,7.202322e-05,7.202322e-05,5.733944e-05,1.3278322e-05,0.0013738393,0.0013324692,1.0905069e-08,0.0,0.0,0.0,0.0,0.0,0.0
2044928000,2044776000,1.1306921e-05,0.0008127119,2.3878694e-05,5.220743e-06,3.6033598e-05,6.3380144e-06,0.0,0.0,0.0,0.0,0.0,0.0,0.0,5.028976e-09,0.0,0.0,0.0,0.0,7.202322e-05,7.202322e-05,5.733944e-05,1.3278322e-05,0.00015514775,0.0016613029,2.1220842e-08,0.0,0.0,0.0,0.0,0.0,0.0
2044936000,2044784000,1.1306921e-05,0.0008127119,2.3878694e-05,5.220743e-06,3.6033598e-05,6.3380144e-06,0.0,0.0,0.0,0.0,0.0,0.0,0.0,5.028976e-09,0.0,0.0,0.0,0.0,7.202322e-05,7.202322e-05,5.733944e-05,1.3278322e-05,1.7511395e-05,0.00068481115,3.5527137e-09,0.0,0.0,0.0,0.0,0.0,0.0
2044944000,2044792000,1.1306921e-05,0.0008127119,2.3878694e-05,5.220743e-06,3.6033598e-05,6.3380144e-06,0.0,0.0,0.0,0.0,0.0,0.0,0.0,5.028976e-09,0.0,0.0,0.0,0.0,7.202322e-05,7.202322e-05,5.733944e-05,1.3278322e-05,7.829704e-05,0.00019209935,3.1974423e-10,0.0,0.0,0.0,0.0,0.0,0.0
2044960000,2044808000,1.1306921e-05,0.0008127119,2.3878694e-05,5.220743e-06,3.6033598e-05,6.3380144e-06,0.0,0.0,0.0,0.0,0.0,0.0,0.0,5.028976e-09,0.0,0.0,0.0,0.0,7.202322e-05,7.202322e-05,5.733944e-05,1.3278322e-05,0.0012177736,0.00027410607,6.7535666e-10,0.0,0.0,0.0,0.0,0.0,0.0
2044968000,2044816000,1.1306921e-05,0.0008127119,2.3878694e-05,5.220743e-06,3.6033598e-05,6.3380144e-06,0.0,0.0,0.0,0.0,0.0,0.0,0.0,5.028976e-09,0.0,0.0,0.0,0.0,0.0006768857,0.0006768857,3.7194366e-06,0.00035512217,0.00034638488,0.0006494674,2.8654767e-10,0.0,0.0,0.0,0.0,0.0,0.0
2044976000,2044824000,1.1306921e-05,0.0008127119,2.3878694e-05,5.220743e-06,3.6033598e-05,6.3380144e-06,0.0,0.0,0.0,0.0,0.0,0.0,0.0,5.028976e-09,0.0,0.0,0.0,0.0,0.0006768857,0.0006768857,3.7194366e-06,0.00035512217,2.1497082e-05,0.0007954305,4.6495643e-09,0.0,0.0,0.0,0.0,0.0,0.0
2044984000,2044832000,1.1306921e-05,0.0008127119,2.3878694e-05,5.220743e-06,3.6033598e-05,6.3380144e-06,0.0,0.0,0.0,0.0,0.0,0.0,0.0,5.028976e-09,0.0,0.0,0.0,0.0,0.0006768857,0.0006768857,3.7194366e-06,0.00035512217,4.4730517e-05,0.00013305177,4.2675765e-09,0.0,0.0,0.0,0.0,0.0,0.0
2045000000,2044848000,1.1306921e-05,0.0008127119,2.3878694e-05,5.220743e-06,3.6033598e-05,6.3380144e-06,0.0,0.0,0.0,0.0,0.0,0.0,0.0,1.582396e-05,0.0,0.0,0.0,0.0,0.0006768857,0.0006768857,3.7194366e-06,0.00035512217,0.0012987214,1.1083756e-05,3.0859724e-09,0.0,0.0,0.0,0.0,0.0,0.0
2045008000,2044856000,1.1306921e-05,0.0008127119,2.3878694e-05,5.220743e-06,3.6033598e-05,6.3380144e-06,0.0,0.0,0.0,0.0,0.0,0.0,0.0,1.582396e-05,0.0,0.0,0.0,0.0,0.0006768857,0.0006768857,3.7194366e-06,0.00035512217,0.00015390232,6.326402e-05,1.0315716e-08,0.0,0.0,0.0,0.0,0.0,0.0
2045016000,2044864000,1.1306921e-05,0.0008127119,2.3878694e-05,5.220743e-06,3.6033598e-05,6.3380144e-06,0.0,0.0,0.0,0.0,0.0,0.0,0.0,1.582396e-05,0.0,0.0,0.0,0.0,0.0006768857,0.0006768857,3.7194366e-06,0.00035512217,4.539553e-05,7.5701624e-05,6.148184e-10,0.0,0.0,0.0,0.0,0.0,0.0
2045024000,2044872000,1.1306921e-05,0.0008127119,2.3878694e-05,5.220743e-06,3.6033598e-05,6.3380144e-06,0.0,0.0,0.0,0.0,0.0,0.0,0.0,1.582396e-05,0.0,0.0,0.0,0.0,0.0006768857,0.0006768857,3.7194366e-06,0.00035512217,0.0014621025,0.001914208,4.0491614e-08,0.0,0.0,0.0,0.0,0.0,0.0
2045040000,2044888000,1.1306921e-05,0.0008127119,2.3878694e-05,5.220743e-06,3.6033598e-05,6.3380144e-06,0.0,0.0,0.0,0.0,0.0,0.0,0.0,1.582396e-05,0.0,0.0,0.0,0.0,0.0004817839,0.0004817839,9.104758e-06,2.436147e-06,2.824091e-06,0.00019753221,1.4011334e-09,0.0,0.0,0.0,0.0,0.0,0.0
2045048000,2044896000,1.1306921e-05,0.0008127119,2.3878694e-05,5.220743e-06,3.6033598e-05,6.3380144e-06,0.0,0.0,0.0,0.0,0.0,0.0,0.0,1.582396e-05,0.0,0.0,0.0,0.0,0.0004817839,0.0004817839,9.104758e-06,2.436147e-06,1.38783425e-05,0.00012890456,5.4626526e-11,0.0,0.0,0.0,0.0,0.0,0.0
2045056000,2044904000,1.1306921e-05,0.0008127119,2.3878694e-05,5.220743e-06,3.6033598e-05,6.3380144e-06,0.0,0.0,0.0,0.0,0.0,0.0,0.0,1.582396e-05,0.0,0.0,0.0,0.0,0.0004817839,0.0004817839,9.104758e-06,2.436147e-06,0.0002143721,0.00015562384,1.4734383e-09,0.0,0.0,0.0,0.0,0.0,0.0
2045064000,2044912000,1.1306921e-05,0.0008127119,2.3878694e-05,5.220743e-06,3.6033598e-05,6.3380144e-06,0.0,0.0,0.0,0.0,0.0,0.0,0.0,8.664142e-06,0.0,0.0,0.0,0.0,0.0004817839,0.0004817839,9.104758e-06,2.436147e-06,0.0041544707,0.0045837453,5.256698e-07,0.0,0.0,0.0,0.0,0.0,0.0
2045080000,2044928000,1.1306921e-05,0.0008127119,2.3878694e-05,5.220743e-06,3.6033598e-05,6.3380144e-06,0.0,0.0,0.0,0.0,0.0,0.0,0.0,8.664142e-06,0.0,0.0,0.0,0.0,0.0004817839,0.0004817839,9.104758e-06,2.436147e-06,0.00023579321,4.249102e-06,1.4210855e-08,0.0,0.0,0.0,0.0,0.0,0.0
2045088000,2044936000,1.1306921e-05,0.0008127119,2.3878694e-05,5.220743e-06,3.6033598e-05,6.3380144e-06,0.0,0.0,0.0,0.0,0.0,0.0,0.0,8.664142e-06,0.0,0.0,0.0,0.0,0.0004817839,0.0004817839,9.104758e-06,2.436147e-06,3.8695704e-05,0.00052070443,7.1304385e-10,0.0,0.0,0.0,0.0,0.0,0.0
2045096000,2044944000,1.1306921e-05,0.0008127119,2.3878694e-05,5.220743e-06,3.6033598e-05,6.3380144e-06,0.0,0.0,0.0,0.0,0.0,0.0,0.0,8.664142e-06,0.0,0.0,0.0,0.0,0.0004817839,0.0004817839,9.104758e-06,2.436147e-06,0.0015910277,4.132736e-05,6.7535666e-10,0.0,0.0,0.0,0.0,0.0,0.0
2045104000,2044952000,1.1306921e-05,0.0008127119,2.3878694e-05,5.220743e-06,3.6033598e-05,6.3380144e-06,0.0,0.0,0.0,0.0,0.0,0.0,0.0,8.664142e-06,0.0,0.0,0.0,0.0,0.0004817839,0.0004817839,9.104758e-06,2.436147e-06,0.00014595312,7.1082875e-05,9.140479e-09,0.0,0.0,0.0,0.0,0.0,0.0
2045120000,2044968000,1.1306921e-05,0.0008127119,2.3878694e-05,5.220743e-06,3.6033598e-05,6.3380144e-06,0.0,0.0,0.0,0.0,0.0,0.0,0.0,8.664142e-06,0.0,0.0,0.0,0.0,0.0003355573,4.8435653e-05,0.0003355573,4.402333e-08,0.00044812495,0.00096494873,8.1309736e-08,0.0,0.0,0.0,0.0,0.0,0.0
2045128000,2044976000,1.1306921e-05,0.0008127119,2.3878694e-05,5.220743e-06,3.6033598e-05,6.3380144e-06,0.0,0.0,0.0,0.0,0.0,0.0,0.0,8.664142e-06,0.0,0.0,0.0,0.0,0.0003355573,4.8435653e-05,0.0003355573,4.402333e-08,0.00027283968,0.0024535914,1.7170373e-07,0.0,0.0,0.0,0.0,0.0,0.0
2045136000,2044984000,1.1306921e-05,0.0008127119,2.3878694e-05,5.220743e-06,3.6033598e-05,6.3380144e-06,0.0,0.0,0.0,0.0,0.0,0.0,0.0,9.378401e-07,0.0,0.0,0.0,0.0,0.0003355573,4.8435653e-05,0.0003355573,4.402333e-08,6.861966e-05,0.00035843434,2.2737368e-11,0.0,0.0,0.0,0.0,0.0,0.0
2045144000,2044992000,1.1306921e-05,0.0008127119,2.3878694e-05,5.220743e-06,3.6033598e-05,6.3380144e-06,0.0,0.0,0.0,0.0,0.0,0.0,0.0,9.378401e-07,0.0,0.0,0.0,0.0,0.0003355573,4.8435653e-05,0.0003355573,4.402333e-08,0.0006210082,6.850423e-05,3.165951e-09,0.0,0.0,0.0,0.0,0.0,0.0
2045160000,2045008000,1.1306921e-05,0.0008127119,2.3878694e-05,5.220743e-06,3.6033598e-05,6.3380144e-06,0.0,0.0,0.0,0.0,0.0,0.0,0.0,9.378401e-07,0.0,0.0,0.0,0.0,0.0003355573,4.8435653e-05,0.0003355573,4.402333e-08,0.0008107207,2.6404812e-05,7.3098136e-08,0.0,0.0,0.0,0.0,0.0,0.0
2045168000,2045016000,1.1306921e-05,0.0008127119,2.3878694e-05,5.220743e-06,3.6033598e-05,6.3380144e-06,0.0,0.0,0.0,0.0,0.0,0.0,0.0,9.378401e-07,0.0,0.0,0.0,0.0,0.0003355573,4.8435653e-05,0.0003355573,4.402333e-08,0.0005707846,0.003163138,3.8249004e-07,0.0,0.0,0.0,0.0,0.0,0.0
2045176000,2045024000,1.1306921e-05,0.0008127119,2.3878694e-05,5.220743e-06,3.6033598e-05,6.3380144e-06,0.0,0.0,0.0,0.0,0.0,0.0,0.0,9.378401e-07,0.0,0.0,0.0,0.0,0.0003355573,4.8435653e-05,0.0003355573,4.402333e-08,0.00076637417,1.2174141e-06,4.0827217e-09,0.0,0.0,0.0,0.0,0.0,0.0
2045184000,2045032000,1.1306921e-05,0.0008127119,2.3878694e-05,5.220743e-06,3.6033598e-05,6.3380144e-06,0.0,0.0,0.0,0.0,0.0,0.0,0.0,9.378401e-07,0.0,0.0,0.0,0.0,0.00018874832,1.8426108e-05,8.447659e-05,0.00018874832,4.2338954e-05,2.5905806e-06,1.0825261e-09,0.0,0.0,0.0,0.0,0.0,0.0
2045200000,2045048000,1.1306921e-05,0.0008127119,2.3878694e-05,5.220743e-06,3.6033598e-05,6.3380144e-06,0.0,0.0,0.0,0.0,0.0,0.0,0.0,9.378401e-07,0.0,0.0,0.0,0.0,0.00018874832,1.8426108e-05,8.447659e-05,0.00018874832,0.00038866076,4.617138e-05,2.9059777e-08,0.0,0.0,0.0,0.0,0.0,0.0
2045208000,2045056000,1.1306921e-05,0.0008127119,2.3878694e-05,5.220743e-06,3.6033598e-05,6.3380144e-06,0.0,0.0,0.0,0.0,0.0,0.0,0.0,3.6483416e-05,0.0,0.0,0.0,0.0,0.00018874832,1.8426108e-05,8.447659e-05,0.00018874832,0.0004945272,0.00012846875,2.0954758e-09,0.0,0.0,0.0,0.0,0.0,0.0
2045216000,2045064000,1.1306921e-05,0.0008127119,2.3878694e-05,5.220743e-06,3.6033598e-05,6.3380144e-06,0.0,0.0,0.0,0.0,0.0,0.0,0.0,3.6483416e-05,0.0,0.0,0.0,0.0,0.00018874832,1.8426108e-05,8.447659e-05,0.00018874832,0.00058946694,0.00034210025,1.0359713e-09,0.0,0.0,0.0,0.0,0.0,0.0
2045224000,2045072000,1.1306921e-05,0.0008127119,2.3878694e-05,5.220743e-06,3.6033598e-05,6.3380144e-06,0.0,0.0,0.0,0.0,0.0,0.0,0.0,3.6483416e-05,0.0,0.0,0.0,0.0,0.00018874832,1.8426108e-05,8.447659e-05,0.00018874832,0.00016401647,0.00021910027,1.614859e-08,0.0,0.0,0.0,0.0,0.0,0.0
2045240000,2045088000,1.1306921e-05,0.0008127119,2.3878694e-05,5.220743e-06,3.6033598e-05,6.3380144e-06,0.0,0.0,0.0,0.0,0.0,0.0,0.0,3.6483416e-05,0.0,0.0,0.0,0.0,0.00018874832,1.8426108e-05,8.447659e-05,0.00018874832,0.00020328906,0.0008442068,4.0523105e-09,0.0,0.0,0.0,0.0,0.0,0.0
2045248000,2045096000,1.1306921e-05,0.0008127119,2.3878694e-05,5.220743e-06,3.6033598e-05,6.3380144e-06,0.0,0.0,0.0,0.0,0.0,0.0,0.0,3.6483416e-05,0.0,0.0,0.0,0.0,0.00018874832,1.8426108e-05,8.447659e-05,0.00018874832,0.0011658574,0.00057199015,1.7209913e-09,0.0,0.0,0.0,0.0,0.0,0.0
2045256000,2045104000,0.00046049227,0.0003374988,0.001538454,1.8960426e-08,3.5612506e-05,8.361453e-06,0.0,0.0,0.0,0.0,0.0,0.0,0.0,3.6483416e-05,0.0,0.0,0.0,0.0,0.00038698042,6.06247e-05,0.00038698042,4.166385e-07,0.0033763985,0.00029698518,2.0600282e-08,0.0,0.0,0.0,0.0,0.0,0.0
2045264000,2045112000,0.00046049227,0.0003374988,0.001538454,1.8960426e-08,3.5612506e-05,8.361453e-06,0.0,0.0,0.0,0.0,0.0,0.0,0.0,3.6483416e-05,0.0,0.0,0.0,0.0,0.00038698042,6.06247e-05,0.00038698042,4.166385e-07,2.045919e-06,0.0005877298,4.8466973e-09,0.0,0.0,0.0,0.0,0.0,0.0
2045280000,2045128000,0.00046049227,0.0003374988,0.001538454,1.8960426e-08,3.5612506e-05,8.361453e-06,0.0,0.0,0.0,0.0,0.0,0.0,0.0,1.1132364e-06,0.0,0.0,0.0,0.0,0.00038698042,6.06247e-05,0.00038698042,4.166385e-07,0.0017900169,7.497391e-06,1.9349642e-07,0.0,0.0,0.0,0.0,0.0,0.0
2045288000,2045136000,0.00046049227,0.0003374988,0.001538454,1.8960426e-08,3.5612506e-05,8.361453e-06,0.0,0.0,0.0,0.0,0.0,0.0,0.0,1.1132364e-06,0.0,0.0,0.0,0.0,0.00038698042,6.06247e-05,0.00038698042,4.166385e-07,0.00022202471,4.6779596e-07,1.0706799e-08,0.0,0.0,0.0,0.0,0.0,0.0
2045296000,2045144000,0.00046049227,0.0003374988,0.001538454,1.8960426e-08,3.5612506e-05,8.361453e-06,0.0,0.0,0.0,0.0,0.0,0.0,0.0,1.1132364e-06,0.0,0.0,0.0,0.0,0.00038698042,6.06247e-05,0.00038698042,4.166385e-07,0.00015793348,4.030431e-05,1.6427748e-09,0.0,0.0,0.0,0.0,0.0,0.0
2045304000,2045152000,0.00046049227,0.0003374988,0.001538454,1.8960426e-08,3.5612506e-05,8.361453e-06,0.0,0.0,0.0,0.0,0.0,0.0,0.0,1.1132364e-06,0.0,0.0,0.0,0.0,0.00038698042,6.06247e-05,0.00038698042,4.166385e-07,1.1280386e-05,3.87579e-05,1.8468427e-10,0.0,0.0,0.0,0.0,0.0,0.0
2045320000,2045168000,0.00046049227,0.0003374988,0.001538454,1.8960426e-08,3.5612506e-05,8.361453e-06,0.0,0.0,0.0,0.0,0.0,0.0,0.0,1.1132364e-06,0.0,0.0,0.0,0.0,0.00038698042,6.06247e-05,0.00038698042,4.166385e-07,0.00030891257,0.0021039073,3.812835e-08,0.0,0.0,0.0,0.0,0.0,0.0
2045328000,2045176000,0.00046049227,0.0003374988,0.001538454,1.8960426e-08,3.5612506e-05,8.361453e-06,0.0,0.0,0.0,0.0,0.0,0.0,0.0,1.1132364e-06,0.0,0.0,0.0,0.0,4.757408e-06,3.5720816e-06,4.757408e-06,9.4153085e-09,0.00010520931,0.0007874068,2.4760993e-08,0.0,0.0,0.0,0.0,0.0,0.0
2045336000,2045184000,0.00046049227,0.0003374988,0.001538454,1.8960426e-08,3.5612506e-05,8.361453e-06,0.0,0.0,0.0,0.0,0.0,0.0,0.0,1.1132364e-06,0.0,0.0,0.0,0.0,4.757408e-06,3.5720816e-06,4.757408e-06,9.4153085e-09,7.1548384e-05,0.0001267065,5.3225904e-09,0.0,0.0,0.0,0.0,0.0,0.0
2045344000,2045192000,0.00046049227,0.0003374988,0.001538454,1.8960426e-08,3.5612506e-05,8.361453e-06,0.0,0.0,0.0,0.0,0.0,0.0,0.0,1.1132364e-06,0.0,0.0,0.0,0.0,4.757408e-06,3.5720816e-06,4.757408e-06,9.4153085e-09,0.00043801157,0.0006115332,2.0463631e-10,0.0,0.0,0.0,0.0,0.0,0.0
2045360000,2045208000,0.00046049227,0.0003374988,0.001538454,1.8960426e-08,3.5612506e-05,8.361453e-06,0.0,0.0,0.0,0.0,0.0,0.0,0.0,1.8669392e-06,0.0,0.0,0.0,0.0,4.757408e-06,3.5720816e-06,4.757408e-06,9.4153085e-09,0.00038119956,0.00024287326,4.2041393e-10,0.0,0.0,0.0,0.0,0.0,0.0
2045368000,2045216000,0.00046049227,0.0003374988,0.001538454,1.8960426e-08,3.5612506e-05,8.361453e-06,0.0,0.0,0.0,0.0,0.0,0.0,0.0,1.8669392e-06,0.0,0.0,0.0,0.0,4.757408e-06,3.5720816e-06,4.757408e-06,9.4153085e-09,9.256812e-05,8.418898e-05,9.168275e-10,0.0,0.0,0.0,0.0,0.0,0.0
2045376000,2045224000,0.00046049227,0.0003374988,0.001538454,1.8960426e-08,3.5612506e-05,8.361453e-06,0.0,0.0,0.0,0.0,0.0,0.0,0.0,1.8669392e-06,0.0,0.0,0.0,0.0,4.757408e-06,3.5720816e-06,4.757408e-06,9.4153085e-09,9.190294e-05,0.0005187809,1.7195134e-08,0.0,0.0,0.0,0.0,0.0,0.0
2045384000,2045232000,0.00046049227,0.0003374988,0.001538454,1.8960426e-08,3.5612506e-05,8.361453e-06,0.0,0.0,0.0,0.0,0.0,0.0,0.0,1.8669392e-06,0.0,0.0,0.0,0.0,4.757408e-06,3.5720816e-06,4.757408e-06,9.4153085e-09,7.536867e-05,1.7818754e-06,2.8267664e-09,0.0,0.0,0.0,0.0,0.0,0.0
2045400000,2045248000,0.00046049227,0.0003374988,0.001538454,1.8960426e-08,3.5612506e-05,8.361453e-06,0.0,0.0,0.0,0.0,0.0,0.0,0.0,1.8669392e-06,0.0,0.0,0.0,0.0,3.5855486e-05,3.032195e-05,3.5855486e-05,1.0430888e-05,0.0003002104,0.00095961214,5.3704753e-08,0.0,0.0,0.0,0.0,0.0,0.0
2045408000,2045256000,0.00046049227,0.0003374988,0.001538454,1.8960426e-08,3.5612506e-05,8.361453e-06,0.0,0.0,0.0,0.0,0.0,0.0,0.0,1.8669392e-06,0.0,0.0,0.0,0.0,3.5855486e-05,3.032195e-05,3.5855486e-05,1.0430888e-05,0.00011828586,0.00012640504,6.7535666e-10,0.0,0.0,0.0,0.0,0.0,0.0
2045416000,2045264000,0.00046049227,0.0003374988,0.001538454,1.8960426e-08,3.5612506e-05,8.361453e-06,0.0,0.0,0.0,0.0,0.0,0.0,0.0,1.8669392e-06,0.0,0.0,0.0,0.0,3.5855486e-05,3.032195e-05,3.5855486e-05,1.0430888e-05,2.4292964e-05,3.5650824e-06,7.3873707e-10,0.0,0.0,0.0,0.0,0.0,0.0
2045424000,2045272000,0.00046049227,0.0003374988,0.001538454,1.8960426e-08,3.5612506e-05,8.361453e-06,0.0,0.0,0.0,0.0,0.0,0.0,0.0,2.9153403e-05,0.0,0.0,0.0,0.0,3.5855486e-05,3.032195e-05,3.5855486e-05,1.0430888e-05,0.0013397376,0.0001844467,2.3283064e-10,0.0,0.0,0.0,0.0,0.0,0.0
