timestamp,timestamp_sample,xyz[0],xyz[1],xyz[2],xyz_derivative[0],xyz_derivative[1],xyz_derivative[2]
2043328000,2043328000,-0.0020147287,-0.009250701,0.005134114,0.42944297,-0.7494833,-0.0125822555
2043332000,2043332000,0.0052281753,0.00029961826,-0.0029447023,0.89149755,0.2998994,-0.6839869
2043340000,2043340000,-0.0043104594,0.016238641,-0.0015224117,-0.361898,1.1741387,-0.12960477
2043348000,2043348000,-0.004457613,0.014775301,0.008473461,-0.07899746,0.38068414,0.65399206
2043360000,2043360000,0.0020510077,-8.7178196e-05,-0.0021797796,0.24400282,-0.8018315,-0.42708802
2043368000,2043368000,0.011349558,-0.0076215575,-0.0056611253,0.7475584,-0.7793546,-0.5046258
2043380000,2043380000,0.0015537995,0.017581027,-0.004757093,-0.52769595,1.0939832,0.3038657
2043388000,2043388000,0.0021099714,0.008814146,-0.005699455,-0.1230571,-0.13563156,-0.050687317
2043400000,2043400000,0.011527983,-0.0045021297,0.00082850596,0.62904835,-0.75145763,0.38408086
2043408000,2043408000,0.0061380523,-0.014920105,-0.008982305,-0.17283818,-0.9968728,-0.56763077
2043420000,2043420000,0.0035886941,-0.00029538613,0.0013322785,-0.029796392,0.2877681,0.7182277
2043428000,2043428000,0.013038681,-0.00045873175,0.017192615,0.5824794,0.20454094,1.3224144
2043440000,2043440000,-0.00017179362,-0.0013243186,-0.0038868126,-0.58790237,-0.09808296,-0.8331462
2043448000,2043448000,-0.0015796049,-0.010834766,-0.0077600004,-0.40324605,-0.70773524,-0.60144097
2043460000,2043460000,-0.015847193,-0.011866454,0.0046194997,-0.77873445,-0.04564858,0.15133822
2043468000,2043468000,-0.0069995415,0.0084714135,-0.008697987,0.25767502,1.3519769,-0.7612052
2043480000,2043480000,-0.004388725,0.014224304,-0.0019617113,0.1610112,0.76585466,0.18549135
2043488000,2043488000,0.0045036473,-0.001628483,0.009397938,0.79174227,-0.9162775,0.90655804
2043500000,2043500000,-0.0030097084,-0.008243173,0.012250329,-0.5871831,-0.5282741,0.28922138
2043508000,2043508000,-0.0022057677,0.0011919452,0.011643223,-0.13813567,0.5092801,0.028770963
2043520000,2043520000,-0.0021554604,0.0008140511,-0.0011230768,0.14606878,-0.044679333,-0.54508865
2043528000,2043528000,0.0067824894,0.009139947,0.010324961,0.64868194,0.580034,0.6373025
2043540000,2043540000,-0.003893644,-0.012788154,0.010532071,-0.38822147,-1.1902394,0.0462664
2043548000,2043548000,-0.0046462133,-0.013204819,0.0046547656,-0.27491894,-0.5580785,-0.4454497
2043560000,2043560000,0.010002742,-0.0005596309,-0.018138783,1.08063,0.72765446,-1.3974562
2043568000,2043568000,0.016465113,0.008318181,-0.0021217305,0.88354534,0.9204336,0.50882226
2043580000,2043580000,-0.0039247773,-0.0031076756,-0.008648431,-1.1820145,-0.59026295,-0.3984693
2043588000,2043588000,0.0021277284,-0.0058407253,-0.0031549423,-0.0757131,-0.35949764,0.23474053
2043600000,2043600000,0.0029655322,-0.0039458745,0.004481332,-0.08537452,-0.11575753,0.62063116
2043608000,2043608000,-0.0058482816,0.00789129,-0.006691847,-0.5999212,0.8627942,-0.64732337
2043620000,2043620000,0.0039025396,0.015885169,-0.0041266014,0.44460285,0.4986856,0.36850274
2043628000,2043628000,0.0064980644,0.0006533978,0.013539729,0.27774107,-0.87458366,1.298039
2043640000,2043640000,0.013261189,-0.008613279,4.7809262e-05,0.4834336,-0.5748963,-0.40656272
2043644000,2043644000,0.011381735,-0.00393137,0.0016521057,0.16454512,0.008950713,-0.13639918
2043660000,2043660000,-0.005184999,0.0047443747,-0.0027248752,-0.8399378,0.20833816,-0.45223343
2043668000,2043668000,0.020916054,-0.00041251467,-0.00015693837,1.5021641,-0.21385391,0.0027704798
2043680000,2043680000,0.0051727756,-0.0076141,0.009627121,-0.9966039,-0.6172503,0.7195402
2043688000,2043688000,-0.015486923,-0.0033947988,-0.0008865298,-1.7086662,0.048692532,-0.48758495
2043700000,2043700000,0.010075961,-0.0018204987,0.0059072305,0.923394,-0.18050465,0.31400388
2043708000,2043708000,0.0054230946,0.002756241,0.0082202535,0.04264593,0.31677485,0.30294675
2043720000,2043720000,-0.00907962,-0.00039706266,0.0034363368,-0.7343113,0.006042391,-0.008521616
2043728000,2043728000,-0.012140515,-0.009169884,-0.0014444073,-0.5284034,-0.69191074,-0.33340988
2043740000,2043740000,0.00467644,-0.00045831787,0.004771191,0.6254506,0.32801867,0.26357675
2043748000,2043748000,0.00016812075,-0.01280812,0.007053919,0.079874694,-0.6720306,0.19715919
2043760000,2043760000,0.0056497306,-0.0028515412,0.0017835868,0.27178982,0.24490498,-0.0075480896
2043768000,2043768000,-2.9353163e-05,-0.0017888445,0.0046858913,-0.37532228,0.20208296,0.08511636
2043780000,2043780000,-0.010349437,-0.00895269,-0.004196322,-0.4273373,-0.50108093,-0.44533095
2043788000,2043788000,-0.002039684,-0.010739741,0.0023037207,0.29589885,-0.3064798,0.28383955
2043800000,2043800000,0.011759714,-0.0020919817,0.002054835,1.0116191,0.34520528,0.117708035
2043808000,2043808000,-0.008935779,0.0018659735,0.0059478455,-1.0126686,0.42051238,0.33690965
2043820000,2043820000,-0.0012077527,0.014355058,0.003623543,0.18026806,0.8501122,0.047470406
2043828000,2043828000,-0.0047375914,0.008233645,0.010219746,-0.12726793,-0.08681188,0.43924087
2043840000,2043840000,0.0017446269,0.00353103,0.00012981021,0.22527865,-0.35710666,-0.41673893
2043848000,2043848000,-0.008426961,0.0030666164,-0.008350389,-0.618773,-0.2058055,-0.7657337
2043860000,2043860000,-0.009250623,0.0058508953,-0.0077605173,-0.11697811,0.23800644,-0.07632794
2043868000,2043868000,-0.002774994,0.0016989001,-0.009439367,0.38788402,-0.19183907,-0.17079094
2043880000,2043880000,0.008113173,0.0007593704,-0.012234427,0.7349591,-0.005314911,-0.3315646
2043888000,2043888000,0.010849416,0.0065745027,-0.0042515085,0.47799408,0.29988047,0.3846848
2043896000,2043896000,0.00819643,0.00043248088,-0.008574297,0.09122453,-0.19444016,-0.03346381
2043908000,2043908000,0.008333215,0.00726408,0.0014204694,-0.1643098,0.120355725,0.09188044
2043920000,2043920000,-0.009557385,0.007924364,0.015321609,-1.1385908,0.2525871,1.076935
2043928000,2043928000,-0.008389366,0.009886664,0.010904802,-0.37007773,0.15632743,0.11108321
2043940000,2043940000,-0.010362517,0.005575941,-0.009508378,-0.24068925,0.02355002,-0.94202083
2043948000,2043948000,0.0059900642,0.0069437227,-0.004011235,1.0324206,0.06750827,-0.21087474
2043960000,2043960000,0.0005604292,-0.0078795,-0.011986569,0.026253175,-0.665207,-0.37476662
2043968000,2043968000,0.0029125223,-0.006414681,-0.014893903,0.09225452,-0.2494331,-0.34242424
2043980000,2043980000,-0.01679403,-0.009253004,0.0071517867,-1.0296217,-0.16250008,1.2358394
2043988000,2043988000,-0.012858176,-0.00946152,0.0037437386,-0.14653656,-0.031420775,0.3378488
2043996000,2043996000,0.0018629667,0.0072644064,0.009864419,0.91128576,1.0710398,0.49981013
2044008000,2044008000,0.005027396,-0.0050958903,-0.003876688,0.634784,-0.20372105,-0.35675877
2044020000,2044020000,0.0068819644,-0.00055059366,-0.006502507,0.28436434,0.18199074,-0.19261515
2044028000,2044028000,0.015925534,-0.009201247,-0.007607111,0.68896395,-0.4308912,-0.21578696
2044040000,2044040000,0.0001345985,0.0064850193,-0.0030337248,-0.4981975,0.67295015,0.1272596
2044048000,2044048000,0.005734283,0.018651463,-0.0070184683,0.161399,1.1344701,-0.10472105
2044060000,2044060000,-0.01589865,0.0026495685,0.0030869013,-1.591103,-0.60242105,0.5099753
2044068000,2044068000,-0.027282886,-0.0027935193,0.011276021,-1.3304683,-0.6761407,0.7303366
2044080000,2044080000,0.0045122076,0.024797892,-0.007843818,1.4891374,1.4611912,-0.8471964
2044088000,2044088000,0.010755188,-0.00025643175,0.0025923047,1.0011575,-1.1924161,0.44322923
2044100000,2044100000,0.009127645,-0.01430005,0.005800823,0.2571271,-0.94209766,0.40306732
2044108000,2044108000,-0.0041095153,-9.52954e-05,0.010428566,-0.7701683,0.5695285,0.44850004
2044120000,2044120000,0.0013234366,-0.0021758045,-0.0048476327,-0.11357272,0.15068246,-0.90794694
2044128000,2044128000,0.0012289258,0.008001828,0.0031289614,0.05121401,0.7327703,0.16957442
2044140000,2044140000,0.016577277,0.014683552,-0.0017990482,0.64278454,0.87157816,-0.14439046
2044148000,2044148000,0.0131307775,0.011339612,-0.007922713,0.16637275,0.0441261,-0.518905
2044160000,2044160000,0.004215457,-0.0026981325,0.00035118658,-0.7216063,-0.2630682,0.42282748
2044168000,2044168000,-0.0098106535,0.005513347,0.006125382,-1.2532028,0.25384754,0.52122825
2044176000,2044176000,-0.018912707,-0.0022272612,-0.0042049717,-1.2132806,-0.24970065,-0.5086808
2044188000,2044188000,-0.00084951124,-0.0041971714,0.0038469671,0.96260315,-0.6083689,0.6755193
2044200000,2044200000,-0.0020305854,-0.004571703,-0.0102717355,-0.02080673,0.007499952,-1.0778315
2044204000,2044204000,-0.0047314125,-0.005423671,-0.019127997,-0.23971085,-0.06625712,-1.4579144
2044220000,2044220000,-0.004172386,0.010623711,0.0021925513,-0.39774776,0.9614404,0.7326331
2044228000,2044228000,-0.005033013,0.0030763885,0.0131979715,-0.08975512,-0.14886795,1.0849004
2044240000,2044240000,0.0067105833,0.0021151453,0.0041732374,0.3328597,-0.10159596,-0.3287325
2044248000,2044248000,-0.016314236,-0.005204225,0.001958549,-1.4499502,-0.59106755,-0.2909166
2044260000,2044260000,0.0034607067,7.9736004e-05,-0.006951025,0.9096688,0.19892584,-0.42638308
2044268000,2044268000,0.0072181937,0.0015876557,-0.0030272442,0.62704515,0.23261742,0.076689504
2044280000,2044280000,-0.0062844413,-0.0024832394,0.010410997,-0.6265303,-0.23245262,0.42756033
2044288000,2044288000,0.004934679,-0.008896302,-0.0155792525,0.48933902,-0.5770215,-1.5431154
2044300000,2044300000,-0.001244476,-0.010328641,-0.0053197127,-0.28969795,-0.11306602,0.15808734
2044308000,2044308000,0.00063153787,-0.007043943,-0.005845062,0.059999734,0.25339362,-0.032570478
2044320000,2044320000,-0.013417351,0.011304697,0.005693434,-0.92351174,0.7814664,1.0042484
2044328000,2044328000,9.3801966e-05,0.0056635556,0.005713302,0.50417244,-0.04251162,0.3692106
2044340000,2044340000,0.016457012,0.0066051143,0.00407167,1.2957245,0.1096951,-0.05129705
2044348000,2044348000,0.0054552,-0.0028774063,-0.010368787,-0.30371463,-0.6066671,-1.0139185
2044356000,2044356000,0.00906275,-0.002945263,0.017882263,0.27383554,-0.2928364,1.60367
2044368000,2044368000,-0.0055269105,-0.005963324,0.011335134,-1.0362371,-0.10582021,-0.18036675
2044380000,2044380000,-0.001352385,-0.010851165,-0.0013289503,-0.00012266636,-0.51617223,-0.61605287
2044388000,2044388000,-0.00036587278,-0.0136594195,0.0053372155,0.030933887,-0.3293462,0.1392577
2044400000,2044400000,-0.013609682,0.0066468692,-0.015197682,-0.6912344,0.9143038,-1.3773879
2044408000,2044408000,-0.0064114323,0.008641138,-0.016013738,0.2565938,0.6172138,-0.56285375
2044420000,2044420000,0.0014401722,-0.00047883592,-0.0021265033,0.1705029,-0.3464533,0.706001
2044428000,2044428000,-0.011323728,0.007399041,0.0040034964,-0.8411794,0.3298519,0.6506125
2044440000,2044440000,0.0032485428,-0.004766063,-0.008463483,0.8746489,-0.43330526,-0.34898126
2044448000,2044448000,0.008913336,-0.0076703834,-0.014520171,0.7482978,-0.40541628,-0.61299986
2044456000,2044456000,-0.003463346,-0.0048632533,-0.011732096,-0.5758978,0.06528634,0.013670326
2044468000,2044468000,0.007513635,0.010948155,0.0029927215,0.57462126,0.8403623,0.6276535
2044480000,2044480000,-0.004419153,-0.016071588,-0.0085814325,-0.5282675,-1.3013886,-0.36306623
2044488000,2044488000,-0.009141413,-0.003190444,-0.019122249,-0.5487756,0.33974317,-0.90769935
2044500000,2044500000,0.0034136297,-0.008961661,-0.010039098,0.6089306,-0.14496419,0.30860156
2044508000,2044508000,-0.0092467675,-0.0020511986,-0.011006479,-0.6453171,0.33883926,0.117010064
2044520000,2044520000,-0.0022983896,0.0036703239,-0.0034320222,0.40277222,0.3652795,0.33091557
2044528000,2044528000,-0.00062540115,0.00805953,-0.0013871653,0.20244563,0.5785041,0.31899735
2044540000,2044540000,-0.012116333,0.004942286,0.012967279,-0.6844599,-0.17599182,0.79013926
2044548000,2044548000,-0.003017884,0.011294681,-7.978369e-05,0.4316214,0.3580293,-0.5337912
2044560000,2044560000,0.007956263,-0.0024979564,-0.0020621542,0.54303485,-0.6320882,-0.43472838
2044564000,2044564000,0.0028029592,0.0041794786,-0.0007954052,-0.06957573,0.13777149,-0.18337148
2044580000,2044580000,-5.412161e-05,-0.0154617615,-0.0012248341,0.37713057,-1.022995,-0.15561624
2044588000,2044588000,-0.0041182963,0.0009233486,-0.0017553606,-0.058731,0.72388405,-0.16123301
2044600000,2044600000,-0.00061203976,0.008105852,0.0021472804,0.1833664,0.63861537,0.5199288
2044608000,2044608000,0.010890275,-0.0017489484,-0.0013994477,0.818692,-0.46352795,-0.16707201
2044620000,2044620000,-0.005163439,-0.002226012,-0.003948482,-0.7372093,-0.05741632,-0.09892586
2044628000,2044628000,-0.0053302823,0.0070145726,0.0053024576,-0.33596954,0.5634011,0.6111607
2044640000,2044640000,-0.007609452,-0.005419636,0.008343775,0.024504542,-0.5324354,0.5513954
2044648000,2044648000,0.0082405275,-0.0059931474,0.015660536,1.0163454,-0.23932445,0.65569913
2044660000,2044660000,0.0027727329,0.0067762993,0.002571391,0.036272276,0.75902176,-0.47378138
2044668000,2044668000,0.0049108625,-0.0008375265,-0.0015619551,0.15617675,-0.29045284,-0.4677895
2044680000,2044680000,0.011473634,-0.009121577,0.011848525,0.15486866,-0.36131203,0.70132124
2044688000,2044688000,-0.011669831,-0.0112648625,0.010114477,-1.5012941,-0.29455242,0.057516333
2044700000,2044700000,-0.00092103076,-0.0059652594,-0.018871447,0.3516727,0.02188354,-1.3236378
2044708000,2044708000,-0.0019046231,4.4253888e-05,-0.0072588096,0.022114903,0.45682186,0.26484412
2044716000,2044716000,-0.0024938637,-0.0062311026,0.0005102833,0.0004356578,-0.30182117,0.5386417
2044728000,2044728000,0.0047041974,-0.0033950582,0.012314815,0.42933694,0.1736991,1.1740289
2044740000,2044740000,0.004193367,0.00019465547,0.01457495,0.30034983,0.2879792,0.36226287
2044748000,2044748000,0.0018663871,-0.0027542145,0.009704218,-0.019550398,-0.1245648,-0.19991136
2044760000,2044760000,0.002250225,0.004161537,0.015521019,-0.24430415,0.33112672,0.579611
2044768000,2044768000,0.005025802,0.0037685013,0.0140833445,0.18748057,0.12503017,0.05612165
2044780000,2044780000,0.0047428966,-0.0016456157,0.0028491572,-0.106483996,-0.4070668,-0.443854
2044784000,2044784000,0.0021692798,-0.0032727001,0.008422303,-0.2860898,-0.40696788,0.17068991
2044800000,2044800000,-0.00020411487,-0.0014681511,-0.0060457964,0.24537417,0.14991416,-0.9198821
2044808000,2044808000,-0.008806567,0.013093451,-0.0027964893,-0.55547595,1.0213594,-0.20499499
2044820000,2044820000,0.0029988242,-0.0015841282,-0.0060912087,0.91363883,-0.43417478,-0.1875236
2044828000,2044828000,0.015242084,0.00064320577,-0.0050583403,1.0921359,-0.055122584,0.0081326505
2044840000,2044840000,0.009868709,-0.0069044936,-0.01014177,0.10628069,-0.63877887,-0.47862998
2044848000,2044848000,0.0062582637,-0.009435051,-0.0068595074,-0.1742378,-0.28733796,0.16205853
2044860000,2044860000,0.0057627745,-0.0024856029,0.005956245,-0.13954706,0.23812059,0.59654844
2044864000,2044864000,0.0049607144,-0.0006246069,0.00264029,-0.15994152,0.31409758,0.11969031
2044880000,2044880000,0.00034101994,0.0022975027,-0.0036595121,-0.3186168,0.8448824,-0.1393197
2044888000,2044888000,0.003886594,0.00092242955,0.0016775444,0.17504495,0.1693868,0.31241
2044900000,2044900000,0.009161029,0.007766915,0.0072185555,0.17007801,0.6836716,0.15396209
2044908000,2044908000,-0.0051054815,-0.005378919,0.006969211,-0.95651114,-0.7540885,0.047655962
2044920000,2044920000,-0.0042869295,-0.0010276004,-0.0019313307,0.0536505,0.22959656,-0.4182461
2044928000,2044928000,0.011172218,-0.012786611,0.0051517007,1.0678753,-0.76134837,0.2976702
2044936000,2044936000,0.0070313825,-0.0074328687,0.01302853,0.13971215,0.16385166,0.68935084
2044944000,2044944000,0.008639297,0.0076454855,0.019290408,0.19271697,1.0582209,0.71391803
2044960000,2044960000,0.0041341735,0.0032629725,0.015665159,0.032615244,-0.14747027,0.1556709
2044968000,2044968000,0.0074226814,-0.0097599095,0.0021039923,0.1891716,-1.0078777,-0.92753696
2044980000,2044980000,0.00048811792,0.007288056,0.010390712,-0.13179845,0.8549928,0.37059003
2044988000,2044988000,0.002270491,0.0038201942,-0.0016004601,0.0060185194,0.13295467,-0.6903224
2045000000,2045000000,-0.010244138,0.0002793689,-0.0042937393,-0.9578767,-0.17328277,-0.37844625
2045008000,2045008000,-0.013092268,-0.003089482,0.00049440766,-0.48110878,-0.29688257,0.17304052
2045020000,2045020000,-0.010593641,-0.009904085,0.00078469666,0.04037389,-0.49621582,0.26166588
2045028000,2045028000,0.012713875,0.0036651094,-0.004374848,1.589158,0.76248693,-0.34188515
2045040000,2045040000,-0.00560725,0.0038785331,-0.010495286,-0.5831082,-0.04577404,-0.12391907
2045048000,2045048000,0.0043008756,-0.01104456,-0.012867446,0.49470964,-0.999365,-0.27728805
2045060000,2045060000,0.00834157,0.0053020073,-0.0059889504,0.20389143,0.9173214,0.30137125
2045068000,2045068000,0.0016045189,-0.0038850862,0.015834665,-0.36065638,-0.45066693,1.6878641
2045080000,2045080000,0.0046192384,-0.005206167,-0.009131644,0.14633623,-0.07868423,-1.249426
2045088000,2045088000,-0.006119749,-0.020509299,-0.012521763,-0.728383,-1.1001443,-0.6707794
2045100000,2045100000,0.010957304,-0.0026407712,-0.008387214,0.89161265,0.8160933,0.014287404
2045104000,2045104000,0.010076524,-0.003570758,-0.009891166,0.5197005,0.46532825,-0.116264135
2045120000,2045120000,-0.0113421455,-0.01692709,-0.016259616,-1.1746305,-0.5211289,-0.7405925
2045128000,2045128000,-0.011385061,-0.0037634545,-0.0135143595,-0.53610784,0.69166225,-0.008928585
2045140000,2045140000,0.00012823752,-0.0018728676,0.019007176,0.8329253,0.25642225,1.7794415
2045148000,2045148000,0.012295331,0.010509109,-0.00028244112,1.0904912,1.0191946,-0.61999595
2045160000,2045160000,0.0017344705,0.0046756417,0.007873973,-0.10179807,-0.163114,0.60331845
2045168000,2045168000,-0.005855462,0.0026105882,-0.0044623693,-0.70083714,-0.16998427,-0.7795292
2045180000,2045180000,0.003322628,-0.00019615985,0.0028676884,0.6407174,-0.24326357,0.603145
2045188000,2045188000,0.0037923818,0.0040896265,0.009246719,0.20504534,0.19183551,0.61065066
2045200000,2045200000,-0.014544387,-0.00470037,0.017686268,-0.794397,-0.38163915,0.89016354
2045208000,2045208000,0.0020048304,-0.0017889215,0.014485077,0.7929733,0.03363003,0.041410804
2045220000,2045220000,0.0066337055,-0.0056341724,-0.0024741876,0.2795604,-0.04757755,-0.7242706
2045228000,2045228000,-0.00019448322,-0.014947949,-0.0036198774,-0.25731018,-0.7215481,-0.40859902
2045240000,2045240000,0.004792589,0.0055564335,0.002364178,-0.11198372,0.9599495,0.05282472
2045248000,2045248000,0.0016521169,-0.004555679,-0.0018610026,-0.23789352,-0.3154034,-0.24630615
2045260000,2045260000,-0.0019439794,-0.009625417,-0.0052868733,-0.1439161,-0.20624837,-0.25459436
2045268000,2045268000,0.0009349261,0.007819864,-0.001776114,0.15075414,1.1177039,0.10803335
2045280000,2045280000,-0.009738275,0.000542472,-0.010370842,-1.0850236,-0.10409058,-0.43314347
2045288000,2045288000,-0.005285281,0.006508913,-0.0021367355,0.008221149,0.38350242,0.47287506
2045300000,2045300000,-0.0014155656,0.020576388,0.0055175317,0.018481404,1.0576521,0.5074437
2045308000,2045308000,-0.009991507,0.013131443,0.005219767,-0.54804623,-0.14994246,0.12722734
2045320000,2045320000,0.0043818955,0.009015434,-0.003611342,0.8211449,-0.10944771,-0.30165464
2045328000,2045328000,0.0047084815,0.008369808,-0.0046977247,0.25327814,-0.120864466,-0.23656473
2045340000,2045340000,-0.011666645,0.0013543556,-0.0044513033,-0.6918415,-0.5028232,-0.05687967
2045348000,2045348000,0.007944345,-0.0013744818,0.0059427125,1.0777683,-0.3194152,0.7350829
2045360000,2045360000,-0.008696911,0.009355092,0.002886618,-0.8315181,0.28299043,-0.14462101
2045368000,2045368000,-0.010950955,-0.00026970287,0.012010169,-0.46999604,-0.59002256,0.62646323
2045380000,2045380000,0.007622766,-0.0034633838,0.021997888,0.72691715,-0.2514141,0.7384488
2045388000,2045388000,-0.00029260403,-0.008804526,0.008649328,-0.16747323,-0.42676115,-0.59455836
2045400000,2045400000,0.0035478647,0.0042084306,0.0054368046,0.08404164,0.6763741,-0.482778
2045408000,2045408000,-0.0025689143,0.01354871,-0.0011257664,-0.39417475,0.9302441,-0.73989904
2045420000,2045420000,-0.0029302025,0.01242865,0.004382721,0.05034563,0.25785568,0.38759488
2045428000,2045428000,0.007940501,0.005487983,0.00084842084,0.72493076,-0.317824,-0.0728099
2045440000,2045440000,0.006585506,0.002325945,0.004865522,0.32925403,-0.46794736,0.1100978
2045444000,2045444000,0.0098288385,0.00028672986,0.0064967135,0.49034756,-0.4819488,0.2096818
2045460000,2045460000,-0.010373163,0.011576417,-0.0039462443,-1.0121493,0.83296335,-0.8230128
2045468000,2045468000,-0.0019108334,0.0072149183,-0.018244319,0.21757448,-0.056924738,-1.278035
2045480000,2045480000,0.011803901,0.008555585,0.0019772775,0.82912916,0.32757625,0.8608933
2045488000,2045488000,0.010445717,0.0019235674,-0.0032802555,0.2709003,-0.38666508,-0.05142791
2045500000,2045500000,-0.009686203,-0.005338247,0.007899769,-1.1547854,-0.48895767,0.7865199
2045508000,2045508000,-0.0023299411,-0.006207657,0.0013770802,-0.0054370463,-0.20218235,-0.21641046
2045520000,2045520000,-0.009387022,0.010456734,-0.009590143,-0.22392732,1.0068113,-0.4683038
2045528000,2045528000,-0.002988215,0.004725653,0.0016463886,0.3203377,-0.14586784,0.62232494
2045540000,2045540000,0.006144198,0.0043574693,0.016757676,0.7822666,0.27063793,0.9295911
2045548000,2045548000,0.0016894193,0.004463195,-0.0056406697,-0.09142333,-0.06639699,-1.1561984
2045560000,2045560000,-0.000564964,-0.004600626,0.002748738,0.00796321,0.08196842,0.41440135
2045568000,2045568000,0.0049149087,-0.0025231112,0.00082601944,0.3965899,0.040112793,-0.024806201
2045580000,2045580000,0.006040336,0.010458774,-0.01415579,0.13206157,1.0675373,-0.9400151
2045588000,2045588000,0.0025103616,0.00434318,-0.018509522,-0.2412741,-0.06415759,-0.6460843
2045600000,2045600000,-2.3811735e-06,-0.024564847,-0.0063190428,-0.09772551,-1.3896149,0.24767956
2045608000,2045608000,-0.013483104,-0.0013061545,-0.008260437,-1.0011555,1.0251099,0.05578025
2045616000,2045616000,0.003129754,0.00082206825,0.008187762,0.9038861,0.5285338,1.1763067
2045628000,2045628000,0.011347719,0.005483895,0.017433248,0.22120583,0.36951745,0.62317914
2045640000,2045640000,-0.017261755,-0.0003633781,0.0050441762,-1.3749397,-0.29983985,-0.45445558
2045648000,2045648000,-0.00077519886,-0.008088368,0.014108864,0.49547648,-0.7137625,0.3892528
2045660000,2045660000,-0.0069266674,-0.005252144,-0.004707822,-0.021773458,0.1453725,-0.9067236
2045668000,2045668000,0.008037171,0.0055026766,-0.013945435,0.97405696,0.7641338,-1.0134927
2045680000,2045680000,0.010747741,0.0062134555,-0.0059767235,0.60750854,0.32996586,0.13283673
2045688000,2045688000,0.011048493,0.009600407,-0.008267987,0.15785247,0.33647847,-0.1277639
2045700000,2045700000,0.0016680176,0.009886915,-0.007875386,-0.3605829,0.2579146,-0.17732547
2045708000,2045708000,-0.0031933854,0.0010777802,-0.0011156237,-0.52550423,-0.6057249,0.4250797
2045720000,2045720000,0.002229039,-0.0062851035,0.0044944263,0.1889301,-0.38632965,0.34472865
2045728000,2045728000,-0.011231689,0.006562222,-0.0012390878,-0.9403471,0.68016845,-0.20615716
2045740000,2045740000,0.0032444503,-0.009535639,0.0018363401,0.8784457,-0.833663,0.23391868
2045748000,2045748000,-0.00042978564,-0.005540393,4.1768e-05,0.073539734,0.0411436,-0.1611518
2045760000,2045760000,-0.0006929248,-0.0031878117,-0.009468321,-0.018612757,-0.018530311,0.096586585
2045768000,2045768000,-0.0009483691,0.0056268754,0.01723791,-0.046225626,0.5859672,1.7377602
2045780000,2045780000,0.004185266,0.008167905,0.0052775242,0.19658312,0.42297357,-0.20815992
2045788000,2045788000,-0.00046618003,0.0032645331,0.005623202,-0.25995398,-0.120641954,-0.021426799
2045800000,2045800000,-0.015263719,-0.0024381296,-0.003444281,-0.86739826,-0.6134041,-0.5652467
2045808000,2045808000,-0.0111145945,-0.008824993,-0.0031238499,-0.03274399,-0.64297366,-0.24678302
2045820000,2045820000,0.011236248,0.0020070423,0.001216099,1.1795763,0.3478375,0.08717949
2045828000,2045828000,0.0049673454,0.00773616,-0.0067259865,0.046399176,0.57682645,-0.48828986
2045840000,2045840000,0.0033222174,0.0057895253,0.005337163,-0.054488968,-0.100673154,0.6660012
2045848000,2045848000,0.0033485873,-0.0011569605,-0.0071158707,-0.0056132153,-0.49676973,-0.6694333
2045860000,2045860000,0.009037765,0.0025178457,-0.016714605,0.25701845,0.12656881,-0.28519082
2045868000,2045868000,0.0047782436,0.006924387,-0.00072818727,-0.2762609,0.3658095,0.87521
2045880000,2045880000,-0.008017896,-0.0020952607,-0.0013407599,-0.7480663,-0.38736492,0.10853314
2045888000,2045888000,-0.008965185,-0.01720577,-0.006161529,-0.2853257,-1.1622797,-0.20852095
2045900000,2045900000,0.016101018,0.0034416516,-0.0075592333,1.1305795,0.6614873,-0.1443996
2045908000,2045908000,0.0076097553,0.00013961131,-0.004394197,-0.1476717,0.102144115,0.13280427
2045920000,2045920000,-0.00017943846,-0.0035707094,0.0058573186,-0.6590479,-0.31406075,0.37755114
2045928000,2045928000,-0.011383024,0.0013112627,-0.013482812,-0.9305314,0.30588293,-1.1308924
2045940000,2045940000,-0.0018212013,0.011206426,-0.005244691,0.05418162,0.55385256,0.22644256
2045948000,2045948000,0.00077579025,0.002721477,0.00093378255,0.17815997,-0.44141132,0.4964076
2045960000,2045960000,0.0065129134,0.00017563203,0.007547459,0.6046155,0.18746875,0.6165164
2045964000,2045964000,0.005490782,0.004718292,0.008578764,0.3168863,0.50465095,0.49653056
2045980000,2045980000,0.007454385,-0.003980973,0.0028572853,0.3767403,-0.2613485,-0.30789357
2045988000,2045988000,-0.0042812377,-0.000486928,-0.010922234,-0.5823071,0.25514677,-0.96720684
2046000000,2046000000,0.005319356,-0.0037110958,0.0006970052,0.33307704,-0.49783397,0.13018806
2046008000,2046008000,-0.0011780768,0.0027637738,-0.0022737233,-0.26568323,0.2753394,-0.09973247
2046020000,2046020000,-0.0010776123,0.002217962,0.013588351,-0.20315695,-0.007441515,0.9541642
2046028000,2046028000,-0.008544428,0.0023165618,9.651408e-05,-0.6598606,-0.034741987,-0.5981751
2046040000,2046040000,0.008249807,0.007948447,0.003231452,1.2367392,0.39848062,0.290899
2046048000,2046048000,0.015147134,-0.00212536,-0.002229013,0.96087,-0.5108119,-0.3299225
2046060000,2046060000,-0.0045724097,0.0019289464,-0.0068659238,-1.0421975,0.123431765,-0.35382915
2046068000,2046068000,-0.005974408,0.0010673079,0.0008738226,-0.48588666,-0.016502723,0.38936237
2046080000,2046080000,0.0013074089,-0.00017641255,0.00022680292,0.23197539,-0.1164594,0.20998746
2046088000,2046088000,0.0048966995,0.00027820445,0.0049978597,0.36468235,0.02865454,0.3426773
2046100000,2046100000,-0.0009939066,-0.0026513683,-0.01273339,-0.36929774,-0.41048366,-0.82060796
2046108000,2046108000,-0.00078501814,-0.0034116213,-0.0035294131,-0.05859983,-0.18934172,0.3410588
2046116000,2046116000,0.006331203,-0.010368373,0.0062728478,0.42816263,-0.6684511,0.7672932
2046128000,2046128000,0.0022672643,-0.0043144426,-0.0018831689,-0.029172689,0.68362486,-0.3611116
2046140000,2046140000,-0.006212037,0.012997689,0.0014799073,-0.656608,1.0159407,0.33943525
2046148000,2046148000,-0.0041494216,0.00529188,0.00211879,-0.17525882,-0.1313281,0.1059874
2046160000,2046160000,0.001074762,0.006149506,-0.0053662215,0.4873704,0.095218964,-0.38137642
2046168000,2046168000,0.0038013242,-0.0040760348,0.0021197542,0.33107835,-0.6595182,0.4786135
2046180000,2046180000,-0.00549612,0.008777212,0.015512993,-0.35734656,0.5006485,0.5210788
2046184000,2046184000,-0.0025732925,0.003709861,0.0074795187,0.0066194534,-0.09059542,-0.32504952
2046200000,2046200000,0.005823349,0.005774593,-0.009672179,0.5072741,0.07224305,-0.6359288
2046208000,2046208000,0.007877767,-0.012228438,-0.004180705,0.37088123,-1.2578468,0.08970571
2046216000,2046216000,0.0052316883,-0.002470536,0.0033965653,-0.07197291,0.26347935,0.66879743
2046228000,2046228000,0.022574944,-0.0019774234,0.009902738,1.1159068,-0.24323852,0.44497102
2046240000,2046240000,-0.011767608,-0.0035221835,-0.0026768493,-1.58491,-0.2007387,-0.6945749
2046248000,2046248000,-0.00024779944,-0.001704052,0.0010280423,0.093311965,0.10377839,-0.051640525
2046260000,2046260000,-0.008016892,0.0049617477,-0.016632713,-0.6103089,0.32086906,-0.9551115
2046264000,2046264000,-0.009513107,0.0037139729,-0.010846297,-0.53127897,0.10918614,-0.15171093
2046280000,2046280000,0.012423485,-0.005124473,0.0154563645,1.2909008,-0.2782368,1.3987286
2046288000,2046288000,0.007963414,0.0039236294,0.018696032,0.1556992,0.5147635,0.75208575
2046300000,2046300000,-0.009624519,0.0011683076,-0.004148568,-1.0344795,-0.05841213,-1.150103
2046308000,2046308000,0.00038754026,0.002867424,-0.010277273,0.31226903,0.08687546,-0.89473355
2046320000,2046320000,-0.004356098,-0.006782956,0.0076943664,-0.15842634,-0.35307327,0.6777521
2046328000,2046328000,0.0046217977,0.005320688,-0.0026289285,0.55502224,0.61768836,-0.43842006
2046340000,2046340000,-0.0002824248,0.00032933961,-0.008967518,-0.25677064,-0.13470551,-0.39708972
2046348000,2046348000,-0.015208312,0.011900172,-0.0037374706,-1.1512301,0.69394857,0.1932564
2046360000,2046360000,-0.0030298312,0.003108079,-0.007285252,0.27500588,-0.107907355,-0.19964722
2046368000,2046368000,-0.009026262,0.0003292766,0.002358995,-0.26167315,-0.3053809,0.62512577
2046380000,2046380000,-0.010863392,0.016527155,0.0039501777,-0.26095197,0.9931338,0.2768166
2046388000,2046388000,0.0132728,-0.015611983,-0.005156703,1.6773534,-1.8196012,-0.59040254
2046400000,2046400000,0.008710161,0.0052049574,-0.00541729,-0.029356122,0.6566154,0.16112204
2046408000,2046408000,0.012201308,-0.0021181912,0.0011099786,0.33649307,-0.20819248,0.44111308
2046420000,2046420000,0.012597877,-0.0051419283,-0.0031314138,-0.042253554,-0.40393543,-0.018057965
2046428000,2046428000,0.0088635655,0.0008720214,-0.0034909493,-0.26652744,0.40971398,-0.07926824
2046440000,2046440000,0.006464762,0.00027238697,-0.006737719,-0.29342556,-0.16090143,-0.23779926
2046448000,2046448000,-0.0045736753,-0.0009926311,-0.002516871,-0.8000707,-0.14501503,0.23843318
2046460000,2046460000,0.0019557318,-0.01222107,-0.005622742,0.14907154,-0.5410073,-0.17834534
2046468000,2046468000,0.0043264967,-0.0057152095,-0.0068007354,0.08689934,0.1604177,-0.059669312
2046476000,2046476000,-0.012615135,0.0017108945,0.02242767,-1.0468187,0.65532345,2.0323799
2046488000,2046488000,0.0031490764,-0.007222352,0.0017943871,0.48437372,-0.64760476,-1.0272285
2046500000,2046500000,-0.02433389,0.005747747,0.0041270377,-1.3908931,0.56996596,0.25738335
2046508000,2046508000,-0.0068527698,0.0008993463,0.0051049655,0.6498746,-0.104302496,0.1165252
2046520000,2046520000,-0.0018386897,-0.009811575,0.004506442,0.41912717,-0.52738476,0.037139572
2046528000,2046528000,0.002286962,-0.00071399333,0.0023563763,0.42967272,0.3712382,-0.15367408
2046540000,2046540000,0.002124508,0.012942053,-0.0059279827,-0.03001973,0.76445484,-0.37252155
2046548000,2046548000,-0.0005385782,0.0008685844,0.00048368963,-0.17581326,-0.560468,0.19938496
2046560000,2046560000,-0.010775014,-0.015118829,-0.012688606,-0.77857846,-0.66007715,-0.481706
2046568000,2046568000,-0.015793277,0.001975298,0.0040155496,-0.60328555,0.87971276,0.9272255
2046580000,2046580000,-0.009551234,-0.012571077,0.012899637,0.37936005,-0.7721828,0.5908439
2046588000,2046588000,0.010322995,-0.0060865404,-0.00537413,1.4982318,0.20074601,-0.93649685
2046600000,2046600000,0.0123315565,-0.0006036841,-0.008939546,0.6100949,0.26075915,-0.47848666
2046608000,2046608000,0.0022390296,0.0013971203,-0.0068665403,-0.47061944,0.19951665,-0.072690696
2046620000,2046620000,0.0056989784,-0.010147617,0.007800916,0.13615781,-0.4762036,1.0727187
2046628000,2046628000,-0.0006799169,-0.0018167465,-0.009692014,-0.4350295,0.34407845,-0.9410984
2046640000,2046640000,0.001962642,0.019346973,-0.016743334,-0.075976044,1.5082952,-0.35401037
2046648000,2046648000,-0.01214636,0.0070399917,-0.012492442,-0.9304246,-0.34441644,0.18544313
2046660000,2046660000,0.0075197727,0.0027112155,0.0030505457,0.9022857,0.25099954,1.0050771
2046668000,2046668000,0.010534312,0.003388624,0.018207377,0.52515495,-0.030992236,1.4620657
2046680000,2046680000,-0.005962494,0.0027137143,-0.007879028,-0.6408296,0.22194423,-1.2358571
2046688000,2046688000,-0.00403162,0.006291148,-0.0037871192,-0.16739774,0.34876224,-0.22006512
2046700000,2046700000,0.0033893848,-0.0048654107,0.002734709,0.38526666,-0.58883333,0.31505603
2046708000,2046708000,-0.0016138097,0.0028352377,-0.0019496853,-0.1529562,0.26883572,-0.2617418
2046720000,2046720000,0.016832424,-0.003941216,-0.003354461,1.055913,-0.20314677,-0.040139366
2046728000,2046728000,0.011956115,-0.013955219,0.0014531534,0.030126512,-0.88716257,0.29439625
2046740000,2046740000,0.0076638977,-0.0003267312,-0.006850998,-0.1356124,1.0895126,-0.2043146
2046748000,2046748000,-0.0017210548,0.011475179,-0.0045005386,-0.7613465,1.1903162,0.04202551
2046760000,2046760000,-0.020411208,0.009935157,-0.008555778,-1.2269396,0.16635361,-0.10191965
2046768000,2046768000,-0.0072878664,-0.0061384705,-0.0044878153,0.45711017,-1.0170538,0.15554033
2046780000,2046780000,-0.00090277725,-0.0023314524,-0.0051942044,0.23458421,-0.14165738,0.13329378
2046788000,2046788000,-0.009889177,0.0012954884,2.3533561e-05,-0.5279706,0.17654115,0.4136278
2046800000,2046800000,0.008551518,-0.014764163,-0.008261755,1.3465257,-0.95569956,-0.5061835
2046804000,2046804000,0.017831884,-0.012307663,-0.00864428,1.6721944,-0.4305758,-0.3688492
2046820000,2046820000,-0.0070596314,0.0023223143,-0.017162252,-1.0585897,0.6196653,-0.48970032
2046828000,2046828000,0.00094615325,-0.006784261,-0.01172847,0.15483195,-0.5009608,0.22383307
2046840000,2046840000,0.0052272333,0.002773676,-0.008372905,0.17180721,0.84288055,-0.028313264
2046848000,2046848000,-0.0018925567,0.0056994045,-0.011462978,-0.4130664,0.45299155,-0.16166979
2046860000,2046860000,-0.0045609456,-0.007944342,0.0010441062,-0.288219,-0.42943358,0.6335615
2046868000,2046868000,-0.00064121705,-0.005017623,-0.004893736,0.1995554,-0.018506378,-0.177459
2046880000,2046880000,0.0029501023,0.0053258454,-0.0044394485,0.042559743,0.52544975,0.018144688
2046888000,2046888000,6.667251e-05,-5.2423784e-06,-0.015635872,-0.05029577,-0.11508235,-0.80227053
2046900000,2046900000,-0.0086280145,0.0068252133,-0.0010912905,-0.66891754,0.39210922,0.9020287
2046908000,2046908000,-0.00915516,-0.00051714736,-0.006358578,-0.3474046,-0.37226665,-0.049682565
2046920000,2046920000,-0.00025020418,0.00022242221,-0.0058179516,0.3269447,0.017436488,0.07758792
2046928000,2046928000,0.0011103491,0.010009246,-0.0025201498,0.337648,0.6564243,0.19447692
2046940000,2046940000,0.0029596288,0.0025478192,-0.0034984169,0.14435688,-0.22732262,0.17003518
2046948000,2046948000,0.0023413112,-0.007175855,-0.0027553553,-0.052430034,-0.7783406,0.1043348
2046960000,2046960000,0.0025757686,0.0037042187,0.0034140975,0.20221534,0.5519817,0.51317126
2046968000,2046968000,-0.0055561876,0.014611202,0.0048873876,-0.58431524,1.0171078,0.32593274
2046980000,2046980000,-0.014624058,-0.0052978154,0.008698998,-0.290276,-0.88248324,0.40740326
2046988000,2046988000,0.0012077403,-0.0040633907,0.009384134,1.0259881,-0.36071244,0.24058631
2047000000,2047000000,-0.01094601,0.0051159896,-0.0073455013,-0.7632278,0.5688994,-1.2102432
2047008000,2047008000,-0.0019057915,0.008668056,5.379389e-05,0.33285117,0.41732544,0.17520893
2047020000,2047020000,-0.0052922843,0.013930189,0.012613383,-0.19659962,0.6834445,0.5104119
2047028000,2047028000,-0.004945621,-0.00027148926,0.002080711,-0.014618188,-0.7805381,-0.51790607
2047040000,2047040000,0.013420969,0.006289963,0.0037109815,0.9491465,0.39971417,0.14241841
2047048000,2047048000,0.006157152,0.0020771143,0.0004603558,-0.07979211,-0.18595651,-0.23718871
2047060000,2047060000,0.0054093194,-0.01602239,-0.0040805694,-0.19806683,-1.0882515,-0.18627186
2047068000,2047068000,-0.010008992,0.000111442816,0.0048039695,-1.1358392,0.7362456,0.5086088
2047080000,2047080000,-0.012841978,0.0021396978,0.0026141326,-0.38301504,-0.17021132,0.1676901
2047088000,2047088000,-0.0059848535,0.001895503,0.008511041,0.28137526,-0.016454853,0.4294657
2047100000,2047100000,-0.010261157,0.0035633028,0.0022806386,-0.075577036,0.07051938,-0.4440316
2047104000,2047104000,-0.0006347305,0.0016293124,-0.0063441964,0.7547411,-0.11480546,-1.0167739
2047120000,2047120000,-0.0059645134,-0.01027426,-0.006511797,-0.5162033,-0.39442903,-0.3219809
2047128000,2047128000,-0.0033327718,0.0011619218,-0.0036606512,-0.0053158104,0.5587733,0.028507357
2047140000,2047140000,-9.981e-05,-0.009217835,0.016080977,0.119607136,-0.45817134,1.5789244
2047148000,2047148000,-0.0027303577,-0.009773454,0.015231934,-0.0865484,-0.15287168,0.45810676
2047160000,2047160000,0.0184678,0.008081976,-0.0061117522,1.1879429,0.9263449,-1.13855
2047168000,2047168000,-0.0026877585,0.0027697217,0.0069076577,-1.0145395,0.035185955,0.4837553
2047180000,2047180000,0.0013913643,-0.0045277937,-0.010035169,0.20467919,-0.5045161,-0.8750621
2047188000,2047188000,0.0131905535,-0.0028340523,-0.01558,0.82348716,-0.024918899,-0.81877005
2047200000,2047200000,-0.0105589265,0.011549682,0.0074042194,-1.1288679,0.8456694,1.3925933
2047204000,2047204000,-0.015571731,0.014629623,0.009140277,-1.1704587,0.82035214,1.0719379
2047216000,2047216000,0.009392068,-0.010867063,0.013101289,1.2222577,-1.4612037,0.47421092
2047228000,2047228000,-0.00073169835,-0.0057180542,0.0041159196,-0.16081035,0.041801754,-0.21872132
2047240000,2047240000,0.0011312892,0.009061276,0.004779217,0.016968366,0.6886622,0.10903062
2047248000,2047248000,-0.005300665,0.0030444188,0.010143607,-0.4761563,-0.10399873,0.26414812
2047260000,2047260000,-0.006597904,0.0060549527,-0.0034206521,-0.13851923,0.23437509,-0.25672042
2047268000,2047268000,-0.0016481802,-0.0025272653,-0.0027313426,0.33259824,-0.48836297,-0.11461872
2047280000,2047280000,0.018845238,0.0021631443,-0.00066451414,0.9841939,0.29756764,0.14865638
2047288000,2047288000,-0.006003257,0.0045559253,-0.0010962302,-1.2558916,0.21038374,-0.016623985
2047300000,2047300000,-0.0014004477,-0.0057829786,-0.0057087173,-0.17518374,-0.6852178,-0.2979638
2047308000,2047308000,-0.008015672,-0.0053381016,-0.0062203677,-0.48822752,-0.10754424,-0.095534444
2047320000,2047320000,0.00086752675,0.006258171,0.003275464,0.34104678,0.49927792,0.34338984
2047328000,2047328000,-0.0054978863,-0.0011479313,-0.000255324,-0.34926254,-0.33955127,-0.046118435
2047340000,2047340000,0.004508541,-0.0063038273,-0.007939324,0.89005625,-0.52948403,-0.39330074
2047348000,2047348000,0.012887826,-0.006924003,-0.0005554604,0.8564262,-0.070618816,0.32487348
2047360000,2047360000,0.00030290306,0.021717507,-0.0011627976,-0.2810654,1.2504768,-0.15291984
2047368000,2047368000,0.00041691808,0.004497149,-0.0046559665,-0.08765991,-0.71565247,-0.20841952
2047380000,2047380000,0.005151306,-0.004451645,0.0022511687,-0.0069648027,-0.56240976,0.36205155
2047384000,2047384000,-0.005591866,-0.0012937975,0.0028809202,-0.90306276,-0.11019359,0.29360598
2047400000,2047400000,-0.0017471823,-0.00019979347,0.00060699484,0.03744794,-0.536886,-0.20519912
2047404000,2047404000,0.0029394662,-0.007064859,-0.0056182332,0.41685522,-0.93140185,-0.65715975
2047420000,2047420000,-0.009898166,-0.0007685167,1.0249743e-05,-0.85844517,0.13904405,0.25060302
2047428000,2047428000,-0.014569772,-0.0092332605,0.011495026,-0.6001909,-0.52164376,0.9701574
2047440000,2047440000,-0.011358818,-0.0118962005,-0.006063951,-0.123882994,-0.5583048,-0.87620294
2047448000,2047448000,-0.0013852655,-0.015239886,-0.011878644,0.6586944,-0.29441714,-0.75257754
2047460000,2047460000,0.0076162806,0.002526697,0.004965703,0.76618576,0.7293609,0.6327841
2047468000,2047468000,0.0017571396,-0.008756533,0.0037090483,-0.07741019,-0.4905349,0.22681442
2047480000,2047480000,-0.006797449,-0.003136767,-0.021286912,-0.59876454,0.3527723,-1.3734497
2047488000,2047488000,0.0042968285,0.0042865844,-0.021015162,0.5203744,0.6258752,-0.5616056
2047500000,2047500000,-0.013330816,0.00032381518,0.007086578,-0.79630387,-0.13215479,1.6550908
2047508000,2047508000,0.011930846,-0.004462655,0.005205354,1.4564397,-0.38488352,0.40836537
2047520000,2047520000,-0.004518831,-0.014486293,-0.010685003,-0.79277396,-0.5567111,-0.2842884
2047528000,2047528000,-0.0061305338,-0.013231535,0.015693204,-0.41853568,-0.1481593,1.5783424
2047540000,2047540000,0.004746121,0.009155174,-0.007925686,0.15646869,1.1011517,-0.9338827
2047548000,2047548000,-0.0027610583,0.0053333044,-0.01581186,-0.34083647,0.29073003,-0.923143
2047560000,2047560000,-0.0030467554,-0.007789267,0.0023303821,-0.27871448,-0.74508214,0.8422917
2047568000,2047568000,-0.018310959,-0.00023119483,0.00906532,-1.1669819,0.21252798,0.90578127
2047580000,2047580000,0.011663485,-0.011105785,0.00561939,1.6855037,-0.89222443,-0.14321883
2047588000,2047588000,0.010872771,-0.0203633,0.00058124354,0.5471914,-0.87117547,-0.3816448
2047600000,2047600000,-0.0017723192,0.0049858936,-0.004827053,-0.28818554,1.1040175,-0.58162296
2047608000,2047608000,0.003063056,-0.0034446225,-0.013725407,0.18301214,-0.19392698,-0.8265924
2047620000,2047620000,0.0056703426,0.0048813843,-0.0064402567,0.052898318,0.9002623,0.33056974
2047628000,2047628000,-0.0062345206,0.0067284955,0.0055923667,-0.7936039,0.4010978,0.92671543
2047640000,2047640000,0.0020919873,-0.01744243,0.0018536828,0.18471506,-1.1481493,-0.0027585826
2047648000,2047648000,-0.0008202754,-0.005109017,-0.00068827934,-0.026125342,0.4682225,-0.14285594
2047660000,2047660000,0.010468347,0.0035742926,0.0071515953,0.43533367,0.3221166,0.28717968
2047668000,2047668000,0.0016951934,-0.00449223,0.0087018525,-0.4090975,-0.4391077,0.2546691
2047680000,2047680000,0.00015793263,-0.008764843,0.00033264098,-0.12677321,-0.14117174,-0.44075742
2047688000,2047688000,0.002474847,0.002168193,-0.0027273914,0.024653882,0.6387154,-0.36042467
2047700000,2047700000,-0.016357368,0.0049107126,-0.008189962,-0.9043608,0.45601594,-0.40940592
2047704000,2047704000,-0.012485686,0.0023991948,-0.0031316844,-0.27806187,0.09344083,0.15055755
2047720000,2047720000,0.003935779,-0.016167099,-0.010854245,0.49979812,-0.38713515,-0.56423223
2047728000,2047728000,0.011017382,-0.004499258,0.008264424,0.72020394,0.51410145,1.0959221
2047740000,2047740000,0.0009442634,-0.019437099,-0.005662916,-0.47010967,-0.56952226,-0.5183635
2047748000,2047748000,-0.013128282,0.0014490981,-0.00028438985,-1.1694103,1.2605904,0.20766385
2047760000,2047760000,-0.0067248875,-0.0014106699,-0.0039411383,0.039235175,-0.023200983,-0.32333705
2047768000,2047768000,-0.0016905006,-0.003510643,-0.004336407,0.39184552,-0.124199554,-0.12536475
2047780000,2047780000,0.0019289348,0.005144026,0.008708749,0.4097687,0.51258516,0.61897266
2047788000,2047788000,0.0016039,0.010532087,0.0007228947,0.09564927,0.5909728,-0.3200242
2047800000,2047800000,0.0024698477,0.010804986,-0.0016273558,0.1333096,0.06976566,0.1388048
2047808000,2047808000,0.0007589384,0.01364758,0.005960577,-0.07220283,0.2477264,0.5258407
2047820000,2047820000,0.006385673,-0.0008464481,0.0064653,0.49555507,-0.82384825,0.08606847
2047828000,2047828000,0.0072887726,-0.0037691335,0.003350211,0.17395282,-0.47533306,-0.14250207
2047840000,2047840000,-0.007514167,0.00084141677,0.005893744,-0.67567015,-0.1985459,0.2271382
2047848000,2047848000,-0.012895441,-0.0001741391,0.008709272,-0.69096744,-0.036700074,0.27290183
2047860000,2047860000,0.0027327028,-0.011420308,-0.010319516,0.879724,-0.94951296,-1.1822822
2047868000,2047868000,-0.0074920957,-0.01082093,-0.0014187379,-0.44711816,-0.23029375,0.13547331
2047880000,2047880000,-0.0032700056,-0.006272027,-0.0017932476,0.4862225,-0.30183977,0.028596448
2047888000,2047888000,0.0043637957,-0.0034783566,-0.0043579973,0.6731819,0.2174235,-0.11253885
2047900000,2047900000,0.010552659,0.011725071,0.006492025,0.59840477,0.6431698,0.6366346
2047908000,2047908000,-0.00083613815,0.0021141977,0.01308953,-0.61641616,-0.39141345,0.71453947
2047920000,2047920000,-0.004365879,0.0051088613,-0.01412736,-0.29985964,0.26044434,-1.2432854
2047928000,2047928000,0.0011508497,-0.007976956,0.015994398,0.21118434,-0.87545747,1.5941145
2047940000,2047940000,-0.021975676,0.005280689,-5.738224e-05,-1.0288005,0.49045938,-0.8940095
2047948000,2047948000,-0.0051422804,-0.00021472061,-0.0017437723,0.71226573,-0.16254567,-0.4424678
2047960000,2047960000,0.006773875,-0.0016856189,-0.004994756,0.85757565,-0.12659374,-0.14301974
2047968000,2047968000,0.0031930378,0.008436787,-0.004239004,0.0916473,0.5945107,-0.12013822
2047980000,2047980000,-0.0052880975,-0.013428808,0.0040530334,-0.34218973,-1.0238968,0.81719446
2047988000,2047988000,0.0052149165,-0.018904502,0.003244436,0.5787964,-0.79203457,0.27840117
2048000000,2048000000,-0.01715332,-0.024910726,-0.0032794024,-1.141418,-0.6648392,-0.3343191
2048008000,2048008000,-0.003439409,-0.023461804,0.0016809513,0.4211533,-0.16761893,0.13642848
2048020000,2048020000,-0.0009930733,-0.051544406,0.003074203,0.4474821,-1.9491291,0.20385891
2048028000,2048028000,0.0061853128,-0.047319155,-0.0057609426,0.7172764,-0.4456606,-0.51910925
2048040000,2048040000,-0.0035431022,-0.067010365,-0.0010280202,-0.49358475,-1.2828052,0.3922144
2048048000,2048048000,0.0031231425,-0.0710731,0.0015148609,0.28918836,-0.8719951,0.24416299
2048060000,2048060000,0.008764673,-0.07634015,-0.006003364,0.5407891,-0.71317923,-0.18716018
2048068000,2048068000,0.0010938577,-0.09212993,-0.0033650072,-0.40395254,-1.3888435,0.1186004
2048080000,2048080000,0.0046552825,-0.10816943,0.010204974,0.10203866,-1.2016954,0.7696314
2048088000,2048088000,-0.00051463937,-0.12490101,0.0026735393,-0.3292566,-1.7446179,-0.12851891
2048100000,2048100000,0.0018429908,-0.13575168,0.0058269924,0.071724355,-1.1271008,-0.13961516
2048108000,2048108000,-0.014920798,-0.16562025,0.0016486228,-1.1867146,-2.6783543,-0.33611414
2048120000,2048120000,-0.0097518535,-0.17116596,0.0030194288,0.28218055,-0.8851947,0.19253914
2048128000,2048128000,-0.008187583,-0.17545933,0.0036989227,0.11102575,-0.72430766,0.076305926
2048140000,2048140000,-0.0052733906,-0.2009909,-0.0003952161,0.46741408,-1.8688054,-0.017149244
2048148000,2048148000,-0.0042253304,-0.23434521,0.00088711566,0.27585766,-3.06287,0.00757221
2048160000,2048160000,0.0009686429,-0.22707492,-0.012059446,0.34667087,-0.28329027,-0.55757594
2048168000,2048168000,-0.002644023,-0.24081208,-0.015996942,-0.18243307,-1.2285439,-0.48425326
2048180000,2048180000,-0.016976139,-0.24268542,0.0031385983,-0.602431,-0.5280087,0.88678175
2048188000,2048188000,-0.027257293,-0.26484457,0.0026874293,-1.0864952,-1.7313309,0.34636977
2048200000,2048200000,-0.03405735,-0.26735413,-0.0026226686,-0.59266686,-0.66315776,-0.21049668
2048208000,2048208000,-0.035178173,-0.26010215,-0.018370213,-0.35504994,0.24661796,-1.0480742
2048220000,2048220000,-0.04076092,-0.24654432,-0.002894901,-0.44290772,0.70440674,0.4731245
2048228000,2048228000,-0.045558136,-0.24990855,-0.0036414997,-0.570878,0.15444744,0.15501097
2048240000,2048240000,-0.045263574,-0.23181343,0.0051321727,0.20088798,1.0087866,0.44348642
2048248000,2048248000,-0.026342688,-0.22593814,0.00077642634,1.3537346,0.8747899,-0.1459193
2048260000,2048260000,-0.03585866,-0.21360004,-9.82192e-05,-0.28884193,0.9194547,0.17017414
2048268000,2048268000,-0.039181612,-0.19787498,0.004691277,-0.32082596,1.5620338,0.37885967
2048280000,2048280000,-0.05144634,-0.17798862,0.0017594188,-0.931736,1.3065903,0.11935338
2048288000,2048288000,-0.0326963,-0.1826237,-0.006173358,0.94961226,0.35220954,-0.64171934
2048300000,2048300000,-0.036384214,-0.13889374,-0.0027150495,-0.33105016,2.7517438,0.4255947
2048308000,2048308000,-0.030477913,-0.14139955,0.0063023916,0.42814788,0.99247783,0.7068947
2048316000,2048316000,-0.014937184,-0.12966488,-0.0008239066,1.1608343,1.3230622,-0.16090712
2048328000,2048328000,-0.014519782,-0.106472775,-0.00021332252,0.488666,1.55654,-0.14280081
2048340000,2048340000,-0.007889162,-0.0913947,-0.0081651835,0.38445646,1.5230112,-0.08436361
2048348000,2048348000,-0.03262641,-0.06652788,-0.010520878,-1.5404477,2.4136155,-0.2833505
2048360000,2048360000,-0.024533631,-0.068634376,0.007086856,0.026111305,0.5706256,1.07639
2048368000,2048368000,-0.020999301,-0.04564967,-0.003801162,0.1738509,1.8518176,-0.3095691
2048380000,2048380000,-0.02402021,-0.032488853,0.001657339,0.31437457,1.378544,0.5105049
2048388000,2048388000,-0.014361431,-0.021984054,-0.013125511,0.771809,1.3395069,-0.97272766
2048400000,2048400000,-0.011412254,-0.001184971,-0.015421508,0.2095021,1.5816058,-0.2704119
2048408000,2048408000,-0.012614943,0.015914014,-0.009205432,0.061116338,1.9477235,0.311574
2048420000,2048420000,-0.013098343,0.030701404,-0.00041078363,-0.12679943,1.4760172,0.56632024
2048428000,2048428000,-0.008631329,0.036056884,0.009864738,0.34570867,0.98423517,0.97266173
2048440000,2048440000,0.009392274,0.056067634,-0.005779718,1.122026,1.3353249,-0.7810449
2048448000,2048448000,0.019102117,0.05659156,0.0044954596,1.0963906,0.7112376,0.45441037
2048460000,2048460000,0.020889273,0.099079266,0.015614764,0.43351153,2.3644779,0.9080333
2048468000,2048468000,0.022820339,0.08738988,0.011899606,0.30923972,0.23850387,0.07144255
2048480000,2048480000,0.007938859,0.09782668,0.0010208208,-0.6777214,0.71919596,-0.40451333
2048488000,2048488000,0.019946123,0.09568974,-8.91056e-06,0.48898357,0.12798235,-0.21136352
2048496000,2048496000,0.0038065875,0.094890326,0.004599576,-0.9175018,0.01920536,0.10977754
2048508000,2048508000,0.027541054,0.1054793,-0.0077575557,1.1881723,0.7694105,-0.31641674
2048520000,2048520000,0.01358832,0.10880978,0.0072043682,-0.20440537,0.4132843,0.8155928
2048528000,2048528000,0.017786123,0.12219281,0.0062395087,0.13064775,1.0418234,0.18195094
2048540000,2048540000,0.013399128,0.12930809,-0.00067194074,-0.24120943,1.1834528,0.01855751
2048544000,2048544000,0.013740208,0.13967754,0.001157603,-0.1319984,1.6547488,0.16535051
2048560000,2048560000,0.018452989,0.14781417,0.0029204378,0.693182,0.819017,0.5168734
2048568000,2048568000,0.03758959,0.15015346,0.004218949,1.578914,0.36816102,0.19030958
2048580000,2048580000,0.025312342,0.12789908,0.0047631008,-0.27149224,-0.9618598,0.44278267
2048588000,2048588000,0.02732273,0.13807274,0.011926238,0.021957994,0.2809186,0.5717734
2048600000,2048600000,0.03923327,0.13693942,0.0077762855,0.65713465,-0.23666957,-0.14075345
2048608000,2048608000,0.034395535,0.1494191,-0.01624131,-0.13324821,0.8992152,-1.6933843
2048620000,2048620000,0.023652583,0.15817499,0.0026329125,-0.3490814,0.50207394,0.826598
2048628000,2048628000,0.028938916,0.15416732,0.0041285274,0.14584589,-0.03777208,0.43951982
2048640000,2048640000,0.01511898,0.15763994,-0.0102451015,-0.6269596,0.2651371,-0.8804662
2048648000,2048648000,0.027603155,0.14560536,-0.002566706,0.647618,-0.7309842,0.23552088
2048656000,2048656000,0.029824357,0.14925545,0.00643078,0.35652107,0.022540854,0.7409939
2048668000,2048668000,0.019663779,0.1618177,0.017784938,-0.30322886,0.5483091,0.55866504
2048680000,2048680000,0.01986337,0.15702881,-0.010555939,-0.18879768,-0.32724428,-1.247517
2048688000,2048688000,0.012438574,0.1534453,-0.008452455,-0.59229934,-0.32722288,-0.4566378
2048700000,2048700000,0.010334826,0.13751844,0.0004800017,-0.25646812,-1.1242865,0.41014507
2048708000,2048708000,0.020391112,0.13724507,0.010956698,0.56120837,-0.4816259,0.9291565
2048720000,2048720000,0.020831186,0.14257956,-0.003949897,0.22539487,0.32062164,-0.74045277
2048728000,2048728000,0.015362217,0.1455619,0.0015255561,-0.3115692,0.2948019,0.20747614
2048740000,2048740000,0.021410463,0.14565583,0.010930638,0.33841074,0.17768136,0.411695
2048748000,2048748000,0.024518978,0.13926645,0.004934679,0.3423268,-0.47488165,-0.2788638
2048760000,2048760000,0.009447177,0.14131413,0.0074801496,-0.8592489,0.36112744,0.3470625
2048768000,2048768000,0.009606409,0.13891001,0.0050375015,-0.32519197,-0.08256334,-0.18456268
2048780000,2048780000,0.014242247,0.12945613,-0.009568159,0.197286,-0.31945944,-0.6039537
2048788000,2048788000,0.013367257,0.12165012,0.0047293394,0.0025070012,-0.8394687,0.7353429
2048800000,2048800000,0.015383916,0.1062517,0.012652552,0.12417621,-1.138676,0.5311715
2048808000,2048808000,0.020933568,0.11413036,0.0112219555,0.4894172,0.12755859,0.07867858
2048820000,2048820000,0.02208014,0.104091816,-0.009335805,0.11696933,-0.7586266,-1.0874403
2048824000,2048824000,0.01727223,0.10079747,-0.008617405,-0.3242331,-0.78035665,-0.66360116
2048840000,2048840000,0.017273737,0.11458628,0.02228188,0.18017119,0.58460397,1.2840201
2048848000,2048848000,0.020162327,0.10125468,0.0061711636,0.36972436,-0.6654279,-0.64344585
2048860000,2048860000,0.035603918,0.1084833,0.004909486,0.84488356,0.15734552,-0.068083555
2048868000,2048868000,0.023627482,0.08251411,0.00010618837,-0.49387264,-1.824055,-0.35995102
2048880000,2048880000,0.007894817,0.08526202,0.0022292987,-1.1043708,0.16470647,-0.121498555
2048888000,2048888000,-0.0006535666,0.101424076,0.005952988,-1.0130169,1.031635,0.27129224
2048900000,2048900000,0.0104775885,0.08312518,-0.00856079,0.30272883,-0.5868492,-1.1916605
2048908000,2048908000,0.0026835515,0.0804774,-0.009653997,-0.4401617,-0.4255187,-0.3948871
2048920000,2048920000,0.01696796,0.09618861,-0.00030155433,0.7979516,0.62606823,0.13975744
2048928000,2048928000,0.009211043,0.083110236,0.007657221,-0.22167689,-0.6488229,0.69048053
2048940000,2048940000,0.0021792671,0.088137284,0.012135591,-0.28127947,0.100695744,0.29196623
2048948000,2048948000,0.013259354,0.084826246,-0.00576917,0.6294505,-0.1605846,-1.118683
2048960000,2048960000,0.0135944085,0.08333912,-0.0064163203,0.24003276,-0.17488967,-0.29679376
2048968000,2048968000,0.017197369,0.07604872,-0.008625653,0.28302258,-0.5526775,-0.2522406
2048980000,2048980000,-0.014697468,0.07169313,-0.014409412,-1.691606,-0.519366,-0.7477727
2048988000,2048988000,0.0071416297,0.072107434,-0.007948263,0.8521488,-0.17733242,0.1699014
2049000000,2049000000,0.0019125433,0.05333555,0.0005214163,-0.32274753,-0.9144005,0.56511563
2049008000,2049008000,-0.00064051576,0.07372783,-0.00068845507,-0.2510847,1.0272481,0.17106652
2049020000,2049020000,0.0060140444,0.062114846,-0.016420217,0.54346955,-0.43324926,-0.8913358
2049028000,2049028000,0.015346295,0.056096952,-0.0070414282,0.76394117,-0.6737783,0.2774126
2049040000,2049040000,0.0218706,0.050700597,0.001877285,0.74556035,-0.37219465,0.36947167
2049048000,2049048000,0.008816559,0.054708183,-0.0056754975,-0.56648254,0.16649514,-0.27898964
2049060000,2049060000,0.009454044,0.045086093,-0.006601928,-0.21878047,-0.84114605,-0.4256184
2049068000,2049068000,0.013023377,0.050201304,-0.009358975,0.069036424,0.17358887,-0.39875826
2049080000,2049080000,-0.0046754023,0.06018178,-0.0079909945,-0.7039618,0.21602279,0.2708189
2049088000,2049088000,0.0020698167,0.053721216,0.007834399,0.16196302,-0.38376728,1.1679776
2049100000,2049100000,-0.014272025,0.046566777,-0.0077143703,-1.2334235,-0.27876663,-0.801472
2049108000,2049108000,-0.000756162,0.049956363,-0.00715484,0.52789044,0.0627023,-0.19264132
2049120000,2049120000,0.011189639,0.046846036,-0.01127671,0.5488007,-0.08414415,-0.5555334
2049128000,2049128000,0.003148285,0.038673233,-0.0060226354,-0.24909593,-0.7041978,0.30275172
2049140000,2049140000,0.014135691,0.03944777,0.0059028356,0.4191344,0.20909964,0.43308264
2049148000,2049148000,0.013378867,0.035972916,-0.0010630839,0.1599264,-0.24964428,-0.32375887
2049160000,2049160000,-0.006111534,0.0389907,-0.0035505495,-1.0630875,0.28673786,-0.1645363
2049168000,2049168000,0.009987888,0.03016669,-0.0044935043,0.6623593,-0.505967,-0.13255899
2049180000,2049180000,-0.005773344,0.03296002,-0.007817827,-1.001522,-0.10154044,-0.40283528
2049188000,2049188000,0.0033284966,0.024343066,-0.00068767054,0.31051296,-0.6392658,0.37814543
2049200000,2049200000,0.0033421258,0.03529004,0.001082878,-0.059668213,0.65049374,0.27367705
2049208000,2049208000,-0.002082062,0.044104587,0.015674176,-0.33480573,0.89114213,1.0847545
2049216000,2049216000,0.0027484035,0.040463325,-0.005565034,0.18875839,0.08747603,-1.0641638
2049228000,2049228000,0.017385617,0.025124853,0.00828976,0.7945029,-0.8346759,0.6637615
2049240000,2049240000,-0.002684967,0.033481542,0.015596909,-0.62305355,0.40378794,0.41897887
2049248000,2049248000,0.0090051945,0.026409281,-0.001562938,0.4537524,-0.46658424,-1.0247183
2049256000,2049256000,0.00032289544,0.009652206,0.0068155094,-0.36839476,-1.2998106,0.23583886
2049268000,2049268000,-0.007693832,0.022212896,-0.0052385726,-0.57034606,0.5842961,-1.0064654
2049280000,2049280000,0.005081347,0.028334534,0.0063632224,0.44910032,0.40110853,0.59210604
2049288000,2049288000,0.008190118,0.015598095,0.013057982,0.50310516,-0.7161199,0.6504768
2049300000,2049300000,0.0025010302,0.01737287,0.0013932001,-0.44683042,-0.18775162,-0.11644822
2049308000,2049308000,-0.0036185167,0.016109426,0.012192675,-0.50214267,-0.075215645,0.53245735
2049320000,2049320000,0.02419974,0.02200565,0.0075088716,1.2451518,0.05807644,-0.028561002
2049328000,2049328000,0.015874488,0.018160736,0.0014358149,-0.10654187,-0.22559975,-0.4974148
2049340000,2049340000,0.01057757,0.012482977,0.0077648303,-0.12506577,-0.19400789,0.57247543
2049348000,2049348000,0.013367781,0.03810166,0.005461765,0.09581427,1.5745095,-0.014786096
2049360000,2049360000,-0.006749282,-0.0047530485,-0.0058780476,-1.0699744,-1.7121398,-0.50397116
2049368000,2049368000,0.01718268,0.00053687167,0.0023353212,1.2807652,-0.45560172,0.38340613
2049380000,2049380000,0.020647306,0.009208235,0.014491042,0.3605374,0.6769266,0.72590065
2049388000,2049388000,0.0053081745,0.019010138,0.005446901,-0.990349,0.8470342,-0.28929085
2049400000,2049400000,0.0018026911,0.015060745,0.003906988,-0.33262026,-0.09720551,-0.3103868
2049408000,2049408000,0.0055798395,0.010188401,-0.0020145818,0.12240152,-0.33050466,-0.56731164
2049420000,2049420000,0.014054195,0.01055804,-0.017543502,0.36133116,-0.08125347,-0.99093103
2049428000,2049428000,0.0051516835,0.023350326,-0.009494516,-0.3860257,0.78466386,0.17893977
2049440000,2049440000,0.008164707,0.026028242,0.018053353,-0.07134462,0.52136904,1.3766704
2049448000,2049448000,0.008847034,0.024827255,-0.0046335836,0.005776664,0.07042836,-0.9693543
2049460000,2049460000,-0.0095830215,0.011116907,0.009847095,-1.1182519,-0.6955267,0.84484017
2049468000,2049468000,-0.0060176947,0.024212152,0.010786301,-0.16502386,0.6408555,0.3268838
2049480000,2049480000,-0.0045122695,0.018838108,0.017011698,-0.102082774,-0.092388906,0.47534865
2049488000,2049488000,-0.013701876,0.011271726,0.0004975097,-0.6890336,-0.5974333,-0.9811455
2049500000,2049500000,-0.0055219536,0.008133744,-0.0007309413,0.44735718,-0.29085004,-0.22006291
2049508000,2049508000,0.008134486,0.005337937,-0.007274524,1.1435628,-0.3871939,-0.59589326
2049520000,2049520000,0.010152493,-0.0034766395,0.0037991616,0.64554167,-0.43003675,0.28645107
2049528000,2049528000,0.015446046,0.0029137817,0.0048070727,0.63620377,0.19806951,0.2614392
2049540000,2049540000,-0.002056131,0.0015574216,0.0027454386,-1.1045136,-0.13941556,-0.15608841
2049548000,2049548000,-0.004772964,-0.003898918,-0.0026852498,-0.6113452,-0.33723173,-0.47591728
2049560000,2049560000,0.0023815257,0.0075757504,-0.002308258,0.27032357,0.415896,0.28282905
2049568000,2049568000,-0.0034474568,0.0077751176,0.014221554,-0.38896102,0.21302585,1.2137023
2049580000,2049580000,-0.0081912475,0.00391117,-0.010458753,-0.20732138,-0.3024751,-1.5092965
2049588000,2049588000,-0.0028771707,-0.0034838682,0.0051291813,0.16822216,-0.651054,0.6296585
2049600000,2049600000,0.007173799,0.005927271,-0.002626648,0.69184047,0.41136384,-0.88630134
2049608000,2049608000,0.0015059579,0.0024256683,-0.011624835,-0.14385882,-0.07204595,-0.8445582
2049620000,2049620000,-0.0016920535,0.008993512,-0.0019068783,-0.037992448,0.47794968,0.10852138
2049628000,2049628000,0.0088279275,0.013904603,-0.0028372393,0.7235413,0.5070158,0.0072907708
2049640000,2049640000,0.0015861682,0.014346849,-0.008315839,-0.30445802,0.33834034,-0.18310308
2049648000,2049648000,0.004724646,0.0042068604,-0.009140814,0.13261572,-0.62555206,-0.21382846
2049660000,2049660000,-0.005175158,-0.0014762785,0.007026024,-0.53238785,-0.4348374,0.8353208
2049668000,2049668000,0.0025698547,-0.012524219,0.005252417,0.2660934,-1.0033748,0.27094504
2049680000,2049680000,-0.015853588,-0.0031614404,0.00557369,-0.9377115,0.5181092,0.16472127
