timestamp,x,y,z,vx,vy,vz,roll,pitch,yaw
4435000,0.00037318512,-0.0022128448,-0.00020847481,0.006611949,-0.03064041,0.0009210481,,,
4443000,0.00043307294,-0.002464173,-0.00021873659,0.0081142,-0.032250542,0.00020691557,,,
4451000,0.0005065903,-0.002730781,-0.00024105678,0.0097133275,-0.0336518,-0.00051193393,,,
4459000,0.00059259136,-0.0030034233,-0.0002753681,0.011415144,-0.033921473,-0.000901982,,,
4467000,0.0006967812,-0.0032782026,-0.0003119231,0.0138404695,-0.034243595,5.0690287e-05,,,
4475000,0.0008081631,-0.0035658663,-0.00034834375,0.013052708,-0.037057918,0.00036759343,,,
4483000,0.0009197198,-0.003872976,-0.00039061112,0.014120761,-0.038394075,-0.0002602626,,,
4491000,0.0010380822,-0.00419308,-0.0004441794,0.014409595,-0.040652785,-0.0011550358,,,
4507000,0.0012875466,-0.004890178,-0.0005631135,0.015484833,-0.044609528,4.829315e-05,,,
4515000,0.0014259389,-0.0052521345,-0.0006237546,0.017933263,-0.044332303,-0.0011239687,,,
4523000,0.0015799893,-0.005619907,-0.00069434894,0.018846244,-0.04612613,-0.00093055674,,,
4531000,0.0017307018,-0.006005469,-0.00076523237,0.017258558,-0.048146676,-0.0011863476,,,
4547000,0.002021518,-0.0068243844,-0.00093839434,0.016740644,-0.05210309,-0.0035657003,,,
4555000,0.0021640153,-0.0072610714,-0.0010438282,0.017154235,-0.054876816,-0.005131616,,,
4563000,0.0023117764,-0.0077270106,-0.0011631274,0.018106794,-0.059261404,-0.006503959,,,
4571000,0.0024664106,-0.00821958,-0.0012945039,0.018587073,-0.060705982,-0.008282318,,,
4587000,0.002776429,-0.009216039,-0.001604233,0.018679868,-0.06076586,-0.009628463,,,
4595000,0.0029409165,-0.009714562,-0.0017546099,0.020448305,-0.06082305,-0.008334906,,,
4603000,0.003119741,-0.010214647,-0.0018997174,0.021547943,-0.061176524,-0.007941693,,,
4611000,0.0033016396,-0.010724087,-0.0020448982,0.021454277,-0.06292645,-0.007982949,,,
4627000,0.003667803,-0.011782135,-0.0023272622,0.021923592,-0.066498555,-0.0065302188,,,
4635000,0.0038173248,-0.012193129,-0.0024002986,0.023318727,-0.06824391,-0.007320514,,,
4643000,0.003973659,-0.012613453,-0.0024816452,0.023428362,-0.068115495,-0.008011023,,,
4651000,0.0041362233,-0.013041543,-0.0025671313,0.024305122,-0.069492064,-0.0076651983,,,
4667000,0.0044636372,-0.013956779,-0.0027374043,0.023524575,-0.072608925,-0.0058669467,,,
4675000,0.0046282276,-0.014427739,-0.0028106025,0.023830658,-0.07250982,-0.005600102,,,
4683000,0.0047972715,-0.014907857,-0.002890128,0.024446575,-0.07405287,-0.0066681686,,,
4691000,0.0049701952,-0.015407109,-0.0029788318,0.024385007,-0.075795375,-0.0072028507,,,
4707000,0.0053100577,-0.016448015,-0.0031625817,0.023284491,-0.078306615,-0.007364557,,,
4715000,0.005480346,-0.016987652,-0.003256737,0.024044001,-0.079360634,-0.00711401,,,
4723000,0.0056529604,-0.017543355,-0.0033512334,0.02349716,-0.08149952,-0.0070367698,,,
4731000,0.005824436,-0.018116634,-0.003447172,0.024083527,-0.08299077,-0.0072189914,,,
4747000,0.006179848,-0.019305667,-0.0036352861,0.023202725,-0.08506407,-0.0060968795,,,
4755000,0.006352622,-0.01991085,-0.0037255266,0.023817085,-0.08556849,-0.0063519236,,,
4763000,0.0065314253,-0.020523578,-0.0038225283,0.024336625,-0.085395895,-0.0074852104,,,
4771000,0.006718216,-0.021135781,-0.0039278087,0.0253376,-0.08543667,-0.007894977,,,
4787000,0.007096953,-0.022384297,-0.0041637556,0.025052784,-0.08814229,-0.010218548,,,
4795000,0.0072817337,-0.023034781,-0.0042837057,0.023880199,-0.09025096,-0.008913108,,,
4803000,0.0074584736,-0.023706758,-0.0043978146,0.022546543,-0.09291761,-0.008677524,,,
4811000,0.007617421,-0.024400882,-0.0045065368,0.019448306,-0.09522902,-0.007409529,,,
4827000,0.007882483,-0.025826136,-0.00471288,0.01797682,-0.09692745,-0.008107122,,,
4835000,0.008021095,-0.026555793,-0.004823411,0.018527491,-0.098537,-0.008595262,,,
4843000,0.008040974,-0.026957083,-0.0048852046,0.017797394,-0.09908795,-0.008796463,,,
4851000,0.008053188,-0.027362805,-0.0049492833,0.017139927,-0.09958807,-0.00944571,,,
4867000,0.008076576,-0.028197432,-0.005105369,0.016899021,-0.102068454,-0.010739025,,,
4875000,0.00808725,-0.0286323,-0.0051883897,0.017287765,-0.10286754,-0.010999194,,,
4883000,0.008049585,-0.028877752,-0.005171151,0.016276406,-0.10223175,-0.010823036,,,
4891000,0.00799862,-0.029106893,-0.0051460396,0.01417274,-0.10009109,-0.00870858,,,
4907000,0.007842217,-0.029508216,-0.0050556352,0.01205125,-0.09659545,-0.006041465,,,
4915000,0.00776038,-0.029681,-0.0049974015,0.01133665,-0.09507117,-0.0045304964,,,
4923000,0.0076704794,-0.029834464,-0.0049299602,0.011058241,-0.09223897,-0.0037504372,,,
4931000,0.007581974,-0.029962726,-0.004857085,0.011792577,-0.09052354,-0.0028426559,,,
4947000,0.007387038,-0.030171502,-0.0047166673,0.009089327,-0.087233804,-0.004384677,,,
4955000,0.007278359,-0.03025527,-0.0046555703,0.009567925,-0.08719322,-0.004424595,,,
4963000,0.0071703694,-0.0303375,-0.004597516,0.009110748,-0.087422945,-0.0052162604,,,
4971000,0.007053874,-0.030419195,-0.0045411745,0.008040257,-0.08816033,-0.004681428,,,
4987000,0.006805291,-0.030588325,-0.0044295997,0.0072720875,-0.08904503,-0.0052205147,,,
4995000,0.006675637,-0.030667795,-0.004371982,0.007192919,-0.088592485,-0.0036943748,,,
5003000,0.006543399,-0.030747961,-0.004301955,0.006703047,-0.08959837,-0.002439938,,,
5011000,0.006405793,-0.030831894,-0.004218683,0.006162544,-0.09062735,-0.00013232953,,,
5027000,0.0061100456,-0.031022795,-0.0040344866,0.0047618276,-0.09238319,-0.0005949909,,,
5035000,0.005962983,-0.031122016,-0.003948028,0.005763919,-0.09286508,-0.00097426213,,,
5043000,0.0058197672,-0.031226855,-0.0038600324,0.0062390836,-0.0933758,-9.009907e-05,,,
5051000,0.0056270934,-0.031539433,-0.0037581644,0.017509991,-0.06442581,0.0016963673,,,
5067000,0.005548581,-0.031252477,-0.0035423336,0.018118383,-0.06489206,0.001791075,,,
5075000,0.005517356,-0.031110238,-0.0034310352,0.019086255,-0.06574689,0.0025508576,,,
5083000,0.0054955077,-0.03096719,-0.0033207345,0.01925846,-0.06553477,0.0016305539,,,
5091000,0.005468379,-0.03080994,-0.0031970763,0.01865692,-0.06380441,0.0010016124,,,
5107000,0.0054242765,-0.030476382,-0.002943156,0.0183001,-0.06483487,0.0024620856,,,
5115000,0.0054010716,-0.030308545,-0.0028176552,0.018343586,-0.063654244,0.0023275826,,,
5123000,0.0053849514,-0.030133747,-0.0026975127,0.019378098,-0.06394942,0.0016331095,,,
5131000,0.005380839,-0.029961254,-0.002584233,0.020298135,-0.06350192,0.0011897715,,,
5147000,0.0053841667,-0.029616185,-0.0023773508,0.018959263,-0.064599395,-6.830966e-05,,,
5155000,0.0053777853,-0.029452246,-0.002288979,0.017959887,-0.06540754,-0.0013684515,,,
5163000,0.005377695,-0.02929548,-0.0022086597,0.019322094,-0.06549365,-0.0013136166,,,
5171000,0.005396163,-0.02913957,-0.0021314428,0.02153718,-0.06563646,-0.0019759464,,,
5187000,0.0054559363,-0.028830405,-0.0020116055,0.020423364,-0.06613331,-0.0042392225,,,
5195000,0.005492789,-0.028699305,-0.001963422,0.021899462,-0.069077924,-0.004086667,,,
5203000,0.005543869,-0.028592382,-0.0019171558,0.0229244,-0.0710749,-0.004263493,,,
5211000,0.0056039696,-0.028509833,-0.001876391,0.022957183,-0.0728973,-0.0047967425,,,
5227000,0.0057168542,-0.02841129,-0.0018192189,0.022675697,-0.07520587,-0.0069291373,,,
5235000,0.0057844413,-0.028393835,-0.001811231,0.023705762,-0.07626127,-0.008284766,,,
5243000,0.005861852,-0.02839083,-0.0018119898,0.024128105,-0.076343924,-0.008239175,,,
5251000,0.0059414255,-0.028396998,-0.0018129334,0.023997871,-0.075981,-0.008266253,,,
5267000,0.006052327,-0.028231505,-0.0018382171,0.026175205,-0.07835857,-0.009785195,,,
5275000,0.0061170612,-0.028176274,-0.0018632452,0.025343796,-0.07804499,-0.010422353,,,
5283000,0.0061780512,-0.028134277,-0.0019004247,0.024641603,-0.07850424,-0.0118030775,,,
5291000,0.0062417113,-0.02811025,-0.0019416116,0.025530746,-0.07903444,-0.011291682,,,
5307000,0.006373532,-0.027996289,-0.0020267975,0.028104628,-0.077440195,-0.011011621,,,
5315000,0.006455323,-0.027938845,-0.0020695732,0.029625775,-0.077085935,-0.010750056,-0.017967067550152295,-0.007327891810003781,-0.005241563895806793
5323000,0.006548092,-0.027877428,-0.0021103702,0.030558676,-0.0757256,-0.010389314,-0.017314650339920086,-0.007240548664747238,-0.005169463082339334
5331000,0.0066382634,-0.02780526,-0.0021519572,0.029625393,-0.07363132,-0.010601502,-0.016502563297170158,-0.007238214709215792,-0.005074189141147287
5347000,0.006827227,-0.027631639,-0.0022411994,0.03139074,-0.0724721,-0.010483105,,,
5355000,0.0069194534,-0.027551306,-0.0022925446,0.029773707,-0.073389664,-0.012191713,,,
5363000,0.007005955,-0.027477765,-0.0023507911,0.03082921,-0.07384448,-0.011452543,-0.014461649332469366,-0.006085135809647899,-0.003815799066165839
5371000,0.0071011013,-0.02740503,-0.002399026,0.031143863,-0.073324926,-0.009906915,-0.013787984643635353,-0.005968672737777823,-0.0036279837920351107
5387000,0.007280377,-0.02724445,-0.002481242,0.030509586,-0.07180627,-0.009273697,,,
5395000,0.007364186,-0.02716014,-0.002514381,0.030333731,-0.07198449,-0.0075127203,,,
5403000,0.007448413,-0.027073795,-0.00254044,0.031043332,-0.07134946,-0.007804491,-0.011680089807857542,-0.005309594597196708,-0.0029830975930019593
5411000,0.007535048,-0.026981272,-0.0025730506,0.031096516,-0.07064689,-0.008636322,-0.01124146121533125,-0.005162563289686877,-0.0030120981294850277
5427000,0.007706331,-0.026766492,-0.0026164833,0.0317329,-0.06851624,-0.0049289907,,,
5435000,0.0077971774,-0.026649794,-0.0026203003,0.03307389,-0.06763803,-0.003947216,,,
5443000,0.007892315,-0.026519045,-0.0026209457,0.033198573,-0.0660469,-0.0041737347,-0.008948291927569196,-0.0040826314853494375,-0.0024574100000681965
5451000,0.007982726,-0.026380932,-0.002625506,0.032868106,-0.06592311,-0.004742347,-0.00872414139375905,-0.0038289316424370222,-0.0022146451520565205
5467000,0.008175722,-0.02609382,-0.0026313548,0.03471874,-0.06423058,-0.004044183,,,
5475000,0.00827476,-0.025934786,-0.0026303418,0.034990672,-0.06399941,-0.004249071,,,
5483000,0.008374247,-0.02576887,-0.0026338832,0.035432443,-0.062086057,-0.004785344,-0.006185117731372691,-0.002942495336080831,-0.0021111620565426284
5491000,0.00847407,-0.025582891,-0.0026376422,0.03510133,-0.059658322,-0.0041974434,-0.005571153195453035,-0.002817864300808534,-0.0021336901319827296
5507000,0.009546904,-0.025920324,-0.0018005371,0.03374702,-0.05567607,-0.005176718,,,
5515000,0.009622767,-0.025686158,-0.0018005371,0.03300396,-0.05398332,-0.0064143743,,,
5523000,0.009691218,-0.025438271,-0.0018310547,0.03238222,-0.052409045,-0.00632103,-0.0037858499573735624,-0.0020120376326721087,-0.0017451188703563642
5531000,0.00975445,-0.025179833,-0.0018310547,0.03202689,-0.051372044,-0.0051677306,-0.0032619311283569367,-0.0016758623228350041,-0.001738414225513608
5547000,0.009878185,-0.024643242,-0.0018310547,0.032653578,-0.049794413,-0.003455422,,,
5555000,0.009937095,-0.024359908,-0.0018310547,0.03210123,-0.048073925,-0.0035140247,,,
5563000,0.009992,-0.024068253,-0.0018310547,0.031645093,-0.04734862,-0.003772718,-0.0014481483368087424,-0.0008163314520872601,-0.0013292711422784897
5571000,0.010043138,-0.023769066,-0.0018310547,0.031863675,-0.045919318,-0.0033956664,-0.0011725583785837386,-0.0005401426723242006,-0.0011187380187263603
5587000,0.010135138,-0.023144364,-0.0018310547,0.03059426,-0.044249438,-0.003908532,,,
5595000,0.010172891,-0.022821242,-0.0018310547,0.030475033,-0.042407826,-0.0036777188,,,
5603000,0.010212691,-0.022482343,-0.0018310547,0.030872636,-0.040114023,-0.0027196293,0.0003781314391255461,3.386605749903333e-05,-0.0009028104899837377
5611000,0.010244155,-0.022130745,-0.0018310547,0.02906324,-0.03883546,-0.0008481934,0.0007191813985200798,0.00021329654717035704,-0.0010668572442251308
5627000,0.010247806,-0.02139671,-0.0017700195,0.023468275,-0.03608595,0.0008643287,,,
5635000,0.01021649,-0.021023579,-0.001739502,0.021351835,-0.035760663,0.0010150586,,,
5643000,0.010169303,-0.020641442,-0.0017089844,0.01926851,-0.03305041,0.0016484706,0.0016240278501509302,0.000836106696725346,-0.0006224269995075134
5651000,0.010099503,-0.0202407,-0.0016784668,0.016216807,-0.03082711,0.0017264597,0.001873135551315764,0.0008237209171247382,-0.00047958701098520245
5667000,0.009909296,-0.019411054,-0.0015869141,0.0131105,-0.027722385,0.0040947557,,,
5675000,0.009801168,-0.018980062,-0.0015258789,0.012918303,-0.02594058,0.0043804557,,,
5683000,0.009690721,-0.018537724,-0.0014953613,0.012154704,-0.024097107,0.0036706266,0.0025933694309231807,0.0008895471119010975,-0.000490856745459
5691000,0.009572034,-0.018091114,-0.0014343262,0.011241997,-0.02400351,0.003281351,0.002911405127814367,0.0009070801977653472,-0.0006911914580660307
5707000,0.009330242,-0.017180292,-0.0013427734,0.011551247,-0.01922134,0.0036581776,,,
5715000,0.009208847,-0.016701618,-0.0012817383,0.010493839,-0.017578693,0.0035367133,,,
5723000,0.009078801,-0.01621989,-0.0012512207,0.009861971,-0.017027173,0.0023669836,0.0034907743456664515,0.0014241105102635978,-0.000870209190000121
5731000,0.008950969,-0.01573702,-0.0012207031,0.010516715,-0.016134595,0.0023745447,0.0035887000761016955,0.0013658855632208426,-0.0009437376010932783
5747000,0.00870151,-0.014772679,-0.0010986328,0.011307897,-0.015103401,0.0048430297,,,
5755000,0.00858431,-0.014292196,-0.0010375977,0.0109024085,-0.014139139,0.004655602,,,
5763000,0.008461986,-0.013806059,-0.0010070801,0.010152226,-0.012588513,0.002814458,0.004107361218804011,0.0014484684624203551,-0.0010940706978625145
5771000,0.0083356155,-0.013315192,-0.0006713867,0.009256749,-0.011353438,0.0022798467,0.003943395141176532,0.0017945366298801997,-0.0011673459577549582
5787000,0.008058175,-0.012345729,0.0,0.007856185,-0.011484122,0.003086121,,,
5795000,0.007919989,-0.011864561,0.00030517578,0.007773956,-0.009868983,0.0017952527,,,
5803000,0.007779356,-0.011373581,0.00061035156,0.0065176208,-0.0076243123,0.0013043801,0.00414646078568717,0.0020228684705950327,-0.0012128768571048646
5811000,0.0076240576,-0.010877582,0.00088500977,0.0040129763,-0.0064982176,0.002899055,0.004100084109303777,0.0019010838396543936,-0.001071667228479115
5827000,0.0072797006,-0.009866722,0.0014953613,0.0023363482,-0.0035298374,0.003666964,,,
5835000,0.0071060937,-0.009360943,0.0017700195,0.002126799,-0.003118543,0.0035596616,,,
5843000,0.006930674,-0.008864638,0.0020141602,0.001453106,-0.003245573,0.0050694784,0.003974128385873659,0.001473018500925883,-0.0005777604133290923
5851000,0.006757428,-0.008368616,0.0022888184,0.002361251,-0.0018898883,0.0066688717,0.0038640344359217485,0.0015615762038682227,-0.00044712008801540943
5867000,0.0064254845,-0.0073544392,0.0028686523,0.0018384776,0.0028680498,0.007814827,,,
5875000,0.0062542562,-0.00683183,0.003112793,0.0005398905,0.0048799785,0.0067669414,,,
5883000,0.006074279,-0.0062991786,0.0033874512,-0.0007398488,0.007485657,0.0068799946,0.003566563420759349,0.0013411148047676462,-0.00030160475512251386
5891000,0.0058926055,-0.005753715,0.0036315918,-0.00040998694,0.00969954,0.006395997,0.0036118418762153778,0.0011359331079806932,-0.00019523042633864924
5907000,0.005543477,-0.00466298,0.003692627,-0.00081270834,0.0112212645,0.0066111325,,,
5915000,0.0053660953,-0.00412293,0.0037231445,-0.0009849449,0.010815358,0.0059604174,,,
5923000,0.005193116,-0.003597951,0.003753662,-0.00080119807,0.010223753,0.0053706653,0.003626171399664771,0.001408100477076282,0.0002083271144683425
5931000,0.0050196964,-0.0030856158,0.0037841797,-0.0019566738,0.009430951,0.006136951,0.003748987287757771,0.0013684227211158534,0.0001043776316338838
5947000,0.0046633575,-0.002082823,0.0038452148,-0.002416116,0.011012873,0.005586353,,,
5955000,0.0044827773,-0.0015788333,0.0038757324,-0.0040397434,0.012960904,0.004999176,,,
5963000,0.0042913524,-0.0010696383,0.0038757324,-0.005284685,0.014737205,0.004257825,0.003976759410419306,0.0017646266923729804,4.433191489374368e-05
5971000,0.0040994342,-0.0005587857,0.00390625,-0.0056850733,0.015214657,0.00524327,0.0040563694184603365,0.0017347895161300276,-5.789341213988903e-05
5987000,0.00369961,0.00043379777,0.003967285,-0.007951475,0.015191041,0.0046174247,,,
5995000,0.003487672,0.0009200364,0.0039978027,-0.009583491,0.015596808,0.0036176771,,,
6003000,0.0032701658,0.0014018916,0.0039978027,-0.010229163,0.015838403,0.0025246602,0.004021982805613112,0.0018650291356521864,-5.469512745532383e-05
6011000,0.0030517385,0.001878342,0.0039978027,-0.010578081,0.016982181,0.0018416332,0.0037924249882279695,0.001862541801565911,-0.00018555145929216588
6027000,0.0026089496,0.0028071958,0.0040283203,-0.01183302,0.015608648,0.0006360369,,,
6035000,0.0023816545,0.0032487258,0.0040283203,-0.013388789,0.014873837,0.00064290955,,,
6043000,0.0021522269,0.0036827342,0.0040283203,-0.01281775,0.015814902,0.0003018795,0.0034606700597348003,0.00197746663709042,1.4998883892855729e-06
6051000,0.001932466,0.004113045,0.004058838,-0.012256724,0.015914537,0.0006332109,0.0032760167410268394,0.0019443324444879534,-4.7107163411537504e-05
6067000,0.0014708794,0.004956601,0.0040893555,-0.015950639,0.016990263,0.003774177,,,
6075000,0.0012330438,0.005374538,0.004119873,-0.015966132,0.017939305,0.004631534,,,
6083000,0.0009912412,0.0057943813,0.004180908,-0.016971314,0.019704685,0.0060005253,0.0031793492411090127,0.0012107142876786661,-0.00044908464268798805
6091000,0.0007500737,0.0062199063,0.004180908,-0.017010733,0.021093644,0.0071754586,0.0030666718409101917,0.0011440442343841899,-0.0004930494403502522
6107000,0.00026367942,0.0070672915,0.0042419434,-0.017840855,0.022857515,0.0070808395,,,
6115000,2.7643955e-05,0.0074895155,0.004272461,-0.016824367,0.023442667,0.0079312865,,,
6123000,-0.00020015545,0.007912322,0.0043029785,-0.016967505,0.025068881,0.008771164,0.002562599140932037,0.0008999304896494384,-0.00022981095439141434
6131000,-0.00042946253,0.008344809,0.004333496,-0.017210428,0.02762211,0.009531989,0.0024556567257087276,0.0009467688173735075,-0.0002270681598395309
6147000,-0.0008651244,0.009232678,0.0044555664,-0.0162046,0.029928992,0.012304188,,,
6155000,-0.0010768389,0.00966395,0.0045166016,-0.016204337,0.028101098,0.012125688,,,
6163000,-0.0012895194,0.010076711,0.0045776367,-0.016889066,0.02753039,0.011491014,0.002027964148020425,0.001242472062118695,0.0004979297493311894
6171000,-0.0014990482,0.0104769105,0.0046691895,-0.01614361,0.026239624,0.011547356,0.0021464644937617193,0.0012077430172473301,0.0006843002333506769
6187000,-0.0018882488,0.011233642,0.0047912598,-0.014687898,0.025269333,0.010806477,,,
6195000,-0.0020775937,0.011603733,0.004852295,-0.01547575,0.026726352,0.010420213,,,
6203000,-0.0022673819,0.011981806,0.0048828125,-0.015220634,0.02879403,0.00997201,0.0019891758622761512,0.0006196734426385713,0.0002751452247150617
6211000,-0.0024507465,0.012363348,0.0049743652,-0.014644827,0.029142907,0.009649444,0.0018859560811679975,0.0005855247480086745,0.0003939065113108005
6227000,-0.0027996697,0.013112624,0.0051574707,-0.014153887,0.02992297,0.008741382,,,
6235000,-0.0029702259,0.013483059,0.005218506,-0.0145739075,0.030454405,0.009693208,,,
6243000,-0.003141797,0.013849867,0.0053100586,-0.0146523835,0.03081425,0.010299849,0.0015391146761996463,0.00042220762206123723,0.0007475256768916928
6251000,-0.0033059518,0.014220123,0.0054016113,-0.013589843,0.03278108,0.010669055,0.0015665026240444665,0.00048388315623200737,0.0007497923049954462
6267000,-0.003604185,0.014947964,0.005584717,-0.012761323,0.032425053,0.011013501,,,
6275000,-0.003749032,0.015306405,0.005706787,-0.01211168,0.032868344,0.008550775,,,
6283000,-0.0038858233,0.015663248,0.0058288574,-0.011564373,0.033515736,0.008085132,0.0012009242188069597,-4.3764252054971224e-05,0.000513663480321185
6291000,-0.004016698,0.016012682,0.00592041,-0.011004585,0.032552075,0.009087729,0.001021644164676991,-7.431148703763006e-05,0.000578027252364206
6307000,-0.0042434386,0.016673869,0.006072998,-0.008316888,0.031324606,0.008723784,,,
6315000,-0.004341212,0.016991887,0.006164551,-0.0075825453,0.031178476,0.008544619,,,
6323000,-0.004432667,0.017308742,0.006225586,-0.007645905,0.03209225,0.008385366,0.00098922814512968,-0.0006283225206575911,0.0007644284558112085
6331000,-0.0045310836,0.017622774,0.006286621,-0.009100823,0.031570286,0.0071847043,0.0009995964568268122,-0.0006389265034131953,0.0007354330572900946
6347000,-0.004742662,0.018235115,0.006378174,-0.009980454,0.03249084,0.0052273767,,,
6355000,-0.004843087,0.01853654,0.006439209,-0.009507461,0.032082904,0.005282456,,,
6363000,-0.0049445666,0.018831484,0.0064697266,-0.009803649,0.032196343,0.0042651775,0.0007974254253506728,-7.604669379415242e-05,0.0007996320784858283
6371000,-0.0050456636,0.019125132,0.006500244,-0.0105087655,0.03274633,0.0046849404,0.0008031468409129154,0.00016109675995370845,0.0007168026183699737
6387000,-0.0052629737,0.019701391,0.006591797,-0.0110020805,0.03193695,0.005327043,,,
6395000,-0.005368983,0.019970423,0.0066223145,-0.011661191,0.030719234,0.003458381,,,
6403000,-0.0054771462,0.02023143,0.0066833496,-0.011980968,0.030676406,0.0022545978,0.0006246315575860713,0.000373800992357499,1.5817581974852732
6411000,-0.0055875015,0.02048685,0.0067443848,-0.012181094,0.03057798,0.002793762,0.0006048600218632632,0.0002831689818421037,1.581628490545045
6427000,-0.00580391,0.020981487,0.006866455,-0.012106214,0.03015543,0.0017601051,,,
6435000,-0.0059133545,0.021218663,0.0068969727,-0.012447888,0.029546453,0.0007909322,,,
6443000,-0.006023834,0.021447223,0.006958008,-0.012371177,0.029262226,0.00073613855,0.00044933638814502865,0.00016741134537352217,1.5819047138693896
6451000,-0.006131337,0.021670721,0.0069885254,-0.0115580745,0.02899938,0.0014949352,0.00048441447649685826,5.2742703725822675e-05,1.581731492943634
6467000,-0.0063410746,0.022073947,0.0070495605,-0.011952053,0.025166111,0.0025628416,,,
6475000,-0.0064473734,0.022248846,0.007080078,-0.011858778,0.022983516,0.0036130974,,,
6483000,-0.006554679,0.022413908,0.0071105957,-0.011866769,0.023306012,0.0039171283,0.0006697101566051503,-0.00042140974047828527,1.5818601290321954
6491000,-0.0066656303,0.022581782,0.0071411133,-0.012992581,0.023871962,0.0041069672,0.0005037739800756144,-0.00040503513826171717,1.5819876910026074
6507000,-0.0069153067,0.02290707,0.007232666,-0.014772966,0.02210533,0.0061270804,,,
6515000,-0.007043257,0.023053728,0.0072631836,-0.01438203,0.021568429,0.0052860766,,,
6523000,-0.007169919,0.023200985,0.0073242188,-0.013458642,0.022524634,0.005169039,0.0003961671143584151,-0.0008608112592707213,1.5825946284323416
6531000,-0.007288812,0.0233527,0.0073547363,-0.012906585,0.023244338,0.006033561,0.00044690796420566764,-0.0008996013834014149,1.5828175667285387
6547000,-0.0075111226,0.0236641,0.0074768066,-0.011680351,0.02395659,0.009198543,,,
6555000,-0.007616641,0.02381744,0.007537842,-0.011408919,0.023873469,0.009741667,,,
6563000,-0.0077204234,0.023965707,0.0076293945,-0.011545536,0.023299662,0.009647511,0.00010219310031076259,-0.0011152287462932128,1.5830802060898912
6571000,-0.007822018,0.024109043,0.0076904297,-0.0105642835,0.023579473,0.010133503,0.00018341603163915058,-0.0012373365126640155,1.5832022877803273
6587000,-0.008018223,0.024408393,0.007873535,-0.012508534,0.025549192,0.011189303,,,
6595000,-0.008130554,0.024573365,0.007965088,-0.013079698,0.027704641,0.011495375,,,
6603000,-0.008250571,0.024746701,0.008056641,-0.014286359,0.027908225,0.011042812,-3.08787058658465e-05,-0.0006926681352533412,1.5830896192537458
6611000,-0.008379169,0.024918642,0.008117676,-0.015478812,0.027744098,0.010101459,-7.647947817551004e-05,-0.0005220373514664394,1.5828982734748913
6627000,-0.008658017,0.025250519,0.008270264,-0.016647654,0.026948953,0.010301575,,,
6635000,-0.008800255,0.02540655,0.008331299,-0.017386684,0.025968388,0.010887278,,,
6643000,-0.008950014,0.025553139,0.008422852,-0.018150443,0.025293298,0.011305436,-0.0003071856430364539,-0.00046865987211593417,1.5826302716414784
6651000,-0.00909792,0.025697455,0.008514404,-0.018018043,0.025923444,0.010268893,-0.0002557788384415217,-0.0006528862750191766,1.5827248113984402
6667000,-0.00940446,0.026001213,0.00869751,-0.019638017,0.026846675,0.009253505,,,
6675000,-0.009562093,0.026153432,0.0087890625,-0.019328285,0.028183762,0.009573319,,,
6683000,-0.00971974,0.026315538,0.008880615,-0.019563818,0.029460052,0.0090501495,-0.0005694715831800384,-0.001086467625115625,1.5832294668990725
6691000,-0.009877044,0.026481785,0.008972168,-0.019479921,0.029919019,0.009833489,-0.0004815043207215963,-0.0009737607699225513,1.5832607010367894
6707000,-0.009882661,0.026099985,0.009063721,-0.020441981,0.028441865,0.011684724,,,
6715000,-0.009896365,0.025915107,0.009094238,-0.021168008,0.029090982,0.011461724,,,
6723000,-0.009915699,0.025743393,0.009124756,-0.021095091,0.029599404,0.012345613,-0.0005548205601780747,-0.0015970337939807116,1.5835023680870064
6731000,-0.0099430885,0.025579466,0.009155273,-0.022329878,0.029127745,0.012432702,-0.0008217211009984559,-0.0015715161054884019,1.5835581626881883
6747000,-0.009993955,0.02524931,0.009216309,-0.019837642,0.02658581,0.011470812,,,
6755000,-0.010009047,0.025079602,0.009277344,-0.018928321,0.026203405,0.012193477,,,
6763000,-0.010023222,0.02491817,0.009307861,-0.018749848,0.026782598,0.013147396,-0.0007334382238363707,-0.001623726814150351,1.5843096049416572
6771000,-0.010037246,0.024767088,0.0093688965,-0.018423265,0.026795238,0.013574342,-0.000753191659190574,-0.0014684850505601178,1.5842608414648398
6787000,-0.01006903,0.024483368,0.009460449,-0.018369239,0.028090943,0.0140567105,,,
6795000,-0.010087639,0.024354858,0.009521484,-0.018137865,0.027048858,0.015077263,,,
6803000,-0.010109496,0.024229381,0.0095825195,-0.019056812,0.027908795,0.016233848,-0.0009102143082007094,-0.0013658010456183613,1.584732594563733
6811000,-0.010141116,0.024118403,0.009643555,-0.019450556,0.02855119,0.016610527,-0.0010092251296223375,-0.0013904612102441124,1.5848353646916185
6827000,-0.010222429,0.023904692,0.009796143,-0.02126111,0.027119372,0.015866453,,,
6835000,-0.01027716,0.023803197,0.009887695,-0.022073809,0.028622087,0.016341092,,,
6843000,-0.010331703,0.023720536,0.009979248,-0.020656293,0.029913336,0.016496785,-0.0007948084410743069,-0.0012463974733948606,1.5848900839359361
6851000,-0.0103815,0.023648694,0.010070801,-0.020854628,0.030498995,0.017412204,-0.0007220976704810343,-0.0014161104412807061,1.5846778744495944
6867000,-0.0104756905,0.023532828,0.010284424,-0.020440746,0.03138488,0.017343625,,,
6875000,-0.010533213,0.023488088,0.010375977,-0.02139828,0.032337945,0.016134398,,,
6883000,-0.010596466,0.023455925,0.010467529,-0.021212306,0.03357779,0.015654633,-0.000993437322173734,-0.0013003796511450725,1.5845045251126237
6891000,-0.010656799,0.023431193,0.010559082,-0.02057336,0.032786507,0.017260874,-0.0009499801524431603,-0.0011763200548381327,1.5845278879510545
6907000,-0.010763726,0.02336923,0.010772705,-0.020669641,0.030372765,0.01621707,,,
6915000,-0.010831291,0.023328355,0.010894775,-0.021155752,0.029522365,0.01628258,,,
6923000,-0.010893468,0.02328684,0.011016846,-0.020178609,0.028870769,0.01587024,-0.00046028797325545163,-0.001220349292492331,1.5843227095245849
6931000,-0.010960242,0.023241721,0.011138916,-0.02153343,0.027469479,0.017376278,-0.00041145115479848156,-0.0013886664334947505,1.5843904320073676
6947000,-0.011109679,0.023127642,0.011383057,-0.021385966,0.02557132,0.01589042,,,
6955000,-0.011185334,0.023068992,0.011474609,-0.02228649,0.025050746,0.016206158,,,
6963000,-0.011269849,0.02300717,0.01159668,-0.023182504,0.024466142,0.015119026,-0.0007597656217807149,-0.0016014126454954012,1.5849767632623006
6971000,-0.0113645,0.022946604,0.01171875,-0.024360113,0.024198603,0.014588139,-0.000868194709859781,-0.00153917635562819,1.5848555157942696
6987000,-0.011561471,0.02282474,0.011932373,-0.02442527,0.023471732,0.014682749,,,
6995000,-0.01166404,0.022765474,0.012054443,-0.024465092,0.023147654,0.015513414,,,
7003000,-0.011771679,0.02270715,0.012176514,-0.025525803,0.023027953,0.016769959,-0.0009172621590532654,-0.001696983002631674,1.58454315923578
7011000,-0.01188618,0.022650164,0.012298584,-0.02580482,0.022655506,0.016202759,-0.0007662164554253741,-0.0016157589898264705,1.584799959630248
7027000,-0.012130572,0.022551447,0.012542725,-0.02747702,0.024617197,0.014732784,,,
7035000,-0.012263787,0.022517277,0.012664795,-0.027707988,0.025047144,0.0122428145,,,
7043000,-0.012396108,0.022490758,0.012756348,-0.026955687,0.025675341,0.012598755,-0.0009620597534441995,-0.0020331721790882175,1.584746558998172
7051000,-0.0125168925,0.02246896,0.0128479,-0.025077661,0.025764415,0.012859151,-0.000947890610835154,-0.0021390737980261894,1.5847475167392382
7067000,-0.012759941,0.022438861,0.013031006,-0.027056193,0.02576867,0.013811014,,,
7075000,-0.012894846,0.022424068,0.013153076,-0.027536144,0.025312709,0.013704919,,,
7083000,-0.013034801,0.022411,0.013244629,-0.02809807,0.02590226,0.013405083,-0.000612598371497538,-0.002356703712058188,1.5849684388684884
7091000,-0.01317404,0.022404272,0.013336182,-0.027191151,0.025678609,0.012941597,-0.0006913947013285229,-0.002412880551019774,1.585073834095955
7107000,-0.013119887,0.022047307,0.013427734,-0.02421912,0.026739389,0.014244657,,,
7115000,-0.013084184,0.021889772,0.013458252,-0.023605831,0.02786795,0.013895647,,,
7123000,-0.013046975,0.021745455,0.013519287,-0.023112861,0.028449088,0.014035102,-0.0012745647601572635,-0.002339380133092519,1.5853588905228189
7131000,-0.013010442,0.021608861,0.013549805,-0.022720454,0.02844756,0.014035525,-0.0011729409239807007,-0.0022938357758420375,1.5854113467283237
7147000,-0.012939493,0.021357153,0.013671875,-0.021805156,0.029526839,0.01515858,,,
7155000,-0.012904175,0.021247938,0.01373291,-0.02240631,0.030284453,0.015737733,,,
7163000,-0.012875589,0.021143476,0.013824463,-0.02250226,0.029241472,0.015553288,-0.0015586978390145496,-0.0027346596213131302,1.5855652805806462
7171000,-0.012853547,0.021038879,0.013916016,-0.023175236,0.029531412,0.016675305,-0.001493540105162025,-0.002929325446793749,1.5855253478963427
7187000,-0.01282194,0.020852005,0.014099121,-0.022485023,0.02945803,0.016328331,,,
7195000,-0.012801021,0.020759441,0.014190674,-0.022058424,0.028806958,0.017169885,,,
7203000,-0.012785163,0.020667264,0.014312744,-0.022669261,0.028296342,0.018509345,-0.0016821861221523768,-0.00268138451506654,1.5856111792381087
7211000,-0.012774251,0.020579051,0.014404297,-0.022465762,0.028731892,0.01857032,-0.001737254183474881,-0.0027952498369869165,1.5856748496898092
7227000,-0.012748127,0.020428393,0.0146484375,-0.021705596,0.029820645,0.019629601,,,
7235000,-0.012734075,0.020361777,0.014770508,-0.021085102,0.028862093,0.019852417,,,
7243000,-0.012715069,0.02028966,0.014862061,-0.019955566,0.028204631,0.01950823,-0.0020877993386288554,-0.0031100245036107055,1.586211724380495
7251000,-0.01269155,0.020219864,0.014984131,-0.019398425,0.027951296,0.018360449,-0.0019398352434290451,-0.003275901117646122,1.5864917933432654
7267000,-0.012628973,0.02007293,0.015197754,-0.017966611,0.026797447,0.020356564,,,
7275000,-0.0125983395,0.02000938,0.015350342,-0.01835032,0.028297521,0.020460498,,,
7283000,-0.0125742275,0.019956315,0.015472412,-0.018644905,0.028500455,0.020054387,-0.0019086050972859626,-0.003024651158533776,1.5867117505029311
7291000,-0.012552117,0.019907486,0.015625,-0.018537048,0.028530015,0.020774718,-0.001906784760288353,-0.0028909825012008224,1.5867180621297032
7307000,-0.012496923,0.019812735,0.015899658,-0.017766332,0.02733026,0.022281883,,,
7315000,-0.012479705,0.019765325,0.016052246,-0.019668112,0.02693443,0.022596845,,,
7323000,-0.012478413,0.019722342,0.016235352,-0.020703701,0.027996523,0.02248333,-0.0024460007049365733,-0.003505763794057445,1.5869678713231359
7331000,-0.012479999,0.019693056,0.01638794,-0.02055549,0.028617412,0.021902267,-0.002722044731011422,-0.0036449173147362736,1.587029876556543
7347000,-0.01248919,0.019618556,0.016662598,-0.02025118,0.026399396,0.020705204,,,
7355000,-0.012493412,0.019579679,0.016815186,-0.020008568,0.025780605,0.020887619,,,
7363000,-0.01250219,0.019534562,0.016937256,-0.02079895,0.024261463,0.021035701,-0.002651203160614866,-0.003965514394971381,1.5868820550453657
7371000,-0.012513386,0.01948264,0.017089844,-0.020121556,0.02341771,0.020735996,-0.0026876438133972415,-0.003957285629797696,1.5867748711223983
7387000,-0.012540333,0.019384563,0.017364502,-0.020900553,0.023044689,0.017963806,,,
7395000,-0.0125649,0.01933619,0.017456055,-0.021047257,0.022591945,0.01591276,,,
7403000,-0.012591903,0.019287333,0.017547607,-0.021410886,0.02238668,0.0150981415,-0.0029040736030481224,-0.0036397361000546705,1.5866010231042542
7411000,-0.012624663,0.019240374,0.01763916,-0.021576937,0.022373922,0.014615796,-0.002827440633512298,-0.003558137511380442,1.5865280521197718
7427000,-0.012690001,0.019148534,0.017822266,-0.02105008,0.02255097,0.014465203,,,
7435000,-0.012724607,0.019115223,0.017913818,-0.021347582,0.023271084,0.014992323,,,
7443000,-0.012763277,0.019086668,0.018035889,-0.021592371,0.023079393,0.013744893,-0.0030507554398296476,-0.00375788169615647,1.5867519695074639
7451000,-0.012802186,0.019059375,0.018096924,-0.020982571,0.021948574,0.01185504,-0.0032642942642578114,-0.004000907261885738,1.58682709377548
7467000,-0.0128524685,0.018996414,0.018249512,-0.018067457,0.022369452,0.01198119,,,
7475000,-0.012866454,0.018982356,0.018310547,-0.016894173,0.023845091,0.011253724,,,
7483000,-0.012867501,0.018980028,0.018371582,-0.014531643,0.024764935,0.011256366,-0.003491455994066934,-0.004303231612241047,1.5873937960939066
7491000,-0.012852954,0.018983914,0.018432617,-0.012840875,0.025199154,0.011800997,-0.003631698130981443,-0.004376999108527423,1.5874568744572326
7507000,-0.012540957,0.018649038,0.0184021,-0.014544224,0.024867123,0.013982178,,,
7515000,-0.01239802,0.018485783,0.0184021,-0.01412502,0.024285952,0.013615248,,,
7523000,-0.012258459,0.01832431,0.0184021,-0.013547321,0.024264459,0.013305463,-0.0037474455919634404,-0.004340129560235076,1.587713685549589
7531000,-0.012117576,0.018168656,0.0184021,-0.013044547,0.024335783,0.012752968,-0.00364134364739751,-0.004296002619596833,1.5877431323507065
7547000,-0.011844626,0.01784518,0.0184021,-0.012789278,0.020187803,0.012430439,,,
7555000,-0.0117098475,0.017672112,0.0184021,-0.012185886,0.02053733,0.011557967,,,
7563000,-0.011574631,0.01750776,0.0184021,-0.012156656,0.020617405,0.012220347,-0.004040590176275373,-0.004177692857026192,1.5877375191596192
7571000,-0.011445957,0.017351361,0.018432617,-0.012804075,0.021655882,0.013335326,-0.0038964157534113067,-0.004000119822347775,1.5878611476862892
7587000,-0.011199558,0.017072935,0.018463135,-0.0120323775,0.02264342,0.013034287,,,
7595000,-0.0110737225,0.016938446,0.018493652,-0.010454286,0.020550206,0.011748656,,,
7603000,-0.010945946,0.016793203,0.018463135,-0.011056421,0.019051965,0.011649197,-0.003629925390862192,-0.004124431457080124,1.5885917857979985
7611000,-0.010833649,0.016645474,0.018463135,-0.0131571675,0.01927234,0.012605778,-0.0037443466854164345,-0.0040666978208091864,1.5886071625476839
7627000,-0.010630292,0.016381787,0.018463135,-0.011699183,0.020656161,0.012492583,,,
7635000,-0.010517462,0.016262421,0.018463135,-0.0100338785,0.021410566,0.013516598,,,
7643000,-0.01039474,0.016148567,0.018493652,-0.009176249,0.021053318,0.013944718,-0.004426398872798206,-0.003950078068059943,1.5883555808011962
7651000,-0.010279744,0.016034465,0.018493652,-0.010680193,0.020670107,0.012897904,-0.0045605869067199675,-0.0038572489472635326,1.588130473426826
7667000,-0.010071685,0.015817555,0.018554688,-0.010267449,0.019689918,0.014422527,,,
7675000,-0.009961178,0.015712641,0.018554688,-0.0079604965,0.01987503,0.013441261,,,
7683000,-0.0098404735,0.015620135,0.018585205,-0.007351026,0.022083892,0.013418823,-0.004812986135906358,-0.003863033202038471,1.5880713375287214
7691000,-0.009714937,0.015541461,0.018615723,-0.0056942212,0.021694059,0.013008746,-0.004742820894659494,-0.003891797315981056,1.5881282108397323
7707000,-0.009438682,0.01537938,0.01864624,-0.003586026,0.021561142,0.013040511,,,
7715000,-0.009292544,0.015305702,0.018676758,-0.0025767942,0.021293895,0.012572855,,,
7723000,-0.00914431,0.015229767,0.018707275,-0.002498016,0.020687148,0.01281676,-0.004948111240009895,-0.004351754904057784,1.5879238859526048
7731000,-0.008996947,0.015157773,0.018707275,-0.0018345378,0.021305948,0.013366522,-0.00519697329394606,-0.004273931468938606,1.587863431678554
7747000,-0.00870328,0.015026474,0.01876831,-0.0021155083,0.02135818,0.015029734,,,
7755000,-0.008561637,0.014961094,0.018829346,-0.0020259747,0.02050396,0.015371331,,,
7763000,-0.008421562,0.014898007,0.018859863,-0.0021801419,0.02129087,0.016485732,-0.005164624925369442,-0.004294433792248347,1.5878966997599069
7771000,-0.008280255,0.014842774,0.018920898,-0.00079250033,0.021153482,0.016393129,-0.0051378181919461245,-0.004321215618365602,1.5878766682080705
7787000,-0.007993815,0.014737763,0.019042969,-0.00048211942,0.021449853,0.015811643,,,
7795000,-0.007846832,0.014695925,0.019073486,0.00030018028,0.022318007,0.016229777,,,
7803000,-0.0076974127,0.014663738,0.019134521,0.0012413568,0.023338871,0.016856123,-0.0054154392682921205,-0.00479032441204933,1.5877977755085764
7811000,-0.007544387,0.014640562,0.019195557,0.002996149,0.022459429,0.017602608,-0.005532536284660511,-0.004933579815466445,1.5879854529587585
7827000,-0.0072300397,0.014599538,0.019348145,0.0030853238,0.02366885,0.019036736,,,
7835000,-0.007076544,0.014591178,0.019439697,0.0028775185,0.023685832,0.018567417,,,
7843000,-0.006928273,0.0145806745,0.01953125,0.002698588,0.022872977,0.019056404,-0.00505353085886984,-0.005786589509766544,1.5883444134148523
7851000,-0.0067801764,0.014574931,0.019622803,0.003076343,0.023943655,0.01987239,-0.00526760698982128,-0.005634438256771649,1.5882750065820845
7867000,-0.006492822,0.014585045,0.019866943,0.0020562867,0.02581311,0.02097776,,,
7875000,-0.006360406,0.01460325,0.019989014,0.0016041226,0.02485669,0.020333052,,,
7883000,-0.0062231002,0.014620028,0.020080566,0.0029874872,0.025038991,0.020117098,-0.005695189764900889,-0.0054969491664338625,1.5884735074955676
7891000,-0.006075442,0.014650101,0.020202637,0.0040276023,0.027023017,0.019799722,-0.005553140030460213,-0.005676342389153036,1.588419635609672
7907000,-0.005779323,0.014457322,0.020233154,0.0066619623,0.025325928,0.020437563,,,
7915000,-0.0056161066,0.01435966,0.020263672,0.008357911,0.024581732,0.020987248,,,
7923000,-0.0054466426,0.01426485,0.020263672,0.008691542,0.024813736,0.020364318,-0.005455490140141134,-0.0061110088974958504,1.5887795187124545
7931000,-0.005277481,0.014178632,0.020263672,0.008898416,0.026043652,0.019456798,-0.0054295016340221115,-0.0062219524802824165,1.5887476954361333
7947000,-0.0049405373,0.014053456,0.02029419,0.009440853,0.027378507,0.019795565,,,
7955000,-0.0047657094,0.013999246,0.020324707,0.010655697,0.027413381,0.018483842,,,
7963000,-0.0045879968,0.013952854,0.020324707,0.010633635,0.027880238,0.019698638,-0.005478062279367624,-0.006779306808044303,1.588960470243782
7971000,-0.004414751,0.013905505,0.020355225,0.010196207,0.026407745,0.020176198,-0.0055683910886786085,-0.00692846395018388,1.5887854556293923
7987000,-0.0040703425,0.013798174,0.02041626,0.010990557,0.025051538,0.021055356,,,
7995000,-0.0038972413,0.013747723,0.020446777,0.011303849,0.025563167,0.020595277,,,
8003000,-0.0037227578,0.013707463,0.020477295,0.01163882,0.02684654,0.021320166,-0.0056494501996183204,-0.006786618324111934,1.5887525294857003
8011000,-0.0035446195,0.01367598,0.020507812,0.012910281,0.026531393,0.01975138,-0.005352392332936715,-0.007043698838770656,1.5887319358484382
8027000,-0.0031758698,0.013607337,0.02053833,0.0141282845,0.025534749,0.018025365,,,
8035000,-0.002985049,0.013577387,0.020568848,0.015418321,0.026380323,0.018604781,,,
8043000,-0.0027852743,0.013560156,0.020599365,0.016107084,0.027428133,0.019443396,-0.005181389784566226,-0.007465247486372711,1.5887953034642233
8051000,-0.0025935604,0.013550248,0.0206604,0.014570203,0.027842024,0.020655088,-0.005315785402096416,-0.007643519821445763,1.5889894362285581
8067000,-0.0022182143,0.013555061,0.02078247,0.015207938,0.028154897,0.020746225,,,
8075000,-0.0020302718,0.013556557,0.020843506,0.0157184,0.027478045,0.02035979,,,
8083000,-0.0018333326,0.013557477,0.020904541,0.01748207,0.02715549,0.020214003,-0.005597537655273401,-0.007629054097449755,1.5891617265405094
8091000,-0.0016255497,0.013557148,0.020965576,0.018853929,0.026490716,0.021036753,-0.005630148940509076,-0.007705217102261439,1.5890673051058612
8107000,-0.0012095657,0.013541771,0.021118164,0.019618664,0.023659902,0.024658926,,,
8115000,-0.0009952481,0.013532334,0.0211792,0.020412134,0.025234263,0.026367225,,,
8123000,-0.00077593024,0.01354443,0.021270752,0.021397624,0.027563566,0.026111562,-0.005941061839588591,-0.008611854442939408,1.588636529989699
8131000,-0.00054912886,0.013571645,0.021362305,0.02220591,0.028435085,0.026628725,-0.006013663226048393,-0.008564278868723602,1.5885517496042045
8147000,-9.0794114e-05,0.013647983,0.021606445,0.022956964,0.029227164,0.029175872,,,
8155000,0.00013685711,0.013697828,0.021728516,0.02171487,0.030780416,0.028535882,,,
8163000,0.00035330787,0.013760719,0.021850586,0.020460209,0.032194756,0.028920354,-0.006289258197854185,-0.008536497432112256,1.5889279235929845
8171000,0.0005623742,0.013839795,0.021972656,0.020236442,0.03399538,0.029156398,-0.0064070183729340365,-0.008517239775152943,1.589057050689048
8187000,0.00096990407,0.01401889,0.022247314,0.020069854,0.034834784,0.029853454,,,
8195000,0.0011734702,0.014116843,0.022399902,0.019861693,0.033985212,0.02998307,,,
8203000,0.0013733526,0.014210646,0.022521973,0.019588506,0.033761483,0.03005647,-0.006430510067298283,-0.008711931601881946,1.589002829426559
8211000,0.0015764774,0.014307703,0.02267456,0.020771015,0.03388976,0.031823676,-0.006334100831655662,-0.009017265598625574,1.5891522787133507
8227000,0.0020032942,0.0145343635,0.023010254,0.024084331,0.037452877,0.032464612,,,
8235000,0.002241144,0.014678184,0.023162842,0.025328206,0.040504187,0.03335935,,,
8243000,0.0024839737,0.014839906,0.023345947,0.02572378,0.041125745,0.033997532,-0.006117248284560351,-0.008912472696756378,1.5894840939299688
8251000,0.0027230897,0.015006076,0.023529053,0.024798362,0.041324954,0.033394143,-0.006162640821395573,-0.008827468472777895,1.589671754009598
8267000,0.0031847572,0.015358752,0.023834229,0.023848625,0.04254323,0.031685073,,,
8275000,0.0034152756,0.015549657,0.024017334,0.024842624,0.044624425,0.032468207,,,
8283000,0.0036491212,0.015762886,0.02420044,0.025278237,0.047299508,0.031956512,-0.006547737046595914,-0.009244003668595699,1.590091773873793
8291000,0.0038875649,0.015995264,0.024353027,0.025880013,0.048680738,0.03203183,-0.006577592449026255,-0.009189223742067213,1.589987791186957
8307000,0.0039062547,0.016028488,0.02444458,0.029260816,0.04828923,0.03100341,,,
8315000,0.0039410368,0.016065877,0.024505615,0.029865604,0.050742622,0.03076451,,,
8323000,0.003987019,0.01612336,0.02456665,0.03161736,0.05179228,0.030910768,-0.006849850430056928,-0.009564054717410151,1.5899122618574908
8331000,0.0040487014,0.016195618,0.024597168,0.032794934,0.053084224,0.03141729,-0.006799068900142258,-0.009656856915713195,1.5898348953053008
8347000,0.00418972,0.016356574,0.024749756,0.03193372,0.05183335,0.03177025,,,
8355000,0.00425776,0.016440472,0.024810791,0.031873718,0.0516695,0.031880148,,,
8363000,0.004332822,0.016525151,0.024871826,0.032857154,0.051229473,0.03266718,-0.007065784859442202,-0.009709200629616652,1.5904360971237907
8371000,0.0044143456,0.016618071,0.024963379,0.033302438,0.052487276,0.035068907,-0.007023030209970887,-0.009520901783842912,1.5905417079909219
8387000,0.0045874654,0.016839134,0.025177002,0.03400405,0.05304315,0.034198277,,,
8395000,0.004695104,0.016960036,0.025268555,0.036650747,0.054014847,0.03445001,,,
8403000,0.004817579,0.017095545,0.025390625,0.037045278,0.05533672,0.035232667,-0.00727737311535872,-0.009828534822559862,1.5909252371241296
8411000,0.0049450668,0.017240785,0.025482178,0.03769645,0.055498686,0.03518882,-0.007436168843496174,-0.009651927195584617,1.5910665008738554
8427000,0.0052323635,0.017563568,0.025756836,0.039662905,0.057443555,0.033996362,,,
8435000,0.0053890953,0.017739506,0.025878906,0.040693693,0.058022093,0.034091257,,,
8443000,0.0055496404,0.01792621,0.026000977,0.042540926,0.059461407,0.032512177,-0.007399847640492951,-0.009785248593066072,1.590624628640482
8451000,0.005727985,0.018127024,0.026153564,0.044432085,0.0603329,0.03212682,-0.007479275535642538,-0.009742011744346295,1.5906266489870458
8467000,0.006123182,0.018554969,0.026397705,0.046007205,0.062179346,0.032802254,,,
8475000,0.0063259793,0.018794151,0.026550293,0.04525175,0.064715445,0.03189266,,,
8483000,0.006522631,0.019054325,0.026641846,0.04420973,0.06623676,0.031209892,-0.0076537043598921195,-0.010076942964224444,1.590716141005836
8491000,0.0067127557,0.019325595,0.026763916,0.04310138,0.06676965,0.030249842,-0.007715924583757885,-0.009860102599519112,1.5906443165335955
8507000,0.0071057416,0.019857544,0.026977539,0.044957418,0.06363757,0.027164372,,,
8515000,0.0073170518,0.02011371,0.02709961,0.04618553,0.06258768,0.02711046,,,
8523000,0.007546813,0.020373035,0.027191162,0.04863359,0.06355943,0.02949696,-0.007713383681515684,-0.010349316869345457,1.5913659365212578
8531000,0.0077938247,0.020645281,0.027313232,0.049951155,0.064545155,0.029372014,-0.007604185299191302,-0.01037116034995788,1.5915384823669458
8547000,0.008317689,0.02120362,0.02758789,0.05123973,0.064502396,0.030463224,,,
8555000,0.008585147,0.021497063,0.027770996,0.050845917,0.06639976,0.03139588,,,
8563000,0.008849309,0.021797527,0.027923584,0.049921516,0.06541334,0.031471904,-0.007685505961154771,-0.010378735204130502,1.5916035922866605
8571000,0.009110453,0.02209498,0.02810669,0.049407832,0.06518016,0.032053318,-0.007671467779672685,-0.010394789277337014,1.5915290688232917
8587000,0.009628413,0.022693507,0.028442383,0.048979226,0.06491345,0.031554792,,,
8595000,0.009883397,0.023002334,0.028625488,0.04803712,0.06599764,0.031178188,,,
8603000,0.010132475,0.023323292,0.028778076,0.04692567,0.06763478,0.030223466,-0.0074982447720921995,-0.01066154602319961,1.5917087043104632
8611000,0.010376,0.023659445,0.028961182,0.046237063,0.06822193,0.03080067,-0.007624283902234704,-0.010734911432113537,1.591912625295014
8627000,0.010876594,0.024344485,0.029266357,0.04811015,0.068718135,0.030159498,,,
8635000,0.011141624,0.02469448,0.029418945,0.048647106,0.06905676,0.028696276,,,
8643000,0.011408873,0.025053183,0.02960205,0.047908254,0.069712155,0.02962714,-0.007732632970868953,-0.010982196811260277,1.5921218366703347
8651000,0.011675519,0.025421089,0.029754639,0.048600025,0.07116799,0.029467707,-0.007726399536808982,-0.011107756066130011,1.5921352189446758
8667000,0.012234911,0.026194334,0.030090332,0.050251257,0.073636375,0.031141138,,,
8675000,0.012518552,0.02660306,0.030273438,0.050263844,0.07500379,0.03162216,,,
8683000,0.012809687,0.027013648,0.030426025,0.051548343,0.07335994,0.031782642,-0.008443921640901384,-0.011321846130609077,1.592646234604162
8691000,0.013111062,0.027416686,0.03060913,0.051824607,0.07335005,0.032601077,-0.00837552623908346,-0.011334607931370616,1.59257290243217
8707000,0.012736001,0.027074145,0.030792236,0.052997675,0.07192143,0.033299923,,,
8715000,0.012570677,0.026910258,0.030883789,0.05368412,0.07133961,0.035412893,,,
8723000,0.012417796,0.026754953,0.03100586,0.053333808,0.070864595,0.036131818,-0.00819331832388344,-0.01095748733663261,1.592636011160141
8731000,0.012273629,0.026614126,0.03112793,0.05395457,0.07062283,0.03553429,-0.008270069361950409,-0.011019597263642324,1.5925449215251104
8747000,0.0120223295,0.026367942,0.03137207,0.054281402,0.071142085,0.035444394,,,
8755000,0.0119097065,0.02626241,0.03149414,0.053102184,0.07054786,0.036739174,,,
8763000,0.0118015455,0.026166562,0.03164673,0.05307899,0.070535176,0.036600135,-0.007971030169513815,-0.011032255638192181,1.5925568507300036
8771000,0.011700544,0.02607588,0.031799316,0.052219935,0.06904325,0.035683066,-0.008129385139480241,-0.010817250716402356,1.5927041866000267
8787000,0.011509227,0.02591091,0.032073975,0.05177507,0.06869836,0.03621483,,,
8795000,0.011422288,0.025843356,0.032226562,0.050479297,0.06892599,0.03713324,,,
8803000,0.0113347955,0.025784437,0.03237915,0.050445087,0.0692775,0.03698683,-0.008053636805746636,-0.010571426172202865,1.5928036975801803
8811000,0.011263213,0.025739245,0.03250122,0.052024733,0.069889605,0.035913557,-0.00789797958034545,-0.010368489173194988,1.5925662326806724
8827000,0.011157469,0.025686376,0.032806396,0.051999766,0.06988158,0.034542713,,,
8835000,0.011116051,0.02566969,0.032928467,0.05199083,0.06997078,0.03256491,,,
8843000,0.011078127,0.025667245,0.033050537,0.051182345,0.07096808,0.03131531,-0.0076622146157078975,-0.010675382538770067,1.592738614804226
8851000,0.011044243,0.025677951,0.033172607,0.05125622,0.071265906,0.031028343,-0.007893817413224091,-0.01065234310225473,1.5929518198827812
8867000,0.010999086,0.025745686,0.033355713,0.051410865,0.07302045,0.029396921,,,
8875000,0.010989643,0.025795076,0.033447266,0.05229857,0.07292969,0.028765865,,,
8883000,0.010993613,0.025855664,0.03353882,0.052990966,0.07408379,0.027750619,-0.008356407787801688,-0.010705079455943884,1.5939705576808894
8891000,0.01100644,0.025936546,0.03363037,0.052814715,0.0754147,0.02758884,-0.008405659494574757,-0.010978258942031789,1.5940343030100406
8907000,0.011064915,0.026112795,0.033813477,0.05368659,0.07276695,0.027751487,,,
8915000,0.011106043,0.026197443,0.033935547,0.05400242,0.072168514,0.027934903,,,
8923000,0.011155658,0.026288606,0.034057617,0.053559694,0.07228112,0.028022781,-0.008291378774572158,-0.0112778690649848,1.5941276314574073
8931000,0.011206157,0.02639083,0.034179688,0.053150985,0.073004335,0.029675484,-0.008047854330082978,-0.011101780332043612,1.594235629020391
8947000,0.011322824,0.026623853,0.034454346,0.051944654,0.07267709,0.031222459,,,
8955000,0.011377721,0.026758106,0.034606934,0.05114285,0.07441653,0.030592889,,,
8963000,0.011436195,0.026912455,0.03475952,0.051400963,0.07581796,0.030318009,-0.007930795651992263,-0.011227562353781686,1.5941224926242794
8971000,0.011504986,0.027084226,0.03491211,0.051683426,0.07675881,0.030599197,-0.00787735128246293,-0.011153122667550664,1.594115079564779
8987000,0.011674812,0.027455196,0.035217285,0.052892826,0.07720178,0.030477399,,,
8995000,0.011772383,0.02766051,0.035369873,0.05264384,0.07834002,0.030744437,,,
9003000,0.011875292,0.027874103,0.03552246,0.052744057,0.07775694,0.030727522,-0.008221270538933463,-0.011138467396545405,1.5937192887929188
9011000,0.011981995,0.028095953,0.035705566,0.051761683,0.07842896,0.02929452,-0.008247193185755841,-0.011204778907868933,1.5938889976179944
9027000,0.012183838,0.02858012,0.036010742,0.0510862,0.08093869,0.029868687,,,
9035000,0.0122917,0.028846297,0.03616333,0.051233307,0.08116753,0.029744407,,,
9043000,0.012412646,0.029118262,0.036346436,0.052383818,0.08117478,0.02922426,-0.008571182417657811,-0.011191685554167545,1.594073471723221
9051000,0.012539685,0.029398846,0.036499023,0.051193606,0.0814563,0.02890692,-0.008489979015124674,-0.011074857866648318,1.5941439137923306
9067000,0.012790184,0.029988002,0.0368042,0.0496025,0.08295756,0.028779995,,,
9075000,0.012916809,0.030305136,0.036956787,0.050044253,0.084089205,0.030738283,,,
9083000,0.013051142,0.030629428,0.037139893,0.050665617,0.084914014,0.03217348,-0.008490239632108135,-0.010993415268877515,1.594760419335303
9091000,0.013193407,0.030965736,0.037353516,0.050782096,0.08555655,0.032789003,-0.00847375871245516,-0.010867251707715556,1.5947829233251094
9107000,0.012573751,0.03044022,0.03729248,0.05091634,0.08542902,0.032519624,,,
9115000,0.01228676,0.030201694,0.03729248,0.05183212,0.08548487,0.033525746,,,
9123000,0.012018724,0.029981526,0.03729248,0.05198872,0.08566436,0.03248597,-0.007796633257382253,-0.011425406585912606,1.595095634507425
9131000,0.011763735,0.029780792,0.037322998,0.052118238,0.08609507,0.031418636,-0.007772872078080043,-0.01129956188126899,1.5951739470236999
9147000,0.011317084,0.029424034,0.037322998,0.053554427,0.084781155,0.030872183,,,
9155000,0.011108037,0.029260546,0.037353516,0.05265295,0.08340601,0.030364756,,,
9163000,0.010907619,0.029105444,0.037353516,0.052592278,0.08332845,0.030174004,-0.008366850104572074,-0.01113642301670025,1.595727593303899
9171000,0.010717907,0.02896586,0.037384033,0.052232604,0.08317859,0.03066298,-0.008281785613667169,-0.010907122127406145,1.5955040476896882
9187000,0.010371822,0.028720153,0.03744507,0.05209731,0.08182138,0.03321378,,,
9195000,0.0102124,0.02860261,0.037475586,0.051718786,0.079875045,0.033489563,,,
9203000,0.010062991,0.028482372,0.03753662,0.05187882,0.07791103,0.032747492,-0.008224321712950754,-0.011207988446990782,1.5960048778345557
9211000,0.009924613,0.02836921,0.037597656,0.05190598,0.07844411,0.032490395,-0.0080058725251129,-0.011295108943879046,1.5959141495588043
9227000,0.009687753,0.028193768,0.03768921,0.053300966,0.0784598,0.03178541,,,
9235000,0.009591338,0.028119551,0.03778076,0.053988386,0.07857446,0.032108717,,,
9243000,0.009509812,0.02806121,0.037841797,0.054358587,0.07900974,0.031214554,-0.008236464465662735,-0.011662083529247087,1.5955834445320893
9251000,0.009439113,0.028008811,0.03793335,0.054751754,0.07750478,0.030582132,-0.00817913440845585,-0.011696977909476061,1.5955923978666524
9267000,0.009328303,0.027933788,0.038116455,0.054413874,0.07796573,0.031114165,,,
9275000,0.009287041,0.027913226,0.03817749,0.054762684,0.07817827,0.029502772,,,
9283000,0.009253496,0.027909098,0.038269043,0.053972147,0.07924484,0.027281746,-0.007880716210457944,-0.011391398991695714,1.5960125638964862
9291000,0.009222345,0.027925568,0.038330078,0.05352842,0.08020623,0.02700851,-0.007711302921286377,-0.011382872180708667,1.596007431680573
9307000,0.009179702,0.027975766,0.03845215,0.053441513,0.07744551,0.026046077,,,
9315000,0.009175957,0.027999446,0.0385437,0.054568052,0.07637553,0.027701484,,,
9323000,0.009189943,0.028025856,0.038635254,0.055467315,0.07564035,0.02928421,-0.007941839571749853,-0.011219178991291948,1.5959924802229668
9331000,0.009215197,0.0280625,0.038726807,0.055633217,0.07576584,0.029670835,-0.007862897536042185,-0.011486438296392343,1.5959552296608501
9347000,0.009297225,0.028149178,0.038970947,0.055456977,0.07389606,0.031536635,,,
9355000,0.009345297,0.02820238,0.039093018,0.05534537,0.07447854,0.03148164,,,
9363000,0.009407522,0.02827526,0.039245605,0.05620278,0.076074354,0.031518955,-0.007902181174624729,-0.011683728940531418,1.5956988913326586
9371000,0.009474917,0.02836501,0.039367676,0.055939313,0.07607702,0.030103376,-0.00779511084321043,-0.011729603446049158,1.5956950879455973
9387000,0.009640342,0.028561024,0.03967285,0.056109395,0.075456165,0.029634848,,,
9395000,0.009734392,0.028674139,0.039794922,0.056492385,0.075750686,0.028854042,,,
9403000,0.009839814,0.028799243,0.03994751,0.057067804,0.07579947,0.029792134,-0.0075282201386660955,-0.01207687725949955,1.5959598177752403
9411000,0.009953699,0.028934728,0.040100098,0.056786697,0.07606345,0.030258631,-0.007403928701383818,-0.012072054519652263,1.5956608439487887
9427000,0.010203135,0.029234195,0.040374756,0.056426667,0.07555953,0.030591924,,,
9435000,0.010337683,0.029391898,0.040527344,0.05720686,0.07475951,0.030473694,,,
9443000,0.010478859,0.029547114,0.040649414,0.057965625,0.07353671,0.029039333,-0.007559257049839324,-0.012048801429147769,1.5958979122674706
9451000,0.01062832,0.029707374,0.040771484,0.057457574,0.07351333,0.02868945,-0.007424488084212627,-0.011854517389256698,1.5958766308823995
9467000,0.01092826,0.030052159,0.041046143,0.05504129,0.07292784,0.027627954,,,
9475000,0.011072543,0.03023462,0.041168213,0.054350186,0.073668435,0.027213058,,,
9483000,0.011224648,0.030432386,0.041290283,0.055198982,0.07436441,0.027326621,-0.007052095501422263,-0.011619124296278448,1.5957713767421853
9491000,0.011392536,0.030643102,0.041412354,0.056356065,0.074852705,0.027262175,-0.007012729006023497,-0.011771807379582423,1.5957306378959557
9507000,0.010755066,0.029777227,0.041107178,0.05763699,0.07319606,0.026526975,,,
9515000,0.010452793,0.02936855,0.04095459,0.055860613,0.07271029,0.025485545,,,
9523000,0.010154937,0.028978162,0.04083252,0.054570448,0.07323496,0.02498618,-0.006873819815500372,-0.011589948652176682,1.5958116745016075
9531000,0.009861949,0.028608268,0.04067993,0.053708848,0.07270403,0.0236921,-0.006774986505702358,-0.011193411402998432,1.5960199018854904
9547000,0.009321508,0.027901392,0.040405273,0.053378806,0.0706744,0.023726359,,,
9555000,0.00906358,0.027564595,0.04031372,0.05241819,0.06975207,0.024172945,,,
9563000,0.008816689,0.02723418,0.04019165,0.052134577,0.06814161,0.024136748,-0.006140461467204674,-0.010895764905083403,1.5964659513934054
9571000,0.008573468,0.026911732,0.040100098,0.05051783,0.06761866,0.023768766,-0.006339513375285796,-0.010746575988864105,1.596368475257139
9587000,0.008116299,0.026326556,0.03994751,0.050708506,0.069040224,0.024438044,,,
9595000,0.007903677,0.02606314,0.039855957,0.049871974,0.06859532,0.024585236,,,
9603000,0.0076908595,0.025816774,0.039794922,0.048237108,0.06990637,0.0244152,-0.0065253459231429355,-0.010819757052120016,1.5961730385292665
9611000,0.007482289,0.025595877,0.039733887,0.0476189,0.07052157,0.023423856,-0.006354355296382575,-0.010775861260235662,1.596089073813503
9627000,0.0070902114,0.025187647,0.039611816,0.04701832,0.069219254,0.024351628,,,
9635000,0.0068994667,0.024999453,0.0395813,0.04465076,0.069382474,0.024078324,,,
9643000,0.0067012534,0.024829334,0.039520264,0.042869247,0.07011007,0.025604106,-0.006951887681040854,-0.010676612886006067,1.5959719370558765
9651000,0.0065046144,0.02467193,0.039489746,0.042251788,0.06921165,0.025691483,-0.0068626649953443504,-0.010556660160176291,1.596029147067175
9667000,0.0061381757,0.024394188,0.03945923,0.042703956,0.07043268,0.02489537,,,
9675000,0.0059731514,0.024281245,0.03942871,0.043312076,0.0709025,0.02447438,,,
9683000,0.005828426,0.024180105,0.03942871,0.044592816,0.07019163,0.025989743,-0.006680024361883447,-0.010694910693969498,1.5966914065565996
9691000,0.0056947637,0.02408632,0.03945923,0.04400732,0.069752365,0.02641193,-0.006734484985727207,-0.01083609061360738,1.596757275220393
9707000,0.005449251,0.02392631,0.039489746,0.04260367,0.06956996,0.024967877,,,
9715000,0.005328542,0.023865866,0.039489746,0.042320836,0.06928795,0.025177108,,,
9723000,0.005222026,0.023810731,0.039520264,0.04315101,0.068569265,0.027114803,-0.006114333784741574,-0.010759395453910291,1.5967745480058075
9731000,0.005124831,0.02377032,0.03955078,0.043357775,0.069560476,0.027245395,-0.0061566901249108024,-0.01065038162564739,1.5967655742072449
9747000,0.0049589,0.023725918,0.039642334,0.043539498,0.069394395,0.026868196,,,
9755000,0.0048919166,0.023723142,0.03970337,0.043715786,0.06969606,0.026661444,,,
9763000,0.0048356676,0.023736363,0.039733887,0.044033527,0.070572324,0.02685186,-0.006088244980443195,-0.01060188305846272,1.5971480170736168
9771000,0.0047937897,0.023764526,0.039794922,0.04531945,0.07052318,0.026637835,-0.005973796969178307,-0.010550653726398372,1.5971912947077451
9787000,0.004743912,0.023843678,0.03994751,0.04467392,0.06959586,0.028368132,,,
9795000,0.004729918,0.023896465,0.040008545,0.045128223,0.06985128,0.028125336,,,
9803000,0.00473127,0.023954302,0.04006958,0.04579677,0.06922928,0.029215302,-0.00554130115378971,-0.010393387561144241,1.5975915968848393
9811000,0.004740586,0.024016002,0.040130615,0.045445178,0.06835144,0.028948462,-0.005413233599689465,-0.01036023814334746,1.597737917831853
9827000,0.004777193,0.024136791,0.040252686,0.045463398,0.06496295,0.028805463,,,
9835000,0.0048130243,0.024190225,0.04031372,0.04597861,0.0630775,0.02832799,,,
9843000,0.0048578517,0.024243638,0.040374756,0.046218753,0.062845044,0.02796432,-0.005448393405448539,-0.010474629389004323,1.5982823725302275
9851000,0.004915236,0.024310099,0.04043579,0.046914544,0.06323508,0.026663387,-0.005427492239385339,-0.010344512850351994,1.5982805456545628
