timestamp,timestamp_sample,baro_device_id,baro_alt_meter,baro_pressure_pa,ambient_temperature,rho,temperature_source,calibration_count
2043284000,2043260000,6620172,487.99014,95599.29,15.0,1.1555876,0,2
2043356000,2043332000,6620172,487.89624,95600.375,15.0,1.1556007,0,2
2043428000,2043404000,6620172,487.95728,95599.69,15.0,1.1555923,0,2
2043496000,2043474666,6620172,487.94318,95599.875,15.0,1.1555946,0,2
2043548000,2043536000,6620172,487.87744,95600.63,15.0,1.1556038,0,2
2043620000,2043596000,6620172,487.9291,95599.99,15.0,1.155596,0,2
2043692000,2043666666,6620172,487.9103,95600.23,15.0,1.1555989,0,2
2043760000,2043737333,6620172,487.97134,95599.52,15.0,1.1555904,0,2
2043812000,2043800000,6620172,487.97604,95599.43,15.0,1.1555892,0,2
2043884000,2043860000,6620172,487.9244,95600.04,15.0,1.1555965,0,2
2043956000,2043932000,6620172,487.94318,95599.875,15.0,1.1555946,0,2
2044028000,2044002666,6620172,487.97134,95599.53,15.0,1.1555904,0,2
2044100000,2044076000,6620172,487.89624,95600.375,15.0,1.1556007,0,2
2044172000,2044148000,6620172,487.8258,95601.16,15.0,1.1556101,0,2
2044244000,2044218666,6620172,487.9056,95600.29,15.0,1.1555996,0,2
2044316000,2044290666,6620172,487.96664,95599.586,15.0,1.1555911,0,2
2044384000,2044362666,6620172,487.9103,95600.21,15.0,1.1555986,0,2
2044436000,2044424000,6620172,487.86807,95600.72,15.0,1.1556048,0,2
2044508000,2044482666,6620172,487.86337,95600.77,15.0,1.1556054,0,2
2044580000,2044556000,6620172,487.8258,95601.164,15.0,1.1556102,0,2
2044652000,2044628000,6620172,487.89624,95600.375,15.0,1.1556007,0,2
2044724000,2044700000,6620172,487.84927,95600.9,15.0,1.155607,0,2
2044796000,2044772000,6620172,487.9291,95599.99,15.0,1.155596,0,2
2044868000,2044844000,6620172,487.85867,95600.805,15.0,1.1556059,0,2
2044940000,2044916000,6620172,487.98074,95599.41,15.0,1.1555889,0,2
2045012000,2044985333,6620172,487.94788,95599.81,15.0,1.1555939,0,2
2045084000,2045060000,6620172,487.8258,95601.16,15.0,1.1556101,0,2
2045156000,2045132000,6620172,487.9056,95600.25,15.0,1.1555991,0,2
2045228000,2045204000,6620172,487.90094,95600.336,15.0,1.1556002,0,2
2045300000,2045276000,6620172,487.8305,95601.125,15.0,1.1556097,0,2
2045372000,2045346666,6620172,487.84927,95600.88,15.0,1.1556069,0,2
2045444000,2045420000,6620172,487.90094,95600.31,15.0,1.1556,0,2
2045516000,2045492000,6620172,487.9338,95599.94,15.0,1.1555954,0,2
2045588000,2045564000,6620172,487.89154,95600.44,15.0,1.1556014,0,2
2045660000,2045636000,6620172,487.80704,95601.375,15.0,1.1556127,0,2
2045728000,2045706666,6620172,487.85397,95600.85,15.0,1.1556064,0,2
2045780000,2045768000,6620172,487.8305,95601.125,15.0,1.1556097,0,2
2045852000,2045828000,6620172,487.99014,95599.31,15.0,1.1555878,0,2
2045924000,2045900000,6620172,487.9056,95600.27,15.0,1.1555994,0,2
2045992000,2045968000,6620172,487.89154,95600.41,15.0,1.155601,0,2
2046044000,2046032000,6620172,487.94318,95599.86,15.0,1.1555945,0,2
2046112000,2046090666,6620172,487.88214,95600.57,15.0,1.155603,0,2
2046164000,2046150000,6620172,487.80704,95601.41,15.0,1.1556131,0,2
2046236000,2046212000,6620172,487.85397,95600.85,15.0,1.1556064,0,2
2046308000,2046281333,6620172,487.9056,95600.28,15.0,1.1555995,0,2
2046380000,2046356000,6620172,487.86337,95600.76,15.0,1.1556052,0,2
2046452000,2046428000,6620172,487.90094,95600.336,15.0,1.1556002,0,2
2046524000,2046500000,6620172,487.76477,95601.875,15.0,1.1556188,0,2
2046596000,2046572000,6620172,487.95728,95599.69,15.0,1.1555923,0,2
2046668000,2046644000,6620172,487.90094,95600.336,15.0,1.1556002,0,2
2046740000,2046716000,6620172,487.9197,95600.1,15.0,1.1555974,0,2
2046812000,2046788000,6620172,487.87744,95600.586,15.0,1.1556032,0,2
2046884000,2046858666,6620172,487.86337,95600.73,15.0,1.155605,0,2
2046956000,2046932000,6620172,487.95258,95599.75,15.0,1.155593,0,2
2047028000,2047004000,6620172,487.88684,95600.46,15.0,1.1556017,0,2
2047100000,2047076000,6620172,487.8399,95601.01,15.0,1.1556083,0,2
2047172000,2047148000,6620172,487.89624,95600.375,15.0,1.1556007,0,2
2047244000,2047220000,6620172,487.8352,95601.1,15.0,1.1556095,0,2
2047316000,2047292000,6620172,487.99484,95599.27,15.0,1.1555873,0,2
2047388000,2047364000,6620172,487.90094,95600.336,15.0,1.1556002,0,2
2047460000,2047434666,6620172,487.9291,95600.01,15.0,1.1555963,0,2
2047532000,2047508000,6620172,487.87277,95600.65,15.0,1.155604,0,2
2047604000,2047580000,6620172,487.98544,95599.37,15.0,1.1555885,0,2
2047676000,2047652000,6620172,487.9103,95600.23,15.0,1.1555989,0,2
2047748000,2047724000,6620172,487.9103,95600.195,15.0,1.1555984,0,2
2047820000,2047796000,6620172,487.86807,95600.68,15.0,1.1556044,0,2
2047892000,2047868000,6620172,487.915,95600.164,15.0,1.1555982,0,2
2047964000,2047938666,6620172,487.86337,95600.74,15.0,1.1556051,0,2
2048036000,2048012000,6620172,487.9338,95599.96,15.0,1.1555957,0,2
2048108000,2048084000,6620172,487.96198,95599.62,15.0,1.1555915,0,2
2048180000,2048154666,6620172,487.86337,95600.73,15.0,1.155605,0,2
2048252000,2048228000,6620172,487.90094,95600.35,15.0,1.1556003,0,2
2048324000,2048300000,6620172,487.85867,95600.805,15.0,1.1556059,0,2
2048396000,2048372000,6620172,487.9056,95600.25,15.0,1.1555991,0,2
2048468000,2048444000,6620172,487.9103,95600.19,15.0,1.1555984,0,2
2048540000,2048516000,6620172,488.03708,95598.77,15.0,1.1555814,0,2
2048612000,2048588000,6620172,488.07465,95598.32,15.0,1.1555758,0,2
2048684000,2048660000,6620172,487.9995,95599.21,15.0,1.1555866,0,2
2048756000,2048732000,6620172,488.14975,95597.47,15.0,1.1555655,0,2
2048824000,2048802666,6620172,488.1122,95597.9,15.0,1.1555707,0,2
2048876000,2048864000,6620172,488.12628,95597.75,15.0,1.155569,0,2
2048948000,2048924000,6620172,488.15915,95597.35,15.0,1.1555642,0,2
2049020000,2048994666,6620172,488.16385,95597.28,15.0,1.1555632,0,2
2049092000,2049068000,6620172,488.29062,95595.87,15.0,1.1555462,0,2
2049164000,2049140000,6620172,488.37512,95594.9,15.0,1.1555345,0,2
2049236000,2049210666,6620172,488.44556,95594.1,15.0,1.1555248,0,2
2049308000,2049284000,6620172,488.51596,95593.28,15.0,1.1555148,0,2
2049380000,2049354666,6620172,488.52066,95593.22,15.0,1.1555141,0,2
2049452000,2049426666,6620172,488.55353,95592.875,15.0,1.1555101,0,2
2049524000,2049500000,6620172,488.53476,95593.055,15.0,1.1555121,0,2
2049596000,2049570666,6620172,488.65213,95591.73,15.0,1.1554961,0,2
2049664000,2049642666,6620172,488.6803,95591.414,15.0,1.1554923,0,2
2049716000,2049704000,6620172,488.74133,95590.69,15.0,1.1554835,0,2
2049788000,2049764000,6620172,488.80237,95590.02,15.0,1.1554755,0,2
2049856000,2049833333,6620172,488.91504,95588.695,15.0,1.1554595,0,2
2049908000,2049896000,6620172,488.93854,95588.45,15.0,1.1554565,0,2
2049980000,2049956000,6620172,489.0559,95587.13,15.0,1.1554406,0,2
2050052000,2050028000,6620172,488.99017,95587.84,15.0,1.1554493,0,2
2050124000,2050100000,6620172,489.07938,95586.836,15.0,1.155437,0,2
2050192000,2050170666,6620172,489.0559,95587.09,15.0,1.1554401,0,2
2050244000,2050232000,6620172,489.25308,95584.84,15.0,1.1554129,0,2
2050316000,2050290666,6620172,489.21555,95585.24,15.0,1.1554178,0,2
2050388000,2050362666,6620172,489.27188,95584.63,15.0,1.1554104,0,2
2050460000,2050436000,6620172,489.37045,95583.48,15.0,1.1553963,0,2
2050532000,2050508000,6620172,489.41272,95583.03,15.0,1.155391,0,2
2050604000,2050578666,6620172,489.50192,95581.98,15.0,1.1553782,0,2
2050676000,2050652000,6620172,489.57236,95581.15,15.0,1.1553682,0,2
2050748000,2050724000,6620172,489.6146,95580.68,15.0,1.1553626,0,2
2050820000,2050794666,6620172,489.70383,95579.69,15.0,1.1553507,0,2
2050892000,2050866666,6620172,489.67563,95580.01,15.0,1.1553544,0,2
2050960000,2050937333,6620172,489.7977,95578.6,15.0,1.1553375,0,2
2051012000,2051000000,6620172,489.7977,95578.58,15.0,1.1553372,0,2
2051080000,2051058666,6620172,489.8212,95578.31,15.0,1.155334,0,2
2051156000,2051130666,6620172,489.8963,95577.5,15.0,1.1553241,0,2
2051228000,2051204000,6620172,489.96204,95576.73,15.0,1.1553148,0,2
2051300000,2051276000,6620172,489.97614,95576.54,15.0,1.1553125,0,2
2051372000,2051348000,6620172,490.05594,95575.63,15.0,1.1553016,0,2
2051444000,2051418666,6620172,490.03247,95575.875,15.0,1.1553044,0,2
2051516000,2051492000,6620172,490.13574,95574.75,15.0,1.1552908,0,2
2051588000,2051564000,6620172,490.2578,95573.32,15.0,1.1552737,0,2
2051660000,2051636000,6620172,490.1827,95574.19,15.0,1.1552842,0,2
2051732000,2051708000,6620172,490.178,95574.25,15.0,1.1552849,0,2
2051804000,2051778666,6620172,490.40338,95571.664,15.0,1.1552536,0,2
2051876000,2051850666,6620172,490.31885,95572.625,15.0,1.1552652,0,2
2051948000,2051922666,6620172,490.3658,95572.086,15.0,1.1552587,0,2
2052020000,2051996000,6620172,490.39868,95571.71,15.0,1.1552541,0,2
2052092000,2052066666,6620172,490.39398,95571.78,15.0,1.155255,0,2
2052164000,2052140000,6620172,490.41275,95571.555,15.0,1.1552522,0,2
2052236000,2052210666,6620172,490.3705,95572.0,15.0,1.1552576,0,2
2052308000,2052284000,6620172,490.3752,95571.97,15.0,1.1552573,0,2
2052380000,2052356000,6620172,490.4785,95570.81,15.0,1.1552434,0,2
2052452000,2052428000,6620172,490.40805,95571.586,15.0,1.1552527,0,2
2052524000,2052500000,6620172,490.52075,95570.31,15.0,1.1552373,0,2
2052596000,2052570666,6620172,490.52075,95570.28,15.0,1.1552368,0,2
2052668000,2052644000,6620172,490.44562,95571.164,15.0,1.1552476,0,2
2052740000,2052716000,6620172,490.55362,95569.945,15.0,1.1552329,0,2
2052812000,2052788000,6620172,490.50665,95570.47,15.0,1.1552391,0,2
2052880000,2052858666,6620172,490.53012,95570.24,15.0,1.1552365,0,2
2052932000,2052920000,6620172,490.54892,95570.016,15.0,1.1552337,0,2
2053000000,2052978666,6620172,490.5771,95569.69,15.0,1.1552297,0,2
2053052000,2053040000,6620172,490.60056,95569.375,15.0,1.155226,0,2
2053124000,2053100000,6620172,490.61935,95569.195,15.0,1.1552237,0,2
2053196000,2053172000,6620172,490.62402,95569.09,15.0,1.1552225,0,2
2053268000,2053244000,6620172,490.70856,95568.164,15.0,1.1552112,0,2
2053340000,2053316000,6620172,490.5771,95569.695,15.0,1.1552298,0,2
2053412000,2053388000,6620172,490.6569,95568.76,15.0,1.1552185,0,2
2053484000,2053460000,6620172,490.71323,95568.1,15.0,1.1552105,0,2
2053556000,2053529333,6620172,490.6616,95568.71,15.0,1.1552179,0,2
2053628000,2053604000,6620172,490.69916,95568.27,15.0,1.1552126,0,2
2053700000,2053674666,6620172,490.7696,95567.48,15.0,1.155203,0,2
2053772000,2053748000,6620172,490.7508,95567.65,15.0,1.1552051,0,2
2053840000,2053818666,6620172,490.7508,95567.68,15.0,1.1552054,0,2
2053892000,2053880000,6620172,490.71323,95568.09,15.0,1.1552104,0,2
2053964000,2053940000,6620172,490.63342,95569.03,15.0,1.1552217,0,2
2054036000,2054010666,6620172,490.7602,95567.56,15.0,1.155204,0,2
2054108000,2054084000,6620172,490.80246,95567.07,15.0,1.1551981,0,2
2054180000,2054156000,6620172,490.73203,95567.91,15.0,1.1552082,0,2
2054252000,2054228000,6620172,490.70856,95568.15,15.0,1.1552111,0,2
2054324000,2054300000,6620172,490.69916,95568.27,15.0,1.1552126,0,2
2054396000,2054372000,6620172,490.7602,95567.59,15.0,1.1552044,0,2
2054468000,2054444000,6620172,490.7696,95567.46,15.0,1.1552027,0,2
2054540000,2054516000,6620172,490.79306,95567.21,15.0,1.1551998,0,2
2054612000,2054588000,6620172,490.81653,95566.914,15.0,1.1551962,0,2
2054684000,2054660000,6620172,490.7696,95567.46,15.0,1.1552027,0,2
2054756000,2054730666,6620172,490.82593,95566.81,15.0,1.155195,0,2
2054824000,2054802666,6620172,490.7696,95567.47,15.0,1.1552029,0,2
2054876000,2054864000,6620172,490.83063,95566.734,15.0,1.155194,0,2
2054948000,2054922666,6620172,490.73672,95567.84,15.0,1.1552074,0,2
2055020000,2054996000,6620172,490.73203,95567.91,15.0,1.1552082,0,2
2055092000,2055066666,6620172,490.80713,95567.04,15.0,1.1551977,0,2
2055164000,2055138666,6620172,490.91043,95565.875,15.0,1.1551836,0,2
2055236000,2055210666,6620172,490.7696,95567.47,15.0,1.1552029,0,2
2055308000,2055284000,6620172,490.8353,95566.71,15.0,1.1551938,0,2
2055380000,2055354666,6620172,490.84,95566.65,15.0,1.155193,0,2
2055452000,2055426666,6620172,490.87286,95566.25,15.0,1.1551882,0,2
2055524000,2055500000,6620172,490.87756,95566.195,15.0,1.1551875,0,2
2055596000,2055570666,6620172,490.92453,95565.68,15.0,1.1551813,0,2
2055668000,2055644000,6620172,490.8447,95566.6,15.0,1.1551924,0,2
2055740000,2055716000,6620172,490.7649,95567.53,15.0,1.1552036,0,2
2055812000,2055788000,6620172,490.87756,95566.24,15.0,1.1551881,0,2
2055884000,2055860000,6620172,490.84,95566.65,15.0,1.155193,0,2
2055956000,2055930666,6620172,490.8541,95566.49,15.0,1.1551912,0,2
2056028000,2056004000,6620172,490.92453,95565.69,15.0,1.1551814,0,2
2056100000,2056076000,6620172,490.89166,95566.086,15.0,1.1551862,0,2
2056172000,2056146666,6620172,490.89633,95566.01,15.0,1.1551852,0,2
2056244000,2056220000,6620172,490.8494,95566.53,15.0,1.1551915,0,2
2056316000,2056292000,6620172,490.99963,95564.836,15.0,1.1551712,0,2
2056388000,2056364000,6620172,490.80246,95567.1,15.0,1.1551985,0,2
2056460000,2056434666,6620172,490.89633,95565.99,15.0,1.155185,0,2
2056532000,2056506666,6620172,490.9339,95565.57,15.0,1.1551799,0,2
2056604000,2056578666,6620172,490.8635,95566.375,15.0,1.1551896,0,2
2056676000,2056650666,6620172,490.87286,95566.29,15.0,1.1551886,0,2
2056744000,2056721333,6620172,490.84,95566.66,15.0,1.1551931,0,2
2056820000,2056794666,6620172,490.83063,95566.75,15.0,1.1551942,0,2
2056888000,2056866666,6620172,490.9292,95565.66,15.0,1.1551809,0,2
2056940000,2056928000,6620172,490.87756,95566.19,15.0,1.1551874,0,2
2057012000,2056988000,6620172,490.91983,95565.73,15.0,1.1551818,0,2
2057084000,2057060000,6620172,490.87286,95566.27,15.0,1.1551884,0,2
2057156000,2057130666,6620172,490.89633,95566.02,15.0,1.1551855,0,2
2057228000,2057204000,6620172,491.0184,95564.586,15.0,1.155168,0,2
2057300000,2057274666,6620172,490.78366,95567.305,15.0,1.1552008,0,2
2057368000,2057346666,6620172,490.86816,95566.34,15.0,1.1551893,0,2
2057420000,2057406000,6620172,490.91513,95565.8,15.0,1.1551826,0,2
2057492000,2057468000,6620172,490.91513,95565.81,15.0,1.1551828,0,2
2057564000,2057540000,6620172,491.0325,95564.43,15.0,1.1551661,0,2
2057636000,2057610666,6620172,490.90573,95565.91,15.0,1.155184,0,2
2057708000,2057682666,6620172,490.90103,95565.96,15.0,1.1551846,0,2
2057780000,2057756000,6620172,490.8541,95566.5,15.0,1.1551912,0,2
2057852000,2057828000,6620172,490.91513,95565.81,15.0,1.1551828,0,2
2057924000,2057898666,6620172,490.9433,95565.44,15.0,1.1551783,0,2
2057996000,2057972000,6620172,490.9386,95565.54,15.0,1.1551796,0,2
2058068000,2058044000,6620172,490.98087,95565.02,15.0,1.1551733,0,2
2058136000,2058114666,6620172,490.98087,95565.01,15.0,1.1551732,0,2
2058188000,2058176000,6620172,490.97147,95565.18,15.0,1.1551752,0,2
2058260000,2058236000,6620172,490.91043,95565.836,15.0,1.1551832,0,2
2058332000,2058306666,6620172,490.91513,95565.79,15.0,1.1551826,0,2
2058404000,2058380000,6620172,490.97617,95565.1,15.0,1.1551743,0,2
2058476000,2058452000,6620172,491.0325,95564.44,15.0,1.1551663,0,2
2058548000,2058524000,6620172,490.89633,95566.03,15.0,1.1551855,0,2
2058616000,2058594666,6620172,490.91983,95565.75,15.0,1.1551821,0,2
2058688000,2058665333,6620172,490.8353,95566.71,15.0,1.1551938,0,2
2058764000,2058738666,6620172,490.91043,95565.88,15.0,1.1551837,0,2
2058836000,2058812000,6620172,490.92453,95565.69,15.0,1.1551814,0,2
2058908000,2058882666,6620172,490.9527,95565.375,15.0,1.1551776,0,2
2058980000,2058956000,6620172,490.9292,95565.65,15.0,1.1551808,0,2
2059052000,2059026666,6620172,490.9527,95565.38,15.0,1.1551777,0,2
2059120000,2059098666,6620172,490.82593,95566.84,15.0,1.1551954,0,2
2059172000,2059160000,6620172,490.90103,95565.945,15.0,1.1551845,0,2
2059244000,2059220000,6620172,491.0325,95564.48,15.0,1.1551667,0,2
2059312000,2059290666,6620172,490.91043,95565.875,15.0,1.1551836,0,2
2059364000,2059352000,6620172,490.98557,95564.99,15.0,1.155173,0,2
2059432000,2059410666,6620172,490.87286,95566.29,15.0,1.1551886,0,2
2059508000,2059482666,6620172,490.91043,95565.87,15.0,1.1551836,0,2
2059580000,2059556000,6620172,490.99023,95564.94,15.0,1.1551722,0,2
2059648000,2059626666,6620172,490.88226,95566.164,15.0,1.1551871,0,2
2059720000,2059697333,6620172,490.8541,95566.48,15.0,1.155191,0,2
2059772000,2059760000,6620172,490.80246,95567.06,15.0,1.155198,0,2
2059844000,2059820000,6620172,490.87756,95566.24,15.0,1.1551881,0,2
2059916000,2059892000,6620172,490.87286,95566.29,15.0,1.1551886,0,2
2059988000,2059962666,6620172,490.8635,95566.37,15.0,1.1551895,0,2
2060060000,2060036000,6620172,490.88226,95566.18,15.0,1.1551874,0,2
2060132000,2060108000,6620172,490.9292,95565.625,15.0,1.1551807,0,2
2060204000,2060180000,6620172,490.80713,95567.04,15.0,1.1551977,0,2
2060276000,2060252000,6620172,490.78836,95567.27,15.0,1.1552006,0,2
2060348000,2060324000,6620172,490.88696,95566.15,15.0,1.1551869,0,2
2060420000,2060394666,6620172,490.92453,95565.695,15.0,1.1551815,0,2
2060492000,2060468000,6620172,490.89166,95566.09,15.0,1.1551863,0,2
2060564000,2060538666,6620172,490.89633,95566.0,15.0,1.1551851,0,2
2060636000,2060612000,6620172,490.86816,95566.34,15.0,1.1551893,0,2
2060708000,2060682666,6620172,490.80713,95567.055,15.0,1.1551979,0,2
2060780000,2060754666,6620172,490.9292,95565.664,15.0,1.155181,0,2
2060852000,2060828000,6620172,490.90573,95565.91,15.0,1.155184,0,2
2060924000,2060900000,6620172,490.89633,95566.0,15.0,1.1551851,0,2
2060996000,2060970666,6620172,490.90573,95565.9,15.0,1.1551839,0,2
2061064000,2061042666,6620172,490.81653,95566.93,15.0,1.1551963,0,2
2061116000,2061104000,6620172,490.82123,95566.86,15.0,1.1551955,0,2
2061188000,2061164000,6620172,490.89166,95566.055,15.0,1.1551858,0,2
2061260000,2061233333,6620172,490.90103,95565.914,15.0,1.1551841,0,2
2061332000,2061308000,6620172,490.82123,95566.875,15.0,1.1551957,0,2
2061404000,2061380000,6620172,490.86816,95566.35,15.0,1.1551894,0,2
2061476000,2061452000,6620172,490.86816,95566.336,15.0,1.1551893,0,2
2061548000,2061524000,6620172,490.92453,95565.68,15.0,1.1551813,0,2
2061620000,2061596000,6620172,490.91043,95565.85,15.0,1.1551833,0,2
2061692000,2061668000,6620172,490.82593,95566.836,15.0,1.1551952,0,2
2061760000,2061738666,6620172,490.90573,95565.91,15.0,1.155184,0,2
2061812000,2061800000,6620172,490.8635,95566.39,15.0,1.1551899,0,2
2061880000,2061858666,6620172,490.89166,95566.086,15.0,1.1551862,0,2
2061932000,2061920000,6620172,490.948,95565.43,15.0,1.1551782,0,2
2062004000,2061980000,6620172,490.81653,95566.88,15.0,1.1551958,0,2
2062076000,2062052000,6620172,490.88226,95566.18,15.0,1.1551874,0,2
2062148000,2062124000,6620172,490.88226,95566.164,15.0,1.1551871,0,2
2062216000,2062194666,6620172,490.9339,95565.555,15.0,1.1551797,0,2
2062268000,2062256000,6620172,490.9433,95565.47,15.0,1.1551788,0,2
2062340000,2062316000,6620172,490.91513,95565.79,15.0,1.1551826,0,2
2062412000,2062386666,6620172,490.81653,95566.88,15.0,1.1551958,0,2
2062484000,2062458666,6620172,490.87286,95566.29,15.0,1.1551886,0,2
2062556000,2062532000,6620172,490.88696,95566.15,15.0,1.1551869,0,2
2062628000,2062604000,6620172,490.80246,95567.086,15.0,1.1551982,0,2
2062700000,2062676000,6620172,490.88696,95566.12,15.0,1.1551865,0,2
2062772000,2062748000,6620172,490.8353,95566.69,15.0,1.1551934,0,2
2062844000,2062820000,6620172,490.9339,95565.56,15.0,1.1551797,0,2
2062912000,2062889333,6620172,490.78836,95567.26,15.0,1.1552004,0,2
2062964000,2062952000,6620172,490.9433,95565.45,15.0,1.1551785,0,2
2063036000,2063012000,6620172,490.88696,95566.15,15.0,1.1551869,0,2
2063108000,2063082666,6620172,490.91513,95565.82,15.0,1.155183,0,2
2063180000,2063156000,6620172,490.86816,95566.35,15.0,1.1551894,0,2
2063252000,2063228000,6620172,490.81183,95566.96,15.0,1.1551968,0,2
2063324000,2063300000,6620172,490.84,95566.664,15.0,1.1551931,0,2
2063396000,2063372000,6620172,490.86816,95566.336,15.0,1.1551893,0,2
2063468000,2063444000,6620172,490.8588,95566.41,15.0,1.1551901,0,2
2063536000,2063514666,6620172,490.83063,95566.77,15.0,1.1551945,0,2
2063588000,2063576000,6620172,490.948,95565.43,15.0,1.1551782,0,2
2063660000,2063634666,6620172,490.7555,95567.625,15.0,1.1552048,0,2
2063732000,2063708000,6620172,490.83063,95566.75,15.0,1.1551942,0,2
2063804000,2063778666,6620172,490.87756,95566.195,15.0,1.1551875,0,2
2063876000,2063850666,6620172,490.8494,95566.57,15.0,1.155192,0,2
2063948000,2063924000,6620172,490.91983,95565.72,15.0,1.1551816,0,2
2064020000,2063996000,6620172,490.91043,95565.84,15.0,1.1551833,0,2
2064092000,2064068000,6620172,490.8541,95566.51,15.0,1.1551912,0,2
2064160000,2064138666,6620172,490.9386,95565.49,15.0,1.1551789,0,2
2064212000,2064200000,6620172,490.82123,95566.875,15.0,1.1551957,0,2
2064284000,2064260000,6620172,490.8635,95566.375,15.0,1.1551896,0,2
2064356000,2064332000,6620172,490.87756,95566.23,15.0,1.1551878,0,2
2064428000,2064402666,6620172,490.8494,95566.57,15.0,1.155192,0,2
2064500000,2064476000,6620172,490.97617,95565.086,15.0,1.1551741,0,2
2064572000,2064545333,6620172,490.8588,95566.44,15.0,1.1551903,0,2
2064644000,2064618666,6620172,490.84,95566.65,15.0,1.155193,0,2
2064716000,2064692000,6620172,490.86816,95566.31,15.0,1.1551889,0,2
2064788000,2064764000,6620172,490.9292,95565.65,15.0,1.1551808,0,2
2064860000,2064836000,6620172,490.87286,95566.27,15.0,1.1551884,0,2
2064928000,2064906666,6620172,490.82593,95566.79,15.0,1.1551946,0,2
2064980000,2064968000,6620172,490.9292,95565.65,15.0,1.1551808,0,2
2065052000,2065028000,6620172,490.89633,95566.02,15.0,1.1551855,0,2
2065124000,2065100000,6620172,490.88696,95566.1,15.0,1.1551864,0,2
2065192000,2065170666,6620172,490.82593,95566.79,15.0,1.1551946,0,2
2065244000,2065232000,6620172,490.74142,95567.81,15.0,1.155207,0,2
2065316000,2065292000,6620172,490.98557,95564.98,15.0,1.1551728,0,2
2065388000,2065362666,6620172,490.97147,95565.18,15.0,1.1551752,0,2
2065456000,2065434666,6620172,490.90573,95565.91,15.0,1.155184,0,2
2065508000,2065496000,6620172,490.96677,95565.21,15.0,1.1551756,0,2
2065580000,2065554666,6620172,490.8541,95566.47,15.0,1.1551908,0,2
2065652000,2065628000,6620172,490.91513,95565.79,15.0,1.1551826,0,2
2065724000,2065698666,6620172,490.87286,95566.305,15.0,1.1551888,0,2
2065796000,2065772000,6620172,490.8588,95566.44,15.0,1.1551903,0,2
2065868000,2065844000,6620172,490.9339,95565.6,15.0,1.1551803,0,2
2065940000,2065916000,6620172,490.89166,95566.09,15.0,1.1551863,0,2
2066012000,2065988000,6620172,490.90103,95565.94,15.0,1.1551844,0,2
2066084000,2066060000,6620172,490.9433,95565.47,15.0,1.1551788,0,2
2066156000,2066132000,6620172,490.96207,95565.26,15.0,1.1551762,0,2
2066228000,2066204000,6620172,490.97617,95565.086,15.0,1.1551741,0,2
2066300000,2066276000,6620172,490.9386,95565.49,15.0,1.1551789,0,2
2066372000,2066348000,6620172,490.91043,95565.836,15.0,1.1551832,0,2
2066440000,2066418666,6620172,490.86816,95566.31,15.0,1.1551889,0,2
2066492000,2066480000,6620172,490.83063,95566.766,15.0,1.1551944,0,2
2066564000,2066540000,6620172,490.89166,95566.04,15.0,1.1551856,0,2
2066636000,2066610666,6620172,491.0466,95564.305,15.0,1.1551646,0,2
2066708000,2066684000,6620172,490.9386,95565.51,15.0,1.1551791,0,2
2066780000,2066756000,6620172,490.8588,95566.414,15.0,1.1551902,0,2
2066852000,2066828000,6620172,490.98087,95565.03,15.0,1.1551734,0,2
2066924000,2066900000,6620172,490.97147,95565.19,15.0,1.1551753,0,2
2066996000,2066970666,6620172,490.88226,95566.18,15.0,1.1551874,0,2
2067068000,2067044000,6620172,490.9292,95565.63,15.0,1.1551807,0,2
2067140000,2067114666,6620172,490.9292,95565.65,15.0,1.1551808,0,2
2067212000,2067186666,6620172,490.91983,95565.72,15.0,1.1551816,0,2
2067284000,2067260000,6620172,490.87286,95566.305,15.0,1.1551888,0,2
2067352000,2067330666,6620172,490.99493,95564.875,15.0,1.1551715,0,2
2067404000,2067392000,6620172,490.88696,95566.125,15.0,1.1551867,0,2
2067476000,2067452000,6620172,490.97617,95565.1,15.0,1.1551743,0,2
2067548000,2067524000,6620172,490.8494,95566.57,15.0,1.155192,0,2
2067620000,2067596000,6620172,490.95737,95565.305,15.0,1.1551768,0,2
2067692000,2067668000,6620172,490.90103,95565.97,15.0,1.1551847,0,2
2067764000,2067740000,6620172,490.89633,95565.99,15.0,1.155185,0,2
2067836000,2067812000,6620172,490.80246,95567.07,15.0,1.1551981,0,2
2067908000,2067882666,6620172,490.87756,95566.21,15.0,1.1551876,0,2
2067980000,2067956000,6620172,490.89166,95566.09,15.0,1.1551863,0,2
2068052000,2068026666,6620172,490.82123,95566.875,15.0,1.1551957,0,2
2068124000,2068100000,6620172,490.79306,95567.21,15.0,1.1551998,0,2
2068196000,2068170666,6620172,490.84,95566.65,15.0,1.155193,0,2
2068268000,2068242666,6620172,490.86816,95566.336,15.0,1.1551893,0,2
2068340000,2068314666,6620172,490.86816,95566.336,15.0,1.1551893,0,2
2068412000,2068388000,6620172,490.9292,95565.625,15.0,1.1551807,0,2
2068484000,2068458666,6620172,490.9292,95565.62,15.0,1.1551806,0,2
2068556000,2068532000,6620172,490.8588,95566.4,15.0,1.15519,0,2
2068624000,2068602666,6620172,490.8588,95566.4,15.0,1.15519,0,2
2068676000,2068664000,6620172,490.89633,95566.03,15.0,1.1551855,0,2
2068748000,2068724000,6620172,490.89633,95566.0,15.0,1.1551851,0,2
2068820000,2068794666,6620172,490.948,95565.43,15.0,1.1551782,0,2
2068892000,2068868000,6620172,490.86816,95566.32,15.0,1.155189,0,2
2068964000,2068940000,6620172,490.8494,95566.54,15.0,1.1551917,0,2
2069032000,2069010666,6620172,490.90573,95565.91,15.0,1.155184,0,2
2069084000,2069072000,6620172,490.8353,95566.695,15.0,1.1551936,0,2
2069156000,2069132000,6620172,490.9386,95565.49,15.0,1.1551789,0,2
2069228000,2069202666,6620172,490.90573,95565.9,15.0,1.1551839,0,2
2069300000,2069276000,6620172,490.98087,95565.02,15.0,1.1551733,0,2
2069372000,2069346666,6620172,490.86816,95566.31,15.0,1.1551889,0,2
2069444000,2069420000,6620172,490.91513,95565.81,15.0,1.1551828,0,2
2069516000,2069492000,6620172,490.87286,95566.25,15.0,1.1551882,0,2
2069588000,2069562666,6620172,490.88696,95566.12,15.0,1.1551865,0,2
2069660000,2069636000,6620172,490.9386,95565.5,15.0,1.155179,0,2
2069732000,2069708000,6620172,490.8494,95566.53,15.0,1.1551915,0,2
2069804000,2069778666,6620172,490.9339,95565.56,15.0,1.1551797,0,2
2069876000,2069852000,6620172,490.89633,95566.01,15.0,1.1551852,0,2
2069944000,2069922666,6620172,490.89633,95566.03,15.0,1.1551855,0,2
2069996000,2069984000,6620172,490.95737,95565.3,15.0,1.1551766,0,2
2070068000,2070042666,6620172,490.7696,95567.43,15.0,1.1552025,0,2
2070140000,2070116000,6620172,490.89166,95566.09,15.0,1.1551863,0,2
2070212000,2070186666,6620172,490.91043,95565.84,15.0,1.1551833,0,2
2070284000,2070260000,6620172,490.8447,95566.586,15.0,1.1551921,0,2
2070356000,2070330666,6620172,490.9339,95565.57,15.0,1.1551799,0,2
2070428000,2070404000,6620172,490.8541,95566.46,15.0,1.1551907,0,2
2070500000,2070474666,6620172,490.91043,95565.875,15.0,1.1551836,0,2
2070572000,2070548000,6620172,490.89166,95566.06,15.0,1.1551859,0,2
2070644000,2070618666,6620172,490.9386,95565.49,15.0,1.1551789,0,2
2070716000,2070690666,6620172,490.90103,95565.94,15.0,1.1551844,0,2
2070784000,2070762666,6620172,490.88226,95566.16,15.0,1.155187,0,2
2070836000,2070824000,6620172,490.77426,95567.375,15.0,1.1552017,0,2
2070908000,2070884000,6620172,490.97147,95565.13,15.0,1.1551746,0,2
2070980000,2070956000,6620172,490.86816,95566.336,15.0,1.1551893,0,2
2071052000,2071028000,6620172,490.96677,95565.21,15.0,1.1551756,0,2
2071124000,2071098666,6620172,490.9339,95565.555,15.0,1.1551797,0,2
2071196000,2071172000,6620172,490.97617,95565.125,15.0,1.1551746,0,2
2071268000,2071244000,6620172,490.90103,95565.93,15.0,1.1551843,0,2
2071340000,2071316000,6620172,490.8541,95566.46,15.0,1.1551907,0,2
2071412000,2071388000,6620172,490.91513,95565.79,15.0,1.1551826,0,2
2071484000,2071460000,6620172,490.98557,95564.96,15.0,1.1551726,0,2
2071556000,2071532000,6620172,490.9527,95565.37,15.0,1.1551775,0,2
2071628000,2071602666,6620172,490.91513,95565.81,15.0,1.1551828,0,2
2071700000,2071676000,6620172,490.9292,95565.63,15.0,1.1551807,0,2
2071772000,2071746666,6620172,490.89166,95566.086,15.0,1.1551862,0,2
2071844000,2071818666,6620172,490.9292,95565.63,15.0,1.1551807,0,2
2071912000,2071890666,6620172,490.90103,95565.96,15.0,1.1551846,0,2
2071964000,2071952000,6620172,490.95737,95565.28,15.0,1.1551764,0,2
2072036000,2072009333,6620172,490.88696,95566.13,15.0,1.1551868,0,2
2072108000,2072084000,6620172,490.90103,95565.97,15.0,1.1551847,0,2
2072180000,2072156000,6620172,490.90103,95565.94,15.0,1.1551844,0,2
2072248000,2072226666,6620172,490.84,95566.65,15.0,1.155193,0,2
2072324000,2072298666,6620172,490.81183,95566.98,15.0,1.1551969,0,2
2072396000,2072372000,6620172,490.81183,95566.98,15.0,1.1551969,0,2
2072464000,2072442666,6620172,490.84,95566.65,15.0,1.155193,0,2
2072516000,2072504000,6620172,490.8494,95566.56,15.0,1.155192,0,2
2072588000,2072564000,6620172,490.80713,95567.01,15.0,1.1551973,0,2
2072660000,2072636000,6620172,490.89633,95566.03,15.0,1.1551855,0,2
2072732000,2072708000,6620172,490.96207,95565.25,15.0,1.155176,0,2
2072804000,2072780000,6620172,490.89633,95566.0,15.0,1.1551851,0,2
2072876000,2072850666,6620172,490.86816,95566.32,15.0,1.155189,0,2
2072948000,2072922666,6620172,490.87756,95566.195,15.0,1.1551875,0,2
2073020000,2072996000,6620172,490.90573,95565.91,15.0,1.155184,0,2
2073092000,2073068000,6620172,490.91983,95565.72,15.0,1.1551816,0,2
2073160000,2073137333,6620172,490.82593,95566.79,15.0,1.1551946,0,2
2073212000,2073200000,6620172,490.83063,95566.77,15.0,1.1551945,0,2
2073284000,2073258666,6620172,490.9433,95565.47,15.0,1.1551788,0,2
2073356000,2073332000,6620172,490.8588,95566.43,15.0,1.1551902,0,2
2073428000,2073404000,6620172,490.80713,95567.02,15.0,1.1551975,0,2
2073500000,2073474666,6620172,490.96207,95565.24,15.0,1.1551759,0,2
2073572000,2073548000,6620172,490.96677,95565.195,15.0,1.1551754,0,2
2073644000,2073620000,6620172,490.9292,95565.62,15.0,1.1551806,0,2
2073716000,2073690666,6620172,490.9292,95565.65,15.0,1.1551808,0,2
2073788000,2073762666,6620172,490.8447,95566.6,15.0,1.1551924,0,2
2073856000,2073834666,6620172,490.8588,95566.414,15.0,1.1551902,0,2
2073908000,2073896000,6620172,491.01373,95564.69,15.0,1.1551694,0,2
2073980000,2073956000,6620172,490.81183,95566.98,15.0,1.1551969,0,2
2074048000,2074026666,6620172,490.9527,95565.37,15.0,1.1551775,0,2
2074100000,2074086000,6620172,490.88696,95566.11,15.0,1.1551864,0,2
2074168000,2074146666,6620172,490.8494,95566.555,15.0,1.1551919,0,2
2074220000,2074208000,6620172,490.72733,95567.92,15.0,1.1552083,0,2
2074292000,2074268000,6620172,490.88696,95566.15,15.0,1.1551869,0,2
2074364000,2074338666,6620172,490.87286,95566.305,15.0,1.1551888,0,2
2074436000,2074412000,6620172,490.83063,95566.76,15.0,1.1551943,0,2
2074508000,2074484000,6620172,490.8541,95566.46,15.0,1.1551907,0,2
2074580000,2074554666,6620172,490.8447,95566.59,15.0,1.1551923,0,2
2074652000,2074628000,6620172,490.7602,95567.6,15.0,1.1552044,0,2
2074724000,2074698666,6620172,490.83063,95566.75,15.0,1.1551942,0,2
2074796000,2074770666,6620172,490.77426,95567.375,15.0,1.1552017,0,2
2074868000,2074844000,6620172,490.84,95566.66,15.0,1.1551931,0,2
2074940000,2074914666,6620172,490.8635,95566.375,15.0,1.1551896,0,2
2075012000,2074988000,6620172,490.83063,95566.74,15.0,1.155194,0,2
2075084000,2075060000,6620172,490.9386,95565.52,15.0,1.1551794,0,2
2075156000,2075132000,6620172,490.8447,95566.586,15.0,1.1551921,0,2
2075228000,2075204000,6620172,490.82123,95566.85,15.0,1.1551955,0,2
2075300000,2075276000,6620172,490.8494,95566.54,15.0,1.1551917,0,2
2075372000,2075348000,6620172,490.8588,95566.44,15.0,1.1551903,0,2
2075444000,2075418666,6620172,490.89633,95566.01,15.0,1.1551852,0,2
2075516000,2075490666,6620172,490.8635,95566.37,15.0,1.1551895,0,2
2075588000,2075564000,6620172,490.99963,95564.85,15.0,1.1551713,0,2
2075656000,2075633333,6620172,490.95737,95565.305,15.0,1.1551768,0,2
2075708000,2075696000,6620172,490.89166,95566.06,15.0,1.1551859,0,2
2075780000,2075756000,6620172,490.96207,95565.23,15.0,1.1551758,0,2
2075852000,2075826666,6620172,490.96207,95565.27,15.0,1.1551763,0,2
2075924000,2075900000,6620172,490.96207,95565.24,15.0,1.1551759,0,2
2075996000,2075972000,6620172,490.9527,95565.34,15.0,1.1551771,0,2
2076068000,2076044000,6620172,490.91043,95565.875,15.0,1.1551836,0,2
2076140000,2076116000,6620172,490.8588,95566.41,15.0,1.1551901,0,2
2076212000,2076186666,6620172,490.9433,95565.48,15.0,1.1551788,0,2
2076284000,2076260000,6620172,490.948,95565.43,15.0,1.1551782,0,2
2076356000,2076332000,6620172,490.99963,95564.85,15.0,1.1551713,0,2
2076428000,2076402666,6620172,490.9339,95565.6,15.0,1.1551803,0,2
2076500000,2076476000,6620172,490.90573,95565.91,15.0,1.155184,0,2
2076572000,2076548000,6620172,490.79306,95567.19,15.0,1.1551995,0,2
2076644000,2076618666,6620172,490.8353,95566.68,15.0,1.1551933,0,2
2076716000,2076692000,6620172,490.8588,95566.4,15.0,1.15519,0,2
2076788000,2076764000,6620172,490.9292,95565.65,15.0,1.1551808,0,2
2076856000,2076834666,6620172,490.86816,95566.35,15.0,1.1551894,0,2
2076932000,2076906666,6620172,490.86816,95566.336,15.0,1.1551893,0,2
2077004000,2076978666,6620172,490.91513,95565.81,15.0,1.1551828,0,2
2077076000,2077050666,6620172,490.87756,95566.21,15.0,1.1551876,0,2
2077148000,2077122666,6620172,490.9386,95565.5,15.0,1.155179,0,2
2077220000,2077196000,6620172,490.82123,95566.85,15.0,1.1551955,0,2
2077292000,2077268000,6620172,490.79306,95567.164,15.0,1.1551992,0,2
2077364000,2077340000,6620172,490.77896,95567.34,15.0,1.1552014,0,2
2077436000,2077412000,6620172,490.80713,95567.03,15.0,1.1551976,0,2
2077504000,2077482666,6620172,490.87756,95566.23,15.0,1.1551878,0,2
2077556000,2077544000,6620172,490.8588,95566.44,15.0,1.1551903,0,2
2077628000,2077604000,6620172,490.78836,95567.25,15.0,1.1552002,0,2
2077700000,2077676000,6620172,490.82593,95566.81,15.0,1.155195,0,2
2077772000,2077748000,6620172,490.78836,95567.26,15.0,1.1552004,0,2
2077840000,2077818666,6620172,490.72733,95567.93,15.0,1.1552085,0,2
2077892000,2077880000,6620172,490.83063,95566.75,15.0,1.1551942,0,2
2077964000,2077940000,6620172,490.91043,95565.875,15.0,1.1551836,0,2
2078036000,2078012000,6620172,490.88696,95566.15,15.0,1.1551869,0,2
2078108000,2078084000,6620172,490.8353,95566.73,15.0,1.1551939,0,2
2078180000,2078154666,6620172,490.83063,95566.75,15.0,1.1551942,0,2
2078252000,2078226666,6620172,490.81183,95566.99,15.0,1.1551971,0,2
2078324000,2078298666,6620172,490.91983,95565.76,15.0,1.1551822,0,2
2078396000,2078372000,6620172,490.8588,95566.44,15.0,1.1551903,0,2
2078468000,2078444000,6620172,490.91513,95565.77,15.0,1.1551825,0,2
2078540000,2078514666,6620172,490.9386,95565.49,15.0,1.1551789,0,2
2078612000,2078588000,6620172,490.88696,95566.1,15.0,1.1551864,0,2
2078684000,2078660000,6620172,490.87286,95566.29,15.0,1.1551886,0,2
2078752000,2078730666,6620172,490.9339,95565.6,15.0,1.1551803,0,2
2078804000,2078792000,6620172,490.8588,95566.45,15.0,1.1551906,0,2
2078876000,2078852000,6620172,490.87756,95566.195,15.0,1.1551875,0,2
2078948000,2078924000,6620172,490.87286,95566.305,15.0,1.1551888,0,2
2079020000,2078996000,6620172,490.89633,95566.03,15.0,1.1551855,0,2
2079092000,2079068000,6620172,490.8588,95566.445,15.0,1.1551905,0,2
2079164000,2079140000,6620172,490.78366,95567.28,15.0,1.1552007,0,2
2079236000,2079212000,6620172,490.91513,95565.77,15.0,1.1551825,0,2
2079308000,2079282666,6620172,490.81183,95566.96,15.0,1.1551968,0,2
2079380000,2079356000,6620172,490.91043,95565.87,15.0,1.1551836,0,2
2079452000,2079428000,6620172,490.8353,95566.71,15.0,1.1551938,0,2
2079524000,2079500000,6620172,490.89633,95565.99,15.0,1.155185,0,2
2079592000,2079570666,6620172,490.91983,95565.76,15.0,1.1551822,0,2
2079644000,2079632000,6620172,490.89633,95566.016,15.0,1.1551853,0,2
2079716000,2079690666,6620172,490.89633,95566.03,15.0,1.1551855,0,2
2079788000,2079762666,6620172,490.7508,95567.65,15.0,1.1552051,0,2
2079860000,2079836000,6620172,490.89166,95566.04,15.0,1.1551856,0,2
2079932000,2079906666,6620172,490.8541,95566.49,15.0,1.1551912,0,2
2080004000,2079978666,6620172,490.8588,95566.445,15.0,1.1551905,0,2
2080072000,2080050666,6620172,490.70386,95568.22,15.0,1.155212,0,2
2080124000,2080112000,6620172,490.87286,95566.3,15.0,1.1551887,0,2
2080196000,2080172000,6620172,490.7649,95567.51,15.0,1.1552033,0,2
2080268000,2080244000,6620172,490.82123,95566.875,15.0,1.1551957,0,2
2080340000,2080316000,6620172,490.8635,95566.375,15.0,1.1551896,0,2
2080408000,2080385333,6620172,490.71793,95568.07,15.0,1.1552101,0,2
2080480000,2080457333,6620172,490.80246,95567.09,15.0,1.1551983,0,2
2080532000,2080520000,6620172,490.8353,95566.72,15.0,1.1551938,0,2
2080604000,2080580000,6620172,490.84,95566.66,15.0,1.1551931,0,2
2080676000,2080652000,6620172,490.74142,95567.79,15.0,1.1552068,0,2
2080744000,2080722666,6620172,490.89166,95566.055,15.0,1.1551858,0,2
2080796000,2080784000,6620172,490.89633,95566.0,15.0,1.1551851,0,2
2080868000,2080844000,6620172,490.82593,95566.81,15.0,1.155195,0,2
2080940000,2080914666,6620172,490.8447,95566.586,15.0,1.1551921,0,2
2081012000,2080988000,6620172,490.8494,95566.57,15.0,1.155192,0,2
2081084000,2081060000,6620172,490.77426,95567.414,15.0,1.1552023,0,2
2081156000,2081132000,6620172,490.89633,95566.02,15.0,1.1551855,0,2
2081228000,2081202666,6620172,490.91043,95565.85,15.0,1.1551833,0,2
2081300000,2081276000,6620172,490.8447,95566.586,15.0,1.1551921,0,2
2081372000,2081348000,6620172,490.86816,95566.31,15.0,1.1551889,0,2
2081444000,2081420000,6620172,490.8494,95566.52,15.0,1.1551914,0,2
2081512000,2081490666,6620172,490.78366,95567.336,15.0,1.1552013,0,2
2081564000,2081552000,6620172,490.81653,95566.89,15.0,1.155196,0,2
2081636000,2081612000,6620172,490.79776,95567.15,15.0,1.1551989,0,2
2081708000,2081684000,6620172,490.8635,95566.37,15.0,1.1551895,0,2
2081780000,2081756000,6620172,490.81183,95567.0,15.0,1.1551973,0,2
2081852000,2081826666,6620172,490.78366,95567.29,15.0,1.1552007,0,2
2081924000,2081898666,6620172,490.72733,95567.94,15.0,1.1552086,0,2
2081996000,2081972000,6620172,490.82593,95566.805,15.0,1.1551949,0,2
2082068000,2082044000,6620172,490.88226,95566.18,15.0,1.1551874,0,2
2082140000,2082116000,6620172,490.7508,95567.65,15.0,1.1552051,0,2
2082212000,2082188000,6620172,490.74142,95567.77,15.0,1.1552066,0,2
2082284000,2082260000,6620172,490.7555,95567.63,15.0,1.1552049,0,2
2082356000,2082332000,6620172,490.5771,95569.68,15.0,1.1552296,0,2
2082424000,2082402666,6620172,490.5677,95569.79,15.0,1.155231,0,2
2082476000,2082464000,6620172,490.39398,95571.76,15.0,1.1552547,0,2
2082548000,2082524000,6620172,490.49728,95570.586,15.0,1.1552405,0,2
2082620000,2082596000,6620172,490.41745,95571.47,15.0,1.1552513,0,2
2082692000,2082666666,6620172,490.38458,95571.88,15.0,1.1552563,0,2
2082764000,2082740000,6620172,490.3564,95572.21,15.0,1.1552602,0,2
2082836000,2082812000,6620172,490.29068,95572.94,15.0,1.155269,0,2
2082908000,2082884000,6620172,490.2578,95573.305,15.0,1.1552734,0,2
2082980000,2082956000,6620172,490.11697,95574.945,15.0,1.1552932,0,2
2083052000,2083028000,6620172,490.0747,95575.445,15.0,1.1552993,0,2
2083124000,2083100000,6620172,490.07004,95575.49,15.0,1.1552999,0,2
2083192000,2083170666,6620172,490.05124,95575.69,15.0,1.1553023,0,2
2083244000,2083232000,6620172,489.9996,95576.28,15.0,1.1553094,0,2
2083316000,2083292000,6620172,489.9949,95576.34,15.0,1.1553102,0,2
2083388000,2083362666,6620172,489.96204,95576.71,15.0,1.1553146,0,2
2083460000,2083436000,6620172,489.8212,95578.305,15.0,1.1553339,0,2
2083532000,2083506666,6620172,489.77423,95578.85,15.0,1.1553404,0,2
2083604000,2083580000,6620172,489.624,95580.59,15.0,1.1553615,0,2
2083676000,2083652000,6620172,489.8118,95578.44,15.0,1.1553354,0,2
2083748000,2083724000,6620172,489.58643,95581.0,15.0,1.1553664,0,2
2083820000,2083796000,6620172,489.6287,95580.51,15.0,1.1553605,0,2
2083892000,2083868000,6620172,489.56296,95581.31,15.0,1.1553702,0,2
2083964000,2083940000,6620172,489.47375,95582.31,15.0,1.1553823,0,2
2084036000,2084012000,6620172,489.4409,95582.68,15.0,1.1553867,0,2
2084108000,2084084000,6620172,489.40332,95583.12,15.0,1.155392,0,2
2084176000,2084154666,6620172,489.30475,95584.23,15.0,1.1554055,0,2
2084228000,2084216000,6620172,489.347,95583.766,15.0,1.1553999,0,2
2084300000,2084276000,6620172,489.2437,95584.94,15.0,1.1554141,0,2
2084372000,2084348000,6620172,489.24838,95584.914,15.0,1.1554137,0,2
2084444000,2084420000,6620172,489.17328,95585.71,15.0,1.1554234,0,2
2084512000,2084490666,6620172,489.131,95586.195,15.0,1.1554292,0,2
2084564000,2084552000,6620172,488.97607,95588.01,15.0,1.1554512,0,2
2084636000,2084612000,6620172,489.01834,95587.52,15.0,1.1554453,0,2
2084708000,2084682666,6620172,489.0465,95587.21,15.0,1.1554415,0,2
2084780000,2084756000,6620172,488.8587,95589.375,15.0,1.1554676,0,2
2084852000,2084828000,6620172,488.84933,95589.44,15.0,1.1554683,0,2
2084924000,2084900000,6620172,488.70847,95591.04,15.0,1.1554878,0,2
2084992000,2084970666,6620172,488.7836,95590.23,15.0,1.1554779,0,2
2085044000,2085032000,6620172,488.65683,95591.65,15.0,1.1554952,0,2
2085116000,2085092000,6620172,488.577,95592.57,15.0,1.1555063,0,2
2085184000,2085162666,6620172,488.55353,95592.85,15.0,1.1555097,0,2
2085236000,2085224000,6620172,488.53476,95593.07,15.0,1.1555123,0,2
2085308000,2085284000,6620172,488.47842,95593.695,15.0,1.1555198,0,2
2085380000,2085354666,6620172,488.53476,95593.055,15.0,1.1555121,0,2
2085452000,2085428000,6620172,488.44556,95594.09,15.0,1.1555247,0,2
2085524000,2085498666,6620172,488.4221,95594.37,15.0,1.1555281,0,2
2085596000,2085572000,6620172,488.28122,95596.0,15.0,1.1555477,0,2
2085668000,2085642666,6620172,488.18262,95597.09,15.0,1.155561,0,2
2085736000,2085714666,6620172,488.24365,95596.414,15.0,1.1555529,0,2
2085788000,2085776000,6620172,488.13568,95597.65,15.0,1.1555678,0,2
2085860000,2085836000,6620172,488.15915,95597.375,15.0,1.1555643,0,2
2085932000,2085906666,6620172,488.06055,95598.46,15.0,1.1555775,0,2
2086004000,2085980000,6620172,488.03238,95598.85,15.0,1.1555823,0,2
2086076000,2086052000,6620172,487.96664,95599.6,15.0,1.1555912,0,2
2086148000,2086122666,6620172,487.86807,95600.71,15.0,1.1556047,0,2
2086220000,2086196000,6620172,487.9197,95600.15,15.0,1.1555979,0,2
2086292000,2086268000,6620172,487.86807,95600.695,15.0,1.1556045,0,2
2086364000,2086340000,6620172,487.8164,95601.31,15.0,1.155612,0,2
2086436000,2086410666,6620172,487.95258,95599.71,15.0,1.1555927,0,2
2086508000,2086484000,6620172,487.99014,95599.28,15.0,1.1555874,0,2
2086580000,2086556000,6620172,487.8399,95601.06,15.0,1.1556089,0,2
2086652000,2086626666,6620172,487.86337,95600.73,15.0,1.155605,0,2
2086724000,2086700000,6620172,487.96664,95599.586,15.0,1.1555911,0,2
2086796000,2086770666,6620172,487.8399,95601.055,15.0,1.1556088,0,2
2086864000,2086842666,6620172,487.9338,95599.96,15.0,1.1555957,0,2
2086916000,2086904000,6620172,487.9103,95600.2,15.0,1.1555985,0,2
2086988000,2086964000,6620172,487.94318,95599.87,15.0,1.1555946,0,2
2087060000,2087036000,6620172,487.9197,95600.15,15.0,1.1555979,0,2
2087128000,2087106666,6620172,487.84457,95601.0,15.0,1.1556082,0,2
2087180000,2087168000,6620172,487.89154,95600.44,15.0,1.1556014,0,2
2087252000,2087228000,6620172,487.9338,95599.914,15.0,1.1555951,0,2
2087324000,2087300000,6620172,487.94788,95599.78,15.0,1.1555935,0,2
2087392000,2087370666,6620172,487.9197,95600.125,15.0,1.1555976,0,2
2087444000,2087432000,6620172,487.93848,95599.88,15.0,1.1555947,0,2
2087516000,2087492000,6620172,487.97134,95599.49,15.0,1.1555899,0,2
2087588000,2087564000,6620172,487.89154,95600.44,15.0,1.1556014,0,2
2087656000,2087634666,6620172,487.9244,95600.06,15.0,1.1555969,0,2
2087708000,2087696000,6620172,487.8211,95601.234,15.0,1.155611,0,2
2087780000,2087754666,6620172,487.84927,95600.91,15.0,1.155607,0,2
2087852000,2087828000,6620172,487.84927,95600.94,15.0,1.1556075,0,2
2087924000,2087900000,6620172,487.88214,95600.52,15.0,1.1556025,0,2
2087996000,2087970666,6620172,487.89154,95600.44,15.0,1.1556014,0,2
2088068000,2088044000,6620172,487.8258,95601.195,15.0,1.1556106,0,2
2088140000,2088116000,6620172,487.86337,95600.77,15.0,1.1556054,0,2
2088212000,2088188000,6620172,487.94788,95599.81,15.0,1.1555939,0,2
2088284000,2088260000,6620172,487.87277,95600.65,15.0,1.155604,0,2
2088356000,2088330666,6620172,487.86337,95600.73,15.0,1.155605,0,2
2088428000,2088404000,6620172,487.84457,95600.96,15.0,1.1556078,0,2
2088500000,2088476000,6620172,487.95258,95599.75,15.0,1.155593,0,2
2088572000,2088548000,6620172,487.9056,95600.28,15.0,1.1555995,0,2
2088640000,2088618666,6620172,487.94788,95599.805,15.0,1.1555938,0,2
2088692000,2088680000,6620172,487.86807,95600.72,15.0,1.1556048,0,2
2088764000,2088738666,6620172,487.9103,95600.22,15.0,1.1555988,0,2
2088836000,2088812000,6620172,487.9338,95599.97,15.0,1.1555957,0,2
2088908000,2088884000,6620172,487.95258,95599.76,15.0,1.1555932,0,2
2088980000,2088954666,6620172,487.89154,95600.41,15.0,1.155601,0,2
2089052000,2089028000,6620172,487.89624,95600.375,15.0,1.1556007,0,2
2089124000,2089100000,6620172,487.9056,95600.29,15.0,1.1555996,0,2
2089196000,2089172000,6620172,487.95728,95599.69,15.0,1.1555923,0,2
2089268000,2089244000,6620172,487.9056,95600.25,15.0,1.1555991,0,2
2089340000,2089316000,6620172,487.9338,95599.97,15.0,1.1555957,0,2
2089412000,2089388000,6620172,487.9103,95600.195,15.0,1.1555984,0,2
2089484000,2089458666,6620172,487.86807,95600.71,15.0,1.1556047,0,2
2089556000,2089532000,6620172,487.86807,95600.71,15.0,1.1556047,0,2
2089628000,2089604000,6620172,487.85397,95600.85,15.0,1.1556064,0,2
2089700000,2089674666,6620172,487.84927,95600.9,15.0,1.155607,0,2
2089768000,2089746666,6620172,487.95728,95599.69,15.0,1.1555923,0,2
2089820000,2089808000,6620172,487.84927,95600.89,15.0,1.155607,0,2
2089892000,2089868000,6620172,487.9056,95600.29,15.0,1.1555996,0,2
2089964000,2089940000,6620172,487.89624,95600.375,15.0,1.1556007,0,2
2090036000,2090012000,6620172,487.80704,95601.375,15.0,1.1556127,0,2
2090108000,2090084000,6620172,487.9197,95600.12,15.0,1.1555974,0,2
2090180000,2090156000,6620172,487.88214,95600.57,15.0,1.155603,0,2
2090252000,2090226666,6620172,487.8211,95601.27,15.0,1.1556115,0,2
2090324000,2090300000,6620172,487.78354,95601.69,15.0,1.1556165,0,2
