timestamp,timestamp_sample,latitude_deg,longitude_deg,altitude_msl_m,altitude_ellipsoid_m,time_utc_usec,device_id,s_variance_m_s,c_variance_rad,eph,epv,hdop,vdop,noise_per_ms,jamming_indicator,vel_m_s,vel_n_m_s,vel_e_m_s,vel_d_m_s,cog_rad,timestamp_time_relative,heading,heading_offset,heading_accuracy,rtcm_injection_rate,automatic_gain_control,fix_type,jamming_state,spoofing_state,vel_ned_valid,satellites_used,selected_rtcm_instance,rtcm_crc_failed,rtcm_msg_used
2043116000,0,47.3981697,8.5453873,488.099,488.099,1757458832916384,0,0.25,0.5,1.0,1.0,0.0,0.0,0,0,0.0,0.02,0.0,-0.049999997,6.073571,0,nan,nan,0.0,0.0,0,3,0,0,1,10,0,0,0
2043516000,0,47.3981697,8.5453873,488.10900000000004,488.10900000000004,1757458833316384,0,0.25,0.5,1.0,1.0,0.0,0.0,0,0,0.0,-0.01,-0.02,0.02,4.146204,0,nan,nan,0.0,0.0,0,3,0,0,1,10,0,0,0
2043916000,0,47.3981697,8.5453872,488.105,488.105,1757458833712384,0,0.25,0.5,1.0,1.0,0.0,0.0,0,0,0.0,-0.02,0.01,0.01,2.435258,0,nan,nan,0.0,0.0,0,3,0,0,1,10,0,0,0
2044316000,0,47.398169599999996,8.5453872,488.094,488.094,1757458834116384,0,0.25,0.5,1.0,1.0,0.0,0.0,0,0,0.0,0.0,0.0,-0.03,2.3970351,0,nan,nan,0.0,0.0,0,3,0,0,1,10,0,0,0
2044712000,0,47.3981697,8.5453873,488.106,488.106,1757458834516384,0,0.25,0.5,1.0,1.0,0.0,0.0,0,0,0.0,0.02,0.0,0.0,0.14276792,0,nan,nan,0.0,0.0,0,3,0,0,1,10,0,0,0
2045116000,0,47.3981697,8.5453873,488.10200000000003,488.10200000000003,1757458834916384,0,0.25,0.5,1.0,1.0,0.0,0.0,0,0,0.0,0.0,-0.01,0.07,4.9809947,0,nan,nan,0.0,0.0,0,3,0,0,1,10,0,0,0
2045516000,0,47.3981697,8.5453873,488.103,488.103,1757458835316384,0,0.25,0.5,1.0,1.0,0.0,0.0,0,0,0.0,0.0,0.01,0.049999997,1.9254472,0,nan,nan,0.0,0.0,0,3,0,0,1,10,0,0,0
2045916000,0,47.3981697,8.5453873,488.103,488.103,1757458835712384,0,0.25,0.5,1.0,1.0,0.0,0.0,0,0,0.0,0.01,0.0,0.0,6.1814322,0,nan,nan,0.0,0.0,0,3,0,0,1,10,0,0,0
2046312000,0,47.3981697,8.5453872,488.10900000000004,488.10900000000004,1757458836116384,0,0.25,0.5,1.0,1.0,0.0,0.0,0,0,0.0,0.0,0.0,0.01,5.4719563,0,nan,nan,0.0,0.0,0,3,0,0,1,10,0,0,0
2046716000,0,47.3981697,8.5453873,488.096,488.096,1757458836516384,0,0.25,0.5,1.0,1.0,0.0,0.0,0,0,0.0,0.0,0.01,0.0,1.8266615,0,nan,nan,0.0,0.0,0,3,0,0,1,10,0,0,0
2047116000,0,47.3981697,8.5453873,488.095,488.095,1757458836916384,0,0.25,0.5,1.0,1.0,0.0,0.0,0,0,0.0,0.0,0.0,-0.01,0.11658799,0,nan,nan,0.0,0.0,0,3,0,0,1,10,0,0,0
2047512000,0,47.3981697,8.5453873,488.09700000000004,488.09700000000004,1757458837316384,0,0.25,0.5,1.0,1.0,0.0,0.0,0,0,0.0,0.01,0.02,0.01,0.96202546,0,nan,nan,0.0,0.0,0,3,0,0,1,10,0,0,0
2047916000,0,47.3981697,8.5453872,488.096,488.096,1757458837712384,0,0.25,0.5,1.0,1.0,0.0,0.0,0,0,0.0,0.03,0.0,0.0,0.24033183,0,nan,nan,0.0,0.0,0,3,0,0,1,10,0,0,0
2048312000,0,47.3981697,8.5453873,488.113,488.113,1757458838112384,0,0.25,0.5,1.0,1.0,0.0,0.0,0,0,0.02,-0.01,-0.01,-0.089999996,4.068886,0,nan,nan,0.0,0.0,0,3,0,0,1,10,0,0,0
2048712000,0,47.3981692,8.5453874,488.204,488.204,1757458838516384,0,0.25,0.5,1.0,1.0,0.0,0.0,0,0,0.21,-0.21,0.06,-0.35999998,2.8244662,0,nan,nan,0.0,0.0,0,3,0,0,1,10,0,0,0
2049116000,0,47.398168399999996,8.5453878,488.435,488.435,1757458838916384,0,0.25,0.5,1.0,1.0,0.0,0.0,0,0,0.22,-0.22,0.04,-0.69,2.9253464,0,nan,nan,0.0,0.0,0,3,0,0,1,10,0,0,0
2049516000,0,47.398167799999996,8.545387999999999,488.731,488.731,1757458839316384,0,0.25,0.5,1.0,1.0,0.0,0.0,0,0,0.12,-0.11,0.0,-0.74,3.0836475,0,nan,nan,0.0,0.0,0,3,0,0,1,10,0,0,0
2049916000,0,47.3981675,8.5453879,489.048,489.048,1757458839716384,0,0.25,0.5,1.0,1.0,0.0,0.0,0,0,0.03,-0.02,-0.03,-0.83,4.0589375,0,nan,nan,0.0,0.0,0,3,0,0,1,10,0,0,0
2050316000,0,47.3981676,8.5453877,489.37,489.37,1757458840112384,0,0.25,0.5,1.0,1.0,0.0,0.0,0,0,0.07,0.03,-0.06,-0.79999995,5.220454,0,nan,nan,0.0,0.0,0,3,0,0,1,10,0,0,0
2050716000,0,47.3981679,8.5453874,489.702,489.702,1757458840516384,0,0.25,0.5,1.0,1.0,0.0,0.0,0,0,0.11,0.099999994,-0.04,-0.75,5.875651,0,nan,nan,0.0,0.0,0,3,0,0,1,10,0,0,0
2051116000,0,47.398168299999995,8.5453871,489.99600000000004,489.99600000000004,1757458840916384,0,0.25,0.5,1.0,1.0,0.0,0.0,0,0,0.13,0.14,-0.04,-0.74,6.0135317,0,nan,nan,0.0,0.0,0,3,0,0,1,10,0,0,0
2051516000,0,47.3981687,8.5453869,490.26800000000003,490.26800000000003,1757458841316384,0,0.25,0.5,1.0,1.0,0.0,0.0,0,0,0.13,0.13,-0.04,-0.65,5.976007,0,nan,nan,0.0,0.0,0,3,0,0,1,10,0,0,0
2051916000,0,47.3981692,8.5453867,490.505,490.505,1757458841716384,0,0.25,0.5,1.0,1.0,0.0,0.0,0,0,0.11,0.11,-0.02,-0.53,6.1041145,0,nan,nan,0.0,0.0,0,3,0,0,1,10,0,0,0
2052316000,0,47.398169599999996,8.5453866,490.628,490.628,1757458842112384,0,0.25,0.5,1.0,1.0,0.0,0.0,0,0,0.08,0.07,-0.01,-0.16,6.05158,0,nan,nan,0.0,0.0,0,3,0,0,1,10,0,0,0
2052716000,0,47.3981699,8.5453865,490.702,490.702,1757458842516384,0,0.25,0.5,1.0,1.0,0.0,0.0,0,0,0.049999997,0.03,0.0,-0.19999999,6.0920715,0,nan,nan,0.0,0.0,0,3,0,0,1,10,0,0,0
2053112000,0,47.39817,8.5453865,490.796,490.796,1757458842916384,0,0.25,0.5,1.0,1.0,0.0,0.0,0,0,0.02,0.01,-0.01,-0.16,5.5995398,0,nan,nan,0.0,0.0,0,3,0,0,1,10,0,0,0
2053516000,0,47.39817,8.5453864,490.868,490.868,1757458843316384,0,0.25,0.5,1.0,1.0,0.0,0.0,0,0,0.0,0.01,0.0,-0.14999999,0.048694685,0,nan,nan,0.0,0.0,0,3,0,0,1,10,0,0,0
2053916000,0,47.39817,8.545386299999999,490.918,490.918,1757458843716384,0,0.25,0.5,1.0,1.0,0.0,0.0,0,0,0.01,0.0,0.0,-0.13,3.3861132,0,nan,nan,0.0,0.0,0,3,0,0,1,10,0,0,0
2054316000,0,47.3981699,8.545386299999999,490.974,490.974,1757458844112384,0,0.25,0.5,1.0,1.0,0.0,0.0,0,0,0.02,-0.01,0.0,-0.13,3.1227431,0,nan,nan,0.0,0.0,0,3,0,0,1,10,0,0,0
2054716000,0,47.3981698,8.545386299999999,491.01800000000003,491.01800000000003,1757458844516384,0,0.25,0.5,1.0,1.0,0.0,0.0,0,0,0.02,-0.03,0.0,-0.099999994,3.0075512,0,nan,nan,0.0,0.0,0,3,0,0,1,10,0,0,0
2055116000,0,47.3981697,8.545386299999999,491.036,491.036,1757458844916384,0,0.25,0.5,1.0,1.0,0.0,0.0,0,0,0.03,-0.03,0.0,-0.04,3.1770227,0,nan,nan,0.0,0.0,0,3,0,0,1,10,0,0,0
2055516000,0,47.398169599999996,8.5453864,491.06100000000004,491.06100000000004,1757458845316384,0,0.25,0.5,1.0,1.0,0.0,0.0,0,0,0.03,-0.01,0.01,-0.049999997,2.5851815,0,nan,nan,0.0,0.0,0,3,0,0,1,10,0,0,0
2055916000,0,47.3981694,8.5453864,491.072,491.072,1757458845716384,0,0.25,0.5,1.0,1.0,0.0,0.0,0,0,0.03,-0.049999997,0.0,-0.02,3.0033627,0,nan,nan,0.0,0.0,0,3,0,0,1,10,0,0,0
2056316000,0,47.3981693,8.5453864,491.088,491.088,1757458846112384,0,0.25,0.5,1.0,1.0,0.0,0.0,0,0,0.03,-0.04,0.01,-0.06,2.8448865,0,nan,nan,0.0,0.0,0,3,0,0,1,10,0,0,0
2056716000,0,47.3981692,8.5453864,491.091,491.091,1757458846516384,0,0.25,0.5,1.0,1.0,0.0,0.0,0,0,0.03,-0.03,-0.01,-0.07,3.4454544,0,nan,nan,0.0,0.0,0,3,0,0,1,10,0,0,0
2057116000,0,47.3981691,8.5453865,491.09700000000004,491.09700000000004,1757458846916384,0,0.25,0.5,1.0,1.0,0.0,0.0,0,0,0.01,-0.01,0.02,0.0,2.0729275,0,nan,nan,0.0,0.0,0,3,0,0,1,10,0,0,0
2057516000,0,47.398168999999996,8.5453865,491.095,491.095,1757458847316384,0,0.25,0.5,1.0,1.0,0.0,0.0,0,0,0.04,-0.01,0.02,0.03,2.1872466,0,nan,nan,0.0,0.0,0,3,0,0,1,10,0,0,0
2057916000,0,47.398168299999995,8.5453876,491.116,491.116,1757458847716384,0,0.25,0.5,1.0,1.0,0.0,0.0,0,0,0.65,-0.47,0.44,-0.089999996,2.395988,0,nan,nan,0.0,0.0,0,3,0,0,1,10,0,0,0
2058316000,0,47.398165,8.5453915,491.14300000000003,491.14300000000003,1757458848112384,0,0.25,0.5,1.0,1.0,0.0,0.0,0,0,1.78,-1.4599999,0.96999997,-0.049999997,2.5541148,0,nan,nan,0.0,0.0,0,3,0,0,1,10,0,0,0
2058716000,0,47.398157399999995,8.5453982,491.145,491.145,1757458848516384,0,0.25,0.5,1.0,1.0,0.0,0.0,0,0,3.02,-2.62,1.48,-0.04,2.626895,0,nan,nan,0.0,0.0,0,3,0,0,1,10,0,0,0
2059112000,0,47.398145899999996,8.545406999999999,491.136,491.136,1757458848916384,0,0.25,0.5,1.0,1.0,0.0,0.0,0,0,4.0899997,-3.6799998,1.78,0.04,2.6895523,0,nan,nan,0.0,0.0,0,3,0,0,1,10,0,0,0
2059516000,0,47.398131199999995,8.5454171,491.1,491.1,1757458849316384,0,0.25,0.5,1.0,1.0,0.0,0.0,0,0,4.79,-4.37,1.9699999,0.089999996,2.7178266,0,nan,nan,0.0,0.0,0,3,0,0,1,10,0,0,0
2059916000,0,47.3981152,8.545428099999999,491.065,491.065,1757458849716384,0,0.25,0.5,1.0,1.0,0.0,0.0,0,0,4.93,-4.46,2.08,0.08,2.703864,0,nan,nan,0.0,0.0,0,3,0,0,1,10,0,0,0
2060316000,0,47.3980995,8.545439,491.046,491.046,1757458850112384,0,0.25,0.5,1.0,1.0,0.0,0.0,0,0,4.75,-4.29,2.06,-0.01,2.693043,0,nan,nan,0.0,0.0,0,3,0,0,1,10,0,0,0
2060716000,0,47.398084,8.5454501,491.043,491.043,1757458850516384,0,0.25,0.5,1.0,1.0,0.0,0.0,0,0,4.69,-4.21,2.07,0.02,2.683269,0,nan,nan,0.0,0.0,0,3,0,0,1,10,0,0,0
2061116000,0,47.398069,8.545461399999999,491.05,491.05,1757458850916384,0,0.25,0.5,1.0,1.0,0.0,0.0,0,0,4.68,-4.15,2.1399999,-0.03,2.6647685,0,nan,nan,0.0,0.0,0,3,0,0,1,10,0,0,0
2061516000,0,47.398054099999996,8.545473099999999,491.039,491.039,1757458851316384,0,0.25,0.5,1.0,1.0,0.0,0.0,0,0,4.63,-4.08,2.18,0.02,2.6492352,0,nan,nan,0.0,0.0,0,3,0,0,1,10,0,0,0
2061916000,0,47.398039999999995,8.5454843,491.05400000000003,491.05400000000003,1757458851716384,0,0.25,0.5,1.0,1.0,0.0,0.0,0,0,4.19,-3.6599998,2.02,0.0,2.6377158,0,nan,nan,0.0,0.0,0,3,0,0,1,10,0,0,0
2062316000,0,47.3980278,8.545494399999999,491.065,491.065,1757458852112384,0,0.25,0.5,1.0,1.0,0.0,0.0,0,0,3.6,-3.1399999,1.74,-0.01,2.6345744,0,nan,nan,0.0,0.0,0,3,0,0,1,10,0,0,0
2062716000,0,47.3980172,8.5455031,491.06600000000003,491.06600000000003,1757458852516384,0,0.25,0.5,1.0,1.0,0.0,0.0,0,0,3.05,-2.6699998,1.4699999,0.0,2.6389377,0,nan,nan,0.0,0.0,0,3,0,0,1,10,0,0,0
2063116000,0,47.398008399999995,8.545510199999999,491.06600000000003,491.06600000000003,1757458852916384,0,0.25,0.5,1.0,1.0,0.0,0.0,0,0,2.52,-2.23,1.18,0.0,2.653424,0,nan,nan,0.0,0.0,0,3,0,0,1,10,0,0,0
2063512000,0,47.398001099999995,8.5455156,491.07300000000004,491.07300000000004,1757458853316384,0,0.25,0.5,1.0,1.0,0.0,0.0,0,0,2.02,-1.81,0.9,-0.06,2.6782076,0,nan,nan,0.0,0.0,0,3,0,0,1,10,0,0,0
2063916000,0,47.3979953,8.5455199,491.07300000000004,491.07300000000004,1757458853716384,0,0.25,0.5,1.0,1.0,0.0,0.0,0,0,1.5999999,-1.43,0.7,0.0,2.6834438,0,nan,nan,0.0,0.0,0,3,0,0,1,10,0,0,0
2064316000,0,47.3979907,8.5455231,491.07,491.07,1757458854112384,0,0.25,0.5,1.0,1.0,0.0,0.0,0,0,1.24,-1.11,0.53,0.0,2.693392,0,nan,nan,0.0,0.0,0,3,0,0,1,10,0,0,0
2064716000,0,47.397987199999996,8.5455256,491.075,491.075,1757458854516384,0,0.25,0.5,1.0,1.0,0.0,0.0,0,0,0.93,-0.84,0.37,0.02,2.7255063,0,nan,nan,0.0,0.0,0,3,0,0,1,10,0,0,0
2065116000,0,47.3979846,8.5455274,491.07300000000004,491.07300000000004,1757458854916384,0,0.25,0.5,1.0,1.0,0.0,0.0,0,0,0.58,-0.5,0.26999998,-0.02,2.6427774,0,nan,nan,0.0,0.0,0,3,0,0,1,10,0,0,0
2065516000,0,47.3979843,8.545528899999999,491.093,491.093,1757458855316384,0,0.25,0.5,1.0,1.0,0.0,0.0,0,0,0.45,0.38,0.24,0.04,0.572468,0,nan,nan,0.0,0.0,0,3,0,0,1,10,0,0,0
2065916000,0,47.397987199999996,8.5455303,491.09000000000003,491.09000000000003,1757458855716384,0,0.25,0.5,1.0,1.0,0.0,0.0,0,0,1.1999999,1.18,0.29,-0.08,0.24242622,0,nan,nan,0.0,0.0,0,3,0,0,1,10,0,0,0
2066316000,0,47.3979928,8.545532399999999,491.116,491.116,1757458856112384,0,0.25,0.5,1.0,1.0,0.0,0.0,0,0,2.09,2.0,0.55,-0.03,0.27017695,0,nan,nan,0.0,0.0,0,3,0,0,1,10,0,0,0
2066716000,0,47.3980019,8.5455363,491.12600000000003,491.12600000000003,1757458856516384,0,0.25,0.5,1.0,1.0,0.0,0.0,0,0,3.09,2.99,0.81,0.02,0.26686084,0,nan,nan,0.0,0.0,0,3,0,0,1,10,0,0,0
2067116000,0,47.3980143,8.545541499999999,491.122,491.122,1757458856916384,0,0.25,0.5,1.0,1.0,0.0,0.0,0,0,4.02,3.85,1.13,0.0,0.28501227,0,nan,nan,0.0,0.0,0,3,0,0,1,10,0,0,0
2067516000,0,47.3980295,8.5455483,491.1,491.1,1757458857316384,0,0.25,0.5,1.0,1.0,0.0,0.0,0,0,4.68,4.47,1.43,0.08,0.31049407,0,nan,nan,0.0,0.0,0,3,0,0,1,10,0,0,0
2067916000,0,47.3980458,8.5455571,491.075,491.075,1757458857716384,0,0.25,0.5,1.0,1.0,0.0,0.0,0,0,4.88,4.5299997,1.8,0.13,0.37768924,0,nan,nan,0.0,0.0,0,3,0,0,1,10,0,0,0
2068316000,0,47.3980617,8.5455668,491.06600000000003,491.06600000000003,1757458858112384,0,0.25,0.5,1.0,1.0,0.0,0.0,0,0,4.68,4.2799997,1.87,0.0,0.41329396,0,nan,nan,0.0,0.0,0,3,0,0,1,10,0,0,0
2068716000,0,47.398077,8.545577,491.067,491.067,1757458858516384,0,0.25,0.5,1.0,1.0,0.0,0.0,0,0,4.5499997,4.14,1.91,-0.03,0.4326671,0,nan,nan,0.0,0.0,0,3,0,0,1,10,0,0,0
2069116000,0,47.398091799999996,8.545587099999999,491.079,491.079,1757458858916384,0,0.25,0.5,1.0,1.0,0.0,0.0,0,0,4.52,4.11,1.88,-0.03,0.42917645,0,nan,nan,0.0,0.0,0,3,0,0,1,10,0,0,0
2069516000,0,47.3981067,8.5455972,491.089,491.089,1757458859316384,0,0.25,0.5,1.0,1.0,0.0,0.0,0,0,4.49,4.1,1.87,0.0,0.4284783,0,nan,nan,0.0,0.0,0,3,0,0,1,10,0,0,0
2069916000,0,47.3981207,8.5456068,491.09000000000003,491.09000000000003,1757458859716384,0,0.25,0.5,1.0,1.0,0.0,0.0,0,0,4.0699997,3.6999998,1.73,-0.01,0.43877575,0,nan,nan,0.0,0.0,0,3,0,0,1,10,0,0,0
2070312000,0,47.398133,8.5456152,491.092,491.092,1757458860112384,0,0.25,0.5,1.0,1.0,0.0,0.0,0,0,3.5,3.1799998,1.4699999,-0.02,0.43406337,0,nan,nan,0.0,0.0,0,3,0,0,1,10,0,0,0
2070716000,0,47.3981437,8.5456224,491.089,491.089,1757458860516384,0,0.25,0.5,1.0,1.0,0.0,0.0,0,0,2.9399998,2.7,1.1999999,0.0,0.42062435,0,nan,nan,0.0,0.0,0,3,0,0,1,10,0,0,0
2071112000,0,47.398152499999995,8.5456281,491.093,491.093,1757458860916384,0,0.25,0.5,1.0,1.0,0.0,0.0,0,0,2.4199998,2.24,0.94,-0.02,0.39636424,0,nan,nan,0.0,0.0,0,3,0,0,1,10,0,0,0
2071516000,0,47.398159899999996,8.5456323,491.084,491.084,1757458861316384,0,0.25,0.5,1.0,1.0,0.0,0.0,0,0,1.9499999,1.8299999,0.66999996,0.02,0.35342917,0,nan,nan,0.0,0.0,0,3,0,0,1,10,0,0,0
2071912000,0,47.398165899999995,8.545635299999999,491.081,491.081,1757458861716384,0,0.25,0.5,1.0,1.0,0.0,0.0,0,0,1.55,1.49,0.5,-0.01,0.32480574,0,nan,nan,0.0,0.0,0,3,0,0,1,10,0,0,0
2072316000,0,47.3981705,8.5456378,491.08,491.08,1757458862112384,0,0.25,0.5,1.0,1.0,0.0,0.0,0,0,1.23,1.16,0.37,-0.01,0.3155555,0,nan,nan,0.0,0.0,0,3,0,0,1,10,0,0,0
2072716000,0,47.3981742,8.5456396,491.077,491.077,1757458862516384,0,0.25,0.5,1.0,1.0,0.0,0.0,0,0,0.94,0.88,0.29,-0.04,0.3223623,0,nan,nan,0.0,0.0,0,3,0,0,1,10,0,0,0
2073112000,0,47.3981771,8.5456411,491.071,491.071,1757458862916384,0,0.25,0.5,1.0,1.0,0.0,0.0,0,0,0.71999997,0.66999996,0.24,-0.02,0.34644786,0,nan,nan,0.0,0.0,0,3,0,0,1,10,0,0,0
2073516000,0,47.3981792,8.545642299999999,491.07300000000004,491.07300000000004,1757458863316384,0,0.25,0.5,1.0,1.0,0.0,0.0,0,0,0.55,0.5,0.22,0.02,0.41067594,0,nan,nan,0.0,0.0,0,3,0,0,1,10,0,0,0
2073916000,0,47.3981808,8.5456433,491.075,491.075,1757458863716384,0,0.25,0.5,1.0,1.0,0.0,0.0,0,0,0.42999998,0.39999998,0.17,0.049999997,0.41416663,0,nan,nan,0.0,0.0,0,3,0,0,1,10,0,0,0
2074316000,0,47.3981821,8.545644099999999,491.06600000000003,491.06600000000003,1757458864112384,0,0.25,0.5,1.0,1.0,0.0,0.0,0,0,0.32999998,0.29,0.13,0.049999997,0.44418627,0,nan,nan,0.0,0.0,0,3,0,0,1,10,0,0,0
2074716000,0,47.3981831,8.545644,491.067,491.067,1757458864516384,0,0.25,0.5,1.0,1.0,0.0,0.0,0,0,0.31,0.19999999,-0.22999999,0.0,5.434257,0,nan,nan,0.0,0.0,0,3,0,0,1,10,0,0,0
2075116000,0,47.3981837,8.5456416,491.072,491.072,1757458864916384,0,0.25,0.5,1.0,1.0,0.0,0.0,0,0,0.71999997,0.19999999,-0.69,-0.02,5.001939,0,nan,nan,0.0,0.0,0,3,0,0,1,10,0,0,0
2075516000,0,47.3981851,8.5456358,491.099,491.099,1757458865316384,0,0.25,0.5,1.0,1.0,0.0,0.0,0,0,1.67,0.59999996,-1.53,-0.01,5.086413,0,nan,nan,0.0,0.0,0,3,0,0,1,10,0,0,0
2075916000,0,47.3981881,8.5456246,491.107,491.107,1757458865716384,0,0.25,0.5,1.0,1.0,0.0,0.0,0,0,2.83,1.02,-2.62,-0.01,5.085366,0,nan,nan,0.0,0.0,0,3,0,0,1,10,0,0,0
2076316000,0,47.398192599999994,8.545608099999999,491.105,491.105,1757458866112384,0,0.25,0.5,1.0,1.0,0.0,0.0,0,0,3.8,1.4599999,-3.53,0.02,5.105612,0,nan,nan,0.0,0.0,0,3,0,0,1,10,0,0,0
2076716000,0,47.3981986,8.545588,491.09000000000003,491.09000000000003,1757458866516384,0,0.25,0.5,1.0,1.0,0.0,0.0,0,0,4.27,1.8,-3.84,0.089999996,5.1501174,0,nan,nan,0.0,0.0,0,3,0,0,1,10,0,0,0
2077112000,0,47.3982052,8.5455676,491.067,491.067,1757458866916384,0,0.25,0.5,1.0,1.0,0.0,0.0,0,0,4.08,1.8299999,-3.6499999,0.049999997,5.1766467,0,nan,nan,0.0,0.0,0,3,0,0,1,10,0,0,0
2077516000,0,47.398211499999995,8.5455498,491.055,491.055,1757458867316384,0,0.25,0.5,1.0,1.0,0.0,0.0,0,0,3.3899999,1.67,-2.96,0.02,5.226214,0,nan,nan,0.0,0.0,0,3,0,0,1,10,0,0,0
2077916000,0,47.3982171,8.545537,491.063,491.063,1757458867716384,0,0.25,0.5,1.0,1.0,0.0,0.0,0,0,2.35,1.41,-1.88,-0.04,5.356066,0,nan,nan,0.0,0.0,0,3,0,0,1,10,0,0,0
2078316000,0,47.3982214,8.545529199999999,491.06600000000003,491.06600000000003,1757458868112384,0,0.25,0.5,1.0,1.0,0.0,0.0,0,0,1.48,1.0,-1.11,-0.04,5.446125,0,nan,nan,0.0,0.0,0,3,0,0,1,10,0,0,0
2078716000,0,47.3982242,8.5455246,491.06600000000003,491.06600000000003,1757458868516384,0,0.25,0.5,1.0,1.0,0.0,0.0,0,0,0.85999995,0.55,-0.65999997,0.04,5.404063,0,nan,nan,0.0,0.0,0,3,0,0,1,10,0,0,0
2079116000,0,47.3982258,8.5455217,491.057,491.057,1757458868916384,0,0.25,0.5,1.0,1.0,0.0,0.0,0,0,0.53999996,0.31,-0.44,-0.01,5.323254,0,nan,nan,0.0,0.0,0,3,0,0,1,10,0,0,0
2079516000,0,47.398226799999996,8.5455198,491.06100000000004,491.06100000000004,1757458869316384,0,0.25,0.5,1.0,1.0,0.0,0.0,0,0,0.37,0.21,-0.29,-0.03,5.3435,0,nan,nan,0.0,0.0,0,3,0,0,1,10,0,0,0
2079916000,0,47.398227299999995,8.5455185,491.062,491.062,1757458869716384,0,0.25,0.5,1.0,1.0,0.0,0.0,0,0,0.25,0.099999994,-0.22,0.01,5.141391,0,nan,nan,0.0,0.0,0,3,0,0,1,10,0,0,0
2080316000,0,47.3982277,8.5455174,491.06,491.06,1757458870112384,0,0.25,0.5,1.0,1.0,0.0,0.0,0,0,0.19999999,0.08,-0.17999999,0.049999997,5.128475,0,nan,nan,0.0,0.0,0,3,0,0,1,10,0,0,0
2080712000,0,47.398227899999995,8.5455164,491.047,491.047,1757458870516384,0,0.25,0.5,1.0,1.0,0.0,0.0,0,0,0.17999999,0.049999997,-0.16,0.03,5.0476665,0,nan,nan,0.0,0.0,0,3,0,0,1,10,0,0,0
2081116000,0,47.3982281,8.5455154,491.04200000000003,491.04200000000003,1757458870916384,0,0.25,0.5,1.0,1.0,0.0,0.0,0,0,0.17999999,0.03,-0.17,0.0,4.9094367,0,nan,nan,0.0,0.0,0,3,0,0,1,10,0,0,0
2081516000,0,47.3982282,8.5455145,491.033,491.033,1757458871316384,0,0.25,0.5,1.0,1.0,0.0,0.0,0,0,0.17,0.049999997,-0.17,-0.01,5.0419073,0,nan,nan,0.0,0.0,0,3,0,0,1,10,0,0,0
2081912000,0,47.398228499999995,8.545513699999999,491.028,491.028,1757458871716384,0,0.25,0.5,1.0,1.0,0.0,0.0,0,0,0.14999999,0.06,-0.13,0.06,5.145754,0,nan,nan,0.0,0.0,0,3,0,0,1,10,0,0,0
2082316000,0,47.398228599999996,8.545513,490.923,490.923,1757458872112384,0,0.25,0.5,1.0,1.0,0.0,0.0,0,0,0.13,0.049999997,-0.11,0.59,5.1625094,0,nan,nan,0.0,0.0,0,3,0,0,1,10,0,0,0
2082716000,0,47.3982289,8.5455126,490.617,490.617,1757458872516384,0,0.25,0.5,1.0,1.0,0.0,0.0,0,0,0.07,0.049999997,-0.06,0.72999996,5.424658,0,nan,nan,0.0,0.0,0,3,0,0,1,10,0,0,0
2083116000,0,47.398229,8.5455124,490.341,490.341,1757458872916384,0,0.25,0.5,1.0,1.0,0.0,0.0,0,0,0.03,0.01,-0.03,0.65999997,5.2300534,0,nan,nan,0.0,0.0,0,3,0,0,1,10,0,0,0
2083516000,0,47.398229099999995,8.5455122,490.06100000000004,490.06100000000004,1757458873316384,0,0.25,0.5,1.0,1.0,0.0,0.0,0,0,0.01,0.0,0.0,0.65999997,3.2703977,0,nan,nan,0.0,0.0,0,3,0,0,1,10,0,0,0
2083916000,0,47.398229,8.5455122,489.791,489.791,1757458873716384,0,0.25,0.5,1.0,1.0,0.0,0.0,0,0,0.0,0.0,0.0,0.72999996,6.137275,0,nan,nan,0.0,0.0,0,3,0,0,1,10,0,0,0
2084316000,0,47.398229,8.5455122,489.509,489.509,1757458874112384,0,0.25,0.5,1.0,1.0,0.0,0.0,0,0,0.01,-0.03,-0.01,0.72999996,3.4409165,0,nan,nan,0.0,0.0,0,3,0,0,1,10,0,0,0
2084716000,0,47.3982289,8.5455121,489.22200000000004,489.22200000000004,1757458874516384,0,0.25,0.5,1.0,1.0,0.0,0.0,0,0,0.02,0.0,0.01,0.71999997,2.0083504,0,nan,nan,0.0,0.0,0,3,0,0,1,10,0,0,0
2085116000,0,47.3982289,8.5455122,488.939,488.939,1757458874916384,0,0.25,0.5,1.0,1.0,0.0,0.0,0,0,0.02,-0.02,-0.01,0.75,3.4871678,0,nan,nan,0.0,0.0,0,3,0,0,1,10,0,0,0
2085516000,0,47.3982288,8.5455122,488.635,488.635,1757458875316384,0,0.25,0.5,1.0,1.0,0.0,0.0,0,0,0.03,-0.02,-0.01,0.72999996,3.6178927,0,nan,nan,0.0,0.0,0,3,0,0,1,10,0,0,0
2085912000,0,47.3982287,8.545512,488.358,488.358,1757458875716384,0,0.25,0.5,1.0,1.0,0.0,0.0,0,0,0.04,-0.04,-0.03,0.69,3.737099,0,nan,nan,0.0,0.0,0,3,0,0,1,10,0,0,0
2086316000,0,47.398228599999996,8.5455119,488.1,488.1,1757458876112384,0,0.25,0.5,1.0,1.0,0.0,0.0,0,0,0.0,0.0,-0.01,-0.04,4.4724064,0,nan,nan,0.0,0.0,0,3,0,0,1,10,0,0,0
2086716000,0,47.398228599999996,8.545512,488.09700000000004,488.09700000000004,1757458876516384,0,0.25,0.5,1.0,1.0,0.0,0.0,0,0,0.0,0.0,-0.01,0.0,4.147251,0,nan,nan,0.0,0.0,0,3,0,0,1,10,0,0,0
2087116000,0,47.398228599999996,8.5455119,488.099,488.099,1757458876916384,0,0.25,0.5,1.0,1.0,0.0,0.0,0,0,0.0,0.0,0.0,0.04,2.2572343,0,nan,nan,0.0,0.0,0,3,0,0,1,10,0,0,0
2087520000,0,47.398228499999995,8.5455119,488.098,488.098,1757458877316384,0,0.25,0.5,1.0,1.0,0.0,0.0,0,0,0.0,0.0,0.02,0.049999997,1.8476056,0,nan,nan,0.0,0.0,0,3,0,0,1,10,0,0,0
2087916000,0,47.398228599999996,8.5455119,488.09700000000004,488.09700000000004,1757458877716384,0,0.25,0.5,1.0,1.0,0.0,0.0,0,0,0.0,0.0,0.0,0.04,2.3970351,0,nan,nan,0.0,0.0,0,3,0,0,1,10,0,0,0
2088316000,0,47.398228499999995,8.5455119,488.105,488.105,1757458878112384,0,0.25,0.5,1.0,1.0,0.0,0.0,0,0,0.0,0.0,-0.01,-0.01,4.883082,0,nan,nan,0.0,0.0,0,3,0,0,1,10,0,0,0
2088716000,0,47.398228599999996,8.545512,488.10900000000004,488.10900000000004,1757458878516384,0,0.25,0.5,1.0,1.0,0.0,0.0,0,0,0.0,0.01,0.0,-0.01,6.071477,0,nan,nan,0.0,0.0,0,3,0,0,1,10,0,0,0
2089112000,0,47.398228599999996,8.545512,488.105,488.105,1757458878916384,0,0.25,0.5,1.0,1.0,0.0,0.0,0,0,0.0,0.0,0.0,-0.01,3.1058133,0,nan,nan,0.0,0.0,0,3,0,0,1,10,0,0,0
2089516000,0,47.398228599999996,8.5455119,488.104,488.104,1757458879316384,0,0.25,0.5,1.0,1.0,0.0,0.0,0,0,0.0,0.0,0.01,0.0,1.9790288,0,nan,nan,0.0,0.0,0,3,0,0,1,10,0,0,0
2089916000,0,47.398228599999996,8.5455119,488.1,488.1,1757458879716384,0,0.25,0.5,1.0,1.0,0.0,0.0,0,0,0.0,0.0,0.01,0.01,1.9720474,0,nan,nan,0.0,0.0,0,3,0,0,1,10,0,0,0
2090316000,0,47.398228499999995,8.5455119,488.09700000000004,488.09700000000004,1757458880112384,0,0.25,0.5,1.0,1.0,0.0,0.0,0,0,0.0,0.01,0.02,-0.02,1.1285298,0,nan,nan,0.0,0.0,0,3,0,0,1,10,0,0,0
