timestamp,timestamp_sample,ref_timestamp,ref_lat,ref_lon,x,y,z,delta_xy[0],delta_xy[1],delta_z,vx,vy,vz,z_deriv,delta_vxy[0],delta_vxy[1],delta_vz,ax,ay,az,heading,heading_var,unaided_heading,delta_heading,tilt_var,ref_alt,dist_bottom,dist_bottom_var,delta_dist_bottom,eph,epv,evh,evv,vxy_max,vz_max,hagl_min,hagl_max_z,hagl_max_xy,xy_valid,z_valid,v_xy_valid,v_z_valid,xy_reset_counter,z_reset_counter,vxy_reset_counter,vz_reset_counter,heading_reset_counter,heading_good_for_control,xy_global,z_global,dist_bottom_valid,dist_bottom_reset_counter,dist_bottom_sensor_bitfield,dead_reckoning
2043328000,2043328000,4676000,47.3977508,8.5456073,46.563408,-16.585787,-0.00680542,0.0,0.0,-488.10132,-0.0006256633,-0.046656635,-0.007845477,-0.0045550875,-0.005474932,0.002292138,0.00066206604,0.052487474,-0.019260434,-0.016339587,2.988752,0.00034841013,1.3164685,0.06875375,3.4583503e-05,488.101,0.1000061,0.010000001,-488.10132,0.46583548,0.2859354,0.16192791,0.07114906,inf,inf,inf,inf,inf,1,1,1,1,4,3,3,1,2,1,1,1,0,3,0,0
2043336000,2043336000,4676000,47.3977508,8.5456073,46.563713,-16.585691,-0.006866455,0.0,0.0,-488.10132,0.00077958254,-0.046922173,-0.009131942,-0.0058847875,-0.005474932,0.002292138,0.00066206604,0.15962006,-0.060299266,-0.15925428,2.9887068,0.00034850457,1.3164248,0.06875375,3.4634882e-05,488.101,0.1000061,0.010000001,-488.10132,0.46664488,0.28537604,0.16226268,0.071101785,inf,inf,inf,inf,inf,1,1,1,1,4,3,3,1,2,1,1,1,0,3,0,0
2043344000,2043344000,4676000,47.3977508,8.5456073,46.56402,-16.58561,-0.006958008,0.0,0.0,-488.10132,0.0007648779,-0.04700503,-0.0094746,-0.0062696785,-0.005474932,0.002292138,0.00066206604,-0.017390037,-0.036682278,-0.04132278,2.9887307,0.000348599,1.3164506,0.06875375,3.4686294e-05,488.101,0.1000061,0.010000001,-488.10132,0.46745732,0.28576005,0.16259807,0.071161665,inf,inf,inf,inf,inf,1,1,1,1,4,3,3,1,2,1,1,1,0,3,0,0
2043352000,2043352000,4676000,47.3977508,8.5456073,46.564304,-16.585537,-0.007019043,0.0,0.0,-488.10132,0.0010280599,-0.04630759,-0.00888218,-0.0057185185,-0.005474932,0.002292138,0.00066206604,0.018515004,0.06149247,0.075518146,2.9887857,0.0003479538,1.3165071,0.06875375,3.4712863e-05,488.101,0.1000061,0.010000001,-488.10132,0.46826053,0.2861447,0.16290112,0.07122149,inf,inf,inf,inf,inf,1,1,1,1,4,3,3,1,2,1,1,1,0,3,0,0
2043360000,2043360000,4676000,47.3977508,8.5456073,46.56459,-16.585474,-0.0071105957,0.0,0.0,-488.10132,0.0020891244,-0.04598718,-0.008781644,-0.005659089,-0.005474932,0.002292138,0.00066206604,0.11868759,0.01510003,0.013990327,2.9887624,0.0003480481,1.3164856,0.06875375,3.4764344e-05,488.101,0.1000061,0.010000001,-488.10132,0.4690789,0.28653,0.16324234,0.071281284,inf,inf,inf,inf,inf,1,1,1,1,4,3,3,1,2,1,1,1,0,3,0,0
2043368000,2043368000,4676000,47.3977508,8.5456073,46.56488,-16.585417,-0.007171631,0.0,0.0,-488.10132,0.0033183603,-0.0454085,-0.007889882,-0.0048081675,-0.005474932,0.002292138,0.00066206604,0.14012966,0.048105482,0.112852074,2.9887242,0.00034814238,1.3164494,0.06875375,3.4815857e-05,488.101,0.1000061,0.010000001,-488.10132,0.4699003,0.28691593,0.16357972,0.07134103,inf,inf,inf,inf,inf,1,1,1,1,4,3,3,1,2,1,1,1,0,3,0,0
2043376000,2043376000,4676000,47.3977508,8.5456073,46.565163,-16.58537,-0.0072631836,0.0,0.0,-488.10132,0.0034152227,-0.045374945,-0.008441248,-0.005400086,-0.005474932,0.002292138,0.00066206604,-0.0010032926,-0.01933005,-0.06757955,2.9886096,0.00034823667,1.3163366,0.06875375,3.4867415e-05,488.101,0.1000061,0.010000001,-488.10132,0.4707248,0.28730252,0.1639204,0.07140073,inf,inf,inf,inf,inf,1,1,1,1,4,3,3,1,2,1,1,1,0,3,0,0
2043384000,2043384000,4676000,47.3977508,8.5456073,46.56544,-16.585331,-0.0073242188,0.0,0.0,-488.10132,0.0037646727,-0.044931058,-0.009436478,-0.0064355596,-0.005474932,0.002292138,0.00066206604,0.030964497,0.032647416,-0.12310128,2.9886076,0.0003483311,1.3163366,0.06875375,3.4919016e-05,488.101,0.1000061,0.010000001,-488.10132,0.4715523,0.28768972,0.16425796,0.071460396,inf,inf,inf,inf,inf,1,1,1,1,4,3,3,1,2,1,1,1,0,3,0,0
2043400000,2043400000,4676000,47.3977508,8.5456073,46.565987,-16.585289,-0.007507324,0.0,0.0,-488.10132,0.004532493,-0.045649122,-0.010963722,-0.008042724,-0.005474932,0.002292138,0.00066206604,0.030921966,-0.06263767,-0.09244773,2.9885585,0.00034851994,1.3162911,0.06875375,3.5022327e-05,488.101,0.1000061,0.010000001,-488.10132,0.47321656,0.28846607,0.16493456,0.0715796,inf,inf,inf,inf,inf,1,1,1,1,4,3,3,1,2,1,1,1,0,3,0,0
2043408000,2043408000,4676000,47.3977508,8.5456073,46.566254,-16.585285,-0.0076293945,0.0,0.0,-488.10132,0.0051071094,-0.044881012,-0.011657914,-0.008792485,-0.005474932,0.002292138,0.00066206604,0.060210437,0.07512248,-0.08525978,2.9884865,0.00034861438,1.3162208,0.06875375,3.5074045e-05,488.101,0.1000061,0.010000001,-488.10132,0.47405332,0.28788596,0.16527535,0.07152824,inf,inf,inf,inf,inf,1,1,1,1,4,3,3,1,2,1,1,1,0,3,0,0
2043416000,2043416000,4676000,47.3977508,8.5456073,46.566517,-16.585285,-0.007751465,0.0,0.0,-488.10132,0.004766446,-0.04487851,-0.011734277,-0.008923653,-0.005474932,0.002292138,0.00066206604,-0.053840764,-0.019971436,-0.008075497,2.9884262,0.0003487088,1.3161621,0.06875375,3.512579e-05,488.101,0.1000061,0.010000001,-488.10132,0.47489315,0.28827444,0.16561565,0.07158781,inf,inf,inf,inf,inf,1,1,1,1,4,3,3,1,2,1,1,1,0,3,0,0
2043424000,2043424000,4676000,47.3977508,8.5456073,46.56677,-16.585299,-0.007873535,0.0,0.0,-488.10132,0.0051624626,-0.045320176,-0.011929163,-0.009172593,-0.005474932,0.002292138,0.00066206604,0.038727496,-0.07476438,-0.022933817,2.9885173,0.00034806423,1.3162549,0.06875375,3.5151905e-05,488.101,0.1000061,0.010000001,-488.10132,0.4757222,0.28866354,0.16591923,0.071647346,inf,inf,inf,inf,inf,1,1,1,1,4,3,3,1,2,1,1,1,0,3,0,0
2043440000,2043440000,4676000,47.3977508,8.5456073,46.56726,-16.585361,-0.008117676,0.0,0.0,-488.10132,0.005040029,-0.045519553,-0.011941954,-0.0092904745,-0.005474932,0.002292138,0.00066206604,-0.036337607,0.011034671,0.056042798,2.9885716,0.00034825303,1.3163114,0.06875375,3.5255587e-05,488.101,0.1000061,0.010000001,-488.10132,0.47741696,0.28944364,0.1665981,0.071766295,inf,inf,inf,inf,inf,1,1,1,1,4,3,3,1,2,1,1,1,0,3,0,0
2043448000,2043448000,4676000,47.3977508,8.5456073,46.5675,-16.585405,-0.008239746,0.0,0.0,-488.10132,0.0061584827,-0.04514484,-0.011595994,-0.008994866,-0.005474932,0.002292138,0.00066206604,0.13001855,0.028964024,0.044550743,2.988515,0.00034834733,1.316256,0.06875375,3.5307472e-05,488.101,0.1000061,0.010000001,-488.10132,0.47826898,0.28983462,0.16693975,0.071825705,inf,inf,inf,inf,inf,1,1,1,1,4,3,3,1,2,1,1,1,0,3,0,0
2043456000,2043456000,4676000,47.3977508,8.5456073,46.56774,-16.585457,-0.008331299,0.0,0.0,-488.10132,0.007357081,-0.04537039,-0.011248315,-0.008696177,-0.005474932,0.002292138,0.00066206604,0.14035073,-0.045540005,0.044727694,2.9886034,0.0003484418,1.3163457,0.06875375,3.535941e-05,488.101,0.1000061,0.010000001,-488.10132,0.47912413,0.29022628,0.1672822,0.07188507,inf,inf,inf,inf,inf,1,1,1,1,4,3,3,1,2,1,1,1,0,3,0,0
2043464000,2043464000,4676000,47.3977508,8.5456073,46.567986,-16.585518,-0.008453369,0.0,0.0,-488.10132,0.0080531705,-0.04534059,-0.011866472,-0.009362008,-0.005474932,0.002292138,0.00066206604,0.07784164,-0.013105301,-0.076039225,2.988547,0.0003485363,1.3162904,0.06875375,3.5411394e-05,488.101,0.1000061,0.010000001,-488.10132,0.4799824,0.29061854,0.1676255,0.07194439,inf,inf,inf,inf,inf,1,1,1,1,4,3,3,1,2,1,1,1,0,3,0,0
2043480000,2043480000,4676000,47.3977508,8.5456073,46.56847,-16.585678,-0.008666992,0.0,0.0,-488.10132,0.008546332,-0.04541365,-0.011478627,-0.00905997,-0.005474932,0.002292138,0.00066206604,0.029937886,-0.03563887,0.10085012,2.988484,0.00034861386,1.3162286,0.06875375,3.551073e-05,488.101,0.1000061,0.010000001,-488.10132,0.4817062,0.29040998,0.1683051,0.07194816,inf,inf,inf,inf,inf,1,1,1,1,4,3,3,1,2,1,1,1,0,3,0,0
2043488000,2043488000,4676000,47.3977508,8.5456073,46.56871,-16.585772,-0.0087890625,0.0,0.0,-488.10132,0.009499742,-0.04540123,-0.011868195,-0.009487806,-0.005474932,0.002292138,0.00066206604,0.11063295,-0.01295945,-0.047683712,2.9885516,0.00034870836,1.3162968,0.06875375,3.5562814e-05,488.101,0.1000061,0.010000001,-488.10132,0.48257378,0.29080284,0.16865501,0.07200745,inf,inf,inf,inf,inf,1,1,1,1,4,3,3,1,2,1,1,1,0,3,0,0
2043496000,2043496000,4676000,47.3977508,8.5456073,46.56894,-16.585867,-0.008911133,0.0,0.0,-488.10132,0.009616879,-0.045117438,-0.012464511,-0.010122105,-0.005474932,0.002292138,0.00066206604,0.007660479,0.020997427,-0.07355632,2.9886556,0.00034806508,1.3164012,0.06875375,3.5588462e-05,488.101,0.1000061,0.010000001,-488.10132,0.48342884,0.29119632,0.16896103,0.072066694,inf,inf,inf,inf,inf,1,1,1,1,4,3,3,1,2,1,1,1,0,3,0,0
2043504000,2043504000,4676000,47.3977508,8.5456073,46.569164,-16.585974,-0.009002686,0.0,0.0,-488.10132,0.0102421,-0.04595413,-0.012117187,-0.009812511,-0.005474932,0.002292138,0.00066206604,0.07141142,-0.11862413,0.0443696,2.9887636,0.00034815932,1.3165109,0.06875375,3.56406e-05,488.101,0.1000061,0.010000001,-488.10132,0.48430255,0.29159042,0.16930343,0.07212589,inf,inf,inf,inf,inf,1,1,1,1,4,3,3,1,2,1,1,1,0,3,0,0
2043520000,2043520000,4676000,47.3977508,8.5456073,46.5696,-16.586214,-0.009246826,0.0,0.0,-488.10132,0.00970186,-0.04546217,-0.01302149,-0.010789023,-0.005474932,0.002292138,0.00066206604,-0.051389016,0.064398214,-0.0482602,2.9887915,0.00034834805,1.3165419,0.06875375,3.574502e-05,488.101,0.1000061,0.010000001,-488.10132,0.4860594,0.2923805,0.1699918,0.07224415,inf,inf,inf,inf,inf,1,1,1,1,4,3,3,1,2,1,1,1,0,3,0,0
2043528000,2043528000,4676000,47.3977508,8.5456073,46.56981,-16.586338,-0.009338379,0.0,0.0,-488.10132,0.00982904,-0.044457797,-0.012636124,-0.010438367,-0.005474932,0.002292138,0.00066206604,0.009824089,0.1127504,0.049042046,2.9888659,0.00034844235,1.3166177,0.06875375,3.5797268e-05,488.101,0.1000061,0.010000001,-488.10132,0.48694256,0.2927765,0.17033967,0.07230323,inf,inf,inf,inf,inf,1,1,1,1,4,3,3,1,2,1,1,1,0,3,0,0
2043536000,2043536000,4676000,47.3977508,8.5456073,46.570015,-16.586464,-0.009460449,0.0,0.0,-488.10132,0.009608881,-0.04416904,-0.012429116,-0.010264989,-0.005474932,0.002292138,0.00066206604,-0.03337596,0.023694867,0.026721505,2.9889581,0.00034853676,1.3167114,0.06875375,3.5849567e-05,488.101,0.1000061,0.010000001,-488.10132,0.48782888,0.29317313,0.17068988,0.07236227,inf,inf,inf,inf,inf,1,1,1,1,4,3,3,1,2,1,1,1,0,3,0,0
2043544000,2043544000,4676000,47.3977508,8.5456073,46.570213,-16.586596,-0.0095825195,0.0,0.0,-488.10132,0.009196606,-0.04437079,-0.01274919,-0.010618395,-0.005474932,0.002292138,0.00066206604,-0.0571842,-0.037234575,-0.039188653,2.989039,0.00034863138,1.3167934,0.06875375,3.5901925e-05,488.101,0.1000061,0.010000001,-488.10132,0.4887184,0.2935704,0.17103976,0.07242127,inf,inf,inf,inf,inf,1,1,1,1,4,3,3,1,2,1,1,1,0,3,0,0
2043560000,2043560000,4676000,47.3977508,8.5456073,46.5706,-16.586872,-0.00982666,0.0,0.0,-488.10132,0.010648566,-0.043428656,-0.013143442,-0.011093267,-0.005474932,0.002292138,0.00066206604,0.103118986,0.0066625285,-0.1076227,2.98888,0.00034882047,1.3166366,0.06875375,3.6006735e-05,488.101,0.1000061,0.010000001,-488.10132,0.49050695,0.29334402,0.17174044,0.072420545,inf,inf,inf,inf,inf,1,1,1,1,4,3,3,1,2,1,1,1,0,3,0,0
2043568000,2043568000,4676000,47.3977508,8.5456073,46.570797,-16.587017,-0.0099487305,0.0,0.0,-488.10132,0.011630328,-0.043706823,-0.013972088,-0.011960722,-0.005474932,0.002292138,0.00066206604,0.11785171,-0.045803104,-0.102670856,2.9888692,0.00034817826,1.3166268,0.06875375,3.6031895e-05,488.101,0.1000061,0.010000001,-488.10132,0.49138838,0.2937418,0.17204688,0.0724795,inf,inf,inf,inf,inf,1,1,1,1,4,3,3,1,2,1,1,1,0,3,0,0
2043576000,2043576000,4676000,47.3977508,8.5456073,46.570995,-16.587172,-0.010070801,0.0,0.0,-488.10132,0.0121115185,-0.04420402,-0.014085143,-0.012111554,-0.005474932,0.002292138,0.00066206604,0.055454217,-0.07283554,-0.013248994,2.9888306,0.0003482725,1.3165896,0.06875375,3.6084362e-05,488.101,0.1000061,0.010000001,-488.10132,0.4922904,0.2941402,0.172396,0.07253843,inf,inf,inf,inf,inf,1,1,1,1,4,3,3,1,2,1,1,1,0,3,0,0
2043584000,2043584000,4676000,47.3977508,8.5456073,46.571194,-16.587336,-0.010192871,0.0,0.0,-488.10132,0.0124677485,-0.04435851,-0.014328572,-0.012391674,-0.005474932,0.002292138,0.00066206604,0.040008277,-0.02966016,-0.029571818,2.9887738,0.00034836686,1.3165343,0.06875375,3.613688e-05,488.101,0.1000061,0.010000001,-488.10132,0.49319562,0.29453918,0.17274621,0.07259731,inf,inf,inf,inf,inf,1,1,1,1,4,3,3,1,2,1,1,1,0,3,0,0
2043600000,2043600000,4676000,47.3977508,8.5456073,46.571587,-16.587694,-0.010467529,0.0,0.0,-488.10132,0.013679428,-0.045579135,-0.014743226,-0.012876674,-0.005474932,0.002292138,0.00066206604,0.089942716,-0.05736678,-0.062729225,2.988784,0.00034855588,1.3165474,0.06875375,3.6242054e-05,488.101,0.1000061,0.010000001,-488.10132,0.4950157,0.29533914,0.17344207,0.07271493,inf,inf,inf,inf,inf,1,1,1,1,4,3,3,1,2,1,1,1,0,3,0,0
2043608000,2043608000,4676000,47.3977508,8.5456073,46.571785,-16.587887,-0.0105896,0.0,0.0,-488.10132,0.013762013,-0.04591986,-0.014614042,-0.01278139,-0.005474932,0.002292138,0.00066206604,0.006279695,-0.05194775,0.016930046,2.9887319,0.0003486503,1.3164964,0.06875375,3.629469e-05,488.101,0.1000061,0.010000001,-488.10132,0.49593055,0.29574007,0.17379148,0.07277369,inf,inf,inf,inf,inf,1,1,1,1,4,3,3,1,2,1,1,1,0,3,0,0
2043616000,2043616000,4676000,47.3977508,8.5456073,46.57198,-16.588087,-0.01071167,0.0,0.0,-488.10132,0.013852545,-0.046021447,-0.014580772,-0.012781198,-0.005474932,0.002292138,0.00066206604,0.0074296254,-0.021739475,0.0049173827,2.9886305,0.00034874486,1.3163965,0.06875375,3.6347377e-05,488.101,0.1000061,0.010000001,-488.10132,0.49684864,0.2961416,0.17414458,0.072832406,inf,inf,inf,inf,inf,1,1,1,1,4,3,3,1,2,1,1,1,0,3,0,0
2043624000,2043624000,4676000,47.3977508,8.5456073,46.572174,-16.588295,-0.010864258,0.0,0.0,-488.10132,0.014063211,-0.046268478,-0.013848006,-0.0120855365,-0.005474932,0.002292138,0.00066206604,0.022604242,-0.039616402,0.0924305,2.988688,0.00034883938,1.3164551,0.06875375,3.6400095e-05,488.101,0.1000061,0.010000001,-488.10132,0.49776992,0.2954954,0.1744968,0.07276843,inf,inf,inf,inf,inf,1,1,1,1,4,3,3,1,2,1,1,1,0,3,0,0
2043640000,2043640000,4676000,47.3977508,8.5456073,46.57256,-16.588728,-0.011108398,0.0,0.0,-488.10132,0.014763762,-0.046449933,-0.014549663,-0.012858376,-0.005474932,0.002292138,0.00066206604,0.0058862874,0.015282785,-0.06937514,2.9887583,0.00034829252,1.3165281,0.06875375,3.647751e-05,488.101,0.1000061,0.010000001,-488.10132,0.4996024,0.29629874,0.1751554,0.072885826,inf,inf,inf,inf,inf,1,1,1,1,4,3,3,1,2,1,1,1,0,3,0,0
2043648000,2043648000,4676000,47.3977508,8.5456073,46.57275,-16.588951,-0.011260986,0.0,0.0,-488.10132,0.0152059235,-0.046523847,-0.014887644,-0.013230415,-0.005474932,0.002292138,0.00066206604,0.052025087,-0.017397908,-0.04148483,2.9887898,0.00034838694,1.3165612,0.06875375,3.653034e-05,488.101,0.1000061,0.010000001,-488.10132,0.5005331,0.29670137,0.17550936,0.07294446,inf,inf,inf,inf,inf,1,1,1,1,4,3,3,1,2,1,1,1,0,3,0,0
2043656000,2043656000,4676000,47.3977508,8.5456073,46.57282,-16.588858,-0.0113220215,0.0,0.0,-488.10132,0.015181292,-0.0465065,-0.01580035,-0.014100357,-0.005474932,0.002292138,0.00066206604,0.003531373,-0.02351835,-0.11661462,2.988801,0.00034817043,1.3165741,0.06875375,3.414222e-05,488.101,0.1000061,0.010000001,-488.10132,0.45870212,0.28319213,0.15896635,0.070686735,inf,inf,inf,inf,inf,1,1,1,1,4,3,3,1,2,1,1,1,0,3,0,0
2043664000,2043664000,4676000,47.3977508,8.5456073,46.57288,-16.588778,-0.011383057,0.0,0.0,-488.10132,0.014087534,-0.04659189,-0.016648619,-0.014907672,-0.005474932,0.002292138,0.00066206604,-0.1302376,-0.035602935,-0.1084879,2.9887803,0.0003482648,1.3165538,0.06875375,3.419326e-05,488.101,0.1000061,0.010000001,-488.10132,0.4594847,0.2835719,0.15930077,0.07074691,inf,inf,inf,inf,inf,1,1,1,1,4,3,3,1,2,1,1,1,0,3,0,0
2043680000,2043680000,4676000,47.3977508,8.5456073,46.572998,-16.588667,-0.011566162,0.0,0.0,-488.10132,0.01443912,-0.047355425,-0.01760109,-0.015783124,-0.005474932,0.002292138,0.00066206604,0.042460598,0.014991783,-0.015866475,2.9888527,0.00034834244,1.3166273,0.06875375,3.4291093e-05,488.101,0.1000061,0.010000001,-488.10132,0.46105736,0.28433338,0.15996172,0.07086711,inf,inf,inf,inf,inf,1,1,1,1,4,3,3,1,2,1,1,1,0,3,0,0
2043688000,2043688000,4676000,47.3977508,8.5456073,46.57306,-16.588625,-0.011627197,0.0,0.0,-488.10132,0.014190802,-0.046651144,-0.017612154,-0.015749168,-0.005474932,0.002292138,0.00066206604,-0.024783613,0.06508309,-0.0038263386,2.9888403,0.00034843685,1.3166153,0.06875375,3.4342243e-05,488.101,0.1000061,0.010000001,-488.10132,0.46184886,0.2837868,0.16029474,0.07082242,inf,inf,inf,inf,inf,1,1,1,1,4,3,3,1,2,1,1,1,0,3,0,0
2043696000,2043696000,4676000,47.3977508,8.5456073,46.57312,-16.588594,-0.01171875,0.0,0.0,-488.10132,0.015090749,-0.047053535,-0.017202377,-0.015296268,-0.005474932,0.002292138,0.00066206604,0.11862076,-0.07257025,0.04884833,2.988876,0.0003485313,1.3166516,0.06875375,3.439344e-05,488.101,0.1000061,0.010000001,-488.10132,0.46264338,0.28416792,0.16062996,0.07088249,inf,inf,inf,inf,inf,1,1,1,1,4,3,3,1,2,1,1,1,0,3,0,0
2043704000,2043704000,4676000,47.3977508,8.5456073,46.573185,-16.588581,-0.011779785,0.0,0.0,-488.10132,0.015414812,-0.04744616,-0.016916601,-0.014969233,-0.005474932,0.002292138,0.00066206604,0.046717558,-0.070637695,0.03341585,2.9889224,0.000347885,1.3166986,0.06875375,3.44203e-05,488.101,0.1000061,0.010000001,-488.10132,0.4634297,0.28454965,0.1609289,0.07094251,inf,inf,inf,inf,inf,1,1,1,1,4,3,3,1,2,1,1,1,0,3,0,0
2043720000,2043720000,4676000,47.3977508,8.5456073,46.57331,-16.58859,-0.011932373,0.0,0.0,-488.10132,0.014420009,-0.04762196,-0.015716854,-0.013691988,-0.005474932,0.002292138,0.00066206604,-0.0733245,0.00949414,0.08635269,2.9889824,0.00034807343,1.3167596,0.06875375,3.4522833e-05,488.101,0.1000061,0.010000001,-488.10132,0.46503344,0.28531507,0.16160727,0.07106245,inf,inf,inf,inf,inf,1,1,1,1,4,3,3,1,2,1,1,1,0,3,0,0
2043728000,2043728000,4676000,47.3977508,8.5456073,46.57337,-16.588612,-0.012023926,0.0,0.0,-488.10132,0.014533957,-0.047540385,-0.0155450925,-0.013484537,-0.005474932,0.002292138,0.00066206604,0.020107964,-0.009516111,0.019357072,2.988965,0.0003481677,1.3167427,0.06875375,3.4574157e-05,488.101,0.1000061,0.010000001,-488.10132,0.4658399,0.28569874,0.161944,0.07112236,inf,inf,inf,inf,inf,1,1,1,1,4,3,3,1,2,1,1,1,0,3,0,0
2043736000,2043736000,4676000,47.3977508,8.5456073,46.57343,-16.588642,-0.012084961,0.0,0.0,-488.10132,0.01485568,-0.047480512,-0.015391592,-0.013297542,-0.005474932,0.002292138,0.00066206604,0.045965787,-0.011639016,0.017134937,2.9889894,0.000348262,1.3167675,0.06875375,3.462552e-05,488.101,0.1000061,0.010000001,-488.10132,0.46664935,0.28608304,0.16228156,0.07118222,inf,inf,inf,inf,inf,1,1,1,1,4,3,3,1,2,1,1,1,0,3,0,0
2043744000,2043744000,4676000,47.3977508,8.5456073,46.57349,-16.58868,-0.012145996,0.0,0.0,-488.10132,0.014677963,-0.04735776,-0.0146244345,-0.012500982,-0.005474932,0.002292138,0.00066206604,-0.016572649,-0.0032090945,0.09393505,2.9890552,0.00034835632,1.3168337,0.06875375,3.4676923e-05,488.101,0.1000061,0.010000001,-488.10132,0.46746185,0.28552252,0.16261837,0.071134694,inf,inf,inf,inf,inf,1,1,1,1,4,3,3,1,2,1,1,1,0,3,0,0
2043760000,2043760000,4676000,47.3977508,8.5456073,46.573612,-16.588785,-0.012268066,0.0,0.0,-488.10132,0.014955873,-0.046965994,-0.01255136,-0.010374763,-0.005474932,0.002292138,0.00066206604,0.02854285,0.022046456,0.11153705,2.9890773,0.00034854526,1.3168569,0.06875375,3.477987e-05,488.101,0.1000061,0.010000001,-488.10132,0.46909603,0.2862918,0.16329527,0.07125436,inf,inf,inf,inf,inf,1,1,1,1,4,3,3,1,2,1,1,1,0,3,0,0
2043768000,2043768000,4676000,47.3977508,8.5456073,46.573673,-16.588848,-0.012329102,0.0,0.0,-488.10132,0.015345008,-0.04679974,-0.012442828,-0.0102423495,-0.005474932,0.002292138,0.00066206604,0.053993627,0.0038490153,0.011770519,2.9891167,0.00034863965,1.3168964,0.06875375,3.4831395e-05,488.101,0.1000061,0.010000001,-488.10132,0.46991768,0.28667742,0.16363321,0.07131412,inf,inf,inf,inf,inf,1,1,1,1,4,3,3,1,2,1,1,1,0,3,0,0
2043776000,2043776000,4676000,47.3977508,8.5456073,46.573742,-16.588917,-0.012390137,0.0,0.0,-488.10132,0.015494708,-0.04650439,-0.013179217,-0.010956682,-0.005474932,0.002292138,0.00066206604,0.023692004,0.020196535,-0.09379256,2.9891028,0.00034799427,1.3168826,0.06875375,3.48578e-05,488.101,0.1000061,0.010000001,-488.10132,0.47072962,0.28706366,0.16393276,0.07137385,inf,inf,inf,inf,inf,1,1,1,1,4,3,3,1,2,1,1,1,0,3,0,0
2043784000,2043784000,4676000,47.3977508,8.5456073,46.57381,-16.588995,-0.012451172,0.0,0.0,-488.10132,0.015661804,-0.046952397,-0.013349543,-0.011105821,-0.005474932,0.002292138,0.00066206604,0.025776152,-0.07222256,-0.022984574,2.989084,0.00034808856,1.3168647,0.06875375,3.4909393e-05,488.101,0.1000061,0.010000001,-488.10132,0.47155723,0.28745052,0.1642725,0.07143353,inf,inf,inf,inf,inf,1,1,1,1,4,3,3,1,2,1,1,1,0,3,0,0
2043800000,2043800000,4676000,47.3977508,8.5456073,46.57395,-16.589178,-0.01260376,0.0,0.0,-488.10132,0.016725447,-0.046422858,-0.013856987,-0.011575919,-0.005474932,0.002292138,0.00066206604,0.09201977,0.051033292,0.010125338,2.9891114,0.0003482772,1.3168933,0.06875375,3.5012687e-05,488.101,0.1000061,0.010000001,-488.10132,0.47322163,0.28822622,0.1649549,0.07155277,inf,inf,inf,inf,inf,1,1,1,1,4,3,3,1,2,1,1,1,0,3,0,0
2043808000,2043808000,4676000,47.3977508,8.5456073,46.57403,-16.589277,-0.012664795,0.0,0.0,-488.10132,0.017822536,-0.046066433,-0.014177435,-0.011879829,-0.005474932,0.002292138,0.00066206604,0.14177811,0.029743494,-0.041608695,2.9891555,0.00034837172,1.3169379,0.06875375,3.5064404e-05,488.101,0.1000061,0.010000001,-488.10132,0.47405848,0.28861502,0.16529836,0.07161232,inf,inf,inf,inf,inf,1,1,1,1,4,3,3,1,2,1,1,1,0,3,0,0
2043816000,2043816000,4676000,47.3977508,8.5456073,46.57412,-16.58938,-0.012756348,0.0,0.0,-488.10132,0.018503882,-0.04566053,-0.014064624,-0.011748586,-0.005474932,0.002292138,0.00066206604,0.08973307,0.03637468,0.012536998,2.9891667,0.00034846613,1.3169498,0.06875375,3.511615e-05,488.101,0.1000061,0.010000001,-488.10132,0.4748984,0.28803372,0.16564105,0.071560696,inf,inf,inf,inf,inf,1,1,1,1,4,3,3,1,2,1,1,1,0,3,0,0
2043824000,2043824000,4676000,47.3977508,8.5456073,46.57421,-16.58949,-0.012817383,0.0,0.0,-488.10132,0.01844062,-0.046047848,-0.014357686,-0.012024149,-0.005474932,0.002292138,0.00066206604,-0.0034203893,-0.062357165,-0.038151626,2.9892344,0.00034856057,1.3170183,0.06875375,3.5167934e-05,488.101,0.1000061,0.010000001,-488.10132,0.47574142,0.28842247,0.1659852,0.071620256,inf,inf,inf,inf,inf,1,1,1,1,4,3,3,1,2,1,1,1,0,3,0,0
2043840000,2043840000,4676000,47.3977508,8.5456073,46.574387,-16.589739,-0.012969971,0.0,0.0,-488.10132,0.01839713,-0.04683918,-0.0154471835,-0.013080942,-0.005474932,0.002292138,0.00066206604,0.024816116,-0.09328022,-0.109155655,2.989287,0.00034801124,1.3170717,0.06875375,3.524576e-05,488.101,0.1000061,0.010000001,-488.10132,0.4774225,0.2892019,0.16663085,0.07173923,inf,inf,inf,inf,inf,1,1,1,1,4,3,3,1,2,1,1,1,0,3,0,0
2043848000,2043848000,4676000,47.3977508,8.5456073,46.57447,-16.589878,-0.013061523,0.0,0.0,-488.10132,0.017717518,-0.04669794,-0.016162764,-0.0137813,-0.005474932,0.002292138,0.00066206604,-0.0805189,0.0045227204,-0.09083794,2.9892213,0.00034810556,1.317008,0.06875375,3.5297653e-05,488.101,0.1000061,0.010000001,-488.10132,0.47827467,0.28959256,0.16697212,0.07179866,inf,inf,inf,inf,inf,1,1,1,1,4,3,3,1,2,1,1,1,0,3,0,0
2043856000,2043856000,4676000,47.3977508,8.5456073,46.574554,-16.59002,-0.013153076,0.0,0.0,-488.10132,0.018019527,-0.046126515,-0.0158627,-0.013466837,-0.005474932,0.002292138,0.00066206604,0.042106383,0.05869586,0.036157664,2.9891398,0.00034819992,1.3169281,0.06875375,3.5349585e-05,488.101,0.1000061,0.010000001,-488.10132,0.47912994,0.28998387,0.16731374,0.07185805,inf,inf,inf,inf,inf,1,1,1,1,4,3,3,1,2,1,1,1,0,3,0,0
2043864000,2043864000,4676000,47.3977508,8.5456073,46.57464,-16.59016,-0.013244629,0.0,0.0,-488.10132,0.018498404,-0.045134522,-0.015040497,-0.012631128,-0.005474932,0.002292138,0.00066206604,0.06414359,0.111659735,0.10146386,2.9890785,0.00034829427,1.3168685,0.06875375,3.540155e-05,488.101,0.1000061,0.010000001,-488.10132,0.47998834,0.2903758,0.16765435,0.0719174,inf,inf,inf,inf,inf,1,1,1,1,4,3,3,1,2,1,1,1,0,3,0,0
2043880000,2043880000,4676000,47.3977508,8.5456073,46.574814,-16.590443,-0.013427734,0.0,0.0,-488.10132,0.018102052,-0.04474068,-0.01418868,-0.011755421,-0.005474932,0.002292138,0.00066206604,-0.020765029,0.037782993,0.051346604,2.9889119,0.0003483719,1.316706,0.06875375,3.550086e-05,488.101,0.1000061,0.010000001,-488.10132,0.4817123,0.2911616,0.16833097,0.07203596,inf,inf,inf,inf,inf,1,1,1,1,4,3,3,1,2,1,1,1,0,3,0,0
2043888000,2043888000,4676000,47.3977508,8.5456073,46.574898,-16.590591,-0.0134887695,0.0,0.0,-488.10132,0.017520186,-0.044860817,-0.0139106475,-0.011477995,-0.005474932,0.002292138,0.00066206604,-0.06883787,-0.027080752,0.03377534,2.9888833,0.00034846624,1.3166795,0.06875375,3.5552934e-05,488.101,0.1000061,0.010000001,-488.10132,0.48258004,0.29055887,0.16867468,0.071980186,inf,inf,inf,inf,inf,1,1,1,1,4,3,3,1,2,1,1,1,0,3,0,0
2043896000,2043896000,4676000,47.3977508,8.5456073,46.574978,-16.590752,-0.013580322,0.0,0.0,-488.10132,0.017105985,-0.0456344,-0.013826976,-0.011395703,-0.005474932,0.002292138,0.00066206604,-0.047948252,-0.108384274,0.009508337,2.988799,0.00034856063,1.3165975,0.06875375,3.5605044e-05,488.101,0.1000061,0.010000001,-488.10132,0.4834509,0.290952,0.16901602,0.07203945,inf,inf,inf,inf,inf,1,1,1,1,4,3,3,1,2,1,1,1,0,3,0,0
2043904000,2043904000,4676000,47.3977508,8.5456073,46.575054,-16.590923,-0.013671875,0.0,0.0,-488.10132,0.016751068,-0.04620982,-0.013432226,-0.011003323,-0.005474932,0.002292138,0.00066206604,-0.04060528,-0.08325209,0.04842039,2.988877,0.0003486551,1.3166773,0.06875375,3.5657198e-05,488.101,0.1000061,0.010000001,-488.10132,0.48432487,0.29134578,0.16935648,0.072098665,inf,inf,inf,inf,inf,1,1,1,1,4,3,3,1,2,1,1,1,0,3,0,0
2043920000,2043920000,4676000,47.3977508,8.5456073,46.5752,-16.59129,-0.0138549805,0.0,0.0,-488.10132,0.016997809,-0.046729114,-0.012518543,-0.0100952145,-0.005474932,0.002292138,0.00066206604,0.05535852,-0.11199312,0.015580094,2.9889767,0.00034810705,1.3167806,0.06875375,3.573494e-05,488.101,0.1000061,0.010000001,-488.10132,0.48606595,0.2921352,0.17000408,0.07221697,inf,inf,inf,inf,inf,1,1,1,1,4,3,3,1,2,1,1,1,0,3,0,0
2043928000,2043928000,4676000,47.3977508,8.5456073,46.575275,-16.591486,-0.013916016,0.0,0.0,-488.10132,0.017210709,-0.046728414,-0.0128400745,-0.010419972,-0.005474932,0.002292138,0.00066206604,0.03051639,-0.010002668,-0.041037794,2.989053,0.0003482013,1.3168585,0.06875375,3.578719e-05,488.101,0.1000061,0.010000001,-488.10132,0.48694918,0.29253086,0.17035289,0.07227606,inf,inf,inf,inf,inf,1,1,1,1,4,3,3,1,2,1,1,1,0,3,0,0
2043936000,2043936000,4676000,47.3977508,8.5456073,46.575348,-16.59169,-0.014007568,0.0,0.0,-488.10132,0.016885802,-0.04715547,-0.013217382,-0.010800637,-0.005474932,0.002292138,0.00066206604,-0.036781833,-0.06314761,-0.04798546,2.9889855,0.00034829567,1.3167927,0.06875375,3.583949e-05,488.101,0.1000061,0.010000001,-488.10132,0.48783556,0.29292718,0.17069995,0.07233513,inf,inf,inf,inf,inf,1,1,1,1,4,3,3,1,2,1,1,1,0,3,0,0
2043944000,2043944000,4676000,47.3977508,8.5456073,46.575424,-16.591904,-0.014099121,0.0,0.0,-488.10132,0.017652353,-0.04754487,-0.013573246,-0.011159883,-0.005474932,0.002292138,0.00066206604,0.09958213,-0.05812405,-0.045281366,2.9889915,0.00034839002,1.3168001,0.06875375,3.5891822e-05,488.101,0.1000061,0.010000001,-488.10132,0.4887251,0.2933241,0.17104928,0.07239415,inf,inf,inf,inf,inf,1,1,1,1,4,3,3,1,2,1,1,1,0,3,0,0
2043960000,2043960000,4676000,47.3977508,8.5456073,46.57558,-16.592354,-0.014312744,0.0,0.0,-488.10132,0.017538624,-0.04796205,-0.013759968,-0.011379466,-0.005474932,0.002292138,0.00066206604,0.021106089,-0.030616548,0.03794301,2.9888012,0.00034857888,1.316613,0.06875375,3.5996614e-05,488.101,0.1000061,0.010000001,-488.10132,0.49051377,0.2930996,0.17174642,0.07239381,inf,inf,inf,inf,inf,1,1,1,1,4,3,3,1,2,1,1,1,0,3,0,0
2043968000,2043968000,4676000,47.3977508,8.5456073,46.57566,-16.592587,-0.014404297,0.0,0.0,-488.10132,0.01745739,-0.047491495,-0.013014405,-0.010650931,-0.005474932,0.002292138,0.00066206604,-0.006572936,0.050259773,0.09268987,2.9886794,0.0003486734,1.3164926,0.06875375,3.604908e-05,488.101,0.1000061,0.010000001,-488.10132,0.4914129,0.29349706,0.17209452,0.07245278,inf,inf,inf,inf,inf,1,1,1,1,4,3,3,1,2,1,1,1,0,3,0,0
2043976000,2043976000,4676000,47.3977508,8.5456073,46.57574,-16.592817,-0.01449585,0.0,0.0,-488.10132,0.018092595,-0.04665862,-0.013303837,-0.010957728,-0.005474932,0.002292138,0.00066206604,0.08293001,0.095832594,-0.03666989,2.9886746,0.00034876796,1.3164892,0.06875375,3.6101577e-05,488.101,0.1000061,0.010000001,-488.10132,0.4923152,0.29389513,0.1724439,0.07251172,inf,inf,inf,inf,inf,1,1,1,1,4,3,3,1,2,1,1,1,0,3,0,0
2043984000,2043984000,4676000,47.3977508,8.5456073,46.575825,-16.593046,-0.01461792,0.0,0.0,-488.10132,0.01868987,-0.046638105,-0.014028064,-0.011699573,-0.005474932,0.002292138,0.00066206604,0.07834683,-0.005816505,-0.09100418,2.9887,0.00034812637,1.3165159,0.06875375,3.6126625e-05,488.101,0.1000061,0.010000001,-488.10132,0.49320263,0.29429382,0.17275175,0.072570615,inf,inf,inf,inf,inf,1,1,1,1,4,3,3,1,2,1,1,1,0,3,0,0
2044000000,2044000000,4676000,47.3977508,8.5456073,46.576004,-16.593517,-0.014831543,0.0,0.0,-488.10132,0.01949468,-0.045640666,-0.015112042,-0.012818864,-0.005474932,0.002292138,0.00066206604,0.053539243,0.09198469,-0.03563752,2.98877,0.00034831505,1.3165905,0.06875375,3.623177e-05,488.101,0.1000061,0.010000001,-488.10132,0.4950228,0.29509312,0.17345566,0.0726883,inf,inf,inf,inf,inf,1,1,1,1,4,3,3,1,2,1,1,1,0,3,0,0
2044008000,2044008000,4676000,47.3977508,8.5456073,46.5761,-16.593752,-0.014953613,0.0,0.0,-488.10132,0.01945926,-0.045267493,-0.015620868,-0.013344129,-0.005474932,0.002292138,0.00066206604,-0.00092080515,0.039082166,-0.06405077,2.9887433,0.00034840946,1.3165658,0.06875375,3.6284408e-05,488.101,0.1000061,0.010000001,-488.10132,0.49593773,0.2944563,0.17380454,0.07262597,inf,inf,inf,inf,inf,1,1,1,1,4,3,3,1,2,1,1,1,0,3,0,0
2044016000,2044016000,4676000,47.3977508,8.5456073,46.57619,-16.593988,-0.015075684,0.0,0.0,-488.10132,0.019304788,-0.044983808,-0.016432123,-0.014171829,-0.005474932,0.002292138,0.00066206604,-0.01586028,0.028153697,-0.10184152,2.988674,0.00034850393,1.3164985,0.06875375,3.633709e-05,488.101,0.1000061,0.010000001,-488.10132,0.49685585,0.2948561,0.17415197,0.07268479,inf,inf,inf,inf,inf,1,1,1,1,4,3,3,1,2,1,1,1,0,3,0,0
2044024000,2044024000,4676000,47.3977508,8.5456073,46.576286,-16.59423,-0.015197754,0.0,0.0,-488.10132,0.020086879,-0.045424107,-0.017039994,-0.014796306,-0.005474932,0.002292138,0.00066206604,0.10115078,-0.062096313,-0.076406166,2.9886377,0.00034859843,1.3164647,0.06875375,3.638981e-05,488.101,0.1000061,0.010000001,-488.10132,0.4977772,0.29525656,0.17450067,0.072743565,inf,inf,inf,inf,inf,1,1,1,1,4,3,3,1,2,1,1,1,0,3,0,0
2044040000,2044040000,4676000,47.3977508,8.5456073,46.57649,-16.594725,-0.015472412,0.0,0.0,-488.10132,0.020208996,-0.044914953,-0.017204456,-0.0149948215,-0.005474932,0.002292138,0.00066206604,-0.045938674,-0.0057518925,0.021922866,2.988556,0.00034878755,1.3163869,0.06875375,3.6495367e-05,488.101,0.1000061,0.010000001,-488.10132,0.49962953,0.2960593,0.17519955,0.07286099,inf,inf,inf,inf,inf,1,1,1,1,4,3,3,1,2,1,1,1,0,3,0,0
2044048000,2044048000,4676000,47.3977508,8.5456073,46.57659,-16.594978,-0.015594482,0.0,0.0,-488.10132,0.020734116,-0.045297105,-0.016995482,-0.014803398,-0.005474932,0.002292138,0.00066206604,0.068859346,-0.054138806,0.02573477,2.9884913,0.00034888217,1.3163242,0.06875375,3.6548212e-05,488.101,0.1000061,0.010000001,-488.10132,0.5005605,0.2964616,0.17555061,0.07291966,inf,inf,inf,inf,inf,1,1,1,1,4,3,3,1,2,1,1,1,0,3,0,0
2044056000,2044056000,4676000,47.3977508,8.5456073,46.576447,-16.594639,-0.015655518,0.0,0.0,-488.10132,0.020715637,-0.04493824,-0.016863745,-0.014615221,-0.005474932,0.002292138,0.00066206604,0.01913751,0.0023543406,0.013338401,2.9884915,0.00034791924,1.3163264,0.06875375,3.413277e-05,488.101,0.1000061,0.010000001,-488.10132,0.45870784,0.28298405,0.15896364,0.07066653,inf,inf,inf,inf,inf,1,1,1,1,4,3,3,1,2,1,1,1,0,3,0,0
2044064000,2044064000,4676000,47.3977508,8.5456073,46.576305,-16.594313,-0.015716553,0.0,0.0,-488.10132,0.020167656,-0.044745304,-0.017080773,-0.0147781465,-0.005474932,0.002292138,0.00066206604,-0.047598794,-0.017183127,-0.030167399,2.988561,0.00034801348,1.3163958,0.06875375,3.4183802e-05,488.101,0.1000061,0.010000001,-488.10132,0.45949042,0.28336358,0.15929346,0.070726715,inf,inf,inf,inf,inf,1,1,1,1,4,3,3,1,2,1,1,1,0,3,0,0
2044080000,2044080000,4676000,47.3977508,8.5456073,46.576035,-16.593725,-0.015838623,0.0,0.0,-488.10132,0.019953135,-0.045458168,-0.016557418,-0.014157613,-0.005474932,0.002292138,0.00066206604,0.020738212,-0.07665698,0.01884531,2.9885397,0.0003480911,1.3163743,0.06875375,3.4281613e-05,488.101,0.1000061,0.010000001,-488.10132,0.46106306,0.28320196,0.15995589,0.07074303,inf,inf,inf,inf,inf,1,1,1,1,4,3,3,1,2,1,1,1,0,3,0,0
2044088000,2044088000,4676000,47.3977508,8.5456073,46.575905,-16.593462,-0.015899658,0.0,0.0,-488.10132,0.019845081,-0.045737132,-0.016318787,-0.013875507,-0.005474932,0.002292138,0.00066206604,0.006048387,-0.072647855,0.027121508,2.9885614,0.00034818528,1.3163958,0.06875375,3.433274e-05,488.101,0.1000061,0.010000001,-488.10132,0.46185458,0.28358215,0.16029099,0.070803165,inf,inf,inf,inf,inf,1,1,1,1,4,3,3,1,2,1,1,1,0,3,0,0
2044096000,2044096000,4676000,47.3977508,8.5456073,46.575783,-16.593216,-0.015960693,0.0,0.0,-488.10132,0.02052419,-0.046053186,-0.01608971,-0.013604789,-0.005474932,0.002292138,0.00066206604,0.10395239,-0.07621016,0.02600625,2.9885626,0.00034827957,1.3163967,0.06875375,3.438392e-05,488.101,0.1000061,0.010000001,-488.10132,0.4626491,0.283963,0.1606274,0.07086326,inf,inf,inf,inf,inf,1,1,1,1,4,3,3,1,2,1,1,1,0,3,0,0
2044104000,2044104000,4676000,47.3977508,8.5456073,46.575672,-16.59299,-0.016021729,0.0,0.0,-488.10132,0.020455334,-0.04594047,-0.016058506,-0.0135336155,-0.005474932,0.002292138,0.00066206604,0.009973151,-0.021574458,0.0013480893,2.988648,0.00034837384,1.3164821,0.06875375,3.4435136e-05,488.101,0.1000061,0.010000001,-488.10132,0.46344665,0.2843445,0.16096382,0.070923306,inf,inf,inf,inf,inf,1,1,1,1,4,3,3,1,2,1,1,1,0,3,0,0
2044120000,2044120000,4676000,47.3977508,8.5456073,46.575462,-16.592567,-0.016174316,0.0,0.0,-488.10132,0.021135617,-0.044472072,-0.016171584,-0.013571638,-0.005474932,0.002292138,0.00066206604,0.106275365,0.027706716,-0.025021376,2.9886827,0.00034856278,1.3165164,0.06875375,3.4537705e-05,488.101,0.1000061,0.010000001,-488.10132,0.46505076,0.2851094,0.16163099,0.07104326,inf,inf,inf,inf,inf,1,1,1,1,4,3,3,1,2,1,1,1,0,3,0,0
2044128000,2044128000,4676000,47.3977508,8.5456073,46.57537,-16.592373,-0.016235352,0.0,0.0,-488.10132,0.021104194,-0.044495456,-0.016347656,-0.013712721,-0.005474932,0.002292138,0.00066206604,0.013335691,-0.035946887,-0.024346167,2.9887195,0.00034791627,1.3165526,0.06875375,3.456438e-05,488.101,0.1000061,0.010000001,-488.10132,0.46584564,0.28549284,0.16193359,0.07110317,inf,inf,inf,inf,inf,1,1,1,1,4,3,3,1,2,1,1,1,0,3,0,0
2044136000,2044136000,4676000,47.3977508,8.5456073,46.575283,-16.592194,-0.016296387,0.0,0.0,-488.10132,0.020816023,-0.0448482,-0.01581199,-0.0131435795,-0.005474932,0.002292138,0.00066206604,-0.019196399,-0.07616942,0.0646892,2.9886892,0.00034801048,1.3165228,0.06875375,3.4615732e-05,488.101,0.1000061,0.010000001,-488.10132,0.46665508,0.2858769,0.16227314,0.07116304,inf,inf,inf,inf,inf,1,1,1,1,4,3,3,1,2,1,1,1,0,3,0,0
2044144000,2044144000,4676000,47.3977508,8.5456073,46.5752,-16.592031,-0.01638794,0.0,0.0,-488.10132,0.021395113,-0.044768218,-0.01616242,-0.0134627875,-0.005474932,0.002292138,0.00066206604,0.0887915,-0.021165261,-0.04600733,2.9886665,0.00034810478,1.3165004,0.06875375,3.4667137e-05,488.101,0.1000061,0.010000001,-488.10132,0.46746758,0.28626162,0.16261323,0.07122288,inf,inf,inf,inf,inf,1,1,1,1,4,3,3,1,2,1,1,1,0,3,0,0
2044160000,2044160000,4676000,47.3977508,8.5456073,46.57505,-16.591747,-0.016571045,0.0,0.0,-488.10132,0.020939235,-0.04495431,-0.016945349,-0.014208705,-0.005474932,0.002292138,0.00066206604,-0.051075503,-0.023687348,0.029068438,2.988605,0.0003482934,1.3164399,0.06875375,3.4770048e-05,488.101,0.1000061,0.010000001,-488.10132,0.46910176,0.2860844,0.16329126,0.07123483,inf,inf,inf,inf,inf,1,1,1,1,4,3,3,1,2,1,1,1,0,3,0,0
2044168000,2044168000,4676000,47.3977508,8.5456073,46.57498,-16.591625,-0.016662598,0.0,0.0,-488.10132,0.02081205,-0.045094192,-0.016642453,-0.013889357,-0.005474932,0.002292138,0.00066206604,-0.00069229276,-0.046072997,0.03603054,2.9886518,0.0003483878,1.3164868,0.06875375,3.4821576e-05,488.101,0.1000061,0.010000001,-488.10132,0.4699234,0.28646976,0.16363215,0.0712946,inf,inf,inf,inf,inf,1,1,1,1,4,3,3,1,2,1,1,1,0,3,0,0
2044176000,2044176000,4676000,47.3977508,8.5456073,46.574913,-16.591518,-0.01675415,0.0,0.0,-488.10132,0.020878902,-0.045245353,-0.015831105,-0.013062632,-0.005474932,0.002292138,0.00066206604,0.023180043,-0.046678897,0.0996408,2.9886186,0.0003484822,1.3164539,0.06875375,3.4873137e-05,488.101,0.1000061,0.010000001,-488.10132,0.47074813,0.28685576,0.16397357,0.071354344,inf,inf,inf,inf,inf,1,1,1,1,4,3,3,1,2,1,1,1,0,3,0,0
2044184000,2044184000,4676000,47.3977508,8.5456073,46.57485,-16.591423,-0.016815186,0.0,0.0,-488.10132,0.020847335,-0.044858895,-0.015653893,-0.012870959,-0.005474932,0.002292138,0.00066206604,0.0105111115,0.021308204,0.0204253,2.9885695,0.0003485766,1.316405,0.06875375,3.4924735e-05,488.101,0.1000061,0.010000001,-488.10132,0.47157592,0.28724238,0.16431418,0.07141404,inf,inf,inf,inf,inf,1,1,1,1,4,3,3,1,2,1,1,1,0,3,0,0
2044200000,2044200000,4676000,47.3977508,8.5456073,46.57474,-16.591276,-0.016998291,0.0,0.0,-488.10132,0.021474991,-0.046256438,-0.015460073,-0.012650845,-0.005474932,0.002292138,0.00066206604,0.08159072,-0.08409163,0.018689314,2.988562,0.0003480255,1.3163977,0.06875375,3.5002602e-05,488.101,0.1000061,0.010000001,-488.10132,0.47322744,0.2880176,0.16495496,0.07153331,inf,inf,inf,inf,inf,1,1,1,1,4,3,3,1,2,1,1,1,0,3,0,0
2044208000,2044208000,4676000,47.3977508,8.5456073,46.57469,-16.59122,-0.017089844,0.0,0.0,-488.10132,0.021283912,-0.046176653,-0.015437856,-0.012616829,-0.005474932,0.002292138,0.00066206604,-0.010502837,-0.015094954,0.0011981464,2.9884484,0.00034811982,1.3162847,0.06875375,3.5054305e-05,488.101,0.1000061,0.010000001,-488.10132,0.4740643,0.28840613,0.16529459,0.071592875,inf,inf,inf,inf,inf,1,1,1,1,4,3,3,1,2,1,1,1,0,3,0,0
2044216000,2044216000,4676000,47.3977508,8.5456073,46.57465,-16.59118,-0.017181396,0.0,0.0,-488.10132,0.021534188,-0.04639029,-0.015829206,-0.012997237,-0.005474932,0.002292138,0.00066206604,0.044344306,-0.05104404,-0.050451603,2.9884307,0.00034821418,1.3162677,0.06875375,3.510605e-05,488.101,0.1000061,0.010000001,-488.10132,0.4749042,0.28879532,0.16563544,0.071652405,inf,inf,inf,inf,inf,1,1,1,1,4,3,3,1,2,1,1,1,0,3,0,0
2044224000,2044224000,4676000,47.3977508,8.5456073,46.574615,-16.591152,-0.017242432,0.0,0.0,-488.10132,0.021818545,-0.047055475,-0.016616322,-0.013767308,-0.005474932,0.002292138,0.00066206604,0.04828771,-0.10678286,-0.10002451,2.9884834,0.0003483086,1.3163211,0.06875375,3.5157835e-05,488.101,0.1000061,0.010000001,-488.10132,0.47574723,0.28821257,0.16597489,0.07160046,inf,inf,inf,inf,inf,1,1,1,1,4,3,3,1,2,1,1,1,0,3,0,0
2044240000,2044240000,4676000,47.3977508,8.5456073,46.57455,-16.591139,-0.017425537,0.0,0.0,-488.10132,0.021450112,-0.04721358,-0.017117776,-0.0142380735,-0.005474932,0.002292138,0.00066206604,-0.0124519495,-0.0010532066,-0.029971821,2.9886196,0.00034849744,1.316459,0.06875375,3.5261517e-05,488.101,0.1000061,0.010000001,-488.10132,0.4774426,0.2889915,0.16665637,0.07171947,inf,inf,inf,inf,inf,1,1,1,1,4,3,3,1,2,1,1,1,0,3,0,0
2044248000,2044248000,4676000,47.3977508,8.5456073,46.574528,-16.591148,-0.017547607,0.0,0.0,-488.10132,0.022581844,-0.047493313,-0.017493859,-0.014600547,-0.005474932,0.002292138,0.00066206604,0.15330555,-0.056640204,-0.048504673,2.9886425,0.00034859186,1.3164823,0.06875375,3.531341e-05,488.101,0.1000061,0.010000001,-488.10132,0.4782949,0.28938195,0.16699833,0.071778916,inf,inf,inf,inf,inf,1,1,1,1,4,3,3,1,2,1,1,1,0,3,0,0
2044256000,2044256000,4676000,47.3977508,8.5456073,46.574512,-16.59117,-0.01763916,0.0,0.0,-488.10132,0.022872537,-0.047341086,-0.01760856,-0.014702792,-0.005474932,0.002292138,0.00066206604,0.047882996,-0.0020213756,-0.015788244,2.9885726,0.00034868636,1.3164132,0.06875375,3.5365345e-05,488.101,0.1000061,0.010000001,-488.10132,0.47915035,0.28977302,0.16734076,0.07183832,inf,inf,inf,inf,inf,1,1,1,1,4,3,3,1,2,1,1,1,0,3,0,0
2044264000,2044264000,4676000,47.3977508,8.5456073,46.5745,-16.5912,-0.017730713,0.0,0.0,-488.10132,0.02245792,-0.047650352,-0.01751224,-0.014595136,-0.005474932,0.002292138,0.00066206604,-0.04047088,-0.058945045,0.010631512,2.988542,0.0003480421,1.3163836,0.06875375,3.5391175e-05,488.101,0.1000061,0.010000001,-488.10132,0.47999406,0.2901647,0.16764505,0.07189767,inf,inf,inf,inf,inf,1,1,1,1,4,3,3,1,2,1,1,1,0,3,0,0
2044280000,2044280000,4676000,47.3977508,8.5456073,46.57448,-16.5913,-0.017944336,0.0,0.0,-488.10132,0.021678224,-0.048126426,-0.017306155,-0.014369501,-0.005474932,0.002292138,0.00066206604,-0.03506272,-0.059799984,-0.0072880643,2.9886672,0.00034811968,1.3165085,0.06875375,3.549047e-05,488.101,0.1000061,0.010000001,-488.10132,0.48171803,0.29095,0.1683275,0.07201626,inf,inf,inf,inf,inf,1,1,1,1,4,3,3,1,2,1,1,1,0,3,0,0
2044288000,2044288000,4676000,47.3977508,8.5456073,46.57447,-16.591368,-0.018035889,0.0,0.0,-488.10132,0.022396084,-0.048233774,-0.016906593,-0.01396165,-0.005474932,0.002292138,0.00066206604,0.10037409,-0.031798873,0.048656944,2.9885464,0.000348214,1.3163869,0.06875375,3.5542536e-05,488.101,0.1000061,0.010000001,-488.10132,0.48258576,0.2913436,0.16866921,0.07207549,inf,inf,inf,inf,inf,1,1,1,1,4,3,3,1,2,1,1,1,0,3,0,0
2044296000,2044296000,4676000,47.3977508,8.5456073,46.574467,-16.591444,-0.018127441,0.0,0.0,-488.10132,0.02237616,-0.048567258,-0.017240757,-0.014265676,-0.005474932,0.002292138,0.00066206604,0.0079025915,-0.059532426,-0.043499745,2.9884946,0.0003483083,1.3163347,0.06875375,3.5594643e-05,488.101,0.1000061,0.010000001,-488.10132,0.4834566,0.2907394,0.16901548,0.07201939,inf,inf,inf,inf,inf,1,1,1,1,4,3,3,1,2,1,1,1,0,3,0,0
2044304000,2044304000,4676000,47.3977508,8.5456073,46.57447,-16.591532,-0.018188477,0.0,0.0,-488.10132,0.022833968,-0.048613716,-0.017797658,-0.014794039,-0.005474932,0.002292138,0.00066206604,0.067363575,-0.023138693,-0.07129087,2.9884622,0.00034840265,1.3163018,0.06875375,3.5646786e-05,488.101,0.1000061,0.010000001,-488.10132,0.4843306,0.2911329,0.1693643,0.07207862,inf,inf,inf,inf,inf,1,1,1,1,4,3,3,1,2,1,1,1,0,3,0,0
2044320000,2044320000,4676000,47.3977508,8.5456073,46.574497,-16.591722,-0.018371582,0.0,0.0,-488.10132,0.023591986,-0.047713418,-0.018345319,-0.015288993,-0.005474932,0.002292138,0.00066206604,0.047518052,0.01952687,0.008725095,2.9884295,0.00034859148,1.316268,0.06875375,3.5751204e-05,488.101,0.1000061,0.010000001,-488.10132,0.4860881,0.29192185,0.17005247,0.07219697,inf,inf,inf,inf,inf,1,1,1,1,4,3,3,1,2,1,1,1,0,3,0,0
2044328000,2044328000,4676000,47.3977508,8.5456073,46.574516,-16.59183,-0.018463135,0.0,0.0,-488.10132,0.023353634,-0.047495518,-0.018372126,-0.01529175,-0.005474932,0.002292138,0.00066206604,-0.02037644,0.0114213,-0.0048861834,2.9884632,0.00034868598,1.3163011,0.06875375,3.5803474e-05,488.101,0.1000061,0.010000001,-488.10132,0.48697156,0.29231727,0.17039548,0.07225608,inf,inf,inf,inf,inf,1,1,1,1,4,3,3,1,2,1,1,1,0,3,0,0
2044336000,2044336000,4676000,47.3977508,8.5456073,46.574535,-16.591938,-0.018554688,0.0,0.0,-488.10132,0.023243174,-0.047368925,-0.017545972,-0.014443188,-0.005474932,0.002292138,0.00066206604,-0.004292011,0.0003288405,0.10177958,2.9885182,0.00034804313,1.3163555,0.06875375,3.582881e-05,488.101,0.1000061,0.010000001,-488.10132,0.48784146,0.2927133,0.17070097,0.07231515,inf,inf,inf,inf,inf,1,1,1,1,4,3,3,1,2,1,1,1,0,3,0,0
2044344000,2044344000,4676000,47.3977508,8.5456073,46.574554,-16.592058,-0.01864624,0.0,0.0,-488.10132,0.023604989,-0.047963016,-0.01696016,-0.013836582,-0.005474932,0.002292138,0.00066206604,0.054503743,-0.08929098,0.07178075,2.988496,0.00034813743,1.316333,0.06875375,3.5881138e-05,488.101,0.1000061,0.010000001,-488.10132,0.48873103,0.29311,0.17104761,0.07237419,inf,inf,inf,inf,inf,1,1,1,1,4,3,3,1,2,1,1,1,0,3,0,0
2044360000,2044360000,4676000,47.3977508,8.5456073,46.57461,-16.592325,-0.018829346,0.0,0.0,-488.10132,0.024011714,-0.047563348,-0.017111031,-0.013950584,-0.005474932,0.002292138,0.00066206604,0.05608892,0.066790886,0.00031758097,2.9886756,0.00034832617,1.3165123,0.06875375,3.598592e-05,488.101,0.1000061,0.010000001,-488.10132,0.49051973,0.2939053,0.1717418,0.07249213,inf,inf,inf,inf,inf,1,1,1,1,4,3,3,1,2,1,1,1,0,3,0,0
2044368000,2044368000,4676000,47.3977508,8.5456073,46.574646,-16.592466,-0.018920898,0.0,0.0,-488.10132,0.024222963,-0.04768196,-0.016709054,-0.013527437,-0.005474932,0.002292138,0.00066206604,0.03501763,-0.028522877,0.04881713,2.988759,0.00034842052,1.3165956,0.06875375,3.603836e-05,488.101,0.1000061,0.010000001,-488.10132,0.49141884,0.29327896,0.17209144,0.07243181,inf,inf,inf,inf,inf,1,1,1,1,4,3,3,1,2,1,1,1,0,3,0,0
2044376000,2044376000,4676000,47.3977508,8.5456073,46.574688,-16.592617,-0.019012451,0.0,0.0,-488.10132,0.02500728,-0.047875226,-0.016844653,-0.013643302,-0.005474932,0.002292138,0.00066206604,0.106447324,-0.03742678,-0.01833774,2.988755,0.00034851494,1.3165913,0.06875375,3.609084e-05,488.101,0.1000061,0.010000001,-488.10132,0.49232116,0.29367676,0.17244305,0.07249077,inf,inf,inf,inf,inf,1,1,1,1,4,3,3,1,2,1,1,1,0,3,0,0
2044384000,2044384000,4676000,47.3977508,8.5456073,46.57474,-16.592775,-0.019073486,0.0,0.0,-488.10132,0.02554693,-0.047752187,-0.01680552,-0.013585686,-0.005474932,0.002292138,0.00066206604,0.07565942,0.0025177577,0.0035446135,2.9887927,0.00034860932,1.3166285,0.06875375,3.6143356e-05,488.101,0.1000061,0.010000001,-488.10132,0.4932267,0.2940752,0.17279266,0.072549686,inf,inf,inf,inf,inf,1,1,1,1,4,3,3,1,2,1,1,1,0,3,0,0
2044400000,2044400000,4676000,47.3977508,8.5456073,46.574852,-16.593111,-0.019256592,0.0,0.0,-488.10132,0.02593409,-0.047773946,-0.015865522,-0.012612039,-0.005474932,0.002292138,0.00066206604,0.038054448,-0.0019553625,0.039824747,2.9887009,0.0003480624,1.316536,0.06875375,3.622084e-05,488.101,0.1000061,0.010000001,-488.10132,0.49502882,0.29487398,0.17345269,0.07266739,inf,inf,inf,inf,inf,1,1,1,1,4,3,3,1,2,1,1,1,0,3,0,0
2044408000,2044408000,4676000,47.3977508,8.5456073,46.574913,-16.593287,-0.019317627,0.0,0.0,-488.10132,0.02648121,-0.0476789,-0.015602165,-0.0123333065,-0.005474932,0.002292138,0.00066206604,0.07639072,0.00012580129,0.031688713,2.9885838,0.00034815667,1.3164186,0.06875375,3.6273465e-05,488.101,0.1000061,0.010000001,-488.10132,0.49594375,0.29527432,0.17380317,0.072726175,inf,inf,inf,inf,inf,1,1,1,1,4,3,3,1,2,1,1,1,0,3,0,0
2044416000,2044416000,4676000,47.3977508,8.5456073,46.57498,-16.59347,-0.01940918,0.0,0.0,-488.10132,0.02654527,-0.047680076,-0.016295066,-0.013011731,-0.005474932,0.002292138,0.00066206604,0.015811076,-0.011532364,-0.08780742,2.9885128,0.00034825102,1.3163476,0.06875375,3.6326135e-05,488.101,0.1000061,0.010000001,-488.10132,0.4968619,0.29567528,0.17415254,0.07278493,inf,inf,inf,inf,inf,1,1,1,1,4,3,3,1,2,1,1,1,0,3,0,0
2044424000,2044424000,4676000,47.3977508,8.5456073,46.57505,-16.593658,-0.019500732,0.0,0.0,-488.10132,0.026845442,-0.047704276,-0.01680472,-0.013507821,-0.005474932,0.002292138,0.00066206604,0.045134917,-0.014049124,-0.06486615,2.9885385,0.00034834543,1.3163733,0.06875375,3.6378846e-05,488.101,0.1000061,0.010000001,-488.10132,0.49778324,0.29607686,0.17450172,0.07284364,inf,inf,inf,inf,inf,1,1,1,1,4,3,3,1,2,1,1,1,0,3,0,0
2044440000,2044440000,4676000,47.3977508,8.5456073,46.575203,-16.594053,-0.019714355,0.0,0.0,-488.10132,0.02698399,-0.04814788,-0.017613413,-0.014301053,-0.005474932,0.002292138,0.00066206604,0.017171938,-0.109806545,-0.008664093,2.9884465,0.00034853423,1.3162808,0.06875375,3.6484376e-05,488.101,0.1000061,0.010000001,-488.10132,0.4996356,0.29582992,0.17520303,0.07283772,inf,inf,inf,inf,inf,1,1,1,1,4,3,3,1,2,1,1,1,0,3,0,0
2044448000,2044448000,4676000,47.3977508,8.5456073,46.575283,-16.594267,-0.019805908,0.0,0.0,-488.10132,0.026774777,-0.04909938,-0.016824936,-0.013510344,-0.005474932,0.002292138,0.00066206604,-0.01909926,-0.12892215,0.09767478,2.9883327,0.0003486287,1.3161671,0.06875375,3.6537203e-05,488.101,0.1000061,0.010000001,-488.10132,0.50056666,0.29623196,0.17555612,0.0728964,inf,inf,inf,inf,inf,1,1,1,1,4,3,3,1,2,1,1,1,0,3,0,0
2044456000,2044456000,4676000,47.3977508,8.5456073,46.57522,-16.593977,-0.019866943,0.0,0.0,-488.10132,0.026861228,-0.048180424,-0.016534474,-0.013186851,-0.005474932,0.002292138,0.00066206604,0.027970867,0.07453033,0.03546895,2.9882393,0.00034839468,1.3160734,0.06875375,3.4145985e-05,488.101,0.1000061,0.010000001,-488.10132,0.45872185,0.28278464,0.15900484,0.07064759,inf,inf,inf,inf,inf,1,1,1,1,4,3,3,1,2,1,1,1,0,3,0,0
2044464000,2044464000,4676000,47.3977508,8.5456073,46.57516,-16.593699,-0.019958496,0.0,0.0,-488.10132,0.027420988,-0.047730755,-0.017001934,-0.01362363,-0.005474932,0.002292138,0.00066206604,0.086690396,0.01702206,-0.059246548,2.9882684,0.0003484891,1.3161001,0.06875375,3.419703e-05,488.101,0.1000061,0.010000001,-488.10132,0.4595046,0.2831639,0.1593405,0.07070778,inf,inf,inf,inf,inf,1,1,1,1,4,3,3,1,2,1,1,1,0,3,0,0
2044480000,2044480000,4676000,47.3977508,8.5456073,46.575058,-16.593182,-0.020080566,0.0,0.0,-488.10132,0.026853148,-0.04657161,-0.016450057,-0.013016927,-0.005474932,0.002292138,0.00066206604,-0.0016271787,0.017234901,0.03475416,2.988178,0.00034782494,1.3160045,0.06875375,3.427078e-05,488.101,0.1000061,0.010000001,-488.10132,0.461067,0.28392437,0.15996802,0.07082804,inf,inf,inf,inf,inf,1,1,1,1,4,3,3,1,2,1,1,1,0,3,0,0
2044488000,2044488000,4676000,47.3977508,8.5456073,46.575012,-16.592945,-0.02017212,0.0,0.0,-488.10132,0.026795913,-0.04640602,-0.016284904,-0.012827596,-0.005474932,0.002292138,0.00066206604,0.008732543,-0.015229462,0.01990143,2.9880307,0.0003479191,1.3158543,0.06875375,3.4321907e-05,488.101,0.1000061,0.010000001,-488.10132,0.46185854,0.28430557,0.16029894,0.07088811,inf,inf,inf,inf,inf,1,1,1,1,4,3,3,1,2,1,1,1,0,3,0,0
2044496000,2044496000,4676000,47.3977508,8.5456073,46.574974,-16.59272,-0.020233154,0.0,0.0,-488.10132,0.027643027,-0.045755554,-0.017096426,-0.013616239,-0.005474932,0.002292138,0.00066206604,0.12136359,0.04640374,-0.10216003,2.9879348,0.00034801327,1.3157554,0.06875375,3.437308e-05,488.101,0.1000061,0.010000001,-488.10132,0.4626531,0.2846874,0.16063157,0.07094815,inf,inf,inf,inf,inf,1,1,1,1,4,3,3,1,2,1,1,1,0,3,0,0
2044504000,2044504000,4676000,47.3977508,8.5456073,46.574947,-16.592508,-0.020324707,0.0,0.0,-488.10132,0.02786635,-0.045384225,-0.017231807,-0.013730051,-0.005474932,0.002292138,0.00066206604,0.042987086,0.012515001,-0.017620621,2.9878354,0.0003481075,1.3156531,0.06875375,3.442429e-05,488.101,0.1000061,0.010000001,-488.10132,0.46345064,0.2850699,0.16096705,0.07100813,inf,inf,inf,inf,inf,1,1,1,1,4,3,3,1,2,1,1,1,0,3,0,0
2044520000,2044520000,4676000,47.3977508,8.5456073,46.574905,-16.592121,-0.020477295,0.0,0.0,-488.10132,0.027132114,-0.0447437,-0.0152393,-0.011690357,-0.005474932,0.002292138,0.00066206604,-0.019036898,-0.0038209115,0.114887945,2.9877648,0.00034829613,1.3155768,0.06875375,3.4526834e-05,488.101,0.1000061,0.010000001,-488.10132,0.4650548,0.28490007,0.16163704,0.07102218,inf,inf,inf,inf,inf,1,1,1,1,4,3,3,1,2,1,1,1,0,3,0,0
2044528000,2044528000,4676000,47.3977508,8.5456073,46.574886,-16.591948,-0.02053833,0.0,0.0,-488.10132,0.027310688,-0.044802617,-0.014795002,-0.01122456,-0.005474932,0.002292138,0.00066206604,0.036242887,-0.038420096,0.05481811,2.987755,0.0003483905,1.3155639,0.06875375,3.4578166e-05,488.101,0.1000061,0.010000001,-488.10132,0.4658614,0.28528324,0.16197437,0.071082115,inf,inf,inf,inf,inf,1,1,1,1,4,3,3,1,2,1,1,1,0,3,0,0
2044536000,2044536000,4676000,47.3977508,8.5456073,46.574883,-16.591784,-0.020599365,0.0,0.0,-488.10132,0.027458083,-0.04484265,-0.014346389,-0.010755785,-0.005474932,0.002292138,0.00066206604,0.031367283,-0.036017668,0.05538016,2.987852,0.0003477449,1.3156579,0.06875375,3.460479e-05,488.101,0.1000061,0.010000001,-488.10132,0.46665925,0.28566703,0.16227604,0.07114201,inf,inf,inf,inf,inf,1,1,1,1,4,3,3,1,2,1,1,1,0,3,0,0
2044544000,2044544000,4676000,47.3977508,8.5456073,46.57488,-16.591633,-0.0206604,0.0,0.0,-488.10132,0.027002692,-0.044366963,-0.015046866,-0.011437472,-0.005474932,0.002292138,0.00066206604,-0.04431733,0.029344268,-0.088234894,2.9878943,0.00034783923,1.3156993,0.06875375,3.4656186e-05,488.101,0.1000061,0.010000001,-488.10132,0.46747172,0.28605148,0.1626107,0.07120185,inf,inf,inf,inf,inf,1,1,1,1,4,3,3,1,2,1,1,1,0,3,0,0
2044560000,2044560000,4676000,47.3977508,8.5456073,46.57487,-16.591358,-0.020812988,0.0,0.0,-488.10132,0.025650974,-0.043469302,-0.014449748,-0.010807144,-0.005474932,0.002292138,0.00066206604,-0.024511866,0.03595752,0.08965423,2.9879022,0.00034802777,1.3157058,0.06875375,3.4759098e-05,488.101,0.1000061,0.010000001,-488.10132,0.4691059,0.2868223,0.16328399,0.07132142,inf,inf,inf,inf,inf,1,1,1,1,4,3,3,1,2,1,1,1,0,3,0,0
2044568000,2044568000,4676000,47.3977508,8.5456073,46.574867,-16.591234,-0.020874023,0.0,0.0,-488.10132,0.025708657,-0.042901587,-0.014544222,-0.01088712,-0.005474932,0.002292138,0.00066206604,0.018879684,0.0433843,-0.012424774,2.9879358,0.00034812203,1.3157389,0.06875375,3.4810608e-05,488.101,0.1000061,0.010000001,-488.10132,0.46992752,0.28720865,0.16362461,0.07138114,inf,inf,inf,inf,inf,1,1,1,1,4,3,3,1,2,1,1,1,0,3,0,0
2044576000,2044576000,4676000,47.3977508,8.5456073,46.57487,-16.591122,-0.020935059,0.0,0.0,-488.10132,0.026419744,-0.042765018,-0.014627086,-0.010942766,-0.005474932,0.002292138,0.00066206604,0.10026094,-0.009709954,-0.011236406,2.9879174,0.0003482164,1.3157198,0.06875375,3.486216e-05,488.101,0.1000061,0.010000001,-488.10132,0.47075227,0.286639,0.1639652,0.07133177,inf,inf,inf,inf,inf,1,1,1,1,4,3,3,1,2,1,1,1,0,3,0,0
2044584000,2044584000,4676000,47.3977508,8.5456073,46.574883,-16.591019,-0.020996094,0.0,0.0,-488.10132,0.0264388,-0.04287962,-0.014029698,-0.010319635,-0.005474932,0.002292138,0.00066206604,0.013468006,-0.04032379,0.07382128,2.9879277,0.00034831077,1.3157294,0.06875375,3.4913763e-05,488.101,0.1000061,0.010000001,-488.10132,0.47158003,0.28702536,0.16430685,0.07139148,inf,inf,inf,inf,inf,1,1,1,1,4,3,3,1,2,1,1,1,0,3,0,0
2044600000,2044600000,4676000,47.3977508,8.5456073,46.574917,-16.590855,-0.021087646,0.0,0.0,-488.10132,0.026182875,-0.042865224,-0.013833784,-0.01007818,-0.005474932,0.002292138,0.00066206604,-0.0050257184,0.0018038098,0.0036284325,2.9878898,0.00034849966,1.3156898,0.06875375,3.5017074e-05,488.101,0.1000061,0.010000001,-488.10132,0.47324485,0.2878,0.16498294,0.071510784,inf,inf,inf,inf,inf,1,1,1,1,4,3,3,1,2,1,1,1,0,3,0,0
2044608000,2044608000,4676000,47.3977508,8.5456073,46.574932,-16.590784,-0.021148682,0.0,0.0,-488.10132,0.024928218,-0.042724673,-0.013705292,-0.0099290265,-0.005474932,0.002292138,0.00066206604,-0.1461979,-0.0066797724,0.0152857965,2.9878755,0.00034785457,1.315675,0.06875375,3.5043227e-05,488.101,0.1000061,0.010000001,-488.10132,0.47406837,0.28818828,0.16528517,0.07157037,inf,inf,inf,inf,inf,1,1,1,1,4,3,3,1,2,1,1,1,0,3,0,0
2044616000,2044616000,4676000,47.3977508,8.5456073,46.574944,-16.590729,-0.021209717,0.0,0.0,-488.10132,0.025070941,-0.043364864,-0.013768288,-0.009972729,-0.005474932,0.002292138,0.00066206604,0.028209154,-0.10357379,-0.00862684,2.9878452,0.00034794884,1.3156452,0.06875375,3.5094963e-05,488.101,0.1000061,0.010000001,-488.10132,0.4749083,0.2885772,0.1656278,0.07162991,inf,inf,inf,inf,inf,1,1,1,1,4,3,3,1,2,1,1,1,0,3,0,0
2044624000,2044624000,4676000,47.3977508,8.5456073,46.57496,-16.590687,-0.021270752,0.0,0.0,-488.10132,0.025555916,-0.043585148,-0.013480093,-0.009666536,-0.005474932,0.002292138,0.00066206604,0.0707291,-0.050404713,0.035294328,2.9878414,0.00034804308,1.3156419,0.06875375,3.514673e-05,488.101,0.1000061,0.010000001,-488.10132,0.4757513,0.28896672,0.16596721,0.07168941,inf,inf,inf,inf,inf,1,1,1,1,4,3,3,1,2,1,1,1,0,3,0,0
2044640000,2044640000,4676000,47.3977508,8.5456073,46.57502,-16.590641,-0.021331787,0.0,0.0,-488.10132,0.02607465,-0.044269614,-0.013093777,-0.009218988,-0.005474932,0.002292138,0.00066206604,-0.04415551,-0.04628391,0.014784279,2.9879305,0.0003482317,1.3157327,0.06875375,3.5250392e-05,488.101,0.1000061,0.010000001,-488.10132,0.47744662,0.28877214,0.16664816,0.07169665,inf,inf,inf,inf,inf,1,1,1,1,4,3,3,1,2,1,1,1,0,3,0,0
2044648000,2044648000,4676000,47.3977508,8.5456073,46.575054,-16.590637,-0.021392822,0.0,0.0,-488.10132,0.025860325,-0.04438327,-0.012995229,-0.009092506,-0.005474932,0.002292138,0.00066206604,-0.017451052,-0.035119105,0.011363531,2.9880524,0.00034832623,1.3158555,0.06875375,3.5302295e-05,488.101,0.1000061,0.010000001,-488.10132,0.4782989,0.28916228,0.16699405,0.0717561,inf,inf,inf,inf,inf,1,1,1,1,4,3,3,1,2,1,1,1,0,3,0,0
2044656000,2044656000,4676000,47.3977508,8.5456073,46.575092,-16.590643,-0.02142334,0.0,0.0,-488.10132,0.025819063,-0.044476748,-0.01345606,-0.009526967,-0.005474932,0.002292138,0.00066206604,0.003943256,-0.03198197,-0.05853036,2.9880855,0.0003484207,1.3158896,0.06875375,3.5354235e-05,488.101,0.1000061,0.010000001,-488.10132,0.47915435,0.28955308,0.16733722,0.07181551,inf,inf,inf,inf,inf,1,1,1,1,4,3,3,1,2,1,1,1,0,3,0,0
2044664000,2044664000,4676000,47.3977508,8.5456073,46.57513,-16.59066,-0.021484375,0.0,0.0,-488.10132,0.02561605,-0.044673067,-0.01360686,-0.009653032,-0.005474932,0.002292138,0.00066206604,-0.016507415,-0.044230834,-0.019749159,2.98809,0.0003485153,1.3158951,0.06875375,3.540622e-05,488.101,0.1000061,0.010000001,-488.10132,0.48001292,0.2899445,0.16767561,0.07187489,inf,inf,inf,inf,inf,1,1,1,1,4,3,3,1,2,1,1,1,0,3,0,0
2044680000,2044680000,4676000,47.3977508,8.5456073,46.57523,-16.590727,-0.021575928,0.0,0.0,-488.10132,0.02695261,-0.045016,-0.0128827775,-0.008885103,-0.005474932,0.002292138,0.00066206604,0.12750271,-0.034242123,0.06736628,2.9881923,0.00034785457,1.3159976,0.06875375,3.5479192e-05,488.101,0.1000061,0.010000001,-488.10132,0.481722,0.29072925,0.16831215,0.07199351,inf,inf,inf,inf,inf,1,1,1,1,4,3,3,1,2,1,1,1,0,3,0,0
2044688000,2044688000,4676000,47.3977508,8.5456073,46.57529,-16.590775,-0.021636963,0.0,0.0,-488.10132,0.027092248,-0.045300227,-0.012711049,-0.008694431,-0.005474932,0.002292138,0.00066206604,0.025221348,-0.05362561,0.020645091,2.9882746,0.0003479488,1.3160796,0.06875375,3.5531255e-05,488.101,0.1000061,0.010000001,-488.10132,0.4825897,0.29112256,0.16865443,0.07205276,inf,inf,inf,inf,inf,1,1,1,1,4,3,3,1,2,1,1,1,0,3,0,0
2044696000,2044696000,4676000,47.3977508,8.5456073,46.57536,-16.590837,-0.02166748,0.0,0.0,-488.10132,0.027542349,-0.046420805,-0.011698916,-0.007665256,-0.005474932,0.002292138,0.00066206604,0.06383789,-0.1576222,0.12572016,2.9881365,0.00034804308,1.3159413,0.06875375,3.5583358e-05,488.101,0.1000061,0.010000001,-488.10132,0.48346052,0.29151654,0.1690009,0.072111964,inf,inf,inf,inf,inf,1,1,1,1,4,3,3,1,2,1,1,1,0,3,0,0
2044704000,2044704000,4676000,47.3977508,8.5456073,46.575436,-16.590914,-0.021697998,0.0,0.0,-488.10132,0.028435323,-0.046392385,-0.011500142,-0.007427361,-0.005474932,0.002292138,0.00066206604,0.119008794,-0.013474032,0.02358714,2.9880345,0.00034813737,1.3158393,0.06875375,3.5635498e-05,488.101,0.1000061,0.010000001,-488.10132,0.48433444,0.2909109,0.16934502,0.07205553,inf,inf,inf,inf,inf,1,1,1,1,4,3,3,1,2,1,1,1,0,3,0,0
