timestamp,timestamp_sample,time_last_fuse,observation[0],observation[1],device_id,observation_variance[0],observation_variance[1],innovation[0],innovation[1],innovation_filtered[0],innovation_filtered[1],innovation_variance[0],innovation_variance[1],test_ratio[0],test_ratio[1],test_ratio_filtered[0],test_ratio_filtered[1],estimator_instance,innovation_rejected,fused
4699000,4541000,0,47.3977508,8.5456074,0,1.0,1.0,-5240972.0,-951292.7,-5240972.0,-951292.7,1.352009,1.352009,812651000000.0,26773720000.0,812651000000.0,26773720000.0,0,1,0
5099000,4941000,0,47.3977508,8.5456074,0,1.0,1.0,-5240972.0,-951292.7,-100.49875,-100.49875,101.0,101.0,10878332000.0,358399140.0,4.0,4.0,0,1,0
5499000,5341000,5347000,47.3977508,8.5456074,0,1.0,1.0,0.0,0.0,0.0,0.0,1.0,1.0,0.0,0.0,0.0,0.0,0,0,1
5899000,5741000,5347000,47.3977508,8.5456074,0,1.0,1.0,0.001686159,0.0027787916,0.0007494041,0.0012350186,3.000204,3.000204,3.790585e-08,1.0294877e-07,1.6847045e-08,4.5755012e-08,0,0,0
6299000,6141000,5347000,47.3977508,8.5456074,0,1.0,1.0,-0.0010385244,0.007216866,-4.5230903e-05,0.0038936175,3.0019343,3.0019333,1.4371175e-08,6.939949e-07,2.9722784e-09,3.3386164e-07,0,0,0
6699000,6541000,6547000,47.3977508,8.5456074,0,1.0,1.0,-0.005838874,0.014524034,-0.0026201834,0.008618248,3.0087311,3.008759,4.5324688e-07,2.8044462e-06,-1.997918e-07,1.4318994e-06,0,0,1
7099000,6941000,6947000,47.3977508,8.5456074,0,1.0,1.0,-0.0059400494,0.008622638,-0.0040956796,0.008620199,1.6769657,1.6769938,8.4161985e-07,1.7734086e-06,-4.8504876e-07,1.5836813e-06,0,0,1
7499000,7345000,7347000,47.3977508,8.5456074,0,1.0,1.0,-0.0060890527,0.007783372,-0.004986523,0.008246219,1.4188981,1.4189119,1.0452212e-06,1.7078122e-06,-7.3539127e-07,1.6391557e-06,0,0,1
7899000,7741000,7747000,47.3977508,8.5456074,0,1.0,1.0,-0.003333982,0.0054517966,-0.004256159,0.007011184,1.3129117,1.3129148,3.3864995e-07,9.0552976e-07,-5.600458e-07,1.3149192e-06,0,0,1
8299000,8141000,8147000,47.3977508,8.5456074,0,1.0,1.0,0.00080646307,0.006570825,-0.0020061047,0.006815469,1.2561854,1.2561992,2.0709768e-08,1.3748055e-06,-3.019322e-07,1.3415354e-06,0,0,1
8699000,8541000,8547000,47.3977508,8.5456074,0,1.0,1.0,0.0025912449,0.013777993,3.7161866e-05,0.009909924,1.2214544,1.2214863,2.1988706e-07,6.2164618e-06,-7.0012504e-08,3.5081694e-06,0,0,1
9099000,8941000,8947000,47.3977508,8.5456074,0,1.0,1.0,-0.00036356985,0.012882181,-0.00014094113,0.011230927,1.1985004,1.1985413,4.411614e-09,5.538419e-06,-4.0856552e-08,4.4105027e-06,0,0,1
9499000,9341000,9347000,47.3977508,8.5456074,0,1.0,1.0,-0.0014643472,0.01432114,-0.0007291217,0.012604355,1.1825926,1.1826501,7.252922e-08,6.936796e-06,-5.4933295e-08,5.5333e-06,0,0,1
9899000,9741000,9747000,47.3977508,8.5456074,0,1.0,1.0,-0.004251632,0.011546203,-0.002294682,0.012134065,1.1711708,1.1712548,6.173779e-07,4.552888e-06,-3.0490867e-07,5.0975614e-06,0,0,1
10299000,10141000,10147000,47.3977508,8.5456074,0,1.0,1.0,-0.0034515038,0.0060883444,-0.002808825,0.009447077,1.1627713,1.1628972,4.0980984e-07,1.2750202e-06,-3.515314e-07,3.398654e-06,0,0,1
10699000,10541000,10547000,47.3977508,8.5456074,0,1.0,1.0,-0.0027303288,0.003673248,-0.0027739378,0.0068809306,1.1565188,1.1566805,2.5783223e-07,4.6660253e-07,-3.0988733e-07,2.09552e-06,0,0,1
11099000,10941000,10947000,47.3977508,8.5456074,0,1.0,1.0,-0.0024861596,-0.0007875835,-0.0026460364,0.0034727019,1.1517361,1.1519458,2.1466685e-07,2.1538785e-08,-2.6756712e-07,1.1546049e-06,0,0,1
11499000,11341000,11347000,47.3977508,8.5456074,0,1.0,1.0,-0.0056409435,0.0021147334,-0.0039771064,0.0028691604,1.1480906,1.1483351,1.1086319e-06,1.5577675e-07,-6.4137373e-07,7.1068126e-07,0,0,1
11899000,11741000,11747000,47.3977508,8.5456074,0,1.0,1.0,-0.0076190336,0.0043969974,-0.005595741,0.003548199,1.1452272,1.1455157,2.0275338e-06,6.7510507e-07,-1.2574449e-06,6.9486964e-07,0,0,1
12299000,12141000,12147000,47.3977508,8.5456074,0,1.0,1.0,-0.0069975075,0.0011665741,-0.006218748,0.002489699,1.1430211,1.1433321,1.713533e-06,4.761154e-08,-1.4601508e-06,4.0719934e-07,0,0,1
12699000,12541000,12547000,47.3977508,8.5456074,0,1.0,1.0,-0.008425413,0.00252773,-0.007199488,0.0025066016,1.1412364,1.1415882,2.4880937e-06,2.2387826e-07,-1.9170143e-06,3.257233e-07,0,0,1
13099000,12941000,12947000,47.3977508,8.5456074,0,1.0,1.0,-0.01026584,-0.0029157526,-0.0085623115,9.666616e-05,1.1398259,1.1402187,3.6983706e-06,2.98245e-07,-2.7087283e-06,4.8404047e-08,0,0,1
13499000,13341000,13347000,47.3977508,8.5456074,0,1.0,1.0,-0.008239598,-0.0062347036,-0.008418883,-0.002717276,1.1387267,1.1391292,2.384803e-06,1.3649559e-06,-2.5647614e-06,-5.79756e-07,0,0,1
13899000,13741000,13747000,47.3977508,8.5456074,0,1.0,1.0,-0.008287482,-0.0081170015,-0.008360483,-0.005117154,1.1378012,1.1382362,2.4145643e-06,2.3153616e-06,-2.4980072e-06,-1.3511362e-06,0,0,1
14299000,14141000,14147000,47.3977508,8.5456074,0,1.0,1.0,-0.0061936686,-0.0067068096,-0.007397454,-0.0058236676,1.1370934,1.1375312,1.3494592e-06,1.5817166e-06,-1.9875415e-06,-1.4536164e-06,0,0,1
14699000,14541000,14547000,47.3977508,8.5456074,0,1.0,1.0,-0.0041474784,-0.006239955,-0.0059530204,-0.006008684,1.1364615,1.13693,6.054434e-07,1.3699009e-06,-1.3732756e-06,-1.4164095e-06,0,0,1
15099000,14945000,14947000,47.3977508,8.5456074,0,1.0,1.0,-0.0063648876,-0.0062091,-0.006137085,-0.0060982504,1.1359305,1.1364138,1.4265588e-06,1.357003e-06,-1.397088e-06,-1.3898606e-06,0,0,1
15499000,15345000,15347000,47.3977508,8.5456074,0,1.0,1.0,-0.004899469,-0.00029304164,-0.0055870335,-0.0035181574,1.1355186,1.1359872,8.4559775e-07,3.0237455e-09,-1.1519812e-06,-7.734886e-07,0,0,1
15899000,15745000,15747000,47.3977508,8.5456074,0,1.0,1.0,-0.005909507,-0.00063541444,-0.005730355,-0.002236938,1.1351311,1.13561,1.2305987e-06,1.4221484e-08,-1.1869223e-06,-4.3603652e-07,0,0,1
16299000,16145000,16147000,47.3977508,8.5456074,0,1.0,1.0,-0.004301698,-0.00041131477,-0.005095396,-0.0014255499,1.1348298,1.1352863,6.522425e-07,5.960781e-09,-9.492868e-07,-2.4489174e-07,0,0,1
16699000,16545000,16547000,47.3977508,8.5456074,0,1.0,1.0,-0.0038869074,-0.0006597439,-0.00455829,-0.0010851916,1.1345254,1.1349921,5.3266496e-07,1.5339737e-08,-7.641215e-07,-1.4286861e-07,0,0,1
17099000,16945000,16947000,47.3977508,8.5456074,0,1.0,1.0,-0.0044359206,0.00043322693,-0.0045039034,-0.00041033886,1.1342504,1.1347206,6.939347e-07,6.6160983e-09,-7.329274e-07,-7.643096e-08,0,0,1
17499000,17345000,17347000,47.3977508,8.5456074,0,1.0,1.0,-0.001698492,-0.0041675153,-0.003257054,-0.0020801951,1.1340377,1.1344849,1.0175587e-07,6.123725e-07,-4.5240668e-07,-3.1462721e-07,0,0,1
17899000,17745000,17747000,47.3977508,8.5456074,0,1.0,1.0,-0.0022817994,-0.0030673824,-0.0028236075,-0.0025189451,1.1338081,1.1342528,1.8368571e-07,3.318073e-07,-3.3297513e-07,-3.2226282e-07,0,0,1
18099000,17945000,17947000,47.3977508,8.5456074,0,1.0,1.0,0.0035532208,-0.0038703042,-0.0010016565,-0.0029050477,1.1194192,1.1197846,4.511403e-07,5.350763e-07,-1.08942146e-07,-3.8306666e-07,0,0,1
18499000,18345000,18347000,47.3977508,8.5456074,0,1.0,1.0,0.005416629,-0.0020784796,0.0018509149,-0.002537684,1.1215814,1.121963,1.046375e-06,1.5401854e-07,4.045322e-07,-2.812675e-07,0,0,1
18899000,18745000,18747000,47.3977508,8.5456074,0,1.0,1.0,0.002483683,-0.006158156,0.0021321452,-0.0041467827,1.1235234,1.1238949,2.1961915e-07,1.3496949e-06,3.2234863e-07,-7.5612417e-07,0,0,1
19299000,19145000,19147000,47.3977508,8.5456074,0,1.0,1.0,0.0001546588,-0.010648205,0.0012532623,-0.007036304,1.1251928,1.1255256,8.5031987e-10,4.029558e-06,1.7946049e-07,-2.210984e-06,0,0,1
19699000,19545000,19547000,47.3977508,8.5456074,0,1.0,1.0,0.00093052746,-0.013081723,0.0011098245,-0.009723157,1.1265996,1.1268846,3.074318e-08,6.0744983e-06,1.133639e-07,-3.9281013e-06,0,0,1
20099000,19945000,19947000,47.3977508,8.5456074,0,1.0,1.0,0.0027856715,-0.008650262,0.0018546454,-0.009246315,1.127715,1.127997,2.7524564e-07,2.6534478e-06,1.8531134e-07,-3.3615886e-06,0,0,1
20499000,20345000,20347000,47.3977508,8.5456074,0,1.0,1.0,0.003410292,-0.012641281,0.002546044,-0.010755189,1.1285944,1.1288713,4.1219744e-07,5.6623635e-06,2.861496e-07,-4.3841555e-06,0,0,1
20899000,20745000,20747000,47.3977508,8.5456074,0,1.0,1.0,0.0068159965,-0.013222479,0.004443801,-0.011851762,1.1292783,1.1295754,1.6455751e-06,6.191139e-06,8.903388e-07,-5.1872594e-06,0,0,1
21107000,20949000,20955000,47.3977508,8.5456074,0,1.0,1.0,-0.0039369906,-0.0047172904,0.0020152763,-0.009784387,1.1168958,1.117194,5.551062e-07,7.9674e-07,4.7148828e-07,-3.915007e-06,0,0,1
21507000,21349000,21355000,47.3977508,8.5456074,0,1.0,1.0,0.0009936421,-0.0068438966,0.0015612167,-0.0084775025,1.1192974,1.1195931,3.528373e-08,1.6734265e-06,2.7761956e-07,-2.9187488e-06,0,0,1
21907000,21749000,21755000,47.3977508,8.5456074,0,1.0,1.0,0.0065370966,-0.006274675,0.0037727188,-0.0074984683,1.1214076,1.1217066,1.5242854e-06,1.4039873e-06,8.316933e-07,-2.2455215e-06,0,0,1
22307000,22149000,22155000,47.3977508,8.5456074,0,1.0,1.0,0.008361295,-0.007087275,0.005812086,-0.007315716,1.1232022,1.1234865,2.489712e-06,1.7883425e-06,1.5685905e-06,-2.0423308e-06,0,0,1
22707000,22549000,22555000,47.3977508,8.5456074,0,1.0,1.0,0.008511724,-0.005582161,0.0070119253,-0.0065452466,1.1247151,1.1249522,2.5766328e-06,1.1079767e-06,2.0166094e-06,-1.6270623e-06,0,0,1
23107000,22949000,22955000,47.3977508,8.5456074,0,1.0,1.0,0.009849173,-0.00013514345,0.008272924,-0.0036963115,1.1259345,1.126153,3.446247e-06,6.4871297e-10,2.652004e-06,-9.0421173e-07,0,0,1
23507000,23349000,23355000,47.3977508,8.5456074,0,1.0,1.0,0.014099803,-0.0033761733,0.0108626485,-0.0035540278,1.1269114,1.1271384,7.056613e-06,4.0451275e-07,4.6096084e-06,-6.821233e-07,0,0,1
23907000,23749000,23755000,47.3977508,8.5456074,0,1.0,1.0,0.017725188,-0.00093902653,0.013912667,-0.002391805,1.1276987,1.1278914,1.1144194e-05,3.127148e-08,7.5138687e-06,-3.928558e-07,0,0,1
24307000,24149000,24155000,47.3977508,8.5456074,0,1.0,1.0,0.0170089,-0.0005868179,0.01528877,-0.0015895885,1.1282961,1.1284701,1.0256268e-05,1.2206093e-08,8.732713e-06,-2.2367814e-07,0,0,1
24707000,24549000,24555000,47.3977508,8.5456074,0,1.0,1.0,0.015104281,0.0009259824,0.015206775,-0.0004715569,1.1287416,1.1288881,8.08473e-06,3.0381873e-08,8.44472e-06,-1.1076257e-07,0,0,1
25107000,24949000,24955000,47.3977508,8.5456074,0,1.0,1.0,0.014591184,0.0010407189,0.014933179,0.00020056573,1.1290902,1.1292064,7.5424505e-06,3.836662e-08,8.043711e-06,-4.4482924e-08,0,0,1
25507000,25349000,25355000,47.3977508,8.5456074,0,1.0,1.0,0.012514489,0.00545677,0.013858206,0.0025366566,1.1293232,1.129416,5.5471246e-06,1.0545747e-06,6.934117e-06,4.4398718e-07,0,0,1
25907000,25749000,25755000,47.3977508,8.5456074,0,1.0,1.0,0.011994333,0.010414783,0.0130298175,0.0060380464,1.1294796,1.1295542,5.0948775e-06,3.8410803e-06,6.1166775e-06,1.9538065e-06,0,0,1
26307000,26149000,26155000,47.3977508,8.5456074,0,1.0,1.0,0.0115136495,0.01368569,0.012355965,0.009436999,1.1295909,1.129628,4.694235e-06,6.632206e-06,5.484481e-06,4.033095e-06,0,0,1
26707000,26549000,26555000,47.3977508,8.5456074,0,1.0,1.0,0.0087595945,0.0117600355,0.010757578,0.01046946,1.1296355,1.1296737,2.7170001e-06,4.8969337e-06,4.2544893e-06,4.4170233e-06,0,0,1
27107000,26949000,26955000,47.3977508,8.5456074,0,1.0,1.0,0.012481813,0.010663637,0.011523904,0.010555761,1.1296383,1.1296875,5.5166565e-06,4.0263576e-06,4.8154525e-06,4.243394e-06,0,0,1
27507000,27349000,27355000,47.3977508,8.5456074,0,1.0,1.0,0.013126996,0.010473257,0.012236389,0.010519093,1.1296291,1.1296606,6.101756e-06,3.883967e-06,5.3871427e-06,4.0836485e-06,0,0,1
27907000,27749000,27755000,47.3977508,8.5456074,0,1.0,1.0,0.012792399,0.009033146,0.012483505,0.0098586725,1.1295817,1.1296147,5.794905e-06,2.8894005e-06,5.5683704e-06,3.5528715e-06,0,0,1
28307000,28149000,28155000,47.3977508,8.5456074,0,1.0,1.0,0.0126290945,0.008962402,0.012548211,0.00946033,1.1295183,1.1295493,5.648214e-06,2.8444852e-06,5.6038566e-06,3.238033e-06,0,0,1
28707000,28549000,28555000,47.3977508,8.5456074,0,1.0,1.0,0.014389799,0.004137674,0.013366695,0.0070947045,1.1294578,1.12948,7.3332994e-06,6.063089e-07,6.372498e-06,2.0683779e-06,0,0,1
29107000,28949000,28955000,47.3977508,8.5456074,0,1.0,1.0,0.012994322,0.0002718976,0.013201196,0.0040623457,1.1293781,1.1293976,5.980368e-06,2.6183267e-09,6.1982178e-06,1.1502625e-06,0,0,1
29507000,29349000,29355000,47.3977508,8.5456074,0,1.0,1.0,0.011171041,-0.0026579858,0.012298904,0.0010755316,1.1292915,1.1293072,4.420193e-06,2.5023797e-07,5.4079846e-06,5.278178e-07,0,0,1
29907000,29749000,29755000,47.3977508,8.5456074,0,1.0,1.0,0.00837795,-0.005971158,0.010556257,-0.0020563304,1.1292192,1.1292194,2.4863211e-06,1.2629866e-06,4.109467e-06,-2.6809533e-07,0,0,1
30307000,30149000,30155000,47.3977508,8.5456074,0,1.0,1.0,0.0053164116,-0.006214394,0.008227437,-0.0039043587,1.1291258,1.1291282,1.0012784e-06,1.3680888e-06,2.7280498e-06,-7.569813e-07,0,0,1
30707000,30549000,30555000,47.3977508,8.5456074,0,1.0,1.0,0.0015165856,-0.0019520611,0.005244836,-0.0030366709,1.1290357,1.1290468,8.148659e-08,1.3500033e-07,1.5517994e-06,-4.805453e-07,0,0,1
31107000,30949000,30955000,47.3977508,8.5456074,0,1.0,1.0,-0.00069118594,-0.006058411,0.002606604,-0.0043796664,1.1289637,1.1289716,1.6926602e-08,1.3004525e-06,8.545878e-07,-8.4494854e-07,0,0,1
31507000,31349000,31355000,47.3977508,8.5456074,0,1.0,1.0,-0.003036778,-0.00865928,9.843428e-05,-0.0062817167,1.1288751,1.128896,3.267685e-07,2.6568657e-06,3.295405e-07,-1.6502452e-06,0,0,1
31907000,31749000,31755000,47.3977508,8.5456074,0,1.0,1.0,-0.006912729,-0.008520514,-0.0030176383,-0.0072767376,1.128783,1.1288238,1.6933573e-06,2.5725594e-06,-5.695252e-07,-2.0601626e-06,0,0,1
32307000,32149000,32155000,47.3977508,8.5456074,0,1.0,1.0,-0.012811375,-0.014025717,-0.00737041,-0.010276284,1.128713,1.1287631,5.8165833e-06,6.971197e-06,-2.9015512e-06,-4.2428446e-06,0,0,1
32707000,32549000,32555000,47.3977508,8.5456074,0,1.0,1.0,-0.017208038,-0.01796229,-0.011742689,-0.013692287,1.1286323,1.1287066,1.0494705e-05,1.1434109e-05,-6.2762865e-06,-7.4389627e-06,0,0,1
33107000,32949000,32955000,47.3977508,8.5456074,0,1.0,1.0,-0.023052769,-0.020582685,-0.01676939,-0.016754687,1.1285663,1.12866,1.8835584e-05,1.5014157e-05,-1.18581975e-05,-1.0805716e-05,0,0,1
33507000,33349000,33355000,47.3977508,8.5456074,0,1.0,1.0,-0.023253322,-0.022434806,-0.019651137,-0.019279184,1.1284817,1.1285819,1.9166175e-05,1.7839044e-05,-1.5106188e-05,-1.393164e-05,0,0,1
33907000,33749000,33755000,47.3977508,8.5456074,0,1.0,1.0,-0.026907748,-0.014219982,-0.022876298,-0.017030649,1.1283908,1.1285156,2.566582e-05,7.167216e-06,-1.9799358e-05,-1.0925229e-05,0,0,1
34307000,34149000,34155000,47.3977508,8.5456074,0,1.0,1.0,-0.026862213,-0.011710275,-0.024647817,-0.014666038,1.128323,1.1284348,2.5580564e-05,4.8609118e-06,-2.2368782e-05,-8.229977e-06,0,0,1
34707000,34549000,34555000,47.3977508,8.5456074,0,1.0,1.0,-0.028016059,-0.012421305,-0.026144814,-0.013668379,1.1282461,1.1283528,2.7827247e-05,5.4695242e-06,-2.4794766e-05,-7.0031087e-06,0,0,1
35107000,34949000,34955000,47.3977508,8.5456074,0,1.0,1.0,-0.025576174,-0.014312554,-0.025892084,-0.013954679,1.1281881,1.128258,2.3192608e-05,7.2624953e-06,-2.4082696e-05,-7.1183917e-06,0,0,1
35507000,35349000,35355000,47.3977508,8.5456074,0,1.0,1.0,-0.021013899,-0.01360072,-0.023724,-0.013797363,1.1281193,1.1281549,1.5657348e-05,6.5586587e-06,-2.0338097e-05,-6.8696213e-06,0,0,1
35907000,35749000,35755000,47.3977508,8.5456074,0,1.0,1.0,-0.02003201,-0.01110727,-0.022083115,-0.012601766,1.1280469,1.1280606,1.4229246e-05,4.3746386e-06,-1.7623051e-05,-5.76074e-06,0,0,1
36307000,36149000,36155000,47.3977508,8.5456074,0,1.0,1.0,-0.016110122,-0.011145099,-0.01942845,-0.011954358,1.1279902,1.1279663,9.203484e-06,4.404856e-06,-1.3881021e-05,-5.1581246e-06,0,0,1
36707000,36549000,36555000,47.3977508,8.5456074,0,1.0,1.0,-0.01164897,-0.012682838,-0.015970903,-0.012278127,1.1279186,1.1278775,4.8123507e-06,5.7046755e-06,-9.850501e-06,-5.401036e-06,0,0,1
37107000,36949000,36955000,47.3977508,8.5456074,0,1.0,1.0,-0.009289991,-0.015024964,-0.013001609,-0.013498943,1.1278634,1.1278023,3.0607937e-06,8.006707e-06,-6.8328527e-06,-6.559112e-06,0,0,1
37507000,37349000,37355000,47.3977508,8.5456074,0,1.0,1.0,-0.0019968275,-0.020002399,-0.008110594,-0.016389368,1.1277959,1.1277428,1.4141992e-07,1.4191036e-05,-3.8588823e-06,-9.951078e-06,0,0,1
37907000,37749000,37755000,47.3977508,8.5456074,0,1.0,1.0,0.0077184374,-0.023851747,-0.001075469,-0.019705981,1.1277351,1.127712,2.113059e-06,2.0179117e-05,-1.204686e-06,-1.44968735e-05,0,0,1
38307000,38149000,38155000,47.3977508,8.5456074,0,1.0,1.0,0.02248121,-0.019096123,0.009394167,-0.019434933,1.1276824,1.1277095,1.7927205e-05,1.29346045e-05,7.2983776e-06,-1.3802532e-05,0,0,1
38507000,38349000,38355000,47.3977508,8.5456074,0,1.0,1.0,0.0068432516,-0.010568508,0.008665334,-0.016901668,1.1160913,1.1161484,1.6783607e-06,4.002814e-06,5.6926583e-06,-1.1002612e-05,0,0,1
38907000,38749000,38755000,47.3977508,8.5456074,0,1.0,1.0,0.021942478,-0.01576102,0.014566287,-0.016394714,1.1176562,1.1177824,1.72315e-05,8.889378e-06,1.0821032e-05,-1.0063397e-05,0,0,1
39307000,39149000,39155000,47.3977508,8.5456074,0,1.0,1.0,0.039810598,-0.016247066,0.025785983,-0.016329093,1.1190898,1.1193172,5.6649023e-05,9.433149e-06,3.118903e-05,-9.783287e-06,0,0,1
39707000,39553000,39555000,47.3977508,8.5456074,0,1.0,1.0,0.053584382,-0.020393157,0.038209163,-0.018145334,1.1203594,1.1207016,0.000102513026,1.4843591e-05,6.306391e-05,-1.204475e-05,0,0,1
40107000,39953000,39955000,47.3977508,8.5456074,0,1.0,1.0,0.062233213,-0.022944953,0.04888652,-0.020278499,1.121472,1.12193,0.0001381389,1.8770186e-05,9.643058e-05,-1.5033833e-05,0,0,1
40507000,40349000,40355000,47.3977508,8.5456074,0,1.0,1.0,0.074745394,-0.027061472,0.060315218,-0.02327633,1.1224465,1.123012,0.0001990963,2.6084255e-05,0.00014180515,-1.9917725e-05,0,0,1
40907000,40749000,40755000,47.3977508,8.5456074,0,1.0,1.0,0.0869661,-0.03575547,0.07216005,-0.028822616,1.1232709,1.1239653,0.00026932426,4.5497974e-05,0.00019848032,-3.1286727e-05,0,0,1
41307000,41149000,41155000,47.3977508,8.5456074,0,1.0,1.0,0.09992612,-0.042752583,0.08450053,-0.035013713,1.1239853,1.124792,0.0003553509,6.499987e-05,0.0002682006,-4.6270347e-05,0,0,1
41707000,41549000,41555000,47.3977508,8.5456074,0,1.0,1.0,0.11120781,-0.048218854,0.096370436,-0.040882666,1.1245755,1.1254354,0.00043988787,8.263674e-05,0.00034450606,-6.243319e-05,0,0,1
42107000,41949000,41955000,47.3977508,8.5456074,0,1.0,1.0,0.11801684,-0.052822743,0.10599106,-0.046189368,1.1250663,1.1259537,0.0004951877,9.912458e-05,0.0004114757,-7.874047e-05,0,0,1
42507000,42353000,42355000,47.3977508,8.5456074,0,1.0,1.0,0.12314738,-0.056230616,0.113658264,-0.050676826,1.1254653,1.1263418,0.000538987,0.00011228854,0.0004684608,-9.373319e-05,0,0,1
42907000,42753000,42755000,47.3977508,8.5456074,0,1.0,1.0,0.12506999,-0.06044883,0.11873014,-0.055019937,1.1258044,1.1266028,0.0005557805,0.00012973732,0.0005072696,-0.00010973503,0,0,1
43307000,43153000,43155000,47.3977508,8.5456074,0,1.0,1.0,0.123846255,-0.0586817,0.12100397,-0.056647386,1.126044,1.1267536,0.00054484175,0.0001222465,0.0005239683,-0.00011529569,0,0,1
43707000,43553000,43555000,47.3977508,8.5456074,0,1.0,1.0,0.123983435,-0.059090972,0.12232818,-0.057733424,1.1262382,1.1268606,0.00054595526,0.00012394587,0.00053374027,-0.00011914021,0,0,1
44107000,43953000,43955000,47.3977508,8.5456074,0,1.0,1.0,0.123567745,-0.060873326,0.122879095,-0.059128936,1.1263976,1.126915,0.00054222374,0.00013152942,0.0005375107,-0.00012464653,0,0,1
44507000,44353000,44355000,47.3977508,8.5456074,0,1.0,1.0,0.122406855,-0.0615266,0.12266921,-0.060194563,1.1265057,1.1269289,0.0005320324,0.00013436598,0.0005350759,-0.00012896629,0,0,1
44907000,44753000,44755000,47.3977508,8.5456074,0,1.0,1.0,0.11675881,-0.06253234,0.12004237,-0.061233576,1.1265869,1.126894,0.0004840326,0.00013879899,0.00051239,-0.00013333638,0,0,1
45307000,45153000,45155000,47.3977508,8.5456074,0,1.0,1.0,0.11350411,-0.057629537,0.11713648,-0.05963178,1.1266406,1.1268637,0.00045740174,0.000117890515,0.00048795078,-0.00012647155,0,0,1
45507000,45353000,45355000,47.3977508,8.5456074,0,1.0,1.0,0.086145125,-0.042960282,0.108281806,-0.054868493,1.1153615,1.1155866,0.0002661373,6.617454e-05,0.0004245755,-0.00010924383,0,0,1
45907000,45753000,45755000,47.3977508,8.5456074,0,1.0,1.0,0.08523693,-0.046799105,0.09803964,-0.051282097,1.1169467,1.117081,0.0002601855,7.842425e-05,0.00035151327,-9.554624e-05,0,0,1
46307000,46153000,46155000,47.3977508,8.5456074,0,1.0,1.0,0.07760903,-0.05104945,0.08895937,-0.051178697,1.1183976,1.1184586,0.00021542114,9.320134e-05,0.00029102789,-9.450406e-05,0,0,1
46707000,46553000,46555000,47.3977508,8.5456074,0,1.0,1.0,0.07222875,-0.049392518,0.08152354,-0.050384838,1.1196847,1.1197405,0.00018637363,8.7149514e-05,0.00024451487,-9.123537e-05,0,0,1
47107000,46953000,46955000,47.3977508,8.5456074,0,1.0,1.0,0.06340193,-0.048482284,0.07346949,-0.049539257,1.1208199,1.1209118,0.00014345943,8.387927e-05,0.00019960135,-8.796599e-05,0,0,1
47507000,47353000,47355000,47.3977508,8.5456074,0,1.0,1.0,0.05330898,-0.048073098,0.064509265,-0.04888763,1.121808,1.1219774,0.00010133097,8.239106e-05,0.00015592562,-8.5488246e-05,0,0,1
47907000,47753000,47755000,47.3977508,8.5456074,0,1.0,1.0,0.04072658,-0.04549358,0.053939182,-0.047379162,1.1226708,1.1229478,5.9096732e-05,7.37226e-05,0.00011289056,-8.0259066e-05,0,0,1
48307000,48153000,48155000,47.3977508,8.5456074,0,1.0,1.0,0.030724902,-0.04085737,0.043621723,-0.04448059,1.1233946,1.1238003,3.3613105e-05,5.9417136e-05,7.7656136e-05,-7.0995986e-05,0,0,1
48707000,48553000,48555000,47.3977508,8.5456074,0,1.0,1.0,0.019546922,-0.038217045,0.03292181,-0.04169679,1.1240128,1.1245502,1.3597075e-05,5.195117e-05,4.918544e-05,-6.2531624e-05,0,0,1
49107000,48953000,48955000,47.3977508,8.5456074,0,1.0,1.0,0.013704274,-0.03621312,0.024380682,-0.0392596,1.1245189,1.1251558,6.680443e-06,4.6620742e-05,3.0294328e-05,-5.546012e-05,0,0,1
49507000,49353000,49355000,47.3977508,8.5456074,0,1.0,1.0,0.008008686,-0.036153357,0.017104238,-0.03787905,1.1249306,1.125687,2.2806403e-06,4.6445068e-05,1.7843799e-05,-5.145343e-05,0,0,1
49907000,49753000,49755000,47.3977508,8.5456074,0,1.0,1.0,-0.0023385526,-0.02926346,0.008462997,-0.0340499,1.1252849,1.1261417,1.9439801e-07,3.0417135e-05,9.826822e-06,-4.2103966e-05,0,0,1
50307000,50153000,50155000,47.3977508,8.5456074,0,1.0,1.0,-0.009472295,-0.025357634,0.000491756,-0.03018667,1.1255631,1.1264966,3.1886036e-06,2.283219e-05,4.042188e-06,-3.353873e-05,0,0,1
50707000,50553000,50555000,47.3977508,8.5456074,0,1.0,1.0,-0.02103124,-0.025573809,-0.00907402,-0.028136509,1.1257788,1.1268098,1.5715807e-05,2.3216684e-05,-4.7391436e-06,-2.8951154e-05,0,0,1
51107000,50953000,50955000,47.3977508,8.5456074,0,1.0,1.0,-0.034295745,-0.024199875,-0.020283677,-0.026386894,1.1259718,1.1270837,4.1784282e-05,2.0784046e-05,-2.120365e-05,-2.5321327e-05,0,0,1
51507000,51349000,51355000,47.3977508,8.5456074,0,1.0,1.0,-0.04169539,-0.019684184,-0.02974689,-0.023424536,1.1261126,1.1272848,6.175246e-05,1.3748687e-05,-3.9124774e-05,-2.0206633e-05,0,0,1
51907000,51753000,51755000,47.3977508,8.5456074,0,1.0,1.0,-0.049678944,-0.012160713,-0.038654577,-0.018390704,1.1262311,1.1274136,8.76551e-05,5.246803e-06,-6.08131e-05,-1.3521046e-05,0,0,1
52307000,52153000,52155000,47.3977508,8.5456074,0,1.0,1.0,-0.05890945,-0.008863559,-0.047656745,-0.014156417,1.1263297,1.1275066,0.0001232436,2.7871295e-06,-8.8559995e-05,-8.750416e-06,0,0,1
52707000,52553000,52555000,47.3977508,8.5456074,0,1.0,1.0,-0.06268069,0.005177568,-0.054334056,-0.005563534,1.1264098,1.1275082,0.00013951829,9.510251e-07,-0.00011120813,-4.4386643e-06,0,0,1
53107000,52953000,52955000,47.3977508,8.5456074,0,1.0,1.0,-0.06726696,0.012050015,-0.060082015,0.002264711,1.1264715,1.1274898,0.00016067318,5.151368e-06,-0.0001331926,-1.7642742e-07,0,0,1
53507000,53353000,53355000,47.3977508,8.5456074,0,1.0,1.0,-0.07377806,0.02031852,-0.06616915,0.010288626,1.1265402,1.1274724,0.0001932715,1.4646646e-05,-0.00015989433,6.4116057e-06,0,0,1
53907000,53753000,53755000,47.3977508,8.5456074,0,1.0,1.0,-0.08050218,0.026899565,-0.07253939,0.017671267,1.1265761,1.1274285,0.00023009902,2.5672105e-05,-0.00019109642,1.4971829e-05,0,0,1
54307000,54153000,54155000,47.3977508,8.5456074,0,1.0,1.0,-0.083872356,0.03532667,-0.077576265,0.025518114,1.1266278,1.1273264,0.00024975673,4.428083e-05,-0.00021716768,2.7998052e-05,0,0,1
