timestamp,timestamp_sample,xyz[0],xyz[1],xyz[2]
4435000,4435000,-0.006826291,-0.0038219502,0.0007128762
4439000,4439000,-0.00723959,0.001497179,0.00080919015
4455000,4455000,0.0060266135,-0.0001826742,0.0008853661
4475000,4475000,0.0012034983,-0.00076167076,0.0012995617
4495000,4495000,0.005669432,-0.0022556183,0.0014193348
4515000,4515000,-0.005301539,0.0026160097,0.0017195368
4535000,4535000,-0.004163982,-0.0031292883,0.0019245483
4555000,4555000,-0.0044955947,-0.0014138534,0.001491468
4575000,4575000,0.0049802763,0.0056194463,0.0013809194
4595000,4595000,0.0029619676,-0.002807139,0.00061008096
4615000,4615000,-0.00039777052,0.010652544,7.8600104e-05
4635000,4635000,0.0139282085,0.0016170857,0.00034138488
4655000,4655000,0.000662864,0.0020527034,-9.512703e-05
4675000,4675000,-0.004559772,-0.0038124956,7.864957e-05
4695000,4695000,0.0037253955,0.0074677276,-8.549431e-05
4715000,4715000,0.0052139475,0.002151558,1.6560836e-05
4735000,4735000,-0.0041201306,-0.0066356882,0.000735876
4755000,4755000,0.0029015997,-0.006457497,0.00047302432
4775000,4775000,-0.00051795057,-0.0021536616,0.0001865629
4795000,4795000,-0.010334547,0.0008455436,0.00042517937
4815000,4815000,-0.0038725939,0.0022999868,9.151484e-05
4835000,4835000,0.003427903,0.0045680273,-0.0007626844
4855000,4855000,0.0010480918,0.0066703185,-0.0011308844
4875000,4875000,0.0010300413,-0.008350829,-0.0010236504
4895000,4895000,-0.0029652852,-0.0028293468,-0.00023686053
4915000,4915000,0.007410654,0.0010940426,0.0005851792
4935000,4935000,-0.0021827081,0.009782457,0.0009172566
4955000,4955000,0.008934534,-0.0023357593,0.0017883824
4975000,4975000,0.00027041725,0.009465592,0.0016824566
4995000,4995000,0.0006511508,-0.004932106,0.0015839086
5015000,5015000,0.009865167,0.0019530115,0.0019957295
5035000,5035000,-0.007674246,0.012439559,0.0014205906
5055000,5055000,-0.005728458,-0.00036078412,0.0009878544
5075000,5075000,0.0056118704,0.007287575,0.000329704
5095000,5095000,0.0032959164,0.0009877455,0.001338748
5115000,5115000,0.0011362875,0.0048800325,0.001094999
5135000,5135000,0.008475209,-0.0014612692,0.0006701046
5155000,5155000,0.0007568273,-0.0037298552,0.0007871679
5175000,5175000,-0.0010183891,0.009543952,0.00067148934
5195000,5195000,-0.007286754,-0.00017004728,0.0016072465
5215000,5215000,0.0019561667,0.0015795655,0.0018594344
5235000,5235000,-0.00041735522,0.0007160721,0.0015036175
5255000,5255000,-0.005782025,0.0026065174,0.00024943857
5275000,5275000,-0.012815522,0.009583295,-0.0003555835
5295000,5295000,-0.002103669,0.0068790037,-0.00032750703
5315000,5315000,0.01152686,0.0020546794,-0.0003576286
5335000,5335000,-0.0005799199,0.007648248,-0.00039294697
5355000,5355000,0.0073106536,-0.004905521,-0.0014192358
5375000,5375000,0.0047618267,0.0104253385,-0.00224958
5395000,5395000,0.008278672,0.0118701905,-0.0020898369
5415000,5415000,0.010027024,0.0019499896,-0.0016581886
5431000,5431000,0.00033064652,0.0023706376,-0.0014697202
5455000,5455000,0.009575751,0.005005842,-0.001973552
5475000,5475000,0.008688146,0.0009038957,-0.0013485416
5495000,5495000,0.0022813794,0.006951386,-0.00036023802
5515000,5515000,0.0076536797,-0.0058728484,-0.00020091335
5535000,5535000,-0.017353127,-0.0014927248,-0.00043576636
5555000,5555000,0.004190016,0.002195795,-0.0005267135
5575000,5575000,0.0052085323,-0.009534765,-0.001094229
5595000,5595000,-0.003038527,0.0057800515,-0.0013992083
5615000,5615000,-0.005041113,-0.0006175948,-7.915036e-05
5635000,5635000,0.0049316753,-0.005236718,-0.00057360064
5655000,5655000,-0.005768002,0.0066921045,-0.0009990607
5675000,5675000,0.008427798,-0.0034505366,-0.0004836386
5695000,5695000,-0.0052443976,-0.006919034,0.0003419342
5715000,5715000,-0.0025857743,-0.006320889,0.0005925064
5735000,5735000,-0.00775411,-0.00094394025,0.0008327136
5755000,5755000,-0.0012442458,0.0047976407,0.0010785362
5775000,5775000,-0.004256587,-0.012498748,0.0008869107
5795000,5795000,0.0025764252,-0.0070511634,0.00051214406
5815000,5815000,0.0028920867,0.0037542484,0.00034305296
5835000,5835000,0.0006499738,0.00528174,-0.00021122441
5855000,5855000,0.0093105445,-0.0013850437,-0.0010105043
5875000,5875000,-0.0021176194,0.008371325,-0.0011950664
5895000,5895000,0.0040436615,0.008695282,-0.0011977798
5915000,5915000,-0.014758937,-0.011852514,-0.0014183443
5935000,5935000,0.00085540744,0.0010463644,-0.0011890121
5955000,5955000,-0.0037591185,-0.008224355,-0.0011067076
5975000,5975000,-0.0034828833,0.005785902,-0.00041638955
5995000,5995000,-0.004234256,-0.0010203676,-0.00047910167
6015000,6015000,0.0072225025,-0.0018014322,1.868921e-05
6035000,6035000,-0.01626972,0.004744621,-0.0004427468
6055000,6055000,0.01085223,0.0007069296,-0.00025454198
6075000,6075000,-0.010004073,0.006573881,0.00045066662
6095000,6095000,0.0057754535,-0.0069903443,0.0006345165
6115000,6115000,0.008541632,-0.007909171,3.5350386e-05
6135000,6135000,0.0059848214,-0.0047979522,-0.00017442761
6155000,6155000,-0.0035980782,-0.008847632,-0.0012810708
6175000,6175000,-0.017039327,0.0057603456,-0.0018714784
6195000,6195000,0.0013020465,0.0043890025,-0.0008841553
6215000,6215000,-0.0057703727,-0.0047311424,-0.0007043238
6235000,6235000,-0.004471488,0.0058568344,-0.0011056081
6255000,6255000,0.0026321593,-0.0003152207,-0.0011928164
6275000,6275000,-0.0063353917,0.0024591212,-0.000449647
6295000,6295000,0.0028178839,0.001481843,-0.0003319738
6315000,6315000,6.110378e-05,0.006918842,-0.0003620529
6335000,6335000,-0.0013393165,-0.00975888,-0.0005060611
6355000,6355000,0.012317591,-0.008910278,-0.00031620165
6375000,6375000,-0.005764028,-0.005716947,-0.00013924115
6395000,6395000,0.009071128,0.0058801244,0.06183436
6415000,6415000,-0.0044263857,0.00044284854,0.048925668
6435000,6435000,-0.0037931046,0.0010930608,0.03772105
6455000,6455000,-0.0009612182,0.0032244218,0.029815322
6475000,6475000,-0.0017951707,0.0034203865,0.023500517
6495000,6495000,0.000551699,-0.0055328873,0.018399246
6515000,6515000,-0.004590333,0.004288129,0.013343509
6535000,6535000,-0.00058962626,0.0068760356,0.010212971
6555000,6555000,0.0027638357,0.0025700866,0.007924991
6575000,6575000,-0.010042216,-0.0048599793,0.006324797
6595000,6595000,0.0036623436,-0.0058198366,0.0054982104
6615000,6615000,-0.0044191624,0.009983508,0.0050906963
6635000,6635000,-8.171785e-05,-0.00028528634,0.0049217874
6655000,6655000,0.0063101854,0.003878945,0.0033590416
6675000,6675000,-0.0027146426,-0.0021351583,0.0025127865
6691000,6691000,-0.0056330315,-0.006305211,0.0013389629
6715000,6715000,-0.0031780072,-0.00068866275,0.0005936394
6731000,6731000,0.010710169,-0.0017517194,0.0007502136
6755000,6755000,-0.009583738,0.010399304,-0.0008838981
6775000,6775000,0.0036100964,-0.012490649,-0.00054334453
6795000,6795000,-0.0067315428,0.005466831,-0.00085840316
6815000,6815000,-0.0026976406,-0.0015512751,-0.0014157832
6835000,6835000,-0.0005131504,-0.009929885,-0.0013986935
6855000,6855000,-0.0027356264,0.005081298,-0.00026740466
6875000,6875000,0.011303617,-0.0021139847,2.7166825e-05
6895000,6895000,-0.0058126654,-0.0056577446,0.00024267905
6915000,6915000,-0.003606684,0.0139284115,0.0004237421
6935000,6935000,0.0019756872,0.0026669586,0.00042979512
6955000,6955000,0.008809715,0.005126342,-0.00050486205
6975000,6975000,0.0030580012,0.0053435555,-0.0005817772
6995000,6995000,0.0019972553,0.0017876662,0.0005066464
7015000,7015000,-0.0034322375,0.001239878,-0.0006355125
7035000,7035000,0.009814395,0.0066698045,-0.00059355167
7055000,7055000,-0.003150432,-0.003095335,-0.00025779547
7075000,7075000,-0.0017158582,0.004560996,-0.0006885269
7095000,7095000,-1.1062075e-06,-0.0035090514,-0.00089939765
7115000,7115000,0.0104833,0.008155495,-0.0006881262
7135000,7135000,0.0052046496,0.0010304683,-0.0011846296
7155000,7155000,0.0025153244,0.009948436,-0.0013405106
7175000,7175000,-0.006133766,0.00023255171,-0.0010546171
7195000,7195000,0.0009940659,0.0010131927,-0.00054521643
7215000,7215000,-0.0009059473,0.011709677,-0.0009708708
7235000,7235000,0.00135174,-0.0016042809,-0.001313889
7255000,7255000,-0.0020866152,0.010987956,-0.0023243746
7275000,7275000,0.0071637845,-0.0039558145,-0.0023045868
7295000,7295000,0.0035982442,0.0055635497,-0.0016599243
7315000,7315000,0.005748907,-0.000938914,-0.0011170229
7335000,7335000,0.000709258,0.00739042,-0.0018713966
7355000,7355000,0.002801584,-0.0003356447,-0.0012628969
7371000,7371000,0.0016522661,0.0006138511,-0.00068044453
7395000,7395000,-0.0055761402,0.0064119715,-0.00011228178
7415000,7415000,0.0037184805,0.0018979234,2.8679395e-05
7435000,7435000,0.0036642184,0.0041852496,-0.00013350556
7455000,7455000,0.0075586294,0.012021644,-0.0006317754
7475000,7475000,0.008107003,0.007602104,-0.001324312
7491000,7491000,0.007637565,0.0011932994,-0.0015799451
7515000,7515000,0.008820709,0.002122212,-0.0016364738
7531000,7531000,-0.0035605999,0.0012038144,-0.0015112228
7555000,7555000,0.0020905305,0.0015944574,-0.0010377949
7575000,7575000,-0.007858289,0.005450448,-0.0012140565
7595000,7595000,-0.00033097412,0.0012523377,-0.0017579228
7615000,7615000,0.016029058,0.0010267023,-0.0020017049
7635000,7635000,0.00030662236,0.0075983983,-0.0012255311
7655000,7655000,0.0017798253,-0.0017247447,0.00012767216
7675000,7675000,0.013872586,0.0017214239,-1.707417e-05
7695000,7695000,0.0007762514,0.012187995,4.541531e-05
7711000,7711000,0.009094894,0.00036963774,0.00017628522
7735000,7735000,0.0045541623,-0.004750209,0.00064895075
7755000,7755000,0.012456387,0.010487168,0.00029286477
7775000,7775000,0.0045006974,0.005644364,0.0006315896
7795000,7795000,0.001700414,0.0035509872,0.0005811132
7815000,7815000,0.011642106,0.009982362,1.0783231e-05
7835000,7835000,-0.0039607976,0.007431971,-0.00068153697
7855000,7855000,0.008014818,0.0017729512,-8.70145e-05
7875000,7875000,0.01437414,0.0038829842,-0.00029720657
7895000,7895000,-0.002315772,0.011370229,-0.00021797382
7915000,7915000,0.0035201078,0.0066393525,-0.000834325
7935000,7935000,-0.0057612783,0.0067912703,-0.000643157
7955000,7955000,0.013314066,0.003593184,-0.0008698488
7975000,7975000,0.008418892,0.0089595625,-0.00035345255
7995000,7995000,-0.0017581168,0.0036004141,-0.0003497875
8015000,8015000,-0.006809381,0.015994253,-0.00018130057
8035000,8035000,0.0131675005,9.4475225e-05,-0.00010485036
8055000,8055000,0.009626692,0.011731531,-0.00083714037
8075000,8075000,0.00046578376,-0.00016895146,-0.0015783667
8091000,8091000,0.0023744423,0.009087632,-0.0004120768
8115000,8115000,0.009768272,0.0071528014,0.0005261717
8135000,8135000,0.010548691,-0.0011681812,0.0007567486
8155000,8155000,-0.0040184027,-0.0023688236,3.92652e-05
8175000,8175000,0.00282849,0.009199901,-0.00072692346
8195000,8195000,0.0022186954,0.007963566,-0.00047517425
8215000,8215000,0.0052060983,0.014851973,-0.0006510144
8235000,8235000,-0.0029448178,-0.0028232625,-0.0012572883
8255000,8255000,0.012530194,0.008919883,-0.0014787426
8275000,8275000,0.013405774,0.007307791,-0.0015871567
8295000,8295000,0.0068198945,0.0074765896,-0.0011118408
8315000,8315000,0.015101252,0.014506452,-0.00058344565
8335000,8335000,0.0150322635,0.004131522,-0.0006057991
8355000,8355000,0.0018476776,0.00053240685,-0.0016147612
8375000,8375000,0.0044628326,0.0049074194,-0.0017987841
8395000,8395000,0.014047335,0.006787777,-0.0015378152
8415000,8415000,0.004338312,-0.005328384,-0.0021516625
8435000,8435000,0.0029180187,0.0047911783,-0.0003299361
8451000,8451000,0.0077593755,0.0025240926,-0.0006566302
8475000,8475000,0.004654811,0.012989162,-0.0007449722
8495000,8495000,0.0001387992,-0.006494157,-0.000150568
8515000,8515000,0.0067675654,0.021267895,-0.0009976682
8535000,8535000,0.0026924564,-7.607415e-05,-0.0017167808
8555000,8555000,0.0041314214,0.007077322,-0.0014983558
8571000,8571000,0.0035553277,0.005870329,-0.0008156795
8595000,8595000,-0.005707154,0.016995557,-0.0007018436
8615000,8615000,0.010333709,0.0059076357,-0.0011849127
8635000,8635000,0.0027885584,0.007109029,-0.0009736007
8655000,8655000,0.012253419,0.01401858,-0.0009289723
8675000,8675000,0.00094333687,0.0005678483,-0.0011345645
8691000,8691000,-0.0042585474,0.007224568,-0.0012120917
8715000,8715000,0.0017169497,0.00288555,-0.0010466764
8735000,8735000,0.008570926,0.011791,-0.0003668894
8755000,8755000,-0.005067014,0.01791737,-0.00013790313
8775000,8775000,0.01601459,0.0037484807,-0.0006582476
8795000,8795000,-0.002473347,0.0022702662,-0.0007515789
8811000,8811000,0.0017636184,-0.00061829295,3.168505e-05
8835000,8835000,0.001348933,0.019393818,-0.00016750065
8855000,8855000,0.009074512,-0.00030466868,-0.0007546409
8875000,8875000,0.012094121,0.008875311,-0.0018717538
8895000,8895000,0.0070366766,0.012777949,-0.0023750078
8915000,8915000,0.0013403433,0.01362706,-0.0015854633
8935000,8935000,0.0010295596,0.0016192857,-0.001950907
8955000,8955000,0.007255971,0.0110597,-0.0011280499
8975000,8975000,0.00853762,0.002135392,-0.0006833271
8995000,8995000,0.0063479575,0.007779537,0.00022138219
9015000,9015000,0.0062614987,0.00089613535,-0.00011030176
9035000,9035000,0.008391436,0.007474735,-5.4881006e-05
9055000,9055000,0.0008325139,-0.0024053454,-0.00028132126
9075000,9075000,0.00873457,0.003462709,-0.0011521106
9095000,9095000,-0.0034003821,0.0007735351,-0.0012126477
9115000,9115000,0.0052585565,0.0185144,-0.001513605
9135000,9135000,0.010950547,-0.008998646,-0.0015169124
9155000,9155000,0.005378147,0.012609359,-0.0023516314
9175000,9175000,0.00415992,0.0044354815,-0.0010601534
9195000,9195000,0.0024437448,0.00065336097,-0.0014742463
9215000,9215000,0.0049880487,0.012742991,-0.0012925202
9235000,9235000,0.007249137,0.0022090306,-0.00059087505
9255000,9255000,0.0063291998,0.008919811,-0.00017161525
9275000,9275000,0.0019518939,0.0051795994,-0.00059516204
9291000,9291000,-0.001861617,0.006820677,-0.0009005331
9315000,9315000,0.0039698947,0.014042843,-0.0006065149
9335000,9335000,-0.0083669005,0.012499122,-0.00019969502
9355000,9355000,0.010445611,0.013377474,0.00021999769
9375000,9375000,0.0017664057,0.018964956,0.00045520673
9395000,9395000,0.0061491025,0.0030669468,-0.00023223407
9415000,9415000,-0.002763322,0.006348422,0.00080715114
9435000,9435000,0.009039494,0.009959684,0.00012089813
9455000,9455000,-0.00051649543,-0.006256573,0.00016936795
9475000,9475000,0.00034911314,0.0040879603,0.0008506083
9495000,9495000,0.009807041,0.012423258,0.0005338117
9515000,9515000,0.0073338365,0.0005902904,0.00028424256
9535000,9535000,-0.0030364846,0.0050992486,-0.00023243569
9551000,9551000,0.010374449,0.007433085,-0.0005356899
9575000,9575000,0.010709258,0.006853192,-0.00077299925
9595000,9595000,0.010112611,0.0045788987,-0.00045262664
9615000,9615000,-0.0006007883,0.004422758,0.00043679174
9635000,9635000,0.015554978,0.0067446865,0.0011243176
9655000,9655000,0.0052254153,0.0012515082,0.00010626906
9675000,9675000,-0.0035701816,0.002508096,-0.00076293893
9695000,9695000,0.008980529,0.008766831,-0.0012122546
9715000,9715000,0.0012364143,0.012671043,-0.00080653996
9735000,9735000,0.0028179905,0.006447048,-0.0005453902
9755000,9755000,0.010217464,-0.0057434603,-0.0010336572
9771000,9771000,-0.0018621077,0.006278432,-0.0009170665
9791000,9791000,-0.0023022783,0.007561608,-0.0015318062
9815000,9815000,0.0037953744,0.0049324944,-0.001367639
9835000,9835000,0.0026647304,0.007530101,-0.0017835451
9851000,9851000,0.0030762188,-0.0012823374,-0.0018231758
9875000,9875000,0.010171085,0.008826884,-0.0005457746
9895000,9895000,0.0033619672,0.00848984,-0.00041781372
9911000,9911000,0.0014484792,0.0026973053,-0.0009816705
9935000,9935000,0.004652662,0.007879872,-0.001027361
9955000,9955000,0.012058418,0.0056070737,-0.00037909442
9975000,9975000,-0.0024035883,0.0017718081,-4.6454006e-05
9995000,9995000,-0.0055005075,0.005525424,-0.0011619806
10015000,10015000,0.0053826715,0.011850807,-0.001789701
10035000,10035000,0.0012993669,0.0033170877,-0.0017116322
10055000,10055000,0.006068938,0.003822007,-0.0012059178
10075000,10075000,0.011227615,-0.0011604019,-0.00074306224
10091000,10091000,0.008941605,0.005801584,-2.7631275e-05
10111000,10111000,0.006847053,0.005010688,0.0001908073
10135000,10135000,0.0009905025,0.004718052,0.00029707915
10155000,10155000,-0.0021469835,0.00030807895,0.0001623807
10175000,10175000,0.00082657894,0.0042313705,-0.00021665334
10195000,10195000,-0.001654463,0.0057910224,0.00011364332
10215000,10215000,0.0016919367,-0.0013647976,-0.00057151786
10235000,10235000,-0.00063460926,0.011383833,-0.00037914564
10255000,10255000,0.006018605,0.0056496123,-0.0014464929
10275000,10275000,0.005389951,0.011137867,-0.0011037745
10295000,10295000,-0.010494428,0.002517417,-0.0011816861
10315000,10315000,0.022689255,0.013517952,-0.0009645299
10335000,10335000,-0.004311058,0.0029878505,-4.1924155e-05
10355000,10355000,0.0048915213,0.0020248285,-0.00046976493
10375000,10375000,-0.007252639,0.0051787947,7.628033e-05
10395000,10395000,0.0053824587,0.0138289165,5.0665454e-05
10415000,10415000,0.004639312,0.008799826,-0.000113906266
10435000,10435000,0.004085879,0.0018101828,-1.8351144e-05
10455000,10455000,-0.00063965074,-0.004865995,-0.0002685791
10475000,10475000,0.010510776,0.009500071,8.235769e-06
10495000,10495000,-0.003263188,0.0060463483,-0.0006396838
10515000,10515000,0.004559448,0.008767284,-0.0007872335
10535000,10535000,-0.0061917673,0.005610475,-0.0007841665
10555000,10555000,0.010956668,-0.010686245,-0.0010070326
10575000,10575000,0.0018845281,0.006083837,-0.0013619921
10595000,10595000,0.008406958,0.015537325,-0.00077159354
10615000,10615000,-0.007032974,0.00084579596,-0.0003978315
10635000,10635000,0.005391123,0.005068525,0.00037163304
10655000,10655000,0.012854317,0.009429961,0.0012678463
10675000,10675000,0.00020083273,0.0066949427,0.0013296296
10695000,10695000,-0.0017184957,0.0021562702,0.00067644723
10715000,10715000,-0.0029303129,0.0023090872,0.00092404603
10735000,10735000,0.0016273714,0.0015797159,0.00041669825
10755000,10755000,-0.0021281834,0.008088375,-0.0011253221
10775000,10775000,-0.0015213625,0.009118996,-0.00093313865
10795000,10795000,0.0033382983,0.0111378,-0.00037298285
10815000,10815000,0.0014692366,-0.012917998,-0.0005127026
10835000,10835000,0.0034875234,0.016507883,-0.00029733
10855000,10855000,0.0023684686,-0.0053543365,0.00022342871
10875000,10875000,0.008443336,0.013999827,-6.666771e-06
10895000,10895000,0.009131229,0.012982221,-0.0010447486
10915000,10915000,0.0013841802,0.005565832,-0.0009102766
10935000,10935000,0.0050676954,-0.0060266866,-0.0011649042
10955000,10955000,0.00804624,0.0057422663,-0.0016192748
10975000,10975000,-0.006732956,0.0005788683,-0.0025594973
10995000,10995000,-0.00012511437,0.008675787,-0.0033805484
11015000,11015000,-0.0006665018,-0.00034799613,-0.0025828944
11035000,11035000,0.0066985264,0.011384886,-0.0022233883
11055000,11055000,0.0019516605,0.002239489,-0.0018653629
11075000,11075000,0.008946463,0.006996044,-0.0010087455
11095000,11095000,0.0013419304,0.0042776014,-0.0008874766
11115000,11115000,-0.0016548259,-0.001836705,-0.0003407168
11135000,11135000,0.0009781821,0.009098898,-0.0006410229
11155000,11155000,0.006812767,0.0021514667,-8.9692694e-05
11175000,11175000,0.0044489573,0.012303865,-0.00016881578
11195000,11195000,-0.004472094,0.007674273,-0.0010066755
11215000,11215000,0.0008719818,-0.00949124,-0.0015801607
11235000,11235000,-0.0009173565,0.0056420625,-0.0017120631
11255000,11255000,-0.0011709798,0.00016330066,-0.0013377978
11275000,11275000,0.011202342,0.0053485595,-0.0007468407
11295000,11295000,0.0021008542,0.016163785,0.00042020134
11315000,11315000,-0.0040771137,0.00283231,-0.00034515205
11331000,11331000,0.00564289,0.011893387,-0.00010950817
11351000,11351000,-0.00275915,0.008900489,-0.00018861498
11375000,11375000,0.005616675,0.018067539,-0.00029510833
11395000,11395000,-0.0012240208,-0.0038510591,0.0008374235
11415000,11415000,0.0019167037,0.013872881,0.00018244753
11435000,11435000,-0.001131659,0.010963872,0.00093328254
11455000,11455000,-0.0070365737,0.0073125344,0.0015197748
11475000,11475000,-0.0030065384,0.0098366635,0.0003014151
11495000,11495000,0.008304769,0.009087866,6.731713e-05
11515000,11515000,0.0019630508,0.007213763,-0.0009879051
11535000,11535000,0.005027977,-0.0067789787,-0.0015628284
11555000,11555000,0.003584381,0.017117824,-0.0016599383
11575000,11575000,-0.00027851388,0.01431123,-0.001732778
11595000,11595000,-0.0012595044,-0.006271999,-0.0018051871
11615000,11615000,-0.005973866,0.009108033,-0.0013989302
11635000,11635000,-0.0039493996,0.0049435645,-0.0011394606
11655000,11655000,0.0035530492,0.0037647472,-0.0010821912
11675000,11675000,-0.00011887727,0.003438515,-0.0013575209
11695000,11695000,-0.0011303679,0.014220014,-0.0009995686
11715000,11715000,-0.0049734293,-0.0033286368,-0.00090915995
11735000,11735000,-0.0027661093,0.008811296,-0.0008664846
11755000,11755000,0.007627515,0.00015790202,-0.000828063
11775000,11775000,0.0078378115,0.011625824,-0.00019909287
11795000,11795000,0.0059544593,0.008847672,-0.0004997285
11815000,11815000,-0.0034889446,-0.00090935617,-0.00045960356
11835000,11835000,0.0032804485,0.009148238,0.00039661588
11855000,11855000,-0.0049556387,0.010729876,0.00048569153
11875000,11875000,-0.0045292545,0.0037593916,0.0003858278
11895000,11895000,0.0053185015,0.0017861837,0.0006593587
11915000,11915000,-0.0037498088,0.0031937917,0.0008696903
11935000,11935000,-0.0047231587,0.004526776,0.00090307515
11955000,11955000,0.004794281,0.006443883,0.0013289261
11975000,11975000,-0.0044938917,0.0012281665,6.467219e-05
11995000,11995000,-0.0011860101,0.0052852137,-0.0003264206
12015000,12015000,0.0025579548,-0.00775491,-0.00048439953
12035000,12035000,0.0062295087,0.011965172,-0.000121938414
12055000,12055000,-0.004872552,0.014916824,-0.0004108135
12071000,12071000,-0.0013772775,0.002362464,-0.00038913803
12095000,12095000,-0.0039834986,0.0067641553,-0.0005853776
12111000,12111000,0.0031380584,0.0024396384,-2.0966472e-06
12135000,12135000,-0.00022406277,0.009949727,0.00026988873
12155000,12155000,-3.532064e-05,0.0022515482,-0.0002115764
12175000,12175000,-0.01229619,0.0036123563,0.00015001897
12195000,12195000,0.0047819647,0.0034243842,-0.0011601915
12215000,12215000,-0.008669191,0.0059493217,-0.00086006743
12235000,12235000,0.0016360991,0.0030016024,-0.0009149877
12255000,12255000,-0.0033868884,0.004189522,-0.0008804053
12275000,12275000,-0.0004419249,0.009752607,-0.0010700399
12291000,12291000,0.003941015,0.005039511,-0.0010160945
12315000,12315000,-0.003790369,0.0018706899,-0.00073272875
12335000,12335000,-0.0110791065,-0.0047983136,-0.0011891376
12355000,12355000,0.011367838,0.0041494337,-0.0013724045
12375000,12375000,0.003049391,0.0033680103,-0.0016052441
12395000,12395000,-0.003588821,0.0013175962,-0.001704456
12411000,12411000,0.0020494522,0.0057061147,-0.00096830045
12435000,12435000,0.007880081,0.0076325173,-0.0012158705
12455000,12455000,0.0027567183,0.0015118116,-0.001368748
12475000,12475000,-0.0029623108,-0.0031722337,-0.0007193313
12495000,12495000,0.00543046,0.0029341744,-0.0009575488
12515000,12515000,-0.007497922,0.00844061,-0.0007536392
12531000,12531000,-0.0068871332,-0.0006027366,-0.00028999962
12555000,12555000,0.0041022785,0.0018060921,-0.0007588447
12575000,12575000,-0.006717247,-0.0033043441,-0.0007502151
12591000,12591000,0.004179484,0.003273096,-0.00070866395
12615000,12615000,-0.002461485,0.00012719748,-0.00065190066
12635000,12635000,-0.001808925,0.002610713,-0.0008221124
12655000,12655000,-0.0027609626,0.011767833,-0.0015189438
12675000,12675000,0.00029047742,-0.011511968,-0.0016024982
12695000,12695000,-0.008759464,0.010495324,-0.0014459052
12711000,12711000,0.00011353672,-0.00082868827,-0.0012869176
12735000,12735000,0.0020152815,0.00050304167,-0.0007730772
12755000,12755000,0.006280488,0.011256926,-0.00021215537
12775000,12775000,-0.00096410024,0.008264267,0.0008651975
12795000,12795000,-0.0126865385,0.009493632,0.0014072699
12811000,12811000,0.0003066759,9.400456e-05,0.0014430097
12835000,12835000,0.00023970404,0.004556863,0.00074068934
12855000,12855000,-0.002388758,-0.0026642347,0.00096823764
12875000,12875000,-0.00019237031,0.004527484,-0.0006801513
12895000,12895000,0.00483038,0.0068569873,-0.0009419229
12915000,12915000,0.0060603977,-0.0015367785,-0.00132991
12935000,12935000,-0.0034429063,0.0039400235,-0.0014708089
12955000,12955000,0.0061107273,0.0034887078,-0.0014372395
12975000,12975000,-0.0031060807,0.0023617689,-0.001768415
12995000,12995000,-0.0068216585,-0.0021126827,-0.0009451524
13015000,13015000,0.00038410188,0.0026535788,-0.0006894224
13035000,13035000,0.0036990559,-0.001251484,-0.0001420837
13051000,13051000,9.484938e-05,0.005085974,-0.0007382418
13075000,13075000,-0.005094615,-0.004057904,-0.0004947446
13095000,13095000,-0.0045185965,0.013842594,0.00021089267
13115000,13115000,-0.000896824,-0.0024219903,0.0003350415
13135000,13135000,-0.0058854464,0.009724747,0.0006435998
13151000,13151000,-0.008849075,-0.0033869867,-0.000544655
13171000,13171000,0.0056831897,0.008466968,-0.0014053643
13195000,13195000,-0.0063702473,0.002936393,-0.0014142203
13215000,13215000,0.0026229583,0.004356347,-0.0014093807
13235000,13235000,-0.006131474,-0.004260429,-0.0010043435
13255000,13255000,0.0015490429,0.010639083,-0.0004389799
13275000,13275000,-0.0084458105,-0.00713042,-0.00072829844
13295000,13295000,-0.0043830103,0.009524759,-0.00050136895
13315000,13315000,-0.0023816852,-0.0067398925,-0.00014628701
13335000,13335000,-0.003691447,-0.0020985287,0.00063825754
13355000,13355000,0.002206284,0.0047756247,0.0006427295
13375000,13375000,-0.0045561916,-0.009086394,0.0010632217
13395000,13395000,-0.0028782238,-0.0024157832,0.00090284256
13415000,13415000,-0.00873204,0.003634988,0.0014968587
13435000,13435000,-0.006222779,0.0020405683,0.0011096986
13455000,13455000,0.003846943,-0.0045369137,0.00035872558
13475000,13475000,-0.001793135,-0.0004089702,0.00075578055
13495000,13495000,-0.010228034,-0.0006025916,0.0006125603
13515000,13515000,-0.0030737368,0.005727652,4.4252014e-05
13535000,13535000,0.001246271,-0.0023696322,-0.00028576842
13555000,13555000,-0.008401772,0.0032152836,-0.00015918115
13575000,13575000,0.00037133996,-0.0072392826,0.00027425872
13595000,13595000,0.00018168124,-0.00022563015,0.00049522263
13611000,13611000,-0.00097240205,0.010874012,0.00028815388
13635000,13635000,-0.0008238037,-0.00041848715,0.00014364655
13655000,13655000,-0.0026963702,0.005627039,2.4045527e-05
13675000,13675000,-0.0044564037,-0.0059661325,-0.00043619698
13695000,13695000,-0.0028401024,-0.00037700034,-0.00015348483
13715000,13715000,-0.004504985,-0.0061634183,-0.00023195682
13735000,13735000,0.002370182,0.0010549115,0.00084393437
13755000,13755000,0.0001998567,0.010742771,-1.4325575e-05
13775000,13775000,-0.0075562345,0.0062455717,-0.0008891965
13795000,13795000,0.00069262285,-9.688898e-05,-0.0010015238
13815000,13815000,-0.0052439263,0.00070369727,-0.0008383179
13835000,13835000,-0.005442922,0.009631472,-2.2938118e-05
13855000,13855000,0.0013903278,-0.004671615,0.0001315722
13875000,13875000,-0.0018387673,0.0017487401,-0.0005467337
13895000,13895000,-0.0026845078,0.0062630605,0.00016603518
13915000,13915000,-0.0007930469,-0.00213075,0.0010383159
13935000,13935000,0.0017947117,0.0010572968,0.00055911555
13955000,13955000,-0.0034997123,0.008690612,0.0001073189
13975000,13975000,0.0069503044,-0.0062272795,0.00028335702
13995000,13995000,-0.012580424,0.006094734,0.0008486042
14015000,14015000,-0.00204178,-0.003022619,0.00040915408
14035000,14035000,0.002897197,0.0030755068,-0.0002425982
14055000,14055000,0.00065250363,0.000102628226,-0.00026367477
14075000,14075000,-0.016376963,-0.0011778048,-0.0012491428
14095000,14095000,-0.0013552142,0.004582869,-0.0012253587
14115000,14115000,0.0037021332,-0.004569997,-0.0015111313
14135000,14135000,-0.008381819,-0.00038258953,-0.0014042343
14155000,14155000,0.0064060944,-0.0028614895,-0.001985713
14175000,14175000,0.005068829,-0.00053870305,-0.0019856002
14195000,14195000,0.0020677992,-0.0009098493,-0.0027447734
14215000,14215000,-0.0019287411,0.002168049,-0.0029987772
14235000,14235000,-0.0029773437,0.0028059424,-0.0022140963
14255000,14255000,-0.010343695,-0.00864173,-0.0015381004
14275000,14275000,0.0017506989,-0.0019696048,-0.0021014137
14295000,14295000,-0.0067311344,0.013209021,-0.0025152317
14315000,14315000,-0.005545253,-0.018592605,-0.0018868432
14335000,14335000,0.00057966274,0.0037214055,-0.0016750621
14355000,14355000,0.0012313722,-0.0048979167,-0.0012433445
14375000,14375000,0.0031846976,0.004798527,-0.0012404865
14395000,14395000,-0.005364704,-0.0057771094,-0.0010148231
14415000,14415000,-0.007850075,0.008092047,-0.0005688681
14435000,14435000,-0.00682946,-0.0038701692,-0.00077835657
14455000,14455000,-0.017082948,-0.0020894804,-0.0014051716
14475000,14475000,0.006912146,0.0039754086,-0.0008001764
14495000,14495000,-0.006623178,-0.0015457254,-0.0011543492
14515000,14515000,-0.012391288,-0.004924844,-0.0017473698
14535000,14535000,0.004721534,0.0043448196,-0.0014187973
14555000,14555000,-0.01432888,0.0037393763,-0.0015677478
14575000,14575000,-0.0041975644,0.010906956,-0.0012757338
14595000,14595000,-0.00814255,0.0023215888,-0.00022111087
14615000,14615000,-0.006101463,-0.0034463508,-0.00031982525
14635000,14635000,-0.011302931,-0.004379735,-0.0005144242
14655000,14655000,-0.0014669825,0.009133341,-0.0014899877
14671000,14671000,-0.0006414716,0.0033942475,-0.0010523164
14695000,14695000,3.6803773e-05,0.008586647,-0.00083802966
14715000,14715000,0.006532153,0.000728169,-0.00068954745
14735000,14735000,-0.012785159,0.0101449825,-0.00088526215
14755000,14755000,-0.0019549222,-0.0022227499,-0.0014789423
14775000,14775000,-0.0052961097,0.004766951,-0.0008493905
14795000,14795000,-0.011788255,0.0028680926,-0.00069141935
14815000,14815000,-0.007867042,0.005156619,-0.00073696807
14835000,14835000,-0.008792932,-0.002855048,-0.0004621111
14855000,14855000,-0.0111848,-0.0020204429,-0.00025935928
14875000,14875000,-0.0029132175,0.009614821,8.990393e-05
14895000,14895000,-0.0025427258,-0.002735184,-4.4987537e-05
14911000,14911000,-0.004567059,-0.003990732,9.155646e-05
14935000,14935000,-0.0033566458,0.009027729,-0.00042467855
14955000,14955000,0.0047848327,0.0099105835,-0.00029918426
14975000,14975000,-0.0045835264,0.0035563475,-0.00029753332
14995000,14995000,-0.010825925,0.0033793668,-0.00018330787
15015000,15015000,-0.008686468,0.009098368,-0.00054597686
15035000,15035000,-0.0008181939,-0.0026318983,-0.00122916
15055000,15055000,-0.0065776813,-0.002250766,-0.0010148841
15075000,15075000,-0.008730454,0.011910915,-0.0005339973
15095000,15095000,0.0019081205,-0.00070976367,-4.823388e-05
15115000,15115000,0.0026418413,-0.0041621067,0.0004422206
15135000,15135000,-0.0013740171,0.0010471628,0.00022373091
15155000,15155000,0.0020040988,0.004297996,-0.00017742605
15175000,15175000,-0.010370314,0.0086991675,0.00039585552
15195000,15195000,0.0022401882,0.0059493314,-0.00013045817
15215000,15215000,-0.011031173,-0.0078802835,0.0002655583
15235000,15235000,-9.043934e-05,0.010342588,-0.00033698854
15255000,15255000,-0.0053268736,0.0035359676,-0.00041271135
15275000,15275000,-0.0034883958,0.0009008855,0.00042699714
15295000,15295000,-0.0017485338,0.0031893656,0.0008093788
15315000,15315000,-0.007878061,-0.000740773,0.0009911888
15331000,15331000,0.008980297,0.010059144,0.00024966802
15355000,15355000,0.0018410559,0.0018693659,-0.00034558284
15371000,15371000,-0.007882496,-0.000687712,0.00014666692
15391000,15391000,-0.0057582166,0.004768816,0.00020874823
15415000,15415000,-0.001386605,0.00061277975,-0.00043123236
15435000,15435000,-0.0135992095,0.005613921,-0.00030041323
15451000,15451000,-0.0063770767,-0.004293992,-0.00030062333
15471000,15471000,-0.008211734,-0.004341253,-1.32548885e-05
15491000,15491000,0.003019765,-0.003170229,-0.00029009726
15515000,15515000,0.00062259706,-0.009395945,-0.0003558153
15535000,15535000,-0.0019711156,0.003919925,-0.0011354969
15555000,15555000,-0.0042191837,0.0028007482,-0.0018668559
15575000,15575000,0.0030050294,0.003478628,-0.0024703466
15595000,15595000,-0.005716312,-0.0033570884,-0.0023017738
15615000,15615000,-0.00032673823,-0.005491158,-0.002504532
15635000,15635000,0.0013329295,0.00015818237,-0.0016628979
15655000,15655000,-0.0124731865,0.003957541,-0.00038929735
15675000,15675000,0.0032105544,-0.0047593885,-0.00030314695
15695000,15695000,-0.0066258293,0.0057948204,-0.00038329145
15715000,15715000,-0.008133744,-0.013668904,-0.00014977044
15735000,15735000,-0.0013033253,0.002768763,0.00017356183
15755000,15755000,-0.0018214606,0.0040926496,0.00049107353
15775000,15775000,-0.006338542,1.8700957e-05,0.000766852
15795000,15795000,-0.0015374576,0.0012096037,0.00073904137
15815000,15815000,-0.0026065363,-0.011666454,0.0009210387
15835000,15835000,-0.0016794583,-0.00027204398,0.0006657481
15855000,15855000,0.0026393742,0.0022715463,0.00073413143
15875000,15875000,-0.0037562193,0.0029931727,-0.00021252531
15895000,15895000,-0.00015041069,0.006362864,-0.00019332289
15915000,15915000,-0.002121666,0.0077014673,-0.0001394731
15935000,15935000,-0.0028500487,-0.00033499114,0.0003365803
15955000,15955000,0.003377556,0.0011349092,0.0003308972
15975000,15975000,0.0034444667,0.0021244662,0.0004779085
15995000,15995000,0.0024435758,-0.00029922294,0.00023039382
16015000,16015000,-0.009736901,0.0007525941,0.00045215257
16035000,16035000,-0.0014612034,0.009885125,0.0003435409
16055000,16055000,-0.0012076088,0.0020920637,0.00059109536
16075000,16075000,0.0051886514,0.0030626685,0.0014958457
16091000,16091000,-0.00069634785,0.0077753603,0.0023921002
16115000,16115000,-0.00064876105,0.0097764945,0.0021608844
16135000,16135000,0.0050727176,0.011192795,0.0014169484
16155000,16155000,-0.0020677745,-0.0012946057,0.0016067729
16175000,16175000,0.0025003257,-0.0053469865,0.0007675767
16195000,16195000,-0.0033267098,0.009042453,0.00093129894
16211000,16211000,-0.00084549823,0.0019248206,0.00014707392
16235000,16235000,-0.01117551,0.0040778904,0.00012769796
16255000,16255000,0.0035556715,-0.013137215,0.00089760986
16275000,16275000,0.001061128,0.0119384825,0.00017832668
16295000,16295000,-0.00026627546,0.0015514044,0.00021062867
16315000,16315000,-0.0012295154,0.0007290075,0.00012751081
16331000,16331000,-0.004908435,0.0075372006,-0.0002084885
16355000,16355000,0.0023942343,0.0062135756,-0.00043460773
16375000,16375000,0.00046829286,-0.001879174,0.00018424932
16395000,16395000,-0.0042351764,-0.006652599,-0.00029092876
16415000,16415000,-0.002888274,-0.008872379,-0.0013142149
16435000,16435000,-0.0020357626,0.009431667,-0.0017241648
16455000,16455000,0.004607635,0.0034558175,-0.0011862798
16475000,16475000,0.007501426,-0.010039758,-0.0005406813
16495000,16495000,-0.0031247232,-0.0025559077,-0.0003040813
16515000,16515000,-0.0047818506,0.005487675,-0.00039694895
16535000,16535000,-0.0051478655,0.01095082,-4.208014e-05
16555000,16555000,0.00076959823,0.0063793673,-4.802412e-05
16575000,16575000,-0.0033064303,-0.008127622,0.00031730367
16595000,16595000,0.0011429801,-0.0014283088,0.0005423823
16615000,16615000,-0.00644523,0.006901595,0.00058090826
16635000,16635000,0.0058282656,0.011953596,0.00028855164
16655000,16655000,0.00043988915,-0.0065989112,-0.00025313647
16675000,16675000,0.006986795,0.00617687,-0.00058056787
16695000,16695000,-0.00037284225,0.00661595,-0.0005595232
16715000,16715000,-0.0052051684,0.012265142,2.8147639e-05
16735000,16735000,0.00012075901,-0.005903881,-0.0014085039
16755000,16755000,0.003862854,0.0069894623,-0.00014093795
16775000,16775000,0.002063391,-0.004628536,0.0003069195
16795000,16795000,-0.0012300287,0.0079936115,0.00011095105
16815000,16815000,-0.00094699865,0.004585325,5.620938e-05
16835000,16835000,-0.0022005043,-0.0062861536,0.0004419649
16855000,16855000,-0.012996353,0.007552139,4.43611e-05
16875000,16875000,0.008878247,0.008976173,9.780259e-05
16895000,16895000,0.0035337198,0.0067288075,-0.00024823978
16915000,16915000,0.0013172452,0.0032934227,-0.00078692636
16935000,16935000,0.00397689,-0.003980873,-0.0007570592
16955000,16955000,-0.0062946295,0.0044870074,-0.0007080871
16975000,16975000,-0.0044964007,-0.0058399546,-0.00079585856
16995000,16995000,0.0063974853,0.0015985578,-0.00075288286
17015000,17015000,-0.0040613655,2.7395203e-05,-0.001152923
17035000,17035000,-0.004523293,0.0061504673,4.8881047e-06
17055000,17055000,0.00096667814,-0.010339667,0.00021135445
17075000,17075000,-0.0032250786,0.0064679803,0.0004917599
17091000,17091000,-0.0021783216,-0.0032747295,0.00048585772
17115000,17115000,0.003529477,-0.0025820062,0.00093169365
17135000,17135000,0.0011342699,0.0010326713,0.0011317643
17155000,17155000,0.0070587317,0.0045833196,0.00041067734
17175000,17175000,-0.0032400405,0.0006262212,0.0005807398
17195000,17195000,-0.007251953,0.013190365,-0.0007166424
17215000,17215000,-0.00041426637,0.0056467527,-0.00097501266
17231000,17231000,0.0023311272,0.0037705232,-0.0007383498
17255000,17255000,-0.0004785858,-0.0021678072,-0.00055929297
17275000,17275000,-0.003719618,0.013910757,-8.935665e-05
17295000,17295000,0.005748193,-0.0021768294,-7.705009e-05
17315000,17315000,0.004977938,-0.0058344207,-0.0006129892
17335000,17335000,0.0035845875,0.0058885333,-0.00073593494
17355000,17355000,-0.0058885743,-0.00093575823,-0.00066825666
17375000,17375000,0.0016434449,0.0016818827,-0.00064270705
17395000,17395000,0.0040391,0.00246854,-0.000963393
17415000,17415000,0.010552963,0.0022253722,-0.0010875361
17435000,17435000,-0.012888339,-0.008352669,-0.00032336204
17455000,17455000,0.0013508889,0.012956816,-0.0006332627
17475000,17475000,0.008677839,-0.00980375,0.0013294369
17495000,17495000,0.0004204199,0.0060292515,0.0011092018
17511000,17511000,0.0026263287,-0.0012461192,0.00057505205
17535000,17535000,0.00505744,0.0035732042,-0.00066052185
17555000,17555000,-0.004665749,0.0065469528,-0.0011032938
17575000,17575000,0.004062387,-0.0057915812,-0.0009114403
17595000,17595000,-0.007161234,0.0034528598,-0.00026426974
17615000,17615000,-0.00779461,0.0012280691,-0.0001640791
17635000,17635000,0.0044926023,-0.004793284,-0.0006241297
17655000,17655000,-0.008901999,-0.005071138,-0.0006330233
17675000,17675000,0.0027500675,0.005921333,-0.0008321987
17695000,17695000,0.0051409365,-0.006931322,-0.0005271636
17715000,17715000,0.009555487,0.0003767808,-0.0002275108
17731000,17731000,7.977884e-05,0.005559883,-0.00045939046
17755000,17755000,0.0071793245,0.0012653004,-1.014123e-05
17775000,17775000,-0.0075388327,-0.0031184342,-0.00024305754
17795000,17795000,0.004513739,-0.011474861,-6.672283e-05
17815000,17815000,0.0059201242,0.0043680137,0.00010460969
17835000,17835000,0.00018617246,-0.0066898847,-0.00043416754
17855000,17855000,0.0050869854,0.011090725,-0.00060277816
17875000,17875000,-0.0039510406,0.003756638,0.00014952083
17895000,17895000,0.0021190706,-2.5990536e-05,-0.0002612098
17915000,17915000,0.011354744,0.015099374,-0.00036308207
17935000,17935000,0.007916603,-0.012246931,0.00017766084
17955000,17955000,-0.0017174679,0.0051262337,-0.00040787345
17975000,17975000,7.364387e-05,-0.00045256974,-0.00089049886
17995000,17995000,0.007172742,4.162325e-05,-0.0018555537
18011000,18011000,0.004307825,-0.0030214828,-0.001536815
18035000,18035000,0.0052599637,0.0020049831,-0.00072207703
18055000,18055000,0.008931926,-0.0018389903,-0.00057153415
18075000,18075000,-0.00017531449,0.0038538259,7.8327925e-05
18095000,18095000,-0.0072319545,0.0048532323,-0.0001384514
18115000,18115000,0.0033137708,0.0010822471,-0.00093789026
18135000,18135000,0.0024562348,-0.0035082283,-0.0013886532
18155000,18155000,0.0049775634,0.0018406301,-0.0016428125
18171000,18171000,0.0027030548,0.008020879,-0.00095525174
18195000,18195000,-0.0026068701,-0.0027777306,-0.0013366317
18215000,18215000,-0.0035790913,-0.0043557477,-0.0008498904
18235000,18235000,0.0013316743,-0.0026241294,-0.0010159793
18255000,18255000,0.0009437539,0.0038691463,-0.0009535842
18275000,18275000,0.00065532274,0.0016855298,-0.0010735022
18295000,18295000,0.0083458545,-0.00785062,-0.000657691
18315000,18315000,0.003729292,-0.0021480445,6.362669e-05
18335000,18335000,-0.0011949299,-0.009477025,2.9856568e-05
18355000,18355000,-0.0026653172,0.0061878134,-0.0002062853
18375000,18375000,0.0073841405,-0.0038367244,-0.0010210766
18395000,18395000,-0.004569286,-0.007361977,-0.0009895364
18415000,18415000,0.0067551676,0.01749336,-0.0002858768
18435000,18435000,-0.008385072,0.006945309,0.00043533198
18455000,18455000,0.0041748798,-0.006087223,0.0013077045
18475000,18475000,-0.0034878356,0.0030844894,0.00047435777
18495000,18495000,0.00023850764,0.008377967,1.4479592e-06
18515000,18515000,0.004781155,-0.0040993076,0.00039725364
18535000,18535000,1.4641439e-05,0.0065405746,-0.00021800344
18555000,18555000,0.017013367,-0.0066543147,-0.0006633107
18575000,18575000,0.008655895,0.012265777,-0.0009023325
18595000,18595000,0.00047128578,-0.0074066585,-0.00046964167
18615000,18615000,0.0035953282,0.0127561055,-0.0006309181
18635000,18635000,0.0063931877,-0.0004474827,0.000116144045
18655000,18655000,0.009789458,0.0003029226,-0.00027804117
18675000,18675000,-0.0034967382,0.0009824217,-3.2090953e-05
18691000,18691000,-0.0049819653,-0.0041503306,0.0002734409
18715000,18715000,-0.0056188717,-0.0029890924,2.569494e-05
18735000,18735000,-0.0044069886,-0.002628061,0.00018417426
18755000,18755000,0.0039309333,-0.008691624,0.0005609901
18775000,18775000,0.009902075,-0.0022168548,0.0010615615
18795000,18795000,-0.0033054021,0.0015619916,0.0013486557
18815000,18815000,0.0018894576,-0.0033090203,0.0007751936
18835000,18835000,0.007090997,-0.008765038,0.0004999879
18855000,18855000,0.0008860674,0.0010156408,-0.0008065007
18875000,18875000,0.0024570003,0.008034313,-0.0010544583
18895000,18895000,-0.007726205,-0.008090863,-0.0014691802
18915000,18915000,0.006093633,0.0043397713,-0.0015020245
18935000,18935000,0.005258434,-0.0066206222,-0.0014743679
18955000,18955000,-0.0027069603,0.013200463,-0.00058676366
18975000,18975000,0.000736875,-0.0020572545,-4.3927866e-05
18991000,18991000,0.010356747,-0.0020573686,-0.00028301097
19015000,19015000,0.0051865573,0.00506616,-0.0010073353
19035000,19035000,0.0014880636,-0.0016784243,-0.0009773388
19055000,19055000,-0.005110607,0.0075484468,-0.00159271
19075000,19075000,0.015998192,0.0033917048,-0.00020363217
19095000,19095000,0.004012097,0.001951217,-0.00022476476
19115000,19115000,0.0101330485,-0.0151747,-0.00053746597
19135000,19135000,0.013268166,0.0055170795,0.00034951454
19155000,19155000,-0.0067791836,0.0021173554,7.081924e-05
19175000,19175000,-0.0028151337,-0.00011062098,-0.0002851471
19195000,19195000,0.006617951,0.00097217294,-0.00042845967
19215000,19215000,-0.00075464277,-0.0022342624,-0.00062520587
19235000,19235000,0.00084360514,0.0015915211,-0.001364808
19255000,19255000,0.007934079,0.0048623355,-0.0018323225
19275000,19275000,-0.002877291,0.00070937513,-0.0017175969
19295000,19295000,0.0021292365,-0.0032492494,-0.0013766517
19315000,19315000,-0.0049144705,-0.008362178,-0.001033611
19335000,19335000,0.0018605707,0.012449995,-0.0009937802
19355000,19355000,0.0053598485,-0.0037269336,0.00033733435
19375000,19375000,0.002772704,-0.0025544073,-0.0002858681
19395000,19395000,0.010162858,-0.0018989921,0.0009491689
19415000,19415000,-0.0024195558,-0.005851786,0.0007067224
19435000,19435000,0.0030726711,0.0088769505,1.5782727e-05
19455000,19455000,-0.0063990788,-0.0026554705,-0.00017103605
19475000,19475000,0.011962175,0.0072707827,3.320355e-05
19495000,19495000,0.0061643533,-0.00020211196,-0.00051743427
19515000,19515000,-0.0087541565,0.0037920172,-0.00018360023
19535000,19535000,0.00383521,0.016017988,-0.00021322591
19555000,19555000,0.0053100777,-0.005310804,-0.00059663306
19575000,19575000,-0.0035192121,0.005261272,-0.00024237946
19595000,19595000,0.00087639224,0.0014784152,0.0001392539
19615000,19615000,0.0071999715,0.007842444,0.00036352497
19635000,19635000,-0.0013145383,0.002788808,-0.00028217264
19655000,19655000,0.001971055,0.0012402142,0.0002362944
19675000,19675000,-0.0052082753,-0.0064410153,-5.0370705e-05
19695000,19695000,-5.8796897e-05,0.0049141105,-0.0007806962
19715000,19715000,0.00020894478,0.006414454,-0.0006134702
19735000,19735000,0.013849005,0.0025454685,-0.0005128012
19755000,19755000,0.0043302914,0.004086119,-0.00019702382
19775000,19775000,-0.0018075499,-0.00018008775,4.9890776e-05
19795000,19795000,0.017397191,0.003926126,3.213771e-05
19815000,19815000,0.009156326,-0.0046503916,-0.00018295839
19835000,19835000,0.0061102984,0.005583004,-0.00040729594
19855000,19855000,-0.003714596,0.0015992309,-0.0013410832
19875000,19875000,0.002551274,0.0031837802,-0.0005075006
19895000,19895000,0.0147856455,-0.0048615313,0.00030459272
19915000,19915000,0.004794117,0.008293398,-9.827367e-05
19935000,19935000,-0.00025223452,0.00253534,-0.0003857092
19955000,19955000,0.006749468,0.004649914,-0.000727501
19975000,19975000,0.0024197965,-0.005162283,0.00014203889
19995000,19995000,0.0025594211,0.000803091,4.9876726e-05
20015000,20015000,0.0056745363,0.012101324,0.0006282203
20035000,20035000,0.0010324877,-0.0046506408,0.0003600088
20055000,20055000,0.0059119477,-0.004720035,-3.8231505e-05
20075000,20075000,0.002496178,-0.004788254,-0.00023602578
20095000,20095000,-0.0004983223,-0.00012985192,-0.0008276104
20115000,20115000,0.0024952935,0.001982275,-0.00019597818
20135000,20135000,0.003639292,-0.002844112,-0.0003208826
20155000,20155000,-0.003796374,0.00675205,-0.00091704493
20175000,20175000,0.0133654345,-0.007844386,-0.0019738337
20195000,20195000,0.0007443647,0.013158355,-0.0008628089
20215000,20215000,0.006655463,0.0027755692,-0.0009796611
20235000,20235000,0.012451475,0.0075609363,-0.00091945496
20255000,20255000,0.0060811937,-0.0051256334,-0.00010427651
20275000,20275000,-0.0011877118,-0.0007507049,-0.00052510994
20295000,20295000,0.0056582205,-0.0015342573,-4.1037005e-05
20315000,20315000,0.010670747,0.0021859969,0.00030604118
20335000,20335000,0.00022387889,-0.00526655,0.00011992771
20355000,20355000,-0.0020091538,-0.0030350771,0.000108395936
20375000,20375000,0.0014423637,0.00045812136,4.7711437e-05
20395000,20395000,0.0047483626,0.0045325696,-0.00069572136
20415000,20415000,0.007584673,-0.00028088226,-0.00022822089
20435000,20435000,0.0010027552,-0.0005184611,-0.0001824768
20455000,20455000,0.0033213173,0.0057727676,-7.4917756e-05
20475000,20475000,0.006768748,0.008387519,0.000229467
20495000,20495000,0.00036304444,0.0047606016,-5.8900496e-05
20515000,20515000,0.0012994828,0.009707285,-0.0005936427
20535000,20535000,9.9228055e-05,-0.0070837885,-0.00068490853
20555000,20555000,0.0063313143,0.006812348,-0.0010942164
20575000,20575000,0.007549746,-0.003937469,3.830064e-08
20595000,20595000,-0.00063298014,-0.0012549303,0.0009237553
20615000,20615000,0.0033206723,0.009580355,0.0008831059
20631000,20631000,-0.0044757943,-0.00037712662,0.00022402636
20655000,20655000,0.014606831,0.003977515,0.0005408835
20675000,20675000,0.0020072497,-0.005476011,0.00034436828
20695000,20695000,0.014480211,0.002975424,0.00025191478
20715000,20715000,-0.0016734072,-0.0045537055,0.00036996498
20735000,20735000,-0.0018422444,0.018436056,0.00041361846
20755000,20755000,-0.0010223186,0.0013996185,3.6234516e-05
20775000,20775000,0.0029006158,0.004099719,-0.00012588716
20795000,20795000,-0.006173516,0.004936314,-0.0006884857
20815000,20815000,0.0027680143,0.0033077428,-0.0005265981
20835000,20835000,0.006921337,0.009291183,-0.0007516983
20855000,20855000,0.00751591,-0.0015514657,-0.0009889873
20875000,20875000,0.0021477358,-0.0007414983,-0.0011063649
20895000,20895000,0.010838913,0.0020970781,-0.00096668967
20915000,20915000,-0.0007900093,0.00038174234,-0.00160336
20935000,20935000,0.008551507,0.00089305,-0.0006020412
20955000,20955000,0.0050209193,-0.000984277,-0.0005230511
20975000,20975000,0.0061862697,0.0023394544,-0.00045348555
20995000,20995000,0.0006235036,0.008082655,-0.00039105373
21015000,21015000,0.015425705,-0.00015474344,-4.2268293e-05
21035000,21035000,0.00988903,0.0064407317,3.740434e-05
21055000,21055000,0.0034658983,0.011701757,-0.0003412203
21075000,21075000,0.0038798836,-0.0068174433,0.00019133465
21095000,21095000,-0.0005922904,0.0009122101,0.0004740927
21115000,21115000,0.012632705,-0.0009397401,0.00010494656
21131000,21131000,-0.0005316788,0.0037652047,-0.00051397394
21155000,21155000,0.005760452,0.00712776,-0.0005404428
21175000,21175000,-0.0023087566,-0.002458401,0.00012680377
21195000,21195000,0.003369744,0.007826658,0.00017304654
21215000,21215000,0.00065388763,-0.0003016349,-0.0004970869
21235000,21235000,0.005645811,0.014407832,-0.00068149035
21255000,21255000,0.009425899,0.009500699,-0.0004148042
21275000,21275000,0.004918814,-0.008620299,-0.0009364914
21295000,21295000,0.0028368412,0.0010280672,-0.0006697158
21315000,21315000,0.0022012398,0.0072294814,-0.001313125
21335000,21335000,0.002109748,-0.0058839065,1.5610422e-05
21355000,21355000,0.007820307,-0.010035185,-7.932537e-05
21375000,21375000,0.0038856727,-0.0039127124,-0.00018040091
21395000,21395000,-0.0048911227,0.006193497,-0.00045087328
21415000,21415000,0.007099361,-0.0027607107,-0.0011852077
21435000,21435000,0.0023168137,0.0036771528,-0.001876965
21451000,21451000,0.0062248735,0.016933125,-0.0018431739
21475000,21475000,0.0102969855,0.00205988,-0.0014623711
21495000,21495000,-0.0007577925,-0.0016363054,-0.0010879096
21511000,21511000,-0.0025645054,0.002510892,-0.0013597988
21531000,21531000,0.006499068,-0.0018852118,-9.190204e-06
21555000,21555000,-0.0012969084,0.007298681,0.0003276784
21575000,21575000,0.0045165266,0.0018793447,-0.00035906545
21595000,21595000,0.010385514,-0.001621832,-0.0006029699
21615000,21615000,0.0010874562,0.0028149749,-4.122852e-05
21635000,21635000,0.01061902,0.0036332102,0.00054330606
21655000,21655000,-0.003395778,0.0028641906,-3.2067648e-05
21675000,21675000,0.011021454,0.0011997523,0.00013636093
21695000,21695000,0.0017288332,0.0094130235,-0.0005049135
21715000,21715000,0.0016289267,-0.001160214,0.0005354379
21735000,21735000,0.00096016284,0.014400476,0.00050456484
21755000,21755000,0.016538145,-0.0019966073,0.0009810363
21775000,21775000,0.008061342,0.009419652,0.00049857574
21791000,21791000,0.0058399844,0.0023040276,0.00037963383
21811000,21811000,-0.0021501207,-0.0012848484,0.00037542594
21835000,21835000,0.012484328,0.010917278,-0.00022952097
21855000,21855000,-0.00020754314,0.0015178511,-0.00033305326
21875000,21875000,0.0024915366,0.0038416677,-0.00025546926
21895000,21895000,0.015725724,0.006979243,0.00012823922
21915000,21915000,-0.007843132,0.0006079145,-0.0002503497
21935000,21935000,0.00038861297,-0.0007052433,0.0005579771
21955000,21955000,0.0065129725,0.005665305,0.0012121102
21975000,21975000,0.0007665269,-0.0016733332,0.000591007
21995000,21995000,0.0075418493,0.0087688975,0.0005870946
22015000,22015000,0.006877846,0.0011922333,2.2277454e-05
22035000,22035000,0.0072832378,0.006847689,-0.0002939566
22051000,22051000,0.0038536184,-0.000867669,-0.00034466985
22075000,22075000,-0.0026807135,0.002264605,-0.0010550363
22095000,22095000,0.0022780434,0.0031547383,-0.0012571887
22115000,22115000,0.011343716,-0.0034294315,-0.0018279027
22135000,22135000,0.0016909993,0.010099826,-0.0014380644
22155000,22155000,0.005511031,0.004632357,-0.000753835
22175000,22175000,-0.0048588635,-0.009811809,-0.0011423607
22195000,22195000,0.00825082,0.011517739,-0.0007608265
22215000,22215000,0.0029805894,0.006030806,-0.00068748894
22235000,22235000,0.007713177,0.014180841,-0.0004813114
22255000,22255000,0.005575105,-0.009869771,-0.00013872536
22271000,22271000,0.0042720335,0.014145953,0.00086580636
22295000,22295000,0.0060642874,-0.0068489276,0.00095112267
22315000,22315000,0.008349609,-0.0011542846,0.00038666406
22335000,22335000,-0.0012142633,0.01578407,0.0007004111
22355000,22355000,0.0036238714,0.007207671,0.0013301887
22375000,22375000,0.0076241475,0.0040339595,0.0017195307
22395000,22395000,0.004326772,0.0015981649,0.0015459193
22415000,22415000,0.0017034113,-0.0017109961,0.0003873348
22435000,22435000,-0.002834296,0.002910363,0.0007909989
22455000,22455000,0.0034172242,0.00112837,0.0014199234
22475000,22475000,0.00925545,1.4768913e-05,0.0013942014
22495000,22495000,-0.0047453176,0.008707466,0.0017886173
22515000,22515000,-0.0013909158,0.009897876,0.0025912805
22535000,22535000,0.0045577874,0.0041783447,0.0025509046
22555000,22555000,-0.00017467933,-0.0023631128,0.0021409353
22575000,22575000,-0.010161245,0.0050002253,0.002062075
22595000,22595000,0.0030810535,0.004902079,0.00091615703
22615000,22615000,0.00083419774,-5.0185365e-05,-5.9993086e-05
22635000,22635000,0.007681436,0.008213193,4.32245e-05
22655000,22655000,0.007031524,-0.0034537101,-0.00026477518
22675000,22675000,-0.0008538354,0.0025586323,-0.00038595908
22695000,22695000,0.0009776932,0.0062950877,0.0007279505
22715000,22715000,0.006039561,0.0004092079,-0.000108434164
22735000,22735000,-0.0018154872,0.004916507,-0.00017111305
22755000,22755000,0.00027785008,0.004400026,-0.00032177486
22775000,22775000,0.005688092,-0.0038219655,-2.2595364e-05
22795000,22795000,0.011779573,0.008484652,-0.00024575042
22815000,22815000,0.0010388946,0.011488825,0.00035585216
22835000,22835000,0.016307065,-0.0035770903,-0.0008808293
22855000,22855000,0.0021084137,0.003937088,-0.0003194354
22875000,22875000,-0.00015593768,0.008565508,0.00017741934
22895000,22895000,-0.00079970155,-0.0042231944,0.00012382865
22915000,22915000,0.004428448,0.004052666,0.00036436517
22931000,22931000,0.010183474,-0.0017499612,0.00059175264
22955000,22955000,0.0061742933,-0.0008700085,-0.000296096
22971000,22971000,0.0025626714,0.0044725197,-0.001015933
22995000,22995000,0.003687023,-0.0019268163,-1.7854254e-05
23015000,23015000,0.0052814707,0.010409858,0.00033181737
23035000,23035000,-0.0021987138,-0.00067587744,0.00056206173
23055000,23055000,0.0056456523,0.01005872,-8.8864326e-05
23075000,23075000,-0.00324673,0.0019208338,-0.00013058621
23095000,23095000,0.007385519,0.0029352724,-0.00078437245
23115000,23115000,-0.0030387377,0.00084469374,0.00012445758
23135000,23135000,0.00042489555,0.0055484064,0.0010430437
23155000,23155000,0.006155636,-0.0051095416,0.0011309455
23171000,23171000,-0.0013156292,0.007416429,0.0008425028
23195000,23195000,0.0014400706,0.002318094,0.00068145205
23215000,23215000,0.011804083,-0.004175543,0.0006351698
23235000,23235000,0.0042880336,0.0019299211,-0.00057481544
23255000,23255000,0.008772428,0.0036131148,3.7298538e-05
23275000,23275000,0.010225634,0.0020607219,4.978945e-05
23295000,23295000,-0.0016439972,0.00059787114,8.6431806e-05
23315000,23315000,0.0027409536,-0.0006945213,0.00027636968
23335000,23335000,-0.0026975335,-0.0036112885,-0.00012556904
23355000,23355000,0.004792562,0.0033097428,-0.00038277963
23375000,23375000,0.013461012,0.003248094,-7.3876654e-05
23395000,23395000,-0.0026679412,0.008272216,-0.00034882783
23415000,23415000,0.001256014,-0.0073847957,-0.00052849477
23435000,23435000,-0.0008994987,0.008816375,0.00013562432
23455000,23455000,0.0020524163,0.002070149,0.00013234414
23475000,23475000,0.006983729,0.00433168,0.00025612212
23491000,23491000,-0.0017484358,0.0058401553,0.00017584123
23515000,23515000,-0.0053548394,0.006885181,-0.0004510625
23535000,23535000,0.010747107,0.004905306,-5.4633914e-05
23555000,23555000,0.0018872446,-0.0031696116,-0.00016606365
23575000,23575000,0.0009906607,0.0019241454,-8.822614e-05
23595000,23595000,0.0011517858,0.011900039,-6.916642e-05
23615000,23615000,0.008285869,0.008894715,-0.00054089323
23635000,23635000,0.003879492,0.009263478,-0.0006781202
23655000,23655000,0.0019038105,6.747153e-05,-0.0008464528
23675000,23675000,-0.00032926298,0.0051970086,-0.00025105014
23695000,23695000,0.0034587095,-0.0033153223,-0.001443994
23715000,23715000,0.0024755485,-0.000119889504,-0.0007832058
23731000,23731000,-0.004212127,0.0073166275,0.00016750045
23755000,23755000,0.0063366666,0.012742315,2.8997849e-05
23775000,23775000,-0.0077671977,0.008775225,-0.0009695393
23795000,23795000,0.003393095,0.001033402,-0.00072332425
23815000,23815000,-0.0009664984,0.0013283842,-0.00036378702
23835000,23835000,0.008629365,0.013586473,-0.00079586933
23855000,23855000,0.0058037927,-0.0052747335,-0.0010258718
23875000,23875000,-0.0073584015,0.008331403,-0.0007375912
23891000,23891000,0.013704107,0.0035734214,-1.8518724e-05
23915000,23915000,0.005915858,0.0019596328,0.00047287712
23935000,23935000,0.0064713582,0.018485092,-0.00021714588
23955000,23955000,0.0020372283,0.0044599236,0.0003029025
23975000,23975000,-0.005001933,0.007967101,0.00033905092
23991000,23991000,0.009563521,0.007158622,0.00032172084
24015000,24015000,0.002284358,-0.0036524856,-0.00011680447
24035000,24035000,0.0014888806,0.0027534217,0.00059443247
24055000,24055000,0.0026447964,0.003133314,0.00042115164
24075000,24075000,0.00791136,0.009237179,0.0010899873
24095000,24095000,0.0008077817,0.004079224,0.00083617924
24115000,24115000,-6.758422e-05,0.00473726,0.0008233332
24135000,24135000,0.006496883,0.010419177,0.0017210494
24155000,24155000,0.003023489,-0.0033295276,0.00080386247
24171000,24171000,0.004882496,0.0027325288,-0.00012725433
24195000,24195000,-0.004765895,-0.0008540468,-0.00010259857
24215000,24215000,0.008605067,-0.000101215905,0.0001426238
24235000,24235000,-0.0008799009,0.012231628,-0.00048773823
24255000,24255000,0.002501624,-0.0019395528,-0.00035144194
24275000,24275000,0.010104838,-0.0070625735,-0.00030032895
24295000,24295000,0.0030225683,0.007810565,-0.00066307106
24311000,24311000,0.0022177282,-0.0008680817,-0.0014174463
24335000,24335000,0.001260756,0.0056701787,-0.0006728709
24355000,24355000,0.0063584233,0.0066279364,-0.00077856285
24375000,24375000,-0.0007056966,-0.0011329828,-0.0006002176
24395000,24395000,-0.003113905,0.0037954333,-0.0006369192
24415000,24415000,0.00026390085,-0.00049302296,-0.00041819277
24435000,24435000,-0.0015308273,-0.0032553575,-0.0010727008
24455000,24455000,0.0019017671,0.00848053,-0.0011923338
24475000,24475000,0.013176863,0.010383233,-0.0008234
24495000,24495000,0.004292839,-0.0033056035,-0.0011326114
24515000,24515000,-0.0007866621,0.0012657018,-0.0014017769
24531000,24531000,-0.0040600034,0.0022466334,-0.0008649265
24555000,24555000,0.0052800607,-0.004551701,-0.0005383189
24575000,24575000,0.00860224,0.007753904,0.00024193969
24595000,24595000,-0.013991884,-0.0014372331,-0.00015099943
24615000,24615000,0.0025452618,-0.00066588644,-0.00037712854
24635000,24635000,0.002430505,0.008571661,0.00035764376
24655000,24655000,0.00046513346,0.012761287,0.00041624292
24675000,24675000,0.0028468412,0.014462949,-0.00029257644
24695000,24695000,-0.00370054,-0.0005365212,-0.0004107554
24715000,24715000,0.014166268,-8.365605e-07,-0.00048632573
24735000,24735000,-0.014287839,0.0012641475,-0.0010624136
24755000,24755000,0.0056718634,0.013603457,-0.0011541294
24775000,24775000,0.0058615073,0.00895624,-0.0005052787
24795000,24795000,-1.2407778e-05,0.008123132,-0.00070121273
24815000,24815000,0.0029100669,0.0012658411,-0.000601892
24835000,24835000,0.0023086595,0.014808729,-7.287714e-05
24855000,24855000,-0.00043442124,-0.00414795,0.00010712142
24875000,24875000,0.007787546,0.022415873,-0.00072658027
24891000,24891000,0.0041291383,0.0021451074,-0.0013292603
24915000,24915000,0.014032207,0.0024629273,-0.00129155
24931000,24931000,-0.00030397857,0.011647639,-0.0012371832
24955000,24955000,0.012326226,0.0036537533,-0.0012538177
24975000,24975000,-0.0069429995,0.0055420995,-0.0016285983
24995000,24995000,0.007250014,0.0075868745,-0.00183249
25015000,25015000,0.003762081,0.0056770584,-0.0014113126
25035000,25035000,-8.392357e-05,0.0012219767,-0.0007189014
25055000,25055000,0.0025820597,0.010970073,-0.001756662
25075000,25075000,0.004336737,0.008104271,-0.0016965849
25095000,25095000,0.0055421777,0.007111408,-0.0014901808
25115000,25115000,0.009125558,0.004435626,-0.0008679481
25135000,25135000,0.006511637,0.0030058594,-0.0009836263
25155000,25155000,0.0051573156,0.002538337,-0.0008191269
25175000,25175000,-0.007189655,0.010443274,-0.0018279444
25195000,25195000,0.004253072,0.010040209,-0.0013873866
25215000,25215000,-0.002169112,0.0031298609,-0.00090511306
25235000,25235000,0.0049954373,-0.0012988709,-0.00010070042
25255000,25255000,0.014008291,0.011276549,-0.00027486982
25275000,25275000,-0.003967109,0.00046251528,-0.0009520204
