timestamp,timestamp_sample,position[0],position[1],position[2],q[0],q[1],q[2],q[3],velocity[0],velocity[1],velocity[2],angular_velocity[0],angular_velocity[1],angular_velocity[2],position_variance[0],position_variance[1],position_variance[2],orientation_variance[0],orientation_variance[1],orientation_variance[2],velocity_variance[0],velocity_variance[1],velocity_variance[2],pose_frame,velocity_frame,reset_counter,quality
4435000,4435000,0.00037318512,-0.0022128448,-0.00020847481,0.99996614,-0.0077565773,-0.0025262586,-0.0011496821,0.006611949,-0.03064041,0.0009210481,0.022503266,0.022237753,-0.014514385,100.640144,100.640144,100.25601,0.01028224,0.010279406,0.00028582706,25.026432,25.026432,10.001181,1,1,4,0
4443000,4443000,0.00043307294,-0.002464173,-0.00021873659,0.9999661,-0.007741295,-0.0025709586,-0.0012110878,0.0081142,-0.032250542,0.00020691557,0.009587218,-0.0074567986,-0.005326792,100.70577,100.70577,100.28226,0.010309761,0.010306932,0.00031336735,25.029202,25.029202,10.001294,1,1,4,0
4451000,4451000,0.0005065903,-0.002730781,-0.00024105678,0.99996495,-0.007865775,-0.0025857852,-0.001261621,0.0097133275,-0.0336518,-0.00051193393,-0.025699478,-0.00026638937,-0.003062886,100.774605,100.774605,100.309784,0.010338566,0.010335718,0.00034220016,25.032013,25.032013,10.001411,1,1,4,0
4459000,4459000,0.00059259136,-0.0030034233,-0.0002753681,0.99996436,-0.0079150265,-0.0025916328,-0.0013880675,0.011415144,-0.033921473,-0.000901982,-0.0071904757,0.0019971016,-0.022503752,100.84666,100.84666,100.33859,0.0103686685,0.01036583,0.00037225342,25.034946,25.034946,10.001534,1,1,4,0
4467000,4467000,0.0006967812,-0.0032782026,-0.0003119231,0.9999645,-0.007930403,-0.0024910853,-0.0014583784,0.0138404695,-0.034243595,5.0690287e-05,0.0010652954,0.028362721,-0.008655037,100.92191,100.92191,100.368675,0.010400046,0.01039727,0.0004035426,25.038025,25.038025,10.001663,1,1,4,0
4475000,4475000,0.0008081631,-0.0035658663,-0.00034834375,0.9999641,-0.0079669105,-0.002458255,-0.0015358808,0.013052708,-0.037057918,0.00036759343,-0.004394236,0.011318545,-0.010918856,101.000374,101.000374,100.40003,0.0104327025,0.010430007,0.00043609677,25.041288,25.041288,10.001798,1,1,4,0
4483000,4483000,0.0009197198,-0.003872976,-0.00039061112,0.9999635,-0.00806017,-0.0023703573,-0.0015892197,0.014120761,-0.038394075,-0.0002602626,-0.018775472,0.02490026,-0.005060838,101.08204,101.08204,100.43267,0.01046663,0.010463974,0.000469986,25.044725,25.044725,10.001936,1,1,4,0
4491000,4491000,0.0010380822,-0.00419308,-0.0004441794,0.9999634,-0.008068495,-0.0022984245,-0.001679313,0.014409595,-0.040652785,-0.0011550358,0.002263635,0.020906067,-0.014647067,101.16691,101.16691,100.46659,0.0105018355,0.010499194,0.0005051848,25.048248,25.048248,10.00208,1,1,4,0
4507000,4507000,0.0012875466,-0.004890178,-0.0005631135,0.99996215,-0.008198005,-0.0023283588,-0.0017971527,0.015484833,-0.044609528,4.829315e-05,0.0054597044,-0.015180093,-0.010119729,101.34629,101.34629,100.53828,0.010576082,0.0105734905,0.0005793987,25.05568,25.05568,10.002383,1,1,4,0
4515000,4515000,0.0014259389,-0.0052521345,-0.0006237546,0.99996203,-0.008172935,-0.0023705994,-0.0019273595,0.017933263,-0.044332303,-0.0011239687,0.010120251,-0.007856102,-0.025832634,101.44079,101.44079,100.57604,0.010615143,0.010612555,0.00061841233,25.059666,25.059666,10.0025425,1,1,4,0
4523000,4523000,0.0015799893,-0.005619907,-0.00069434894,0.9999611,-0.008252779,-0.0024080179,-0.0019996848,0.018846244,-0.04612613,-0.00093055674,-0.016245417,-0.0069238716,-0.011584755,101.538506,101.538506,100.61509,0.010655467,0.010652941,0.00065869105,25.063656,25.063656,10.0027075,1,1,4,0
4531000,4531000,0.0017307018,-0.006005469,-0.00076523237,0.99996114,-0.008248185,-0.002363141,-0.0020681252,0.017258558,-0.048146676,-0.0011863476,0.004660515,0.013582103,-0.010785839,101.63943,101.63943,100.65542,0.010697096,0.010694612,0.0007002078,25.067835,25.067835,10.002876,1,1,4,0
4547000,4547000,0.002021518,-0.0068243844,-0.00093839434,0.9999616,-0.008207125,-0.0021993988,-0.0021562695,0.016740644,-0.05210309,-0.0035657003,0.0055934424,0.03928148,0.010785972,101.85092,101.85092,100.73992,0.0107841585,0.010781742,0.00078717445,25.07655,25.07655,10.003231,1,1,4,0
4555000,4555000,0.0021640153,-0.0072610714,-0.0010438282,0.99996215,-0.008154286,-0.0021322384,-0.002176066,0.017154235,-0.054876816,-0.005131616,0.016244903,0.01877564,0.0005320553,101.96149,101.96149,100.78409,0.010829602,0.010827229,0.0008325786,25.081083,25.081083,10.003417,1,1,4,0
4563000,4563000,0.0023117764,-0.0077270106,-0.0011631274,0.9999628,-0.008073842,-0.002147717,-0.0021817381,0.018106794,-0.059261404,-0.006503959,0.023036325,-0.0019976296,0.0035952006,102.07527,102.07527,100.82953,0.010876363,0.010874011,0.00087921135,25.085789,25.085789,10.003608,1,1,4,0
4571000,4571000,0.0024664106,-0.00821958,-0.0012945039,0.9999622,-0.008114676,-0.0022013325,-0.0022437565,0.018587073,-0.060705982,-0.008282318,-0.007456852,-0.011584597,-0.010785955,102.19227,102.19227,100.87625,0.010924406,0.010922064,0.00092713174,25.090734,25.090734,10.003803,1,1,4,0
4587000,4587000,0.002776429,-0.009216039,-0.001604233,0.999963,-0.008024062,-0.0021913927,-0.002205725,0.018679868,-0.06076586,-0.009628463,0.018508703,0.010786185,0.014114798,102.43591,102.43591,100.97354,0.011024307,0.011021982,0.0010268493,25.101011,25.101011,10.004211,1,1,4,0
4595000,4595000,0.0029409165,-0.009714562,-0.0017546099,0.9999631,-0.008027257,-0.0021612402,-0.002189331,0.020448305,-0.06082305,-0.008334906,0.0014647779,0.008921413,0.008122827,102.56256,102.56256,101.02411,0.01107616,0.011073867,0.0010786529,25.106392,25.106392,10.004422,1,1,4,0
4603000,4603000,0.003119741,-0.010214647,-0.0018997174,0.9999628,-0.008077636,-0.0020881868,-0.0021968188,0.021547943,-0.061176524,-0.007941693,-0.010519685,0.01957413,0.0019973505,102.69244,102.69244,101.07596,0.0111292945,0.0111269355,0.0011318206,25.11192,25.11192,10.004639,1,1,4,0
4611000,4611000,0.0033016396,-0.010724087,-0.0020448982,0.99996245,-0.00811722,-0.0021527784,-0.0021414477,0.021454277,-0.06292645,-0.007982949,-0.007856165,-0.015046704,0.017177604,102.82553,102.82553,101.12909,0.0111837145,0.011181332,0.0011862176,25.11757,25.11757,10.004859,1,1,4,0
4627000,4627000,0.003667803,-0.011782135,-0.0023272622,0.9999624,-0.008080218,-0.00222585,-0.0022320894,0.021923592,-0.066498555,-0.0065302188,0.0062583694,0.00039968186,-0.013182656,103.10138,103.10138,101.2392,0.0112964185,0.011293994,0.0012987893,25.12917,25.12917,10.005317,1,1,4,0
4635000,4635000,0.0038173248,-0.012193129,-0.0024002986,0.9999612,-0.008220342,-0.0022650715,-0.0022186113,0.023318727,-0.06824391,-0.007320514,-0.03342292,-0.0089209555,0.0061248774,0.2493961,0.2493961,50.321957,0.011354261,0.011351573,0.000578427,24.348516,24.348516,9.941136,1,1,4,0
4643000,4643000,0.003973659,-0.012613453,-0.0024816452,0.9999607,-0.008276313,-0.0022930498,-0.0022116462,0.023428362,-0.068115495,-0.008011023,-0.012516704,-0.006125348,0.004261262,0.25130317,0.25130317,50.351215,0.011413811,0.011411102,0.00060369563,24.35471,24.35471,9.941379,1,1,4,0
4651000,4651000,0.0041362233,-0.013041543,-0.0025671313,0.99996096,-0.008260977,-0.0022795585,-0.0021651674,0.024305122,-0.069492064,-0.0076651983,0.005193427,0.0041275555,0.013981628,0.25632763,0.25632763,50.381744,0.0114746345,0.01147182,0.0006296072,24.360973,24.360973,9.941626,1,1,4,0
4667000,4667000,0.0044636372,-0.013956779,-0.0027374043,0.9999606,-0.008290437,-0.0022812404,-0.0022407812,0.023524575,-0.072608925,-0.0058669467,-0.0021303138,0.009321153,-0.0030624697,0.27573362,0.27573362,50.446625,0.011600081,0.011597311,0.00068288797,24.374008,24.374008,9.942135,1,1,4,0
4675000,4675000,0.0046282276,-0.014427739,-0.0028106025,0.99996096,-0.008256071,-0.0022342943,-0.002233838,0.023830658,-0.07250982,-0.005600102,0.009587325,0.012383915,0.003594854,0.29011762,0.29011762,50.480976,0.01166473,0.011661909,0.0007104107,24.380735,24.380735,9.942397,1,1,4,0
4683000,4683000,0.0047972715,-0.014907857,-0.002890128,0.99996203,-0.008173332,-0.0021148745,-0.0021744948,0.024446575,-0.07405287,-0.0066681686,0.021571793,0.03035949,0.01664556,0.30762395,0.30762395,50.516598,0.011730671,0.011727842,0.0007383982,24.387657,24.387657,9.942665,1,1,4,0
4691000,4691000,0.0049701952,-0.015407109,-0.0029788318,0.9999621,-0.008169591,-0.0020793155,-0.0021938758,0.024385007,-0.075795375,-0.0072028507,0.0017307069,0.009454293,-0.0033289054,0.32825398,0.32825398,50.553493,0.01179789,0.01179508,0.0007669173,24.394836,24.394836,9.942939,1,1,4,0
4707000,4707000,0.0053100577,-0.016448015,-0.0031625817,0.99996156,-0.008245327,-0.0020261756,-0.0021892725,0.023284491,-0.078306615,-0.007364557,-0.014514317,0.019307766,0.014248009,0.37889066,0.37889066,50.6311,0.011936209,0.011933392,0.00082555163,24.40968,24.409678,9.943501,1,1,4,0
4715000,4715000,0.005480346,-0.016987652,-0.003256737,0.9999607,-0.008327847,-0.002020673,-0.0022712443,0.024044001,-0.079360634,-0.00711401,-0.02010747,0.0018633469,-0.019440504,0.40890014,0.40890014,50.671814,0.012007266,0.012004504,0.00085567485,24.41736,24.417358,9.943794,1,1,4,0
4723000,4723000,0.0056529604,-0.017543355,-0.0033512334,0.9999602,-0.008362317,-0.0020949286,-0.0023465955,0.02349716,-0.08149952,-0.0070367698,-0.00812272,-0.018109493,-0.018109437,0.442039,0.442039,50.713802,0.012079591,0.0120768035,0.00088643876,24.42525,24.425247,9.944087,1,1,4,0
4731000,4731000,0.005824436,-0.018116634,-0.003447172,0.9999601,-0.008351552,-0.002070465,-0.002409389,0.024083527,-0.08299077,-0.0072189914,0.0030628773,0.006524701,-0.014913678,0.47830877,0.47830877,50.757065,0.0121532045,0.012150438,0.00091769325,24.433332,24.43333,9.944384,1,1,4,0
4747000,4747000,0.006179848,-0.019305667,-0.0036352861,0.99996185,-0.008153592,-0.001993507,-0.0024391834,0.023202725,-0.08506407,-0.0060968795,0.03355585,0.0011976406,-0.0014651804,0.560247,0.560247,50.84741,0.012304287,0.012301539,0.000981804,24.449411,24.44941,9.944993,1,1,4,0
4755000,4755000,0.006352622,-0.01991085,-0.0037255266,0.99996233,-0.008124539,-0.0019076111,-0.0024041533,0.023817085,-0.08556849,-0.0063519236,0.0074562393,0.021571472,0.009321812,0.60591835,0.60591835,50.894485,0.012381762,0.012378957,0.0010147284,24.457762,24.45776,9.945305,1,1,4,0
4763000,4763000,0.0065314253,-0.020523578,-0.0038225283,0.9999627,-0.008110768,-0.001834707,-0.0023510843,0.024336625,-0.085395895,-0.0074852104,0.0035958244,0.018242842,0.013714926,0.6547267,0.6547267,50.942837,0.012460489,0.012457658,0.0010482165,24.466328,24.466326,9.945624,1,1,4,0
4771000,4771000,0.006718216,-0.021135781,-0.0039278087,0.99996334,-0.008039258,-0.0017914573,-0.0023415152,0.0253376,-0.08543667,-0.007894977,0.017976193,0.010919275,0.0026632077,0.7066737,0.7066737,50.992462,0.0125404885,0.012537678,0.001082207,24.474993,24.47499,9.945948,1,1,4,0
4787000,4787000,0.007096953,-0.022384297,-0.0041637556,0.99996364,-0.008015646,-0.0016134974,-0.0024203488,0.025052784,-0.08814229,-0.010218548,0.006924206,0.018642247,0.0010646819,0.81999004,0.81999004,51.095535,0.012704356,0.012701446,0.0011519222,24.49298,24.492975,9.946614,1,1,4,0
4795000,4795000,0.0072817337,-0.023034781,-0.0042837057,0.9999647,-0.007884444,-0.001572885,-0.0024305067,0.023880199,-0.09025096,-0.008913108,0.03275701,0.010252906,-0.0025298654,0.8813631,0.8813631,51.148983,0.012788207,0.012785252,0.0011875946,24.50232,24.502316,9.946951,1,1,4,0
4803000,4803000,0.0074584736,-0.023706758,-0.0043978146,0.99996495,-0.007860626,-0.0015186804,-0.002451324,0.022546543,-0.09291761,-0.008677524,0.0058591818,0.013582137,-0.005193011,0.9458817,0.9458817,51.203705,0.012873349,0.012870392,0.0012237482,24.511719,24.511715,9.947295,1,1,4,0
4811000,4811000,0.007617421,-0.024400882,-0.0045065368,0.99996537,-0.007832084,-0.001508085,-0.002405497,0.019448306,-0.09522902,-0.007409529,0.0070576514,0.0025300097,0.01131829,1.0135477,1.0135477,51.2597,0.012959753,0.01295678,0.001260481,24.521364,24.521358,9.947647,1,1,4,0
4827000,4827000,0.007882483,-0.025826136,-0.00471288,0.99996686,-0.0076820264,-0.0014875581,-0.0022635045,0.01797682,-0.09692745,-0.008107122,0.014114724,-0.0006661597,0.020373201,1.1583289,1.1583289,51.375515,0.013136445,0.013133449,0.0013355056,24.540869,24.540863,9.948359,1,1,4,0
4835000,4835000,0.008021095,-0.026555793,-0.004823411,0.999967,-0.0076799383,-0.0015323411,-0.00218258,0.018527491,-0.098537,-0.008595262,0.00039976233,-0.011451688,0.01984049,1.2354479,1.2354479,51.435333,0.0132267205,0.013223753,0.0013737618,24.55117,24.551165,9.948724,1,1,4,0
4843000,4843000,0.008040974,-0.026957083,-0.0048852046,0.999967,-0.007698377,-0.0015185347,-0.0021158159,0.017797394,-0.09908795,-0.008796463,-0.004793508,0.0031958257,0.016378481,0.21008231,0.21008231,33.99184,0.013246586,0.013243451,0.0005884718,7.843775,7.843771,9.850845,1,1,4,0
4851000,4851000,0.008053188,-0.027362805,-0.0049492833,0.999967,-0.0077002477,-0.0016013798,-0.0020694348,0.017139927,-0.09958807,-0.00944571,-0.00091372436,-0.021032663,0.0110519845,0.22365482,0.22365482,34.03322,0.013339155,0.013335995,0.0006048794,7.848689,7.848685,9.851218,1,1,4,0
4867000,4867000,0.008076576,-0.028197432,-0.005105369,0.9999669,-0.007680128,-0.0017211465,-0.0020431716,0.016899021,-0.102068454,-0.010739025,0.00920582,-0.0057194578,0.0046609594,0.25382128,0.25382128,34.119755,0.01352816,0.013524828,0.00063844305,7.8590927,7.8590884,9.851981,1,1,4,0
4875000,4875000,0.00808725,-0.0286323,-0.0051883897,0.99996716,-0.007670803,-0.0016672588,-0.0020315493,0.017287765,-0.10286754,-0.010999194,0.0017488567,0.0131889805,0.0025305029,0.2704172,0.2704172,34.164917,0.0136245545,0.013621187,0.00065555813,7.8645597,7.8645554,9.852371,1,1,4,0
4883000,4883000,0.008049585,-0.028877752,-0.005171151,0.99996644,-0.007767126,-0.0015563967,-0.0021243156,0.016276406,-0.10223175,-0.010823036,-0.024749974,0.02756965,-0.023435587,0.12518646,0.1251864,33.33356,0.0135618,0.013558626,0.0006727112,1e-06,1e-06,1e-06,1,1,4,0
4891000,4891000,0.00799862,-0.029106893,-0.0051460396,0.99996614,-0.007792205,-0.0015153,-0.0021503053,0.01417274,-0.10009109,-0.00870858,-0.007512522,0.009874784,-0.006924388,0.12518646,0.1251864,33.33356,0.013659991,0.013656838,0.0006901638,9.344733e-05,9.3445815e-05,1.1425393e-05,1,1,4,0
4907000,4907000,0.007842217,-0.029508216,-0.0050556352,0.9999666,-0.007718921,-0.0013578166,-0.0022919825,0.01205125,-0.09659545,-0.006041465,0.00047595054,0.015069015,-0.026764147,0.12517837,0.1251783,33.33356,0.013860192,0.013857119,0.0007257334,0.00079468655,0.00079468,4.7605656e-05,1,1,4,0
4915000,4915000,0.00776038,-0.029681,-0.0049974015,0.99996614,-0.0077833217,-0.0013309983,-0.0023257365,0.01133665,-0.09507117,-0.0045304964,-0.01736638,0.006279421,-0.008921968,0.12517034,0.12517028,33.33356,0.013962214,0.013959118,0.0007439089,0.0014186933,0.0014186847,7.3322335e-05,1,1,4,0
4923000,4923000,0.0076704794,-0.029834464,-0.0049299602,0.9999657,-0.007845964,-0.0012477206,-0.0023609588,0.011058241,-0.09223897,-0.0037504372,-0.016966948,0.020394217,-0.009187942,0.12515973,0.12515967,33.33356,0.014065507,0.014062442,0.000762268,0.002217826,0.0022178146,0.00010418377,1,1,4,0
4931000,4931000,0.007581974,-0.029962726,-0.004857085,0.99996513,-0.007894482,-0.0012843547,-0.0024015896,0.011792577,-0.09052354,-0.0028426559,-0.013371995,-0.009566648,-0.010785435,0.12514669,0.12514663,33.33356,0.014170085,0.014166979,0.0007809064,0.0032156734,0.0032156562,0.00014017045,1,1,4,0
4947000,4947000,0.007387038,-0.030171502,-0.0047166673,0.9999655,-0.0077712894,-0.0013583606,-0.0026460513,0.009089327,-0.087233804,-0.004384677,0.021648977,-0.0053056604,-0.03555309,0.12511392,0.12511386,33.33356,0.014383057,0.014380022,0.00081873836,0.0057095555,0.0057095033,0.00022795955,1,1,4,0
4955000,4955000,0.007278359,-0.03025527,-0.0046555703,0.9999649,-0.007832977,-0.0013355925,-0.0026599856,0.009567925,-0.08719322,-0.004424595,-0.016700674,0.005214504,-0.0039943326,0.12509471,0.12509465,33.33356,0.014491463,0.014488417,0.00083804183,0.007234068,0.0072339843,0.0002798952,1,1,4,0
4963000,4963000,0.0071703694,-0.0303375,-0.004597516,0.9999647,-0.007853859,-0.001383656,-0.0026584063,0.009110748,-0.087422945,-0.0052162604,-0.0064475387,-0.0124959685,-0.00026606198,0.12507395,0.1250739,33.33356,0.014601133,0.014598089,0.0008575745,0.008922261,0.00892216,0.00033728336,1,1,4,0
4971000,4971000,0.007053874,-0.030419195,-0.0045411745,0.9999643,-0.007858935,-0.0015259525,-0.0027130758,0.008040257,-0.08816033,-0.004681428,-0.0024527628,-0.03593165,-0.014514551,0.12505198,0.12505192,33.33356,0.014712085,0.014709093,0.00087727705,0.0108169615,0.010816875,0.00039951058,1,1,4,0
4987000,4987000,0.006805291,-0.030588325,-0.0044295997,0.9999653,-0.007717416,-0.0015960815,-0.002723787,0.0072720875,-0.08904503,-0.0052205147,0.026575485,0.0068121036,0.0047940672,0.12500563,0.12500557,33.333546,0.014937814,0.014934834,0.0009174836,0.015245218,0.015245045,0.0005385427,1,1,4,0
4995000,4995000,0.006675637,-0.030667795,-0.004371982,0.9999654,-0.007674052,-0.0015538075,-0.0027932217,0.007192919,-0.088592485,-0.0036943748,0.009531191,0.0102744065,-0.017843157,0.12498204,0.12498198,33.333538,0.015052604,0.0150495805,0.0009379605,0.017739894,0.01773967,0.00061628787,1,1,4,0
5003000,5003000,0.006543399,-0.030747961,-0.004301955,0.99996555,-0.0076787225,-0.0015061285,-0.0027988919,0.006703047,-0.08959837,-0.002439938,-0.0024529228,0.011472475,-0.0018645211,0.124958776,0.12495872,33.33353,0.0151686445,0.015165613,0.00095866766,0.020449184,0.020448906,0.00069919723,1,1,4,0
5011000,5011000,0.006405793,-0.030831894,-0.004218683,0.99996513,-0.0076923445,-0.0014710935,-0.002925961,0.006162544,-0.09062735,-0.00013232953,-0.004716992,0.008543991,-0.032224014,0.12493632,0.12493626,33.333523,0.015285966,0.015282913,0.0009796201,0.023383122,0.023382764,0.0007872677,1,1,4,0
5027000,5027000,0.0061100456,-0.031022795,-0.0040344866,0.999964,-0.0078679025,-0.0013033117,-0.0029191647,0.0047618276,-0.09238319,-0.0005949909,-0.017366191,0.0402349,0.006124504,0.124896035,0.124895975,33.333508,0.015524482,0.015521417,0.0010220862,0.029790496,0.029789926,0.0009799441,1,1,4,0
5035000,5035000,0.005962983,-0.031122016,-0.003948028,0.99996424,-0.007819355,-0.0013836534,-0.0029159614,0.005763919,-0.09286508,-0.00097426213,0.010996538,-0.020485202,0.00013262864,0.1248794,0.12487934,33.3335,0.015645673,0.015642472,0.0010437473,0.033304937,0.03330428,0.0010838265,1,1,4,0
5043000,5043000,0.0058197672,-0.031226855,-0.0038600324,0.9999644,-0.0078010513,-0.0014031959,-0.0029106599,0.0062390836,-0.0933758,-9.009907e-05,0.0034060131,-0.0053054322,0.0007990231,0.12486596,0.1248659,33.333492,0.015768128,0.015764868,0.0010655879,0.036937214,0.036936563,0.0011918225,1,1,4,0
5051000,5051000,0.0056270934,-0.031539433,-0.0037581644,0.9999653,-0.007695357,-0.0013557712,-0.0028855773,0.017509991,-0.06442581,0.0016963673,0.025244184,0.011472508,0.0058582113,100.0,100.0,25.000084,0.015891865,0.01588852,0.0005238115,25.0,25.0,0.0013054636,1,1,6,0
5067000,5067000,0.005548581,-0.031252477,-0.0035423336,0.9999657,-0.007653606,-0.001398462,-0.0028267545,0.018118383,-0.06489206,0.001791075,-0.0056487904,-0.009033981,0.011051849,100.0064,100.0064,25.000076,0.0099788755,0.009975818,0.000118988144,25.000265,25.000265,0.0015424569,1,1,6,0
5075000,5075000,0.005517356,-0.031110238,-0.0034310352,0.9999647,-0.007769436,-0.0015744335,-0.002765485,0.019086255,-0.06574689,0.0025508576,-0.016497407,-0.027048606,0.01348802,100.0144,100.0144,25.000072,0.009981718,0.0099785775,0.00012133543,25.000587,25.000587,0.0016700982,1,1,6,0
5083000,5083000,0.0054955077,-0.03096719,-0.0033207345,0.9999636,-0.00787676,-0.0016129591,-0.0028752205,0.01925846,-0.06553477,0.0016305539,-0.0143668745,0.007839063,-0.02898989,100.0256,100.0256,25.000069,0.009984552,0.009981373,0.00012373208,25.001036,25.001036,0.0018033609,1,1,6,0
5091000,5091000,0.005468379,-0.03080994,-0.0031970763,0.99996233,-0.007991308,-0.0016940976,-0.0029590777,0.01865692,-0.06380441,0.0010016124,-0.015965525,-0.0026807077,-0.022597948,100.0,100.0,25.00002,0.009940846,0.009982363,0.0001258545,1e-06,1e-06,1e-06,1,1,6,0
5107000,5107000,0.0054242765,-0.030476382,-0.002943156,0.9999599,-0.008224571,-0.0018521157,-0.0030407086,0.0183001,-0.06483487,0.0024620856,-0.016753772,-0.0005516255,-0.0007603348,100.0,100.0,25.00002,0.009946651,0.009988202,0.00013064034,0.00027765348,0.00027656724,1.7934493e-05,1,1,6,0
5115000,5115000,0.0054010716,-0.030308545,-0.0028176552,0.999959,-0.008312398,-0.001976651,-0.002994302,0.018343586,-0.063654244,0.0023275826,-0.010894557,-0.01280261,0.009892298,100.0,100.0,25.00002,0.009949584,0.009991135,0.00013311076,0.00061320554,0.0006107544,2.7265041e-05,1,1,6,0
5123000,5123000,0.0053849514,-0.030133747,-0.0026975127,0.9999578,-0.008396166,-0.0021772045,-0.0030298233,0.019378098,-0.06394942,0.0016331095,-0.009696401,-0.031444862,-0.010746177,100.0,100.0,25.00002,0.009952509,0.009994112,0.0001356246,0.0010718957,0.0010675677,3.718237e-05,1,1,6,0
5131000,5131000,0.005380839,-0.029961254,-0.002584233,0.9999571,-0.00847843,-0.0022876076,-0.002958516,0.020298135,-0.06350192,0.0011897715,-0.00916406,-0.008941334,0.016150437,100.0,100.0,25.00002,0.0099554695,0.009997138,0.00013812151,0.0016642167,0.0016574563,4.773318e-05,1,1,6,0
5147000,5147000,0.0053841667,-0.029616185,-0.0023773508,0.9999542,-0.008763304,-0.0024720465,-0.0029501696,0.018959263,-0.064599395,-6.830966e-05,-0.021148056,0.00024668057,-0.006619206,100.0,100.0,25.00002,0.009961585,0.010003351,0.00014301881,0.0032190792,0.0032059217,7.0435024e-05,1,1,6,0
5155000,5155000,0.0053777853,-0.029452246,-0.002288979,0.99995303,-0.008865256,-0.0025307362,-0.00298908,0.017959887,-0.06540754,-0.0013684515,-0.013690844,0.0047746967,-0.011280037,100.0,100.0,25.00002,0.009964688,0.010006438,0.00014555895,0.0041793324,0.004162213,8.2790924e-05,1,1,6,0
5163000,5163000,0.005377695,-0.02929548,-0.0022086597,0.9999519,-0.009034595,-0.0024094458,-0.0029722438,0.019322094,-0.06549365,-0.0013136166,-0.030468581,0.04978216,0.0031017517,100.0,100.0,25.00002,0.009967814,0.010009551,0.00014813285,0.0052499827,0.005228446,9.575558e-05,1,1,6,0
5171000,5171000,0.005396163,-0.02913957,-0.0021314428,0.99995077,-0.009152752,-0.0024304332,-0.0029779817,0.02153718,-0.06563646,-0.0019759464,-0.01741983,0.014494814,-0.002890627,100.0,100.0,25.00002,0.009970956,0.010012613,0.00015081471,0.006478805,0.0064521856,0.0001093011,1,1,6,0
5187000,5187000,0.0054559363,-0.028830405,-0.0020116055,0.99994814,-0.009357368,-0.0025399223,-0.0031241626,0.020423364,-0.06613331,-0.0042392225,-0.007965644,0.018489258,-0.027259072,100.0,100.0,25.00002,0.009977356,0.010018974,0.00015606434,0.009340156,0.009301713,0.00013822908,1,1,6,0
5195000,5195000,0.005492789,-0.028699305,-0.001963422,0.9999477,-0.009356495,-0.0025958144,-0.0032225535,0.021899462,-0.069077924,-0.004086667,0.012807239,0.0066384813,-0.026193602,100.0,100.0,25.00002,0.009980581,0.010022223,0.00015872477,0.0109400805,0.0108950315,0.00015362048,1,1,6,0
5203000,5203000,0.005543869,-0.028592382,-0.0019171558,0.99994683,-0.009398082,-0.002703667,-0.0032870101,0.0229244,-0.0710749,-0.004263493,0.0024210445,-0.006277431,-0.01780459,100.00001,100.00001,25.00002,0.009983857,0.010025562,0.00016131713,0.01264664,0.012594572,0.00016953803,1,1,6,0
5211000,5211000,0.0056039696,-0.028509833,-0.001876391,0.9999454,-0.009502491,-0.0027652122,-0.0033547226,0.022957183,-0.0728973,-0.0047967425,-0.01315855,0.0054403977,-0.018470231,100.00002,100.00002,25.00002,0.009987137,0.010028892,0.00016398702,0.014524034,0.014464217,0.00018590121,1,1,6,0
5227000,5227000,0.0057168542,-0.02841129,-0.0018192189,0.9999434,-0.009670952,-0.0028821789,-0.0033798337,0.022675697,-0.07520587,-0.0069291373,-0.012359002,0.018623265,-0.022198774,100.00005,100.00005,25.00002,0.009993751,0.010035499,0.00016956817,0.018630099,0.01855331,0.00022113002,1,1,6,0
5235000,5235000,0.0057844413,-0.028393835,-0.001811231,0.9999427,-0.009739032,-0.0029524253,-0.0033202088,0.023705762,-0.07626127,-0.008284766,-0.0039703124,0.00291041,0.013354461,100.00007,100.00007,25.00002,0.009997136,0.010038849,0.0001723527,0.020916114,0.020829882,0.00023910095,1,1,6,0
5243000,5243000,0.005861852,-0.02839083,-0.0018119898,0.99994075,-0.009930742,-0.0029995493,-0.003302894,0.024128105,-0.076343924,-0.008239175,-0.035262667,0.008237044,0.0029680005,100.00009,100.00009,25.00002,0.010000533,0.010042221,0.00017518077,0.023322094,0.023225943,0.00025680914,1,1,6,0
5251000,5251000,0.0059414255,-0.028396998,-0.0018129334,0.9999402,-0.01000862,-0.003068541,-0.0031669396,0.023997871,-0.075981,-0.008266253,-0.007032736,0.002112342,0.032529175,100.00012,100.00012,25.00002,0.010003961,0.010045608,0.00017804476,0.025792565,0.025686234,0.00027628243,1,1,6,0
5267000,5267000,0.006052327,-0.028231505,-0.0018382171,0.9999393,-0.01004091,-0.0034067011,-0.002990622,0.026175205,-0.07835857,-0.009785195,0.01453879,-0.037036784,0.010159254,0.00010180404,0.00010179666,20.000011,0.009904584,0.009946127,9.467187e-05,0.030936431,0.030809708,0.00031543235,1,1,6,0
5275000,5275000,0.0061170612,-0.028176274,-0.0018632452,0.99994063,-0.0098729795,-0.0035812922,-0.0029269694,0.025343796,-0.07804499,-0.010422353,0.041848462,-0.037677016,0.004660103,0.00010756347,0.00010753249,20.000011,0.009906345,0.009947903,9.617665e-05,0.033831395,0.033692654,0.00033647276,1,1,6,0
5283000,5283000,0.0061780512,-0.028134277,-0.0019004247,0.99994206,-0.009737892,-0.0036310449,-0.002822438,0.024641603,-0.07850424,-0.0118030775,0.03319291,-0.007183355,0.015180685,0.00011782108,0.000117748044,20.000011,0.009908142,0.009949693,9.767103e-05,0.036846552,0.036695298,0.0003577454,1,1,6,0
5291000,5291000,0.0062417113,-0.02811025,-0.0019416116,0.9999428,-0.009669566,-0.0036443267,-0.0027918718,0.025530746,-0.07903444,-0.011291682,0.016015913,0.0014720443,-0.003196871,0.0001331424,0.0001330065,20.000011,0.009909957,0.00995145,9.922321e-05,0.039992034,0.039827716,0.00037934695,1,1,6,0
5307000,5307000,0.006373532,-0.027996289,-0.0020267975,0.9999462,-0.009277931,-0.0037102723,-0.0028252953,0.028104628,-0.077440195,-0.011011621,-0.004831454,-0.002049468,0.0033287134,0.00010002515,0.000100025136,20.000011,0.00044646536,0.00044656487,9.907662e-05,9.239515e-06,9.239693e-06,9.274765e-06,1,1,6,0
5315000,5315000,0.006455323,-0.027938845,-0.0020695732,0.9999494,-0.008992924,-0.003640234,-0.0026535704,0.029625775,-0.077085935,-0.010750056,0.0067528663,-0.003114548,0.031691484,0.00010002644,0.000100026424,20.000011,0.0004465643,0.00044666257,0.00010059767,1.8101686e-05,1.8100282e-05,1.7589335e-05,1,1,6,0
5323000,5323000,0.006548092,-0.027877428,-0.0021103702,0.9999526,-0.008666488,-0.003597742,-0.002615956,0.030558676,-0.0757256,-0.010389314,0.016607104,-0.010304844,-0.0019977132,0.00010002953,0.000100029516,20.000011,0.00044667727,0.0004467746,0.000102130376,2.7610766e-05,2.7606357e-05,2.6193695e-05,1,1,6,0
5331000,5331000,0.0066382634,-0.02780526,-0.0021519572,0.9999562,-0.008260289,-0.0035980304,-0.0025668505,0.029625393,-0.07363132,-0.010601502,0.03618044,-0.02162413,0.00066570326,0.00010003568,0.000100035664,20.000011,0.00044680363,0.00044690017,0.00010367478,3.77848e-05,3.777482e-05,3.508354e-05,1,1,6,0
5347000,5347000,0.006827227,-0.027631639,-0.0022411994,0.9999612,-0.0077710934,-0.0034157948,-0.002353099,0.03139074,-0.0724721,-0.010483105,-0.028933784,0.0066063297,0.028095875,0.00010006285,0.000100062825,20.000011,0.00044709822,0.0004471938,0.00010679722,6.003675e-05,6.0024115e-05,5.3714306e-05,1,1,6,0
5355000,5355000,0.0069194534,-0.027551306,-0.0022925446,0.9999645,-0.0074940403,-0.00322846,-0.0021521014,0.029773707,-0.073389664,-0.012191713,0.002625351,0.022984613,0.03901493,0.000100087,0.00010008698,20.000011,0.00044726618,0.00044736144,0.0001083759,7.213599e-05,7.212089e-05,6.346258e-05,1,1,6,0
5363000,5363000,0.007005955,-0.027477765,-0.0023507911,0.9999674,-0.00723652,-0.0030286824,-0.0019298396,0.03082921,-0.07384448,-0.011452543,-0.0027007293,0.025381716,0.044341225,0.00010012051,0.00010012048,20.000011,0.00044744794,0.00044754238,0.00010996646,8.49231e-05,8.490566e-05,7.349524e-05,1,1,6,0
5371000,5371000,0.0071011013,-0.02740503,-0.002399026,0.9999701,-0.006899309,-0.0029717507,-0.0018345136,0.031143863,-0.073324926,-0.009906915,0.01674091,-0.010704446,0.012249876,0.00010016526,0.00010016522,20.000011,0.00044764334,0.0004477374,0.00011156844,9.838518e-05,9.836493e-05,8.3811625e-05,1,1,6,0
5387000,5387000,0.007280377,-0.02724445,-0.002481242,0.9999745,-0.0063740746,-0.0027547164,-0.0017207349,0.030509586,-0.07180627,-0.009273697,-0.012154361,0.0014128729,0.012117338,0.00010029673,0.00010029665,20.000011,0.00044807539,0.0004481684,0.00011480731,0.00012756015,0.00012752738,0.000105310886,1,1,6,0
5395000,5395000,0.007364186,-0.02716014,-0.002514381,0.99997634,-0.0061083003,-0.0027378283,-0.001611615,0.030333731,-0.07198449,-0.0075127203,-0.0024339955,-0.022689248,0.015579056,0.00010038792,0.00010038782,20.000011,0.0004483121,0.00044840397,0.00011644481,0.00014306385,0.0001430209,0.00011648871,1,1,6,0
5403000,5403000,0.007448413,-0.027073795,-0.00254044,0.99997836,-0.005843944,-0.002646035,-0.0015070215,0.031043332,-0.07134946,-0.007804491,-0.0032336344,-0.004579765,0.014513917,0.00010049924,0.000100499106,20.000011,0.00044856235,0.00044865382,0.00011809326,0.00015927764,0.00015922231,0.00012795332,1,1,6,0
5411000,5411000,0.007535048,-0.026981272,-0.0025730506,0.99997973,-0.0056245634,-0.00257277,-0.0015205282,0.031096516,-0.07064689,-0.008636322,-0.014952021,-0.009639867,-0.015047164,0.000100633224,0.00010063305,20.000011,0.00044882612,0.00044891756,0.00011975309,0.0001762552,0.00017619091,0.00013970604,1,1,6,0
5427000,5427000,0.007706331,-0.026766492,-0.0026164833,0.9999838,-0.005021711,-0.0023140174,-0.0013924475,0.0317329,-0.06851624,-0.0049289907,0.011013877,-0.0007179905,-0.0011987146,0.000100980214,0.00010097992,20.000011,0.00044939484,0.00044948712,0.0001231067,0.00021250203,0.00021241362,0.00016406858,1,1,6,0
5435000,5435000,0.0077971774,-0.026649794,-0.0026203003,0.9999857,-0.004693102,-0.0021863668,-0.0013671026,0.03307389,-0.06763803,-0.003947216,0.011545983,0.0026102406,-0.0050602807,0.000101199046,0.000101198675,20.000011,0.00044969967,0.00044979248,0.00012480082,0.00023183059,0.00023173167,0.00017667854,1,1,6,0
5443000,5443000,0.007892315,-0.026519045,-0.0026209457,0.9999872,-0.0044766264,-0.0020357948,-0.0012378228,0.033198573,-0.0660469,-0.0041737347,-0.016417598,0.008068468,0.021305215,0.000101452286,0.00010145181,20.000011,0.0004500182,0.00045011076,0.00012650677,0.0002516363,0.0002515216,0.00018957783,1,1,6,0
5451000,5451000,0.007982726,-0.026380932,-0.002625506,0.9999881,-0.004364166,-0.001909615,-0.0011156606,0.032868106,-0.06592311,-0.004742347,-0.04238328,0.0018115976,0.019840881,0.00010174305,0.00010174245,20.000011,0.00045035037,0.00045044313,0.00012822419,0.00027226398,0.00027212646,0.00020276816,1,1,6,0
5467000,5467000,0.008175722,-0.02609382,-0.0026313548,0.9999914,-0.003648377,-0.0017143115,-0.00096650154,0.03471874,-0.06423058,-0.004044183,0.035646755,-0.0071085747,-0.010785954,0.000102451006,0.000102450074,16.666676,0.0004510552,0.00045114727,0.00013169472,0.0003158348,0.00031566026,0.00023000786,1,1,6,0
5475000,5475000,0.00827476,-0.025934786,-0.0026303418,0.9999925,-0.0033896465,-0.0015939896,-0.0009956767,0.034990672,-0.06399941,-0.004249071,-0.0024367252,0.001413474,-0.01717749,0.000102875434,0.00010287429,16.666676,0.00045142783,0.00045151982,0.00013344715,0.0003387695,0.00033856917,0.00024406219,1,1,6,0
5483000,5483000,0.008374247,-0.02576887,-0.0026338832,0.9999936,-0.0030941018,-0.0014679747,-0.0010601245,0.035432443,-0.062086057,-0.004785344,0.008481788,0.0034107103,-0.025699658,0.0001033519,0.00010335051,16.666676,0.00045181383,0.00045190612,0.00013521094,0.00036261862,0.0003623902,0.00025839635,1,1,6,0
5491000,5491000,0.00847407,-0.025582891,-0.0026376422,0.99999464,-0.0027870715,-0.0014059535,-0.0010707643,0.03510133,-0.059658322,-0.0041974434,0.013141158,-0.012036169,-0.01198451,0.00010388449,0.000103882805,16.666676,0.0004522135,0.0004523057,0.0001369865,0.00038727303,0.0003870143,0.00027302818,1,1,6,0
5507000,5507000,0.009546904,-0.025920324,-0.0018005371,0.99999636,-0.0021615012,-0.0012780267,-0.001031171,0.03374702,-0.05567607,-0.005176718,0.023661051,-0.0027138232,-0.009453831,2.0,2.0,1.0,0.00045305348,0.0004531443,0.00014057309,0.0004393136,0.0004390473,0.00030309422,1,1,9,0
5515000,5515000,0.009622767,-0.025686158,-0.0018005371,0.999997,-0.001936498,-0.001118219,-0.0009780164,0.03300396,-0.05398332,-0.0064143743,-0.002170979,0.014196156,0.0049270233,2.0,2.0,1.0,0.0004534938,0.00045358404,0.00014238349,0.0004662712,0.00046599505,0.0003185712,1,1,9,0
5523000,5523000,0.009691218,-0.025438271,-0.0018310547,0.9999973,-0.0018938,-0.0010043648,-0.0008744616,0.03238222,-0.052409045,-0.00632103,-0.04597956,0.0032777693,0.017843379,2.0,2.0,1.0,0.00045394714,0.00045403736,0.00014420548,0.00049387943,0.00049358665,0.00033433503,1,1,9,0
5531000,5531000,0.00975445,-0.025179833,-0.0018310547,0.9999979,-0.001631692,-0.000836512,-0.00087057217,0.03202689,-0.051372044,-0.0051677306,0.010612294,0.017525503,-0.0067923972,2.0000002,2.0000002,1.0000002,0.0004544143,0.00045450398,0.00014603918,0.000522679,0.0005223677,0.00035038198,1,1,9,0
5547000,5547000,0.009878185,-0.024643242,-0.0018310547,0.999999,-0.0010663512,-0.00059948524,-0.0008006731,0.032653578,-0.049794413,-0.003455422,0.0035549735,0.001413496,-0.0015980521,2.0000012,2.0000012,1.0000007,0.000455388,0.00045547675,0.00014974193,0.0005824505,0.0005821168,0.00038332836,1,1,9,0
5555000,5555000,0.009937095,-0.024359908,-0.0018310547,0.99999934,-0.00086002133,-0.00051070156,-0.0007289697,0.03210123,-0.048073925,-0.0035140247,0.0020907167,-0.00018459406,0.011051989,2.0000017,2.0000017,1.000001,0.0004558949,0.00045598313,0.00015161053,0.00061407406,0.0006137195,0.00040024222,1,1,9,0
5563000,5563000,0.009992,-0.024068253,-0.0018310547,0.9999995,-0.0007243451,-0.00040768425,-0.00066493073,0.031645093,-0.04734862,-0.003772718,-0.013754956,0.004077397,0.009454013,2.0000021,2.0000021,1.0000013,0.00045641503,0.00045650254,0.000153491,0.0006467938,0.00064642023,0.00041743685,1,1,9,0
5571000,5571000,0.010043138,-0.023769066,-0.0018310547,0.99999964,-0.00058643013,-0.0002697433,-0.0005595272,0.031863675,-0.045919318,-0.0033956664,-0.011358492,0.013531147,0.020106714,2.0000026,2.0000026,1.0000018,0.0004569486,0.00045703552,0.00015538269,0.0006795944,0.0006791899,0.00043492587,1,1,9,0
5587000,5587000,0.010135138,-0.023144364,-0.0018310547,0.99999994,-0.0001693723,-1.09557095e-05,-0.0003854179,0.03059426,-0.044249438,-0.003908532,0.024727747,-0.005243266,0.015312576,2.0000043,2.0000043,1.0000027,0.00045805564,0.00045814188,0.00015920047,0.00074837875,0.0007479334,0.0004707666,1,1,9,0
5595000,5595000,0.010172891,-0.022821242,-0.0018310547,0.99999994,5.434069e-05,2.205802e-05,-0.0003480664,0.030475033,-0.042407826,-0.0036777188,0.015672887,-0.010435308,0.003994608,2.0000052,2.0000052,1.0000033,0.00045862902,0.00045871446,0.0001611272,0.00078474614,0.0007842691,0.00048911374,1,1,9,0
5603000,5603000,0.010212691,-0.022482343,-0.0018310547,0.99999994,0.00018907334,1.6847682e-05,-0.00045140838,0.030872636,-0.040114023,-0.0027196293,-0.0047006104,-0.019223908,-0.03089264,2.0000062,2.0000062,1.000004,0.00045921543,0.00045929963,0.00016306603,0.0008222222,0.0008217378,0.0005077342,1,1,9,0
5611000,5611000,0.010244155,-0.022130745,-0.0018310547,0.9999999,0.00035964747,0.00010645643,-0.00053346687,0.02906324,-0.03883546,-0.0008481934,0.006086027,0.0052769263,-0.025300037,2.0000074,2.0000074,1.0000048,0.0004598151,0.0004598991,0.00016501563,0.0008603577,0.0008598622,0.00052666763,1,1,9,0
5627000,5627000,0.010247806,-0.02139671,-0.0017700195,0.99999964,0.00067620975,0.00027008116,-0.00034931352,0.023468275,-0.03608595,0.0008643287,-0.014021189,0.016195845,0.025301367,2.0000103,2.0000103,1.0000064,0.00046105386,0.0004611374,0.00016894906,0.0009400311,0.00093949196,0.00056537177,1,1,9,0
5635000,5635000,0.01021649,-0.021023579,-0.001739502,0.9999996,0.00072874175,0.00039230156,-0.00038661758,0.021351835,-0.035760663,0.0010150586,-0.018015398,0.015664412,-0.013316788,2.0000117,2.0000117,1.0000074,0.000461693,0.00046177598,0.0001709333,0.0009816908,0.0009811138,0.00058515987,1,1,9,0
5643000,5643000,0.010169303,-0.020641442,-0.0017089844,0.9999995,0.00081214384,0.00041780047,-0.00031155284,0.01926851,-0.03305041,0.0016484706,-0.008561334,-0.007769869,0.015046983,2.0000134,2.0000134,1.0000085,0.00046234517,0.00046242785,0.00017292917,0.001023978,0.0010233579,0.0006052237,1,1,9,0
5651000,5651000,0.010099503,-0.0202407,-0.0016784668,0.9999995,0.00093666627,0.00041163564,-0.0002401791,0.016216807,-0.03082711,0.0017264597,0.0034218377,-0.014960125,0.014381324,2.0000153,2.0000153,1.0000097,0.0004630103,0.00046309293,0.00017493678,0.0010673663,0.0010667158,0.00062556705,1,1,9,0
5667000,5667000,0.009909296,-0.019411054,-0.0015869141,0.9999992,0.0011719746,0.00036803802,-0.00026220788,0.0131105,-0.027722385,0.0040947557,-0.003237244,-0.009767044,-0.023968535,2.0000196,2.0000196,1.0000122,0.00046438028,0.00046446206,0.00017898621,0.0011591618,0.0011584403,0.000667109,1,1,9,0
5675000,5675000,0.009801168,-0.018980062,-0.0015258789,0.9999992,0.0011580244,0.00039931666,-0.0002270364,0.012918303,-0.02594058,0.0043804557,-0.026407186,-0.0035088665,0.0059914934,2.000022,2.000022,1.0000136,0.00046508486,0.0004651653,0.0001810294,0.0012061273,0.0012053773,0.00068831054,1,1,9,0
5683000,5683000,0.009690721,-0.018537724,-0.0014953613,0.99999905,0.0012967933,0.00044445493,-0.00024600487,0.012154704,-0.024097107,0.0036706266,0.013273705,0.00061843387,-0.00732405,2.0000246,2.0000246,1.0000151,0.0004658027,0.00046588262,0.00018308307,0.0012537299,0.0012529631,0.0007098,1,1,9,0
5691000,5691000,0.009572034,-0.018091114,-0.0014343262,0.9999988,0.0014558585,0.00045303648,-0.00034625552,0.011241997,-0.02400351,0.003281351,0.019799585,-0.007903559,-0.027430078,2.0000274,2.0000274,1.0000168,0.0004665334,0.00046661345,0.0001851479,0.0013024624,0.0013016823,0.0007315866,1,1,9,0
5707000,5707000,0.009330242,-0.017180292,-0.0013427734,0.99999857,0.0015738847,0.00058958575,-0.0004193913,0.011551247,-0.01922134,0.0036581776,-0.011359255,-0.0032419292,-0.0031958008,2.0000336,2.0000336,1.0000203,0.0004680333,0.00046811244,0.00018931365,0.0014044518,0.0014036236,0.0007760116,1,1,9,0
5715000,5715000,0.009208847,-0.016701618,-0.0012817383,0.99999845,0.0016247359,0.000695291,-0.00043755193,0.010493839,-0.017578693,0.0035367133,-0.0032368288,0.018196084,-0.0063921623,2.000037,2.000037,1.0000222,0.0004688025,0.0004688809,0.0001914141,0.0014575291,0.0014566913,0.0007986446,1,1,9,0
5723000,5723000,0.009078801,-0.01621989,-0.0012512207,0.99999815,0.0017456955,0.00071129465,-0.00043634663,0.009861971,-0.017027173,0.0023669836,0.01553887,-0.0036416666,-0.0013320979,2.0000408,2.0000408,1.0000242,0.000469585,0.00046966266,0.00019352614,0.001511529,0.001510662,0.00082158216,1,1,9,0
5731000,5731000,0.008950969,-0.01573702,-0.0012207031,0.99999803,0.0017946707,0.00068209483,-0.00047309336,0.010516715,-0.016134595,0.0023745447,-0.0012384934,-0.014427296,-0.01065206,2.0000446,2.0000446,1.0000263,0.00047038018,0.00047045702,0.00019564947,0.0015671235,0.001566238,0.0008447886,1,1,9,0
5747000,5747000,0.00870151,-0.014772679,-0.0010986328,0.9999975,0.0020421043,0.0007951688,-0.0005487273,0.011307897,-0.015103401,0.0048430297,0.02685823,0.01153878,-0.0054595745,2.0000534,2.0000534,1.0000312,0.00047200875,0.00047208555,0.00019993052,0.0016819766,0.0016810545,0.0008920688,1,1,9,0
5755000,5755000,0.00858431,-0.014292196,-0.0010375977,0.9999974,0.0021161786,0.0007779247,-0.00058672106,0.0109024085,-0.014139139,0.004655602,0.008348524,-0.009899085,-0.010519938,2.0000582,2.0000582,1.0000339,0.0004728423,0.00047291856,0.00020208905,0.0017408121,0.0017398391,0.0009161612,1,1,9,0
5763000,5763000,0.008461986,-0.013806059,-0.0010070801,0.99999756,0.0020540745,0.000723109,-0.00054852135,0.010152226,-0.012588513,0.002814458,-0.024675187,-0.018820362,0.0086545525,2.0000632,2.0000632,1.0000366,0.00047368885,0.00047376452,0.00020425871,0.0018003732,0.0017993911,0.000940486,1,1,9,0
5771000,5771000,0.0083356155,-0.013315192,-0.0006713867,0.9999975,0.0019722187,0.0008961155,-0.0005854407,0.009256749,-0.011353438,0.0022798467,-0.028669635,0.0385694,-0.010121146,2.0000684,2.0000684,0.9245682,0.00047454814,0.00047462387,0.00020643983,0.0018620662,0.0018610648,0.00096508104,1,1,9,0
5787000,5787000,0.008058175,-0.012345729,0.0,0.9999973,0.002098047,0.00092227035,-0.00050868606,0.007856185,-0.011484122,0.003086121,0.0032881142,-0.005243468,0.014114686,2.00008,2.00008,0.9245739,0.0004763052,0.0004763791,0.00021083781,0.00198951,0.001988547,0.0010151393,1,1,9,0
5795000,5795000,0.007919989,-0.011864561,0.00030517578,0.9999972,0.0020787835,0.0010045826,-0.00055513333,0.007773956,-0.009868983,0.0017952527,-0.0104264,0.01725889,-0.012117367,2.0000863,2.0000863,0.924577,0.0004772026,0.00047727596,0.00021305429,0.0020553852,0.0020543823,0.001040617,1,1,9,0
5803000,5803000,0.007779356,-0.011373581,0.00061035156,0.9999972,0.0020738407,0.0010101743,-0.0006085337,0.0065176208,-0.0076243123,0.0013043801,-0.0060330266,-0.0015176099,-0.013715321,2.000093,2.000093,0.9245803,0.00047811255,0.00047818574,0.00021528223,0.002123069,0.0021220522,0.001066368,1,1,9,0
5811000,5811000,0.0076240576,-0.010877582,0.00088500977,0.9999973,0.0020505488,0.00094944116,-0.00053778087,0.0040129763,-0.0064982176,0.002899055,-0.009895345,-0.01763201,0.01744341,2.0001,2.0001,0.9245837,0.0004790351,0.0004791083,0.00021752168,0.0021914952,0.0021904837,0.0010924208,1,1,9,0
5827000,5827000,0.0072797006,-0.009866722,0.0014953613,0.9999977,0.0019766774,0.00081746007,-0.00043826556,0.0023363482,-0.0035298374,0.003666964,-0.003636296,-0.026555412,0.010253391,2.0001152,2.0001152,0.92459106,0.00048091845,0.00048099004,0.00022203596,0.0023331705,0.0023320909,0.001145419,1,1,9,0
5835000,5835000,0.0071060937,-0.009360943,0.0017700195,0.99999785,0.0019322076,0.00071024697,-0.0004015498,0.002126799,-0.003118543,0.0035596616,-0.013225404,-0.028286148,0.009187044,2.0001233,2.0001233,0.8597174,0.00048187913,0.00048195038,0.00022430981,0.0024074242,0.0024063105,0.0011723428,1,1,9,0
5843000,5843000,0.006930674,-0.008864638,0.0020141602,0.99999774,0.001987275,0.00073593366,-0.00029034304,0.001453106,-0.003245573,0.0050694784,0.012207117,0.0052704443,0.027829954,2.0001318,2.0001318,0.8597213,0.00048285237,0.00048292344,0.00022659528,0.002482953,0.0024818624,0.0011995473,1,1,9,0
5851000,5851000,0.006757428,-0.008368616,0.0022888184,0.9999978,0.00193219,0.00078035466,-0.00022506806,0.002361251,-0.0018898883,0.0066688717,-0.014821741,0.01019493,0.016379086,2.000141,2.000141,0.8597253,0.0004838385,0.00048390887,0.0002288923,0.0025595324,0.002558402,0.001227057,1,1,9,0
5867000,5867000,0.0064254845,-0.0073544392,0.0028686523,0.99999815,0.001834088,0.0007083815,-0.00015673912,0.0018384776,0.0028680498,0.007814827,0.0054163258,-0.023091929,0.01544669,2.00016,2.00016,0.85973394,0.00048584794,0.00048591662,0.00023352187,0.002718199,0.0027169485,0.0012829361,1,1,9,0
5875000,5875000,0.0062542562,-0.00683183,0.003112793,0.9999982,0.0018073465,0.0005781217,-0.0001350442,0.0005398905,0.0048799785,0.0067669414,-0.006301834,-0.032813657,0.005724923,2.0001702,2.0001702,0.8597385,0.00048687117,0.00048693974,0.00023585364,0.0028009047,0.002799658,0.0013112911,1,1,9,0
5883000,5883000,0.006074279,-0.0062991786,0.0033874512,0.9999982,0.0017833813,0.00067028735,-0.0001519979,-0.0007398488,0.007485657,0.0068799946,-0.0052360543,0.022979615,-0.003995304,2.000181,2.000181,0.85974336,0.00048790668,0.0004879749,0.00023819743,0.0028842993,0.002883025,0.0013399535,1,1,9,0
5891000,5891000,0.0058926055,-0.005753715,0.0036315918,0.9999982,0.0018059751,0.0005677893,-9.864074e-05,-0.00040998694,0.00969954,0.006395997,0.0067483597,-0.025488976,0.0137145715,2.0001922,2.0001922,0.85974836,0.00048895495,0.00048902276,0.00024055237,0.00296751,0.0029662426,0.0013688841,1,1,9,0
5907000,5907000,0.005543477,-0.00466298,0.003692627,0.9999985,0.0016462065,0.00051442924,-4.3061937e-05,-0.00081270834,0.0112212645,0.0066111325,-0.0024380288,0.005938419,0.0023965167,2.0002165,2.0002165,0.4454898,0.0004910887,0.000491156,0.00024529683,0.0031426293,0.0031413229,0.0014275755,1,1,9,0
5915000,5915000,0.0053660953,-0.00412293,0.0037231445,0.9999984,0.0017399627,0.0006130746,3.2621367e-05,-0.0009849449,0.010815358,0.0059604174,0.025391437,0.025247138,0.019307733,2.0002296,2.0002296,0.44549286,0.0004921738,0.0004922405,0.00024768757,0.0032347173,0.0032333788,0.0014573645,1,1,9,0
5923000,5923000,0.005193116,-0.003597951,0.003753662,0.9999981,0.001813011,0.0007042379,0.00010288686,-0.00080119807,0.010223753,0.0053706653,0.020465294,0.023515085,0.01797573,2.0002432,2.0002432,0.44549614,0.0004932721,0.000493337,0.00025008933,0.0033273762,0.0033260193,0.0014874369,1,1,9,0
5931000,5931000,0.0050196964,-0.0030856158,0.0037841797,0.99999803,0.0018744564,0.0006843079,5.0906165e-05,-0.0019566738,0.009430951,0.006136951,0.01780163,-0.0041818423,-0.01251715,2.0002573,2.0002573,0.44549963,0.00049438217,0.0004944468,0.00025250213,0.0034208263,0.0034195243,0.0015177778,1,1,9,0
5947000,5947000,0.0046633575,-0.002082823,0.0038452148,0.999998,0.0018730147,0.00071793806,4.1261428e-05,-0.002416116,0.011012873,0.005586353,0.0064857765,0.00021142112,0.0029292123,2.0002875,2.0002873,0.4455073,0.00049663964,0.0004967031,0.0002573634,0.003615245,0.003613898,0.0015793869,1,1,9,0
5955000,5955000,0.0044827773,-0.0015788333,0.0038757324,0.999998,0.0018964136,0.0007951788,8.040894e-05,-0.0040397434,0.012960904,0.004999176,0.008748375,0.020451704,0.010253659,2.0003035,2.0003033,0.44551146,0.00049778656,0.00049784925,0.00025981155,0.0037153873,0.0037139899,0.0016105997,1,1,9,0
5963000,5963000,0.0042913524,-0.0010696383,0.0038757324,0.9999976,0.001988358,0.00088235555,2.0411533e-05,-0.005284685,0.014737205,0.004257825,0.026057389,0.022980893,-0.014515648,2.0003204,2.0003202,0.429887,0.0004989455,0.0004990077,0.00026227155,0.0038151543,0.0038137757,0.001642071,1,1,9,0
5971000,5971000,0.0040994342,-0.0005587857,0.00390625,0.99999756,0.0020282075,0.00086733414,-3.0705873e-05,-0.0056850733,0.015214657,0.00524327,0.013141593,-0.0024546292,-0.012250832,2.0003378,2.0003376,0.42989147,0.0005001167,0.0005001781,0.00026474328,0.0039175497,0.0039161285,0.0016738552,1,1,9,0
5987000,5987000,0.00369961,0.00043379777,0.003967285,0.99999774,0.001969921,0.00085433695,-3.9219203e-06,-0.007951475,0.015191041,0.0046174247,-0.022812098,0.01165909,0.0051932447,2.0003746,2.0003743,0.42990118,0.0005024952,0.000502556,0.00026972155,0.004130614,0.0041291793,0.0017383106,1,1,9,0
5995000,5995000,0.003487672,0.0009200364,0.0039978027,0.99999774,0.0019566957,0.0008444385,-6.6594885e-07,-0.009583491,0.015596808,0.0036176771,9.162636e-05,-0.0009906894,0.001331392,2.000394,2.0003939,0.42990643,0.0005037029,0.00050376344,0.00027222701,0.00423819,0.004236791,0.0017709595,1,1,9,0
6003000,6003000,0.0032701658,0.0014018916,0.0039978027,0.9999976,0.0020110146,0.00093245745,-2.922277e-05,-0.010229163,0.015838403,0.0025246602,0.017003596,0.023510499,-0.0066575906,2.0004144,2.0004141,0.4299119,0.000504923,0.0005049826,0.0002747447,0.004347715,0.004346254,0.0018039222,1,1,9,0
6011000,6011000,0.0030517385,0.001878342,0.0039978027,0.99999785,0.0018962967,0.00093109306,-9.45414e-05,-0.010578081,0.016982181,0.0018416332,-0.02520777,0.001141335,-0.015845917,2.0004356,2.0004354,0.4299177,0.000506155,0.0005062133,0.00027727452,0.0044602677,0.004458722,0.0018371608,1,1,9,0
6027000,6027000,0.0026089496,0.0028071958,0.0040283203,0.9999981,0.0016723989,0.0010109239,-1.5628713e-05,-0.01183302,0.015608648,0.0006360369,-0.017620876,0.0038053452,0.016112171,2.0004802,2.0004797,0.4153589,0.00050865446,0.00050871243,0.00028236833,0.004694571,0.004692887,0.0019044558,1,1,9,0
6035000,6035000,0.0023816545,0.0032487258,0.0040283203,0.999998,0.0017682589,0.0009633823,-4.4452386e-06,-0.013388789,0.014873837,0.00064290955,0.027518108,-0.010310852,0.0033287231,2.0005038,2.0005033,0.41536528,0.00050992315,0.0005099799,0.00028493212,0.0048143896,0.004812625,0.0019385396,1,1,9,0
6043000,6043000,0.0021522269,0.0036827342,0.0040283203,0.9999981,0.0017303324,0.0009887329,-9.608957e-07,-0.01281775,0.015814902,0.0003018795,-0.005906948,0.007930069,0.0013312822,2.0005283,2.0005279,0.41537195,0.0005112028,0.0005112596,0.00028750784,0.0049371654,0.0049352986,0.0019729342,1,1,9,0
6051000,6051000,0.001932466,0.004113045,0.004058838,0.9999982,0.0016380297,0.00097212614,-2.5145953e-05,-0.012256724,0.015914537,0.0006332109,-0.019491032,-0.002588396,-0.005592331,2.0005538,2.0005531,0.41537893,0.0005124947,0.00051255035,0.00029009618,0.00506107,0.0050591826,0.0020076036,1,1,9,0
6067000,6067000,0.0014708794,0.004956601,0.0040893555,0.99999857,0.0014991288,0.0008193298,-0.000120481236,-0.015950639,0.016990263,0.003774177,0.0008817946,-0.03627715,-0.020107528,2.0006073,2.0006065,0.41539377,0.0005151153,0.00051517016,0.00029530408,0.0053173606,0.0053154915,0.0020777667,1,1,9,0
6075000,6075000,0.0012330438,0.005374538,0.004119873,0.9999986,0.001539498,0.00068733795,-0.00017358233,-0.015966132,0.017939305,0.004631534,0.013533637,-0.031484026,-0.012782283,2.0006354,2.0006347,0.41540167,0.00051644363,0.00051649805,0.00029792497,0.005449257,0.0054474263,0.002113284,1,1,9,0
6083000,6083000,0.0009912412,0.0057943813,0.004180908,0.99999857,0.0015898095,0.00060499937,-0.00022550431,-0.016971314,0.019704685,0.0060005253,0.01593257,-0.019098647,-0.012517384,2.0006645,2.0006638,0.4154099,0.0005177833,0.00051783776,0.00030055802,0.0055815326,0.0055797864,0.0021490655,1,1,9,0
6091000,6091000,0.0007500737,0.0062199063,0.004180908,0.9999987,0.0015334759,0.00057164335,-0.00024740148,-0.017010733,0.021093644,0.0071754586,-0.010830785,-0.006849335,-0.005060492,2.0006948,2.000694,0.40179992,0.00051913504,0.0005191887,0.00030320286,0.005717842,0.005716079,0.002185132,1,1,9,0
6107000,6107000,0.00026367942,0.0070672915,0.0042419434,0.9999988,0.0014977903,0.00046300172,-0.0002027106,-0.017840855,0.022857515,0.0070808395,0.010606487,-0.024959637,0.011850757,2.0007584,2.0007577,0.40181747,0.0005218737,0.0005219263,0.00030852694,0.0059980117,0.005996172,0.002258162,1,1,9,0
6115000,6115000,2.7643955e-05,0.0074895155,0.004272461,0.9999989,0.0013687111,0.00050749787,-0.00013694176,-0.016824367,0.023442667,0.0079312865,-0.029208863,0.012589303,0.016777547,2.0007918,2.000791,0.40182674,0.00052326085,0.0005233133,0.0003112058,0.0061423425,0.0061404523,0.0022951046,1,1,9,0
6123000,6123000,-0.00020015545,0.007912322,0.0043029785,0.99999905,0.0012813507,0.00044981766,-0.00011548191,-0.016967505,0.025068881,0.008771164,-0.018823463,-0.012978343,0.0057260273,2.0008264,2.0008256,0.40183637,0.0005246594,0.00052471156,0.00031389683,0.006286364,0.006284473,0.0023323377,1,1,9,0
6131000,6131000,-0.00042946253,0.008344809,0.004333496,0.9999992,0.0012278815,0.0004732446,-0.0001141152,-0.017210428,0.02762211,0.009531989,-0.010434604,0.0072619678,0.00066559296,2.0008621,2.0008614,0.40184635,0.00052606966,0.0005261217,0.00031659962,0.006434172,0.006432358,0.002369839,1,1,9,0
6147000,6147000,-0.0008651244,0.009232678,0.0044555664,0.99999934,0.0010732374,0.00052438147,3.636297e-05,-0.0162046,0.029928992,0.012304188,-0.008436244,0.010321726,0.023036059,2.0009372,2.0009365,0.40186742,0.0005289251,0.0005289756,0.0003220407,0.006740957,0.0067391973,0.002445711,1,1,9,0
6155000,6155000,-0.0010768389,0.00966395,0.0045166016,0.9999993,0.001051344,0.00063090085,0.0001753981,-0.016204337,0.028101098,0.012125688,-0.0028428226,0.028030645,0.035019808,2.0009768,2.000976,0.3891208,0.0005303706,0.0005304206,0.00032477762,0.006898662,0.0068969214,0.002484046,1,1,9,0
6163000,6163000,-0.0012895194,0.010076711,0.0045776367,0.9999992,0.001013827,0.0006214881,0.0002483348,-0.016889066,0.02753039,0.011491014,-0.0068373773,-0.0009991981,0.018508652,2.0010173,2.0010166,0.3891319,0.0005318277,0.00053187634,0.00032752776,0.0070584025,0.007056617,0.0025227154,1,1,9,0
6171000,6171000,-0.0014990482,0.0104769105,0.0046691895,0.99999917,0.0010730252,0.0006042383,0.00034150176,-0.01614361,0.026239624,0.011547356,0.017263183,-0.002995454,0.023568638,2.0010593,2.0010586,0.38914344,0.00053329626,0.0005333433,0.00033028916,0.0072195404,0.0072178366,0.0025616544,1,1,9,0
6187000,6187000,-0.0018882488,0.011233642,0.0047912598,0.9999993,0.0011075096,0.0004744092,0.0003004988,-0.014687898,0.025269333,0.010806477,-0.013892547,-0.0007340968,-0.0062594293,2.0011475,2.0011468,0.3891677,0.00053626724,0.00053631386,0.00033584543,0.007552089,0.007550561,0.002640396,1,1,9,0
6195000,6195000,-0.0020775937,0.011603733,0.004852295,0.99999934,0.0010785533,0.0003926381,0.00019194686,-0.01547575,0.026726352,0.010420213,-0.0051033585,-0.019244952,-0.026898265,2.0011938,2.001193,0.38918045,0.00053777045,0.0005378162,0.0003386413,0.007722169,0.0077205775,0.0026802178,1,1,9,0
6203000,6203000,-0.0022673819,0.011981806,0.0048828125,0.99999946,0.0009945452,0.0003099734,0.00013726437,-0.015220634,0.02879403,0.00997201,-0.018952148,-0.01950961,-0.013449888,2.0012412,2.0012405,0.38919362,0.00053928467,0.0005393292,0.00034144908,0.007893733,0.007892129,0.002720325,1,1,9,0
6211000,6211000,-0.0024507465,0.012363348,0.0049743652,0.9999995,0.00094292016,0.00029294795,0.00019667708,-0.014644827,0.029142907,0.009649444,-0.010962246,-0.0031301377,0.015046399,2.00129,2.0012894,0.37723017,0.00054081046,0.0005408537,0.00034426877,0.008066348,0.008064808,0.0027606278,1,1,9,0
6227000,6227000,-0.0027996697,0.013112624,0.0051574707,0.9999996,0.0007757461,0.00026466697,0.00032900635,-0.014153887,0.02992297,0.008741382,-0.034930952,-0.008861122,0.021172028,2.0013921,2.0013914,0.37725776,0.0005438952,0.00054393866,0.00034994198,0.008419539,0.008417993,0.0028422452,1,1,9,0
6235000,6235000,-0.0029702259,0.013483059,0.005218506,0.9999997,0.00075814314,0.00017809418,0.00031714677,-0.0145739075,0.030454405,0.009693208,-0.0027071217,-0.02057929,-0.0027964714,2.0014455,2.0014448,0.37727225,0.00054545485,0.00054549845,0.00035279564,0.008600464,0.008598861,0.0028834853,1,1,9,0
6243000,6243000,-0.003141797,0.013849867,0.0053100586,0.9999997,0.0007694782,0.00021139134,0.00037360023,-0.0146523835,0.03081425,0.010299849,0.004480837,0.0093799615,0.014247436,2.0015006,2.0015,0.37728715,0.0005470259,0.0005470688,0.00035566126,0.00878465,0.0087829735,0.0029250204,1,1,9,0
6251000,6251000,-0.0033059518,0.014220123,0.0054016113,0.9999997,0.0007831604,0.0002422351,0.0003747065,-0.013589843,0.03278108,0.010669055,0.0050114766,0.008714514,0.00039905123,2.0015574,2.0015566,0.37730253,0.0005486083,0.00054865016,0.0003585384,0.008975266,0.00897361,0.0029668293,1,1,9,0
6267000,6267000,-0.003604185,0.014947964,0.005584717,0.9999997,0.00066870725,0.00013584956,0.00039188433,-0.012761323,0.032425053,0.011013501,-0.0015141474,-0.014190698,-0.025166858,2.0016758,2.0016751,0.3773347,0.0005518064,0.0005518468,0.00036432754,0.009360738,0.009358938,0.0030513387,1,1,9,0
6275000,6275000,-0.003749032,0.015306405,0.005706787,0.9999997,0.0007071957,8.099324e-05,0.0003014508,-0.01211168,0.032868344,0.008550775,0.011001093,-0.012856056,-0.022504477,2.0017376,2.0017369,0.3660834,0.0005534222,0.0005534616,0.00036723996,0.009557652,0.009555759,0.0030939328,1,1,9,0
6283000,6283000,-0.0038858233,0.015663248,0.0058288574,0.9999998,0.00060046767,-2.1727903e-05,0.00025684483,-0.011564373,0.033515736,0.008085132,-0.025353266,-0.024840018,-0.011052807,2.0018013,2.0018005,0.3661002,0.0005550494,0.000555088,0.00037016338,0.009757895,0.00975584,0.0031369138,1,1,9,0
6291000,6291000,-0.004016698,0.016012682,0.00592041,0.99999994,0.00051083276,-3.70081e-05,0.00028903256,-0.011004585,0.032552075,0.009087729,-0.021095399,-0.0030029088,0.008122176,2.0018668,2.0018659,0.36611748,0.0005566877,0.00055672484,0.00037309885,0.009961218,0.009958989,0.0031801923,1,1,9,0
6307000,6307000,-0.0042434386,0.016673869,0.006072998,0.9999998,0.00053182937,-0.00012858435,0.0002874606,-0.008316888,0.031324606,0.008723784,0.010593405,-0.001669278,-0.007590264,2.0020032,2.0020022,0.2680215,0.0005599982,0.00056003383,0.0003790029,0.010376207,0.010374124,0.0032665764,1,1,9,0
6315000,6315000,-0.004341212,0.016991887,0.006164551,0.9999998,0.00052776013,-0.00022584252,0.00033782824,-0.0075825453,0.031178476,0.008544619,7.6886114e-05,-0.023640389,0.012649514,2.0020745,2.0020733,0.2680354,0.0005616698,0.0005617047,0.0003819728,0.010592213,0.010590219,0.0033106562,1,1,9,0
6323000,6323000,-0.004432667,0.017308742,0.006225586,0.9999998,0.0004947341,-0.00031397212,0.0003823695,-0.007645905,0.03209225,0.008385366,-0.0072453627,-0.021377694,0.011184723,2.002148,2.0021465,0.26804987,0.00056335237,0.00056338764,0.00038495348,0.0108098285,0.010807922,0.003355033,1,1,9,0
6331000,6331000,-0.0045310836,0.017622774,0.006286621,0.9999998,0.0004999156,-0.00031927938,0.00036787608,-0.009100823,0.031570286,0.0071847043,0.0022111526,-0.00073675864,-0.003595633,2.0022233,2.0022218,0.2680648,0.0005650455,0.00056508154,0.0003879459,0.011032367,0.01103048,0.003399709,1,1,9,0
6347000,6347000,-0.004742662,0.018235115,0.006378174,0.9999998,0.000557475,-0.00021260256,0.00043492785,-0.009980454,0.03249084,0.0052273767,0.008871166,-0.0007341933,0.00972008,2.0023801,2.0023787,0.26235974,0.00056846533,0.0005684999,0.00039396735,0.011486459,0.011484544,0.0034898256,1,1,9,0
6355000,6355000,-0.004843087,0.01853654,0.006439209,0.9999999,0.00043494112,-7.895484e-05,0.00034654472,-0.009507461,0.032082904,0.005282456,-0.029879665,0.03388664,-0.022103656,2.0024617,2.0024602,0.26237592,0.0005701911,0.0005702249,0.0003969959,0.011719243,0.011717169,0.003535373,1,1,9,0
6363000,6363000,-0.0049445666,0.018831484,0.0064697266,0.9999999,0.00039872786,-3.7863927e-05,0.00039983116,-0.009803649,0.032196343,0.0042651775,-0.008311577,0.0107171815,0.013315107,2.0025456,2.0025442,0.26239264,0.00057192834,0.00057196134,0.00040003558,0.011955072,0.011952965,0.0035811954,1,1,9,0
6371000,6371000,-0.0050456636,0.019125132,0.006500244,0.9999999,0.0004015445,8.069229e-05,0.0003583689,-0.0105087655,0.03274633,0.0046849404,0.0014080005,0.030025713,-0.0103866765,2.002632,2.0026305,0.2624099,0.0005736766,0.00057370897,0.0004030864,0.012193893,0.012191764,0.0036273005,1,1,9,0
6387000,6387000,-0.0052629737,0.019701391,0.006591797,0.7031742,0.0001669371,0.0004976123,0.7110175,-0.0110020805,0.03193695,0.005327043,0.0038048911,0.013913545,0.014247688,2.0028117,2.0028102,0.26244608,0.0005751336,0.0005752572,0.08999986,0.012663113,0.012660767,0.0037203506,1,1,10,0
6395000,6395000,-0.005368983,0.019970423,0.0066223145,0.70319307,0.00013236146,0.0004128677,0.71099883,-0.011661191,0.030719234,0.003458381,-0.020562358,-0.008457297,-0.0066586994,2.0029047,2.0029032,0.26246503,0.000574817,0.0005749445,0.0899999,0.012900796,0.012898272,0.0037673025,1,1,10,0
6403000,6403000,-0.0054771462,0.02023143,0.0066833496,0.70322067,8.674592e-05,0.00035347993,0.71097165,-0.011980968,0.030676406,0.0022545978,-0.018032566,-0.0020667452,-0.009720464,2.003,2.0029986,0.25698337,0.0005745158,0.00057464436,0.089999944,0.013150956,0.013148732,0.003814407,1,1,10,0
6411000,6411000,-0.0055875015,0.02048685,0.0067443848,0.70326674,0.00011203286,0.00031457702,0.71092606,-0.012181094,0.03057798,0.002793762,-0.001921947,-0.011124521,-0.016245494,2.0030978,2.0030963,0.25700307,0.00057421834,0.00057430833,0.09000007,0.013414602,0.013411448,0.0038619665,1,1,10,0
6427000,6427000,-0.00580391,0.020981487,0.006866455,0.70322603,6.91004e-05,0.00020354729,0.71096635,-0.012106214,0.03015543,0.0017601051,-0.020565627,-0.009259065,0.011850825,2.0033011,2.0032997,0.25704426,0.00057366694,0.00057378114,0.090000205,0.013982834,0.013979468,0.003957869,1,1,10,0
