timestamp,timestamp_sample,states[0],states[1],states[2],states[3],states[4],states[5],states[6],states[7],states[8],states[9],states[10],states[11],states[12],states[13],states[14],states[15],states[16],states[17],states[18],states[19],states[20],states[21],states[22],states[23],states[24],covariances[0],covariances[1],covariances[2],covariances[3],covariances[4],covariances[5],covariances[6],covariances[7],covariances[8],covariances[9],covariances[10],covariances[11],covariances[12],covariances[13],covariances[14],covariances[15],covariances[16],covariances[17],covariances[18],covariances[19],covariances[20],covariances[21],covariances[22],covariances[23],n_states
4435000,4283000,0.9999555,-0.00887564,-0.0028032337,-0.0015799308,0.0017683397,-0.0014456765,-0.0145353675,0.0,0.0,-0.0011763625,0.0,0.0,0.0,0.0,0.0,0.0,0.0,0.0,0.0,0.0,0.0,0.0,0.0,0.0,0.09882364,0.010282556,0.010282554,0.0002823619,25.026432,25.026432,10.001181,100.640144,100.640144,100.25601,0.010000001,0.009999999,0.009993606,0.040000003,0.040000003,0.040000003,0.0025000002,0.0025000002,0.0025000002,0.0025000002,0.0025000002,0.0025000002,1.0,1.0,0.010000001,25
4443000,4291000,0.9999552,-0.008891221,-0.0028579116,-0.0015619097,0.002264297,-0.0045998865,-0.01670754,0.0,0.0,-0.0013013341,0.0,0.0,0.0,0.0,0.0,0.0,0.0,0.0,0.0,0.0,0.0,0.0,0.0,0.0,0.09869867,0.010310091,0.01031009,0.00030987873,25.029202,25.029202,10.001294,100.70577,100.70577,100.28226,0.010000001,0.009999999,0.009993606,0.040000003,0.040000003,0.040000003,0.0025000002,0.0025000002,0.0025000002,0.0025000002,0.0025000002,0.0025000002,1.0,1.0,0.010000001,25
4451000,4299000,0.9999548,-0.008931798,-0.0028923356,-0.0015468061,0.0019100235,-0.0063095484,-0.016060673,0.0,0.0,-0.001432407,0.0,0.0,0.0,0.0,0.0,0.0,0.0,0.0,0.0,0.0,0.0,0.0,0.0,0.0,0.0985676,0.010338904,0.010338905,0.0003386747,25.032013,25.032013,10.001411,100.774605,100.774605,100.309784,0.010000001,0.009999999,0.009993606,0.040000003,0.040000003,0.040000003,0.0025000002,0.0025000002,0.0025000002,0.0025000002,0.0025000002,0.0025000002,1.0,1.0,0.010000001,25
4459000,4307000,0.9999552,-0.00891018,-0.0028638628,-0.0014564474,0.0022312708,-0.008978372,-0.015143737,0.0,0.0,-0.0015572245,0.0,0.0,0.0,0.0,0.0,0.0,0.0,0.0,0.0,0.0,0.0,0.0,0.0,0.0,0.09844278,0.010369,0.010369002,0.00036874993,25.034946,25.034946,10.001534,100.84666,100.84666,100.33859,0.010000001,0.009999999,0.009993606,0.040000003,0.040000003,0.040000003,0.0025000002,0.0025000002,0.0025000002,0.0025000002,0.0025000002,0.0025000002,1.0,1.0,0.010000001,25
4467000,4315000,0.99995613,-0.0088183265,-0.0028631017,-0.0013555211,0.0026308617,-0.00909107,-0.014602296,0.0,0.0,-0.0016762087,0.0,0.0,0.0,0.0,0.0,0.0,0.0,0.0,0.0,0.0,0.0,0.0,0.0,0.0,0.09832379,0.010400376,0.010400378,0.00040010439,25.038025,25.038025,10.001663,100.92191,100.92191,100.368675,0.010000001,0.009999999,0.009993606,0.040000003,0.040000003,0.040000003,0.0025000002,0.0025000002,0.0025000002,0.0025000002,0.0025000002,0.0025000002,1.0,1.0,0.010000001,25
4475000,4323000,0.99995726,-0.008703525,-0.0028673199,-0.0012725957,0.0031388744,-0.010862267,-0.0153192505,0.0,0.0,-0.0017958949,0.0,0.0,0.0,0.0,0.0,0.0,0.0,0.0,0.0,0.0,0.0,0.0,0.0,0.0,0.098204106,0.010433033,0.010433034,0.00043273804,25.041288,25.041288,10.001798,101.000374,101.000374,100.40003,0.010000001,0.009999999,0.009993606,0.040000003,0.040000003,0.040000003,0.0025000002,0.0025000002,0.0025000002,0.0025000002,0.0025000002,0.0025000002,1.0,1.0,0.010000001,25
4483000,4331000,0.9999575,-0.0086560715,-0.002907636,-0.001307797,0.0041401223,-0.012139104,-0.016889676,0.0,0.0,-0.0019247306,0.0,0.0,0.0,0.0,0.0,0.0,0.0,0.0,0.0,0.0,0.0,0.0,0.0,0.0,0.09807527,0.01046697,0.01046697,0.0004666509,25.044725,25.044725,10.001936,101.08204,101.08204,100.43267,0.010000001,0.009999999,0.009993606,0.040000003,0.040000003,0.040000003,0.0025000002,0.0025000002,0.0025000002,0.0025000002,0.0025000002,0.0025000002,1.0,1.0,0.010000001,25
4491000,4339000,0.99995726,-0.008651675,-0.0029497459,-0.0013724042,0.003257757,-0.012353027,-0.01717721,0.0,0.0,-0.0020609982,0.0,0.0,0.0,0.0,0.0,0.0,0.0,0.0,0.0,0.0,0.0,0.0,0.0,0.0,0.097939,0.010502187,0.010502186,0.00050184294,25.048248,25.048248,10.00208,101.16691,101.16691,100.46659,0.010000001,0.009999999,0.009993606,0.040000003,0.040000003,0.040000003,0.0025000002,0.0025000002,0.0025000002,0.0025000002,0.0025000002,0.0025000002,1.0,1.0,0.010000001,25
4507000,4355000,0.99995726,-0.0086100325,-0.0030388366,-0.0014439567,0.00285193,-0.015092933,-0.017086625,0.0,0.0,-0.0023403105,0.0,0.0,0.0,0.0,0.0,0.0,0.0,0.0,0.0,0.0,0.0,0.0,0.0,0.0,0.09765969,0.010576455,0.010576453,0.00057606417,25.05568,25.05568,10.002383,101.34629,101.34629,100.53828,0.010000001,0.009999999,0.009993606,0.040000003,0.040000003,0.040000003,0.0025000002,0.0025000002,0.0025000002,0.0025000002,0.0025000002,0.0025000002,1.0,1.0,0.010000001,25
4515000,4363000,0.99995756,-0.008595082,-0.00301597,-0.0014457072,0.0031653447,-0.016294055,-0.018365413,0.0,0.0,-0.0024821186,0.0,0.0,0.0,0.0,0.0,0.0,0.0,0.0,0.0,0.0,0.0,0.0,0.0,0.0,0.097517885,0.01061551,0.010615507,0.0006150936,25.059666,25.059666,10.0025425,101.44079,101.44079,100.57604,0.010000001,0.009999999,0.009993606,0.040000003,0.040000003,0.040000003,0.0025000002,0.0025000002,0.0025000002,0.0025000002,0.0025000002,0.0025000002,1.0,1.0,0.010000001,25
4523000,4371000,0.99995774,-0.008527256,-0.003082369,-0.0015370813,0.0045128656,-0.017912624,-0.016876958,0.0,0.0,-0.002623088,0.0,0.0,0.0,0.0,0.0,0.0,0.0,0.0,0.0,0.0,0.0,0.0,0.0,0.0,0.09737691,0.01065585,0.010655846,0.0006554026,25.063656,25.063656,10.0027075,101.538506,101.538506,100.61509,0.010000001,0.009999999,0.009993606,0.040000003,0.040000003,0.040000003,0.0025000002,0.0025000002,0.0025000002,0.0025000002,0.0025000002,0.0025000002,1.0,1.0,0.010000001,25
4531000,4379000,0.9999586,-0.008444448,-0.0030211457,-0.0015879493,0.003593383,-0.019490309,-0.01641836,0.0,0.0,-0.0027562692,0.0,0.0,0.0,0.0,0.0,0.0,0.0,0.0,0.0,0.0,0.0,0.0,0.0,0.0,0.09724373,0.010697464,0.010697461,0.0006969904,25.067835,25.067835,10.002876,101.63943,101.63943,100.65542,0.010000001,0.009999999,0.009993606,0.040000003,0.040000003,0.040000003,0.0025000002,0.0025000002,0.0025000002,0.0025000002,0.0025000002,0.0025000002,1.0,1.0,0.010000001,25
4547000,4395000,0.999959,-0.00836011,-0.0030619344,-0.0016709797,0.0053695054,-0.023497803,-0.014363408,0.0,0.0,-0.0030036415,0.0,0.0,0.0,0.0,0.0,0.0,0.0,0.0,0.0,0.0,0.0,0.0,0.0,0.0,0.09699636,0.0107845375,0.010784534,0.00078400393,25.07655,25.07655,10.003231,101.85092,101.85092,100.73992,0.010000001,0.009999999,0.009993606,0.040000003,0.040000003,0.040000003,0.0025000002,0.0025000002,0.0025000002,0.0025000002,0.0025000002,0.0025000002,1.0,1.0,0.010000001,25
4555000,4403000,0.9999593,-0.008310624,-0.0031095087,-0.0016810837,0.006631099,-0.026608437,-0.012826733,0.0,0.0,-0.003112402,0.0,0.0,0.0,0.0,0.0,0.0,0.0,0.0,0.0,0.0,0.0,0.0,0.0,0.0,0.096887596,0.010829992,0.010829988,0.00082942925,25.081083,25.081083,10.003417,101.96149,101.96149,100.78409,0.010000001,0.009999999,0.009993606,0.040000003,0.040000003,0.040000003,0.0025000002,0.0025000002,0.0025000002,0.0025000002,0.0025000002,0.0025000002,1.0,1.0,0.010000001,25
4563000,4411000,0.99996024,-0.00824027,-0.0030054403,-0.0016423123,0.006250154,-0.028635472,-0.011830665,0.0,0.0,-0.0032110317,0.0,0.0,0.0,0.0,0.0,0.0,0.0,0.0,0.0,0.0,0.0,0.0,0.0,0.0,0.09678897,0.010876728,0.010876724,0.000876134,25.085789,25.085789,10.003608,102.07527,102.07527,100.82953,0.010000001,0.009999999,0.009993606,0.040000003,0.040000003,0.040000003,0.0025000002,0.0025000002,0.0025000002,0.0025000002,0.0025000002,0.0025000002,1.0,1.0,0.010000001,25
4571000,4419000,0.9999609,-0.008184588,-0.002890771,-0.0016777132,0.006018555,-0.029937068,-0.01246912,0.0,0.0,-0.0033082308,0.0,0.0,0.0,0.0,0.0,0.0,0.0,0.0,0.0,0.0,0.0,0.0,0.0,0.0,0.09669177,0.010924744,0.010924739,0.000924118,25.090734,25.090734,10.003803,102.19227,102.19227,100.87625,0.010000001,0.009999999,0.009993606,0.040000003,0.040000003,0.040000003,0.0025000002,0.0025000002,0.0025000002,0.0025000002,0.0025000002,0.0025000002,1.0,1.0,0.010000001,25
4587000,4435000,0.999962,-0.008100517,-0.0027461017,-0.0017511039,0.008732559,-0.034024943,-0.012899078,0.0,0.0,-0.0035130233,0.0,0.0,0.0,0.0,0.0,0.0,0.0,0.0,0.0,0.0,0.0,0.0,0.0,0.0,0.09648698,0.011024611,0.011024604,0.0010239229,25.101011,25.101011,10.004211,102.43591,102.43591,100.97354,0.010000001,0.009999999,0.009993606,0.040000003,0.040000003,0.040000003,0.0025000002,0.0025000002,0.0025000002,0.0025000002,0.0025000002,0.0025000002,1.0,1.0,0.010000001,25
4595000,4443000,0.99996215,-0.008062163,-0.0027761674,-0.0017720633,0.0102515,-0.035668105,-0.013440758,0.0,0.0,-0.0036183826,0.0,0.0,0.0,0.0,0.0,0.0,0.0,0.0,0.0,0.0,0.0,0.0,0.0,0.0,0.09638162,0.011076471,0.011076463,0.0010757447,25.106392,25.106392,10.004422,102.56256,102.56256,101.02411,0.010000001,0.009999999,0.009993606,0.040000003,0.040000003,0.040000003,0.0025000002,0.0025000002,0.0025000002,0.0025000002,0.0025000002,0.0025000002,1.0,1.0,0.010000001,25
4603000,4451000,0.9999613,-0.008164925,-0.0027771494,-0.0017845911,0.011860899,-0.037084512,-0.013932869,0.0,0.0,-0.003727877,0.0,0.0,0.0,0.0,0.0,0.0,0.0,0.0,0.0,0.0,0.0,0.0,0.0,0.0,0.096272126,0.011129607,0.011129599,0.0011288455,25.11192,25.11192,10.004639,102.69244,102.69244,101.07596,0.010000001,0.009999999,0.009993606,0.040000003,0.040000003,0.040000003,0.0025000002,0.0025000002,0.0025000002,0.0025000002,0.0025000002,0.0025000002,1.0,1.0,0.010000001,25
4611000,4459000,0.9999609,-0.008193422,-0.002769845,-0.0018747477,0.013567289,-0.037360795,-0.014055155,0.0,0.0,-0.0038398292,0.0,0.0,0.0,0.0,0.0,0.0,0.0,0.0,0.0,0.0,0.0,0.0,0.0,0.0,0.09616017,0.011184024,0.011184014,0.0011832254,25.11757,25.11757,10.004859,102.82553,102.82553,101.12909,0.010000001,0.009999999,0.009993606,0.040000003,0.040000003,0.040000003,0.0025000002,0.0025000002,0.0025000002,0.0025000002,0.0025000002,0.0025000002,1.0,1.0,0.010000001,25
4627000,4475000,0.999961,-0.008206225,-0.0026117414,-0.0019543753,0.015198055,-0.040479977,-0.012164921,0.0,0.0,-0.004047136,0.0,0.0,0.0,0.0,0.0,0.0,0.0,0.0,0.0,0.0,0.0,0.0,0.0,0.0,0.09595287,0.011296695,0.011296685,0.0012958228,25.12917,25.12917,10.005317,103.10138,103.10138,101.2392,0.010000001,0.009999999,0.009993606,0.040000003,0.040000003,0.040000003,0.0025000002,0.0025000002,0.0025000002,0.0025000002,0.0025000002,0.0025000002,1.0,1.0,0.010000001,25
4635000,4483000,0.9999606,-0.008280935,-0.0025121218,-0.001975631,0.01614092,-0.041398324,-0.012382009,0.0,0.0,-0.0020609407,-3.3229902e-08,-9.7759925e-09,1.2369305e-11,0.0,0.0,0.0,0.0,0.0,0.0,0.0,0.0,0.0,0.0,0.0,0.09585438,0.011354537,0.0113545265,0.00057519844,24.348516,24.348516,9.941136,0.2493961,0.2493961,50.321957,0.009999824,0.009998358,0.004249919,0.040000003,0.040000003,0.040000003,0.0025000002,0.0025000002,0.0025000002,0.0025000002,0.0025000002,0.0025000002,1.0,1.0,0.010000001,25
4643000,4491000,0.9999608,-0.008271568,-0.0024290038,-0.0020348867,0.016414238,-0.043629296,-0.012930125,0.0,0.0,-0.0021621892,-3.3229902e-08,-9.7759925e-09,1.2369305e-11,0.0,0.0,0.0,0.0,0.0,0.0,0.0,0.0,0.0,0.0,0.0,0.09783781,0.01141407,0.0114140585,0.00060048106,24.35471,24.35471,9.941379,0.25130317,0.25130317,50.351215,0.009999824,0.009998358,0.004249919,0.040000003,0.040000003,0.040000003,0.0025000002,0.0025000002,0.0025000002,0.0025000002,0.0025000002,0.0025000002,1.0,1.0,0.010000001,25
4651000,4499000,0.9999599,-0.0083896555,-0.0023767254,-0.002054778,0.01714997,-0.04585874,-0.012374446,0.0,0.0,-0.0022634075,-3.3229902e-08,-9.7759925e-09,1.2369305e-11,0.0,0.0,0.0,0.0,0.0,0.0,0.0,0.0,0.0,0.0,0.0,0.0977366,0.011474883,0.01147487,0.0006263074,24.360973,24.360973,9.941626,0.25632763,0.25632763,50.381744,0.009999824,0.009998358,0.004249919,0.040000003,0.040000003,0.040000003,0.0025000002,0.0025000002,0.0025000002,0.0025000002,0.0025000002,0.0025000002,1.0,1.0,0.010000001,25
4667000,4515000,0.99995995,-0.008327181,-0.0024702004,-0.0021976586,0.0198594,-0.04718724,-0.011840723,0.0,0.0,-0.0024484375,-3.3229902e-08,-9.7759925e-09,1.2369305e-11,0.0,0.0,0.0,0.0,0.0,0.0,0.0,0.0,0.0,0.0,0.0,0.09755156,0.011600351,0.011600337,0.0006795916,24.374008,24.374008,9.942135,0.27573362,0.27573362,50.446625,0.009999824,0.009998358,0.004249919,0.040000003,0.040000003,0.040000003,0.0025000002,0.0025000002,0.0025000002,0.0025000002,0.0025000002,0.0025000002,1.0,1.0,0.010000001,25
4675000,4523000,0.9999591,-0.008392106,-0.0024981375,-0.0022439254,0.020739637,-0.04892888,-0.011297151,0.0,0.0,-0.002540989,-3.3229902e-08,-9.7759925e-09,1.2369305e-11,0.0,0.0,0.0,0.0,0.0,0.0,0.0,0.0,0.0,0.0,0.0,0.09745901,0.011665006,0.011664991,0.00070704933,24.380735,24.380735,9.942397,0.29011762,0.29011762,50.480976,0.009999824,0.009998358,0.004249919,0.040000003,0.040000003,0.040000003,0.0025000002,0.0025000002,0.0025000002,0.0025000002,0.0025000002,0.0025000002,1.0,1.0,0.010000001,25
4683000,4531000,0.9999594,-0.008373235,-0.0024442156,-0.0022874766,0.019119978,-0.050895665,-0.011207446,0.0,0.0,-0.0026310075,-3.3229902e-08,-9.7759925e-09,1.2369305e-11,0.0,0.0,0.0,0.0,0.0,0.0,0.0,0.0,0.0,0.0,0.0,0.09736899,0.011730937,0.011730921,0.00073505053,24.387657,24.387657,9.942665,0.30762395,0.30762395,50.516598,0.009999824,0.009998358,0.004249919,0.040000003,0.040000003,0.040000003,0.0025000002,0.0025000002,0.0025000002,0.0025000002,0.0025000002,0.0025000002,1.0,1.0,0.010000001,25
4691000,4539000,0.99995965,-0.008328237,-0.0024210513,-0.0023711876,0.01955404,-0.052828,-0.012219384,0.0,0.0,-0.0027247148,-3.3229902e-08,-9.7759925e-09,1.2369305e-11,0.0,0.0,0.0,0.0,0.0,0.0,0.0,0.0,0.0,0.0,0.0,0.09727529,0.011798154,0.011798137,0.0007635959,24.394836,24.394836,9.942939,0.32825398,0.32825398,50.553493,0.009999824,0.009998358,0.004249919,0.040000003,0.040000003,0.040000003,0.0025000002,0.0025000002,0.0025000002,0.0025000002,0.0025000002,0.0025000002,1.0,1.0,0.010000001,25
4707000,4555000,0.999961,-0.008240447,-0.0021886595,-0.0023276482,0.01891299,-0.057451308,-0.01415167,0.0,0.0,-0.0029335017,-3.3229902e-08,-9.7759925e-09,1.2369305e-11,0.0,0.0,0.0,0.0,0.0,0.0,0.0,0.0,0.0,0.0,0.0,0.0970665,0.011936427,0.011936408,0.00082231796,24.40968,24.409678,9.943501,0.37889066,0.37889066,50.6311,0.009999824,0.009998358,0.004249919,0.040000003,0.040000003,0.040000003,0.0025000002,0.0025000002,0.0025000002,0.0025000002,0.0025000002,0.0025000002,1.0,1.0,0.010000001,25
4715000,4563000,0.99996173,-0.0081483545,-0.0021967455,-0.0023130002,0.019824084,-0.061774895,-0.015203975,0.0,0.0,-0.0030509243,-3.3229902e-08,-9.7759925e-09,1.2369305e-11,0.0,0.0,0.0,0.0,0.0,0.0,0.0,0.0,0.0,0.0,0.0,0.09694908,0.012007486,0.012007464,0.0008524946,24.41736,24.417358,9.943794,0.40890014,0.40890014,50.671814,0.009999824,0.009998358,0.004249919,0.040000003,0.040000003,0.040000003,0.0025000002,0.0025000002,0.0025000002,0.0025000002,0.0025000002,0.0025000002,1.0,1.0,0.010000001,25
4723000,4571000,0.9999614,-0.008178194,-0.002243365,-0.0023558303,0.02026088,-0.063151516,-0.016670644,0.0,0.0,-0.0031784228,-3.3229902e-08,-9.7759925e-09,1.2369305e-11,0.0,0.0,0.0,0.0,0.0,0.0,0.0,0.0,0.0,0.0,0.0,0.09682158,0.012079821,0.012079797,0.0008832149,24.42525,24.425247,9.944087,0.442039,0.442039,50.713802,0.009999824,0.009998358,0.004249919,0.040000003,0.040000003,0.040000003,0.0025000002,0.0025000002,0.0025000002,0.0025000002,0.0025000002,0.0025000002,1.0,1.0,0.010000001,25
4731000,4579000,0.99996156,-0.008141531,-0.002264089,-0.0023390655,0.019629523,-0.063380025,-0.01839073,0.0,0.0,-0.0033186683,-3.3229902e-08,-9.7759925e-09,1.2369305e-11,0.0,0.0,0.0,0.0,0.0,0.0,0.0,0.0,0.0,0.0,0.0,0.096681334,0.012153441,0.012153416,0.00091447926,24.433332,24.43333,9.944384,0.47830877,0.47830877,50.757065,0.009999824,0.009998358,0.004249919,0.040000003,0.040000003,0.040000003,0.0025000002,0.0025000002,0.0025000002,0.0025000002,0.0025000002,0.0025000002,1.0,1.0,0.010000001,25
4747000,4595000,0.9999627,-0.008061659,-0.0021847265,-0.0022505773,0.021994425,-0.06306336,-0.015835814,0.0,0.0,-0.0035949133,-3.3229902e-08,-9.7759925e-09,1.2369305e-11,0.0,0.0,0.0,0.0,0.0,0.0,0.0,0.0,0.0,0.0,0.0,0.09640509,0.01230451,0.012304483,0.0009786384,24.449411,24.44941,9.944993,0.560247,0.560247,50.84741,0.009999824,0.009998358,0.004249919,0.040000003,0.040000003,0.040000003,0.0025000002,0.0025000002,0.0025000002,0.0025000002,0.0025000002,0.0025000002,1.0,1.0,0.010000001,25
4755000,4603000,0.9999625,-0.008103577,-0.0021062735,-0.0022433114,0.023052491,-0.063343324,-0.015162475,0.0,0.0,-0.0037189065,-3.3229902e-08,-9.7759925e-09,1.2369305e-11,0.0,0.0,0.0,0.0,0.0,0.0,0.0,0.0,0.0,0.0,0.0,0.0962811,0.01238197,0.012381943,0.0010115341,24.457762,24.45776,9.945305,0.60591835,0.60591835,50.894485,0.009999824,0.009998358,0.004249919,0.040000003,0.040000003,0.040000003,0.0025000002,0.0025000002,0.0025000002,0.0025000002,0.0025000002,0.0025000002,1.0,1.0,0.010000001,25
4763000,4611000,0.9999622,-0.00813528,-0.0021658307,-0.0021741816,0.022911318,-0.065019414,-0.014931396,0.0,0.0,-0.003839282,-3.3229902e-08,-9.7759925e-09,1.2369305e-11,0.0,0.0,0.0,0.0,0.0,0.0,0.0,0.0,0.0,0.0,0.0,0.09616072,0.012460709,0.01246068,0.0010449734,24.466328,24.466326,9.945624,0.6547267,0.6547267,50.942837,0.009999824,0.009998358,0.004249919,0.040000003,0.040000003,0.040000003,0.0025000002,0.0025000002,0.0025000002,0.0025000002,0.0025000002,0.0025000002,1.0,1.0,0.010000001,25
4771000,4619000,0.9999623,-0.008109291,-0.0022309786,-0.002187443,0.023049774,-0.06624683,-0.014040738,0.0,0.0,-0.0039551705,-3.3229902e-08,-9.7759925e-09,1.2369305e-11,0.0,0.0,0.0,0.0,0.0,0.0,0.0,0.0,0.0,0.0,0.0,0.09604483,0.012540723,0.012540693,0.0010789562,24.474993,24.47499,9.945948,0.7066737,0.7066737,50.992462,0.009999824,0.009998358,0.004249919,0.040000003,0.040000003,0.040000003,0.0025000002,0.0025000002,0.0025000002,0.0025000002,0.0025000002,0.0025000002,1.0,1.0,0.010000001,25
4787000,4635000,0.99996126,-0.008217959,-0.0022650473,-0.0022156397,0.02463866,-0.07012688,-0.013499722,0.0,0.0,-0.0041689863,-3.3229902e-08,-9.7759925e-09,1.2369305e-11,0.0,0.0,0.0,0.0,0.0,0.0,0.0,0.0,0.0,0.0,0.0,0.095831014,0.012704601,0.012704571,0.0011485538,24.49298,24.492975,9.946614,0.81999004,0.81999004,51.095535,0.009999824,0.009998358,0.004249919,0.040000003,0.040000003,0.040000003,0.0025000002,0.0025000002,0.0025000002,0.0025000002,0.0025000002,0.0025000002,1.0,1.0,0.010000001,25
4795000,4643000,0.99996084,-0.008268116,-0.0022892968,-0.0021985073,0.024705093,-0.0699357,-0.013949916,0.0,0.0,-0.004278785,-3.3229902e-08,-9.7759925e-09,1.2369305e-11,0.0,0.0,0.0,0.0,0.0,0.0,0.0,0.0,0.0,0.0,0.0,0.095721215,0.012788459,0.012788428,0.001184168,24.50232,24.502316,9.946951,0.8813631,0.8813631,51.148983,0.009999824,0.009998358,0.004249919,0.040000003,0.040000003,0.040000003,0.0025000002,0.0025000002,0.0025000002,0.0025000002,0.0025000002,0.0025000002,1.0,1.0,0.010000001,25
4803000,4651000,0.9999611,-0.008247433,-0.0022723703,-0.0021426717,0.025540296,-0.07125234,-0.013370775,0.0,0.0,-0.004388068,-3.3229902e-08,-9.7759925e-09,1.2369305e-11,0.0,0.0,0.0,0.0,0.0,0.0,0.0,0.0,0.0,0.0,0.0,0.09561193,0.0128735965,0.012873566,0.0012203262,24.511719,24.511715,9.947295,0.9458817,0.9458817,51.203705,0.009999824,0.009998358,0.004249919,0.040000003,0.040000003,0.040000003,0.0025000002,0.0025000002,0.0025000002,0.0025000002,0.0025000002,0.0025000002,1.0,1.0,0.010000001,25
4811000,4659000,0.9999609,-0.008259114,-0.0023052224,-0.0021892998,0.024949588,-0.073546074,-0.013347074,0.0,0.0,-0.0044949395,-3.3229902e-08,-9.7759925e-09,1.2369305e-11,0.0,0.0,0.0,0.0,0.0,0.0,0.0,0.0,0.0,0.0,0.0,0.09550506,0.012960009,0.012959978,0.0012570275,24.521364,24.521358,9.947647,1.0135477,1.0135477,51.2597,0.009999824,0.009998358,0.004249919,0.040000003,0.040000003,0.040000003,0.0025000002,0.0025000002,0.0025000002,0.0025000002,0.0025000002,0.0025000002,1.0,1.0,0.010000001,25
4827000,4675000,0.99996126,-0.008229099,-0.0022184534,-0.0021878202,0.024942793,-0.074089386,-0.010645777,0.0,0.0,-0.0046799197,-3.3229902e-08,-9.7759925e-09,1.2369305e-11,0.0,0.0,0.0,0.0,0.0,0.0,0.0,0.0,0.0,0.0,0.0,0.09532008,0.013136685,0.013136651,0.0013320629,24.540869,24.540863,9.948359,1.1583289,1.1583289,51.375515,0.009999824,0.009998358,0.004249919,0.040000003,0.040000003,0.040000003,0.0025000002,0.0025000002,0.0025000002,0.0025000002,0.0025000002,0.0025000002,1.0,1.0,0.010000001,25
4835000,4683000,0.9999624,-0.008142698,-0.0020966611,-0.0021220485,0.025522389,-0.0755759,-0.011506632,0.0,0.0,-0.0047685294,-3.3229902e-08,-9.7759925e-09,1.2369305e-11,0.0,0.0,0.0,0.0,0.0,0.0,0.0,0.0,0.0,0.0,0.0,0.09523147,0.013226937,0.013226903,0.0013703957,24.55117,24.551165,9.948724,1.2354479,1.2354479,51.435333,0.009999824,0.009998358,0.004249919,0.040000003,0.040000003,0.040000003,0.0025000002,0.0025000002,0.0025000002,0.0025000002,0.0025000002,0.0025000002,1.0,1.0,0.010000001,25
4843000,4691000,0.9999629,-0.0080925105,-0.0020437776,-0.0021356228,0.010830775,-0.035538297,-0.01172363,0.0,0.0,-0.0032111504,-1.8137129e-05,-6.386558e-06,-1.2560498e-08,0.0,0.0,0.0,0.0,0.0,0.0,0.0,0.0,0.0,0.0,0.0,0.09513809,0.013246802,0.013246767,0.00058493693,7.843775,7.843771,9.850845,0.21008231,0.21008231,33.99184,0.009996614,0.009994528,0.0017676019,0.040000003,0.040000003,0.040000003,0.0025000002,0.0025000002,0.0025000002,0.0025000002,0.0025000002,0.0025000002,1.0,1.0,0.010000001,25
4851000,4699000,0.9999626,-0.008104647,-0.0020648383,-0.0021775563,0.0102733215,-0.036770508,-0.011309832,0.0,0.0,-0.0033032843,-1.8137129e-05,-6.386558e-06,-1.2560498e-08,0.0,0.0,0.0,0.0,0.0,0.0,0.0,0.0,0.0,0.0,0.0,0.09669672,0.013339379,0.0133393435,0.0006013076,7.848689,7.848685,9.851218,0.22365482,0.22365482,34.03322,0.009996614,0.009994528,0.0017676019,0.040000003,0.040000003,0.040000003,0.0025000002,0.0025000002,0.0025000002,0.0025000002,0.0025000002,0.0025000002,1.0,1.0,0.010000001,25
4867000,4715000,0.9999616,-0.008242762,-0.0019799822,-0.002199292,0.010365355,-0.038902655,-0.011067055,0.0,0.0,-0.0034848007,-1.8137129e-05,-6.386558e-06,-1.2560498e-08,0.0,0.0,0.0,0.0,0.0,0.0,0.0,0.0,0.0,0.0,0.0,0.0965152,0.01352837,0.013528335,0.0006347267,7.8590927,7.8590884,9.851981,0.25382128,0.25382128,34.119755,0.009996614,0.009994528,0.0017676019,0.040000003,0.040000003,0.040000003,0.0025000002,0.0025000002,0.0025000002,0.0025000002,0.0025000002,0.0025000002,1.0,1.0,0.010000001,25
4875000,4723000,0.9999611,-0.008275195,-0.0020529176,-0.0022711942,0.009774774,-0.04097684,-0.0108118355,0.0,0.0,-0.0035723164,-1.8137129e-05,-6.386558e-06,-1.2560498e-08,0.0,0.0,0.0,0.0,0.0,0.0,0.0,0.0,0.0,0.0,0.0,0.09642769,0.013624781,0.0136247445,0.0006517749,7.8645597,7.8645554,9.852371,0.2704172,0.2704172,34.164917,0.009996614,0.009994528,0.0017676019,0.040000003,0.040000003,0.040000003,0.0025000002,0.0025000002,0.0025000002,0.0025000002,0.0025000002,0.0025000002,1.0,1.0,0.010000001,25
4883000,4731000,0.999962,-0.0081675965,-0.0020039708,-0.0023310413,9.31436e-10,-3.7256758e-09,-1.8626451e-09,0.0,0.0,-0.00042659952,-7.715989e-05,-2.0918877e-05,5.824449e-08,1.5458563e-05,-6.260785e-05,-2.7675855e-05,0.0,0.0,0.0,0.0,0.0,0.0,0.0,0.0,0.096341155,0.013562014,0.013562073,0.0006690491,1e-06,1e-06,1e-06,0.12518646,0.1251864,33.33356,0.009981164,0.009979089,0.0017675987,0.039982572,0.03998256,0.039940845,0.0025000002,0.0025000002,0.0025000002,0.0025000002,0.0025000002,0.0025000002,1.0,1.0,0.010000001,25
4891000,4739000,0.9999626,-0.008101032,-0.0019296327,-0.0023506933,0.0004178375,-0.0013927121,0.0006265715,0.0,0.0,-0.00042409325,-7.715989e-05,-2.0918877e-05,5.824449e-08,1.5458563e-05,-6.260785e-05,-2.7675855e-05,0.0,0.0,0.0,0.0,0.0,0.0,0.0,0.0,0.09957591,0.013660192,0.013660251,0.00068654935,9.344733e-05,9.3445815e-05,1.1425393e-05,0.12518646,0.1251864,33.33356,0.009981164,0.009979089,0.0017675987,0.039982572,0.03998256,0.039940845,0.0025000002,0.0025000002,0.0025000002,0.0025000002,0.0025000002,0.0025000002,1.0,1.0,0.010000001,25
4907000,4755000,0.9999642,-0.007936219,-0.0018385301,-0.0023196784,-0.00038866955,-0.002358343,0.0013557076,0.0,0.0,-0.000404542,-7.715989e-05,-2.0918877e-05,5.824449e-08,1.5458563e-05,-6.260785e-05,-2.7675855e-05,0.0,0.0,0.0,0.0,0.0,0.0,0.0,0.0,0.09959546,0.013860379,0.013860439,0.00072222756,0.00079468655,0.00079468,4.7605656e-05,0.12517837,0.1251783,33.33356,0.009981164,0.009979089,0.0017675987,0.039982572,0.03998256,0.039940845,0.0025000002,0.0025000002,0.0025000002,0.0025000002,0.0025000002,0.0025000002,1.0,1.0,0.010000001,25
4915000,4763000,0.99996454,-0.007921458,-0.0017650764,-0.0022653737,9.2028844e-05,-0.0021117367,0.00037593395,0.0,0.0,-0.00039761543,-7.715989e-05,-2.0918877e-05,5.824449e-08,1.5458563e-05,-6.260785e-05,-2.7675855e-05,0.0,0.0,0.0,0.0,0.0,0.0,0.0,0.0,0.09960239,0.013962389,0.0139624495,0.0007404055,0.0014186933,0.0014186847,7.3322335e-05,0.12517034,0.12517028,33.33356,0.009981164,0.009979089,0.0017675987,0.039982572,0.03998256,0.039940845,0.0025000002,0.0025000002,0.0025000002,0.0025000002,0.0025000002,0.0025000002,1.0,1.0,0.010000001,25
4923000,4771000,0.9999652,-0.007849167,-0.0017213963,-0.0022549408,0.0010539356,-0.0020820228,0.00011496991,0.0,0.0,-0.00039565182,-7.715989e-05,-2.0918877e-05,5.824449e-08,1.5458563e-05,-6.260785e-05,-2.7675855e-05,0.0,0.0,0.0,0.0,0.0,0.0,0.0,0.0,0.09960435,0.014065673,0.014065734,0.0007588094,0.002217826,0.0022178146,0.00010418377,0.12515973,0.12515967,33.33356,0.009981164,0.009979089,0.0017675987,0.039982572,0.03998256,0.039940845,0.0025000002,0.0025000002,0.0025000002,0.0025000002,0.0025000002,0.0025000002,1.0,1.0,0.010000001,25
4931000,4779000,0.99996513,-0.007852742,-0.0016175462,-0.0023367244,0.00066634,-0.0026503056,-0.0014437139,0.0,0.0,-0.0004009668,-7.715989e-05,-2.0918877e-05,5.824449e-08,1.5458563e-05,-6.260785e-05,-2.7675855e-05,0.0,0.0,0.0,0.0,0.0,0.0,0.0,0.0,0.09959903,0.014170234,0.0141702965,0.0007774392,0.0032156734,0.0032156562,0.00014017045,0.12514669,0.12514663,33.33356,0.009981164,0.009979089,0.0017675987,0.039982572,0.03998256,0.039940845,0.0025000002,0.0025000002,0.0025000002,0.0025000002,0.0025000002,0.0025000002,1.0,1.0,0.010000001,25
4947000,4795000,0.99996656,-0.0076931273,-0.0015022199,-0.0023432453,-0.0005113522,-0.0066903746,-0.00048409402,0.0,0.0,-0.0004240776,-7.715989e-05,-2.0918877e-05,5.824449e-08,1.5458563e-05,-6.260785e-05,-2.7675855e-05,0.0,0.0,0.0,0.0,0.0,0.0,0.0,0.0,0.09957592,0.014383189,0.014383252,0.0008153765,0.0057095555,0.0057095033,0.00022795955,0.12511392,0.12511386,33.33356,0.009981164,0.009979089,0.0017675987,0.039982572,0.03998256,0.039940845,0.0025000002,0.0025000002,0.0025000002,0.0025000002,0.0025000002,0.0025000002,1.0,1.0,0.010000001,25
4955000,4803000,0.99996674,-0.007669224,-0.001448025,-0.0023643998,-0.0018798031,-0.009290114,-0.000117488205,0.0,0.0,-0.00042648392,-7.715989e-05,-2.0918877e-05,5.824449e-08,1.5458563e-05,-6.260785e-05,-2.7675855e-05,0.0,0.0,0.0,0.0,0.0,0.0,0.0,0.0,0.099573515,0.014491587,0.014491649,0.00083468435,0.007234068,0.0072339843,0.0002798952,0.12509471,0.12509465,33.33356,0.009981164,0.009979089,0.0017675987,0.039982572,0.03998256,0.039940845,0.0025000002,0.0025000002,0.0025000002,0.0025000002,0.0025000002,0.0025000002,1.0,1.0,0.010000001,25
4963000,4811000,0.9999671,-0.0076407273,-0.001437542,-0.0023191655,-0.00501365,-0.011536602,0.0012779683,0.0,0.0,-0.000421842,-7.715989e-05,-2.0918877e-05,5.824449e-08,1.5458563e-05,-6.260785e-05,-2.7675855e-05,0.0,0.0,0.0,0.0,0.0,0.0,0.0,0.0,0.09957816,0.014601259,0.014601321,0.0008542179,0.008922261,0.00892216,0.00033728336,0.12507395,0.1250739,33.33356,0.009981164,0.009979089,0.0017675987,0.039982572,0.03998256,0.039940845,0.0025000002,0.0025000002,0.0025000002,0.0025000002,0.0025000002,0.0025000002,1.0,1.0,0.010000001,25
4971000,4819000,0.999968,-0.007547778,-0.001415388,-0.0022606114,-0.007621357,-0.012205269,0.0017553046,0.0,0.0,-0.0004097089,-7.715989e-05,-2.0918877e-05,5.824449e-08,1.5458563e-05,-6.260785e-05,-2.7675855e-05,0.0,0.0,0.0,0.0,0.0,0.0,0.0,0.0,0.099590294,0.014712208,0.01471227,0.00087397743,0.0108169615,0.010816875,0.00039951058,0.12505198,0.12505192,33.33356,0.009981164,0.009979089,0.0017675987,0.039982572,0.03998256,0.039940845,0.0025000002,0.0025000002,0.0025000002,0.0025000002,0.0025000002,0.0025000002,1.0,1.0,0.010000001,25
4987000,4835000,0.9999687,-0.007489439,-0.0014626133,-0.002099317,-0.006040165,-0.014656437,0.00045210868,0.0,0.0,-0.0003942848,-7.715989e-05,-2.0918877e-05,5.824449e-08,1.5458563e-05,-6.260785e-05,-2.7675855e-05,0.0,0.0,0.0,0.0,0.0,0.0,0.0,0.0,0.09960572,0.0149379475,0.01493801,0.00091417466,0.015245218,0.015245045,0.0005385427,0.12500563,0.12500557,33.333546,0.009981164,0.009979089,0.0017675987,0.039982572,0.03998256,0.039940845,0.0025000002,0.0025000002,0.0025000002,0.0025000002,0.0025000002,0.0025000002,1.0,1.0,0.010000001,25
4995000,4843000,0.9999687,-0.007508373,-0.0014492165,-0.0020339296,-0.0063345744,-0.016483689,0.00035959482,0.0,0.0,-0.000391038,-7.715989e-05,-2.0918877e-05,5.824449e-08,1.5458563e-05,-6.260785e-05,-2.7675855e-05,0.0,0.0,0.0,0.0,0.0,0.0,0.0,0.0,0.099608965,0.015052734,0.015052796,0.0009346121,0.017739894,0.01773967,0.00061628787,0.12498204,0.12498198,33.333538,0.009981164,0.009979089,0.0017675987,0.039982572,0.03998256,0.039940845,0.0025000002,0.0025000002,0.0025000002,0.0025000002,0.0025000002,0.0025000002,1.0,1.0,0.010000001,25
5003000,4851000,0.9999687,-0.007512027,-0.0015329475,-0.0019890969,-0.0065728007,-0.018223386,-0.0001842305,0.0,0.0,-0.00039033653,-7.715989e-05,-2.0918877e-05,5.824449e-08,1.5458563e-05,-6.260785e-05,-2.7675855e-05,0.0,0.0,0.0,0.0,0.0,0.0,0.0,0.0,0.099609666,0.015168794,0.015168857,0.00095527526,0.020449184,0.020448906,0.00069919723,0.124958776,0.12495872,33.33353,0.009981164,0.009979089,0.0017675987,0.039982572,0.03998256,0.039940845,0.0025000002,0.0025000002,0.0025000002,0.0025000002,0.0025000002,0.0025000002,1.0,1.0,0.010000001,25
5011000,4859000,0.99996835,-0.0075326916,-0.0016318657,-0.0019851895,-0.005900767,-0.02016907,-0.0013016686,0.0,0.0,-0.0003962801,-7.715989e-05,-2.0918877e-05,5.824449e-08,1.5458563e-05,-6.260785e-05,-2.7675855e-05,0.0,0.0,0.0,0.0,0.0,0.0,0.0,0.0,0.09960372,0.0152861355,0.015286199,0.0009761646,0.023383122,0.023382764,0.0007872677,0.12493632,0.12493626,33.333523,0.009981164,0.009979089,0.0017675987,0.039982572,0.03998256,0.039940845,0.0025000002,0.0025000002,0.0025000002,0.0025000002,0.0025000002,0.0025000002,1.0,1.0,0.010000001,25
5027000,4875000,0.99996877,-0.0074883904,-0.0016017437,-0.0019565767,-0.0052315933,-0.025011525,-0.0014411956,0.0,0.0,-0.00041746692,-7.715989e-05,-2.0918877e-05,5.824449e-08,1.5458563e-05,-6.260785e-05,-2.7675855e-05,0.0,0.0,0.0,0.0,0.0,0.0,0.0,0.0,0.09958254,0.015524651,0.015524715,0.0010186214,0.029790496,0.029789926,0.0009799441,0.124896035,0.124895975,33.333508,0.009981164,0.009979089,0.0017675987,0.039982572,0.03998256,0.039940845,0.0025000002,0.0025000002,0.0025000002,0.0025000002,0.0025000002,0.0025000002,1.0,1.0,0.010000001,25
5035000,4883000,0.99996805,-0.007586785,-0.0014919192,-0.0020513008,-0.0055311876,-0.026835576,-0.0015194342,0.0,0.0,-0.00042930944,-7.715989e-05,-2.0918877e-05,5.824449e-08,1.5458563e-05,-6.260785e-05,-2.7675855e-05,0.0,0.0,0.0,0.0,0.0,0.0,0.0,0.0,0.09957069,0.01564582,0.015645884,0.0010401885,0.033304937,0.03330428,0.0010838265,0.1248794,0.12487934,33.3335,0.009981164,0.009979089,0.0017675987,0.039982572,0.03998256,0.039940845,0.0025000002,0.0025000002,0.0025000002,0.0025000002,0.0025000002,0.0025000002,1.0,1.0,0.010000001,25
5043000,4891000,0.9999678,-0.007616712,-0.0014525698,-0.002079342,-0.0069460915,-0.027088232,0.0003483668,0.0,0.0,-0.0004339937,-7.715989e-05,-2.0918877e-05,5.824449e-08,1.5458563e-05,-6.260785e-05,-2.7675855e-05,0.0,0.0,0.0,0.0,0.0,0.0,0.0,0.0,0.099566005,0.01576827,0.015768332,0.0010619817,0.036937214,0.036936563,0.0011918225,0.12486596,0.1248659,33.333492,0.009981164,0.009979089,0.0017675987,0.039982572,0.03998256,0.039940845,0.0025000002,0.0025000002,0.0025000002,0.0025000002,0.0025000002,0.0025000002,1.0,1.0,0.010000001,25
5051000,4899000,0.99996835,-0.007555435,-0.001358095,-0.0021177942,0.0,0.0,0.0018183055,0.0,0.0,-0.0003197287,-7.716002e-05,-2.0918926e-05,5.8244282e-08,1.5458601e-05,-6.260797e-05,-2.766828e-05,0.0,0.0,0.0,0.0,0.0,0.0,0.0,0.0,0.09957468,0.015891988,0.015892055,0.0005201537,25.0,25.0,0.0013054636,100.0,100.0,25.000084,0.00998116,0.009978889,0.0008508846,0.039982572,0.03998256,0.0399408,0.0025000002,0.0025000002,0.0025000002,0.0025000002,0.0025000002,0.0025000002,1.0,1.0,0.010000001,25
5067000,4915000,0.9999435,-0.0096615935,-0.003930333,-0.0020751306,0.0018834276,-0.0017534487,0.0038955056,0.0,0.0,-0.00029832864,0.0050463076,0.006675302,-0.00043820616,3.009665e-05,-7.37928e-05,-2.7403124e-05,0.0,0.0,0.0,0.0,0.0,0.0,0.0,0.0,0.09972319,0.00997949,0.009979496,0.00011469485,25.000265,25.000265,0.0015424569,100.0064,100.0064,25.000076,0.00022003884,0.00022002829,0.00017783864,0.039982524,0.039982513,0.0399408,0.0025000002,0.0025000002,0.0025000002,0.0025000002,0.0025000002,0.0025000002,1.0,1.0,0.010000001,25
5075000,4923000,0.9999427,-0.0097496975,-0.0038756982,-0.002111004,0.002636877,-0.0013719237,0.004456423,0.0,0.0,-0.00026492093,0.0050463076,0.006675302,-0.00043820616,3.009665e-05,-7.37928e-05,-2.7403124e-05,0.0,0.0,0.0,0.0,0.0,0.0,0.0,0.0,0.09973508,0.009982318,0.009982322,0.000116991294,25.000587,25.000587,0.0016700982,100.0144,100.0144,25.000072,0.0002200389,0.00022002835,0.0001778387,0.039982524,0.039982513,0.0399408,0.0025000002,0.0025000002,0.0025000002,0.0025000002,0.0025000002,0.0025000002,1.0,1.0,0.010000001,25
5083000,4931000,0.9999417,-0.009823652,-0.0039409935,-0.002152043,0.0043849396,-0.002049103,0.005160548,0.0,0.0,-0.00022645305,0.0050463076,0.006675302,-0.00043820616,3.009665e-05,-7.37928e-05,-2.7403124e-05,0.0,0.0,0.0,0.0,0.0,0.0,0.0,0.0,0.09977355,0.009985172,0.009985176,0.00011931047,25.001036,25.001036,0.0018033609,100.0256,100.0256,25.000069,0.00022003896,0.0002200284,0.00017783875,0.039982524,0.039982513,0.0399408,0.0025000002,0.0025000002,0.0025000002,0.0025000002,0.0025000002,0.0025000002,1.0,1.0,0.010000001,25
5091000,4939000,0.9999442,-0.009484033,-0.0040847855,-0.00225901,4.676778e-10,-2.2250896e-10,2.2328459e-06,0.0,0.0,0.00047258247,0.005035878,0.006677094,-0.00043812508,0.00010058499,-0.0003634903,0.018510079,0.0,0.0,0.0,0.0,0.0,0.0,0.0,0.0,0.09981154,0.0099415835,0.009985826,0.00012165243,1e-06,1e-06,1e-06,100.0,100.0,25.00002,0.0002200276,0.00022002794,0.00017783881,0.039981913,0.03997375,0.0044307895,0.0025000002,0.0025000002,0.0025000002,0.0025000002,0.0025000002,0.0025000002,1.0,1.0,0.010000001,25
5107000,4955000,0.9999434,-0.009504632,-0.0041401377,-0.0024132647,0.0011986909,-0.0026528714,-0.0016466454,0.0,0.0,0.0004557977,0.005035878,0.006677094,-0.00043812508,0.00010058499,-0.0003634903,0.018510079,0.0,0.0,0.0,0.0,0.0,0.0,0.0,0.0,0.1004558,0.009947414,0.009991677,0.0001264046,0.00027765348,0.00027656724,1.7934493e-05,100.0,100.0,25.00002,0.00022002772,0.00022002806,0.00017783893,0.039981913,0.03997375,0.0044307904,0.0025000002,0.0025000002,0.0025000002,0.0025000002,0.0025000002,0.0025000002,1.0,1.0,0.010000001,25
5115000,4963000,0.99994266,-0.009551059,-0.004216791,-0.002412038,0.0017274396,-0.00501799,-0.00276801,0.0,0.0,0.00043813908,0.005035878,0.006677094,-0.00043812508,0.00010058499,-0.0003634903,0.018510079,0.0,0.0,0.0,0.0,0.0,0.0,0.0,0.0,0.10043814,0.0099503705,0.009994645,0.00012881482,0.00061320554,0.0006107544,2.7265041e-05,100.0,100.0,25.00002,0.00022002778,0.00022002812,0.00017783899,0.039981913,0.03997375,0.004430791,0.0025000002,0.0025000002,0.0025000002,0.0025000002,0.0025000002,0.0025000002,1.0,1.0,0.010000001,25
5123000,4971000,0.9999414,-0.009581494,-0.0043877643,-0.0024668388,0.0016212356,-0.007837888,-0.0025593862,0.0,0.0,0.00041682948,0.005035878,0.006677094,-0.00043812508,0.00010058499,-0.0003634903,0.018510079,0.0,0.0,0.0,0.0,0.0,0.0,0.0,0.0,0.10041683,0.009953355,0.009997642,0.0001312478,0.0010718957,0.0010675677,3.718237e-05,100.0,100.0,25.00002,0.00022002784,0.00022002817,0.00017783904,0.039981913,0.03997375,0.0044307914,0.0025000002,0.0025000002,0.0025000002,0.0025000002,0.0025000002,0.0025000002,1.0,1.0,0.010000001,25
5131000,4979000,0.9999409,-0.009576771,-0.004515466,-0.0024989932,0.0023664746,-0.010436953,-0.0031378642,0.0,0.0,0.0003940405,0.005035878,0.006677094,-0.00043812508,0.00010058499,-0.0003634903,0.018510079,0.0,0.0,0.0,0.0,0.0,0.0,0.0,0.0,0.10039404,0.0099563645,0.010000663,0.0001337035,0.0016642167,0.0016574563,4.773318e-05,100.0,100.0,25.00002,0.0002200279,0.00022002823,0.0001778391,0.039981913,0.03997375,0.004430792,0.0025000002,0.0025000002,0.0025000002,0.0025000002,0.0025000002,0.0025000002,1.0,1.0,0.010000001,25
5147000,4995000,0.9999418,-0.009472998,-0.004501424,-0.002547354,0.0036241235,-0.01424575,-0.0025133193,0.0,0.0,0.00034159832,0.005035878,0.006677094,-0.00043812508,0.00010058499,-0.0003634903,0.018510079,0.0,0.0,0.0,0.0,0.0,0.0,0.0,0.0,0.1003416,0.009962476,0.010006797,0.00013868332,0.0032190792,0.0032059217,7.0435024e-05,100.0,100.0,25.00002,0.00022002801,0.00022002835,0.00017783922,0.039981913,0.03997375,0.0044307928,0.0025000002,0.0025000002,0.0025000002,0.0025000002,0.0025000002,0.0025000002,1.0,1.0,0.010000001,25
5155000,5003000,0.9999416,-0.009503186,-0.0044823037,-0.0025533761,0.004062767,-0.017149085,-0.0015611276,0.0,0.0,0.00032530053,0.005035878,0.006677094,-0.00043812508,0.00010058499,-0.0003634903,0.018510079,0.0,0.0,0.0,0.0,0.0,0.0,0.0,0.0,0.1003253,0.009965573,0.010009905,0.00014120736,0.0041793324,0.004162213,8.2790924e-05,100.0,100.0,25.00002,0.00022002807,0.0002200284,0.00017783928,0.039981913,0.03997375,0.004430793,0.0025000002,0.0025000002,0.0025000002,0.0025000002,0.0025000002,0.0025000002,1.0,1.0,0.010000001,25
5163000,5011000,0.9999409,-0.009541914,-0.0044760276,-0.0026807582,0.004435375,-0.020029258,0.00044855475,0.0,0.0,0.00032085023,0.005035878,0.006677094,-0.00043812508,0.00010058499,-0.0003634903,0.018510079,0.0,0.0,0.0,0.0,0.0,0.0,0.0,0.0,0.10032085,0.009968699,0.010013043,0.00014375417,0.0052499827,0.005228446,9.575558e-05,100.0,100.0,25.00002,0.00022002813,0.00022002847,0.00017783933,0.039981913,0.03997375,0.0044307937,0.0025000002,0.0025000002,0.0025000002,0.0025000002,0.0025000002,0.0025000002,1.0,1.0,0.010000001,25
5171000,5019000,0.9999394,-0.009678677,-0.004499879,-0.0026996285,0.0043325187,-0.023019629,0.00015739352,0.0,0.0,0.00032327403,0.005035878,0.006677094,-0.00043812508,0.00010058499,-0.0003634903,0.018510079,0.0,0.0,0.0,0.0,0.0,0.0,0.0,0.0,0.100323275,0.0099718515,0.010016208,0.0001463237,0.006478805,0.0064521856,0.0001093011,100.0,100.0,25.00002,0.00022002819,0.00022002852,0.00017783939,0.039981913,0.03997375,0.004430794,0.0025000002,0.0025000002,0.0025000002,0.0025000002,0.0025000002,0.0025000002,1.0,1.0,0.010000001,25
5187000,5035000,0.999939,-0.009745114,-0.0044740103,-0.0026716345,0.006772072,-0.027606115,-0.0012565106,0.0,0.0,0.0003140792,0.005035878,0.006677094,-0.00043812508,0.00010058499,-0.0003634903,0.018510079,0.0,0.0,0.0,0.0,0.0,0.0,0.0,0.0,0.10031408,0.009978242,0.0100226225,0.00015153107,0.009340156,0.009301713,0.00013822908,100.0,100.0,25.00002,0.0002200283,0.00022002864,0.00017783951,0.039981913,0.03997375,0.004430795,0.0025000002,0.0025000002,0.0025000002,0.0025000002,0.0025000002,0.0025000002,1.0,1.0,0.010000001,25
5195000,5043000,0.9999387,-0.009752092,-0.004521955,-0.0026662485,0.008134384,-0.029818395,-0.00064884126,0.0,0.0,0.00030645778,0.005035878,0.006677094,-0.00043812508,0.00010058499,-0.0003634903,0.018510079,0.0,0.0,0.0,0.0,0.0,0.0,0.0,0.0,0.10030646,0.009981484,0.010025877,0.00015416896,0.0109400805,0.0108950315,0.00015362048,100.0,100.0,25.00002,0.00022002836,0.0002200287,0.00017783957,0.039981913,0.03997375,0.0044307956,0.0025000002,0.0025000002,0.0025000002,0.0025000002,0.0025000002,0.0025000002,1.0,1.0,0.010000001,25
5203000,5051000,0.9999396,-0.009671635,-0.0045028273,-0.0026408865,0.011377712,-0.03025011,0.0008701086,0.0,0.0,0.00030734285,0.005035878,0.006677094,-0.00043812508,0.00010058499,-0.0003634903,0.018510079,0.0,0.0,0.0,0.0,0.0,0.0,0.0,0.0,0.100307345,0.009984751,0.010029155,0.00015682956,0.01264664,0.012594572,0.00016953803,100.00001,100.00001,25.00002,0.00022002842,0.00022002876,0.00017783963,0.039981913,0.03997375,0.004430796,0.0025000002,0.0025000002,0.0025000002,0.0025000002,0.0025000002,0.0025000002,1.0,1.0,0.010000001,25
5211000,5059000,0.99993986,-0.00963654,-0.004539626,-0.0026279672,0.01291907,-0.03141501,0.00039569288,0.0,0.0,0.00031240605,0.005035878,0.006677094,-0.00043812508,0.00010058499,-0.0003634903,0.018510079,0.0,0.0,0.0,0.0,0.0,0.0,0.0,0.0,0.100312404,0.009988044,0.010032459,0.00015951289,0.014524034,0.014464217,0.00018590121,100.00002,100.00002,25.00002,0.00022002848,0.00022002881,0.00017783968,0.039981913,0.03997375,0.0044307965,0.0025000002,0.0025000002,0.0025000002,0.0025000002,0.0025000002,0.0025000002,1.0,1.0,0.010000001,25
5227000,5075000,0.99993825,-0.009746431,-0.0047094966,-0.0025269066,0.015487084,-0.036309283,0.0009243712,0.0,0.0,0.0003210817,0.005035878,0.006677094,-0.00043812508,0.00010058499,-0.0003634903,0.018510079,0.0,0.0,0.0,0.0,0.0,0.0,0.0,0.0,0.100321084,0.009994716,0.0100391535,0.0001649479,0.018630099,0.01855331,0.00022113002,100.00005,100.00005,25.00002,0.0002200286,0.00022002893,0.0001778398,0.039981913,0.03997375,0.0044307974,0.0025000002,0.0025000002,0.0025000002,0.0025000002,0.0025000002,0.0025000002,1.0,1.0,0.010000001,25
5235000,5083000,0.99993753,-0.009803229,-0.004679134,-0.0026434346,0.016450487,-0.0375752,-0.00026210397,0.0,0.0,0.00032373075,0.005035878,0.006677094,-0.00043812508,0.00010058499,-0.0003634903,0.018510079,0.0,0.0,0.0,0.0,0.0,0.0,0.0,0.0,0.10032373,0.009998094,0.010042543,0.00016769953,0.020916114,0.020829882,0.00023910095,100.00007,100.00007,25.00002,0.00022002865,0.00022002899,0.00017783986,0.039981913,0.03997375,0.004430798,0.0025000002,0.0025000002,0.0025000002,0.0025000002,0.0025000002,0.0025000002,1.0,1.0,0.010000001,25
5243000,5091000,0.99993664,-0.00986665,-0.004690581,-0.0027340148,0.01672939,-0.037360165,-0.0010244548,0.0,0.0,0.00031858453,0.005035878,0.006677094,-0.00043812508,0.00010058499,-0.0003634903,0.018510079,0.0,0.0,0.0,0.0,0.0,0.0,0.0,0.0,0.10031859,0.0100015,0.010045961,0.00017047393,0.023322094,0.023225943,0.00025680914,100.00009,100.00009,25.00002,0.00022002871,0.00022002905,0.00017783992,0.039981913,0.03997375,0.0044307983,0.0025000002,0.0025000002,0.0025000002,0.0025000002,0.0025000002,0.0025000002,1.0,1.0,0.010000001,25
5251000,5099000,0.99993557,-0.009946574,-0.004701459,-0.0028257433,0.018297734,-0.03895542,0.00033967197,0.0,0.0,0.0003158454,0.005035878,0.006677094,-0.00043812508,0.00010058499,-0.0003634903,0.018510079,0.0,0.0,0.0,0.0,0.0,0.0,0.0,0.0,0.10031585,0.010004936,0.010049408,0.00017327111,0.025792565,0.025686234,0.00027628243,100.00012,100.00012,25.00002,0.00022002877,0.0002200291,0.00017783997,0.039981913,0.03997375,0.004430799,0.0025000002,0.0025000002,0.0025000002,0.0025000002,0.0025000002,0.0025000002,1.0,1.0,0.010000001,25
5267000,5115000,0.9999607,-0.008269741,-0.002875458,-0.0013645629,0.013017592,-0.035790432,0.00024402153,0.0,0.0,0.0002504544,0.0014276175,0.0029224413,-0.0033283231,9.129628e-05,-0.00035140288,0.018243492,0.0,0.0,0.0,0.0,0.0,0.0,0.0,0.0,0.10025834,0.009904958,0.009948775,9.165262e-05,0.030936431,0.030809708,0.00031543235,0.00010180404,0.00010179666,20.000011,0.00011124304,0.00011124057,9.053422e-05,0.03998191,0.039973747,0.004429876,0.0025000002,0.0025000002,0.0025000002,0.0025000002,0.0025000002,0.0025000002,1.0,1.0,0.010000001,25
5275000,5123000,0.9999602,-0.008294153,-0.0029864411,-0.0013951404,0.014485626,-0.03711388,-0.00041511655,0.0,0.0,0.00024977003,0.0014276175,0.0029224413,-0.0033283231,9.129628e-05,-0.00035140288,0.018243492,0.0,0.0,0.0,0.0,0.0,0.0,0.0,0.0,0.100249775,0.009906744,0.009950566,9.311589e-05,0.033831395,0.033692654,0.00033647276,0.00010756347,0.00010753249,20.000011,0.000111243105,0.00011124064,9.053428e-05,0.03998191,0.039973747,0.0044298763,0.0025000002,0.0025000002,0.0025000002,0.0025000002,0.0025000002,0.0025000002,1.0,1.0,0.010000001,25
5283000,5131000,0.99996006,-0.008316631,-0.0030065246,-0.0013188742,0.015802113,-0.03764618,-0.00082000345,0.0,0.0,0.00024482954,0.0014276175,0.0029224413,-0.0033283231,9.129628e-05,-0.00035140288,0.018243492,0.0,0.0,0.0,0.0,0.0,0.0,0.0,0.0,0.10024483,0.009908544,0.009952371,9.459074e-05,0.036846552,0.036695298,0.0003577454,0.00011782108,0.000117748044,20.000011,0.00011124317,0.000111240704,9.053435e-05,0.03998191,0.039973747,0.004429877,0.0025000002,0.0025000002,0.0025000002,0.0025000002,0.0025000002,0.0025000002,1.0,1.0,0.010000001,25
5291000,5139000,0.9999593,-0.008409815,-0.0030242042,-0.0012854518,0.01602751,-0.03906971,-0.0012596622,0.0,0.0,0.00023651088,0.0014276175,0.0029224413,-0.0033283231,9.129628e-05,-0.00035140288,0.018243492,0.0,0.0,0.0,0.0,0.0,0.0,0.0,0.0,0.10023651,0.009910361,0.009954192,9.60772e-05,0.039992034,0.039827716,0.00037934695,0.0001331424,0.0001330065,20.000011,0.00011124324,0.00011124077,9.053441e-05,0.03998191,0.039973747,0.0044298773,0.0025000002,0.0025000002,0.0025000002,0.0025000002,0.0025000002,0.0025000002,1.0,1.0,0.010000001,25
5307000,5155000,0.99999857,0.0009608521,0.0005602052,-0.0012987928,-0.0012941124,-7.7423094e-05,-0.001271799,0.0,0.0,0.00017915893,0.0012361914,0.0028487337,-0.0033286654,0.0034171161,-0.008226796,0.010186635,0.0,0.0,0.0,0.0,0.0,0.0,0.0,0.0,0.10017916,0.00044646295,0.00044655977,9.90841e-05,9.239515e-06,9.239693e-06,9.274765e-06,0.00010002515,0.000100025136,20.000011,0.00011023966,0.00011023525,9.053453e-05,0.038410503,0.03841789,0.0022370662,0.0025000002,0.0025000002,0.0025000002,0.0025000002,0.0025000002,0.0025000002,1.0,1.0,0.010000001,25
5315000,5163000,0.9999986,0.0008525396,0.00077773846,-0.0012745452,-0.00025012562,0.0005973828,-0.0011142758,0.0,0.0,0.00016962369,0.001236349,0.0028484925,-0.003328701,0.00336531,-0.008260646,0.010186823,0.0,0.0,0.0,0.0,0.0,0.0,0.0,0.0,0.10016963,0.0004465616,0.00044665797,0.00010060499,1.8101686e-05,1.8100282e-05,1.7589335e-05,0.00010002644,0.000100026424,20.000011,0.0001102394,0.000110234985,9.053459e-05,0.03839531,0.038402695,0.0022370666,0.0025000002,0.0025000002,0.0025000002,0.0025000002,0.0025000002,0.0025000002,1.0,1.0,0.010000001,25
5323000,5171000,0.9999985,0.00079622725,0.00085633097,-0.0012744215,0.0016005518,0.0012753013,-0.0016767912,0.0,0.0,0.00015847341,0.0012365142,0.002848048,-0.0033287576,0.00336531,-0.008260646,0.010186823,0.0,0.0,0.0,0.0,0.0,0.0,0.0,0.0,0.100158475,0.00044667438,0.0004467703,0.00010213752,2.7610766e-05,2.7606357e-05,2.6193695e-05,0.00010002953,0.000100029516,20.000011,0.0001102391,0.00011023469,9.0534646e-05,0.03839531,0.038402695,0.002237067,0.0025000002,0.0025000002,0.0025000002,0.0025000002,0.0025000002,0.0025000002,1.0,1.0,0.010000001,25
5331000,5179000,0.9999985,0.00073247735,0.0008472698,-0.0013121982,0.00068819145,0.003045699,-0.0027550377,0.0,0.0,0.00014074727,0.0012369566,0.0028482783,-0.0033287546,0.00336531,-0.008260646,0.010186823,0.0,0.0,0.0,0.0,0.0,0.0,0.0,0.0,0.10014075,0.00044680078,0.00044689627,0.0001036816,3.77848e-05,3.777482e-05,3.508354e-05,0.00010003568,0.000100035664,20.000011,0.00011023877,0.00011023436,9.0534704e-05,0.03839531,0.038402695,0.0022370676,0.0025000002,0.0025000002,0.0025000002,0.0025000002,0.0025000002,0.0025000002,1.0,1.0,0.010000001,25
5347000,5195000,0.9999981,0.00078940525,0.0009784545,-0.0015028444,0.00066242943,0.00053099386,-0.0034873097,0.0,0.0,8.618878e-05,0.0012362679,0.0028482666,-0.0033287245,0.00336531,-0.008260646,0.010186823,0.0,0.0,0.0,0.0,0.0,0.0,0.0,0.0,0.10008619,0.00044709508,0.0004471897,0.00010680453,6.003675e-05,6.0024115e-05,5.3714306e-05,0.00010006285,0.000100062825,20.000011,0.000110238,0.000110233595,9.053482e-05,0.03839531,0.038402695,0.0022370685,0.0025000002,0.0025000002,0.0025000002,0.0025000002,0.0025000002,0.0025000002,1.0,1.0,0.010000001,25
5355000,5203000,0.999998,0.00081711845,0.00097017305,-0.00156253,0.0011888738,-0.0004896875,-0.0035812967,0.0,0.0,5.7913832e-05,0.0012359755,0.0028481144,-0.0033287264,0.00336531,-0.008260646,0.010186823,0.0,0.0,0.0,0.0,0.0,0.0,0.0,0.0,0.100057915,0.00044726298,0.00044735713,0.00010838338,7.213599e-05,7.212089e-05,6.346258e-05,0.000100087,0.00010008698,20.000011,0.00011023755,0.00011023315,9.053488e-05,0.03839531,0.038402695,0.002237069,0.0025000002,0.0025000002,0.0025000002,0.0025000002,0.0025000002,0.0025000002,1.0,1.0,0.010000001,25
5363000,5211000,0.99999785,0.00078194885,0.0010059403,-0.0016247892,0.00068765803,-0.0012879014,-0.00401764,0.0,0.0,2.7512437e-05,0.001235738,0.002848262,-0.0033287038,0.00336531,-0.008260646,0.010186823,0.0,0.0,0.0,0.0,0.0,0.0,0.0,0.0,0.10002752,0.00044744468,0.00044753833,0.00010997381,8.49231e-05,8.490566e-05,7.349524e-05,0.00010012051,0.00010012048,20.000011,0.00011023707,0.00011023267,9.053494e-05,0.03839531,0.038402695,0.0022370694,0.0025000002,0.0025000002,0.0025000002,0.0025000002,0.0025000002,0.0025000002,1.0,1.0,0.010000001,25
5371000,5219000,0.999998,0.00078399497,0.0009932392,-0.0015619635,-0.00087933935,-0.0012902621,-0.004393153,0.0,0.0,-6.139311e-06,0.0012357355,0.0028487442,-0.0033286626,0.00336531,-0.008260646,0.010186823,0.0,0.0,0.0,0.0,0.0,0.0,0.0,0.0,0.09999386,0.00044764005,0.0004477333,0.00011157582,9.838518e-05,9.836493e-05,8.3811625e-05,0.00010016526,0.00010016522,20.000011,0.00011023655,0.00011023215,9.0534995e-05,0.03839531,0.038402695,0.00223707,0.0025000002,0.0025000002,0.0025000002,0.0025000002,0.0025000002,0.0025000002,1.0,1.0,0.010000001,25
5387000,5235000,0.9999979,0.0007492863,0.0011114504,-0.0015740863,-0.00038717967,-0.0013019581,-0.00715789,0.0,0.0,-9.967401e-05,0.0012357337,0.002848585,-0.0033286752,0.00336531,-0.008260646,0.010186823,0.0,0.0,0.0,0.0,0.0,0.0,0.0,0.0,0.09990033,0.00044807204,0.00044816447,0.00011481463,0.00012756015,0.00012752738,0.000105310886,0.00010029673,0.00010029665,20.000011,0.00011023537,0.00011023097,9.053511e-05,0.03839531,0.038402695,0.0022370708,0.0025000002,0.0025000002,0.0025000002,0.0025000002,0.0025000002,0.0025000002,1.0,1.0,0.010000001,25
5395000,5243000,0.9999979,0.00062042003,0.0011591928,-0.001550475,-0.0006300521,-0.00021316236,-0.0069694566,0.0,0.0,-0.00015618041,0.0012361075,0.00284867,-0.0033286815,0.00336531,-0.008260646,0.010186823,0.0,0.0,0.0,0.0,0.0,0.0,0.0,0.0,0.09984382,0.0004483087,0.00044840077,0.00011645145,0.00014306385,0.0001430209,0.00011648871,0.00010038792,0.00010038782,20.000011,0.000110234716,0.000110230314,9.053517e-05,0.03839531,0.038402695,0.0022370713,0.0025000002,0.0025000002,0.0025000002,0.0025000002,0.0025000002,0.0025000002,1.0,1.0,0.010000001,25
5403000,5251000,0.99999815,0.00060321216,0.0011805113,-0.0014087723,-0.0014578446,0.0013511686,-0.006841508,0.0,0.0,-0.00021142224,0.001236661,0.0028489653,-0.0033286777,0.00336531,-0.008260646,0.010186823,0.0,0.0,0.0,0.0,0.0,0.0,0.0,0.0,0.09978858,0.00044855897,0.00044865062,0.00011809983,0.00015927764,0.00015922231,0.00012795332,0.00010049924,0.000100499106,20.000011,0.00011023401,0.00011022961,9.053523e-05,0.03839531,0.038402695,0.0022370717,0.0025000002,0.0025000002,0.0025000002,0.0025000002,0.0025000002,0.0025000002,1.0,1.0,0.010000001,25
5411000,5259000,0.99999833,0.0006249286,0.0011578416,-0.0012751175,-0.0008894571,0.0011962685,-0.0072217,0.0,0.0,-0.0002676729,0.0012366055,0.0028487588,-0.0033286908,0.00336531,-0.008260646,0.010186823,0.0,0.0,0.0,0.0,0.0,0.0,0.0,0.0,0.09973233,0.0004488229,0.00044891416,0.0001197598,0.0001762552,0.00017619091,0.00013970604,0.000100633224,0.00010063305,20.000011,0.00011023325,0.00011022886,9.0535286e-05,0.03839531,0.038402695,0.0022370722,0.0025000002,0.0025000002,0.0025000002,0.0025000002,0.0025000002,0.0025000002,1.0,1.0,0.010000001,25
5427000,5275000,0.99999857,0.0008617105,0.0008710436,-0.0012047283,-0.002012224,0.002762611,-0.008625759,0.0,0.0,-0.00039619725,0.0012372048,0.0028491968,-0.0033286791,0.00336531,-0.008260646,0.010186823,0.0,0.0,0.0,0.0,0.0,0.0,0.0,0.0,0.0996038,0.00044939184,0.00044948226,0.00012311451,0.00021250203,0.00021241362,0.00016406858,0.000100980214,0.00010097992,20.000011,0.00011023159,0.0001102272,9.05354e-05,0.03839531,0.038402695,0.0022370731,0.0025000002,0.0025000002,0.0025000002,0.0025000002,0.0025000002,0.0025000002,1.0,1.0,0.010000001,25
5435000,5283000,0.9999985,0.0009933203,0.00083869876,-0.0011441547,-0.0033188276,0.0034524791,-0.009872425,0.0,0.0,-0.0004701931,0.0012374735,0.00284971,-0.0033286528,0.00336531,-0.008260646,0.010186823,0.0,0.0,0.0,0.0,0.0,0.0,0.0,0.0,0.09952981,0.00044969685,0.00044978684,0.0001248093,0.00023183059,0.00023173167,0.00017667854,0.000101199046,0.000101198675,20.000011,0.00011023068,0.00011022629,9.053546e-05,0.03839531,0.038402695,0.0022370736,0.0025000002,0.0025000002,0.0025000002,0.0025000002,0.0025000002,0.0025000002,1.0,1.0,0.010000001,25
5443000,5291000,0.99999845,0.0010563934,0.00084565964,-0.0011569842,-0.0030270943,0.004055681,-0.009244767,0.0,0.0,-0.00054665847,0.0012377228,0.0028495907,-0.0033286677,0.00336531,-0.008260646,0.010186823,0.0,0.0,0.0,0.0,0.0,0.0,0.0,0.0,0.099453345,0.00045001536,0.00045010485,0.00012651563,0.0002516363,0.0002515216,0.00018957783,0.000101452286,0.00010145181,20.000011,0.00011022971,0.00011022533,9.053552e-05,0.03839531,0.038402695,0.002237074,0.0025000002,0.0025000002,0.0025000002,0.0025000002,0.0025000002,0.0025000002,1.0,1.0,0.010000001,25
5451000,5299000,0.9999982,0.0012021158,0.00073019473,-0.0012935742,-0.001977423,0.0050979517,-0.009033831,0.0,0.0,-0.0006197648,0.0012381639,0.0028491502,-0.003328708,0.00336531,-0.008260646,0.010186823,0.0,0.0,0.0,0.0,0.0,0.0,0.0,0.0,0.09938024,0.00045034752,0.00045043658,0.00012823357,0.00027226398,0.00027212646,0.00020276816,0.00010174305,0.00010174245,20.000011,0.00011022869,0.00011022431,9.053558e-05,0.03839531,0.038402695,0.0022370745,0.0025000002,0.0025000002,0.0025000002,0.0025000002,0.0025000002,0.0025000002,1.0,1.0,0.010000001,25
5467000,5315000,0.99999833,0.0012090874,0.0007172622,-0.0011534981,0.00076338864,0.0053622536,-0.008712395,0.0,0.0,-0.00063570373,0.0012382835,0.0028479497,-0.003328784,0.00336531,-0.008260646,0.010186823,0.0,0.0,0.0,0.0,0.0,0.0,0.0,0.0,0.09923775,0.00045105247,0.00045114057,0.00013170418,0.0003158348,0.00031566026,0.00023000786,0.000102451006,0.000102450074,16.666676,0.00011022647,0.0001102221,9.0535694e-05,0.03839531,0.038402695,0.0022370755,0.0025000002,0.0025000002,0.0025000002,0.0025000002,0.0025000002,0.0025000002,1.0,1.0,0.010000001,25
5475000,5323000,0.9999983,0.0012724252,0.0006784687,-0.0011615745,0.001624912,0.006408043,-0.008361956,0.0,0.0,-0.00070399616,0.0012387616,0.002847559,-0.003328819,0.00336531,-0.008260646,0.010186823,0.0,0.0,0.0,0.0,0.0,0.0,0.0,0.0,0.099296,0.00045142518,0.00045151278,0.00013345684,0.0003387695,0.00033856917,0.00024406219,0.000102875434,0.00010287429,16.666676,0.00011022527,0.0001102209,9.053575e-05,0.03839531,0.038402695,0.002237076,0.0025000002,0.0025000002,0.0025000002,0.0025000002,0.0025000002,0.0025000002,1.0,1.0,0.010000001,25
5483000,5331000,0.99999815,0.001412036,0.0005889305,-0.0011591207,0.00062753964,0.008149754,-0.008557588,0.0,0.0,-0.0007716734,0.0012395674,0.0028480242,-0.0033288128,0.00336531,-0.008260646,0.010186823,0.0,0.0,0.0,0.0,0.0,0.0,0.0,0.0,0.09922833,0.0004518114,0.0004518985,0.0001352211,0.00036261862,0.0003623902,0.00025839635,0.0001033519,0.00010335051,16.666676,0.00011022401,0.00011021964,9.053581e-05,0.03839531,0.038402695,0.0022370764,0.0025000002,0.0025000002,0.0025000002,0.0025000002,0.0025000002,0.0025000002,1.0,1.0,0.010000001,25
5491000,5339000,0.99999815,0.0014862464,0.00056667643,-0.0011485355,0.0018862552,0.0091319475,-0.008724372,0.0,0.0,-0.0008407967,0.0012400359,0.0028474287,-0.0033288575,0.00336531,-0.008260646,0.010186823,0.0,0.0,0.0,0.0,0.0,0.0,0.0,0.0,0.0991592,0.0004522111,0.00045229765,0.00013699694,0.00038727303,0.0003870143,0.00027302818,0.00010388449,0.000103882805,16.666676,0.00011022269,0.000110218316,9.053587e-05,0.03839531,0.038402695,0.0022370769,0.0025000002,0.0025000002,0.0025000002,0.0025000002,0.0025000002,0.0025000002,1.0,1.0,0.010000001,25
5507000,5355000,0.99999845,0.0013867381,0.00068144273,-0.00087966997,0.0006911685,0.0071446206,-0.010242253,0.0,0.0,-488.05405,0.0012390651,0.002848006,-0.0033288037,0.00336531,-0.008260646,0.010186515,0.0,0.0,0.0,0.0,0.0,0.0,0.0,0.0,-487.95404,0.00045305098,0.00045313648,0.00014058342,0.0004393136,0.0004390473,0.00030309422,2.0,2.0,1.0,0.000110219844,0.00011021547,9.0535985e-05,0.03839531,0.038402695,0.0022370778,0.0025000002,0.0025000002,0.0025000002,0.0025000002,0.0025000002,0.0025000002,1.0,1.0,0.010000001,25
5515000,5363000,0.99999857,0.0013787645,0.0007858657,-0.000701937,0.0017633525,0.006174502,-0.009552731,0.0,0.0,-488.05414,0.0012385687,0.0028474538,-0.003328821,0.00336531,-0.008260646,0.010186536,0.0,0.0,0.0,0.0,0.0,0.0,0.0,0.0,-487.95413,0.00045349114,0.0004535761,0.00014239406,0.0004662712,0.00046599505,0.0003185712,2.0,2.0,1.0,0.000110218316,0.00011021395,9.053604e-05,0.03839531,0.038402695,0.0022370783,0.0025000002,0.0025000002,0.0025000002,0.0025000002,0.0025000002,0.0025000002,1.0,1.0,0.010000001,25
5523000,5371000,0.99999857,0.0014456941,0.00074396515,-0.00065283146,0.0021112198,0.0061177216,-0.008036035,0.0,0.0,-488.0542,0.0012385391,0.0028472694,-0.0033288295,0.00336531,-0.008260646,0.01018657,0.0,0.0,0.0,0.0,0.0,0.0,0.0,0.0,-487.9542,0.00045394467,0.0004540291,0.00014421628,0.00049387943,0.00049358665,0.00033433503,2.0,2.0,1.0,0.00011021672,0.00011021236,9.05361e-05,0.03839531,0.038402695,0.0022370787,0.0025000002,0.0025000002,0.0025000002,0.0025000002,0.0025000002,0.0025000002,1.0,1.0,0.010000001,25
5531000,5379000,0.9999985,0.0014724392,0.0007479984,-0.0006792629,0.0019125049,0.006316425,-0.007829782,0.0,0.0,-488.05426,0.0012386446,0.0028473756,-0.0033288265,0.00336531,-0.008260646,0.010186568,0.0,0.0,0.0,0.0,0.0,0.0,0.0,0.0,-487.95425,0.00045441173,0.0004544956,0.00014605012,0.000522679,0.0005223677,0.00035038198,2.0000002,2.0000002,1.0000002,0.000110215056,0.00011021069,9.053616e-05,0.03839531,0.038402695,0.0022370792,0.0025000002,0.0025000002,0.0025000002,0.0025000002,0.0025000002,0.0025000002,1.0,1.0,0.010000001,25
5547000,5395000,0.9999986,0.0014160869,0.0006615838,-0.0005681312,0.0015034883,0.0055141617,-0.0057255,0.0,0.0,-488.05438,0.0012381884,0.0028475984,-0.003328806,0.00336531,-0.008260646,0.010186441,0.0,0.0,0.0,0.0,0.0,0.0,0.0,0.0,-487.95438,0.0004553857,0.00045546851,0.00014975252,0.0005824505,0.0005821168,0.00038332836,2.0000012,2.0000012,1.0000007,0.000110211506,0.00011020714,9.0536276e-05,0.03839531,0.038402695,0.0022370801,0.0025000002,0.0025000002,0.0025000002,0.0025000002,0.0025000002,0.0025000002,1.0,1.0,0.010000001,25
5555000,5403000,0.9999987,0.0014032095,0.00064553967,-0.0005098715,0.0023123967,0.0054324297,-0.0060529225,0.0,0.0,-488.05444,0.0012381438,0.002847144,-0.0033288265,0.00336531,-0.008260646,0.010186521,0.0,0.0,0.0,0.0,0.0,0.0,0.0,0.0,-487.95444,0.00045589262,0.00045597486,0.00015162108,0.00061407406,0.0006137195,0.00040024222,2.0000017,2.0000017,1.000001,0.000110209614,0.000110205256,9.0536334e-05,0.03839531,0.038402695,0.0022370806,0.0025000002,0.0025000002,0.0025000002,0.0025000002,0.0025000002,0.0025000002,1.0,1.0,0.010000001,25
5563000,5411000,0.9999988,0.0013432864,0.00060759514,-0.0005698591,0.0024831316,0.0053813206,-0.0069156834,0.0,0.0,-488.0545,0.001238115,0.0028470468,-0.0033288302,0.00336531,-0.008260646,0.010186535,0.0,0.0,0.0,0.0,0.0,0.0,0.0,0.0,-487.9545,0.00045641276,0.0004564945,0.00015350121,0.0006467938,0.00064642023,0.00041743685,2.0000021,2.0000021,1.0000013,0.00011020765,0.00011020329,9.053639e-05,0.03839531,0.038402695,0.002237081,0.0025000002,0.0025000002,0.0025000002,0.0025000002,0.0025000002,0.0025000002,1.0,1.0,0.010000001,25
